{"last_updated":1729109381,"ttl":60,"version":"2.2","data":{"bikes":[{"bike_id":"60882861-bf8c-4d22-964f-ecff7d884ae5","system_id":"levelo_inurba_marseille","lat":43.24999,"lon":5.38928,"is_reserved":false,"is_disabled":false,"rental_uris":{"android":"levelo://app?vid=60882861-bf8c-4d22-964f-ecff7d884ae5","ios":"levelo://app?vid=60882861-bf8c-4d22-964f-ecff7d884ae5"},"vehicle_type_id":"4","last_reported":1729109382,"current_range_meters":39200,"station_id":"ce4bhgp2rcd13ifvqfd0","pricing_plan_id":"cebpf4jnsgd1na2vs0mg"},{"bike_id":"38af802b-0dd3-4001-8bdf-786db676d355","system_id":"levelo_inurba_marseille","lat":43.30553,"lon":5.37497,"is_reserved":false,"is_disabled":false,"rental_uris":{"android":"levelo://app?vid=38af802b-0dd3-4001-8bdf-786db676d355","ios":"levelo://app?vid=38af802b-0dd3-4001-8bdf-786db676d355"},"vehicle_type_id":"4","last_reported":1729109382,"current_range_meters":33600,"station_id":"","pricing_plan_id":"cebpf4jnsgd1na2vs0mg"},{"bike_id":"676ec6c4-6b42-43e0-81fe-327782965da5","system_id":"levelo_inurba_marseille","lat":43.337444,"lon":5.374475,"is_reserved":false,"is_disabled":false,"rental_uris":{"android":"levelo://app?vid=676ec6c4-6b42-43e0-81fe-327782965da5","ios":"levelo://app?vid=676ec6c4-6b42-43e0-81fe-327782965da5"},"vehicle_type_id":"4","last_reported":1729109382,"current_range_meters":19600,"station_id":"","pricing_plan_id":"cebpf4jnsgd1na2vs0mg"},{"bike_id":"cce24ea3-63e3-4be6-a5d1-cfd8ac0bfc4a","system_id":"levelo_inurba_marseille","lat":43.30649,"lon":5.40082,"is_reserved":false,"is_disabled":false,"rental_uris":{"android":"levelo://app?vid=cce24ea3-63e3-4be6-a5d1-cfd8ac0bfc4a","ios":"levelo://app?vid=cce24ea3-63e3-4be6-a5d1-cfd8ac0bfc4a"},"vehicle_type_id":"4","last_reported":1729109382,"current_range_meters":18800,"station_id":"ce4bh112rcd13ifvqda0","pricing_plan_id":"cebpf4jnsgd1na2vs0mg"},{"bike_id":"ee22ed23-b661-4149-8d5e-d3667e92dc0b","system_id":"levelo_inurba_marseille","lat":43.27494,"lon":5.4245,"is_reserved":false,"is_disabled":false,"rental_uris":{"android":"levelo://app?vid=ee22ed23-b661-4149-8d5e-d3667e92dc0b","ios":"levelo://app?vid=ee22ed23-b661-4149-8d5e-d3667e92dc0b"},"vehicle_type_id":"4","last_reported":1729109382,"current_range_meters":23200,"station_id":"ce4bhn92rcd13ifvqgrg","pricing_plan_id":"cebpf4jnsgd1na2vs0mg"},{"bike_id":"dd3efe9a-dbe5-4daa-a01e-43ca08fc9ead","system_id":"levelo_inurba_marseille","lat":43.30208,"lon":5.39465,"is_reserved":false,"is_disabled":false,"rental_uris":{"android":"levelo://app?vid=dd3efe9a-dbe5-4daa-a01e-43ca08fc9ead","ios":"levelo://app?vid=dd3efe9a-dbe5-4daa-a01e-43ca08fc9ead"},"vehicle_type_id":"4","last_reported":1729109382,"current_range_meters":36000,"station_id":"ce4bh0p2rcd13ifvqd70","pricing_plan_id":"cebpf4jnsgd1na2vs0mg"},{"bike_id":"62cee784-efb2-4c4e-802e-62fd36e87dde","system_id":"levelo_inurba_marseille","lat":43.26805,"lon":5.40272,"is_reserved":false,"is_disabled":false,"rental_uris":{"android":"levelo://app?vid=62cee784-efb2-4c4e-802e-62fd36e87dde","ios":"levelo://app?vid=62cee784-efb2-4c4e-802e-62fd36e87dde"},"vehicle_type_id":"4","last_reported":1729109382,"current_range_meters":25200,"station_id":"ce501612rcd8frsf0b60","pricing_plan_id":"cebpf4jnsgd1na2vs0mg"},{"bike_id":"554d19e6-749b-420f-9813-c734706992e3","system_id":"levelo_inurba_marseille","lat":43.28925,"lon":5.384,"is_reserved":false,"is_disabled":false,"rental_uris":{"android":"levelo://app?vid=554d19e6-749b-420f-9813-c734706992e3","ios":"levelo://app?vid=554d19e6-749b-420f-9813-c734706992e3"},"vehicle_type_id":"4","last_reported":1729109382,"current_range_meters":22400,"station_id":"ce4bh612rcd13ifvqe6g","pricing_plan_id":"cebpf4jnsgd1na2vs0mg"},{"bike_id":"f83a0960-764d-401e-8f85-af0f2486295e","system_id":"levelo_inurba_marseille","lat":43.25719,"lon":5.41116,"is_reserved":false,"is_disabled":false,"rental_uris":{"android":"levelo://app?vid=f83a0960-764d-401e-8f85-af0f2486295e","ios":"levelo://app?vid=f83a0960-764d-401e-8f85-af0f2486295e"},"vehicle_type_id":"4","last_reported":1729109382,"current_range_meters":24000,"station_id":"ce4bhkp2rcd13ifvqgd0","pricing_plan_id":"cebpf4jnsgd1na2vs0mg"},{"bike_id":"f883cfa2-9c75-4d93-9e83-a804c574fd24","system_id":"levelo_inurba_marseille","lat":43.33022,"lon":5.39043,"is_reserved":false,"is_disabled":false,"rental_uris":{"android":"levelo://app?vid=f883cfa2-9c75-4d93-9e83-a804c574fd24","ios":"levelo://app?vid=f883cfa2-9c75-4d93-9e83-a804c574fd24"},"vehicle_type_id":"4","last_reported":1729109382,"current_range_meters":24800,"station_id":"ce4bhr92rcd13ifvqhrg","pricing_plan_id":"cebpf4jnsgd1na2vs0mg"},{"bike_id":"6f397f1f-1468-45fd-9b40-a31e283da189","system_id":"levelo_inurba_marseille","lat":43.29408,"lon":5.3861,"is_reserved":false,"is_disabled":false,"rental_uris":{"android":"levelo://app?vid=6f397f1f-1468-45fd-9b40-a31e283da189","ios":"levelo://app?vid=6f397f1f-1468-45fd-9b40-a31e283da189"},"vehicle_type_id":"4","last_reported":1729109382,"current_range_meters":19600,"station_id":"ce4bh2h2rcd13ifvqdh0","pricing_plan_id":"cebpf4jnsgd1na2vs0mg"},{"bike_id":"abfd466b-610e-44c3-9217-ee7faeea784f","system_id":"levelo_inurba_marseille","lat":43.29525,"lon":5.38549,"is_reserved":false,"is_disabled":false,"rental_uris":{"android":"levelo://app?vid=abfd466b-610e-44c3-9217-ee7faeea784f","ios":"levelo://app?vid=abfd466b-610e-44c3-9217-ee7faeea784f"},"vehicle_type_id":"4","last_reported":1729109382,"current_range_meters":30400,"station_id":"ce4bgih2rcd13ifvqba0","pricing_plan_id":"cebpf4jnsgd1na2vs0mg"},{"bike_id":"8502c1f2-69fd-48a9-b68a-2e0b2281a283","system_id":"levelo_inurba_marseille","lat":43.2968,"lon":5.37292,"is_reserved":false,"is_disabled":false,"rental_uris":{"android":"levelo://app?vid=8502c1f2-69fd-48a9-b68a-2e0b2281a283","ios":"levelo://app?vid=8502c1f2-69fd-48a9-b68a-2e0b2281a283"},"vehicle_type_id":"4","last_reported":1729109382,"current_range_meters":39200,"station_id":"ce4bgk12rcd13ifvqbj0","pricing_plan_id":"cebpf4jnsgd1na2vs0mg"},{"bike_id":"042e5b40-9e97-45f4-843e-ff54af18e3a3","system_id":"levelo_inurba_marseille","lat":43.337444,"lon":5.374475,"is_reserved":false,"is_disabled":false,"rental_uris":{"android":"levelo://app?vid=042e5b40-9e97-45f4-843e-ff54af18e3a3","ios":"levelo://app?vid=042e5b40-9e97-45f4-843e-ff54af18e3a3"},"vehicle_type_id":"4","last_reported":1729109382,"current_range_meters":34800,"station_id":"","pricing_plan_id":"cebpf4jnsgd1na2vs0mg"},{"bike_id":"d25e3192-c141-44fa-83a9-f7ae7b4adfc7","system_id":"levelo_inurba_marseille","lat":43.23185,"lon":5.39981,"is_reserved":false,"is_disabled":false,"rental_uris":{"android":"levelo://app?vid=d25e3192-c141-44fa-83a9-f7ae7b4adfc7","ios":"levelo://app?vid=d25e3192-c141-44fa-83a9-f7ae7b4adfc7"},"vehicle_type_id":"4","last_reported":1729109382,"current_range_meters":38800,"station_id":"ce4bhn12rcd13ifvqgqg","pricing_plan_id":"cebpf4jnsgd1na2vs0mg"},{"bike_id":"3c59fb88-5179-44f9-a953-832c4045a9c5","system_id":"levelo_inurba_marseille","lat":43.30938,"lon":5.40142,"is_reserved":false,"is_disabled":false,"rental_uris":{"android":"levelo://app?vid=3c59fb88-5179-44f9-a953-832c4045a9c5","ios":"levelo://app?vid=3c59fb88-5179-44f9-a953-832c4045a9c5"},"vehicle_type_id":"4","last_reported":1729109382,"current_range_meters":10800,"station_id":"ce4bgvp2rcd13ifvqct0","pricing_plan_id":"cebpf4jnsgd1na2vs0mg"},{"bike_id":"9b57a733-ce7f-4bc3-a164-005f5b251f43","system_id":"levelo_inurba_marseille","lat":43.29001,"lon":5.35614,"is_reserved":false,"is_disabled":false,"rental_uris":{"android":"levelo://app?vid=9b57a733-ce7f-4bc3-a164-005f5b251f43","ios":"levelo://app?vid=9b57a733-ce7f-4bc3-a164-005f5b251f43"},"vehicle_type_id":"4","last_reported":1729109382,"current_range_meters":16400,"station_id":"ce4bhb92rcd13ifvqen0","pricing_plan_id":"cebpf4jnsgd1na2vs0mg"},{"bike_id":"b1b60781-1f61-4f02-bc26-c0542080d31e","system_id":"levelo_inurba_marseille","lat":43.30934,"lon":5.40143,"is_reserved":false,"is_disabled":false,"rental_uris":{"android":"levelo://app?vid=b1b60781-1f61-4f02-bc26-c0542080d31e","ios":"levelo://app?vid=b1b60781-1f61-4f02-bc26-c0542080d31e"},"vehicle_type_id":"4","last_reported":1729109382,"current_range_meters":30800,"station_id":"ce4bgvp2rcd13ifvqct0","pricing_plan_id":"cebpf4jnsgd1na2vs0mg"},{"bike_id":"d431d213-4458-42c1-99e7-f7fc65d44d06","system_id":"levelo_inurba_marseille","lat":43.28573,"lon":5.39504,"is_reserved":false,"is_disabled":false,"rental_uris":{"android":"levelo://app?vid=d431d213-4458-42c1-99e7-f7fc65d44d06","ios":"levelo://app?vid=d431d213-4458-42c1-99e7-f7fc65d44d06"},"vehicle_type_id":"4","last_reported":1729109382,"current_range_meters":22400,"station_id":"ce4bh292rcd13ifvqdg0","pricing_plan_id":"cebpf4jnsgd1na2vs0mg"},{"bike_id":"e0ba7378-4139-4f45-a9e6-4d17e46e0da7","system_id":"levelo_inurba_marseille","lat":43.27987,"lon":5.40013,"is_reserved":false,"is_disabled":false,"rental_uris":{"android":"levelo://app?vid=e0ba7378-4139-4f45-a9e6-4d17e46e0da7","ios":"levelo://app?vid=e0ba7378-4139-4f45-a9e6-4d17e46e0da7"},"vehicle_type_id":"4","last_reported":1729109382,"current_range_meters":29600,"station_id":"ce4bho92rcd13ifvqh4g","pricing_plan_id":"cebpf4jnsgd1na2vs0mg"},{"bike_id":"3d0ee87b-66fb-488e-b5d3-c5b0d406322c","system_id":"levelo_inurba_marseille","lat":43.24516,"lon":5.42856,"is_reserved":false,"is_disabled":false,"rental_uris":{"android":"levelo://app?vid=3d0ee87b-66fb-488e-b5d3-c5b0d406322c","ios":"levelo://app?vid=3d0ee87b-66fb-488e-b5d3-c5b0d406322c"},"vehicle_type_id":"4","last_reported":1729109382,"current_range_meters":38800,"station_id":"","pricing_plan_id":"cebpf4jnsgd1na2vs0mg"},{"bike_id":"53d2bb38-9103-4a7e-a947-e42e7bdcfb9a","system_id":"levelo_inurba_marseille","lat":43.31115,"lon":5.37763,"is_reserved":false,"is_disabled":false,"rental_uris":{"android":"levelo://app?vid=53d2bb38-9103-4a7e-a947-e42e7bdcfb9a","ios":"levelo://app?vid=53d2bb38-9103-4a7e-a947-e42e7bdcfb9a"},"vehicle_type_id":"4","last_reported":1729109382,"current_range_meters":12000,"station_id":"ce4bgt92rcd13ifvqcg0","pricing_plan_id":"cebpf4jnsgd1na2vs0mg"},{"bike_id":"784c30fb-a546-4e03-ab5e-2c82ce3261b8","system_id":"levelo_inurba_marseille","lat":43.28935,"lon":5.36397,"is_reserved":false,"is_disabled":false,"rental_uris":{"android":"levelo://app?vid=784c30fb-a546-4e03-ab5e-2c82ce3261b8","ios":"levelo://app?vid=784c30fb-a546-4e03-ab5e-2c82ce3261b8"},"vehicle_type_id":"4","last_reported":1729109382,"current_range_meters":18000,"station_id":"ce4bhc92rcd13ifvqetg","pricing_plan_id":"cebpf4jnsgd1na2vs0mg"},{"bike_id":"851bada0-f0f3-427a-91b9-2220a922230e","system_id":"levelo_inurba_marseille","lat":43.31541,"lon":5.38022,"is_reserved":false,"is_disabled":false,"rental_uris":{"android":"levelo://app?vid=851bada0-f0f3-427a-91b9-2220a922230e","ios":"levelo://app?vid=851bada0-f0f3-427a-91b9-2220a922230e"},"vehicle_type_id":"4","last_reported":1729109382,"current_range_meters":28400,"station_id":"ce4bhsp2rcd13ifvqi50","pricing_plan_id":"cebpf4jnsgd1na2vs0mg"},{"bike_id":"3dc356f7-90e7-4cf9-bd0a-5d7b3536d942","system_id":"levelo_inurba_marseille","lat":43.2987,"lon":5.3766,"is_reserved":false,"is_disabled":false,"rental_uris":{"android":"levelo://app?vid=3dc356f7-90e7-4cf9-bd0a-5d7b3536d942","ios":"levelo://app?vid=3dc356f7-90e7-4cf9-bd0a-5d7b3536d942"},"vehicle_type_id":"4","last_reported":1729109382,"current_range_meters":27200,"station_id":"","pricing_plan_id":"cebpf4jnsgd1na2vs0mg"},{"bike_id":"6cd899d8-1f88-459f-b491-3f17e4af5020","system_id":"levelo_inurba_marseille","lat":43.24073,"lon":5.37758,"is_reserved":false,"is_disabled":false,"rental_uris":{"android":"levelo://app?vid=6cd899d8-1f88-459f-b491-3f17e4af5020","ios":"levelo://app?vid=6cd899d8-1f88-459f-b491-3f17e4af5020"},"vehicle_type_id":"4","last_reported":1729109382,"current_range_meters":27200,"station_id":"ce4bhnp2rcd13ifvqgvg","pricing_plan_id":"cebpf4jnsgd1na2vs0mg"},{"bike_id":"5bf1fbcd-3b04-4ff9-98d0-4c591b143bd0","system_id":"levelo_inurba_marseille","lat":43.25087,"lon":5.39524,"is_reserved":false,"is_disabled":false,"rental_uris":{"android":"levelo://app?vid=5bf1fbcd-3b04-4ff9-98d0-4c591b143bd0","ios":"levelo://app?vid=5bf1fbcd-3b04-4ff9-98d0-4c591b143bd0"},"vehicle_type_id":"4","last_reported":1729109382,"current_range_meters":4400,"station_id":"ce4bhm12rcd13ifvqgkg","pricing_plan_id":"cebpf4jnsgd1na2vs0mg"},{"bike_id":"786307c4-e27e-45ca-9e78-15b721f519ac","system_id":"levelo_inurba_marseille","lat":43.30084,"lon":5.39095,"is_reserved":false,"is_disabled":false,"rental_uris":{"android":"levelo://app?vid=786307c4-e27e-45ca-9e78-15b721f519ac","ios":"levelo://app?vid=786307c4-e27e-45ca-9e78-15b721f519ac"},"vehicle_type_id":"4","last_reported":1729109382,"current_range_meters":38800,"station_id":"ce4bh192rcd13ifvqdb0","pricing_plan_id":"cebpf4jnsgd1na2vs0mg"},{"bike_id":"1e4e45ed-1179-4c88-8175-496bdb416ad1","system_id":"levelo_inurba_marseille","lat":43.29603,"lon":5.37715,"is_reserved":false,"is_disabled":false,"rental_uris":{"android":"levelo://app?vid=1e4e45ed-1179-4c88-8175-496bdb416ad1","ios":"levelo://app?vid=1e4e45ed-1179-4c88-8175-496bdb416ad1"},"vehicle_type_id":"4","last_reported":1729109382,"current_range_meters":8800,"station_id":"ce4bgi92rcd13ifvqb90","pricing_plan_id":"cebpf4jnsgd1na2vs0mg"},{"bike_id":"12a0ce46-2b5b-482a-baf5-be50baa26765","system_id":"levelo_inurba_marseille","lat":43.28155,"lon":5.42638,"is_reserved":false,"is_disabled":false,"rental_uris":{"android":"levelo://app?vid=12a0ce46-2b5b-482a-baf5-be50baa26765","ios":"levelo://app?vid=12a0ce46-2b5b-482a-baf5-be50baa26765"},"vehicle_type_id":"4","last_reported":1729109382,"current_range_meters":32800,"station_id":"ce4bhnh2rcd13ifvqgug","pricing_plan_id":"cebpf4jnsgd1na2vs0mg"},{"bike_id":"572ed7b0-691c-497d-9a19-61e65acf0f2d","system_id":"levelo_inurba_marseille","lat":43.25117,"lon":5.40317,"is_reserved":false,"is_disabled":false,"rental_uris":{"android":"levelo://app?vid=572ed7b0-691c-497d-9a19-61e65acf0f2d","ios":"levelo://app?vid=572ed7b0-691c-497d-9a19-61e65acf0f2d"},"vehicle_type_id":"4","last_reported":1729109382,"current_range_meters":12000,"station_id":"ce4bhlh2rcd13ifvqgig","pricing_plan_id":"cebpf4jnsgd1na2vs0mg"},{"bike_id":"caa50f4a-17a8-4d51-8772-27afd11b3a71","system_id":"levelo_inurba_marseille","lat":43.27569,"lon":5.38423,"is_reserved":false,"is_disabled":false,"rental_uris":{"android":"levelo://app?vid=caa50f4a-17a8-4d51-8772-27afd11b3a71","ios":"levelo://app?vid=caa50f4a-17a8-4d51-8772-27afd11b3a71"},"vehicle_type_id":"4","last_reported":1729109382,"current_range_meters":25600,"station_id":"ce4bhh92rcd13ifvqfi0","pricing_plan_id":"cebpf4jnsgd1na2vs0mg"},{"bike_id":"a483ad01-938b-404a-8c8b-94a8c310fd50","system_id":"levelo_inurba_marseille","lat":43.30914,"lon":5.36849,"is_reserved":false,"is_disabled":false,"rental_uris":{"android":"levelo://app?vid=a483ad01-938b-404a-8c8b-94a8c310fd50","ios":"levelo://app?vid=a483ad01-938b-404a-8c8b-94a8c310fd50"},"vehicle_type_id":"4","last_reported":1729109382,"current_range_meters":33600,"station_id":"ce4bgn92rcd13ifvqbvg","pricing_plan_id":"cebpf4jnsgd1na2vs0mg"},{"bike_id":"b1d64002-26eb-4072-90da-6559d253294d","system_id":"levelo_inurba_marseille","lat":43.28657,"lon":5.3635,"is_reserved":false,"is_disabled":false,"rental_uris":{"android":"levelo://app?vid=b1d64002-26eb-4072-90da-6559d253294d","ios":"levelo://app?vid=b1d64002-26eb-4072-90da-6559d253294d"},"vehicle_type_id":"4","last_reported":1729109382,"current_range_meters":20800,"station_id":"ce4bhah2rcd13ifvqej0","pricing_plan_id":"cebpf4jnsgd1na2vs0mg"},{"bike_id":"089f87ea-c59c-4f0b-9906-5bc1eacfe1ca","system_id":"levelo_inurba_marseille","lat":43.29431,"lon":5.39752,"is_reserved":false,"is_disabled":false,"rental_uris":{"android":"levelo://app?vid=089f87ea-c59c-4f0b-9906-5bc1eacfe1ca","ios":"levelo://app?vid=089f87ea-c59c-4f0b-9906-5bc1eacfe1ca"},"vehicle_type_id":"4","last_reported":1729109382,"current_range_meters":7200,"station_id":"ce4bh3h2rcd13ifvqdo0","pricing_plan_id":"cebpf4jnsgd1na2vs0mg"},{"bike_id":"05545084-0c06-4cb7-bb4b-6c510970601e","system_id":"levelo_inurba_marseille","lat":43.31105,"lon":5.37773,"is_reserved":false,"is_disabled":false,"rental_uris":{"android":"levelo://app?vid=05545084-0c06-4cb7-bb4b-6c510970601e","ios":"levelo://app?vid=05545084-0c06-4cb7-bb4b-6c510970601e"},"vehicle_type_id":"4","last_reported":1729109382,"current_range_meters":39200,"station_id":"ce4bgt92rcd13ifvqcg0","pricing_plan_id":"cebpf4jnsgd1na2vs0mg"},{"bike_id":"d3e02234-2473-432a-89ac-358e423cfef9","system_id":"levelo_inurba_marseille","lat":43.28653,"lon":5.36351,"is_reserved":false,"is_disabled":false,"rental_uris":{"android":"levelo://app?vid=d3e02234-2473-432a-89ac-358e423cfef9","ios":"levelo://app?vid=d3e02234-2473-432a-89ac-358e423cfef9"},"vehicle_type_id":"4","last_reported":1729109382,"current_range_meters":13600,"station_id":"ce4bhah2rcd13ifvqej0","pricing_plan_id":"cebpf4jnsgd1na2vs0mg"},{"bike_id":"a36dac08-0b0b-452f-a166-ec01ee952ec0","system_id":"levelo_inurba_marseille","lat":43.28471,"lon":5.38416,"is_reserved":false,"is_disabled":false,"rental_uris":{"android":"levelo://app?vid=a36dac08-0b0b-452f-a166-ec01ee952ec0","ios":"levelo://app?vid=a36dac08-0b0b-452f-a166-ec01ee952ec0"},"vehicle_type_id":"4","last_reported":1729109382,"current_range_meters":6800,"station_id":"ce4bh512rcd13ifvqe3g","pricing_plan_id":"cebpf4jnsgd1na2vs0mg"},{"bike_id":"6550a6b0-b0f9-43c4-87b3-d418129f3b71","system_id":"levelo_inurba_marseille","lat":43.26066,"lon":5.39396,"is_reserved":false,"is_disabled":false,"rental_uris":{"android":"levelo://app?vid=6550a6b0-b0f9-43c4-87b3-d418129f3b71","ios":"levelo://app?vid=6550a6b0-b0f9-43c4-87b3-d418129f3b71"},"vehicle_type_id":"4","last_reported":1729109382,"current_range_meters":28400,"station_id":"ce4bhh92rcd13ifvqfj0","pricing_plan_id":"cebpf4jnsgd1na2vs0mg"},{"bike_id":"64b71643-e372-460a-9970-b02eb97ef46c","system_id":"levelo_inurba_marseille","lat":43.2998,"lon":5.37166,"is_reserved":false,"is_disabled":false,"rental_uris":{"android":"levelo://app?vid=64b71643-e372-460a-9970-b02eb97ef46c","ios":"levelo://app?vid=64b71643-e372-460a-9970-b02eb97ef46c"},"vehicle_type_id":"4","last_reported":1729109382,"current_range_meters":4000,"station_id":"ce4bgr92rcd13ifvqc7g","pricing_plan_id":"cebpf4jnsgd1na2vs0mg"},{"bike_id":"bdb4f070-8bae-407b-bc70-9ee3db878f96","system_id":"levelo_inurba_marseille","lat":43.24667,"lon":5.38157,"is_reserved":false,"is_disabled":false,"rental_uris":{"android":"levelo://app?vid=bdb4f070-8bae-407b-bc70-9ee3db878f96","ios":"levelo://app?vid=bdb4f070-8bae-407b-bc70-9ee3db878f96"},"vehicle_type_id":"4","last_reported":1729109382,"current_range_meters":23200,"station_id":"ce4bhih2rcd13ifvqfr0","pricing_plan_id":"cebpf4jnsgd1na2vs0mg"},{"bike_id":"a6b4578e-3cab-4bcb-ae84-333753b03084","system_id":"levelo_inurba_marseille","lat":43.2318,"lon":5.39989,"is_reserved":false,"is_disabled":false,"rental_uris":{"android":"levelo://app?vid=a6b4578e-3cab-4bcb-ae84-333753b03084","ios":"levelo://app?vid=a6b4578e-3cab-4bcb-ae84-333753b03084"},"vehicle_type_id":"4","last_reported":1729109382,"current_range_meters":38400,"station_id":"ce4bhn12rcd13ifvqgqg","pricing_plan_id":"cebpf4jnsgd1na2vs0mg"},{"bike_id":"23da4d1b-2724-419e-9595-7d025bb5d81c","system_id":"levelo_inurba_marseille","lat":43.292236,"lon":5.360488,"is_reserved":false,"is_disabled":false,"rental_uris":{"android":"levelo://app?vid=23da4d1b-2724-419e-9595-7d025bb5d81c","ios":"levelo://app?vid=23da4d1b-2724-419e-9595-7d025bb5d81c"},"vehicle_type_id":"4","last_reported":1729109382,"current_range_meters":30000,"station_id":"ce4bhbh2rcd13ifvqeqg","pricing_plan_id":"cebpf4jnsgd1na2vs0mg"},{"bike_id":"8e8d46c3-6a96-480e-b7fd-bc578daaaec6","system_id":"levelo_inurba_marseille","lat":43.30934,"lon":5.40146,"is_reserved":false,"is_disabled":false,"rental_uris":{"android":"levelo://app?vid=8e8d46c3-6a96-480e-b7fd-bc578daaaec6","ios":"levelo://app?vid=8e8d46c3-6a96-480e-b7fd-bc578daaaec6"},"vehicle_type_id":"4","last_reported":1729109382,"current_range_meters":9600,"station_id":"ce4bgvp2rcd13ifvqct0","pricing_plan_id":"cebpf4jnsgd1na2vs0mg"},{"bike_id":"6c0cb852-8a6d-4147-92b5-d0bcf163ea0b","system_id":"levelo_inurba_marseille","lat":43.26197,"lon":5.37932,"is_reserved":false,"is_disabled":false,"rental_uris":{"android":"levelo://app?vid=6c0cb852-8a6d-4147-92b5-d0bcf163ea0b","ios":"levelo://app?vid=6c0cb852-8a6d-4147-92b5-d0bcf163ea0b"},"vehicle_type_id":"4","last_reported":1729109382,"current_range_meters":38000,"station_id":"ce4bhjp2rcd13ifvqg90","pricing_plan_id":"cebpf4jnsgd1na2vs0mg"},{"bike_id":"c878f81f-7762-4176-9e63-37e6823eac5d","system_id":"levelo_inurba_marseille","lat":43.28437,"lon":5.39182,"is_reserved":false,"is_disabled":false,"rental_uris":{"android":"levelo://app?vid=c878f81f-7762-4176-9e63-37e6823eac5d","ios":"levelo://app?vid=c878f81f-7762-4176-9e63-37e6823eac5d"},"vehicle_type_id":"4","last_reported":1729109382,"current_range_meters":38800,"station_id":"ce4bhoh2rcd13ifvqh5g","pricing_plan_id":"cebpf4jnsgd1na2vs0mg"},{"bike_id":"faafdf6c-f564-4ef6-b6e1-54989b90e65d","system_id":"levelo_inurba_marseille","lat":43.31173,"lon":5.38715,"is_reserved":false,"is_disabled":false,"rental_uris":{"android":"levelo://app?vid=faafdf6c-f564-4ef6-b6e1-54989b90e65d","ios":"levelo://app?vid=faafdf6c-f564-4ef6-b6e1-54989b90e65d"},"vehicle_type_id":"4","last_reported":1729109382,"current_range_meters":38800,"station_id":"ce4bgv12rcd13ifvqcp0","pricing_plan_id":"cebpf4jnsgd1na2vs0mg"},{"bike_id":"51218d5a-a4cd-42ed-8091-20b8f3a2d0ca","system_id":"levelo_inurba_marseille","lat":43.28845,"lon":5.3584,"is_reserved":false,"is_disabled":false,"rental_uris":{"android":"levelo://app?vid=51218d5a-a4cd-42ed-8091-20b8f3a2d0ca","ios":"levelo://app?vid=51218d5a-a4cd-42ed-8091-20b8f3a2d0ca"},"vehicle_type_id":"4","last_reported":1729109382,"current_range_meters":16800,"station_id":"ce4bhb12rcd13ifvqem0","pricing_plan_id":"cebpf4jnsgd1na2vs0mg"},{"bike_id":"af7f2d64-17dc-42fb-a98b-46080d1d96a1","system_id":"levelo_inurba_marseille","lat":43.25724,"lon":5.41107,"is_reserved":false,"is_disabled":false,"rental_uris":{"android":"levelo://app?vid=af7f2d64-17dc-42fb-a98b-46080d1d96a1","ios":"levelo://app?vid=af7f2d64-17dc-42fb-a98b-46080d1d96a1"},"vehicle_type_id":"4","last_reported":1729109382,"current_range_meters":22000,"station_id":"ce4bhkp2rcd13ifvqgd0","pricing_plan_id":"cebpf4jnsgd1na2vs0mg"},{"bike_id":"eb2975e6-751f-46f3-9f1c-bba14fd6b1d4","system_id":"levelo_inurba_marseille","lat":43.31164,"lon":5.38716,"is_reserved":false,"is_disabled":false,"rental_uris":{"android":"levelo://app?vid=eb2975e6-751f-46f3-9f1c-bba14fd6b1d4","ios":"levelo://app?vid=eb2975e6-751f-46f3-9f1c-bba14fd6b1d4"},"vehicle_type_id":"4","last_reported":1729109382,"current_range_meters":15200,"station_id":"ce4bgv12rcd13ifvqcp0","pricing_plan_id":"cebpf4jnsgd1na2vs0mg"},{"bike_id":"7a9be34a-ce36-4e48-8d91-c59d6fd74489","system_id":"levelo_inurba_marseille","lat":43.29535,"lon":5.39395,"is_reserved":false,"is_disabled":false,"rental_uris":{"android":"levelo://app?vid=7a9be34a-ce36-4e48-8d91-c59d6fd74489","ios":"levelo://app?vid=7a9be34a-ce36-4e48-8d91-c59d6fd74489"},"vehicle_type_id":"4","last_reported":1729109382,"current_range_meters":4800,"station_id":"ce4bh292rcd13ifvqdf0","pricing_plan_id":"cebpf4jnsgd1na2vs0mg"},{"bike_id":"90263e99-d5aa-44b8-a4c8-0353aa3b308c","system_id":"levelo_inurba_marseille","lat":43.23066,"lon":5.35495,"is_reserved":false,"is_disabled":false,"rental_uris":{"android":"levelo://app?vid=90263e99-d5aa-44b8-a4c8-0353aa3b308c","ios":"levelo://app?vid=90263e99-d5aa-44b8-a4c8-0353aa3b308c"},"vehicle_type_id":"4","last_reported":1729109382,"current_range_meters":12400,"station_id":"cpo3342slgdg3j2ifvpg","pricing_plan_id":"cebpf4jnsgd1na2vs0mg"},{"bike_id":"d3457713-0e8e-4bee-ae6b-c4b8b36e8262","system_id":"levelo_inurba_marseille","lat":43.31991,"lon":5.3816,"is_reserved":false,"is_disabled":false,"rental_uris":{"android":"levelo://app?vid=d3457713-0e8e-4bee-ae6b-c4b8b36e8262","ios":"levelo://app?vid=d3457713-0e8e-4bee-ae6b-c4b8b36e8262"},"vehicle_type_id":"4","last_reported":1729109382,"current_range_meters":38800,"station_id":"ce4bhr12rcd13ifvqhpg","pricing_plan_id":"cebpf4jnsgd1na2vs0mg"},{"bike_id":"e3d26360-69b8-45a4-a2b5-3e67b3b2f3cf","system_id":"levelo_inurba_marseille","lat":43.27174,"lon":5.40996,"is_reserved":false,"is_disabled":false,"rental_uris":{"android":"levelo://app?vid=e3d26360-69b8-45a4-a2b5-3e67b3b2f3cf","ios":"levelo://app?vid=e3d26360-69b8-45a4-a2b5-3e67b3b2f3cf"},"vehicle_type_id":"4","last_reported":1729109382,"current_range_meters":37600,"station_id":"ce4bhl12rcd13ifvqgf0","pricing_plan_id":"cebpf4jnsgd1na2vs0mg"},{"bike_id":"7db0ec6d-085c-4813-b3f7-84036c3560ec","system_id":"levelo_inurba_marseille","lat":43.28578,"lon":5.39502,"is_reserved":false,"is_disabled":false,"rental_uris":{"android":"levelo://app?vid=7db0ec6d-085c-4813-b3f7-84036c3560ec","ios":"levelo://app?vid=7db0ec6d-085c-4813-b3f7-84036c3560ec"},"vehicle_type_id":"4","last_reported":1729109382,"current_range_meters":12000,"station_id":"ce4bh292rcd13ifvqdg0","pricing_plan_id":"cebpf4jnsgd1na2vs0mg"},{"bike_id":"f02abbd0-cc87-4277-bd16-1aca087f70c4","system_id":"levelo_inurba_marseille","lat":43.29247,"lon":5.40914,"is_reserved":false,"is_disabled":false,"rental_uris":{"android":"levelo://app?vid=f02abbd0-cc87-4277-bd16-1aca087f70c4","ios":"levelo://app?vid=f02abbd0-cc87-4277-bd16-1aca087f70c4"},"vehicle_type_id":"4","last_reported":1729109382,"current_range_meters":12000,"station_id":"ce4bh192rcd13ifvqdc0","pricing_plan_id":"cebpf4jnsgd1na2vs0mg"},{"bike_id":"5c2cfb13-edac-496c-adc8-94d8db43ca97","system_id":"levelo_inurba_marseille","lat":43.29034,"lon":5.35916,"is_reserved":false,"is_disabled":false,"rental_uris":{"android":"levelo://app?vid=5c2cfb13-edac-496c-adc8-94d8db43ca97","ios":"levelo://app?vid=5c2cfb13-edac-496c-adc8-94d8db43ca97"},"vehicle_type_id":"4","last_reported":1729109382,"current_range_meters":38800,"station_id":"ce4bha92rcd13ifvqeg0","pricing_plan_id":"cebpf4jnsgd1na2vs0mg"},{"bike_id":"c6f809fa-8d36-4454-89b4-b91ca27091bf","system_id":"levelo_inurba_marseille","lat":43.2847,"lon":5.38424,"is_reserved":false,"is_disabled":false,"rental_uris":{"android":"levelo://app?vid=c6f809fa-8d36-4454-89b4-b91ca27091bf","ios":"levelo://app?vid=c6f809fa-8d36-4454-89b4-b91ca27091bf"},"vehicle_type_id":"4","last_reported":1729109382,"current_range_meters":38400,"station_id":"ce4bh512rcd13ifvqe3g","pricing_plan_id":"cebpf4jnsgd1na2vs0mg"},{"bike_id":"1673285f-7e64-40ac-9ddf-ea3babe0032a","system_id":"levelo_inurba_marseille","lat":43.28606,"lon":5.35104,"is_reserved":false,"is_disabled":false,"rental_uris":{"android":"levelo://app?vid=1673285f-7e64-40ac-9ddf-ea3babe0032a","ios":"levelo://app?vid=1673285f-7e64-40ac-9ddf-ea3babe0032a"},"vehicle_type_id":"4","last_reported":1729109382,"current_range_meters":38800,"station_id":"ce4bhch2rcd13ifvqeug","pricing_plan_id":"cebpf4jnsgd1na2vs0mg"},{"bike_id":"36907270-6ff1-4379-ae39-7f6f0ed482a3","system_id":"levelo_inurba_marseille","lat":43.28655,"lon":5.3635,"is_reserved":false,"is_disabled":false,"rental_uris":{"android":"levelo://app?vid=36907270-6ff1-4379-ae39-7f6f0ed482a3","ios":"levelo://app?vid=36907270-6ff1-4379-ae39-7f6f0ed482a3"},"vehicle_type_id":"4","last_reported":1729109382,"current_range_meters":24800,"station_id":"ce4bhah2rcd13ifvqej0","pricing_plan_id":"cebpf4jnsgd1na2vs0mg"},{"bike_id":"25ccf4cb-0893-407f-9a71-8b580dad0ec6","system_id":"levelo_inurba_marseille","lat":43.2849,"lon":5.38555,"is_reserved":false,"is_disabled":false,"rental_uris":{"android":"levelo://app?vid=25ccf4cb-0893-407f-9a71-8b580dad0ec6","ios":"levelo://app?vid=25ccf4cb-0893-407f-9a71-8b580dad0ec6"},"vehicle_type_id":"4","last_reported":1729109382,"current_range_meters":27600,"station_id":"ce4bh8p2rcd13ifvqeb0","pricing_plan_id":"cebpf4jnsgd1na2vs0mg"},{"bike_id":"1ac934dc-7eba-4c90-8cce-fb3e7425e98d","system_id":"levelo_inurba_marseille","lat":43.307462,"lon":5.37573,"is_reserved":false,"is_disabled":false,"rental_uris":{"android":"levelo://app?vid=1ac934dc-7eba-4c90-8cce-fb3e7425e98d","ios":"levelo://app?vid=1ac934dc-7eba-4c90-8cce-fb3e7425e98d"},"vehicle_type_id":"4","last_reported":1729109382,"current_range_meters":11600,"station_id":"ce4bgv92rcd13ifvqcq0","pricing_plan_id":"cebpf4jnsgd1na2vs0mg"},{"bike_id":"b5b99623-414d-4eb1-b427-c0178ad49012","system_id":"levelo_inurba_marseille","lat":43.25717,"lon":5.41115,"is_reserved":false,"is_disabled":false,"rental_uris":{"android":"levelo://app?vid=b5b99623-414d-4eb1-b427-c0178ad49012","ios":"levelo://app?vid=b5b99623-414d-4eb1-b427-c0178ad49012"},"vehicle_type_id":"4","last_reported":1729109382,"current_range_meters":33600,"station_id":"ce4bhkp2rcd13ifvqgd0","pricing_plan_id":"cebpf4jnsgd1na2vs0mg"},{"bike_id":"8a2124ac-5422-4960-bd68-1bcb8591b5b6","system_id":"levelo_inurba_marseille","lat":43.24669,"lon":5.38172,"is_reserved":false,"is_disabled":false,"rental_uris":{"android":"levelo://app?vid=8a2124ac-5422-4960-bd68-1bcb8591b5b6","ios":"levelo://app?vid=8a2124ac-5422-4960-bd68-1bcb8591b5b6"},"vehicle_type_id":"4","last_reported":1729109382,"current_range_meters":31200,"station_id":"ce4bhih2rcd13ifvqfr0","pricing_plan_id":"cebpf4jnsgd1na2vs0mg"},{"bike_id":"fa7bbdc9-afbe-404d-8676-647037cc76a9","system_id":"levelo_inurba_marseille","lat":43.23192,"lon":5.35552,"is_reserved":false,"is_disabled":false,"rental_uris":{"android":"levelo://app?vid=fa7bbdc9-afbe-404d-8676-647037cc76a9","ios":"levelo://app?vid=fa7bbdc9-afbe-404d-8676-647037cc76a9"},"vehicle_type_id":"4","last_reported":1729109382,"current_range_meters":37600,"station_id":"ce4bhu92rcd13ifvqi70","pricing_plan_id":"cebpf4jnsgd1na2vs0mg"},{"bike_id":"931ad2f4-35ea-42b5-bc1a-1fdec477398a","system_id":"levelo_inurba_marseille","lat":43.337444,"lon":5.374475,"is_reserved":false,"is_disabled":false,"rental_uris":{"android":"levelo://app?vid=931ad2f4-35ea-42b5-bc1a-1fdec477398a","ios":"levelo://app?vid=931ad2f4-35ea-42b5-bc1a-1fdec477398a"},"vehicle_type_id":"4","last_reported":1729109382,"current_range_meters":36800,"station_id":"","pricing_plan_id":"cebpf4jnsgd1na2vs0mg"},{"bike_id":"7a0f9ac1-abf0-49e2-a66b-75dc45f5b253","system_id":"levelo_inurba_marseille","lat":43.32049,"lon":5.41535,"is_reserved":false,"is_disabled":false,"rental_uris":{"android":"levelo://app?vid=7a0f9ac1-abf0-49e2-a66b-75dc45f5b253","ios":"levelo://app?vid=7a0f9ac1-abf0-49e2-a66b-75dc45f5b253"},"vehicle_type_id":"4","last_reported":1729109382,"current_range_meters":38800,"station_id":"ce4bhq92rcd13ifvqhkg","pricing_plan_id":"cebpf4jnsgd1na2vs0mg"},{"bike_id":"90791e2b-4eb6-403e-8b60-6cfdc5994899","system_id":"levelo_inurba_marseille","lat":43.31164,"lon":5.38715,"is_reserved":false,"is_disabled":false,"rental_uris":{"android":"levelo://app?vid=90791e2b-4eb6-403e-8b60-6cfdc5994899","ios":"levelo://app?vid=90791e2b-4eb6-403e-8b60-6cfdc5994899"},"vehicle_type_id":"4","last_reported":1729109382,"current_range_meters":31200,"station_id":"ce4bgv12rcd13ifvqcp0","pricing_plan_id":"cebpf4jnsgd1na2vs0mg"},{"bike_id":"767cda57-54ee-4f57-889a-d4f937525043","system_id":"levelo_inurba_marseille","lat":43.28934,"lon":5.36396,"is_reserved":false,"is_disabled":false,"rental_uris":{"android":"levelo://app?vid=767cda57-54ee-4f57-889a-d4f937525043","ios":"levelo://app?vid=767cda57-54ee-4f57-889a-d4f937525043"},"vehicle_type_id":"4","last_reported":1729109382,"current_range_meters":36000,"station_id":"ce4bhc92rcd13ifvqetg","pricing_plan_id":"cebpf4jnsgd1na2vs0mg"},{"bike_id":"81e32d4e-df25-4349-90c7-1831752870c9","system_id":"levelo_inurba_marseille","lat":43.27933,"lon":5.41044,"is_reserved":false,"is_disabled":false,"rental_uris":{"android":"levelo://app?vid=81e32d4e-df25-4349-90c7-1831752870c9","ios":"levelo://app?vid=81e32d4e-df25-4349-90c7-1831752870c9"},"vehicle_type_id":"4","last_reported":1729109382,"current_range_meters":33200,"station_id":"ce4bhnp2rcd13ifvqh0g","pricing_plan_id":"cebpf4jnsgd1na2vs0mg"},{"bike_id":"8c1ec6cb-2291-4814-837b-be8625c706f3","system_id":"levelo_inurba_marseille","lat":43.23197,"lon":5.3555,"is_reserved":false,"is_disabled":false,"rental_uris":{"android":"levelo://app?vid=8c1ec6cb-2291-4814-837b-be8625c706f3","ios":"levelo://app?vid=8c1ec6cb-2291-4814-837b-be8625c706f3"},"vehicle_type_id":"4","last_reported":1729109382,"current_range_meters":38800,"station_id":"ce4bhu92rcd13ifvqi70","pricing_plan_id":"cebpf4jnsgd1na2vs0mg"},{"bike_id":"4ad9c847-27df-43e5-8d29-1f4dc9858178","system_id":"levelo_inurba_marseille","lat":43.28733,"lon":5.36076,"is_reserved":false,"is_disabled":false,"rental_uris":{"android":"levelo://app?vid=4ad9c847-27df-43e5-8d29-1f4dc9858178","ios":"levelo://app?vid=4ad9c847-27df-43e5-8d29-1f4dc9858178"},"vehicle_type_id":"4","last_reported":1729109382,"current_range_meters":8400,"station_id":"cki0cbj6b192h4jlfktg","pricing_plan_id":"cebpf4jnsgd1na2vs0mg"},{"bike_id":"f97ed4df-1a5b-4335-8f24-cb02977ba46e","system_id":"levelo_inurba_marseille","lat":43.29276,"lon":5.40119,"is_reserved":false,"is_disabled":false,"rental_uris":{"android":"levelo://app?vid=f97ed4df-1a5b-4335-8f24-cb02977ba46e","ios":"levelo://app?vid=f97ed4df-1a5b-4335-8f24-cb02977ba46e"},"vehicle_type_id":"4","last_reported":1729109382,"current_range_meters":19200,"station_id":"ce4bh312rcd13ifvqdk0","pricing_plan_id":"cebpf4jnsgd1na2vs0mg"},{"bike_id":"8cd9a0be-5e98-4d55-a4ec-d164ab97f55f","system_id":"levelo_inurba_marseille","lat":43.3199,"lon":5.38149,"is_reserved":false,"is_disabled":false,"rental_uris":{"android":"levelo://app?vid=8cd9a0be-5e98-4d55-a4ec-d164ab97f55f","ios":"levelo://app?vid=8cd9a0be-5e98-4d55-a4ec-d164ab97f55f"},"vehicle_type_id":"4","last_reported":1729109382,"current_range_meters":16000,"station_id":"ce4bhr12rcd13ifvqhpg","pricing_plan_id":"cebpf4jnsgd1na2vs0mg"},{"bike_id":"6fa14411-dc61-4388-b056-f9398a869ea8","system_id":"levelo_inurba_marseille","lat":43.28926,"lon":5.36637,"is_reserved":false,"is_disabled":false,"rental_uris":{"android":"levelo://app?vid=6fa14411-dc61-4388-b056-f9398a869ea8","ios":"levelo://app?vid=6fa14411-dc61-4388-b056-f9398a869ea8"},"vehicle_type_id":"4","last_reported":1729109382,"current_range_meters":19600,"station_id":"ce4bhap2rcd13ifvqek0","pricing_plan_id":"cebpf4jnsgd1na2vs0mg"},{"bike_id":"db810d77-ca6d-4491-b176-96ce95bcc9bc","system_id":"levelo_inurba_marseille","lat":43.25719,"lon":5.41107,"is_reserved":false,"is_disabled":false,"rental_uris":{"android":"levelo://app?vid=db810d77-ca6d-4491-b176-96ce95bcc9bc","ios":"levelo://app?vid=db810d77-ca6d-4491-b176-96ce95bcc9bc"},"vehicle_type_id":"4","last_reported":1729109382,"current_range_meters":32400,"station_id":"ce4bhkp2rcd13ifvqgd0","pricing_plan_id":"cebpf4jnsgd1na2vs0mg"},{"bike_id":"7796c4e0-3fd2-4373-9449-d9d84debaad1","system_id":"levelo_inurba_marseille","lat":43.29875,"lon":5.39733,"is_reserved":false,"is_disabled":false,"rental_uris":{"android":"levelo://app?vid=7796c4e0-3fd2-4373-9449-d9d84debaad1","ios":"levelo://app?vid=7796c4e0-3fd2-4373-9449-d9d84debaad1"},"vehicle_type_id":"4","last_reported":1729109382,"current_range_meters":36400,"station_id":"ce4bh0h2rcd13ifvqd50","pricing_plan_id":"cebpf4jnsgd1na2vs0mg"},{"bike_id":"08ae83cb-f31d-469e-8b8d-1172d9f867d3","system_id":"levelo_inurba_marseille","lat":43.23964,"lon":5.36634,"is_reserved":false,"is_disabled":false,"rental_uris":{"android":"levelo://app?vid=08ae83cb-f31d-469e-8b8d-1172d9f867d3","ios":"levelo://app?vid=08ae83cb-f31d-469e-8b8d-1172d9f867d3"},"vehicle_type_id":"4","last_reported":1729109382,"current_range_meters":25200,"station_id":"ce4bhi12rcd13ifvqfp0","pricing_plan_id":"cebpf4jnsgd1na2vs0mg"},{"bike_id":"a9400308-7820-4b35-a30e-ac5b59ed3f3e","system_id":"levelo_inurba_marseille","lat":43.25122,"lon":5.40316,"is_reserved":false,"is_disabled":false,"rental_uris":{"android":"levelo://app?vid=a9400308-7820-4b35-a30e-ac5b59ed3f3e","ios":"levelo://app?vid=a9400308-7820-4b35-a30e-ac5b59ed3f3e"},"vehicle_type_id":"4","last_reported":1729109382,"current_range_meters":28800,"station_id":"ce4bhlh2rcd13ifvqgig","pricing_plan_id":"cebpf4jnsgd1na2vs0mg"},{"bike_id":"0994d7f0-fa2e-480f-b967-2b1e1b476b78","system_id":"levelo_inurba_marseille","lat":43.23197,"lon":5.35558,"is_reserved":false,"is_disabled":false,"rental_uris":{"android":"levelo://app?vid=0994d7f0-fa2e-480f-b967-2b1e1b476b78","ios":"levelo://app?vid=0994d7f0-fa2e-480f-b967-2b1e1b476b78"},"vehicle_type_id":"4","last_reported":1729109382,"current_range_meters":19200,"station_id":"ce4bhu92rcd13ifvqi70","pricing_plan_id":"cebpf4jnsgd1na2vs0mg"},{"bike_id":"a0a51406-7d86-4757-af21-1609872721bf","system_id":"levelo_inurba_marseille","lat":43.29532,"lon":5.38554,"is_reserved":false,"is_disabled":false,"rental_uris":{"android":"levelo://app?vid=a0a51406-7d86-4757-af21-1609872721bf","ios":"levelo://app?vid=a0a51406-7d86-4757-af21-1609872721bf"},"vehicle_type_id":"4","last_reported":1729109382,"current_range_meters":38800,"station_id":"ce4bgih2rcd13ifvqba0","pricing_plan_id":"cebpf4jnsgd1na2vs0mg"},{"bike_id":"f6af6a6e-0c43-43ba-9e4a-2a70b3681fbb","system_id":"levelo_inurba_marseille","lat":43.314175,"lon":5.393791,"is_reserved":false,"is_disabled":false,"rental_uris":{"android":"levelo://app?vid=f6af6a6e-0c43-43ba-9e4a-2a70b3681fbb","ios":"levelo://app?vid=f6af6a6e-0c43-43ba-9e4a-2a70b3681fbb"},"vehicle_type_id":"4","last_reported":1729109382,"current_range_meters":20800,"station_id":"","pricing_plan_id":"cebpf4jnsgd1na2vs0mg"},{"bike_id":"66ccc46d-618e-4760-b09c-27382152bdab","system_id":"levelo_inurba_marseille","lat":43.23193,"lon":5.35545,"is_reserved":false,"is_disabled":false,"rental_uris":{"android":"levelo://app?vid=66ccc46d-618e-4760-b09c-27382152bdab","ios":"levelo://app?vid=66ccc46d-618e-4760-b09c-27382152bdab"},"vehicle_type_id":"4","last_reported":1729109382,"current_range_meters":36800,"station_id":"ce4bhu92rcd13ifvqi70","pricing_plan_id":"cebpf4jnsgd1na2vs0mg"},{"bike_id":"a073cbb3-1627-43ef-923a-3c793e1abf15","system_id":"levelo_inurba_marseille","lat":43.3088,"lon":5.39639,"is_reserved":false,"is_disabled":false,"rental_uris":{"android":"levelo://app?vid=a073cbb3-1627-43ef-923a-3c793e1abf15","ios":"levelo://app?vid=a073cbb3-1627-43ef-923a-3c793e1abf15"},"vehicle_type_id":"4","last_reported":1729109382,"current_range_meters":20000,"station_id":"ce4bh012rcd13ifvqcv0","pricing_plan_id":"cebpf4jnsgd1na2vs0mg"},{"bike_id":"8e2b0f48-ccb5-4260-b9f7-e017b8cb13de","system_id":"levelo_inurba_marseille","lat":43.28101,"lon":5.3785,"is_reserved":false,"is_disabled":false,"rental_uris":{"android":"levelo://app?vid=8e2b0f48-ccb5-4260-b9f7-e017b8cb13de","ios":"levelo://app?vid=8e2b0f48-ccb5-4260-b9f7-e017b8cb13de"},"vehicle_type_id":"4","last_reported":1729109382,"current_range_meters":38800,"station_id":"ce4bha12rcd13ifvqee0","pricing_plan_id":"cebpf4jnsgd1na2vs0mg"},{"bike_id":"f35bf8c9-6a46-43c9-8d4f-2819ae217681","system_id":"levelo_inurba_marseille","lat":43.32654,"lon":5.40996,"is_reserved":false,"is_disabled":false,"rental_uris":{"android":"levelo://app?vid=f35bf8c9-6a46-43c9-8d4f-2819ae217681","ios":"levelo://app?vid=f35bf8c9-6a46-43c9-8d4f-2819ae217681"},"vehicle_type_id":"4","last_reported":1729109382,"current_range_meters":20400,"station_id":"ce4bhpp2rcd13ifvqhgg","pricing_plan_id":"cebpf4jnsgd1na2vs0mg"},{"bike_id":"6300df2c-b9fe-4275-916d-dd75e59140c9","system_id":"levelo_inurba_marseille","lat":43.2319,"lon":5.35543,"is_reserved":false,"is_disabled":false,"rental_uris":{"android":"levelo://app?vid=6300df2c-b9fe-4275-916d-dd75e59140c9","ios":"levelo://app?vid=6300df2c-b9fe-4275-916d-dd75e59140c9"},"vehicle_type_id":"4","last_reported":1729109382,"current_range_meters":37600,"station_id":"ce4bhu92rcd13ifvqi70","pricing_plan_id":"cebpf4jnsgd1na2vs0mg"},{"bike_id":"9e08592a-c6d0-4f94-a36e-db1e29977db5","system_id":"levelo_inurba_marseille","lat":43.2963,"lon":5.40592,"is_reserved":false,"is_disabled":false,"rental_uris":{"android":"levelo://app?vid=9e08592a-c6d0-4f94-a36e-db1e29977db5","ios":"levelo://app?vid=9e08592a-c6d0-4f94-a36e-db1e29977db5"},"vehicle_type_id":"4","last_reported":1729109382,"current_range_meters":23200,"station_id":"ce4bh0h2rcd13ifvqd60","pricing_plan_id":"cebpf4jnsgd1na2vs0mg"},{"bike_id":"6d56330f-5e73-42d5-b4b2-2b0523e4e635","system_id":"levelo_inurba_marseille","lat":43.27937,"lon":5.41042,"is_reserved":false,"is_disabled":false,"rental_uris":{"android":"levelo://app?vid=6d56330f-5e73-42d5-b4b2-2b0523e4e635","ios":"levelo://app?vid=6d56330f-5e73-42d5-b4b2-2b0523e4e635"},"vehicle_type_id":"4","last_reported":1729109382,"current_range_meters":20800,"station_id":"ce4bhnp2rcd13ifvqh0g","pricing_plan_id":"cebpf4jnsgd1na2vs0mg"},{"bike_id":"cbcc0e5e-9800-49f7-8af1-bfcc0501d4b8","system_id":"levelo_inurba_marseille","lat":43.25079,"lon":5.39525,"is_reserved":false,"is_disabled":false,"rental_uris":{"android":"levelo://app?vid=cbcc0e5e-9800-49f7-8af1-bfcc0501d4b8","ios":"levelo://app?vid=cbcc0e5e-9800-49f7-8af1-bfcc0501d4b8"},"vehicle_type_id":"4","last_reported":1729109382,"current_range_meters":38800,"station_id":"ce4bhm12rcd13ifvqgkg","pricing_plan_id":"cebpf4jnsgd1na2vs0mg"},{"bike_id":"fb7b3456-5947-49b3-854f-9a0a6794560f","system_id":"levelo_inurba_marseille","lat":43.24996,"lon":5.38925,"is_reserved":false,"is_disabled":false,"rental_uris":{"android":"levelo://app?vid=fb7b3456-5947-49b3-854f-9a0a6794560f","ios":"levelo://app?vid=fb7b3456-5947-49b3-854f-9a0a6794560f"},"vehicle_type_id":"4","last_reported":1729109382,"current_range_meters":30400,"station_id":"ce4bhgp2rcd13ifvqfd0","pricing_plan_id":"cebpf4jnsgd1na2vs0mg"},{"bike_id":"fd5cf136-5b0e-4100-b744-27837bc12be6","system_id":"levelo_inurba_marseille","lat":43.32481,"lon":5.3656,"is_reserved":false,"is_disabled":false,"rental_uris":{"android":"levelo://app?vid=fd5cf136-5b0e-4100-b744-27837bc12be6","ios":"levelo://app?vid=fd5cf136-5b0e-4100-b744-27837bc12be6"},"vehicle_type_id":"4","last_reported":1729109382,"current_range_meters":28400,"station_id":"ce4bhs12rcd13ifvqhvg","pricing_plan_id":"cebpf4jnsgd1na2vs0mg"},{"bike_id":"652a36fa-ba19-4e10-9fce-e1bf50d2ad42","system_id":"levelo_inurba_marseille","lat":43.30095,"lon":5.39081,"is_reserved":false,"is_disabled":false,"rental_uris":{"android":"levelo://app?vid=652a36fa-ba19-4e10-9fce-e1bf50d2ad42","ios":"levelo://app?vid=652a36fa-ba19-4e10-9fce-e1bf50d2ad42"},"vehicle_type_id":"4","last_reported":1729109382,"current_range_meters":40000,"station_id":"ce4bh192rcd13ifvqdb0","pricing_plan_id":"cebpf4jnsgd1na2vs0mg"},{"bike_id":"3e30bdf1-995f-43a4-90e2-4e3531e05d69","system_id":"levelo_inurba_marseille","lat":43.28613,"lon":5.351,"is_reserved":false,"is_disabled":false,"rental_uris":{"android":"levelo://app?vid=3e30bdf1-995f-43a4-90e2-4e3531e05d69","ios":"levelo://app?vid=3e30bdf1-995f-43a4-90e2-4e3531e05d69"},"vehicle_type_id":"4","last_reported":1729109382,"current_range_meters":17200,"station_id":"ce4bhch2rcd13ifvqeug","pricing_plan_id":"cebpf4jnsgd1na2vs0mg"},{"bike_id":"c77cb483-5349-4491-826f-bb378f2fdbd3","system_id":"levelo_inurba_marseille","lat":43.27934,"lon":5.41049,"is_reserved":false,"is_disabled":false,"rental_uris":{"android":"levelo://app?vid=c77cb483-5349-4491-826f-bb378f2fdbd3","ios":"levelo://app?vid=c77cb483-5349-4491-826f-bb378f2fdbd3"},"vehicle_type_id":"4","last_reported":1729109382,"current_range_meters":9200,"station_id":"ce4bhnp2rcd13ifvqh0g","pricing_plan_id":"cebpf4jnsgd1na2vs0mg"},{"bike_id":"eac5e113-acf0-42fc-9260-cf130d442a06","system_id":"levelo_inurba_marseille","lat":43.29943,"lon":5.36534,"is_reserved":false,"is_disabled":false,"rental_uris":{"android":"levelo://app?vid=eac5e113-acf0-42fc-9260-cf130d442a06","ios":"levelo://app?vid=eac5e113-acf0-42fc-9260-cf130d442a06"},"vehicle_type_id":"4","last_reported":1729109382,"current_range_meters":33600,"station_id":"ce4bgm92rcd13ifvqbr0","pricing_plan_id":"cebpf4jnsgd1na2vs0mg"},{"bike_id":"2140b6a3-5118-4150-823e-9225aeb56201","system_id":"levelo_inurba_marseille","lat":43.23185,"lon":5.35544,"is_reserved":false,"is_disabled":false,"rental_uris":{"android":"levelo://app?vid=2140b6a3-5118-4150-823e-9225aeb56201","ios":"levelo://app?vid=2140b6a3-5118-4150-823e-9225aeb56201"},"vehicle_type_id":"4","last_reported":1729109382,"current_range_meters":38800,"station_id":"ce4bhu92rcd13ifvqi70","pricing_plan_id":"cebpf4jnsgd1na2vs0mg"},{"bike_id":"d43457e6-6c7c-4dab-b7a2-e487876a098c","system_id":"levelo_inurba_marseille","lat":43.32046,"lon":5.41561,"is_reserved":false,"is_disabled":false,"rental_uris":{"android":"levelo://app?vid=d43457e6-6c7c-4dab-b7a2-e487876a098c","ios":"levelo://app?vid=d43457e6-6c7c-4dab-b7a2-e487876a098c"},"vehicle_type_id":"4","last_reported":1729109382,"current_range_meters":38800,"station_id":"ce4bhq92rcd13ifvqhkg","pricing_plan_id":"cebpf4jnsgd1na2vs0mg"},{"bike_id":"e5026195-f612-4749-a1b2-77573bc0d866","system_id":"levelo_inurba_marseille","lat":43.28856,"lon":5.39303,"is_reserved":false,"is_disabled":false,"rental_uris":{"android":"levelo://app?vid=e5026195-f612-4749-a1b2-77573bc0d866","ios":"levelo://app?vid=e5026195-f612-4749-a1b2-77573bc0d866"},"vehicle_type_id":"4","last_reported":1729109382,"current_range_meters":33200,"station_id":"ce4bh2p2rcd13ifvqdi0","pricing_plan_id":"cebpf4jnsgd1na2vs0mg"},{"bike_id":"6d3bf938-0787-415e-949c-c2324e1c36b9","system_id":"levelo_inurba_marseille","lat":43.31076,"lon":5.38363,"is_reserved":false,"is_disabled":false,"rental_uris":{"android":"levelo://app?vid=6d3bf938-0787-415e-949c-c2324e1c36b9","ios":"levelo://app?vid=6d3bf938-0787-415e-949c-c2324e1c36b9"},"vehicle_type_id":"4","last_reported":1729109382,"current_range_meters":33200,"station_id":"ce4bgv92rcd13ifvqcr0","pricing_plan_id":"cebpf4jnsgd1na2vs0mg"},{"bike_id":"64038440-7d16-488e-ba76-3dcaf2fc4cb0","system_id":"levelo_inurba_marseille","lat":43.31884,"lon":5.40731,"is_reserved":false,"is_disabled":false,"rental_uris":{"android":"levelo://app?vid=64038440-7d16-488e-ba76-3dcaf2fc4cb0","ios":"levelo://app?vid=64038440-7d16-488e-ba76-3dcaf2fc4cb0"},"vehicle_type_id":"4","last_reported":1729109382,"current_range_meters":21600,"station_id":"ce4bhq12rcd13ifvqhig","pricing_plan_id":"cebpf4jnsgd1na2vs0mg"},{"bike_id":"ea5e655f-17be-40c7-9228-17d3eab622b7","system_id":"levelo_inurba_marseille","lat":43.23187,"lon":5.39996,"is_reserved":false,"is_disabled":false,"rental_uris":{"android":"levelo://app?vid=ea5e655f-17be-40c7-9228-17d3eab622b7","ios":"levelo://app?vid=ea5e655f-17be-40c7-9228-17d3eab622b7"},"vehicle_type_id":"4","last_reported":1729109382,"current_range_meters":38800,"station_id":"ce4bhn12rcd13ifvqgqg","pricing_plan_id":"cebpf4jnsgd1na2vs0mg"},{"bike_id":"62ee3aac-44d7-475a-8fa3-4e3b494bc91e","system_id":"levelo_inurba_marseille","lat":43.251119,"lon":5.403309,"is_reserved":false,"is_disabled":false,"rental_uris":{"android":"levelo://app?vid=62ee3aac-44d7-475a-8fa3-4e3b494bc91e","ios":"levelo://app?vid=62ee3aac-44d7-475a-8fa3-4e3b494bc91e"},"vehicle_type_id":"4","last_reported":1729109382,"current_range_meters":38400,"station_id":"ce4bhlh2rcd13ifvqgig","pricing_plan_id":"cebpf4jnsgd1na2vs0mg"},{"bike_id":"80be08ff-304a-4329-b0df-46f6267d3ecd","system_id":"levelo_inurba_marseille","lat":43.32285,"lon":5.38276,"is_reserved":false,"is_disabled":false,"rental_uris":{"android":"levelo://app?vid=80be08ff-304a-4329-b0df-46f6267d3ecd","ios":"levelo://app?vid=80be08ff-304a-4329-b0df-46f6267d3ecd"},"vehicle_type_id":"4","last_reported":1729109382,"current_range_meters":27600,"station_id":"ce4bhr12rcd13ifvqhqg","pricing_plan_id":"cebpf4jnsgd1na2vs0mg"},{"bike_id":"8d56d269-4b29-48f3-afa4-2d25429a351d","system_id":"levelo_inurba_marseille","lat":43.303467,"lon":5.389327,"is_reserved":false,"is_disabled":false,"rental_uris":{"android":"levelo://app?vid=8d56d269-4b29-48f3-afa4-2d25429a351d","ios":"levelo://app?vid=8d56d269-4b29-48f3-afa4-2d25429a351d"},"vehicle_type_id":"4","last_reported":1729109382,"current_range_meters":35200,"station_id":"ce4bh392rcd13ifvqdm0","pricing_plan_id":"cebpf4jnsgd1na2vs0mg"},{"bike_id":"83bcafb6-7740-4133-8b56-4bf302222f17","system_id":"levelo_inurba_marseille","lat":43.23966,"lon":5.36635,"is_reserved":false,"is_disabled":false,"rental_uris":{"android":"levelo://app?vid=83bcafb6-7740-4133-8b56-4bf302222f17","ios":"levelo://app?vid=83bcafb6-7740-4133-8b56-4bf302222f17"},"vehicle_type_id":"4","last_reported":1729109382,"current_range_meters":8000,"station_id":"ce4bhi12rcd13ifvqfp0","pricing_plan_id":"cebpf4jnsgd1na2vs0mg"},{"bike_id":"fe785414-8f42-4bcb-ade6-848bbe1c4a39","system_id":"levelo_inurba_marseille","lat":43.28444,"lon":5.3919,"is_reserved":false,"is_disabled":false,"rental_uris":{"android":"levelo://app?vid=fe785414-8f42-4bcb-ade6-848bbe1c4a39","ios":"levelo://app?vid=fe785414-8f42-4bcb-ade6-848bbe1c4a39"},"vehicle_type_id":"4","last_reported":1729109382,"current_range_meters":38800,"station_id":"ce4bhoh2rcd13ifvqh5g","pricing_plan_id":"cebpf4jnsgd1na2vs0mg"},{"bike_id":"3213665e-989c-4d22-9f5a-31c8522597dd","system_id":"levelo_inurba_marseille","lat":43.296,"lon":5.36142,"is_reserved":false,"is_disabled":false,"rental_uris":{"android":"levelo://app?vid=3213665e-989c-4d22-9f5a-31c8522597dd","ios":"levelo://app?vid=3213665e-989c-4d22-9f5a-31c8522597dd"},"vehicle_type_id":"4","last_reported":1729109382,"current_range_meters":32000,"station_id":"","pricing_plan_id":"cebpf4jnsgd1na2vs0mg"},{"bike_id":"85a43556-7d17-45ce-b0ba-e030bdf7e83d","system_id":"levelo_inurba_marseille","lat":43.28029,"lon":5.36945,"is_reserved":false,"is_disabled":false,"rental_uris":{"android":"levelo://app?vid=85a43556-7d17-45ce-b0ba-e030bdf7e83d","ios":"levelo://app?vid=85a43556-7d17-45ce-b0ba-e030bdf7e83d"},"vehicle_type_id":"4","last_reported":1729109382,"current_range_meters":32000,"station_id":"ce4bha12rcd13ifvqef0","pricing_plan_id":"cebpf4jnsgd1na2vs0mg"},{"bike_id":"d5076738-edd8-4abd-b963-e85a45a82003","system_id":"levelo_inurba_marseille","lat":43.27418,"lon":5.39407,"is_reserved":false,"is_disabled":false,"rental_uris":{"android":"levelo://app?vid=d5076738-edd8-4abd-b963-e85a45a82003","ios":"levelo://app?vid=d5076738-edd8-4abd-b963-e85a45a82003"},"vehicle_type_id":"4","last_reported":1729109382,"current_range_meters":37600,"station_id":"ce4bhdp2rcd13ifvqf20","pricing_plan_id":"cebpf4jnsgd1na2vs0mg"},{"bike_id":"c072bc42-d592-4331-ab66-b4cfc6aa39d0","system_id":"levelo_inurba_marseille","lat":43.29684,"lon":5.37299,"is_reserved":false,"is_disabled":false,"rental_uris":{"android":"levelo://app?vid=c072bc42-d592-4331-ab66-b4cfc6aa39d0","ios":"levelo://app?vid=c072bc42-d592-4331-ab66-b4cfc6aa39d0"},"vehicle_type_id":"4","last_reported":1729109382,"current_range_meters":12800,"station_id":"ce4bgk12rcd13ifvqbj0","pricing_plan_id":"cebpf4jnsgd1na2vs0mg"},{"bike_id":"b892fec6-debf-4a51-b797-4d35fe3ddd2f","system_id":"levelo_inurba_marseille","lat":43.29516,"lon":5.3903,"is_reserved":false,"is_disabled":false,"rental_uris":{"android":"levelo://app?vid=b892fec6-debf-4a51-b797-4d35fe3ddd2f","ios":"levelo://app?vid=b892fec6-debf-4a51-b797-4d35fe3ddd2f"},"vehicle_type_id":"4","last_reported":1729109382,"current_range_meters":32400,"station_id":"ce4bh3p2rcd13ifvqdp0","pricing_plan_id":"cebpf4jnsgd1na2vs0mg"},{"bike_id":"1641b826-604a-4181-8231-dca386f637a6","system_id":"levelo_inurba_marseille","lat":43.23199,"lon":5.35554,"is_reserved":false,"is_disabled":false,"rental_uris":{"android":"levelo://app?vid=1641b826-604a-4181-8231-dca386f637a6","ios":"levelo://app?vid=1641b826-604a-4181-8231-dca386f637a6"},"vehicle_type_id":"4","last_reported":1729109382,"current_range_meters":36800,"station_id":"ce4bhu92rcd13ifvqi70","pricing_plan_id":"cebpf4jnsgd1na2vs0mg"},{"bike_id":"89211ee2-076f-4df3-92bd-cd8885f2e76d","system_id":"levelo_inurba_marseille","lat":43.23193,"lon":5.35556,"is_reserved":false,"is_disabled":false,"rental_uris":{"android":"levelo://app?vid=89211ee2-076f-4df3-92bd-cd8885f2e76d","ios":"levelo://app?vid=89211ee2-076f-4df3-92bd-cd8885f2e76d"},"vehicle_type_id":"4","last_reported":1729109382,"current_range_meters":36800,"station_id":"ce4bhu92rcd13ifvqi70","pricing_plan_id":"cebpf4jnsgd1na2vs0mg"},{"bike_id":"9f889efc-42cd-4cb1-bc9a-8eb4b981bcf1","system_id":"levelo_inurba_marseille","lat":43.27832,"lon":5.39211,"is_reserved":false,"is_disabled":false,"rental_uris":{"android":"levelo://app?vid=9f889efc-42cd-4cb1-bc9a-8eb4b981bcf1","ios":"levelo://app?vid=9f889efc-42cd-4cb1-bc9a-8eb4b981bcf1"},"vehicle_type_id":"4","last_reported":1729109382,"current_range_meters":4000,"station_id":"ce4bhjp2rcd13ifvqga0","pricing_plan_id":"cebpf4jnsgd1na2vs0mg"},{"bike_id":"b67fd924-8775-430e-a5ef-ef25139c6204","system_id":"levelo_inurba_marseille","lat":43.28727,"lon":5.36074,"is_reserved":false,"is_disabled":false,"rental_uris":{"android":"levelo://app?vid=b67fd924-8775-430e-a5ef-ef25139c6204","ios":"levelo://app?vid=b67fd924-8775-430e-a5ef-ef25139c6204"},"vehicle_type_id":"4","last_reported":1729109382,"current_range_meters":4000,"station_id":"cki0cbj6b192h4jlfktg","pricing_plan_id":"cebpf4jnsgd1na2vs0mg"},{"bike_id":"d653d5cb-4ddb-47a9-8873-02f612a2c9f2","system_id":"levelo_inurba_marseille","lat":43.29417,"lon":5.38611,"is_reserved":false,"is_disabled":false,"rental_uris":{"android":"levelo://app?vid=d653d5cb-4ddb-47a9-8873-02f612a2c9f2","ios":"levelo://app?vid=d653d5cb-4ddb-47a9-8873-02f612a2c9f2"},"vehicle_type_id":"4","last_reported":1729109382,"current_range_meters":37600,"station_id":"ce4bh2h2rcd13ifvqdh0","pricing_plan_id":"cebpf4jnsgd1na2vs0mg"},{"bike_id":"b0d32892-91f1-45ad-ba89-968a04f1b24c","system_id":"levelo_inurba_marseille","lat":43.32485,"lon":5.36567,"is_reserved":false,"is_disabled":false,"rental_uris":{"android":"levelo://app?vid=b0d32892-91f1-45ad-ba89-968a04f1b24c","ios":"levelo://app?vid=b0d32892-91f1-45ad-ba89-968a04f1b24c"},"vehicle_type_id":"4","last_reported":1729109382,"current_range_meters":38000,"station_id":"ce4bhs12rcd13ifvqhvg","pricing_plan_id":"cebpf4jnsgd1na2vs0mg"},{"bike_id":"c578b0df-8e72-4cf3-b064-b97180609dff","system_id":"levelo_inurba_marseille","lat":43.23181,"lon":5.39994,"is_reserved":false,"is_disabled":false,"rental_uris":{"android":"levelo://app?vid=c578b0df-8e72-4cf3-b064-b97180609dff","ios":"levelo://app?vid=c578b0df-8e72-4cf3-b064-b97180609dff"},"vehicle_type_id":"4","last_reported":1729109382,"current_range_meters":9600,"station_id":"ce4bhn12rcd13ifvqgqg","pricing_plan_id":"cebpf4jnsgd1na2vs0mg"},{"bike_id":"efc0309f-431d-4158-afa3-be5f5d796e15","system_id":"levelo_inurba_marseille","lat":43.28651,"lon":5.36356,"is_reserved":false,"is_disabled":false,"rental_uris":{"android":"levelo://app?vid=efc0309f-431d-4158-afa3-be5f5d796e15","ios":"levelo://app?vid=efc0309f-431d-4158-afa3-be5f5d796e15"},"vehicle_type_id":"4","last_reported":1729109382,"current_range_meters":38400,"station_id":"ce4bhah2rcd13ifvqej0","pricing_plan_id":"cebpf4jnsgd1na2vs0mg"},{"bike_id":"13190987-761c-43b2-99cf-cc4b808a1164","system_id":"levelo_inurba_marseille","lat":43.28408,"lon":5.3751,"is_reserved":false,"is_disabled":false,"rental_uris":{"android":"levelo://app?vid=13190987-761c-43b2-99cf-cc4b808a1164","ios":"levelo://app?vid=13190987-761c-43b2-99cf-cc4b808a1164"},"vehicle_type_id":"4","last_reported":1729109382,"current_range_meters":17600,"station_id":"ce4bh412rcd13ifvqds0","pricing_plan_id":"cebpf4jnsgd1na2vs0mg"},{"bike_id":"afcc66a1-298d-483e-93e3-62b59e7df33e","system_id":"levelo_inurba_marseille","lat":43.29056,"lon":5.40016,"is_reserved":false,"is_disabled":false,"rental_uris":{"android":"levelo://app?vid=afcc66a1-298d-483e-93e3-62b59e7df33e","ios":"levelo://app?vid=afcc66a1-298d-483e-93e3-62b59e7df33e"},"vehicle_type_id":"4","last_reported":1729109382,"current_range_meters":38800,"station_id":"ce4bh392rcd13ifvqdm0","pricing_plan_id":"cebpf4jnsgd1na2vs0mg"},{"bike_id":"7b5d439c-19e0-4a4e-9000-56a231442241","system_id":"levelo_inurba_marseille","lat":43.2951,"lon":5.39036,"is_reserved":false,"is_disabled":false,"rental_uris":{"android":"levelo://app?vid=7b5d439c-19e0-4a4e-9000-56a231442241","ios":"levelo://app?vid=7b5d439c-19e0-4a4e-9000-56a231442241"},"vehicle_type_id":"4","last_reported":1729109382,"current_range_meters":25200,"station_id":"ce4bh3p2rcd13ifvqdp0","pricing_plan_id":"cebpf4jnsgd1na2vs0mg"},{"bike_id":"24f85f72-dee6-41bb-bdb8-974ca7c83215","system_id":"levelo_inurba_marseille","lat":43.33023,"lon":5.39042,"is_reserved":false,"is_disabled":false,"rental_uris":{"android":"levelo://app?vid=24f85f72-dee6-41bb-bdb8-974ca7c83215","ios":"levelo://app?vid=24f85f72-dee6-41bb-bdb8-974ca7c83215"},"vehicle_type_id":"4","last_reported":1729109382,"current_range_meters":22800,"station_id":"ce4bhr92rcd13ifvqhrg","pricing_plan_id":"cebpf4jnsgd1na2vs0mg"},{"bike_id":"87440bd7-4730-412f-b52f-03b263c3d6ba","system_id":"levelo_inurba_marseille","lat":43.23199,"lon":5.35554,"is_reserved":false,"is_disabled":false,"rental_uris":{"android":"levelo://app?vid=87440bd7-4730-412f-b52f-03b263c3d6ba","ios":"levelo://app?vid=87440bd7-4730-412f-b52f-03b263c3d6ba"},"vehicle_type_id":"4","last_reported":1729109382,"current_range_meters":23200,"station_id":"ce4bhu92rcd13ifvqi70","pricing_plan_id":"cebpf4jnsgd1na2vs0mg"},{"bike_id":"7b98e5cd-0e82-4493-9779-29528e876c23","system_id":"levelo_inurba_marseille","lat":43.31166,"lon":5.38718,"is_reserved":false,"is_disabled":false,"rental_uris":{"android":"levelo://app?vid=7b98e5cd-0e82-4493-9779-29528e876c23","ios":"levelo://app?vid=7b98e5cd-0e82-4493-9779-29528e876c23"},"vehicle_type_id":"4","last_reported":1729109382,"current_range_meters":39200,"station_id":"ce4bgv12rcd13ifvqcp0","pricing_plan_id":"cebpf4jnsgd1na2vs0mg"},{"bike_id":"921b477e-15c8-4404-9f20-1758fb7015e9","system_id":"levelo_inurba_marseille","lat":43.24176,"lon":5.39731,"is_reserved":false,"is_disabled":false,"rental_uris":{"android":"levelo://app?vid=921b477e-15c8-4404-9f20-1758fb7015e9","ios":"levelo://app?vid=921b477e-15c8-4404-9f20-1758fb7015e9"},"vehicle_type_id":"4","last_reported":1729109382,"current_range_meters":24000,"station_id":"ce4bhn12rcd13ifvqgpg","pricing_plan_id":"cebpf4jnsgd1na2vs0mg"},{"bike_id":"8a51d674-fe73-4373-99a7-7ccc451e95db","system_id":"levelo_inurba_marseille","lat":43.29416,"lon":5.38626,"is_reserved":false,"is_disabled":false,"rental_uris":{"android":"levelo://app?vid=8a51d674-fe73-4373-99a7-7ccc451e95db","ios":"levelo://app?vid=8a51d674-fe73-4373-99a7-7ccc451e95db"},"vehicle_type_id":"4","last_reported":1729109382,"current_range_meters":9600,"station_id":"ce4bh2h2rcd13ifvqdh0","pricing_plan_id":"cebpf4jnsgd1na2vs0mg"},{"bike_id":"ff96eee3-1ac8-4888-9ae7-e4b6cc8154af","system_id":"levelo_inurba_marseille","lat":43.33739,"lon":5.3746,"is_reserved":false,"is_disabled":false,"rental_uris":{"android":"levelo://app?vid=ff96eee3-1ac8-4888-9ae7-e4b6cc8154af","ios":"levelo://app?vid=ff96eee3-1ac8-4888-9ae7-e4b6cc8154af"},"vehicle_type_id":"4","last_reported":1729109382,"current_range_meters":28000,"station_id":"","pricing_plan_id":"cebpf4jnsgd1na2vs0mg"},{"bike_id":"c39c697e-e7e3-4599-9244-c68c08d43fcb","system_id":"levelo_inurba_marseille","lat":43.301435,"lon":5.398413,"is_reserved":false,"is_disabled":false,"rental_uris":{"android":"levelo://app?vid=c39c697e-e7e3-4599-9244-c68c08d43fcb","ios":"levelo://app?vid=c39c697e-e7e3-4599-9244-c68c08d43fcb"},"vehicle_type_id":"4","last_reported":1729109382,"current_range_meters":27200,"station_id":"ce4bgn92rcd13ifvqbvg","pricing_plan_id":"cebpf4jnsgd1na2vs0mg"},{"bike_id":"d84cbc31-09f9-402d-b3d5-f1cccc2b0821","system_id":"levelo_inurba_marseille","lat":43.24659,"lon":5.38161,"is_reserved":false,"is_disabled":false,"rental_uris":{"android":"levelo://app?vid=d84cbc31-09f9-402d-b3d5-f1cccc2b0821","ios":"levelo://app?vid=d84cbc31-09f9-402d-b3d5-f1cccc2b0821"},"vehicle_type_id":"4","last_reported":1729109382,"current_range_meters":24000,"station_id":"ce4bhih2rcd13ifvqfr0","pricing_plan_id":"cebpf4jnsgd1na2vs0mg"},{"bike_id":"777b159d-dc63-49c0-8d2f-9cfe408b6526","system_id":"levelo_inurba_marseille","lat":43.27823,"lon":5.39208,"is_reserved":false,"is_disabled":false,"rental_uris":{"android":"levelo://app?vid=777b159d-dc63-49c0-8d2f-9cfe408b6526","ios":"levelo://app?vid=777b159d-dc63-49c0-8d2f-9cfe408b6526"},"vehicle_type_id":"4","last_reported":1729109382,"current_range_meters":32800,"station_id":"ce4bhjp2rcd13ifvqga0","pricing_plan_id":"cebpf4jnsgd1na2vs0mg"},{"bike_id":"49c3db25-f66c-4541-ad54-af787a8b9e0e","system_id":"levelo_inurba_marseille","lat":43.27495,"lon":5.42452,"is_reserved":false,"is_disabled":false,"rental_uris":{"android":"levelo://app?vid=49c3db25-f66c-4541-ad54-af787a8b9e0e","ios":"levelo://app?vid=49c3db25-f66c-4541-ad54-af787a8b9e0e"},"vehicle_type_id":"4","last_reported":1729109382,"current_range_meters":9200,"station_id":"ce4bhn92rcd13ifvqgrg","pricing_plan_id":"cebpf4jnsgd1na2vs0mg"},{"bike_id":"3b922f0e-2823-4c39-9e27-d9836eb9e938","system_id":"levelo_inurba_marseille","lat":43.30597,"lon":5.39358,"is_reserved":false,"is_disabled":false,"rental_uris":{"android":"levelo://app?vid=3b922f0e-2823-4c39-9e27-d9836eb9e938","ios":"levelo://app?vid=3b922f0e-2823-4c39-9e27-d9836eb9e938"},"vehicle_type_id":"4","last_reported":1729109382,"current_range_meters":16400,"station_id":"ce4bh0p2rcd13ifvqd80","pricing_plan_id":"cebpf4jnsgd1na2vs0mg"},{"bike_id":"39e42b34-7cbb-4719-b4de-7c00ca40340a","system_id":"levelo_inurba_marseille","lat":43.29265,"lon":5.4089,"is_reserved":false,"is_disabled":false,"rental_uris":{"android":"levelo://app?vid=39e42b34-7cbb-4719-b4de-7c00ca40340a","ios":"levelo://app?vid=39e42b34-7cbb-4719-b4de-7c00ca40340a"},"vehicle_type_id":"4","last_reported":1729109382,"current_range_meters":6800,"station_id":"ce4bh192rcd13ifvqdc0","pricing_plan_id":"cebpf4jnsgd1na2vs0mg"},{"bike_id":"db9f1951-b3af-4a73-be7b-37c43d83b120","system_id":"levelo_inurba_marseille","lat":43.292,"lon":5.39325,"is_reserved":false,"is_disabled":false,"rental_uris":{"android":"levelo://app?vid=db9f1951-b3af-4a73-be7b-37c43d83b120","ios":"levelo://app?vid=db9f1951-b3af-4a73-be7b-37c43d83b120"},"vehicle_type_id":"4","last_reported":1729109382,"current_range_meters":38000,"station_id":"ce4bh192rcd13ifvqdd0","pricing_plan_id":"cebpf4jnsgd1na2vs0mg"},{"bike_id":"bde88b53-17d8-48d7-9e49-9feabd039b14","system_id":"levelo_inurba_marseille","lat":43.29534,"lon":5.38543,"is_reserved":false,"is_disabled":false,"rental_uris":{"android":"levelo://app?vid=bde88b53-17d8-48d7-9e49-9feabd039b14","ios":"levelo://app?vid=bde88b53-17d8-48d7-9e49-9feabd039b14"},"vehicle_type_id":"4","last_reported":1729109382,"current_range_meters":30400,"station_id":"ce4bgih2rcd13ifvqba0","pricing_plan_id":"cebpf4jnsgd1na2vs0mg"},{"bike_id":"1b20dbd5-2b2d-4144-bc9b-6356f36497ca","system_id":"levelo_inurba_marseille","lat":43.24179,"lon":5.39737,"is_reserved":false,"is_disabled":false,"rental_uris":{"android":"levelo://app?vid=1b20dbd5-2b2d-4144-bc9b-6356f36497ca","ios":"levelo://app?vid=1b20dbd5-2b2d-4144-bc9b-6356f36497ca"},"vehicle_type_id":"4","last_reported":1729109382,"current_range_meters":10800,"station_id":"ce4bhn12rcd13ifvqgpg","pricing_plan_id":"cebpf4jnsgd1na2vs0mg"},{"bike_id":"8e3990aa-7c51-4932-868e-0e872a92b45b","system_id":"levelo_inurba_marseille","lat":43.28939,"lon":5.36625,"is_reserved":false,"is_disabled":false,"rental_uris":{"android":"levelo://app?vid=8e3990aa-7c51-4932-868e-0e872a92b45b","ios":"levelo://app?vid=8e3990aa-7c51-4932-868e-0e872a92b45b"},"vehicle_type_id":"4","last_reported":1729109382,"current_range_meters":10000,"station_id":"ce4bhap2rcd13ifvqek0","pricing_plan_id":"cebpf4jnsgd1na2vs0mg"},{"bike_id":"292b9425-1372-40d4-bf0a-fe57aa779a41","system_id":"levelo_inurba_marseille","lat":43.23064,"lon":5.35495,"is_reserved":false,"is_disabled":false,"rental_uris":{"android":"levelo://app?vid=292b9425-1372-40d4-bf0a-fe57aa779a41","ios":"levelo://app?vid=292b9425-1372-40d4-bf0a-fe57aa779a41"},"vehicle_type_id":"4","last_reported":1729109382,"current_range_meters":27600,"station_id":"cpo3342slgdg3j2ifvpg","pricing_plan_id":"cebpf4jnsgd1na2vs0mg"},{"bike_id":"ee05f638-6df5-4391-946d-0d99cd4a4030","system_id":"levelo_inurba_marseille","lat":43.310814,"lon":5.400782,"is_reserved":false,"is_disabled":false,"rental_uris":{"android":"levelo://app?vid=ee05f638-6df5-4391-946d-0d99cd4a4030","ios":"levelo://app?vid=ee05f638-6df5-4391-946d-0d99cd4a4030"},"vehicle_type_id":"4","last_reported":1729109382,"current_range_meters":31200,"station_id":"ce4bh092rcd13ifvqd30","pricing_plan_id":"cebpf4jnsgd1na2vs0mg"},{"bike_id":"ee0be573-04ff-4de6-83d5-b1682653942b","system_id":"levelo_inurba_marseille","lat":43.29576,"lon":5.37503,"is_reserved":false,"is_disabled":false,"rental_uris":{"android":"levelo://app?vid=ee0be573-04ff-4de6-83d5-b1682653942b","ios":"levelo://app?vid=ee0be573-04ff-4de6-83d5-b1682653942b"},"vehicle_type_id":"4","last_reported":1729109382,"current_range_meters":2800,"station_id":"ce4bgh92rcd13ifvqb50","pricing_plan_id":"cebpf4jnsgd1na2vs0mg"},{"bike_id":"db12b58b-0ee0-4987-86d1-d82bb4ca5184","system_id":"levelo_inurba_marseille","lat":43.29422,"lon":5.38612,"is_reserved":false,"is_disabled":false,"rental_uris":{"android":"levelo://app?vid=db12b58b-0ee0-4987-86d1-d82bb4ca5184","ios":"levelo://app?vid=db12b58b-0ee0-4987-86d1-d82bb4ca5184"},"vehicle_type_id":"4","last_reported":1729109382,"current_range_meters":38800,"station_id":"ce4bh2h2rcd13ifvqdh0","pricing_plan_id":"cebpf4jnsgd1na2vs0mg"},{"bike_id":"8518d50a-def0-42c3-8f65-459244226eb7","system_id":"levelo_inurba_marseille","lat":43.30884,"lon":5.39636,"is_reserved":false,"is_disabled":false,"rental_uris":{"android":"levelo://app?vid=8518d50a-def0-42c3-8f65-459244226eb7","ios":"levelo://app?vid=8518d50a-def0-42c3-8f65-459244226eb7"},"vehicle_type_id":"4","last_reported":1729109382,"current_range_meters":9600,"station_id":"ce4bh012rcd13ifvqcv0","pricing_plan_id":"cebpf4jnsgd1na2vs0mg"},{"bike_id":"f9ec8e68-d9e1-4086-b7d3-3260c1c1b97e","system_id":"levelo_inurba_marseille","lat":43.29875,"lon":5.389,"is_reserved":false,"is_disabled":false,"rental_uris":{"android":"levelo://app?vid=f9ec8e68-d9e1-4086-b7d3-3260c1c1b97e","ios":"levelo://app?vid=f9ec8e68-d9e1-4086-b7d3-3260c1c1b97e"},"vehicle_type_id":"4","last_reported":1729109382,"current_range_meters":30000,"station_id":"ce4bh392rcd13ifvqdl0","pricing_plan_id":"cebpf4jnsgd1na2vs0mg"},{"bike_id":"49b75a91-d34f-4cd0-a94c-376dd7b8cab3","system_id":"levelo_inurba_marseille","lat":43.27903,"lon":5.38002,"is_reserved":false,"is_disabled":false,"rental_uris":{"android":"levelo://app?vid=49b75a91-d34f-4cd0-a94c-376dd7b8cab3","ios":"levelo://app?vid=49b75a91-d34f-4cd0-a94c-376dd7b8cab3"},"vehicle_type_id":"4","last_reported":1729109382,"current_range_meters":18800,"station_id":"ce4bhf92rcd13ifvqf50","pricing_plan_id":"cebpf4jnsgd1na2vs0mg"},{"bike_id":"9ba3e93e-4e4d-4950-920c-6e9f36a6cdd6","system_id":"levelo_inurba_marseille","lat":43.27071,"lon":5.42281,"is_reserved":false,"is_disabled":false,"rental_uris":{"android":"levelo://app?vid=9ba3e93e-4e4d-4950-920c-6e9f36a6cdd6","ios":"levelo://app?vid=9ba3e93e-4e4d-4950-920c-6e9f36a6cdd6"},"vehicle_type_id":"4","last_reported":1729109382,"current_range_meters":16000,"station_id":"ce4bhk92rcd13ifvqgb0","pricing_plan_id":"cebpf4jnsgd1na2vs0mg"},{"bike_id":"9999405b-5c45-451d-bdfb-0b45e5dc3641","system_id":"levelo_inurba_marseille","lat":43.29778,"lon":5.39337,"is_reserved":false,"is_disabled":false,"rental_uris":{"android":"levelo://app?vid=9999405b-5c45-451d-bdfb-0b45e5dc3641","ios":"levelo://app?vid=9999405b-5c45-451d-bdfb-0b45e5dc3641"},"vehicle_type_id":"4","last_reported":1729109382,"current_range_meters":34800,"station_id":"chh1huq6cuj3fo74tm60","pricing_plan_id":"cebpf4jnsgd1na2vs0mg"},{"bike_id":"75a536d5-c566-435f-8994-dc9c347877e7","system_id":"levelo_inurba_marseille","lat":43.30093,"lon":5.39074,"is_reserved":false,"is_disabled":false,"rental_uris":{"android":"levelo://app?vid=75a536d5-c566-435f-8994-dc9c347877e7","ios":"levelo://app?vid=75a536d5-c566-435f-8994-dc9c347877e7"},"vehicle_type_id":"4","last_reported":1729109382,"current_range_meters":3600,"station_id":"ce4bh192rcd13ifvqdb0","pricing_plan_id":"cebpf4jnsgd1na2vs0mg"},{"bike_id":"65406e49-8594-4cfa-8223-dde29203d51c","system_id":"levelo_inurba_marseille","lat":43.27383,"lon":5.36253,"is_reserved":false,"is_disabled":false,"rental_uris":{"android":"levelo://app?vid=65406e49-8594-4cfa-8223-dde29203d51c","ios":"levelo://app?vid=65406e49-8594-4cfa-8223-dde29203d51c"},"vehicle_type_id":"4","last_reported":1729109382,"current_range_meters":8400,"station_id":"ce4bhbh2rcd13ifvqeo0","pricing_plan_id":"cebpf4jnsgd1na2vs0mg"},{"bike_id":"062fd435-e62a-4678-9d8e-1fcfac65814f","system_id":"levelo_inurba_marseille","lat":43.313328,"lon":5.396858,"is_reserved":false,"is_disabled":false,"rental_uris":{"android":"levelo://app?vid=062fd435-e62a-4678-9d8e-1fcfac65814f","ios":"levelo://app?vid=062fd435-e62a-4678-9d8e-1fcfac65814f"},"vehicle_type_id":"4","last_reported":1729109382,"current_range_meters":38800,"station_id":"ce4bgvp2rcd13ifvqcu0","pricing_plan_id":"cebpf4jnsgd1na2vs0mg"},{"bike_id":"ae34c915-6c8c-45f4-bd71-c5975b0e71f4","system_id":"levelo_inurba_marseille","lat":43.318817,"lon":5.407296,"is_reserved":false,"is_disabled":false,"rental_uris":{"android":"levelo://app?vid=ae34c915-6c8c-45f4-bd71-c5975b0e71f4","ios":"levelo://app?vid=ae34c915-6c8c-45f4-bd71-c5975b0e71f4"},"vehicle_type_id":"4","last_reported":1729109382,"current_range_meters":26800,"station_id":"ce4bhq12rcd13ifvqhig","pricing_plan_id":"cebpf4jnsgd1na2vs0mg"},{"bike_id":"7e022d50-fee0-48bd-8f68-64779ba65969","system_id":"levelo_inurba_marseille","lat":43.2572,"lon":5.41117,"is_reserved":false,"is_disabled":false,"rental_uris":{"android":"levelo://app?vid=7e022d50-fee0-48bd-8f68-64779ba65969","ios":"levelo://app?vid=7e022d50-fee0-48bd-8f68-64779ba65969"},"vehicle_type_id":"4","last_reported":1729109382,"current_range_meters":4800,"station_id":"ce4bhkp2rcd13ifvqgd0","pricing_plan_id":"cebpf4jnsgd1na2vs0mg"},{"bike_id":"84203c6b-3738-4857-9baa-9a4a42e258a4","system_id":"levelo_inurba_marseille","lat":43.2893,"lon":5.36408,"is_reserved":false,"is_disabled":false,"rental_uris":{"android":"levelo://app?vid=84203c6b-3738-4857-9baa-9a4a42e258a4","ios":"levelo://app?vid=84203c6b-3738-4857-9baa-9a4a42e258a4"},"vehicle_type_id":"4","last_reported":1729109382,"current_range_meters":30000,"station_id":"ce4bhc92rcd13ifvqetg","pricing_plan_id":"cebpf4jnsgd1na2vs0mg"},{"bike_id":"4b39118f-bb62-406b-9203-0b8ddf9c99cc","system_id":"levelo_inurba_marseille","lat":43.22934,"lon":5.35378,"is_reserved":false,"is_disabled":false,"rental_uris":{"android":"levelo://app?vid=4b39118f-bb62-406b-9203-0b8ddf9c99cc","ios":"levelo://app?vid=4b39118f-bb62-406b-9203-0b8ddf9c99cc"},"vehicle_type_id":"4","last_reported":1729109382,"current_range_meters":16400,"station_id":"cpo3532slgdg3j2ikp40","pricing_plan_id":"cebpf4jnsgd1na2vs0mg"},{"bike_id":"044358a4-9556-4db7-8947-9b9dbe130c14","system_id":"levelo_inurba_marseille","lat":43.33041,"lon":5.39055,"is_reserved":false,"is_disabled":false,"rental_uris":{"android":"levelo://app?vid=044358a4-9556-4db7-8947-9b9dbe130c14","ios":"levelo://app?vid=044358a4-9556-4db7-8947-9b9dbe130c14"},"vehicle_type_id":"4","last_reported":1729109382,"current_range_meters":25200,"station_id":"ce4bhr92rcd13ifvqhrg","pricing_plan_id":"cebpf4jnsgd1na2vs0mg"},{"bike_id":"157147d4-ce81-422f-ba0d-d6cdd72c5814","system_id":"levelo_inurba_marseille","lat":43.30325,"lon":5.40441,"is_reserved":false,"is_disabled":false,"rental_uris":{"android":"levelo://app?vid=157147d4-ce81-422f-ba0d-d6cdd72c5814","ios":"levelo://app?vid=157147d4-ce81-422f-ba0d-d6cdd72c5814"},"vehicle_type_id":"4","last_reported":1729109382,"current_range_meters":22800,"station_id":"ce4bh012rcd13ifvqd10","pricing_plan_id":"cebpf4jnsgd1na2vs0mg"},{"bike_id":"15a0fb58-97fc-44a6-a470-84a4ce5fd498","system_id":"levelo_inurba_marseille","lat":43.306,"lon":5.39358,"is_reserved":false,"is_disabled":false,"rental_uris":{"android":"levelo://app?vid=15a0fb58-97fc-44a6-a470-84a4ce5fd498","ios":"levelo://app?vid=15a0fb58-97fc-44a6-a470-84a4ce5fd498"},"vehicle_type_id":"4","last_reported":1729109382,"current_range_meters":29600,"station_id":"ce4bh0p2rcd13ifvqd80","pricing_plan_id":"cebpf4jnsgd1na2vs0mg"},{"bike_id":"f5fa6493-fc7c-42e4-b3f8-48e1a1dd711c","system_id":"levelo_inurba_marseille","lat":43.31325,"lon":5.39695,"is_reserved":false,"is_disabled":false,"rental_uris":{"android":"levelo://app?vid=f5fa6493-fc7c-42e4-b3f8-48e1a1dd711c","ios":"levelo://app?vid=f5fa6493-fc7c-42e4-b3f8-48e1a1dd711c"},"vehicle_type_id":"4","last_reported":1729109382,"current_range_meters":24000,"station_id":"ce4bgvp2rcd13ifvqcu0","pricing_plan_id":"cebpf4jnsgd1na2vs0mg"},{"bike_id":"a9d80141-cb04-4f88-bcc5-9763572e3517","system_id":"levelo_inurba_marseille","lat":43.23194,"lon":5.35548,"is_reserved":false,"is_disabled":false,"rental_uris":{"android":"levelo://app?vid=a9d80141-cb04-4f88-bcc5-9763572e3517","ios":"levelo://app?vid=a9d80141-cb04-4f88-bcc5-9763572e3517"},"vehicle_type_id":"4","last_reported":1729109382,"current_range_meters":36800,"station_id":"ce4bhu92rcd13ifvqi70","pricing_plan_id":"cebpf4jnsgd1na2vs0mg"},{"bike_id":"2c6e294c-f13d-4321-8a92-e25b2a5b65ea","system_id":"levelo_inurba_marseille","lat":43.2846,"lon":5.35892,"is_reserved":false,"is_disabled":false,"rental_uris":{"android":"levelo://app?vid=2c6e294c-f13d-4321-8a92-e25b2a5b65ea","ios":"levelo://app?vid=2c6e294c-f13d-4321-8a92-e25b2a5b65ea"},"vehicle_type_id":"4","last_reported":1729109382,"current_range_meters":38800,"station_id":"ce4bhah2rcd13ifvqei0","pricing_plan_id":"cebpf4jnsgd1na2vs0mg"},{"bike_id":"f09d2f46-f729-48d6-a3d6-ac12acf34246","system_id":"levelo_inurba_marseille","lat":43.28616,"lon":5.35102,"is_reserved":false,"is_disabled":false,"rental_uris":{"android":"levelo://app?vid=f09d2f46-f729-48d6-a3d6-ac12acf34246","ios":"levelo://app?vid=f09d2f46-f729-48d6-a3d6-ac12acf34246"},"vehicle_type_id":"4","last_reported":1729109382,"current_range_meters":21600,"station_id":"ce4bhch2rcd13ifvqeug","pricing_plan_id":"cebpf4jnsgd1na2vs0mg"},{"bike_id":"58fc0300-f080-417b-95f8-1703c9f98f7e","system_id":"levelo_inurba_marseille","lat":43.29697,"lon":5.37429,"is_reserved":false,"is_disabled":false,"rental_uris":{"android":"levelo://app?vid=58fc0300-f080-417b-95f8-1703c9f98f7e","ios":"levelo://app?vid=58fc0300-f080-417b-95f8-1703c9f98f7e"},"vehicle_type_id":"4","last_reported":1729109382,"current_range_meters":17200,"station_id":"","pricing_plan_id":"cebpf4jnsgd1na2vs0mg"},{"bike_id":"8dd2e3cf-bd56-4995-8abf-09c0673583de","system_id":"levelo_inurba_marseille","lat":43.2845,"lon":5.35887,"is_reserved":false,"is_disabled":false,"rental_uris":{"android":"levelo://app?vid=8dd2e3cf-bd56-4995-8abf-09c0673583de","ios":"levelo://app?vid=8dd2e3cf-bd56-4995-8abf-09c0673583de"},"vehicle_type_id":"4","last_reported":1729109382,"current_range_meters":38800,"station_id":"ce4bhah2rcd13ifvqei0","pricing_plan_id":"cebpf4jnsgd1na2vs0mg"},{"bike_id":"4f00c2b5-5278-421c-be9b-8b7ab009d1bf","system_id":"levelo_inurba_marseille","lat":43.287933,"lon":5.378372,"is_reserved":false,"is_disabled":false,"rental_uris":{"android":"levelo://app?vid=4f00c2b5-5278-421c-be9b-8b7ab009d1bf","ios":"levelo://app?vid=4f00c2b5-5278-421c-be9b-8b7ab009d1bf"},"vehicle_type_id":"4","last_reported":1729109382,"current_range_meters":4000,"station_id":"","pricing_plan_id":"cebpf4jnsgd1na2vs0mg"},{"bike_id":"c12e10f3-ffba-448c-9ef2-25059b0d9c6f","system_id":"levelo_inurba_marseille","lat":43.29872,"lon":5.38907,"is_reserved":false,"is_disabled":false,"rental_uris":{"android":"levelo://app?vid=c12e10f3-ffba-448c-9ef2-25059b0d9c6f","ios":"levelo://app?vid=c12e10f3-ffba-448c-9ef2-25059b0d9c6f"},"vehicle_type_id":"4","last_reported":1729109382,"current_range_meters":32400,"station_id":"ce4bh392rcd13ifvqdl0","pricing_plan_id":"cebpf4jnsgd1na2vs0mg"},{"bike_id":"d9a323b0-ce75-4932-8073-0726874a2cda","system_id":"levelo_inurba_marseille","lat":43.27613,"lon":5.36106,"is_reserved":false,"is_disabled":false,"rental_uris":{"android":"levelo://app?vid=d9a323b0-ce75-4932-8073-0726874a2cda","ios":"levelo://app?vid=d9a323b0-ce75-4932-8073-0726874a2cda"},"vehicle_type_id":"4","last_reported":1729109382,"current_range_meters":32000,"station_id":"ce4bgj92rcd13ifvqbe0","pricing_plan_id":"cebpf4jnsgd1na2vs0mg"},{"bike_id":"0ec05727-e2d2-42fb-a9cf-bb4e194ed6c5","system_id":"levelo_inurba_marseille","lat":43.27953,"lon":5.41047,"is_reserved":false,"is_disabled":false,"rental_uris":{"android":"levelo://app?vid=0ec05727-e2d2-42fb-a9cf-bb4e194ed6c5","ios":"levelo://app?vid=0ec05727-e2d2-42fb-a9cf-bb4e194ed6c5"},"vehicle_type_id":"4","last_reported":1729109382,"current_range_meters":35600,"station_id":"ce4bhnp2rcd13ifvqh0g","pricing_plan_id":"cebpf4jnsgd1na2vs0mg"},{"bike_id":"611b40ab-c323-47e2-8bf3-363bc524e6c6","system_id":"levelo_inurba_marseille","lat":43.29305,"lon":5.37186,"is_reserved":false,"is_disabled":false,"rental_uris":{"android":"levelo://app?vid=611b40ab-c323-47e2-8bf3-363bc524e6c6","ios":"levelo://app?vid=611b40ab-c323-47e2-8bf3-363bc524e6c6"},"vehicle_type_id":"4","last_reported":1729109382,"current_range_meters":26000,"station_id":"ce4bgh92rcd13ifvqb40","pricing_plan_id":"cebpf4jnsgd1na2vs0mg"},{"bike_id":"7ff36f83-b374-4cdb-a5f2-89010a244830","system_id":"levelo_inurba_marseille","lat":43.28571,"lon":5.39489,"is_reserved":false,"is_disabled":false,"rental_uris":{"android":"levelo://app?vid=7ff36f83-b374-4cdb-a5f2-89010a244830","ios":"levelo://app?vid=7ff36f83-b374-4cdb-a5f2-89010a244830"},"vehicle_type_id":"4","last_reported":1729109382,"current_range_meters":38800,"station_id":"ce4bh292rcd13ifvqdg0","pricing_plan_id":"cebpf4jnsgd1na2vs0mg"},{"bike_id":"d41309ab-1a1f-4395-acaa-455483c3f8e1","system_id":"levelo_inurba_marseille","lat":43.23193,"lon":5.3556,"is_reserved":false,"is_disabled":false,"rental_uris":{"android":"levelo://app?vid=d41309ab-1a1f-4395-acaa-455483c3f8e1","ios":"levelo://app?vid=d41309ab-1a1f-4395-acaa-455483c3f8e1"},"vehicle_type_id":"4","last_reported":1729109382,"current_range_meters":38800,"station_id":"ce4bhu92rcd13ifvqi70","pricing_plan_id":"cebpf4jnsgd1na2vs0mg"},{"bike_id":"1356d4ef-9a94-4462-9c7a-c5993d9eaaa3","system_id":"levelo_inurba_marseille","lat":43.291748,"lon":5.373176,"is_reserved":false,"is_disabled":false,"rental_uris":{"android":"levelo://app?vid=1356d4ef-9a94-4462-9c7a-c5993d9eaaa3","ios":"levelo://app?vid=1356d4ef-9a94-4462-9c7a-c5993d9eaaa3"},"vehicle_type_id":"4","last_reported":1729109382,"current_range_meters":36000,"station_id":"","pricing_plan_id":"cebpf4jnsgd1na2vs0mg"},{"bike_id":"423bc40c-69fa-4410-8647-c9dc4523555a","system_id":"levelo_inurba_marseille","lat":43.25856,"lon":5.39905,"is_reserved":false,"is_disabled":false,"rental_uris":{"android":"levelo://app?vid=423bc40c-69fa-4410-8647-c9dc4523555a","ios":"levelo://app?vid=423bc40c-69fa-4410-8647-c9dc4523555a"},"vehicle_type_id":"4","last_reported":1729109382,"current_range_meters":38800,"station_id":"ce4bhl92rcd13ifvqghg","pricing_plan_id":"cebpf4jnsgd1na2vs0mg"},{"bike_id":"47640dc6-f9a5-4852-99d5-a7182f022a92","system_id":"levelo_inurba_marseille","lat":43.30166,"lon":5.38911,"is_reserved":false,"is_disabled":false,"rental_uris":{"android":"levelo://app?vid=47640dc6-f9a5-4852-99d5-a7182f022a92","ios":"levelo://app?vid=47640dc6-f9a5-4852-99d5-a7182f022a92"},"vehicle_type_id":"4","last_reported":1729109382,"current_range_meters":34000,"station_id":"ce4bgvh2rcd13ifvqcs0","pricing_plan_id":"cebpf4jnsgd1na2vs0mg"},{"bike_id":"0cbdff9d-d656-4d6b-aae9-a049bc5605d3","system_id":"levelo_inurba_marseille","lat":43.243872,"lon":5.370513,"is_reserved":false,"is_disabled":false,"rental_uris":{"android":"levelo://app?vid=0cbdff9d-d656-4d6b-aae9-a049bc5605d3","ios":"levelo://app?vid=0cbdff9d-d656-4d6b-aae9-a049bc5605d3"},"vehicle_type_id":"4","last_reported":1729109382,"current_range_meters":29600,"station_id":"ce4bhhh2rcd13ifvqfk0","pricing_plan_id":"cebpf4jnsgd1na2vs0mg"},{"bike_id":"a572217d-c1c6-46bc-95af-7cfb429a3976","system_id":"levelo_inurba_marseille","lat":43.28456,"lon":5.3589,"is_reserved":false,"is_disabled":false,"rental_uris":{"android":"levelo://app?vid=a572217d-c1c6-46bc-95af-7cfb429a3976","ios":"levelo://app?vid=a572217d-c1c6-46bc-95af-7cfb429a3976"},"vehicle_type_id":"4","last_reported":1729109382,"current_range_meters":8800,"station_id":"ce4bhah2rcd13ifvqei0","pricing_plan_id":"cebpf4jnsgd1na2vs0mg"},{"bike_id":"f09cebd6-697c-409a-86ed-995bdccccac7","system_id":"levelo_inurba_marseille","lat":43.31481,"lon":5.36859,"is_reserved":false,"is_disabled":false,"rental_uris":{"android":"levelo://app?vid=f09cebd6-697c-409a-86ed-995bdccccac7","ios":"levelo://app?vid=f09cebd6-697c-409a-86ed-995bdccccac7"},"vehicle_type_id":"4","last_reported":1729109382,"current_range_meters":33600,"station_id":"","pricing_plan_id":"cebpf4jnsgd1na2vs0mg"},{"bike_id":"8f82709f-a880-4bb8-baf4-102e4fd55d3f","system_id":"levelo_inurba_marseille","lat":43.27936,"lon":5.41044,"is_reserved":false,"is_disabled":false,"rental_uris":{"android":"levelo://app?vid=8f82709f-a880-4bb8-baf4-102e4fd55d3f","ios":"levelo://app?vid=8f82709f-a880-4bb8-baf4-102e4fd55d3f"},"vehicle_type_id":"4","last_reported":1729109382,"current_range_meters":28800,"station_id":"ce4bhnp2rcd13ifvqh0g","pricing_plan_id":"cebpf4jnsgd1na2vs0mg"},{"bike_id":"033a7f68-f273-426e-84a9-8a3b2c56f6f5","system_id":"levelo_inurba_marseille","lat":43.35096,"lon":5.36807,"is_reserved":false,"is_disabled":false,"rental_uris":{"android":"levelo://app?vid=033a7f68-f273-426e-84a9-8a3b2c56f6f5","ios":"levelo://app?vid=033a7f68-f273-426e-84a9-8a3b2c56f6f5"},"vehicle_type_id":"4","last_reported":1729109382,"current_range_meters":10000,"station_id":"","pricing_plan_id":"cebpf4jnsgd1na2vs0mg"},{"bike_id":"a6248880-b09e-4871-8d7b-144a6d0312dd","system_id":"levelo_inurba_marseille","lat":43.2943,"lon":5.385977,"is_reserved":false,"is_disabled":false,"rental_uris":{"android":"levelo://app?vid=a6248880-b09e-4871-8d7b-144a6d0312dd","ios":"levelo://app?vid=a6248880-b09e-4871-8d7b-144a6d0312dd"},"vehicle_type_id":"4","last_reported":1729109382,"current_range_meters":9600,"station_id":"ce4bh2h2rcd13ifvqdh0","pricing_plan_id":"cebpf4jnsgd1na2vs0mg"},{"bike_id":"eb6946e8-d20f-456f-b5bf-ca11a1f468f2","system_id":"levelo_inurba_marseille","lat":43.31275,"lon":5.40173,"is_reserved":false,"is_disabled":false,"rental_uris":{"android":"levelo://app?vid=eb6946e8-d20f-456f-b5bf-ca11a1f468f2","ios":"levelo://app?vid=eb6946e8-d20f-456f-b5bf-ca11a1f468f2"},"vehicle_type_id":"4","last_reported":1729109382,"current_range_meters":20000,"station_id":"ce4bh092rcd13ifvqd30","pricing_plan_id":"cebpf4jnsgd1na2vs0mg"},{"bike_id":"2409b648-5408-4fb7-a1a2-a7422b380e39","system_id":"levelo_inurba_marseille","lat":43.28653,"lon":5.36348,"is_reserved":false,"is_disabled":false,"rental_uris":{"android":"levelo://app?vid=2409b648-5408-4fb7-a1a2-a7422b380e39","ios":"levelo://app?vid=2409b648-5408-4fb7-a1a2-a7422b380e39"},"vehicle_type_id":"4","last_reported":1729109382,"current_range_meters":32400,"station_id":"ce4bhah2rcd13ifvqej0","pricing_plan_id":"cebpf4jnsgd1na2vs0mg"},{"bike_id":"1af2813b-98a0-4b62-aaf8-89652b30f639","system_id":"levelo_inurba_marseille","lat":43.2294,"lon":5.3538,"is_reserved":false,"is_disabled":false,"rental_uris":{"android":"levelo://app?vid=1af2813b-98a0-4b62-aaf8-89652b30f639","ios":"levelo://app?vid=1af2813b-98a0-4b62-aaf8-89652b30f639"},"vehicle_type_id":"4","last_reported":1729109382,"current_range_meters":24400,"station_id":"cpo3532slgdg3j2ikp40","pricing_plan_id":"cebpf4jnsgd1na2vs0mg"},{"bike_id":"fb933d35-6f9c-4f01-bae7-8f45bd52d41a","system_id":"levelo_inurba_marseille","lat":43.29529,"lon":5.38542,"is_reserved":false,"is_disabled":false,"rental_uris":{"android":"levelo://app?vid=fb933d35-6f9c-4f01-bae7-8f45bd52d41a","ios":"levelo://app?vid=fb933d35-6f9c-4f01-bae7-8f45bd52d41a"},"vehicle_type_id":"4","last_reported":1729109382,"current_range_meters":38400,"station_id":"ce4bgih2rcd13ifvqba0","pricing_plan_id":"cebpf4jnsgd1na2vs0mg"},{"bike_id":"8c060c08-fd52-4c5c-a428-b0f3b564afca","system_id":"levelo_inurba_marseille","lat":43.29407,"lon":5.38618,"is_reserved":false,"is_disabled":false,"rental_uris":{"android":"levelo://app?vid=8c060c08-fd52-4c5c-a428-b0f3b564afca","ios":"levelo://app?vid=8c060c08-fd52-4c5c-a428-b0f3b564afca"},"vehicle_type_id":"4","last_reported":1729109382,"current_range_meters":30800,"station_id":"ce4bh2h2rcd13ifvqdh0","pricing_plan_id":"cebpf4jnsgd1na2vs0mg"},{"bike_id":"ac2c8a7c-ea6f-44c3-a289-2291eca1989c","system_id":"levelo_inurba_marseille","lat":43.29281,"lon":5.40114,"is_reserved":false,"is_disabled":false,"rental_uris":{"android":"levelo://app?vid=ac2c8a7c-ea6f-44c3-a289-2291eca1989c","ios":"levelo://app?vid=ac2c8a7c-ea6f-44c3-a289-2291eca1989c"},"vehicle_type_id":"4","last_reported":1729109382,"current_range_meters":35600,"station_id":"ce4bh312rcd13ifvqdk0","pricing_plan_id":"cebpf4jnsgd1na2vs0mg"},{"bike_id":"f93454e1-a669-4c63-a4ca-b572042c7971","system_id":"levelo_inurba_marseille","lat":43.23193,"lon":5.35562,"is_reserved":false,"is_disabled":false,"rental_uris":{"android":"levelo://app?vid=f93454e1-a669-4c63-a4ca-b572042c7971","ios":"levelo://app?vid=f93454e1-a669-4c63-a4ca-b572042c7971"},"vehicle_type_id":"4","last_reported":1729109382,"current_range_meters":18000,"station_id":"ce4bhu92rcd13ifvqi70","pricing_plan_id":"cebpf4jnsgd1na2vs0mg"},{"bike_id":"5991a3d2-0cb9-494d-b3ed-321a28cd7251","system_id":"levelo_inurba_marseille","lat":43.22941,"lon":5.35379,"is_reserved":false,"is_disabled":false,"rental_uris":{"android":"levelo://app?vid=5991a3d2-0cb9-494d-b3ed-321a28cd7251","ios":"levelo://app?vid=5991a3d2-0cb9-494d-b3ed-321a28cd7251"},"vehicle_type_id":"4","last_reported":1729109382,"current_range_meters":38800,"station_id":"cpo3532slgdg3j2ikp40","pricing_plan_id":"cebpf4jnsgd1na2vs0mg"},{"bike_id":"813212b0-9609-470b-93ce-066faaa35ae3","system_id":"levelo_inurba_marseille","lat":43.30639,"lon":5.40083,"is_reserved":false,"is_disabled":false,"rental_uris":{"android":"levelo://app?vid=813212b0-9609-470b-93ce-066faaa35ae3","ios":"levelo://app?vid=813212b0-9609-470b-93ce-066faaa35ae3"},"vehicle_type_id":"4","last_reported":1729109382,"current_range_meters":38800,"station_id":"ce4bh112rcd13ifvqda0","pricing_plan_id":"cebpf4jnsgd1na2vs0mg"},{"bike_id":"6949cde2-e4ff-4f27-9d8d-dbf04678e6f4","system_id":"levelo_inurba_marseille","lat":43.28099,"lon":5.37838,"is_reserved":false,"is_disabled":false,"rental_uris":{"android":"levelo://app?vid=6949cde2-e4ff-4f27-9d8d-dbf04678e6f4","ios":"levelo://app?vid=6949cde2-e4ff-4f27-9d8d-dbf04678e6f4"},"vehicle_type_id":"4","last_reported":1729109382,"current_range_meters":38800,"station_id":"ce4bha12rcd13ifvqee0","pricing_plan_id":"cebpf4jnsgd1na2vs0mg"},{"bike_id":"4cb0e1a9-7df1-4a4e-ac4a-f1d3ac701a5f","system_id":"levelo_inurba_marseille","lat":43.31758,"lon":5.39014,"is_reserved":false,"is_disabled":false,"rental_uris":{"android":"levelo://app?vid=4cb0e1a9-7df1-4a4e-ac4a-f1d3ac701a5f","ios":"levelo://app?vid=4cb0e1a9-7df1-4a4e-ac4a-f1d3ac701a5f"},"vehicle_type_id":"4","last_reported":1729109382,"current_range_meters":20400,"station_id":"ce4bhqp2rcd13ifvqhng","pricing_plan_id":"cebpf4jnsgd1na2vs0mg"},{"bike_id":"1b95c7d8-acaf-45e7-8b8b-0de4c90c9d6f","system_id":"levelo_inurba_marseille","lat":43.302551,"lon":5.400701,"is_reserved":false,"is_disabled":false,"rental_uris":{"android":"levelo://app?vid=1b95c7d8-acaf-45e7-8b8b-0de4c90c9d6f","ios":"levelo://app?vid=1b95c7d8-acaf-45e7-8b8b-0de4c90c9d6f"},"vehicle_type_id":"4","last_reported":1729109382,"current_range_meters":38000,"station_id":"ce4bgvh2rcd13ifvqcs0","pricing_plan_id":"cebpf4jnsgd1na2vs0mg"},{"bike_id":"d7e46f4f-9fe1-418e-a157-668d74189314","system_id":"levelo_inurba_marseille","lat":43.31884,"lon":5.40729,"is_reserved":false,"is_disabled":false,"rental_uris":{"android":"levelo://app?vid=d7e46f4f-9fe1-418e-a157-668d74189314","ios":"levelo://app?vid=d7e46f4f-9fe1-418e-a157-668d74189314"},"vehicle_type_id":"4","last_reported":1729109382,"current_range_meters":40000,"station_id":"ce4bhq12rcd13ifvqhig","pricing_plan_id":"cebpf4jnsgd1na2vs0mg"},{"bike_id":"cc85962f-2424-4de7-837e-cc311911c414","system_id":"levelo_inurba_marseille","lat":43.2465,"lon":5.38903,"is_reserved":false,"is_disabled":false,"rental_uris":{"android":"levelo://app?vid=cc85962f-2424-4de7-837e-cc311911c414","ios":"levelo://app?vid=cc85962f-2424-4de7-837e-cc311911c414"},"vehicle_type_id":"4","last_reported":1729109382,"current_range_meters":37600,"station_id":"ce4bhg12rcd13ifvqf60","pricing_plan_id":"cebpf4jnsgd1na2vs0mg"},{"bike_id":"be95fa02-e7b9-475a-b011-5c99e0709b21","system_id":"levelo_inurba_marseille","lat":43.27369,"lon":5.36258,"is_reserved":false,"is_disabled":false,"rental_uris":{"android":"levelo://app?vid=be95fa02-e7b9-475a-b011-5c99e0709b21","ios":"levelo://app?vid=be95fa02-e7b9-475a-b011-5c99e0709b21"},"vehicle_type_id":"4","last_reported":1729109382,"current_range_meters":10800,"station_id":"ce4bhbh2rcd13ifvqeo0","pricing_plan_id":"cebpf4jnsgd1na2vs0mg"},{"bike_id":"2d58be51-ce76-497a-b962-71ba49f9042f","system_id":"levelo_inurba_marseille","lat":43.30275,"lon":5.37708,"is_reserved":false,"is_disabled":false,"rental_uris":{"android":"levelo://app?vid=2d58be51-ce76-497a-b962-71ba49f9042f","ios":"levelo://app?vid=2d58be51-ce76-497a-b962-71ba49f9042f"},"vehicle_type_id":"4","last_reported":1729109382,"current_range_meters":3600,"station_id":"ce4bguh2rcd13ifvqcj0","pricing_plan_id":"cebpf4jnsgd1na2vs0mg"},{"bike_id":"c113f9ea-2bfc-4f99-873f-0de15d9a6490","system_id":"levelo_inurba_marseille","lat":43.26954,"lon":5.38626,"is_reserved":false,"is_disabled":false,"rental_uris":{"android":"levelo://app?vid=c113f9ea-2bfc-4f99-873f-0de15d9a6490","ios":"levelo://app?vid=c113f9ea-2bfc-4f99-873f-0de15d9a6490"},"vehicle_type_id":"4","last_reported":1729109382,"current_range_meters":18000,"station_id":"ce4bhh92rcd13ifvqfh0","pricing_plan_id":"cebpf4jnsgd1na2vs0mg"},{"bike_id":"168d70a8-6977-4ba9-8955-97f3f4fcfa76","system_id":"levelo_inurba_marseille","lat":43.27948,"lon":5.41043,"is_reserved":false,"is_disabled":false,"rental_uris":{"android":"levelo://app?vid=168d70a8-6977-4ba9-8955-97f3f4fcfa76","ios":"levelo://app?vid=168d70a8-6977-4ba9-8955-97f3f4fcfa76"},"vehicle_type_id":"4","last_reported":1729109382,"current_range_meters":28400,"station_id":"ce4bhnp2rcd13ifvqh0g","pricing_plan_id":"cebpf4jnsgd1na2vs0mg"},{"bike_id":"2621c7a0-d2ef-49c9-9a02-ab7b928ce98d","system_id":"levelo_inurba_marseille","lat":43.27494,"lon":5.42454,"is_reserved":false,"is_disabled":false,"rental_uris":{"android":"levelo://app?vid=2621c7a0-d2ef-49c9-9a02-ab7b928ce98d","ios":"levelo://app?vid=2621c7a0-d2ef-49c9-9a02-ab7b928ce98d"},"vehicle_type_id":"4","last_reported":1729109382,"current_range_meters":29600,"station_id":"ce4bhn92rcd13ifvqgrg","pricing_plan_id":"cebpf4jnsgd1na2vs0mg"},{"bike_id":"20558bd5-b849-45d7-bb49-19822b69f191","system_id":"levelo_inurba_marseille","lat":43.3126,"lon":5.40163,"is_reserved":false,"is_disabled":false,"rental_uris":{"android":"levelo://app?vid=20558bd5-b849-45d7-bb49-19822b69f191","ios":"levelo://app?vid=20558bd5-b849-45d7-bb49-19822b69f191"},"vehicle_type_id":"4","last_reported":1729109382,"current_range_meters":24800,"station_id":"ce4bh092rcd13ifvqd30","pricing_plan_id":"cebpf4jnsgd1na2vs0mg"},{"bike_id":"02defe18-436d-40cf-a8a4-4c3decc6eac0","system_id":"levelo_inurba_marseille","lat":43.32656,"lon":5.40996,"is_reserved":false,"is_disabled":false,"rental_uris":{"android":"levelo://app?vid=02defe18-436d-40cf-a8a4-4c3decc6eac0","ios":"levelo://app?vid=02defe18-436d-40cf-a8a4-4c3decc6eac0"},"vehicle_type_id":"4","last_reported":1729109382,"current_range_meters":2800,"station_id":"ce4bhpp2rcd13ifvqhgg","pricing_plan_id":"cebpf4jnsgd1na2vs0mg"},{"bike_id":"b1514ed7-d31f-49e2-896d-f85497553e8d","system_id":"levelo_inurba_marseille","lat":43.337444,"lon":5.374475,"is_reserved":false,"is_disabled":false,"rental_uris":{"android":"levelo://app?vid=b1514ed7-d31f-49e2-896d-f85497553e8d","ios":"levelo://app?vid=b1514ed7-d31f-49e2-896d-f85497553e8d"},"vehicle_type_id":"4","last_reported":1729109382,"current_range_meters":38800,"station_id":"","pricing_plan_id":"cebpf4jnsgd1na2vs0mg"},{"bike_id":"ceaea5ee-dd41-48e4-814a-8b7b7ef4061a","system_id":"levelo_inurba_marseille","lat":43.32268,"lon":5.38727,"is_reserved":false,"is_disabled":false,"rental_uris":{"android":"levelo://app?vid=ceaea5ee-dd41-48e4-814a-8b7b7ef4061a","ios":"levelo://app?vid=ceaea5ee-dd41-48e4-814a-8b7b7ef4061a"},"vehicle_type_id":"4","last_reported":1729109382,"current_range_meters":17600,"station_id":"","pricing_plan_id":"cebpf4jnsgd1na2vs0mg"},{"bike_id":"34dd65b3-3034-43e3-ac77-d05a30c9f0be","system_id":"levelo_inurba_marseille","lat":43.29538,"lon":5.38536,"is_reserved":false,"is_disabled":false,"rental_uris":{"android":"levelo://app?vid=34dd65b3-3034-43e3-ac77-d05a30c9f0be","ios":"levelo://app?vid=34dd65b3-3034-43e3-ac77-d05a30c9f0be"},"vehicle_type_id":"4","last_reported":1729109382,"current_range_meters":37600,"station_id":"ce4bgih2rcd13ifvqba0","pricing_plan_id":"cebpf4jnsgd1na2vs0mg"},{"bike_id":"0b6e9ce1-91c2-46eb-8e6c-7845439f319c","system_id":"levelo_inurba_marseille","lat":43.29305,"lon":5.37188,"is_reserved":false,"is_disabled":false,"rental_uris":{"android":"levelo://app?vid=0b6e9ce1-91c2-46eb-8e6c-7845439f319c","ios":"levelo://app?vid=0b6e9ce1-91c2-46eb-8e6c-7845439f319c"},"vehicle_type_id":"4","last_reported":1729109382,"current_range_meters":36000,"station_id":"ce4bgh92rcd13ifvqb40","pricing_plan_id":"cebpf4jnsgd1na2vs0mg"},{"bike_id":"1d1690d8-7bf9-4891-95e8-0c58c44f3633","system_id":"levelo_inurba_marseille","lat":43.29879,"lon":5.39737,"is_reserved":false,"is_disabled":false,"rental_uris":{"android":"levelo://app?vid=1d1690d8-7bf9-4891-95e8-0c58c44f3633","ios":"levelo://app?vid=1d1690d8-7bf9-4891-95e8-0c58c44f3633"},"vehicle_type_id":"4","last_reported":1729109382,"current_range_meters":30400,"station_id":"ce4bh0h2rcd13ifvqd50","pricing_plan_id":"cebpf4jnsgd1na2vs0mg"},{"bike_id":"404a92b0-bf88-4a73-8fc4-a06d9938e9e5","system_id":"levelo_inurba_marseille","lat":43.3064,"lon":5.40084,"is_reserved":false,"is_disabled":false,"rental_uris":{"android":"levelo://app?vid=404a92b0-bf88-4a73-8fc4-a06d9938e9e5","ios":"levelo://app?vid=404a92b0-bf88-4a73-8fc4-a06d9938e9e5"},"vehicle_type_id":"4","last_reported":1729109382,"current_range_meters":38800,"station_id":"ce4bh112rcd13ifvqda0","pricing_plan_id":"cebpf4jnsgd1na2vs0mg"},{"bike_id":"655c4a8f-a8dd-49d7-9bca-5b3089d283e9","system_id":"levelo_inurba_marseille","lat":43.2558,"lon":5.38234,"is_reserved":false,"is_disabled":false,"rental_uris":{"android":"levelo://app?vid=655c4a8f-a8dd-49d7-9bca-5b3089d283e9","ios":"levelo://app?vid=655c4a8f-a8dd-49d7-9bca-5b3089d283e9"},"vehicle_type_id":"4","last_reported":1729109382,"current_range_meters":26800,"station_id":"ce4bhih2rcd13ifvqfs0","pricing_plan_id":"cebpf4jnsgd1na2vs0mg"},{"bike_id":"556c10a1-f259-4d6c-bf91-beeb3203faca","system_id":"levelo_inurba_marseille","lat":43.290192,"lon":5.355992,"is_reserved":false,"is_disabled":false,"rental_uris":{"android":"levelo://app?vid=556c10a1-f259-4d6c-bf91-beeb3203faca","ios":"levelo://app?vid=556c10a1-f259-4d6c-bf91-beeb3203faca"},"vehicle_type_id":"4","last_reported":1729109382,"current_range_meters":22800,"station_id":"ce4bh4p2rcd13ifvqe1g","pricing_plan_id":"cebpf4jnsgd1na2vs0mg"},{"bike_id":"f94da947-b1a0-40ed-8143-ed5ebffc5c44","system_id":"levelo_inurba_marseille","lat":43.27955,"lon":5.41045,"is_reserved":false,"is_disabled":false,"rental_uris":{"android":"levelo://app?vid=f94da947-b1a0-40ed-8143-ed5ebffc5c44","ios":"levelo://app?vid=f94da947-b1a0-40ed-8143-ed5ebffc5c44"},"vehicle_type_id":"4","last_reported":1729109382,"current_range_meters":33600,"station_id":"ce4bhnp2rcd13ifvqh0g","pricing_plan_id":"cebpf4jnsgd1na2vs0mg"},{"bike_id":"aaeced60-ecc7-4d7f-855b-d5de5209c751","system_id":"levelo_inurba_marseille","lat":43.31755,"lon":5.3902,"is_reserved":false,"is_disabled":false,"rental_uris":{"android":"levelo://app?vid=aaeced60-ecc7-4d7f-855b-d5de5209c751","ios":"levelo://app?vid=aaeced60-ecc7-4d7f-855b-d5de5209c751"},"vehicle_type_id":"4","last_reported":1729109382,"current_range_meters":37600,"station_id":"ce4bhqp2rcd13ifvqhng","pricing_plan_id":"cebpf4jnsgd1na2vs0mg"},{"bike_id":"4582b4d6-30b4-4a53-8ede-75cdfe196628","system_id":"levelo_inurba_marseille","lat":43.28106,"lon":5.37846,"is_reserved":false,"is_disabled":false,"rental_uris":{"android":"levelo://app?vid=4582b4d6-30b4-4a53-8ede-75cdfe196628","ios":"levelo://app?vid=4582b4d6-30b4-4a53-8ede-75cdfe196628"},"vehicle_type_id":"4","last_reported":1729109382,"current_range_meters":8800,"station_id":"ce4bha12rcd13ifvqee0","pricing_plan_id":"cebpf4jnsgd1na2vs0mg"},{"bike_id":"44a601c7-f8a6-43f6-b26e-4bedb67259af","system_id":"levelo_inurba_marseille","lat":43.30899,"lon":5.37187,"is_reserved":false,"is_disabled":false,"rental_uris":{"android":"levelo://app?vid=44a601c7-f8a6-43f6-b26e-4bedb67259af","ios":"levelo://app?vid=44a601c7-f8a6-43f6-b26e-4bedb67259af"},"vehicle_type_id":"4","last_reported":1729109382,"current_range_meters":38800,"station_id":"ce4bguh2rcd13ifvqckg","pricing_plan_id":"cebpf4jnsgd1na2vs0mg"},{"bike_id":"2b230395-7d46-4918-8f78-38858bae7fc3","system_id":"levelo_inurba_marseille","lat":43.29297,"lon":5.37445,"is_reserved":false,"is_disabled":false,"rental_uris":{"android":"levelo://app?vid=2b230395-7d46-4918-8f78-38858bae7fc3","ios":"levelo://app?vid=2b230395-7d46-4918-8f78-38858bae7fc3"},"vehicle_type_id":"4","last_reported":1729109382,"current_range_meters":38800,"station_id":"ce4bgi12rcd13ifvqb70","pricing_plan_id":"cebpf4jnsgd1na2vs0mg"},{"bike_id":"ecea5373-73aa-47a0-b41d-f69c32da8ec2","system_id":"levelo_inurba_marseille","lat":43.23058,"lon":5.35494,"is_reserved":false,"is_disabled":false,"rental_uris":{"android":"levelo://app?vid=ecea5373-73aa-47a0-b41d-f69c32da8ec2","ios":"levelo://app?vid=ecea5373-73aa-47a0-b41d-f69c32da8ec2"},"vehicle_type_id":"4","last_reported":1729109382,"current_range_meters":9600,"station_id":"cpo3342slgdg3j2ifvpg","pricing_plan_id":"cebpf4jnsgd1na2vs0mg"},{"bike_id":"16eb8f03-6bf5-4035-8a8e-f82979ebcb1a","system_id":"levelo_inurba_marseille","lat":43.26936,"lon":5.38913,"is_reserved":false,"is_disabled":false,"rental_uris":{"android":"levelo://app?vid=16eb8f03-6bf5-4035-8a8e-f82979ebcb1a","ios":"levelo://app?vid=16eb8f03-6bf5-4035-8a8e-f82979ebcb1a"},"vehicle_type_id":"4","last_reported":1729109382,"current_range_meters":38800,"station_id":"ce4bhhh2rcd13ifvqfl0","pricing_plan_id":"cebpf4jnsgd1na2vs0mg"},{"bike_id":"ea8bb7d9-2f30-4721-aecb-ae7af478640a","system_id":"levelo_inurba_marseille","lat":43.27938,"lon":5.41048,"is_reserved":false,"is_disabled":false,"rental_uris":{"android":"levelo://app?vid=ea8bb7d9-2f30-4721-aecb-ae7af478640a","ios":"levelo://app?vid=ea8bb7d9-2f30-4721-aecb-ae7af478640a"},"vehicle_type_id":"4","last_reported":1729109382,"current_range_meters":34800,"station_id":"ce4bhnp2rcd13ifvqh0g","pricing_plan_id":"cebpf4jnsgd1na2vs0mg"},{"bike_id":"b0673aa3-2b05-4a7d-81bf-ee301cf7b404","system_id":"levelo_inurba_marseille","lat":43.2903,"lon":5.38643,"is_reserved":false,"is_disabled":false,"rental_uris":{"android":"levelo://app?vid=b0673aa3-2b05-4a7d-81bf-ee301cf7b404","ios":"levelo://app?vid=b0673aa3-2b05-4a7d-81bf-ee301cf7b404"},"vehicle_type_id":"4","last_reported":1729109382,"current_range_meters":38000,"station_id":"ce4bh4p2rcd13ifvqe0g","pricing_plan_id":"cebpf4jnsgd1na2vs0mg"},{"bike_id":"7b1efa6f-70dc-43a9-b1b0-a94fb8dd1287","system_id":"levelo_inurba_marseille","lat":43.28939,"lon":5.364033,"is_reserved":false,"is_disabled":false,"rental_uris":{"android":"levelo://app?vid=7b1efa6f-70dc-43a9-b1b0-a94fb8dd1287","ios":"levelo://app?vid=7b1efa6f-70dc-43a9-b1b0-a94fb8dd1287"},"vehicle_type_id":"4","last_reported":1729109382,"current_range_meters":39200,"station_id":"ce4bhc92rcd13ifvqetg","pricing_plan_id":"cebpf4jnsgd1na2vs0mg"},