{"last_updated":1768461448,"ttl":60,"version":"2.2","data":{"bikes":[{"bike_id":"7fb92e6f-a424-4ffc-abb2-da7fcf05d915","system_id":"levelo_inurba_marseille","lat":43.27815,"lon":5.40716,"is_reserved":false,"is_disabled":false,"rental_uris":{"android":"levelo://app?vid=7fb92e6f-a424-4ffc-abb2-da7fcf05d915","ios":"levelo://app?vid=7fb92e6f-a424-4ffc-abb2-da7fcf05d915"},"vehicle_type_id":"4","last_reported":1768461449,"current_range_meters":2800,"station_id":"ce4bhnh2rcd13ifvqgtg","pricing_plan_id":"cebpf4jnsgd1na2vs0mg"},{"bike_id":"36721136-aa91-4cd6-97ce-7a36ddb48889","system_id":"levelo_inurba_marseille","lat":43.28695,"lon":5.39983,"is_reserved":false,"is_disabled":false,"rental_uris":{"android":"levelo://app?vid=36721136-aa91-4cd6-97ce-7a36ddb48889","ios":"levelo://app?vid=36721136-aa91-4cd6-97ce-7a36ddb48889"},"vehicle_type_id":"4","last_reported":1768461449,"current_range_meters":2800,"station_id":"ce4bho92rcd13ifvqh3g","pricing_plan_id":"cebpf4jnsgd1na2vs0mg"},{"bike_id":"dc322333-4210-467d-8d9e-d322d0c44168","system_id":"levelo_inurba_marseille","lat":43.25005,"lon":5.38906,"is_reserved":false,"is_disabled":false,"rental_uris":{"android":"levelo://app?vid=dc322333-4210-467d-8d9e-d322d0c44168","ios":"levelo://app?vid=dc322333-4210-467d-8d9e-d322d0c44168"},"vehicle_type_id":"4","last_reported":1768461449,"current_range_meters":2800,"station_id":"ce4bhgp2rcd13ifvqfd0","pricing_plan_id":"cebpf4jnsgd1na2vs0mg"},{"bike_id":"f3eefd84-65d4-4ce5-a621-e7e7d135fbf1","system_id":"levelo_inurba_marseille","lat":43.30811,"lon":5.3814,"is_reserved":false,"is_disabled":false,"rental_uris":{"android":"levelo://app?vid=f3eefd84-65d4-4ce5-a621-e7e7d135fbf1","ios":"levelo://app?vid=f3eefd84-65d4-4ce5-a621-e7e7d135fbf1"},"vehicle_type_id":"4","last_reported":1768461449,"current_range_meters":2800,"station_id":"ce4bgt12rcd13ifvqce0","pricing_plan_id":"cebpf4jnsgd1na2vs0mg"},{"bike_id":"2663c4b7-8968-4f97-b018-c26b8a7be62f","system_id":"levelo_inurba_marseille","lat":43.27369,"lon":5.36241,"is_reserved":false,"is_disabled":false,"rental_uris":{"android":"levelo://app?vid=2663c4b7-8968-4f97-b018-c26b8a7be62f","ios":"levelo://app?vid=2663c4b7-8968-4f97-b018-c26b8a7be62f"},"vehicle_type_id":"4","last_reported":1768461449,"current_range_meters":2800,"station_id":"ce4bhbh2rcd13ifvqeo0","pricing_plan_id":"cebpf4jnsgd1na2vs0mg"},{"bike_id":"323bdf5a-fc85-45ab-8b18-361a392bbea5","system_id":"levelo_inurba_marseille","lat":43.29938,"lon":5.37928,"is_reserved":false,"is_disabled":false,"rental_uris":{"android":"levelo://app?vid=323bdf5a-fc85-45ab-8b18-361a392bbea5","ios":"levelo://app?vid=323bdf5a-fc85-45ab-8b18-361a392bbea5"},"vehicle_type_id":"4","last_reported":1768461449,"current_range_meters":2800,"station_id":"","pricing_plan_id":"cebpf4jnsgd1na2vs0mg"},{"bike_id":"0496460c-cd9f-43fd-8720-c5e183ef0a0e","system_id":"levelo_inurba_marseille","lat":43.23797,"lon":5.36638,"is_reserved":false,"is_disabled":false,"rental_uris":{"android":"levelo://app?vid=0496460c-cd9f-43fd-8720-c5e183ef0a0e","ios":"levelo://app?vid=0496460c-cd9f-43fd-8720-c5e183ef0a0e"},"vehicle_type_id":"4","last_reported":1768461449,"current_range_meters":2800,"station_id":"st_d3nk18o9ro0c73en2l3g","pricing_plan_id":"cebpf4jnsgd1na2vs0mg"},{"bike_id":"233ccaff-2b44-4932-afc7-e2d4e7079f48","system_id":"levelo_inurba_marseille","lat":43.27226,"lon":5.39208,"is_reserved":false,"is_disabled":false,"rental_uris":{"android":"levelo://app?vid=233ccaff-2b44-4932-afc7-e2d4e7079f48","ios":"levelo://app?vid=233ccaff-2b44-4932-afc7-e2d4e7079f48"},"vehicle_type_id":"4","last_reported":1768461449,"current_range_meters":2800,"station_id":"ce4bhhp2rcd13ifvqfm0","pricing_plan_id":"cebpf4jnsgd1na2vs0mg"},{"bike_id":"749f3a25-cf33-4a40-b85b-545ae9d4cbc3","system_id":"levelo_inurba_marseille","lat":43.27209,"lon":5.39181,"is_reserved":false,"is_disabled":false,"rental_uris":{"android":"levelo://app?vid=749f3a25-cf33-4a40-b85b-545ae9d4cbc3","ios":"levelo://app?vid=749f3a25-cf33-4a40-b85b-545ae9d4cbc3"},"vehicle_type_id":"4","last_reported":1768461449,"current_range_meters":2800,"station_id":"ce4bhhp2rcd13ifvqfm0","pricing_plan_id":"cebpf4jnsgd1na2vs0mg"},{"bike_id":"9f1a7496-b325-4e5d-bc64-5233874d4e3c","system_id":"levelo_inurba_marseille","lat":43.30948,"lon":5.39031,"is_reserved":false,"is_disabled":false,"rental_uris":{"android":"levelo://app?vid=9f1a7496-b325-4e5d-bc64-5233874d4e3c","ios":"levelo://app?vid=9f1a7496-b325-4e5d-bc64-5233874d4e3c"},"vehicle_type_id":"4","last_reported":1768461449,"current_range_meters":2800,"station_id":"ce4bgup2rcd13ifvqco0","pricing_plan_id":"cebpf4jnsgd1na2vs0mg"},{"bike_id":"6009104c-31f9-43b2-a50d-d12419701de2","system_id":"levelo_inurba_marseille","lat":43.27052,"lon":5.38307,"is_reserved":false,"is_disabled":false,"rental_uris":{"android":"levelo://app?vid=6009104c-31f9-43b2-a50d-d12419701de2","ios":"levelo://app?vid=6009104c-31f9-43b2-a50d-d12419701de2"},"vehicle_type_id":"4","last_reported":1768461449,"current_range_meters":2800,"station_id":"st_d3n2fo6cfp8s73cte1j0","pricing_plan_id":"cebpf4jnsgd1na2vs0mg"},{"bike_id":"5d7ebc84-6cbc-444a-98cd-1089c41e4417","system_id":"levelo_inurba_marseille","lat":43.284701,"lon":5.38433,"is_reserved":false,"is_disabled":false,"rental_uris":{"android":"levelo://app?vid=5d7ebc84-6cbc-444a-98cd-1089c41e4417","ios":"levelo://app?vid=5d7ebc84-6cbc-444a-98cd-1089c41e4417"},"vehicle_type_id":"4","last_reported":1768461449,"current_range_meters":3200,"station_id":"ce4bh512rcd13ifvqe3g","pricing_plan_id":"cebpf4jnsgd1na2vs0mg"},{"bike_id":"ff1e20fa-84b0-41c9-9d49-6081e242e43e","system_id":"levelo_inurba_marseille","lat":43.24804,"lon":5.37464,"is_reserved":false,"is_disabled":false,"rental_uris":{"android":"levelo://app?vid=ff1e20fa-84b0-41c9-9d49-6081e242e43e","ios":"levelo://app?vid=ff1e20fa-84b0-41c9-9d49-6081e242e43e"},"vehicle_type_id":"4","last_reported":1768461449,"current_range_meters":3200,"station_id":"ce4bhgh2rcd13ifvqfb0","pricing_plan_id":"cebpf4jnsgd1na2vs0mg"},{"bike_id":"d8e03ef6-0c5e-49db-943c-98c26bf654da","system_id":"levelo_inurba_marseille","lat":43.29981,"lon":5.37436,"is_reserved":false,"is_disabled":false,"rental_uris":{"android":"levelo://app?vid=d8e03ef6-0c5e-49db-943c-98c26bf654da","ios":"levelo://app?vid=d8e03ef6-0c5e-49db-943c-98c26bf654da"},"vehicle_type_id":"4","last_reported":1768461449,"current_range_meters":3200,"station_id":"","pricing_plan_id":"cebpf4jnsgd1na2vs0mg"},{"bike_id":"1c368511-4dc5-413e-9320-5c9141f9acf7","system_id":"levelo_inurba_marseille","lat":43.26397,"lon":5.39889,"is_reserved":false,"is_disabled":false,"rental_uris":{"android":"levelo://app?vid=1c368511-4dc5-413e-9320-5c9141f9acf7","ios":"levelo://app?vid=1c368511-4dc5-413e-9320-5c9141f9acf7"},"vehicle_type_id":"4","last_reported":1768461449,"current_range_meters":3200,"station_id":"","pricing_plan_id":"cebpf4jnsgd1na2vs0mg"},{"bike_id":"3b8c8a0b-4403-4774-ac15-61e3b8ca695c","system_id":"levelo_inurba_marseille","lat":43.27998,"lon":5.40014,"is_reserved":false,"is_disabled":false,"rental_uris":{"android":"levelo://app?vid=3b8c8a0b-4403-4774-ac15-61e3b8ca695c","ios":"levelo://app?vid=3b8c8a0b-4403-4774-ac15-61e3b8ca695c"},"vehicle_type_id":"4","last_reported":1768461449,"current_range_meters":3200,"station_id":"ce4bho92rcd13ifvqh4g","pricing_plan_id":"cebpf4jnsgd1na2vs0mg"},{"bike_id":"f680f50c-74ae-434a-9907-5a62e8f7d3ec","system_id":"levelo_inurba_marseille","lat":43.3053,"lon":5.36708,"is_reserved":false,"is_disabled":false,"rental_uris":{"android":"levelo://app?vid=f680f50c-74ae-434a-9907-5a62e8f7d3ec","ios":"levelo://app?vid=f680f50c-74ae-434a-9907-5a62e8f7d3ec"},"vehicle_type_id":"4","last_reported":1768461449,"current_range_meters":3200,"station_id":"ce4bgrp2rcd13ifvqc9g","pricing_plan_id":"cebpf4jnsgd1na2vs0mg"},{"bike_id":"0f5f4915-35b7-4639-ab63-f51a53ac94b7","system_id":"levelo_inurba_marseille","lat":43.30204,"lon":5.39309,"is_reserved":false,"is_disabled":false,"rental_uris":{"android":"levelo://app?vid=0f5f4915-35b7-4639-ab63-f51a53ac94b7","ios":"levelo://app?vid=0f5f4915-35b7-4639-ab63-f51a53ac94b7"},"vehicle_type_id":"4","last_reported":1768461449,"current_range_meters":3200,"station_id":"","pricing_plan_id":"cebpf4jnsgd1na2vs0mg"},{"bike_id":"32a6fb2e-0d07-41f5-98d9-49c5a72b9745","system_id":"levelo_inurba_marseille","lat":43.25824,"lon":5.39433,"is_reserved":false,"is_disabled":false,"rental_uris":{"android":"levelo://app?vid=32a6fb2e-0d07-41f5-98d9-49c5a72b9745","ios":"levelo://app?vid=32a6fb2e-0d07-41f5-98d9-49c5a72b9745"},"vehicle_type_id":"4","last_reported":1768461449,"current_range_meters":3200,"station_id":"ce4bhip2rcd13ifvqft0","pricing_plan_id":"cebpf4jnsgd1na2vs0mg"},{"bike_id":"794deb19-960f-41d6-9ab5-d74cc6f23f9a","system_id":"levelo_inurba_marseille","lat":43.284831,"lon":5.384264,"is_reserved":false,"is_disabled":false,"rental_uris":{"android":"levelo://app?vid=794deb19-960f-41d6-9ab5-d74cc6f23f9a","ios":"levelo://app?vid=794deb19-960f-41d6-9ab5-d74cc6f23f9a"},"vehicle_type_id":"4","last_reported":1768461449,"current_range_meters":3200,"station_id":"ce4bh512rcd13ifvqe3g","pricing_plan_id":"cebpf4jnsgd1na2vs0mg"},{"bike_id":"f04f4335-e06f-412d-a464-1723aa4c86a4","system_id":"levelo_inurba_marseille","lat":43.29806,"lon":5.4408,"is_reserved":false,"is_disabled":true,"rental_uris":{"android":"levelo://app?vid=f04f4335-e06f-412d-a464-1723aa4c86a4","ios":"levelo://app?vid=f04f4335-e06f-412d-a464-1723aa4c86a4"},"vehicle_type_id":"4","last_reported":1768461449,"current_range_meters":3200,"station_id":"st_d3jp68qikq2c7381ktn0","pricing_plan_id":"cebpf4jnsgd1na2vs0mg"},{"bike_id":"c42c2125-a5dc-4254-83f5-ba053c9cc743","system_id":"levelo_inurba_marseille","lat":43.30923,"lon":5.40139,"is_reserved":false,"is_disabled":false,"rental_uris":{"android":"levelo://app?vid=c42c2125-a5dc-4254-83f5-ba053c9cc743","ios":"levelo://app?vid=c42c2125-a5dc-4254-83f5-ba053c9cc743"},"vehicle_type_id":"4","last_reported":1768461449,"current_range_meters":3600,"station_id":"ce4bgvp2rcd13ifvqct0","pricing_plan_id":"cebpf4jnsgd1na2vs0mg"},{"bike_id":"dd449814-efe1-440a-9793-04c9bf8e3b5c","system_id":"levelo_inurba_marseille","lat":43.29905,"lon":5.39751,"is_reserved":false,"is_disabled":false,"rental_uris":{"android":"levelo://app?vid=dd449814-efe1-440a-9793-04c9bf8e3b5c","ios":"levelo://app?vid=dd449814-efe1-440a-9793-04c9bf8e3b5c"},"vehicle_type_id":"4","last_reported":1768461449,"current_range_meters":3600,"station_id":"ce4bh0h2rcd13ifvqd50","pricing_plan_id":"cebpf4jnsgd1na2vs0mg"},{"bike_id":"2dcbaafa-dc26-4d5a-9923-60da74220ab7","system_id":"levelo_inurba_marseille","lat":43.263705,"lon":5.410836,"is_reserved":false,"is_disabled":false,"rental_uris":{"android":"levelo://app?vid=2dcbaafa-dc26-4d5a-9923-60da74220ab7","ios":"levelo://app?vid=2dcbaafa-dc26-4d5a-9923-60da74220ab7"},"vehicle_type_id":"4","last_reported":1768461449,"current_range_meters":3600,"station_id":"","pricing_plan_id":"cebpf4jnsgd1na2vs0mg"},{"bike_id":"b972edba-a6cb-41d3-9e2a-233a15364dd6","system_id":"levelo_inurba_marseille","lat":43.3414,"lon":5.409,"is_reserved":false,"is_disabled":false,"rental_uris":{"android":"levelo://app?vid=b972edba-a6cb-41d3-9e2a-233a15364dd6","ios":"levelo://app?vid=b972edba-a6cb-41d3-9e2a-233a15364dd6"},"vehicle_type_id":"4","last_reported":1768461449,"current_range_meters":3600,"station_id":"ce4bhqh2rcd13ifvqhlg","pricing_plan_id":"cebpf4jnsgd1na2vs0mg"},{"bike_id":"07b06561-3f34-4d77-aea9-02d1fc09156a","system_id":"levelo_inurba_marseille","lat":43.29041,"lon":5.3995,"is_reserved":false,"is_disabled":false,"rental_uris":{"android":"levelo://app?vid=07b06561-3f34-4d77-aea9-02d1fc09156a","ios":"levelo://app?vid=07b06561-3f34-4d77-aea9-02d1fc09156a"},"vehicle_type_id":"4","last_reported":1768461449,"current_range_meters":3600,"station_id":"ce4bh392rcd13ifvqdm0","pricing_plan_id":"cebpf4jnsgd1na2vs0mg"},{"bike_id":"a2c3fda5-fb1e-4329-88c2-2e7960229574","system_id":"levelo_inurba_marseille","lat":43.31203,"lon":5.40305,"is_reserved":false,"is_disabled":false,"rental_uris":{"android":"levelo://app?vid=a2c3fda5-fb1e-4329-88c2-2e7960229574","ios":"levelo://app?vid=a2c3fda5-fb1e-4329-88c2-2e7960229574"},"vehicle_type_id":"4","last_reported":1768461449,"current_range_meters":3600,"station_id":"","pricing_plan_id":"cebpf4jnsgd1na2vs0mg"},{"bike_id":"be30ca61-adcf-4b3a-87f3-64d52fd123c8","system_id":"levelo_inurba_marseille","lat":43.323578,"lon":5.367359,"is_reserved":false,"is_disabled":false,"rental_uris":{"android":"levelo://app?vid=be30ca61-adcf-4b3a-87f3-64d52fd123c8","ios":"levelo://app?vid=be30ca61-adcf-4b3a-87f3-64d52fd123c8"},"vehicle_type_id":"4","last_reported":1768461449,"current_range_meters":3600,"station_id":"ce4bhsh2rcd13ifvqi2g","pricing_plan_id":"cebpf4jnsgd1na2vs0mg"},{"bike_id":"4aa7beb8-2e82-4c0b-a30b-9aeb701ff47a","system_id":"levelo_inurba_marseille","lat":43.30373,"lon":5.42479,"is_reserved":false,"is_disabled":false,"rental_uris":{"android":"levelo://app?vid=4aa7beb8-2e82-4c0b-a30b-9aeb701ff47a","ios":"levelo://app?vid=4aa7beb8-2e82-4c0b-a30b-9aeb701ff47a"},"vehicle_type_id":"4","last_reported":1768461449,"current_range_meters":3600,"station_id":"ce4bhoh2rcd13ifvqh6g","pricing_plan_id":"cebpf4jnsgd1na2vs0mg"},{"bike_id":"9a4c5f13-315e-4e83-afa3-98967d002411","system_id":"levelo_inurba_marseille","lat":43.30203,"lon":5.39463,"is_reserved":false,"is_disabled":false,"rental_uris":{"android":"levelo://app?vid=9a4c5f13-315e-4e83-afa3-98967d002411","ios":"levelo://app?vid=9a4c5f13-315e-4e83-afa3-98967d002411"},"vehicle_type_id":"4","last_reported":1768461449,"current_range_meters":3600,"station_id":"ce4bh0p2rcd13ifvqd70","pricing_plan_id":"cebpf4jnsgd1na2vs0mg"},{"bike_id":"ab641631-9b71-48d5-95c3-b71e22be3c9a","system_id":"levelo_inurba_marseille","lat":43.28097,"lon":5.37832,"is_reserved":false,"is_disabled":false,"rental_uris":{"android":"levelo://app?vid=ab641631-9b71-48d5-95c3-b71e22be3c9a","ios":"levelo://app?vid=ab641631-9b71-48d5-95c3-b71e22be3c9a"},"vehicle_type_id":"4","last_reported":1768461449,"current_range_meters":3600,"station_id":"ce4bha12rcd13ifvqee0","pricing_plan_id":"cebpf4jnsgd1na2vs0mg"},{"bike_id":"27264743-2e50-4a00-8306-3109b49e129f","system_id":"levelo_inurba_marseille","lat":43.24076,"lon":5.37753,"is_reserved":false,"is_disabled":false,"rental_uris":{"android":"levelo://app?vid=27264743-2e50-4a00-8306-3109b49e129f","ios":"levelo://app?vid=27264743-2e50-4a00-8306-3109b49e129f"},"vehicle_type_id":"4","last_reported":1768461449,"current_range_meters":3600,"station_id":"ce4bhnp2rcd13ifvqgvg","pricing_plan_id":"cebpf4jnsgd1na2vs0mg"},{"bike_id":"f1a18278-64db-4726-8766-9c4203f0f39a","system_id":"levelo_inurba_marseille","lat":43.28664,"lon":5.36349,"is_reserved":false,"is_disabled":false,"rental_uris":{"android":"levelo://app?vid=f1a18278-64db-4726-8766-9c4203f0f39a","ios":"levelo://app?vid=f1a18278-64db-4726-8766-9c4203f0f39a"},"vehicle_type_id":"4","last_reported":1768461449,"current_range_meters":3600,"station_id":"ce4bhah2rcd13ifvqej0","pricing_plan_id":"cebpf4jnsgd1na2vs0mg"},{"bike_id":"6a2cea38-a98b-4ded-ab60-20d113ce05e0","system_id":"levelo_inurba_marseille","lat":43.25496,"lon":5.37665,"is_reserved":false,"is_disabled":false,"rental_uris":{"android":"levelo://app?vid=6a2cea38-a98b-4ded-ab60-20d113ce05e0","ios":"levelo://app?vid=6a2cea38-a98b-4ded-ab60-20d113ce05e0"},"vehicle_type_id":"4","last_reported":1768461449,"current_range_meters":4000,"station_id":"ce4bhh12rcd13ifvqff0","pricing_plan_id":"cebpf4jnsgd1na2vs0mg"},{"bike_id":"06696d2b-7b10-4489-8142-fa420e113b04","system_id":"levelo_inurba_marseille","lat":43.31363,"lon":5.38491,"is_reserved":false,"is_disabled":false,"rental_uris":{"android":"levelo://app?vid=06696d2b-7b10-4489-8142-fa420e113b04","ios":"levelo://app?vid=06696d2b-7b10-4489-8142-fa420e113b04"},"vehicle_type_id":"4","last_reported":1768461449,"current_range_meters":4000,"station_id":"ce4bgt92rcd13ifvqcf0","pricing_plan_id":"cebpf4jnsgd1na2vs0mg"},{"bike_id":"f42ab945-6b46-4b23-ac0b-20e1fd002449","system_id":"levelo_inurba_marseille","lat":43.300324,"lon":5.388794,"is_reserved":false,"is_disabled":false,"rental_uris":{"android":"levelo://app?vid=f42ab945-6b46-4b23-ac0b-20e1fd002449","ios":"levelo://app?vid=f42ab945-6b46-4b23-ac0b-20e1fd002449"},"vehicle_type_id":"4","last_reported":1768461449,"current_range_meters":4000,"station_id":"","pricing_plan_id":"cebpf4jnsgd1na2vs0mg"},{"bike_id":"6f06e6b3-a869-4347-9525-e6cdc60f369a","system_id":"levelo_inurba_marseille","lat":43.30197,"lon":5.39449,"is_reserved":false,"is_disabled":false,"rental_uris":{"android":"levelo://app?vid=6f06e6b3-a869-4347-9525-e6cdc60f369a","ios":"levelo://app?vid=6f06e6b3-a869-4347-9525-e6cdc60f369a"},"vehicle_type_id":"4","last_reported":1768461449,"current_range_meters":4000,"station_id":"ce4bh0p2rcd13ifvqd70","pricing_plan_id":"cebpf4jnsgd1na2vs0mg"},{"bike_id":"bb8677ba-17a9-41d9-bd25-eaeb7cf50d3a","system_id":"levelo_inurba_marseille","lat":43.270752,"lon":5.422954,"is_reserved":false,"is_disabled":false,"rental_uris":{"android":"levelo://app?vid=bb8677ba-17a9-41d9-bd25-eaeb7cf50d3a","ios":"levelo://app?vid=bb8677ba-17a9-41d9-bd25-eaeb7cf50d3a"},"vehicle_type_id":"4","last_reported":1768461449,"current_range_meters":4000,"station_id":"ce4bhk92rcd13ifvqgb0","pricing_plan_id":"cebpf4jnsgd1na2vs0mg"},{"bike_id":"8020d05c-cfe3-4220-94e0-4f5b421d6b5e","system_id":"levelo_inurba_marseille","lat":43.282733,"lon":5.350583,"is_reserved":false,"is_disabled":false,"rental_uris":{"android":"levelo://app?vid=8020d05c-cfe3-4220-94e0-4f5b421d6b5e","ios":"levelo://app?vid=8020d05c-cfe3-4220-94e0-4f5b421d6b5e"},"vehicle_type_id":"4","last_reported":1768461449,"current_range_meters":4000,"station_id":"ce4bhbp2rcd13ifvqerg","pricing_plan_id":"cebpf4jnsgd1na2vs0mg"},{"bike_id":"2dfb6b27-1a9d-4365-8ea3-5579df8f7297","system_id":"levelo_inurba_marseille","lat":43.250001,"lon":5.389308,"is_reserved":false,"is_disabled":false,"rental_uris":{"android":"levelo://app?vid=2dfb6b27-1a9d-4365-8ea3-5579df8f7297","ios":"levelo://app?vid=2dfb6b27-1a9d-4365-8ea3-5579df8f7297"},"vehicle_type_id":"4","last_reported":1768461449,"current_range_meters":4000,"station_id":"ce4bhgp2rcd13ifvqfd0","pricing_plan_id":"cebpf4jnsgd1na2vs0mg"},{"bike_id":"87384fb8-33b0-438e-8b62-02166d183a2b","system_id":"levelo_inurba_marseille","lat":43.24081,"lon":5.37752,"is_reserved":false,"is_disabled":false,"rental_uris":{"android":"levelo://app?vid=87384fb8-33b0-438e-8b62-02166d183a2b","ios":"levelo://app?vid=87384fb8-33b0-438e-8b62-02166d183a2b"},"vehicle_type_id":"4","last_reported":1768461449,"current_range_meters":4000,"station_id":"ce4bhnp2rcd13ifvqgvg","pricing_plan_id":"cebpf4jnsgd1na2vs0mg"},{"bike_id":"57116829-dc11-4ffc-b2b1-1d9f33456c9f","system_id":"levelo_inurba_marseille","lat":43.28796,"lon":5.38846,"is_reserved":false,"is_disabled":false,"rental_uris":{"android":"levelo://app?vid=57116829-dc11-4ffc-b2b1-1d9f33456c9f","ios":"levelo://app?vid=57116829-dc11-4ffc-b2b1-1d9f33456c9f"},"vehicle_type_id":"4","last_reported":1768461449,"current_range_meters":4000,"station_id":"","pricing_plan_id":"cebpf4jnsgd1na2vs0mg"},{"bike_id":"21aa9c4f-92f7-4bce-94f9-8216900fb876","system_id":"levelo_inurba_marseille","lat":43.303142,"lon":5.369028,"is_reserved":false,"is_disabled":false,"rental_uris":{"android":"levelo://app?vid=21aa9c4f-92f7-4bce-94f9-8216900fb876","ios":"levelo://app?vid=21aa9c4f-92f7-4bce-94f9-8216900fb876"},"vehicle_type_id":"4","last_reported":1768461449,"current_range_meters":4400,"station_id":"ce4bgqh2rcd13ifvqc5g","pricing_plan_id":"cebpf4jnsgd1na2vs0mg"},{"bike_id":"7445f670-7827-4e99-80df-37c19e7cc9ec","system_id":"levelo_inurba_marseille","lat":43.321007,"lon":5.367867,"is_reserved":false,"is_disabled":false,"rental_uris":{"android":"levelo://app?vid=7445f670-7827-4e99-80df-37c19e7cc9ec","ios":"levelo://app?vid=7445f670-7827-4e99-80df-37c19e7cc9ec"},"vehicle_type_id":"4","last_reported":1768461449,"current_range_meters":4400,"station_id":"ce4bhrh2rcd13ifvqhug","pricing_plan_id":"cebpf4jnsgd1na2vs0mg"},{"bike_id":"06897417-f925-403b-9b53-83cb77fb311f","system_id":"levelo_inurba_marseille","lat":43.22925,"lon":5.3538,"is_reserved":false,"is_disabled":false,"rental_uris":{"android":"levelo://app?vid=06897417-f925-403b-9b53-83cb77fb311f","ios":"levelo://app?vid=06897417-f925-403b-9b53-83cb77fb311f"},"vehicle_type_id":"4","last_reported":1768461449,"current_range_meters":4400,"station_id":"cpo3532slgdg3j2ikp40","pricing_plan_id":"cebpf4jnsgd1na2vs0mg"},{"bike_id":"3d940b78-0b3b-4f2f-b39d-f5da00220b0e","system_id":"levelo_inurba_marseille","lat":43.28942,"lon":5.36637,"is_reserved":false,"is_disabled":false,"rental_uris":{"android":"levelo://app?vid=3d940b78-0b3b-4f2f-b39d-f5da00220b0e","ios":"levelo://app?vid=3d940b78-0b3b-4f2f-b39d-f5da00220b0e"},"vehicle_type_id":"4","last_reported":1768461449,"current_range_meters":4400,"station_id":"ce4bhap2rcd13ifvqek0","pricing_plan_id":"cebpf4jnsgd1na2vs0mg"},{"bike_id":"bb7c9b00-ddff-456a-8ced-c4284a23682e","system_id":"levelo_inurba_marseille","lat":43.25823,"lon":5.39408,"is_reserved":false,"is_disabled":false,"rental_uris":{"android":"levelo://app?vid=bb7c9b00-ddff-456a-8ced-c4284a23682e","ios":"levelo://app?vid=bb7c9b00-ddff-456a-8ced-c4284a23682e"},"vehicle_type_id":"4","last_reported":1768461449,"current_range_meters":4400,"station_id":"ce4bhip2rcd13ifvqft0","pricing_plan_id":"cebpf4jnsgd1na2vs0mg"},{"bike_id":"8803a6e9-67a3-479e-b849-a893754260d5","system_id":"levelo_inurba_marseille","lat":43.22922,"lon":5.35388,"is_reserved":false,"is_disabled":false,"rental_uris":{"android":"levelo://app?vid=8803a6e9-67a3-479e-b849-a893754260d5","ios":"levelo://app?vid=8803a6e9-67a3-479e-b849-a893754260d5"},"vehicle_type_id":"4","last_reported":1768461449,"current_range_meters":4400,"station_id":"cpo3532slgdg3j2ikp40","pricing_plan_id":"cebpf4jnsgd1na2vs0mg"},{"bike_id":"ecf0d209-53b9-47e3-8f9f-faa8b0ad9eb4","system_id":"levelo_inurba_marseille","lat":43.24081,"lon":5.37746,"is_reserved":false,"is_disabled":false,"rental_uris":{"android":"levelo://app?vid=ecf0d209-53b9-47e3-8f9f-faa8b0ad9eb4","ios":"levelo://app?vid=ecf0d209-53b9-47e3-8f9f-faa8b0ad9eb4"},"vehicle_type_id":"4","last_reported":1768461449,"current_range_meters":4400,"station_id":"ce4bhnp2rcd13ifvqgvg","pricing_plan_id":"cebpf4jnsgd1na2vs0mg"},{"bike_id":"e7d502f9-ee09-4b2b-b4e9-231066f0a411","system_id":"levelo_inurba_marseille","lat":43.26922,"lon":5.40257,"is_reserved":false,"is_disabled":false,"rental_uris":{"android":"levelo://app?vid=e7d502f9-ee09-4b2b-b4e9-231066f0a411","ios":"levelo://app?vid=e7d502f9-ee09-4b2b-b4e9-231066f0a411"},"vehicle_type_id":"4","last_reported":1768461449,"current_range_meters":4400,"station_id":"cjm6bp8fraef2m0cb0m0","pricing_plan_id":"cebpf4jnsgd1na2vs0mg"},{"bike_id":"ae1d99b1-82a1-460d-bd96-dc1d194fe893","system_id":"levelo_inurba_marseille","lat":43.29823,"lon":5.37648,"is_reserved":false,"is_disabled":false,"rental_uris":{"android":"levelo://app?vid=ae1d99b1-82a1-460d-bd96-dc1d194fe893","ios":"levelo://app?vid=ae1d99b1-82a1-460d-bd96-dc1d194fe893"},"vehicle_type_id":"4","last_reported":1768461449,"current_range_meters":4400,"station_id":"","pricing_plan_id":"cebpf4jnsgd1na2vs0mg"},{"bike_id":"bd4b15a9-002c-4633-885a-3535a5835aff","system_id":"levelo_inurba_marseille","lat":43.27312,"lon":5.39931,"is_reserved":false,"is_disabled":false,"rental_uris":{"android":"levelo://app?vid=bd4b15a9-002c-4633-885a-3535a5835aff","ios":"levelo://app?vid=bd4b15a9-002c-4633-885a-3535a5835aff"},"vehicle_type_id":"4","last_reported":1768461449,"current_range_meters":4400,"station_id":"","pricing_plan_id":"cebpf4jnsgd1na2vs0mg"},{"bike_id":"c75b139b-6977-457c-8fab-86c172554976","system_id":"levelo_inurba_marseille","lat":43.25103,"lon":5.40455,"is_reserved":false,"is_disabled":false,"rental_uris":{"android":"levelo://app?vid=c75b139b-6977-457c-8fab-86c172554976","ios":"levelo://app?vid=c75b139b-6977-457c-8fab-86c172554976"},"vehicle_type_id":"4","last_reported":1768461449,"current_range_meters":4800,"station_id":"","pricing_plan_id":"cebpf4jnsgd1na2vs0mg"},{"bike_id":"8fc799f4-d125-424a-9b03-c28ed3c57e5e","system_id":"levelo_inurba_marseille","lat":43.27054,"lon":5.40266,"is_reserved":false,"is_disabled":false,"rental_uris":{"android":"levelo://app?vid=8fc799f4-d125-424a-9b03-c28ed3c57e5e","ios":"levelo://app?vid=8fc799f4-d125-424a-9b03-c28ed3c57e5e"},"vehicle_type_id":"4","last_reported":1768461449,"current_range_meters":4800,"station_id":"ce4bhk92rcd13ifvqgc0","pricing_plan_id":"cebpf4jnsgd1na2vs0mg"},{"bike_id":"52dc7a23-02b1-49ea-88fe-a1d65ef8f548","system_id":"levelo_inurba_marseille","lat":43.22927,"lon":5.35383,"is_reserved":false,"is_disabled":false,"rental_uris":{"android":"levelo://app?vid=52dc7a23-02b1-49ea-88fe-a1d65ef8f548","ios":"levelo://app?vid=52dc7a23-02b1-49ea-88fe-a1d65ef8f548"},"vehicle_type_id":"4","last_reported":1768461449,"current_range_meters":4800,"station_id":"cpo3532slgdg3j2ikp40","pricing_plan_id":"cebpf4jnsgd1na2vs0mg"},{"bike_id":"db3380c8-3a7f-42bd-8eb6-4a212f146fb3","system_id":"levelo_inurba_marseille","lat":43.29801,"lon":5.38102,"is_reserved":false,"is_disabled":false,"rental_uris":{"android":"levelo://app?vid=db3380c8-3a7f-42bd-8eb6-4a212f146fb3","ios":"levelo://app?vid=db3380c8-3a7f-42bd-8eb6-4a212f146fb3"},"vehicle_type_id":"4","last_reported":1768461449,"current_range_meters":4800,"station_id":"ce4bgip2rcd13ifvqbb0","pricing_plan_id":"cebpf4jnsgd1na2vs0mg"},{"bike_id":"86aaef4b-aac1-4248-ac79-0d9f37b8c62f","system_id":"levelo_inurba_marseille","lat":43.27317,"lon":5.41682,"is_reserved":false,"is_disabled":false,"rental_uris":{"android":"levelo://app?vid=86aaef4b-aac1-4248-ac79-0d9f37b8c62f","ios":"levelo://app?vid=86aaef4b-aac1-4248-ac79-0d9f37b8c62f"},"vehicle_type_id":"4","last_reported":1768461449,"current_range_meters":4800,"station_id":"","pricing_plan_id":"cebpf4jnsgd1na2vs0mg"},{"bike_id":"091c8081-61de-43ac-bb2c-74077a5d4149","system_id":"levelo_inurba_marseille","lat":43.2255,"lon":5.4163,"is_reserved":false,"is_disabled":false,"rental_uris":{"android":"levelo://app?vid=091c8081-61de-43ac-bb2c-74077a5d4149","ios":"levelo://app?vid=091c8081-61de-43ac-bb2c-74077a5d4149"},"vehicle_type_id":"4","last_reported":1768461449,"current_range_meters":4800,"station_id":"st_d2o4gvlbi1j2169b742g","pricing_plan_id":"cebpf4jnsgd1na2vs0mg"},{"bike_id":"e3711e41-0161-46aa-9164-7f9c4fb49d5a","system_id":"levelo_inurba_marseille","lat":43.21189,"lon":5.35074,"is_reserved":false,"is_disabled":false,"rental_uris":{"android":"levelo://app?vid=e3711e41-0161-46aa-9164-7f9c4fb49d5a","ios":"levelo://app?vid=e3711e41-0161-46aa-9164-7f9c4fb49d5a"},"vehicle_type_id":"4","last_reported":1768461449,"current_range_meters":4800,"station_id":"st_cvj6sg6p6f1abm77japg","pricing_plan_id":"cebpf4jnsgd1na2vs0mg"},{"bike_id":"9a5fbf1f-0437-41c2-b6e1-9b4f9884e63d","system_id":"levelo_inurba_marseille","lat":43.24064,"lon":5.37825,"is_reserved":false,"is_disabled":true,"rental_uris":{"android":"levelo://app?vid=9a5fbf1f-0437-41c2-b6e1-9b4f9884e63d","ios":"levelo://app?vid=9a5fbf1f-0437-41c2-b6e1-9b4f9884e63d"},"vehicle_type_id":"4","last_reported":1768461449,"current_range_meters":4800,"station_id":"","pricing_plan_id":"cebpf4jnsgd1na2vs0mg"},{"bike_id":"660f8d3d-996c-4d0c-a098-476ebc30f600","system_id":"levelo_inurba_marseille","lat":43.22564,"lon":5.41622,"is_reserved":false,"is_disabled":false,"rental_uris":{"android":"levelo://app?vid=660f8d3d-996c-4d0c-a098-476ebc30f600","ios":"levelo://app?vid=660f8d3d-996c-4d0c-a098-476ebc30f600"},"vehicle_type_id":"4","last_reported":1768461449,"current_range_meters":5600,"station_id":"st_d2o4gvlbi1j2169b742g","pricing_plan_id":"cebpf4jnsgd1na2vs0mg"},{"bike_id":"6c64084a-5424-4176-8ef6-493165845001","system_id":"levelo_inurba_marseille","lat":43.26945,"lon":5.38623,"is_reserved":false,"is_disabled":false,"rental_uris":{"android":"levelo://app?vid=6c64084a-5424-4176-8ef6-493165845001","ios":"levelo://app?vid=6c64084a-5424-4176-8ef6-493165845001"},"vehicle_type_id":"4","last_reported":1768461449,"current_range_meters":5600,"station_id":"ce4bhh92rcd13ifvqfh0","pricing_plan_id":"cebpf4jnsgd1na2vs0mg"},{"bike_id":"5410fd45-b8b4-470d-9bd7-ad1acafbc363","system_id":"levelo_inurba_marseille","lat":43.28477,"lon":5.48396,"is_reserved":false,"is_disabled":false,"rental_uris":{"android":"levelo://app?vid=5410fd45-b8b4-470d-9bd7-ad1acafbc363","ios":"levelo://app?vid=5410fd45-b8b4-470d-9bd7-ad1acafbc363"},"vehicle_type_id":"4","last_reported":1768461449,"current_range_meters":5600,"station_id":"","pricing_plan_id":"cebpf4jnsgd1na2vs0mg"},{"bike_id":"12ab79c6-830e-44d8-8051-f31279480c3d","system_id":"levelo_inurba_marseille","lat":43.31994,"lon":5.38165,"is_reserved":false,"is_disabled":false,"rental_uris":{"android":"levelo://app?vid=12ab79c6-830e-44d8-8051-f31279480c3d","ios":"levelo://app?vid=12ab79c6-830e-44d8-8051-f31279480c3d"},"vehicle_type_id":"4","last_reported":1768461449,"current_range_meters":5600,"station_id":"ce4bhr12rcd13ifvqhpg","pricing_plan_id":"cebpf4jnsgd1na2vs0mg"},{"bike_id":"db12235e-29e0-4e51-a3d9-a120f6031f4f","system_id":"levelo_inurba_marseille","lat":43.25561,"lon":5.38256,"is_reserved":false,"is_disabled":false,"rental_uris":{"android":"levelo://app?vid=db12235e-29e0-4e51-a3d9-a120f6031f4f","ios":"levelo://app?vid=db12235e-29e0-4e51-a3d9-a120f6031f4f"},"vehicle_type_id":"4","last_reported":1768461449,"current_range_meters":5600,"station_id":"ce4bhih2rcd13ifvqfs0","pricing_plan_id":"cebpf4jnsgd1na2vs0mg"},{"bike_id":"41409f93-38c8-4330-ac6c-3bce88cb42be","system_id":"levelo_inurba_marseille","lat":43.29909,"lon":5.3814,"is_reserved":false,"is_disabled":false,"rental_uris":{"android":"levelo://app?vid=41409f93-38c8-4330-ac6c-3bce88cb42be","ios":"levelo://app?vid=41409f93-38c8-4330-ac6c-3bce88cb42be"},"vehicle_type_id":"4","last_reported":1768461449,"current_range_meters":5600,"station_id":"ce4bgj12rcd13ifvqbc0","pricing_plan_id":"cebpf4jnsgd1na2vs0mg"},{"bike_id":"d72e7469-fc82-46a9-9c6c-66e2e0ca67fe","system_id":"levelo_inurba_marseille","lat":43.28922,"lon":5.36653,"is_reserved":false,"is_disabled":false,"rental_uris":{"android":"levelo://app?vid=d72e7469-fc82-46a9-9c6c-66e2e0ca67fe","ios":"levelo://app?vid=d72e7469-fc82-46a9-9c6c-66e2e0ca67fe"},"vehicle_type_id":"4","last_reported":1768461449,"current_range_meters":5600,"station_id":"ce4bhap2rcd13ifvqek0","pricing_plan_id":"cebpf4jnsgd1na2vs0mg"},{"bike_id":"5d13ff00-22b5-4755-aceb-a0d2d3b8372a","system_id":"levelo_inurba_marseille","lat":43.28481,"lon":5.3858,"is_reserved":false,"is_disabled":false,"rental_uris":{"android":"levelo://app?vid=5d13ff00-22b5-4755-aceb-a0d2d3b8372a","ios":"levelo://app?vid=5d13ff00-22b5-4755-aceb-a0d2d3b8372a"},"vehicle_type_id":"4","last_reported":1768461449,"current_range_meters":5600,"station_id":"ce4bh8p2rcd13ifvqeb0","pricing_plan_id":"cebpf4jnsgd1na2vs0mg"},{"bike_id":"c2354b44-17c1-478f-94d4-6c400a3bd0b6","system_id":"levelo_inurba_marseille","lat":43.24163,"lon":5.36394,"is_reserved":false,"is_disabled":false,"rental_uris":{"android":"levelo://app?vid=c2354b44-17c1-478f-94d4-6c400a3bd0b6","ios":"levelo://app?vid=c2354b44-17c1-478f-94d4-6c400a3bd0b6"},"vehicle_type_id":"4","last_reported":1768461449,"current_range_meters":5600,"station_id":"cpo36qri1sfpv3e86is0","pricing_plan_id":"cebpf4jnsgd1na2vs0mg"},{"bike_id":"ff28faa0-8783-4c97-9c47-36d61ced7d6d","system_id":"levelo_inurba_marseille","lat":43.29577,"lon":5.40046,"is_reserved":false,"is_disabled":false,"rental_uris":{"android":"levelo://app?vid=ff28faa0-8783-4c97-9c47-36d61ced7d6d","ios":"levelo://app?vid=ff28faa0-8783-4c97-9c47-36d61ced7d6d"},"vehicle_type_id":"4","last_reported":1768461449,"current_range_meters":5600,"station_id":"","pricing_plan_id":"cebpf4jnsgd1na2vs0mg"},{"bike_id":"880c69e6-d51d-4239-9e42-68197473a439","system_id":"levelo_inurba_marseille","lat":43.28421,"lon":5.39185,"is_reserved":false,"is_disabled":false,"rental_uris":{"android":"levelo://app?vid=880c69e6-d51d-4239-9e42-68197473a439","ios":"levelo://app?vid=880c69e6-d51d-4239-9e42-68197473a439"},"vehicle_type_id":"4","last_reported":1768461449,"current_range_meters":5600,"station_id":"ce4bhoh2rcd13ifvqh5g","pricing_plan_id":"cebpf4jnsgd1na2vs0mg"},{"bike_id":"9446f974-9aa4-4917-8d61-91db3b380eef","system_id":"levelo_inurba_marseille","lat":43.29837,"lon":5.36286,"is_reserved":false,"is_disabled":false,"rental_uris":{"android":"levelo://app?vid=9446f974-9aa4-4917-8d61-91db3b380eef","ios":"levelo://app?vid=9446f974-9aa4-4917-8d61-91db3b380eef"},"vehicle_type_id":"4","last_reported":1768461449,"current_range_meters":6000,"station_id":"ce4bgpp2rcd13ifvqc3g","pricing_plan_id":"cebpf4jnsgd1na2vs0mg"},{"bike_id":"03e9f015-73ba-4c3e-a345-a62206b593d1","system_id":"levelo_inurba_marseille","lat":43.32493,"lon":5.36558,"is_reserved":false,"is_disabled":false,"rental_uris":{"android":"levelo://app?vid=03e9f015-73ba-4c3e-a345-a62206b593d1","ios":"levelo://app?vid=03e9f015-73ba-4c3e-a345-a62206b593d1"},"vehicle_type_id":"4","last_reported":1768461449,"current_range_meters":6000,"station_id":"ce4bhs12rcd13ifvqhvg","pricing_plan_id":"cebpf4jnsgd1na2vs0mg"},{"bike_id":"51d690d5-8b8d-4383-a47a-b8a5e83da85a","system_id":"levelo_inurba_marseille","lat":43.28251,"lon":5.35086,"is_reserved":false,"is_disabled":false,"rental_uris":{"android":"levelo://app?vid=51d690d5-8b8d-4383-a47a-b8a5e83da85a","ios":"levelo://app?vid=51d690d5-8b8d-4383-a47a-b8a5e83da85a"},"vehicle_type_id":"4","last_reported":1768461449,"current_range_meters":6000,"station_id":"ce4bhbp2rcd13ifvqerg","pricing_plan_id":"cebpf4jnsgd1na2vs0mg"},{"bike_id":"2f317efe-a01b-468a-9036-21dfc4cc3358","system_id":"levelo_inurba_marseille","lat":43.25845,"lon":5.39373,"is_reserved":false,"is_disabled":false,"rental_uris":{"android":"levelo://app?vid=2f317efe-a01b-468a-9036-21dfc4cc3358","ios":"levelo://app?vid=2f317efe-a01b-468a-9036-21dfc4cc3358"},"vehicle_type_id":"4","last_reported":1768461449,"current_range_meters":6000,"station_id":"","pricing_plan_id":"cebpf4jnsgd1na2vs0mg"},{"bike_id":"2a682e48-4901-4884-af44-aaa6a8d2add6","system_id":"levelo_inurba_marseille","lat":43.24072,"lon":5.37752,"is_reserved":false,"is_disabled":false,"rental_uris":{"android":"levelo://app?vid=2a682e48-4901-4884-af44-aaa6a8d2add6","ios":"levelo://app?vid=2a682e48-4901-4884-af44-aaa6a8d2add6"},"vehicle_type_id":"4","last_reported":1768461449,"current_range_meters":6000,"station_id":"ce4bhnp2rcd13ifvqgvg","pricing_plan_id":"cebpf4jnsgd1na2vs0mg"},{"bike_id":"c8c9f1e3-cfb9-4095-8d70-4c877ea7f0b9","system_id":"levelo_inurba_marseille","lat":43.31536,"lon":5.38444,"is_reserved":false,"is_disabled":false,"rental_uris":{"android":"levelo://app?vid=c8c9f1e3-cfb9-4095-8d70-4c877ea7f0b9","ios":"levelo://app?vid=c8c9f1e3-cfb9-4095-8d70-4c877ea7f0b9"},"vehicle_type_id":"4","last_reported":1768461449,"current_range_meters":6000,"station_id":"","pricing_plan_id":"cebpf4jnsgd1na2vs0mg"},{"bike_id":"ab4c7e8d-c082-49f2-ad38-3b04b1436978","system_id":"levelo_inurba_marseille","lat":43.22562,"lon":5.41629,"is_reserved":false,"is_disabled":false,"rental_uris":{"android":"levelo://app?vid=ab4c7e8d-c082-49f2-ad38-3b04b1436978","ios":"levelo://app?vid=ab4c7e8d-c082-49f2-ad38-3b04b1436978"},"vehicle_type_id":"4","last_reported":1768461449,"current_range_meters":6000,"station_id":"st_d2o4gvlbi1j2169b742g","pricing_plan_id":"cebpf4jnsgd1na2vs0mg"},{"bike_id":"b16c0fde-3570-452f-a37a-d567538e6b84","system_id":"levelo_inurba_marseille","lat":43.29026,"lon":5.37537,"is_reserved":false,"is_disabled":false,"rental_uris":{"android":"levelo://app?vid=b16c0fde-3570-452f-a37a-d567538e6b84","ios":"levelo://app?vid=b16c0fde-3570-452f-a37a-d567538e6b84"},"vehicle_type_id":"4","last_reported":1768461449,"current_range_meters":6000,"station_id":"ce4bh692rcd13ifvqe90","pricing_plan_id":"cebpf4jnsgd1na2vs0mg"},{"bike_id":"e411b578-42de-425c-9f76-97084e6bfdb0","system_id":"levelo_inurba_marseille","lat":43.30157,"lon":5.38083,"is_reserved":false,"is_disabled":false,"rental_uris":{"android":"levelo://app?vid=e411b578-42de-425c-9f76-97084e6bfdb0","ios":"levelo://app?vid=e411b578-42de-425c-9f76-97084e6bfdb0"},"vehicle_type_id":"4","last_reported":1768461449,"current_range_meters":6000,"station_id":"ce4bgjp2rcd13ifvqbh0","pricing_plan_id":"cebpf4jnsgd1na2vs0mg"},{"bike_id":"b54d7711-f055-409c-950d-e2c8bc74d3bc","system_id":"levelo_inurba_marseille","lat":43.247984,"lon":5.374496,"is_reserved":false,"is_disabled":false,"rental_uris":{"android":"levelo://app?vid=b54d7711-f055-409c-950d-e2c8bc74d3bc","ios":"levelo://app?vid=b54d7711-f055-409c-950d-e2c8bc74d3bc"},"vehicle_type_id":"4","last_reported":1768461449,"current_range_meters":6000,"station_id":"ce4bhgh2rcd13ifvqfb0","pricing_plan_id":"cebpf4jnsgd1na2vs0mg"},{"bike_id":"2d8367d8-e4d4-4b11-bbc3-052dabd1ef43","system_id":"levelo_inurba_marseille","lat":43.30592,"lon":5.39357,"is_reserved":false,"is_disabled":false,"rental_uris":{"android":"levelo://app?vid=2d8367d8-e4d4-4b11-bbc3-052dabd1ef43","ios":"levelo://app?vid=2d8367d8-e4d4-4b11-bbc3-052dabd1ef43"},"vehicle_type_id":"4","last_reported":1768461449,"current_range_meters":6000,"station_id":"ce4bh0p2rcd13ifvqd80","pricing_plan_id":"cebpf4jnsgd1na2vs0mg"},{"bike_id":"699c6bb0-1655-47f0-86fb-78256d649744","system_id":"levelo_inurba_marseille","lat":43.27804,"lon":5.40715,"is_reserved":false,"is_disabled":false,"rental_uris":{"android":"levelo://app?vid=699c6bb0-1655-47f0-86fb-78256d649744","ios":"levelo://app?vid=699c6bb0-1655-47f0-86fb-78256d649744"},"vehicle_type_id":"4","last_reported":1768461449,"current_range_meters":6000,"station_id":"ce4bhnh2rcd13ifvqgtg","pricing_plan_id":"cebpf4jnsgd1na2vs0mg"},{"bike_id":"e9ec1499-1b5a-44e1-bc51-badc9f215c9f","system_id":"levelo_inurba_marseille","lat":43.28484,"lon":5.38426,"is_reserved":false,"is_disabled":false,"rental_uris":{"android":"levelo://app?vid=e9ec1499-1b5a-44e1-bc51-badc9f215c9f","ios":"levelo://app?vid=e9ec1499-1b5a-44e1-bc51-badc9f215c9f"},"vehicle_type_id":"4","last_reported":1768461449,"current_range_meters":6000,"station_id":"ce4bh512rcd13ifvqe3g","pricing_plan_id":"cebpf4jnsgd1na2vs0mg"},{"bike_id":"96056386-d9a6-4636-bb5c-976733254508","system_id":"levelo_inurba_marseille","lat":43.21192,"lon":5.35082,"is_reserved":false,"is_disabled":false,"rental_uris":{"android":"levelo://app?vid=96056386-d9a6-4636-bb5c-976733254508","ios":"levelo://app?vid=96056386-d9a6-4636-bb5c-976733254508"},"vehicle_type_id":"4","last_reported":1768461449,"current_range_meters":6000,"station_id":"","pricing_plan_id":"cebpf4jnsgd1na2vs0mg"},{"bike_id":"2fd51f60-58e0-4232-ba97-2c8a3ff26cf5","system_id":"levelo_inurba_marseille","lat":43.31078,"lon":5.38345,"is_reserved":false,"is_disabled":false,"rental_uris":{"android":"levelo://app?vid=2fd51f60-58e0-4232-ba97-2c8a3ff26cf5","ios":"levelo://app?vid=2fd51f60-58e0-4232-ba97-2c8a3ff26cf5"},"vehicle_type_id":"4","last_reported":1768461449,"current_range_meters":6000,"station_id":"ce4bgv92rcd13ifvqcr0","pricing_plan_id":"cebpf4jnsgd1na2vs0mg"},{"bike_id":"99e09e4c-4502-4829-ba5b-8e0123e41d14","system_id":"levelo_inurba_marseille","lat":43.319963,"lon":5.381493,"is_reserved":false,"is_disabled":false,"rental_uris":{"android":"levelo://app?vid=99e09e4c-4502-4829-ba5b-8e0123e41d14","ios":"levelo://app?vid=99e09e4c-4502-4829-ba5b-8e0123e41d14"},"vehicle_type_id":"4","last_reported":1768461449,"current_range_meters":6000,"station_id":"ce4bhr12rcd13ifvqhpg","pricing_plan_id":"cebpf4jnsgd1na2vs0mg"},{"bike_id":"cf088183-b1ff-4035-9dc1-cb493bb7abb6","system_id":"levelo_inurba_marseille","lat":43.28,"lon":5.41665,"is_reserved":false,"is_disabled":false,"rental_uris":{"android":"levelo://app?vid=cf088183-b1ff-4035-9dc1-cb493bb7abb6","ios":"levelo://app?vid=cf088183-b1ff-4035-9dc1-cb493bb7abb6"},"vehicle_type_id":"4","last_reported":1768461449,"current_range_meters":6000,"station_id":"ce4bho12rcd13ifvqh1g","pricing_plan_id":"cebpf4jnsgd1na2vs0mg"},{"bike_id":"d969dc06-74de-4e11-bf39-9e12c3807e44","system_id":"levelo_inurba_marseille","lat":43.2654,"lon":5.40366,"is_reserved":false,"is_disabled":false,"rental_uris":{"android":"levelo://app?vid=d969dc06-74de-4e11-bf39-9e12c3807e44","ios":"levelo://app?vid=d969dc06-74de-4e11-bf39-9e12c3807e44"},"vehicle_type_id":"4","last_reported":1768461449,"current_range_meters":6400,"station_id":"ce4bhmp2rcd13ifvqgng","pricing_plan_id":"cebpf4jnsgd1na2vs0mg"},{"bike_id":"c1495121-a08b-418c-bb8b-775a91725f3a","system_id":"levelo_inurba_marseille","lat":43.290409,"lon":5.386465,"is_reserved":false,"is_disabled":false,"rental_uris":{"android":"levelo://app?vid=c1495121-a08b-418c-bb8b-775a91725f3a","ios":"levelo://app?vid=c1495121-a08b-418c-bb8b-775a91725f3a"},"vehicle_type_id":"4","last_reported":1768461449,"current_range_meters":6400,"station_id":"ce4bh4p2rcd13ifvqe0g","pricing_plan_id":"cebpf4jnsgd1na2vs0mg"},{"bike_id":"634a5032-07c2-4ad0-b886-0e21c013fdce","system_id":"levelo_inurba_marseille","lat":43.25565,"lon":5.38242,"is_reserved":false,"is_disabled":false,"rental_uris":{"android":"levelo://app?vid=634a5032-07c2-4ad0-b886-0e21c013fdce","ios":"levelo://app?vid=634a5032-07c2-4ad0-b886-0e21c013fdce"},"vehicle_type_id":"4","last_reported":1768461449,"current_range_meters":6400,"station_id":"ce4bhih2rcd13ifvqfs0","pricing_plan_id":"cebpf4jnsgd1na2vs0mg"},{"bike_id":"18e1df7d-36bb-4ff7-a83a-8c39685374ad","system_id":"levelo_inurba_marseille","lat":43.28219,"lon":5.39062,"is_reserved":false,"is_disabled":false,"rental_uris":{"android":"levelo://app?vid=18e1df7d-36bb-4ff7-a83a-8c39685374ad","ios":"levelo://app?vid=18e1df7d-36bb-4ff7-a83a-8c39685374ad"},"vehicle_type_id":"4","last_reported":1768461449,"current_range_meters":6400,"station_id":"ce4bhn92rcd13ifvqgsg","pricing_plan_id":"cebpf4jnsgd1na2vs0mg"},{"bike_id":"1c751fc0-0d04-4771-bc12-1ec910172770","system_id":"levelo_inurba_marseille","lat":43.292825,"lon":5.401228,"is_reserved":false,"is_disabled":false,"rental_uris":{"android":"levelo://app?vid=1c751fc0-0d04-4771-bc12-1ec910172770","ios":"levelo://app?vid=1c751fc0-0d04-4771-bc12-1ec910172770"},"vehicle_type_id":"4","last_reported":1768461449,"current_range_meters":6400,"station_id":"ce4bh312rcd13ifvqdk0","pricing_plan_id":"cebpf4jnsgd1na2vs0mg"},{"bike_id":"6d5b743f-0d0d-4728-9aac-92cae33bf20c","system_id":"levelo_inurba_marseille","lat":43.25572,"lon":5.3823,"is_reserved":false,"is_disabled":false,"rental_uris":{"android":"levelo://app?vid=6d5b743f-0d0d-4728-9aac-92cae33bf20c","ios":"levelo://app?vid=6d5b743f-0d0d-4728-9aac-92cae33bf20c"},"vehicle_type_id":"4","last_reported":1768461449,"current_range_meters":6400,"station_id":"ce4bhih2rcd13ifvqfs0","pricing_plan_id":"cebpf4jnsgd1na2vs0mg"},{"bike_id":"0b8f588c-5718-4485-a505-d9e9d4b9d64a","system_id":"levelo_inurba_marseille","lat":43.265643,"lon":5.403214,"is_reserved":false,"is_disabled":false,"rental_uris":{"android":"levelo://app?vid=0b8f588c-5718-4485-a505-d9e9d4b9d64a","ios":"levelo://app?vid=0b8f588c-5718-4485-a505-d9e9d4b9d64a"},"vehicle_type_id":"4","last_reported":1768461449,"current_range_meters":6400,"station_id":"ce4bhmp2rcd13ifvqgng","pricing_plan_id":"cebpf4jnsgd1na2vs0mg"},{"bike_id":"e11889a7-dd00-4680-82ad-dc48c0a7f8b9","system_id":"levelo_inurba_marseille","lat":43.22922,"lon":5.35402,"is_reserved":false,"is_disabled":false,"rental_uris":{"android":"levelo://app?vid=e11889a7-dd00-4680-82ad-dc48c0a7f8b9","ios":"levelo://app?vid=e11889a7-dd00-4680-82ad-dc48c0a7f8b9"},"vehicle_type_id":"4","last_reported":1768461449,"current_range_meters":6400,"station_id":"cpo3532slgdg3j2ikp40","pricing_plan_id":"cebpf4jnsgd1na2vs0mg"},{"bike_id":"aac02660-451c-4466-97cc-03bd6873da26","system_id":"levelo_inurba_marseille","lat":43.24808,"lon":5.37452,"is_reserved":false,"is_disabled":false,"rental_uris":{"android":"levelo://app?vid=aac02660-451c-4466-97cc-03bd6873da26","ios":"levelo://app?vid=aac02660-451c-4466-97cc-03bd6873da26"},"vehicle_type_id":"4","last_reported":1768461449,"current_range_meters":6400,"station_id":"ce4bhgh2rcd13ifvqfb0","pricing_plan_id":"cebpf4jnsgd1na2vs0mg"},{"bike_id":"3b326f81-b0c4-4b16-a9c9-f528a517d078","system_id":"levelo_inurba_marseille","lat":43.23188,"lon":5.35561,"is_reserved":false,"is_disabled":false,"rental_uris":{"android":"levelo://app?vid=3b326f81-b0c4-4b16-a9c9-f528a517d078","ios":"levelo://app?vid=3b326f81-b0c4-4b16-a9c9-f528a517d078"},"vehicle_type_id":"4","last_reported":1768461449,"current_range_meters":6400,"station_id":"ce4bhu92rcd13ifvqi70","pricing_plan_id":"cebpf4jnsgd1na2vs0mg"},{"bike_id":"554c04e7-941a-4c22-b472-97e077e3a312","system_id":"levelo_inurba_marseille","lat":43.301337,"lon":5.403835,"is_reserved":false,"is_disabled":false,"rental_uris":{"android":"levelo://app?vid=554c04e7-941a-4c22-b472-97e077e3a312","ios":"levelo://app?vid=554c04e7-941a-4c22-b472-97e077e3a312"},"vehicle_type_id":"4","last_reported":1768461449,"current_range_meters":6400,"station_id":"","pricing_plan_id":"cebpf4jnsgd1na2vs0mg"},{"bike_id":"ec7cfe69-ce17-4347-9607-bf42e20090ad","system_id":"levelo_inurba_marseille","lat":43.32357,"lon":5.36752,"is_reserved":false,"is_disabled":false,"rental_uris":{"android":"levelo://app?vid=ec7cfe69-ce17-4347-9607-bf42e20090ad","ios":"levelo://app?vid=ec7cfe69-ce17-4347-9607-bf42e20090ad"},"vehicle_type_id":"4","last_reported":1768461449,"current_range_meters":6400,"station_id":"ce4bhsh2rcd13ifvqi2g","pricing_plan_id":"cebpf4jnsgd1na2vs0mg"},{"bike_id":"4a0910bc-2cb8-4117-a88f-aa517b88b474","system_id":"levelo_inurba_marseille","lat":43.34422,"lon":5.39969,"is_reserved":false,"is_disabled":false,"rental_uris":{"android":"levelo://app?vid=4a0910bc-2cb8-4117-a88f-aa517b88b474","ios":"levelo://app?vid=4a0910bc-2cb8-4117-a88f-aa517b88b474"},"vehicle_type_id":"4","last_reported":1768461449,"current_range_meters":6400,"station_id":"","pricing_plan_id":"cebpf4jnsgd1na2vs0mg"},{"bike_id":"815c0b22-45a5-4b1e-95ee-7d2fbb32648f","system_id":"levelo_inurba_marseille","lat":43.29281,"lon":5.40138,"is_reserved":false,"is_disabled":false,"rental_uris":{"android":"levelo://app?vid=815c0b22-45a5-4b1e-95ee-7d2fbb32648f","ios":"levelo://app?vid=815c0b22-45a5-4b1e-95ee-7d2fbb32648f"},"vehicle_type_id":"4","last_reported":1768461449,"current_range_meters":6400,"station_id":"ce4bh312rcd13ifvqdk0","pricing_plan_id":"cebpf4jnsgd1na2vs0mg"},{"bike_id":"c8fd2661-ffed-44f1-96f4-fbda7837362a","system_id":"levelo_inurba_marseille","lat":43.29843,"lon":5.36275,"is_reserved":false,"is_disabled":false,"rental_uris":{"android":"levelo://app?vid=c8fd2661-ffed-44f1-96f4-fbda7837362a","ios":"levelo://app?vid=c8fd2661-ffed-44f1-96f4-fbda7837362a"},"vehicle_type_id":"4","last_reported":1768461449,"current_range_meters":6400,"station_id":"ce4bgpp2rcd13ifvqc3g","pricing_plan_id":"cebpf4jnsgd1na2vs0mg"},{"bike_id":"10e580fb-3a4d-48aa-a18d-73ca6a776e6c","system_id":"levelo_inurba_marseille","lat":43.26859,"lon":5.40664,"is_reserved":false,"is_disabled":false,"rental_uris":{"android":"levelo://app?vid=10e580fb-3a4d-48aa-a18d-73ca6a776e6c","ios":"levelo://app?vid=10e580fb-3a4d-48aa-a18d-73ca6a776e6c"},"vehicle_type_id":"4","last_reported":1768461449,"current_range_meters":6400,"station_id":"","pricing_plan_id":"cebpf4jnsgd1na2vs0mg"},{"bike_id":"5ba4945e-cd85-4bdc-87d5-6bc29d2218f0","system_id":"levelo_inurba_marseille","lat":43.30657,"lon":5.40051,"is_reserved":false,"is_disabled":false,"rental_uris":{"android":"levelo://app?vid=5ba4945e-cd85-4bdc-87d5-6bc29d2218f0","ios":"levelo://app?vid=5ba4945e-cd85-4bdc-87d5-6bc29d2218f0"},"vehicle_type_id":"4","last_reported":1768461449,"current_range_meters":6800,"station_id":"ce4bh112rcd13ifvqda0","pricing_plan_id":"cebpf4jnsgd1na2vs0mg"},{"bike_id":"b3817e2e-cdb9-4c8a-ac4e-2553b766e5fa","system_id":"levelo_inurba_marseille","lat":43.27803,"lon":5.4072,"is_reserved":false,"is_disabled":false,"rental_uris":{"android":"levelo://app?vid=b3817e2e-cdb9-4c8a-ac4e-2553b766e5fa","ios":"levelo://app?vid=b3817e2e-cdb9-4c8a-ac4e-2553b766e5fa"},"vehicle_type_id":"4","last_reported":1768461449,"current_range_meters":6800,"station_id":"ce4bhnh2rcd13ifvqgtg","pricing_plan_id":"cebpf4jnsgd1na2vs0mg"},{"bike_id":"87a1fc3a-bcb6-4a5c-877a-e3a1ba5af635","system_id":"levelo_inurba_marseille","lat":43.264835,"lon":5.395426,"is_reserved":false,"is_disabled":false,"rental_uris":{"android":"levelo://app?vid=87a1fc3a-bcb6-4a5c-877a-e3a1ba5af635","ios":"levelo://app?vid=87a1fc3a-bcb6-4a5c-877a-e3a1ba5af635"},"vehicle_type_id":"4","last_reported":1768461449,"current_range_meters":6800,"station_id":"ce4bhi12rcd13ifvqfq0","pricing_plan_id":"cebpf4jnsgd1na2vs0mg"},{"bike_id":"2ec2dd26-c6c2-4ba3-9e8e-94f15bb7dcf0","system_id":"levelo_inurba_marseille","lat":43.278116,"lon":5.407032,"is_reserved":false,"is_disabled":false,"rental_uris":{"android":"levelo://app?vid=2ec2dd26-c6c2-4ba3-9e8e-94f15bb7dcf0","ios":"levelo://app?vid=2ec2dd26-c6c2-4ba3-9e8e-94f15bb7dcf0"},"vehicle_type_id":"4","last_reported":1768461449,"current_range_meters":6800,"station_id":"ce4bhnh2rcd13ifvqgtg","pricing_plan_id":"cebpf4jnsgd1na2vs0mg"},{"bike_id":"d8b52035-9107-4203-ba3b-8ab85229defc","system_id":"levelo_inurba_marseille","lat":43.25627,"lon":5.40029,"is_reserved":false,"is_disabled":false,"rental_uris":{"android":"levelo://app?vid=d8b52035-9107-4203-ba3b-8ab85229defc","ios":"levelo://app?vid=d8b52035-9107-4203-ba3b-8ab85229defc"},"vehicle_type_id":"4","last_reported":1768461449,"current_range_meters":6800,"station_id":"","pricing_plan_id":"cebpf4jnsgd1na2vs0mg"},{"bike_id":"4d6909df-3456-423a-b22e-e9f160015c2f","system_id":"levelo_inurba_marseille","lat":43.284131,"lon":5.349911,"is_reserved":false,"is_disabled":false,"rental_uris":{"android":"levelo://app?vid=4d6909df-3456-423a-b22e-e9f160015c2f","ios":"levelo://app?vid=4d6909df-3456-423a-b22e-e9f160015c2f"},"vehicle_type_id":"4","last_reported":1768461449,"current_range_meters":6800,"station_id":"","pricing_plan_id":"cebpf4jnsgd1na2vs0mg"},{"bike_id":"bc05764b-2136-45ba-8d47-48a061c67081","system_id":"levelo_inurba_marseille","lat":43.32537,"lon":5.414327,"is_reserved":false,"is_disabled":false,"rental_uris":{"android":"levelo://app?vid=bc05764b-2136-45ba-8d47-48a061c67081","ios":"levelo://app?vid=bc05764b-2136-45ba-8d47-48a061c67081"},"vehicle_type_id":"4","last_reported":1768461449,"current_range_meters":6800,"station_id":"ce4bhq12rcd13ifvqhhg","pricing_plan_id":"cebpf4jnsgd1na2vs0mg"},{"bike_id":"f1177697-24b8-4122-96be-92006a04ddc7","system_id":"levelo_inurba_marseille","lat":43.27823,"lon":5.40711,"is_reserved":false,"is_disabled":false,"rental_uris":{"android":"levelo://app?vid=f1177697-24b8-4122-96be-92006a04ddc7","ios":"levelo://app?vid=f1177697-24b8-4122-96be-92006a04ddc7"},"vehicle_type_id":"4","last_reported":1768461449,"current_range_meters":6800,"station_id":"ce4bhnh2rcd13ifvqgtg","pricing_plan_id":"cebpf4jnsgd1na2vs0mg"},{"bike_id":"d6197ef6-cf16-4b60-b6ce-127272f071b0","system_id":"levelo_inurba_marseille","lat":43.26567,"lon":5.39009,"is_reserved":false,"is_disabled":false,"rental_uris":{"android":"levelo://app?vid=d6197ef6-cf16-4b60-b6ce-127272f071b0","ios":"levelo://app?vid=d6197ef6-cf16-4b60-b6ce-127272f071b0"},"vehicle_type_id":"4","last_reported":1768461449,"current_range_meters":6800,"station_id":"ce4bhe12rcd13ifvqf30","pricing_plan_id":"cebpf4jnsgd1na2vs0mg"},{"bike_id":"9b27e695-d26a-4e76-b04f-5a29a605a6af","system_id":"levelo_inurba_marseille","lat":43.29072,"lon":5.37129,"is_reserved":false,"is_disabled":false,"rental_uris":{"android":"levelo://app?vid=9b27e695-d26a-4e76-b04f-5a29a605a6af","ios":"levelo://app?vid=9b27e695-d26a-4e76-b04f-5a29a605a6af"},"vehicle_type_id":"4","last_reported":1768461449,"current_range_meters":6800,"station_id":"ce4bh5p2rcd13ifvqe4g","pricing_plan_id":"cebpf4jnsgd1na2vs0mg"},{"bike_id":"0c10e763-537e-4349-bed5-58c5048433a6","system_id":"levelo_inurba_marseille","lat":43.29016,"lon":5.35579,"is_reserved":false,"is_disabled":false,"rental_uris":{"android":"levelo://app?vid=0c10e763-537e-4349-bed5-58c5048433a6","ios":"levelo://app?vid=0c10e763-537e-4349-bed5-58c5048433a6"},"vehicle_type_id":"4","last_reported":1768461449,"current_range_meters":6800,"station_id":"ce4bhb92rcd13ifvqen0","pricing_plan_id":"cebpf4jnsgd1na2vs0mg"},{"bike_id":"daed5dc8-bb55-4d95-8e40-0d9725f84258","system_id":"levelo_inurba_marseille","lat":43.30136,"lon":5.38085,"is_reserved":false,"is_disabled":false,"rental_uris":{"android":"levelo://app?vid=daed5dc8-bb55-4d95-8e40-0d9725f84258","ios":"levelo://app?vid=daed5dc8-bb55-4d95-8e40-0d9725f84258"},"vehicle_type_id":"4","last_reported":1768461449,"current_range_meters":6800,"station_id":"ce4bgjp2rcd13ifvqbh0","pricing_plan_id":"cebpf4jnsgd1na2vs0mg"},{"bike_id":"83b24877-4fa1-4cbc-9729-5d9b1f26a09d","system_id":"levelo_inurba_marseille","lat":43.29652,"lon":5.39172,"is_reserved":false,"is_disabled":false,"rental_uris":{"android":"levelo://app?vid=83b24877-4fa1-4cbc-9729-5d9b1f26a09d","ios":"levelo://app?vid=83b24877-4fa1-4cbc-9729-5d9b1f26a09d"},"vehicle_type_id":"4","last_reported":1768461449,"current_range_meters":6800,"station_id":"","pricing_plan_id":"cebpf4jnsgd1na2vs0mg"},{"bike_id":"03bea929-ded9-4f0a-b535-3ced67ddbf39","system_id":"levelo_inurba_marseille","lat":43.24647,"lon":5.4311,"is_reserved":false,"is_disabled":false,"rental_uris":{"android":"levelo://app?vid=03bea929-ded9-4f0a-b535-3ced67ddbf39","ios":"levelo://app?vid=03bea929-ded9-4f0a-b535-3ced67ddbf39"},"vehicle_type_id":"4","last_reported":1768461449,"current_range_meters":6800,"station_id":"st_d2m6c4gdas8pm72e190g","pricing_plan_id":"cebpf4jnsgd1na2vs0mg"},{"bike_id":"13c9bdb3-8b57-498a-9b60-59055deabbb0","system_id":"levelo_inurba_marseille","lat":43.2984,"lon":5.36285,"is_reserved":false,"is_disabled":false,"rental_uris":{"android":"levelo://app?vid=13c9bdb3-8b57-498a-9b60-59055deabbb0","ios":"levelo://app?vid=13c9bdb3-8b57-498a-9b60-59055deabbb0"},"vehicle_type_id":"4","last_reported":1768461449,"current_range_meters":6800,"station_id":"ce4bgpp2rcd13ifvqc3g","pricing_plan_id":"cebpf4jnsgd1na2vs0mg"},{"bike_id":"6858eccd-06f5-4b7f-a1b2-97c16452b7d5","system_id":"levelo_inurba_marseille","lat":43.22564,"lon":5.4163,"is_reserved":false,"is_disabled":false,"rental_uris":{"android":"levelo://app?vid=6858eccd-06f5-4b7f-a1b2-97c16452b7d5","ios":"levelo://app?vid=6858eccd-06f5-4b7f-a1b2-97c16452b7d5"},"vehicle_type_id":"4","last_reported":1768461449,"current_range_meters":6800,"station_id":"st_d2o4gvlbi1j2169b742g","pricing_plan_id":"cebpf4jnsgd1na2vs0mg"},{"bike_id":"68ae23aa-b332-4f3e-8a51-bb845df82b9e","system_id":"levelo_inurba_marseille","lat":43.25577,"lon":5.38236,"is_reserved":false,"is_disabled":false,"rental_uris":{"android":"levelo://app?vid=68ae23aa-b332-4f3e-8a51-bb845df82b9e","ios":"levelo://app?vid=68ae23aa-b332-4f3e-8a51-bb845df82b9e"},"vehicle_type_id":"4","last_reported":1768461449,"current_range_meters":6800,"station_id":"","pricing_plan_id":"cebpf4jnsgd1na2vs0mg"},{"bike_id":"4810dca0-bad6-47b5-b7db-2f7125b3e022","system_id":"levelo_inurba_marseille","lat":43.21191,"lon":5.35068,"is_reserved":false,"is_disabled":false,"rental_uris":{"android":"levelo://app?vid=4810dca0-bad6-47b5-b7db-2f7125b3e022","ios":"levelo://app?vid=4810dca0-bad6-47b5-b7db-2f7125b3e022"},"vehicle_type_id":"4","last_reported":1768461449,"current_range_meters":6800,"station_id":"st_cvj6sg6p6f1abm77japg","pricing_plan_id":"cebpf4jnsgd1na2vs0mg"},{"bike_id":"5788f7d6-ac77-48a0-84be-e759ee8c87f6","system_id":"levelo_inurba_marseille","lat":43.2695,"lon":5.38622,"is_reserved":false,"is_disabled":false,"rental_uris":{"android":"levelo://app?vid=5788f7d6-ac77-48a0-84be-e759ee8c87f6","ios":"levelo://app?vid=5788f7d6-ac77-48a0-84be-e759ee8c87f6"},"vehicle_type_id":"4","last_reported":1768461449,"current_range_meters":6800,"station_id":"ce4bhh92rcd13ifvqfh0","pricing_plan_id":"cebpf4jnsgd1na2vs0mg"},{"bike_id":"f26e9a9c-efcf-4817-ad70-c481de1d89b3","system_id":"levelo_inurba_marseille","lat":43.26212,"lon":5.37457,"is_reserved":false,"is_disabled":false,"rental_uris":{"android":"levelo://app?vid=f26e9a9c-efcf-4817-ad70-c481de1d89b3","ios":"levelo://app?vid=f26e9a9c-efcf-4817-ad70-c481de1d89b3"},"vehicle_type_id":"4","last_reported":1768461449,"current_range_meters":7200,"station_id":"ce4bhgp2rcd13ifvqfc0","pricing_plan_id":"cebpf4jnsgd1na2vs0mg"},{"bike_id":"b02e7b3d-bfa1-4a73-bfb4-3a8d24b24cf4","system_id":"levelo_inurba_marseille","lat":43.25507,"lon":5.37657,"is_reserved":false,"is_disabled":false,"rental_uris":{"android":"levelo://app?vid=b02e7b3d-bfa1-4a73-bfb4-3a8d24b24cf4","ios":"levelo://app?vid=b02e7b3d-bfa1-4a73-bfb4-3a8d24b24cf4"},"vehicle_type_id":"4","last_reported":1768461449,"current_range_meters":7200,"station_id":"ce4bhh12rcd13ifvqff0","pricing_plan_id":"cebpf4jnsgd1na2vs0mg"},{"bike_id":"2cf04024-654b-4f56-b8cf-21b3dca3b544","system_id":"levelo_inurba_marseille","lat":43.28218,"lon":5.39061,"is_reserved":false,"is_disabled":false,"rental_uris":{"android":"levelo://app?vid=2cf04024-654b-4f56-b8cf-21b3dca3b544","ios":"levelo://app?vid=2cf04024-654b-4f56-b8cf-21b3dca3b544"},"vehicle_type_id":"4","last_reported":1768461449,"current_range_meters":7200,"station_id":"ce4bhn92rcd13ifvqgsg","pricing_plan_id":"cebpf4jnsgd1na2vs0mg"},{"bike_id":"7f64d895-eee2-4e62-9b98-77e809492590","system_id":"levelo_inurba_marseille","lat":43.24844,"lon":5.3743,"is_reserved":false,"is_disabled":false,"rental_uris":{"android":"levelo://app?vid=7f64d895-eee2-4e62-9b98-77e809492590","ios":"levelo://app?vid=7f64d895-eee2-4e62-9b98-77e809492590"},"vehicle_type_id":"4","last_reported":1768461449,"current_range_meters":7200,"station_id":"","pricing_plan_id":"cebpf4jnsgd1na2vs0mg"},{"bike_id":"5cfd03cf-24a1-4762-9fb7-26a053abe44f","system_id":"levelo_inurba_marseille","lat":43.25836,"lon":5.39472,"is_reserved":false,"is_disabled":false,"rental_uris":{"android":"levelo://app?vid=5cfd03cf-24a1-4762-9fb7-26a053abe44f","ios":"levelo://app?vid=5cfd03cf-24a1-4762-9fb7-26a053abe44f"},"vehicle_type_id":"4","last_reported":1768461449,"current_range_meters":7200,"station_id":"ce4bhip2rcd13ifvqft0","pricing_plan_id":"cebpf4jnsgd1na2vs0mg"},{"bike_id":"a3a68054-3a27-4a78-8534-42fd98fd0061","system_id":"levelo_inurba_marseille","lat":43.25584,"lon":5.38234,"is_reserved":false,"is_disabled":false,"rental_uris":{"android":"levelo://app?vid=a3a68054-3a27-4a78-8534-42fd98fd0061","ios":"levelo://app?vid=a3a68054-3a27-4a78-8534-42fd98fd0061"},"vehicle_type_id":"4","last_reported":1768461449,"current_range_meters":7200,"station_id":"ce4bhih2rcd13ifvqfs0","pricing_plan_id":"cebpf4jnsgd1na2vs0mg"},{"bike_id":"027c6635-f334-4e8c-88a0-e51b1cef62a5","system_id":"levelo_inurba_marseille","lat":43.266863,"lon":5.382794,"is_reserved":false,"is_disabled":true,"rental_uris":{"android":"levelo://app?vid=027c6635-f334-4e8c-88a0-e51b1cef62a5","ios":"levelo://app?vid=027c6635-f334-4e8c-88a0-e51b1cef62a5"},"vehicle_type_id":"4","last_reported":1768461449,"current_range_meters":7200,"station_id":"ce4bhg92rcd13ifvqf90","pricing_plan_id":"cebpf4jnsgd1na2vs0mg"},{"bike_id":"03458de3-2aac-45d6-b0b1-99d79cbd4d77","system_id":"levelo_inurba_marseille","lat":43.30323,"lon":5.40445,"is_reserved":false,"is_disabled":false,"rental_uris":{"android":"levelo://app?vid=03458de3-2aac-45d6-b0b1-99d79cbd4d77","ios":"levelo://app?vid=03458de3-2aac-45d6-b0b1-99d79cbd4d77"},"vehicle_type_id":"4","last_reported":1768461449,"current_range_meters":7200,"station_id":"ce4bh012rcd13ifvqd10","pricing_plan_id":"cebpf4jnsgd1na2vs0mg"},{"bike_id":"ca04775f-f625-4137-b342-f30728a81c5a","system_id":"levelo_inurba_marseille","lat":43.26226,"lon":5.40446,"is_reserved":false,"is_disabled":false,"rental_uris":{"android":"levelo://app?vid=ca04775f-f625-4137-b342-f30728a81c5a","ios":"levelo://app?vid=ca04775f-f625-4137-b342-f30728a81c5a"},"vehicle_type_id":"4","last_reported":1768461449,"current_range_meters":7200,"station_id":"ce4bhmh2rcd13ifvqgmg","pricing_plan_id":"cebpf4jnsgd1na2vs0mg"},{"bike_id":"23694f2c-b2d4-4d58-b373-d1c7186e4244","system_id":"levelo_inurba_marseille","lat":43.29766,"lon":5.42768,"is_reserved":false,"is_disabled":false,"rental_uris":{"android":"levelo://app?vid=23694f2c-b2d4-4d58-b373-d1c7186e4244","ios":"levelo://app?vid=23694f2c-b2d4-4d58-b373-d1c7186e4244"},"vehicle_type_id":"4","last_reported":1768461449,"current_range_meters":7200,"station_id":"st_d3md5207bmas73dh9klg","pricing_plan_id":"cebpf4jnsgd1na2vs0mg"},{"bike_id":"f9fdbb48-1798-4538-9bda-de4b35ab0ad4","system_id":"levelo_inurba_marseille","lat":43.28104,"lon":5.38313,"is_reserved":false,"is_disabled":false,"rental_uris":{"android":"levelo://app?vid=f9fdbb48-1798-4538-9bda-de4b35ab0ad4","ios":"levelo://app?vid=f9fdbb48-1798-4538-9bda-de4b35ab0ad4"},"vehicle_type_id":"4","last_reported":1768461449,"current_range_meters":7200,"station_id":"","pricing_plan_id":"cebpf4jnsgd1na2vs0mg"},{"bike_id":"2c410b88-6f8f-4acd-bb2c-fbe054359114","system_id":"levelo_inurba_marseille","lat":43.30883,"lon":5.39657,"is_reserved":false,"is_disabled":false,"rental_uris":{"android":"levelo://app?vid=2c410b88-6f8f-4acd-bb2c-fbe054359114","ios":"levelo://app?vid=2c410b88-6f8f-4acd-bb2c-fbe054359114"},"vehicle_type_id":"4","last_reported":1768461449,"current_range_meters":7200,"station_id":"ce4bh012rcd13ifvqcv0","pricing_plan_id":"cebpf4jnsgd1na2vs0mg"},{"bike_id":"774ca479-5bb9-49b9-8ea6-99c5cf896279","system_id":"levelo_inurba_marseille","lat":43.24642,"lon":5.43104,"is_reserved":false,"is_disabled":false,"rental_uris":{"android":"levelo://app?vid=774ca479-5bb9-49b9-8ea6-99c5cf896279","ios":"levelo://app?vid=774ca479-5bb9-49b9-8ea6-99c5cf896279"},"vehicle_type_id":"4","last_reported":1768461449,"current_range_meters":7200,"station_id":"st_d2m6c4gdas8pm72e190g","pricing_plan_id":"cebpf4jnsgd1na2vs0mg"},{"bike_id":"b5ad29a0-462d-4d07-9a18-d87946a4398c","system_id":"levelo_inurba_marseille","lat":43.31146,"lon":5.38057,"is_reserved":false,"is_disabled":false,"rental_uris":{"android":"levelo://app?vid=b5ad29a0-462d-4d07-9a18-d87946a4398c","ios":"levelo://app?vid=b5ad29a0-462d-4d07-9a18-d87946a4398c"},"vehicle_type_id":"4","last_reported":1768461449,"current_range_meters":7200,"station_id":"","pricing_plan_id":"cebpf4jnsgd1na2vs0mg"},{"bike_id":"45560b8c-0e05-4e12-aadd-6d4f84ae2310","system_id":"levelo_inurba_marseille","lat":43.2687,"lon":5.38911,"is_reserved":false,"is_disabled":false,"rental_uris":{"android":"levelo://app?vid=45560b8c-0e05-4e12-aadd-6d4f84ae2310","ios":"levelo://app?vid=45560b8c-0e05-4e12-aadd-6d4f84ae2310"},"vehicle_type_id":"4","last_reported":1768461449,"current_range_meters":7200,"station_id":"","pricing_plan_id":"cebpf4jnsgd1na2vs0mg"},{"bike_id":"f1d328ec-8a2c-4647-8162-9531bcbcb299","system_id":"levelo_inurba_marseille","lat":43.24456,"lon":5.41091,"is_reserved":false,"is_disabled":false,"rental_uris":{"android":"levelo://app?vid=f1d328ec-8a2c-4647-8162-9531bcbcb299","ios":"levelo://app?vid=f1d328ec-8a2c-4647-8162-9531bcbcb299"},"vehicle_type_id":"4","last_reported":1768461449,"current_range_meters":7200,"station_id":"","pricing_plan_id":"cebpf4jnsgd1na2vs0mg"},{"bike_id":"54ae17d3-f972-4236-b447-fa76bd8f3f82","system_id":"levelo_inurba_marseille","lat":43.24827,"lon":5.37464,"is_reserved":false,"is_disabled":false,"rental_uris":{"android":"levelo://app?vid=54ae17d3-f972-4236-b447-fa76bd8f3f82","ios":"levelo://app?vid=54ae17d3-f972-4236-b447-fa76bd8f3f82"},"vehicle_type_id":"4","last_reported":1768461449,"current_range_meters":8000,"station_id":"ce4bhgh2rcd13ifvqfb0","pricing_plan_id":"cebpf4jnsgd1na2vs0mg"},{"bike_id":"c03cd309-c737-47c4-a7e9-06a2667d9dfa","system_id":"levelo_inurba_marseille","lat":43.28528,"lon":5.44095,"is_reserved":false,"is_disabled":false,"rental_uris":{"android":"levelo://app?vid=c03cd309-c737-47c4-a7e9-06a2667d9dfa","ios":"levelo://app?vid=c03cd309-c737-47c4-a7e9-06a2667d9dfa"},"vehicle_type_id":"4","last_reported":1768461449,"current_range_meters":8000,"station_id":"st_d3j3df2ikq2c7380ej80","pricing_plan_id":"cebpf4jnsgd1na2vs0mg"},{"bike_id":"5c9cf652-9ff1-4da0-9873-4f32753db2aa","system_id":"levelo_inurba_marseille","lat":43.27166,"lon":5.40969,"is_reserved":false,"is_disabled":false,"rental_uris":{"android":"levelo://app?vid=5c9cf652-9ff1-4da0-9873-4f32753db2aa","ios":"levelo://app?vid=5c9cf652-9ff1-4da0-9873-4f32753db2aa"},"vehicle_type_id":"4","last_reported":1768461449,"current_range_meters":8000,"station_id":"ce4bhl12rcd13ifvqgf0","pricing_plan_id":"cebpf4jnsgd1na2vs0mg"},{"bike_id":"b0af1aeb-c4d6-4641-bc9e-da7e6c1db235","system_id":"levelo_inurba_marseille","lat":43.32088,"lon":5.36801,"is_reserved":false,"is_disabled":false,"rental_uris":{"android":"levelo://app?vid=b0af1aeb-c4d6-4641-bc9e-da7e6c1db235","ios":"levelo://app?vid=b0af1aeb-c4d6-4641-bc9e-da7e6c1db235"},"vehicle_type_id":"4","last_reported":1768461449,"current_range_meters":8000,"station_id":"ce4bhrh2rcd13ifvqhug","pricing_plan_id":"cebpf4jnsgd1na2vs0mg"},{"bike_id":"98fbf9ce-a7fa-45a9-abe3-701336e482e9","system_id":"levelo_inurba_marseille","lat":43.28433,"lon":5.39188,"is_reserved":false,"is_disabled":false,"rental_uris":{"android":"levelo://app?vid=98fbf9ce-a7fa-45a9-abe3-701336e482e9","ios":"levelo://app?vid=98fbf9ce-a7fa-45a9-abe3-701336e482e9"},"vehicle_type_id":"4","last_reported":1768461449,"current_range_meters":8000,"station_id":"ce4bhoh2rcd13ifvqh5g","pricing_plan_id":"cebpf4jnsgd1na2vs0mg"},{"bike_id":"76971c30-a8f6-4a00-b030-b14396b1d766","system_id":"levelo_inurba_marseille","lat":43.28459,"lon":5.38456,"is_reserved":false,"is_disabled":false,"rental_uris":{"android":"levelo://app?vid=76971c30-a8f6-4a00-b030-b14396b1d766","ios":"levelo://app?vid=76971c30-a8f6-4a00-b030-b14396b1d766"},"vehicle_type_id":"4","last_reported":1768461449,"current_range_meters":8000,"station_id":"ce4bh512rcd13ifvqe3g","pricing_plan_id":"cebpf4jnsgd1na2vs0mg"},{"bike_id":"f72ff0b3-21fd-4323-887c-dc6d700dcad6","system_id":"levelo_inurba_marseille","lat":43.303197,"lon":5.404418,"is_reserved":false,"is_disabled":false,"rental_uris":{"android":"levelo://app?vid=f72ff0b3-21fd-4323-887c-dc6d700dcad6","ios":"levelo://app?vid=f72ff0b3-21fd-4323-887c-dc6d700dcad6"},"vehicle_type_id":"4","last_reported":1768461449,"current_range_meters":8000,"station_id":"ce4bh012rcd13ifvqd10","pricing_plan_id":"cebpf4jnsgd1na2vs0mg"},{"bike_id":"d4f217a5-e0ec-4809-b40d-35f8e3df47b9","system_id":"levelo_inurba_marseille","lat":43.29026,"lon":5.38646,"is_reserved":false,"is_disabled":false,"rental_uris":{"android":"levelo://app?vid=d4f217a5-e0ec-4809-b40d-35f8e3df47b9","ios":"levelo://app?vid=d4f217a5-e0ec-4809-b40d-35f8e3df47b9"},"vehicle_type_id":"4","last_reported":1768461449,"current_range_meters":8000,"station_id":"ce4bh4p2rcd13ifvqe0g","pricing_plan_id":"cebpf4jnsgd1na2vs0mg"},{"bike_id":"b16db95a-1eae-47ad-b2e3-882874b3d4d4","system_id":"levelo_inurba_marseille","lat":43.28475,"lon":5.484,"is_reserved":false,"is_disabled":false,"rental_uris":{"android":"levelo://app?vid=b16db95a-1eae-47ad-b2e3-882874b3d4d4","ios":"levelo://app?vid=b16db95a-1eae-47ad-b2e3-882874b3d4d4"},"vehicle_type_id":"4","last_reported":1768461449,"current_range_meters":8000,"station_id":"st_d3svhcjqgbts73a3dn0g","pricing_plan_id":"cebpf4jnsgd1na2vs0mg"},{"bike_id":"153daeb6-1ced-443a-8511-9ccae5c5d53f","system_id":"levelo_inurba_marseille","lat":43.31744,"lon":5.37633,"is_reserved":false,"is_disabled":false,"rental_uris":{"android":"levelo://app?vid=153daeb6-1ced-443a-8511-9ccae5c5d53f","ios":"levelo://app?vid=153daeb6-1ced-443a-8511-9ccae5c5d53f"},"vehicle_type_id":"4","last_reported":1768461449,"current_range_meters":8000,"station_id":"","pricing_plan_id":"cebpf4jnsgd1na2vs0mg"},{"bike_id":"1101d0d5-0629-4ad1-91b4-fe8c7892e906","system_id":"levelo_inurba_marseille","lat":43.28212,"lon":5.39072,"is_reserved":false,"is_disabled":false,"rental_uris":{"android":"levelo://app?vid=1101d0d5-0629-4ad1-91b4-fe8c7892e906","ios":"levelo://app?vid=1101d0d5-0629-4ad1-91b4-fe8c7892e906"},"vehicle_type_id":"4","last_reported":1768461449,"current_range_meters":8000,"station_id":"ce4bhn92rcd13ifvqgsg","pricing_plan_id":"cebpf4jnsgd1na2vs0mg"},{"bike_id":"1647898a-7e44-47a9-947d-d61611f1f7c8","system_id":"levelo_inurba_marseille","lat":43.23956,"lon":5.36634,"is_reserved":false,"is_disabled":false,"rental_uris":{"android":"levelo://app?vid=1647898a-7e44-47a9-947d-d61611f1f7c8","ios":"levelo://app?vid=1647898a-7e44-47a9-947d-d61611f1f7c8"},"vehicle_type_id":"4","last_reported":1768461449,"current_range_meters":8000,"station_id":"ce4bhi12rcd13ifvqfp0","pricing_plan_id":"cebpf4jnsgd1na2vs0mg"},{"bike_id":"59c7db35-4f80-4d92-a2c5-8e7c452bb31e","system_id":"levelo_inurba_marseille","lat":43.28663,"lon":5.36343,"is_reserved":false,"is_disabled":false,"rental_uris":{"android":"levelo://app?vid=59c7db35-4f80-4d92-a2c5-8e7c452bb31e","ios":"levelo://app?vid=59c7db35-4f80-4d92-a2c5-8e7c452bb31e"},"vehicle_type_id":"4","last_reported":1768461449,"current_range_meters":8000,"station_id":"ce4bhah2rcd13ifvqej0","pricing_plan_id":"cebpf4jnsgd1na2vs0mg"},{"bike_id":"637bcef5-ae24-4804-8f17-ef45e184d3e3","system_id":"levelo_inurba_marseille","lat":43.29033,"lon":5.39958,"is_reserved":false,"is_disabled":false,"rental_uris":{"android":"levelo://app?vid=637bcef5-ae24-4804-8f17-ef45e184d3e3","ios":"levelo://app?vid=637bcef5-ae24-4804-8f17-ef45e184d3e3"},"vehicle_type_id":"4","last_reported":1768461449,"current_range_meters":8000,"station_id":"ce4bh392rcd13ifvqdm0","pricing_plan_id":"cebpf4jnsgd1na2vs0mg"},{"bike_id":"bbca5a78-1ee0-4dab-ba7e-f05d9beea402","system_id":"levelo_inurba_marseille","lat":43.24166,"lon":5.36384,"is_reserved":false,"is_disabled":false,"rental_uris":{"android":"levelo://app?vid=bbca5a78-1ee0-4dab-ba7e-f05d9beea402","ios":"levelo://app?vid=bbca5a78-1ee0-4dab-ba7e-f05d9beea402"},"vehicle_type_id":"4","last_reported":1768461449,"current_range_meters":8000,"station_id":"cpo36qri1sfpv3e86is0","pricing_plan_id":"cebpf4jnsgd1na2vs0mg"},{"bike_id":"41ce6660-486c-4160-8cf7-0ec19caa5c58","system_id":"levelo_inurba_marseille","lat":43.32358,"lon":5.36755,"is_reserved":false,"is_disabled":false,"rental_uris":{"android":"levelo://app?vid=41ce6660-486c-4160-8cf7-0ec19caa5c58","ios":"levelo://app?vid=41ce6660-486c-4160-8cf7-0ec19caa5c58"},"vehicle_type_id":"4","last_reported":1768461449,"current_range_meters":8000,"station_id":"ce4bhsh2rcd13ifvqi2g","pricing_plan_id":"cebpf4jnsgd1na2vs0mg"},{"bike_id":"5d3f123c-3f55-4795-93ce-d87d4af2eb95","system_id":"levelo_inurba_marseille","lat":43.27049,"lon":5.4228,"is_reserved":false,"is_disabled":false,"rental_uris":{"android":"levelo://app?vid=5d3f123c-3f55-4795-93ce-d87d4af2eb95","ios":"levelo://app?vid=5d3f123c-3f55-4795-93ce-d87d4af2eb95"},"vehicle_type_id":"4","last_reported":1768461449,"current_range_meters":8000,"station_id":"ce4bhk92rcd13ifvqgb0","pricing_plan_id":"cebpf4jnsgd1na2vs0mg"},{"bike_id":"58455772-468d-41ff-a9b8-5fcf7f6153ec","system_id":"levelo_inurba_marseille","lat":43.25821,"lon":5.39433,"is_reserved":false,"is_disabled":false,"rental_uris":{"android":"levelo://app?vid=58455772-468d-41ff-a9b8-5fcf7f6153ec","ios":"levelo://app?vid=58455772-468d-41ff-a9b8-5fcf7f6153ec"},"vehicle_type_id":"4","last_reported":1768461449,"current_range_meters":8000,"station_id":"ce4bhip2rcd13ifvqft0","pricing_plan_id":"cebpf4jnsgd1na2vs0mg"},{"bike_id":"c2363ba3-644f-497c-984f-a69dd5e93016","system_id":"levelo_inurba_marseille","lat":43.33017,"lon":5.39038,"is_reserved":false,"is_disabled":false,"rental_uris":{"android":"levelo://app?vid=c2363ba3-644f-497c-984f-a69dd5e93016","ios":"levelo://app?vid=c2363ba3-644f-497c-984f-a69dd5e93016"},"vehicle_type_id":"4","last_reported":1768461449,"current_range_meters":8000,"station_id":"ce4bhr92rcd13ifvqhrg","pricing_plan_id":"cebpf4jnsgd1na2vs0mg"},{"bike_id":"70c58b42-7478-4488-9176-808e9cc489b6","system_id":"levelo_inurba_marseille","lat":43.33601,"lon":5.41042,"is_reserved":false,"is_disabled":false,"rental_uris":{"android":"levelo://app?vid=70c58b42-7478-4488-9176-808e9cc489b6","ios":"levelo://app?vid=70c58b42-7478-4488-9176-808e9cc489b6"},"vehicle_type_id":"4","last_reported":1768461449,"current_range_meters":8000,"station_id":"ce4bhqh2rcd13ifvqhmg","pricing_plan_id":"cebpf4jnsgd1na2vs0mg"},{"bike_id":"0cdf751e-50be-4213-adcd-ec4933b84284","system_id":"levelo_inurba_marseille","lat":43.285318,"lon":5.441035,"is_reserved":false,"is_disabled":false,"rental_uris":{"android":"levelo://app?vid=0cdf751e-50be-4213-adcd-ec4933b84284","ios":"levelo://app?vid=0cdf751e-50be-4213-adcd-ec4933b84284"},"vehicle_type_id":"4","last_reported":1768461449,"current_range_meters":8400,"station_id":"st_d3j3df2ikq2c7380ej80","pricing_plan_id":"cebpf4jnsgd1na2vs0mg"},{"bike_id":"6f5bac51-1804-4cd4-beeb-e05c41221d16","system_id":"levelo_inurba_marseille","lat":43.30528,"lon":5.36691,"is_reserved":false,"is_disabled":false,"rental_uris":{"android":"levelo://app?vid=6f5bac51-1804-4cd4-beeb-e05c41221d16","ios":"levelo://app?vid=6f5bac51-1804-4cd4-beeb-e05c41221d16"},"vehicle_type_id":"4","last_reported":1768461449,"current_range_meters":8400,"station_id":"ce4bgrp2rcd13ifvqc9g","pricing_plan_id":"cebpf4jnsgd1na2vs0mg"},{"bike_id":"7f62b559-b24d-422a-9a04-0b7fe7199bf4","system_id":"levelo_inurba_marseille","lat":43.2318,"lon":5.39996,"is_reserved":false,"is_disabled":false,"rental_uris":{"android":"levelo://app?vid=7f62b559-b24d-422a-9a04-0b7fe7199bf4","ios":"levelo://app?vid=7f62b559-b24d-422a-9a04-0b7fe7199bf4"},"vehicle_type_id":"4","last_reported":1768461449,"current_range_meters":8400,"station_id":"ce4bhn12rcd13ifvqgqg","pricing_plan_id":"cebpf4jnsgd1na2vs0mg"},{"bike_id":"b64b455e-be80-42fe-9f2c-680efd02c86b","system_id":"levelo_inurba_marseille","lat":43.28535,"lon":5.44093,"is_reserved":false,"is_disabled":false,"rental_uris":{"android":"levelo://app?vid=b64b455e-be80-42fe-9f2c-680efd02c86b","ios":"levelo://app?vid=b64b455e-be80-42fe-9f2c-680efd02c86b"},"vehicle_type_id":"4","last_reported":1768461449,"current_range_meters":8400,"station_id":"st_d3j3df2ikq2c7380ej80","pricing_plan_id":"cebpf4jnsgd1na2vs0mg"},{"bike_id":"90c64ab6-178d-435d-a653-927559c34206","system_id":"levelo_inurba_marseille","lat":43.28269,"lon":5.35074,"is_reserved":false,"is_disabled":false,"rental_uris":{"android":"levelo://app?vid=90c64ab6-178d-435d-a653-927559c34206","ios":"levelo://app?vid=90c64ab6-178d-435d-a653-927559c34206"},"vehicle_type_id":"4","last_reported":1768461449,"current_range_meters":8400,"station_id":"ce4bhbp2rcd13ifvqerg","pricing_plan_id":"cebpf4jnsgd1na2vs0mg"},{"bike_id":"b51c6372-d6f8-4f60-88ea-74da3246daef","system_id":"levelo_inurba_marseille","lat":43.28859,"lon":5.35801,"is_reserved":false,"is_disabled":false,"rental_uris":{"android":"levelo://app?vid=b51c6372-d6f8-4f60-88ea-74da3246daef","ios":"levelo://app?vid=b51c6372-d6f8-4f60-88ea-74da3246daef"},"vehicle_type_id":"4","last_reported":1768461449,"current_range_meters":8400,"station_id":"ce4bhb12rcd13ifvqem0","pricing_plan_id":"cebpf4jnsgd1na2vs0mg"},{"bike_id":"24395efb-a997-4494-bcc1-e1dfa17547b3","system_id":"levelo_inurba_marseille","lat":43.22931,"lon":5.35387,"is_reserved":false,"is_disabled":false,"rental_uris":{"android":"levelo://app?vid=24395efb-a997-4494-bcc1-e1dfa17547b3","ios":"levelo://app?vid=24395efb-a997-4494-bcc1-e1dfa17547b3"},"vehicle_type_id":"4","last_reported":1768461449,"current_range_meters":8400,"station_id":"cpo3532slgdg3j2ikp40","pricing_plan_id":"cebpf4jnsgd1na2vs0mg"},{"bike_id":"9c05b402-e2ee-48d4-95f4-d4c7aaea64f3","system_id":"levelo_inurba_marseille","lat":43.292984,"lon":5.371493,"is_reserved":false,"is_disabled":true,"rental_uris":{"android":"levelo://app?vid=9c05b402-e2ee-48d4-95f4-d4c7aaea64f3","ios":"levelo://app?vid=9c05b402-e2ee-48d4-95f4-d4c7aaea64f3"},"vehicle_type_id":"4","last_reported":1768461449,"current_range_meters":8400,"station_id":"ce4bgh92rcd13ifvqb40","pricing_plan_id":"cebpf4jnsgd1na2vs0mg"},{"bike_id":"d8b83aa5-59f1-43a2-b7fe-1513c4f005d2","system_id":"levelo_inurba_marseille","lat":43.29279,"lon":5.40118,"is_reserved":false,"is_disabled":false,"rental_uris":{"android":"levelo://app?vid=d8b83aa5-59f1-43a2-b7fe-1513c4f005d2","ios":"levelo://app?vid=d8b83aa5-59f1-43a2-b7fe-1513c4f005d2"},"vehicle_type_id":"4","last_reported":1768461449,"current_range_meters":8400,"station_id":"ce4bh312rcd13ifvqdk0","pricing_plan_id":"cebpf4jnsgd1na2vs0mg"},{"bike_id":"9bcd64ec-0147-45ef-8911-27bb4d94049a","system_id":"levelo_inurba_marseille","lat":43.31758,"lon":5.39014,"is_reserved":false,"is_disabled":false,"rental_uris":{"android":"levelo://app?vid=9bcd64ec-0147-45ef-8911-27bb4d94049a","ios":"levelo://app?vid=9bcd64ec-0147-45ef-8911-27bb4d94049a"},"vehicle_type_id":"4","last_reported":1768461449,"current_range_meters":8400,"station_id":"ce4bhqp2rcd13ifvqhng","pricing_plan_id":"cebpf4jnsgd1na2vs0mg"},{"bike_id":"a1fa7ae1-5daf-4a6d-847a-31d32f1ae7fd","system_id":"levelo_inurba_marseille","lat":43.317168,"lon":5.42395,"is_reserved":false,"is_disabled":false,"rental_uris":{"android":"levelo://app?vid=a1fa7ae1-5daf-4a6d-847a-31d32f1ae7fd","ios":"levelo://app?vid=a1fa7ae1-5daf-4a6d-847a-31d32f1ae7fd"},"vehicle_type_id":"4","last_reported":1768461449,"current_range_meters":8800,"station_id":"ce4bhp92rcd13ifvqhbg","pricing_plan_id":"cebpf4jnsgd1na2vs0mg"},{"bike_id":"918b8d38-aab8-4f40-8677-1e3fe25b1fc9","system_id":"levelo_inurba_marseille","lat":43.2319,"lon":5.39984,"is_reserved":false,"is_disabled":false,"rental_uris":{"android":"levelo://app?vid=918b8d38-aab8-4f40-8677-1e3fe25b1fc9","ios":"levelo://app?vid=918b8d38-aab8-4f40-8677-1e3fe25b1fc9"},"vehicle_type_id":"4","last_reported":1768461449,"current_range_meters":8800,"station_id":"ce4bhn12rcd13ifvqgqg","pricing_plan_id":"cebpf4jnsgd1na2vs0mg"},{"bike_id":"d1437624-7325-4411-87ce-3009f56ae813","system_id":"levelo_inurba_marseille","lat":43.27817,"lon":5.40716,"is_reserved":false,"is_disabled":false,"rental_uris":{"android":"levelo://app?vid=d1437624-7325-4411-87ce-3009f56ae813","ios":"levelo://app?vid=d1437624-7325-4411-87ce-3009f56ae813"},"vehicle_type_id":"4","last_reported":1768461449,"current_range_meters":8800,"station_id":"ce4bhnh2rcd13ifvqgtg","pricing_plan_id":"cebpf4jnsgd1na2vs0mg"},{"bike_id":"311fd6a9-6bc8-41d0-ac40-a89fb207f919","system_id":"levelo_inurba_marseille","lat":43.26935,"lon":5.40257,"is_reserved":false,"is_disabled":false,"rental_uris":{"android":"levelo://app?vid=311fd6a9-6bc8-41d0-ac40-a89fb207f919","ios":"levelo://app?vid=311fd6a9-6bc8-41d0-ac40-a89fb207f919"},"vehicle_type_id":"4","last_reported":1768461449,"current_range_meters":8800,"station_id":"cjm6bp8fraef2m0cb0m0","pricing_plan_id":"cebpf4jnsgd1na2vs0mg"},{"bike_id":"3cf44cbc-fe31-4047-8f08-85bd3cf3bfe3","system_id":"levelo_inurba_marseille","lat":43.29783,"lon":5.41357,"is_reserved":false,"is_disabled":false,"rental_uris":{"android":"levelo://app?vid=3cf44cbc-fe31-4047-8f08-85bd3cf3bfe3","ios":"levelo://app?vid=3cf44cbc-fe31-4047-8f08-85bd3cf3bfe3"},"vehicle_type_id":"4","last_reported":1768461449,"current_range_meters":8800,"station_id":"","pricing_plan_id":"cebpf4jnsgd1na2vs0mg"},{"bike_id":"9c685001-059a-497e-a588-12877963d9ac","system_id":"levelo_inurba_marseille","lat":43.31055,"lon":5.38355,"is_reserved":false,"is_disabled":true,"rental_uris":{"android":"levelo://app?vid=9c685001-059a-497e-a588-12877963d9ac","ios":"levelo://app?vid=9c685001-059a-497e-a588-12877963d9ac"},"vehicle_type_id":"4","last_reported":1768461449,"current_range_meters":8800,"station_id":"ce4bgv92rcd13ifvqcr0","pricing_plan_id":"cebpf4jnsgd1na2vs0mg"},{"bike_id":"de053820-f473-4d4f-8be6-7eb46f3d1ea3","system_id":"levelo_inurba_marseille","lat":43.31068,"lon":5.39343,"is_reserved":false,"is_disabled":false,"rental_uris":{"android":"levelo://app?vid=de053820-f473-4d4f-8be6-7eb46f3d1ea3","ios":"levelo://app?vid=de053820-f473-4d4f-8be6-7eb46f3d1ea3"},"vehicle_type_id":"4","last_reported":1768461449,"current_range_meters":8800,"station_id":"","pricing_plan_id":"cebpf4jnsgd1na2vs0mg"},{"bike_id":"2c6fec2d-af2d-409a-8263-16905602afd6","system_id":"levelo_inurba_marseille","lat":43.31778,"lon":5.39004,"is_reserved":false,"is_disabled":false,"rental_uris":{"android":"levelo://app?vid=2c6fec2d-af2d-409a-8263-16905602afd6","ios":"levelo://app?vid=2c6fec2d-af2d-409a-8263-16905602afd6"},"vehicle_type_id":"4","last_reported":1768461449,"current_range_meters":8800,"station_id":"ce4bhl92rcd13ifvqghg","pricing_plan_id":"cebpf4jnsgd1na2vs0mg"},{"bike_id":"2032e13c-894f-4e8a-a2c2-7b7870bf1014","system_id":"levelo_inurba_marseille","lat":43.23184,"lon":5.39982,"is_reserved":false,"is_disabled":false,"rental_uris":{"android":"levelo://app?vid=2032e13c-894f-4e8a-a2c2-7b7870bf1014","ios":"levelo://app?vid=2032e13c-894f-4e8a-a2c2-7b7870bf1014"},"vehicle_type_id":"4","last_reported":1768461449,"current_range_meters":8800,"station_id":"ce4bhn12rcd13ifvqgqg","pricing_plan_id":"cebpf4jnsgd1na2vs0mg"},{"bike_id":"c5538688-8bbe-429d-93c8-273b5fcf8dfb","system_id":"levelo_inurba_marseille","lat":43.26568,"lon":5.39014,"is_reserved":false,"is_disabled":false,"rental_uris":{"android":"levelo://app?vid=c5538688-8bbe-429d-93c8-273b5fcf8dfb","ios":"levelo://app?vid=c5538688-8bbe-429d-93c8-273b5fcf8dfb"},"vehicle_type_id":"4","last_reported":1768461449,"current_range_meters":8800,"station_id":"ce4bhe12rcd13ifvqf30","pricing_plan_id":"cebpf4jnsgd1na2vs0mg"},{"bike_id":"81ae1cad-44e6-424d-ae79-de6638e7beb9","system_id":"levelo_inurba_marseille","lat":43.21196,"lon":5.3507,"is_reserved":false,"is_disabled":false,"rental_uris":{"android":"levelo://app?vid=81ae1cad-44e6-424d-ae79-de6638e7beb9","ios":"levelo://app?vid=81ae1cad-44e6-424d-ae79-de6638e7beb9"},"vehicle_type_id":"4","last_reported":1768461449,"current_range_meters":8800,"station_id":"","pricing_plan_id":"cebpf4jnsgd1na2vs0mg"},{"bike_id":"aa2e5a8a-d936-4d8f-b169-0b86047db1a7","system_id":"levelo_inurba_marseille","lat":43.2256,"lon":5.41628,"is_reserved":false,"is_disabled":false,"rental_uris":{"android":"levelo://app?vid=aa2e5a8a-d936-4d8f-b169-0b86047db1a7","ios":"levelo://app?vid=aa2e5a8a-d936-4d8f-b169-0b86047db1a7"},"vehicle_type_id":"4","last_reported":1768461449,"current_range_meters":8800,"station_id":"st_d2o4gvlbi1j2169b742g","pricing_plan_id":"cebpf4jnsgd1na2vs0mg"},{"bike_id":"b0591438-4f8b-458b-95d3-396e832bb098","system_id":"levelo_inurba_marseille","lat":43.22559,"lon":5.41627,"is_reserved":false,"is_disabled":false,"rental_uris":{"android":"levelo://app?vid=b0591438-4f8b-458b-95d3-396e832bb098","ios":"levelo://app?vid=b0591438-4f8b-458b-95d3-396e832bb098"},"vehicle_type_id":"4","last_reported":1768461449,"current_range_meters":8800,"station_id":"st_d2o4gvlbi1j2169b742g","pricing_plan_id":"cebpf4jnsgd1na2vs0mg"},{"bike_id":"75a86693-7d25-4610-87ee-2528063164df","system_id":"levelo_inurba_marseille","lat":43.31701,"lon":5.43698,"is_reserved":false,"is_disabled":false,"rental_uris":{"android":"levelo://app?vid=75a86693-7d25-4610-87ee-2528063164df","ios":"levelo://app?vid=75a86693-7d25-4610-87ee-2528063164df"},"vehicle_type_id":"4","last_reported":1768461449,"current_range_meters":8800,"station_id":"ce4bhp92rcd13ifvqhcg","pricing_plan_id":"cebpf4jnsgd1na2vs0mg"},{"bike_id":"766b6315-d0e9-4f21-99cc-ac73caf0d81f","system_id":"levelo_inurba_marseille","lat":43.26772,"lon":5.3944,"is_reserved":false,"is_disabled":false,"rental_uris":{"android":"levelo://app?vid=766b6315-d0e9-4f21-99cc-ac73caf0d81f","ios":"levelo://app?vid=766b6315-d0e9-4f21-99cc-ac73caf0d81f"},"vehicle_type_id":"4","last_reported":1768461449,"current_range_meters":8800,"station_id":"ce4bhh12rcd13ifvqfg0","pricing_plan_id":"cebpf4jnsgd1na2vs0mg"},{"bike_id":"d14c563e-7d81-4312-b6b2-f8e7e772a5f6","system_id":"levelo_inurba_marseille","lat":43.24169,"lon":5.36385,"is_reserved":false,"is_disabled":false,"rental_uris":{"android":"levelo://app?vid=d14c563e-7d81-4312-b6b2-f8e7e772a5f6","ios":"levelo://app?vid=d14c563e-7d81-4312-b6b2-f8e7e772a5f6"},"vehicle_type_id":"4","last_reported":1768461449,"current_range_meters":8800,"station_id":"cpo36qri1sfpv3e86is0","pricing_plan_id":"cebpf4jnsgd1na2vs0mg"},{"bike_id":"706d3162-7432-496f-ab29-6417d00e6048","system_id":"levelo_inurba_marseille","lat":43.30301,"lon":5.39204,"is_reserved":false,"is_disabled":false,"rental_uris":{"android":"levelo://app?vid=706d3162-7432-496f-ab29-6417d00e6048","ios":"levelo://app?vid=706d3162-7432-496f-ab29-6417d00e6048"},"vehicle_type_id":"4","last_reported":1768461449,"current_range_meters":8800,"station_id":"ce4bgkh2rcd13ifvqbk0","pricing_plan_id":"cebpf4jnsgd1na2vs0mg"},{"bike_id":"9798252a-9361-46ce-9695-59458b1329bc","system_id":"levelo_inurba_marseille","lat":43.23194,"lon":5.35547,"is_reserved":false,"is_disabled":false,"rental_uris":{"android":"levelo://app?vid=9798252a-9361-46ce-9695-59458b1329bc","ios":"levelo://app?vid=9798252a-9361-46ce-9695-59458b1329bc"},"vehicle_type_id":"4","last_reported":1768461449,"current_range_meters":9200,"station_id":"ce4bhu92rcd13ifvqi70","pricing_plan_id":"cebpf4jnsgd1na2vs0mg"},{"bike_id":"6e77b3c9-cbb3-4a66-afee-35a5d0364d5f","system_id":"levelo_inurba_marseille","lat":43.29784,"lon":5.37098,"is_reserved":false,"is_disabled":false,"rental_uris":{"android":"levelo://app?vid=6e77b3c9-cbb3-4a66-afee-35a5d0364d5f","ios":"levelo://app?vid=6e77b3c9-cbb3-4a66-afee-35a5d0364d5f"},"vehicle_type_id":"4","last_reported":1768461449,"current_range_meters":9200,"station_id":"ce4bgop2rcd13ifvqc1g","pricing_plan_id":"cebpf4jnsgd1na2vs0mg"},{"bike_id":"91dbe188-56c8-4fce-a414-d6e43ed9eb6b","system_id":"levelo_inurba_marseille","lat":43.26719,"lon":5.3996,"is_reserved":false,"is_disabled":false,"rental_uris":{"android":"levelo://app?vid=91dbe188-56c8-4fce-a414-d6e43ed9eb6b","ios":"levelo://app?vid=91dbe188-56c8-4fce-a414-d6e43ed9eb6b"},"vehicle_type_id":"4","last_reported":1768461449,"current_range_meters":9200,"station_id":"","pricing_plan_id":"cebpf4jnsgd1na2vs0mg"},{"bike_id":"becb4883-e03d-4141-9b48-e2d5d7c63907","system_id":"levelo_inurba_marseille","lat":43.25344,"lon":5.40209,"is_reserved":false,"is_disabled":false,"rental_uris":{"android":"levelo://app?vid=becb4883-e03d-4141-9b48-e2d5d7c63907","ios":"levelo://app?vid=becb4883-e03d-4141-9b48-e2d5d7c63907"},"vehicle_type_id":"4","last_reported":1768461449,"current_range_meters":9200,"station_id":"","pricing_plan_id":"cebpf4jnsgd1na2vs0mg"},{"bike_id":"30366dc1-812a-4aa0-a9f6-e7606e14d531","system_id":"levelo_inurba_marseille","lat":43.29046,"lon":5.39951,"is_reserved":false,"is_disabled":false,"rental_uris":{"android":"levelo://app?vid=30366dc1-812a-4aa0-a9f6-e7606e14d531","ios":"levelo://app?vid=30366dc1-812a-4aa0-a9f6-e7606e14d531"},"vehicle_type_id":"4","last_reported":1768461449,"current_range_meters":9200,"station_id":"ce4bh392rcd13ifvqdm0","pricing_plan_id":"cebpf4jnsgd1na2vs0mg"},{"bike_id":"cd45b6f7-a4b0-4eec-9337-a6659e55b722","system_id":"levelo_inurba_marseille","lat":43.25502,"lon":5.37674,"is_reserved":false,"is_disabled":false,"rental_uris":{"android":"levelo://app?vid=cd45b6f7-a4b0-4eec-9337-a6659e55b722","ios":"levelo://app?vid=cd45b6f7-a4b0-4eec-9337-a6659e55b722"},"vehicle_type_id":"4","last_reported":1768461449,"current_range_meters":9200,"station_id":"","pricing_plan_id":"cebpf4jnsgd1na2vs0mg"},{"bike_id":"cb1fa835-751e-4f0f-b010-d3e3044c82e2","system_id":"levelo_inurba_marseille","lat":43.28992,"lon":5.36905,"is_reserved":false,"is_disabled":false,"rental_uris":{"android":"levelo://app?vid=cb1fa835-751e-4f0f-b010-d3e3044c82e2","ios":"levelo://app?vid=cb1fa835-751e-4f0f-b010-d3e3044c82e2"},"vehicle_type_id":"4","last_reported":1768461449,"current_range_meters":9200,"station_id":"","pricing_plan_id":"cebpf4jnsgd1na2vs0mg"},{"bike_id":"fbca656e-02c6-47d2-8a61-af26f7f00021","system_id":"levelo_inurba_marseille","lat":43.25879,"lon":5.39908,"is_reserved":false,"is_disabled":false,"rental_uris":{"android":"levelo://app?vid=fbca656e-02c6-47d2-8a61-af26f7f00021","ios":"levelo://app?vid=fbca656e-02c6-47d2-8a61-af26f7f00021"},"vehicle_type_id":"4","last_reported":1768461449,"current_range_meters":9200,"station_id":"ce4bhl92rcd13ifvqghg","pricing_plan_id":"cebpf4jnsgd1na2vs0mg"},{"bike_id":"778fbfd4-e3fa-4d49-848e-08580a7ada1b","system_id":"levelo_inurba_marseille","lat":43.30462,"lon":5.3793,"is_reserved":false,"is_disabled":false,"rental_uris":{"android":"levelo://app?vid=778fbfd4-e3fa-4d49-848e-08580a7ada1b","ios":"levelo://app?vid=778fbfd4-e3fa-4d49-848e-08580a7ada1b"},"vehicle_type_id":"4","last_reported":1768461449,"current_range_meters":9200,"station_id":"ce4bgup2rcd13ifvqcn0","pricing_plan_id":"cebpf4jnsgd1na2vs0mg"},{"bike_id":"da38a97c-e7ce-4db2-91e7-5e3629e2fd27","system_id":"levelo_inurba_marseille","lat":43.30148,"lon":5.38086,"is_reserved":false,"is_disabled":false,"rental_uris":{"android":"levelo://app?vid=da38a97c-e7ce-4db2-91e7-5e3629e2fd27","ios":"levelo://app?vid=da38a97c-e7ce-4db2-91e7-5e3629e2fd27"},"vehicle_type_id":"4","last_reported":1768461449,"current_range_meters":9200,"station_id":"ce4bgjp2rcd13ifvqbh0","pricing_plan_id":"cebpf4jnsgd1na2vs0mg"},{"bike_id":"38e2711a-189a-426e-8235-1f1abc0a58c1","system_id":"levelo_inurba_marseille","lat":43.27803,"lon":5.40713,"is_reserved":false,"is_disabled":false,"rental_uris":{"android":"levelo://app?vid=38e2711a-189a-426e-8235-1f1abc0a58c1","ios":"levelo://app?vid=38e2711a-189a-426e-8235-1f1abc0a58c1"},"vehicle_type_id":"4","last_reported":1768461449,"current_range_meters":9200,"station_id":"ce4bhnh2rcd13ifvqgtg","pricing_plan_id":"cebpf4jnsgd1na2vs0mg"},{"bike_id":"ac1643f3-9488-45ea-bb3b-0339e82f4726","system_id":"levelo_inurba_marseille","lat":43.27061,"lon":5.38289,"is_reserved":false,"is_disabled":false,"rental_uris":{"android":"levelo://app?vid=ac1643f3-9488-45ea-bb3b-0339e82f4726","ios":"levelo://app?vid=ac1643f3-9488-45ea-bb3b-0339e82f4726"},"vehicle_type_id":"4","last_reported":1768461449,"current_range_meters":9200,"station_id":"st_d3n2fo6cfp8s73cte1j0","pricing_plan_id":"cebpf4jnsgd1na2vs0mg"},{"bike_id":"6568e8f3-2399-4ca9-b185-fc54e6800d1a","system_id":"levelo_inurba_marseille","lat":43.26553,"lon":5.37287,"is_reserved":false,"is_disabled":false,"rental_uris":{"android":"levelo://app?vid=6568e8f3-2399-4ca9-b185-fc54e6800d1a","ios":"levelo://app?vid=6568e8f3-2399-4ca9-b185-fc54e6800d1a"},"vehicle_type_id":"4","last_reported":1768461449,"current_range_meters":9200,"station_id":"ce4bhg12rcd13ifvqf70","pricing_plan_id":"cebpf4jnsgd1na2vs0mg"},{"bike_id":"76aed14c-880f-4b2e-8f85-1326c334254c","system_id":"levelo_inurba_marseille","lat":43.31282,"lon":5.36851,"is_reserved":false,"is_disabled":false,"rental_uris":{"android":"levelo://app?vid=76aed14c-880f-4b2e-8f85-1326c334254c","ios":"levelo://app?vid=76aed14c-880f-4b2e-8f85-1326c334254c"},"vehicle_type_id":"4","last_reported":1768461449,"current_range_meters":9200,"station_id":"ce4bgl92rcd13ifvqbq0","pricing_plan_id":"cebpf4jnsgd1na2vs0mg"},{"bike_id":"08dedac3-b540-410b-81e5-6397be539076","system_id":"levelo_inurba_marseille","lat":43.28612,"lon":5.35087,"is_reserved":false,"is_disabled":false,"rental_uris":{"android":"levelo://app?vid=08dedac3-b540-410b-81e5-6397be539076","ios":"levelo://app?vid=08dedac3-b540-410b-81e5-6397be539076"},"vehicle_type_id":"4","last_reported":1768461449,"current_range_meters":9200,"station_id":"ce4bhch2rcd13ifvqeug","pricing_plan_id":"cebpf4jnsgd1na2vs0mg"},{"bike_id":"f6681264-0c23-4057-943f-1af4d2980810","system_id":"levelo_inurba_marseille","lat":43.27409,"lon":5.39022,"is_reserved":false,"is_disabled":false,"rental_uris":{"android":"levelo://app?vid=f6681264-0c23-4057-943f-1af4d2980810","ios":"levelo://app?vid=f6681264-0c23-4057-943f-1af4d2980810"},"vehicle_type_id":"4","last_reported":1768461449,"current_range_meters":9200,"station_id":"","pricing_plan_id":"cebpf4jnsgd1na2vs0mg"},{"bike_id":"ed18b8a2-c3b3-46ce-a43d-81424c8a9020","system_id":"levelo_inurba_marseille","lat":43.2958,"lon":5.36738,"is_reserved":false,"is_disabled":false,"rental_uris":{"android":"levelo://app?vid=ed18b8a2-c3b3-46ce-a43d-81424c8a9020","ios":"levelo://app?vid=ed18b8a2-c3b3-46ce-a43d-81424c8a9020"},"vehicle_type_id":"4","last_reported":1768461449,"current_range_meters":9200,"station_id":"ce4bgph2rcd13ifvqc2g","pricing_plan_id":"cebpf4jnsgd1na2vs0mg"},{"bike_id":"eda67525-db07-4b18-aa7a-fc8c14661402","system_id":"levelo_inurba_marseille","lat":43.23189,"lon":5.35551,"is_reserved":false,"is_disabled":false,"rental_uris":{"android":"levelo://app?vid=eda67525-db07-4b18-aa7a-fc8c14661402","ios":"levelo://app?vid=eda67525-db07-4b18-aa7a-fc8c14661402"},"vehicle_type_id":"4","last_reported":1768461449,"current_range_meters":9600,"station_id":"ce4bhu92rcd13ifvqi70","pricing_plan_id":"cebpf4jnsgd1na2vs0mg"},{"bike_id":"d10c0024-e2ec-401f-bf30-95042a990a73","system_id":"levelo_inurba_marseille","lat":43.28115,"lon":5.42601,"is_reserved":false,"is_disabled":false,"rental_uris":{"android":"levelo://app?vid=d10c0024-e2ec-401f-bf30-95042a990a73","ios":"levelo://app?vid=d10c0024-e2ec-401f-bf30-95042a990a73"},"vehicle_type_id":"4","last_reported":1768461449,"current_range_meters":9600,"station_id":"","pricing_plan_id":"cebpf4jnsgd1na2vs0mg"},{"bike_id":"3ff43608-53c0-487c-9d0a-f3c1d326d7f5","system_id":"levelo_inurba_marseille","lat":43.323596,"lon":5.367383,"is_reserved":false,"is_disabled":false,"rental_uris":{"android":"levelo://app?vid=3ff43608-53c0-487c-9d0a-f3c1d326d7f5","ios":"levelo://app?vid=3ff43608-53c0-487c-9d0a-f3c1d326d7f5"},"vehicle_type_id":"4","last_reported":1768461449,"current_range_meters":9600,"station_id":"ce4bhsh2rcd13ifvqi2g","pricing_plan_id":"cebpf4jnsgd1na2vs0mg"},{"bike_id":"f2e9abe1-4981-4bef-be7a-adbe0dc9a7e8","system_id":"levelo_inurba_marseille","lat":43.30224,"lon":5.39459,"is_reserved":false,"is_disabled":false,"rental_uris":{"android":"levelo://app?vid=f2e9abe1-4981-4bef-be7a-adbe0dc9a7e8","ios":"levelo://app?vid=f2e9abe1-4981-4bef-be7a-adbe0dc9a7e8"},"vehicle_type_id":"4","last_reported":1768461449,"current_range_meters":9600,"station_id":"ce4bh0p2rcd13ifvqd70","pricing_plan_id":"cebpf4jnsgd1na2vs0mg"},{"bike_id":"405ccd79-dd51-47a9-9b14-0ea4ddb59590","system_id":"levelo_inurba_marseille","lat":43.29755,"lon":5.37104,"is_reserved":false,"is_disabled":true,"rental_uris":{"android":"levelo://app?vid=405ccd79-dd51-47a9-9b14-0ea4ddb59590","ios":"levelo://app?vid=405ccd79-dd51-47a9-9b14-0ea4ddb59590"},"vehicle_type_id":"4","last_reported":1768461449,"current_range_meters":9600,"station_id":"ce4bgop2rcd13ifvqc1g","pricing_plan_id":"cebpf4jnsgd1na2vs0mg"},{"bike_id":"4632803a-156f-404d-a6c4-70780c14d8e0","system_id":"levelo_inurba_marseille","lat":43.32486,"lon":5.36562,"is_reserved":false,"is_disabled":false,"rental_uris":{"android":"levelo://app?vid=4632803a-156f-404d-a6c4-70780c14d8e0","ios":"levelo://app?vid=4632803a-156f-404d-a6c4-70780c14d8e0"},"vehicle_type_id":"4","last_reported":1768461449,"current_range_meters":9600,"station_id":"ce4bhs12rcd13ifvqhvg","pricing_plan_id":"cebpf4jnsgd1na2vs0mg"},{"bike_id":"c242e646-f282-457f-a670-771ea65dbddf","system_id":"levelo_inurba_marseille","lat":43.32092,"lon":5.36776,"is_reserved":false,"is_disabled":false,"rental_uris":{"android":"levelo://app?vid=c242e646-f282-457f-a670-771ea65dbddf","ios":"levelo://app?vid=c242e646-f282-457f-a670-771ea65dbddf"},"vehicle_type_id":"4","last_reported":1768461449,"current_range_meters":9600,"station_id":"ce4bhrh2rcd13ifvqhug","pricing_plan_id":"cebpf4jnsgd1na2vs0mg"},{"bike_id":"3cb136e3-ca95-4cea-8f58-7854a17ca7da","system_id":"levelo_inurba_marseille","lat":43.24587,"lon":5.43206,"is_reserved":false,"is_disabled":false,"rental_uris":{"android":"levelo://app?vid=3cb136e3-ca95-4cea-8f58-7854a17ca7da","ios":"levelo://app?vid=3cb136e3-ca95-4cea-8f58-7854a17ca7da"},"vehicle_type_id":"4","last_reported":1768461449,"current_range_meters":9600,"station_id":"","pricing_plan_id":"cebpf4jnsgd1na2vs0mg"},{"bike_id":"a04449d5-0c88-4885-a7b8-473489339ac8","system_id":"levelo_inurba_marseille","lat":43.25349,"lon":5.40192,"is_reserved":false,"is_disabled":false,"rental_uris":{"android":"levelo://app?vid=a04449d5-0c88-4885-a7b8-473489339ac8","ios":"levelo://app?vid=a04449d5-0c88-4885-a7b8-473489339ac8"},"vehicle_type_id":"4","last_reported":1768461449,"current_range_meters":9600,"station_id":"","pricing_plan_id":"cebpf4jnsgd1na2vs0mg"},{"bike_id":"c18302d1-4ac2-436a-9a36-82f4ea0825ad","system_id":"levelo_inurba_marseille","lat":43.23059,"lon":5.3548,"is_reserved":false,"is_disabled":false,"rental_uris":{"android":"levelo://app?vid=c18302d1-4ac2-436a-9a36-82f4ea0825ad","ios":"levelo://app?vid=c18302d1-4ac2-436a-9a36-82f4ea0825ad"},"vehicle_type_id":"4","last_reported":1768461449,"current_range_meters":9600,"station_id":"cpo3342slgdg3j2ifvpg","pricing_plan_id":"cebpf4jnsgd1na2vs0mg"},{"bike_id":"0cd1e779-26e9-49c5-b773-f088de1cb9ab","system_id":"levelo_inurba_marseille","lat":43.26066,"lon":5.38523,"is_reserved":false,"is_disabled":false,"rental_uris":{"android":"levelo://app?vid=0cd1e779-26e9-49c5-b773-f088de1cb9ab","ios":"levelo://app?vid=0cd1e779-26e9-49c5-b773-f088de1cb9ab"},"vehicle_type_id":"4","last_reported":1768461449,"current_range_meters":9600,"station_id":"","pricing_plan_id":"cebpf4jnsgd1na2vs0mg"},{"bike_id":"2ae27565-6a18-4657-afda-4bb59b9e53e3","system_id":"levelo_inurba_marseille","lat":43.324837,"lon":5.382665,"is_reserved":false,"is_disabled":false,"rental_uris":{"android":"levelo://app?vid=2ae27565-6a18-4657-afda-4bb59b9e53e3","ios":"levelo://app?vid=2ae27565-6a18-4657-afda-4bb59b9e53e3"},"vehicle_type_id":"4","last_reported":1768461449,"current_range_meters":9600,"station_id":"st_d4asgbiv49dc73anf9m0","pricing_plan_id":"cebpf4jnsgd1na2vs0mg"},{"bike_id":"426d1862-6742-4577-a1b8-bc5438e9f47d","system_id":"levelo_inurba_marseille","lat":43.28271,"lon":5.35066,"is_reserved":false,"is_disabled":false,"rental_uris":{"android":"levelo://app?vid=426d1862-6742-4577-a1b8-bc5438e9f47d","ios":"levelo://app?vid=426d1862-6742-4577-a1b8-bc5438e9f47d"},"vehicle_type_id":"4","last_reported":1768461449,"current_range_meters":9600,"station_id":"ce4bhbp2rcd13ifvqerg","pricing_plan_id":"cebpf4jnsgd1na2vs0mg"},{"bike_id":"65def825-e47b-44f8-a591-37900abd1d3a","system_id":"levelo_inurba_marseille","lat":43.31276,"lon":5.37757,"is_reserved":false,"is_disabled":false,"rental_uris":{"android":"levelo://app?vid=65def825-e47b-44f8-a591-37900abd1d3a","ios":"levelo://app?vid=65def825-e47b-44f8-a591-37900abd1d3a"},"vehicle_type_id":"4","last_reported":1768461449,"current_range_meters":9600,"station_id":"","pricing_plan_id":"cebpf4jnsgd1na2vs0mg"},{"bike_id":"0fe23f40-caad-46ad-b558-32f62e0f76ac","system_id":"levelo_inurba_marseille","lat":43.311341,"lon":5.398055,"is_reserved":false,"is_disabled":false,"rental_uris":{"android":"levelo://app?vid=0fe23f40-caad-46ad-b558-32f62e0f76ac","ios":"levelo://app?vid=0fe23f40-caad-46ad-b558-32f62e0f76ac"},"vehicle_type_id":"4","last_reported":1768461449,"current_range_meters":9600,"station_id":"","pricing_plan_id":"cebpf4jnsgd1na2vs0mg"},{"bike_id":"ae1ee326-f80b-467d-b3d3-87eb3ab566ac","system_id":"levelo_inurba_marseille","lat":43.31355,"lon":5.36759,"is_reserved":false,"is_disabled":false,"rental_uris":{"android":"levelo://app?vid=ae1ee326-f80b-467d-b3d3-87eb3ab566ac","ios":"levelo://app?vid=ae1ee326-f80b-467d-b3d3-87eb3ab566ac"},"vehicle_type_id":"4","last_reported":1768461449,"current_range_meters":9600,"station_id":"ce4bgr92rcd13ifvqc6g","pricing_plan_id":"cebpf4jnsgd1na2vs0mg"},{"bike_id":"1624d9fa-6133-4502-99c8-6f0dfa37654b","system_id":"levelo_inurba_marseille","lat":43.32336,"lon":5.38495,"is_reserved":false,"is_disabled":false,"rental_uris":{"android":"levelo://app?vid=1624d9fa-6133-4502-99c8-6f0dfa37654b","ios":"levelo://app?vid=1624d9fa-6133-4502-99c8-6f0dfa37654b"},"vehicle_type_id":"4","last_reported":1768461449,"current_range_meters":9600,"station_id":"st_d45171o9ee8s73djdqug","pricing_plan_id":"cebpf4jnsgd1na2vs0mg"},{"bike_id":"e5aa787f-c7e4-4b02-b6ed-ac65ac7744ea","system_id":"levelo_inurba_marseille","lat":43.23189,"lon":5.39981,"is_reserved":false,"is_disabled":false,"rental_uris":{"android":"levelo://app?vid=e5aa787f-c7e4-4b02-b6ed-ac65ac7744ea","ios":"levelo://app?vid=e5aa787f-c7e4-4b02-b6ed-ac65ac7744ea"},