{"last_updated":1703941617,"ttl":30,"version":"2.2","data":{"bikes":[{"bike_id":"acd7888a-caa0-4a9a-a34c-304e906e7911","system_id":"levelo_inurba_marseille","lat":43.312239,"lon":5.368562,"is_reserved":false,"is_disabled":false,"rental_uris":{"android":"levelo://app?vid=acd7888a-caa0-4a9a-a34c-304e906e7911","ios":"levelo://app?vid=acd7888a-caa0-4a9a-a34c-304e906e7911"},"vehicle_type_id":"4","last_reported":1703941617,"current_range_meters":18000,"station_id":"ce4bgl92rcd13ifvqbq0","pricing_plan_id":"free"},{"bike_id":"996c07a3-5483-41ec-be11-3b692100457f","system_id":"levelo_inurba_marseille","lat":43.309076,"lon":5.368465,"is_reserved":false,"is_disabled":false,"rental_uris":{"android":"levelo://app?vid=996c07a3-5483-41ec-be11-3b692100457f","ios":"levelo://app?vid=996c07a3-5483-41ec-be11-3b692100457f"},"vehicle_type_id":"4","last_reported":1703941617,"current_range_meters":22400,"station_id":"ce4bgn92rcd13ifvqbvg","pricing_plan_id":"free"},{"bike_id":"a96aaae1-a5dd-4000-9a69-7168fc6e5e1a","system_id":"levelo_inurba_marseille","lat":43.309076,"lon":5.368465,"is_reserved":false,"is_disabled":false,"rental_uris":{"android":"levelo://app?vid=a96aaae1-a5dd-4000-9a69-7168fc6e5e1a","ios":"levelo://app?vid=a96aaae1-a5dd-4000-9a69-7168fc6e5e1a"},"vehicle_type_id":"4","last_reported":1703941617,"current_range_meters":29200,"station_id":"ce4bgn92rcd13ifvqbvg","pricing_plan_id":"free"},{"bike_id":"64a93320-b6f7-4f00-82e1-5c71938933c4","system_id":"levelo_inurba_marseille","lat":43.3159,"lon":5.37197,"is_reserved":false,"is_disabled":false,"rental_uris":{"android":"levelo://app?vid=64a93320-b6f7-4f00-82e1-5c71938933c4","ios":"levelo://app?vid=64a93320-b6f7-4f00-82e1-5c71938933c4"},"vehicle_type_id":"4","last_reported":1703941617,"current_range_meters":3200,"station_id":"","pricing_plan_id":"free"},{"bike_id":"85496884-e832-49e7-929d-4ff014fa949e","system_id":"levelo_inurba_marseille","lat":43.314811,"lon":5.373103,"is_reserved":false,"is_disabled":false,"rental_uris":{"android":"levelo://app?vid=85496884-e832-49e7-929d-4ff014fa949e","ios":"levelo://app?vid=85496884-e832-49e7-929d-4ff014fa949e"},"vehicle_type_id":"4","last_reported":1703941617,"current_range_meters":14800,"station_id":"ce4bgt12rcd13ifvqcd0","pricing_plan_id":"free"},{"bike_id":"2705a542-d590-4422-a63a-4fbb31268c6b","system_id":"levelo_inurba_marseille","lat":43.309039,"lon":5.371797,"is_reserved":false,"is_disabled":false,"rental_uris":{"android":"levelo://app?vid=2705a542-d590-4422-a63a-4fbb31268c6b","ios":"levelo://app?vid=2705a542-d590-4422-a63a-4fbb31268c6b"},"vehicle_type_id":"4","last_reported":1703941617,"current_range_meters":25600,"station_id":"ce4bguh2rcd13ifvqckg","pricing_plan_id":"free"},{"bike_id":"6d85e3df-9690-428d-8534-cca063e14399","system_id":"levelo_inurba_marseille","lat":43.309039,"lon":5.371797,"is_reserved":false,"is_disabled":false,"rental_uris":{"android":"levelo://app?vid=6d85e3df-9690-428d-8534-cca063e14399","ios":"levelo://app?vid=6d85e3df-9690-428d-8534-cca063e14399"},"vehicle_type_id":"4","last_reported":1703941617,"current_range_meters":30400,"station_id":"ce4bguh2rcd13ifvqckg","pricing_plan_id":"free"},{"bike_id":"7453e6cc-a927-4aee-b545-5d027ed52344","system_id":"levelo_inurba_marseille","lat":43.308812,"lon":5.371993,"is_reserved":false,"is_disabled":false,"rental_uris":{"android":"levelo://app?vid=7453e6cc-a927-4aee-b545-5d027ed52344","ios":"levelo://app?vid=7453e6cc-a927-4aee-b545-5d027ed52344"},"vehicle_type_id":"4","last_reported":1703941617,"current_range_meters":28400,"station_id":"ce4bguh2rcd13ifvqckg","pricing_plan_id":"free"},{"bike_id":"047c5198-1b80-4160-acf6-9ccd5877835a","system_id":"levelo_inurba_marseille","lat":43.311125,"lon":5.377624,"is_reserved":false,"is_disabled":false,"rental_uris":{"android":"levelo://app?vid=047c5198-1b80-4160-acf6-9ccd5877835a","ios":"levelo://app?vid=047c5198-1b80-4160-acf6-9ccd5877835a"},"vehicle_type_id":"4","last_reported":1703941617,"current_range_meters":26400,"station_id":"ce4bgt92rcd13ifvqcg0","pricing_plan_id":"free"},{"bike_id":"2bf1159c-4b34-4bc3-a8b5-156be571c011","system_id":"levelo_inurba_marseille","lat":43.307843,"lon":5.373431,"is_reserved":false,"is_disabled":false,"rental_uris":{"android":"levelo://app?vid=2bf1159c-4b34-4bc3-a8b5-156be571c011","ios":"levelo://app?vid=2bf1159c-4b34-4bc3-a8b5-156be571c011"},"vehicle_type_id":"4","last_reported":1703941617,"current_range_meters":28000,"station_id":"","pricing_plan_id":"free"},{"bike_id":"16cb5421-01d5-4d2e-bc17-cd15d08e25dc","system_id":"levelo_inurba_marseille","lat":43.305558,"lon":5.36539,"is_reserved":false,"is_disabled":false,"rental_uris":{"android":"levelo://app?vid=16cb5421-01d5-4d2e-bc17-cd15d08e25dc","ios":"levelo://app?vid=16cb5421-01d5-4d2e-bc17-cd15d08e25dc"},"vehicle_type_id":"4","last_reported":1703941617,"current_range_meters":24000,"station_id":"ce4bgs12rcd13ifvqcag","pricing_plan_id":"free"},{"bike_id":"30a64f4e-5730-42cc-9e42-ee8b627b7720","system_id":"levelo_inurba_marseille","lat":43.305714,"lon":5.365633,"is_reserved":false,"is_disabled":false,"rental_uris":{"android":"levelo://app?vid=30a64f4e-5730-42cc-9e42-ee8b627b7720","ios":"levelo://app?vid=30a64f4e-5730-42cc-9e42-ee8b627b7720"},"vehicle_type_id":"4","last_reported":1703941617,"current_range_meters":16800,"station_id":"ce4bgs12rcd13ifvqcag","pricing_plan_id":"free"},{"bike_id":"a3c8d623-a85c-45ca-8fac-8710ce7491da","system_id":"levelo_inurba_marseille","lat":43.30637,"lon":5.37193,"is_reserved":false,"is_disabled":false,"rental_uris":{"android":"levelo://app?vid=a3c8d623-a85c-45ca-8fac-8710ce7491da","ios":"levelo://app?vid=a3c8d623-a85c-45ca-8fac-8710ce7491da"},"vehicle_type_id":"4","last_reported":1703941617,"current_range_meters":9200,"station_id":"ce4bgqh2rcd13ifvqc4g","pricing_plan_id":"free"},{"bike_id":"7bb8e8cd-5994-4217-8661-3ddf1cc7672c","system_id":"levelo_inurba_marseille","lat":43.305368,"lon":5.367343,"is_reserved":false,"is_disabled":false,"rental_uris":{"android":"levelo://app?vid=7bb8e8cd-5994-4217-8661-3ddf1cc7672c","ios":"levelo://app?vid=7bb8e8cd-5994-4217-8661-3ddf1cc7672c"},"vehicle_type_id":"4","last_reported":1703941617,"current_range_meters":24400,"station_id":"ce4bgrp2rcd13ifvqc9g","pricing_plan_id":"free"},{"bike_id":"c14e311d-d10d-4f36-a2d0-56e79108d64b","system_id":"levelo_inurba_marseille","lat":43.305989,"lon":5.37225,"is_reserved":false,"is_disabled":false,"rental_uris":{"android":"levelo://app?vid=c14e311d-d10d-4f36-a2d0-56e79108d64b","ios":"levelo://app?vid=c14e311d-d10d-4f36-a2d0-56e79108d64b"},"vehicle_type_id":"4","last_reported":1703941617,"current_range_meters":6000,"station_id":"ce4bgqh2rcd13ifvqc4g","pricing_plan_id":"free"},{"bike_id":"14cdcf5d-b903-4f58-9185-e2d373d9870d","system_id":"levelo_inurba_marseille","lat":43.305989,"lon":5.37225,"is_reserved":false,"is_disabled":false,"rental_uris":{"android":"levelo://app?vid=14cdcf5d-b903-4f58-9185-e2d373d9870d","ios":"levelo://app?vid=14cdcf5d-b903-4f58-9185-e2d373d9870d"},"vehicle_type_id":"4","last_reported":1703941617,"current_range_meters":14400,"station_id":"ce4bgqh2rcd13ifvqc4g","pricing_plan_id":"free"},{"bike_id":"25af9e1c-886c-4f64-92f2-5ca68e46ae4a","system_id":"levelo_inurba_marseille","lat":43.31722,"lon":5.37668,"is_reserved":false,"is_disabled":false,"rental_uris":{"android":"levelo://app?vid=25af9e1c-886c-4f64-92f2-5ca68e46ae4a","ios":"levelo://app?vid=25af9e1c-886c-4f64-92f2-5ca68e46ae4a"},"vehicle_type_id":"4","last_reported":1703941617,"current_range_meters":26000,"station_id":"","pricing_plan_id":"free"},{"bike_id":"c49c778d-7d19-4a10-a3cb-41b40325a0ce","system_id":"levelo_inurba_marseille","lat":43.3171,"lon":5.377607,"is_reserved":false,"is_disabled":false,"rental_uris":{"android":"levelo://app?vid=c49c778d-7d19-4a10-a3cb-41b40325a0ce","ios":"levelo://app?vid=c49c778d-7d19-4a10-a3cb-41b40325a0ce"},"vehicle_type_id":"4","last_reported":1703941617,"current_range_meters":12400,"station_id":"ce4bgth2rcd13ifvqch0","pricing_plan_id":"free"},{"bike_id":"84a0f21c-04f4-49d8-827f-8b623d658faf","system_id":"levelo_inurba_marseille","lat":43.30431,"lon":5.3734,"is_reserved":false,"is_disabled":false,"rental_uris":{"android":"levelo://app?vid=84a0f21c-04f4-49d8-827f-8b623d658faf","ios":"levelo://app?vid=84a0f21c-04f4-49d8-827f-8b623d658faf"},"vehicle_type_id":"4","last_reported":1703941617,"current_range_meters":18000,"station_id":"","pricing_plan_id":"free"},{"bike_id":"ad830906-2780-4b40-93b1-f0fbec6fe84a","system_id":"levelo_inurba_marseille","lat":43.31544,"lon":5.38044,"is_reserved":false,"is_disabled":false,"rental_uris":{"android":"levelo://app?vid=ad830906-2780-4b40-93b1-f0fbec6fe84a","ios":"levelo://app?vid=ad830906-2780-4b40-93b1-f0fbec6fe84a"},"vehicle_type_id":"4","last_reported":1703941617,"current_range_meters":23600,"station_id":"ce4bhsp2rcd13ifvqi50","pricing_plan_id":"free"},{"bike_id":"c059d236-474d-4749-abab-7137b0eeeacb","system_id":"levelo_inurba_marseille","lat":43.301939,"lon":5.366286,"is_reserved":false,"is_disabled":false,"rental_uris":{"android":"levelo://app?vid=c059d236-474d-4749-abab-7137b0eeeacb","ios":"levelo://app?vid=c059d236-474d-4749-abab-7137b0eeeacb"},"vehicle_type_id":"4","last_reported":1703941617,"current_range_meters":30000,"station_id":"ce4bgrh2rcd13ifvqc8g","pricing_plan_id":"free"},{"bike_id":"e4dcb29d-6179-427e-822d-8621bcd08456","system_id":"levelo_inurba_marseille","lat":43.304708,"lon":5.379039,"is_reserved":false,"is_disabled":false,"rental_uris":{"android":"levelo://app?vid=e4dcb29d-6179-427e-822d-8621bcd08456","ios":"levelo://app?vid=e4dcb29d-6179-427e-822d-8621bcd08456"},"vehicle_type_id":"4","last_reported":1703941617,"current_range_meters":22400,"station_id":"","pricing_plan_id":"free"},{"bike_id":"7bb11774-ee6d-414e-8a1b-2eacbfb7028b","system_id":"levelo_inurba_marseille","lat":43.304606,"lon":5.379026,"is_reserved":false,"is_disabled":false,"rental_uris":{"android":"levelo://app?vid=7bb11774-ee6d-414e-8a1b-2eacbfb7028b","ios":"levelo://app?vid=7bb11774-ee6d-414e-8a1b-2eacbfb7028b"},"vehicle_type_id":"4","last_reported":1703941617,"current_range_meters":30800,"station_id":"ce4bgup2rcd13ifvqcn0","pricing_plan_id":"free"},{"bike_id":"ca341ae7-df28-456b-b1c2-455111f76789","system_id":"levelo_inurba_marseille","lat":43.324771,"lon":5.36557,"is_reserved":false,"is_disabled":false,"rental_uris":{"android":"levelo://app?vid=ca341ae7-df28-456b-b1c2-455111f76789","ios":"levelo://app?vid=ca341ae7-df28-456b-b1c2-455111f76789"},"vehicle_type_id":"4","last_reported":1703941617,"current_range_meters":22400,"station_id":"ce4bhs12rcd13ifvqhvg","pricing_plan_id":"free"},{"bike_id":"7d5a5fe5-0b70-43bb-9224-59cfb24cc454","system_id":"levelo_inurba_marseille","lat":43.324771,"lon":5.36557,"is_reserved":false,"is_disabled":false,"rental_uris":{"android":"levelo://app?vid=7d5a5fe5-0b70-43bb-9224-59cfb24cc454","ios":"levelo://app?vid=7d5a5fe5-0b70-43bb-9224-59cfb24cc454"},"vehicle_type_id":"4","last_reported":1703941617,"current_range_meters":11200,"station_id":"ce4bhs12rcd13ifvqhvg","pricing_plan_id":"free"},{"bike_id":"73213eea-37a7-4a2c-9ae3-b95279671cf5","system_id":"levelo_inurba_marseille","lat":43.30141,"lon":5.37423,"is_reserved":false,"is_disabled":false,"rental_uris":{"android":"levelo://app?vid=73213eea-37a7-4a2c-9ae3-b95279671cf5","ios":"levelo://app?vid=73213eea-37a7-4a2c-9ae3-b95279671cf5"},"vehicle_type_id":"4","last_reported":1703941617,"current_range_meters":27200,"station_id":"ce4bgs92rcd13ifvqcc0","pricing_plan_id":"free"},{"bike_id":"b8264f28-fa30-46a6-bb02-f86db33ed134","system_id":"levelo_inurba_marseille","lat":43.319935,"lon":5.381699,"is_reserved":false,"is_disabled":false,"rental_uris":{"android":"levelo://app?vid=b8264f28-fa30-46a6-bb02-f86db33ed134","ios":"levelo://app?vid=b8264f28-fa30-46a6-bb02-f86db33ed134"},"vehicle_type_id":"4","last_reported":1703941617,"current_range_meters":7200,"station_id":"ce4bhr12rcd13ifvqhpg","pricing_plan_id":"free"},{"bike_id":"40be3ca5-fea8-46e6-9a58-53331150bb5c","system_id":"levelo_inurba_marseille","lat":43.31991,"lon":5.38168,"is_reserved":false,"is_disabled":false,"rental_uris":{"android":"levelo://app?vid=40be3ca5-fea8-46e6-9a58-53331150bb5c","ios":"levelo://app?vid=40be3ca5-fea8-46e6-9a58-53331150bb5c"},"vehicle_type_id":"4","last_reported":1703941617,"current_range_meters":6800,"station_id":"ce4bhr12rcd13ifvqhpg","pricing_plan_id":"free"},{"bike_id":"291ea2da-b4f6-4459-9b28-316157ed5160","system_id":"levelo_inurba_marseille","lat":43.313571,"lon":5.384829,"is_reserved":false,"is_disabled":false,"rental_uris":{"android":"levelo://app?vid=291ea2da-b4f6-4459-9b28-316157ed5160","ios":"levelo://app?vid=291ea2da-b4f6-4459-9b28-316157ed5160"},"vehicle_type_id":"4","last_reported":1703941617,"current_range_meters":26800,"station_id":"ce4bgt92rcd13ifvqcf0","pricing_plan_id":"free"},{"bike_id":"6e4173a3-eebc-4394-9bbf-d189fdee3514","system_id":"levelo_inurba_marseille","lat":43.299724,"lon":5.371829,"is_reserved":false,"is_disabled":false,"rental_uris":{"android":"levelo://app?vid=6e4173a3-eebc-4394-9bbf-d189fdee3514","ios":"levelo://app?vid=6e4173a3-eebc-4394-9bbf-d189fdee3514"},"vehicle_type_id":"4","last_reported":1703941617,"current_range_meters":30000,"station_id":"ce4bgr92rcd13ifvqc7g","pricing_plan_id":"free"},{"bike_id":"e6e57825-5200-4b2d-a9f8-aeb118235f8f","system_id":"levelo_inurba_marseille","lat":43.299724,"lon":5.371829,"is_reserved":false,"is_disabled":false,"rental_uris":{"android":"levelo://app?vid=e6e57825-5200-4b2d-a9f8-aeb118235f8f","ios":"levelo://app?vid=e6e57825-5200-4b2d-a9f8-aeb118235f8f"},"vehicle_type_id":"4","last_reported":1703941617,"current_range_meters":4800,"station_id":"ce4bgr92rcd13ifvqc7g","pricing_plan_id":"free"},{"bike_id":"75978133-2e34-461a-9e1b-5b8755e02730","system_id":"levelo_inurba_marseille","lat":43.298498,"lon":5.36284,"is_reserved":false,"is_disabled":false,"rental_uris":{"android":"levelo://app?vid=75978133-2e34-461a-9e1b-5b8755e02730","ios":"levelo://app?vid=75978133-2e34-461a-9e1b-5b8755e02730"},"vehicle_type_id":"4","last_reported":1703941617,"current_range_meters":18400,"station_id":"ce4bgpp2rcd13ifvqc3g","pricing_plan_id":"free"},{"bike_id":"e0e7cd11-2c70-44fc-b6c7-7c8e40c36055","system_id":"levelo_inurba_marseille","lat":43.299243,"lon":5.37481,"is_reserved":false,"is_disabled":false,"rental_uris":{"android":"levelo://app?vid=e0e7cd11-2c70-44fc-b6c7-7c8e40c36055","ios":"levelo://app?vid=e0e7cd11-2c70-44fc-b6c7-7c8e40c36055"},"vehicle_type_id":"4","last_reported":1703941617,"current_range_meters":20000,"station_id":"ce4bgjh2rcd13ifvqbg0","pricing_plan_id":"free"},{"bike_id":"993e71f0-c0b9-4ad4-ac0c-42f58c73e4f5","system_id":"levelo_inurba_marseille","lat":43.299243,"lon":5.374807,"is_reserved":false,"is_disabled":false,"rental_uris":{"android":"levelo://app?vid=993e71f0-c0b9-4ad4-ac0c-42f58c73e4f5","ios":"levelo://app?vid=993e71f0-c0b9-4ad4-ac0c-42f58c73e4f5"},"vehicle_type_id":"4","last_reported":1703941617,"current_range_meters":26000,"station_id":"ce4bgjh2rcd13ifvqbg0","pricing_plan_id":"free"},{"bike_id":"accbbe6d-f8a2-4d0d-badc-393301aad27d","system_id":"levelo_inurba_marseille","lat":43.322872,"lon":5.382756,"is_reserved":false,"is_disabled":false,"rental_uris":{"android":"levelo://app?vid=accbbe6d-f8a2-4d0d-badc-393301aad27d","ios":"levelo://app?vid=accbbe6d-f8a2-4d0d-badc-393301aad27d"},"vehicle_type_id":"4","last_reported":1703941617,"current_range_meters":28400,"station_id":"ce4bhr12rcd13ifvqhqg","pricing_plan_id":"free"},{"bike_id":"2154e13a-10ef-4d79-b4f3-a92c055765e5","system_id":"levelo_inurba_marseille","lat":43.322872,"lon":5.382756,"is_reserved":false,"is_disabled":false,"rental_uris":{"android":"levelo://app?vid=2154e13a-10ef-4d79-b4f3-a92c055765e5","ios":"levelo://app?vid=2154e13a-10ef-4d79-b4f3-a92c055765e5"},"vehicle_type_id":"4","last_reported":1703941617,"current_range_meters":22400,"station_id":"ce4bhr12rcd13ifvqhqg","pricing_plan_id":"free"},{"bike_id":"5c89eee7-6e83-42b4-bd81-efdcf68f6666","system_id":"levelo_inurba_marseille","lat":43.3282,"lon":5.36675,"is_reserved":false,"is_disabled":false,"rental_uris":{"android":"levelo://app?vid=5c89eee7-6e83-42b4-bd81-efdcf68f6666","ios":"levelo://app?vid=5c89eee7-6e83-42b4-bd81-efdcf68f6666"},"vehicle_type_id":"4","last_reported":1703941617,"current_range_meters":28000,"station_id":"ce4bhs92rcd13ifvqi0g","pricing_plan_id":"free"},{"bike_id":"a677cd10-a09b-4b2e-bffd-45b05d2c9229","system_id":"levelo_inurba_marseille","lat":43.32823,"lon":5.36681,"is_reserved":false,"is_disabled":false,"rental_uris":{"android":"levelo://app?vid=a677cd10-a09b-4b2e-bffd-45b05d2c9229","ios":"levelo://app?vid=a677cd10-a09b-4b2e-bffd-45b05d2c9229"},"vehicle_type_id":"4","last_reported":1703941617,"current_range_meters":18400,"station_id":"ce4bhs92rcd13ifvqi0g","pricing_plan_id":"free"},{"bike_id":"51714c4a-3132-4951-88ec-80e85fa125e8","system_id":"levelo_inurba_marseille","lat":43.328248,"lon":5.366793,"is_reserved":false,"is_disabled":false,"rental_uris":{"android":"levelo://app?vid=51714c4a-3132-4951-88ec-80e85fa125e8","ios":"levelo://app?vid=51714c4a-3132-4951-88ec-80e85fa125e8"},"vehicle_type_id":"4","last_reported":1703941617,"current_range_meters":10000,"station_id":"ce4bhs92rcd13ifvqi0g","pricing_plan_id":"free"},{"bike_id":"3406ac08-144e-419c-8a8c-9c89910b5b78","system_id":"levelo_inurba_marseille","lat":43.32826,"lon":5.36675,"is_reserved":false,"is_disabled":false,"rental_uris":{"android":"levelo://app?vid=3406ac08-144e-419c-8a8c-9c89910b5b78","ios":"levelo://app?vid=3406ac08-144e-419c-8a8c-9c89910b5b78"},"vehicle_type_id":"4","last_reported":1703941617,"current_range_meters":10800,"station_id":"ce4bhs92rcd13ifvqi0g","pricing_plan_id":"free"},{"bike_id":"74ff96ff-c851-4d57-8883-0d7347bd471f","system_id":"levelo_inurba_marseille","lat":43.32827,"lon":5.366855,"is_reserved":false,"is_disabled":false,"rental_uris":{"android":"levelo://app?vid=74ff96ff-c851-4d57-8883-0d7347bd471f","ios":"levelo://app?vid=74ff96ff-c851-4d57-8883-0d7347bd471f"},"vehicle_type_id":"4","last_reported":1703941617,"current_range_meters":30400,"station_id":"ce4bhs92rcd13ifvqi0g","pricing_plan_id":"free"},{"bike_id":"43517afb-7930-42e8-a305-e900a3000a28","system_id":"levelo_inurba_marseille","lat":43.32827,"lon":5.36677,"is_reserved":false,"is_disabled":false,"rental_uris":{"android":"levelo://app?vid=43517afb-7930-42e8-a305-e900a3000a28","ios":"levelo://app?vid=43517afb-7930-42e8-a305-e900a3000a28"},"vehicle_type_id":"4","last_reported":1703941617,"current_range_meters":20400,"station_id":"ce4bhs92rcd13ifvqi0g","pricing_plan_id":"free"},{"bike_id":"6eb75a18-acfd-4ffa-bf23-27c5e63a3c58","system_id":"levelo_inurba_marseille","lat":43.328273,"lon":5.366774,"is_reserved":false,"is_disabled":false,"rental_uris":{"android":"levelo://app?vid=6eb75a18-acfd-4ffa-bf23-27c5e63a3c58","ios":"levelo://app?vid=6eb75a18-acfd-4ffa-bf23-27c5e63a3c58"},"vehicle_type_id":"4","last_reported":1703941617,"current_range_meters":14400,"station_id":"ce4bhs92rcd13ifvqi0g","pricing_plan_id":"free"},{"bike_id":"cf00c698-8fd0-4558-ba63-96d22759f8da","system_id":"levelo_inurba_marseille","lat":43.32828,"lon":5.36695,"is_reserved":false,"is_disabled":false,"rental_uris":{"android":"levelo://app?vid=cf00c698-8fd0-4558-ba63-96d22759f8da","ios":"levelo://app?vid=cf00c698-8fd0-4558-ba63-96d22759f8da"},"vehicle_type_id":"4","last_reported":1703941617,"current_range_meters":20400,"station_id":"ce4bhs92rcd13ifvqi0g","pricing_plan_id":"free"},{"bike_id":"c99c1421-6c70-45e1-a99f-19afba82ca69","system_id":"levelo_inurba_marseille","lat":43.32828,"lon":5.36676,"is_reserved":false,"is_disabled":false,"rental_uris":{"android":"levelo://app?vid=c99c1421-6c70-45e1-a99f-19afba82ca69","ios":"levelo://app?vid=c99c1421-6c70-45e1-a99f-19afba82ca69"},"vehicle_type_id":"4","last_reported":1703941617,"current_range_meters":26400,"station_id":"ce4bhs92rcd13ifvqi0g","pricing_plan_id":"free"},{"bike_id":"7aa6a530-3ac6-4ec6-a447-a7bf4c489e07","system_id":"levelo_inurba_marseille","lat":43.32828,"lon":5.36675,"is_reserved":false,"is_disabled":false,"rental_uris":{"android":"levelo://app?vid=7aa6a530-3ac6-4ec6-a447-a7bf4c489e07","ios":"levelo://app?vid=7aa6a530-3ac6-4ec6-a447-a7bf4c489e07"},"vehicle_type_id":"4","last_reported":1703941617,"current_range_meters":20000,"station_id":"ce4bhs92rcd13ifvqi0g","pricing_plan_id":"free"},{"bike_id":"7d6d006d-1ffd-499a-b21c-af208ba00600","system_id":"levelo_inurba_marseille","lat":43.32829,"lon":5.366855,"is_reserved":false,"is_disabled":false,"rental_uris":{"android":"levelo://app?vid=7d6d006d-1ffd-499a-b21c-af208ba00600","ios":"levelo://app?vid=7d6d006d-1ffd-499a-b21c-af208ba00600"},"vehicle_type_id":"4","last_reported":1703941617,"current_range_meters":24000,"station_id":"ce4bhs92rcd13ifvqi0g","pricing_plan_id":"free"},{"bike_id":"9d832f49-b330-492c-bca5-26b211dfab4e","system_id":"levelo_inurba_marseille","lat":43.3283,"lon":5.3669,"is_reserved":false,"is_disabled":false,"rental_uris":{"android":"levelo://app?vid=9d832f49-b330-492c-bca5-26b211dfab4e","ios":"levelo://app?vid=9d832f49-b330-492c-bca5-26b211dfab4e"},"vehicle_type_id":"4","last_reported":1703941617,"current_range_meters":20400,"station_id":"ce4bhs92rcd13ifvqi0g","pricing_plan_id":"free"},{"bike_id":"b30b3d1b-ef61-4776-bd7b-61c34fd8cc81","system_id":"levelo_inurba_marseille","lat":43.3283,"lon":5.36684,"is_reserved":false,"is_disabled":false,"rental_uris":{"android":"levelo://app?vid=b30b3d1b-ef61-4776-bd7b-61c34fd8cc81","ios":"levelo://app?vid=b30b3d1b-ef61-4776-bd7b-61c34fd8cc81"},"vehicle_type_id":"4","last_reported":1703941617,"current_range_meters":6800,"station_id":"ce4bhs92rcd13ifvqi0g","pricing_plan_id":"free"},{"bike_id":"70017d6e-6f1a-4af6-baf6-320a119b5691","system_id":"levelo_inurba_marseille","lat":43.32831,"lon":5.36677,"is_reserved":false,"is_disabled":false,"rental_uris":{"android":"levelo://app?vid=70017d6e-6f1a-4af6-baf6-320a119b5691","ios":"levelo://app?vid=70017d6e-6f1a-4af6-baf6-320a119b5691"},"vehicle_type_id":"4","last_reported":1703941617,"current_range_meters":29200,"station_id":"ce4bhs92rcd13ifvqi0g","pricing_plan_id":"free"},{"bike_id":"a448ca86-2b35-41e1-89c4-32a99bab0563","system_id":"levelo_inurba_marseille","lat":43.328371,"lon":5.366912,"is_reserved":false,"is_disabled":false,"rental_uris":{"android":"levelo://app?vid=a448ca86-2b35-41e1-89c4-32a99bab0563","ios":"levelo://app?vid=a448ca86-2b35-41e1-89c4-32a99bab0563"},"vehicle_type_id":"4","last_reported":1703941617,"current_range_meters":15200,"station_id":"ce4bhs92rcd13ifvqi0g","pricing_plan_id":"free"},{"bike_id":"ea7074d7-b7c9-4941-82c2-dff391bae9cb","system_id":"levelo_inurba_marseille","lat":43.32832,"lon":5.36677,"is_reserved":false,"is_disabled":false,"rental_uris":{"android":"levelo://app?vid=ea7074d7-b7c9-4941-82c2-dff391bae9cb","ios":"levelo://app?vid=ea7074d7-b7c9-4941-82c2-dff391bae9cb"},"vehicle_type_id":"4","last_reported":1703941617,"current_range_meters":29200,"station_id":"ce4bhs92rcd13ifvqi0g","pricing_plan_id":"free"},{"bike_id":"2bdeea0f-6083-4b64-8c61-98acc6e30289","system_id":"levelo_inurba_marseille","lat":43.297163,"lon":5.365866,"is_reserved":false,"is_disabled":false,"rental_uris":{"android":"levelo://app?vid=2bdeea0f-6083-4b64-8c61-98acc6e30289","ios":"levelo://app?vid=2bdeea0f-6083-4b64-8c61-98acc6e30289"},"vehicle_type_id":"4","last_reported":1703941617,"current_range_meters":26800,"station_id":"ce4bgn12rcd13ifvqbt0","pricing_plan_id":"free"},{"bike_id":"b88d5555-cc1b-4d13-b74a-65fa516b599f","system_id":"levelo_inurba_marseille","lat":43.328328,"lon":5.366775,"is_reserved":false,"is_disabled":false,"rental_uris":{"android":"levelo://app?vid=b88d5555-cc1b-4d13-b74a-65fa516b599f","ios":"levelo://app?vid=b88d5555-cc1b-4d13-b74a-65fa516b599f"},"vehicle_type_id":"4","last_reported":1703941617,"current_range_meters":12800,"station_id":"ce4bhs92rcd13ifvqi0g","pricing_plan_id":"free"},{"bike_id":"904f83aa-e9ab-401d-84c1-9edfed82b884","system_id":"levelo_inurba_marseille","lat":43.328371,"lon":5.366912,"is_reserved":false,"is_disabled":false,"rental_uris":{"android":"levelo://app?vid=904f83aa-e9ab-401d-84c1-9edfed82b884","ios":"levelo://app?vid=904f83aa-e9ab-401d-84c1-9edfed82b884"},"vehicle_type_id":"4","last_reported":1703941617,"current_range_meters":26400,"station_id":"ce4bhs92rcd13ifvqi0g","pricing_plan_id":"free"},{"bike_id":"de708f00-7118-4d7c-9021-d7dcbd798473","system_id":"levelo_inurba_marseille","lat":43.328338,"lon":5.36683,"is_reserved":false,"is_disabled":false,"rental_uris":{"android":"levelo://app?vid=de708f00-7118-4d7c-9021-d7dcbd798473","ios":"levelo://app?vid=de708f00-7118-4d7c-9021-d7dcbd798473"},"vehicle_type_id":"4","last_reported":1703941617,"current_range_meters":30400,"station_id":"ce4bhs92rcd13ifvqi0g","pricing_plan_id":"free"},{"bike_id":"a0a56cf2-1650-4b01-b8a8-d5ff2a0cf573","system_id":"levelo_inurba_marseille","lat":43.297163,"lon":5.365866,"is_reserved":false,"is_disabled":false,"rental_uris":{"android":"levelo://app?vid=a0a56cf2-1650-4b01-b8a8-d5ff2a0cf573","ios":"levelo://app?vid=a0a56cf2-1650-4b01-b8a8-d5ff2a0cf573"},"vehicle_type_id":"4","last_reported":1703941617,"current_range_meters":22000,"station_id":"ce4bgn12rcd13ifvqbt0","pricing_plan_id":"free"},{"bike_id":"3f34056a-4bd8-4d86-83f8-090fcfe91920","system_id":"levelo_inurba_marseille","lat":43.297163,"lon":5.365866,"is_reserved":false,"is_disabled":false,"rental_uris":{"android":"levelo://app?vid=3f34056a-4bd8-4d86-83f8-090fcfe91920","ios":"levelo://app?vid=3f34056a-4bd8-4d86-83f8-090fcfe91920"},"vehicle_type_id":"4","last_reported":1703941617,"current_range_meters":28000,"station_id":"ce4bgn12rcd13ifvqbt0","pricing_plan_id":"free"},{"bike_id":"370cccf7-c9ba-46c2-819b-c8e8cacc4c21","system_id":"levelo_inurba_marseille","lat":43.3277,"lon":5.37458,"is_reserved":false,"is_disabled":false,"rental_uris":{"android":"levelo://app?vid=370cccf7-c9ba-46c2-819b-c8e8cacc4c21","ios":"levelo://app?vid=370cccf7-c9ba-46c2-819b-c8e8cacc4c21"},"vehicle_type_id":"4","last_reported":1703941617,"current_range_meters":14400,"station_id":"","pricing_plan_id":"free"},{"bike_id":"ab12bd78-efc8-4d98-bcc8-072e42eb8bba","system_id":"levelo_inurba_marseille","lat":43.2968,"lon":5.37291,"is_reserved":false,"is_disabled":false,"rental_uris":{"android":"levelo://app?vid=ab12bd78-efc8-4d98-bcc8-072e42eb8bba","ios":"levelo://app?vid=ab12bd78-efc8-4d98-bcc8-072e42eb8bba"},"vehicle_type_id":"4","last_reported":1703941617,"current_range_meters":31200,"station_id":"ce4bgk12rcd13ifvqbj0","pricing_plan_id":"free"},{"bike_id":"921b424d-ad0d-4c7a-9d74-66e3a49bfa19","system_id":"levelo_inurba_marseille","lat":43.32934,"lon":5.36612,"is_reserved":false,"is_disabled":false,"rental_uris":{"android":"levelo://app?vid=921b424d-ad0d-4c7a-9d74-66e3a49bfa19","ios":"levelo://app?vid=921b424d-ad0d-4c7a-9d74-66e3a49bfa19"},"vehicle_type_id":"4","last_reported":1703941617,"current_range_meters":5600,"station_id":"","pricing_plan_id":"free"},{"bike_id":"f8607cff-6bcc-43c4-825b-384ae9557faf","system_id":"levelo_inurba_marseille","lat":43.296131,"lon":5.370791,"is_reserved":false,"is_disabled":false,"rental_uris":{"android":"levelo://app?vid=f8607cff-6bcc-43c4-825b-384ae9557faf","ios":"levelo://app?vid=f8607cff-6bcc-43c4-825b-384ae9557faf"},"vehicle_type_id":"4","last_reported":1703941617,"current_range_meters":15200,"station_id":"ce4bgnh2rcd13ifvqc0g","pricing_plan_id":"free"},{"bike_id":"242656b7-7512-499e-adca-97f76420c88b","system_id":"levelo_inurba_marseille","lat":43.296131,"lon":5.370791,"is_reserved":false,"is_disabled":false,"rental_uris":{"android":"levelo://app?vid=242656b7-7512-499e-adca-97f76420c88b","ios":"levelo://app?vid=242656b7-7512-499e-adca-97f76420c88b"},"vehicle_type_id":"4","last_reported":1703941617,"current_range_meters":13600,"station_id":"ce4bgnh2rcd13ifvqc0g","pricing_plan_id":"free"},{"bike_id":"4f1a2da2-6c07-4696-adf3-842d18bc2a78","system_id":"levelo_inurba_marseille","lat":43.29573,"lon":5.367355,"is_reserved":false,"is_disabled":false,"rental_uris":{"android":"levelo://app?vid=4f1a2da2-6c07-4696-adf3-842d18bc2a78","ios":"levelo://app?vid=4f1a2da2-6c07-4696-adf3-842d18bc2a78"},"vehicle_type_id":"4","last_reported":1703941617,"current_range_meters":31200,"station_id":"ce4bgph2rcd13ifvqc2g","pricing_plan_id":"free"},{"bike_id":"61c41970-0a82-40b8-923a-dc4f04131651","system_id":"levelo_inurba_marseille","lat":43.29573,"lon":5.367355,"is_reserved":false,"is_disabled":false,"rental_uris":{"android":"levelo://app?vid=61c41970-0a82-40b8-923a-dc4f04131651","ios":"levelo://app?vid=61c41970-0a82-40b8-923a-dc4f04131651"},"vehicle_type_id":"4","last_reported":1703941617,"current_range_meters":26400,"station_id":"ce4bgph2rcd13ifvqc2g","pricing_plan_id":"free"},{"bike_id":"53123f81-90b1-492e-b8c3-c474adfcd57b","system_id":"levelo_inurba_marseille","lat":43.29573,"lon":5.367355,"is_reserved":false,"is_disabled":false,"rental_uris":{"android":"levelo://app?vid=53123f81-90b1-492e-b8c3-c474adfcd57b","ios":"levelo://app?vid=53123f81-90b1-492e-b8c3-c474adfcd57b"},"vehicle_type_id":"4","last_reported":1703941617,"current_range_meters":22400,"station_id":"ce4bgph2rcd13ifvqc2g","pricing_plan_id":"free"},{"bike_id":"0bae8e38-c699-48bb-a179-83c0633da447","system_id":"levelo_inurba_marseille","lat":43.29573,"lon":5.367355,"is_reserved":false,"is_disabled":false,"rental_uris":{"android":"levelo://app?vid=0bae8e38-c699-48bb-a179-83c0633da447","ios":"levelo://app?vid=0bae8e38-c699-48bb-a179-83c0633da447"},"vehicle_type_id":"4","last_reported":1703941617,"current_range_meters":24000,"station_id":"ce4bgph2rcd13ifvqc2g","pricing_plan_id":"free"},{"bike_id":"fc0ca694-0c42-4968-87aa-ea4d784cca34","system_id":"levelo_inurba_marseille","lat":43.29573,"lon":5.367355,"is_reserved":false,"is_disabled":false,"rental_uris":{"android":"levelo://app?vid=fc0ca694-0c42-4968-87aa-ea4d784cca34","ios":"levelo://app?vid=fc0ca694-0c42-4968-87aa-ea4d784cca34"},"vehicle_type_id":"4","last_reported":1703941617,"current_range_meters":9200,"station_id":"ce4bgph2rcd13ifvqc2g","pricing_plan_id":"free"},{"bike_id":"7be28ce2-5d50-4838-86db-be0f8baa0247","system_id":"levelo_inurba_marseille","lat":43.29573,"lon":5.367355,"is_reserved":false,"is_disabled":false,"rental_uris":{"android":"levelo://app?vid=7be28ce2-5d50-4838-86db-be0f8baa0247","ios":"levelo://app?vid=7be28ce2-5d50-4838-86db-be0f8baa0247"},"vehicle_type_id":"4","last_reported":1703941617,"current_range_meters":31600,"station_id":"ce4bgph2rcd13ifvqc2g","pricing_plan_id":"free"},{"bike_id":"f4fa3dae-a0e7-4303-ba4d-c1a83d54f60c","system_id":"levelo_inurba_marseille","lat":43.296921,"lon":5.376579,"is_reserved":false,"is_disabled":false,"rental_uris":{"android":"levelo://app?vid=f4fa3dae-a0e7-4303-ba4d-c1a83d54f60c","ios":"levelo://app?vid=f4fa3dae-a0e7-4303-ba4d-c1a83d54f60c"},"vehicle_type_id":"4","last_reported":1703941617,"current_range_meters":18400,"station_id":"ce4bgkh2rcd13ifvqbl0","pricing_plan_id":"free"},{"bike_id":"7785697c-9cad-4dfa-9179-4d2a09b7d7a8","system_id":"levelo_inurba_marseille","lat":43.299028,"lon":5.381509,"is_reserved":false,"is_disabled":false,"rental_uris":{"android":"levelo://app?vid=7785697c-9cad-4dfa-9179-4d2a09b7d7a8","ios":"levelo://app?vid=7785697c-9cad-4dfa-9179-4d2a09b7d7a8"},"vehicle_type_id":"4","last_reported":1703941617,"current_range_meters":27600,"station_id":"ce4bgj12rcd13ifvqbc0","pricing_plan_id":"free"},{"bike_id":"f76ba80c-df4f-46ed-b89a-665e66e76f66","system_id":"levelo_inurba_marseille","lat":43.317557,"lon":5.390173,"is_reserved":false,"is_disabled":false,"rental_uris":{"android":"levelo://app?vid=f76ba80c-df4f-46ed-b89a-665e66e76f66","ios":"levelo://app?vid=f76ba80c-df4f-46ed-b89a-665e66e76f66"},"vehicle_type_id":"4","last_reported":1703941617,"current_range_meters":31200,"station_id":"ce4bhqp2rcd13ifvqhng","pricing_plan_id":"free"},{"bike_id":"3e1848c3-d869-43c6-b4b1-4704dadf4192","system_id":"levelo_inurba_marseille","lat":43.317557,"lon":5.390173,"is_reserved":false,"is_disabled":false,"rental_uris":{"android":"levelo://app?vid=3e1848c3-d869-43c6-b4b1-4704dadf4192","ios":"levelo://app?vid=3e1848c3-d869-43c6-b4b1-4704dadf4192"},"vehicle_type_id":"4","last_reported":1703941617,"current_range_meters":30400,"station_id":"ce4bhqp2rcd13ifvqhng","pricing_plan_id":"free"},{"bike_id":"d5d85613-58ba-4fd6-beea-170b87cbc9e9","system_id":"levelo_inurba_marseille","lat":43.317557,"lon":5.390173,"is_reserved":false,"is_disabled":false,"rental_uris":{"android":"levelo://app?vid=d5d85613-58ba-4fd6-beea-170b87cbc9e9","ios":"levelo://app?vid=d5d85613-58ba-4fd6-beea-170b87cbc9e9"},"vehicle_type_id":"4","last_reported":1703941617,"current_range_meters":31200,"station_id":"ce4bhqp2rcd13ifvqhng","pricing_plan_id":"free"},{"bike_id":"a373ffef-6502-49e1-941b-d58450ac24d8","system_id":"levelo_inurba_marseille","lat":43.298037,"lon":5.381066,"is_reserved":false,"is_disabled":false,"rental_uris":{"android":"levelo://app?vid=a373ffef-6502-49e1-941b-d58450ac24d8","ios":"levelo://app?vid=a373ffef-6502-49e1-941b-d58450ac24d8"},"vehicle_type_id":"4","last_reported":1703941617,"current_range_meters":27600,"station_id":"ce4bgip2rcd13ifvqbb0","pricing_plan_id":"free"},{"bike_id":"d60802d6-4f47-444a-b234-883690eec05b","system_id":"levelo_inurba_marseille","lat":43.33062,"lon":5.3627,"is_reserved":false,"is_disabled":false,"rental_uris":{"android":"levelo://app?vid=d60802d6-4f47-444a-b234-883690eec05b","ios":"levelo://app?vid=d60802d6-4f47-444a-b234-883690eec05b"},"vehicle_type_id":"4","last_reported":1703941617,"current_range_meters":27200,"station_id":"","pricing_plan_id":"free"},{"bike_id":"2e361ba0-975d-4d7f-8ee0-9d2e2dec6cbe","system_id":"levelo_inurba_marseille","lat":43.29693,"lon":5.37925,"is_reserved":false,"is_disabled":false,"rental_uris":{"android":"levelo://app?vid=2e361ba0-975d-4d7f-8ee0-9d2e2dec6cbe","ios":"levelo://app?vid=2e361ba0-975d-4d7f-8ee0-9d2e2dec6cbe"},"vehicle_type_id":"4","last_reported":1703941617,"current_range_meters":26000,"station_id":"","pricing_plan_id":"free"},{"bike_id":"3c751574-080e-457f-b876-26443e13a5f0","system_id":"levelo_inurba_marseille","lat":43.296277,"lon":5.377108,"is_reserved":false,"is_disabled":false,"rental_uris":{"android":"levelo://app?vid=3c751574-080e-457f-b876-26443e13a5f0","ios":"levelo://app?vid=3c751574-080e-457f-b876-26443e13a5f0"},"vehicle_type_id":"4","last_reported":1703941617,"current_range_meters":5200,"station_id":"ce4bgi92rcd13ifvqb90","pricing_plan_id":"free"},{"bike_id":"7119845d-00aa-4d9f-be8c-fc97d41f1380","system_id":"levelo_inurba_marseille","lat":43.297594,"lon":5.381134,"is_reserved":false,"is_disabled":false,"rental_uris":{"android":"levelo://app?vid=7119845d-00aa-4d9f-be8c-fc97d41f1380","ios":"levelo://app?vid=7119845d-00aa-4d9f-be8c-fc97d41f1380"},"vehicle_type_id":"4","last_reported":1703941617,"current_range_meters":15600,"station_id":"ce4bgip2rcd13ifvqbb0","pricing_plan_id":"free"},{"bike_id":"3ae97a1e-ffb5-4af9-9c2d-89bb1eb0a352","system_id":"levelo_inurba_marseille","lat":43.299717,"lon":5.384845,"is_reserved":false,"is_disabled":false,"rental_uris":{"android":"levelo://app?vid=3ae97a1e-ffb5-4af9-9c2d-89bb1eb0a352","ios":"levelo://app?vid=3ae97a1e-ffb5-4af9-9c2d-89bb1eb0a352"},"vehicle_type_id":"4","last_reported":1703941617,"current_range_meters":23600,"station_id":"ce4bgj92rcd13ifvqbd0","pricing_plan_id":"free"},{"bike_id":"98df0211-76cb-4b70-9907-49479a28d7a2","system_id":"levelo_inurba_marseille","lat":43.293259,"lon":5.371586,"is_reserved":false,"is_disabled":false,"rental_uris":{"android":"levelo://app?vid=98df0211-76cb-4b70-9907-49479a28d7a2","ios":"levelo://app?vid=98df0211-76cb-4b70-9907-49479a28d7a2"},"vehicle_type_id":"4","last_reported":1703941617,"current_range_meters":20800,"station_id":"ce4bgh92rcd13ifvqb40","pricing_plan_id":"free"},{"bike_id":"6d1adfef-8fdd-4649-8919-5c5d9adf7906","system_id":"levelo_inurba_marseille","lat":43.303002,"lon":5.392142,"is_reserved":false,"is_disabled":false,"rental_uris":{"android":"levelo://app?vid=6d1adfef-8fdd-4649-8919-5c5d9adf7906","ios":"levelo://app?vid=6d1adfef-8fdd-4649-8919-5c5d9adf7906"},"vehicle_type_id":"4","last_reported":1703941617,"current_range_meters":8400,"station_id":"ce4bgkh2rcd13ifvqbk0","pricing_plan_id":"free"},{"bike_id":"1de6a7e7-5472-4588-b350-d650325bad22","system_id":"levelo_inurba_marseille","lat":43.302992,"lon":5.392136,"is_reserved":false,"is_disabled":false,"rental_uris":{"android":"levelo://app?vid=1de6a7e7-5472-4588-b350-d650325bad22","ios":"levelo://app?vid=1de6a7e7-5472-4588-b350-d650325bad22"},"vehicle_type_id":"4","last_reported":1703941617,"current_range_meters":11200,"station_id":"ce4bgkh2rcd13ifvqbk0","pricing_plan_id":"free"},{"bike_id":"5e22a589-2941-46bd-b53d-16593d3cd369","system_id":"levelo_inurba_marseille","lat":43.300852,"lon":5.390859,"is_reserved":false,"is_disabled":false,"rental_uris":{"android":"levelo://app?vid=5e22a589-2941-46bd-b53d-16593d3cd369","ios":"levelo://app?vid=5e22a589-2941-46bd-b53d-16593d3cd369"},"vehicle_type_id":"4","last_reported":1703941617,"current_range_meters":13600,"station_id":"ce4bh192rcd13ifvqdb0","pricing_plan_id":"free"},{"bike_id":"5c51a141-fe27-4983-a185-e733277b368e","system_id":"levelo_inurba_marseille","lat":43.291994,"lon":5.357886,"is_reserved":false,"is_disabled":false,"rental_uris":{"android":"levelo://app?vid=5c51a141-fe27-4983-a185-e733277b368e","ios":"levelo://app?vid=5c51a141-fe27-4983-a185-e733277b368e"},"vehicle_type_id":"4","last_reported":1703941617,"current_range_meters":17200,"station_id":"ce4bhb12rcd13ifvqel0","pricing_plan_id":"free"},{"bike_id":"e57f3733-b096-422c-8809-7431f42ebd31","system_id":"levelo_inurba_marseille","lat":43.309038,"lon":5.396546,"is_reserved":false,"is_disabled":false,"rental_uris":{"android":"levelo://app?vid=e57f3733-b096-422c-8809-7431f42ebd31","ios":"levelo://app?vid=e57f3733-b096-422c-8809-7431f42ebd31"},"vehicle_type_id":"4","last_reported":1703941617,"current_range_meters":26400,"station_id":"ce4bh012rcd13ifvqcv0","pricing_plan_id":"free"},{"bike_id":"d19622f3-3502-4e1f-a693-650de0fa9a4b","system_id":"levelo_inurba_marseille","lat":43.290327,"lon":5.375711,"is_reserved":false,"is_disabled":false,"rental_uris":{"android":"levelo://app?vid=d19622f3-3502-4e1f-a693-650de0fa9a4b","ios":"levelo://app?vid=d19622f3-3502-4e1f-a693-650de0fa9a4b"},"vehicle_type_id":"4","last_reported":1703941617,"current_range_meters":26000,"station_id":"ce4bh692rcd13ifvqe90","pricing_plan_id":"free"},{"bike_id":"fc649f95-ebc6-4248-8eab-fbe9f2a2fb2b","system_id":"levelo_inurba_marseille","lat":43.290327,"lon":5.375711,"is_reserved":false,"is_disabled":false,"rental_uris":{"android":"levelo://app?vid=fc649f95-ebc6-4248-8eab-fbe9f2a2fb2b","ios":"levelo://app?vid=fc649f95-ebc6-4248-8eab-fbe9f2a2fb2b"},"vehicle_type_id":"4","last_reported":1703941617,"current_range_meters":14800,"station_id":"ce4bh692rcd13ifvqe90","pricing_plan_id":"free"},{"bike_id":"2cf5a0cb-ce53-4eb8-9b85-f5f6960cbced","system_id":"levelo_inurba_marseille","lat":43.290327,"lon":5.375711,"is_reserved":false,"is_disabled":false,"rental_uris":{"android":"levelo://app?vid=2cf5a0cb-ce53-4eb8-9b85-f5f6960cbced","ios":"levelo://app?vid=2cf5a0cb-ce53-4eb8-9b85-f5f6960cbced"},"vehicle_type_id":"4","last_reported":1703941617,"current_range_meters":8000,"station_id":"ce4bh692rcd13ifvqe90","pricing_plan_id":"free"},{"bike_id":"cc45ad1c-4741-43ca-a1ab-761a7ae2114c","system_id":"levelo_inurba_marseille","lat":43.289184,"lon":5.366408,"is_reserved":false,"is_disabled":false,"rental_uris":{"android":"levelo://app?vid=cc45ad1c-4741-43ca-a1ab-761a7ae2114c","ios":"levelo://app?vid=cc45ad1c-4741-43ca-a1ab-761a7ae2114c"},"vehicle_type_id":"4","last_reported":1703941617,"current_range_meters":13600,"station_id":"ce4bhap2rcd13ifvqek0","pricing_plan_id":"free"},{"bike_id":"83ebb033-6ead-4cdf-a526-96b10e5fafd9","system_id":"levelo_inurba_marseille","lat":43.289184,"lon":5.366408,"is_reserved":false,"is_disabled":false,"rental_uris":{"android":"levelo://app?vid=83ebb033-6ead-4cdf-a526-96b10e5fafd9","ios":"levelo://app?vid=83ebb033-6ead-4cdf-a526-96b10e5fafd9"},"vehicle_type_id":"4","last_reported":1703941617,"current_range_meters":2400,"station_id":"ce4bhap2rcd13ifvqek0","pricing_plan_id":"free"},{"bike_id":"bcda8449-217c-454f-b54c-69d6f8f0ee67","system_id":"levelo_inurba_marseille","lat":43.29009,"lon":5.35611,"is_reserved":false,"is_disabled":false,"rental_uris":{"android":"levelo://app?vid=bcda8449-217c-454f-b54c-69d6f8f0ee67","ios":"levelo://app?vid=bcda8449-217c-454f-b54c-69d6f8f0ee67"},"vehicle_type_id":"4","last_reported":1703941617,"current_range_meters":21600,"station_id":"ce4bhb92rcd13ifvqen0","pricing_plan_id":"free"},{"bike_id":"d2b59761-a23f-4a7f-ae1c-bd5b3356c2d0","system_id":"levelo_inurba_marseille","lat":43.290995,"lon":5.381361,"is_reserved":false,"is_disabled":false,"rental_uris":{"android":"levelo://app?vid=d2b59761-a23f-4a7f-ae1c-bd5b3356c2d0","ios":"levelo://app?vid=d2b59761-a23f-4a7f-ae1c-bd5b3356c2d0"},"vehicle_type_id":"4","last_reported":1703941617,"current_range_meters":29200,"station_id":"ce4bh512rcd13ifvqe2g","pricing_plan_id":"free"},{"bike_id":"c23ce423-301f-45d7-894d-6a7cda9f72a6","system_id":"levelo_inurba_marseille","lat":43.290995,"lon":5.381361,"is_reserved":false,"is_disabled":false,"rental_uris":{"android":"levelo://app?vid=c23ce423-301f-45d7-894d-6a7cda9f72a6","ios":"levelo://app?vid=c23ce423-301f-45d7-894d-6a7cda9f72a6"},"vehicle_type_id":"4","last_reported":1703941617,"current_range_meters":20000,"station_id":"ce4bh512rcd13ifvqe2g","pricing_plan_id":"free"},{"bike_id":"c06a5cd0-0e84-4791-8222-675352bae6d1","system_id":"levelo_inurba_marseille","lat":43.297815,"lon":5.393548,"is_reserved":false,"is_disabled":false,"rental_uris":{"android":"levelo://app?vid=c06a5cd0-0e84-4791-8222-675352bae6d1","ios":"levelo://app?vid=c06a5cd0-0e84-4791-8222-675352bae6d1"},"vehicle_type_id":"4","last_reported":1703941617,"current_range_meters":6800,"station_id":"chh1huq6cuj3fo74tm60","pricing_plan_id":"free"},{"bike_id":"3fea2bd0-078d-4e82-9cee-2e4dd1524457","system_id":"levelo_inurba_marseille","lat":43.29781,"lon":5.3934,"is_reserved":false,"is_disabled":false,"rental_uris":{"android":"levelo://app?vid=3fea2bd0-078d-4e82-9cee-2e4dd1524457","ios":"levelo://app?vid=3fea2bd0-078d-4e82-9cee-2e4dd1524457"},"vehicle_type_id":"4","last_reported":1703941617,"current_range_meters":22800,"station_id":"chh1huq6cuj3fo74tm60","pricing_plan_id":"free"},{"bike_id":"495faf64-a935-4c6e-b77f-2b296d14493a","system_id":"levelo_inurba_marseille","lat":43.331017,"lon":5.389194,"is_reserved":false,"is_disabled":false,"rental_uris":{"android":"levelo://app?vid=495faf64-a935-4c6e-b77f-2b296d14493a","ios":"levelo://app?vid=495faf64-a935-4c6e-b77f-2b296d14493a"},"vehicle_type_id":"4","last_reported":1703941617,"current_range_meters":3200,"station_id":"","pricing_plan_id":"free"},{"bike_id":"da3ea60b-f970-48de-826c-7eeefb37b362","system_id":"levelo_inurba_marseille","lat":43.330442,"lon":5.389148,"is_reserved":false,"is_disabled":false,"rental_uris":{"android":"levelo://app?vid=da3ea60b-f970-48de-826c-7eeefb37b362","ios":"levelo://app?vid=da3ea60b-f970-48de-826c-7eeefb37b362"},"vehicle_type_id":"4","last_reported":1703941617,"current_range_meters":26400,"station_id":"ce4bhr92rcd13ifvqhrg","pricing_plan_id":"free"},{"bike_id":"8782e543-94a9-4315-8439-091cba6e148e","system_id":"levelo_inurba_marseille","lat":43.289743,"lon":5.378304,"is_reserved":false,"is_disabled":false,"rental_uris":{"android":"levelo://app?vid=8782e543-94a9-4315-8439-091cba6e148e","ios":"levelo://app?vid=8782e543-94a9-4315-8439-091cba6e148e"},"vehicle_type_id":"4","last_reported":1703941617,"current_range_meters":26000,"station_id":"ce4bh9p2rcd13ifvqed0","pricing_plan_id":"free"},{"bike_id":"95facfc4-b09e-43ec-be48-92e501dab059","system_id":"levelo_inurba_marseille","lat":43.309371,"lon":5.401449,"is_reserved":false,"is_disabled":false,"rental_uris":{"android":"levelo://app?vid=95facfc4-b09e-43ec-be48-92e501dab059","ios":"levelo://app?vid=95facfc4-b09e-43ec-be48-92e501dab059"},"vehicle_type_id":"4","last_reported":1703941617,"current_range_meters":18400,"station_id":"ce4bgvp2rcd13ifvqct0","pricing_plan_id":"free"},{"bike_id":"d29f7a6c-6eff-46b1-9d51-bbf08faabfa1","system_id":"levelo_inurba_marseille","lat":43.337477,"lon":5.374431,"is_reserved":false,"is_disabled":false,"rental_uris":{"android":"levelo://app?vid=d29f7a6c-6eff-46b1-9d51-bbf08faabfa1","ios":"levelo://app?vid=d29f7a6c-6eff-46b1-9d51-bbf08faabfa1"},"vehicle_type_id":"4","last_reported":1703941617,"current_range_meters":0,"station_id":"","pricing_plan_id":"free"},{"bike_id":"547dc7f7-3475-41c4-b93a-9221347a189d","system_id":"levelo_inurba_marseille","lat":43.337517,"lon":5.374587,"is_reserved":false,"is_disabled":false,"rental_uris":{"android":"levelo://app?vid=547dc7f7-3475-41c4-b93a-9221347a189d","ios":"levelo://app?vid=547dc7f7-3475-41c4-b93a-9221347a189d"},"vehicle_type_id":"4","last_reported":1703941617,"current_range_meters":28800,"station_id":"","pricing_plan_id":"free"},{"bike_id":"c0a538ab-353e-4143-9ba3-568bd8a35f75","system_id":"levelo_inurba_marseille","lat":43.28727,"lon":5.36078,"is_reserved":false,"is_disabled":false,"rental_uris":{"android":"levelo://app?vid=c0a538ab-353e-4143-9ba3-568bd8a35f75","ios":"levelo://app?vid=c0a538ab-353e-4143-9ba3-568bd8a35f75"},"vehicle_type_id":"4","last_reported":1703941617,"current_range_meters":31600,"station_id":"cki0cbj6b192h4jlfktg","pricing_plan_id":"free"},{"bike_id":"069445d9-ba6f-4fd3-977d-67c6ac9e0131","system_id":"levelo_inurba_marseille","lat":43.28727,"lon":5.36078,"is_reserved":false,"is_disabled":false,"rental_uris":{"android":"levelo://app?vid=069445d9-ba6f-4fd3-977d-67c6ac9e0131","ios":"levelo://app?vid=069445d9-ba6f-4fd3-977d-67c6ac9e0131"},"vehicle_type_id":"4","last_reported":1703941617,"current_range_meters":29200,"station_id":"cki0cbj6b192h4jlfktg","pricing_plan_id":"free"},{"bike_id":"8b8b4c4d-5d05-4ffa-9c30-44d364c42c02","system_id":"levelo_inurba_marseille","lat":43.286039,"lon":5.370681,"is_reserved":false,"is_disabled":false,"rental_uris":{"android":"levelo://app?vid=8b8b4c4d-5d05-4ffa-9c30-44d364c42c02","ios":"levelo://app?vid=8b8b4c4d-5d05-4ffa-9c30-44d364c42c02"},"vehicle_type_id":"4","last_reported":1703941617,"current_range_meters":9600,"station_id":"ce4bht12rcd13ifvqi60","pricing_plan_id":"free"},{"bike_id":"85914b1f-4ae5-4db3-8915-6296c1ef2c55","system_id":"levelo_inurba_marseille","lat":43.28601,"lon":5.37072,"is_reserved":false,"is_disabled":false,"rental_uris":{"android":"levelo://app?vid=85914b1f-4ae5-4db3-8915-6296c1ef2c55","ios":"levelo://app?vid=85914b1f-4ae5-4db3-8915-6296c1ef2c55"},"vehicle_type_id":"4","last_reported":1703941617,"current_range_meters":16800,"station_id":"","pricing_plan_id":"free"},{"bike_id":"f2d10af3-af45-43b6-906b-822046fed90f","system_id":"levelo_inurba_marseille","lat":43.287184,"lon":5.37937,"is_reserved":false,"is_disabled":false,"rental_uris":{"android":"levelo://app?vid=f2d10af3-af45-43b6-906b-822046fed90f","ios":"levelo://app?vid=f2d10af3-af45-43b6-906b-822046fed90f"},"vehicle_type_id":"4","last_reported":1703941617,"current_range_meters":27200,"station_id":"ce4bh9p2rcd13ifvqec0","pricing_plan_id":"free"},{"bike_id":"afa65d8e-3d8f-43b2-af5b-b2751456a553","system_id":"levelo_inurba_marseille","lat":43.316821,"lon":5.404737,"is_reserved":false,"is_disabled":false,"rental_uris":{"android":"levelo://app?vid=afa65d8e-3d8f-43b2-af5b-b2751456a553","ios":"levelo://app?vid=afa65d8e-3d8f-43b2-af5b-b2751456a553"},"vehicle_type_id":"4","last_reported":1703941617,"current_range_meters":29200,"station_id":"ce4bh012rcd13ifvqd00","pricing_plan_id":"free"},{"bike_id":"cc7423bf-27b9-4860-a825-928190b9dbb6","system_id":"levelo_inurba_marseille","lat":43.285848,"lon":5.350787,"is_reserved":false,"is_disabled":false,"rental_uris":{"android":"levelo://app?vid=cc7423bf-27b9-4860-a825-928190b9dbb6","ios":"levelo://app?vid=cc7423bf-27b9-4860-a825-928190b9dbb6"},"vehicle_type_id":"4","last_reported":1703941617,"current_range_meters":0,"station_id":"ce4bhch2rcd13ifvqeug","pricing_plan_id":"free"},{"bike_id":"ff160655-7a8f-4255-ba53-cc1e73931115","system_id":"levelo_inurba_marseille","lat":43.283998,"lon":5.375062,"is_reserved":false,"is_disabled":false,"rental_uris":{"android":"levelo://app?vid=ff160655-7a8f-4255-ba53-cc1e73931115","ios":"levelo://app?vid=ff160655-7a8f-4255-ba53-cc1e73931115"},"vehicle_type_id":"4","last_reported":1703941617,"current_range_meters":22800,"station_id":"ce4bh412rcd13ifvqds0","pricing_plan_id":"free"},{"bike_id":"4ad566ac-35d2-45f1-93b8-aa3abd61c433","system_id":"levelo_inurba_marseille","lat":43.300994,"lon":5.404661,"is_reserved":false,"is_disabled":false,"rental_uris":{"android":"levelo://app?vid=4ad566ac-35d2-45f1-93b8-aa3abd61c433","ios":"levelo://app?vid=4ad566ac-35d2-45f1-93b8-aa3abd61c433"},"vehicle_type_id":"4","last_reported":1703941617,"current_range_meters":400,"station_id":"","pricing_plan_id":"free"},{"bike_id":"c9cdc97e-3b4c-49e9-9424-721a32ba6fd6","system_id":"levelo_inurba_marseille","lat":43.337168,"lon":5.391825,"is_reserved":false,"is_disabled":false,"rental_uris":{"android":"levelo://app?vid=c9cdc97e-3b4c-49e9-9424-721a32ba6fd6","ios":"levelo://app?vid=c9cdc97e-3b4c-49e9-9424-721a32ba6fd6"},"vehicle_type_id":"4","last_reported":1703941617,"current_range_meters":28400,"station_id":"ce4bhr92rcd13ifvqhsg","pricing_plan_id":"free"},{"bike_id":"f3d6a5c5-38ed-45f6-a05d-54d6a065dae5","system_id":"levelo_inurba_marseille","lat":43.284793,"lon":5.384113,"is_reserved":false,"is_disabled":false,"rental_uris":{"android":"levelo://app?vid=f3d6a5c5-38ed-45f6-a05d-54d6a065dae5","ios":"levelo://app?vid=f3d6a5c5-38ed-45f6-a05d-54d6a065dae5"},"vehicle_type_id":"4","last_reported":1703941617,"current_range_meters":13600,"station_id":"ce4bh512rcd13ifvqe3g","pricing_plan_id":"free"},{"bike_id":"ab3be0fd-77c7-4f83-9ed9-21687e785668","system_id":"levelo_inurba_marseille","lat":43.284793,"lon":5.384113,"is_reserved":false,"is_disabled":false,"rental_uris":{"android":"levelo://app?vid=ab3be0fd-77c7-4f83-9ed9-21687e785668","ios":"levelo://app?vid=ab3be0fd-77c7-4f83-9ed9-21687e785668"},"vehicle_type_id":"4","last_reported":1703941617,"current_range_meters":17200,"station_id":"ce4bh512rcd13ifvqe3g","pricing_plan_id":"free"},{"bike_id":"f7968466-26b2-450d-b0c4-c0ecc8e965c9","system_id":"levelo_inurba_marseille","lat":43.288501,"lon":5.393087,"is_reserved":false,"is_disabled":false,"rental_uris":{"android":"levelo://app?vid=f7968466-26b2-450d-b0c4-c0ecc8e965c9","ios":"levelo://app?vid=f7968466-26b2-450d-b0c4-c0ecc8e965c9"},"vehicle_type_id":"4","last_reported":1703941617,"current_range_meters":21200,"station_id":"ce4bh2p2rcd13ifvqdi0","pricing_plan_id":"free"},{"bike_id":"f99ac201-0374-4ac9-9049-59db31ec03f6","system_id":"levelo_inurba_marseille","lat":43.283494,"lon":5.380945,"is_reserved":false,"is_disabled":false,"rental_uris":{"android":"levelo://app?vid=f99ac201-0374-4ac9-9049-59db31ec03f6","ios":"levelo://app?vid=f99ac201-0374-4ac9-9049-59db31ec03f6"},"vehicle_type_id":"4","last_reported":1703941617,"current_range_meters":20800,"station_id":"ce4bh412rcd13ifvqdr0","pricing_plan_id":"free"},{"bike_id":"e485450b-2736-4f4c-b94b-0da5a69b88aa","system_id":"levelo_inurba_marseille","lat":43.33385,"lon":5.39822,"is_reserved":false,"is_disabled":false,"rental_uris":{"android":"levelo://app?vid=e485450b-2736-4f4c-b94b-0da5a69b88aa","ios":"levelo://app?vid=e485450b-2736-4f4c-b94b-0da5a69b88aa"},"vehicle_type_id":"4","last_reported":1703941617,"current_range_meters":7200,"station_id":"","pricing_plan_id":"free"},{"bike_id":"626f0a1b-5435-4204-99bc-312f09b853ad","system_id":"levelo_inurba_marseille","lat":43.284219,"lon":5.3497,"is_reserved":false,"is_disabled":false,"rental_uris":{"android":"levelo://app?vid=626f0a1b-5435-4204-99bc-312f09b853ad","ios":"levelo://app?vid=626f0a1b-5435-4204-99bc-312f09b853ad"},"vehicle_type_id":"4","last_reported":1703941617,"current_range_meters":31200,"station_id":"ce4bhbh2rcd13ifvqepg","pricing_plan_id":"free"},{"bike_id":"a50b46bb-4642-462a-80e6-19066ec51636","system_id":"levelo_inurba_marseille","lat":43.284219,"lon":5.3497,"is_reserved":false,"is_disabled":false,"rental_uris":{"android":"levelo://app?vid=a50b46bb-4642-462a-80e6-19066ec51636","ios":"levelo://app?vid=a50b46bb-4642-462a-80e6-19066ec51636"},"vehicle_type_id":"4","last_reported":1703941617,"current_range_meters":28000,"station_id":"ce4bhbh2rcd13ifvqepg","pricing_plan_id":"free"},{"bike_id":"522e14b4-91f6-4c04-b12b-116a54369de3","system_id":"levelo_inurba_marseille","lat":43.282744,"lon":5.350533,"is_reserved":false,"is_disabled":false,"rental_uris":{"android":"levelo://app?vid=522e14b4-91f6-4c04-b12b-116a54369de3","ios":"levelo://app?vid=522e14b4-91f6-4c04-b12b-116a54369de3"},"vehicle_type_id":"4","last_reported":1703941617,"current_range_meters":24000,"station_id":"ce4bhbp2rcd13ifvqerg","pricing_plan_id":"free"},{"bike_id":"f049eb03-c9b0-4ea4-a982-34f3d8a94212","system_id":"levelo_inurba_marseille","lat":43.282744,"lon":5.350533,"is_reserved":false,"is_disabled":false,"rental_uris":{"android":"levelo://app?vid=f049eb03-c9b0-4ea4-a982-34f3d8a94212","ios":"levelo://app?vid=f049eb03-c9b0-4ea4-a982-34f3d8a94212"},"vehicle_type_id":"4","last_reported":1703941617,"current_range_meters":19600,"station_id":"ce4bhbp2rcd13ifvqerg","pricing_plan_id":"free"},{"bike_id":"edff2b76-1fe4-45f5-aab3-5edc788201d7","system_id":"levelo_inurba_marseille","lat":43.282744,"lon":5.350533,"is_reserved":false,"is_disabled":false,"rental_uris":{"android":"levelo://app?vid=edff2b76-1fe4-45f5-aab3-5edc788201d7","ios":"levelo://app?vid=edff2b76-1fe4-45f5-aab3-5edc788201d7"},"vehicle_type_id":"4","last_reported":1703941617,"current_range_meters":22800,"station_id":"ce4bhbp2rcd13ifvqerg","pricing_plan_id":"free"},{"bike_id":"b2e9dd3c-ab70-4d36-b8bb-79a38e64a52c","system_id":"levelo_inurba_marseille","lat":43.28039,"lon":5.369297,"is_reserved":false,"is_disabled":false,"rental_uris":{"android":"levelo://app?vid=b2e9dd3c-ab70-4d36-b8bb-79a38e64a52c","ios":"levelo://app?vid=b2e9dd3c-ab70-4d36-b8bb-79a38e64a52c"},"vehicle_type_id":"4","last_reported":1703941617,"current_range_meters":30000,"station_id":"ce4bha12rcd13ifvqef0","pricing_plan_id":"free"},{"bike_id":"d40cdbf7-997c-468a-8044-873e46b1699d","system_id":"levelo_inurba_marseille","lat":43.284462,"lon":5.392121,"is_reserved":false,"is_disabled":false,"rental_uris":{"android":"levelo://app?vid=d40cdbf7-997c-468a-8044-873e46b1699d","ios":"levelo://app?vid=d40cdbf7-997c-468a-8044-873e46b1699d"},"vehicle_type_id":"4","last_reported":1703941617,"current_range_meters":10400,"station_id":"ce4bhoh2rcd13ifvqh5g","pricing_plan_id":"free"},{"bike_id":"c5334a9d-80fb-4ae0-bb26-147320fb94c5","system_id":"levelo_inurba_marseille","lat":43.28573,"lon":5.394992,"is_reserved":false,"is_disabled":false,"rental_uris":{"android":"levelo://app?vid=c5334a9d-80fb-4ae0-bb26-147320fb94c5","ios":"levelo://app?vid=c5334a9d-80fb-4ae0-bb26-147320fb94c5"},"vehicle_type_id":"4","last_reported":1703941617,"current_range_meters":19200,"station_id":"ce4bh292rcd13ifvqdg0","pricing_plan_id":"free"},{"bike_id":"61210dc3-fb48-407f-91e7-442acecfaa07","system_id":"levelo_inurba_marseille","lat":43.304188,"lon":5.412904,"is_reserved":false,"is_disabled":false,"rental_uris":{"android":"levelo://app?vid=61210dc3-fb48-407f-91e7-442acecfaa07","ios":"levelo://app?vid=61210dc3-fb48-407f-91e7-442acecfaa07"},"vehicle_type_id":"4","last_reported":1703941617,"current_range_meters":31200,"station_id":"ce4bhop2rcd13ifvqh8g","pricing_plan_id":"free"},{"bike_id":"c5482712-51a8-4d13-a2d7-349aa2cbed56","system_id":"levelo_inurba_marseille","lat":43.279742,"lon":5.38744,"is_reserved":false,"is_disabled":false,"rental_uris":{"android":"levelo://app?vid=c5482712-51a8-4d13-a2d7-349aa2cbed56","ios":"levelo://app?vid=c5482712-51a8-4d13-a2d7-349aa2cbed56"},"vehicle_type_id":"4","last_reported":1703941617,"current_range_meters":22800,"station_id":"ce4bhg12rcd13ifvqf80","pricing_plan_id":"free"},{"bike_id":"f91d50f5-12d4-46ea-89ea-7256c501f2ef","system_id":"levelo_inurba_marseille","lat":43.320045,"lon":5.415046,"is_reserved":false,"is_disabled":false,"rental_uris":{"android":"levelo://app?vid=f91d50f5-12d4-46ea-89ea-7256c501f2ef","ios":"levelo://app?vid=f91d50f5-12d4-46ea-89ea-7256c501f2ef"},"vehicle_type_id":"4","last_reported":1703941617,"current_range_meters":27600,"station_id":"ce4bhq92rcd13ifvqhkg","pricing_plan_id":"free"},{"bike_id":"d38f456f-1ebf-4e7d-bca4-713f3ab15c87","system_id":"levelo_inurba_marseille","lat":43.320045,"lon":5.415046,"is_reserved":false,"is_disabled":false,"rental_uris":{"android":"levelo://app?vid=d38f456f-1ebf-4e7d-bca4-713f3ab15c87","ios":"levelo://app?vid=d38f456f-1ebf-4e7d-bca4-713f3ab15c87"},"vehicle_type_id":"4","last_reported":1703941617,"current_range_meters":28800,"station_id":"ce4bhq92rcd13ifvqhkg","pricing_plan_id":"free"},{"bike_id":"252d57a4-b5bb-44c4-951f-9068a5706f58","system_id":"levelo_inurba_marseille","lat":43.320045,"lon":5.415046,"is_reserved":false,"is_disabled":false,"rental_uris":{"android":"levelo://app?vid=252d57a4-b5bb-44c4-951f-9068a5706f58","ios":"levelo://app?vid=252d57a4-b5bb-44c4-951f-9068a5706f58"},"vehicle_type_id":"4","last_reported":1703941617,"current_range_meters":30000,"station_id":"ce4bhq92rcd13ifvqhkg","pricing_plan_id":"free"},{"bike_id":"eb62b0dd-ec78-4221-bfb2-78a0942e9e27","system_id":"levelo_inurba_marseille","lat":43.273609,"lon":5.362708,"is_reserved":false,"is_disabled":false,"rental_uris":{"android":"levelo://app?vid=eb62b0dd-ec78-4221-bfb2-78a0942e9e27","ios":"levelo://app?vid=eb62b0dd-ec78-4221-bfb2-78a0942e9e27"},"vehicle_type_id":"4","last_reported":1703941617,"current_range_meters":11600,"station_id":"ce4bhbh2rcd13ifvqeo0","pricing_plan_id":"free"},{"bike_id":"1e3f0da3-d6b8-440b-a1d2-346973b4e576","system_id":"levelo_inurba_marseille","lat":43.292569,"lon":5.409107,"is_reserved":false,"is_disabled":false,"rental_uris":{"android":"levelo://app?vid=1e3f0da3-d6b8-440b-a1d2-346973b4e576","ios":"levelo://app?vid=1e3f0da3-d6b8-440b-a1d2-346973b4e576"},"vehicle_type_id":"4","last_reported":1703941617,"current_range_meters":27200,"station_id":"ce4bh192rcd13ifvqdc0","pricing_plan_id":"free"},{"bike_id":"b0e2af97-648d-4a13-8383-e288aaf00448","system_id":"levelo_inurba_marseille","lat":43.27618,"lon":5.361009,"is_reserved":false,"is_disabled":false,"rental_uris":{"android":"levelo://app?vid=b0e2af97-648d-4a13-8383-e288aaf00448","ios":"levelo://app?vid=b0e2af97-648d-4a13-8383-e288aaf00448"},"vehicle_type_id":"4","last_reported":1703941617,"current_range_meters":18800,"station_id":"ce4bgj92rcd13ifvqbe0","pricing_plan_id":"free"},{"bike_id":"6e08d877-8ce9-4f2a-9b8a-7e820f9f286a","system_id":"levelo_inurba_marseille","lat":43.27618,"lon":5.361009,"is_reserved":false,"is_disabled":false,"rental_uris":{"android":"levelo://app?vid=6e08d877-8ce9-4f2a-9b8a-7e820f9f286a","ios":"levelo://app?vid=6e08d877-8ce9-4f2a-9b8a-7e820f9f286a"},"vehicle_type_id":"4","last_reported":1703941617,"current_range_meters":28400,"station_id":"ce4bgj92rcd13ifvqbe0","pricing_plan_id":"free"},{"bike_id":"71f895c6-c83f-439a-9529-f2de52295bff","system_id":"levelo_inurba_marseille","lat":43.276179,"lon":5.361009,"is_reserved":false,"is_disabled":false,"rental_uris":{"android":"levelo://app?vid=71f895c6-c83f-439a-9529-f2de52295bff","ios":"levelo://app?vid=71f895c6-c83f-439a-9529-f2de52295bff"},"vehicle_type_id":"4","last_reported":1703941617,"current_range_meters":17600,"station_id":"ce4bgj92rcd13ifvqbe0","pricing_plan_id":"free"},{"bike_id":"991e2448-1787-47a4-92f6-c11cda6452a5","system_id":"levelo_inurba_marseille","lat":43.273609,"lon":5.362708,"is_reserved":false,"is_disabled":false,"rental_uris":{"android":"levelo://app?vid=991e2448-1787-47a4-92f6-c11cda6452a5","ios":"levelo://app?vid=991e2448-1787-47a4-92f6-c11cda6452a5"},"vehicle_type_id":"4","last_reported":1703941617,"current_range_meters":31200,"station_id":"ce4bhbh2rcd13ifvqeo0","pricing_plan_id":"free"},{"bike_id":"bc5e54d1-c894-4d43-87c0-78febf0cccd8","system_id":"levelo_inurba_marseille","lat":43.27374,"lon":5.36253,"is_reserved":false,"is_disabled":false,"rental_uris":{"android":"levelo://app?vid=bc5e54d1-c894-4d43-87c0-78febf0cccd8","ios":"levelo://app?vid=bc5e54d1-c894-4d43-87c0-78febf0cccd8"},"vehicle_type_id":"4","last_reported":1703941617,"current_range_meters":28000,"station_id":"ce4bhbh2rcd13ifvqeo0","pricing_plan_id":"free"},{"bike_id":"11bdbd50-7a12-43bf-af21-91992af65ecf","system_id":"levelo_inurba_marseille","lat":43.273609,"lon":5.362708,"is_reserved":false,"is_disabled":false,"rental_uris":{"android":"levelo://app?vid=11bdbd50-7a12-43bf-af21-91992af65ecf","ios":"levelo://app?vid=11bdbd50-7a12-43bf-af21-91992af65ecf"},"vehicle_type_id":"4","last_reported":1703941617,"current_range_meters":15600,"station_id":"ce4bhbh2rcd13ifvqeo0","pricing_plan_id":"free"},{"bike_id":"e5486dd1-0c61-4d37-9032-b34907c09559","system_id":"levelo_inurba_marseille","lat":43.273609,"lon":5.362708,"is_reserved":false,"is_disabled":false,"rental_uris":{"android":"levelo://app?vid=e5486dd1-0c61-4d37-9032-b34907c09559","ios":"levelo://app?vid=e5486dd1-0c61-4d37-9032-b34907c09559"},"vehicle_type_id":"4","last_reported":1703941617,"current_range_meters":31600,"station_id":"ce4bhbh2rcd13ifvqeo0","pricing_plan_id":"free"},{"bike_id":"85c78f05-2087-4701-a7b9-796363db045b","system_id":"levelo_inurba_marseille","lat":43.273609,"lon":5.362708,"is_reserved":false,"is_disabled":false,"rental_uris":{"android":"levelo://app?vid=85c78f05-2087-4701-a7b9-796363db045b","ios":"levelo://app?vid=85c78f05-2087-4701-a7b9-796363db045b"},"vehicle_type_id":"4","last_reported":1703941617,"current_range_meters":0,"station_id":"ce4bhbh2rcd13ifvqeo0","pricing_plan_id":"free"},{"bike_id":"7f2791df-8405-424a-8440-677ddee6aca2","system_id":"levelo_inurba_marseille","lat":43.273609,"lon":5.362708,"is_reserved":false,"is_disabled":false,"rental_uris":{"android":"levelo://app?vid=7f2791df-8405-424a-8440-677ddee6aca2","ios":"levelo://app?vid=7f2791df-8405-424a-8440-677ddee6aca2"},"vehicle_type_id":"4","last_reported":1703941617,"current_range_meters":6000,"station_id":"ce4bhbh2rcd13ifvqeo0","pricing_plan_id":"free"},{"bike_id":"fe84fffd-898f-43cb-bfb1-c6e62623db8c","system_id":"levelo_inurba_marseille","lat":43.273609,"lon":5.362708,"is_reserved":false,"is_disabled":false,"rental_uris":{"android":"levelo://app?vid=fe84fffd-898f-43cb-bfb1-c6e62623db8c","ios":"levelo://app?vid=fe84fffd-898f-43cb-bfb1-c6e62623db8c"},"vehicle_type_id":"4","last_reported":1703941617,"current_range_meters":25600,"station_id":"ce4bhbh2rcd13ifvqeo0","pricing_plan_id":"free"},{"bike_id":"06b36085-cc88-47d1-bcd1-ee7b172b0bb7","system_id":"levelo_inurba_marseille","lat":43.273609,"lon":5.362708,"is_reserved":false,"is_disabled":false,"rental_uris":{"android":"levelo://app?vid=06b36085-cc88-47d1-bcd1-ee7b172b0bb7","ios":"levelo://app?vid=06b36085-cc88-47d1-bcd1-ee7b172b0bb7"},"vehicle_type_id":"4","last_reported":1703941617,"current_range_meters":13200,"station_id":"ce4bhbh2rcd13ifvqeo0","pricing_plan_id":"free"},{"bike_id":"a0dbe4b9-727d-49d0-85e9-6ac37aec85fa","system_id":"levelo_inurba_marseille","lat":43.336134,"lon":5.410341,"is_reserved":false,"is_disabled":false,"rental_uris":{"android":"levelo://app?vid=a0dbe4b9-727d-49d0-85e9-6ac37aec85fa","ios":"levelo://app?vid=a0dbe4b9-727d-49d0-85e9-6ac37aec85fa"},"vehicle_type_id":"4","last_reported":1703941617,"current_range_meters":29200,"station_id":"ce4bhqh2rcd13ifvqhmg","pricing_plan_id":"free"},{"bike_id":"f71160ed-b006-4a5a-835d-64829a5803e1","system_id":"levelo_inurba_marseille","lat":43.336148,"lon":5.410349,"is_reserved":false,"is_disabled":false,"rental_uris":{"android":"levelo://app?vid=f71160ed-b006-4a5a-835d-64829a5803e1","ios":"levelo://app?vid=f71160ed-b006-4a5a-835d-64829a5803e1"},"vehicle_type_id":"4","last_reported":1703941617,"current_range_meters":31200,"station_id":"ce4bhqh2rcd13ifvqhmg","pricing_plan_id":"free"},{"bike_id":"318b6348-521e-4a9b-a4a7-d9636fbe9fe9","system_id":"levelo_inurba_marseille","lat":43.279952,"lon":5.400085,"is_reserved":false,"is_disabled":false,"rental_uris":{"android":"levelo://app?vid=318b6348-521e-4a9b-a4a7-d9636fbe9fe9","ios":"levelo://app?vid=318b6348-521e-4a9b-a4a7-d9636fbe9fe9"},"vehicle_type_id":"4","last_reported":1703941617,"current_range_meters":28800,"station_id":"ce4bho92rcd13ifvqh4g","pricing_plan_id":"free"},{"bike_id":"5bd3fa04-db13-4bd3-86f8-4d9479b060dc","system_id":"levelo_inurba_marseille","lat":43.340804,"lon":5.410219,"is_reserved":false,"is_disabled":false,"rental_uris":{"android":"levelo://app?vid=5bd3fa04-db13-4bd3-86f8-4d9479b060dc","ios":"levelo://app?vid=5bd3fa04-db13-4bd3-86f8-4d9479b060dc"},"vehicle_type_id":"4","last_reported":1703941617,"current_range_meters":11200,"station_id":"ce4bhqh2rcd13ifvqhlg","pricing_plan_id":"free"},{"bike_id":"5eeb6bb9-8c8f-4c5c-bc68-18575c10714c","system_id":"levelo_inurba_marseille","lat":43.340804,"lon":5.410219,"is_reserved":false,"is_disabled":false,"rental_uris":{"android":"levelo://app?vid=5eeb6bb9-8c8f-4c5c-bc68-18575c10714c","ios":"levelo://app?vid=5eeb6bb9-8c8f-4c5c-bc68-18575c10714c"},"vehicle_type_id":"4","last_reported":1703941617,"current_range_meters":31200,"station_id":"ce4bhqh2rcd13ifvqhlg","pricing_plan_id":"free"},{"bike_id":"39a31fd5-17ae-4bc1-9bbf-4d8dd4a4d9c7","system_id":"levelo_inurba_marseille","lat":43.340804,"lon":5.410219,"is_reserved":false,"is_disabled":false,"rental_uris":{"android":"levelo://app?vid=39a31fd5-17ae-4bc1-9bbf-4d8dd4a4d9c7","ios":"levelo://app?vid=39a31fd5-17ae-4bc1-9bbf-4d8dd4a4d9c7"},"vehicle_type_id":"4","last_reported":1703941617,"current_range_meters":14800,"station_id":"ce4bhqh2rcd13ifvqhlg","pricing_plan_id":"free"},{"bike_id":"13e43e4d-c363-46b7-a272-4591d524257c","system_id":"levelo_inurba_marseille","lat":43.340804,"lon":5.410219,"is_reserved":false,"is_disabled":false,"rental_uris":{"android":"levelo://app?vid=13e43e4d-c363-46b7-a272-4591d524257c","ios":"levelo://app?vid=13e43e4d-c363-46b7-a272-4591d524257c"},"vehicle_type_id":"4","last_reported":1703941617,"current_range_meters":11200,"station_id":"ce4bhqh2rcd13ifvqhlg","pricing_plan_id":"free"},{"bike_id":"d9c8318c-3031-4f68-9885-19375abd858f","system_id":"levelo_inurba_marseille","lat":43.31463,"lon":5.42609,"is_reserved":false,"is_disabled":false,"rental_uris":{"android":"levelo://app?vid=d9c8318c-3031-4f68-9885-19375abd858f","ios":"levelo://app?vid=d9c8318c-3031-4f68-9885-19375abd858f"},"vehicle_type_id":"4","last_reported":1703941617,"current_range_meters":6800,"station_id":"","pricing_plan_id":"free"},{"bike_id":"29aa6c62-3c6f-46b3-96f3-5afdcc12a548","system_id":"levelo_inurba_marseille","lat":43.273125,"lon":5.390731,"is_reserved":false,"is_disabled":false,"rental_uris":{"android":"levelo://app?vid=29aa6c62-3c6f-46b3-96f3-5afdcc12a548","ios":"levelo://app?vid=29aa6c62-3c6f-46b3-96f3-5afdcc12a548"},"vehicle_type_id":"4","last_reported":1703941617,"current_range_meters":25600,"station_id":"ce4bhgp2rcd13ifvqfe0","pricing_plan_id":"free"},{"bike_id":"6bfa510b-3358-40c2-9966-ba6975baf367","system_id":"levelo_inurba_marseille","lat":43.274103,"lon":5.394016,"is_reserved":false,"is_disabled":false,"rental_uris":{"android":"levelo://app?vid=6bfa510b-3358-40c2-9966-ba6975baf367","ios":"levelo://app?vid=6bfa510b-3358-40c2-9966-ba6975baf367"},"vehicle_type_id":"4","last_reported":1703941617,"current_range_meters":28400,"station_id":"ce4bhdp2rcd13ifvqf20","pricing_plan_id":"free"},{"bike_id":"58b2d20d-bcf2-4a5f-9b19-f78bf431ecb2","system_id":"levelo_inurba_marseille","lat":43.273129,"lon":5.390725,"is_reserved":false,"is_disabled":false,"rental_uris":{"android":"levelo://app?vid=58b2d20d-bcf2-4a5f-9b19-f78bf431ecb2","ios":"levelo://app?vid=58b2d20d-bcf2-4a5f-9b19-f78bf431ecb2"},"vehicle_type_id":"4","last_reported":1703941617,"current_range_meters":22800,"station_id":"ce4bhgp2rcd13ifvqfe0","pricing_plan_id":"free"},{"bike_id":"999572ae-e8df-40de-ac07-bc10f4b95edb","system_id":"levelo_inurba_marseille","lat":43.295523,"lon":5.422926,"is_reserved":false,"is_disabled":false,"rental_uris":{"android":"levelo://app?vid=999572ae-e8df-40de-ac07-bc10f4b95edb","ios":"levelo://app?vid=999572ae-e8df-40de-ac07-bc10f4b95edb"},"vehicle_type_id":"4","last_reported":1703941617,"current_range_meters":27600,"station_id":"ce4bhph2rcd13ifvqhdg","pricing_plan_id":"free"},{"bike_id":"6ecee245-b66c-40b2-8923-3ca31f458b58","system_id":"levelo_inurba_marseille","lat":43.295523,"lon":5.422926,"is_reserved":false,"is_disabled":false,"rental_uris":{"android":"levelo://app?vid=6ecee245-b66c-40b2-8923-3ca31f458b58","ios":"levelo://app?vid=6ecee245-b66c-40b2-8923-3ca31f458b58"},"vehicle_type_id":"4","last_reported":1703941617,"current_range_meters":26400,"station_id":"ce4bhph2rcd13ifvqhdg","pricing_plan_id":"free"},{"bike_id":"8cf65b3e-2a02-4a07-9e92-0a63a5021c6c","system_id":"levelo_inurba_marseille","lat":43.295511,"lon":5.422926,"is_reserved":false,"is_disabled":false,"rental_uris":{"android":"levelo://app?vid=8cf65b3e-2a02-4a07-9e92-0a63a5021c6c","ios":"levelo://app?vid=8cf65b3e-2a02-4a07-9e92-0a63a5021c6c"},"vehicle_type_id":"4","last_reported":1703941617,"current_range_meters":31200,"station_id":"ce4bhph2rcd13ifvqhdg","pricing_plan_id":"free"},{"bike_id":"d4620682-b37a-4798-967a-019acc221a72","system_id":"levelo_inurba_marseille","lat":43.295511,"lon":5.422926,"is_reserved":false,"is_disabled":false,"rental_uris":{"android":"levelo://app?vid=d4620682-b37a-4798-967a-019acc221a72","ios":"levelo://app?vid=d4620682-b37a-4798-967a-019acc221a72"},"vehicle_type_id":"4","last_reported":1703941617,"current_range_meters":28400,"station_id":"ce4bhph2rcd13ifvqhdg","pricing_plan_id":"free"},{"bike_id":"5df597e2-dacf-42d4-a534-6ceba4d00bba","system_id":"levelo_inurba_marseille","lat":43.27811,"lon":5.40704,"is_reserved":false,"is_disabled":false,"rental_uris":{"android":"levelo://app?vid=5df597e2-dacf-42d4-a534-6ceba4d00bba","ios":"levelo://app?vid=5df597e2-dacf-42d4-a534-6ceba4d00bba"},"vehicle_type_id":"4","last_reported":1703941617,"current_range_meters":31200,"station_id":"ce4bhnh2rcd13ifvqgtg","pricing_plan_id":"free"},{"bike_id":"c22db283-5ab6-44c3-9a2f-5ec8b194cbb7","system_id":"levelo_inurba_marseille","lat":43.2781,"lon":5.40723,"is_reserved":false,"is_disabled":false,"rental_uris":{"android":"levelo://app?vid=c22db283-5ab6-44c3-9a2f-5ec8b194cbb7","ios":"levelo://app?vid=c22db283-5ab6-44c3-9a2f-5ec8b194cbb7"},"vehicle_type_id":"4","last_reported":1703941617,"current_range_meters":25600,"station_id":"ce4bhnh2rcd13ifvqgtg","pricing_plan_id":"free"},{"bike_id":"dba90434-f59d-4b63-9276-b257adfc279b","system_id":"levelo_inurba_marseille","lat":43.269467,"lon":5.386439,"is_reserved":false,"is_disabled":false,"rental_uris":{"android":"levelo://app?vid=dba90434-f59d-4b63-9276-b257adfc279b","ios":"levelo://app?vid=dba90434-f59d-4b63-9276-b257adfc279b"},"vehicle_type_id":"4","last_reported":1703941617,"current_range_meters":21200,"station_id":"ce4bhh92rcd13ifvqfh0","pricing_plan_id":"free"},{"bike_id":"00593055-82a6-44dd-97d4-2e70f6a6709d","system_id":"levelo_inurba_marseille","lat":43.279465,"lon":5.410561,"is_reserved":false,"is_disabled":false,"rental_uris":{"android":"levelo://app?vid=00593055-82a6-44dd-97d4-2e70f6a6709d","ios":"levelo://app?vid=00593055-82a6-44dd-97d4-2e70f6a6709d"},"vehicle_type_id":"4","last_reported":1703941617,"current_range_meters":30000,"station_id":"ce4bhnp2rcd13ifvqh0g","pricing_plan_id":"free"},{"bike_id":"6b5e802e-aae6-4c67-a447-e860c3521689","system_id":"levelo_inurba_marseille","lat":43.279465,"lon":5.410561,"is_reserved":false,"is_disabled":false,"rental_uris":{"android":"levelo://app?vid=6b5e802e-aae6-4c67-a447-e860c3521689","ios":"levelo://app?vid=6b5e802e-aae6-4c67-a447-e860c3521689"},"vehicle_type_id":"4","last_reported":1703941617,"current_range_meters":25600,"station_id":"ce4bhnp2rcd13ifvqh0g","pricing_plan_id":"free"},{"bike_id":"c3e56cd9-2ff2-4318-9a53-755418cff123","system_id":"levelo_inurba_marseille","lat":43.279465,"lon":5.410561,"is_reserved":false,"is_disabled":false,"rental_uris":{"android":"levelo://app?vid=c3e56cd9-2ff2-4318-9a53-755418cff123","ios":"levelo://app?vid=c3e56cd9-2ff2-4318-9a53-755418cff123"},"vehicle_type_id":"4","last_reported":1703941617,"current_range_meters":16000,"station_id":"ce4bhnp2rcd13ifvqh0g","pricing_plan_id":"free"},{"bike_id":"20f9361d-b877-415c-9558-3db27a8cce9b","system_id":"levelo_inurba_marseille","lat":43.269319,"lon":5.389397,"is_reserved":false,"is_disabled":false,"rental_uris":{"android":"levelo://app?vid=20f9361d-b877-415c-9558-3db27a8cce9b","ios":"levelo://app?vid=20f9361d-b877-415c-9558-3db27a8cce9b"},"vehicle_type_id":"4","last_reported":1703941617,"current_range_meters":28000,"station_id":"ce4bhhh2rcd13ifvqfl0","pricing_plan_id":"free"},{"bike_id":"4ace0143-54eb-450f-874b-0d5359e906a6","system_id":"levelo_inurba_marseille","lat":43.31299,"lon":5.4309,"is_reserved":false,"is_disabled":false,"rental_uris":{"android":"levelo://app?vid=4ace0143-54eb-450f-874b-0d5359e906a6","ios":"levelo://app?vid=4ace0143-54eb-450f-874b-0d5359e906a6"},"vehicle_type_id":"4","last_reported":1703941617,"current_range_meters":30400,"station_id":"","pricing_plan_id":"free"},{"bike_id":"e0832b35-ee14-4ca5-986b-e6b3df39b8ed","system_id":"levelo_inurba_marseille","lat":43.27996,"lon":5.416624,"is_reserved":false,"is_disabled":false,"rental_uris":{"android":"levelo://app?vid=e0832b35-ee14-4ca5-986b-e6b3df39b8ed","ios":"levelo://app?vid=e0832b35-ee14-4ca5-986b-e6b3df39b8ed"},"vehicle_type_id":"4","last_reported":1703941617,"current_range_meters":28400,"station_id":"ce4bho12rcd13ifvqh1g","pricing_plan_id":"free"},{"bike_id":"33b31f78-e7cb-49fa-b89c-69b4f0937ded","system_id":"levelo_inurba_marseille","lat":43.27996,"lon":5.416624,"is_reserved":false,"is_disabled":false,"rental_uris":{"android":"levelo://app?vid=33b31f78-e7cb-49fa-b89c-69b4f0937ded","ios":"levelo://app?vid=33b31f78-e7cb-49fa-b89c-69b4f0937ded"},"vehicle_type_id":"4","last_reported":1703941617,"current_range_meters":24400,"station_id":"ce4bho12rcd13ifvqh1g","pricing_plan_id":"free"},{"bike_id":"e567030e-ff6f-4417-a42e-5513fc5e0fde","system_id":"levelo_inurba_marseille","lat":43.279899,"lon":5.416631,"is_reserved":false,"is_disabled":false,"rental_uris":{"android":"levelo://app?vid=e567030e-ff6f-4417-a42e-5513fc5e0fde","ios":"levelo://app?vid=e567030e-ff6f-4417-a42e-5513fc5e0fde"},"vehicle_type_id":"4","last_reported":1703941617,"current_range_meters":22800,"station_id":"ce4bho12rcd13ifvqh1g","pricing_plan_id":"free"},{"bike_id":"4d98cc57-1a09-442a-bfc6-4ee2381acff0","system_id":"levelo_inurba_marseille","lat":43.267966,"lon":5.393976,"is_reserved":false,"is_disabled":false,"rental_uris":{"android":"levelo://app?vid=4d98cc57-1a09-442a-bfc6-4ee2381acff0","ios":"levelo://app?vid=4d98cc57-1a09-442a-bfc6-4ee2381acff0"},"vehicle_type_id":"4","last_reported":1703941617,"current_range_meters":16000,"station_id":"ce4bhh12rcd13ifvqfg0","pricing_plan_id":"free"},{"bike_id":"9be31f01-4cdb-450c-9276-898de1e16e5d","system_id":"levelo_inurba_marseille","lat":43.267966,"lon":5.393976,"is_reserved":false,"is_disabled":false,"rental_uris":{"android":"levelo://app?vid=9be31f01-4cdb-450c-9276-898de1e16e5d","ios":"levelo://app?vid=9be31f01-4cdb-450c-9276-898de1e16e5d"},"vehicle_type_id":"4","last_reported":1703941617,"current_range_meters":24000,"station_id":"ce4bhh12rcd13ifvqfg0","pricing_plan_id":"free"},{"bike_id":"9008ae64-e142-435c-be20-d38a1098eb0c","system_id":"levelo_inurba_marseille","lat":43.265569,"lon":5.390047,"is_reserved":false,"is_disabled":false,"rental_uris":{"android":"levelo://app?vid=9008ae64-e142-435c-be20-d38a1098eb0c","ios":"levelo://app?vid=9008ae64-e142-435c-be20-d38a1098eb0c"},"vehicle_type_id":"4","last_reported":1703941617,"current_range_meters":1200,"station_id":"ce4bhe12rcd13ifvqf30","pricing_plan_id":"free"},{"bike_id":"dac5ea74-92f7-462e-b536-31f322bb01c0","system_id":"levelo_inurba_marseille","lat":43.331893,"lon":5.431791,"is_reserved":false,"is_disabled":false,"rental_uris":{"android":"levelo://app?vid=dac5ea74-92f7-462e-b536-31f322bb01c0","ios":"levelo://app?vid=dac5ea74-92f7-462e-b536-31f322bb01c0"},"vehicle_type_id":"4","last_reported":1703941617,"current_range_meters":15200,"station_id":"","pricing_plan_id":"free"},{"bike_id":"1809008e-3210-462f-8d12-de8b87564996","system_id":"levelo_inurba_marseille","lat":43.317104,"lon":5.436818,"is_reserved":false,"is_disabled":false,"rental_uris":{"android":"levelo://app?vid=1809008e-3210-462f-8d12-de8b87564996","ios":"levelo://app?vid=1809008e-3210-462f-8d12-de8b87564996"},"vehicle_type_id":"4","last_reported":1703941617,"current_range_meters":28800,"station_id":"ce4bhp92rcd13ifvqhcg","pricing_plan_id":"free"},{"bike_id":"7ad2ea02-3380-4f51-bfc9-7a6c21c7e231","system_id":"levelo_inurba_marseille","lat":43.271368,"lon":5.40928,"is_reserved":false,"is_disabled":false,"rental_uris":{"android":"levelo://app?vid=7ad2ea02-3380-4f51-bfc9-7a6c21c7e231","ios":"levelo://app?vid=7ad2ea02-3380-4f51-bfc9-7a6c21c7e231"},"vehicle_type_id":"4","last_reported":1703941617,"current_range_meters":10800,"station_id":"ce4bhl12rcd13ifvqgf0","pricing_plan_id":"free"},{"bike_id":"b07d8aff-9bb3-4c3f-8160-a277c230445c","system_id":"levelo_inurba_marseille","lat":43.262012,"lon":5.379307,"is_reserved":false,"is_disabled":false,"rental_uris":{"android":"levelo://app?vid=b07d8aff-9bb3-4c3f-8160-a277c230445c","ios":"levelo://app?vid=b07d8aff-9bb3-4c3f-8160-a277c230445c"},"vehicle_type_id":"4","last_reported":1703941617,"current_range_meters":27200,"station_id":"ce4bhjp2rcd13ifvqg90","pricing_plan_id":"free"},{"bike_id":"17801e4f-5347-4bfa-9c75-5135e8f78336","system_id":"levelo_inurba_marseille","lat":43.271368,"lon":5.40928,"is_reserved":false,"is_disabled":false,"rental_uris":{"android":"levelo://app?vid=17801e4f-5347-4bfa-9c75-5135e8f78336","ios":"levelo://app?vid=17801e4f-5347-4bfa-9c75-5135e8f78336"},"vehicle_type_id":"4","last_reported":1703941617,"current_range_meters":31600,"station_id":"ce4bhl12rcd13ifvqgf0","pricing_plan_id":"free"},{"bike_id":"bd974242-d78a-41af-8fe0-02e77886382b","system_id":"levelo_inurba_marseille","lat":43.262012,"lon":5.379307,"is_reserved":false,"is_disabled":false,"rental_uris":{"android":"levelo://app?vid=bd974242-d78a-41af-8fe0-02e77886382b","ios":"levelo://app?vid=bd974242-d78a-41af-8fe0-02e77886382b"},"vehicle_type_id":"4","last_reported":1703941617,"current_range_meters":22800,"station_id":"ce4bhjp2rcd13ifvqg90","pricing_plan_id":"free"},{"bike_id":"c775f181-c145-4087-bd1a-acd979b7aa3f","system_id":"levelo_inurba_marseille","lat":43.2651,"lon":5.39469,"is_reserved":false,"is_disabled":false,"rental_uris":{"android":"levelo://app?vid=c775f181-c145-4087-bd1a-acd979b7aa3f","ios":"levelo://app?vid=c775f181-c145-4087-bd1a-acd979b7aa3f"},"vehicle_type_id":"4","last_reported":1703941617,"current_range_meters":17200,"station_id":"ce4bhi12rcd13ifvqfq0","pricing_plan_id":"free"},{"bike_id":"048306d8-69df-4d21-99c9-8745e525e8de","system_id":"levelo_inurba_marseille","lat":43.298955,"lon":5.436583,"is_reserved":false,"is_disabled":false,"rental_uris":{"android":"levelo://app?vid=048306d8-69df-4d21-99c9-8745e525e8de","ios":"levelo://app?vid=048306d8-69df-4d21-99c9-8745e525e8de"},"vehicle_type_id":"4","last_reported":1703941617,"current_range_meters":7600,"station_id":"ce4bhpp2rcd13ifvqhfg","pricing_plan_id":"free"},{"bike_id":"4e011c37-f126-433b-a488-7ed2749557ae","system_id":"levelo_inurba_marseille","lat":43.298768,"lon":5.43643,"is_reserved":false,"is_disabled":false,"rental_uris":{"android":"levelo://app?vid=4e011c37-f126-433b-a488-7ed2749557ae","ios":"levelo://app?vid=4e011c37-f126-433b-a488-7ed2749557ae"},"vehicle_type_id":"4","last_reported":1703941617,"current_range_meters":22400,"station_id":"ce4bhpp2rcd13ifvqhfg","pricing_plan_id":"free"},{"bike_id":"812614fc-f43d-42cd-8379-6bce06a75358","system_id":"levelo_inurba_marseille","lat":43.298768,"lon":5.43643,"is_reserved":false,"is_disabled":false,"rental_uris":{"android":"levelo://app?vid=812614fc-f43d-42cd-8379-6bce06a75358","ios":"levelo://app?vid=812614fc-f43d-42cd-8379-6bce06a75358"},"vehicle_type_id":"4","last_reported":1703941617,"current_range_meters":31600,"station_id":"ce4bhpp2rcd13ifvqhfg","pricing_plan_id":"free"},{"bike_id":"7b17078d-5e98-4e78-8856-10e149c29f50","system_id":"levelo_inurba_marseille","lat":43.260225,"lon":5.375455,"is_reserved":false,"is_disabled":false,"rental_uris":{"android":"levelo://app?vid=7b17078d-5e98-4e78-8856-10e149c29f50","ios":"levelo://app?vid=7b17078d-5e98-4e78-8856-10e149c29f50"},"vehicle_type_id":"4","last_reported":1703941617,"current_range_meters":18000,"station_id":"ce4bhgh2rcd13ifvqfa0","pricing_plan_id":"free"},{"bike_id":"504ec293-be18-4653-9260-9c6c6945baa0","system_id":"levelo_inurba_marseille","lat":43.260306,"lon":5.375482,"is_reserved":false,"is_disabled":false,"rental_uris":{"android":"levelo://app?vid=504ec293-be18-4653-9260-9c6c6945baa0","ios":"levelo://app?vid=504ec293-be18-4653-9260-9c6c6945baa0"},"vehicle_type_id":"4","last_reported":1703941617,"current_range_meters":20800,"station_id":"ce4bhgh2rcd13ifvqfa0","pricing_plan_id":"free"},{"bike_id":"ae4d9165-e28e-4d9a-96b2-f52818c16b4e","system_id":"levelo_inurba_marseille","lat":43.281548,"lon":5.42643,"is_reserved":false,"is_disabled":false,"rental_uris":{"android":"levelo://app?vid=ae4d9165-e28e-4d9a-96b2-f52818c16b4e","ios":"levelo://app?vid=ae4d9165-e28e-4d9a-96b2-f52818c16b4e"},"vehicle_type_id":"4","last_reported":1703941617,"current_range_meters":18800,"station_id":"ce4bhnh2rcd13ifvqgug","pricing_plan_id":"free"},{"bike_id":"ec8458b6-1fb5-4614-9241-fb8ba40a0abd","system_id":"levelo_inurba_marseille","lat":43.28147,"lon":5.42634,"is_reserved":false,"is_disabled":false,"rental_uris":{"android":"levelo://app?vid=ec8458b6-1fb5-4614-9241-fb8ba40a0abd","ios":"levelo://app?vid=ec8458b6-1fb5-4614-9241-fb8ba40a0abd"},"vehicle_type_id":"4","last_reported":1703941617,"current_range_meters":12800,"station_id":"ce4bhnh2rcd13ifvqgug","pricing_plan_id":"free"},{"bike_id":"c75538d5-d755-4926-9c21-3f6dd23b660c","system_id":"levelo_inurba_marseille","lat":43.281548,"lon":5.42643,"is_reserved":false,"is_disabled":false,"rental_uris":{"android":"levelo://app?vid=c75538d5-d755-4926-9c21-3f6dd23b660c","ios":"levelo://app?vid=c75538d5-d755-4926-9c21-3f6dd23b660c"},"vehicle_type_id":"4","last_reported":1703941617,"current_range_meters":31600,"station_id":"ce4bhnh2rcd13ifvqgug","pricing_plan_id":"free"},{"bike_id":"5d930623-1700-4edf-912e-ad87127e34b2","system_id":"levelo_inurba_marseille","lat":43.281548,"lon":5.42643,"is_reserved":false,"is_disabled":false,"rental_uris":{"android":"levelo://app?vid=5d930623-1700-4edf-912e-ad87127e34b2","ios":"levelo://app?vid=5d930623-1700-4edf-912e-ad87127e34b2"},"vehicle_type_id":"4","last_reported":1703941617,"current_range_meters":12800,"station_id":"ce4bhnh2rcd13ifvqgug","pricing_plan_id":"free"},{"bike_id":"dba94adf-8631-4e52-b14e-ab5df234ae8e","system_id":"levelo_inurba_marseille","lat":43.281548,"lon":5.42643,"is_reserved":false,"is_disabled":false,"rental_uris":{"android":"levelo://app?vid=dba94adf-8631-4e52-b14e-ab5df234ae8e","ios":"levelo://app?vid=dba94adf-8631-4e52-b14e-ab5df234ae8e"},"vehicle_type_id":"4","last_reported":1703941617,"current_range_meters":31200,"station_id":"ce4bhnh2rcd13ifvqgug","pricing_plan_id":"free"},{"bike_id":"0c5cb810-16ed-4b8f-9df0-3ac1374db3bf","system_id":"levelo_inurba_marseille","lat":43.28152,"lon":5.42649,"is_reserved":false,"is_disabled":false,"rental_uris":{"android":"levelo://app?vid=0c5cb810-16ed-4b8f-9df0-3ac1374db3bf","ios":"levelo://app?vid=0c5cb810-16ed-4b8f-9df0-3ac1374db3bf"},"vehicle_type_id":"4","last_reported":1703941617,"current_range_meters":28400,"station_id":"ce4bhnh2rcd13ifvqgug","pricing_plan_id":"free"},{"bike_id":"4d6725a6-1e2a-4112-a07f-e2ef097e0013","system_id":"levelo_inurba_marseille","lat":43.28152,"lon":5.4265,"is_reserved":false,"is_disabled":false,"rental_uris":{"android":"levelo://app?vid=4d6725a6-1e2a-4112-a07f-e2ef097e0013","ios":"levelo://app?vid=4d6725a6-1e2a-4112-a07f-e2ef097e0013"},"vehicle_type_id":"4","last_reported":1703941617,"current_range_meters":23200,"station_id":"ce4bhnh2rcd13ifvqgug","pricing_plan_id":"free"},{"bike_id":"512100d2-6ca0-4430-82d1-786761969427","system_id":"levelo_inurba_marseille","lat":43.28152,"lon":5.42651,"is_reserved":false,"is_disabled":false,"rental_uris":{"android":"levelo://app?vid=512100d2-6ca0-4430-82d1-786761969427","ios":"levelo://app?vid=512100d2-6ca0-4430-82d1-786761969427"},"vehicle_type_id":"4","last_reported":1703941617,"current_range_meters":19200,"station_id":"ce4bhnh2rcd13ifvqgug","pricing_plan_id":"free"},{"bike_id":"d1ddac62-6636-4841-9147-de199dd47aab","system_id":"levelo_inurba_marseille","lat":43.2607,"lon":5.393983,"is_reserved":false,"is_disabled":false,"rental_uris":{"android":"levelo://app?vid=d1ddac62-6636-4841-9147-de199dd47aab","ios":"levelo://app?vid=d1ddac62-6636-4841-9147-de199dd47aab"},"vehicle_type_id":"4","last_reported":1703941617,"current_range_meters":28400,"station_id":"ce4bhh92rcd13ifvqfj0","pricing_plan_id":"free"},{"bike_id":"89ad69b9-0b0a-42aa-867a-d735e5e5ea75","system_id":"levelo_inurba_marseille","lat":43.275028,"lon":5.424534,"is_reserved":false,"is_disabled":false,"rental_uris":{"android":"levelo://app?vid=89ad69b9-0b0a-42aa-867a-d735e5e5ea75","ios":"levelo://app?vid=89ad69b9-0b0a-42aa-867a-d735e5e5ea75"},"vehicle_type_id":"4","last_reported":1703941617,"current_range_meters":31600,"station_id":"ce4bhn92rcd13ifvqgrg","pricing_plan_id":"free"},{"bike_id":"8a14b996-95b5-4b00-a9f8-eb8984567351","system_id":"levelo_inurba_marseille","lat":43.275028,"lon":5.424534,"is_reserved":false,"is_disabled":false,"rental_uris":{"android":"levelo://app?vid=8a14b996-95b5-4b00-a9f8-eb8984567351","ios":"levelo://app?vid=8a14b996-95b5-4b00-a9f8-eb8984567351"},"vehicle_type_id":"4","last_reported":1703941617,"current_range_meters":20000,"station_id":"ce4bhn92rcd13ifvqgrg","pricing_plan_id":"free"},{"bike_id":"5f853402-cea6-4f0d-ab6c-f0eff1575dff","system_id":"levelo_inurba_marseille","lat":43.275028,"lon":5.424534,"is_reserved":false,"is_disabled":false,"rental_uris":{"android":"levelo://app?vid=5f853402-cea6-4f0d-ab6c-f0eff1575dff","ios":"levelo://app?vid=5f853402-cea6-4f0d-ab6c-f0eff1575dff"},"vehicle_type_id":"4","last_reported":1703941617,"current_range_meters":28400,"station_id":"ce4bhn92rcd13ifvqgrg","pricing_plan_id":"free"},{"bike_id":"a44dd3b3-8566-4261-a80e-16d24b31c939","system_id":"levelo_inurba_marseille","lat":43.275028,"lon":5.424534,"is_reserved":false,"is_disabled":false,"rental_uris":{"android":"levelo://app?vid=a44dd3b3-8566-4261-a80e-16d24b31c939","ios":"levelo://app?vid=a44dd3b3-8566-4261-a80e-16d24b31c939"},"vehicle_type_id":"4","last_reported":1703941617,"current_range_meters":13600,"station_id":"ce4bhn92rcd13ifvqgrg","pricing_plan_id":"free"},{"bike_id":"cdfd3b4f-e787-42c0-ab2a-cac6378ab513","system_id":"levelo_inurba_marseille","lat":43.255756,"lon":5.382303,"is_reserved":false,"is_disabled":false,"rental_uris":{"android":"levelo://app?vid=cdfd3b4f-e787-42c0-ab2a-cac6378ab513","ios":"levelo://app?vid=cdfd3b4f-e787-42c0-ab2a-cac6378ab513"},"vehicle_type_id":"4","last_reported":1703941617,"current_range_meters":25600,"station_id":"ce4bhih2rcd13ifvqfs0","pricing_plan_id":"free"},{"bike_id":"37c1f02a-96c8-4bae-befd-3436a54bc23c","system_id":"levelo_inurba_marseille","lat":43.255756,"lon":5.382303,"is_reserved":false,"is_disabled":false,"rental_uris":{"android":"levelo://app?vid=37c1f02a-96c8-4bae-befd-3436a54bc23c","ios":"levelo://app?vid=37c1f02a-96c8-4bae-befd-3436a54bc23c"},"vehicle_type_id":"4","last_reported":1703941617,"current_range_meters":1600,"station_id":"ce4bhih2rcd13ifvqfs0","pricing_plan_id":"free"},{"bike_id":"1a06761c-1d75-4a2d-90da-90d4ab3b55b0","system_id":"levelo_inurba_marseille","lat":43.258224,"lon":5.394369,"is_reserved":false,"is_disabled":false,"rental_uris":{"android":"levelo://app?vid=1a06761c-1d75-4a2d-90da-90d4ab3b55b0","ios":"levelo://app?vid=1a06761c-1d75-4a2d-90da-90d4ab3b55b0"},"vehicle_type_id":"4","last_reported":1703941617,"current_range_meters":27200,"station_id":"ce4bhip2rcd13ifvqft0","pricing_plan_id":"free"},{"bike_id":"5829487d-a69a-4ecc-8437-772a7aac21e7","system_id":"levelo_inurba_marseille","lat":43.258224,"lon":5.394369,"is_reserved":false,"is_disabled":false,"rental_uris":{"android":"levelo://app?vid=5829487d-a69a-4ecc-8437-772a7aac21e7","ios":"levelo://app?vid=5829487d-a69a-4ecc-8437-772a7aac21e7"},"vehicle_type_id":"4","last_reported":1703941617,"current_range_meters":31600,"station_id":"ce4bhip2rcd13ifvqft0","pricing_plan_id":"free"},{"bike_id":"368fed64-ab2a-42e1-afba-446309045d82","system_id":"levelo_inurba_marseille","lat":43.254947,"lon":5.376454,"is_reserved":false,"is_disabled":false,"rental_uris":{"android":"levelo://app?vid=368fed64-ab2a-42e1-afba-446309045d82","ios":"levelo://app?vid=368fed64-ab2a-42e1-afba-446309045d82"},"vehicle_type_id":"4","last_reported":1703941617,"current_range_meters":23200,"station_id":"ce4bhh12rcd13ifvqff0","pricing_plan_id":"free"},{"bike_id":"6ec77c25-87e7-482f-be42-5936ba5ce0d8","system_id":"levelo_inurba_marseille","lat":43.254947,"lon":5.376454,"is_reserved":false,"is_disabled":false,"rental_uris":{"android":"levelo://app?vid=6ec77c25-87e7-482f-be42-5936ba5ce0d8","ios":"levelo://app?vid=6ec77c25-87e7-482f-be42-5936ba5ce0d8"},"vehicle_type_id":"4","last_reported":1703941617,"current_range_meters":20000,"station_id":"ce4bhh12rcd13ifvqff0","pricing_plan_id":"free"},{"bike_id":"c0e0a866-c7bd-461b-ba01-cbd19adf6473","system_id":"levelo_inurba_marseille","lat":43.254945,"lon":5.376454,"is_reserved":false,"is_disabled":false,"rental_uris":{"android":"levelo://app?vid=c0e0a866-c7bd-461b-ba01-cbd19adf6473","ios":"levelo://app?vid=c0e0a866-c7bd-461b-ba01-cbd19adf6473"},"vehicle_type_id":"4","last_reported":1703941617,"current_range_meters":17600,"station_id":"ce4bhh12rcd13ifvqff0","pricing_plan_id":"free"},{"bike_id":"28a209a3-ec72-48b1-87a9-f6e44a3e3f19","system_id":"levelo_inurba_marseille","lat":43.254945,"lon":5.376454,"is_reserved":false,"is_disabled":false,"rental_uris":{"android":"levelo://app?vid=28a209a3-ec72-48b1-87a9-f6e44a3e3f19","ios":"levelo://app?vid=28a209a3-ec72-48b1-87a9-f6e44a3e3f19"},"vehicle_type_id":"4","last_reported":1703941617,"current_range_meters":30800,"station_id":"ce4bhh12rcd13ifvqff0","pricing_plan_id":"free"},{"bike_id":"058db0be-b42d-4243-b63d-30b10ba6fc4d","system_id":"levelo_inurba_marseille","lat":43.254945,"lon":5.376454,"is_reserved":false,"is_disabled":false,"rental_uris":{"android":"levelo://app?vid=058db0be-b42d-4243-b63d-30b10ba6fc4d","ios":"levelo://app?vid=058db0be-b42d-4243-b63d-30b10ba6fc4d"},"vehicle_type_id":"4","last_reported":1703941617,"current_range_meters":23200,"station_id":"ce4bhh12rcd13ifvqff0","pricing_plan_id":"free"},{"bike_id":"cb3bc395-f945-4361-abec-7872fc03a5f6","system_id":"levelo_inurba_marseille","lat":43.25492,"lon":5.37651,"is_reserved":false,"is_disabled":false,"rental_uris":{"android":"levelo://app?vid=cb3bc395-f945-4361-abec-7872fc03a5f6","ios":"levelo://app?vid=cb3bc395-f945-4361-abec-7872fc03a5f6"},"vehicle_type_id":"4","last_reported":1703941617,"current_range_meters":27200,"station_id":"ce4bhh12rcd13ifvqff0","pricing_plan_id":"free"},{"bike_id":"a801bc45-a4b0-4596-870e-955d099d01ea","system_id":"levelo_inurba_marseille","lat":43.270721,"lon":5.422764,"is_reserved":false,"is_disabled":false,"rental_uris":{"android":"levelo://app?vid=a801bc45-a4b0-4596-870e-955d099d01ea","ios":"levelo://app?vid=a801bc45-a4b0-4596-870e-955d099d01ea"},"vehicle_type_id":"4","last_reported":1703941617,"current_range_meters":9600,"station_id":"ce4bhk92rcd13ifvqgb0","pricing_plan_id":"free"},{"bike_id":"d7013018-aa77-4b78-b319-70da3c7071e3","system_id":"levelo_inurba_marseille","lat":43.270721,"lon":5.422764,"is_reserved":false,"is_disabled":false,"rental_uris":{"android":"levelo://app?vid=d7013018-aa77-4b78-b319-70da3c7071e3","ios":"levelo://app?vid=d7013018-aa77-4b78-b319-70da3c7071e3"},"vehicle_type_id":"4","last_reported":1703941617,"current_range_meters":15600,"station_id":"ce4bhk92rcd13ifvqgb0","pricing_plan_id":"free"},{"bike_id":"3d04cad6-8e55-4b7d-b6b1-3ba800e08c5e","system_id":"levelo_inurba_marseille","lat":43.270721,"lon":5.422764,"is_reserved":false,"is_disabled":false,"rental_uris":{"android":"levelo://app?vid=3d04cad6-8e55-4b7d-b6b1-3ba800e08c5e","ios":"levelo://app?vid=3d04cad6-8e55-4b7d-b6b1-3ba800e08c5e"},"vehicle_type_id":"4","last_reported":1703941617,"current_range_meters":31600,"station_id":"ce4bhk92rcd13ifvqgb0","pricing_plan_id":"free"},{"bike_id":"91e4a3ae-a94b-4ac3-86a5-c9ad5a424653","system_id":"levelo_inurba_marseille","lat":43.258586,"lon":5.398947,"is_reserved":false,"is_disabled":false,"rental_uris":{"android":"levelo://app?vid=91e4a3ae-a94b-4ac3-86a5-c9ad5a424653","ios":"levelo://app?vid=91e4a3ae-a94b-4ac3-86a5-c9ad5a424653"},"vehicle_type_id":"4","last_reported":1703941617,"current_range_meters":26400,"station_id":"ce4bhl92rcd13ifvqghg","pricing_plan_id":"free"},{"bike_id":"a7ad4b1b-261c-42d5-bf87-b9c6ed47128c","system_id":"levelo_inurba_marseille","lat":43.2936,"lon":5.37835,"is_reserved":false,"is_disabled":false,"rental_uris":{"android":"levelo://app?vid=a7ad4b1b-261c-42d5-bf87-b9c6ed47128c","ios":"levelo://app?vid=a7ad4b1b-261c-42d5-bf87-b9c6ed47128c"},"vehicle_type_id":"4","last_reported":1703941617,"current_range_meters":21600,"station_id":"ce4bgjh2rcd13ifvqbf0","pricing_plan_id":"free"},{"bike_id":"d08da707-74ee-4457-b61b-3d1477b00aa3","system_id":"levelo_inurba_marseille","lat":43.257079,"lon":5.411051,"is_reserved":false,"is_disabled":false,"rental_uris":{"android":"levelo://app?vid=d08da707-74ee-4457-b61b-3d1477b00aa3","ios":"levelo://app?vid=d08da707-74ee-4457-b61b-3d1477b00aa3"},"vehicle_type_id":"4","last_reported":1703941617,"current_range_meters":29200,"station_id":"ce4bhkp2rcd13ifvqgd0","pricing_plan_id":"free"},{"bike_id":"7df8baad-1d85-4656-a955-af598590a70f","system_id":"levelo_inurba_marseille","lat":43.2479,"lon":5.374457,"is_reserved":false,"is_disabled":false,"rental_uris":{"android":"levelo://app?vid=7df8baad-1d85-4656-a955-af598590a70f","ios":"levelo://app?vid=7df8baad-1d85-4656-a955-af598590a70f"},"vehicle_type_id":"4","last_reported":1703941617,"current_range_meters":4400,"station_id":"ce4bhgh2rcd13ifvqfb0","pricing_plan_id":"free"},{"bike_id":"fcf0eaeb-b08c-439d-a90b-f7e49cebd858","system_id":"levelo_inurba_marseille","lat":43.2479,"lon":5.374457,"is_reserved":false,"is_disabled":false,"rental_uris":{"android":"levelo://app?vid=fcf0eaeb-b08c-439d-a90b-f7e49cebd858","ios":"levelo://app?vid=fcf0eaeb-b08c-439d-a90b-f7e49cebd858"},"vehicle_type_id":"4","last_reported":1703941617,"current_range_meters":25200,"station_id":"ce4bhgh2rcd13ifvqfb0","pricing_plan_id":"free"},{"bike_id":"3f4d6c57-4383-49f7-a05d-9b345d12461f","system_id":"levelo_inurba_marseille","lat":43.2479,"lon":5.374457,"is_reserved":false,"is_disabled":false,"rental_uris":{"android":"levelo://app?vid=3f4d6c57-4383-49f7-a05d-9b345d12461f","ios":"levelo://app?vid=3f4d6c57-4383-49f7-a05d-9b345d12461f"},"vehicle_type_id":"4","last_reported":1703941617,"current_range_meters":20400,"station_id":"ce4bhgh2rcd13ifvqfb0","pricing_plan_id":"free"},{"bike_id":"42877296-39ed-4866-9c00-da628c6ba13e","system_id":"levelo_inurba_marseille","lat":43.2479,"lon":5.374457,"is_reserved":false,"is_disabled":false,"rental_uris":{"android":"levelo://app?vid=42877296-39ed-4866-9c00-da628c6ba13e","ios":"levelo://app?vid=42877296-39ed-4866-9c00-da628c6ba13e"},"vehicle_type_id":"4","last_reported":1703941617,"current_range_meters":17600,"station_id":"ce4bhgh2rcd13ifvqfb0","pricing_plan_id":"free"},{"bike_id":"7698445e-9e22-4a33-b392-3a5d9d669943","system_id":"levelo_inurba_marseille","lat":43.2479,"lon":5.374457,"is_reserved":false,"is_disabled":false,"rental_uris":{"android":"levelo://app?vid=7698445e-9e22-4a33-b392-3a5d9d669943","ios":"levelo://app?vid=7698445e-9e22-4a33-b392-3a5d9d669943"},"vehicle_type_id":"4","last_reported":1703941617,"current_range_meters":30800,"station_id":"ce4bhgh2rcd13ifvqfb0","pricing_plan_id":"free"},{"bike_id":"1d189a36-3684-4960-964c-5a2d05641d62","system_id":"levelo_inurba_marseille","lat":43.24693,"lon":5.382096,"is_reserved":false,"is_disabled":false,"rental_uris":{"android":"levelo://app?vid=1d189a36-3684-4960-964c-5a2d05641d62","ios":"levelo://app?vid=1d189a36-3684-4960-964c-5a2d05641d62"},"vehicle_type_id":"4","last_reported":1703941617,"current_range_meters":29200,"station_id":"ce4bhih2rcd13ifvqfr0","pricing_plan_id":"free"},{"bike_id":"7a887e5f-d53b-40d1-bfe0-b23f995df535","system_id":"levelo_inurba_marseille","lat":43.24665,"lon":5.3817,"is_reserved":false,"is_disabled":false,"rental_uris":{"android":"levelo://app?vid=7a887e5f-d53b-40d1-bfe0-b23f995df535","ios":"levelo://app?vid=7a887e5f-d53b-40d1-bfe0-b23f995df535"},"vehicle_type_id":"4","last_reported":1703941617,"current_range_meters":24800,"station_id":"ce4bhih2rcd13ifvqfr0","pricing_plan_id":"free"},{"bike_id":"a0c528eb-3ae5-4d16-b5d3-7240cae6a4e9","system_id":"levelo_inurba_marseille","lat":43.25102,"lon":5.403214,"is_reserved":false,"is_disabled":false,"rental_uris":{"android":"levelo://app?vid=a0c528eb-3ae5-4d16-b5d3-7240cae6a4e9","ios":"levelo://app?vid=a0c528eb-3ae5-4d16-b5d3-7240cae6a4e9"},"vehicle_type_id":"4","last_reported":1703941617,"current_range_meters":13200,"station_id":"ce4bhlh2rcd13ifvqgig","pricing_plan_id":"free"},{"bike_id":"a0e4bcce-b67b-4057-9de9-07cbf6c98d38","system_id":"levelo_inurba_marseille","lat":43.246461,"lon":5.389014,"is_reserved":false,"is_disabled":false,"rental_uris":{"android":"levelo://app?vid=a0e4bcce-b67b-4057-9de9-07cbf6c98d38","ios":"levelo://app?vid=a0e4bcce-b67b-4057-9de9-07cbf6c98d38"},"vehicle_type_id":"4","last_reported":1703941617,"current_range_meters":28000,"station_id":"ce4bhg12rcd13ifvqf60","pricing_plan_id":"free"},{"bike_id":"f13e30de-55f4-4c3a-ba16-b339ec4bfd8c","system_id":"levelo_inurba_marseille","lat":43.243884,"lon":5.370736,"is_reserved":false,"is_disabled":false,"rental_uris":{"android":"levelo://app?vid=f13e30de-55f4-4c3a-ba16-b339ec4bfd8c","ios":"levelo://app?vid=f13e30de-55f4-4c3a-ba16-b339ec4bfd8c"},"vehicle_type_id":"4","last_reported":1703941617,"current_range_meters":14000,"station_id":"ce4bhhh2rcd13ifvqfk0","pricing_plan_id":"free"},{"bike_id":"7a82d0a3-9126-4f2a-9067-5d4f63485e15","system_id":"levelo_inurba_marseille","lat":43.24389,"lon":5.37052,"is_reserved":false,"is_disabled":false,"rental_uris":{"android":"levelo://app?vid=7a82d0a3-9126-4f2a-9067-5d4f63485e15","ios":"levelo://app?vid=7a82d0a3-9126-4f2a-9067-5d4f63485e15"},"vehicle_type_id":"4","last_reported":1703941617,"current_range_meters":18800,"station_id":"ce4bhhh2rcd13ifvqfk0","pricing_plan_id":"free"},{"bike_id":"6dcf6470-439b-4c8f-ba4e-fc8bd4002e28","system_id":"levelo_inurba_marseille","lat":43.24389,"lon":5.37058,"is_reserved":false,"is_disabled":false,"rental_uris":{"android":"levelo://app?vid=6dcf6470-439b-4c8f-ba4e-fc8bd4002e28","ios":"levelo://app?vid=6dcf6470-439b-4c8f-ba4e-fc8bd4002e28"},"vehicle_type_id":"4","last_reported":1703941617,"current_range_meters":31200,"station_id":"ce4bhhh2rcd13ifvqfk0","pricing_plan_id":"free"},{"bike_id":"3a684c62-fcb8-42c0-a554-040f6848c5a4","system_id":"levelo_inurba_marseille","lat":43.243884,"lon":5.370736,"is_reserved":false,"is_disabled":false,"rental_uris":{"android":"levelo://app?vid=3a684c62-fcb8-42c0-a554-040f6848c5a4","ios":"levelo://app?vid=3a684c62-fcb8-42c0-a554-040f6848c5a4"},"vehicle_type_id":"4","last_reported":1703941617,"current_range_meters":17600,"station_id":"ce4bhhh2rcd13ifvqfk0","pricing_plan_id":"free"},{"bike_id":"c7f2a65c-c33a-47fb-8f1b-28b8954e054a","system_id":"levelo_inurba_marseille","lat":43.24387,"lon":5.3706,"is_reserved":false,"is_disabled":false,"rental_uris":{"android":"levelo://app?vid=c7f2a65c-c33a-47fb-8f1b-28b8954e054a","ios":"levelo://app?vid=c7f2a65c-c33a-47fb-8f1b-28b8954e054a"},