{"last_updated":1700298363,"ttl":30,"version":"2.2","data":{"bikes":[{"bike_id":"34fd1439-16bd-4d51-9c4b-62f9275f7025","system_id":"levelo_inurba_marseille","lat":43.313391,"lon":5.36706,"is_reserved":false,"is_disabled":false,"rental_uris":{"android":"levelo://app?vid=34fd1439-16bd-4d51-9c4b-62f9275f7025","ios":"levelo://app?vid=34fd1439-16bd-4d51-9c4b-62f9275f7025"},"vehicle_type_id":"4","last_reported":1700298363,"current_range_meters":26800,"station_id":"ce4bgr92rcd13ifvqc6g","pricing_plan_id":"free"},{"bike_id":"0167ba4d-9aa7-49f9-9efd-81305aa84f34","system_id":"levelo_inurba_marseille","lat":43.31341,"lon":5.367098,"is_reserved":false,"is_disabled":false,"rental_uris":{"android":"levelo://app?vid=0167ba4d-9aa7-49f9-9efd-81305aa84f34","ios":"levelo://app?vid=0167ba4d-9aa7-49f9-9efd-81305aa84f34"},"vehicle_type_id":"4","last_reported":1700298363,"current_range_meters":20000,"station_id":"ce4bgr92rcd13ifvqc6g","pricing_plan_id":"free"},{"bike_id":"943dfc2f-eec4-44b8-ae3a-bf8f278b58c3","system_id":"levelo_inurba_marseille","lat":43.311537,"lon":5.368838,"is_reserved":false,"is_disabled":false,"rental_uris":{"android":"levelo://app?vid=943dfc2f-eec4-44b8-ae3a-bf8f278b58c3","ios":"levelo://app?vid=943dfc2f-eec4-44b8-ae3a-bf8f278b58c3"},"vehicle_type_id":"4","last_reported":1700298363,"current_range_meters":1200,"station_id":"","pricing_plan_id":"free"},{"bike_id":"3bdaa843-2d60-4f5d-9767-948c7d3d31a3","system_id":"levelo_inurba_marseille","lat":43.309039,"lon":5.371797,"is_reserved":false,"is_disabled":false,"rental_uris":{"android":"levelo://app?vid=3bdaa843-2d60-4f5d-9767-948c7d3d31a3","ios":"levelo://app?vid=3bdaa843-2d60-4f5d-9767-948c7d3d31a3"},"vehicle_type_id":"4","last_reported":1700298363,"current_range_meters":11600,"station_id":"ce4bguh2rcd13ifvqckg","pricing_plan_id":"free"},{"bike_id":"3475d204-43b6-43d9-b615-ca1d0d58200e","system_id":"levelo_inurba_marseille","lat":43.30679,"lon":5.3679,"is_reserved":false,"is_disabled":false,"rental_uris":{"android":"levelo://app?vid=3475d204-43b6-43d9-b615-ca1d0d58200e","ios":"levelo://app?vid=3475d204-43b6-43d9-b615-ca1d0d58200e"},"vehicle_type_id":"4","last_reported":1700298363,"current_range_meters":15200,"station_id":"","pricing_plan_id":"free"},{"bike_id":"450fbacf-9a57-4c17-b684-6392b0940649","system_id":"levelo_inurba_marseille","lat":43.305712,"lon":5.365641,"is_reserved":false,"is_disabled":false,"rental_uris":{"android":"levelo://app?vid=450fbacf-9a57-4c17-b684-6392b0940649","ios":"levelo://app?vid=450fbacf-9a57-4c17-b684-6392b0940649"},"vehicle_type_id":"4","last_reported":1700298363,"current_range_meters":16800,"station_id":"ce4bgs12rcd13ifvqcag","pricing_plan_id":"free"},{"bike_id":"c1ae378a-e8f6-4800-8d96-9d88dc30ca5e","system_id":"levelo_inurba_marseille","lat":43.305712,"lon":5.365641,"is_reserved":false,"is_disabled":false,"rental_uris":{"android":"levelo://app?vid=c1ae378a-e8f6-4800-8d96-9d88dc30ca5e","ios":"levelo://app?vid=c1ae378a-e8f6-4800-8d96-9d88dc30ca5e"},"vehicle_type_id":"4","last_reported":1700298363,"current_range_meters":27200,"station_id":"ce4bgs12rcd13ifvqcag","pricing_plan_id":"free"},{"bike_id":"2b1dfaeb-ba43-479d-8878-76dde8cc1a84","system_id":"levelo_inurba_marseille","lat":43.305712,"lon":5.365641,"is_reserved":false,"is_disabled":false,"rental_uris":{"android":"levelo://app?vid=2b1dfaeb-ba43-479d-8878-76dde8cc1a84","ios":"levelo://app?vid=2b1dfaeb-ba43-479d-8878-76dde8cc1a84"},"vehicle_type_id":"4","last_reported":1700298363,"current_range_meters":17200,"station_id":"ce4bgs12rcd13ifvqcag","pricing_plan_id":"free"},{"bike_id":"37be2390-8de3-4dc3-8241-1258c7966a04","system_id":"levelo_inurba_marseille","lat":43.305368,"lon":5.367343,"is_reserved":false,"is_disabled":false,"rental_uris":{"android":"levelo://app?vid=37be2390-8de3-4dc3-8241-1258c7966a04","ios":"levelo://app?vid=37be2390-8de3-4dc3-8241-1258c7966a04"},"vehicle_type_id":"4","last_reported":1700298363,"current_range_meters":12800,"station_id":"ce4bgrp2rcd13ifvqc9g","pricing_plan_id":"free"},{"bike_id":"7bba820e-0352-4608-94bc-78bf29f00b34","system_id":"levelo_inurba_marseille","lat":43.305712,"lon":5.365641,"is_reserved":false,"is_disabled":false,"rental_uris":{"android":"levelo://app?vid=7bba820e-0352-4608-94bc-78bf29f00b34","ios":"levelo://app?vid=7bba820e-0352-4608-94bc-78bf29f00b34"},"vehicle_type_id":"4","last_reported":1700298363,"current_range_meters":26000,"station_id":"ce4bgs12rcd13ifvqcag","pricing_plan_id":"free"},{"bike_id":"47b77478-529b-4dd6-9747-37a03bff3680","system_id":"levelo_inurba_marseille","lat":43.305714,"lon":5.365633,"is_reserved":false,"is_disabled":false,"rental_uris":{"android":"levelo://app?vid=47b77478-529b-4dd6-9747-37a03bff3680","ios":"levelo://app?vid=47b77478-529b-4dd6-9747-37a03bff3680"},"vehicle_type_id":"4","last_reported":1700298363,"current_range_meters":31200,"station_id":"ce4bgs12rcd13ifvqcag","pricing_plan_id":"free"},{"bike_id":"c89b6022-0b04-44f0-bb8d-00b8bddaa14f","system_id":"levelo_inurba_marseille","lat":43.319516,"lon":5.371077,"is_reserved":false,"is_disabled":false,"rental_uris":{"android":"levelo://app?vid=c89b6022-0b04-44f0-bb8d-00b8bddaa14f","ios":"levelo://app?vid=c89b6022-0b04-44f0-bb8d-00b8bddaa14f"},"vehicle_type_id":"4","last_reported":1700298363,"current_range_meters":6000,"station_id":"","pricing_plan_id":"free"},{"bike_id":"2ba03a74-49af-46a3-bd1d-336067bd2f39","system_id":"levelo_inurba_marseille","lat":43.305706,"lon":5.365654,"is_reserved":false,"is_disabled":false,"rental_uris":{"android":"levelo://app?vid=2ba03a74-49af-46a3-bd1d-336067bd2f39","ios":"levelo://app?vid=2ba03a74-49af-46a3-bd1d-336067bd2f39"},"vehicle_type_id":"4","last_reported":1700298363,"current_range_meters":30000,"station_id":"ce4bgs12rcd13ifvqcag","pricing_plan_id":"free"},{"bike_id":"2d49cb03-7339-4a21-98db-beedb60a2a4c","system_id":"levelo_inurba_marseille","lat":43.30497,"lon":5.370738,"is_reserved":false,"is_disabled":false,"rental_uris":{"android":"levelo://app?vid=2d49cb03-7339-4a21-98db-beedb60a2a4c","ios":"levelo://app?vid=2d49cb03-7339-4a21-98db-beedb60a2a4c"},"vehicle_type_id":"4","last_reported":1700298363,"current_range_meters":0,"station_id":"","pricing_plan_id":"free"},{"bike_id":"dcbf9c93-0758-41cf-8699-4ede01d69428","system_id":"levelo_inurba_marseille","lat":43.30821,"lon":5.376525,"is_reserved":false,"is_disabled":false,"rental_uris":{"android":"levelo://app?vid=dcbf9c93-0758-41cf-8699-4ede01d69428","ios":"levelo://app?vid=dcbf9c93-0758-41cf-8699-4ede01d69428"},"vehicle_type_id":"4","last_reported":1700298363,"current_range_meters":16800,"station_id":"ce4bgv92rcd13ifvqcq0","pricing_plan_id":"free"},{"bike_id":"14453bc6-820b-496a-91c5-bd1a7f559527","system_id":"levelo_inurba_marseille","lat":43.308123,"lon":5.376529,"is_reserved":false,"is_disabled":false,"rental_uris":{"android":"levelo://app?vid=14453bc6-820b-496a-91c5-bd1a7f559527","ios":"levelo://app?vid=14453bc6-820b-496a-91c5-bd1a7f559527"},"vehicle_type_id":"4","last_reported":1700298363,"current_range_meters":12000,"station_id":"ce4bgv92rcd13ifvqcq0","pricing_plan_id":"free"},{"bike_id":"a0bf007d-8cc7-47b9-87d7-f4c1e2967e97","system_id":"levelo_inurba_marseille","lat":43.307945,"lon":5.376487,"is_reserved":false,"is_disabled":false,"rental_uris":{"android":"levelo://app?vid=a0bf007d-8cc7-47b9-87d7-f4c1e2967e97","ios":"levelo://app?vid=a0bf007d-8cc7-47b9-87d7-f4c1e2967e97"},"vehicle_type_id":"4","last_reported":1700298363,"current_range_meters":30400,"station_id":"ce4bgv92rcd13ifvqcq0","pricing_plan_id":"free"},{"bike_id":"57053367-5328-4d78-8951-737f56b37ed9","system_id":"levelo_inurba_marseille","lat":43.319924,"lon":5.373389,"is_reserved":false,"is_disabled":false,"rental_uris":{"android":"levelo://app?vid=57053367-5328-4d78-8951-737f56b37ed9","ios":"levelo://app?vid=57053367-5328-4d78-8951-737f56b37ed9"},"vehicle_type_id":"4","last_reported":1700298363,"current_range_meters":0,"station_id":"","pricing_plan_id":"free"},{"bike_id":"31c77e18-22df-4e60-bb38-0c6ea5224d91","system_id":"levelo_inurba_marseille","lat":43.31708,"lon":5.37742,"is_reserved":false,"is_disabled":false,"rental_uris":{"android":"levelo://app?vid=31c77e18-22df-4e60-bb38-0c6ea5224d91","ios":"levelo://app?vid=31c77e18-22df-4e60-bb38-0c6ea5224d91"},"vehicle_type_id":"4","last_reported":1700298363,"current_range_meters":4000,"station_id":"ce4bgth2rcd13ifvqch0","pricing_plan_id":"free"},{"bike_id":"222e1145-599f-4969-b25b-106200557af8","system_id":"levelo_inurba_marseille","lat":43.303046,"lon":5.368981,"is_reserved":false,"is_disabled":false,"rental_uris":{"android":"levelo://app?vid=222e1145-599f-4969-b25b-106200557af8","ios":"levelo://app?vid=222e1145-599f-4969-b25b-106200557af8"},"vehicle_type_id":"4","last_reported":1700298363,"current_range_meters":16000,"station_id":"ce4bgqh2rcd13ifvqc5g","pricing_plan_id":"free"},{"bike_id":"6f20e65c-5a19-46a8-bcb0-9377e9a4ebaa","system_id":"levelo_inurba_marseille","lat":43.315325,"lon":5.380288,"is_reserved":false,"is_disabled":false,"rental_uris":{"android":"levelo://app?vid=6f20e65c-5a19-46a8-bcb0-9377e9a4ebaa","ios":"levelo://app?vid=6f20e65c-5a19-46a8-bcb0-9377e9a4ebaa"},"vehicle_type_id":"4","last_reported":1700298363,"current_range_meters":0,"station_id":"ce4bhsp2rcd13ifvqi50","pricing_plan_id":"free"},{"bike_id":"9f1185cf-b7b1-41a1-850c-53e0b581e062","system_id":"levelo_inurba_marseille","lat":43.30469,"lon":5.37898,"is_reserved":false,"is_disabled":false,"rental_uris":{"android":"levelo://app?vid=9f1185cf-b7b1-41a1-850c-53e0b581e062","ios":"levelo://app?vid=9f1185cf-b7b1-41a1-850c-53e0b581e062"},"vehicle_type_id":"4","last_reported":1700298363,"current_range_meters":25600,"station_id":"ce4bgup2rcd13ifvqcn0","pricing_plan_id":"free"},{"bike_id":"bd3ef53c-b062-4d35-a9e4-15eda002f76a","system_id":"levelo_inurba_marseille","lat":43.304606,"lon":5.379026,"is_reserved":false,"is_disabled":false,"rental_uris":{"android":"levelo://app?vid=bd3ef53c-b062-4d35-a9e4-15eda002f76a","ios":"levelo://app?vid=bd3ef53c-b062-4d35-a9e4-15eda002f76a"},"vehicle_type_id":"4","last_reported":1700298363,"current_range_meters":30800,"station_id":"ce4bgup2rcd13ifvqcn0","pricing_plan_id":"free"},{"bike_id":"23fa0e69-0310-4834-ae8d-f9e881a334fe","system_id":"levelo_inurba_marseille","lat":43.30464,"lon":5.37896,"is_reserved":false,"is_disabled":false,"rental_uris":{"android":"levelo://app?vid=23fa0e69-0310-4834-ae8d-f9e881a334fe","ios":"levelo://app?vid=23fa0e69-0310-4834-ae8d-f9e881a334fe"},"vehicle_type_id":"4","last_reported":1700298363,"current_range_meters":23200,"station_id":"ce4bgup2rcd13ifvqcn0","pricing_plan_id":"free"},{"bike_id":"6b0466ad-8287-4df7-9fbc-c4626f6b5042","system_id":"levelo_inurba_marseille","lat":43.304606,"lon":5.379026,"is_reserved":false,"is_disabled":false,"rental_uris":{"android":"levelo://app?vid=6b0466ad-8287-4df7-9fbc-c4626f6b5042","ios":"levelo://app?vid=6b0466ad-8287-4df7-9fbc-c4626f6b5042"},"vehicle_type_id":"4","last_reported":1700298363,"current_range_meters":26000,"station_id":"ce4bgup2rcd13ifvqcn0","pricing_plan_id":"free"},{"bike_id":"35b5b719-c012-429f-b4a9-c0a02b75343f","system_id":"levelo_inurba_marseille","lat":43.30469,"lon":5.37909,"is_reserved":false,"is_disabled":false,"rental_uris":{"android":"levelo://app?vid=35b5b719-c012-429f-b4a9-c0a02b75343f","ios":"levelo://app?vid=35b5b719-c012-429f-b4a9-c0a02b75343f"},"vehicle_type_id":"4","last_reported":1700298363,"current_range_meters":18000,"station_id":"ce4bgup2rcd13ifvqcn0","pricing_plan_id":"free"},{"bike_id":"7f219acd-d2d2-43b0-844a-2c3762b4d714","system_id":"levelo_inurba_marseille","lat":43.30463,"lon":5.37902,"is_reserved":false,"is_disabled":false,"rental_uris":{"android":"levelo://app?vid=7f219acd-d2d2-43b0-844a-2c3762b4d714","ios":"levelo://app?vid=7f219acd-d2d2-43b0-844a-2c3762b4d714"},"vehicle_type_id":"4","last_reported":1700298363,"current_range_meters":23200,"station_id":"ce4bgup2rcd13ifvqcn0","pricing_plan_id":"free"},{"bike_id":"13d67d8f-fa0c-4c57-8fb8-797449f48b59","system_id":"levelo_inurba_marseille","lat":43.304606,"lon":5.379026,"is_reserved":false,"is_disabled":false,"rental_uris":{"android":"levelo://app?vid=13d67d8f-fa0c-4c57-8fb8-797449f48b59","ios":"levelo://app?vid=13d67d8f-fa0c-4c57-8fb8-797449f48b59"},"vehicle_type_id":"4","last_reported":1700298363,"current_range_meters":28000,"station_id":"ce4bgup2rcd13ifvqcn0","pricing_plan_id":"free"},{"bike_id":"dad05871-bbfe-4987-b9ee-9349a4cdcf23","system_id":"levelo_inurba_marseille","lat":43.304606,"lon":5.379026,"is_reserved":false,"is_disabled":false,"rental_uris":{"android":"levelo://app?vid=dad05871-bbfe-4987-b9ee-9349a4cdcf23","ios":"levelo://app?vid=dad05871-bbfe-4987-b9ee-9349a4cdcf23"},"vehicle_type_id":"4","last_reported":1700298363,"current_range_meters":31200,"station_id":"ce4bgup2rcd13ifvqcn0","pricing_plan_id":"free"},{"bike_id":"fb9d64da-a50a-4f6c-b0d4-784ee2d63b96","system_id":"levelo_inurba_marseille","lat":43.304606,"lon":5.379026,"is_reserved":false,"is_disabled":false,"rental_uris":{"android":"levelo://app?vid=fb9d64da-a50a-4f6c-b0d4-784ee2d63b96","ios":"levelo://app?vid=fb9d64da-a50a-4f6c-b0d4-784ee2d63b96"},"vehicle_type_id":"4","last_reported":1700298363,"current_range_meters":31200,"station_id":"ce4bgup2rcd13ifvqcn0","pricing_plan_id":"free"},{"bike_id":"92d338ae-8b02-4dbc-b933-a6a5dae60604","system_id":"levelo_inurba_marseille","lat":43.30457,"lon":5.37899,"is_reserved":false,"is_disabled":false,"rental_uris":{"android":"levelo://app?vid=92d338ae-8b02-4dbc-b933-a6a5dae60604","ios":"levelo://app?vid=92d338ae-8b02-4dbc-b933-a6a5dae60604"},"vehicle_type_id":"4","last_reported":1700298363,"current_range_meters":14000,"station_id":"ce4bgup2rcd13ifvqcn0","pricing_plan_id":"free"},{"bike_id":"99b5be2e-26f4-4b64-8393-7601b11ef411","system_id":"levelo_inurba_marseille","lat":43.30468,"lon":5.37915,"is_reserved":false,"is_disabled":false,"rental_uris":{"android":"levelo://app?vid=99b5be2e-26f4-4b64-8393-7601b11ef411","ios":"levelo://app?vid=99b5be2e-26f4-4b64-8393-7601b11ef411"},"vehicle_type_id":"4","last_reported":1700298363,"current_range_meters":23600,"station_id":"ce4bgup2rcd13ifvqcn0","pricing_plan_id":"free"},{"bike_id":"15e939e2-22e7-443c-b029-0e62b36c703c","system_id":"levelo_inurba_marseille","lat":43.304606,"lon":5.379026,"is_reserved":false,"is_disabled":false,"rental_uris":{"android":"levelo://app?vid=15e939e2-22e7-443c-b029-0e62b36c703c","ios":"levelo://app?vid=15e939e2-22e7-443c-b029-0e62b36c703c"},"vehicle_type_id":"4","last_reported":1700298363,"current_range_meters":20800,"station_id":"ce4bgup2rcd13ifvqcn0","pricing_plan_id":"free"},{"bike_id":"578a59cd-f72c-490f-a8bb-15a29508e86f","system_id":"levelo_inurba_marseille","lat":43.304606,"lon":5.379026,"is_reserved":false,"is_disabled":false,"rental_uris":{"android":"levelo://app?vid=578a59cd-f72c-490f-a8bb-15a29508e86f","ios":"levelo://app?vid=578a59cd-f72c-490f-a8bb-15a29508e86f"},"vehicle_type_id":"4","last_reported":1700298363,"current_range_meters":25600,"station_id":"ce4bgup2rcd13ifvqcn0","pricing_plan_id":"free"},{"bike_id":"c7db72cc-4d4e-4d46-80ca-4cdba0cee010","system_id":"levelo_inurba_marseille","lat":43.304606,"lon":5.379026,"is_reserved":false,"is_disabled":false,"rental_uris":{"android":"levelo://app?vid=c7db72cc-4d4e-4d46-80ca-4cdba0cee010","ios":"levelo://app?vid=c7db72cc-4d4e-4d46-80ca-4cdba0cee010"},"vehicle_type_id":"4","last_reported":1700298363,"current_range_meters":29200,"station_id":"ce4bgup2rcd13ifvqcn0","pricing_plan_id":"free"},{"bike_id":"8582e63c-68af-4a5e-a41b-a2e2d4df8807","system_id":"levelo_inurba_marseille","lat":43.324771,"lon":5.36557,"is_reserved":false,"is_disabled":false,"rental_uris":{"android":"levelo://app?vid=8582e63c-68af-4a5e-a41b-a2e2d4df8807","ios":"levelo://app?vid=8582e63c-68af-4a5e-a41b-a2e2d4df8807"},"vehicle_type_id":"4","last_reported":1700298363,"current_range_meters":10000,"station_id":"ce4bhs12rcd13ifvqhvg","pricing_plan_id":"free"},{"bike_id":"b9b44782-7eaa-42fc-a353-83b81a21fed5","system_id":"levelo_inurba_marseille","lat":43.302784,"lon":5.377158,"is_reserved":false,"is_disabled":false,"rental_uris":{"android":"levelo://app?vid=b9b44782-7eaa-42fc-a353-83b81a21fed5","ios":"levelo://app?vid=b9b44782-7eaa-42fc-a353-83b81a21fed5"},"vehicle_type_id":"4","last_reported":1700298363,"current_range_meters":28400,"station_id":"ce4bguh2rcd13ifvqcj0","pricing_plan_id":"free"},{"bike_id":"1ea6d46e-9c12-4719-86de-7e09dcd0a413","system_id":"levelo_inurba_marseille","lat":43.302784,"lon":5.377158,"is_reserved":false,"is_disabled":false,"rental_uris":{"android":"levelo://app?vid=1ea6d46e-9c12-4719-86de-7e09dcd0a413","ios":"levelo://app?vid=1ea6d46e-9c12-4719-86de-7e09dcd0a413"},"vehicle_type_id":"4","last_reported":1700298363,"current_range_meters":27200,"station_id":"ce4bguh2rcd13ifvqcj0","pricing_plan_id":"free"},{"bike_id":"e36cbe30-4b9e-4714-af05-7a7b69692b92","system_id":"levelo_inurba_marseille","lat":43.302784,"lon":5.377158,"is_reserved":false,"is_disabled":false,"rental_uris":{"android":"levelo://app?vid=e36cbe30-4b9e-4714-af05-7a7b69692b92","ios":"levelo://app?vid=e36cbe30-4b9e-4714-af05-7a7b69692b92"},"vehicle_type_id":"4","last_reported":1700298363,"current_range_meters":31200,"station_id":"ce4bguh2rcd13ifvqcj0","pricing_plan_id":"free"},{"bike_id":"f3b11d91-645e-4512-9a32-0a3a48b1a040","system_id":"levelo_inurba_marseille","lat":43.302784,"lon":5.377158,"is_reserved":false,"is_disabled":false,"rental_uris":{"android":"levelo://app?vid=f3b11d91-645e-4512-9a32-0a3a48b1a040","ios":"levelo://app?vid=f3b11d91-645e-4512-9a32-0a3a48b1a040"},"vehicle_type_id":"4","last_reported":1700298363,"current_range_meters":27200,"station_id":"ce4bguh2rcd13ifvqcj0","pricing_plan_id":"free"},{"bike_id":"82d83929-1de2-4f49-9e2a-a4b45288505d","system_id":"levelo_inurba_marseille","lat":43.302784,"lon":5.377158,"is_reserved":false,"is_disabled":false,"rental_uris":{"android":"levelo://app?vid=82d83929-1de2-4f49-9e2a-a4b45288505d","ios":"levelo://app?vid=82d83929-1de2-4f49-9e2a-a4b45288505d"},"vehicle_type_id":"4","last_reported":1700298363,"current_range_meters":18400,"station_id":"ce4bguh2rcd13ifvqcj0","pricing_plan_id":"free"},{"bike_id":"606d8f44-0592-491d-aefa-923d4857ba59","system_id":"levelo_inurba_marseille","lat":43.302784,"lon":5.377158,"is_reserved":false,"is_disabled":false,"rental_uris":{"android":"levelo://app?vid=606d8f44-0592-491d-aefa-923d4857ba59","ios":"levelo://app?vid=606d8f44-0592-491d-aefa-923d4857ba59"},"vehicle_type_id":"4","last_reported":1700298363,"current_range_meters":20000,"station_id":"ce4bguh2rcd13ifvqcj0","pricing_plan_id":"free"},{"bike_id":"93421fe5-44b1-43da-9473-c23e6644b6c2","system_id":"levelo_inurba_marseille","lat":43.30143,"lon":5.37413,"is_reserved":false,"is_disabled":false,"rental_uris":{"android":"levelo://app?vid=93421fe5-44b1-43da-9473-c23e6644b6c2","ios":"levelo://app?vid=93421fe5-44b1-43da-9473-c23e6644b6c2"},"vehicle_type_id":"4","last_reported":1700298363,"current_range_meters":27200,"station_id":"ce4bgs92rcd13ifvqcc0","pricing_plan_id":"free"},{"bike_id":"52f36f83-90a3-4468-a99f-d2be5df8a717","system_id":"levelo_inurba_marseille","lat":43.301429,"lon":5.37413,"is_reserved":false,"is_disabled":false,"rental_uris":{"android":"levelo://app?vid=52f36f83-90a3-4468-a99f-d2be5df8a717","ios":"levelo://app?vid=52f36f83-90a3-4468-a99f-d2be5df8a717"},"vehicle_type_id":"4","last_reported":1700298363,"current_range_meters":24400,"station_id":"ce4bgs92rcd13ifvqcc0","pricing_plan_id":"free"},{"bike_id":"5a978e94-138b-4f32-a9ff-dcfee9fe3b81","system_id":"levelo_inurba_marseille","lat":43.319815,"lon":5.381522,"is_reserved":false,"is_disabled":false,"rental_uris":{"android":"levelo://app?vid=5a978e94-138b-4f32-a9ff-dcfee9fe3b81","ios":"levelo://app?vid=5a978e94-138b-4f32-a9ff-dcfee9fe3b81"},"vehicle_type_id":"4","last_reported":1700298363,"current_range_meters":23600,"station_id":"ce4bhr12rcd13ifvqhpg","pricing_plan_id":"free"},{"bike_id":"44c5a48c-f55f-45f6-9cc5-f21c26022454","system_id":"levelo_inurba_marseille","lat":43.313571,"lon":5.384829,"is_reserved":false,"is_disabled":false,"rental_uris":{"android":"levelo://app?vid=44c5a48c-f55f-45f6-9cc5-f21c26022454","ios":"levelo://app?vid=44c5a48c-f55f-45f6-9cc5-f21c26022454"},"vehicle_type_id":"4","last_reported":1700298363,"current_range_meters":18800,"station_id":"ce4bgt92rcd13ifvqcf0","pricing_plan_id":"free"},{"bike_id":"33991427-d7d7-4777-97ae-b196d2be3fa1","system_id":"levelo_inurba_marseille","lat":43.299724,"lon":5.371829,"is_reserved":false,"is_disabled":false,"rental_uris":{"android":"levelo://app?vid=33991427-d7d7-4777-97ae-b196d2be3fa1","ios":"levelo://app?vid=33991427-d7d7-4777-97ae-b196d2be3fa1"},"vehicle_type_id":"4","last_reported":1700298363,"current_range_meters":9600,"station_id":"ce4bgr92rcd13ifvqc7g","pricing_plan_id":"free"},{"bike_id":"a32349ea-e51e-4bfa-8f8f-d7e488c5239c","system_id":"levelo_inurba_marseille","lat":43.299314,"lon":5.365371,"is_reserved":false,"is_disabled":false,"rental_uris":{"android":"levelo://app?vid=a32349ea-e51e-4bfa-8f8f-d7e488c5239c","ios":"levelo://app?vid=a32349ea-e51e-4bfa-8f8f-d7e488c5239c"},"vehicle_type_id":"4","last_reported":1700298363,"current_range_meters":18000,"station_id":"ce4bgm92rcd13ifvqbr0","pricing_plan_id":"free"},{"bike_id":"d2a56480-7747-4359-9f84-30bacf083982","system_id":"levelo_inurba_marseille","lat":43.298433,"lon":5.362774,"is_reserved":false,"is_disabled":false,"rental_uris":{"android":"levelo://app?vid=d2a56480-7747-4359-9f84-30bacf083982","ios":"levelo://app?vid=d2a56480-7747-4359-9f84-30bacf083982"},"vehicle_type_id":"4","last_reported":1700298363,"current_range_meters":11200,"station_id":"ce4bgpp2rcd13ifvqc3g","pricing_plan_id":"free"},{"bike_id":"466f6f0a-e10a-4066-b253-16ee0b9bdb14","system_id":"levelo_inurba_marseille","lat":43.298433,"lon":5.362774,"is_reserved":false,"is_disabled":false,"rental_uris":{"android":"levelo://app?vid=466f6f0a-e10a-4066-b253-16ee0b9bdb14","ios":"levelo://app?vid=466f6f0a-e10a-4066-b253-16ee0b9bdb14"},"vehicle_type_id":"4","last_reported":1700298363,"current_range_meters":24000,"station_id":"ce4bgpp2rcd13ifvqc3g","pricing_plan_id":"free"},{"bike_id":"5da9dea2-bd9f-4746-b637-56e44ea9e587","system_id":"levelo_inurba_marseille","lat":43.298489,"lon":5.362942,"is_reserved":false,"is_disabled":false,"rental_uris":{"android":"levelo://app?vid=5da9dea2-bd9f-4746-b637-56e44ea9e587","ios":"levelo://app?vid=5da9dea2-bd9f-4746-b637-56e44ea9e587"},"vehicle_type_id":"4","last_reported":1700298363,"current_range_meters":0,"station_id":"","pricing_plan_id":"free"},{"bike_id":"76b8cd3d-463e-454a-8365-b667081675de","system_id":"levelo_inurba_marseille","lat":43.298433,"lon":5.362774,"is_reserved":false,"is_disabled":false,"rental_uris":{"android":"levelo://app?vid=76b8cd3d-463e-454a-8365-b667081675de","ios":"levelo://app?vid=76b8cd3d-463e-454a-8365-b667081675de"},"vehicle_type_id":"4","last_reported":1700298363,"current_range_meters":28000,"station_id":"ce4bgpp2rcd13ifvqc3g","pricing_plan_id":"free"},{"bike_id":"66963c79-9023-4e40-bef4-709c1b04f449","system_id":"levelo_inurba_marseille","lat":43.311614,"lon":5.386881,"is_reserved":false,"is_disabled":false,"rental_uris":{"android":"levelo://app?vid=66963c79-9023-4e40-bef4-709c1b04f449","ios":"levelo://app?vid=66963c79-9023-4e40-bef4-709c1b04f449"},"vehicle_type_id":"4","last_reported":1700298363,"current_range_meters":4400,"station_id":"ce4bgv12rcd13ifvqcp0","pricing_plan_id":"free"},{"bike_id":"d79aa735-c7ca-4c85-b7fa-b47fb23e0d04","system_id":"levelo_inurba_marseille","lat":43.298433,"lon":5.362774,"is_reserved":false,"is_disabled":false,"rental_uris":{"android":"levelo://app?vid=d79aa735-c7ca-4c85-b7fa-b47fb23e0d04","ios":"levelo://app?vid=d79aa735-c7ca-4c85-b7fa-b47fb23e0d04"},"vehicle_type_id":"4","last_reported":1700298363,"current_range_meters":800,"station_id":"ce4bgpp2rcd13ifvqc3g","pricing_plan_id":"free"},{"bike_id":"3695c15d-9a2f-4a78-9378-c791f1c98146","system_id":"levelo_inurba_marseille","lat":43.298433,"lon":5.362774,"is_reserved":false,"is_disabled":false,"rental_uris":{"android":"levelo://app?vid=3695c15d-9a2f-4a78-9378-c791f1c98146","ios":"levelo://app?vid=3695c15d-9a2f-4a78-9378-c791f1c98146"},"vehicle_type_id":"4","last_reported":1700298363,"current_range_meters":26400,"station_id":"ce4bgpp2rcd13ifvqc3g","pricing_plan_id":"free"},{"bike_id":"05e62a21-78d0-4bc8-ad72-218a2442046e","system_id":"levelo_inurba_marseille","lat":43.305364,"lon":5.384119,"is_reserved":false,"is_disabled":false,"rental_uris":{"android":"levelo://app?vid=05e62a21-78d0-4bc8-ad72-218a2442046e","ios":"levelo://app?vid=05e62a21-78d0-4bc8-ad72-218a2442046e"},"vehicle_type_id":"4","last_reported":1700298363,"current_range_meters":22000,"station_id":"ce4bgg92rcd13ifvqb30","pricing_plan_id":"free"},{"bike_id":"ebfed399-5e1d-4f1d-b26f-5b6e89fc5adc","system_id":"levelo_inurba_marseille","lat":43.298433,"lon":5.362774,"is_reserved":false,"is_disabled":false,"rental_uris":{"android":"levelo://app?vid=ebfed399-5e1d-4f1d-b26f-5b6e89fc5adc","ios":"levelo://app?vid=ebfed399-5e1d-4f1d-b26f-5b6e89fc5adc"},"vehicle_type_id":"4","last_reported":1700298363,"current_range_meters":29200,"station_id":"ce4bgpp2rcd13ifvqc3g","pricing_plan_id":"free"},{"bike_id":"80b5b51c-fc5e-4d1b-b842-de9c43077bc9","system_id":"levelo_inurba_marseille","lat":43.298433,"lon":5.362774,"is_reserved":false,"is_disabled":false,"rental_uris":{"android":"levelo://app?vid=80b5b51c-fc5e-4d1b-b842-de9c43077bc9","ios":"levelo://app?vid=80b5b51c-fc5e-4d1b-b842-de9c43077bc9"},"vehicle_type_id":"4","last_reported":1700298363,"current_range_meters":25600,"station_id":"ce4bgpp2rcd13ifvqc3g","pricing_plan_id":"free"},{"bike_id":"7c52e5ed-8acf-4781-b580-8285aad08b7d","system_id":"levelo_inurba_marseille","lat":43.305364,"lon":5.384119,"is_reserved":false,"is_disabled":false,"rental_uris":{"android":"levelo://app?vid=7c52e5ed-8acf-4781-b580-8285aad08b7d","ios":"levelo://app?vid=7c52e5ed-8acf-4781-b580-8285aad08b7d"},"vehicle_type_id":"4","last_reported":1700298363,"current_range_meters":16400,"station_id":"ce4bgg92rcd13ifvqb30","pricing_plan_id":"free"},{"bike_id":"ae63e2fa-d8fb-4d56-9efa-bb9568034071","system_id":"levelo_inurba_marseille","lat":43.299243,"lon":5.374807,"is_reserved":false,"is_disabled":false,"rental_uris":{"android":"levelo://app?vid=ae63e2fa-d8fb-4d56-9efa-bb9568034071","ios":"levelo://app?vid=ae63e2fa-d8fb-4d56-9efa-bb9568034071"},"vehicle_type_id":"4","last_reported":1700298363,"current_range_meters":26800,"station_id":"ce4bgjh2rcd13ifvqbg0","pricing_plan_id":"free"},{"bike_id":"bdfa8ae5-4501-46b4-af9c-dc1736add66f","system_id":"levelo_inurba_marseille","lat":43.299243,"lon":5.37481,"is_reserved":false,"is_disabled":false,"rental_uris":{"android":"levelo://app?vid=bdfa8ae5-4501-46b4-af9c-dc1736add66f","ios":"levelo://app?vid=bdfa8ae5-4501-46b4-af9c-dc1736add66f"},"vehicle_type_id":"4","last_reported":1700298363,"current_range_meters":28800,"station_id":"ce4bgjh2rcd13ifvqbg0","pricing_plan_id":"free"},{"bike_id":"83b4a712-5deb-4185-a2eb-cf504fb97aa1","system_id":"levelo_inurba_marseille","lat":43.299282,"lon":5.375516,"is_reserved":false,"is_disabled":false,"rental_uris":{"android":"levelo://app?vid=83b4a712-5deb-4185-a2eb-cf504fb97aa1","ios":"levelo://app?vid=83b4a712-5deb-4185-a2eb-cf504fb97aa1"},"vehicle_type_id":"4","last_reported":1700298363,"current_range_meters":18800,"station_id":"ce4bgjh2rcd13ifvqbg0","pricing_plan_id":"free"},{"bike_id":"b0bc5a2b-ee52-4745-9049-5d157e365412","system_id":"levelo_inurba_marseille","lat":43.32829,"lon":5.3669,"is_reserved":false,"is_disabled":false,"rental_uris":{"android":"levelo://app?vid=b0bc5a2b-ee52-4745-9049-5d157e365412","ios":"levelo://app?vid=b0bc5a2b-ee52-4745-9049-5d157e365412"},"vehicle_type_id":"4","last_reported":1700298363,"current_range_meters":12800,"station_id":"ce4bhs92rcd13ifvqi0g","pricing_plan_id":"free"},{"bike_id":"5031fc39-abb6-4848-90ef-6ea13444cbb2","system_id":"levelo_inurba_marseille","lat":43.297163,"lon":5.365866,"is_reserved":false,"is_disabled":false,"rental_uris":{"android":"levelo://app?vid=5031fc39-abb6-4848-90ef-6ea13444cbb2","ios":"levelo://app?vid=5031fc39-abb6-4848-90ef-6ea13444cbb2"},"vehicle_type_id":"4","last_reported":1700298363,"current_range_meters":12400,"station_id":"ce4bgn12rcd13ifvqbt0","pricing_plan_id":"free"},{"bike_id":"31682f68-9f19-4d8f-894c-c25c7ced512b","system_id":"levelo_inurba_marseille","lat":43.328325,"lon":5.36685,"is_reserved":false,"is_disabled":false,"rental_uris":{"android":"levelo://app?vid=31682f68-9f19-4d8f-894c-c25c7ced512b","ios":"levelo://app?vid=31682f68-9f19-4d8f-894c-c25c7ced512b"},"vehicle_type_id":"4","last_reported":1700298363,"current_range_meters":28800,"station_id":"ce4bhs92rcd13ifvqi0g","pricing_plan_id":"free"},{"bike_id":"aa19fcc7-87ac-4f14-b98e-2dd84f010f9e","system_id":"levelo_inurba_marseille","lat":43.297163,"lon":5.365866,"is_reserved":false,"is_disabled":false,"rental_uris":{"android":"levelo://app?vid=aa19fcc7-87ac-4f14-b98e-2dd84f010f9e","ios":"levelo://app?vid=aa19fcc7-87ac-4f14-b98e-2dd84f010f9e"},"vehicle_type_id":"4","last_reported":1700298363,"current_range_meters":28000,"station_id":"ce4bgn12rcd13ifvqbt0","pricing_plan_id":"free"},{"bike_id":"6f461906-1734-4a2d-9c3e-a93c6064dfd5","system_id":"levelo_inurba_marseille","lat":43.32836,"lon":5.36688,"is_reserved":false,"is_disabled":false,"rental_uris":{"android":"levelo://app?vid=6f461906-1734-4a2d-9c3e-a93c6064dfd5","ios":"levelo://app?vid=6f461906-1734-4a2d-9c3e-a93c6064dfd5"},"vehicle_type_id":"4","last_reported":1700298363,"current_range_meters":25600,"station_id":"ce4bhs92rcd13ifvqi0g","pricing_plan_id":"free"},{"bike_id":"df7935f0-65cf-4d9e-b41b-2948894a3845","system_id":"levelo_inurba_marseille","lat":43.297163,"lon":5.365866,"is_reserved":false,"is_disabled":false,"rental_uris":{"android":"levelo://app?vid=df7935f0-65cf-4d9e-b41b-2948894a3845","ios":"levelo://app?vid=df7935f0-65cf-4d9e-b41b-2948894a3845"},"vehicle_type_id":"4","last_reported":1700298363,"current_range_meters":30800,"station_id":"ce4bgn12rcd13ifvqbt0","pricing_plan_id":"free"},{"bike_id":"89ae61a0-ab5b-4e25-9eba-cb517a8d3bea","system_id":"levelo_inurba_marseille","lat":43.297163,"lon":5.365866,"is_reserved":false,"is_disabled":false,"rental_uris":{"android":"levelo://app?vid=89ae61a0-ab5b-4e25-9eba-cb517a8d3bea","ios":"levelo://app?vid=89ae61a0-ab5b-4e25-9eba-cb517a8d3bea"},"vehicle_type_id":"4","last_reported":1700298363,"current_range_meters":30000,"station_id":"ce4bgn12rcd13ifvqbt0","pricing_plan_id":"free"},{"bike_id":"489088ec-4df2-4c99-9c25-c2c661cc608c","system_id":"levelo_inurba_marseille","lat":43.297163,"lon":5.365866,"is_reserved":false,"is_disabled":false,"rental_uris":{"android":"levelo://app?vid=489088ec-4df2-4c99-9c25-c2c661cc608c","ios":"levelo://app?vid=489088ec-4df2-4c99-9c25-c2c661cc608c"},"vehicle_type_id":"4","last_reported":1700298363,"current_range_meters":16000,"station_id":"ce4bgn12rcd13ifvqbt0","pricing_plan_id":"free"},{"bike_id":"445d62ce-b5c0-43e3-bdd4-70cda9aeca67","system_id":"levelo_inurba_marseille","lat":43.29573,"lon":5.367355,"is_reserved":false,"is_disabled":false,"rental_uris":{"android":"levelo://app?vid=445d62ce-b5c0-43e3-bdd4-70cda9aeca67","ios":"levelo://app?vid=445d62ce-b5c0-43e3-bdd4-70cda9aeca67"},"vehicle_type_id":"4","last_reported":1700298363,"current_range_meters":27600,"station_id":"ce4bgph2rcd13ifvqc2g","pricing_plan_id":"free"},{"bike_id":"d447991a-59b4-4778-a190-7d2b0920a414","system_id":"levelo_inurba_marseille","lat":43.32215,"lon":5.38613,"is_reserved":false,"is_disabled":false,"rental_uris":{"android":"levelo://app?vid=d447991a-59b4-4778-a190-7d2b0920a414","ios":"levelo://app?vid=d447991a-59b4-4778-a190-7d2b0920a414"},"vehicle_type_id":"4","last_reported":1700298363,"current_range_meters":0,"station_id":"","pricing_plan_id":"free"},{"bike_id":"dac4247e-af77-400a-bc15-d45b7947a937","system_id":"levelo_inurba_marseille","lat":43.296129,"lon":5.370777,"is_reserved":false,"is_disabled":false,"rental_uris":{"android":"levelo://app?vid=dac4247e-af77-400a-bc15-d45b7947a937","ios":"levelo://app?vid=dac4247e-af77-400a-bc15-d45b7947a937"},"vehicle_type_id":"4","last_reported":1700298363,"current_range_meters":30800,"station_id":"ce4bgnh2rcd13ifvqc0g","pricing_plan_id":"free"},{"bike_id":"3f0e85ca-6154-4792-8d04-d64c35b33f1c","system_id":"levelo_inurba_marseille","lat":43.296129,"lon":5.370777,"is_reserved":false,"is_disabled":false,"rental_uris":{"android":"levelo://app?vid=3f0e85ca-6154-4792-8d04-d64c35b33f1c","ios":"levelo://app?vid=3f0e85ca-6154-4792-8d04-d64c35b33f1c"},"vehicle_type_id":"4","last_reported":1700298363,"current_range_meters":23600,"station_id":"ce4bgnh2rcd13ifvqc0g","pricing_plan_id":"free"},{"bike_id":"53d9850b-034a-4fd3-9177-38e828e56835","system_id":"levelo_inurba_marseille","lat":43.29573,"lon":5.367355,"is_reserved":false,"is_disabled":false,"rental_uris":{"android":"levelo://app?vid=53d9850b-034a-4fd3-9177-38e828e56835","ios":"levelo://app?vid=53d9850b-034a-4fd3-9177-38e828e56835"},"vehicle_type_id":"4","last_reported":1700298363,"current_range_meters":28800,"station_id":"ce4bgph2rcd13ifvqc2g","pricing_plan_id":"free"},{"bike_id":"fab56645-6423-4974-8196-3e82dfa67654","system_id":"levelo_inurba_marseille","lat":43.29573,"lon":5.367355,"is_reserved":false,"is_disabled":false,"rental_uris":{"android":"levelo://app?vid=fab56645-6423-4974-8196-3e82dfa67654","ios":"levelo://app?vid=fab56645-6423-4974-8196-3e82dfa67654"},"vehicle_type_id":"4","last_reported":1700298363,"current_range_meters":24800,"station_id":"ce4bgph2rcd13ifvqc2g","pricing_plan_id":"free"},{"bike_id":"39d54991-c0f8-4b03-aac7-7591655d219e","system_id":"levelo_inurba_marseille","lat":43.29573,"lon":5.367355,"is_reserved":false,"is_disabled":false,"rental_uris":{"android":"levelo://app?vid=39d54991-c0f8-4b03-aac7-7591655d219e","ios":"levelo://app?vid=39d54991-c0f8-4b03-aac7-7591655d219e"},"vehicle_type_id":"4","last_reported":1700298363,"current_range_meters":26400,"station_id":"ce4bgph2rcd13ifvqc2g","pricing_plan_id":"free"},{"bike_id":"d83322b3-5043-4f4d-b687-81a7d3ecb7a4","system_id":"levelo_inurba_marseille","lat":43.296921,"lon":5.376579,"is_reserved":false,"is_disabled":false,"rental_uris":{"android":"levelo://app?vid=d83322b3-5043-4f4d-b687-81a7d3ecb7a4","ios":"levelo://app?vid=d83322b3-5043-4f4d-b687-81a7d3ecb7a4"},"vehicle_type_id":"4","last_reported":1700298363,"current_range_meters":30000,"station_id":"ce4bgkh2rcd13ifvqbl0","pricing_plan_id":"free"},{"bike_id":"b2b38ed0-64e0-441b-9e2f-d841b430ce1e","system_id":"levelo_inurba_marseille","lat":43.296935,"lon":5.376544,"is_reserved":false,"is_disabled":false,"rental_uris":{"android":"levelo://app?vid=b2b38ed0-64e0-441b-9e2f-d841b430ce1e","ios":"levelo://app?vid=b2b38ed0-64e0-441b-9e2f-d841b430ce1e"},"vehicle_type_id":"4","last_reported":1700298363,"current_range_meters":30800,"station_id":"ce4bgkh2rcd13ifvqbl0","pricing_plan_id":"free"},{"bike_id":"87f4aeb7-47e9-40a8-a812-19e0261cfc73","system_id":"levelo_inurba_marseille","lat":43.296921,"lon":5.376579,"is_reserved":false,"is_disabled":false,"rental_uris":{"android":"levelo://app?vid=87f4aeb7-47e9-40a8-a812-19e0261cfc73","ios":"levelo://app?vid=87f4aeb7-47e9-40a8-a812-19e0261cfc73"},"vehicle_type_id":"4","last_reported":1700298363,"current_range_meters":16400,"station_id":"ce4bgkh2rcd13ifvqbl0","pricing_plan_id":"free"},{"bike_id":"c21fe829-ab11-44c4-af50-448c939ed67a","system_id":"levelo_inurba_marseille","lat":43.296921,"lon":5.376579,"is_reserved":false,"is_disabled":false,"rental_uris":{"android":"levelo://app?vid=c21fe829-ab11-44c4-af50-448c939ed67a","ios":"levelo://app?vid=c21fe829-ab11-44c4-af50-448c939ed67a"},"vehicle_type_id":"4","last_reported":1700298363,"current_range_meters":29200,"station_id":"ce4bgkh2rcd13ifvqbl0","pricing_plan_id":"free"},{"bike_id":"136cb5c0-1be4-4893-bf1d-8f3d7244aed2","system_id":"levelo_inurba_marseille","lat":43.309589,"lon":5.390258,"is_reserved":false,"is_disabled":false,"rental_uris":{"android":"levelo://app?vid=136cb5c0-1be4-4893-bf1d-8f3d7244aed2","ios":"levelo://app?vid=136cb5c0-1be4-4893-bf1d-8f3d7244aed2"},"vehicle_type_id":"4","last_reported":1700298363,"current_range_meters":15200,"station_id":"ce4bgup2rcd13ifvqco0","pricing_plan_id":"free"},{"bike_id":"94720747-b37f-4323-bb47-2d5735451720","system_id":"levelo_inurba_marseille","lat":43.296921,"lon":5.376579,"is_reserved":false,"is_disabled":false,"rental_uris":{"android":"levelo://app?vid=94720747-b37f-4323-bb47-2d5735451720","ios":"levelo://app?vid=94720747-b37f-4323-bb47-2d5735451720"},"vehicle_type_id":"4","last_reported":1700298363,"current_range_meters":28800,"station_id":"ce4bgkh2rcd13ifvqbl0","pricing_plan_id":"free"},{"bike_id":"5dbfa26c-b36a-4772-b525-f55e545cd561","system_id":"levelo_inurba_marseille","lat":43.296921,"lon":5.376579,"is_reserved":false,"is_disabled":false,"rental_uris":{"android":"levelo://app?vid=5dbfa26c-b36a-4772-b525-f55e545cd561","ios":"levelo://app?vid=5dbfa26c-b36a-4772-b525-f55e545cd561"},"vehicle_type_id":"4","last_reported":1700298363,"current_range_meters":13600,"station_id":"ce4bgkh2rcd13ifvqbl0","pricing_plan_id":"free"},{"bike_id":"577f4c17-53c8-46ac-8c17-d76986796bd0","system_id":"levelo_inurba_marseille","lat":43.309589,"lon":5.390258,"is_reserved":false,"is_disabled":false,"rental_uris":{"android":"levelo://app?vid=577f4c17-53c8-46ac-8c17-d76986796bd0","ios":"levelo://app?vid=577f4c17-53c8-46ac-8c17-d76986796bd0"},"vehicle_type_id":"4","last_reported":1700298363,"current_range_meters":26000,"station_id":"ce4bgup2rcd13ifvqco0","pricing_plan_id":"free"},{"bike_id":"133185df-ffaa-484e-803e-64227c916a18","system_id":"levelo_inurba_marseille","lat":43.309589,"lon":5.390258,"is_reserved":false,"is_disabled":false,"rental_uris":{"android":"levelo://app?vid=133185df-ffaa-484e-803e-64227c916a18","ios":"levelo://app?vid=133185df-ffaa-484e-803e-64227c916a18"},"vehicle_type_id":"4","last_reported":1700298363,"current_range_meters":31200,"station_id":"ce4bgup2rcd13ifvqco0","pricing_plan_id":"free"},{"bike_id":"c6544caf-b8cb-48fa-a58c-451e09f8010d","system_id":"levelo_inurba_marseille","lat":43.298037,"lon":5.381066,"is_reserved":false,"is_disabled":false,"rental_uris":{"android":"levelo://app?vid=c6544caf-b8cb-48fa-a58c-451e09f8010d","ios":"levelo://app?vid=c6544caf-b8cb-48fa-a58c-451e09f8010d"},"vehicle_type_id":"4","last_reported":1700298363,"current_range_meters":25600,"station_id":"ce4bgip2rcd13ifvqbb0","pricing_plan_id":"free"},{"bike_id":"d2dced52-b7fb-4d11-ad33-56be009e3364","system_id":"levelo_inurba_marseille","lat":43.321847,"lon":5.388263,"is_reserved":false,"is_disabled":false,"rental_uris":{"android":"levelo://app?vid=d2dced52-b7fb-4d11-ad33-56be009e3364","ios":"levelo://app?vid=d2dced52-b7fb-4d11-ad33-56be009e3364"},"vehicle_type_id":"4","last_reported":1700298363,"current_range_meters":19600,"station_id":"","pricing_plan_id":"free"},{"bike_id":"3af482c0-ebd7-4ac0-8e50-0ba2e006cd26","system_id":"levelo_inurba_marseille","lat":43.29569,"lon":5.37488,"is_reserved":false,"is_disabled":false,"rental_uris":{"android":"levelo://app?vid=3af482c0-ebd7-4ac0-8e50-0ba2e006cd26","ios":"levelo://app?vid=3af482c0-ebd7-4ac0-8e50-0ba2e006cd26"},"vehicle_type_id":"4","last_reported":1700298363,"current_range_meters":11600,"station_id":"ce4bgh92rcd13ifvqb50","pricing_plan_id":"free"},{"bike_id":"198480fd-0565-435d-befa-31565a341e88","system_id":"levelo_inurba_marseille","lat":43.295748,"lon":5.37522,"is_reserved":false,"is_disabled":false,"rental_uris":{"android":"levelo://app?vid=198480fd-0565-435d-befa-31565a341e88","ios":"levelo://app?vid=198480fd-0565-435d-befa-31565a341e88"},"vehicle_type_id":"4","last_reported":1700298363,"current_range_meters":26000,"station_id":"ce4bgh92rcd13ifvqb50","pricing_plan_id":"free"},{"bike_id":"67ffd28a-0325-489b-a10f-d90500122751","system_id":"levelo_inurba_marseille","lat":43.295748,"lon":5.37522,"is_reserved":false,"is_disabled":false,"rental_uris":{"android":"levelo://app?vid=67ffd28a-0325-489b-a10f-d90500122751","ios":"levelo://app?vid=67ffd28a-0325-489b-a10f-d90500122751"},"vehicle_type_id":"4","last_reported":1700298363,"current_range_meters":30400,"station_id":"ce4bgh92rcd13ifvqb50","pricing_plan_id":"free"},{"bike_id":"3e3e92fe-39b7-4933-99ff-3747b28b5d69","system_id":"levelo_inurba_marseille","lat":43.328154,"lon":5.380034,"is_reserved":false,"is_disabled":false,"rental_uris":{"android":"levelo://app?vid=3e3e92fe-39b7-4933-99ff-3747b28b5d69","ios":"levelo://app?vid=3e3e92fe-39b7-4933-99ff-3747b28b5d69"},"vehicle_type_id":"4","last_reported":1700298363,"current_range_meters":10400,"station_id":"","pricing_plan_id":"free"},{"bike_id":"f2e2bc5a-c902-4d0f-b1eb-2d507fda17e5","system_id":"levelo_inurba_marseille","lat":43.299707,"lon":5.384859,"is_reserved":false,"is_disabled":false,"rental_uris":{"android":"levelo://app?vid=f2e2bc5a-c902-4d0f-b1eb-2d507fda17e5","ios":"levelo://app?vid=f2e2bc5a-c902-4d0f-b1eb-2d507fda17e5"},"vehicle_type_id":"4","last_reported":1700298363,"current_range_meters":24800,"station_id":"ce4bgj92rcd13ifvqbd0","pricing_plan_id":"free"},{"bike_id":"fe67c9e1-d25f-4072-88da-178a7ee49857","system_id":"levelo_inurba_marseille","lat":43.299717,"lon":5.384845,"is_reserved":false,"is_disabled":false,"rental_uris":{"android":"levelo://app?vid=fe67c9e1-d25f-4072-88da-178a7ee49857","ios":"levelo://app?vid=fe67c9e1-d25f-4072-88da-178a7ee49857"},"vehicle_type_id":"4","last_reported":1700298363,"current_range_meters":25200,"station_id":"ce4bgj92rcd13ifvqbd0","pricing_plan_id":"free"},{"bike_id":"64bc9ad6-d293-4cec-a60c-5586b97e32f9","system_id":"levelo_inurba_marseille","lat":43.299707,"lon":5.384859,"is_reserved":false,"is_disabled":false,"rental_uris":{"android":"levelo://app?vid=64bc9ad6-d293-4cec-a60c-5586b97e32f9","ios":"levelo://app?vid=64bc9ad6-d293-4cec-a60c-5586b97e32f9"},"vehicle_type_id":"4","last_reported":1700298363,"current_range_meters":18800,"station_id":"ce4bgj92rcd13ifvqbd0","pricing_plan_id":"free"},{"bike_id":"86479259-01e2-46bd-a695-7056ab6b819d","system_id":"levelo_inurba_marseille","lat":43.299724,"lon":5.384848,"is_reserved":false,"is_disabled":false,"rental_uris":{"android":"levelo://app?vid=86479259-01e2-46bd-a695-7056ab6b819d","ios":"levelo://app?vid=86479259-01e2-46bd-a695-7056ab6b819d"},"vehicle_type_id":"4","last_reported":1700298363,"current_range_meters":22800,"station_id":"ce4bgj92rcd13ifvqbd0","pricing_plan_id":"free"},{"bike_id":"4c2f9e75-20ac-42bb-9679-3332ee992bff","system_id":"levelo_inurba_marseille","lat":43.299717,"lon":5.384845,"is_reserved":false,"is_disabled":false,"rental_uris":{"android":"levelo://app?vid=4c2f9e75-20ac-42bb-9679-3332ee992bff","ios":"levelo://app?vid=4c2f9e75-20ac-42bb-9679-3332ee992bff"},"vehicle_type_id":"4","last_reported":1700298363,"current_range_meters":23600,"station_id":"ce4bgj92rcd13ifvqbd0","pricing_plan_id":"free"},{"bike_id":"cfe1d5f2-2fe2-4a9a-b62a-0bb8734e4035","system_id":"levelo_inurba_marseille","lat":43.299717,"lon":5.384845,"is_reserved":false,"is_disabled":false,"rental_uris":{"android":"levelo://app?vid=cfe1d5f2-2fe2-4a9a-b62a-0bb8734e4035","ios":"levelo://app?vid=cfe1d5f2-2fe2-4a9a-b62a-0bb8734e4035"},"vehicle_type_id":"4","last_reported":1700298363,"current_range_meters":29200,"station_id":"ce4bgj92rcd13ifvqbd0","pricing_plan_id":"free"},{"bike_id":"0efaa7cd-62ce-4854-aa0b-7ab049aff1b2","system_id":"levelo_inurba_marseille","lat":43.299707,"lon":5.384859,"is_reserved":false,"is_disabled":false,"rental_uris":{"android":"levelo://app?vid=0efaa7cd-62ce-4854-aa0b-7ab049aff1b2","ios":"levelo://app?vid=0efaa7cd-62ce-4854-aa0b-7ab049aff1b2"},"vehicle_type_id":"4","last_reported":1700298363,"current_range_meters":20800,"station_id":"ce4bgj92rcd13ifvqbd0","pricing_plan_id":"free"},{"bike_id":"4dcfda6d-7eea-4c70-af8b-2941cb3146c2","system_id":"levelo_inurba_marseille","lat":43.299724,"lon":5.384848,"is_reserved":false,"is_disabled":false,"rental_uris":{"android":"levelo://app?vid=4dcfda6d-7eea-4c70-af8b-2941cb3146c2","ios":"levelo://app?vid=4dcfda6d-7eea-4c70-af8b-2941cb3146c2"},"vehicle_type_id":"4","last_reported":1700298363,"current_range_meters":22400,"station_id":"ce4bgj92rcd13ifvqbd0","pricing_plan_id":"free"},{"bike_id":"c3999e8f-c41e-4143-a20c-dad2c626a8c1","system_id":"levelo_inurba_marseille","lat":43.299717,"lon":5.384845,"is_reserved":false,"is_disabled":false,"rental_uris":{"android":"levelo://app?vid=c3999e8f-c41e-4143-a20c-dad2c626a8c1","ios":"levelo://app?vid=c3999e8f-c41e-4143-a20c-dad2c626a8c1"},"vehicle_type_id":"4","last_reported":1700298363,"current_range_meters":11200,"station_id":"ce4bgj92rcd13ifvqbd0","pricing_plan_id":"free"},{"bike_id":"37347165-3336-45c1-890f-ec8a430e8d7a","system_id":"levelo_inurba_marseille","lat":43.299724,"lon":5.384848,"is_reserved":false,"is_disabled":false,"rental_uris":{"android":"levelo://app?vid=37347165-3336-45c1-890f-ec8a430e8d7a","ios":"levelo://app?vid=37347165-3336-45c1-890f-ec8a430e8d7a"},"vehicle_type_id":"4","last_reported":1700298363,"current_range_meters":14400,"station_id":"ce4bgj92rcd13ifvqbd0","pricing_plan_id":"free"},{"bike_id":"e145a3f7-00ac-4f8f-bfe5-435bc38ccaf7","system_id":"levelo_inurba_marseille","lat":43.293801,"lon":5.363066,"is_reserved":false,"is_disabled":false,"rental_uris":{"android":"levelo://app?vid=e145a3f7-00ac-4f8f-bfe5-435bc38ccaf7","ios":"levelo://app?vid=e145a3f7-00ac-4f8f-bfe5-435bc38ccaf7"},"vehicle_type_id":"4","last_reported":1700298363,"current_range_meters":27200,"station_id":"","pricing_plan_id":"free"},{"bike_id":"5859468a-b456-4906-a82c-3e0222291e80","system_id":"levelo_inurba_marseille","lat":43.32367,"lon":5.38887,"is_reserved":false,"is_disabled":false,"rental_uris":{"android":"levelo://app?vid=5859468a-b456-4906-a82c-3e0222291e80","ios":"levelo://app?vid=5859468a-b456-4906-a82c-3e0222291e80"},"vehicle_type_id":"4","last_reported":1700298363,"current_range_meters":28400,"station_id":"ce4bhqp2rcd13ifvqhog","pricing_plan_id":"free"},{"bike_id":"2eca0077-776c-489b-9900-62c060d81e47","system_id":"levelo_inurba_marseille","lat":43.29601,"lon":5.381084,"is_reserved":false,"is_disabled":false,"rental_uris":{"android":"levelo://app?vid=2eca0077-776c-489b-9900-62c060d81e47","ios":"levelo://app?vid=2eca0077-776c-489b-9900-62c060d81e47"},"vehicle_type_id":"4","last_reported":1700298363,"current_range_meters":26000,"station_id":"ce4bgl12rcd13ifvqbo0","pricing_plan_id":"free"},{"bike_id":"0dabdcdb-ec3f-4387-b96d-d0e1e96614ce","system_id":"levelo_inurba_marseille","lat":43.293249,"lon":5.371578,"is_reserved":false,"is_disabled":false,"rental_uris":{"android":"levelo://app?vid=0dabdcdb-ec3f-4387-b96d-d0e1e96614ce","ios":"levelo://app?vid=0dabdcdb-ec3f-4387-b96d-d0e1e96614ce"},"vehicle_type_id":"4","last_reported":1700298363,"current_range_meters":19600,"station_id":"ce4bgh92rcd13ifvqb40","pricing_plan_id":"free"},{"bike_id":"0010a735-4a2a-4a8c-82fd-86399d59b17a","system_id":"levelo_inurba_marseille","lat":43.2928,"lon":5.36844,"is_reserved":false,"is_disabled":false,"rental_uris":{"android":"levelo://app?vid=0010a735-4a2a-4a8c-82fd-86399d59b17a","ios":"levelo://app?vid=0010a735-4a2a-4a8c-82fd-86399d59b17a"},"vehicle_type_id":"4","last_reported":1700298363,"current_range_meters":25600,"station_id":"ce4bhbp2rcd13ifvqesg","pricing_plan_id":"free"},{"bike_id":"150b722d-ecb7-4459-a51d-d6c804f20ed8","system_id":"levelo_inurba_marseille","lat":43.29279,"lon":5.36846,"is_reserved":false,"is_disabled":false,"rental_uris":{"android":"levelo://app?vid=150b722d-ecb7-4459-a51d-d6c804f20ed8","ios":"levelo://app?vid=150b722d-ecb7-4459-a51d-d6c804f20ed8"},"vehicle_type_id":"4","last_reported":1700298363,"current_range_meters":18400,"station_id":"ce4bhbp2rcd13ifvqesg","pricing_plan_id":"free"},{"bike_id":"45217a19-cc77-4dd0-a97d-af4fea93c3a0","system_id":"levelo_inurba_marseille","lat":43.292784,"lon":5.368484,"is_reserved":false,"is_disabled":false,"rental_uris":{"android":"levelo://app?vid=45217a19-cc77-4dd0-a97d-af4fea93c3a0","ios":"levelo://app?vid=45217a19-cc77-4dd0-a97d-af4fea93c3a0"},"vehicle_type_id":"4","last_reported":1700298363,"current_range_meters":24400,"station_id":"ce4bhbp2rcd13ifvqesg","pricing_plan_id":"free"},{"bike_id":"d7584363-5297-43e4-a670-8717c02583b1","system_id":"levelo_inurba_marseille","lat":43.293259,"lon":5.371586,"is_reserved":false,"is_disabled":false,"rental_uris":{"android":"levelo://app?vid=d7584363-5297-43e4-a670-8717c02583b1","ios":"levelo://app?vid=d7584363-5297-43e4-a670-8717c02583b1"},"vehicle_type_id":"4","last_reported":1700298363,"current_range_meters":29200,"station_id":"ce4bgh92rcd13ifvqb40","pricing_plan_id":"free"},{"bike_id":"9f950c5c-0363-4960-ba4e-c95e6f766b62","system_id":"levelo_inurba_marseille","lat":43.292749,"lon":5.368402,"is_reserved":false,"is_disabled":false,"rental_uris":{"android":"levelo://app?vid=9f950c5c-0363-4960-ba4e-c95e6f766b62","ios":"levelo://app?vid=9f950c5c-0363-4960-ba4e-c95e6f766b62"},"vehicle_type_id":"4","last_reported":1700298363,"current_range_meters":29200,"station_id":"ce4bhbp2rcd13ifvqesg","pricing_plan_id":"free"},{"bike_id":"482efd45-0a63-46d0-aa33-4044f17aa3cd","system_id":"levelo_inurba_marseille","lat":43.29274,"lon":5.36841,"is_reserved":false,"is_disabled":false,"rental_uris":{"android":"levelo://app?vid=482efd45-0a63-46d0-aa33-4044f17aa3cd","ios":"levelo://app?vid=482efd45-0a63-46d0-aa33-4044f17aa3cd"},"vehicle_type_id":"4","last_reported":1700298363,"current_range_meters":24000,"station_id":"ce4bhbp2rcd13ifvqesg","pricing_plan_id":"free"},{"bike_id":"ff4b8e42-a8ba-42f4-b73a-3d2eba8c366d","system_id":"levelo_inurba_marseille","lat":43.29274,"lon":5.36845,"is_reserved":false,"is_disabled":false,"rental_uris":{"android":"levelo://app?vid=ff4b8e42-a8ba-42f4-b73a-3d2eba8c366d","ios":"levelo://app?vid=ff4b8e42-a8ba-42f4-b73a-3d2eba8c366d"},"vehicle_type_id":"4","last_reported":1700298363,"current_range_meters":27200,"station_id":"ce4bhbp2rcd13ifvqesg","pricing_plan_id":"free"},{"bike_id":"c94a7508-9815-4c9f-b80a-fc8d538e5292","system_id":"levelo_inurba_marseille","lat":43.305994,"lon":5.393687,"is_reserved":false,"is_disabled":false,"rental_uris":{"android":"levelo://app?vid=c94a7508-9815-4c9f-b80a-fc8d538e5292","ios":"levelo://app?vid=c94a7508-9815-4c9f-b80a-fc8d538e5292"},"vehicle_type_id":"4","last_reported":1700298363,"current_range_meters":23600,"station_id":"ce4bh0p2rcd13ifvqd80","pricing_plan_id":"free"},{"bike_id":"cad377cf-5954-4853-872d-01823b081514","system_id":"levelo_inurba_marseille","lat":43.305994,"lon":5.393687,"is_reserved":false,"is_disabled":false,"rental_uris":{"android":"levelo://app?vid=cad377cf-5954-4853-872d-01823b081514","ios":"levelo://app?vid=cad377cf-5954-4853-872d-01823b081514"},"vehicle_type_id":"4","last_reported":1700298363,"current_range_meters":15600,"station_id":"ce4bh0p2rcd13ifvqd80","pricing_plan_id":"free"},{"bike_id":"858c2dd1-be81-4e35-a380-b05fb9be5fb3","system_id":"levelo_inurba_marseille","lat":43.305994,"lon":5.393687,"is_reserved":false,"is_disabled":false,"rental_uris":{"android":"levelo://app?vid=858c2dd1-be81-4e35-a380-b05fb9be5fb3","ios":"levelo://app?vid=858c2dd1-be81-4e35-a380-b05fb9be5fb3"},"vehicle_type_id":"4","last_reported":1700298363,"current_range_meters":30400,"station_id":"ce4bh0p2rcd13ifvqd80","pricing_plan_id":"free"},{"bike_id":"3e4ed373-e800-4f53-90af-13dbb5b15f83","system_id":"levelo_inurba_marseille","lat":43.305994,"lon":5.393687,"is_reserved":false,"is_disabled":false,"rental_uris":{"android":"levelo://app?vid=3e4ed373-e800-4f53-90af-13dbb5b15f83","ios":"levelo://app?vid=3e4ed373-e800-4f53-90af-13dbb5b15f83"},"vehicle_type_id":"4","last_reported":1700298363,"current_range_meters":28800,"station_id":"ce4bh0p2rcd13ifvqd80","pricing_plan_id":"free"},{"bike_id":"4cb8d930-d20d-4729-b425-93089851bb01","system_id":"levelo_inurba_marseille","lat":43.300852,"lon":5.390859,"is_reserved":false,"is_disabled":false,"rental_uris":{"android":"levelo://app?vid=4cb8d930-d20d-4729-b425-93089851bb01","ios":"levelo://app?vid=4cb8d930-d20d-4729-b425-93089851bb01"},"vehicle_type_id":"4","last_reported":1700298363,"current_range_meters":21600,"station_id":"ce4bh192rcd13ifvqdb0","pricing_plan_id":"free"},{"bike_id":"5aef3b78-ec46-441c-9509-0ee35a1d05a1","system_id":"levelo_inurba_marseille","lat":43.292311,"lon":5.360731,"is_reserved":false,"is_disabled":false,"rental_uris":{"android":"levelo://app?vid=5aef3b78-ec46-441c-9509-0ee35a1d05a1","ios":"levelo://app?vid=5aef3b78-ec46-441c-9509-0ee35a1d05a1"},"vehicle_type_id":"4","last_reported":1700298363,"current_range_meters":21600,"station_id":"ce4bhbh2rcd13ifvqeqg","pricing_plan_id":"free"},{"bike_id":"ec3bd934-01b6-434e-94ca-d9ed4d157480","system_id":"levelo_inurba_marseille","lat":43.29264,"lon":5.37627,"is_reserved":false,"is_disabled":false,"rental_uris":{"android":"levelo://app?vid=ec3bd934-01b6-434e-94ca-d9ed4d157480","ios":"levelo://app?vid=ec3bd934-01b6-434e-94ca-d9ed4d157480"},"vehicle_type_id":"4","last_reported":1700298363,"current_range_meters":28400,"station_id":"ce4bgi12rcd13ifvqb80","pricing_plan_id":"free"},{"bike_id":"61f93da6-cb7c-413e-886e-58e1a79cb801","system_id":"levelo_inurba_marseille","lat":43.291671,"lon":5.371575,"is_reserved":false,"is_disabled":false,"rental_uris":{"android":"levelo://app?vid=61f93da6-cb7c-413e-886e-58e1a79cb801","ios":"levelo://app?vid=61f93da6-cb7c-413e-886e-58e1a79cb801"},"vehicle_type_id":"4","last_reported":1700298363,"current_range_meters":17600,"station_id":"ce4bha92rcd13ifvqeh0","pricing_plan_id":"free"},{"bike_id":"ad6d69bb-e518-4bf0-836a-090bbaf9b811","system_id":"levelo_inurba_marseille","lat":43.291671,"lon":5.371575,"is_reserved":false,"is_disabled":false,"rental_uris":{"android":"levelo://app?vid=ad6d69bb-e518-4bf0-836a-090bbaf9b811","ios":"levelo://app?vid=ad6d69bb-e518-4bf0-836a-090bbaf9b811"},"vehicle_type_id":"4","last_reported":1700298363,"current_range_meters":20000,"station_id":"ce4bha92rcd13ifvqeh0","pricing_plan_id":"free"},{"bike_id":"a328aad9-e64d-4959-a6fe-45f417c6f7de","system_id":"levelo_inurba_marseille","lat":43.291675,"lon":5.371583,"is_reserved":false,"is_disabled":false,"rental_uris":{"android":"levelo://app?vid=a328aad9-e64d-4959-a6fe-45f417c6f7de","ios":"levelo://app?vid=a328aad9-e64d-4959-a6fe-45f417c6f7de"},"vehicle_type_id":"4","last_reported":1700298363,"current_range_meters":29200,"station_id":"ce4bha92rcd13ifvqeh0","pricing_plan_id":"free"},{"bike_id":"4eef38cc-64cf-4f4d-8d5b-99bd9d3b1b37","system_id":"levelo_inurba_marseille","lat":43.291675,"lon":5.371583,"is_reserved":false,"is_disabled":false,"rental_uris":{"android":"levelo://app?vid=4eef38cc-64cf-4f4d-8d5b-99bd9d3b1b37","ios":"levelo://app?vid=4eef38cc-64cf-4f4d-8d5b-99bd9d3b1b37"},"vehicle_type_id":"4","last_reported":1700298363,"current_range_meters":27200,"station_id":"ce4bha92rcd13ifvqeh0","pricing_plan_id":"free"},{"bike_id":"f84c1215-1e96-406a-9860-40d6dc982ee6","system_id":"levelo_inurba_marseille","lat":43.309047,"lon":5.396551,"is_reserved":false,"is_disabled":false,"rental_uris":{"android":"levelo://app?vid=f84c1215-1e96-406a-9860-40d6dc982ee6","ios":"levelo://app?vid=f84c1215-1e96-406a-9860-40d6dc982ee6"},"vehicle_type_id":"4","last_reported":1700298363,"current_range_meters":31200,"station_id":"ce4bh012rcd13ifvqcv0","pricing_plan_id":"free"},{"bike_id":"92334dee-e30a-48e8-b907-6fa7bd450270","system_id":"levelo_inurba_marseille","lat":43.291994,"lon":5.357886,"is_reserved":false,"is_disabled":false,"rental_uris":{"android":"levelo://app?vid=92334dee-e30a-48e8-b907-6fa7bd450270","ios":"levelo://app?vid=92334dee-e30a-48e8-b907-6fa7bd450270"},"vehicle_type_id":"4","last_reported":1700298363,"current_range_meters":20800,"station_id":"ce4bhb12rcd13ifvqel0","pricing_plan_id":"free"},{"bike_id":"44733623-879b-4591-8622-e4beca0a1afe","system_id":"levelo_inurba_marseille","lat":43.313291,"lon":5.396838,"is_reserved":false,"is_disabled":false,"rental_uris":{"android":"levelo://app?vid=44733623-879b-4591-8622-e4beca0a1afe","ios":"levelo://app?vid=44733623-879b-4591-8622-e4beca0a1afe"},"vehicle_type_id":"4","last_reported":1700298363,"current_range_meters":24400,"station_id":"ce4bgvp2rcd13ifvqcu0","pricing_plan_id":"free"},{"bike_id":"92eaeac9-95ae-403c-b2ce-14279dff852a","system_id":"levelo_inurba_marseille","lat":43.290779,"lon":5.371482,"is_reserved":false,"is_disabled":false,"rental_uris":{"android":"levelo://app?vid=92eaeac9-95ae-403c-b2ce-14279dff852a","ios":"levelo://app?vid=92eaeac9-95ae-403c-b2ce-14279dff852a"},"vehicle_type_id":"4","last_reported":1700298363,"current_range_meters":28400,"station_id":"ce4bh5p2rcd13ifvqe4g","pricing_plan_id":"free"},{"bike_id":"7cfdf275-0844-4bf7-9616-df403b1f1ca0","system_id":"levelo_inurba_marseille","lat":43.29065,"lon":5.37163,"is_reserved":false,"is_disabled":false,"rental_uris":{"android":"levelo://app?vid=7cfdf275-0844-4bf7-9616-df403b1f1ca0","ios":"levelo://app?vid=7cfdf275-0844-4bf7-9616-df403b1f1ca0"},"vehicle_type_id":"4","last_reported":1700298363,"current_range_meters":28400,"station_id":"ce4bh5p2rcd13ifvqe4g","pricing_plan_id":"free"},{"bike_id":"0f9a24e5-aa76-44e1-9cee-19194fd162e5","system_id":"levelo_inurba_marseille","lat":43.290327,"lon":5.375711,"is_reserved":false,"is_disabled":false,"rental_uris":{"android":"levelo://app?vid=0f9a24e5-aa76-44e1-9cee-19194fd162e5","ios":"levelo://app?vid=0f9a24e5-aa76-44e1-9cee-19194fd162e5"},"vehicle_type_id":"4","last_reported":1700298363,"current_range_meters":15600,"station_id":"ce4bh692rcd13ifvqe90","pricing_plan_id":"free"},{"bike_id":"b42dac7b-72e2-4abc-ba11-6be23b538eda","system_id":"levelo_inurba_marseille","lat":43.294162,"lon":5.386292,"is_reserved":false,"is_disabled":false,"rental_uris":{"android":"levelo://app?vid=b42dac7b-72e2-4abc-ba11-6be23b538eda","ios":"levelo://app?vid=b42dac7b-72e2-4abc-ba11-6be23b538eda"},"vehicle_type_id":"4","last_reported":1700298363,"current_range_meters":21200,"station_id":"ce4bh2h2rcd13ifvqdh0","pricing_plan_id":"free"},{"bike_id":"a05f5492-1332-466f-aced-f433e0a9992f","system_id":"levelo_inurba_marseille","lat":43.28934,"lon":5.36637,"is_reserved":false,"is_disabled":false,"rental_uris":{"android":"levelo://app?vid=a05f5492-1332-466f-aced-f433e0a9992f","ios":"levelo://app?vid=a05f5492-1332-466f-aced-f433e0a9992f"},"vehicle_type_id":"4","last_reported":1700298363,"current_range_meters":0,"station_id":"ce4bhap2rcd13ifvqek0","pricing_plan_id":"free"},{"bike_id":"9a2138c8-a049-4518-b6d4-8bded9316a64","system_id":"levelo_inurba_marseille","lat":43.289184,"lon":5.366408,"is_reserved":false,"is_disabled":false,"rental_uris":{"android":"levelo://app?vid=9a2138c8-a049-4518-b6d4-8bded9316a64","ios":"levelo://app?vid=9a2138c8-a049-4518-b6d4-8bded9316a64"},"vehicle_type_id":"4","last_reported":1700298363,"current_range_meters":28800,"station_id":"ce4bhap2rcd13ifvqek0","pricing_plan_id":"free"},{"bike_id":"58e724f8-80ab-44bc-be51-248b340e29aa","system_id":"levelo_inurba_marseille","lat":43.304274,"lon":5.397513,"is_reserved":false,"is_disabled":false,"rental_uris":{"android":"levelo://app?vid=58e724f8-80ab-44bc-be51-248b340e29aa","ios":"levelo://app?vid=58e724f8-80ab-44bc-be51-248b340e29aa"},"vehicle_type_id":"4","last_reported":1700298363,"current_range_meters":27200,"station_id":"ce4bh092rcd13ifvqd20","pricing_plan_id":"free"},{"bike_id":"189ba3e6-f231-4df4-9fb7-d501a54af697","system_id":"levelo_inurba_marseille","lat":43.290103,"lon":5.356114,"is_reserved":false,"is_disabled":false,"rental_uris":{"android":"levelo://app?vid=189ba3e6-f231-4df4-9fb7-d501a54af697","ios":"levelo://app?vid=189ba3e6-f231-4df4-9fb7-d501a54af697"},"vehicle_type_id":"4","last_reported":1700298363,"current_range_meters":20000,"station_id":"ce4bhb92rcd13ifvqen0","pricing_plan_id":"free"},{"bike_id":"86037c6e-b05e-42bc-ada4-58959f10d718","system_id":"levelo_inurba_marseille","lat":43.290104,"lon":5.356111,"is_reserved":false,"is_disabled":false,"rental_uris":{"android":"levelo://app?vid=86037c6e-b05e-42bc-ada4-58959f10d718","ios":"levelo://app?vid=86037c6e-b05e-42bc-ada4-58959f10d718"},"vehicle_type_id":"4","last_reported":1700298363,"current_range_meters":400,"station_id":"ce4bhb92rcd13ifvqen0","pricing_plan_id":"free"},{"bike_id":"ff4ab034-b00b-4a49-a367-e1b5fc39ad95","system_id":"levelo_inurba_marseille","lat":43.289743,"lon":5.378304,"is_reserved":false,"is_disabled":false,"rental_uris":{"android":"levelo://app?vid=ff4ab034-b00b-4a49-a367-e1b5fc39ad95","ios":"levelo://app?vid=ff4ab034-b00b-4a49-a367-e1b5fc39ad95"},"vehicle_type_id":"4","last_reported":1700298363,"current_range_meters":22000,"station_id":"ce4bh9p2rcd13ifvqed0","pricing_plan_id":"free"},{"bike_id":"7a819c8e-ca19-4a17-8c35-08c999c2da6e","system_id":"levelo_inurba_marseille","lat":43.289741,"lon":5.378306,"is_reserved":false,"is_disabled":false,"rental_uris":{"android":"levelo://app?vid=7a819c8e-ca19-4a17-8c35-08c999c2da6e","ios":"levelo://app?vid=7a819c8e-ca19-4a17-8c35-08c999c2da6e"},"vehicle_type_id":"4","last_reported":1700298363,"current_range_meters":30000,"station_id":"ce4bh9p2rcd13ifvqed0","pricing_plan_id":"free"},{"bike_id":"8971dd45-fbbf-449f-9c6b-20816cc72a40","system_id":"levelo_inurba_marseille","lat":43.33725,"lon":5.37511,"is_reserved":false,"is_disabled":false,"rental_uris":{"android":"levelo://app?vid=8971dd45-fbbf-449f-9c6b-20816cc72a40","ios":"levelo://app?vid=8971dd45-fbbf-449f-9c6b-20816cc72a40"},"vehicle_type_id":"4","last_reported":1700298363,"current_range_meters":22400,"station_id":"","pricing_plan_id":"free"},{"bike_id":"07202f70-50d7-46f0-a5bd-59712659d6a0","system_id":"levelo_inurba_marseille","lat":43.31251,"lon":5.40162,"is_reserved":false,"is_disabled":false,"rental_uris":{"android":"levelo://app?vid=07202f70-50d7-46f0-a5bd-59712659d6a0","ios":"levelo://app?vid=07202f70-50d7-46f0-a5bd-59712659d6a0"},"vehicle_type_id":"4","last_reported":1700298363,"current_range_meters":15600,"station_id":"","pricing_plan_id":"free"},{"bike_id":"462d4cab-0ab2-4b4c-9a3f-ee75b151ecdf","system_id":"levelo_inurba_marseille","lat":43.30928,"lon":5.40144,"is_reserved":false,"is_disabled":false,"rental_uris":{"android":"levelo://app?vid=462d4cab-0ab2-4b4c-9a3f-ee75b151ecdf","ios":"levelo://app?vid=462d4cab-0ab2-4b4c-9a3f-ee75b151ecdf"},"vehicle_type_id":"4","last_reported":1700298363,"current_range_meters":18800,"station_id":"ce4bgvp2rcd13ifvqct0","pricing_plan_id":"free"},{"bike_id":"1af4ee0a-b063-453b-8c27-2c0a7bd6ef9d","system_id":"levelo_inurba_marseille","lat":43.30513,"lon":5.40077,"is_reserved":false,"is_disabled":false,"rental_uris":{"android":"levelo://app?vid=1af4ee0a-b063-453b-8c27-2c0a7bd6ef9d","ios":"levelo://app?vid=1af4ee0a-b063-453b-8c27-2c0a7bd6ef9d"},"vehicle_type_id":"4","last_reported":1700298363,"current_range_meters":0,"station_id":"","pricing_plan_id":"free"},{"bike_id":"34f6c08c-72e2-4a64-a02e-7db91d9e0460","system_id":"levelo_inurba_marseille","lat":43.295194,"lon":5.39397,"is_reserved":false,"is_disabled":false,"rental_uris":{"android":"levelo://app?vid=34f6c08c-72e2-4a64-a02e-7db91d9e0460","ios":"levelo://app?vid=34f6c08c-72e2-4a64-a02e-7db91d9e0460"},"vehicle_type_id":"4","last_reported":1700298363,"current_range_meters":28000,"station_id":"ce4bh292rcd13ifvqdf0","pricing_plan_id":"free"},{"bike_id":"f1590cc5-56b9-49c7-8c26-b25e44bcb300","system_id":"levelo_inurba_marseille","lat":43.28934,"lon":5.38386,"is_reserved":false,"is_disabled":false,"rental_uris":{"android":"levelo://app?vid=f1590cc5-56b9-49c7-8c26-b25e44bcb300","ios":"levelo://app?vid=f1590cc5-56b9-49c7-8c26-b25e44bcb300"},"vehicle_type_id":"4","last_reported":1700298363,"current_range_meters":22400,"station_id":"ce4bh612rcd13ifvqe6g","pricing_plan_id":"free"},{"bike_id":"a7fd89d6-d684-4109-a29e-0fcb20330f1f","system_id":"levelo_inurba_marseille","lat":43.286039,"lon":5.370681,"is_reserved":false,"is_disabled":false,"rental_uris":{"android":"levelo://app?vid=a7fd89d6-d684-4109-a29e-0fcb20330f1f","ios":"levelo://app?vid=a7fd89d6-d684-4109-a29e-0fcb20330f1f"},"vehicle_type_id":"4","last_reported":1700298363,"current_range_meters":28800,"station_id":"ce4bht12rcd13ifvqi60","pricing_plan_id":"free"},{"bike_id":"17b1471e-6942-4913-9169-c3e15effcc35","system_id":"levelo_inurba_marseille","lat":43.294314,"lon":5.397498,"is_reserved":false,"is_disabled":false,"rental_uris":{"android":"levelo://app?vid=17b1471e-6942-4913-9169-c3e15effcc35","ios":"levelo://app?vid=17b1471e-6942-4913-9169-c3e15effcc35"},"vehicle_type_id":"4","last_reported":1700298363,"current_range_meters":24400,"station_id":"ce4bh3h2rcd13ifvqdo0","pricing_plan_id":"free"},{"bike_id":"704c82fa-1d28-4246-9ab3-f672fa95485c","system_id":"levelo_inurba_marseille","lat":43.283998,"lon":5.375062,"is_reserved":false,"is_disabled":false,"rental_uris":{"android":"levelo://app?vid=704c82fa-1d28-4246-9ab3-f672fa95485c","ios":"levelo://app?vid=704c82fa-1d28-4246-9ab3-f672fa95485c"},"vehicle_type_id":"4","last_reported":1700298363,"current_range_meters":22400,"station_id":"ce4bh412rcd13ifvqds0","pricing_plan_id":"free"},{"bike_id":"5f982a0a-4bb6-4f34-9932-6980df7b05e5","system_id":"levelo_inurba_marseille","lat":43.28411,"lon":5.37521,"is_reserved":false,"is_disabled":false,"rental_uris":{"android":"levelo://app?vid=5f982a0a-4bb6-4f34-9932-6980df7b05e5","ios":"levelo://app?vid=5f982a0a-4bb6-4f34-9932-6980df7b05e5"},"vehicle_type_id":"4","last_reported":1700298363,"current_range_meters":14800,"station_id":"ce4bh412rcd13ifvqds0","pricing_plan_id":"free"},{"bike_id":"32766e57-adff-43e6-b4c3-4acbb4516be2","system_id":"levelo_inurba_marseille","lat":43.295717,"lon":5.399697,"is_reserved":false,"is_disabled":false,"rental_uris":{"android":"levelo://app?vid=32766e57-adff-43e6-b4c3-4acbb4516be2","ios":"levelo://app?vid=32766e57-adff-43e6-b4c3-4acbb4516be2"},"vehicle_type_id":"4","last_reported":1700298363,"current_range_meters":14400,"station_id":"","pricing_plan_id":"free"},{"bike_id":"83817918-40fc-48a0-b4d2-4ca9f198594c","system_id":"levelo_inurba_marseille","lat":43.294531,"lon":5.398567,"is_reserved":false,"is_disabled":false,"rental_uris":{"android":"levelo://app?vid=83817918-40fc-48a0-b4d2-4ca9f198594c","ios":"levelo://app?vid=83817918-40fc-48a0-b4d2-4ca9f198594c"},"vehicle_type_id":"4","last_reported":1700298363,"current_range_meters":0,"station_id":"","pricing_plan_id":"free"},{"bike_id":"5974ad3b-da81-42ca-a08b-1b3632a47afa","system_id":"levelo_inurba_marseille","lat":43.33237,"lon":5.3985,"is_reserved":false,"is_disabled":false,"rental_uris":{"android":"levelo://app?vid=5974ad3b-da81-42ca-a08b-1b3632a47afa","ios":"levelo://app?vid=5974ad3b-da81-42ca-a08b-1b3632a47afa"},"vehicle_type_id":"4","last_reported":1700298363,"current_range_meters":6000,"station_id":"","pricing_plan_id":"free"},{"bike_id":"179b0cc5-87c4-4743-a7b4-b7db5815fcff","system_id":"levelo_inurba_marseille","lat":43.337168,"lon":5.391825,"is_reserved":false,"is_disabled":false,"rental_uris":{"android":"levelo://app?vid=179b0cc5-87c4-4743-a7b4-b7db5815fcff","ios":"levelo://app?vid=179b0cc5-87c4-4743-a7b4-b7db5815fcff"},"vehicle_type_id":"4","last_reported":1700298363,"current_range_meters":26000,"station_id":"ce4bhr92rcd13ifvqhsg","pricing_plan_id":"free"},{"bike_id":"cd639369-1963-4fc7-b413-924c716a07b9","system_id":"levelo_inurba_marseille","lat":43.323464,"lon":5.406297,"is_reserved":false,"is_disabled":false,"rental_uris":{"android":"levelo://app?vid=cd639369-1963-4fc7-b413-924c716a07b9","ios":"levelo://app?vid=cd639369-1963-4fc7-b413-924c716a07b9"},"vehicle_type_id":"4","last_reported":1700298363,"current_range_meters":28800,"station_id":"ce4bhq92rcd13ifvqhjg","pricing_plan_id":"free"},{"bike_id":"c2d649c4-5f27-4aa9-a11f-9141a9b4f690","system_id":"levelo_inurba_marseille","lat":43.323464,"lon":5.406297,"is_reserved":false,"is_disabled":false,"rental_uris":{"android":"levelo://app?vid=c2d649c4-5f27-4aa9-a11f-9141a9b4f690","ios":"levelo://app?vid=c2d649c4-5f27-4aa9-a11f-9141a9b4f690"},"vehicle_type_id":"4","last_reported":1700298363,"current_range_meters":31200,"station_id":"ce4bhq92rcd13ifvqhjg","pricing_plan_id":"free"},{"bike_id":"fbe129d4-9775-4ac2-a9ae-ff174224e28f","system_id":"levelo_inurba_marseille","lat":43.284793,"lon":5.384113,"is_reserved":false,"is_disabled":false,"rental_uris":{"android":"levelo://app?vid=fbe129d4-9775-4ac2-a9ae-ff174224e28f","ios":"levelo://app?vid=fbe129d4-9775-4ac2-a9ae-ff174224e28f"},"vehicle_type_id":"4","last_reported":1700298363,"current_range_meters":22000,"station_id":"ce4bh512rcd13ifvqe3g","pricing_plan_id":"free"},{"bike_id":"ac59e2fa-16e3-423d-b89c-3a15b222fc86","system_id":"levelo_inurba_marseille","lat":43.261782,"lon":5.374515,"is_reserved":false,"is_disabled":false,"rental_uris":{"android":"levelo://app?vid=ac59e2fa-16e3-423d-b89c-3a15b222fc86","ios":"levelo://app?vid=ac59e2fa-16e3-423d-b89c-3a15b222fc86"},"vehicle_type_id":"4","last_reported":1700298363,"current_range_meters":24400,"station_id":"ce4bhgp2rcd13ifvqfc0","pricing_plan_id":"free"},{"bike_id":"d3dd3e3d-57b0-4c9e-949f-fddd56c2349c","system_id":"levelo_inurba_marseille","lat":43.32521,"lon":5.40575,"is_reserved":false,"is_disabled":false,"rental_uris":{"android":"levelo://app?vid=d3dd3e3d-57b0-4c9e-949f-fddd56c2349c","ios":"levelo://app?vid=d3dd3e3d-57b0-4c9e-949f-fddd56c2349c"},"vehicle_type_id":"4","last_reported":1700298363,"current_range_meters":2800,"station_id":"","pricing_plan_id":"free"},{"bike_id":"58f5f902-a938-45ee-9e72-3ef7d89b3c2e","system_id":"levelo_inurba_marseille","lat":43.28425,"lon":5.34989,"is_reserved":false,"is_disabled":false,"rental_uris":{"android":"levelo://app?vid=58f5f902-a938-45ee-9e72-3ef7d89b3c2e","ios":"levelo://app?vid=58f5f902-a938-45ee-9e72-3ef7d89b3c2e"},"vehicle_type_id":"4","last_reported":1700298363,"current_range_meters":30400,"station_id":"ce4bhbh2rcd13ifvqepg","pricing_plan_id":"free"},{"bike_id":"51fa00c5-024c-4d9f-9aec-6eba283b2558","system_id":"levelo_inurba_marseille","lat":43.28272,"lon":5.35072,"is_reserved":false,"is_disabled":false,"rental_uris":{"android":"levelo://app?vid=51fa00c5-024c-4d9f-9aec-6eba283b2558","ios":"levelo://app?vid=51fa00c5-024c-4d9f-9aec-6eba283b2558"},"vehicle_type_id":"4","last_reported":1700298363,"current_range_meters":27200,"station_id":"ce4bhbp2rcd13ifvqerg","pricing_plan_id":"free"},{"bike_id":"37afb8a1-d38c-4e69-b339-3a9554ee67d9","system_id":"levelo_inurba_marseille","lat":43.282724,"lon":5.35067,"is_reserved":false,"is_disabled":false,"rental_uris":{"android":"levelo://app?vid=37afb8a1-d38c-4e69-b339-3a9554ee67d9","ios":"levelo://app?vid=37afb8a1-d38c-4e69-b339-3a9554ee67d9"},"vehicle_type_id":"4","last_reported":1700298363,"current_range_meters":27600,"station_id":"ce4bhbp2rcd13ifvqerg","pricing_plan_id":"free"},{"bike_id":"327a643a-22cd-4925-8bbc-90906b38d454","system_id":"levelo_inurba_marseille","lat":43.282716,"lon":5.350693,"is_reserved":false,"is_disabled":false,"rental_uris":{"android":"levelo://app?vid=327a643a-22cd-4925-8bbc-90906b38d454","ios":"levelo://app?vid=327a643a-22cd-4925-8bbc-90906b38d454"},"vehicle_type_id":"4","last_reported":1700298363,"current_range_meters":16800,"station_id":"ce4bhbp2rcd13ifvqerg","pricing_plan_id":"free"},{"bike_id":"80b5416c-8c9c-4055-a384-217940f03694","system_id":"levelo_inurba_marseille","lat":43.282744,"lon":5.350533,"is_reserved":false,"is_disabled":false,"rental_uris":{"android":"levelo://app?vid=80b5416c-8c9c-4055-a384-217940f03694","ios":"levelo://app?vid=80b5416c-8c9c-4055-a384-217940f03694"},"vehicle_type_id":"4","last_reported":1700298363,"current_range_meters":24400,"station_id":"ce4bhbp2rcd13ifvqerg","pricing_plan_id":"free"},{"bike_id":"1f8dc85e-d998-4e89-aadf-399ff938ed18","system_id":"levelo_inurba_marseille","lat":43.28274,"lon":5.35056,"is_reserved":false,"is_disabled":false,"rental_uris":{"android":"levelo://app?vid=1f8dc85e-d998-4e89-aadf-399ff938ed18","ios":"levelo://app?vid=1f8dc85e-d998-4e89-aadf-399ff938ed18"},"vehicle_type_id":"4","last_reported":1700298363,"current_range_meters":19600,"station_id":"ce4bhbp2rcd13ifvqerg","pricing_plan_id":"free"},{"bike_id":"c18a5d8f-4560-4d15-9a8f-7ef9d8701fcc","system_id":"levelo_inurba_marseille","lat":43.282673,"lon":5.350689,"is_reserved":false,"is_disabled":false,"rental_uris":{"android":"levelo://app?vid=c18a5d8f-4560-4d15-9a8f-7ef9d8701fcc","ios":"levelo://app?vid=c18a5d8f-4560-4d15-9a8f-7ef9d8701fcc"},"vehicle_type_id":"4","last_reported":1700298363,"current_range_meters":14000,"station_id":"ce4bhbp2rcd13ifvqerg","pricing_plan_id":"free"},{"bike_id":"a8602007-dbc9-46ac-944e-c0f09c6b964c","system_id":"levelo_inurba_marseille","lat":43.280382,"lon":5.369291,"is_reserved":false,"is_disabled":false,"rental_uris":{"android":"levelo://app?vid=a8602007-dbc9-46ac-944e-c0f09c6b964c","ios":"levelo://app?vid=a8602007-dbc9-46ac-944e-c0f09c6b964c"},"vehicle_type_id":"4","last_reported":1700298363,"current_range_meters":29200,"station_id":"ce4bha12rcd13ifvqef0","pricing_plan_id":"free"},{"bike_id":"3e6e4d65-2811-4682-b4ea-3e8d69d81581","system_id":"levelo_inurba_marseille","lat":43.28039,"lon":5.369297,"is_reserved":false,"is_disabled":false,"rental_uris":{"android":"levelo://app?vid=3e6e4d65-2811-4682-b4ea-3e8d69d81581","ios":"levelo://app?vid=3e6e4d65-2811-4682-b4ea-3e8d69d81581"},"vehicle_type_id":"4","last_reported":1700298363,"current_range_meters":9200,"station_id":"ce4bha12rcd13ifvqef0","pricing_plan_id":"free"},{"bike_id":"9553beb1-76b4-44c9-8c8c-3a08b4ad01bc","system_id":"levelo_inurba_marseille","lat":43.281044,"lon":5.378308,"is_reserved":false,"is_disabled":false,"rental_uris":{"android":"levelo://app?vid=9553beb1-76b4-44c9-8c8c-3a08b4ad01bc","ios":"levelo://app?vid=9553beb1-76b4-44c9-8c8c-3a08b4ad01bc"},"vehicle_type_id":"4","last_reported":1700298363,"current_range_meters":12000,"station_id":"ce4bha12rcd13ifvqee0","pricing_plan_id":"free"},{"bike_id":"1da66701-fa7d-401a-b36d-b8bdda92e01a","system_id":"levelo_inurba_marseille","lat":43.281044,"lon":5.378308,"is_reserved":false,"is_disabled":false,"rental_uris":{"android":"levelo://app?vid=1da66701-fa7d-401a-b36d-b8bdda92e01a","ios":"levelo://app?vid=1da66701-fa7d-401a-b36d-b8bdda92e01a"},"vehicle_type_id":"4","last_reported":1700298363,"current_range_meters":16800,"station_id":"ce4bha12rcd13ifvqee0","pricing_plan_id":"free"},{"bike_id":"c556c9cc-f720-4bf1-96b1-9ef7c4af65fd","system_id":"levelo_inurba_marseille","lat":43.28102,"lon":5.37841,"is_reserved":false,"is_disabled":false,"rental_uris":{"android":"levelo://app?vid=c556c9cc-f720-4bf1-96b1-9ef7c4af65fd","ios":"levelo://app?vid=c556c9cc-f720-4bf1-96b1-9ef7c4af65fd"},"vehicle_type_id":"4","last_reported":1700298363,"current_range_meters":22800,"station_id":"ce4bha12rcd13ifvqee0","pricing_plan_id":"free"},{"bike_id":"ccf9b17e-2fb6-47d5-b5cb-73ea08fcb6e5","system_id":"levelo_inurba_marseille","lat":43.28575,"lon":5.39498,"is_reserved":false,"is_disabled":false,"rental_uris":{"android":"levelo://app?vid=ccf9b17e-2fb6-47d5-b5cb-73ea08fcb6e5","ios":"levelo://app?vid=ccf9b17e-2fb6-47d5-b5cb-73ea08fcb6e5"},"vehicle_type_id":"4","last_reported":1700298363,"current_range_meters":1600,"station_id":"ce4bh292rcd13ifvqdg0","pricing_plan_id":"free"},{"bike_id":"aa6f614f-0a7b-4792-987b-3bbce539c876","system_id":"levelo_inurba_marseille","lat":43.279087,"lon":5.380114,"is_reserved":false,"is_disabled":false,"rental_uris":{"android":"levelo://app?vid=aa6f614f-0a7b-4792-987b-3bbce539c876","ios":"levelo://app?vid=aa6f614f-0a7b-4792-987b-3bbce539c876"},"vehicle_type_id":"4","last_reported":1700298363,"current_range_meters":29600,"station_id":"ce4bhf92rcd13ifvqf50","pricing_plan_id":"free"},{"bike_id":"feca28d2-7019-4e39-96be-d7938cc29597","system_id":"levelo_inurba_marseille","lat":43.32435,"lon":5.4137,"is_reserved":false,"is_disabled":false,"rental_uris":{"android":"levelo://app?vid=feca28d2-7019-4e39-96be-d7938cc29597","ios":"levelo://app?vid=feca28d2-7019-4e39-96be-d7938cc29597"},"vehicle_type_id":"4","last_reported":1700298363,"current_range_meters":0,"station_id":"","pricing_plan_id":"free"},{"bike_id":"4cf8e907-aedd-47e4-9759-a7f1141446ac","system_id":"levelo_inurba_marseille","lat":43.279742,"lon":5.38744,"is_reserved":false,"is_disabled":false,"rental_uris":{"android":"levelo://app?vid=4cf8e907-aedd-47e4-9759-a7f1141446ac","ios":"levelo://app?vid=4cf8e907-aedd-47e4-9759-a7f1141446ac"},"vehicle_type_id":"4","last_reported":1700298363,"current_range_meters":29200,"station_id":"ce4bhg12rcd13ifvqf80","pricing_plan_id":"free"},{"bike_id":"0cc0bf74-e220-4c8c-8073-477825133e92","system_id":"levelo_inurba_marseille","lat":43.279742,"lon":5.38744,"is_reserved":false,"is_disabled":false,"rental_uris":{"android":"levelo://app?vid=0cc0bf74-e220-4c8c-8073-477825133e92","ios":"levelo://app?vid=0cc0bf74-e220-4c8c-8073-477825133e92"},"vehicle_type_id":"4","last_reported":1700298363,"current_range_meters":16000,"station_id":"ce4bhg12rcd13ifvqf80","pricing_plan_id":"free"},{"bike_id":"54300d77-09cc-4ec6-b876-1bfb9ce86e7c","system_id":"levelo_inurba_marseille","lat":43.279742,"lon":5.38744,"is_reserved":false,"is_disabled":false,"rental_uris":{"android":"levelo://app?vid=54300d77-09cc-4ec6-b876-1bfb9ce86e7c","ios":"levelo://app?vid=54300d77-09cc-4ec6-b876-1bfb9ce86e7c"},"vehicle_type_id":"4","last_reported":1700298363,"current_range_meters":21200,"station_id":"ce4bhg12rcd13ifvqf80","pricing_plan_id":"free"},{"bike_id":"d0d34980-813e-4fee-8c6e-92216713e448","system_id":"levelo_inurba_marseille","lat":43.292571,"lon":5.409107,"is_reserved":false,"is_disabled":false,"rental_uris":{"android":"levelo://app?vid=d0d34980-813e-4fee-8c6e-92216713e448","ios":"levelo://app?vid=d0d34980-813e-4fee-8c6e-92216713e448"},"vehicle_type_id":"4","last_reported":1700298363,"current_range_meters":11600,"station_id":"ce4bh192rcd13ifvqdc0","pricing_plan_id":"free"},{"bike_id":"88867eb1-0eeb-46bc-9987-ed65ea1f2093","system_id":"levelo_inurba_marseille","lat":43.275625,"lon":5.384392,"is_reserved":false,"is_disabled":false,"rental_uris":{"android":"levelo://app?vid=88867eb1-0eeb-46bc-9987-ed65ea1f2093","ios":"levelo://app?vid=88867eb1-0eeb-46bc-9987-ed65ea1f2093"},"vehicle_type_id":"4","last_reported":1700298363,"current_range_meters":15200,"station_id":"ce4bhh92rcd13ifvqfi0","pricing_plan_id":"free"},{"bike_id":"27798753-f2b3-48f9-b3f4-a2b5cbbcf382","system_id":"levelo_inurba_marseille","lat":43.273613,"lon":5.362705,"is_reserved":false,"is_disabled":false,"rental_uris":{"android":"levelo://app?vid=27798753-f2b3-48f9-b3f4-a2b5cbbcf382","ios":"levelo://app?vid=27798753-f2b3-48f9-b3f4-a2b5cbbcf382"},"vehicle_type_id":"4","last_reported":1700298363,"current_range_meters":25200,"station_id":"ce4bhbh2rcd13ifvqeo0","pricing_plan_id":"free"},{"bike_id":"06f67de5-3073-47ac-ba2d-8bda52abe678","system_id":"levelo_inurba_marseille","lat":43.273609,"lon":5.362708,"is_reserved":false,"is_disabled":false,"rental_uris":{"android":"levelo://app?vid=06f67de5-3073-47ac-ba2d-8bda52abe678","ios":"levelo://app?vid=06f67de5-3073-47ac-ba2d-8bda52abe678"},"vehicle_type_id":"4","last_reported":1700298363,"current_range_meters":31200,"station_id":"ce4bhbh2rcd13ifvqeo0","pricing_plan_id":"free"},{"bike_id":"ea507944-9e9e-432f-968f-b51d52234a97","system_id":"levelo_inurba_marseille","lat":43.273609,"lon":5.362708,"is_reserved":false,"is_disabled":false,"rental_uris":{"android":"levelo://app?vid=ea507944-9e9e-432f-968f-b51d52234a97","ios":"levelo://app?vid=ea507944-9e9e-432f-968f-b51d52234a97"},"vehicle_type_id":"4","last_reported":1700298363,"current_range_meters":22000,"station_id":"ce4bhbh2rcd13ifvqeo0","pricing_plan_id":"free"},{"bike_id":"a7bdcb51-6b26-48d6-a05e-8a13b68a3479","system_id":"levelo_inurba_marseille","lat":43.273609,"lon":5.362708,"is_reserved":false,"is_disabled":false,"rental_uris":{"android":"levelo://app?vid=a7bdcb51-6b26-48d6-a05e-8a13b68a3479","ios":"levelo://app?vid=a7bdcb51-6b26-48d6-a05e-8a13b68a3479"},"vehicle_type_id":"4","last_reported":1700298363,"current_range_meters":13600,"station_id":"ce4bhbh2rcd13ifvqeo0","pricing_plan_id":"free"},{"bike_id":"33f70642-0c40-40e7-90a7-f7142f61fcb5","system_id":"levelo_inurba_marseille","lat":43.279952,"lon":5.400085,"is_reserved":false,"is_disabled":false,"rental_uris":{"android":"levelo://app?vid=33f70642-0c40-40e7-90a7-f7142f61fcb5","ios":"levelo://app?vid=33f70642-0c40-40e7-90a7-f7142f61fcb5"},"vehicle_type_id":"4","last_reported":1700298363,"current_range_meters":27200,"station_id":"ce4bho92rcd13ifvqh4g","pricing_plan_id":"free"},{"bike_id":"28eb2950-647d-44d2-a49b-6ada0aac509a","system_id":"levelo_inurba_marseille","lat":43.31721,"lon":5.42396,"is_reserved":false,"is_disabled":false,"rental_uris":{"android":"levelo://app?vid=28eb2950-647d-44d2-a49b-6ada0aac509a","ios":"levelo://app?vid=28eb2950-647d-44d2-a49b-6ada0aac509a"},"vehicle_type_id":"4","last_reported":1700298363,"current_range_meters":29200,"station_id":"ce4bhp92rcd13ifvqhbg","pricing_plan_id":"free"},{"bike_id":"00a8f92a-4508-4492-b23c-a088f1c0bc01","system_id":"levelo_inurba_marseille","lat":43.31718,"lon":5.42397,"is_reserved":false,"is_disabled":false,"rental_uris":{"android":"levelo://app?vid=00a8f92a-4508-4492-b23c-a088f1c0bc01","ios":"levelo://app?vid=00a8f92a-4508-4492-b23c-a088f1c0bc01"},"vehicle_type_id":"4","last_reported":1700298363,"current_range_meters":22400,"station_id":"ce4bhp92rcd13ifvqhbg","pricing_plan_id":"free"},{"bike_id":"fb22bd50-f0d2-4147-96d1-15b1701477ba","system_id":"levelo_inurba_marseille","lat":43.31718,"lon":5.42398,"is_reserved":false,"is_disabled":false,"rental_uris":{"android":"levelo://app?vid=fb22bd50-f0d2-4147-96d1-15b1701477ba","ios":"levelo://app?vid=fb22bd50-f0d2-4147-96d1-15b1701477ba"},"vehicle_type_id":"4","last_reported":1700298363,"current_range_meters":7600,"station_id":"ce4bhp92rcd13ifvqhbg","pricing_plan_id":"free"},{"bike_id":"74a31419-3f6b-4206-aa7b-11db0f02f7a6","system_id":"levelo_inurba_marseille","lat":43.317121,"lon":5.423936,"is_reserved":false,"is_disabled":false,"rental_uris":{"android":"levelo://app?vid=74a31419-3f6b-4206-aa7b-11db0f02f7a6","ios":"levelo://app?vid=74a31419-3f6b-4206-aa7b-11db0f02f7a6"},"vehicle_type_id":"4","last_reported":1700298363,"current_range_meters":28800,"station_id":"ce4bhp92rcd13ifvqhbg","pricing_plan_id":"free"},{"bike_id":"c17c797d-9654-4386-9415-5acfda46f9b8","system_id":"levelo_inurba_marseille","lat":43.310785,"lon":5.424305,"is_reserved":false,"is_disabled":false,"rental_uris":{"android":"levelo://app?vid=c17c797d-9654-4386-9415-5acfda46f9b8","ios":"levelo://app?vid=c17c797d-9654-4386-9415-5acfda46f9b8"},"vehicle_type_id":"4","last_reported":1700298363,"current_range_meters":31600,"station_id":"ce4bhp92rcd13ifvqhag","pricing_plan_id":"free"},{"bike_id":"b5ddc018-7ec9-41bb-91dc-411f3c3b71bb","system_id":"levelo_inurba_marseille","lat":43.310785,"lon":5.424305,"is_reserved":false,"is_disabled":false,"rental_uris":{"android":"levelo://app?vid=b5ddc018-7ec9-41bb-91dc-411f3c3b71bb","ios":"levelo://app?vid=b5ddc018-7ec9-41bb-91dc-411f3c3b71bb"},"vehicle_type_id":"4","last_reported":1700298363,"current_range_meters":6000,"station_id":"ce4bhp92rcd13ifvqhag","pricing_plan_id":"free"},{"bike_id":"fb3504da-13bc-4e4b-8bbf-76e751be555a","system_id":"levelo_inurba_marseille","lat":43.317121,"lon":5.423936,"is_reserved":false,"is_disabled":false,"rental_uris":{"android":"levelo://app?vid=fb3504da-13bc-4e4b-8bbf-76e751be555a","ios":"levelo://app?vid=fb3504da-13bc-4e4b-8bbf-76e751be555a"},"vehicle_type_id":"4","last_reported":1700298363,"current_range_meters":27600,"station_id":"ce4bhp92rcd13ifvqhbg","pricing_plan_id":"free"},{"bike_id":"2eb9c8ea-eafc-4114-96e5-18995d764647","system_id":"levelo_inurba_marseille","lat":43.31078,"lon":5.42433,"is_reserved":false,"is_disabled":false,"rental_uris":{"android":"levelo://app?vid=2eb9c8ea-eafc-4114-96e5-18995d764647","ios":"levelo://app?vid=2eb9c8ea-eafc-4114-96e5-18995d764647"},"vehicle_type_id":"4","last_reported":1700298363,"current_range_meters":28400,"station_id":"ce4bhp92rcd13ifvqhag","pricing_plan_id":"free"},{"bike_id":"3233b901-d0bf-43c5-b25f-6a952faac57f","system_id":"levelo_inurba_marseille","lat":43.310785,"lon":5.424305,"is_reserved":false,"is_disabled":false,"rental_uris":{"android":"levelo://app?vid=3233b901-d0bf-43c5-b25f-6a952faac57f","ios":"levelo://app?vid=3233b901-d0bf-43c5-b25f-6a952faac57f"},"vehicle_type_id":"4","last_reported":1700298363,"current_range_meters":25600,"station_id":"ce4bhp92rcd13ifvqhag","pricing_plan_id":"free"},{"bike_id":"a4011b4b-58b9-4b78-8cbd-ce4f2fbd58b9","system_id":"levelo_inurba_marseille","lat":43.273125,"lon":5.390731,"is_reserved":false,"is_disabled":false,"rental_uris":{"android":"levelo://app?vid=a4011b4b-58b9-4b78-8cbd-ce4f2fbd58b9","ios":"levelo://app?vid=a4011b4b-58b9-4b78-8cbd-ce4f2fbd58b9"},"vehicle_type_id":"4","last_reported":1700298363,"current_range_meters":27600,"station_id":"ce4bhgp2rcd13ifvqfe0","pricing_plan_id":"free"},{"bike_id":"9593d8c2-c579-4236-99df-71ffff01cc94","system_id":"levelo_inurba_marseille","lat":43.304096,"lon":5.425385,"is_reserved":false,"is_disabled":false,"rental_uris":{"android":"levelo://app?vid=9593d8c2-c579-4236-99df-71ffff01cc94","ios":"levelo://app?vid=9593d8c2-c579-4236-99df-71ffff01cc94"},"vehicle_type_id":"4","last_reported":1700298363,"current_range_meters":27600,"station_id":"ce4bhoh2rcd13ifvqh6g","pricing_plan_id":"free"},{"bike_id":"20edee0f-2533-4e46-9051-c9cf2e5d2d5c","system_id":"levelo_inurba_marseille","lat":43.30415,"lon":5.42548,"is_reserved":false,"is_disabled":false,"rental_uris":{"android":"levelo://app?vid=20edee0f-2533-4e46-9051-c9cf2e5d2d5c","ios":"levelo://app?vid=20edee0f-2533-4e46-9051-c9cf2e5d2d5c"},"vehicle_type_id":"4","last_reported":1700298363,"current_range_meters":1200,"station_id":"ce4bhoh2rcd13ifvqh6g","pricing_plan_id":"free"},{"bike_id":"00c6d616-50b7-4edf-be65-dd4ae0e261d2","system_id":"levelo_inurba_marseille","lat":43.295523,"lon":5.422926,"is_reserved":false,"is_disabled":false,"rental_uris":{"android":"levelo://app?vid=00c6d616-50b7-4edf-be65-dd4ae0e261d2","ios":"levelo://app?vid=00c6d616-50b7-4edf-be65-dd4ae0e261d2"},"vehicle_type_id":"4","last_reported":1700298363,"current_range_meters":28800,"station_id":"ce4bhph2rcd13ifvqhdg","pricing_plan_id":"free"},{"bike_id":"139753b1-0b83-4c3a-80f1-5052bac15461","system_id":"levelo_inurba_marseille","lat":43.2722,"lon":5.39237,"is_reserved":false,"is_disabled":false,"rental_uris":{"android":"levelo://app?vid=139753b1-0b83-4c3a-80f1-5052bac15461","ios":"levelo://app?vid=139753b1-0b83-4c3a-80f1-5052bac15461"},"vehicle_type_id":"4","last_reported":1700298363,"current_range_meters":8800,"station_id":"","pricing_plan_id":"free"},{"bike_id":"fe139271-7817-4645-9ec4-f7eee743e805","system_id":"levelo_inurba_marseille","lat":43.271896,"lon":5.392307,"is_reserved":false,"is_disabled":false,"rental_uris":{"android":"levelo://app?vid=fe139271-7817-4645-9ec4-f7eee743e805","ios":"levelo://app?vid=fe139271-7817-4645-9ec4-f7eee743e805"},"vehicle_type_id":"4","last_reported":1700298363,"current_range_meters":0,"station_id":"ce4bhhp2rcd13ifvqfm0","pricing_plan_id":"free"},{"bike_id":"f0ed4531-078e-42fb-a007-3ed80505eb54","system_id":"levelo_inurba_marseille","lat":43.271891,"lon":5.392412,"is_reserved":false,"is_disabled":false,"rental_uris":{"android":"levelo://app?vid=f0ed4531-078e-42fb-a007-3ed80505eb54","ios":"levelo://app?vid=f0ed4531-078e-42fb-a007-3ed80505eb54"},"vehicle_type_id":"4","last_reported":1700298363,"current_range_meters":7600,"station_id":"","pricing_plan_id":"free"},{"bike_id":"fe75077d-42bf-43ae-8fa2-44109df3d40a","system_id":"levelo_inurba_marseille","lat":43.27203,"lon":5.39295,"is_reserved":false,"is_disabled":false,"rental_uris":{"android":"levelo://app?vid=fe75077d-42bf-43ae-8fa2-44109df3d40a","ios":"levelo://app?vid=fe75077d-42bf-43ae-8fa2-44109df3d40a"},"vehicle_type_id":"4","last_reported":1700298363,"current_range_meters":0,"station_id":"","pricing_plan_id":"free"},{"bike_id":"760a724d-7a57-4f76-a21d-5e36dd30b0ad","system_id":"levelo_inurba_marseille","lat":43.278128,"lon":5.407195,"is_reserved":false,"is_disabled":false,"rental_uris":{"android":"levelo://app?vid=760a724d-7a57-4f76-a21d-5e36dd30b0ad","ios":"levelo://app?vid=760a724d-7a57-4f76-a21d-5e36dd30b0ad"},"vehicle_type_id":"4","last_reported":1700298363,"current_range_meters":31200,"station_id":"ce4bhnh2rcd13ifvqgtg","pricing_plan_id":"free"},{"bike_id":"7e48823d-3368-424a-8f05-724cbe3dcb0a","system_id":"levelo_inurba_marseille","lat":43.278128,"lon":5.407195,"is_reserved":false,"is_disabled":false,"rental_uris":{"android":"levelo://app?vid=7e48823d-3368-424a-8f05-724cbe3dcb0a","ios":"levelo://app?vid=7e48823d-3368-424a-8f05-724cbe3dcb0a"},"vehicle_type_id":"4","last_reported":1700298363,"current_range_meters":31200,"station_id":"ce4bhnh2rcd13ifvqgtg","pricing_plan_id":"free"},{"bike_id":"07191c92-65ef-4d0a-96f3-7ff2a753689e","system_id":"levelo_inurba_marseille","lat":43.278103,"lon":5.407057,"is_reserved":false,"is_disabled":false,"rental_uris":{"android":"levelo://app?vid=07191c92-65ef-4d0a-96f3-7ff2a753689e","ios":"levelo://app?vid=07191c92-65ef-4d0a-96f3-7ff2a753689e"},"vehicle_type_id":"4","last_reported":1700298363,"current_range_meters":8000,"station_id":"ce4bhnh2rcd13ifvqgtg","pricing_plan_id":"free"},{"bike_id":"244784b6-e12b-45de-aae3-da412ec9e602","system_id":"levelo_inurba_marseille","lat":43.278128,"lon":5.407195,"is_reserved":false,"is_disabled":false,"rental_uris":{"android":"levelo://app?vid=244784b6-e12b-45de-aae3-da412ec9e602","ios":"levelo://app?vid=244784b6-e12b-45de-aae3-da412ec9e602"},"vehicle_type_id":"4","last_reported":1700298363,"current_range_meters":30400,"station_id":"ce4bhnh2rcd13ifvqgtg","pricing_plan_id":"free"},{"bike_id":"2d1af1cb-1841-488f-a049-188741a7a8db","system_id":"levelo_inurba_marseille","lat":43.278128,"lon":5.407195,"is_reserved":false,"is_disabled":false,"rental_uris":{"android":"levelo://app?vid=2d1af1cb-1841-488f-a049-188741a7a8db","ios":"levelo://app?vid=2d1af1cb-1841-488f-a049-188741a7a8db"},"vehicle_type_id":"4","last_reported":1700298363,"current_range_meters":31200,"station_id":"ce4bhnh2rcd13ifvqgtg","pricing_plan_id":"free"},{"bike_id":"ed431335-fb53-4598-a468-fca885eced10","system_id":"levelo_inurba_marseille","lat":43.2781,"lon":5.40707,"is_reserved":false,"is_disabled":false,"rental_uris":{"android":"levelo://app?vid=ed431335-fb53-4598-a468-fca885eced10","ios":"levelo://app?vid=ed431335-fb53-4598-a468-fca885eced10"},"vehicle_type_id":"4","last_reported":1700298363,"current_range_meters":30800,"station_id":"ce4bhnh2rcd13ifvqgtg","pricing_plan_id":"free"},{"bike_id":"38e6db14-c26f-49d4-aa73-bd799097096d","system_id":"levelo_inurba_marseille","lat":43.269467,"lon":5.386439,"is_reserved":false,"is_disabled":false,"rental_uris":{"android":"levelo://app?vid=38e6db14-c26f-49d4-aa73-bd799097096d","ios":"levelo://app?vid=38e6db14-c26f-49d4-aa73-bd799097096d"},"vehicle_type_id":"4","last_reported":1700298363,"current_range_meters":28400,"station_id":"ce4bhh92rcd13ifvqfh0","pricing_plan_id":"free"},{"bike_id":"026c4521-bf21-4673-a052-78f2360c0e67","system_id":"levelo_inurba_marseille","lat":43.26952,"lon":5.38631,"is_reserved":false,"is_disabled":false,"rental_uris":{"android":"levelo://app?vid=026c4521-bf21-4673-a052-78f2360c0e67","ios":"levelo://app?vid=026c4521-bf21-4673-a052-78f2360c0e67"},"vehicle_type_id":"4","last_reported":1700298363,"current_range_meters":0,"station_id":"ce4bhh92rcd13ifvqfh0","pricing_plan_id":"free"},{"bike_id":"462126be-b935-4202-aab0-db26edf447e2","system_id":"levelo_inurba_marseille","lat":43.326104,"lon":5.427086,"is_reserved":false,"is_disabled":false,"rental_uris":{"android":"levelo://app?vid=462126be-b935-4202-aab0-db26edf447e2","ios":"levelo://app?vid=462126be-b935-4202-aab0-db26edf447e2"},"vehicle_type_id":"4","last_reported":1700298363,"current_range_meters":12400,"station_id":"","pricing_plan_id":"free"},{"bike_id":"cb23a270-3f2c-423a-bafa-1ae6818e92e6","system_id":"levelo_inurba_marseille","lat":43.279465,"lon":5.410561,"is_reserved":false,"is_disabled":false,"rental_uris":{"android":"levelo://app?vid=cb23a270-3f2c-423a-bafa-1ae6818e92e6","ios":"levelo://app?vid=cb23a270-3f2c-423a-bafa-1ae6818e92e6"},"vehicle_type_id":"4","last_reported":1700298363,"current_range_meters":30400,"station_id":"ce4bhnp2rcd13ifvqh0g","pricing_plan_id":"free"},{"bike_id":"af657a55-baf4-494c-be31-8c0ac22a2366","system_id":"levelo_inurba_marseille","lat":43.279465,"lon":5.410561,"is_reserved":false,"is_disabled":false,"rental_uris":{"android":"levelo://app?vid=af657a55-baf4-494c-be31-8c0ac22a2366","ios":"levelo://app?vid=af657a55-baf4-494c-be31-8c0ac22a2366"},"vehicle_type_id":"4","last_reported":1700298363,"current_range_meters":26400,"station_id":"ce4bhnp2rcd13ifvqh0g","pricing_plan_id":"free"},{"bike_id":"64cc346d-0158-4992-9671-4af3994124b6","system_id":"levelo_inurba_marseille","lat":43.269319,"lon":5.389397,"is_reserved":false,"is_disabled":false,"rental_uris":{"android":"levelo://app?vid=64cc346d-0158-4992-9671-4af3994124b6","ios":"levelo://app?vid=64cc346d-0158-4992-9671-4af3994124b6"},"vehicle_type_id":"4","last_reported":1700298363,"current_range_meters":31200,"station_id":"ce4bhhh2rcd13ifvqfl0","pricing_plan_id":"free"},{"bike_id":"6ddd1828-7115-4bcf-a56b-9526245d96c5","system_id":"levelo_inurba_marseille","lat":43.269319,"lon":5.389397,"is_reserved":false,"is_disabled":false,"rental_uris":{"android":"levelo://app?vid=6ddd1828-7115-4bcf-a56b-9526245d96c5","ios":"levelo://app?vid=6ddd1828-7115-4bcf-a56b-9526245d96c5"},"vehicle_type_id":"4","last_reported":1700298363,"current_range_meters":30800,"station_id":"ce4bhhh2rcd13ifvqfl0","pricing_plan_id":"free"},{"bike_id":"c7758cb2-2a45-4f89-aa5c-0e391d845c76","system_id":"levelo_inurba_marseille","lat":43.326053,"lon":5.429943,"is_reserved":false,"is_disabled":false,"rental_uris":{"android":"levelo://app?vid=c7758cb2-2a45-4f89-aa5c-0e391d845c76","ios":"levelo://app?vid=c7758cb2-2a45-4f89-aa5c-0e391d845c76"},"vehicle_type_id":"4","last_reported":1700298363,"current_range_meters":3600,"station_id":"","pricing_plan_id":"free"},{"bike_id":"42871d3b-8c03-490f-baf1-f4b57c44a331","system_id":"levelo_inurba_marseille","lat":43.326295,"lon":5.430753,"is_reserved":false,"is_disabled":false,"rental_uris":{"android":"levelo://app?vid=42871d3b-8c03-490f-baf1-f4b57c44a331","ios":"levelo://app?vid=42871d3b-8c03-490f-baf1-f4b57c44a331"},"vehicle_type_id":"4","last_reported":1700298363,"current_range_meters":16400,"station_id":"","pricing_plan_id":"free"},{"bike_id":"07c639d4-d713-4124-a8e8-58892ec5cb44","system_id":"levelo_inurba_marseille","lat":43.27996,"lon":5.416624,"is_reserved":false,"is_disabled":false,"rental_uris":{"android":"levelo://app?vid=07c639d4-d713-4124-a8e8-58892ec5cb44","ios":"levelo://app?vid=07c639d4-d713-4124-a8e8-58892ec5cb44"},"vehicle_type_id":"4","last_reported":1700298363,"current_range_meters":12000,"station_id":"ce4bho12rcd13ifvqh1g","pricing_plan_id":"free"},{"bike_id":"3567af38-b14d-4aab-aed8-29fb809d35fd","system_id":"levelo_inurba_marseille","lat":43.308051,"lon":5.43527,"is_reserved":false,"is_disabled":false,"rental_uris":{"android":"levelo://app?vid=3567af38-b14d-4aab-aed8-29fb809d35fd","ios":"levelo://app?vid=3567af38-b14d-4aab-aed8-29fb809d35fd"},"vehicle_type_id":"4","last_reported":1700298363,"current_range_meters":26800,"station_id":"ce4bhph2rcd13ifvqheg","pricing_plan_id":"free"},{"bike_id":"d154a1be-f179-44a5-8019-4c29c512a18f","system_id":"levelo_inurba_marseille","lat":43.30801,"lon":5.43527,"is_reserved":false,"is_disabled":false,"rental_uris":{"android":"levelo://app?vid=d154a1be-f179-44a5-8019-4c29c512a18f","ios":"levelo://app?vid=d154a1be-f179-44a5-8019-4c29c512a18f"},"vehicle_type_id":"4","last_reported":1700298363,"current_range_meters":25200,"station_id":"ce4bhph2rcd13ifvqheg","pricing_plan_id":"free"},{"bike_id":"a95928ef-295f-4a71-bd37-94075b5efb0e","system_id":"levelo_inurba_marseille","lat":43.307969,"lon":5.435271,"is_reserved":false,"is_disabled":false,"rental_uris":{"android":"levelo://app?vid=a95928ef-295f-4a71-bd37-94075b5efb0e","ios":"levelo://app?vid=a95928ef-295f-4a71-bd37-94075b5efb0e"},"vehicle_type_id":"4","last_reported":1700298363,"current_range_meters":18000,"station_id":"ce4bhph2rcd13ifvqheg","pricing_plan_id":"free"},{"bike_id":"ccc02072-8fc8-472f-b6a8-e3ecf09fcd2b","system_id":"levelo_inurba_marseille","lat":43.26564,"lon":5.38996,"is_reserved":false,"is_disabled":false,"rental_uris":{"android":"levelo://app?vid=ccc02072-8fc8-472f-b6a8-e3ecf09fcd2b","ios":"levelo://app?vid=ccc02072-8fc8-472f-b6a8-e3ecf09fcd2b"},"vehicle_type_id":"4","last_reported":1700298363,"current_range_meters":15200,"station_id":"ce4bhe12rcd13ifvqf30","pricing_plan_id":"free"},{"bike_id":"ffa65441-fcb2-4574-8342-5833930003ab","system_id":"levelo_inurba_marseille","lat":43.265571,"lon":5.390032,"is_reserved":false,"is_disabled":false,"rental_uris":{"android":"levelo://app?vid=ffa65441-fcb2-4574-8342-5833930003ab","ios":"levelo://app?vid=ffa65441-fcb2-4574-8342-5833930003ab"},"vehicle_type_id":"4","last_reported":1700298363,"current_range_meters":29600,"station_id":"ce4bhe12rcd13ifvqf30","pricing_plan_id":"free"},{"bike_id":"e8029796-5ce9-4bb0-bb08-8e6312aaa666","system_id":"levelo_inurba_marseille","lat":43.26564,"lon":5.38999,"is_reserved":false,"is_disabled":false,"rental_uris":{"android":"levelo://app?vid=e8029796-5ce9-4bb0-bb08-8e6312aaa666","ios":"levelo://app?vid=e8029796-5ce9-4bb0-bb08-8e6312aaa666"},"vehicle_type_id":"4","last_reported":1700298363,"current_range_meters":30800,"station_id":"ce4bhe12rcd13ifvqf30","pricing_plan_id":"free"},{"bike_id":"48b34901-98b1-4ca5-802a-361f7e519a7b","system_id":"levelo_inurba_marseille","lat":43.26565,"lon":5.390079,"is_reserved":false,"is_disabled":false,"rental_uris":{"android":"levelo://app?vid=48b34901-98b1-4ca5-802a-361f7e519a7b","ios":"levelo://app?vid=48b34901-98b1-4ca5-802a-361f7e519a7b"},"vehicle_type_id":"4","last_reported":1700298363,"current_range_meters":27200,"station_id":"ce4bhe12rcd13ifvqf30","pricing_plan_id":"free"},{"bike_id":"1b4846e2-6b27-4bc8-a550-a33356822100","system_id":"levelo_inurba_marseille","lat":43.26566,"lon":5.39016,"is_reserved":false,"is_disabled":false,"rental_uris":{"android":"levelo://app?vid=1b4846e2-6b27-4bc8-a550-a33356822100","ios":"levelo://app?vid=1b4846e2-6b27-4bc8-a550-a33356822100"},"vehicle_type_id":"4","last_reported":1700298363,"current_range_meters":25200,"station_id":"ce4bhe12rcd13ifvqf30","pricing_plan_id":"free"},{"bike_id":"8841e61d-5094-420b-b48b-1505a639866c","system_id":"levelo_inurba_marseille","lat":43.26562,"lon":5.390028,"is_reserved":false,"is_disabled":false,"rental_uris":{"android":"levelo://app?vid=8841e61d-5094-420b-b48b-1505a639866c","ios":"levelo://app?vid=8841e61d-5094-420b-b48b-1505a639866c"},"vehicle_type_id":"4","last_reported":1700298363,"current_range_meters":17600,"station_id":"ce4bhe12rcd13ifvqf30","pricing_plan_id":"free"},{"bike_id":"03d7f141-f6e0-47b5-8c95-7165c2102dca","system_id":"levelo_inurba_marseille","lat":43.26559,"lon":5.39011,"is_reserved":false,"is_disabled":false,"rental_uris":{"android":"levelo://app?vid=03d7f141-f6e0-47b5-8c95-7165c2102dca","ios":"levelo://app?vid=03d7f141-f6e0-47b5-8c95-7165c2102dca"},"vehicle_type_id":"4","last_reported":1700298363,"current_range_meters":1600,"station_id":"ce4bhe12rcd13ifvqf30","pricing_plan_id":"free"},{"bike_id":"20622fa2-97ee-420d-a67c-4bd7e78f66a2","system_id":"levelo_inurba_marseille","lat":43.26946,"lon":5.40249,"is_reserved":false,"is_disabled":false,"rental_uris":{"android":"levelo://app?vid=20622fa2-97ee-420d-a67c-4bd7e78f66a2","ios":"levelo://app?vid=20622fa2-97ee-420d-a67c-4bd7e78f66a2"},"vehicle_type_id":"4","last_reported":1700298363,"current_range_meters":0,"station_id":"cjm6bp8fraef2m0cb0m0","pricing_plan_id":"free"},{"bike_id":"e6af428b-b31e-44fb-b0ae-27fa08fa5733","system_id":"levelo_inurba_marseille","lat":43.26949,"lon":5.40262,"is_reserved":false,"is_disabled":false,"rental_uris":{"android":"levelo://app?vid=e6af428b-b31e-44fb-b0ae-27fa08fa5733","ios":"levelo://app?vid=e6af428b-b31e-44fb-b0ae-27fa08fa5733"},"vehicle_type_id":"4","last_reported":1700298363,"current_range_meters":25200,"station_id":"cjm6bp8fraef2m0cb0m0","pricing_plan_id":"free"},