{"last_updated":1729868969,"ttl":60,"version":"2.2","data":{"bikes":[{"bike_id":"8e223a90-bf31-4df3-939c-5e5b017ab308","system_id":"levelo_inurba_marseille","lat":43.28347,"lon":5.38104,"is_reserved":false,"is_disabled":false,"rental_uris":{"android":"levelo://app?vid=8e223a90-bf31-4df3-939c-5e5b017ab308","ios":"levelo://app?vid=8e223a90-bf31-4df3-939c-5e5b017ab308"},"vehicle_type_id":"4","last_reported":1729868969,"current_range_meters":22800,"station_id":"ce4bh412rcd13ifvqdr0","pricing_plan_id":"cebpf4jnsgd1na2vs0mg"},{"bike_id":"d1a64d69-ba04-4aca-8024-51c798360fd2","system_id":"levelo_inurba_marseille","lat":43.30323,"lon":5.369,"is_reserved":false,"is_disabled":false,"rental_uris":{"android":"levelo://app?vid=d1a64d69-ba04-4aca-8024-51c798360fd2","ios":"levelo://app?vid=d1a64d69-ba04-4aca-8024-51c798360fd2"},"vehicle_type_id":"4","last_reported":1729868969,"current_range_meters":36800,"station_id":"ce4bgqh2rcd13ifvqc5g","pricing_plan_id":"cebpf4jnsgd1na2vs0mg"},{"bike_id":"580d0ef0-7f75-4a21-9e6f-558b7a98dd16","system_id":"levelo_inurba_marseille","lat":43.28268,"lon":5.35055,"is_reserved":false,"is_disabled":false,"rental_uris":{"android":"levelo://app?vid=580d0ef0-7f75-4a21-9e6f-558b7a98dd16","ios":"levelo://app?vid=580d0ef0-7f75-4a21-9e6f-558b7a98dd16"},"vehicle_type_id":"4","last_reported":1729868969,"current_range_meters":12400,"station_id":"ce4bhbp2rcd13ifvqerg","pricing_plan_id":"cebpf4jnsgd1na2vs0mg"},{"bike_id":"3ec43732-9ba3-4ed3-8d55-e2d21b31c8e2","system_id":"levelo_inurba_marseille","lat":43.24388,"lon":5.37058,"is_reserved":false,"is_disabled":false,"rental_uris":{"android":"levelo://app?vid=3ec43732-9ba3-4ed3-8d55-e2d21b31c8e2","ios":"levelo://app?vid=3ec43732-9ba3-4ed3-8d55-e2d21b31c8e2"},"vehicle_type_id":"4","last_reported":1729868969,"current_range_meters":4400,"station_id":"ce4bhhh2rcd13ifvqfk0","pricing_plan_id":"cebpf4jnsgd1na2vs0mg"},{"bike_id":"8394c489-0862-4d5b-8b19-a87b5b5f82bc","system_id":"levelo_inurba_marseille","lat":43.30145,"lon":5.38077,"is_reserved":false,"is_disabled":false,"rental_uris":{"android":"levelo://app?vid=8394c489-0862-4d5b-8b19-a87b5b5f82bc","ios":"levelo://app?vid=8394c489-0862-4d5b-8b19-a87b5b5f82bc"},"vehicle_type_id":"4","last_reported":1729868969,"current_range_meters":32000,"station_id":"ce4bgjp2rcd13ifvqbh0","pricing_plan_id":"cebpf4jnsgd1na2vs0mg"},{"bike_id":"4e80b807-e9c1-424e-b857-9683df278543","system_id":"levelo_inurba_marseille","lat":43.29769,"lon":5.37106,"is_reserved":false,"is_disabled":false,"rental_uris":{"android":"levelo://app?vid=4e80b807-e9c1-424e-b857-9683df278543","ios":"levelo://app?vid=4e80b807-e9c1-424e-b857-9683df278543"},"vehicle_type_id":"4","last_reported":1729868969,"current_range_meters":38800,"station_id":"ce4bgop2rcd13ifvqc1g","pricing_plan_id":"cebpf4jnsgd1na2vs0mg"},{"bike_id":"7c0b6794-23b4-420d-a27b-6cbac47fee40","system_id":"levelo_inurba_marseille","lat":43.300902,"lon":5.390712,"is_reserved":false,"is_disabled":false,"rental_uris":{"android":"levelo://app?vid=7c0b6794-23b4-420d-a27b-6cbac47fee40","ios":"levelo://app?vid=7c0b6794-23b4-420d-a27b-6cbac47fee40"},"vehicle_type_id":"4","last_reported":1729868969,"current_range_meters":30800,"station_id":"ce4bh192rcd13ifvqdb0","pricing_plan_id":"cebpf4jnsgd1na2vs0mg"},{"bike_id":"04df14ff-97d4-4ebe-b538-2e47742b3287","system_id":"levelo_inurba_marseille","lat":43.28462,"lon":5.35892,"is_reserved":false,"is_disabled":false,"rental_uris":{"android":"levelo://app?vid=04df14ff-97d4-4ebe-b538-2e47742b3287","ios":"levelo://app?vid=04df14ff-97d4-4ebe-b538-2e47742b3287"},"vehicle_type_id":"4","last_reported":1729868969,"current_range_meters":14800,"station_id":"ce4bhah2rcd13ifvqei0","pricing_plan_id":"cebpf4jnsgd1na2vs0mg"},{"bike_id":"d838620b-1bc9-4c30-975f-0710407696aa","system_id":"levelo_inurba_marseille","lat":43.28257,"lon":5.35082,"is_reserved":false,"is_disabled":false,"rental_uris":{"android":"levelo://app?vid=d838620b-1bc9-4c30-975f-0710407696aa","ios":"levelo://app?vid=d838620b-1bc9-4c30-975f-0710407696aa"},"vehicle_type_id":"4","last_reported":1729868969,"current_range_meters":12400,"station_id":"ce4bhbp2rcd13ifvqerg","pricing_plan_id":"cebpf4jnsgd1na2vs0mg"},{"bike_id":"9d1cd237-9ab8-4454-9ff2-91c0ccde9352","system_id":"levelo_inurba_marseille","lat":43.28108,"lon":5.37838,"is_reserved":false,"is_disabled":false,"rental_uris":{"android":"levelo://app?vid=9d1cd237-9ab8-4454-9ff2-91c0ccde9352","ios":"levelo://app?vid=9d1cd237-9ab8-4454-9ff2-91c0ccde9352"},"vehicle_type_id":"4","last_reported":1729868969,"current_range_meters":30000,"station_id":"ce4bha12rcd13ifvqee0","pricing_plan_id":"cebpf4jnsgd1na2vs0mg"},{"bike_id":"b6341cca-4cf5-40ea-ada8-0866a406b6af","system_id":"levelo_inurba_marseille","lat":43.299205,"lon":5.3747,"is_reserved":false,"is_disabled":false,"rental_uris":{"android":"levelo://app?vid=b6341cca-4cf5-40ea-ada8-0866a406b6af","ios":"levelo://app?vid=b6341cca-4cf5-40ea-ada8-0866a406b6af"},"vehicle_type_id":"4","last_reported":1729868969,"current_range_meters":9200,"station_id":"ce4bgjh2rcd13ifvqbg0","pricing_plan_id":"cebpf4jnsgd1na2vs0mg"},{"bike_id":"9599c4fc-c410-4b36-99ac-88cbfe00e111","system_id":"levelo_inurba_marseille","lat":43.30482,"lon":5.379,"is_reserved":false,"is_disabled":false,"rental_uris":{"android":"levelo://app?vid=9599c4fc-c410-4b36-99ac-88cbfe00e111","ios":"levelo://app?vid=9599c4fc-c410-4b36-99ac-88cbfe00e111"},"vehicle_type_id":"4","last_reported":1729868969,"current_range_meters":33200,"station_id":"ce4bgup2rcd13ifvqcn0","pricing_plan_id":"cebpf4jnsgd1na2vs0mg"},{"bike_id":"05f15195-028a-42fc-980f-e10f3d2f4906","system_id":"levelo_inurba_marseille","lat":43.29517,"lon":5.3904,"is_reserved":false,"is_disabled":false,"rental_uris":{"android":"levelo://app?vid=05f15195-028a-42fc-980f-e10f3d2f4906","ios":"levelo://app?vid=05f15195-028a-42fc-980f-e10f3d2f4906"},"vehicle_type_id":"4","last_reported":1729868969,"current_range_meters":36800,"station_id":"ce4bh3p2rcd13ifvqdp0","pricing_plan_id":"cebpf4jnsgd1na2vs0mg"},{"bike_id":"25619a0e-861d-4e01-9b56-fddfb2375f0f","system_id":"levelo_inurba_marseille","lat":43.25823,"lon":5.39444,"is_reserved":false,"is_disabled":false,"rental_uris":{"android":"levelo://app?vid=25619a0e-861d-4e01-9b56-fddfb2375f0f","ios":"levelo://app?vid=25619a0e-861d-4e01-9b56-fddfb2375f0f"},"vehicle_type_id":"4","last_reported":1729868969,"current_range_meters":32000,"station_id":"ce4bhip2rcd13ifvqft0","pricing_plan_id":"cebpf4jnsgd1na2vs0mg"},{"bike_id":"8356c5d4-022e-4d3b-86af-d0e11de8dbb5","system_id":"levelo_inurba_marseille","lat":43.23192,"lon":5.39984,"is_reserved":false,"is_disabled":false,"rental_uris":{"android":"levelo://app?vid=8356c5d4-022e-4d3b-86af-d0e11de8dbb5","ios":"levelo://app?vid=8356c5d4-022e-4d3b-86af-d0e11de8dbb5"},"vehicle_type_id":"4","last_reported":1729868969,"current_range_meters":12400,"station_id":"ce4bhn12rcd13ifvqgqg","pricing_plan_id":"cebpf4jnsgd1na2vs0mg"},{"bike_id":"9f6c2843-8d9d-4d6f-adb6-93b14e153044","system_id":"levelo_inurba_marseille","lat":43.31709,"lon":5.37761,"is_reserved":false,"is_disabled":false,"rental_uris":{"android":"levelo://app?vid=9f6c2843-8d9d-4d6f-adb6-93b14e153044","ios":"levelo://app?vid=9f6c2843-8d9d-4d6f-adb6-93b14e153044"},"vehicle_type_id":"4","last_reported":1729868969,"current_range_meters":37600,"station_id":"ce4bgth2rcd13ifvqch0","pricing_plan_id":"cebpf4jnsgd1na2vs0mg"},{"bike_id":"a69925f5-f019-426c-87f5-a7e7e2d934bf","system_id":"levelo_inurba_marseille","lat":43.24649,"lon":5.38894,"is_reserved":false,"is_disabled":false,"rental_uris":{"android":"levelo://app?vid=a69925f5-f019-426c-87f5-a7e7e2d934bf","ios":"levelo://app?vid=a69925f5-f019-426c-87f5-a7e7e2d934bf"},"vehicle_type_id":"4","last_reported":1729868969,"current_range_meters":32000,"station_id":"ce4bhg12rcd13ifvqf60","pricing_plan_id":"cebpf4jnsgd1na2vs0mg"},{"bike_id":"5a20c8f8-bfaf-4310-9655-f51aba9e192f","system_id":"levelo_inurba_marseille","lat":43.31319,"lon":5.39701,"is_reserved":false,"is_disabled":false,"rental_uris":{"android":"levelo://app?vid=5a20c8f8-bfaf-4310-9655-f51aba9e192f","ios":"levelo://app?vid=5a20c8f8-bfaf-4310-9655-f51aba9e192f"},"vehicle_type_id":"4","last_reported":1729868969,"current_range_meters":23200,"station_id":"ce4bgvp2rcd13ifvqcu0","pricing_plan_id":"cebpf4jnsgd1na2vs0mg"},{"bike_id":"36de3157-2f70-4293-bd3c-a4f89bda5122","system_id":"levelo_inurba_marseille","lat":43.27367,"lon":5.36262,"is_reserved":false,"is_disabled":false,"rental_uris":{"android":"levelo://app?vid=36de3157-2f70-4293-bd3c-a4f89bda5122","ios":"levelo://app?vid=36de3157-2f70-4293-bd3c-a4f89bda5122"},"vehicle_type_id":"4","last_reported":1729868969,"current_range_meters":11200,"station_id":"ce4bhbh2rcd13ifvqeo0","pricing_plan_id":"cebpf4jnsgd1na2vs0mg"},{"bike_id":"6207e24e-6c38-4753-b7b0-08ff7ff761cb","system_id":"levelo_inurba_marseille","lat":43.30534,"lon":5.36555,"is_reserved":false,"is_disabled":false,"rental_uris":{"android":"levelo://app?vid=6207e24e-6c38-4753-b7b0-08ff7ff761cb","ios":"levelo://app?vid=6207e24e-6c38-4753-b7b0-08ff7ff761cb"},"vehicle_type_id":"4","last_reported":1729868969,"current_range_meters":38800,"station_id":"ce4bgs12rcd13ifvqcag","pricing_plan_id":"cebpf4jnsgd1na2vs0mg"},{"bike_id":"a6060deb-3edf-4ad3-8ed9-5dafccfe2ed1","system_id":"levelo_inurba_marseille","lat":43.28032,"lon":5.36953,"is_reserved":false,"is_disabled":false,"rental_uris":{"android":"levelo://app?vid=a6060deb-3edf-4ad3-8ed9-5dafccfe2ed1","ios":"levelo://app?vid=a6060deb-3edf-4ad3-8ed9-5dafccfe2ed1"},"vehicle_type_id":"4","last_reported":1729868969,"current_range_meters":22000,"station_id":"ce4bha12rcd13ifvqef0","pricing_plan_id":"cebpf4jnsgd1na2vs0mg"},{"bike_id":"bdd8ff7c-fd85-48f5-ba32-460bcd604075","system_id":"levelo_inurba_marseille","lat":43.29235,"lon":5.36071,"is_reserved":false,"is_disabled":false,"rental_uris":{"android":"levelo://app?vid=bdd8ff7c-fd85-48f5-ba32-460bcd604075","ios":"levelo://app?vid=bdd8ff7c-fd85-48f5-ba32-460bcd604075"},"vehicle_type_id":"4","last_reported":1729868969,"current_range_meters":24000,"station_id":"ce4bhbh2rcd13ifvqeqg","pricing_plan_id":"cebpf4jnsgd1na2vs0mg"},{"bike_id":"364cd6a0-b0fb-4284-8571-1df4d16a9916","system_id":"levelo_inurba_marseille","lat":43.324841,"lon":5.365715,"is_reserved":false,"is_disabled":false,"rental_uris":{"android":"levelo://app?vid=364cd6a0-b0fb-4284-8571-1df4d16a9916","ios":"levelo://app?vid=364cd6a0-b0fb-4284-8571-1df4d16a9916"},"vehicle_type_id":"4","last_reported":1729868969,"current_range_meters":20800,"station_id":"ce4bhs12rcd13ifvqhvg","pricing_plan_id":"cebpf4jnsgd1na2vs0mg"},{"bike_id":"cfcec57d-4d47-4f28-b208-7cf1c4ea6be1","system_id":"levelo_inurba_marseille","lat":43.30447,"lon":5.38905,"is_reserved":false,"is_disabled":false,"rental_uris":{"android":"levelo://app?vid=cfcec57d-4d47-4f28-b208-7cf1c4ea6be1","ios":"levelo://app?vid=cfcec57d-4d47-4f28-b208-7cf1c4ea6be1"},"vehicle_type_id":"4","last_reported":1729868969,"current_range_meters":25600,"station_id":"ce4bgk12rcd13ifvqbi0","pricing_plan_id":"cebpf4jnsgd1na2vs0mg"},{"bike_id":"a64c247a-c998-4f68-80aa-ff79e12be9ce","system_id":"levelo_inurba_marseille","lat":43.29224,"lon":5.36074,"is_reserved":false,"is_disabled":false,"rental_uris":{"android":"levelo://app?vid=a64c247a-c998-4f68-80aa-ff79e12be9ce","ios":"levelo://app?vid=a64c247a-c998-4f68-80aa-ff79e12be9ce"},"vehicle_type_id":"4","last_reported":1729868969,"current_range_meters":27600,"station_id":"ce4bhbh2rcd13ifvqeqg","pricing_plan_id":"cebpf4jnsgd1na2vs0mg"},{"bike_id":"1c46fec3-649a-4d9b-8d76-b073994b5068","system_id":"levelo_inurba_marseille","lat":43.30263,"lon":5.40078,"is_reserved":false,"is_disabled":false,"rental_uris":{"android":"levelo://app?vid=1c46fec3-649a-4d9b-8d76-b073994b5068","ios":"levelo://app?vid=1c46fec3-649a-4d9b-8d76-b073994b5068"},"vehicle_type_id":"4","last_reported":1729868969,"current_range_meters":2800,"station_id":"ce4bgvh2rcd13ifvqcs0","pricing_plan_id":"cebpf4jnsgd1na2vs0mg"},{"bike_id":"28eae170-99b9-49a5-b48e-f01277843867","system_id":"levelo_inurba_marseille","lat":43.27815,"lon":5.40706,"is_reserved":false,"is_disabled":false,"rental_uris":{"android":"levelo://app?vid=28eae170-99b9-49a5-b48e-f01277843867","ios":"levelo://app?vid=28eae170-99b9-49a5-b48e-f01277843867"},"vehicle_type_id":"4","last_reported":1729868969,"current_range_meters":38400,"station_id":"ce4bhnh2rcd13ifvqgtg","pricing_plan_id":"cebpf4jnsgd1na2vs0mg"},{"bike_id":"cbc9d2ee-c740-4b1a-96a2-f51c977a89aa","system_id":"levelo_inurba_marseille","lat":43.31759,"lon":5.39027,"is_reserved":false,"is_disabled":false,"rental_uris":{"android":"levelo://app?vid=cbc9d2ee-c740-4b1a-96a2-f51c977a89aa","ios":"levelo://app?vid=cbc9d2ee-c740-4b1a-96a2-f51c977a89aa"},"vehicle_type_id":"4","last_reported":1729868969,"current_range_meters":38800,"station_id":"ce4bhqp2rcd13ifvqhng","pricing_plan_id":"cebpf4jnsgd1na2vs0mg"},{"bike_id":"9018cd0c-b4b3-4239-b3bf-58257b87b1cc","system_id":"levelo_inurba_marseille","lat":43.28266,"lon":5.35076,"is_reserved":false,"is_disabled":false,"rental_uris":{"android":"levelo://app?vid=9018cd0c-b4b3-4239-b3bf-58257b87b1cc","ios":"levelo://app?vid=9018cd0c-b4b3-4239-b3bf-58257b87b1cc"},"vehicle_type_id":"4","last_reported":1729868969,"current_range_meters":35600,"station_id":"ce4bhbp2rcd13ifvqerg","pricing_plan_id":"cebpf4jnsgd1na2vs0mg"},{"bike_id":"ab8a2d24-7bb7-4dd4-b261-bb0c7cc06631","system_id":"levelo_inurba_marseille","lat":43.22932,"lon":5.35371,"is_reserved":false,"is_disabled":false,"rental_uris":{"android":"levelo://app?vid=ab8a2d24-7bb7-4dd4-b261-bb0c7cc06631","ios":"levelo://app?vid=ab8a2d24-7bb7-4dd4-b261-bb0c7cc06631"},"vehicle_type_id":"4","last_reported":1729868969,"current_range_meters":36400,"station_id":"cpo3532slgdg3j2ikp40","pricing_plan_id":"cebpf4jnsgd1na2vs0mg"},{"bike_id":"1ebde0f3-4d7a-4f17-889f-b2cd5352432c","system_id":"levelo_inurba_marseille","lat":43.32656,"lon":5.40994,"is_reserved":false,"is_disabled":false,"rental_uris":{"android":"levelo://app?vid=1ebde0f3-4d7a-4f17-889f-b2cd5352432c","ios":"levelo://app?vid=1ebde0f3-4d7a-4f17-889f-b2cd5352432c"},"vehicle_type_id":"4","last_reported":1729868969,"current_range_meters":38000,"station_id":"ce4bhpp2rcd13ifvqhgg","pricing_plan_id":"cebpf4jnsgd1na2vs0mg"},{"bike_id":"5efc7cd6-6ec0-4a9a-9799-5befcecd962a","system_id":"levelo_inurba_marseille","lat":43.2558,"lon":5.38242,"is_reserved":false,"is_disabled":false,"rental_uris":{"android":"levelo://app?vid=5efc7cd6-6ec0-4a9a-9799-5befcecd962a","ios":"levelo://app?vid=5efc7cd6-6ec0-4a9a-9799-5befcecd962a"},"vehicle_type_id":"4","last_reported":1729868969,"current_range_meters":3200,"station_id":"ce4bhih2rcd13ifvqfs0","pricing_plan_id":"cebpf4jnsgd1na2vs0mg"},{"bike_id":"f9ea2d7a-ef6f-456c-821f-5d2f44115b71","system_id":"levelo_inurba_marseille","lat":43.29977,"lon":5.3848,"is_reserved":false,"is_disabled":false,"rental_uris":{"android":"levelo://app?vid=f9ea2d7a-ef6f-456c-821f-5d2f44115b71","ios":"levelo://app?vid=f9ea2d7a-ef6f-456c-821f-5d2f44115b71"},"vehicle_type_id":"4","last_reported":1729868969,"current_range_meters":39200,"station_id":"ce4bgj92rcd13ifvqbd0","pricing_plan_id":"cebpf4jnsgd1na2vs0mg"},{"bike_id":"bb3ecff4-35a7-4bd0-979a-10a51414d893","system_id":"levelo_inurba_marseille","lat":43.301873,"lon":5.366278,"is_reserved":false,"is_disabled":false,"rental_uris":{"android":"levelo://app?vid=bb3ecff4-35a7-4bd0-979a-10a51414d893","ios":"levelo://app?vid=bb3ecff4-35a7-4bd0-979a-10a51414d893"},"vehicle_type_id":"4","last_reported":1729868969,"current_range_meters":9200,"station_id":"ce4bgrh2rcd13ifvqc8g","pricing_plan_id":"cebpf4jnsgd1na2vs0mg"},{"bike_id":"360d9fb3-73ff-44a1-b91e-180fd807e4c4","system_id":"levelo_inurba_marseille","lat":43.25111,"lon":5.40312,"is_reserved":false,"is_disabled":false,"rental_uris":{"android":"levelo://app?vid=360d9fb3-73ff-44a1-b91e-180fd807e4c4","ios":"levelo://app?vid=360d9fb3-73ff-44a1-b91e-180fd807e4c4"},"vehicle_type_id":"4","last_reported":1729868969,"current_range_meters":26000,"station_id":"ce4bhlh2rcd13ifvqgig","pricing_plan_id":"cebpf4jnsgd1na2vs0mg"},{"bike_id":"0b783ecd-d6de-44ad-b374-e9ca82a4ae19","system_id":"levelo_inurba_marseille","lat":43.30799,"lon":5.38148,"is_reserved":false,"is_disabled":false,"rental_uris":{"android":"levelo://app?vid=0b783ecd-d6de-44ad-b374-e9ca82a4ae19","ios":"levelo://app?vid=0b783ecd-d6de-44ad-b374-e9ca82a4ae19"},"vehicle_type_id":"4","last_reported":1729868969,"current_range_meters":17200,"station_id":"ce4bgt12rcd13ifvqce0","pricing_plan_id":"cebpf4jnsgd1na2vs0mg"},{"bike_id":"fbda76cf-ad32-44f5-8e46-a16eaabd2829","system_id":"levelo_inurba_marseille","lat":43.2293,"lon":5.35384,"is_reserved":false,"is_disabled":false,"rental_uris":{"android":"levelo://app?vid=fbda76cf-ad32-44f5-8e46-a16eaabd2829","ios":"levelo://app?vid=fbda76cf-ad32-44f5-8e46-a16eaabd2829"},"vehicle_type_id":"4","last_reported":1729868969,"current_range_meters":19200,"station_id":"cpo3532slgdg3j2ikp40","pricing_plan_id":"cebpf4jnsgd1na2vs0mg"},{"bike_id":"e3ee5f84-4d74-4ce5-9540-764d9f311735","system_id":"levelo_inurba_marseille","lat":43.30271,"lon":5.37701,"is_reserved":false,"is_disabled":false,"rental_uris":{"android":"levelo://app?vid=e3ee5f84-4d74-4ce5-9540-764d9f311735","ios":"levelo://app?vid=e3ee5f84-4d74-4ce5-9540-764d9f311735"},"vehicle_type_id":"4","last_reported":1729868969,"current_range_meters":27600,"station_id":"ce4bguh2rcd13ifvqcj0","pricing_plan_id":"cebpf4jnsgd1na2vs0mg"},{"bike_id":"55f31542-79d5-4876-8508-e9985cb2a203","system_id":"levelo_inurba_marseille","lat":43.28416,"lon":5.34989,"is_reserved":false,"is_disabled":false,"rental_uris":{"android":"levelo://app?vid=55f31542-79d5-4876-8508-e9985cb2a203","ios":"levelo://app?vid=55f31542-79d5-4876-8508-e9985cb2a203"},"vehicle_type_id":"4","last_reported":1729868969,"current_range_meters":39200,"station_id":"ce4bhbh2rcd13ifvqepg","pricing_plan_id":"cebpf4jnsgd1na2vs0mg"},{"bike_id":"55b57a65-e036-48f3-8056-d52f67508afe","system_id":"levelo_inurba_marseille","lat":43.31532,"lon":5.3804,"is_reserved":false,"is_disabled":false,"rental_uris":{"android":"levelo://app?vid=55b57a65-e036-48f3-8056-d52f67508afe","ios":"levelo://app?vid=55b57a65-e036-48f3-8056-d52f67508afe"},"vehicle_type_id":"4","last_reported":1729868969,"current_range_meters":18800,"station_id":"ce4bhsp2rcd13ifvqi50","pricing_plan_id":"cebpf4jnsgd1na2vs0mg"},{"bike_id":"1030de55-8c49-48bd-aba3-278c8c86df09","system_id":"levelo_inurba_marseille","lat":43.29903,"lon":5.38154,"is_reserved":false,"is_disabled":false,"rental_uris":{"android":"levelo://app?vid=1030de55-8c49-48bd-aba3-278c8c86df09","ios":"levelo://app?vid=1030de55-8c49-48bd-aba3-278c8c86df09"},"vehicle_type_id":"4","last_reported":1729868969,"current_range_meters":9200,"station_id":"ce4bgj12rcd13ifvqbc0","pricing_plan_id":"cebpf4jnsgd1na2vs0mg"},{"bike_id":"98ecce93-5d04-40bb-9e63-639100b5f602","system_id":"levelo_inurba_marseille","lat":43.28973,"lon":5.37835,"is_reserved":false,"is_disabled":false,"rental_uris":{"android":"levelo://app?vid=98ecce93-5d04-40bb-9e63-639100b5f602","ios":"levelo://app?vid=98ecce93-5d04-40bb-9e63-639100b5f602"},"vehicle_type_id":"4","last_reported":1729868969,"current_range_meters":6400,"station_id":"ce4bh9p2rcd13ifvqed0","pricing_plan_id":"cebpf4jnsgd1na2vs0mg"},{"bike_id":"1fe7a754-88e8-464c-a31c-86bf41ad4349","system_id":"levelo_inurba_marseille","lat":43.30292,"lon":5.377,"is_reserved":false,"is_disabled":false,"rental_uris":{"android":"levelo://app?vid=1fe7a754-88e8-464c-a31c-86bf41ad4349","ios":"levelo://app?vid=1fe7a754-88e8-464c-a31c-86bf41ad4349"},"vehicle_type_id":"4","last_reported":1729868969,"current_range_meters":22800,"station_id":"ce4bguh2rcd13ifvqcj0","pricing_plan_id":"cebpf4jnsgd1na2vs0mg"},{"bike_id":"ca69b731-c5ec-4da0-9820-209054238bdc","system_id":"levelo_inurba_marseille","lat":43.28728,"lon":5.36085,"is_reserved":false,"is_disabled":false,"rental_uris":{"android":"levelo://app?vid=ca69b731-c5ec-4da0-9820-209054238bdc","ios":"levelo://app?vid=ca69b731-c5ec-4da0-9820-209054238bdc"},"vehicle_type_id":"4","last_reported":1729868969,"current_range_meters":19200,"station_id":"cki0cbj6b192h4jlfktg","pricing_plan_id":"cebpf4jnsgd1na2vs0mg"},{"bike_id":"2f11c33a-2d96-4a66-8697-04fd04c433f4","system_id":"levelo_inurba_marseille","lat":43.30145,"lon":5.37416,"is_reserved":false,"is_disabled":false,"rental_uris":{"android":"levelo://app?vid=2f11c33a-2d96-4a66-8697-04fd04c433f4","ios":"levelo://app?vid=2f11c33a-2d96-4a66-8697-04fd04c433f4"},"vehicle_type_id":"4","last_reported":1729868969,"current_range_meters":38000,"station_id":"ce4bgs92rcd13ifvqcc0","pricing_plan_id":"cebpf4jnsgd1na2vs0mg"},{"bike_id":"db220e45-38f8-43c2-822f-a835d9cc12b0","system_id":"levelo_inurba_marseille","lat":43.29272,"lon":5.38449,"is_reserved":false,"is_disabled":false,"rental_uris":{"android":"levelo://app?vid=db220e45-38f8-43c2-822f-a835d9cc12b0","ios":"levelo://app?vid=db220e45-38f8-43c2-822f-a835d9cc12b0"},"vehicle_type_id":"4","last_reported":1729868969,"current_range_meters":37600,"station_id":"ce4bh692rcd13ifvqea0","pricing_plan_id":"cebpf4jnsgd1na2vs0mg"},{"bike_id":"76de16cc-266c-4be2-881f-fc0fc7f35c12","system_id":"levelo_inurba_marseille","lat":43.30908,"lon":5.36855,"is_reserved":false,"is_disabled":false,"rental_uris":{"android":"levelo://app?vid=76de16cc-266c-4be2-881f-fc0fc7f35c12","ios":"levelo://app?vid=76de16cc-266c-4be2-881f-fc0fc7f35c12"},"vehicle_type_id":"4","last_reported":1729868969,"current_range_meters":39200,"station_id":"ce4bgn92rcd13ifvqbvg","pricing_plan_id":"cebpf4jnsgd1na2vs0mg"},{"bike_id":"0470d92a-073e-4127-8e86-a6177128e5c7","system_id":"levelo_inurba_marseille","lat":43.28942,"lon":5.36634,"is_reserved":false,"is_disabled":false,"rental_uris":{"android":"levelo://app?vid=0470d92a-073e-4127-8e86-a6177128e5c7","ios":"levelo://app?vid=0470d92a-073e-4127-8e86-a6177128e5c7"},"vehicle_type_id":"4","last_reported":1729868969,"current_range_meters":36800,"station_id":"ce4bhap2rcd13ifvqek0","pricing_plan_id":"cebpf4jnsgd1na2vs0mg"},{"bike_id":"7a9bebfb-3ca8-461f-9edc-3e4de00c7841","system_id":"levelo_inurba_marseille","lat":43.25575,"lon":5.38244,"is_reserved":false,"is_disabled":false,"rental_uris":{"android":"levelo://app?vid=7a9bebfb-3ca8-461f-9edc-3e4de00c7841","ios":"levelo://app?vid=7a9bebfb-3ca8-461f-9edc-3e4de00c7841"},"vehicle_type_id":"4","last_reported":1729868969,"current_range_meters":37600,"station_id":"ce4bhih2rcd13ifvqfs0","pricing_plan_id":"cebpf4jnsgd1na2vs0mg"},{"bike_id":"0a69096c-7571-4de7-a631-74ba9b94f3aa","system_id":"levelo_inurba_marseille","lat":43.28477,"lon":5.38417,"is_reserved":false,"is_disabled":false,"rental_uris":{"android":"levelo://app?vid=0a69096c-7571-4de7-a631-74ba9b94f3aa","ios":"levelo://app?vid=0a69096c-7571-4de7-a631-74ba9b94f3aa"},"vehicle_type_id":"4","last_reported":1729868969,"current_range_meters":9200,"station_id":"ce4bh512rcd13ifvqe3g","pricing_plan_id":"cebpf4jnsgd1na2vs0mg"},{"bike_id":"30a58045-5e86-4621-8a97-37f74aea516a","system_id":"levelo_inurba_marseille","lat":43.32253,"lon":5.3856,"is_reserved":false,"is_disabled":false,"rental_uris":{"android":"levelo://app?vid=30a58045-5e86-4621-8a97-37f74aea516a","ios":"levelo://app?vid=30a58045-5e86-4621-8a97-37f74aea516a"},"vehicle_type_id":"4","last_reported":1729868969,"current_range_meters":12400,"station_id":"","pricing_plan_id":"cebpf4jnsgd1na2vs0mg"},{"bike_id":"585bddab-23a5-4e78-9e57-9779c242dddb","system_id":"levelo_inurba_marseille","lat":43.29417,"lon":5.38617,"is_reserved":false,"is_disabled":false,"rental_uris":{"android":"levelo://app?vid=585bddab-23a5-4e78-9e57-9779c242dddb","ios":"levelo://app?vid=585bddab-23a5-4e78-9e57-9779c242dddb"},"vehicle_type_id":"4","last_reported":1729868969,"current_range_meters":27600,"station_id":"ce4bh2h2rcd13ifvqdh0","pricing_plan_id":"cebpf4jnsgd1na2vs0mg"},{"bike_id":"cf28c0ba-748d-4e8a-b8af-61e44f800fb1","system_id":"levelo_inurba_marseille","lat":43.2439,"lon":5.37065,"is_reserved":false,"is_disabled":false,"rental_uris":{"android":"levelo://app?vid=cf28c0ba-748d-4e8a-b8af-61e44f800fb1","ios":"levelo://app?vid=cf28c0ba-748d-4e8a-b8af-61e44f800fb1"},"vehicle_type_id":"4","last_reported":1729868969,"current_range_meters":3600,"station_id":"ce4bhhh2rcd13ifvqfk0","pricing_plan_id":"cebpf4jnsgd1na2vs0mg"},{"bike_id":"d38e0507-7ec2-476f-b84a-7e5d87a49423","system_id":"levelo_inurba_marseille","lat":43.25824,"lon":5.39422,"is_reserved":false,"is_disabled":false,"rental_uris":{"android":"levelo://app?vid=d38e0507-7ec2-476f-b84a-7e5d87a49423","ios":"levelo://app?vid=d38e0507-7ec2-476f-b84a-7e5d87a49423"},"vehicle_type_id":"4","last_reported":1729868969,"current_range_meters":39200,"station_id":"ce4bhip2rcd13ifvqft0","pricing_plan_id":"cebpf4jnsgd1na2vs0mg"},{"bike_id":"f1b1090a-6152-4942-aea0-4a9b8c7d79b4","system_id":"levelo_inurba_marseille","lat":43.28399,"lon":5.37527,"is_reserved":false,"is_disabled":false,"rental_uris":{"android":"levelo://app?vid=f1b1090a-6152-4942-aea0-4a9b8c7d79b4","ios":"levelo://app?vid=f1b1090a-6152-4942-aea0-4a9b8c7d79b4"},"vehicle_type_id":"4","last_reported":1729868969,"current_range_meters":38800,"station_id":"ce4bh412rcd13ifvqds0","pricing_plan_id":"cebpf4jnsgd1na2vs0mg"},{"bike_id":"691f38b2-3b51-422b-81ed-e60d4c920cd9","system_id":"levelo_inurba_marseille","lat":43.28467,"lon":5.38411,"is_reserved":false,"is_disabled":false,"rental_uris":{"android":"levelo://app?vid=691f38b2-3b51-422b-81ed-e60d4c920cd9","ios":"levelo://app?vid=691f38b2-3b51-422b-81ed-e60d4c920cd9"},"vehicle_type_id":"4","last_reported":1729868969,"current_range_meters":36400,"station_id":"ce4bh512rcd13ifvqe3g","pricing_plan_id":"cebpf4jnsgd1na2vs0mg"},{"bike_id":"4575448c-c63c-4315-810e-c8aaeb0a5a91","system_id":"levelo_inurba_marseille","lat":43.26027,"lon":5.37551,"is_reserved":false,"is_disabled":false,"rental_uris":{"android":"levelo://app?vid=4575448c-c63c-4315-810e-c8aaeb0a5a91","ios":"levelo://app?vid=4575448c-c63c-4315-810e-c8aaeb0a5a91"},"vehicle_type_id":"4","last_reported":1729868969,"current_range_meters":9600,"station_id":"ce4bhgh2rcd13ifvqfa0","pricing_plan_id":"cebpf4jnsgd1na2vs0mg"},{"bike_id":"eda20d13-c206-4b88-85e8-a17922f9a47f","system_id":"levelo_inurba_marseille","lat":43.30143,"lon":5.37426,"is_reserved":false,"is_disabled":false,"rental_uris":{"android":"levelo://app?vid=eda20d13-c206-4b88-85e8-a17922f9a47f","ios":"levelo://app?vid=eda20d13-c206-4b88-85e8-a17922f9a47f"},"vehicle_type_id":"4","last_reported":1729868969,"current_range_meters":17200,"station_id":"ce4bgs92rcd13ifvqcc0","pricing_plan_id":"cebpf4jnsgd1na2vs0mg"},{"bike_id":"45238a5c-5266-490f-97cc-0862f0dce2fa","system_id":"levelo_inurba_marseille","lat":43.29526,"lon":5.3854,"is_reserved":false,"is_disabled":false,"rental_uris":{"android":"levelo://app?vid=45238a5c-5266-490f-97cc-0862f0dce2fa","ios":"levelo://app?vid=45238a5c-5266-490f-97cc-0862f0dce2fa"},"vehicle_type_id":"4","last_reported":1729868969,"current_range_meters":6800,"station_id":"ce4bgih2rcd13ifvqba0","pricing_plan_id":"cebpf4jnsgd1na2vs0mg"},{"bike_id":"ec517bc8-aab9-4441-9a5a-13b6295f2e39","system_id":"levelo_inurba_marseille","lat":43.22933,"lon":5.35376,"is_reserved":false,"is_disabled":false,"rental_uris":{"android":"levelo://app?vid=ec517bc8-aab9-4441-9a5a-13b6295f2e39","ios":"levelo://app?vid=ec517bc8-aab9-4441-9a5a-13b6295f2e39"},"vehicle_type_id":"4","last_reported":1729868969,"current_range_meters":19600,"station_id":"cpo3532slgdg3j2ikp40","pricing_plan_id":"cebpf4jnsgd1na2vs0mg"},{"bike_id":"0849f390-ca35-4c88-b72e-94d22cf595ff","system_id":"levelo_inurba_marseille","lat":43.28267,"lon":5.35064,"is_reserved":false,"is_disabled":false,"rental_uris":{"android":"levelo://app?vid=0849f390-ca35-4c88-b72e-94d22cf595ff","ios":"levelo://app?vid=0849f390-ca35-4c88-b72e-94d22cf595ff"},"vehicle_type_id":"4","last_reported":1729868969,"current_range_meters":28800,"station_id":"ce4bhbp2rcd13ifvqerg","pricing_plan_id":"cebpf4jnsgd1na2vs0mg"},{"bike_id":"73a7bef5-0a10-4d0b-acce-24eb8e6425e6","system_id":"levelo_inurba_marseille","lat":43.30435,"lon":5.38882,"is_reserved":false,"is_disabled":false,"rental_uris":{"android":"levelo://app?vid=73a7bef5-0a10-4d0b-acce-24eb8e6425e6","ios":"levelo://app?vid=73a7bef5-0a10-4d0b-acce-24eb8e6425e6"},"vehicle_type_id":"4","last_reported":1729868969,"current_range_meters":39200,"station_id":"ce4bgk12rcd13ifvqbi0","pricing_plan_id":"cebpf4jnsgd1na2vs0mg"},{"bike_id":"f0b863c8-76f9-4f06-a6ca-be71cfa200a0","system_id":"levelo_inurba_marseille","lat":43.29258,"lon":5.40911,"is_reserved":false,"is_disabled":false,"rental_uris":{"android":"levelo://app?vid=f0b863c8-76f9-4f06-a6ca-be71cfa200a0","ios":"levelo://app?vid=f0b863c8-76f9-4f06-a6ca-be71cfa200a0"},"vehicle_type_id":"4","last_reported":1729868969,"current_range_meters":38800,"station_id":"ce4bh192rcd13ifvqdc0","pricing_plan_id":"cebpf4jnsgd1na2vs0mg"},{"bike_id":"aa35eede-acd1-4014-9e9d-ec3696c0a4f4","system_id":"levelo_inurba_marseille","lat":43.28943,"lon":5.36633,"is_reserved":false,"is_disabled":false,"rental_uris":{"android":"levelo://app?vid=aa35eede-acd1-4014-9e9d-ec3696c0a4f4","ios":"levelo://app?vid=aa35eede-acd1-4014-9e9d-ec3696c0a4f4"},"vehicle_type_id":"4","last_reported":1729868969,"current_range_meters":8400,"station_id":"ce4bhap2rcd13ifvqek0","pricing_plan_id":"cebpf4jnsgd1na2vs0mg"},{"bike_id":"6cb0d09c-4434-41fe-bab7-3f2ab7b0ac84","system_id":"levelo_inurba_marseille","lat":43.23055,"lon":5.35495,"is_reserved":false,"is_disabled":false,"rental_uris":{"android":"levelo://app?vid=6cb0d09c-4434-41fe-bab7-3f2ab7b0ac84","ios":"levelo://app?vid=6cb0d09c-4434-41fe-bab7-3f2ab7b0ac84"},"vehicle_type_id":"4","last_reported":1729868969,"current_range_meters":20400,"station_id":"cpo3342slgdg3j2ifvpg","pricing_plan_id":"cebpf4jnsgd1na2vs0mg"},{"bike_id":"20188e29-3b21-4472-85ac-612780ceb569","system_id":"levelo_inurba_marseille","lat":43.2894,"lon":5.3664,"is_reserved":false,"is_disabled":false,"rental_uris":{"android":"levelo://app?vid=20188e29-3b21-4472-85ac-612780ceb569","ios":"levelo://app?vid=20188e29-3b21-4472-85ac-612780ceb569"},"vehicle_type_id":"4","last_reported":1729868969,"current_range_meters":23200,"station_id":"ce4bhap2rcd13ifvqek0","pricing_plan_id":"cebpf4jnsgd1na2vs0mg"},{"bike_id":"5df604fa-7553-4272-a4d5-618927778809","system_id":"levelo_inurba_marseille","lat":43.2915,"lon":5.37168,"is_reserved":false,"is_disabled":false,"rental_uris":{"android":"levelo://app?vid=5df604fa-7553-4272-a4d5-618927778809","ios":"levelo://app?vid=5df604fa-7553-4272-a4d5-618927778809"},"vehicle_type_id":"4","last_reported":1729868969,"current_range_meters":16400,"station_id":"ce4bha92rcd13ifvqeh0","pricing_plan_id":"cebpf4jnsgd1na2vs0mg"},{"bike_id":"677da6c8-9aa3-4038-b9df-cdd955543499","system_id":"levelo_inurba_marseille","lat":43.283579,"lon":5.386429,"is_reserved":false,"is_disabled":false,"rental_uris":{"android":"levelo://app?vid=677da6c8-9aa3-4038-b9df-cdd955543499","ios":"levelo://app?vid=677da6c8-9aa3-4038-b9df-cdd955543499"},"vehicle_type_id":"4","last_reported":1729868969,"current_range_meters":5600,"station_id":"ce4bh492rcd13ifvqdvg","pricing_plan_id":"cebpf4jnsgd1na2vs0mg"},{"bike_id":"661e62a9-af33-4796-bf88-bdb0e3140103","system_id":"levelo_inurba_marseille","lat":43.28866,"lon":5.35863,"is_reserved":false,"is_disabled":false,"rental_uris":{"android":"levelo://app?vid=661e62a9-af33-4796-bf88-bdb0e3140103","ios":"levelo://app?vid=661e62a9-af33-4796-bf88-bdb0e3140103"},"vehicle_type_id":"4","last_reported":1729868969,"current_range_meters":38400,"station_id":"ce4bhb12rcd13ifvqem0","pricing_plan_id":"cebpf4jnsgd1na2vs0mg"},{"bike_id":"d0ae0aef-f22e-4e0f-a487-c02599f61132","system_id":"levelo_inurba_marseille","lat":43.28428,"lon":5.34998,"is_reserved":false,"is_disabled":false,"rental_uris":{"android":"levelo://app?vid=d0ae0aef-f22e-4e0f-a487-c02599f61132","ios":"levelo://app?vid=d0ae0aef-f22e-4e0f-a487-c02599f61132"},"vehicle_type_id":"4","last_reported":1729868969,"current_range_meters":21600,"station_id":"ce4bhbh2rcd13ifvqepg","pricing_plan_id":"cebpf4jnsgd1na2vs0mg"},{"bike_id":"cbc1e224-517e-47e8-8f4c-3cbabc4f2916","system_id":"levelo_inurba_marseille","lat":43.26953,"lon":5.38642,"is_reserved":false,"is_disabled":false,"rental_uris":{"android":"levelo://app?vid=cbc1e224-517e-47e8-8f4c-3cbabc4f2916","ios":"levelo://app?vid=cbc1e224-517e-47e8-8f4c-3cbabc4f2916"},"vehicle_type_id":"4","last_reported":1729868969,"current_range_meters":38800,"station_id":"ce4bhh92rcd13ifvqfh0","pricing_plan_id":"cebpf4jnsgd1na2vs0mg"},{"bike_id":"f082fa24-964b-4afc-8d8e-65b1719eafd7","system_id":"levelo_inurba_marseille","lat":43.24389,"lon":5.37053,"is_reserved":false,"is_disabled":false,"rental_uris":{"android":"levelo://app?vid=f082fa24-964b-4afc-8d8e-65b1719eafd7","ios":"levelo://app?vid=f082fa24-964b-4afc-8d8e-65b1719eafd7"},"vehicle_type_id":"4","last_reported":1729868969,"current_range_meters":38800,"station_id":"ce4bhhh2rcd13ifvqfk0","pricing_plan_id":"cebpf4jnsgd1na2vs0mg"},{"bike_id":"adf70089-cb30-4602-a86a-e8037bfc68b2","system_id":"levelo_inurba_marseille","lat":43.29577,"lon":5.37507,"is_reserved":false,"is_disabled":false,"rental_uris":{"android":"levelo://app?vid=adf70089-cb30-4602-a86a-e8037bfc68b2","ios":"levelo://app?vid=adf70089-cb30-4602-a86a-e8037bfc68b2"},"vehicle_type_id":"4","last_reported":1729868969,"current_range_meters":30000,"station_id":"ce4bgh92rcd13ifvqb50","pricing_plan_id":"cebpf4jnsgd1na2vs0mg"},{"bike_id":"d22b1578-eaa8-4029-b87c-f3c2b532faba","system_id":"levelo_inurba_marseille","lat":43.29557,"lon":5.42288,"is_reserved":false,"is_disabled":false,"rental_uris":{"android":"levelo://app?vid=d22b1578-eaa8-4029-b87c-f3c2b532faba","ios":"levelo://app?vid=d22b1578-eaa8-4029-b87c-f3c2b532faba"},"vehicle_type_id":"4","last_reported":1729868969,"current_range_meters":32000,"station_id":"ce4bhph2rcd13ifvqhdg","pricing_plan_id":"cebpf4jnsgd1na2vs0mg"},{"bike_id":"d94798ee-455d-4177-aed4-a419691acd1b","system_id":"levelo_inurba_marseille","lat":43.31082,"lon":5.42432,"is_reserved":false,"is_disabled":false,"rental_uris":{"android":"levelo://app?vid=d94798ee-455d-4177-aed4-a419691acd1b","ios":"levelo://app?vid=d94798ee-455d-4177-aed4-a419691acd1b"},"vehicle_type_id":"4","last_reported":1729868969,"current_range_meters":39200,"station_id":"ce4bhp92rcd13ifvqhag","pricing_plan_id":"cebpf4jnsgd1na2vs0mg"},{"bike_id":"7cdea444-8682-4d7c-afc0-97245503291d","system_id":"levelo_inurba_marseille","lat":43.3055,"lon":5.36548,"is_reserved":false,"is_disabled":false,"rental_uris":{"android":"levelo://app?vid=7cdea444-8682-4d7c-afc0-97245503291d","ios":"levelo://app?vid=7cdea444-8682-4d7c-afc0-97245503291d"},"vehicle_type_id":"4","last_reported":1729868969,"current_range_meters":12400,"station_id":"ce4bgs12rcd13ifvqcag","pricing_plan_id":"cebpf4jnsgd1na2vs0mg"},{"bike_id":"43b20a75-49b3-45ab-b19b-f5aa302cde8d","system_id":"levelo_inurba_marseille","lat":43.24804,"lon":5.3745,"is_reserved":false,"is_disabled":false,"rental_uris":{"android":"levelo://app?vid=43b20a75-49b3-45ab-b19b-f5aa302cde8d","ios":"levelo://app?vid=43b20a75-49b3-45ab-b19b-f5aa302cde8d"},"vehicle_type_id":"4","last_reported":1729868969,"current_range_meters":16000,"station_id":"ce4bhgh2rcd13ifvqfb0","pricing_plan_id":"cebpf4jnsgd1na2vs0mg"},{"bike_id":"7ca2732a-8343-4695-9bfd-cf79f7164472","system_id":"levelo_inurba_marseille","lat":43.32106,"lon":5.36773,"is_reserved":false,"is_disabled":false,"rental_uris":{"android":"levelo://app?vid=7ca2732a-8343-4695-9bfd-cf79f7164472","ios":"levelo://app?vid=7ca2732a-8343-4695-9bfd-cf79f7164472"},"vehicle_type_id":"4","last_reported":1729868969,"current_range_meters":13600,"station_id":"ce4bhrh2rcd13ifvqhug","pricing_plan_id":"cebpf4jnsgd1na2vs0mg"},{"bike_id":"ee5d2dfd-bf99-447e-9fdf-0f12ed604941","system_id":"levelo_inurba_marseille","lat":43.294647,"lon":5.385851,"is_reserved":false,"is_disabled":false,"rental_uris":{"android":"levelo://app?vid=ee5d2dfd-bf99-447e-9fdf-0f12ed604941","ios":"levelo://app?vid=ee5d2dfd-bf99-447e-9fdf-0f12ed604941"},"vehicle_type_id":"4","last_reported":1729868969,"current_range_meters":33600,"station_id":"ce4bh2h2rcd13ifvqdh0","pricing_plan_id":"cebpf4jnsgd1na2vs0mg"},{"bike_id":"25596ccd-8388-452e-9656-2a293e16965b","system_id":"levelo_inurba_marseille","lat":43.29523,"lon":5.38532,"is_reserved":false,"is_disabled":false,"rental_uris":{"android":"levelo://app?vid=25596ccd-8388-452e-9656-2a293e16965b","ios":"levelo://app?vid=25596ccd-8388-452e-9656-2a293e16965b"},"vehicle_type_id":"4","last_reported":1729868969,"current_range_meters":18800,"station_id":"ce4bgih2rcd13ifvqba0","pricing_plan_id":"cebpf4jnsgd1na2vs0mg"},{"bike_id":"99ddea5b-5cd9-4b87-9290-1beed3353792","system_id":"levelo_inurba_marseille","lat":43.24389,"lon":5.37053,"is_reserved":false,"is_disabled":false,"rental_uris":{"android":"levelo://app?vid=99ddea5b-5cd9-4b87-9290-1beed3353792","ios":"levelo://app?vid=99ddea5b-5cd9-4b87-9290-1beed3353792"},"vehicle_type_id":"4","last_reported":1729868969,"current_range_meters":39200,"station_id":"ce4bhhh2rcd13ifvqfk0","pricing_plan_id":"cebpf4jnsgd1na2vs0mg"},{"bike_id":"d1dc165e-d6ff-4dd1-a01b-3a148f875983","system_id":"levelo_inurba_marseille","lat":43.29778,"lon":5.37095,"is_reserved":false,"is_disabled":false,"rental_uris":{"android":"levelo://app?vid=d1dc165e-d6ff-4dd1-a01b-3a148f875983","ios":"levelo://app?vid=d1dc165e-d6ff-4dd1-a01b-3a148f875983"},"vehicle_type_id":"4","last_reported":1729868969,"current_range_meters":38400,"station_id":"ce4bgop2rcd13ifvqc1g","pricing_plan_id":"cebpf4jnsgd1na2vs0mg"},{"bike_id":"4b6eb156-136e-4333-bb34-e84440eb5d29","system_id":"levelo_inurba_marseille","lat":43.30806,"lon":5.38148,"is_reserved":false,"is_disabled":false,"rental_uris":{"android":"levelo://app?vid=4b6eb156-136e-4333-bb34-e84440eb5d29","ios":"levelo://app?vid=4b6eb156-136e-4333-bb34-e84440eb5d29"},"vehicle_type_id":"4","last_reported":1729868969,"current_range_meters":7200,"station_id":"ce4bgt12rcd13ifvqce0","pricing_plan_id":"cebpf4jnsgd1na2vs0mg"},{"bike_id":"d519b847-dbac-41cf-8752-2efc7cd2bdd8","system_id":"levelo_inurba_marseille","lat":43.28107,"lon":5.37839,"is_reserved":false,"is_disabled":false,"rental_uris":{"android":"levelo://app?vid=d519b847-dbac-41cf-8752-2efc7cd2bdd8","ios":"levelo://app?vid=d519b847-dbac-41cf-8752-2efc7cd2bdd8"},"vehicle_type_id":"4","last_reported":1729868969,"current_range_meters":12400,"station_id":"ce4bha12rcd13ifvqee0","pricing_plan_id":"cebpf4jnsgd1na2vs0mg"},{"bike_id":"efdd3aa0-e144-46ca-b8b0-257cd2be71e6","system_id":"levelo_inurba_marseille","lat":43.2558,"lon":5.38238,"is_reserved":false,"is_disabled":false,"rental_uris":{"android":"levelo://app?vid=efdd3aa0-e144-46ca-b8b0-257cd2be71e6","ios":"levelo://app?vid=efdd3aa0-e144-46ca-b8b0-257cd2be71e6"},"vehicle_type_id":"4","last_reported":1729868969,"current_range_meters":38800,"station_id":"ce4bhih2rcd13ifvqfs0","pricing_plan_id":"cebpf4jnsgd1na2vs0mg"},{"bike_id":"a42b0bdd-1f10-437f-813e-02df169ed0a9","system_id":"levelo_inurba_marseille","lat":43.22935,"lon":5.35374,"is_reserved":false,"is_disabled":false,"rental_uris":{"android":"levelo://app?vid=a42b0bdd-1f10-437f-813e-02df169ed0a9","ios":"levelo://app?vid=a42b0bdd-1f10-437f-813e-02df169ed0a9"},"vehicle_type_id":"4","last_reported":1729868969,"current_range_meters":27200,"station_id":"cpo3532slgdg3j2ikp40","pricing_plan_id":"cebpf4jnsgd1na2vs0mg"},{"bike_id":"d59d3414-e316-40ca-9c99-bc6bd0ae1442","system_id":"levelo_inurba_marseille","lat":43.30138,"lon":5.38774,"is_reserved":false,"is_disabled":false,"rental_uris":{"android":"levelo://app?vid=d59d3414-e316-40ca-9c99-bc6bd0ae1442","ios":"levelo://app?vid=d59d3414-e316-40ca-9c99-bc6bd0ae1442"},"vehicle_type_id":"4","last_reported":1729868969,"current_range_meters":38800,"station_id":"ce4bghh2rcd13ifvqb60","pricing_plan_id":"cebpf4jnsgd1na2vs0mg"},{"bike_id":"b2a05d95-c058-43f9-bf69-f76e49523c27","system_id":"levelo_inurba_marseille","lat":43.3374,"lon":5.37457,"is_reserved":false,"is_disabled":false,"rental_uris":{"android":"levelo://app?vid=b2a05d95-c058-43f9-bf69-f76e49523c27","ios":"levelo://app?vid=b2a05d95-c058-43f9-bf69-f76e49523c27"},"vehicle_type_id":"4","last_reported":1729868969,"current_range_meters":28400,"station_id":"","pricing_plan_id":"cebpf4jnsgd1na2vs0mg"},{"bike_id":"5b124b6f-e1ae-4597-9ce9-0941b1b89e9f","system_id":"levelo_inurba_marseille","lat":43.28,"lon":5.4002,"is_reserved":false,"is_disabled":false,"rental_uris":{"android":"levelo://app?vid=5b124b6f-e1ae-4597-9ce9-0941b1b89e9f","ios":"levelo://app?vid=5b124b6f-e1ae-4597-9ce9-0941b1b89e9f"},"vehicle_type_id":"4","last_reported":1729868969,"current_range_meters":10800,"station_id":"ce4bho92rcd13ifvqh4g","pricing_plan_id":"cebpf4jnsgd1na2vs0mg"},{"bike_id":"7fd12c6d-c6c7-47a3-9f26-000484ba2512","system_id":"levelo_inurba_marseille","lat":43.30532,"lon":5.36696,"is_reserved":false,"is_disabled":false,"rental_uris":{"android":"levelo://app?vid=7fd12c6d-c6c7-47a3-9f26-000484ba2512","ios":"levelo://app?vid=7fd12c6d-c6c7-47a3-9f26-000484ba2512"},"vehicle_type_id":"4","last_reported":1729868969,"current_range_meters":16400,"station_id":"ce4bgrp2rcd13ifvqc9g","pricing_plan_id":"cebpf4jnsgd1na2vs0mg"},{"bike_id":"c20c00de-4589-4425-83f5-e505b4192031","system_id":"levelo_inurba_marseille","lat":43.24998,"lon":5.3893,"is_reserved":false,"is_disabled":false,"rental_uris":{"android":"levelo://app?vid=c20c00de-4589-4425-83f5-e505b4192031","ios":"levelo://app?vid=c20c00de-4589-4425-83f5-e505b4192031"},"vehicle_type_id":"4","last_reported":1729868969,"current_range_meters":8800,"station_id":"ce4bhgp2rcd13ifvqfd0","pricing_plan_id":"cebpf4jnsgd1na2vs0mg"},{"bike_id":"11484ada-290d-4756-a30a-35889e5c5b68","system_id":"levelo_inurba_marseille","lat":43.30651,"lon":5.401,"is_reserved":false,"is_disabled":false,"rental_uris":{"android":"levelo://app?vid=11484ada-290d-4756-a30a-35889e5c5b68","ios":"levelo://app?vid=11484ada-290d-4756-a30a-35889e5c5b68"},"vehicle_type_id":"4","last_reported":1729868969,"current_range_meters":19200,"station_id":"ce4bh112rcd13ifvqda0","pricing_plan_id":"cebpf4jnsgd1na2vs0mg"},{"bike_id":"f4168374-0560-40b7-8c97-b3dfa060420d","system_id":"levelo_inurba_marseille","lat":43.30189,"lon":5.3663,"is_reserved":false,"is_disabled":false,"rental_uris":{"android":"levelo://app?vid=f4168374-0560-40b7-8c97-b3dfa060420d","ios":"levelo://app?vid=f4168374-0560-40b7-8c97-b3dfa060420d"},"vehicle_type_id":"4","last_reported":1729868969,"current_range_meters":24000,"station_id":"ce4bgrh2rcd13ifvqc8g","pricing_plan_id":"cebpf4jnsgd1na2vs0mg"},{"bike_id":"f9ec36ed-f1e8-4d39-a330-d53d339322cc","system_id":"levelo_inurba_marseille","lat":43.24938,"lon":5.3973,"is_reserved":false,"is_disabled":false,"rental_uris":{"android":"levelo://app?vid=f9ec36ed-f1e8-4d39-a330-d53d339322cc","ios":"levelo://app?vid=f9ec36ed-f1e8-4d39-a330-d53d339322cc"},"vehicle_type_id":"4","last_reported":1729868969,"current_range_meters":16800,"station_id":"","pricing_plan_id":"cebpf4jnsgd1na2vs0mg"},{"bike_id":"14b32013-16c9-4a3a-9b24-38e904708fdb","system_id":"levelo_inurba_marseille","lat":43.28273,"lon":5.35072,"is_reserved":false,"is_disabled":false,"rental_uris":{"android":"levelo://app?vid=14b32013-16c9-4a3a-9b24-38e904708fdb","ios":"levelo://app?vid=14b32013-16c9-4a3a-9b24-38e904708fdb"},"vehicle_type_id":"4","last_reported":1729868969,"current_range_meters":26000,"station_id":"ce4bhbp2rcd13ifvqerg","pricing_plan_id":"cebpf4jnsgd1na2vs0mg"},{"bike_id":"1a9cdf04-0d9c-4737-b66e-2c51b543508b","system_id":"levelo_inurba_marseille","lat":43.3189,"lon":5.42503,"is_reserved":false,"is_disabled":false,"rental_uris":{"android":"levelo://app?vid=1a9cdf04-0d9c-4737-b66e-2c51b543508b","ios":"levelo://app?vid=1a9cdf04-0d9c-4737-b66e-2c51b543508b"},"vehicle_type_id":"4","last_reported":1729868969,"current_range_meters":22400,"station_id":"ce4bhp92rcd13ifvqhcg","pricing_plan_id":"cebpf4jnsgd1na2vs0mg"},{"bike_id":"ecbc995c-0c89-45f2-86c2-4141e18bbaa3","system_id":"levelo_inurba_marseille","lat":43.28264,"lon":5.35074,"is_reserved":false,"is_disabled":false,"rental_uris":{"android":"levelo://app?vid=ecbc995c-0c89-45f2-86c2-4141e18bbaa3","ios":"levelo://app?vid=ecbc995c-0c89-45f2-86c2-4141e18bbaa3"},"vehicle_type_id":"4","last_reported":1729868969,"current_range_meters":6400,"station_id":"ce4bhbp2rcd13ifvqerg","pricing_plan_id":"cebpf4jnsgd1na2vs0mg"},{"bike_id":"9547fe9f-7da9-478b-9033-f446ea71bb69","system_id":"levelo_inurba_marseille","lat":43.3108,"lon":5.42425,"is_reserved":false,"is_disabled":false,"rental_uris":{"android":"levelo://app?vid=9547fe9f-7da9-478b-9033-f446ea71bb69","ios":"levelo://app?vid=9547fe9f-7da9-478b-9033-f446ea71bb69"},"vehicle_type_id":"4","last_reported":1729868969,"current_range_meters":36800,"station_id":"ce4bhp92rcd13ifvqhag","pricing_plan_id":"cebpf4jnsgd1na2vs0mg"},{"bike_id":"cbc8ef28-f0dd-46bc-a374-bf126ae54cf2","system_id":"levelo_inurba_marseille","lat":43.28371,"lon":5.40012,"is_reserved":false,"is_disabled":false,"rental_uris":{"android":"levelo://app?vid=cbc8ef28-f0dd-46bc-a374-bf126ae54cf2","ios":"levelo://app?vid=cbc8ef28-f0dd-46bc-a374-bf126ae54cf2"},"vehicle_type_id":"4","last_reported":1729868969,"current_range_meters":28000,"station_id":"","pricing_plan_id":"cebpf4jnsgd1na2vs0mg"},{"bike_id":"aa2296b3-9e48-4eb8-8736-02ee29db4f53","system_id":"levelo_inurba_marseille","lat":43.302803,"lon":5.376951,"is_reserved":false,"is_disabled":false,"rental_uris":{"android":"levelo://app?vid=aa2296b3-9e48-4eb8-8736-02ee29db4f53","ios":"levelo://app?vid=aa2296b3-9e48-4eb8-8736-02ee29db4f53"},"vehicle_type_id":"4","last_reported":1729868969,"current_range_meters":38800,"station_id":"ce4bguh2rcd13ifvqcj0","pricing_plan_id":"cebpf4jnsgd1na2vs0mg"},{"bike_id":"f54e3f55-4ff3-4fec-a14f-4c6e50d390be","system_id":"levelo_inurba_marseille","lat":43.29194,"lon":5.35813,"is_reserved":false,"is_disabled":false,"rental_uris":{"android":"levelo://app?vid=f54e3f55-4ff3-4fec-a14f-4c6e50d390be","ios":"levelo://app?vid=f54e3f55-4ff3-4fec-a14f-4c6e50d390be"},"vehicle_type_id":"4","last_reported":1729868969,"current_range_meters":38800,"station_id":"ce4bhb12rcd13ifvqel0","pricing_plan_id":"cebpf4jnsgd1na2vs0mg"},{"bike_id":"efe0b02e-9dcd-4192-8f41-25a0bf494636","system_id":"levelo_inurba_marseille","lat":43.3248,"lon":5.36579,"is_reserved":false,"is_disabled":false,"rental_uris":{"android":"levelo://app?vid=efe0b02e-9dcd-4192-8f41-25a0bf494636","ios":"levelo://app?vid=efe0b02e-9dcd-4192-8f41-25a0bf494636"},"vehicle_type_id":"4","last_reported":1729868969,"current_range_meters":38800,"station_id":"ce4bhs12rcd13ifvqhvg","pricing_plan_id":"cebpf4jnsgd1na2vs0mg"},{"bike_id":"158110c3-d13f-4dcd-a17d-f1607692418e","system_id":"levelo_inurba_marseille","lat":43.28353,"lon":5.38113,"is_reserved":false,"is_disabled":false,"rental_uris":{"android":"levelo://app?vid=158110c3-d13f-4dcd-a17d-f1607692418e","ios":"levelo://app?vid=158110c3-d13f-4dcd-a17d-f1607692418e"},"vehicle_type_id":"4","last_reported":1729868969,"current_range_meters":24400,"station_id":"ce4bh412rcd13ifvqdr0","pricing_plan_id":"cebpf4jnsgd1na2vs0mg"},{"bike_id":"5a7b6614-479d-437c-927c-66599134da7e","system_id":"levelo_inurba_marseille","lat":43.29526,"lon":5.37504,"is_reserved":false,"is_disabled":false,"rental_uris":{"android":"levelo://app?vid=5a7b6614-479d-437c-927c-66599134da7e","ios":"levelo://app?vid=5a7b6614-479d-437c-927c-66599134da7e"},"vehicle_type_id":"4","last_reported":1729868969,"current_range_meters":20800,"station_id":"ce4bgkp2rcd13ifvqbmg","pricing_plan_id":"cebpf4jnsgd1na2vs0mg"},{"bike_id":"9bdf1de3-fd5e-497a-a53c-8ef50fb69708","system_id":"levelo_inurba_marseille","lat":43.2919,"lon":5.358,"is_reserved":false,"is_disabled":false,"rental_uris":{"android":"levelo://app?vid=9bdf1de3-fd5e-497a-a53c-8ef50fb69708","ios":"levelo://app?vid=9bdf1de3-fd5e-497a-a53c-8ef50fb69708"},"vehicle_type_id":"4","last_reported":1729868969,"current_range_meters":24400,"station_id":"ce4bhb12rcd13ifvqel0","pricing_plan_id":"cebpf4jnsgd1na2vs0mg"},{"bike_id":"b65eadab-0003-4525-8892-35708a6133a8","system_id":"levelo_inurba_marseille","lat":43.26804,"lon":5.40272,"is_reserved":false,"is_disabled":false,"rental_uris":{"android":"levelo://app?vid=b65eadab-0003-4525-8892-35708a6133a8","ios":"levelo://app?vid=b65eadab-0003-4525-8892-35708a6133a8"},"vehicle_type_id":"4","last_reported":1729868969,"current_range_meters":37600,"station_id":"ce501612rcd8frsf0b60","pricing_plan_id":"cebpf4jnsgd1na2vs0mg"},{"bike_id":"a75cbddb-0f0e-4fe1-9b7e-ddfbe85ce122","system_id":"levelo_inurba_marseille","lat":43.30792,"lon":5.38164,"is_reserved":false,"is_disabled":false,"rental_uris":{"android":"levelo://app?vid=a75cbddb-0f0e-4fe1-9b7e-ddfbe85ce122","ios":"levelo://app?vid=a75cbddb-0f0e-4fe1-9b7e-ddfbe85ce122"},"vehicle_type_id":"4","last_reported":1729868969,"current_range_meters":6000,"station_id":"ce4bgt12rcd13ifvqce0","pricing_plan_id":"cebpf4jnsgd1na2vs0mg"},{"bike_id":"82e5b345-77a3-4984-9ea4-c98235e5c41c","system_id":"levelo_inurba_marseille","lat":43.31709,"lon":5.3774,"is_reserved":false,"is_disabled":false,"rental_uris":{"android":"levelo://app?vid=82e5b345-77a3-4984-9ea4-c98235e5c41c","ios":"levelo://app?vid=82e5b345-77a3-4984-9ea4-c98235e5c41c"},"vehicle_type_id":"4","last_reported":1729868969,"current_range_meters":16800,"station_id":"ce4bgth2rcd13ifvqch0","pricing_plan_id":"cebpf4jnsgd1na2vs0mg"},{"bike_id":"c0672d9d-5edd-4be0-83f3-f18b43d6ef0a","system_id":"levelo_inurba_marseille","lat":43.30137,"lon":5.37418,"is_reserved":false,"is_disabled":false,"rental_uris":{"android":"levelo://app?vid=c0672d9d-5edd-4be0-83f3-f18b43d6ef0a","ios":"levelo://app?vid=c0672d9d-5edd-4be0-83f3-f18b43d6ef0a"},"vehicle_type_id":"4","last_reported":1729868969,"current_range_meters":38800,"station_id":"ce4bgs92rcd13ifvqcc0","pricing_plan_id":"cebpf4jnsgd1na2vs0mg"},{"bike_id":"1c29c1bc-6669-48b6-b338-b12047a00e11","system_id":"levelo_inurba_marseille","lat":43.28437,"lon":5.39197,"is_reserved":false,"is_disabled":false,"rental_uris":{"android":"levelo://app?vid=1c29c1bc-6669-48b6-b338-b12047a00e11","ios":"levelo://app?vid=1c29c1bc-6669-48b6-b338-b12047a00e11"},"vehicle_type_id":"4","last_reported":1729868969,"current_range_meters":39200,"station_id":"ce4bhoh2rcd13ifvqh5g","pricing_plan_id":"cebpf4jnsgd1na2vs0mg"},{"bike_id":"3c99f1ac-6b3f-4c2f-85ff-a91cd94a8ef9","system_id":"levelo_inurba_marseille","lat":43.29762,"lon":5.37108,"is_reserved":false,"is_disabled":false,"rental_uris":{"android":"levelo://app?vid=3c99f1ac-6b3f-4c2f-85ff-a91cd94a8ef9","ios":"levelo://app?vid=3c99f1ac-6b3f-4c2f-85ff-a91cd94a8ef9"},"vehicle_type_id":"4","last_reported":1729868969,"current_range_meters":26800,"station_id":"ce4bgop2rcd13ifvqc1g","pricing_plan_id":"cebpf4jnsgd1na2vs0mg"},{"bike_id":"7691659f-eea1-4b4d-8db5-2728fcde3a23","system_id":"levelo_inurba_marseille","lat":43.30059,"lon":5.37025,"is_reserved":false,"is_disabled":false,"rental_uris":{"android":"levelo://app?vid=7691659f-eea1-4b4d-8db5-2728fcde3a23","ios":"levelo://app?vid=7691659f-eea1-4b4d-8db5-2728fcde3a23"},"vehicle_type_id":"4","last_reported":1729868969,"current_range_meters":28000,"station_id":"","pricing_plan_id":"cebpf4jnsgd1na2vs0mg"},{"bike_id":"47e5e5e8-7ff3-4b21-83d1-cb614c65e89d","system_id":"levelo_inurba_marseille","lat":43.29852,"lon":5.36283,"is_reserved":false,"is_disabled":false,"rental_uris":{"android":"levelo://app?vid=47e5e5e8-7ff3-4b21-83d1-cb614c65e89d","ios":"levelo://app?vid=47e5e5e8-7ff3-4b21-83d1-cb614c65e89d"},"vehicle_type_id":"4","last_reported":1729868969,"current_range_meters":37600,"station_id":"ce4bgpp2rcd13ifvqc3g","pricing_plan_id":"cebpf4jnsgd1na2vs0mg"},{"bike_id":"97511d0c-778a-454c-8ec5-65f38c330c39","system_id":"levelo_inurba_marseille","lat":43.30143,"lon":5.38085,"is_reserved":false,"is_disabled":false,"rental_uris":{"android":"levelo://app?vid=97511d0c-778a-454c-8ec5-65f38c330c39","ios":"levelo://app?vid=97511d0c-778a-454c-8ec5-65f38c330c39"},"vehicle_type_id":"4","last_reported":1729868969,"current_range_meters":22000,"station_id":"ce4bgjp2rcd13ifvqbh0","pricing_plan_id":"cebpf4jnsgd1na2vs0mg"},{"bike_id":"fd7e558a-622c-4820-bcaf-396a9ddd6a02","system_id":"levelo_inurba_marseille","lat":43.29004,"lon":5.35616,"is_reserved":false,"is_disabled":false,"rental_uris":{"android":"levelo://app?vid=fd7e558a-622c-4820-bcaf-396a9ddd6a02","ios":"levelo://app?vid=fd7e558a-622c-4820-bcaf-396a9ddd6a02"},"vehicle_type_id":"4","last_reported":1729868969,"current_range_meters":36400,"station_id":"ce4bhb92rcd13ifvqen0","pricing_plan_id":"cebpf4jnsgd1na2vs0mg"},{"bike_id":"43cadd35-f18e-41e3-9c37-5c69bd0aa444","system_id":"levelo_inurba_marseille","lat":43.28939,"lon":5.36639,"is_reserved":false,"is_disabled":false,"rental_uris":{"android":"levelo://app?vid=43cadd35-f18e-41e3-9c37-5c69bd0aa444","ios":"levelo://app?vid=43cadd35-f18e-41e3-9c37-5c69bd0aa444"},"vehicle_type_id":"4","last_reported":1729868969,"current_range_meters":6400,"station_id":"ce4bhap2rcd13ifvqek0","pricing_plan_id":"cebpf4jnsgd1na2vs0mg"},{"bike_id":"96de0e90-de5e-4750-b347-cde8b1929d23","system_id":"levelo_inurba_marseille","lat":43.24064,"lon":5.37753,"is_reserved":false,"is_disabled":false,"rental_uris":{"android":"levelo://app?vid=96de0e90-de5e-4750-b347-cde8b1929d23","ios":"levelo://app?vid=96de0e90-de5e-4750-b347-cde8b1929d23"},"vehicle_type_id":"4","last_reported":1729868969,"current_range_meters":10000,"station_id":"ce4bhnp2rcd13ifvqgvg","pricing_plan_id":"cebpf4jnsgd1na2vs0mg"},{"bike_id":"9180c870-d88d-4331-9fd0-26373a9d4cc4","system_id":"levelo_inurba_marseille","lat":43.29914,"lon":5.37473,"is_reserved":false,"is_disabled":false,"rental_uris":{"android":"levelo://app?vid=9180c870-d88d-4331-9fd0-26373a9d4cc4","ios":"levelo://app?vid=9180c870-d88d-4331-9fd0-26373a9d4cc4"},"vehicle_type_id":"4","last_reported":1729868969,"current_range_meters":38800,"station_id":"ce4bgjh2rcd13ifvqbg0","pricing_plan_id":"cebpf4jnsgd1na2vs0mg"},{"bike_id":"861b9f3e-2d30-49b0-8914-c5a5175926a2","system_id":"levelo_inurba_marseille","lat":43.28269,"lon":5.35071,"is_reserved":false,"is_disabled":false,"rental_uris":{"android":"levelo://app?vid=861b9f3e-2d30-49b0-8914-c5a5175926a2","ios":"levelo://app?vid=861b9f3e-2d30-49b0-8914-c5a5175926a2"},"vehicle_type_id":"4","last_reported":1729868969,"current_range_meters":38800,"station_id":"ce4bhbp2rcd13ifvqerg","pricing_plan_id":"cebpf4jnsgd1na2vs0mg"},{"bike_id":"18cd883a-f1cd-4f34-98dc-7580d7e4256d","system_id":"levelo_inurba_marseille","lat":43.24654,"lon":5.38892,"is_reserved":false,"is_disabled":false,"rental_uris":{"android":"levelo://app?vid=18cd883a-f1cd-4f34-98dc-7580d7e4256d","ios":"levelo://app?vid=18cd883a-f1cd-4f34-98dc-7580d7e4256d"},"vehicle_type_id":"4","last_reported":1729868969,"current_range_meters":28400,"station_id":"ce4bhg12rcd13ifvqf60","pricing_plan_id":"cebpf4jnsgd1na2vs0mg"},{"bike_id":"b7de22ec-f13e-43a6-8212-09c92176816b","system_id":"levelo_inurba_marseille","lat":43.27825,"lon":5.3921,"is_reserved":false,"is_disabled":false,"rental_uris":{"android":"levelo://app?vid=b7de22ec-f13e-43a6-8212-09c92176816b","ios":"levelo://app?vid=b7de22ec-f13e-43a6-8212-09c92176816b"},"vehicle_type_id":"4","last_reported":1729868969,"current_range_meters":6800,"station_id":"ce4bhjp2rcd13ifvqga0","pricing_plan_id":"cebpf4jnsgd1na2vs0mg"},{"bike_id":"f0fc82ca-f5ec-4e02-8e94-135a203ff8d2","system_id":"levelo_inurba_marseille","lat":43.24803,"lon":5.37459,"is_reserved":false,"is_disabled":false,"rental_uris":{"android":"levelo://app?vid=f0fc82ca-f5ec-4e02-8e94-135a203ff8d2","ios":"levelo://app?vid=f0fc82ca-f5ec-4e02-8e94-135a203ff8d2"},"vehicle_type_id":"4","last_reported":1729868969,"current_range_meters":38800,"station_id":"ce4bhgh2rcd13ifvqfb0","pricing_plan_id":"cebpf4jnsgd1na2vs0mg"},{"bike_id":"bef0f98e-928e-4943-83ce-7b60f0d730d7","system_id":"levelo_inurba_marseille","lat":43.22934,"lon":5.35377,"is_reserved":false,"is_disabled":false,"rental_uris":{"android":"levelo://app?vid=bef0f98e-928e-4943-83ce-7b60f0d730d7","ios":"levelo://app?vid=bef0f98e-928e-4943-83ce-7b60f0d730d7"},"vehicle_type_id":"4","last_reported":1729868969,"current_range_meters":36800,"station_id":"cpo3532slgdg3j2ikp40","pricing_plan_id":"cebpf4jnsgd1na2vs0mg"},{"bike_id":"66f020ae-5526-4ad0-8af9-6a968240ac52","system_id":"levelo_inurba_marseille","lat":43.32473,"lon":5.36565,"is_reserved":false,"is_disabled":false,"rental_uris":{"android":"levelo://app?vid=66f020ae-5526-4ad0-8af9-6a968240ac52","ios":"levelo://app?vid=66f020ae-5526-4ad0-8af9-6a968240ac52"},"vehicle_type_id":"4","last_reported":1729868969,"current_range_meters":36800,"station_id":"ce4bhs12rcd13ifvqhvg","pricing_plan_id":"cebpf4jnsgd1na2vs0mg"},{"bike_id":"ba3f9f1d-6cc3-416a-80e8-0691d2cb63c3","system_id":"levelo_inurba_marseille","lat":43.30928,"lon":5.40141,"is_reserved":false,"is_disabled":false,"rental_uris":{"android":"levelo://app?vid=ba3f9f1d-6cc3-416a-80e8-0691d2cb63c3","ios":"levelo://app?vid=ba3f9f1d-6cc3-416a-80e8-0691d2cb63c3"},"vehicle_type_id":"4","last_reported":1729868969,"current_range_meters":8400,"station_id":"ce4bgvp2rcd13ifvqct0","pricing_plan_id":"cebpf4jnsgd1na2vs0mg"},{"bike_id":"1aac1f7a-a64c-43c7-9fea-28291f50e750","system_id":"levelo_inurba_marseille","lat":43.29537,"lon":5.38555,"is_reserved":false,"is_disabled":false,"rental_uris":{"android":"levelo://app?vid=1aac1f7a-a64c-43c7-9fea-28291f50e750","ios":"levelo://app?vid=1aac1f7a-a64c-43c7-9fea-28291f50e750"},"vehicle_type_id":"4","last_reported":1729868969,"current_range_meters":40000,"station_id":"ce4bgih2rcd13ifvqba0","pricing_plan_id":"cebpf4jnsgd1na2vs0mg"},{"bike_id":"0f9c2547-c2da-4307-8acf-967f85cdc023","system_id":"levelo_inurba_marseille","lat":43.28265,"lon":5.35074,"is_reserved":false,"is_disabled":false,"rental_uris":{"android":"levelo://app?vid=0f9c2547-c2da-4307-8acf-967f85cdc023","ios":"levelo://app?vid=0f9c2547-c2da-4307-8acf-967f85cdc023"},"vehicle_type_id":"4","last_reported":1729868969,"current_range_meters":21600,"station_id":"ce4bhbp2rcd13ifvqerg","pricing_plan_id":"cebpf4jnsgd1na2vs0mg"},{"bike_id":"98b27920-6b04-4c7e-ac9a-730c21edc522","system_id":"levelo_inurba_marseille","lat":43.295804,"lon":5.375299,"is_reserved":false,"is_disabled":false,"rental_uris":{"android":"levelo://app?vid=98b27920-6b04-4c7e-ac9a-730c21edc522","ios":"levelo://app?vid=98b27920-6b04-4c7e-ac9a-730c21edc522"},"vehicle_type_id":"4","last_reported":1729868969,"current_range_meters":25600,"station_id":"","pricing_plan_id":"cebpf4jnsgd1na2vs0mg"},{"bike_id":"09dc4124-7fb5-4ba7-a1f0-258ed57ce86b","system_id":"levelo_inurba_marseille","lat":43.22928,"lon":5.35374,"is_reserved":false,"is_disabled":false,"rental_uris":{"android":"levelo://app?vid=09dc4124-7fb5-4ba7-a1f0-258ed57ce86b","ios":"levelo://app?vid=09dc4124-7fb5-4ba7-a1f0-258ed57ce86b"},"vehicle_type_id":"4","last_reported":1729868969,"current_range_meters":38000,"station_id":"cpo3532slgdg3j2ikp40","pricing_plan_id":"cebpf4jnsgd1na2vs0mg"},{"bike_id":"74742f40-fa2c-48fd-bf0d-6739b2845560","system_id":"levelo_inurba_marseille","lat":43.30317,"lon":5.39078,"is_reserved":false,"is_disabled":false,"rental_uris":{"android":"levelo://app?vid=74742f40-fa2c-48fd-bf0d-6739b2845560","ios":"levelo://app?vid=74742f40-fa2c-48fd-bf0d-6739b2845560"},"vehicle_type_id":"4","last_reported":1729868969,"current_range_meters":36000,"station_id":"ce4bgkh2rcd13ifvqbk0","pricing_plan_id":"cebpf4jnsgd1na2vs0mg"},{"bike_id":"5085653b-05c6-4f3a-a5a1-da4cffcb9ec9","system_id":"levelo_inurba_marseille","lat":43.28155,"lon":5.42639,"is_reserved":false,"is_disabled":false,"rental_uris":{"android":"levelo://app?vid=5085653b-05c6-4f3a-a5a1-da4cffcb9ec9","ios":"levelo://app?vid=5085653b-05c6-4f3a-a5a1-da4cffcb9ec9"},"vehicle_type_id":"4","last_reported":1729868969,"current_range_meters":38800,"station_id":"ce4bhnh2rcd13ifvqgug","pricing_plan_id":"cebpf4jnsgd1na2vs0mg"},{"bike_id":"f542537c-c18e-43bf-b13b-cee19eb4f644","system_id":"levelo_inurba_marseille","lat":43.31762,"lon":5.39023,"is_reserved":false,"is_disabled":false,"rental_uris":{"android":"levelo://app?vid=f542537c-c18e-43bf-b13b-cee19eb4f644","ios":"levelo://app?vid=f542537c-c18e-43bf-b13b-cee19eb4f644"},"vehicle_type_id":"4","last_reported":1729868969,"current_range_meters":35200,"station_id":"ce4bhqp2rcd13ifvqhng","pricing_plan_id":"cebpf4jnsgd1na2vs0mg"},{"bike_id":"9a1c6c58-3062-4a9d-a9d0-83b4a3a073db","system_id":"levelo_inurba_marseille","lat":43.29557,"lon":5.42292,"is_reserved":false,"is_disabled":false,"rental_uris":{"android":"levelo://app?vid=9a1c6c58-3062-4a9d-a9d0-83b4a3a073db","ios":"levelo://app?vid=9a1c6c58-3062-4a9d-a9d0-83b4a3a073db"},"vehicle_type_id":"4","last_reported":1729868969,"current_range_meters":33200,"station_id":"ce4bhph2rcd13ifvqhdg","pricing_plan_id":"cebpf4jnsgd1na2vs0mg"},{"bike_id":"eb45993c-b28e-4486-a8fc-f9ec63a3afa9","system_id":"levelo_inurba_marseille","lat":43.30136,"lon":5.37422,"is_reserved":false,"is_disabled":false,"rental_uris":{"android":"levelo://app?vid=eb45993c-b28e-4486-a8fc-f9ec63a3afa9","ios":"levelo://app?vid=eb45993c-b28e-4486-a8fc-f9ec63a3afa9"},"vehicle_type_id":"4","last_reported":1729868969,"current_range_meters":38800,"station_id":"ce4bgs92rcd13ifvqcc0","pricing_plan_id":"cebpf4jnsgd1na2vs0mg"},{"bike_id":"d97c7195-84f1-4966-94cc-9a939f7e6c90","system_id":"levelo_inurba_marseille","lat":43.31166,"lon":5.38718,"is_reserved":false,"is_disabled":false,"rental_uris":{"android":"levelo://app?vid=d97c7195-84f1-4966-94cc-9a939f7e6c90","ios":"levelo://app?vid=d97c7195-84f1-4966-94cc-9a939f7e6c90"},"vehicle_type_id":"4","last_reported":1729868969,"current_range_meters":14800,"station_id":"ce4bgv12rcd13ifvqcp0","pricing_plan_id":"cebpf4jnsgd1na2vs0mg"},{"bike_id":"4251a455-6a51-4266-a828-feb5d7a95895","system_id":"levelo_inurba_marseille","lat":43.27067,"lon":5.42275,"is_reserved":false,"is_disabled":false,"rental_uris":{"android":"levelo://app?vid=4251a455-6a51-4266-a828-feb5d7a95895","ios":"levelo://app?vid=4251a455-6a51-4266-a828-feb5d7a95895"},"vehicle_type_id":"4","last_reported":1729868969,"current_range_meters":3600,"station_id":"ce4bhk92rcd13ifvqgb0","pricing_plan_id":"cebpf4jnsgd1na2vs0mg"},{"bike_id":"b69629f5-3119-4609-ab12-4016242cb5ca","system_id":"levelo_inurba_marseille","lat":43.27071,"lon":5.42274,"is_reserved":false,"is_disabled":false,"rental_uris":{"android":"levelo://app?vid=b69629f5-3119-4609-ab12-4016242cb5ca","ios":"levelo://app?vid=b69629f5-3119-4609-ab12-4016242cb5ca"},"vehicle_type_id":"4","last_reported":1729868969,"current_range_meters":31200,"station_id":"ce4bhk92rcd13ifvqgb0","pricing_plan_id":"cebpf4jnsgd1na2vs0mg"},{"bike_id":"f347d2d3-8e62-42af-b56b-5696da48a0b0","system_id":"levelo_inurba_marseille","lat":43.26031,"lon":5.37549,"is_reserved":false,"is_disabled":false,"rental_uris":{"android":"levelo://app?vid=f347d2d3-8e62-42af-b56b-5696da48a0b0","ios":"levelo://app?vid=f347d2d3-8e62-42af-b56b-5696da48a0b0"},"vehicle_type_id":"4","last_reported":1729868969,"current_range_meters":38800,"station_id":"ce4bhgh2rcd13ifvqfa0","pricing_plan_id":"cebpf4jnsgd1na2vs0mg"},{"bike_id":"d51e70e3-e500-4ad8-afdb-77e572148b3c","system_id":"levelo_inurba_marseille","lat":43.30286,"lon":5.37702,"is_reserved":false,"is_disabled":false,"rental_uris":{"android":"levelo://app?vid=d51e70e3-e500-4ad8-afdb-77e572148b3c","ios":"levelo://app?vid=d51e70e3-e500-4ad8-afdb-77e572148b3c"},"vehicle_type_id":"4","last_reported":1729868969,"current_range_meters":38000,"station_id":"ce4bguh2rcd13ifvqcj0","pricing_plan_id":"cebpf4jnsgd1na2vs0mg"},{"bike_id":"868ad35c-bf5f-4bfb-a70d-644dee912ce8","system_id":"levelo_inurba_marseille","lat":43.28934,"lon":5.36632,"is_reserved":false,"is_disabled":false,"rental_uris":{"android":"levelo://app?vid=868ad35c-bf5f-4bfb-a70d-644dee912ce8","ios":"levelo://app?vid=868ad35c-bf5f-4bfb-a70d-644dee912ce8"},"vehicle_type_id":"4","last_reported":1729868969,"current_range_meters":3200,"station_id":"ce4bhap2rcd13ifvqek0","pricing_plan_id":"cebpf4jnsgd1na2vs0mg"},{"bike_id":"56c6f9f5-fdcb-4236-a945-56b86ab994b2","system_id":"levelo_inurba_marseille","lat":43.29233,"lon":5.36082,"is_reserved":false,"is_disabled":false,"rental_uris":{"android":"levelo://app?vid=56c6f9f5-fdcb-4236-a945-56b86ab994b2","ios":"levelo://app?vid=56c6f9f5-fdcb-4236-a945-56b86ab994b2"},"vehicle_type_id":"4","last_reported":1729868969,"current_range_meters":24000,"station_id":"ce4bhbh2rcd13ifvqeqg","pricing_plan_id":"cebpf4jnsgd1na2vs0mg"},{"bike_id":"103c0fd4-bc85-4d9d-b042-a4d344669667","system_id":"levelo_inurba_marseille","lat":43.33781,"lon":5.37438,"is_reserved":false,"is_disabled":false,"rental_uris":{"android":"levelo://app?vid=103c0fd4-bc85-4d9d-b042-a4d344669667","ios":"levelo://app?vid=103c0fd4-bc85-4d9d-b042-a4d344669667"},"vehicle_type_id":"4","last_reported":1729868969,"current_range_meters":38000,"station_id":"","pricing_plan_id":"cebpf4jnsgd1na2vs0mg"},{"bike_id":"31a57b9e-7abd-4c71-9f8a-04706c493db6","system_id":"levelo_inurba_marseille","lat":43.29581,"lon":5.3674,"is_reserved":false,"is_disabled":false,"rental_uris":{"android":"levelo://app?vid=31a57b9e-7abd-4c71-9f8a-04706c493db6","ios":"levelo://app?vid=31a57b9e-7abd-4c71-9f8a-04706c493db6"},"vehicle_type_id":"4","last_reported":1729868969,"current_range_meters":11200,"station_id":"ce4bgph2rcd13ifvqc2g","pricing_plan_id":"cebpf4jnsgd1na2vs0mg"},{"bike_id":"3801624e-5d2e-4263-8895-46623651d873","system_id":"levelo_inurba_marseille","lat":43.30934,"lon":5.40148,"is_reserved":false,"is_disabled":false,"rental_uris":{"android":"levelo://app?vid=3801624e-5d2e-4263-8895-46623651d873","ios":"levelo://app?vid=3801624e-5d2e-4263-8895-46623651d873"},"vehicle_type_id":"4","last_reported":1729868969,"current_range_meters":25600,"station_id":"ce4bgvp2rcd13ifvqct0","pricing_plan_id":"cebpf4jnsgd1na2vs0mg"},{"bike_id":"6ae5c146-3499-40d3-86c2-6885fd8ebd2d","system_id":"levelo_inurba_marseille","lat":43.29582,"lon":5.36741,"is_reserved":false,"is_disabled":false,"rental_uris":{"android":"levelo://app?vid=6ae5c146-3499-40d3-86c2-6885fd8ebd2d","ios":"levelo://app?vid=6ae5c146-3499-40d3-86c2-6885fd8ebd2d"},"vehicle_type_id":"4","last_reported":1729868969,"current_range_meters":37600,"station_id":"ce4bgph2rcd13ifvqc2g","pricing_plan_id":"cebpf4jnsgd1na2vs0mg"},{"bike_id":"f68f9a5d-9f6f-4e9b-a260-c646a873f52f","system_id":"levelo_inurba_marseille","lat":43.2481,"lon":5.37459,"is_reserved":false,"is_disabled":false,"rental_uris":{"android":"levelo://app?vid=f68f9a5d-9f6f-4e9b-a260-c646a873f52f","ios":"levelo://app?vid=f68f9a5d-9f6f-4e9b-a260-c646a873f52f"},"vehicle_type_id":"4","last_reported":1729868969,"current_range_meters":28000,"station_id":"ce4bhgh2rcd13ifvqfb0","pricing_plan_id":"cebpf4jnsgd1na2vs0mg"},{"bike_id":"4d227370-bda0-4aeb-95e4-c1c70947d86a","system_id":"levelo_inurba_marseille","lat":43.27989,"lon":5.41667,"is_reserved":false,"is_disabled":false,"rental_uris":{"android":"levelo://app?vid=4d227370-bda0-4aeb-95e4-c1c70947d86a","ios":"levelo://app?vid=4d227370-bda0-4aeb-95e4-c1c70947d86a"},"vehicle_type_id":"4","last_reported":1729868969,"current_range_meters":20400,"station_id":"ce4bho12rcd13ifvqh1g","pricing_plan_id":"cebpf4jnsgd1na2vs0mg"},{"bike_id":"845e1b95-4e1f-4f0b-93b0-d4c186b9d1bb","system_id":"levelo_inurba_marseille","lat":43.25575,"lon":5.38246,"is_reserved":false,"is_disabled":false,"rental_uris":{"android":"levelo://app?vid=845e1b95-4e1f-4f0b-93b0-d4c186b9d1bb","ios":"levelo://app?vid=845e1b95-4e1f-4f0b-93b0-d4c186b9d1bb"},"vehicle_type_id":"4","last_reported":1729868969,"current_range_meters":7200,"station_id":"ce4bhih2rcd13ifvqfs0","pricing_plan_id":"cebpf4jnsgd1na2vs0mg"},{"bike_id":"eb212beb-b655-4315-a1c1-f22223e1d906","system_id":"levelo_inurba_marseille","lat":43.28559,"lon":5.39498,"is_reserved":false,"is_disabled":false,"rental_uris":{"android":"levelo://app?vid=eb212beb-b655-4315-a1c1-f22223e1d906","ios":"levelo://app?vid=eb212beb-b655-4315-a1c1-f22223e1d906"},"vehicle_type_id":"4","last_reported":1729868969,"current_range_meters":4000,"station_id":"ce4bh292rcd13ifvqdg0","pricing_plan_id":"cebpf4jnsgd1na2vs0mg"},{"bike_id":"76ae9749-54b7-4e13-b2a2-cefc83553ff1","system_id":"levelo_inurba_marseille","lat":43.31076,"lon":5.38358,"is_reserved":false,"is_disabled":false,"rental_uris":{"android":"levelo://app?vid=76ae9749-54b7-4e13-b2a2-cefc83553ff1","ios":"levelo://app?vid=76ae9749-54b7-4e13-b2a2-cefc83553ff1"},"vehicle_type_id":"4","last_reported":1729868969,"current_range_meters":36400,"station_id":"ce4bgv92rcd13ifvqcr0","pricing_plan_id":"cebpf4jnsgd1na2vs0mg"},{"bike_id":"552b69d1-c13f-410c-8225-150ba6987dd2","system_id":"levelo_inurba_marseille","lat":43.27074,"lon":5.42278,"is_reserved":false,"is_disabled":false,"rental_uris":{"android":"levelo://app?vid=552b69d1-c13f-410c-8225-150ba6987dd2","ios":"levelo://app?vid=552b69d1-c13f-410c-8225-150ba6987dd2"},"vehicle_type_id":"4","last_reported":1729868969,"current_range_meters":12800,"station_id":"ce4bhk92rcd13ifvqgb0","pricing_plan_id":"cebpf4jnsgd1na2vs0mg"},{"bike_id":"f1176c8c-0cde-4c24-841d-b2e592c15c1a","system_id":"levelo_inurba_marseille","lat":43.28447,"lon":5.39206,"is_reserved":false,"is_disabled":false,"rental_uris":{"android":"levelo://app?vid=f1176c8c-0cde-4c24-841d-b2e592c15c1a","ios":"levelo://app?vid=f1176c8c-0cde-4c24-841d-b2e592c15c1a"},"vehicle_type_id":"4","last_reported":1729868969,"current_range_meters":17600,"station_id":"ce4bhoh2rcd13ifvqh5g","pricing_plan_id":"cebpf4jnsgd1na2vs0mg"},{"bike_id":"b7ddd9ac-3b47-47ce-b1f5-8e2c1f385fdd","system_id":"levelo_inurba_marseille","lat":43.2794,"lon":5.41044,"is_reserved":false,"is_disabled":false,"rental_uris":{"android":"levelo://app?vid=b7ddd9ac-3b47-47ce-b1f5-8e2c1f385fdd","ios":"levelo://app?vid=b7ddd9ac-3b47-47ce-b1f5-8e2c1f385fdd"},"vehicle_type_id":"4","last_reported":1729868969,"current_range_meters":16400,"station_id":"ce4bhnp2rcd13ifvqh0g","pricing_plan_id":"cebpf4jnsgd1na2vs0mg"},{"bike_id":"5a03ccc3-fb39-4a7d-a387-4f0a9be4b4e5","system_id":"levelo_inurba_marseille","lat":43.29091,"lon":5.38104,"is_reserved":false,"is_disabled":false,"rental_uris":{"android":"levelo://app?vid=5a03ccc3-fb39-4a7d-a387-4f0a9be4b4e5","ios":"levelo://app?vid=5a03ccc3-fb39-4a7d-a387-4f0a9be4b4e5"},"vehicle_type_id":"4","last_reported":1729868969,"current_range_meters":19600,"station_id":"ce4bh512rcd13ifvqe2g","pricing_plan_id":"cebpf4jnsgd1na2vs0mg"},{"bike_id":"cc430d62-d55d-4fba-8b21-2a3fb0984ad5","system_id":"levelo_inurba_marseille","lat":43.303811,"lon":5.401955,"is_reserved":false,"is_disabled":false,"rental_uris":{"android":"levelo://app?vid=cc430d62-d55d-4fba-8b21-2a3fb0984ad5","ios":"levelo://app?vid=cc430d62-d55d-4fba-8b21-2a3fb0984ad5"},"vehicle_type_id":"4","last_reported":1729868969,"current_range_meters":10000,"station_id":"","pricing_plan_id":"cebpf4jnsgd1na2vs0mg"},{"bike_id":"2e995dc3-4ece-4290-94f2-37fd82873595","system_id":"levelo_inurba_marseille","lat":43.28661,"lon":5.36345,"is_reserved":false,"is_disabled":false,"rental_uris":{"android":"levelo://app?vid=2e995dc3-4ece-4290-94f2-37fd82873595","ios":"levelo://app?vid=2e995dc3-4ece-4290-94f2-37fd82873595"},"vehicle_type_id":"4","last_reported":1729868969,"current_range_meters":11200,"station_id":"ce4bhah2rcd13ifvqej0","pricing_plan_id":"cebpf4jnsgd1na2vs0mg"},{"bike_id":"c7b963e0-eae6-4ba7-9068-c90f89375bd1","system_id":"levelo_inurba_marseille","lat":43.30923,"lon":5.40154,"is_reserved":false,"is_disabled":false,"rental_uris":{"android":"levelo://app?vid=c7b963e0-eae6-4ba7-9068-c90f89375bd1","ios":"levelo://app?vid=c7b963e0-eae6-4ba7-9068-c90f89375bd1"},"vehicle_type_id":"4","last_reported":1729868969,"current_range_meters":25200,"station_id":"ce4bgvp2rcd13ifvqct0","pricing_plan_id":"cebpf4jnsgd1na2vs0mg"},{"bike_id":"bd995abb-12e7-47a6-b0b9-e1f25439576a","system_id":"levelo_inurba_marseille","lat":43.25007,"lon":5.38927,"is_reserved":false,"is_disabled":false,"rental_uris":{"android":"levelo://app?vid=bd995abb-12e7-47a6-b0b9-e1f25439576a","ios":"levelo://app?vid=bd995abb-12e7-47a6-b0b9-e1f25439576a"},"vehicle_type_id":"4","last_reported":1729868969,"current_range_meters":39200,"station_id":"ce4bhgp2rcd13ifvqfd0","pricing_plan_id":"cebpf4jnsgd1na2vs0mg"},{"bike_id":"94683425-7064-4cd9-870f-3dcd50c4b3b3","system_id":"levelo_inurba_marseille","lat":43.32295,"lon":5.38272,"is_reserved":false,"is_disabled":false,"rental_uris":{"android":"levelo://app?vid=94683425-7064-4cd9-870f-3dcd50c4b3b3","ios":"levelo://app?vid=94683425-7064-4cd9-870f-3dcd50c4b3b3"},"vehicle_type_id":"4","last_reported":1729868969,"current_range_meters":30400,"station_id":"ce4bhr12rcd13ifvqhqg","pricing_plan_id":"cebpf4jnsgd1na2vs0mg"},{"bike_id":"43e0342e-7c69-4ef3-9959-2e5c770bab9f","system_id":"levelo_inurba_marseille","lat":43.22937,"lon":5.35381,"is_reserved":false,"is_disabled":false,"rental_uris":{"android":"levelo://app?vid=43e0342e-7c69-4ef3-9959-2e5c770bab9f","ios":"levelo://app?vid=43e0342e-7c69-4ef3-9959-2e5c770bab9f"},"vehicle_type_id":"4","last_reported":1729868969,"current_range_meters":18000,"station_id":"cpo3532slgdg3j2ikp40","pricing_plan_id":"cebpf4jnsgd1na2vs0mg"},{"bike_id":"3819faa1-21bb-40f8-92b8-dfb3cec43b05","system_id":"levelo_inurba_marseille","lat":43.29518,"lon":5.39045,"is_reserved":false,"is_disabled":false,"rental_uris":{"android":"levelo://app?vid=3819faa1-21bb-40f8-92b8-dfb3cec43b05","ios":"levelo://app?vid=3819faa1-21bb-40f8-92b8-dfb3cec43b05"},"vehicle_type_id":"4","last_reported":1729868969,"current_range_meters":20000,"station_id":"ce4bh3p2rcd13ifvqdp0","pricing_plan_id":"cebpf4jnsgd1na2vs0mg"},{"bike_id":"d3c4e640-57d6-4389-b8e6-eb4c10541417","system_id":"levelo_inurba_marseille","lat":43.28667,"lon":5.36353,"is_reserved":false,"is_disabled":false,"rental_uris":{"android":"levelo://app?vid=d3c4e640-57d6-4389-b8e6-eb4c10541417","ios":"levelo://app?vid=d3c4e640-57d6-4389-b8e6-eb4c10541417"},"vehicle_type_id":"4","last_reported":1729868969,"current_range_meters":33200,"station_id":"ce4bhah2rcd13ifvqej0","pricing_plan_id":"cebpf4jnsgd1na2vs0mg"},{"bike_id":"69c50a7a-8960-41bd-bcf6-67af981ebe82","system_id":"levelo_inurba_marseille","lat":43.28858,"lon":5.35857,"is_reserved":false,"is_disabled":false,"rental_uris":{"android":"levelo://app?vid=69c50a7a-8960-41bd-bcf6-67af981ebe82","ios":"levelo://app?vid=69c50a7a-8960-41bd-bcf6-67af981ebe82"},"vehicle_type_id":"4","last_reported":1729868969,"current_range_meters":36800,"station_id":"ce4bhb12rcd13ifvqem0","pricing_plan_id":"cebpf4jnsgd1na2vs0mg"},{"bike_id":"51b5a294-2ae3-4df0-95e3-dba6ddcebc77","system_id":"levelo_inurba_marseille","lat":43.27066,"lon":5.403936,"is_reserved":false,"is_disabled":false,"rental_uris":{"android":"levelo://app?vid=51b5a294-2ae3-4df0-95e3-dba6ddcebc77","ios":"levelo://app?vid=51b5a294-2ae3-4df0-95e3-dba6ddcebc77"},"vehicle_type_id":"4","last_reported":1729868969,"current_range_meters":12400,"station_id":"ce4bhk92rcd13ifvqgc0","pricing_plan_id":"cebpf4jnsgd1na2vs0mg"},{"bike_id":"21840790-6adb-45ba-9ba5-b02887f2e74e","system_id":"levelo_inurba_marseille","lat":43.30136,"lon":5.38778,"is_reserved":false,"is_disabled":false,"rental_uris":{"android":"levelo://app?vid=21840790-6adb-45ba-9ba5-b02887f2e74e","ios":"levelo://app?vid=21840790-6adb-45ba-9ba5-b02887f2e74e"},"vehicle_type_id":"4","last_reported":1729868969,"current_range_meters":28000,"station_id":"ce4bghh2rcd13ifvqb60","pricing_plan_id":"cebpf4jnsgd1na2vs0mg"},{"bike_id":"bf1f917d-6fa9-4a2e-afa1-a39c1e7f64cd","system_id":"levelo_inurba_marseille","lat":43.28409,"lon":5.34975,"is_reserved":false,"is_disabled":false,"rental_uris":{"android":"levelo://app?vid=bf1f917d-6fa9-4a2e-afa1-a39c1e7f64cd","ios":"levelo://app?vid=bf1f917d-6fa9-4a2e-afa1-a39c1e7f64cd"},"vehicle_type_id":"4","last_reported":1729868969,"current_range_meters":30000,"station_id":"ce4bhbh2rcd13ifvqepg","pricing_plan_id":"cebpf4jnsgd1na2vs0mg"},{"bike_id":"365a5e76-e012-4983-b8a9-1a07480bde83","system_id":"levelo_inurba_marseille","lat":43.23194,"lon":5.35548,"is_reserved":false,"is_disabled":false,"rental_uris":{"android":"levelo://app?vid=365a5e76-e012-4983-b8a9-1a07480bde83","ios":"levelo://app?vid=365a5e76-e012-4983-b8a9-1a07480bde83"},"vehicle_type_id":"4","last_reported":1729868969,"current_range_meters":38800,"station_id":"ce4bhu92rcd13ifvqi70","pricing_plan_id":"cebpf4jnsgd1na2vs0mg"},{"bike_id":"176c2bd2-7d0c-4278-833a-48f82a51f6ca","system_id":"levelo_inurba_marseille","lat":43.26195,"lon":5.37933,"is_reserved":false,"is_disabled":false,"rental_uris":{"android":"levelo://app?vid=176c2bd2-7d0c-4278-833a-48f82a51f6ca","ios":"levelo://app?vid=176c2bd2-7d0c-4278-833a-48f82a51f6ca"},"vehicle_type_id":"4","last_reported":1729868969,"current_range_meters":38800,"station_id":"ce4bhjp2rcd13ifvqg90","pricing_plan_id":"cebpf4jnsgd1na2vs0mg"},{"bike_id":"fdd880be-4683-4599-8385-0bd018f59045","system_id":"levelo_inurba_marseille","lat":43.2811,"lon":5.37823,"is_reserved":false,"is_disabled":false,"rental_uris":{"android":"levelo://app?vid=fdd880be-4683-4599-8385-0bd018f59045","ios":"levelo://app?vid=fdd880be-4683-4599-8385-0bd018f59045"},"vehicle_type_id":"4","last_reported":1729868969,"current_range_meters":38800,"station_id":"ce4bha12rcd13ifvqee0","pricing_plan_id":"cebpf4jnsgd1na2vs0mg"},{"bike_id":"4a23468f-790a-422f-98e1-aa5fde224c0b","system_id":"levelo_inurba_marseille","lat":43.28942,"lon":5.36638,"is_reserved":false,"is_disabled":false,"rental_uris":{"android":"levelo://app?vid=4a23468f-790a-422f-98e1-aa5fde224c0b","ios":"levelo://app?vid=4a23468f-790a-422f-98e1-aa5fde224c0b"},"vehicle_type_id":"4","last_reported":1729868969,"current_range_meters":22400,"station_id":"ce4bhap2rcd13ifvqek0","pricing_plan_id":"cebpf4jnsgd1na2vs0mg"},{"bike_id":"41f153c9-6e2f-4115-a2bf-ece305a88b3a","system_id":"levelo_inurba_marseille","lat":43.2307,"lon":5.35489,"is_reserved":false,"is_disabled":false,"rental_uris":{"android":"levelo://app?vid=41f153c9-6e2f-4115-a2bf-ece305a88b3a","ios":"levelo://app?vid=41f153c9-6e2f-4115-a2bf-ece305a88b3a"},"vehicle_type_id":"4","last_reported":1729868969,"current_range_meters":24400,"station_id":"cpo3342slgdg3j2ifvpg","pricing_plan_id":"cebpf4jnsgd1na2vs0mg"},{"bike_id":"f1f3124d-156b-4ea3-8f8c-6dfee18217ad","system_id":"levelo_inurba_marseille","lat":43.27811,"lon":5.40712,"is_reserved":false,"is_disabled":false,"rental_uris":{"android":"levelo://app?vid=f1f3124d-156b-4ea3-8f8c-6dfee18217ad","ios":"levelo://app?vid=f1f3124d-156b-4ea3-8f8c-6dfee18217ad"},"vehicle_type_id":"4","last_reported":1729868969,"current_range_meters":38800,"station_id":"ce4bhnh2rcd13ifvqgtg","pricing_plan_id":"cebpf4jnsgd1na2vs0mg"},{"bike_id":"9b75049b-a480-4336-b5d5-a05ddf000c14","system_id":"levelo_inurba_marseille","lat":43.27178,"lon":5.40986,"is_reserved":false,"is_disabled":false,"rental_uris":{"android":"levelo://app?vid=9b75049b-a480-4336-b5d5-a05ddf000c14","ios":"levelo://app?vid=9b75049b-a480-4336-b5d5-a05ddf000c14"},"vehicle_type_id":"4","last_reported":1729868969,"current_range_meters":36800,"station_id":"ce4bhl12rcd13ifvqgf0","pricing_plan_id":"cebpf4jnsgd1na2vs0mg"},{"bike_id":"701f4efe-5ee2-466f-bc5c-b5ef951fc6a2","system_id":"levelo_inurba_marseille","lat":43.28464,"lon":5.35902,"is_reserved":false,"is_disabled":false,"rental_uris":{"android":"levelo://app?vid=701f4efe-5ee2-466f-bc5c-b5ef951fc6a2","ios":"levelo://app?vid=701f4efe-5ee2-466f-bc5c-b5ef951fc6a2"},"vehicle_type_id":"4","last_reported":1729868969,"current_range_meters":8000,"station_id":"ce4bhah2rcd13ifvqei0","pricing_plan_id":"cebpf4jnsgd1na2vs0mg"},{"bike_id":"ffaf6d1c-64f9-4c62-bbf1-b08f3ad9a305","system_id":"levelo_inurba_marseille","lat":43.33733,"lon":5.37469,"is_reserved":false,"is_disabled":false,"rental_uris":{"android":"levelo://app?vid=ffaf6d1c-64f9-4c62-bbf1-b08f3ad9a305","ios":"levelo://app?vid=ffaf6d1c-64f9-4c62-bbf1-b08f3ad9a305"},"vehicle_type_id":"4","last_reported":1729868969,"current_range_meters":23200,"station_id":"","pricing_plan_id":"cebpf4jnsgd1na2vs0mg"},{"bike_id":"310dfb07-5ec1-458c-8adc-ad355c2060e6","system_id":"levelo_inurba_marseille","lat":43.2815,"lon":5.42642,"is_reserved":false,"is_disabled":false,"rental_uris":{"android":"levelo://app?vid=310dfb07-5ec1-458c-8adc-ad355c2060e6","ios":"levelo://app?vid=310dfb07-5ec1-458c-8adc-ad355c2060e6"},"vehicle_type_id":"4","last_reported":1729868969,"current_range_meters":18800,"station_id":"ce4bhnh2rcd13ifvqgug","pricing_plan_id":"cebpf4jnsgd1na2vs0mg"},{"bike_id":"c6cedfa8-4c26-4dcf-8091-7148cfcd4f7a","system_id":"levelo_inurba_marseille","lat":43.284648,"lon":5.38722,"is_reserved":false,"is_disabled":false,"rental_uris":{"android":"levelo://app?vid=c6cedfa8-4c26-4dcf-8091-7148cfcd4f7a","ios":"levelo://app?vid=c6cedfa8-4c26-4dcf-8091-7148cfcd4f7a"},"vehicle_type_id":"4","last_reported":1729868969,"current_range_meters":16800,"station_id":"ce4bha12rcd13ifvqef0","pricing_plan_id":"cebpf4jnsgd1na2vs0mg"},{"bike_id":"e4915fc6-4f7e-439b-a31d-5a0ca8bf3eda","system_id":"levelo_inurba_marseille","lat":43.30522,"lon":5.36694,"is_reserved":false,"is_disabled":false,"rental_uris":{"android":"levelo://app?vid=e4915fc6-4f7e-439b-a31d-5a0ca8bf3eda","ios":"levelo://app?vid=e4915fc6-4f7e-439b-a31d-5a0ca8bf3eda"},"vehicle_type_id":"4","last_reported":1729868969,"current_range_meters":38800,"station_id":"ce4bgrp2rcd13ifvqc9g","pricing_plan_id":"cebpf4jnsgd1na2vs0mg"},{"bike_id":"968b8e65-5294-46b7-b1bc-6ccf08e6b694","system_id":"levelo_inurba_marseille","lat":43.24389,"lon":5.37066,"is_reserved":false,"is_disabled":false,"rental_uris":{"android":"levelo://app?vid=968b8e65-5294-46b7-b1bc-6ccf08e6b694","ios":"levelo://app?vid=968b8e65-5294-46b7-b1bc-6ccf08e6b694"},"vehicle_type_id":"4","last_reported":1729868969,"current_range_meters":14800,"station_id":"ce4bhhh2rcd13ifvqfk0","pricing_plan_id":"cebpf4jnsgd1na2vs0mg"},{"bike_id":"69852f65-7bf4-4343-a15c-4f0bcc1d9cb8","system_id":"levelo_inurba_marseille","lat":43.29417,"lon":5.38625,"is_reserved":false,"is_disabled":false,"rental_uris":{"android":"levelo://app?vid=69852f65-7bf4-4343-a15c-4f0bcc1d9cb8","ios":"levelo://app?vid=69852f65-7bf4-4343-a15c-4f0bcc1d9cb8"},"vehicle_type_id":"4","last_reported":1729868969,"current_range_meters":2800,"station_id":"ce4bh2h2rcd13ifvqdh0","pricing_plan_id":"cebpf4jnsgd1na2vs0mg"},{"bike_id":"a11538d9-da66-4366-8563-87682512db47","system_id":"levelo_inurba_marseille","lat":43.26555,"lon":5.37285,"is_reserved":false,"is_disabled":false,"rental_uris":{"android":"levelo://app?vid=a11538d9-da66-4366-8563-87682512db47","ios":"levelo://app?vid=a11538d9-da66-4366-8563-87682512db47"},"vehicle_type_id":"4","last_reported":1729868969,"current_range_meters":0,"station_id":"ce4bhg12rcd13ifvqf70","pricing_plan_id":"cebpf4jnsgd1na2vs0mg"},{"bike_id":"9774df9e-59e4-400c-a208-734081810b57","system_id":"levelo_inurba_marseille","lat":43.3205,"lon":5.41548,"is_reserved":false,"is_disabled":false,"rental_uris":{"android":"levelo://app?vid=9774df9e-59e4-400c-a208-734081810b57","ios":"levelo://app?vid=9774df9e-59e4-400c-a208-734081810b57"},"vehicle_type_id":"4","last_reported":1729868969,"current_range_meters":19600,"station_id":"ce4bhq92rcd13ifvqhkg","pricing_plan_id":"cebpf4jnsgd1na2vs0mg"},{"bike_id":"8bdf1571-47ab-4a94-b3de-e88f46133a56","system_id":"levelo_inurba_marseille","lat":43.303252,"lon":5.404417,"is_reserved":false,"is_disabled":false,"rental_uris":{"android":"levelo://app?vid=8bdf1571-47ab-4a94-b3de-e88f46133a56","ios":"levelo://app?vid=8bdf1571-47ab-4a94-b3de-e88f46133a56"},"vehicle_type_id":"4","last_reported":1729868969,"current_range_meters":4400,"station_id":"ce4bh012rcd13ifvqd10","pricing_plan_id":"cebpf4jnsgd1na2vs0mg"},{"bike_id":"60d58782-d250-4211-a98b-1deef2f72635","system_id":"levelo_inurba_marseille","lat":43.30604,"lon":5.37232,"is_reserved":false,"is_disabled":false,"rental_uris":{"android":"levelo://app?vid=60d58782-d250-4211-a98b-1deef2f72635","ios":"levelo://app?vid=60d58782-d250-4211-a98b-1deef2f72635"},"vehicle_type_id":"4","last_reported":1729868969,"current_range_meters":26800,"station_id":"ce4bgqh2rcd13ifvqc4g","pricing_plan_id":"cebpf4jnsgd1na2vs0mg"},{"bike_id":"106c8015-9efa-403f-ad28-1aca3a14a7f6","system_id":"levelo_inurba_marseille","lat":43.33024,"lon":5.39045,"is_reserved":false,"is_disabled":false,"rental_uris":{"android":"levelo://app?vid=106c8015-9efa-403f-ad28-1aca3a14a7f6","ios":"levelo://app?vid=106c8015-9efa-403f-ad28-1aca3a14a7f6"},"vehicle_type_id":"4","last_reported":1729868969,"current_range_meters":20800,"station_id":"ce4bhr92rcd13ifvqhrg","pricing_plan_id":"cebpf4jnsgd1na2vs0mg"},{"bike_id":"4ca8ad0a-be09-4f84-b34a-80128b20764b","system_id":"levelo_inurba_marseille","lat":43.30281,"lon":5.37701,"is_reserved":false,"is_disabled":false,"rental_uris":{"android":"levelo://app?vid=4ca8ad0a-be09-4f84-b34a-80128b20764b","ios":"levelo://app?vid=4ca8ad0a-be09-4f84-b34a-80128b20764b"},"vehicle_type_id":"4","last_reported":1729868969,"current_range_meters":30800,"station_id":"ce4bguh2rcd13ifvqcj0","pricing_plan_id":"cebpf4jnsgd1na2vs0mg"},{"bike_id":"83ca2eea-da99-44d8-be94-c258af6286e1","system_id":"levelo_inurba_marseille","lat":43.30151,"lon":5.3808,"is_reserved":false,"is_disabled":false,"rental_uris":{"android":"levelo://app?vid=83ca2eea-da99-44d8-be94-c258af6286e1","ios":"levelo://app?vid=83ca2eea-da99-44d8-be94-c258af6286e1"},"vehicle_type_id":"4","last_reported":1729868969,"current_range_meters":18800,"station_id":"ce4bgjp2rcd13ifvqbh0","pricing_plan_id":"cebpf4jnsgd1na2vs0mg"},{"bike_id":"db3c9728-64c9-4ae8-a2a6-1262f7410537","system_id":"levelo_inurba_marseille","lat":43.281122,"lon":5.378439,"is_reserved":false,"is_disabled":false,"rental_uris":{"android":"levelo://app?vid=db3c9728-64c9-4ae8-a2a6-1262f7410537","ios":"levelo://app?vid=db3c9728-64c9-4ae8-a2a6-1262f7410537"},"vehicle_type_id":"4","last_reported":1729868969,"current_range_meters":25200,"station_id":"ce4bha12rcd13ifvqee0","pricing_plan_id":"cebpf4jnsgd1na2vs0mg"},{"bike_id":"da90dbb0-e997-4133-be64-d5b112dac3a1","system_id":"levelo_inurba_marseille","lat":43.24171,"lon":5.36387,"is_reserved":false,"is_disabled":false,"rental_uris":{"android":"levelo://app?vid=da90dbb0-e997-4133-be64-d5b112dac3a1","ios":"levelo://app?vid=da90dbb0-e997-4133-be64-d5b112dac3a1"},"vehicle_type_id":"4","last_reported":1729868969,"current_range_meters":34000,"station_id":"cpo36qri1sfpv3e86is0","pricing_plan_id":"cebpf4jnsgd1na2vs0mg"},{"bike_id":"359a5be9-1fe9-4e35-88de-71a6fefaea03","system_id":"levelo_inurba_marseille","lat":43.30431,"lon":5.38887,"is_reserved":false,"is_disabled":false,"rental_uris":{"android":"levelo://app?vid=359a5be9-1fe9-4e35-88de-71a6fefaea03","ios":"levelo://app?vid=359a5be9-1fe9-4e35-88de-71a6fefaea03"},"vehicle_type_id":"4","last_reported":1729868969,"current_range_meters":35200,"station_id":"ce4bgk12rcd13ifvqbi0","pricing_plan_id":"cebpf4jnsgd1na2vs0mg"},{"bike_id":"fbeef37b-1dea-4f75-9b4d-a3b0e464a388","system_id":"levelo_inurba_marseille","lat":43.3032,"lon":5.36901,"is_reserved":false,"is_disabled":false,"rental_uris":{"android":"levelo://app?vid=fbeef37b-1dea-4f75-9b4d-a3b0e464a388","ios":"levelo://app?vid=fbeef37b-1dea-4f75-9b4d-a3b0e464a388"},"vehicle_type_id":"4","last_reported":1729868969,"current_range_meters":24800,"station_id":"ce4bgqh2rcd13ifvqc5g","pricing_plan_id":"cebpf4jnsgd1na2vs0mg"},{"bike_id":"e270f6a5-93ea-4936-8d91-71c756e1c905","system_id":"levelo_inurba_marseille","lat":43.29083,"lon":5.37174,"is_reserved":false,"is_disabled":false,"rental_uris":{"android":"levelo://app?vid=e270f6a5-93ea-4936-8d91-71c756e1c905","ios":"levelo://app?vid=e270f6a5-93ea-4936-8d91-71c756e1c905"},"vehicle_type_id":"4","last_reported":1729868969,"current_range_meters":28400,"station_id":"ce4bh5p2rcd13ifvqe4g","pricing_plan_id":"cebpf4jnsgd1na2vs0mg"},{"bike_id":"40214aab-d41f-47d8-8983-055baf94e106","system_id":"levelo_inurba_marseille","lat":43.30141,"lon":5.37423,"is_reserved":false,"is_disabled":false,"rental_uris":{"android":"levelo://app?vid=40214aab-d41f-47d8-8983-055baf94e106","ios":"levelo://app?vid=40214aab-d41f-47d8-8983-055baf94e106"},"vehicle_type_id":"4","last_reported":1729868969,"current_range_meters":12800,"station_id":"ce4bgs92rcd13ifvqcc0","pricing_plan_id":"cebpf4jnsgd1na2vs0mg"},{"bike_id":"2f0e3cfe-4fc9-49ab-a6e6-1f66f7e75c70","system_id":"levelo_inurba_marseille","lat":43.26959,"lon":5.38639,"is_reserved":false,"is_disabled":false,"rental_uris":{"android":"levelo://app?vid=2f0e3cfe-4fc9-49ab-a6e6-1f66f7e75c70","ios":"levelo://app?vid=2f0e3cfe-4fc9-49ab-a6e6-1f66f7e75c70"},"vehicle_type_id":"4","last_reported":1729868969,"current_range_meters":12400,"station_id":"ce4bhh92rcd13ifvqfh0","pricing_plan_id":"cebpf4jnsgd1na2vs0mg"},{"bike_id":"e6017c86-9f06-4fb8-b55d-47d90a94fa5d","system_id":"levelo_inurba_marseille","lat":43.30885,"lon":5.39661,"is_reserved":false,"is_disabled":false,"rental_uris":{"android":"levelo://app?vid=e6017c86-9f06-4fb8-b55d-47d90a94fa5d","ios":"levelo://app?vid=e6017c86-9f06-4fb8-b55d-47d90a94fa5d"},"vehicle_type_id":"4","last_reported":1729868969,"current_range_meters":3200,"station_id":"ce4bh012rcd13ifvqcv0","pricing_plan_id":"cebpf4jnsgd1na2vs0mg"},{"bike_id":"02c53b2b-9d2e-4ec2-a0c7-cb04de7a1cc2","system_id":"levelo_inurba_marseille","lat":43.2923,"lon":5.36086,"is_reserved":false,"is_disabled":false,"rental_uris":{"android":"levelo://app?vid=02c53b2b-9d2e-4ec2-a0c7-cb04de7a1cc2","ios":"levelo://app?vid=02c53b2b-9d2e-4ec2-a0c7-cb04de7a1cc2"},"vehicle_type_id":"4","last_reported":1729868969,"current_range_meters":38800,"station_id":"ce4bhbh2rcd13ifvqeqg","pricing_plan_id":"cebpf4jnsgd1na2vs0mg"},{"bike_id":"785add3f-74eb-4c4b-88ff-c75509cee2a1","system_id":"levelo_inurba_marseille","lat":43.22937,"lon":5.35378,"is_reserved":false,"is_disabled":false,"rental_uris":{"android":"levelo://app?vid=785add3f-74eb-4c4b-88ff-c75509cee2a1","ios":"levelo://app?vid=785add3f-74eb-4c4b-88ff-c75509cee2a1"},"vehicle_type_id":"4","last_reported":1729868969,"current_range_meters":2800,"station_id":"ce4bhhh2rcd13ifvqfk0","pricing_plan_id":"cebpf4jnsgd1na2vs0mg"},{"bike_id":"8a53ddfb-ad33-4441-8975-1ab5121f620d","system_id":"levelo_inurba_marseille","lat":43.288512,"lon":5.358562,"is_reserved":false,"is_disabled":false,"rental_uris":{"android":"levelo://app?vid=8a53ddfb-ad33-4441-8975-1ab5121f620d","ios":"levelo://app?vid=8a53ddfb-ad33-4441-8975-1ab5121f620d"},"vehicle_type_id":"4","last_reported":1729868969,"current_range_meters":39200,"station_id":"ce4bhb12rcd13ifvqem0","pricing_plan_id":"cebpf4jnsgd1na2vs0mg"},{"bike_id":"50852683-a032-49f0-ac70-fd024c570e99","system_id":"levelo_inurba_marseille","lat":43.28458,"lon":5.35895,"is_reserved":false,"is_disabled":false,"rental_uris":{"android":"levelo://app?vid=50852683-a032-49f0-ac70-fd024c570e99","ios":"levelo://app?vid=50852683-a032-49f0-ac70-fd024c570e99"},"vehicle_type_id":"4","last_reported":1729868969,"current_range_meters":32000,"station_id":"ce4bhah2rcd13ifvqei0","pricing_plan_id":"cebpf4jnsgd1na2vs0mg"},{"bike_id":"c4974a53-ff90-46ae-bcba-27aa9554708c","system_id":"levelo_inurba_marseille","lat":43.29012,"lon":5.35618,"is_reserved":false,"is_disabled":false,"rental_uris":{"android":"levelo://app?vid=c4974a53-ff90-46ae-bcba-27aa9554708c","ios":"levelo://app?vid=c4974a53-ff90-46ae-bcba-27aa9554708c"},"vehicle_type_id":"4","last_reported":1729868969,"current_range_meters":38800,"station_id":"ce4bhb92rcd13ifvqen0","pricing_plan_id":"cebpf4jnsgd1na2vs0mg"},{"bike_id":"23468f66-ecd9-4eb7-ada3-b1c56fa4f638","system_id":"levelo_inurba_marseille","lat":43.30151,"lon":5.37421,"is_reserved":false,"is_disabled":false,"rental_uris":{"android":"levelo://app?vid=23468f66-ecd9-4eb7-ada3-b1c56fa4f638","ios":"levelo://app?vid=23468f66-ecd9-4eb7-ada3-b1c56fa4f638"},"vehicle_type_id":"4","last_reported":1729868969,"current_range_meters":38000,"station_id":"ce4bgs92rcd13ifvqcc0","pricing_plan_id":"cebpf4jnsgd1na2vs0mg"},{"bike_id":"a292fc9f-9145-4254-a577-6ea6e3c96ce6","system_id":"levelo_inurba_marseille","lat":43.24808,"lon":5.37455,"is_reserved":false,"is_disabled":false,"rental_uris":{"android":"levelo://app?vid=a292fc9f-9145-4254-a577-6ea6e3c96ce6","ios":"levelo://app?vid=a292fc9f-9145-4254-a577-6ea6e3c96ce6"},"vehicle_type_id":"4","last_reported":1729868969,"current_range_meters":19200,"station_id":"ce4bhgh2rcd13ifvqfb0","pricing_plan_id":"cebpf4jnsgd1na2vs0mg"},{"bike_id":"0c3e42b7-51b5-4c8f-be5e-6830d1b71fbb","system_id":"levelo_inurba_marseille","lat":43.30897,"lon":5.37195,"is_reserved":false,"is_disabled":false,"rental_uris":{"android":"levelo://app?vid=0c3e42b7-51b5-4c8f-be5e-6830d1b71fbb","ios":"levelo://app?vid=0c3e42b7-51b5-4c8f-be5e-6830d1b71fbb"},"vehicle_type_id":"4","last_reported":1729868969,"current_range_meters":36800,"station_id":"ce4bguh2rcd13ifvqckg","pricing_plan_id":"cebpf4jnsgd1na2vs0mg"},{"bike_id":"128ca002-a0bf-4ed5-86b8-4580db92af37","system_id":"levelo_inurba_marseille","lat":43.3026,"lon":5.40081,"is_reserved":false,"is_disabled":false,"rental_uris":{"android":"levelo://app?vid=128ca002-a0bf-4ed5-86b8-4580db92af37","ios":"levelo://app?vid=128ca002-a0bf-4ed5-86b8-4580db92af37"},"vehicle_type_id":"4","last_reported":1729868969,"current_range_meters":10000,"station_id":"ce4bgvh2rcd13ifvqcs0","pricing_plan_id":"cebpf4jnsgd1na2vs0mg"},{"bike_id":"f38640a9-10a2-494f-adf7-34c1c4499bb1","system_id":"levelo_inurba_marseille","lat":43.302795,"lon":5.377004,"is_reserved":false,"is_disabled":false,"rental_uris":{"android":"levelo://app?vid=f38640a9-10a2-494f-adf7-34c1c4499bb1","ios":"levelo://app?vid=f38640a9-10a2-494f-adf7-34c1c4499bb1"},"vehicle_type_id":"4","last_reported":1729868969,"current_range_meters":32800,"station_id":"ce4bguh2rcd13ifvqcj0","pricing_plan_id":"cebpf4jnsgd1na2vs0mg"},{"bike_id":"ed6713bc-d136-41e9-b2cb-4c5e09d9a0dc","system_id":"levelo_inurba_marseille","lat":43.24748,"lon":5.38021,"is_reserved":false,"is_disabled":false,"rental_uris":{"android":"levelo://app?vid=ed6713bc-d136-41e9-b2cb-4c5e09d9a0dc","ios":"levelo://app?vid=ed6713bc-d136-41e9-b2cb-4c5e09d9a0dc"},"vehicle_type_id":"4","last_reported":1729868969,"current_range_meters":18000,"station_id":"","pricing_plan_id":"cebpf4jnsgd1na2vs0mg"},{"bike_id":"065780dc-32ec-41d3-bb41-d8deff891cf1","system_id":"levelo_inurba_marseille","lat":43.28003,"lon":5.40019,"is_reserved":false,"is_disabled":false,"rental_uris":{"android":"levelo://app?vid=065780dc-32ec-41d3-bb41-d8deff891cf1","ios":"levelo://app?vid=065780dc-32ec-41d3-bb41-d8deff891cf1"},"vehicle_type_id":"4","last_reported":1729868969,"current_range_meters":16800,"station_id":"ce4bho92rcd13ifvqh4g","pricing_plan_id":"cebpf4jnsgd1na2vs0mg"},{"bike_id":"8bd1eeb3-cab9-4ea6-bacc-03bdc911d03e","system_id":"levelo_inurba_marseille","lat":43.30881,"lon":5.39663,"is_reserved":false,"is_disabled":false,"rental_uris":{"android":"levelo://app?vid=8bd1eeb3-cab9-4ea6-bacc-03bdc911d03e","ios":"levelo://app?vid=8bd1eeb3-cab9-4ea6-bacc-03bdc911d03e"},"vehicle_type_id":"4","last_reported":1729868969,"current_range_meters":4800,"station_id":"ce4bh012rcd13ifvqcv0","pricing_plan_id":"cebpf4jnsgd1na2vs0mg"},{"bike_id":"560c21ba-33e9-464d-8959-5fb70f629d48","system_id":"levelo_inurba_marseille","lat":43.29162,"lon":5.37162,"is_reserved":false,"is_disabled":false,"rental_uris":{"android":"levelo://app?vid=560c21ba-33e9-464d-8959-5fb70f629d48","ios":"levelo://app?vid=560c21ba-33e9-464d-8959-5fb70f629d48"},"vehicle_type_id":"4","last_reported":1729868969,"current_range_meters":8000,"station_id":"ce4bha92rcd13ifvqeh0","pricing_plan_id":"cebpf4jnsgd1na2vs0mg"},{"bike_id":"4b0705eb-dca0-45c1-97a4-1cf7e62fe214","system_id":"levelo_inurba_marseille","lat":43.33769,"lon":5.37448,"is_reserved":false,"is_disabled":false,"rental_uris":{"android":"levelo://app?vid=4b0705eb-dca0-45c1-97a4-1cf7e62fe214","ios":"levelo://app?vid=4b0705eb-dca0-45c1-97a4-1cf7e62fe214"},"vehicle_type_id":"4","last_reported":1729868969,"current_range_meters":37600,"station_id":"","pricing_plan_id":"cebpf4jnsgd1na2vs0mg"},{"bike_id":"9131424d-5f38-4003-a915-c4f2698059fa","system_id":"levelo_inurba_marseille","lat":43.24087,"lon":5.37747,"is_reserved":false,"is_disabled":false,"rental_uris":{"android":"levelo://app?vid=9131424d-5f38-4003-a915-c4f2698059fa","ios":"levelo://app?vid=9131424d-5f38-4003-a915-c4f2698059fa"},"vehicle_type_id":"4","last_reported":1729868969,"current_range_meters":34000,"station_id":"ce4bhnp2rcd13ifvqgvg","pricing_plan_id":"cebpf4jnsgd1na2vs0mg"},{"bike_id":"817ea49f-fb64-4962-a128-4bcb38b5f2d2","system_id":"levelo_inurba_marseille","lat":43.30423,"lon":5.4128,"is_reserved":false,"is_disabled":false,"rental_uris":{"android":"levelo://app?vid=817ea49f-fb64-4962-a128-4bcb38b5f2d2","ios":"levelo://app?vid=817ea49f-fb64-4962-a128-4bcb38b5f2d2"},"vehicle_type_id":"4","last_reported":1729868969,"current_range_meters":17600,"station_id":"ce4bhop2rcd13ifvqh8g","pricing_plan_id":"cebpf4jnsgd1na2vs0mg"},{"bike_id":"68093386-8337-41d2-a8df-9164085e7be0","system_id":"levelo_inurba_marseille","lat":43.26564,"lon":5.39003,"is_reserved":false,"is_disabled":false,"rental_uris":{"android":"levelo://app?vid=68093386-8337-41d2-a8df-9164085e7be0","ios":"levelo://app?vid=68093386-8337-41d2-a8df-9164085e7be0"},"vehicle_type_id":"4","last_reported":1729868969,"current_range_meters":23200,"station_id":"ce4bhe12rcd13ifvqf30","pricing_plan_id":"cebpf4jnsgd1na2vs0mg"},{"bike_id":"b947db3b-90bb-4ec3-b8df-3a21c18085bc","system_id":"levelo_inurba_marseille","lat":43.2961,"lon":5.37726,"is_reserved":false,"is_disabled":false,"rental_uris":{"android":"levelo://app?vid=b947db3b-90bb-4ec3-b8df-3a21c18085bc","ios":"levelo://app?vid=b947db3b-90bb-4ec3-b8df-3a21c18085bc"},"vehicle_type_id":"4","last_reported":1729868969,"current_range_meters":32000,"station_id":"ce4bgi92rcd13ifvqb90","pricing_plan_id":"cebpf4jnsgd1na2vs0mg"},{"bike_id":"54f6f0c0-3cb2-4184-b22b-96c6313dc386","system_id":"levelo_inurba_marseille","lat":43.23198,"lon":5.35552,"is_reserved":false,"is_disabled":false,"rental_uris":{"android":"levelo://app?vid=54f6f0c0-3cb2-4184-b22b-96c6313dc386","ios":"levelo://app?vid=54f6f0c0-3cb2-4184-b22b-96c6313dc386"},"vehicle_type_id":"4","last_reported":1729868969,"current_range_meters":4800,"station_id":"ce4bhu92rcd13ifvqi70","pricing_plan_id":"cebpf4jnsgd1na2vs0mg"},{"bike_id":"1a3e9356-98ff-4d3f-8d01-1c31934f98b6","system_id":"levelo_inurba_marseille","lat":43.276879,"lon":5.388929,"is_reserved":false,"is_disabled":false,"rental_uris":{"android":"levelo://app?vid=1a3e9356-98ff-4d3f-8d01-1c31934f98b6","ios":"levelo://app?vid=1a3e9356-98ff-4d3f-8d01-1c31934f98b6"},"vehicle_type_id":"4","last_reported":1729868969,"current_range_meters":39200,"station_id":"ce4bhi12rcd13ifvqfo0","pricing_plan_id":"cebpf4jnsgd1na2vs0mg"},{"bike_id":"c4d257be-ae30-43fb-9fd5-d394d911fb09","system_id":"levelo_inurba_marseille","lat":43.29531,"lon":5.38541,"is_reserved":false,"is_disabled":false,"rental_uris":{"android":"levelo://app?vid=c4d257be-ae30-43fb-9fd5-d394d911fb09","ios":"levelo://app?vid=c4d257be-ae30-43fb-9fd5-d394d911fb09"},"vehicle_type_id":"4","last_reported":1729868969,"current_range_meters":26800,"station_id":"ce4bgih2rcd13ifvqba0","pricing_plan_id":"cebpf4jnsgd1na2vs0mg"},{"bike_id":"109e225b-22f3-4dfb-b36e-2b19f440f585","system_id":"levelo_inurba_marseille","lat":43.31995,"lon":5.38135,"is_reserved":false,"is_disabled":false,"rental_uris":{"android":"levelo://app?vid=109e225b-22f3-4dfb-b36e-2b19f440f585","ios":"levelo://app?vid=109e225b-22f3-4dfb-b36e-2b19f440f585"},"vehicle_type_id":"4","last_reported":1729868969,"current_range_meters":24800,"station_id":"ce4bhr12rcd13ifvqhpg","pricing_plan_id":"cebpf4jnsgd1na2vs0mg"},{"bike_id":"97871a69-d4a7-4c4f-98d4-24422f8f1052","system_id":"levelo_inurba_marseille","lat":43.29528,"lon":5.38533,"is_reserved":false,"is_disabled":false,"rental_uris":{"android":"levelo://app?vid=97871a69-d4a7-4c4f-98d4-24422f8f1052","ios":"levelo://app?vid=97871a69-d4a7-4c4f-98d4-24422f8f1052"},"vehicle_type_id":"4","last_reported":1729868969,"current_range_meters":14400,"station_id":"ce4bgih2rcd13ifvqba0","pricing_plan_id":"cebpf4jnsgd1na2vs0mg"},