{"last_updated":1749910144,"ttl":60,"version":"2.2","data":{"bikes":[{"bike_id":"b31f0139-170f-4194-984f-4386218a1e9d","system_id":"levelo_inurba_marseille","lat":43.33771,"lon":5.37424,"is_reserved":false,"is_disabled":true,"rental_uris":{"android":"levelo://app?vid=b31f0139-170f-4194-984f-4386218a1e9d","ios":"levelo://app?vid=b31f0139-170f-4194-984f-4386218a1e9d"},"vehicle_type_id":"4","last_reported":1749910144,"current_range_meters":0,"station_id":"","pricing_plan_id":"cebpf4jnsgd1na2vs0mg"},{"bike_id":"1acfb620-cad7-48c0-8901-d7a5b74a5b65","system_id":"levelo_inurba_marseille","lat":43.33751,"lon":5.37456,"is_reserved":false,"is_disabled":true,"rental_uris":{"android":"levelo://app?vid=1acfb620-cad7-48c0-8901-d7a5b74a5b65","ios":"levelo://app?vid=1acfb620-cad7-48c0-8901-d7a5b74a5b65"},"vehicle_type_id":"4","last_reported":1749910144,"current_range_meters":0,"station_id":"","pricing_plan_id":"cebpf4jnsgd1na2vs0mg"},{"bike_id":"9fcd9c2e-8610-4d87-a883-a5baec28d1dc","system_id":"levelo_inurba_marseille","lat":43.26234,"lon":5.37943,"is_reserved":false,"is_disabled":true,"rental_uris":{"android":"levelo://app?vid=9fcd9c2e-8610-4d87-a883-a5baec28d1dc","ios":"levelo://app?vid=9fcd9c2e-8610-4d87-a883-a5baec28d1dc"},"vehicle_type_id":"4","last_reported":1749910144,"current_range_meters":0,"station_id":"","pricing_plan_id":"cebpf4jnsgd1na2vs0mg"},{"bike_id":"bf89d78c-eb96-40d5-beb0-f402ef102cc1","system_id":"levelo_inurba_marseille","lat":43.337444,"lon":5.374475,"is_reserved":false,"is_disabled":true,"rental_uris":{"android":"levelo://app?vid=bf89d78c-eb96-40d5-beb0-f402ef102cc1","ios":"levelo://app?vid=bf89d78c-eb96-40d5-beb0-f402ef102cc1"},"vehicle_type_id":"4","last_reported":1749910144,"current_range_meters":0,"station_id":"","pricing_plan_id":"cebpf4jnsgd1na2vs0mg"},{"bike_id":"5077581b-cebb-46fc-ba69-4fa8272d4810","system_id":"levelo_inurba_marseille","lat":43.213641,"lon":5.355177,"is_reserved":false,"is_disabled":true,"rental_uris":{"android":"levelo://app?vid=5077581b-cebb-46fc-ba69-4fa8272d4810","ios":"levelo://app?vid=5077581b-cebb-46fc-ba69-4fa8272d4810"},"vehicle_type_id":"4","last_reported":1749910144,"current_range_meters":0,"station_id":"","pricing_plan_id":"cebpf4jnsgd1na2vs0mg"},{"bike_id":"fe909eec-57cb-4f6d-9797-191bc789bd7d","system_id":"levelo_inurba_marseille","lat":43.31177,"lon":5.36863,"is_reserved":false,"is_disabled":true,"rental_uris":{"android":"levelo://app?vid=fe909eec-57cb-4f6d-9797-191bc789bd7d","ios":"levelo://app?vid=fe909eec-57cb-4f6d-9797-191bc789bd7d"},"vehicle_type_id":"4","last_reported":1749910144,"current_range_meters":0,"station_id":"","pricing_plan_id":"cebpf4jnsgd1na2vs0mg"},{"bike_id":"ebf89cec-3e1a-4275-9cd0-a3d19d69b5cf","system_id":"levelo_inurba_marseille","lat":43.279767,"lon":5.384823,"is_reserved":false,"is_disabled":true,"rental_uris":{"android":"levelo://app?vid=ebf89cec-3e1a-4275-9cd0-a3d19d69b5cf","ios":"levelo://app?vid=ebf89cec-3e1a-4275-9cd0-a3d19d69b5cf"},"vehicle_type_id":"4","last_reported":1749910144,"current_range_meters":0,"station_id":"","pricing_plan_id":"cebpf4jnsgd1na2vs0mg"},{"bike_id":"492f4bbd-1190-4ef2-b66a-479ffe91b09b","system_id":"levelo_inurba_marseille","lat":43.337444,"lon":5.374475,"is_reserved":false,"is_disabled":true,"rental_uris":{"android":"levelo://app?vid=492f4bbd-1190-4ef2-b66a-479ffe91b09b","ios":"levelo://app?vid=492f4bbd-1190-4ef2-b66a-479ffe91b09b"},"vehicle_type_id":"4","last_reported":1749910144,"current_range_meters":0,"station_id":"","pricing_plan_id":"cebpf4jnsgd1na2vs0mg"},{"bike_id":"a9b6bf99-4070-4437-bb20-72962ae30b90","system_id":"levelo_inurba_marseille","lat":43.27473,"lon":5.36411,"is_reserved":false,"is_disabled":true,"rental_uris":{"android":"levelo://app?vid=a9b6bf99-4070-4437-bb20-72962ae30b90","ios":"levelo://app?vid=a9b6bf99-4070-4437-bb20-72962ae30b90"},"vehicle_type_id":"4","last_reported":1749910144,"current_range_meters":0,"station_id":"","pricing_plan_id":"cebpf4jnsgd1na2vs0mg"},{"bike_id":"8eb82f27-b7c4-4a9e-86e8-ba1db4e86abc","system_id":"levelo_inurba_marseille","lat":43.3013,"lon":5.38788,"is_reserved":false,"is_disabled":true,"rental_uris":{"android":"levelo://app?vid=8eb82f27-b7c4-4a9e-86e8-ba1db4e86abc","ios":"levelo://app?vid=8eb82f27-b7c4-4a9e-86e8-ba1db4e86abc"},"vehicle_type_id":"4","last_reported":1749910144,"current_range_meters":0,"station_id":"ce4bghh2rcd13ifvqb60","pricing_plan_id":"cebpf4jnsgd1na2vs0mg"},{"bike_id":"fad49093-7143-47fb-a95b-ff7e3266c5a8","system_id":"levelo_inurba_marseille","lat":43.29518,"lon":5.39049,"is_reserved":false,"is_disabled":true,"rental_uris":{"android":"levelo://app?vid=fad49093-7143-47fb-a95b-ff7e3266c5a8","ios":"levelo://app?vid=fad49093-7143-47fb-a95b-ff7e3266c5a8"},"vehicle_type_id":"4","last_reported":1749910144,"current_range_meters":0,"station_id":"ce4bh3p2rcd13ifvqdp0","pricing_plan_id":"cebpf4jnsgd1na2vs0mg"},{"bike_id":"e245d2ab-1eb7-4885-b6ff-3bf879f3936f","system_id":"levelo_inurba_marseille","lat":43.29008,"lon":5.35615,"is_reserved":false,"is_disabled":true,"rental_uris":{"android":"levelo://app?vid=e245d2ab-1eb7-4885-b6ff-3bf879f3936f","ios":"levelo://app?vid=e245d2ab-1eb7-4885-b6ff-3bf879f3936f"},"vehicle_type_id":"4","last_reported":1749910144,"current_range_meters":0,"station_id":"ce4bhb92rcd13ifvqen0","pricing_plan_id":"cebpf4jnsgd1na2vs0mg"},{"bike_id":"eecb2165-f0c8-4a24-b198-f0f2ec566a67","system_id":"levelo_inurba_marseille","lat":43.27376,"lon":5.36256,"is_reserved":false,"is_disabled":true,"rental_uris":{"android":"levelo://app?vid=eecb2165-f0c8-4a24-b198-f0f2ec566a67","ios":"levelo://app?vid=eecb2165-f0c8-4a24-b198-f0f2ec566a67"},"vehicle_type_id":"4","last_reported":1749910144,"current_range_meters":0,"station_id":"ce4bhbh2rcd13ifvqeo0","pricing_plan_id":"cebpf4jnsgd1na2vs0mg"},{"bike_id":"422c748f-b299-4024-9070-edf9d5ef12ed","system_id":"levelo_inurba_marseille","lat":43.28618,"lon":5.35102,"is_reserved":false,"is_disabled":true,"rental_uris":{"android":"levelo://app?vid=422c748f-b299-4024-9070-edf9d5ef12ed","ios":"levelo://app?vid=422c748f-b299-4024-9070-edf9d5ef12ed"},"vehicle_type_id":"4","last_reported":1749910144,"current_range_meters":0,"station_id":"ce4bhch2rcd13ifvqeug","pricing_plan_id":"cebpf4jnsgd1na2vs0mg"},{"bike_id":"0853be89-100e-4b3e-9647-8657557e71fc","system_id":"levelo_inurba_marseille","lat":43.28612,"lon":5.35108,"is_reserved":false,"is_disabled":true,"rental_uris":{"android":"levelo://app?vid=0853be89-100e-4b3e-9647-8657557e71fc","ios":"levelo://app?vid=0853be89-100e-4b3e-9647-8657557e71fc"},"vehicle_type_id":"4","last_reported":1749910144,"current_range_meters":0,"station_id":"ce4bhch2rcd13ifvqeug","pricing_plan_id":"cebpf4jnsgd1na2vs0mg"},{"bike_id":"470fdfe7-14e6-4492-a58b-f399810bc3a7","system_id":"levelo_inurba_marseille","lat":43.26207,"lon":5.37463,"is_reserved":false,"is_disabled":true,"rental_uris":{"android":"levelo://app?vid=470fdfe7-14e6-4492-a58b-f399810bc3a7","ios":"levelo://app?vid=470fdfe7-14e6-4492-a58b-f399810bc3a7"},"vehicle_type_id":"4","last_reported":1749910144,"current_range_meters":0,"station_id":"ce4bhgp2rcd13ifvqfc0","pricing_plan_id":"cebpf4jnsgd1na2vs0mg"},{"bike_id":"5b51e552-5712-49f3-b18c-b47715fa3cec","system_id":"levelo_inurba_marseille","lat":43.26206,"lon":5.37411,"is_reserved":false,"is_disabled":true,"rental_uris":{"android":"levelo://app?vid=5b51e552-5712-49f3-b18c-b47715fa3cec","ios":"levelo://app?vid=5b51e552-5712-49f3-b18c-b47715fa3cec"},"vehicle_type_id":"4","last_reported":1749910144,"current_range_meters":0,"station_id":"ce4bhgp2rcd13ifvqfc0","pricing_plan_id":"cebpf4jnsgd1na2vs0mg"},{"bike_id":"16848cb5-ea9b-424b-9fdd-524d601db19b","system_id":"levelo_inurba_marseille","lat":43.27211,"lon":5.39184,"is_reserved":false,"is_disabled":true,"rental_uris":{"android":"levelo://app?vid=16848cb5-ea9b-424b-9fdd-524d601db19b","ios":"levelo://app?vid=16848cb5-ea9b-424b-9fdd-524d601db19b"},"vehicle_type_id":"4","last_reported":1749910144,"current_range_meters":0,"station_id":"ce4bhhp2rcd13ifvqfm0","pricing_plan_id":"cebpf4jnsgd1na2vs0mg"},{"bike_id":"09416623-92a2-4605-816a-ead8306ae3a8","system_id":"levelo_inurba_marseille","lat":43.231505,"lon":5.437174,"is_reserved":false,"is_disabled":true,"rental_uris":{"android":"levelo://app?vid=09416623-92a2-4605-816a-ead8306ae3a8","ios":"levelo://app?vid=09416623-92a2-4605-816a-ead8306ae3a8"},"vehicle_type_id":"4","last_reported":1749910144,"current_range_meters":0,"station_id":"ce4bhmp2rcd13ifvqgog","pricing_plan_id":"cebpf4jnsgd1na2vs0mg"},{"bike_id":"442be05d-b25d-4a8f-8f0c-2b10cb7b3826","system_id":"levelo_inurba_marseille","lat":43.30419,"lon":5.41288,"is_reserved":false,"is_disabled":true,"rental_uris":{"android":"levelo://app?vid=442be05d-b25d-4a8f-8f0c-2b10cb7b3826","ios":"levelo://app?vid=442be05d-b25d-4a8f-8f0c-2b10cb7b3826"},"vehicle_type_id":"4","last_reported":1749910144,"current_range_meters":0,"station_id":"ce4bhop2rcd13ifvqh8g","pricing_plan_id":"cebpf4jnsgd1na2vs0mg"},{"bike_id":"dd758e83-43cb-478f-b19e-e4c3f45b020d","system_id":"levelo_inurba_marseille","lat":43.32342,"lon":5.40623,"is_reserved":false,"is_disabled":true,"rental_uris":{"android":"levelo://app?vid=dd758e83-43cb-478f-b19e-e4c3f45b020d","ios":"levelo://app?vid=dd758e83-43cb-478f-b19e-e4c3f45b020d"},"vehicle_type_id":"4","last_reported":1749910144,"current_range_meters":0,"station_id":"ce4bhq92rcd13ifvqhjg","pricing_plan_id":"cebpf4jnsgd1na2vs0mg"},{"bike_id":"f0c72add-3883-4663-a9a9-7391d0fa1531","system_id":"levelo_inurba_marseille","lat":43.22937,"lon":5.35381,"is_reserved":false,"is_disabled":true,"rental_uris":{"android":"levelo://app?vid=f0c72add-3883-4663-a9a9-7391d0fa1531","ios":"levelo://app?vid=f0c72add-3883-4663-a9a9-7391d0fa1531"},"vehicle_type_id":"4","last_reported":1749910144,"current_range_meters":0,"station_id":"cpo3532slgdg3j2ikp40","pricing_plan_id":"cebpf4jnsgd1na2vs0mg"},{"bike_id":"82f12164-29dc-44b7-b241-04af17d2d283","system_id":"levelo_inurba_marseille","lat":43.22927,"lon":5.35379,"is_reserved":false,"is_disabled":true,"rental_uris":{"android":"levelo://app?vid=82f12164-29dc-44b7-b241-04af17d2d283","ios":"levelo://app?vid=82f12164-29dc-44b7-b241-04af17d2d283"},"vehicle_type_id":"4","last_reported":1749910144,"current_range_meters":0,"station_id":"cpo3532slgdg3j2ikp40","pricing_plan_id":"cebpf4jnsgd1na2vs0mg"},{"bike_id":"0f50c2eb-d288-4d90-a9a3-cd0743222590","system_id":"levelo_inurba_marseille","lat":43.22514,"lon":5.34793,"is_reserved":false,"is_disabled":true,"rental_uris":{"android":"levelo://app?vid=0f50c2eb-d288-4d90-a9a3-cd0743222590","ios":"levelo://app?vid=0f50c2eb-d288-4d90-a9a3-cd0743222590"},"vehicle_type_id":"4","last_reported":1749910144,"current_range_meters":0,"station_id":"st_cvj5dfep6f1abm77gieg","pricing_plan_id":"cebpf4jnsgd1na2vs0mg"},{"bike_id":"8631c4e3-7e45-4b01-8538-d64c8499eb1d","system_id":"levelo_inurba_marseille","lat":43.28644,"lon":5.38364,"is_reserved":false,"is_disabled":true,"rental_uris":{"android":"levelo://app?vid=8631c4e3-7e45-4b01-8538-d64c8499eb1d","ios":"levelo://app?vid=8631c4e3-7e45-4b01-8538-d64c8499eb1d"},"vehicle_type_id":"4","last_reported":1749910144,"current_range_meters":400,"station_id":"","pricing_plan_id":"cebpf4jnsgd1na2vs0mg"},{"bike_id":"6ad1db1b-e0bd-46c4-b2d8-d75e4a153cc8","system_id":"levelo_inurba_marseille","lat":43.27384,"lon":5.36264,"is_reserved":false,"is_disabled":true,"rental_uris":{"android":"levelo://app?vid=6ad1db1b-e0bd-46c4-b2d8-d75e4a153cc8","ios":"levelo://app?vid=6ad1db1b-e0bd-46c4-b2d8-d75e4a153cc8"},"vehicle_type_id":"4","last_reported":1749910144,"current_range_meters":400,"station_id":"ce4bhbh2rcd13ifvqeo0","pricing_plan_id":"cebpf4jnsgd1na2vs0mg"},{"bike_id":"975b6947-5d6b-4e2c-9b23-ab7d0845f018","system_id":"levelo_inurba_marseille","lat":43.22927,"lon":5.35376,"is_reserved":false,"is_disabled":true,"rental_uris":{"android":"levelo://app?vid=975b6947-5d6b-4e2c-9b23-ab7d0845f018","ios":"levelo://app?vid=975b6947-5d6b-4e2c-9b23-ab7d0845f018"},"vehicle_type_id":"4","last_reported":1749910144,"current_range_meters":400,"station_id":"cpo3532slgdg3j2ikp40","pricing_plan_id":"cebpf4jnsgd1na2vs0mg"},{"bike_id":"ec5f9a7c-d5e8-4046-bcc0-80f6b64420f3","system_id":"levelo_inurba_marseille","lat":43.2825,"lon":5.35126,"is_reserved":false,"is_disabled":true,"rental_uris":{"android":"levelo://app?vid=ec5f9a7c-d5e8-4046-bcc0-80f6b64420f3","ios":"levelo://app?vid=ec5f9a7c-d5e8-4046-bcc0-80f6b64420f3"},"vehicle_type_id":"4","last_reported":1749910144,"current_range_meters":800,"station_id":"","pricing_plan_id":"cebpf4jnsgd1na2vs0mg"},{"bike_id":"849cea5a-9eb6-420b-bdc4-54b8d562fe8d","system_id":"levelo_inurba_marseille","lat":43.29925,"lon":5.36565,"is_reserved":false,"is_disabled":true,"rental_uris":{"android":"levelo://app?vid=849cea5a-9eb6-420b-bdc4-54b8d562fe8d","ios":"levelo://app?vid=849cea5a-9eb6-420b-bdc4-54b8d562fe8d"},"vehicle_type_id":"4","last_reported":1749910144,"current_range_meters":800,"station_id":"ce4bgm92rcd13ifvqbr0","pricing_plan_id":"cebpf4jnsgd1na2vs0mg"},{"bike_id":"9561efc5-c2c6-44a7-a710-4cdee030af08","system_id":"levelo_inurba_marseille","lat":43.30547,"lon":5.36708,"is_reserved":false,"is_disabled":true,"rental_uris":{"android":"levelo://app?vid=9561efc5-c2c6-44a7-a710-4cdee030af08","ios":"levelo://app?vid=9561efc5-c2c6-44a7-a710-4cdee030af08"},"vehicle_type_id":"4","last_reported":1749910144,"current_range_meters":800,"station_id":"ce4bgrp2rcd13ifvqc9g","pricing_plan_id":"cebpf4jnsgd1na2vs0mg"},{"bike_id":"10e04622-8254-457c-bdf6-1ff8d4a8df70","system_id":"levelo_inurba_marseille","lat":43.27373,"lon":5.36254,"is_reserved":false,"is_disabled":true,"rental_uris":{"android":"levelo://app?vid=10e04622-8254-457c-bdf6-1ff8d4a8df70","ios":"levelo://app?vid=10e04622-8254-457c-bdf6-1ff8d4a8df70"},"vehicle_type_id":"4","last_reported":1749910144,"current_range_meters":800,"station_id":"ce4bhbh2rcd13ifvqeo0","pricing_plan_id":"cebpf4jnsgd1na2vs0mg"},{"bike_id":"d4462f4c-ccf9-4b76-9088-24866e4c3008","system_id":"levelo_inurba_marseille","lat":43.2862,"lon":5.35114,"is_reserved":false,"is_disabled":true,"rental_uris":{"android":"levelo://app?vid=d4462f4c-ccf9-4b76-9088-24866e4c3008","ios":"levelo://app?vid=d4462f4c-ccf9-4b76-9088-24866e4c3008"},"vehicle_type_id":"4","last_reported":1749910144,"current_range_meters":800,"station_id":"ce4bhch2rcd13ifvqeug","pricing_plan_id":"cebpf4jnsgd1na2vs0mg"},{"bike_id":"9211320f-9a79-4d82-b409-58b854e8cf58","system_id":"levelo_inurba_marseille","lat":43.2603,"lon":5.37544,"is_reserved":false,"is_disabled":true,"rental_uris":{"android":"levelo://app?vid=9211320f-9a79-4d82-b409-58b854e8cf58","ios":"levelo://app?vid=9211320f-9a79-4d82-b409-58b854e8cf58"},"vehicle_type_id":"4","last_reported":1749910144,"current_range_meters":800,"station_id":"ce4bhgh2rcd13ifvqfa0","pricing_plan_id":"cebpf4jnsgd1na2vs0mg"},{"bike_id":"30c14b86-09b1-4a26-afca-0f482fe1139a","system_id":"levelo_inurba_marseille","lat":43.28005,"lon":5.400059,"is_reserved":false,"is_disabled":true,"rental_uris":{"android":"levelo://app?vid=30c14b86-09b1-4a26-afca-0f482fe1139a","ios":"levelo://app?vid=30c14b86-09b1-4a26-afca-0f482fe1139a"},"vehicle_type_id":"4","last_reported":1749910144,"current_range_meters":800,"station_id":"ce4bho92rcd13ifvqh4g","pricing_plan_id":"cebpf4jnsgd1na2vs0mg"},{"bike_id":"7be62569-a898-4611-92c2-ab5ef44f1723","system_id":"levelo_inurba_marseille","lat":43.22916,"lon":5.35405,"is_reserved":false,"is_disabled":true,"rental_uris":{"android":"levelo://app?vid=7be62569-a898-4611-92c2-ab5ef44f1723","ios":"levelo://app?vid=7be62569-a898-4611-92c2-ab5ef44f1723"},"vehicle_type_id":"4","last_reported":1749910144,"current_range_meters":800,"station_id":"cpo3532slgdg3j2ikp40","pricing_plan_id":"cebpf4jnsgd1na2vs0mg"},{"bike_id":"2e968558-8433-4382-a6f9-12d48c781ff8","system_id":"levelo_inurba_marseille","lat":43.30602,"lon":5.39334,"is_reserved":false,"is_disabled":true,"rental_uris":{"android":"levelo://app?vid=2e968558-8433-4382-a6f9-12d48c781ff8","ios":"levelo://app?vid=2e968558-8433-4382-a6f9-12d48c781ff8"},"vehicle_type_id":"4","last_reported":1749910144,"current_range_meters":1200,"station_id":"ce4bh0p2rcd13ifvqd80","pricing_plan_id":"cebpf4jnsgd1na2vs0mg"},{"bike_id":"31348639-2752-4759-8e71-95c66fe592ff","system_id":"levelo_inurba_marseille","lat":43.30642,"lon":5.40096,"is_reserved":false,"is_disabled":true,"rental_uris":{"android":"levelo://app?vid=31348639-2752-4759-8e71-95c66fe592ff","ios":"levelo://app?vid=31348639-2752-4759-8e71-95c66fe592ff"},"vehicle_type_id":"4","last_reported":1749910144,"current_range_meters":1200,"station_id":"ce4bh112rcd13ifvqda0","pricing_plan_id":"cebpf4jnsgd1na2vs0mg"},{"bike_id":"01a2c851-6b0c-425f-939a-fb979cecb69b","system_id":"levelo_inurba_marseille","lat":43.26686,"lon":5.38268,"is_reserved":false,"is_disabled":true,"rental_uris":{"android":"levelo://app?vid=01a2c851-6b0c-425f-939a-fb979cecb69b","ios":"levelo://app?vid=01a2c851-6b0c-425f-939a-fb979cecb69b"},"vehicle_type_id":"4","last_reported":1749910144,"current_range_meters":1200,"station_id":"ce4bhg92rcd13ifvqf90","pricing_plan_id":"cebpf4jnsgd1na2vs0mg"},{"bike_id":"7e0efb00-174b-4e94-9236-64ef09ca96c2","system_id":"levelo_inurba_marseille","lat":43.29169,"lon":5.37158,"is_reserved":false,"is_disabled":true,"rental_uris":{"android":"levelo://app?vid=7e0efb00-174b-4e94-9236-64ef09ca96c2","ios":"levelo://app?vid=7e0efb00-174b-4e94-9236-64ef09ca96c2"},"vehicle_type_id":"4","last_reported":1749910144,"current_range_meters":1600,"station_id":"ce4bha92rcd13ifvqeh0","pricing_plan_id":"cebpf4jnsgd1na2vs0mg"},{"bike_id":"278a5871-ec0f-46db-9f06-e8b34bf623c0","system_id":"levelo_inurba_marseille","lat":43.28939,"lon":5.36643,"is_reserved":false,"is_disabled":true,"rental_uris":{"android":"levelo://app?vid=278a5871-ec0f-46db-9f06-e8b34bf623c0","ios":"levelo://app?vid=278a5871-ec0f-46db-9f06-e8b34bf623c0"},"vehicle_type_id":"4","last_reported":1749910144,"current_range_meters":1600,"station_id":"ce4bhap2rcd13ifvqek0","pricing_plan_id":"cebpf4jnsgd1na2vs0mg"},{"bike_id":"7e28198b-3b4d-467e-a588-cd7be32b568e","system_id":"levelo_inurba_marseille","lat":43.28414,"lon":5.34978,"is_reserved":false,"is_disabled":true,"rental_uris":{"android":"levelo://app?vid=7e28198b-3b4d-467e-a588-cd7be32b568e","ios":"levelo://app?vid=7e28198b-3b4d-467e-a588-cd7be32b568e"},"vehicle_type_id":"4","last_reported":1749910144,"current_range_meters":1600,"station_id":"ce4bhbh2rcd13ifvqepg","pricing_plan_id":"cebpf4jnsgd1na2vs0mg"},{"bike_id":"06753628-7208-4d25-9f96-b2826cf35095","system_id":"levelo_inurba_marseille","lat":43.29229,"lon":5.36075,"is_reserved":false,"is_disabled":true,"rental_uris":{"android":"levelo://app?vid=06753628-7208-4d25-9f96-b2826cf35095","ios":"levelo://app?vid=06753628-7208-4d25-9f96-b2826cf35095"},"vehicle_type_id":"4","last_reported":1749910144,"current_range_meters":1600,"station_id":"ce4bhbh2rcd13ifvqeqg","pricing_plan_id":"cebpf4jnsgd1na2vs0mg"},{"bike_id":"b6dee8fb-0a3b-4464-a342-3466a3bf92fb","system_id":"levelo_inurba_marseille","lat":43.27827,"lon":5.40738,"is_reserved":false,"is_disabled":true,"rental_uris":{"android":"levelo://app?vid=b6dee8fb-0a3b-4464-a342-3466a3bf92fb","ios":"levelo://app?vid=b6dee8fb-0a3b-4464-a342-3466a3bf92fb"},"vehicle_type_id":"4","last_reported":1749910144,"current_range_meters":1600,"station_id":"ce4bhnh2rcd13ifvqgtg","pricing_plan_id":"cebpf4jnsgd1na2vs0mg"},{"bike_id":"8d60347d-541c-40fb-90ca-203bf6bd520a","system_id":"levelo_inurba_marseille","lat":43.271258,"lon":5.363931,"is_reserved":false,"is_disabled":true,"rental_uris":{"android":"levelo://app?vid=8d60347d-541c-40fb-90ca-203bf6bd520a","ios":"levelo://app?vid=8d60347d-541c-40fb-90ca-203bf6bd520a"},"vehicle_type_id":"4","last_reported":1749910144,"current_range_meters":2000,"station_id":"","pricing_plan_id":"cebpf4jnsgd1na2vs0mg"},{"bike_id":"9d9ba43e-6134-4a7a-807b-180044cdb1a4","system_id":"levelo_inurba_marseille","lat":43.30532,"lon":5.38426,"is_reserved":false,"is_disabled":true,"rental_uris":{"android":"levelo://app?vid=9d9ba43e-6134-4a7a-807b-180044cdb1a4","ios":"levelo://app?vid=9d9ba43e-6134-4a7a-807b-180044cdb1a4"},"vehicle_type_id":"4","last_reported":1749910144,"current_range_meters":2000,"station_id":"ce4bgg92rcd13ifvqb30","pricing_plan_id":"cebpf4jnsgd1na2vs0mg"},{"bike_id":"8a633210-497c-40be-bdbd-cd11b97563cd","system_id":"levelo_inurba_marseille","lat":43.29931,"lon":5.36531,"is_reserved":false,"is_disabled":true,"rental_uris":{"android":"levelo://app?vid=8a633210-497c-40be-bdbd-cd11b97563cd","ios":"levelo://app?vid=8a633210-497c-40be-bdbd-cd11b97563cd"},"vehicle_type_id":"4","last_reported":1749910144,"current_range_meters":2000,"station_id":"ce4bgm92rcd13ifvqbr0","pricing_plan_id":"cebpf4jnsgd1na2vs0mg"},{"bike_id":"c3750610-1bbe-44ea-9e6d-d76d2c03e104","system_id":"levelo_inurba_marseille","lat":43.2695,"lon":5.38631,"is_reserved":false,"is_disabled":true,"rental_uris":{"android":"levelo://app?vid=c3750610-1bbe-44ea-9e6d-d76d2c03e104","ios":"levelo://app?vid=c3750610-1bbe-44ea-9e6d-d76d2c03e104"},"vehicle_type_id":"4","last_reported":1749910144,"current_range_meters":2000,"station_id":"ce4bhh92rcd13ifvqfh0","pricing_plan_id":"cebpf4jnsgd1na2vs0mg"},{"bike_id":"e412f268-13b9-4ed0-8747-96da6d111193","system_id":"levelo_inurba_marseille","lat":43.29531,"lon":5.38538,"is_reserved":false,"is_disabled":false,"rental_uris":{"android":"levelo://app?vid=e412f268-13b9-4ed0-8747-96da6d111193","ios":"levelo://app?vid=e412f268-13b9-4ed0-8747-96da6d111193"},"vehicle_type_id":"4","last_reported":1749910144,"current_range_meters":2800,"station_id":"ce4bgih2rcd13ifvqba0","pricing_plan_id":"cebpf4jnsgd1na2vs0mg"},{"bike_id":"b2d54f9a-0a9e-4ce2-ba01-f4e37913df4c","system_id":"levelo_inurba_marseille","lat":43.29218,"lon":5.36064,"is_reserved":false,"is_disabled":false,"rental_uris":{"android":"levelo://app?vid=b2d54f9a-0a9e-4ce2-ba01-f4e37913df4c","ios":"levelo://app?vid=b2d54f9a-0a9e-4ce2-ba01-f4e37913df4c"},"vehicle_type_id":"4","last_reported":1749910144,"current_range_meters":2800,"station_id":"ce4bhbh2rcd13ifvqeqg","pricing_plan_id":"cebpf4jnsgd1na2vs0mg"},{"bike_id":"60b00535-e4ce-4286-b4d9-05d68fbd4708","system_id":"levelo_inurba_marseille","lat":43.29263,"lon":5.38442,"is_reserved":false,"is_disabled":false,"rental_uris":{"android":"levelo://app?vid=60b00535-e4ce-4286-b4d9-05d68fbd4708","ios":"levelo://app?vid=60b00535-e4ce-4286-b4d9-05d68fbd4708"},"vehicle_type_id":"4","last_reported":1749910144,"current_range_meters":3200,"station_id":"ce4bh692rcd13ifvqea0","pricing_plan_id":"cebpf4jnsgd1na2vs0mg"},{"bike_id":"4ee44ea0-d385-41f4-8ac9-5ac5ba85aa00","system_id":"levelo_inurba_marseille","lat":43.23179,"lon":5.4372,"is_reserved":false,"is_disabled":false,"rental_uris":{"android":"levelo://app?vid=4ee44ea0-d385-41f4-8ac9-5ac5ba85aa00","ios":"levelo://app?vid=4ee44ea0-d385-41f4-8ac9-5ac5ba85aa00"},"vehicle_type_id":"4","last_reported":1749910144,"current_range_meters":3200,"station_id":"ce4bhmp2rcd13ifvqgog","pricing_plan_id":"cebpf4jnsgd1na2vs0mg"},{"bike_id":"08deaeba-75ea-4457-ae75-2f01ca262014","system_id":"levelo_inurba_marseille","lat":43.25495,"lon":5.37652,"is_reserved":false,"is_disabled":false,"rental_uris":{"android":"levelo://app?vid=08deaeba-75ea-4457-ae75-2f01ca262014","ios":"levelo://app?vid=08deaeba-75ea-4457-ae75-2f01ca262014"},"vehicle_type_id":"4","last_reported":1749910144,"current_range_meters":3600,"station_id":"ce4bhh12rcd13ifvqff0","pricing_plan_id":"cebpf4jnsgd1na2vs0mg"},{"bike_id":"97421c04-2630-4fc1-9da9-b17d88602c5f","system_id":"levelo_inurba_marseille","lat":43.337682,"lon":5.374519,"is_reserved":false,"is_disabled":false,"rental_uris":{"android":"levelo://app?vid=97421c04-2630-4fc1-9da9-b17d88602c5f","ios":"levelo://app?vid=97421c04-2630-4fc1-9da9-b17d88602c5f"},"vehicle_type_id":"4","last_reported":1749910144,"current_range_meters":4000,"station_id":"","pricing_plan_id":"cebpf4jnsgd1na2vs0mg"},{"bike_id":"d9be8431-1098-4c2d-b533-c5666589794d","system_id":"levelo_inurba_marseille","lat":43.30415,"lon":5.41302,"is_reserved":false,"is_disabled":false,"rental_uris":{"android":"levelo://app?vid=d9be8431-1098-4c2d-b533-c5666589794d","ios":"levelo://app?vid=d9be8431-1098-4c2d-b533-c5666589794d"},"vehicle_type_id":"4","last_reported":1749910144,"current_range_meters":4000,"station_id":"ce4bhop2rcd13ifvqh8g","pricing_plan_id":"cebpf4jnsgd1na2vs0mg"},{"bike_id":"1915255f-ff05-448b-bd5c-bcd55b7449d7","system_id":"levelo_inurba_marseille","lat":43.28796,"lon":5.37356,"is_reserved":false,"is_disabled":false,"rental_uris":{"android":"levelo://app?vid=1915255f-ff05-448b-bd5c-bcd55b7449d7","ios":"levelo://app?vid=1915255f-ff05-448b-bd5c-bcd55b7449d7"},"vehicle_type_id":"4","last_reported":1749910144,"current_range_meters":4400,"station_id":"","pricing_plan_id":"cebpf4jnsgd1na2vs0mg"},{"bike_id":"81ae60d1-6066-407c-b0a2-5393f3050a20","system_id":"levelo_inurba_marseille","lat":43.29986,"lon":5.37184,"is_reserved":false,"is_disabled":false,"rental_uris":{"android":"levelo://app?vid=81ae60d1-6066-407c-b0a2-5393f3050a20","ios":"levelo://app?vid=81ae60d1-6066-407c-b0a2-5393f3050a20"},"vehicle_type_id":"4","last_reported":1749910144,"current_range_meters":4400,"station_id":"ce4bgr92rcd13ifvqc7g","pricing_plan_id":"cebpf4jnsgd1na2vs0mg"},{"bike_id":"09ac5bf6-823d-4abf-af1e-b58738e522b1","system_id":"levelo_inurba_marseille","lat":43.27213,"lon":5.39181,"is_reserved":false,"is_disabled":false,"rental_uris":{"android":"levelo://app?vid=09ac5bf6-823d-4abf-af1e-b58738e522b1","ios":"levelo://app?vid=09ac5bf6-823d-4abf-af1e-b58738e522b1"},"vehicle_type_id":"4","last_reported":1749910144,"current_range_meters":4400,"station_id":"ce4bhhp2rcd13ifvqfm0","pricing_plan_id":"cebpf4jnsgd1na2vs0mg"},{"bike_id":"2e99a5fb-a2c2-44ef-ab87-5391b788b560","system_id":"levelo_inurba_marseille","lat":43.225028,"lon":5.347838,"is_reserved":false,"is_disabled":false,"rental_uris":{"android":"levelo://app?vid=2e99a5fb-a2c2-44ef-ab87-5391b788b560","ios":"levelo://app?vid=2e99a5fb-a2c2-44ef-ab87-5391b788b560"},"vehicle_type_id":"4","last_reported":1749910144,"current_range_meters":4800,"station_id":"","pricing_plan_id":"cebpf4jnsgd1na2vs0mg"},{"bike_id":"d7b1aacb-dbe3-428e-86e5-49e0802c977c","system_id":"levelo_inurba_marseille","lat":43.26685,"lon":5.38261,"is_reserved":false,"is_disabled":false,"rental_uris":{"android":"levelo://app?vid=d7b1aacb-dbe3-428e-86e5-49e0802c977c","ios":"levelo://app?vid=d7b1aacb-dbe3-428e-86e5-49e0802c977c"},"vehicle_type_id":"4","last_reported":1749910144,"current_range_meters":4800,"station_id":"ce4bhg92rcd13ifvqf90","pricing_plan_id":"cebpf4jnsgd1na2vs0mg"},{"bike_id":"1d12dd51-6644-4ce5-9fba-f77b86792ea1","system_id":"levelo_inurba_marseille","lat":43.28267,"lon":5.35059,"is_reserved":false,"is_disabled":false,"rental_uris":{"android":"levelo://app?vid=1d12dd51-6644-4ce5-9fba-f77b86792ea1","ios":"levelo://app?vid=1d12dd51-6644-4ce5-9fba-f77b86792ea1"},"vehicle_type_id":"4","last_reported":1749910144,"current_range_meters":5600,"station_id":"ce4bhbp2rcd13ifvqerg","pricing_plan_id":"cebpf4jnsgd1na2vs0mg"},{"bike_id":"0a176c0c-78a3-474b-b917-3fc9a4ed2ff7","system_id":"levelo_inurba_marseille","lat":43.25585,"lon":5.38226,"is_reserved":false,"is_disabled":false,"rental_uris":{"android":"levelo://app?vid=0a176c0c-78a3-474b-b917-3fc9a4ed2ff7","ios":"levelo://app?vid=0a176c0c-78a3-474b-b917-3fc9a4ed2ff7"},"vehicle_type_id":"4","last_reported":1749910144,"current_range_meters":6000,"station_id":"ce4bhih2rcd13ifvqfs0","pricing_plan_id":"cebpf4jnsgd1na2vs0mg"},{"bike_id":"2aaf2205-7518-413f-b8a5-97f1c1695d4c","system_id":"levelo_inurba_marseille","lat":43.23154,"lon":5.43717,"is_reserved":false,"is_disabled":false,"rental_uris":{"android":"levelo://app?vid=2aaf2205-7518-413f-b8a5-97f1c1695d4c","ios":"levelo://app?vid=2aaf2205-7518-413f-b8a5-97f1c1695d4c"},"vehicle_type_id":"4","last_reported":1749910144,"current_range_meters":6000,"station_id":"ce4bhmp2rcd13ifvqgog","pricing_plan_id":"cebpf4jnsgd1na2vs0mg"},{"bike_id":"f5b2ffae-c086-4e1b-b0fd-043d6026a577","system_id":"levelo_inurba_marseille","lat":43.33737,"lon":5.39203,"is_reserved":false,"is_disabled":false,"rental_uris":{"android":"levelo://app?vid=f5b2ffae-c086-4e1b-b0fd-043d6026a577","ios":"levelo://app?vid=f5b2ffae-c086-4e1b-b0fd-043d6026a577"},"vehicle_type_id":"4","last_reported":1749910144,"current_range_meters":6000,"station_id":"ce4bhr92rcd13ifvqhsg","pricing_plan_id":"cebpf4jnsgd1na2vs0mg"},{"bike_id":"ab5c85d8-579e-4dd9-84ba-3af3a96518ad","system_id":"levelo_inurba_marseille","lat":43.21188,"lon":5.35084,"is_reserved":false,"is_disabled":false,"rental_uris":{"android":"levelo://app?vid=ab5c85d8-579e-4dd9-84ba-3af3a96518ad","ios":"levelo://app?vid=ab5c85d8-579e-4dd9-84ba-3af3a96518ad"},"vehicle_type_id":"4","last_reported":1749910144,"current_range_meters":6000,"station_id":"st_cvj6sg6p6f1abm77japg","pricing_plan_id":"cebpf4jnsgd1na2vs0mg"},{"bike_id":"1a02737e-1ddf-475d-9950-54127761b49d","system_id":"levelo_inurba_marseille","lat":43.29598,"lon":5.4232,"is_reserved":false,"is_disabled":false,"rental_uris":{"android":"levelo://app?vid=1a02737e-1ddf-475d-9950-54127761b49d","ios":"levelo://app?vid=1a02737e-1ddf-475d-9950-54127761b49d"},"vehicle_type_id":"4","last_reported":1749910144,"current_range_meters":6400,"station_id":"","pricing_plan_id":"cebpf4jnsgd1na2vs0mg"},{"bike_id":"f97ecd54-4291-4e6e-b2e8-3d28e0ed70d4","system_id":"levelo_inurba_marseille","lat":43.28451,"lon":5.35052,"is_reserved":false,"is_disabled":false,"rental_uris":{"android":"levelo://app?vid=f97ecd54-4291-4e6e-b2e8-3d28e0ed70d4","ios":"levelo://app?vid=f97ecd54-4291-4e6e-b2e8-3d28e0ed70d4"},"vehicle_type_id":"4","last_reported":1749910144,"current_range_meters":6400,"station_id":"","pricing_plan_id":"cebpf4jnsgd1na2vs0mg"},{"bike_id":"e49fb349-10f0-4406-ac8a-76de68b428f5","system_id":"levelo_inurba_marseille","lat":43.294016,"lon":5.393748,"is_reserved":false,"is_disabled":false,"rental_uris":{"android":"levelo://app?vid=e49fb349-10f0-4406-ac8a-76de68b428f5","ios":"levelo://app?vid=e49fb349-10f0-4406-ac8a-76de68b428f5"},"vehicle_type_id":"4","last_reported":1749910144,"current_range_meters":6400,"station_id":"","pricing_plan_id":"cebpf4jnsgd1na2vs0mg"},{"bike_id":"3add424f-63d4-4073-ac2e-e3fa553c4719","system_id":"levelo_inurba_marseille","lat":43.30548,"lon":5.36553,"is_reserved":false,"is_disabled":false,"rental_uris":{"android":"levelo://app?vid=3add424f-63d4-4073-ac2e-e3fa553c4719","ios":"levelo://app?vid=3add424f-63d4-4073-ac2e-e3fa553c4719"},"vehicle_type_id":"4","last_reported":1749910144,"current_range_meters":6400,"station_id":"ce4bgs12rcd13ifvqcag","pricing_plan_id":"cebpf4jnsgd1na2vs0mg"},{"bike_id":"b3e29c58-2d72-4b44-a184-658b7a64758b","system_id":"levelo_inurba_marseille","lat":43.29263,"lon":5.38434,"is_reserved":false,"is_disabled":false,"rental_uris":{"android":"levelo://app?vid=b3e29c58-2d72-4b44-a184-658b7a64758b","ios":"levelo://app?vid=b3e29c58-2d72-4b44-a184-658b7a64758b"},"vehicle_type_id":"4","last_reported":1749910144,"current_range_meters":6400,"station_id":"ce4bh692rcd13ifvqea0","pricing_plan_id":"cebpf4jnsgd1na2vs0mg"},{"bike_id":"dd2c554f-0c41-4aa0-a7c2-2fab2aadfc93","system_id":"levelo_inurba_marseille","lat":43.23061,"lon":5.35495,"is_reserved":false,"is_disabled":false,"rental_uris":{"android":"levelo://app?vid=dd2c554f-0c41-4aa0-a7c2-2fab2aadfc93","ios":"levelo://app?vid=dd2c554f-0c41-4aa0-a7c2-2fab2aadfc93"},"vehicle_type_id":"4","last_reported":1749910144,"current_range_meters":6400,"station_id":"cpo3342slgdg3j2ifvpg","pricing_plan_id":"cebpf4jnsgd1na2vs0mg"},{"bike_id":"8770dbef-e8bd-43f8-bdb5-b4e3167a38af","system_id":"levelo_inurba_marseille","lat":43.25499,"lon":5.37651,"is_reserved":false,"is_disabled":false,"rental_uris":{"android":"levelo://app?vid=8770dbef-e8bd-43f8-bdb5-b4e3167a38af","ios":"levelo://app?vid=8770dbef-e8bd-43f8-bdb5-b4e3167a38af"},"vehicle_type_id":"4","last_reported":1749910144,"current_range_meters":6800,"station_id":"ce4bhh12rcd13ifvqff0","pricing_plan_id":"cebpf4jnsgd1na2vs0mg"},{"bike_id":"7282d616-06ae-4a3b-bc18-686f09bb3262","system_id":"levelo_inurba_marseille","lat":43.3237,"lon":5.36767,"is_reserved":false,"is_disabled":false,"rental_uris":{"android":"levelo://app?vid=7282d616-06ae-4a3b-bc18-686f09bb3262","ios":"levelo://app?vid=7282d616-06ae-4a3b-bc18-686f09bb3262"},"vehicle_type_id":"4","last_reported":1749910144,"current_range_meters":6800,"station_id":"ce4bhsh2rcd13ifvqi2g","pricing_plan_id":"cebpf4jnsgd1na2vs0mg"},{"bike_id":"f7c744c9-5c5c-41e2-9efa-346e1bc6d149","system_id":"levelo_inurba_marseille","lat":43.21192,"lon":5.3512,"is_reserved":false,"is_disabled":false,"rental_uris":{"android":"levelo://app?vid=f7c744c9-5c5c-41e2-9efa-346e1bc6d149","ios":"levelo://app?vid=f7c744c9-5c5c-41e2-9efa-346e1bc6d149"},"vehicle_type_id":"4","last_reported":1749910144,"current_range_meters":6800,"station_id":"st_cvj6sg6p6f1abm77japg","pricing_plan_id":"cebpf4jnsgd1na2vs0mg"},{"bike_id":"eeb6bffa-ebeb-4337-a53f-9d711bb4f8de","system_id":"levelo_inurba_marseille","lat":43.21223,"lon":5.35074,"is_reserved":false,"is_disabled":false,"rental_uris":{"android":"levelo://app?vid=eeb6bffa-ebeb-4337-a53f-9d711bb4f8de","ios":"levelo://app?vid=eeb6bffa-ebeb-4337-a53f-9d711bb4f8de"},"vehicle_type_id":"4","last_reported":1749910144,"current_range_meters":6800,"station_id":"st_cvj6sg6p6f1abm77japg","pricing_plan_id":"cebpf4jnsgd1na2vs0mg"},{"bike_id":"ec205bb8-64f0-4e32-90fd-2a2bfe361e0b","system_id":"levelo_inurba_marseille","lat":43.26195,"lon":5.37449,"is_reserved":false,"is_disabled":false,"rental_uris":{"android":"levelo://app?vid=ec205bb8-64f0-4e32-90fd-2a2bfe361e0b","ios":"levelo://app?vid=ec205bb8-64f0-4e32-90fd-2a2bfe361e0b"},"vehicle_type_id":"4","last_reported":1749910144,"current_range_meters":7200,"station_id":"ce4bhgp2rcd13ifvqfc0","pricing_plan_id":"cebpf4jnsgd1na2vs0mg"},{"bike_id":"3ebcb526-9195-4257-ae10-ca7e45e1829a","system_id":"levelo_inurba_marseille","lat":43.23202,"lon":5.40014,"is_reserved":false,"is_disabled":false,"rental_uris":{"android":"levelo://app?vid=3ebcb526-9195-4257-ae10-ca7e45e1829a","ios":"levelo://app?vid=3ebcb526-9195-4257-ae10-ca7e45e1829a"},"vehicle_type_id":"4","last_reported":1749910144,"current_range_meters":7200,"station_id":"ce4bhn12rcd13ifvqgqg","pricing_plan_id":"cebpf4jnsgd1na2vs0mg"},{"bike_id":"d2eb19a6-efae-4333-adb9-d9ad699408b0","system_id":"levelo_inurba_marseille","lat":43.27948,"lon":5.41039,"is_reserved":false,"is_disabled":false,"rental_uris":{"android":"levelo://app?vid=d2eb19a6-efae-4333-adb9-d9ad699408b0","ios":"levelo://app?vid=d2eb19a6-efae-4333-adb9-d9ad699408b0"},"vehicle_type_id":"4","last_reported":1749910144,"current_range_meters":7200,"station_id":"ce4bhnp2rcd13ifvqh0g","pricing_plan_id":"cebpf4jnsgd1na2vs0mg"},{"bike_id":"06ac91d7-f970-4f94-919b-0e1f3889d810","system_id":"levelo_inurba_marseille","lat":43.21191,"lon":5.35104,"is_reserved":false,"is_disabled":false,"rental_uris":{"android":"levelo://app?vid=06ac91d7-f970-4f94-919b-0e1f3889d810","ios":"levelo://app?vid=06ac91d7-f970-4f94-919b-0e1f3889d810"},"vehicle_type_id":"4","last_reported":1749910144,"current_range_meters":7200,"station_id":"st_cvj6sg6p6f1abm77japg","pricing_plan_id":"cebpf4jnsgd1na2vs0mg"},{"bike_id":"ab488c91-61da-4c44-8ba7-e51468cc6505","system_id":"levelo_inurba_marseille","lat":43.27374,"lon":5.36275,"is_reserved":false,"is_disabled":false,"rental_uris":{"android":"levelo://app?vid=ab488c91-61da-4c44-8ba7-e51468cc6505","ios":"levelo://app?vid=ab488c91-61da-4c44-8ba7-e51468cc6505"},"vehicle_type_id":"4","last_reported":1749910144,"current_range_meters":8000,"station_id":"ce4bhbh2rcd13ifvqeo0","pricing_plan_id":"cebpf4jnsgd1na2vs0mg"},{"bike_id":"2635c448-ff63-437b-ba1e-0a230354acd0","system_id":"levelo_inurba_marseille","lat":43.24396,"lon":5.37079,"is_reserved":false,"is_disabled":false,"rental_uris":{"android":"levelo://app?vid=2635c448-ff63-437b-ba1e-0a230354acd0","ios":"levelo://app?vid=2635c448-ff63-437b-ba1e-0a230354acd0"},"vehicle_type_id":"4","last_reported":1749910144,"current_range_meters":8000,"station_id":"ce4bhhh2rcd13ifvqfk0","pricing_plan_id":"cebpf4jnsgd1na2vs0mg"},{"bike_id":"5d833807-0158-47f7-a8de-c59bc79bf739","system_id":"levelo_inurba_marseille","lat":43.21753,"lon":5.346,"is_reserved":false,"is_disabled":false,"rental_uris":{"android":"levelo://app?vid=5d833807-0158-47f7-a8de-c59bc79bf739","ios":"levelo://app?vid=5d833807-0158-47f7-a8de-c59bc79bf739"},"vehicle_type_id":"4","last_reported":1749910144,"current_range_meters":8000,"station_id":"st_cvj6r9ubvosntc0bgbag","pricing_plan_id":"cebpf4jnsgd1na2vs0mg"},{"bike_id":"611d3527-cdf7-477d-8a93-37a7e71a2477","system_id":"levelo_inurba_marseille","lat":43.21199,"lon":5.35117,"is_reserved":false,"is_disabled":false,"rental_uris":{"android":"levelo://app?vid=611d3527-cdf7-477d-8a93-37a7e71a2477","ios":"levelo://app?vid=611d3527-cdf7-477d-8a93-37a7e71a2477"},"vehicle_type_id":"4","last_reported":1749910144,"current_range_meters":8000,"station_id":"st_cvj6sg6p6f1abm77japg","pricing_plan_id":"cebpf4jnsgd1na2vs0mg"},{"bike_id":"d3f645d7-0fe8-4a59-b78b-62f966dba661","system_id":"levelo_inurba_marseille","lat":43.21205,"lon":5.35112,"is_reserved":false,"is_disabled":false,"rental_uris":{"android":"levelo://app?vid=d3f645d7-0fe8-4a59-b78b-62f966dba661","ios":"levelo://app?vid=d3f645d7-0fe8-4a59-b78b-62f966dba661"},"vehicle_type_id":"4","last_reported":1749910144,"current_range_meters":8000,"station_id":"st_cvj6sg6p6f1abm77japg","pricing_plan_id":"cebpf4jnsgd1na2vs0mg"},{"bike_id":"8db366b9-1f65-4c2f-9218-9d47165629b9","system_id":"levelo_inurba_marseille","lat":43.29976,"lon":5.3717,"is_reserved":false,"is_disabled":false,"rental_uris":{"android":"levelo://app?vid=8db366b9-1f65-4c2f-9218-9d47165629b9","ios":"levelo://app?vid=8db366b9-1f65-4c2f-9218-9d47165629b9"},"vehicle_type_id":"4","last_reported":1749910144,"current_range_meters":8400,"station_id":"ce4bgr92rcd13ifvqc7g","pricing_plan_id":"cebpf4jnsgd1na2vs0mg"},{"bike_id":"ed875fa6-52dc-4126-98d7-506115103552","system_id":"levelo_inurba_marseille","lat":43.27376,"lon":5.36254,"is_reserved":false,"is_disabled":false,"rental_uris":{"android":"levelo://app?vid=ed875fa6-52dc-4126-98d7-506115103552","ios":"levelo://app?vid=ed875fa6-52dc-4126-98d7-506115103552"},"vehicle_type_id":"4","last_reported":1749910144,"current_range_meters":8400,"station_id":"ce4bhbh2rcd13ifvqeo0","pricing_plan_id":"cebpf4jnsgd1na2vs0mg"},{"bike_id":"5a5ca07b-a0b4-4222-8a03-034608793a77","system_id":"levelo_inurba_marseille","lat":43.28622,"lon":5.35108,"is_reserved":false,"is_disabled":false,"rental_uris":{"android":"levelo://app?vid=5a5ca07b-a0b4-4222-8a03-034608793a77","ios":"levelo://app?vid=5a5ca07b-a0b4-4222-8a03-034608793a77"},"vehicle_type_id":"4","last_reported":1749910144,"current_range_meters":8400,"station_id":"ce4bhch2rcd13ifvqeug","pricing_plan_id":"cebpf4jnsgd1na2vs0mg"},{"bike_id":"267a4c50-a7f3-4c89-ad0f-a4b3ca6ff3ee","system_id":"levelo_inurba_marseille","lat":43.25727,"lon":5.41109,"is_reserved":false,"is_disabled":false,"rental_uris":{"android":"levelo://app?vid=267a4c50-a7f3-4c89-ad0f-a4b3ca6ff3ee","ios":"levelo://app?vid=267a4c50-a7f3-4c89-ad0f-a4b3ca6ff3ee"},"vehicle_type_id":"4","last_reported":1749910144,"current_range_meters":8400,"station_id":"ce4bhkp2rcd13ifvqgd0","pricing_plan_id":"cebpf4jnsgd1na2vs0mg"},{"bike_id":"f8d79491-bdca-404d-ac6d-85856e0daf48","system_id":"levelo_inurba_marseille","lat":43.30433,"lon":5.41298,"is_reserved":false,"is_disabled":false,"rental_uris":{"android":"levelo://app?vid=f8d79491-bdca-404d-ac6d-85856e0daf48","ios":"levelo://app?vid=f8d79491-bdca-404d-ac6d-85856e0daf48"},"vehicle_type_id":"4","last_reported":1749910144,"current_range_meters":8400,"station_id":"ce4bhop2rcd13ifvqh8g","pricing_plan_id":"cebpf4jnsgd1na2vs0mg"},{"bike_id":"6facbc0d-f1b5-4dc3-86d4-5c1204834925","system_id":"levelo_inurba_marseille","lat":43.28026,"lon":5.34803,"is_reserved":false,"is_disabled":false,"rental_uris":{"android":"levelo://app?vid=6facbc0d-f1b5-4dc3-86d4-5c1204834925","ios":"levelo://app?vid=6facbc0d-f1b5-4dc3-86d4-5c1204834925"},"vehicle_type_id":"4","last_reported":1749910144,"current_range_meters":8800,"station_id":"","pricing_plan_id":"cebpf4jnsgd1na2vs0mg"},{"bike_id":"384f2cf1-5253-42c7-9a5e-6ac195ee9dce","system_id":"levelo_inurba_marseille","lat":43.30276,"lon":5.37724,"is_reserved":false,"is_disabled":false,"rental_uris":{"android":"levelo://app?vid=384f2cf1-5253-42c7-9a5e-6ac195ee9dce","ios":"levelo://app?vid=384f2cf1-5253-42c7-9a5e-6ac195ee9dce"},"vehicle_type_id":"4","last_reported":1749910144,"current_range_meters":8800,"station_id":"ce4bguh2rcd13ifvqcj0","pricing_plan_id":"cebpf4jnsgd1na2vs0mg"},{"bike_id":"bcc58b3d-af95-4d0d-a89a-3723075926a5","system_id":"levelo_inurba_marseille","lat":43.30777,"lon":5.396019,"is_reserved":false,"is_disabled":false,"rental_uris":{"android":"levelo://app?vid=bcc58b3d-af95-4d0d-a89a-3723075926a5","ios":"levelo://app?vid=bcc58b3d-af95-4d0d-a89a-3723075926a5"},"vehicle_type_id":"4","last_reported":1749910144,"current_range_meters":8800,"station_id":"ce4bh012rcd13ifvqcv0","pricing_plan_id":"cebpf4jnsgd1na2vs0mg"},{"bike_id":"3310a8d0-122e-48c2-85f1-e2f9a3f8ee24","system_id":"levelo_inurba_marseille","lat":43.28252,"lon":5.35066,"is_reserved":false,"is_disabled":false,"rental_uris":{"android":"levelo://app?vid=3310a8d0-122e-48c2-85f1-e2f9a3f8ee24","ios":"levelo://app?vid=3310a8d0-122e-48c2-85f1-e2f9a3f8ee24"},"vehicle_type_id":"4","last_reported":1749910144,"current_range_meters":8800,"station_id":"ce4bhbp2rcd13ifvqerg","pricing_plan_id":"cebpf4jnsgd1na2vs0mg"},{"bike_id":"6853194e-b4fb-47a0-a196-455668878e85","system_id":"levelo_inurba_marseille","lat":43.28155,"lon":5.42649,"is_reserved":false,"is_disabled":false,"rental_uris":{"android":"levelo://app?vid=6853194e-b4fb-47a0-a196-455668878e85","ios":"levelo://app?vid=6853194e-b4fb-47a0-a196-455668878e85"},"vehicle_type_id":"4","last_reported":1749910144,"current_range_meters":8800,"station_id":"ce4bhnh2rcd13ifvqgug","pricing_plan_id":"cebpf4jnsgd1na2vs0mg"},{"bike_id":"0dd00f6f-359b-401a-a930-fefa4580045b","system_id":"levelo_inurba_marseille","lat":43.32375,"lon":5.36715,"is_reserved":false,"is_disabled":false,"rental_uris":{"android":"levelo://app?vid=0dd00f6f-359b-401a-a930-fefa4580045b","ios":"levelo://app?vid=0dd00f6f-359b-401a-a930-fefa4580045b"},"vehicle_type_id":"4","last_reported":1749910144,"current_range_meters":8800,"station_id":"ce4bhsh2rcd13ifvqi2g","pricing_plan_id":"cebpf4jnsgd1na2vs0mg"},{"bike_id":"2914d63e-7231-4655-bd0b-4bd0d2837ebe","system_id":"levelo_inurba_marseille","lat":43.31502,"lon":5.37331,"is_reserved":false,"is_disabled":false,"rental_uris":{"android":"levelo://app?vid=2914d63e-7231-4655-bd0b-4bd0d2837ebe","ios":"levelo://app?vid=2914d63e-7231-4655-bd0b-4bd0d2837ebe"},"vehicle_type_id":"4","last_reported":1749910144,"current_range_meters":9200,"station_id":"ce4bgt12rcd13ifvqcd0","pricing_plan_id":"cebpf4jnsgd1na2vs0mg"},{"bike_id":"9b5d71f9-5511-4cfd-810f-2bda3970527b","system_id":"levelo_inurba_marseille","lat":43.25582,"lon":5.38237,"is_reserved":false,"is_disabled":false,"rental_uris":{"android":"levelo://app?vid=9b5d71f9-5511-4cfd-810f-2bda3970527b","ios":"levelo://app?vid=9b5d71f9-5511-4cfd-810f-2bda3970527b"},"vehicle_type_id":"4","last_reported":1749910144,"current_range_meters":9200,"station_id":"ce4bhih2rcd13ifvqfs0","pricing_plan_id":"cebpf4jnsgd1na2vs0mg"},{"bike_id":"7db52aa4-903a-49a4-a180-926a461d85fb","system_id":"levelo_inurba_marseille","lat":43.24072,"lon":5.3777,"is_reserved":false,"is_disabled":false,"rental_uris":{"android":"levelo://app?vid=7db52aa4-903a-49a4-a180-926a461d85fb","ios":"levelo://app?vid=7db52aa4-903a-49a4-a180-926a461d85fb"},"vehicle_type_id":"4","last_reported":1749910144,"current_range_meters":9200,"station_id":"ce4bhnp2rcd13ifvqgvg","pricing_plan_id":"cebpf4jnsgd1na2vs0mg"},{"bike_id":"cf2eecfd-68cb-44cc-943a-6e29380a8e5e","system_id":"levelo_inurba_marseille","lat":43.29526,"lon":5.38725,"is_reserved":false,"is_disabled":false,"rental_uris":{"android":"levelo://app?vid=cf2eecfd-68cb-44cc-943a-6e29380a8e5e","ios":"levelo://app?vid=cf2eecfd-68cb-44cc-943a-6e29380a8e5e"},"vehicle_type_id":"4","last_reported":1749910144,"current_range_meters":9600,"station_id":"","pricing_plan_id":"cebpf4jnsgd1na2vs0mg"},{"bike_id":"75f28587-0f44-4932-be0a-f00501b26b01","system_id":"levelo_inurba_marseille","lat":43.28265,"lon":5.35069,"is_reserved":false,"is_disabled":false,"rental_uris":{"android":"levelo://app?vid=75f28587-0f44-4932-be0a-f00501b26b01","ios":"levelo://app?vid=75f28587-0f44-4932-be0a-f00501b26b01"},"vehicle_type_id":"4","last_reported":1749910144,"current_range_meters":9600,"station_id":"ce4bhbp2rcd13ifvqerg","pricing_plan_id":"cebpf4jnsgd1na2vs0mg"},{"bike_id":"2f5219a1-0d06-434b-9e93-c60bc22f6d02","system_id":"levelo_inurba_marseille","lat":43.30422,"lon":5.41284,"is_reserved":false,"is_disabled":false,"rental_uris":{"android":"levelo://app?vid=2f5219a1-0d06-434b-9e93-c60bc22f6d02","ios":"levelo://app?vid=2f5219a1-0d06-434b-9e93-c60bc22f6d02"},"vehicle_type_id":"4","last_reported":1749910144,"current_range_meters":9600,"station_id":"ce4bhop2rcd13ifvqh8g","pricing_plan_id":"cebpf4jnsgd1na2vs0mg"},{"bike_id":"87c270dc-4fcf-4263-8f57-a07ca944f869","system_id":"levelo_inurba_marseille","lat":43.31241,"lon":5.39509,"is_reserved":false,"is_disabled":false,"rental_uris":{"android":"levelo://app?vid=87c270dc-4fcf-4263-8f57-a07ca944f869","ios":"levelo://app?vid=87c270dc-4fcf-4263-8f57-a07ca944f869"},"vehicle_type_id":"4","last_reported":1749910144,"current_range_meters":10000,"station_id":"","pricing_plan_id":"cebpf4jnsgd1na2vs0mg"},{"bike_id":"a31365b2-5a11-48cb-a0d9-648695b71200","system_id":"levelo_inurba_marseille","lat":43.28613,"lon":5.35105,"is_reserved":false,"is_disabled":false,"rental_uris":{"android":"levelo://app?vid=a31365b2-5a11-48cb-a0d9-648695b71200","ios":"levelo://app?vid=a31365b2-5a11-48cb-a0d9-648695b71200"},"vehicle_type_id":"4","last_reported":1749910144,"current_range_meters":10000,"station_id":"ce4bhch2rcd13ifvqeug","pricing_plan_id":"cebpf4jnsgd1na2vs0mg"},{"bike_id":"2ab31527-f915-4286-b3a0-0beafd2cdd50","system_id":"levelo_inurba_marseille","lat":43.30037,"lon":5.37036,"is_reserved":false,"is_disabled":false,"rental_uris":{"android":"levelo://app?vid=2ab31527-f915-4286-b3a0-0beafd2cdd50","ios":"levelo://app?vid=2ab31527-f915-4286-b3a0-0beafd2cdd50"},"vehicle_type_id":"4","last_reported":1749910144,"current_range_meters":10800,"station_id":"","pricing_plan_id":"cebpf4jnsgd1na2vs0mg"},{"bike_id":"8616189f-4535-4082-9014-e5bf5940a6ea","system_id":"levelo_inurba_marseille","lat":43.29716,"lon":5.37691,"is_reserved":false,"is_disabled":false,"rental_uris":{"android":"levelo://app?vid=8616189f-4535-4082-9014-e5bf5940a6ea","ios":"levelo://app?vid=8616189f-4535-4082-9014-e5bf5940a6ea"},"vehicle_type_id":"4","last_reported":1749910144,"current_range_meters":10800,"station_id":"ce4bgkh2rcd13ifvqbl0","pricing_plan_id":"cebpf4jnsgd1na2vs0mg"},{"bike_id":"06ea1b9f-0dc2-45a4-ad18-f45d47cf5221","system_id":"levelo_inurba_marseille","lat":43.30485,"lon":5.37914,"is_reserved":false,"is_disabled":false,"rental_uris":{"android":"levelo://app?vid=06ea1b9f-0dc2-45a4-ad18-f45d47cf5221","ios":"levelo://app?vid=06ea1b9f-0dc2-45a4-ad18-f45d47cf5221"},"vehicle_type_id":"4","last_reported":1749910144,"current_range_meters":10800,"station_id":"ce4bgup2rcd13ifvqcn0","pricing_plan_id":"cebpf4jnsgd1na2vs0mg"},{"bike_id":"1d2ea0a5-9fa6-4f36-9f90-c7d87413207a","system_id":"levelo_inurba_marseille","lat":43.27375,"lon":5.36269,"is_reserved":false,"is_disabled":false,"rental_uris":{"android":"levelo://app?vid=1d2ea0a5-9fa6-4f36-9f90-c7d87413207a","ios":"levelo://app?vid=1d2ea0a5-9fa6-4f36-9f90-c7d87413207a"},"vehicle_type_id":"4","last_reported":1749910144,"current_range_meters":10800,"station_id":"ce4bhbh2rcd13ifvqeo0","pricing_plan_id":"cebpf4jnsgd1na2vs0mg"},{"bike_id":"70cd85db-4075-41dd-bea6-c8b0e99d9aa5","system_id":"levelo_inurba_marseille","lat":43.23965,"lon":5.36649,"is_reserved":false,"is_disabled":false,"rental_uris":{"android":"levelo://app?vid=70cd85db-4075-41dd-bea6-c8b0e99d9aa5","ios":"levelo://app?vid=70cd85db-4075-41dd-bea6-c8b0e99d9aa5"},"vehicle_type_id":"4","last_reported":1749910144,"current_range_meters":10800,"station_id":"ce4bhi12rcd13ifvqfp0","pricing_plan_id":"cebpf4jnsgd1na2vs0mg"},{"bike_id":"0afcb599-3d9f-4bc3-a6eb-ed35bcfdac84","system_id":"levelo_inurba_marseille","lat":43.23193,"lon":5.35558,"is_reserved":false,"is_disabled":false,"rental_uris":{"android":"levelo://app?vid=0afcb599-3d9f-4bc3-a6eb-ed35bcfdac84","ios":"levelo://app?vid=0afcb599-3d9f-4bc3-a6eb-ed35bcfdac84"},"vehicle_type_id":"4","last_reported":1749910144,"current_range_meters":10800,"station_id":"ce4bhu92rcd13ifvqi70","pricing_plan_id":"cebpf4jnsgd1na2vs0mg"},{"bike_id":"67ce34f9-7ee9-4871-9024-db6244b9d74c","system_id":"levelo_inurba_marseille","lat":43.24168,"lon":5.36398,"is_reserved":false,"is_disabled":false,"rental_uris":{"android":"levelo://app?vid=67ce34f9-7ee9-4871-9024-db6244b9d74c","ios":"levelo://app?vid=67ce34f9-7ee9-4871-9024-db6244b9d74c"},"vehicle_type_id":"4","last_reported":1749910144,"current_range_meters":10800,"station_id":"cpo36qri1sfpv3e86is0","pricing_plan_id":"cebpf4jnsgd1na2vs0mg"},{"bike_id":"394a1f2e-6fca-4946-8c5a-9022246f16dd","system_id":"levelo_inurba_marseille","lat":43.24158,"lon":5.364,"is_reserved":false,"is_disabled":false,"rental_uris":{"android":"levelo://app?vid=394a1f2e-6fca-4946-8c5a-9022246f16dd","ios":"levelo://app?vid=394a1f2e-6fca-4946-8c5a-9022246f16dd"},"vehicle_type_id":"4","last_reported":1749910144,"current_range_meters":10800,"station_id":"cpo36qri1sfpv3e86is0","pricing_plan_id":"cebpf4jnsgd1na2vs0mg"},{"bike_id":"5f68b394-2f22-41ad-b5b6-954fe6fd8f6b","system_id":"levelo_inurba_marseille","lat":43.304148,"lon":5.388794,"is_reserved":false,"is_disabled":false,"rental_uris":{"android":"levelo://app?vid=5f68b394-2f22-41ad-b5b6-954fe6fd8f6b","ios":"levelo://app?vid=5f68b394-2f22-41ad-b5b6-954fe6fd8f6b"},"vehicle_type_id":"4","last_reported":1749910144,"current_range_meters":11200,"station_id":"ce4bgk12rcd13ifvqbi0","pricing_plan_id":"cebpf4jnsgd1na2vs0mg"},{"bike_id":"fdb06854-679c-49e3-b57f-ba0aff227c75","system_id":"levelo_inurba_marseille","lat":43.28428,"lon":5.34992,"is_reserved":false,"is_disabled":false,"rental_uris":{"android":"levelo://app?vid=fdb06854-679c-49e3-b57f-ba0aff227c75","ios":"levelo://app?vid=fdb06854-679c-49e3-b57f-ba0aff227c75"},"vehicle_type_id":"4","last_reported":1749910144,"current_range_meters":11200,"station_id":"ce4bhbh2rcd13ifvqepg","pricing_plan_id":"cebpf4jnsgd1na2vs0mg"},{"bike_id":"29e5beb8-7490-4d07-a862-6fb7ec0c3a3e","system_id":"levelo_inurba_marseille","lat":43.28617,"lon":5.35106,"is_reserved":false,"is_disabled":false,"rental_uris":{"android":"levelo://app?vid=29e5beb8-7490-4d07-a862-6fb7ec0c3a3e","ios":"levelo://app?vid=29e5beb8-7490-4d07-a862-6fb7ec0c3a3e"},"vehicle_type_id":"4","last_reported":1749910144,"current_range_meters":11200,"station_id":"ce4bhch2rcd13ifvqeug","pricing_plan_id":"cebpf4jnsgd1na2vs0mg"},{"bike_id":"18fbe5cd-487f-4a45-8922-4c1074ba2a14","system_id":"levelo_inurba_marseille","lat":43.23141,"lon":5.43719,"is_reserved":false,"is_disabled":false,"rental_uris":{"android":"levelo://app?vid=18fbe5cd-487f-4a45-8922-4c1074ba2a14","ios":"levelo://app?vid=18fbe5cd-487f-4a45-8922-4c1074ba2a14"},"vehicle_type_id":"4","last_reported":1749910144,"current_range_meters":11200,"station_id":"ce4bhmp2rcd13ifvqgog","pricing_plan_id":"cebpf4jnsgd1na2vs0mg"},{"bike_id":"191524f3-267f-4467-9ea7-6cd874a9eea3","system_id":"levelo_inurba_marseille","lat":43.3042,"lon":5.41275,"is_reserved":false,"is_disabled":false,"rental_uris":{"android":"levelo://app?vid=191524f3-267f-4467-9ea7-6cd874a9eea3","ios":"levelo://app?vid=191524f3-267f-4467-9ea7-6cd874a9eea3"},"vehicle_type_id":"4","last_reported":1749910144,"current_range_meters":11200,"station_id":"ce4bhop2rcd13ifvqh8g","pricing_plan_id":"cebpf4jnsgd1na2vs0mg"},{"bike_id":"2a909ff3-158e-4089-9849-3eb5d0834555","system_id":"levelo_inurba_marseille","lat":43.217453,"lon":5.34597,"is_reserved":false,"is_disabled":false,"rental_uris":{"android":"levelo://app?vid=2a909ff3-158e-4089-9849-3eb5d0834555","ios":"levelo://app?vid=2a909ff3-158e-4089-9849-3eb5d0834555"},"vehicle_type_id":"4","last_reported":1749910144,"current_range_meters":11200,"station_id":"st_cvj6r9ubvosntc0bgbag","pricing_plan_id":"cebpf4jnsgd1na2vs0mg"},{"bike_id":"7e55265f-af08-4274-a924-78b7fea6ed7d","system_id":"levelo_inurba_marseille","lat":43.31706,"lon":5.43722,"is_reserved":false,"is_disabled":false,"rental_uris":{"android":"levelo://app?vid=7e55265f-af08-4274-a924-78b7fea6ed7d","ios":"levelo://app?vid=7e55265f-af08-4274-a924-78b7fea6ed7d"},"vehicle_type_id":"4","last_reported":1749910144,"current_range_meters":11600,"station_id":"ce4bhp92rcd13ifvqhcg","pricing_plan_id":"cebpf4jnsgd1na2vs0mg"},{"bike_id":"8e8899f0-4aff-43f9-9f62-ce6bf69d0612","system_id":"levelo_inurba_marseille","lat":43.31186,"lon":5.40205,"is_reserved":false,"is_disabled":false,"rental_uris":{"android":"levelo://app?vid=8e8899f0-4aff-43f9-9f62-ce6bf69d0612","ios":"levelo://app?vid=8e8899f0-4aff-43f9-9f62-ce6bf69d0612"},"vehicle_type_id":"4","last_reported":1749910144,"current_range_meters":12000,"station_id":"","pricing_plan_id":"cebpf4jnsgd1na2vs0mg"},{"bike_id":"a7a4cac8-9447-4319-a9fb-f2b96c8f1e32","system_id":"levelo_inurba_marseille","lat":43.26222,"lon":5.37426,"is_reserved":false,"is_disabled":false,"rental_uris":{"android":"levelo://app?vid=a7a4cac8-9447-4319-a9fb-f2b96c8f1e32","ios":"levelo://app?vid=a7a4cac8-9447-4319-a9fb-f2b96c8f1e32"},"vehicle_type_id":"4","last_reported":1749910144,"current_range_meters":12000,"station_id":"","pricing_plan_id":"cebpf4jnsgd1na2vs0mg"},{"bike_id":"7ffae89b-267e-4fbf-8b69-041b4bcbc530","system_id":"levelo_inurba_marseille","lat":43.27373,"lon":5.3627,"is_reserved":false,"is_disabled":false,"rental_uris":{"android":"levelo://app?vid=7ffae89b-267e-4fbf-8b69-041b4bcbc530","ios":"levelo://app?vid=7ffae89b-267e-4fbf-8b69-041b4bcbc530"},"vehicle_type_id":"4","last_reported":1749910144,"current_range_meters":12000,"station_id":"ce4bhbh2rcd13ifvqeo0","pricing_plan_id":"cebpf4jnsgd1na2vs0mg"},{"bike_id":"ea29e5ba-ba76-48d5-8204-c55d55b5c5ca","system_id":"levelo_inurba_marseille","lat":43.25586,"lon":5.38231,"is_reserved":false,"is_disabled":false,"rental_uris":{"android":"levelo://app?vid=ea29e5ba-ba76-48d5-8204-c55d55b5c5ca","ios":"levelo://app?vid=ea29e5ba-ba76-48d5-8204-c55d55b5c5ca"},"vehicle_type_id":"4","last_reported":1749910144,"current_range_meters":12000,"station_id":"ce4bhih2rcd13ifvqfs0","pricing_plan_id":"cebpf4jnsgd1na2vs0mg"},{"bike_id":"b8bc7f47-9dab-40e9-b9df-6400475e5bc5","system_id":"levelo_inurba_marseille","lat":43.25107,"lon":5.40326,"is_reserved":false,"is_disabled":false,"rental_uris":{"android":"levelo://app?vid=b8bc7f47-9dab-40e9-b9df-6400475e5bc5","ios":"levelo://app?vid=b8bc7f47-9dab-40e9-b9df-6400475e5bc5"},"vehicle_type_id":"4","last_reported":1749910144,"current_range_meters":12000,"station_id":"ce4bhlh2rcd13ifvqgig","pricing_plan_id":"cebpf4jnsgd1na2vs0mg"},{"bike_id":"ab67db2e-29dc-4aa1-ad47-cf91458ba682","system_id":"levelo_inurba_marseille","lat":43.23196,"lon":5.35593,"is_reserved":false,"is_disabled":false,"rental_uris":{"android":"levelo://app?vid=ab67db2e-29dc-4aa1-ad47-cf91458ba682","ios":"levelo://app?vid=ab67db2e-29dc-4aa1-ad47-cf91458ba682"},"vehicle_type_id":"4","last_reported":1749910144,"current_range_meters":12000,"station_id":"ce4bhu92rcd13ifvqi70","pricing_plan_id":"cebpf4jnsgd1na2vs0mg"},{"bike_id":"a5e103e7-2448-4bd1-809b-92ca4c8567c9","system_id":"levelo_inurba_marseille","lat":43.217481,"lon":5.345979,"is_reserved":false,"is_disabled":false,"rental_uris":{"android":"levelo://app?vid=a5e103e7-2448-4bd1-809b-92ca4c8567c9","ios":"levelo://app?vid=a5e103e7-2448-4bd1-809b-92ca4c8567c9"},"vehicle_type_id":"4","last_reported":1749910144,"current_range_meters":12000,"station_id":"st_cvj6r9ubvosntc0bgbag","pricing_plan_id":"cebpf4jnsgd1na2vs0mg"},{"bike_id":"6f6c185e-4175-49e0-a999-390c4f7e670a","system_id":"levelo_inurba_marseille","lat":43.217466,"lon":5.346045,"is_reserved":false,"is_disabled":false,"rental_uris":{"android":"levelo://app?vid=6f6c185e-4175-49e0-a999-390c4f7e670a","ios":"levelo://app?vid=6f6c185e-4175-49e0-a999-390c4f7e670a"},"vehicle_type_id":"4","last_reported":1749910144,"current_range_meters":12000,"station_id":"st_cvj6r9ubvosntc0bgbag","pricing_plan_id":"cebpf4jnsgd1na2vs0mg"},{"bike_id":"28c0ec76-02d0-4535-9b17-5f38231352a7","system_id":"levelo_inurba_marseille","lat":43.21755,"lon":5.34625,"is_reserved":false,"is_disabled":false,"rental_uris":{"android":"levelo://app?vid=28c0ec76-02d0-4535-9b17-5f38231352a7","ios":"levelo://app?vid=28c0ec76-02d0-4535-9b17-5f38231352a7"},"vehicle_type_id":"4","last_reported":1749910144,"current_range_meters":12000,"station_id":"st_cvj6r9ubvosntc0bgbag","pricing_plan_id":"cebpf4jnsgd1na2vs0mg"},{"bike_id":"0b75b775-ccad-4cb5-90b0-a9571010b4d4","system_id":"levelo_inurba_marseille","lat":43.28441,"lon":5.35043,"is_reserved":false,"is_disabled":false,"rental_uris":{"android":"levelo://app?vid=0b75b775-ccad-4cb5-90b0-a9571010b4d4","ios":"levelo://app?vid=0b75b775-ccad-4cb5-90b0-a9571010b4d4"},"vehicle_type_id":"4","last_reported":1749910144,"current_range_meters":12400,"station_id":"","pricing_plan_id":"cebpf4jnsgd1na2vs0mg"},{"bike_id":"f2404481-86a2-4ce2-81b9-adf96a84b46d","system_id":"levelo_inurba_marseille","lat":43.25106,"lon":5.39514,"is_reserved":false,"is_disabled":false,"rental_uris":{"android":"levelo://app?vid=f2404481-86a2-4ce2-81b9-adf96a84b46d","ios":"levelo://app?vid=f2404481-86a2-4ce2-81b9-adf96a84b46d"},"vehicle_type_id":"4","last_reported":1749910144,"current_range_meters":12400,"station_id":"ce4bhm12rcd13ifvqgkg","pricing_plan_id":"cebpf4jnsgd1na2vs0mg"},{"bike_id":"3c56875a-f4ee-4f98-8c3b-e29618142b45","system_id":"levelo_inurba_marseille","lat":43.21753,"lon":5.34607,"is_reserved":false,"is_disabled":false,"rental_uris":{"android":"levelo://app?vid=3c56875a-f4ee-4f98-8c3b-e29618142b45","ios":"levelo://app?vid=3c56875a-f4ee-4f98-8c3b-e29618142b45"},"vehicle_type_id":"4","last_reported":1749910144,"current_range_meters":12400,"station_id":"st_cvj6r9ubvosntc0bgbag","pricing_plan_id":"cebpf4jnsgd1na2vs0mg"},{"bike_id":"300f466f-ffc6-4394-acd1-1a4d925af8be","system_id":"levelo_inurba_marseille","lat":43.21795,"lon":5.34069,"is_reserved":false,"is_disabled":false,"rental_uris":{"android":"levelo://app?vid=300f466f-ffc6-4394-acd1-1a4d925af8be","ios":"levelo://app?vid=300f466f-ffc6-4394-acd1-1a4d925af8be"},"vehicle_type_id":"4","last_reported":1749910144,"current_range_meters":12800,"station_id":"","pricing_plan_id":"cebpf4jnsgd1na2vs0mg"},{"bike_id":"89899aad-9a18-4c8b-af11-825313ec9505","system_id":"levelo_inurba_marseille","lat":43.27378,"lon":5.36259,"is_reserved":false,"is_disabled":false,"rental_uris":{"android":"levelo://app?vid=89899aad-9a18-4c8b-af11-825313ec9505","ios":"levelo://app?vid=89899aad-9a18-4c8b-af11-825313ec9505"},"vehicle_type_id":"4","last_reported":1749910144,"current_range_meters":12800,"station_id":"ce4bhbh2rcd13ifvqeo0","pricing_plan_id":"cebpf4jnsgd1na2vs0mg"},{"bike_id":"2eb2516b-5f9f-4f58-8493-07049b393727","system_id":"levelo_inurba_marseille","lat":43.3375,"lon":5.39183,"is_reserved":false,"is_disabled":false,"rental_uris":{"android":"levelo://app?vid=2eb2516b-5f9f-4f58-8493-07049b393727","ios":"levelo://app?vid=2eb2516b-5f9f-4f58-8493-07049b393727"},"vehicle_type_id":"4","last_reported":1749910144,"current_range_meters":12800,"station_id":"ce4bhr92rcd13ifvqhsg","pricing_plan_id":"cebpf4jnsgd1na2vs0mg"},{"bike_id":"53d60dcd-1322-451c-8d9c-54e0dde196be","system_id":"levelo_inurba_marseille","lat":43.21765,"lon":5.34626,"is_reserved":false,"is_disabled":false,"rental_uris":{"android":"levelo://app?vid=53d60dcd-1322-451c-8d9c-54e0dde196be","ios":"levelo://app?vid=53d60dcd-1322-451c-8d9c-54e0dde196be"},"vehicle_type_id":"4","last_reported":1749910144,"current_range_meters":12800,"station_id":"st_cvj6r9ubvosntc0bgbag","pricing_plan_id":"cebpf4jnsgd1na2vs0mg"},{"bike_id":"57833e58-3be2-4c87-b8e8-6a1eaefe7ff4","system_id":"levelo_inurba_marseille","lat":43.29197,"lon":5.35804,"is_reserved":false,"is_disabled":false,"rental_uris":{"android":"levelo://app?vid=57833e58-3be2-4c87-b8e8-6a1eaefe7ff4","ios":"levelo://app?vid=57833e58-3be2-4c87-b8e8-6a1eaefe7ff4"},"vehicle_type_id":"4","last_reported":1749910144,"current_range_meters":13600,"station_id":"ce4bhb12rcd13ifvqel0","pricing_plan_id":"cebpf4jnsgd1na2vs0mg"},{"bike_id":"1358adc4-3fde-47dc-879d-2c80dc9635af","system_id":"levelo_inurba_marseille","lat":43.28624,"lon":5.35114,"is_reserved":false,"is_disabled":false,"rental_uris":{"android":"levelo://app?vid=1358adc4-3fde-47dc-879d-2c80dc9635af","ios":"levelo://app?vid=1358adc4-3fde-47dc-879d-2c80dc9635af"},"vehicle_type_id":"4","last_reported":1749910144,"current_range_meters":13600,"station_id":"ce4bhch2rcd13ifvqeug","pricing_plan_id":"cebpf4jnsgd1na2vs0mg"},{"bike_id":"08a98734-973d-48d0-95cd-5f25874f9079","system_id":"levelo_inurba_marseille","lat":43.26037,"lon":5.37561,"is_reserved":false,"is_disabled":false,"rental_uris":{"android":"levelo://app?vid=08a98734-973d-48d0-95cd-5f25874f9079","ios":"levelo://app?vid=08a98734-973d-48d0-95cd-5f25874f9079"},"vehicle_type_id":"4","last_reported":1749910144,"current_range_meters":13600,"station_id":"ce4bhgh2rcd13ifvqfa0","pricing_plan_id":"cebpf4jnsgd1na2vs0mg"},{"bike_id":"225250fa-f9b2-4df5-bb98-622246073512","system_id":"levelo_inurba_marseille","lat":43.254848,"lon":5.376453,"is_reserved":false,"is_disabled":false,"rental_uris":{"android":"levelo://app?vid=225250fa-f9b2-4df5-bb98-622246073512","ios":"levelo://app?vid=225250fa-f9b2-4df5-bb98-622246073512"},"vehicle_type_id":"4","last_reported":1749910144,"current_range_meters":13600,"station_id":"ce4bhh12rcd13ifvqff0","pricing_plan_id":"cebpf4jnsgd1na2vs0mg"},{"bike_id":"b296f49d-7923-46c7-bcb0-8d94ef322e59","system_id":"levelo_inurba_marseille","lat":43.231538,"lon":5.437212,"is_reserved":false,"is_disabled":false,"rental_uris":{"android":"levelo://app?vid=b296f49d-7923-46c7-bcb0-8d94ef322e59","ios":"levelo://app?vid=b296f49d-7923-46c7-bcb0-8d94ef322e59"},"vehicle_type_id":"4","last_reported":1749910144,"current_range_meters":13600,"station_id":"ce4bhmp2rcd13ifvqgog","pricing_plan_id":"cebpf4jnsgd1na2vs0mg"},{"bike_id":"8cd62e92-49cd-4d38-ac02-fb37d2b4e358","system_id":"levelo_inurba_marseille","lat":43.2175,"lon":5.34612,"is_reserved":false,"is_disabled":false,"rental_uris":{"android":"levelo://app?vid=8cd62e92-49cd-4d38-ac02-fb37d2b4e358","ios":"levelo://app?vid=8cd62e92-49cd-4d38-ac02-fb37d2b4e358"},"vehicle_type_id":"4","last_reported":1749910144,"current_range_meters":13600,"station_id":"st_cvj6r9ubvosntc0bgbag","pricing_plan_id":"cebpf4jnsgd1na2vs0mg"},{"bike_id":"88ebdd7a-a17f-44ce-aa8c-0118b2459270","system_id":"levelo_inurba_marseille","lat":43.2826,"lon":5.35085,"is_reserved":false,"is_disabled":false,"rental_uris":{"android":"levelo://app?vid=88ebdd7a-a17f-44ce-aa8c-0118b2459270","ios":"levelo://app?vid=88ebdd7a-a17f-44ce-aa8c-0118b2459270"},"vehicle_type_id":"4","last_reported":1749910144,"current_range_meters":14000,"station_id":"ce4bhbp2rcd13ifvqerg","pricing_plan_id":"cebpf4jnsgd1na2vs0mg"},{"bike_id":"5a21e497-33bb-4066-baf7-e010c7ab35fe","system_id":"levelo_inurba_marseille","lat":43.24088,"lon":5.3777,"is_reserved":false,"is_disabled":false,"rental_uris":{"android":"levelo://app?vid=5a21e497-33bb-4066-baf7-e010c7ab35fe","ios":"levelo://app?vid=5a21e497-33bb-4066-baf7-e010c7ab35fe"},"vehicle_type_id":"4","last_reported":1749910144,"current_range_meters":14000,"station_id":"ce4bhnp2rcd13ifvqgvg","pricing_plan_id":"cebpf4jnsgd1na2vs0mg"},{"bike_id":"7bbea268-7e10-4726-af89-c73005574248","system_id":"levelo_inurba_marseille","lat":43.30383,"lon":5.42519,"is_reserved":false,"is_disabled":false,"rental_uris":{"android":"levelo://app?vid=7bbea268-7e10-4726-af89-c73005574248","ios":"levelo://app?vid=7bbea268-7e10-4726-af89-c73005574248"},"vehicle_type_id":"4","last_reported":1749910144,"current_range_meters":14000,"station_id":"ce4bhoh2rcd13ifvqh6g","pricing_plan_id":"cebpf4jnsgd1na2vs0mg"},{"bike_id":"d2729172-f4bf-4eb8-9964-c217269a3492","system_id":"levelo_inurba_marseille","lat":43.21194,"lon":5.35079,"is_reserved":false,"is_disabled":false,"rental_uris":{"android":"levelo://app?vid=d2729172-f4bf-4eb8-9964-c217269a3492","ios":"levelo://app?vid=d2729172-f4bf-4eb8-9964-c217269a3492"},"vehicle_type_id":"4","last_reported":1749910144,"current_range_meters":14400,"station_id":"","pricing_plan_id":"cebpf4jnsgd1na2vs0mg"},{"bike_id":"c7e4c101-b465-43bb-9faf-ec41dbe370cc","system_id":"levelo_inurba_marseille","lat":43.26211,"lon":5.37451,"is_reserved":false,"is_disabled":false,"rental_uris":{"android":"levelo://app?vid=c7e4c101-b465-43bb-9faf-ec41dbe370cc","ios":"levelo://app?vid=c7e4c101-b465-43bb-9faf-ec41dbe370cc"},"vehicle_type_id":"4","last_reported":1749910144,"current_range_meters":14400,"station_id":"ce4bhgp2rcd13ifvqfc0","pricing_plan_id":"cebpf4jnsgd1na2vs0mg"},{"bike_id":"bbae50e6-97cc-4981-9da8-21f734a299c3","system_id":"levelo_inurba_marseille","lat":43.24166,"lon":5.36422,"is_reserved":false,"is_disabled":false,"rental_uris":{"android":"levelo://app?vid=bbae50e6-97cc-4981-9da8-21f734a299c3","ios":"levelo://app?vid=bbae50e6-97cc-4981-9da8-21f734a299c3"},"vehicle_type_id":"4","last_reported":1749910144,"current_range_meters":14400,"station_id":"cpo36qri1sfpv3e86is0","pricing_plan_id":"cebpf4jnsgd1na2vs0mg"},{"bike_id":"8b98bd06-016e-45c7-a5b0-f06ef8be95e0","system_id":"levelo_inurba_marseille","lat":43.217324,"lon":5.346068,"is_reserved":false,"is_disabled":false,"rental_uris":{"android":"levelo://app?vid=8b98bd06-016e-45c7-a5b0-f06ef8be95e0","ios":"levelo://app?vid=8b98bd06-016e-45c7-a5b0-f06ef8be95e0"},"vehicle_type_id":"4","last_reported":1749910144,"current_range_meters":14400,"station_id":"st_cvj6r9ubvosntc0bgbag","pricing_plan_id":"cebpf4jnsgd1na2vs0mg"},{"bike_id":"a2b3914c-555b-49ef-be5c-1e734fa1d826","system_id":"levelo_inurba_marseille","lat":43.21177,"lon":5.35106,"is_reserved":false,"is_disabled":false,"rental_uris":{"android":"levelo://app?vid=a2b3914c-555b-49ef-be5c-1e734fa1d826","ios":"levelo://app?vid=a2b3914c-555b-49ef-be5c-1e734fa1d826"},"vehicle_type_id":"4","last_reported":1749910144,"current_range_meters":14400,"station_id":"st_cvj6sg6p6f1abm77japg","pricing_plan_id":"cebpf4jnsgd1na2vs0mg"},{"bike_id":"769efce4-375c-4934-a7cd-61de7e676910","system_id":"levelo_inurba_marseille","lat":43.21189,"lon":5.35069,"is_reserved":false,"is_disabled":false,"rental_uris":{"android":"levelo://app?vid=769efce4-375c-4934-a7cd-61de7e676910","ios":"levelo://app?vid=769efce4-375c-4934-a7cd-61de7e676910"},"vehicle_type_id":"4","last_reported":1749910144,"current_range_meters":14400,"station_id":"st_cvj6sg6p6f1abm77japg","pricing_plan_id":"cebpf4jnsgd1na2vs0mg"},{"bike_id":"efd9c384-daa9-4013-b288-e4e1f794d48f","system_id":"levelo_inurba_marseille","lat":43.30001,"lon":5.40143,"is_reserved":false,"is_disabled":false,"rental_uris":{"android":"levelo://app?vid=efd9c384-daa9-4013-b288-e4e1f794d48f","ios":"levelo://app?vid=efd9c384-daa9-4013-b288-e4e1f794d48f"},"vehicle_type_id":"4","last_reported":1749910144,"current_range_meters":14800,"station_id":"","pricing_plan_id":"cebpf4jnsgd1na2vs0mg"},{"bike_id":"642d3e7a-d566-475d-8818-1a30bc9c2ed7","system_id":"levelo_inurba_marseille","lat":43.284,"lon":5.37518,"is_reserved":false,"is_disabled":false,"rental_uris":{"android":"levelo://app?vid=642d3e7a-d566-475d-8818-1a30bc9c2ed7","ios":"levelo://app?vid=642d3e7a-d566-475d-8818-1a30bc9c2ed7"},"vehicle_type_id":"4","last_reported":1749910144,"current_range_meters":14800,"station_id":"ce4bh412rcd13ifvqds0","pricing_plan_id":"cebpf4jnsgd1na2vs0mg"},{"bike_id":"37329ca3-babc-4d8e-a679-ad901525c7bb","system_id":"levelo_inurba_marseille","lat":43.28256,"lon":5.35068,"is_reserved":false,"is_disabled":false,"rental_uris":{"android":"levelo://app?vid=37329ca3-babc-4d8e-a679-ad901525c7bb","ios":"levelo://app?vid=37329ca3-babc-4d8e-a679-ad901525c7bb"},"vehicle_type_id":"4","last_reported":1749910144,"current_range_meters":14800,"station_id":"ce4bhbp2rcd13ifvqerg","pricing_plan_id":"cebpf4jnsgd1na2vs0mg"},{"bike_id":"86864168-ee86-4757-8cdd-cb7362b87fee","system_id":"levelo_inurba_marseille","lat":43.26223,"lon":5.40491,"is_reserved":false,"is_disabled":false,"rental_uris":{"android":"levelo://app?vid=86864168-ee86-4757-8cdd-cb7362b87fee","ios":"levelo://app?vid=86864168-ee86-4757-8cdd-cb7362b87fee"},"vehicle_type_id":"4","last_reported":1749910144,"current_range_meters":14800,"station_id":"ce4bhmh2rcd13ifvqgmg","pricing_plan_id":"cebpf4jnsgd1na2vs0mg"},{"bike_id":"97fc9f87-61a2-48e8-9270-8efa1d0b7660","system_id":"levelo_inurba_marseille","lat":43.22506,"lon":5.3479,"is_reserved":false,"is_disabled":false,"rental_uris":{"android":"levelo://app?vid=97fc9f87-61a2-48e8-9270-8efa1d0b7660","ios":"levelo://app?vid=97fc9f87-61a2-48e8-9270-8efa1d0b7660"},"vehicle_type_id":"4","last_reported":1749910144,"current_range_meters":14800,"station_id":"st_cvj5dfep6f1abm77gieg","pricing_plan_id":"cebpf4jnsgd1na2vs0mg"},{"bike_id":"e5b62466-ff9e-49e2-bd3e-be88bf15cda8","system_id":"levelo_inurba_marseille","lat":43.21189,"lon":5.35074,"is_reserved":false,"is_disabled":false,"rental_uris":{"android":"levelo://app?vid=e5b62466-ff9e-49e2-bd3e-be88bf15cda8","ios":"levelo://app?vid=e5b62466-ff9e-49e2-bd3e-be88bf15cda8"},"vehicle_type_id":"4","last_reported":1749910144,"current_range_meters":14800,"station_id":"st_cvj6sg6p6f1abm77japg","pricing_plan_id":"cebpf4jnsgd1na2vs0mg"},{"bike_id":"bd081d41-5eed-4495-82ed-9e27cd112239","system_id":"levelo_inurba_marseille","lat":43.249488,"lon":5.396613,"is_reserved":false,"is_disabled":false,"rental_uris":{"android":"levelo://app?vid=bd081d41-5eed-4495-82ed-9e27cd112239","ios":"levelo://app?vid=bd081d41-5eed-4495-82ed-9e27cd112239"},"vehicle_type_id":"4","last_reported":1749910144,"current_range_meters":15200,"station_id":"","pricing_plan_id":"cebpf4jnsgd1na2vs0mg"},{"bike_id":"210c9993-8561-41f6-97a6-4a16f8869e50","system_id":"levelo_inurba_marseille","lat":43.27383,"lon":5.36263,"is_reserved":false,"is_disabled":false,"rental_uris":{"android":"levelo://app?vid=210c9993-8561-41f6-97a6-4a16f8869e50","ios":"levelo://app?vid=210c9993-8561-41f6-97a6-4a16f8869e50"},"vehicle_type_id":"4","last_reported":1749910144,"current_range_meters":15200,"station_id":"ce4bhbh2rcd13ifvqeo0","pricing_plan_id":"cebpf4jnsgd1na2vs0mg"},{"bike_id":"6a4c2f86-936a-4efe-a858-369cf7104e73","system_id":"levelo_inurba_marseille","lat":43.23193,"lon":5.35544,"is_reserved":false,"is_disabled":false,"rental_uris":{"android":"levelo://app?vid=6a4c2f86-936a-4efe-a858-369cf7104e73","ios":"levelo://app?vid=6a4c2f86-936a-4efe-a858-369cf7104e73"},"vehicle_type_id":"4","last_reported":1749910144,"current_range_meters":15200,"station_id":"ce4bhu92rcd13ifvqi70","pricing_plan_id":"cebpf4jnsgd1na2vs0mg"},{"bike_id":"09adbc8d-9d45-42ae-a2a6-573fb5902a81","system_id":"levelo_inurba_marseille","lat":43.2174,"lon":5.34607,"is_reserved":false,"is_disabled":false,"rental_uris":{"android":"levelo://app?vid=09adbc8d-9d45-42ae-a2a6-573fb5902a81","ios":"levelo://app?vid=09adbc8d-9d45-42ae-a2a6-573fb5902a81"},"vehicle_type_id":"4","last_reported":1749910144,"current_range_meters":15200,"station_id":"st_cvj6r9ubvosntc0bgbag","pricing_plan_id":"cebpf4jnsgd1na2vs0mg"},{"bike_id":"3ba53083-f560-4fb5-b3cc-01a71156c6ba","system_id":"levelo_inurba_marseille","lat":43.2315,"lon":5.35516,"is_reserved":false,"is_disabled":false,"rental_uris":{"android":"levelo://app?vid=3ba53083-f560-4fb5-b3cc-01a71156c6ba","ios":"levelo://app?vid=3ba53083-f560-4fb5-b3cc-01a71156c6ba"},"vehicle_type_id":"4","last_reported":1749910144,"current_range_meters":16000,"station_id":"","pricing_plan_id":"cebpf4jnsgd1na2vs0mg"},{"bike_id":"33c88bcc-413d-4d54-bd30-5a2b999a43c0","system_id":"levelo_inurba_marseille","lat":43.24665,"lon":5.38172,"is_reserved":false,"is_disabled":false,"rental_uris":{"android":"levelo://app?vid=33c88bcc-413d-4d54-bd30-5a2b999a43c0","ios":"levelo://app?vid=33c88bcc-413d-4d54-bd30-5a2b999a43c0"},"vehicle_type_id":"4","last_reported":1749910144,"current_range_meters":16000,"station_id":"ce4bhih2rcd13ifvqfr0","pricing_plan_id":"cebpf4jnsgd1na2vs0mg"},{"bike_id":"108df224-a9a1-40dd-bfd9-874deb063612","system_id":"levelo_inurba_marseille","lat":43.25112,"lon":5.39504,"is_reserved":false,"is_disabled":false,"rental_uris":{"android":"levelo://app?vid=108df224-a9a1-40dd-bfd9-874deb063612","ios":"levelo://app?vid=108df224-a9a1-40dd-bfd9-874deb063612"},"vehicle_type_id":"4","last_reported":1749910144,"current_range_meters":16000,"station_id":"ce4bhm12rcd13ifvqgkg","pricing_plan_id":"cebpf4jnsgd1na2vs0mg"},{"bike_id":"c05bde22-7cf4-4ccb-a7d9-d9bcadfc9f9b","system_id":"levelo_inurba_marseille","lat":43.23184,"lon":5.39992,"is_reserved":false,"is_disabled":false,"rental_uris":{"android":"levelo://app?vid=c05bde22-7cf4-4ccb-a7d9-d9bcadfc9f9b","ios":"levelo://app?vid=c05bde22-7cf4-4ccb-a7d9-d9bcadfc9f9b"},"vehicle_type_id":"4","last_reported":1749910144,"current_range_meters":16000,"station_id":"ce4bhn12rcd13ifvqgqg","pricing_plan_id":"cebpf4jnsgd1na2vs0mg"},{"bike_id":"74924259-12a0-4dc9-b032-135f63128ff9","system_id":"levelo_inurba_marseille","lat":43.32047,"lon":5.41545,"is_reserved":false,"is_disabled":false,"rental_uris":{"android":"levelo://app?vid=74924259-12a0-4dc9-b032-135f63128ff9","ios":"levelo://app?vid=74924259-12a0-4dc9-b032-135f63128ff9"},"vehicle_type_id":"4","last_reported":1749910144,"current_range_meters":16000,"station_id":"ce4bhq92rcd13ifvqhkg","pricing_plan_id":"cebpf4jnsgd1na2vs0mg"},{"bike_id":"e74cca96-a40f-43ff-b771-d6bc968c8004","system_id":"levelo_inurba_marseille","lat":43.23186,"lon":5.35517,"is_reserved":false,"is_disabled":false,"rental_uris":{"android":"levelo://app?vid=e74cca96-a40f-43ff-b771-d6bc968c8004","ios":"levelo://app?vid=e74cca96-a40f-43ff-b771-d6bc968c8004"},"vehicle_type_id":"4","last_reported":1749910144,"current_range_meters":16000,"station_id":"ce4bhu92rcd13ifvqi70","pricing_plan_id":"cebpf4jnsgd1na2vs0mg"},{"bike_id":"02a55228-2765-4c22-837c-5038cf3477db","system_id":"levelo_inurba_marseille","lat":43.21748,"lon":5.34564,"is_reserved":false,"is_disabled":false,"rental_uris":{"android":"levelo://app?vid=02a55228-2765-4c22-837c-5038cf3477db","ios":"levelo://app?vid=02a55228-2765-4c22-837c-5038cf3477db"},"vehicle_type_id":"4","last_reported":1749910144,"current_range_meters":16000,"station_id":"st_cvj6r9ubvosntc0bgbag","pricing_plan_id":"cebpf4jnsgd1na2vs0mg"},{"bike_id":"8cbf1c75-54a0-4ee2-baf6-f6eec1819703","system_id":"levelo_inurba_marseille","lat":43.21748,"lon":5.34607,"is_reserved":false,"is_disabled":false,"rental_uris":{"android":"levelo://app?vid=8cbf1c75-54a0-4ee2-baf6-f6eec1819703","ios":"levelo://app?vid=8cbf1c75-54a0-4ee2-baf6-f6eec1819703"},"vehicle_type_id":"4","last_reported":1749910144,"current_range_meters":16000,"station_id":"st_cvj6r9ubvosntc0bgbag","pricing_plan_id":"cebpf4jnsgd1na2vs0mg"},{"bike_id":"a8283606-6fdf-49b2-991a-62bc6fc9988a","system_id":"levelo_inurba_marseille","lat":43.22531,"lon":5.3479,"is_reserved":false,"is_disabled":false,"rental_uris":{"android":"levelo://app?vid=a8283606-6fdf-49b2-991a-62bc6fc9988a","ios":"levelo://app?vid=a8283606-6fdf-49b2-991a-62bc6fc9988a"},"vehicle_type_id":"4","last_reported":1749910144,"current_range_meters":16400,"station_id":"","pricing_plan_id":"cebpf4jnsgd1na2vs0mg"},{"bike_id":"c1e889ee-e5b6-4284-9cf4-56a61d25cadf","system_id":"levelo_inurba_marseille","lat":43.2926,"lon":5.40905,"is_reserved":false,"is_disabled":false,"rental_uris":{"android":"levelo://app?vid=c1e889ee-e5b6-4284-9cf4-56a61d25cadf","ios":"levelo://app?vid=c1e889ee-e5b6-4284-9cf4-56a61d25cadf"},"vehicle_type_id":"4","last_reported":1749910144,"current_range_meters":16400,"station_id":"ce4bh192rcd13ifvqdc0","pricing_plan_id":"cebpf4jnsgd1na2vs0mg"},{"bike_id":"d141562f-55bb-4217-8ef7-4ff182db1180","system_id":"levelo_inurba_marseille","lat":43.29007,"lon":5.35607,"is_reserved":false,"is_disabled":false,"rental_uris":{"android":"levelo://app?vid=d141562f-55bb-4217-8ef7-4ff182db1180","ios":"levelo://app?vid=d141562f-55bb-4217-8ef7-4ff182db1180"},"vehicle_type_id":"4","last_reported":1749910144,"current_range_meters":16400,"station_id":"ce4bhb92rcd13ifvqen0","pricing_plan_id":"cebpf4jnsgd1na2vs0mg"},{"bike_id":"2ca1ab84-2a33-4ccf-bca6-842bea5d3fb6","system_id":"levelo_inurba_marseille","lat":43.26209,"lon":5.37444,"is_reserved":false,"is_disabled":false,"rental_uris":{"android":"levelo://app?vid=2ca1ab84-2a33-4ccf-bca6-842bea5d3fb6","ios":"levelo://app?vid=2ca1ab84-2a33-4ccf-bca6-842bea5d3fb6"},"vehicle_type_id":"4","last_reported":1749910144,"current_range_meters":16400,"station_id":"ce4bhgp2rcd13ifvqfc0","pricing_plan_id":"cebpf4jnsgd1na2vs0mg"},{"bike_id":"816a0f80-53c6-4d3e-9e84-99acbfaffbf9","system_id":"levelo_inurba_marseille","lat":43.2315,"lon":5.43719,"is_reserved":false,"is_disabled":false,"rental_uris":{"android":"levelo://app?vid=816a0f80-53c6-4d3e-9e84-99acbfaffbf9","ios":"levelo://app?vid=816a0f80-53c6-4d3e-9e84-99acbfaffbf9"},"vehicle_type_id":"4","last_reported":1749910144,"current_range_meters":16400,"station_id":"ce4bhmp2rcd13ifvqgog","pricing_plan_id":"cebpf4jnsgd1na2vs0mg"},{"bike_id":"194985f0-5f42-48d5-bdf0-214ea2765269","system_id":"levelo_inurba_marseille","lat":43.22942,"lon":5.35392,"is_reserved":false,"is_disabled":false,"rental_uris":{"android":"levelo://app?vid=194985f0-5f42-48d5-bdf0-214ea2765269","ios":"levelo://app?vid=194985f0-5f42-48d5-bdf0-214ea2765269"},"vehicle_type_id":"4","last_reported":1749910144,"current_range_meters":16400,"station_id":"cpo3532slgdg3j2ikp40","pricing_plan_id":"cebpf4jnsgd1na2vs0mg"},{"bike_id":"7240a984-bb6d-4c3b-ab8d-aef55ac0bce8","system_id":"levelo_inurba_marseille","lat":43.21192,"lon":5.35088,"is_reserved":false,"is_disabled":false,"rental_uris":{"android":"levelo://app?vid=7240a984-bb6d-4c3b-ab8d-aef55ac0bce8","ios":"levelo://app?vid=7240a984-bb6d-4c3b-ab8d-aef55ac0bce8"},"vehicle_type_id":"4","last_reported":1749910144,"current_range_meters":16400,"station_id":"st_cvj6sg6p6f1abm77japg","pricing_plan_id":"cebpf4jnsgd1na2vs0mg"},{"bike_id":"4acc43a9-efed-4475-8e4e-b0e495d420fe","system_id":"levelo_inurba_marseille","lat":43.31489,"lon":5.37299,"is_reserved":false,"is_disabled":false,"rental_uris":{"android":"levelo://app?vid=4acc43a9-efed-4475-8e4e-b0e495d420fe","ios":"levelo://app?vid=4acc43a9-efed-4475-8e4e-b0e495d420fe"},"vehicle_type_id":"4","last_reported":1749910144,"current_range_meters":16800,"station_id":"ce4bgt12rcd13ifvqcd0","pricing_plan_id":"cebpf4jnsgd1na2vs0mg"},{"bike_id":"d3bc3b9f-7391-4b78-a7ca-1d9d571a0196","system_id":"levelo_inurba_marseille","lat":43.26194,"lon":5.37476,"is_reserved":false,"is_disabled":false,"rental_uris":{"android":"levelo://app?vid=d3bc3b9f-7391-4b78-a7ca-1d9d571a0196","ios":"levelo://app?vid=d3bc3b9f-7391-4b78-a7ca-1d9d571a0196"},"vehicle_type_id":"4","last_reported":1749910144,"current_range_meters":16800,"station_id":"ce4bhgp2rcd13ifvqfc0","pricing_plan_id":"cebpf4jnsgd1na2vs0mg"},{"bike_id":"5f353e40-4803-4fdf-8981-ace7de31369b","system_id":"levelo_inurba_marseille","lat":43.23183,"lon":5.39983,"is_reserved":false,"is_disabled":false,"rental_uris":{"android":"levelo://app?vid=5f353e40-4803-4fdf-8981-ace7de31369b","ios":"levelo://app?vid=5f353e40-4803-4fdf-8981-ace7de31369b"},"vehicle_type_id":"4","last_reported":1749910144,"current_range_meters":16800,"station_id":"ce4bhn12rcd13ifvqgqg","pricing_plan_id":"cebpf4jnsgd1na2vs0mg"},{"bike_id":"710d97cb-5291-4f9c-8a23-d89c0b627fd7","system_id":"levelo_inurba_marseille","lat":43.24168,"lon":5.36413,"is_reserved":false,"is_disabled":false,"rental_uris":{"android":"levelo://app?vid=710d97cb-5291-4f9c-8a23-d89c0b627fd7","ios":"levelo://app?vid=710d97cb-5291-4f9c-8a23-d89c0b627fd7"},"vehicle_type_id":"4","last_reported":1749910144,"current_range_meters":16800,"station_id":"cpo36qri1sfpv3e86is0","pricing_plan_id":"cebpf4jnsgd1na2vs0mg"},{"bike_id":"489bc75d-a74a-4e0c-afdb-faa5ba373eb2","system_id":"levelo_inurba_marseille","lat":43.21742,"lon":5.34604,"is_reserved":false,"is_disabled":false,"rental_uris":{"android":"levelo://app?vid=489bc75d-a74a-4e0c-afdb-faa5ba373eb2","ios":"levelo://app?vid=489bc75d-a74a-4e0c-afdb-faa5ba373eb2"},"vehicle_type_id":"4","last_reported":1749910144,"current_range_meters":16800,"station_id":"st_cvj6r9ubvosntc0bgbag","pricing_plan_id":"cebpf4jnsgd1na2vs0mg"},{"bike_id":"74f6bbd0-5c81-4ac4-b714-3086aa40f53c","system_id":"levelo_inurba_marseille","lat":43.212,"lon":5.35104,"is_reserved":false,"is_disabled":false,"rental_uris":{"android":"levelo://app?vid=74f6bbd0-5c81-4ac4-b714-3086aa40f53c","ios":"levelo://app?vid=74f6bbd0-5c81-4ac4-b714-3086aa40f53c"},"vehicle_type_id":"4","last_reported":1749910144,"current_range_meters":16800,"station_id":"st_cvj6sg6p6f1abm77japg","pricing_plan_id":"cebpf4jnsgd1na2vs0mg"},{"bike_id":"40179aee-1303-4fd5-beac-2def5c89baea","system_id":"levelo_inurba_marseille","lat":43.29532,"lon":5.38534,"is_reserved":false,"is_disabled":false,"rental_uris":{"android":"levelo://app?vid=40179aee-1303-4fd5-beac-2def5c89baea","ios":"levelo://app?vid=40179aee-1303-4fd5-beac-2def5c89baea"},"vehicle_type_id":"4","last_reported":1749910144,"current_range_meters":17200,"station_id":"ce4bgih2rcd13ifvqba0","pricing_plan_id":"cebpf4jnsgd1na2vs0mg"},{"bike_id":"1f508ab3-af27-4c24-b97d-30ad1919a2c8","system_id":"levelo_inurba_marseille","lat":43.30193,"lon":5.36621,"is_reserved":false,"is_disabled":false,"rental_uris":{"android":"levelo://app?vid=1f508ab3-af27-4c24-b97d-30ad1919a2c8","ios":"levelo://app?vid=1f508ab3-af27-4c24-b97d-30ad1919a2c8"},"vehicle_type_id":"4","last_reported":1749910144,"current_range_meters":17200,"station_id":"ce4bgrh2rcd13ifvqc8g","pricing_plan_id":"cebpf4jnsgd1na2vs0mg"},{"bike_id":"71d69295-54a4-4203-858b-1f86f385d59e","system_id":"levelo_inurba_marseille","lat":43.27381,"lon":5.36253,"is_reserved":false,"is_disabled":false,"rental_uris":{"android":"levelo://app?vid=71d69295-54a4-4203-858b-1f86f385d59e","ios":"levelo://app?vid=71d69295-54a4-4203-858b-1f86f385d59e"},"vehicle_type_id":"4","last_reported":1749910144,"current_range_meters":17200,"station_id":"ce4bhbh2rcd13ifvqeo0","pricing_plan_id":"cebpf4jnsgd1na2vs0mg"},{"bike_id":"dc2aafe3-8c40-438c-ba1e-287e45f9f571","system_id":"levelo_inurba_marseille","lat":43.28258,"lon":5.35074,"is_reserved":false,"is_disabled":false,"rental_uris":{"android":"levelo://app?vid=dc2aafe3-8c40-438c-ba1e-287e45f9f571","ios":"levelo://app?vid=dc2aafe3-8c40-438c-ba1e-287e45f9f571"},"vehicle_type_id":"4","last_reported":1749910144,"current_range_meters":17200,"station_id":"ce4bhbp2rcd13ifvqerg","pricing_plan_id":"cebpf4jnsgd1na2vs0mg"},{"bike_id":"bbf0c2a5-4408-4977-9433-abc948badb61","system_id":"levelo_inurba_marseille","lat":43.21747,"lon":5.34627,"is_reserved":false,"is_disabled":false,"rental_uris":{"android":"levelo://app?vid=bbf0c2a5-4408-4977-9433-abc948badb61","ios":"levelo://app?vid=bbf0c2a5-4408-4977-9433-abc948badb61"},"vehicle_type_id":"4","last_reported":1749910144,"current_range_meters":17200,"station_id":"st_cvj6r9ubvosntc0bgbag","pricing_plan_id":"cebpf4jnsgd1na2vs0mg"},{"bike_id":"9b91606c-287a-4145-9d47-18cb28000a68","system_id":"levelo_inurba_marseille","lat":43.29241,"lon":5.36548,"is_reserved":false,"is_disabled":false,"rental_uris":{"android":"levelo://app?vid=9b91606c-287a-4145-9d47-18cb28000a68","ios":"levelo://app?vid=9b91606c-287a-4145-9d47-18cb28000a68"},"vehicle_type_id":"4","last_reported":1749910144,"current_range_meters":17600,"station_id":"","pricing_plan_id":"cebpf4jnsgd1na2vs0mg"},{"bike_id":"a123e9fa-df7d-41fb-b2d5-2e4e345456f9","system_id":"levelo_inurba_marseille","lat":43.25283,"lon":5.37469,"is_reserved":false,"is_disabled":false,"rental_uris":{"android":"levelo://app?vid=a123e9fa-df7d-41fb-b2d5-2e4e345456f9","ios":"levelo://app?vid=a123e9fa-df7d-41fb-b2d5-2e4e345456f9"},"vehicle_type_id":"4","last_reported":1749910144,"current_range_meters":17600,"station_id":"","pricing_plan_id":"cebpf4jnsgd1na2vs0mg"},{"bike_id":"86a048e9-e1c5-4f98-a725-974cd0b327f7","system_id":"levelo_inurba_marseille","lat":43.291943,"lon":5.39324,"is_reserved":false,"is_disabled":false,"rental_uris":{"android":"levelo://app?vid=86a048e9-e1c5-4f98-a725-974cd0b327f7","ios":"levelo://app?vid=86a048e9-e1c5-4f98-a725-974cd0b327f7"},"vehicle_type_id":"4","last_reported":1749910144,"current_range_meters":17600,"station_id":"ce4bh192rcd13ifvqdd0","pricing_plan_id":"cebpf4jnsgd1na2vs0mg"},{"bike_id":"4100bc36-62e1-4580-80d2-2d0094783fa7","system_id":"levelo_inurba_marseille","lat":43.28413,"lon":5.34984,"is_reserved":false,"is_disabled":false,"rental_uris":{"android":"levelo://app?vid=4100bc36-62e1-4580-80d2-2d0094783fa7","ios":"levelo://app?vid=4100bc36-62e1-4580-80d2-2d0094783fa7"},"vehicle_type_id":"4","last_reported":1749910144,"current_range_meters":17600,"station_id":"ce4bhbh2rcd13ifvqepg","pricing_plan_id":"cebpf4jnsgd1na2vs0mg"},{"bike_id":"1a89a7f3-23c6-43a7-813f-068d00bc8977","system_id":"levelo_inurba_marseille","lat":43.25819,"lon":5.39436,"is_reserved":false,"is_disabled":false,"rental_uris":{"android":"levelo://app?vid=1a89a7f3-23c6-43a7-813f-068d00bc8977","ios":"levelo://app?vid=1a89a7f3-23c6-43a7-813f-068d00bc8977"},"vehicle_type_id":"4","last_reported":1749910144,"current_range_meters":17600,"station_id":"ce4bhip2rcd13ifvqft0","pricing_plan_id":"cebpf4jnsgd1na2vs0mg"},{"bike_id":"821ffeb7-504e-49a3-aa5e-ded90c45f20e","system_id":"levelo_inurba_marseille","lat":43.3043,"lon":5.41322,"is_reserved":false,"is_disabled":false,"rental_uris":{"android":"levelo://app?vid=821ffeb7-504e-49a3-aa5e-ded90c45f20e","ios":"levelo://app?vid=821ffeb7-504e-49a3-aa5e-ded90c45f20e"},"vehicle_type_id":"4","last_reported":1749910144,"current_range_meters":17600,"station_id":"ce4bhop2rcd13ifvqh8g","pricing_plan_id":"cebpf4jnsgd1na2vs0mg"},{"bike_id":"0ddcb1f3-ed5a-4a1d-859e-14dd5d6bf83b","system_id":"levelo_inurba_marseille","lat":43.21735,"lon":5.34597,"is_reserved":false,"is_disabled":false,"rental_uris":{"android":"levelo://app?vid=0ddcb1f3-ed5a-4a1d-859e-14dd5d6bf83b","ios":"levelo://app?vid=0ddcb1f3-ed5a-4a1d-859e-14dd5d6bf83b"},"vehicle_type_id":"4","last_reported":1749910144,"current_range_meters":17600,"station_id":"st_cvj6r9ubvosntc0bgbag","pricing_plan_id":"cebpf4jnsgd1na2vs0mg"},{"bike_id":"77c43550-1927-4f37-a0b6-8d547e0d12d4","system_id":"levelo_inurba_marseille","lat":43.21746,"lon":5.34602,"is_reserved":false,"is_disabled":false,"rental_uris":{"android":"levelo://app?vid=77c43550-1927-4f37-a0b6-8d547e0d12d4","ios":"levelo://app?vid=77c43550-1927-4f37-a0b6-8d547e0d12d4"},"vehicle_type_id":"4","last_reported":1749910144,"current_range_meters":17600,"station_id":"st_cvj6r9ubvosntc0bgbag","pricing_plan_id":"cebpf4jnsgd1na2vs0mg"},{"bike_id":"c4052fa8-545b-4590-84f8-5ff9395d4d00","system_id":"levelo_inurba_marseille","lat":43.28426,"lon":5.34999,"is_reserved":false,"is_disabled":false,"rental_uris":{"android":"levelo://app?vid=c4052fa8-545b-4590-84f8-5ff9395d4d00","ios":"levelo://app?vid=c4052fa8-545b-4590-84f8-5ff9395d4d00"},"vehicle_type_id":"4","last_reported":1749910144,"current_range_meters":18000,"station_id":"ce4bhbh2rcd13ifvqepg","pricing_plan_id":"cebpf4jnsgd1na2vs0mg"},{"bike_id":"b9d5cb90-e680-49ef-98d6-0df1bfdcbd3c","system_id":"levelo_inurba_marseille","lat":43.28266,"lon":5.35078,"is_reserved":false,"is_disabled":false,"rental_uris":{"android":"levelo://app?vid=b9d5cb90-e680-49ef-98d6-0df1bfdcbd3c","ios":"levelo://app?vid=b9d5cb90-e680-49ef-98d6-0df1bfdcbd3c"},"vehicle_type_id":"4","last_reported":1749910144,"current_range_meters":18000,"station_id":"ce4bhbp2rcd13ifvqerg","pricing_plan_id":"cebpf4jnsgd1na2vs0mg"},{"bike_id":"19e351de-918f-41b1-b4c5-3482547942c1","system_id":"levelo_inurba_marseille","lat":43.25492,"lon":5.3765,"is_reserved":false,"is_disabled":false,"rental_uris":{"android":"levelo://app?vid=19e351de-918f-41b1-b4c5-3482547942c1","ios":"levelo://app?vid=19e351de-918f-41b1-b4c5-3482547942c1"},"vehicle_type_id":"4","last_reported":1749910144,"current_range_meters":18000,"station_id":"ce4bhh12rcd13ifvqff0","pricing_plan_id":"cebpf4jnsgd1na2vs0mg"},{"bike_id":"fc2f0e65-f964-430d-96b4-2f235fe34d1f","system_id":"levelo_inurba_marseille","lat":43.25729,"lon":5.41122,"is_reserved":false,"is_disabled":false,"rental_uris":{"android":"levelo://app?vid=fc2f0e65-f964-430d-96b4-2f235fe34d1f","ios":"levelo://app?vid=fc2f0e65-f964-430d-96b4-2f235fe34d1f"},"vehicle_type_id":"4","last_reported":1749910144,"current_range_meters":18000,"station_id":"ce4bhkp2rcd13ifvqgd0","pricing_plan_id":"cebpf4jnsgd1na2vs0mg"},{"bike_id":"f148e223-23a1-4eba-9dd8-74998b9e9c6b","system_id":"levelo_inurba_marseille","lat":43.2509,"lon":5.3952,"is_reserved":false,"is_disabled":false,"rental_uris":{"android":"levelo://app?vid=f148e223-23a1-4eba-9dd8-74998b9e9c6b","ios":"levelo://app?vid=f148e223-23a1-4eba-9dd8-74998b9e9c6b"},"vehicle_type_id":"4","last_reported":1749910144,"current_range_meters":18000,"station_id":"ce4bhm12rcd13ifvqgkg","pricing_plan_id":"cebpf4jnsgd1na2vs0mg"},{"bike_id":"7f093b94-2681-4360-b486-861c1a74d2c4","system_id":"levelo_inurba_marseille","lat":43.32118,"lon":5.36752,"is_reserved":false,"is_disabled":false,"rental_uris":{"android":"levelo://app?vid=7f093b94-2681-4360-b486-861c1a74d2c4","ios":"levelo://app?vid=7f093b94-2681-4360-b486-861c1a74d2c4"},"vehicle_type_id":"4","last_reported":1749910144,"current_range_meters":18000,"station_id":"ce4bhrh2rcd13ifvqhug","pricing_plan_id":"cebpf4jnsgd1na2vs0mg"},{"bike_id":"a42da83b-0754-4bfa-a338-c87ce1e67fe4","system_id":"levelo_inurba_marseille","lat":43.2293,"lon":5.35385,"is_reserved":false,"is_disabled":false,"rental_uris":{"android":"levelo://app?vid=a42da83b-0754-4bfa-a338-c87ce1e67fe4","ios":"levelo://app?vid=a42da83b-0754-4bfa-a338-c87ce1e67fe4"},"vehicle_type_id":"4","last_reported":1749910144,"current_range_meters":18000,"station_id":"cpo3532slgdg3j2ikp40","pricing_plan_id":"cebpf4jnsgd1na2vs0mg"},{"bike_id":"b30d31de-1864-45d7-aa86-f9a24d7c08a0","system_id":"levelo_inurba_marseille","lat":43.21761,"lon":5.34654,"is_reserved":false,"is_disabled":false,"rental_uris":{"android":"levelo://app?vid=b30d31de-1864-45d7-aa86-f9a24d7c08a0","ios":"levelo://app?vid=b30d31de-1864-45d7-aa86-f9a24d7c08a0"},"vehicle_type_id":"4","last_reported":1749910144,"current_range_meters":18000,"station_id":"st_cvj6r9ubvosntc0bgbag","pricing_plan_id":"cebpf4jnsgd1na2vs0mg"},{"bike_id":"335e81a4-1e97-4cdb-b3bc-231c6a43ac9a","system_id":"levelo_inurba_marseille","lat":43.21754,"lon":5.34633,"is_reserved":false,"is_disabled":false,"rental_uris":{"android":"levelo://app?vid=335e81a4-1e97-4cdb-b3bc-231c6a43ac9a","ios":"levelo://app?vid=335e81a4-1e97-4cdb-b3bc-231c6a43ac9a"},"vehicle_type_id":"4","last_reported":1749910144,"current_range_meters":18000,"station_id":"st_cvj6r9ubvosntc0bgbag","pricing_plan_id":"cebpf4jnsgd1na2vs0mg"},{"bike_id":"d4b34a25-9d65-4303-a062-172001801d12","system_id":"levelo_inurba_marseille","lat":43.27603,"lon":5.36117,"is_reserved":false,"is_disabled":false,"rental_uris":{"android":"levelo://app?vid=d4b34a25-9d65-4303-a062-172001801d12","ios":"levelo://app?vid=d4b34a25-9d65-4303-a062-172001801d12"},"vehicle_type_id":"4","last_reported":1749910144,"current_range_meters":18800,"station_id":"ce4bgj92rcd13ifvqbe0","pricing_plan_id":"cebpf4jnsgd1na2vs0mg"},{"bike_id":"4e7d7ce2-2190-430e-a135-ae3baa5f0eca","system_id":"levelo_inurba_marseille","lat":43.28428,"lon":5.35026,"is_reserved":false,"is_disabled":false,"rental_uris":{"android":"levelo://app?vid=4e7d7ce2-2190-430e-a135-ae3baa5f0eca","ios":"levelo://app?vid=4e7d7ce2-2190-430e-a135-ae3baa5f0eca"},"vehicle_type_id":"4","last_reported":1749910144,"current_range_meters":18800,"station_id":"ce4bhbh2rcd13ifvqepg","pricing_plan_id":"cebpf4jnsgd1na2vs0mg"},{"bike_id":"0b214f94-475b-4c56-b001-15dc0687c937","system_id":"levelo_inurba_marseille","lat":43.28277,"lon":5.35068,"is_reserved":false,"is_disabled":false,"rental_uris":{"android":"levelo://app?vid=0b214f94-475b-4c56-b001-15dc0687c937","ios":"levelo://app?vid=0b214f94-475b-4c56-b001-15dc0687c937"},"vehicle_type_id":"4","last_reported":1749910144,"current_range_meters":18800,"station_id":"ce4bhbp2rcd13ifvqerg","pricing_plan_id":"cebpf4jnsgd1na2vs0mg"},{"bike_id":"2252b50c-2114-45a6-a577-527b09f126c5","system_id":"levelo_inurba_marseille","lat":43.282649,"lon":5.350539,"is_reserved":false,"is_disabled":false,"rental_uris":{"android":"levelo://app?vid=2252b50c-2114-45a6-a577-527b09f126c5","ios":"levelo://app?vid=2252b50c-2114-45a6-a577-527b09f126c5"},"vehicle_type_id":"4","last_reported":1749910144,"current_range_meters":18800,"station_id":"ce4bhbp2rcd13ifvqerg","pricing_plan_id":"cebpf4jnsgd1na2vs0mg"},{"bike_id":"af54e57f-f161-4317-9bd4-1d43f8702955","system_id":"levelo_inurba_marseille","lat":43.23201,"lon":5.35561,"is_reserved":false,"is_disabled":false,"rental_uris":{"android":"levelo://app?vid=af54e57f-f161-4317-9bd4-1d43f8702955","ios":"levelo://app?vid=af54e57f-f161-4317-9bd4-1d43f8702955"},"vehicle_type_id":"4","last_reported":1749910144,"current_range_meters":18800,"station_id":"ce4bhu92rcd13ifvqi70","pricing_plan_id":"cebpf4jnsgd1na2vs0mg"},{"bike_id":"73d24be6-1c36-4e07-aea9-a2350ae32e24","system_id":"levelo_inurba_marseille","lat":43.22919,"lon":5.35387,"is_reserved":false,"is_disabled":false,"rental_uris":{"android":"levelo://app?vid=73d24be6-1c36-4e07-aea9-a2350ae32e24","ios":"levelo://app?vid=73d24be6-1c36-4e07-aea9-a2350ae32e24"},"vehicle_type_id":"4","last_reported":1749910144,"current_range_meters":18800,"station_id":"cpo3532slgdg3j2ikp40","pricing_plan_id":"cebpf4jnsgd1na2vs0mg"},{"bike_id":"029cbe62-e773-48a8-b20e-a96f35769b58","system_id":"levelo_inurba_marseille","lat":43.21757,"lon":5.34647,"is_reserved":false,"is_disabled":false,"rental_uris":{"android":"levelo://app?vid=029cbe62-e773-48a8-b20e-a96f35769b58","ios":"levelo://app?vid=029cbe62-e773-48a8-b20e-a96f35769b58"},"vehicle_type_id":"4","last_reported":1749910144,"current_range_meters":18800,"station_id":"st_cvj6r9ubvosntc0bgbag","pricing_plan_id":"cebpf4jnsgd1na2vs0mg"},{"bike_id":"91497fb1-205c-4a38-868c-2f529d1a091a","system_id":"levelo_inurba_marseille","lat":43.21759,"lon":5.34616,"is_reserved":false,"is_disabled":false,"rental_uris":{"android":"levelo://app?vid=91497fb1-205c-4a38-868c-2f529d1a091a","ios":"levelo://app?vid=91497fb1-205c-4a38-868c-2f529d1a091a"},"vehicle_type_id":"4","last_reported":1749910144,"current_range_meters":18800,"station_id":"st_cvj6r9ubvosntc0bgbag","pricing_plan_id":"cebpf4jnsgd1na2vs0mg"},{"bike_id":"3e232180-096e-45c2-8101-145150acb1d5","system_id":"levelo_inurba_marseille","lat":43.21193,"lon":5.35073,"is_reserved":false,"is_disabled":false,"rental_uris":{"android":"levelo://app?vid=3e232180-096e-45c2-8101-145150acb1d5","ios":"levelo://app?vid=3e232180-096e-45c2-8101-145150acb1d5"},"vehicle_type_id":"4","last_reported":1749910144,"current_range_meters":18800,"station_id":"st_cvj6sg6p6f1abm77japg","pricing_plan_id":"cebpf4jnsgd1na2vs0mg"},{"bike_id":"8829bb05-8093-4306-9198-a103286f2114","system_id":"levelo_inurba_marseille","lat":43.28416,"lon":5.34974,"is_reserved":false,"is_disabled":false,"rental_uris":{"android":"levelo://app?vid=8829bb05-8093-4306-9198-a103286f2114","ios":"levelo://app?vid=8829bb05-8093-4306-9198-a103286f2114"},"vehicle_type_id":"4","last_reported":1749910144,"current_range_meters":19200,"station_id":"ce4bhbh2rcd13ifvqepg","pricing_plan_id":"cebpf4jnsgd1na2vs0mg"},{"bike_id":"3dd96d40-41f0-4178-b123-5bf6087ebe03","system_id":"levelo_inurba_marseille","lat":43.217478,"lon":5.34597,"is_reserved":false,"is_disabled":false,"rental_uris":{"android":"levelo://app?vid=3dd96d40-41f0-4178-b123-5bf6087ebe03","ios":"levelo://app?vid=3dd96d40-41f0-4178-b123-5bf6087ebe03"},"vehicle_type_id":"4","last_reported":1749910144,"current_range_meters":19200,"station_id":"st_cvj6r9ubvosntc0bgbag","pricing_plan_id":"cebpf4jnsgd1na2vs0mg"},{"bike_id":"9dd89491-5c6d-4907-a873-cc5dc07e8aff","system_id":"levelo_inurba_marseille","lat":43.30882,"lon":5.39656,"is_reserved":false,"is_disabled":false,"rental_uris":{"android":"levelo://app?vid=9dd89491-5c6d-4907-a873-cc5dc07e8aff","ios":"levelo://app?vid=9dd89491-5c6d-4907-a873-cc5dc07e8aff"},"vehicle_type_id":"4","last_reported":1749910144,"current_range_meters":19600,"station_id":"ce4bh012rcd13ifvqcv0","pricing_plan_id":"cebpf4jnsgd1na2vs0mg"},{"bike_id":"637e5044-2fe6-4523-8f5d-22fea84e17e4","system_id":"levelo_inurba_marseille","lat":43.28104,"lon":5.37836,"is_reserved":false,"is_disabled":false,"rental_uris":{"android":"levelo://app?vid=637e5044-2fe6-4523-8f5d-22fea84e17e4","ios":"levelo://app?vid=637e5044-2fe6-4523-8f5d-22fea84e17e4"},"vehicle_type_id":"4","last_reported":1749910144,"current_range_meters":19600,"station_id":"ce4bha12rcd13ifvqee0","pricing_plan_id":"cebpf4jnsgd1na2vs0mg"},{"bike_id":"a07d18d8-1345-4b8a-aa92-f3d8ca0ebcc9","system_id":"levelo_inurba_marseille","lat":43.2827,"lon":5.35073,"is_reserved":false,"is_disabled":false,"rental_uris":{"android":"levelo://app?vid=a07d18d8-1345-4b8a-aa92-f3d8ca0ebcc9","ios":"levelo://app?vid=a07d18d8-1345-4b8a-aa92-f3d8ca0ebcc9"},"vehicle_type_id":"4","last_reported":1749910144,"current_range_meters":19600,"station_id":"ce4bhbp2rcd13ifvqerg","pricing_plan_id":"cebpf4jnsgd1na2vs0mg"},{"bike_id":"61771fcc-91e0-4c8e-b292-01bd4121dd1c","system_id":"levelo_inurba_marseille","lat":43.251648,"lon":5.403316,"is_reserved":false,"is_disabled":false,"rental_uris":{"android":"levelo://app?vid=61771fcc-91e0-4c8e-b292-01bd4121dd1c","ios":"levelo://app?vid=61771fcc-91e0-4c8e-b292-01bd4121dd1c"},"vehicle_type_id":"4","last_reported":1749910144,"current_range_meters":19600,"station_id":"ce4bhlh2rcd13ifvqgig","pricing_plan_id":"cebpf4jnsgd1na2vs0mg"},{"bike_id":"3756175f-8acc-4440-9626-971b3f103339","system_id":"levelo_inurba_marseille","lat":43.24148,"lon":5.39705,"is_reserved":false,"is_disabled":false,"rental_uris":{"android":"levelo://app?vid=3756175f-8acc-4440-9626-971b3f103339","ios":"levelo://app?vid=3756175f-8acc-4440-9626-971b3f103339"},"vehicle_type_id":"4","last_reported":1749910144,"current_range_meters":19600,"station_id":"ce4bhn12rcd13ifvqgpg","pricing_plan_id":"cebpf4jnsgd1na2vs0mg"},{"bike_id":"29b5d627-b9ea-42be-b6df-062f2213e4f2","system_id":"levelo_inurba_marseille","lat":43.23068,"lon":5.35509,"is_reserved":false,"is_disabled":false,"rental_uris":{"android":"levelo://app?vid=29b5d627-b9ea-42be-b6df-062f2213e4f2","ios":"levelo://app?vid=29b5d627-b9ea-42be-b6df-062f2213e4f2"},"vehicle_type_id":"4","last_reported":1749910144,"current_range_meters":19600,"station_id":"cpo3342slgdg3j2ifvpg","pricing_plan_id":"cebpf4jnsgd1na2vs0mg"},{"bike_id":"011e374d-7ae2-45da-9acb-f176fa047ee7","system_id":"levelo_inurba_marseille","lat":43.24168,"lon":5.36393,"is_reserved":false,"is_disabled":false,"rental_uris":{"android":"levelo://app?vid=011e374d-7ae2-45da-9acb-f176fa047ee7","ios":"levelo://app?vid=011e374d-7ae2-45da-9acb-f176fa047ee7"},"vehicle_type_id":"4","last_reported":1749910144,"current_range_meters":19600,"station_id":"cpo36qri1sfpv3e86is0","pricing_plan_id":"cebpf4jnsgd1na2vs0mg"},{"bike_id":"67d4735d-a812-4e55-90bc-5641f4e35931","system_id":"levelo_inurba_marseille","lat":43.21191,"lon":5.3506,"is_reserved":false,"is_disabled":false,"rental_uris":{"android":"levelo://app?vid=67d4735d-a812-4e55-90bc-5641f4e35931","ios":"levelo://app?vid=67d4735d-a812-4e55-90bc-5641f4e35931"},"vehicle_type_id":"4","last_reported":1749910144,"current_range_meters":19600,"station_id":"st_cvj6sg6p6f1abm77japg","pricing_plan_id":"cebpf4jnsgd1na2vs0mg"},