{"last_updated":1684271161,"ttl":30,"version":"2.2","data":{"bikes":[{"bike_id":"1dc5cc95-0d6a-4301-b28f-3382667f47c4","system_id":"levelo_inurba_marseille","lat":43.313391,"lon":5.36706,"is_reserved":false,"is_disabled":false,"rental_uris":{"android":"levelo://app?vid=1dc5cc95-0d6a-4301-b28f-3382667f47c4","ios":"levelo://app?vid=1dc5cc95-0d6a-4301-b28f-3382667f47c4"},"vehicle_type_id":"4","last_reported":1684271162,"current_range_meters":27200,"station_id":"ce4bgr92rcd13ifvqc6g","pricing_plan_id":"free"},{"bike_id":"ed6929b8-c281-442f-b87b-d7b76d2dab17","system_id":"levelo_inurba_marseille","lat":43.312239,"lon":5.368562,"is_reserved":false,"is_disabled":false,"rental_uris":{"android":"levelo://app?vid=ed6929b8-c281-442f-b87b-d7b76d2dab17","ios":"levelo://app?vid=ed6929b8-c281-442f-b87b-d7b76d2dab17"},"vehicle_type_id":"4","last_reported":1684271162,"current_range_meters":800,"station_id":"ce4bgl92rcd13ifvqbq0","pricing_plan_id":"free"},{"bike_id":"437c9d5d-7636-4fcf-bd66-f54accefa51d","system_id":"levelo_inurba_marseille","lat":43.312239,"lon":5.368562,"is_reserved":false,"is_disabled":false,"rental_uris":{"android":"levelo://app?vid=437c9d5d-7636-4fcf-bd66-f54accefa51d","ios":"levelo://app?vid=437c9d5d-7636-4fcf-bd66-f54accefa51d"},"vehicle_type_id":"4","last_reported":1684271162,"current_range_meters":27200,"station_id":"ce4bgl92rcd13ifvqbq0","pricing_plan_id":"free"},{"bike_id":"835891d0-4b7e-4a3c-a511-98c20a6c73f1","system_id":"levelo_inurba_marseille","lat":43.309076,"lon":5.368465,"is_reserved":false,"is_disabled":false,"rental_uris":{"android":"levelo://app?vid=835891d0-4b7e-4a3c-a511-98c20a6c73f1","ios":"levelo://app?vid=835891d0-4b7e-4a3c-a511-98c20a6c73f1"},"vehicle_type_id":"4","last_reported":1684271162,"current_range_meters":28800,"station_id":"ce4bgn92rcd13ifvqbvg","pricing_plan_id":"free"},{"bike_id":"7865a5a6-1aae-4212-b70a-0110804cf589","system_id":"levelo_inurba_marseille","lat":43.314811,"lon":5.373103,"is_reserved":false,"is_disabled":false,"rental_uris":{"android":"levelo://app?vid=7865a5a6-1aae-4212-b70a-0110804cf589","ios":"levelo://app?vid=7865a5a6-1aae-4212-b70a-0110804cf589"},"vehicle_type_id":"4","last_reported":1684271162,"current_range_meters":8000,"station_id":"ce4bgt12rcd13ifvqcd0","pricing_plan_id":"free"},{"bike_id":"8f9de1f2-558b-4caf-905c-392efbd830b3","system_id":"levelo_inurba_marseille","lat":43.308614,"lon":5.372098,"is_reserved":false,"is_disabled":false,"rental_uris":{"android":"levelo://app?vid=8f9de1f2-558b-4caf-905c-392efbd830b3","ios":"levelo://app?vid=8f9de1f2-558b-4caf-905c-392efbd830b3"},"vehicle_type_id":"4","last_reported":1684271162,"current_range_meters":10000,"station_id":"ce4bguh2rcd13ifvqckg","pricing_plan_id":"free"},{"bike_id":"442156fd-6447-47ca-976e-36f45c58abc3","system_id":"levelo_inurba_marseille","lat":43.308614,"lon":5.372098,"is_reserved":false,"is_disabled":false,"rental_uris":{"android":"levelo://app?vid=442156fd-6447-47ca-976e-36f45c58abc3","ios":"levelo://app?vid=442156fd-6447-47ca-976e-36f45c58abc3"},"vehicle_type_id":"4","last_reported":1684271162,"current_range_meters":0,"station_id":"ce4bguh2rcd13ifvqckg","pricing_plan_id":"free"},{"bike_id":"a9313a8c-0def-4ef8-96d3-1c18bdc85563","system_id":"levelo_inurba_marseille","lat":43.30588,"lon":5.36563,"is_reserved":false,"is_disabled":false,"rental_uris":{"android":"levelo://app?vid=a9313a8c-0def-4ef8-96d3-1c18bdc85563","ios":"levelo://app?vid=a9313a8c-0def-4ef8-96d3-1c18bdc85563"},"vehicle_type_id":"4","last_reported":1684271162,"current_range_meters":1200,"station_id":"","pricing_plan_id":"free"},{"bike_id":"5107fb73-59b6-4fc2-99ed-5f6f4bd5ca3d","system_id":"levelo_inurba_marseille","lat":43.30611,"lon":5.37239,"is_reserved":false,"is_disabled":false,"rental_uris":{"android":"levelo://app?vid=5107fb73-59b6-4fc2-99ed-5f6f4bd5ca3d","ios":"levelo://app?vid=5107fb73-59b6-4fc2-99ed-5f6f4bd5ca3d"},"vehicle_type_id":"4","last_reported":1684271162,"current_range_meters":400,"station_id":"ce4bgqh2rcd13ifvqc4g","pricing_plan_id":"free"},{"bike_id":"51af469c-7726-40b3-8b50-25845de0fac6","system_id":"levelo_inurba_marseille","lat":43.311131,"lon":5.377651,"is_reserved":false,"is_disabled":false,"rental_uris":{"android":"levelo://app?vid=51af469c-7726-40b3-8b50-25845de0fac6","ios":"levelo://app?vid=51af469c-7726-40b3-8b50-25845de0fac6"},"vehicle_type_id":"4","last_reported":1684271162,"current_range_meters":16400,"station_id":"ce4bgt92rcd13ifvqcg0","pricing_plan_id":"free"},{"bike_id":"f48ab48f-d34a-4453-9b03-1e4551a18eb8","system_id":"levelo_inurba_marseille","lat":43.31114,"lon":5.37768,"is_reserved":false,"is_disabled":false,"rental_uris":{"android":"levelo://app?vid=f48ab48f-d34a-4453-9b03-1e4551a18eb8","ios":"levelo://app?vid=f48ab48f-d34a-4453-9b03-1e4551a18eb8"},"vehicle_type_id":"4","last_reported":1684271162,"current_range_meters":0,"station_id":"ce4bgt92rcd13ifvqcg0","pricing_plan_id":"free"},{"bike_id":"e50451f9-1018-47e4-8998-c1834a92e137","system_id":"levelo_inurba_marseille","lat":43.317075,"lon":5.377367,"is_reserved":false,"is_disabled":false,"rental_uris":{"android":"levelo://app?vid=e50451f9-1018-47e4-8998-c1834a92e137","ios":"levelo://app?vid=e50451f9-1018-47e4-8998-c1834a92e137"},"vehicle_type_id":"4","last_reported":1684271162,"current_range_meters":27600,"station_id":"ce4bgth2rcd13ifvqch0","pricing_plan_id":"free"},{"bike_id":"242d290c-dd32-4d21-b6a0-cbc8c4e0f561","system_id":"levelo_inurba_marseille","lat":43.317075,"lon":5.377367,"is_reserved":false,"is_disabled":false,"rental_uris":{"android":"levelo://app?vid=242d290c-dd32-4d21-b6a0-cbc8c4e0f561","ios":"levelo://app?vid=242d290c-dd32-4d21-b6a0-cbc8c4e0f561"},"vehicle_type_id":"4","last_reported":1684271162,"current_range_meters":31200,"station_id":"ce4bgth2rcd13ifvqch0","pricing_plan_id":"free"},{"bike_id":"638860ab-d0a8-435b-9279-db968df5f07e","system_id":"levelo_inurba_marseille","lat":43.31693,"lon":5.37761,"is_reserved":false,"is_disabled":false,"rental_uris":{"android":"levelo://app?vid=638860ab-d0a8-435b-9279-db968df5f07e","ios":"levelo://app?vid=638860ab-d0a8-435b-9279-db968df5f07e"},"vehicle_type_id":"4","last_reported":1684271162,"current_range_meters":14400,"station_id":"ce4bgth2rcd13ifvqch0","pricing_plan_id":"free"},{"bike_id":"facd1f0e-31d8-441e-8267-e5e041ba056a","system_id":"levelo_inurba_marseille","lat":43.30304,"lon":5.368987,"is_reserved":false,"is_disabled":false,"rental_uris":{"android":"levelo://app?vid=facd1f0e-31d8-441e-8267-e5e041ba056a","ios":"levelo://app?vid=facd1f0e-31d8-441e-8267-e5e041ba056a"},"vehicle_type_id":"4","last_reported":1684271162,"current_range_meters":800,"station_id":"ce4bgqh2rcd13ifvqc5g","pricing_plan_id":"free"},{"bike_id":"6af54936-694a-4644-97af-a9cb8df8e1bf","system_id":"levelo_inurba_marseille","lat":43.303046,"lon":5.368981,"is_reserved":false,"is_disabled":false,"rental_uris":{"android":"levelo://app?vid=6af54936-694a-4644-97af-a9cb8df8e1bf","ios":"levelo://app?vid=6af54936-694a-4644-97af-a9cb8df8e1bf"},"vehicle_type_id":"4","last_reported":1684271162,"current_range_meters":0,"station_id":"ce4bgqh2rcd13ifvqc5g","pricing_plan_id":"free"},{"bike_id":"72dae9b8-c6fc-4fbb-8d32-007d103ae632","system_id":"levelo_inurba_marseille","lat":43.30304,"lon":5.368987,"is_reserved":false,"is_disabled":false,"rental_uris":{"android":"levelo://app?vid=72dae9b8-c6fc-4fbb-8d32-007d103ae632","ios":"levelo://app?vid=72dae9b8-c6fc-4fbb-8d32-007d103ae632"},"vehicle_type_id":"4","last_reported":1684271162,"current_range_meters":26000,"station_id":"ce4bgqh2rcd13ifvqc5g","pricing_plan_id":"free"},{"bike_id":"506c29cb-d65f-49af-b01e-c2536ccc8070","system_id":"levelo_inurba_marseille","lat":43.315293,"lon":5.380349,"is_reserved":false,"is_disabled":false,"rental_uris":{"android":"levelo://app?vid=506c29cb-d65f-49af-b01e-c2536ccc8070","ios":"levelo://app?vid=506c29cb-d65f-49af-b01e-c2536ccc8070"},"vehicle_type_id":"4","last_reported":1684271162,"current_range_meters":22000,"station_id":"ce4bhsp2rcd13ifvqi50","pricing_plan_id":"free"},{"bike_id":"bfad8e68-bf68-4ac1-90b5-67af31950bdb","system_id":"levelo_inurba_marseille","lat":43.315289,"lon":5.380349,"is_reserved":false,"is_disabled":false,"rental_uris":{"android":"levelo://app?vid=bfad8e68-bf68-4ac1-90b5-67af31950bdb","ios":"levelo://app?vid=bfad8e68-bf68-4ac1-90b5-67af31950bdb"},"vehicle_type_id":"4","last_reported":1684271162,"current_range_meters":31200,"station_id":"ce4bhsp2rcd13ifvqi50","pricing_plan_id":"free"},{"bike_id":"aca83706-05f5-4d8f-afe5-70c120b64998","system_id":"levelo_inurba_marseille","lat":43.301939,"lon":5.366286,"is_reserved":false,"is_disabled":false,"rental_uris":{"android":"levelo://app?vid=aca83706-05f5-4d8f-afe5-70c120b64998","ios":"levelo://app?vid=aca83706-05f5-4d8f-afe5-70c120b64998"},"vehicle_type_id":"4","last_reported":1684271162,"current_range_meters":18400,"station_id":"ce4bgrh2rcd13ifvqc8g","pricing_plan_id":"free"},{"bike_id":"60962ffd-73dd-4171-bd4f-f3eaca039878","system_id":"levelo_inurba_marseille","lat":43.301939,"lon":5.366286,"is_reserved":false,"is_disabled":false,"rental_uris":{"android":"levelo://app?vid=60962ffd-73dd-4171-bd4f-f3eaca039878","ios":"levelo://app?vid=60962ffd-73dd-4171-bd4f-f3eaca039878"},"vehicle_type_id":"4","last_reported":1684271162,"current_range_meters":15200,"station_id":"ce4bgrh2rcd13ifvqc8g","pricing_plan_id":"free"},{"bike_id":"abea80ef-bfc1-4bfc-ad04-7a790bd3d2a9","system_id":"levelo_inurba_marseille","lat":43.308012,"lon":5.381511,"is_reserved":false,"is_disabled":false,"rental_uris":{"android":"levelo://app?vid=abea80ef-bfc1-4bfc-ad04-7a790bd3d2a9","ios":"levelo://app?vid=abea80ef-bfc1-4bfc-ad04-7a790bd3d2a9"},"vehicle_type_id":"4","last_reported":1684271162,"current_range_meters":10000,"station_id":"ce4bgt12rcd13ifvqce0","pricing_plan_id":"free"},{"bike_id":"a7477f02-f711-42f1-bd6d-b88db104aa89","system_id":"levelo_inurba_marseille","lat":43.304606,"lon":5.379026,"is_reserved":false,"is_disabled":false,"rental_uris":{"android":"levelo://app?vid=a7477f02-f711-42f1-bd6d-b88db104aa89","ios":"levelo://app?vid=a7477f02-f711-42f1-bd6d-b88db104aa89"},"vehicle_type_id":"4","last_reported":1684271162,"current_range_meters":8400,"station_id":"ce4bgup2rcd13ifvqcn0","pricing_plan_id":"free"},{"bike_id":"f25d92dc-88c1-4510-a912-e322420a5630","system_id":"levelo_inurba_marseille","lat":43.319935,"lon":5.381699,"is_reserved":false,"is_disabled":false,"rental_uris":{"android":"levelo://app?vid=f25d92dc-88c1-4510-a912-e322420a5630","ios":"levelo://app?vid=f25d92dc-88c1-4510-a912-e322420a5630"},"vehicle_type_id":"4","last_reported":1684271162,"current_range_meters":20400,"station_id":"ce4bhr12rcd13ifvqhpg","pricing_plan_id":"free"},{"bike_id":"76eb56fe-7bc6-4f80-bd62-a484717e166f","system_id":"levelo_inurba_marseille","lat":43.319935,"lon":5.381699,"is_reserved":false,"is_disabled":false,"rental_uris":{"android":"levelo://app?vid=76eb56fe-7bc6-4f80-bd62-a484717e166f","ios":"levelo://app?vid=76eb56fe-7bc6-4f80-bd62-a484717e166f"},"vehicle_type_id":"4","last_reported":1684271162,"current_range_meters":7200,"station_id":"ce4bhr12rcd13ifvqhpg","pricing_plan_id":"free"},{"bike_id":"4a00badf-9e46-439d-8479-aecff47b0a91","system_id":"levelo_inurba_marseille","lat":43.313571,"lon":5.384829,"is_reserved":false,"is_disabled":false,"rental_uris":{"android":"levelo://app?vid=4a00badf-9e46-439d-8479-aecff47b0a91","ios":"levelo://app?vid=4a00badf-9e46-439d-8479-aecff47b0a91"},"vehicle_type_id":"4","last_reported":1684271162,"current_range_meters":16800,"station_id":"ce4bgt92rcd13ifvqcf0","pricing_plan_id":"free"},{"bike_id":"34161681-d118-407a-8bcf-379167cd9ffa","system_id":"levelo_inurba_marseille","lat":43.313571,"lon":5.384829,"is_reserved":false,"is_disabled":false,"rental_uris":{"android":"levelo://app?vid=34161681-d118-407a-8bcf-379167cd9ffa","ios":"levelo://app?vid=34161681-d118-407a-8bcf-379167cd9ffa"},"vehicle_type_id":"4","last_reported":1684271162,"current_range_meters":31200,"station_id":"ce4bgt92rcd13ifvqcf0","pricing_plan_id":"free"},{"bike_id":"0c4643e9-f5f4-44aa-9247-304a47eac299","system_id":"levelo_inurba_marseille","lat":43.299222,"lon":5.365554,"is_reserved":false,"is_disabled":false,"rental_uris":{"android":"levelo://app?vid=0c4643e9-f5f4-44aa-9247-304a47eac299","ios":"levelo://app?vid=0c4643e9-f5f4-44aa-9247-304a47eac299"},"vehicle_type_id":"4","last_reported":1684271162,"current_range_meters":7200,"station_id":"ce4bgm92rcd13ifvqbr0","pricing_plan_id":"free"},{"bike_id":"3762085f-29de-483d-9ee0-54f89e7d5104","system_id":"levelo_inurba_marseille","lat":43.295194,"lon":5.39397,"is_reserved":false,"is_disabled":false,"rental_uris":{"android":"levelo://app?vid=3762085f-29de-483d-9ee0-54f89e7d5104","ios":"levelo://app?vid=3762085f-29de-483d-9ee0-54f89e7d5104"},"vehicle_type_id":"4","last_reported":1684271162,"current_range_meters":12000,"station_id":"ce4bh292rcd13ifvqdf0","pricing_plan_id":"free"},{"bike_id":"ad2a8881-f453-4fa5-8b6f-d3d8e9e4ddc0","system_id":"levelo_inurba_marseille","lat":43.305364,"lon":5.384119,"is_reserved":false,"is_disabled":false,"rental_uris":{"android":"levelo://app?vid=ad2a8881-f453-4fa5-8b6f-d3d8e9e4ddc0","ios":"levelo://app?vid=ad2a8881-f453-4fa5-8b6f-d3d8e9e4ddc0"},"vehicle_type_id":"4","last_reported":1684271162,"current_range_meters":30000,"station_id":"ce4bgg92rcd13ifvqb30","pricing_plan_id":"free"},{"bike_id":"63bfbbc4-2ae6-48a8-9f80-7bffff404acf","system_id":"levelo_inurba_marseille","lat":43.299243,"lon":5.37481,"is_reserved":false,"is_disabled":false,"rental_uris":{"android":"levelo://app?vid=63bfbbc4-2ae6-48a8-9f80-7bffff404acf","ios":"levelo://app?vid=63bfbbc4-2ae6-48a8-9f80-7bffff404acf"},"vehicle_type_id":"4","last_reported":1684271162,"current_range_meters":13200,"station_id":"ce4bgjh2rcd13ifvqbg0","pricing_plan_id":"free"},{"bike_id":"9187b789-b017-4f65-a9d5-ed804e94cd42","system_id":"levelo_inurba_marseille","lat":43.311722,"lon":5.387247,"is_reserved":false,"is_disabled":false,"rental_uris":{"android":"levelo://app?vid=9187b789-b017-4f65-a9d5-ed804e94cd42","ios":"levelo://app?vid=9187b789-b017-4f65-a9d5-ed804e94cd42"},"vehicle_type_id":"4","last_reported":1684271162,"current_range_meters":6400,"station_id":"ce4bgv12rcd13ifvqcp0","pricing_plan_id":"free"},{"bike_id":"adabaa8a-b8e0-472f-b288-166e8f695f39","system_id":"levelo_inurba_marseille","lat":43.311722,"lon":5.387247,"is_reserved":false,"is_disabled":false,"rental_uris":{"android":"levelo://app?vid=adabaa8a-b8e0-472f-b288-166e8f695f39","ios":"levelo://app?vid=adabaa8a-b8e0-472f-b288-166e8f695f39"},"vehicle_type_id":"4","last_reported":1684271162,"current_range_meters":0,"station_id":"ce4bgv12rcd13ifvqcp0","pricing_plan_id":"free"},{"bike_id":"1dcf4a68-cedd-4a42-8a2a-54fc20efc9a4","system_id":"levelo_inurba_marseille","lat":43.311722,"lon":5.387247,"is_reserved":false,"is_disabled":false,"rental_uris":{"android":"levelo://app?vid=1dcf4a68-cedd-4a42-8a2a-54fc20efc9a4","ios":"levelo://app?vid=1dcf4a68-cedd-4a42-8a2a-54fc20efc9a4"},"vehicle_type_id":"4","last_reported":1684271162,"current_range_meters":12000,"station_id":"ce4bgv12rcd13ifvqcp0","pricing_plan_id":"free"},{"bike_id":"1c22effb-f832-4d52-9f4a-f9f9c494821b","system_id":"levelo_inurba_marseille","lat":43.32825,"lon":5.36685,"is_reserved":false,"is_disabled":false,"rental_uris":{"android":"levelo://app?vid=1c22effb-f832-4d52-9f4a-f9f9c494821b","ios":"levelo://app?vid=1c22effb-f832-4d52-9f4a-f9f9c494821b"},"vehicle_type_id":"4","last_reported":1684271162,"current_range_meters":15200,"station_id":"ce4bhs92rcd13ifvqi0g","pricing_plan_id":"free"},{"bike_id":"b05677d6-023b-4a12-a9b5-b4f94ca59a63","system_id":"levelo_inurba_marseille","lat":43.32825,"lon":5.36675,"is_reserved":false,"is_disabled":false,"rental_uris":{"android":"levelo://app?vid=b05677d6-023b-4a12-a9b5-b4f94ca59a63","ios":"levelo://app?vid=b05677d6-023b-4a12-a9b5-b4f94ca59a63"},"vehicle_type_id":"4","last_reported":1684271162,"current_range_meters":28000,"station_id":"ce4bhs92rcd13ifvqi0g","pricing_plan_id":"free"},{"bike_id":"a7fb6a73-9ebf-4b56-938e-67995ffda768","system_id":"levelo_inurba_marseille","lat":43.328371,"lon":5.366909,"is_reserved":false,"is_disabled":false,"rental_uris":{"android":"levelo://app?vid=a7fb6a73-9ebf-4b56-938e-67995ffda768","ios":"levelo://app?vid=a7fb6a73-9ebf-4b56-938e-67995ffda768"},"vehicle_type_id":"4","last_reported":1684271162,"current_range_meters":22400,"station_id":"ce4bhs92rcd13ifvqi0g","pricing_plan_id":"free"},{"bike_id":"d5119be0-8632-4d2f-bfd2-57b878a1acc5","system_id":"levelo_inurba_marseille","lat":43.29722,"lon":5.36619,"is_reserved":false,"is_disabled":false,"rental_uris":{"android":"levelo://app?vid=d5119be0-8632-4d2f-bfd2-57b878a1acc5","ios":"levelo://app?vid=d5119be0-8632-4d2f-bfd2-57b878a1acc5"},"vehicle_type_id":"4","last_reported":1684271162,"current_range_meters":13200,"station_id":"","pricing_plan_id":"free"},{"bike_id":"91a55308-db54-41c4-b412-0f615c0be680","system_id":"levelo_inurba_marseille","lat":43.328371,"lon":5.366909,"is_reserved":false,"is_disabled":false,"rental_uris":{"android":"levelo://app?vid=91a55308-db54-41c4-b412-0f615c0be680","ios":"levelo://app?vid=91a55308-db54-41c4-b412-0f615c0be680"},"vehicle_type_id":"4","last_reported":1684271162,"current_range_meters":22000,"station_id":"ce4bhs92rcd13ifvqi0g","pricing_plan_id":"free"},{"bike_id":"fccfd339-db22-4277-bdd0-196f87e474ac","system_id":"levelo_inurba_marseille","lat":43.32827,"lon":5.36684,"is_reserved":false,"is_disabled":false,"rental_uris":{"android":"levelo://app?vid=fccfd339-db22-4277-bdd0-196f87e474ac","ios":"levelo://app?vid=fccfd339-db22-4277-bdd0-196f87e474ac"},"vehicle_type_id":"4","last_reported":1684271162,"current_range_meters":19600,"station_id":"ce4bhs92rcd13ifvqi0g","pricing_plan_id":"free"},{"bike_id":"63548345-b180-4d94-b6e0-92587dfa0490","system_id":"levelo_inurba_marseille","lat":43.32829,"lon":5.36676,"is_reserved":false,"is_disabled":false,"rental_uris":{"android":"levelo://app?vid=63548345-b180-4d94-b6e0-92587dfa0490","ios":"levelo://app?vid=63548345-b180-4d94-b6e0-92587dfa0490"},"vehicle_type_id":"4","last_reported":1684271162,"current_range_meters":15600,"station_id":"ce4bhs92rcd13ifvqi0g","pricing_plan_id":"free"},{"bike_id":"007905e1-2dbf-4a05-81e8-d677239bfaa7","system_id":"levelo_inurba_marseille","lat":43.3283,"lon":5.36685,"is_reserved":false,"is_disabled":false,"rental_uris":{"android":"levelo://app?vid=007905e1-2dbf-4a05-81e8-d677239bfaa7","ios":"levelo://app?vid=007905e1-2dbf-4a05-81e8-d677239bfaa7"},"vehicle_type_id":"4","last_reported":1684271162,"current_range_meters":11600,"station_id":"ce4bhs92rcd13ifvqi0g","pricing_plan_id":"free"},{"bike_id":"8719dbbe-15a6-4ba2-b191-7abeb89dd924","system_id":"levelo_inurba_marseille","lat":43.328371,"lon":5.366909,"is_reserved":false,"is_disabled":false,"rental_uris":{"android":"levelo://app?vid=8719dbbe-15a6-4ba2-b191-7abeb89dd924","ios":"levelo://app?vid=8719dbbe-15a6-4ba2-b191-7abeb89dd924"},"vehicle_type_id":"4","last_reported":1684271162,"current_range_meters":18400,"station_id":"ce4bhs92rcd13ifvqi0g","pricing_plan_id":"free"},{"bike_id":"47fe55c6-fb06-44d0-b8f0-f1689ae65490","system_id":"levelo_inurba_marseille","lat":43.32831,"lon":5.36687,"is_reserved":false,"is_disabled":false,"rental_uris":{"android":"levelo://app?vid=47fe55c6-fb06-44d0-b8f0-f1689ae65490","ios":"levelo://app?vid=47fe55c6-fb06-44d0-b8f0-f1689ae65490"},"vehicle_type_id":"4","last_reported":1684271162,"current_range_meters":400,"station_id":"ce4bhs92rcd13ifvqi0g","pricing_plan_id":"free"},{"bike_id":"b7a4e082-92e4-4de1-841b-169813c8b8b1","system_id":"levelo_inurba_marseille","lat":43.32832,"lon":5.36687,"is_reserved":false,"is_disabled":false,"rental_uris":{"android":"levelo://app?vid=b7a4e082-92e4-4de1-841b-169813c8b8b1","ios":"levelo://app?vid=b7a4e082-92e4-4de1-841b-169813c8b8b1"},"vehicle_type_id":"4","last_reported":1684271162,"current_range_meters":19600,"station_id":"ce4bhs92rcd13ifvqi0g","pricing_plan_id":"free"},{"bike_id":"4b2b17fa-2df8-4b46-a001-fd813fa5706e","system_id":"levelo_inurba_marseille","lat":43.29717,"lon":5.36607,"is_reserved":false,"is_disabled":false,"rental_uris":{"android":"levelo://app?vid=4b2b17fa-2df8-4b46-a001-fd813fa5706e","ios":"levelo://app?vid=4b2b17fa-2df8-4b46-a001-fd813fa5706e"},"vehicle_type_id":"4","last_reported":1684271162,"current_range_meters":5600,"station_id":"","pricing_plan_id":"free"},{"bike_id":"9bd21d6c-9aaf-4193-bb38-eb8af272920e","system_id":"levelo_inurba_marseille","lat":43.32833,"lon":5.36683,"is_reserved":false,"is_disabled":false,"rental_uris":{"android":"levelo://app?vid=9bd21d6c-9aaf-4193-bb38-eb8af272920e","ios":"levelo://app?vid=9bd21d6c-9aaf-4193-bb38-eb8af272920e"},"vehicle_type_id":"4","last_reported":1684271162,"current_range_meters":20400,"station_id":"ce4bhs92rcd13ifvqi0g","pricing_plan_id":"free"},{"bike_id":"71a7cd51-c98e-4b63-902f-c2f5a808a065","system_id":"levelo_inurba_marseille","lat":43.32835,"lon":5.36688,"is_reserved":false,"is_disabled":false,"rental_uris":{"android":"levelo://app?vid=71a7cd51-c98e-4b63-902f-c2f5a808a065","ios":"levelo://app?vid=71a7cd51-c98e-4b63-902f-c2f5a808a065"},"vehicle_type_id":"4","last_reported":1684271162,"current_range_meters":14800,"station_id":"ce4bhs92rcd13ifvqi0g","pricing_plan_id":"free"},{"bike_id":"d5812067-5c46-4f21-abd9-3bf16ec86ad8","system_id":"levelo_inurba_marseille","lat":43.2968,"lon":5.37291,"is_reserved":false,"is_disabled":false,"rental_uris":{"android":"levelo://app?vid=d5812067-5c46-4f21-abd9-3bf16ec86ad8","ios":"levelo://app?vid=d5812067-5c46-4f21-abd9-3bf16ec86ad8"},"vehicle_type_id":"4","last_reported":1684271162,"current_range_meters":22000,"station_id":"ce4bgk12rcd13ifvqbj0","pricing_plan_id":"free"},{"bike_id":"29164455-7aa7-4d7f-91e5-073147ecd12d","system_id":"levelo_inurba_marseille","lat":43.2968,"lon":5.37291,"is_reserved":false,"is_disabled":false,"rental_uris":{"android":"levelo://app?vid=29164455-7aa7-4d7f-91e5-073147ecd12d","ios":"levelo://app?vid=29164455-7aa7-4d7f-91e5-073147ecd12d"},"vehicle_type_id":"4","last_reported":1684271162,"current_range_meters":10400,"station_id":"ce4bgk12rcd13ifvqbj0","pricing_plan_id":"free"},{"bike_id":"7c43a327-14de-4e31-b46b-46444e1bf331","system_id":"levelo_inurba_marseille","lat":43.2968,"lon":5.37291,"is_reserved":false,"is_disabled":false,"rental_uris":{"android":"levelo://app?vid=7c43a327-14de-4e31-b46b-46444e1bf331","ios":"levelo://app?vid=7c43a327-14de-4e31-b46b-46444e1bf331"},"vehicle_type_id":"4","last_reported":1684271162,"current_range_meters":23200,"station_id":"ce4bgk12rcd13ifvqbj0","pricing_plan_id":"free"},{"bike_id":"d4b47667-338f-45b3-9fd6-cd4c50e7464b","system_id":"levelo_inurba_marseille","lat":43.296124,"lon":5.371538,"is_reserved":false,"is_disabled":false,"rental_uris":{"android":"levelo://app?vid=d4b47667-338f-45b3-9fd6-cd4c50e7464b","ios":"levelo://app?vid=d4b47667-338f-45b3-9fd6-cd4c50e7464b"},"vehicle_type_id":"4","last_reported":1684271162,"current_range_meters":4800,"station_id":"","pricing_plan_id":"free"},{"bike_id":"17a2e5bc-4bbe-496a-a139-dfd573d7da62","system_id":"levelo_inurba_marseille","lat":43.299028,"lon":5.381509,"is_reserved":false,"is_disabled":false,"rental_uris":{"android":"levelo://app?vid=17a2e5bc-4bbe-496a-a139-dfd573d7da62","ios":"levelo://app?vid=17a2e5bc-4bbe-496a-a139-dfd573d7da62"},"vehicle_type_id":"4","last_reported":1684271162,"current_range_meters":30000,"station_id":"ce4bgj12rcd13ifvqbc0","pricing_plan_id":"free"},{"bike_id":"3dd96bea-5aa9-483f-9f9c-7540e4482dc0","system_id":"levelo_inurba_marseille","lat":43.30956,"lon":5.39033,"is_reserved":false,"is_disabled":false,"rental_uris":{"android":"levelo://app?vid=3dd96bea-5aa9-483f-9f9c-7540e4482dc0","ios":"levelo://app?vid=3dd96bea-5aa9-483f-9f9c-7540e4482dc0"},"vehicle_type_id":"4","last_reported":1684271162,"current_range_meters":19200,"station_id":"ce4bgup2rcd13ifvqco0","pricing_plan_id":"free"},{"bike_id":"4d964d81-9163-484f-b324-17194ad50d14","system_id":"levelo_inurba_marseille","lat":43.317557,"lon":5.390173,"is_reserved":false,"is_disabled":false,"rental_uris":{"android":"levelo://app?vid=4d964d81-9163-484f-b324-17194ad50d14","ios":"levelo://app?vid=4d964d81-9163-484f-b324-17194ad50d14"},"vehicle_type_id":"4","last_reported":1684271162,"current_range_meters":14000,"station_id":"ce4bhqp2rcd13ifvqhng","pricing_plan_id":"free"},{"bike_id":"be1d4fb5-27a9-440a-a478-4467bb1321e9","system_id":"levelo_inurba_marseille","lat":43.31753,"lon":5.39023,"is_reserved":false,"is_disabled":false,"rental_uris":{"android":"levelo://app?vid=be1d4fb5-27a9-440a-a478-4467bb1321e9","ios":"levelo://app?vid=be1d4fb5-27a9-440a-a478-4467bb1321e9"},"vehicle_type_id":"4","last_reported":1684271162,"current_range_meters":22400,"station_id":"ce4bhqp2rcd13ifvqhng","pricing_plan_id":"free"},{"bike_id":"4667a10f-2b36-47be-a6fe-8c6febeec11a","system_id":"levelo_inurba_marseille","lat":43.298063,"lon":5.380884,"is_reserved":false,"is_disabled":false,"rental_uris":{"android":"levelo://app?vid=4667a10f-2b36-47be-a6fe-8c6febeec11a","ios":"levelo://app?vid=4667a10f-2b36-47be-a6fe-8c6febeec11a"},"vehicle_type_id":"4","last_reported":1684271162,"current_range_meters":20800,"station_id":"","pricing_plan_id":"free"},{"bike_id":"05fbf265-a889-4c3b-986a-95bb4e6a3c37","system_id":"levelo_inurba_marseille","lat":43.295748,"lon":5.37522,"is_reserved":false,"is_disabled":false,"rental_uris":{"android":"levelo://app?vid=05fbf265-a889-4c3b-986a-95bb4e6a3c37","ios":"levelo://app?vid=05fbf265-a889-4c3b-986a-95bb4e6a3c37"},"vehicle_type_id":"4","last_reported":1684271162,"current_range_meters":14000,"station_id":"ce4bgh92rcd13ifvqb50","pricing_plan_id":"free"},{"bike_id":"3014c0dd-4c72-4927-99f0-70ea8f9c9c7d","system_id":"levelo_inurba_marseille","lat":43.304274,"lon":5.388873,"is_reserved":false,"is_disabled":false,"rental_uris":{"android":"levelo://app?vid=3014c0dd-4c72-4927-99f0-70ea8f9c9c7d","ios":"levelo://app?vid=3014c0dd-4c72-4927-99f0-70ea8f9c9c7d"},"vehicle_type_id":"4","last_reported":1684271162,"current_range_meters":800,"station_id":"ce4bgk12rcd13ifvqbi0","pricing_plan_id":"free"},{"bike_id":"23726ec7-e53c-4f9e-8b8e-07dc3003b369","system_id":"levelo_inurba_marseille","lat":43.29569,"lon":5.37513,"is_reserved":false,"is_disabled":false,"rental_uris":{"android":"levelo://app?vid=23726ec7-e53c-4f9e-8b8e-07dc3003b369","ios":"levelo://app?vid=23726ec7-e53c-4f9e-8b8e-07dc3003b369"},"vehicle_type_id":"4","last_reported":1684271162,"current_range_meters":3200,"station_id":"ce4bgh92rcd13ifvqb50","pricing_plan_id":"free"},{"bike_id":"1524275a-2d8d-484b-8a99-308fa9cdeaf5","system_id":"levelo_inurba_marseille","lat":43.304274,"lon":5.388873,"is_reserved":false,"is_disabled":false,"rental_uris":{"android":"levelo://app?vid=1524275a-2d8d-484b-8a99-308fa9cdeaf5","ios":"levelo://app?vid=1524275a-2d8d-484b-8a99-308fa9cdeaf5"},"vehicle_type_id":"4","last_reported":1684271162,"current_range_meters":24800,"station_id":"ce4bgk12rcd13ifvqbi0","pricing_plan_id":"free"},{"bike_id":"08a215a7-4b64-4c77-9c58-4f6c5f8e1a23","system_id":"levelo_inurba_marseille","lat":43.30423,"lon":5.38891,"is_reserved":false,"is_disabled":false,"rental_uris":{"android":"levelo://app?vid=08a215a7-4b64-4c77-9c58-4f6c5f8e1a23","ios":"levelo://app?vid=08a215a7-4b64-4c77-9c58-4f6c5f8e1a23"},"vehicle_type_id":"4","last_reported":1684271162,"current_range_meters":400,"station_id":"ce4bgk12rcd13ifvqbi0","pricing_plan_id":"free"},{"bike_id":"0de4d238-6216-4cc7-b248-16fd1f75fae2","system_id":"levelo_inurba_marseille","lat":43.299707,"lon":5.384859,"is_reserved":false,"is_disabled":false,"rental_uris":{"android":"levelo://app?vid=0de4d238-6216-4cc7-b248-16fd1f75fae2","ios":"levelo://app?vid=0de4d238-6216-4cc7-b248-16fd1f75fae2"},"vehicle_type_id":"4","last_reported":1684271162,"current_range_meters":8400,"station_id":"ce4bgj92rcd13ifvqbd0","pricing_plan_id":"free"},{"bike_id":"a1798d07-5a70-4f7a-b3f5-9dc80db49bee","system_id":"levelo_inurba_marseille","lat":43.299724,"lon":5.384848,"is_reserved":false,"is_disabled":false,"rental_uris":{"android":"levelo://app?vid=a1798d07-5a70-4f7a-b3f5-9dc80db49bee","ios":"levelo://app?vid=a1798d07-5a70-4f7a-b3f5-9dc80db49bee"},"vehicle_type_id":"4","last_reported":1684271162,"current_range_meters":21600,"station_id":"ce4bgj92rcd13ifvqbd0","pricing_plan_id":"free"},{"bike_id":"1e6932a1-e66d-487b-9cd7-03bebc555f1a","system_id":"levelo_inurba_marseille","lat":43.32364,"lon":5.38877,"is_reserved":false,"is_disabled":false,"rental_uris":{"android":"levelo://app?vid=1e6932a1-e66d-487b-9cd7-03bebc555f1a","ios":"levelo://app?vid=1e6932a1-e66d-487b-9cd7-03bebc555f1a"},"vehicle_type_id":"4","last_reported":1684271162,"current_range_meters":26400,"station_id":"","pricing_plan_id":"free"},{"bike_id":"f61f3dc2-7c2d-472b-aabd-5e2caf08ffa6","system_id":"levelo_inurba_marseille","lat":43.32367,"lon":5.38877,"is_reserved":false,"is_disabled":false,"rental_uris":{"android":"levelo://app?vid=f61f3dc2-7c2d-472b-aabd-5e2caf08ffa6","ios":"levelo://app?vid=f61f3dc2-7c2d-472b-aabd-5e2caf08ffa6"},"vehicle_type_id":"4","last_reported":1684271162,"current_range_meters":28800,"station_id":"","pricing_plan_id":"free"},{"bike_id":"b216b1cb-9e0f-4962-9ab4-392a32ee28b7","system_id":"levelo_inurba_marseille","lat":43.32363,"lon":5.38881,"is_reserved":false,"is_disabled":false,"rental_uris":{"android":"levelo://app?vid=b216b1cb-9e0f-4962-9ab4-392a32ee28b7","ios":"levelo://app?vid=b216b1cb-9e0f-4962-9ab4-392a32ee28b7"},"vehicle_type_id":"4","last_reported":1684271162,"current_range_meters":14000,"station_id":"","pricing_plan_id":"free"},{"bike_id":"b479a370-b874-457c-b6c1-157697c27e3b","system_id":"levelo_inurba_marseille","lat":43.32363,"lon":5.38881,"is_reserved":false,"is_disabled":false,"rental_uris":{"android":"levelo://app?vid=b479a370-b874-457c-b6c1-157697c27e3b","ios":"levelo://app?vid=b479a370-b874-457c-b6c1-157697c27e3b"},"vehicle_type_id":"4","last_reported":1684271162,"current_range_meters":19200,"station_id":"","pricing_plan_id":"free"},{"bike_id":"92247963-69d3-47d4-a7ed-1573307992da","system_id":"levelo_inurba_marseille","lat":43.32364,"lon":5.38883,"is_reserved":false,"is_disabled":false,"rental_uris":{"android":"levelo://app?vid=92247963-69d3-47d4-a7ed-1573307992da","ios":"levelo://app?vid=92247963-69d3-47d4-a7ed-1573307992da"},"vehicle_type_id":"4","last_reported":1684271162,"current_range_meters":27600,"station_id":"","pricing_plan_id":"free"},{"bike_id":"89ac19bd-324e-4fec-aaec-38f56a92ebd4","system_id":"levelo_inurba_marseille","lat":43.32367,"lon":5.38883,"is_reserved":false,"is_disabled":false,"rental_uris":{"android":"levelo://app?vid=89ac19bd-324e-4fec-aaec-38f56a92ebd4","ios":"levelo://app?vid=89ac19bd-324e-4fec-aaec-38f56a92ebd4"},"vehicle_type_id":"4","last_reported":1684271162,"current_range_meters":18400,"station_id":"","pricing_plan_id":"free"},{"bike_id":"9f93f2ed-0a03-4299-8e4a-af4fb439f8e3","system_id":"levelo_inurba_marseille","lat":43.32367,"lon":5.38884,"is_reserved":false,"is_disabled":false,"rental_uris":{"android":"levelo://app?vid=9f93f2ed-0a03-4299-8e4a-af4fb439f8e3","ios":"levelo://app?vid=9f93f2ed-0a03-4299-8e4a-af4fb439f8e3"},"vehicle_type_id":"4","last_reported":1684271162,"current_range_meters":12800,"station_id":"","pricing_plan_id":"free"},{"bike_id":"a8ffe53b-e215-41d0-bc77-cb85f09f6350","system_id":"levelo_inurba_marseille","lat":43.32363,"lon":5.38888,"is_reserved":false,"is_disabled":false,"rental_uris":{"android":"levelo://app?vid=a8ffe53b-e215-41d0-bc77-cb85f09f6350","ios":"levelo://app?vid=a8ffe53b-e215-41d0-bc77-cb85f09f6350"},"vehicle_type_id":"4","last_reported":1684271162,"current_range_meters":2800,"station_id":"","pricing_plan_id":"free"},{"bike_id":"e028e3e0-97f1-42df-b9b7-9d103a2b183d","system_id":"levelo_inurba_marseille","lat":43.32366,"lon":5.38887,"is_reserved":false,"is_disabled":false,"rental_uris":{"android":"levelo://app?vid=e028e3e0-97f1-42df-b9b7-9d103a2b183d","ios":"levelo://app?vid=e028e3e0-97f1-42df-b9b7-9d103a2b183d"},"vehicle_type_id":"4","last_reported":1684271162,"current_range_meters":22800,"station_id":"","pricing_plan_id":"free"},{"bike_id":"72bc1f58-74ea-4c5a-9e9b-71dca2c4e33d","system_id":"levelo_inurba_marseille","lat":43.3237,"lon":5.38892,"is_reserved":false,"is_disabled":false,"rental_uris":{"android":"levelo://app?vid=72bc1f58-74ea-4c5a-9e9b-71dca2c4e33d","ios":"levelo://app?vid=72bc1f58-74ea-4c5a-9e9b-71dca2c4e33d"},"vehicle_type_id":"4","last_reported":1684271162,"current_range_meters":10800,"station_id":"","pricing_plan_id":"free"},{"bike_id":"428fa209-34f8-4e13-b52b-581371ee1ce2","system_id":"levelo_inurba_marseille","lat":43.32375,"lon":5.38888,"is_reserved":false,"is_disabled":false,"rental_uris":{"android":"levelo://app?vid=428fa209-34f8-4e13-b52b-581371ee1ce2","ios":"levelo://app?vid=428fa209-34f8-4e13-b52b-581371ee1ce2"},"vehicle_type_id":"4","last_reported":1684271162,"current_range_meters":31200,"station_id":"","pricing_plan_id":"free"},{"bike_id":"d5967a3d-babf-4fdf-8be4-704dea51e511","system_id":"levelo_inurba_marseille","lat":43.29595,"lon":5.38097,"is_reserved":false,"is_disabled":false,"rental_uris":{"android":"levelo://app?vid=d5967a3d-babf-4fdf-8be4-704dea51e511","ios":"levelo://app?vid=d5967a3d-babf-4fdf-8be4-704dea51e511"},"vehicle_type_id":"4","last_reported":1684271162,"current_range_meters":7600,"station_id":"ce4bgl12rcd13ifvqbo0","pricing_plan_id":"free"},{"bike_id":"9eb61dbc-9a97-41b8-a491-18c1deaeeff5","system_id":"levelo_inurba_marseille","lat":43.305994,"lon":5.393687,"is_reserved":false,"is_disabled":false,"rental_uris":{"android":"levelo://app?vid=9eb61dbc-9a97-41b8-a491-18c1deaeeff5","ios":"levelo://app?vid=9eb61dbc-9a97-41b8-a491-18c1deaeeff5"},"vehicle_type_id":"4","last_reported":1684271162,"current_range_meters":7600,"station_id":"ce4bh0p2rcd13ifvqd80","pricing_plan_id":"free"},{"bike_id":"165c784b-c4e5-42f2-8be8-2b9ccb1bfc33","system_id":"levelo_inurba_marseille","lat":43.305994,"lon":5.393687,"is_reserved":false,"is_disabled":false,"rental_uris":{"android":"levelo://app?vid=165c784b-c4e5-42f2-8be8-2b9ccb1bfc33","ios":"levelo://app?vid=165c784b-c4e5-42f2-8be8-2b9ccb1bfc33"},"vehicle_type_id":"4","last_reported":1684271162,"current_range_meters":400,"station_id":"ce4bh0p2rcd13ifvqd80","pricing_plan_id":"free"},{"bike_id":"c73f88d4-c763-4533-8e76-5a8264a61919","system_id":"levelo_inurba_marseille","lat":43.30589,"lon":5.39355,"is_reserved":false,"is_disabled":false,"rental_uris":{"android":"levelo://app?vid=c73f88d4-c763-4533-8e76-5a8264a61919","ios":"levelo://app?vid=c73f88d4-c763-4533-8e76-5a8264a61919"},"vehicle_type_id":"4","last_reported":1684271162,"current_range_meters":22400,"station_id":"ce4bh0p2rcd13ifvqd80","pricing_plan_id":"free"},{"bike_id":"1d0ce087-33e9-4404-a728-38251ff22901","system_id":"levelo_inurba_marseille","lat":43.303002,"lon":5.392142,"is_reserved":false,"is_disabled":false,"rental_uris":{"android":"levelo://app?vid=1d0ce087-33e9-4404-a728-38251ff22901","ios":"levelo://app?vid=1d0ce087-33e9-4404-a728-38251ff22901"},"vehicle_type_id":"4","last_reported":1684271162,"current_range_meters":27200,"station_id":"ce4bgkh2rcd13ifvqbk0","pricing_plan_id":"free"},{"bike_id":"9f2c6ada-dd82-4201-a1ac-aa6f42983147","system_id":"levelo_inurba_marseille","lat":43.300852,"lon":5.390859,"is_reserved":false,"is_disabled":false,"rental_uris":{"android":"levelo://app?vid=9f2c6ada-dd82-4201-a1ac-aa6f42983147","ios":"levelo://app?vid=9f2c6ada-dd82-4201-a1ac-aa6f42983147"},"vehicle_type_id":"4","last_reported":1684271162,"current_range_meters":10400,"station_id":"ce4bh192rcd13ifvqdb0","pricing_plan_id":"free"},{"bike_id":"bc43f24d-e2cf-425e-985a-c794f2e4f358","system_id":"levelo_inurba_marseille","lat":43.29225,"lon":5.36049,"is_reserved":false,"is_disabled":false,"rental_uris":{"android":"levelo://app?vid=bc43f24d-e2cf-425e-985a-c794f2e4f358","ios":"levelo://app?vid=bc43f24d-e2cf-425e-985a-c794f2e4f358"},"vehicle_type_id":"4","last_reported":1684271162,"current_range_meters":18400,"station_id":"","pricing_plan_id":"free"},{"bike_id":"360cd899-704d-4f5e-a983-d2ceed61f3d5","system_id":"levelo_inurba_marseille","lat":43.29222,"lon":5.36045,"is_reserved":false,"is_disabled":false,"rental_uris":{"android":"levelo://app?vid=360cd899-704d-4f5e-a983-d2ceed61f3d5","ios":"levelo://app?vid=360cd899-704d-4f5e-a983-d2ceed61f3d5"},"vehicle_type_id":"4","last_reported":1684271162,"current_range_meters":6800,"station_id":"","pricing_plan_id":"free"},{"bike_id":"2990496d-da48-40af-9d21-5d99e8aa12b3","system_id":"levelo_inurba_marseille","lat":43.291671,"lon":5.371575,"is_reserved":false,"is_disabled":false,"rental_uris":{"android":"levelo://app?vid=2990496d-da48-40af-9d21-5d99e8aa12b3","ios":"levelo://app?vid=2990496d-da48-40af-9d21-5d99e8aa12b3"},"vehicle_type_id":"4","last_reported":1684271162,"current_range_meters":8000,"station_id":"ce4bha92rcd13ifvqeh0","pricing_plan_id":"free"},{"bike_id":"54c8719c-dd77-4629-9b29-68e376debb84","system_id":"levelo_inurba_marseille","lat":43.309038,"lon":5.396546,"is_reserved":false,"is_disabled":false,"rental_uris":{"android":"levelo://app?vid=54c8719c-dd77-4629-9b29-68e376debb84","ios":"levelo://app?vid=54c8719c-dd77-4629-9b29-68e376debb84"},"vehicle_type_id":"4","last_reported":1684271162,"current_range_meters":27600,"station_id":"ce4bh012rcd13ifvqcv0","pricing_plan_id":"free"},{"bike_id":"99c1093e-6531-4e77-8c8b-8587eff45c91","system_id":"levelo_inurba_marseille","lat":43.291994,"lon":5.357886,"is_reserved":false,"is_disabled":false,"rental_uris":{"android":"levelo://app?vid=99c1093e-6531-4e77-8c8b-8587eff45c91","ios":"levelo://app?vid=99c1093e-6531-4e77-8c8b-8587eff45c91"},"vehicle_type_id":"4","last_reported":1684271162,"current_range_meters":4400,"station_id":"ce4bhb12rcd13ifvqel0","pricing_plan_id":"free"},{"bike_id":"10e1707a-40f5-43bf-b004-80894108fdf1","system_id":"levelo_inurba_marseille","lat":43.309038,"lon":5.396546,"is_reserved":false,"is_disabled":false,"rental_uris":{"android":"levelo://app?vid=10e1707a-40f5-43bf-b004-80894108fdf1","ios":"levelo://app?vid=10e1707a-40f5-43bf-b004-80894108fdf1"},"vehicle_type_id":"4","last_reported":1684271162,"current_range_meters":16400,"station_id":"ce4bh012rcd13ifvqcv0","pricing_plan_id":"free"},{"bike_id":"be548e39-4b91-412b-b675-849bf6394ee8","system_id":"levelo_inurba_marseille","lat":43.30885,"lon":5.39639,"is_reserved":false,"is_disabled":false,"rental_uris":{"android":"levelo://app?vid=be548e39-4b91-412b-b675-849bf6394ee8","ios":"levelo://app?vid=be548e39-4b91-412b-b675-849bf6394ee8"},"vehicle_type_id":"4","last_reported":1684271162,"current_range_meters":4400,"station_id":"ce4bh012rcd13ifvqcv0","pricing_plan_id":"free"},{"bike_id":"ba688e44-f3e9-46ee-8aad-46c4ac96e416","system_id":"levelo_inurba_marseille","lat":43.313279,"lon":5.396875,"is_reserved":false,"is_disabled":false,"rental_uris":{"android":"levelo://app?vid=ba688e44-f3e9-46ee-8aad-46c4ac96e416","ios":"levelo://app?vid=ba688e44-f3e9-46ee-8aad-46c4ac96e416"},"vehicle_type_id":"4","last_reported":1684271162,"current_range_meters":21200,"station_id":"ce4bgvp2rcd13ifvqcu0","pricing_plan_id":"free"},{"bike_id":"72ef4750-5105-4fdf-b44d-4500ed12ed7c","system_id":"levelo_inurba_marseille","lat":43.313274,"lon":5.396876,"is_reserved":false,"is_disabled":false,"rental_uris":{"android":"levelo://app?vid=72ef4750-5105-4fdf-b44d-4500ed12ed7c","ios":"levelo://app?vid=72ef4750-5105-4fdf-b44d-4500ed12ed7c"},"vehicle_type_id":"4","last_reported":1684271162,"current_range_meters":31200,"station_id":"ce4bgvp2rcd13ifvqcu0","pricing_plan_id":"free"},{"bike_id":"19726583-8fa5-453a-b1dc-aead3cf5088c","system_id":"levelo_inurba_marseille","lat":43.31326,"lon":5.39692,"is_reserved":false,"is_disabled":false,"rental_uris":{"android":"levelo://app?vid=19726583-8fa5-453a-b1dc-aead3cf5088c","ios":"levelo://app?vid=19726583-8fa5-453a-b1dc-aead3cf5088c"},"vehicle_type_id":"4","last_reported":1684271162,"current_range_meters":14000,"station_id":"ce4bgvp2rcd13ifvqcu0","pricing_plan_id":"free"},{"bike_id":"e4d39a56-9242-4ff4-b0b4-dfa213879ed6","system_id":"levelo_inurba_marseille","lat":43.30887,"lon":5.39646,"is_reserved":false,"is_disabled":false,"rental_uris":{"android":"levelo://app?vid=e4d39a56-9242-4ff4-b0b4-dfa213879ed6","ios":"levelo://app?vid=e4d39a56-9242-4ff4-b0b4-dfa213879ed6"},"vehicle_type_id":"4","last_reported":1684271162,"current_range_meters":24400,"station_id":"ce4bh012rcd13ifvqcv0","pricing_plan_id":"free"},{"bike_id":"c626ad5f-1dae-4cc4-89cd-6045de38dbb0","system_id":"levelo_inurba_marseille","lat":43.3133,"lon":5.39694,"is_reserved":false,"is_disabled":false,"rental_uris":{"android":"levelo://app?vid=c626ad5f-1dae-4cc4-89cd-6045de38dbb0","ios":"levelo://app?vid=c626ad5f-1dae-4cc4-89cd-6045de38dbb0"},"vehicle_type_id":"4","last_reported":1684271162,"current_range_meters":0,"station_id":"ce4bgvp2rcd13ifvqcu0","pricing_plan_id":"free"},{"bike_id":"d6059853-a340-4d1a-b9ca-f09c71d716c9","system_id":"levelo_inurba_marseille","lat":43.31326,"lon":5.39697,"is_reserved":false,"is_disabled":false,"rental_uris":{"android":"levelo://app?vid=d6059853-a340-4d1a-b9ca-f09c71d716c9","ios":"levelo://app?vid=d6059853-a340-4d1a-b9ca-f09c71d716c9"},"vehicle_type_id":"4","last_reported":1684271162,"current_range_meters":25200,"station_id":"ce4bgvp2rcd13ifvqcu0","pricing_plan_id":"free"},{"bike_id":"776c1f2d-b89e-4286-9be3-1bbf785a967b","system_id":"levelo_inurba_marseille","lat":43.3088,"lon":5.39655,"is_reserved":false,"is_disabled":false,"rental_uris":{"android":"levelo://app?vid=776c1f2d-b89e-4286-9be3-1bbf785a967b","ios":"levelo://app?vid=776c1f2d-b89e-4286-9be3-1bbf785a967b"},"vehicle_type_id":"4","last_reported":1684271162,"current_range_meters":18400,"station_id":"","pricing_plan_id":"free"},{"bike_id":"2bbe2190-aac4-47d6-89eb-40f28da061ea","system_id":"levelo_inurba_marseille","lat":43.30885,"lon":5.39657,"is_reserved":false,"is_disabled":false,"rental_uris":{"android":"levelo://app?vid=2bbe2190-aac4-47d6-89eb-40f28da061ea","ios":"levelo://app?vid=2bbe2190-aac4-47d6-89eb-40f28da061ea"},"vehicle_type_id":"4","last_reported":1684271162,"current_range_meters":7600,"station_id":"ce4bh012rcd13ifvqcv0","pricing_plan_id":"free"},{"bike_id":"3f91b39a-f75b-430c-b332-8c74b55ea95b","system_id":"levelo_inurba_marseille","lat":43.31326,"lon":5.39706,"is_reserved":false,"is_disabled":false,"rental_uris":{"android":"levelo://app?vid=3f91b39a-f75b-430c-b332-8c74b55ea95b","ios":"levelo://app?vid=3f91b39a-f75b-430c-b332-8c74b55ea95b"},"vehicle_type_id":"4","last_reported":1684271162,"current_range_meters":30400,"station_id":"ce4bgvp2rcd13ifvqcu0","pricing_plan_id":"free"},{"bike_id":"70b1057e-6d35-4728-9226-5fe6a2d0e25a","system_id":"levelo_inurba_marseille","lat":43.30871,"lon":5.39657,"is_reserved":false,"is_disabled":false,"rental_uris":{"android":"levelo://app?vid=70b1057e-6d35-4728-9226-5fe6a2d0e25a","ios":"levelo://app?vid=70b1057e-6d35-4728-9226-5fe6a2d0e25a"},"vehicle_type_id":"4","last_reported":1684271162,"current_range_meters":0,"station_id":"","pricing_plan_id":"free"},{"bike_id":"483b105a-f22a-4845-870b-4ab39c9de19a","system_id":"levelo_inurba_marseille","lat":43.30883,"lon":5.39661,"is_reserved":false,"is_disabled":false,"rental_uris":{"android":"levelo://app?vid=483b105a-f22a-4845-870b-4ab39c9de19a","ios":"levelo://app?vid=483b105a-f22a-4845-870b-4ab39c9de19a"},"vehicle_type_id":"4","last_reported":1684271162,"current_range_meters":2400,"station_id":"","pricing_plan_id":"free"},{"bike_id":"da41eb90-3202-4e6b-8744-1e805cb29626","system_id":"levelo_inurba_marseille","lat":43.30888,"lon":5.39667,"is_reserved":false,"is_disabled":false,"rental_uris":{"android":"levelo://app?vid=da41eb90-3202-4e6b-8744-1e805cb29626","ios":"levelo://app?vid=da41eb90-3202-4e6b-8744-1e805cb29626"},"vehicle_type_id":"4","last_reported":1684271162,"current_range_meters":15200,"station_id":"ce4bh012rcd13ifvqcv0","pricing_plan_id":"free"},{"bike_id":"8d1a806a-fbc2-4caa-b869-5c26c748eab0","system_id":"levelo_inurba_marseille","lat":43.29529,"lon":5.385581,"is_reserved":false,"is_disabled":false,"rental_uris":{"android":"levelo://app?vid=8d1a806a-fbc2-4caa-b869-5c26c748eab0","ios":"levelo://app?vid=8d1a806a-fbc2-4caa-b869-5c26c748eab0"},"vehicle_type_id":"4","last_reported":1684271162,"current_range_meters":26400,"station_id":"ce4bgih2rcd13ifvqba0","pricing_plan_id":"free"},{"bike_id":"64097d23-3774-40bc-97ac-75e4e0229ed7","system_id":"levelo_inurba_marseille","lat":43.29529,"lon":5.385581,"is_reserved":false,"is_disabled":false,"rental_uris":{"android":"levelo://app?vid=64097d23-3774-40bc-97ac-75e4e0229ed7","ios":"levelo://app?vid=64097d23-3774-40bc-97ac-75e4e0229ed7"},"vehicle_type_id":"4","last_reported":1684271162,"current_range_meters":25600,"station_id":"ce4bgih2rcd13ifvqba0","pricing_plan_id":"free"},{"bike_id":"11a8c627-9b61-4c3a-918c-73bc984e7e0b","system_id":"levelo_inurba_marseille","lat":43.29529,"lon":5.385581,"is_reserved":false,"is_disabled":false,"rental_uris":{"android":"levelo://app?vid=11a8c627-9b61-4c3a-918c-73bc984e7e0b","ios":"levelo://app?vid=11a8c627-9b61-4c3a-918c-73bc984e7e0b"},"vehicle_type_id":"4","last_reported":1684271162,"current_range_meters":1200,"station_id":"ce4bgih2rcd13ifvqba0","pricing_plan_id":"free"},{"bike_id":"f304b638-1ba9-4492-b990-8c90d61fd16d","system_id":"levelo_inurba_marseille","lat":43.302008,"lon":5.394694,"is_reserved":false,"is_disabled":false,"rental_uris":{"android":"levelo://app?vid=f304b638-1ba9-4492-b990-8c90d61fd16d","ios":"levelo://app?vid=f304b638-1ba9-4492-b990-8c90d61fd16d"},"vehicle_type_id":"4","last_reported":1684271162,"current_range_meters":18400,"station_id":"ce4bh0p2rcd13ifvqd70","pricing_plan_id":"free"},{"bike_id":"17b209e0-52cb-4e73-9491-967679d3dfcc","system_id":"levelo_inurba_marseille","lat":43.29048,"lon":5.35919,"is_reserved":false,"is_disabled":false,"rental_uris":{"android":"levelo://app?vid=17b209e0-52cb-4e73-9491-967679d3dfcc","ios":"levelo://app?vid=17b209e0-52cb-4e73-9491-967679d3dfcc"},"vehicle_type_id":"4","last_reported":1684271162,"current_range_meters":27600,"station_id":"ce4bha92rcd13ifvqeg0","pricing_plan_id":"free"},{"bike_id":"41c2e612-ff44-433a-964f-7ee1f3de2920","system_id":"levelo_inurba_marseille","lat":43.29048,"lon":5.35911,"is_reserved":false,"is_disabled":false,"rental_uris":{"android":"levelo://app?vid=41c2e612-ff44-433a-964f-7ee1f3de2920","ios":"levelo://app?vid=41c2e612-ff44-433a-964f-7ee1f3de2920"},"vehicle_type_id":"4","last_reported":1684271162,"current_range_meters":12800,"station_id":"ce4bha92rcd13ifvqeg0","pricing_plan_id":"free"},{"bike_id":"ef78c918-0d7e-4b87-b3aa-0e1129f96cc6","system_id":"levelo_inurba_marseille","lat":43.29046,"lon":5.35919,"is_reserved":false,"is_disabled":false,"rental_uris":{"android":"levelo://app?vid=ef78c918-0d7e-4b87-b3aa-0e1129f96cc6","ios":"levelo://app?vid=ef78c918-0d7e-4b87-b3aa-0e1129f96cc6"},"vehicle_type_id":"4","last_reported":1684271162,"current_range_meters":25600,"station_id":"ce4bha92rcd13ifvqeg0","pricing_plan_id":"free"},{"bike_id":"1eb8114b-e14f-4510-8186-45d534d8c1c3","system_id":"levelo_inurba_marseille","lat":43.290631,"lon":5.359244,"is_reserved":false,"is_disabled":false,"rental_uris":{"android":"levelo://app?vid=1eb8114b-e14f-4510-8186-45d534d8c1c3","ios":"levelo://app?vid=1eb8114b-e14f-4510-8186-45d534d8c1c3"},"vehicle_type_id":"4","last_reported":1684271162,"current_range_meters":30800,"station_id":"ce4bha92rcd13ifvqeg0","pricing_plan_id":"free"},{"bike_id":"053c2602-20a9-4b4b-a422-983af31ef8d2","system_id":"levelo_inurba_marseille","lat":43.290631,"lon":5.359244,"is_reserved":false,"is_disabled":false,"rental_uris":{"android":"levelo://app?vid=053c2602-20a9-4b4b-a422-983af31ef8d2","ios":"levelo://app?vid=053c2602-20a9-4b4b-a422-983af31ef8d2"},"vehicle_type_id":"4","last_reported":1684271162,"current_range_meters":19600,"station_id":"ce4bha92rcd13ifvqeg0","pricing_plan_id":"free"},{"bike_id":"b8e2de4f-68a7-4651-99a8-46318678fd79","system_id":"levelo_inurba_marseille","lat":43.290631,"lon":5.359244,"is_reserved":false,"is_disabled":false,"rental_uris":{"android":"levelo://app?vid=b8e2de4f-68a7-4651-99a8-46318678fd79","ios":"levelo://app?vid=b8e2de4f-68a7-4651-99a8-46318678fd79"},"vehicle_type_id":"4","last_reported":1684271162,"current_range_meters":27600,"station_id":"ce4bha92rcd13ifvqeg0","pricing_plan_id":"free"},{"bike_id":"01c32ff4-3970-48f0-9be5-320e6e10b351","system_id":"levelo_inurba_marseille","lat":43.290631,"lon":5.359244,"is_reserved":false,"is_disabled":false,"rental_uris":{"android":"levelo://app?vid=01c32ff4-3970-48f0-9be5-320e6e10b351","ios":"levelo://app?vid=01c32ff4-3970-48f0-9be5-320e6e10b351"},"vehicle_type_id":"4","last_reported":1684271162,"current_range_meters":30000,"station_id":"ce4bha92rcd13ifvqeg0","pricing_plan_id":"free"},{"bike_id":"1c2c28f0-6296-4aba-b385-25880e22790f","system_id":"levelo_inurba_marseille","lat":43.290631,"lon":5.359244,"is_reserved":false,"is_disabled":false,"rental_uris":{"android":"levelo://app?vid=1c2c28f0-6296-4aba-b385-25880e22790f","ios":"levelo://app?vid=1c2c28f0-6296-4aba-b385-25880e22790f"},"vehicle_type_id":"4","last_reported":1684271162,"current_range_meters":24800,"station_id":"ce4bha92rcd13ifvqeg0","pricing_plan_id":"free"},{"bike_id":"3038b1d3-1af0-4386-95a5-164c5c32105c","system_id":"levelo_inurba_marseille","lat":43.290631,"lon":5.359244,"is_reserved":false,"is_disabled":false,"rental_uris":{"android":"levelo://app?vid=3038b1d3-1af0-4386-95a5-164c5c32105c","ios":"levelo://app?vid=3038b1d3-1af0-4386-95a5-164c5c32105c"},"vehicle_type_id":"4","last_reported":1684271162,"current_range_meters":31600,"station_id":"ce4bha92rcd13ifvqeg0","pricing_plan_id":"free"},{"bike_id":"522af90e-3e0d-4d71-8b6b-be352fde87b7","system_id":"levelo_inurba_marseille","lat":43.29028,"lon":5.35926,"is_reserved":false,"is_disabled":false,"rental_uris":{"android":"levelo://app?vid=522af90e-3e0d-4d71-8b6b-be352fde87b7","ios":"levelo://app?vid=522af90e-3e0d-4d71-8b6b-be352fde87b7"},"vehicle_type_id":"4","last_reported":1684271162,"current_range_meters":6000,"station_id":"","pricing_plan_id":"free"},{"bike_id":"8e69828c-cf40-4657-95ab-19be364ec387","system_id":"levelo_inurba_marseille","lat":43.29419,"lon":5.38624,"is_reserved":false,"is_disabled":false,"rental_uris":{"android":"levelo://app?vid=8e69828c-cf40-4657-95ab-19be364ec387","ios":"levelo://app?vid=8e69828c-cf40-4657-95ab-19be364ec387"},"vehicle_type_id":"4","last_reported":1684271162,"current_range_meters":10800,"station_id":"ce4bh2h2rcd13ifvqdh0","pricing_plan_id":"free"},{"bike_id":"99d2267d-b991-4b9a-8b15-b55a37f12830","system_id":"levelo_inurba_marseille","lat":43.28946,"lon":5.36638,"is_reserved":false,"is_disabled":false,"rental_uris":{"android":"levelo://app?vid=99d2267d-b991-4b9a-8b15-b55a37f12830","ios":"levelo://app?vid=99d2267d-b991-4b9a-8b15-b55a37f12830"},"vehicle_type_id":"4","last_reported":1684271162,"current_range_meters":25200,"station_id":"","pricing_plan_id":"free"},{"bike_id":"e3f2a2d7-2b5e-4bcb-9776-b6632f3215a5","system_id":"levelo_inurba_marseille","lat":43.290319,"lon":5.375732,"is_reserved":false,"is_disabled":false,"rental_uris":{"android":"levelo://app?vid=e3f2a2d7-2b5e-4bcb-9776-b6632f3215a5","ios":"levelo://app?vid=e3f2a2d7-2b5e-4bcb-9776-b6632f3215a5"},"vehicle_type_id":"4","last_reported":1684271162,"current_range_meters":6000,"station_id":"ce4bh692rcd13ifvqe90","pricing_plan_id":"free"},{"bike_id":"e7eb43d9-bb86-4ae4-8796-dab3a62329c8","system_id":"levelo_inurba_marseille","lat":43.28942,"lon":5.36631,"is_reserved":false,"is_disabled":false,"rental_uris":{"android":"levelo://app?vid=e7eb43d9-bb86-4ae4-8796-dab3a62329c8","ios":"levelo://app?vid=e7eb43d9-bb86-4ae4-8796-dab3a62329c8"},"vehicle_type_id":"4","last_reported":1684271162,"current_range_meters":22000,"station_id":"","pricing_plan_id":"free"},{"bike_id":"18daba4c-6e1a-4801-8714-3e83dde6eb1c","system_id":"levelo_inurba_marseille","lat":43.290319,"lon":5.375732,"is_reserved":false,"is_disabled":false,"rental_uris":{"android":"levelo://app?vid=18daba4c-6e1a-4801-8714-3e83dde6eb1c","ios":"levelo://app?vid=18daba4c-6e1a-4801-8714-3e83dde6eb1c"},"vehicle_type_id":"4","last_reported":1684271162,"current_range_meters":4000,"station_id":"ce4bh692rcd13ifvqe90","pricing_plan_id":"free"},{"bike_id":"42c411ab-26e0-4f29-9fe5-f71b2dc834b3","system_id":"levelo_inurba_marseille","lat":43.2894,"lon":5.36639,"is_reserved":false,"is_disabled":false,"rental_uris":{"android":"levelo://app?vid=42c411ab-26e0-4f29-9fe5-f71b2dc834b3","ios":"levelo://app?vid=42c411ab-26e0-4f29-9fe5-f71b2dc834b3"},"vehicle_type_id":"4","last_reported":1684271162,"current_range_meters":4400,"station_id":"ce4bhap2rcd13ifvqek0","pricing_plan_id":"free"},{"bike_id":"9615a008-0485-4227-a010-00c6d98694b7","system_id":"levelo_inurba_marseille","lat":43.2894,"lon":5.36635,"is_reserved":false,"is_disabled":false,"rental_uris":{"android":"levelo://app?vid=9615a008-0485-4227-a010-00c6d98694b7","ios":"levelo://app?vid=9615a008-0485-4227-a010-00c6d98694b7"},"vehicle_type_id":"4","last_reported":1684271162,"current_range_meters":15200,"station_id":"","pricing_plan_id":"free"},{"bike_id":"b15fd01b-e9f2-4aec-b352-701553c91f26","system_id":"levelo_inurba_marseille","lat":43.28939,"lon":5.3664,"is_reserved":false,"is_disabled":false,"rental_uris":{"android":"levelo://app?vid=b15fd01b-e9f2-4aec-b352-701553c91f26","ios":"levelo://app?vid=b15fd01b-e9f2-4aec-b352-701553c91f26"},"vehicle_type_id":"4","last_reported":1684271162,"current_range_meters":12000,"station_id":"ce4bhap2rcd13ifvqek0","pricing_plan_id":"free"},{"bike_id":"35faf189-e449-4516-9f88-af4fda24c5de","system_id":"levelo_inurba_marseille","lat":43.289184,"lon":5.366408,"is_reserved":false,"is_disabled":false,"rental_uris":{"android":"levelo://app?vid=35faf189-e449-4516-9f88-af4fda24c5de","ios":"levelo://app?vid=35faf189-e449-4516-9f88-af4fda24c5de"},"vehicle_type_id":"4","last_reported":1684271162,"current_range_meters":30800,"station_id":"ce4bhap2rcd13ifvqek0","pricing_plan_id":"free"},{"bike_id":"0e792ffe-6e01-4321-91a6-162f1b7abdf2","system_id":"levelo_inurba_marseille","lat":43.289184,"lon":5.366408,"is_reserved":false,"is_disabled":false,"rental_uris":{"android":"levelo://app?vid=0e792ffe-6e01-4321-91a6-162f1b7abdf2","ios":"levelo://app?vid=0e792ffe-6e01-4321-91a6-162f1b7abdf2"},"vehicle_type_id":"4","last_reported":1684271162,"current_range_meters":16400,"station_id":"ce4bhap2rcd13ifvqek0","pricing_plan_id":"free"},{"bike_id":"387d6c67-68db-4e8d-9386-4e6e883c6687","system_id":"levelo_inurba_marseille","lat":43.289184,"lon":5.366408,"is_reserved":false,"is_disabled":false,"rental_uris":{"android":"levelo://app?vid=387d6c67-68db-4e8d-9386-4e6e883c6687","ios":"levelo://app?vid=387d6c67-68db-4e8d-9386-4e6e883c6687"},"vehicle_type_id":"4","last_reported":1684271162,"current_range_meters":26400,"station_id":"ce4bhap2rcd13ifvqek0","pricing_plan_id":"free"},{"bike_id":"cbb07eda-9838-402a-8a70-afcb317fabb6","system_id":"levelo_inurba_marseille","lat":43.28934,"lon":5.36631,"is_reserved":false,"is_disabled":false,"rental_uris":{"android":"levelo://app?vid=cbb07eda-9838-402a-8a70-afcb317fabb6","ios":"levelo://app?vid=cbb07eda-9838-402a-8a70-afcb317fabb6"},"vehicle_type_id":"4","last_reported":1684271162,"current_range_meters":11600,"station_id":"ce4bhap2rcd13ifvqek0","pricing_plan_id":"free"},{"bike_id":"35a83053-8d06-4274-96a2-ba86a66451d7","system_id":"levelo_inurba_marseille","lat":43.28941,"lon":5.36394,"is_reserved":false,"is_disabled":false,"rental_uris":{"android":"levelo://app?vid=35a83053-8d06-4274-96a2-ba86a66451d7","ios":"levelo://app?vid=35a83053-8d06-4274-96a2-ba86a66451d7"},"vehicle_type_id":"4","last_reported":1684271162,"current_range_meters":3600,"station_id":"ce4bhc92rcd13ifvqetg","pricing_plan_id":"free"},{"bike_id":"d01bf714-ddfa-4f0b-99a5-dee273f3de74","system_id":"levelo_inurba_marseille","lat":43.2894,"lon":5.36395,"is_reserved":false,"is_disabled":false,"rental_uris":{"android":"levelo://app?vid=d01bf714-ddfa-4f0b-99a5-dee273f3de74","ios":"levelo://app?vid=d01bf714-ddfa-4f0b-99a5-dee273f3de74"},"vehicle_type_id":"4","last_reported":1684271162,"current_range_meters":3200,"station_id":"ce4bhc92rcd13ifvqetg","pricing_plan_id":"free"},{"bike_id":"6ce6b776-9daf-4999-9f1b-0d4b239712c9","system_id":"levelo_inurba_marseille","lat":43.28937,"lon":5.36387,"is_reserved":false,"is_disabled":false,"rental_uris":{"android":"levelo://app?vid=6ce6b776-9daf-4999-9f1b-0d4b239712c9","ios":"levelo://app?vid=6ce6b776-9daf-4999-9f1b-0d4b239712c9"},"vehicle_type_id":"4","last_reported":1684271162,"current_range_meters":26400,"station_id":"ce4bhc92rcd13ifvqetg","pricing_plan_id":"free"},{"bike_id":"b216b845-2c9b-4220-8b82-7be05f9c8963","system_id":"levelo_inurba_marseille","lat":43.28928,"lon":5.36392,"is_reserved":false,"is_disabled":false,"rental_uris":{"android":"levelo://app?vid=b216b845-2c9b-4220-8b82-7be05f9c8963","ios":"levelo://app?vid=b216b845-2c9b-4220-8b82-7be05f9c8963"},"vehicle_type_id":"4","last_reported":1684271162,"current_range_meters":400,"station_id":"","pricing_plan_id":"free"},{"bike_id":"db0c5c40-c4b7-4238-9bbc-aad1de67a362","system_id":"levelo_inurba_marseille","lat":43.28926,"lon":5.36405,"is_reserved":false,"is_disabled":false,"rental_uris":{"android":"levelo://app?vid=db0c5c40-c4b7-4238-9bbc-aad1de67a362","ios":"levelo://app?vid=db0c5c40-c4b7-4238-9bbc-aad1de67a362"},"vehicle_type_id":"4","last_reported":1684271162,"current_range_meters":21200,"station_id":"","pricing_plan_id":"free"},{"bike_id":"daa60bd0-ba83-4647-884d-1b743c13e167","system_id":"levelo_inurba_marseille","lat":43.289468,"lon":5.363719,"is_reserved":false,"is_disabled":false,"rental_uris":{"android":"levelo://app?vid=daa60bd0-ba83-4647-884d-1b743c13e167","ios":"levelo://app?vid=daa60bd0-ba83-4647-884d-1b743c13e167"},"vehicle_type_id":"4","last_reported":1684271162,"current_range_meters":29200,"station_id":"ce4bhc92rcd13ifvqetg","pricing_plan_id":"free"},{"bike_id":"14edbbb3-45e7-4f39-b03f-ed1a23ed5c0e","system_id":"levelo_inurba_marseille","lat":43.292644,"lon":5.384257,"is_reserved":false,"is_disabled":false,"rental_uris":{"android":"levelo://app?vid=14edbbb3-45e7-4f39-b03f-ed1a23ed5c0e","ios":"levelo://app?vid=14edbbb3-45e7-4f39-b03f-ed1a23ed5c0e"},"vehicle_type_id":"4","last_reported":1684271162,"current_range_meters":23200,"station_id":"ce4bh692rcd13ifvqea0","pricing_plan_id":"free"},{"bike_id":"ee04b75a-6096-4f84-9dec-1ddf02c4a48f","system_id":"levelo_inurba_marseille","lat":43.330442,"lon":5.389148,"is_reserved":false,"is_disabled":false,"rental_uris":{"android":"levelo://app?vid=ee04b75a-6096-4f84-9dec-1ddf02c4a48f","ios":"levelo://app?vid=ee04b75a-6096-4f84-9dec-1ddf02c4a48f"},"vehicle_type_id":"4","last_reported":1684271162,"current_range_meters":6800,"station_id":"ce4bhr92rcd13ifvqhrg","pricing_plan_id":"free"},{"bike_id":"5ee77a0d-57db-4050-bce1-323f88747e72","system_id":"levelo_inurba_marseille","lat":43.330442,"lon":5.389148,"is_reserved":false,"is_disabled":false,"rental_uris":{"android":"levelo://app?vid=5ee77a0d-57db-4050-bce1-323f88747e72","ios":"levelo://app?vid=5ee77a0d-57db-4050-bce1-323f88747e72"},"vehicle_type_id":"4","last_reported":1684271162,"current_range_meters":25600,"station_id":"ce4bhr92rcd13ifvqhrg","pricing_plan_id":"free"},{"bike_id":"2aaa3830-c933-42d6-8111-151d3070710a","system_id":"levelo_inurba_marseille","lat":43.290104,"lon":5.356111,"is_reserved":false,"is_disabled":false,"rental_uris":{"android":"levelo://app?vid=2aaa3830-c933-42d6-8111-151d3070710a","ios":"levelo://app?vid=2aaa3830-c933-42d6-8111-151d3070710a"},"vehicle_type_id":"4","last_reported":1684271162,"current_range_meters":23200,"station_id":"ce4bhb92rcd13ifvqen0","pricing_plan_id":"free"},{"bike_id":"6da87a58-0720-4be3-95ce-b6355202d385","system_id":"levelo_inurba_marseille","lat":43.290103,"lon":5.356114,"is_reserved":false,"is_disabled":false,"rental_uris":{"android":"levelo://app?vid=6da87a58-0720-4be3-95ce-b6355202d385","ios":"levelo://app?vid=6da87a58-0720-4be3-95ce-b6355202d385"},"vehicle_type_id":"4","last_reported":1684271162,"current_range_meters":28000,"station_id":"ce4bhb92rcd13ifvqen0","pricing_plan_id":"free"},{"bike_id":"6e57a66d-92b5-4aa7-9a75-d08d47093e56","system_id":"levelo_inurba_marseille","lat":43.290104,"lon":5.356111,"is_reserved":false,"is_disabled":false,"rental_uris":{"android":"levelo://app?vid=6e57a66d-92b5-4aa7-9a75-d08d47093e56","ios":"levelo://app?vid=6e57a66d-92b5-4aa7-9a75-d08d47093e56"},"vehicle_type_id":"4","last_reported":1684271162,"current_range_meters":23200,"station_id":"ce4bhb92rcd13ifvqen0","pricing_plan_id":"free"},{"bike_id":"158688a5-84ef-425e-8b3a-949dc5deaa75","system_id":"levelo_inurba_marseille","lat":43.290104,"lon":5.356111,"is_reserved":false,"is_disabled":false,"rental_uris":{"android":"levelo://app?vid=158688a5-84ef-425e-8b3a-949dc5deaa75","ios":"levelo://app?vid=158688a5-84ef-425e-8b3a-949dc5deaa75"},"vehicle_type_id":"4","last_reported":1684271162,"current_range_meters":31200,"station_id":"ce4bhb92rcd13ifvqen0","pricing_plan_id":"free"},{"bike_id":"f5eaae5f-3ace-4394-9e4c-3da1291bc600","system_id":"levelo_inurba_marseille","lat":43.290103,"lon":5.356114,"is_reserved":false,"is_disabled":false,"rental_uris":{"android":"levelo://app?vid=f5eaae5f-3ace-4394-9e4c-3da1291bc600","ios":"levelo://app?vid=f5eaae5f-3ace-4394-9e4c-3da1291bc600"},"vehicle_type_id":"4","last_reported":1684271162,"current_range_meters":5600,"station_id":"ce4bhb92rcd13ifvqen0","pricing_plan_id":"free"},{"bike_id":"a05fb4db-a6fa-4770-a935-aee827c1bc2c","system_id":"levelo_inurba_marseille","lat":43.29089,"lon":5.38094,"is_reserved":false,"is_disabled":false,"rental_uris":{"android":"levelo://app?vid=a05fb4db-a6fa-4770-a935-aee827c1bc2c","ios":"levelo://app?vid=a05fb4db-a6fa-4770-a935-aee827c1bc2c"},"vehicle_type_id":"4","last_reported":1684271162,"current_range_meters":9200,"station_id":"ce4bh512rcd13ifvqe2g","pricing_plan_id":"free"},{"bike_id":"acedb0b6-08cf-4451-b847-7b149ea7b1a2","system_id":"levelo_inurba_marseille","lat":43.290995,"lon":5.381361,"is_reserved":false,"is_disabled":false,"rental_uris":{"android":"levelo://app?vid=acedb0b6-08cf-4451-b847-7b149ea7b1a2","ios":"levelo://app?vid=acedb0b6-08cf-4451-b847-7b149ea7b1a2"},"vehicle_type_id":"4","last_reported":1684271162,"current_range_meters":0,"station_id":"ce4bh512rcd13ifvqe2g","pricing_plan_id":"free"},{"bike_id":"352d154f-1d75-4490-851d-0570a9a447e8","system_id":"levelo_inurba_marseille","lat":43.295169,"lon":5.390426,"is_reserved":false,"is_disabled":false,"rental_uris":{"android":"levelo://app?vid=352d154f-1d75-4490-851d-0570a9a447e8","ios":"levelo://app?vid=352d154f-1d75-4490-851d-0570a9a447e8"},"vehicle_type_id":"4","last_reported":1684271162,"current_range_meters":400,"station_id":"ce4bh3p2rcd13ifvqdp0","pricing_plan_id":"free"},{"bike_id":"bc6248d7-36fc-4cc1-965e-65e150beeb29","system_id":"levelo_inurba_marseille","lat":43.295169,"lon":5.390426,"is_reserved":false,"is_disabled":false,"rental_uris":{"android":"levelo://app?vid=bc6248d7-36fc-4cc1-965e-65e150beeb29","ios":"levelo://app?vid=bc6248d7-36fc-4cc1-965e-65e150beeb29"},"vehicle_type_id":"4","last_reported":1684271162,"current_range_meters":400,"station_id":"ce4bh3p2rcd13ifvqdp0","pricing_plan_id":"free"},{"bike_id":"f3a9d9f3-7049-421b-89a9-1329df9fb4ff","system_id":"levelo_inurba_marseille","lat":43.295169,"lon":5.390426,"is_reserved":false,"is_disabled":false,"rental_uris":{"android":"levelo://app?vid=f3a9d9f3-7049-421b-89a9-1329df9fb4ff","ios":"levelo://app?vid=f3a9d9f3-7049-421b-89a9-1329df9fb4ff"},"vehicle_type_id":"4","last_reported":1684271162,"current_range_meters":22800,"station_id":"ce4bh3p2rcd13ifvqdp0","pricing_plan_id":"free"},{"bike_id":"97966094-bfe7-41b7-a903-0e18a9655c11","system_id":"levelo_inurba_marseille","lat":43.295169,"lon":5.390426,"is_reserved":false,"is_disabled":false,"rental_uris":{"android":"levelo://app?vid=97966094-bfe7-41b7-a903-0e18a9655c11","ios":"levelo://app?vid=97966094-bfe7-41b7-a903-0e18a9655c11"},"vehicle_type_id":"4","last_reported":1684271162,"current_range_meters":8000,"station_id":"ce4bh3p2rcd13ifvqdp0","pricing_plan_id":"free"},{"bike_id":"d229eeb6-c625-4353-a6d5-3aafa872c855","system_id":"levelo_inurba_marseille","lat":43.295169,"lon":5.390426,"is_reserved":false,"is_disabled":false,"rental_uris":{"android":"levelo://app?vid=d229eeb6-c625-4353-a6d5-3aafa872c855","ios":"levelo://app?vid=d229eeb6-c625-4353-a6d5-3aafa872c855"},"vehicle_type_id":"4","last_reported":1684271162,"current_range_meters":31200,"station_id":"ce4bh3p2rcd13ifvqdp0","pricing_plan_id":"free"},{"bike_id":"91f18f60-7455-4870-a03e-1f611eea3b82","system_id":"levelo_inurba_marseille","lat":43.295169,"lon":5.390426,"is_reserved":false,"is_disabled":false,"rental_uris":{"android":"levelo://app?vid=91f18f60-7455-4870-a03e-1f611eea3b82","ios":"levelo://app?vid=91f18f60-7455-4870-a03e-1f611eea3b82"},"vehicle_type_id":"4","last_reported":1684271162,"current_range_meters":31200,"station_id":"ce4bh3p2rcd13ifvqdp0","pricing_plan_id":"free"},{"bike_id":"49d0d030-7861-4a0f-b23c-caa37c76707f","system_id":"levelo_inurba_marseille","lat":43.295169,"lon":5.390426,"is_reserved":false,"is_disabled":false,"rental_uris":{"android":"levelo://app?vid=49d0d030-7861-4a0f-b23c-caa37c76707f","ios":"levelo://app?vid=49d0d030-7861-4a0f-b23c-caa37c76707f"},"vehicle_type_id":"4","last_reported":1684271162,"current_range_meters":24400,"station_id":"ce4bh3p2rcd13ifvqdp0","pricing_plan_id":"free"},{"bike_id":"e0ffa090-9b2f-4564-867e-6288f749ae3a","system_id":"levelo_inurba_marseille","lat":43.295169,"lon":5.390426,"is_reserved":false,"is_disabled":false,"rental_uris":{"android":"levelo://app?vid=e0ffa090-9b2f-4564-867e-6288f749ae3a","ios":"levelo://app?vid=e0ffa090-9b2f-4564-867e-6288f749ae3a"},"vehicle_type_id":"4","last_reported":1684271162,"current_range_meters":10400,"station_id":"ce4bh3p2rcd13ifvqdp0","pricing_plan_id":"free"},{"bike_id":"9c26325e-8293-441c-a059-5b92096347c4","system_id":"levelo_inurba_marseille","lat":43.28865,"lon":5.35957,"is_reserved":false,"is_disabled":false,"rental_uris":{"android":"levelo://app?vid=9c26325e-8293-441c-a059-5b92096347c4","ios":"levelo://app?vid=9c26325e-8293-441c-a059-5b92096347c4"},"vehicle_type_id":"4","last_reported":1684271162,"current_range_meters":8800,"station_id":"","pricing_plan_id":"free"},{"bike_id":"06918acf-39ff-46a8-8e4a-3e29166672e1","system_id":"levelo_inurba_marseille","lat":43.28856,"lon":5.358371,"is_reserved":false,"is_disabled":false,"rental_uris":{"android":"levelo://app?vid=06918acf-39ff-46a8-8e4a-3e29166672e1","ios":"levelo://app?vid=06918acf-39ff-46a8-8e4a-3e29166672e1"},"vehicle_type_id":"4","last_reported":1684271162,"current_range_meters":3600,"station_id":"ce4bhb12rcd13ifvqem0","pricing_plan_id":"free"},{"bike_id":"f2e77f4f-07e2-4866-aa79-c2b957d4b17a","system_id":"levelo_inurba_marseille","lat":43.28856,"lon":5.358371,"is_reserved":false,"is_disabled":false,"rental_uris":{"android":"levelo://app?vid=f2e77f4f-07e2-4866-aa79-c2b957d4b17a","ios":"levelo://app?vid=f2e77f4f-07e2-4866-aa79-c2b957d4b17a"},"vehicle_type_id":"4","last_reported":1684271162,"current_range_meters":20800,"station_id":"ce4bhb12rcd13ifvqem0","pricing_plan_id":"free"},{"bike_id":"b134fc8b-47bf-4cbd-83ca-2f8e3a1dd862","system_id":"levelo_inurba_marseille","lat":43.28856,"lon":5.358371,"is_reserved":false,"is_disabled":false,"rental_uris":{"android":"levelo://app?vid=b134fc8b-47bf-4cbd-83ca-2f8e3a1dd862","ios":"levelo://app?vid=b134fc8b-47bf-4cbd-83ca-2f8e3a1dd862"},"vehicle_type_id":"4","last_reported":1684271162,"current_range_meters":21600,"station_id":"ce4bhb12rcd13ifvqem0","pricing_plan_id":"free"},{"bike_id":"6ecf2b11-dcdc-4015-9f11-3025f9ec934c","system_id":"levelo_inurba_marseille","lat":43.28856,"lon":5.358371,"is_reserved":false,"is_disabled":false,"rental_uris":{"android":"levelo://app?vid=6ecf2b11-dcdc-4015-9f11-3025f9ec934c","ios":"levelo://app?vid=6ecf2b11-dcdc-4015-9f11-3025f9ec934c"},"vehicle_type_id":"4","last_reported":1684271162,"current_range_meters":31200,"station_id":"ce4bhb12rcd13ifvqem0","pricing_plan_id":"free"},{"bike_id":"67327efd-345a-4b41-9853-2d5893827350","system_id":"levelo_inurba_marseille","lat":43.28856,"lon":5.358371,"is_reserved":false,"is_disabled":false,"rental_uris":{"android":"levelo://app?vid=67327efd-345a-4b41-9853-2d5893827350","ios":"levelo://app?vid=67327efd-345a-4b41-9853-2d5893827350"},"vehicle_type_id":"4","last_reported":1684271162,"current_range_meters":25200,"station_id":"ce4bhb12rcd13ifvqem0","pricing_plan_id":"free"},{"bike_id":"b114c51a-fba5-4708-b9ef-8574e8534f92","system_id":"levelo_inurba_marseille","lat":43.28856,"lon":5.358371,"is_reserved":false,"is_disabled":false,"rental_uris":{"android":"levelo://app?vid=b114c51a-fba5-4708-b9ef-8574e8534f92","ios":"levelo://app?vid=b114c51a-fba5-4708-b9ef-8574e8534f92"},"vehicle_type_id":"4","last_reported":1684271162,"current_range_meters":26000,"station_id":"ce4bhb12rcd13ifvqem0","pricing_plan_id":"free"},{"bike_id":"134fbf9a-2f99-47c1-9875-45b185a0a3ce","system_id":"levelo_inurba_marseille","lat":43.337436,"lon":5.374627,"is_reserved":false,"is_disabled":false,"rental_uris":{"android":"levelo://app?vid=134fbf9a-2f99-47c1-9875-45b185a0a3ce","ios":"levelo://app?vid=134fbf9a-2f99-47c1-9875-45b185a0a3ce"},"vehicle_type_id":"4","last_reported":1684271162,"current_range_meters":18800,"station_id":"ce4bhnp2rcd13ifvqgvg","pricing_plan_id":"free"},{"bike_id":"9ae41f3f-b27a-427b-8b95-b0c5102ea7f3","system_id":"levelo_inurba_marseille","lat":43.33751,"lon":5.37438,"is_reserved":false,"is_disabled":false,"rental_uris":{"android":"levelo://app?vid=9ae41f3f-b27a-427b-8b95-b0c5102ea7f3","ios":"levelo://app?vid=9ae41f3f-b27a-427b-8b95-b0c5102ea7f3"},"vehicle_type_id":"4","last_reported":1684271162,"current_range_meters":1200,"station_id":"","pricing_plan_id":"free"},{"bike_id":"bc392606-757a-4b22-a15a-d34029c78b2e","system_id":"levelo_inurba_marseille","lat":43.33757,"lon":5.37436,"is_reserved":false,"is_disabled":false,"rental_uris":{"android":"levelo://app?vid=bc392606-757a-4b22-a15a-d34029c78b2e","ios":"levelo://app?vid=bc392606-757a-4b22-a15a-d34029c78b2e"},"vehicle_type_id":"4","last_reported":1684271162,"current_range_meters":31200,"station_id":"","pricing_plan_id":"free"},{"bike_id":"503e199e-88c2-41a4-a0ba-3b267cb079b1","system_id":"levelo_inurba_marseille","lat":43.30642,"lon":5.401031,"is_reserved":false,"is_disabled":false,"rental_uris":{"android":"levelo://app?vid=503e199e-88c2-41a4-a0ba-3b267cb079b1","ios":"levelo://app?vid=503e199e-88c2-41a4-a0ba-3b267cb079b1"},"vehicle_type_id":"4","last_reported":1684271162,"current_range_meters":24800,"station_id":"ce4bh112rcd13ifvqda0","pricing_plan_id":"free"},{"bike_id":"446a1ed9-6fb4-47f0-bc31-1b23f4bbee3c","system_id":"levelo_inurba_marseille","lat":43.30642,"lon":5.401031,"is_reserved":false,"is_disabled":false,"rental_uris":{"android":"levelo://app?vid=446a1ed9-6fb4-47f0-bc31-1b23f4bbee3c","ios":"levelo://app?vid=446a1ed9-6fb4-47f0-bc31-1b23f4bbee3c"},"vehicle_type_id":"4","last_reported":1684271162,"current_range_meters":26400,"station_id":"ce4bh112rcd13ifvqda0","pricing_plan_id":"free"},{"bike_id":"5e1cf41d-c8a7-4c1d-b235-13ea01033b35","system_id":"levelo_inurba_marseille","lat":43.33768,"lon":5.37447,"is_reserved":false,"is_disabled":false,"rental_uris":{"android":"levelo://app?vid=5e1cf41d-c8a7-4c1d-b235-13ea01033b35","ios":"levelo://app?vid=5e1cf41d-c8a7-4c1d-b235-13ea01033b35"},"vehicle_type_id":"4","last_reported":1684271162,"current_range_meters":12800,"station_id":"","pricing_plan_id":"free"},{"bike_id":"58a4d525-e140-4be5-a1a5-8a06bce8f822","system_id":"levelo_inurba_marseille","lat":43.3377,"lon":5.37438,"is_reserved":false,"is_disabled":false,"rental_uris":{"android":"levelo://app?vid=58a4d525-e140-4be5-a1a5-8a06bce8f822","ios":"levelo://app?vid=58a4d525-e140-4be5-a1a5-8a06bce8f822"},"vehicle_type_id":"4","last_reported":1684271162,"current_range_meters":31600,"station_id":"","pricing_plan_id":"free"},{"bike_id":"5bef54e2-9337-4deb-8be3-a218c652a446","system_id":"levelo_inurba_marseille","lat":43.30642,"lon":5.401031,"is_reserved":false,"is_disabled":false,"rental_uris":{"android":"levelo://app?vid=5bef54e2-9337-4deb-8be3-a218c652a446","ios":"levelo://app?vid=5bef54e2-9337-4deb-8be3-a218c652a446"},"vehicle_type_id":"4","last_reported":1684271162,"current_range_meters":22400,"station_id":"ce4bh112rcd13ifvqda0","pricing_plan_id":"free"},{"bike_id":"787de0d0-6457-42ce-b35c-2117a82a06e2","system_id":"levelo_inurba_marseille","lat":43.301117,"lon":5.398795,"is_reserved":false,"is_disabled":false,"rental_uris":{"android":"levelo://app?vid=787de0d0-6457-42ce-b35c-2117a82a06e2","ios":"levelo://app?vid=787de0d0-6457-42ce-b35c-2117a82a06e2"},"vehicle_type_id":"4","last_reported":1684271162,"current_range_meters":16400,"station_id":"ce4bh0h2rcd13ifvqd40","pricing_plan_id":"free"},{"bike_id":"0b3bcbf4-0188-4f11-a0bb-cd4757ad8ded","system_id":"levelo_inurba_marseille","lat":43.301117,"lon":5.398795,"is_reserved":false,"is_disabled":false,"rental_uris":{"android":"levelo://app?vid=0b3bcbf4-0188-4f11-a0bb-cd4757ad8ded","ios":"levelo://app?vid=0b3bcbf4-0188-4f11-a0bb-cd4757ad8ded"},"vehicle_type_id":"4","last_reported":1684271162,"current_range_meters":26400,"station_id":"ce4bh0h2rcd13ifvqd40","pricing_plan_id":"free"},{"bike_id":"de22916d-a5b7-43ef-a249-c81871f8a5af","system_id":"levelo_inurba_marseille","lat":43.30642,"lon":5.401031,"is_reserved":false,"is_disabled":false,"rental_uris":{"android":"levelo://app?vid=de22916d-a5b7-43ef-a249-c81871f8a5af","ios":"levelo://app?vid=de22916d-a5b7-43ef-a249-c81871f8a5af"},"vehicle_type_id":"4","last_reported":1684271162,"current_range_meters":4400,"station_id":"ce4bh112rcd13ifvqda0","pricing_plan_id":"free"},{"bike_id":"f2f6f399-c8fc-45ae-b3e1-e4ece1a02614","system_id":"levelo_inurba_marseille","lat":43.301117,"lon":5.398795,"is_reserved":false,"is_disabled":false,"rental_uris":{"android":"levelo://app?vid=f2f6f399-c8fc-45ae-b3e1-e4ece1a02614","ios":"levelo://app?vid=f2f6f399-c8fc-45ae-b3e1-e4ece1a02614"},"vehicle_type_id":"4","last_reported":1684271162,"current_range_meters":2400,"station_id":"ce4bh0h2rcd13ifvqd40","pricing_plan_id":"free"},{"bike_id":"ce48d1ee-e39a-44d2-9f05-3a401c727c46","system_id":"levelo_inurba_marseille","lat":43.301117,"lon":5.398795,"is_reserved":false,"is_disabled":false,"rental_uris":{"android":"levelo://app?vid=ce48d1ee-e39a-44d2-9f05-3a401c727c46","ios":"levelo://app?vid=ce48d1ee-e39a-44d2-9f05-3a401c727c46"},"vehicle_type_id":"4","last_reported":1684271162,"current_range_meters":31600,"station_id":"ce4bh0h2rcd13ifvqd40","pricing_plan_id":"free"},{"bike_id":"cb45acb1-4b90-4d95-a6c8-033ff364929c","system_id":"levelo_inurba_marseille","lat":43.301117,"lon":5.398795,"is_reserved":false,"is_disabled":false,"rental_uris":{"android":"levelo://app?vid=cb45acb1-4b90-4d95-a6c8-033ff364929c","ios":"levelo://app?vid=cb45acb1-4b90-4d95-a6c8-033ff364929c"},"vehicle_type_id":"4","last_reported":1684271162,"current_range_meters":14800,"station_id":"ce4bh0h2rcd13ifvqd40","pricing_plan_id":"free"},{"bike_id":"4f82b2f8-7550-4f44-9dd5-990790ad7d30","system_id":"levelo_inurba_marseille","lat":43.301117,"lon":5.398795,"is_reserved":false,"is_disabled":false,"rental_uris":{"android":"levelo://app?vid=4f82b2f8-7550-4f44-9dd5-990790ad7d30","ios":"levelo://app?vid=4f82b2f8-7550-4f44-9dd5-990790ad7d30"},"vehicle_type_id":"4","last_reported":1684271162,"current_range_meters":7200,"station_id":"ce4bh0h2rcd13ifvqd40","pricing_plan_id":"free"},{"bike_id":"ee024ca2-846c-45ac-b432-06a93b6c75b9","system_id":"levelo_inurba_marseille","lat":43.301117,"lon":5.398795,"is_reserved":false,"is_disabled":false,"rental_uris":{"android":"levelo://app?vid=ee024ca2-846c-45ac-b432-06a93b6c75b9","ios":"levelo://app?vid=ee024ca2-846c-45ac-b432-06a93b6c75b9"},"vehicle_type_id":"4","last_reported":1684271162,"current_range_meters":24800,"station_id":"ce4bh0h2rcd13ifvqd40","pricing_plan_id":"free"},{"bike_id":"426b2e9b-42cc-4316-97ad-94e21c6ebfc5","system_id":"levelo_inurba_marseille","lat":43.3014,"lon":5.39865,"is_reserved":false,"is_disabled":false,"rental_uris":{"android":"levelo://app?vid=426b2e9b-42cc-4316-97ad-94e21c6ebfc5","ios":"levelo://app?vid=426b2e9b-42cc-4316-97ad-94e21c6ebfc5"},"vehicle_type_id":"4","last_reported":1684271162,"current_range_meters":27200,"station_id":"","pricing_plan_id":"free"},{"bike_id":"de31c07b-e2c2-461e-9728-05e1a46c0fa1","system_id":"levelo_inurba_marseille","lat":43.301117,"lon":5.398795,"is_reserved":false,"is_disabled":false,"rental_uris":{"android":"levelo://app?vid=de31c07b-e2c2-461e-9728-05e1a46c0fa1","ios":"levelo://app?vid=de31c07b-e2c2-461e-9728-05e1a46c0fa1"},"vehicle_type_id":"4","last_reported":1684271162,"current_range_meters":20800,"station_id":"ce4bh0h2rcd13ifvqd40","pricing_plan_id":"free"},{"bike_id":"770b0b94-d4c7-44f9-8c2e-b55eafd207ab","system_id":"levelo_inurba_marseille","lat":43.301117,"lon":5.398795,"is_reserved":false,"is_disabled":false,"rental_uris":{"android":"levelo://app?vid=770b0b94-d4c7-44f9-8c2e-b55eafd207ab","ios":"levelo://app?vid=770b0b94-d4c7-44f9-8c2e-b55eafd207ab"},"vehicle_type_id":"4","last_reported":1684271162,"current_range_meters":7600,"station_id":"ce4bh0h2rcd13ifvqd40","pricing_plan_id":"free"},{"bike_id":"ba3c102e-1acc-4476-b5b0-78bd0c52576d","system_id":"levelo_inurba_marseille","lat":43.301117,"lon":5.398795,"is_reserved":false,"is_disabled":false,"rental_uris":{"android":"levelo://app?vid=ba3c102e-1acc-4476-b5b0-78bd0c52576d","ios":"levelo://app?vid=ba3c102e-1acc-4476-b5b0-78bd0c52576d"},"vehicle_type_id":"4","last_reported":1684271162,"current_range_meters":12800,"station_id":"ce4bh0h2rcd13ifvqd40","pricing_plan_id":"free"},{"bike_id":"6db2e992-0253-4a7d-9076-52fb7b0d1f16","system_id":"levelo_inurba_marseille","lat":43.298681,"lon":5.397225,"is_reserved":false,"is_disabled":false,"rental_uris":{"android":"levelo://app?vid=6db2e992-0253-4a7d-9076-52fb7b0d1f16","ios":"levelo://app?vid=6db2e992-0253-4a7d-9076-52fb7b0d1f16"},"vehicle_type_id":"4","last_reported":1684271162,"current_range_meters":8000,"station_id":"ce4bh0h2rcd13ifvqd50","pricing_plan_id":"free"},{"bike_id":"44161bb9-5298-4f5e-836c-19ee5180714f","system_id":"levelo_inurba_marseille","lat":43.298681,"lon":5.397225,"is_reserved":false,"is_disabled":false,"rental_uris":{"android":"levelo://app?vid=44161bb9-5298-4f5e-836c-19ee5180714f","ios":"levelo://app?vid=44161bb9-5298-4f5e-836c-19ee5180714f"},"vehicle_type_id":"4","last_reported":1684271162,"current_range_meters":0,"station_id":"ce4bh0h2rcd13ifvqd50","pricing_plan_id":"free"},{"bike_id":"8c00a3dd-a2f7-4ed0-bc9d-a872e61a8ba6","system_id":"levelo_inurba_marseille","lat":43.298681,"lon":5.397225,"is_reserved":false,"is_disabled":false,"rental_uris":{"android":"levelo://app?vid=8c00a3dd-a2f7-4ed0-bc9d-a872e61a8ba6","ios":"levelo://app?vid=8c00a3dd-a2f7-4ed0-bc9d-a872e61a8ba6"},"vehicle_type_id":"4","last_reported":1684271162,"current_range_meters":6400,"station_id":"ce4bh0h2rcd13ifvqd50","pricing_plan_id":"free"},{"bike_id":"af8dfca9-c25b-4199-95f3-f71daba738e4","system_id":"levelo_inurba_marseille","lat":43.286591,"lon":5.363346,"is_reserved":false,"is_disabled":false,"rental_uris":{"android":"levelo://app?vid=af8dfca9-c25b-4199-95f3-f71daba738e4","ios":"levelo://app?vid=af8dfca9-c25b-4199-95f3-f71daba738e4"},"vehicle_type_id":"4","last_reported":1684271162,"current_range_meters":29600,"station_id":"ce4bhah2rcd13ifvqej0","pricing_plan_id":"free"},{"bike_id":"31a7c452-6532-4d44-8c29-1493bcd8737e","system_id":"levelo_inurba_marseille","lat":43.298681,"lon":5.397225,"is_reserved":false,"is_disabled":false,"rental_uris":{"android":"levelo://app?vid=31a7c452-6532-4d44-8c29-1493bcd8737e","ios":"levelo://app?vid=31a7c452-6532-4d44-8c29-1493bcd8737e"},"vehicle_type_id":"4","last_reported":1684271162,"current_range_meters":31200,"station_id":"ce4bh0h2rcd13ifvqd50","pricing_plan_id":"free"},{"bike_id":"59454c8e-bbba-43fe-b529-5f0eb1ac1a67","system_id":"levelo_inurba_marseille","lat":43.298681,"lon":5.397225,"is_reserved":false,"is_disabled":false,"rental_uris":{"android":"levelo://app?vid=59454c8e-bbba-43fe-b529-5f0eb1ac1a67","ios":"levelo://app?vid=59454c8e-bbba-43fe-b529-5f0eb1ac1a67"},"vehicle_type_id":"4","last_reported":1684271162,"current_range_meters":11200,"station_id":"ce4bh0h2rcd13ifvqd50","pricing_plan_id":"free"},{"bike_id":"1fcaef7c-5cb6-4232-b93f-17a44c4718f2","system_id":"levelo_inurba_marseille","lat":43.298681,"lon":5.397225,"is_reserved":false,"is_disabled":false,"rental_uris":{"android":"levelo://app?vid=1fcaef7c-5cb6-4232-b93f-17a44c4718f2","ios":"levelo://app?vid=1fcaef7c-5cb6-4232-b93f-17a44c4718f2"},"vehicle_type_id":"4","last_reported":1684271162,"current_range_meters":2800,"station_id":"ce4bh0h2rcd13ifvqd50","pricing_plan_id":"free"},{"bike_id":"490de95c-c869-4ed2-8ace-120de950abed","system_id":"levelo_inurba_marseille","lat":43.286591,"lon":5.363346,"is_reserved":false,"is_disabled":false,"rental_uris":{"android":"levelo://app?vid=490de95c-c869-4ed2-8ace-120de950abed","ios":"levelo://app?vid=490de95c-c869-4ed2-8ace-120de950abed"},"vehicle_type_id":"4","last_reported":1684271162,"current_range_meters":27600,"station_id":"ce4bhah2rcd13ifvqej0","pricing_plan_id":"free"},{"bike_id":"9a698306-ec9c-4956-9a06-b71e5cd45ad5","system_id":"levelo_inurba_marseille","lat":43.298681,"lon":5.397225,"is_reserved":false,"is_disabled":false,"rental_uris":{"android":"levelo://app?vid=9a698306-ec9c-4956-9a06-b71e5cd45ad5","ios":"levelo://app?vid=9a698306-ec9c-4956-9a06-b71e5cd45ad5"},"vehicle_type_id":"4","last_reported":1684271162,"current_range_meters":14400,"station_id":"ce4bh0h2rcd13ifvqd50","pricing_plan_id":"free"},{"bike_id":"c6677a78-e58f-4559-b57b-7f9f7fe8a938","system_id":"levelo_inurba_marseille","lat":43.298681,"lon":5.397225,"is_reserved":false,"is_disabled":false,"rental_uris":{"android":"levelo://app?vid=c6677a78-e58f-4559-b57b-7f9f7fe8a938","ios":"levelo://app?vid=c6677a78-e58f-4559-b57b-7f9f7fe8a938"},"vehicle_type_id":"4","last_reported":1684271162,"current_range_meters":8800,"station_id":"ce4bh0h2rcd13ifvqd50","pricing_plan_id":"free"},{"bike_id":"2c069181-4e33-4a16-be76-2ac80467dcac","system_id":"levelo_inurba_marseille","lat":43.298681,"lon":5.397225,"is_reserved":false,"is_disabled":false,"rental_uris":{"android":"levelo://app?vid=2c069181-4e33-4a16-be76-2ac80467dcac","ios":"levelo://app?vid=2c069181-4e33-4a16-be76-2ac80467dcac"},"vehicle_type_id":"4","last_reported":1684271162,"current_range_meters":22800,"station_id":"ce4bh0h2rcd13ifvqd50","pricing_plan_id":"free"},{"bike_id":"344f5548-3d66-4bd8-96cb-eb63915dea09","system_id":"levelo_inurba_marseille","lat":43.298681,"lon":5.397225,"is_reserved":false,"is_disabled":false,"rental_uris":{"android":"levelo://app?vid=344f5548-3d66-4bd8-96cb-eb63915dea09","ios":"levelo://app?vid=344f5548-3d66-4bd8-96cb-eb63915dea09"},"vehicle_type_id":"4","last_reported":1684271162,"current_range_meters":27200,"station_id":"ce4bh0h2rcd13ifvqd50","pricing_plan_id":"free"},{"bike_id":"e3b11c54-8e53-4d08-8829-2d1d3973ab5c","system_id":"levelo_inurba_marseille","lat":43.286591,"lon":5.363346,"is_reserved":false,"is_disabled":false,"rental_uris":{"android":"levelo://app?vid=e3b11c54-8e53-4d08-8829-2d1d3973ab5c","ios":"levelo://app?vid=e3b11c54-8e53-4d08-8829-2d1d3973ab5c"},"vehicle_type_id":"4","last_reported":1684271162,"current_range_meters":0,"station_id":"ce4bhah2rcd13ifvqej0","pricing_plan_id":"free"},{"bike_id":"3555d1ef-22dd-4021-bce2-5e35139ea0dd","system_id":"levelo_inurba_marseille","lat":43.286593,"lon":5.363346,"is_reserved":false,"is_disabled":false,"rental_uris":{"android":"levelo://app?vid=3555d1ef-22dd-4021-bce2-5e35139ea0dd","ios":"levelo://app?vid=3555d1ef-22dd-4021-bce2-5e35139ea0dd"},"vehicle_type_id":"4","last_reported":1684271162,"current_range_meters":5200,"station_id":"ce4bhah2rcd13ifvqej0","pricing_plan_id":"free"},{"bike_id":"298ea436-f48e-48c3-b877-ca7acc4e71d5","system_id":"levelo_inurba_marseille","lat":43.286591,"lon":5.363346,"is_reserved":false,"is_disabled":false,"rental_uris":{"android":"levelo://app?vid=298ea436-f48e-48c3-b877-ca7acc4e71d5","ios":"levelo://app?vid=298ea436-f48e-48c3-b877-ca7acc4e71d5"},"vehicle_type_id":"4","last_reported":1684271162,"current_range_meters":0,"station_id":"ce4bhah2rcd13ifvqej0","pricing_plan_id":"free"},{"bike_id":"69bd4bdc-fad9-44a7-acb9-7e07bce5e313","system_id":"levelo_inurba_marseille","lat":43.286593,"lon":5.363346,"is_reserved":false,"is_disabled":false,"rental_uris":{"android":"levelo://app?vid=69bd4bdc-fad9-44a7-acb9-7e07bce5e313","ios":"levelo://app?vid=69bd4bdc-fad9-44a7-acb9-7e07bce5e313"},"vehicle_type_id":"4","last_reported":1684271162,"current_range_meters":8400,"station_id":"ce4bhah2rcd13ifvqej0","pricing_plan_id":"free"},{"bike_id":"f6df13fd-b8f0-4640-9a14-13a1161f1294","system_id":"levelo_inurba_marseille","lat":43.286591,"lon":5.363346,"is_reserved":false,"is_disabled":false,"rental_uris":{"android":"levelo://app?vid=f6df13fd-b8f0-4640-9a14-13a1161f1294","ios":"levelo://app?vid=f6df13fd-b8f0-4640-9a14-13a1161f1294"},"vehicle_type_id":"4","last_reported":1684271162,"current_range_meters":5200,"station_id":"ce4bhah2rcd13ifvqej0","pricing_plan_id":"free"},{"bike_id":"dfb6feba-b10f-4f76-b102-c3f8ad2f016a","system_id":"levelo_inurba_marseille","lat":43.298681,"lon":5.397225,"is_reserved":false,"is_disabled":false,"rental_uris":{"android":"levelo://app?vid=dfb6feba-b10f-4f76-b102-c3f8ad2f016a","ios":"levelo://app?vid=dfb6feba-b10f-4f76-b102-c3f8ad2f016a"},"vehicle_type_id":"4","last_reported":1684271162,"current_range_meters":22800,"station_id":"ce4bh0h2rcd13ifvqd50","pricing_plan_id":"free"},{"bike_id":"82528752-1c93-4501-ba10-532fc8928d28","system_id":"levelo_inurba_marseille","lat":43.28662,"lon":5.36359,"is_reserved":false,"is_disabled":false,"rental_uris":{"android":"levelo://app?vid=82528752-1c93-4501-ba10-532fc8928d28","ios":"levelo://app?vid=82528752-1c93-4501-ba10-532fc8928d28"},"vehicle_type_id":"4","last_reported":1684271162,"current_range_meters":24800,"station_id":"ce4bhah2rcd13ifvqej0","pricing_plan_id":"free"},{"bike_id":"cadc7129-a281-44b0-9972-137a80ce05d6","system_id":"levelo_inurba_marseille","lat":43.286593,"lon":5.363346,"is_reserved":false,"is_disabled":false,"rental_uris":{"android":"levelo://app?vid=cadc7129-a281-44b0-9972-137a80ce05d6","ios":"levelo://app?vid=cadc7129-a281-44b0-9972-137a80ce05d6"},"vehicle_type_id":"4","last_reported":1684271162,"current_range_meters":26800,"station_id":"ce4bhah2rcd13ifvqej0","pricing_plan_id":"free"},{"bike_id":"2686c462-1bb9-4273-967e-220961a9d923","system_id":"levelo_inurba_marseille","lat":43.298681,"lon":5.397225,"is_reserved":false,"is_disabled":false,"rental_uris":{"android":"levelo://app?vid=2686c462-1bb9-4273-967e-220961a9d923","ios":"levelo://app?vid=2686c462-1bb9-4273-967e-220961a9d923"},"vehicle_type_id":"4","last_reported":1684271162,"current_range_meters":23200,"station_id":"ce4bh0h2rcd13ifvqd50","pricing_plan_id":"free"},{"bike_id":"c92983b1-917b-43ea-a371-8fff85c7416d","system_id":"levelo_inurba_marseille","lat":43.298681,"lon":5.397225,"is_reserved":false,"is_disabled":false,"rental_uris":{"android":"levelo://app?vid=c92983b1-917b-43ea-a371-8fff85c7416d","ios":"levelo://app?vid=c92983b1-917b-43ea-a371-8fff85c7416d"},"vehicle_type_id":"4","last_reported":1684271162,"current_range_meters":21200,"station_id":"ce4bh0h2rcd13ifvqd50","pricing_plan_id":"free"},{"bike_id":"cccb69af-fc9f-4109-87b9-ebe295b8cf4b","system_id":"levelo_inurba_marseille","lat":43.295196,"lon":5.39397,"is_reserved":false,"is_disabled":false,"rental_uris":{"android":"levelo://app?vid=cccb69af-fc9f-4109-87b9-ebe295b8cf4b","ios":"levelo://app?vid=cccb69af-fc9f-4109-87b9-ebe295b8cf4b"},"vehicle_type_id":"4","last_reported":1684271162,"current_range_meters":0,"station_id":"ce4bh292rcd13ifvqdf0","pricing_plan_id":"free"},{"bike_id":"c6ff5fa1-8a97-42ae-a3e0-438638a2cf86","system_id":"levelo_inurba_marseille","lat":43.2953,"lon":5.39396,"is_reserved":false,"is_disabled":false,"rental_uris":{"android":"levelo://app?vid=c6ff5fa1-8a97-42ae-a3e0-438638a2cf86","ios":"levelo://app?vid=c6ff5fa1-8a97-42ae-a3e0-438638a2cf86"},"vehicle_type_id":"4","last_reported":1684271162,"current_range_meters":7200,"station_id":"ce4bh292rcd13ifvqdf0","pricing_plan_id":"free"},{"bike_id":"9ef0e3d0-cb03-4dc2-ae07-641c1a9fa26c","system_id":"levelo_inurba_marseille","lat":43.298681,"lon":5.397225,"is_reserved":false,"is_disabled":false,"rental_uris":{"android":"levelo://app?vid=9ef0e3d0-cb03-4dc2-ae07-641c1a9fa26c","ios":"levelo://app?vid=9ef0e3d0-cb03-4dc2-ae07-641c1a9fa26c"},"vehicle_type_id":"4","last_reported":1684271162,"current_range_meters":26800,"station_id":"ce4bh0h2rcd13ifvqd50","pricing_plan_id":"free"},{"bike_id":"fe413213-c1ea-4f0f-82fe-a15a616a25b6","system_id":"levelo_inurba_marseille","lat":43.29032,"lon":5.38617,"is_reserved":false,"is_disabled":false,"rental_uris":{"android":"levelo://app?vid=fe413213-c1ea-4f0f-82fe-a15a616a25b6","ios":"levelo://app?vid=fe413213-c1ea-4f0f-82fe-a15a616a25b6"},"vehicle_type_id":"4","last_reported":1684271162,"current_range_meters":26000,"station_id":"ce4bh4p2rcd13ifvqe0g","pricing_plan_id":"free"},{"bike_id":"3f4450dd-e84b-4b6b-b198-eb870028767d","system_id":"levelo_inurba_marseille","lat":43.295196,"lon":5.39397,"is_reserved":false,"is_disabled":false,"rental_uris":{"android":"levelo://app?vid=3f4450dd-e84b-4b6b-b198-eb870028767d","ios":"levelo://app?vid=3f4450dd-e84b-4b6b-b198-eb870028767d"},"vehicle_type_id":"4","last_reported":1684271162,"current_range_meters":24000,"station_id":"ce4bh292rcd13ifvqdf0","pricing_plan_id":"free"},{"bike_id":"27a918fb-bf3e-4c96-a4a8-e8f6ab02b5f4","system_id":"levelo_inurba_marseille","lat":43.29516,"lon":5.39411,"is_reserved":false,"is_disabled":false,"rental_uris":{"android":"levelo://app?vid=27a918fb-bf3e-4c96-a4a8-e8f6ab02b5f4","ios":"levelo://app?vid=27a918fb-bf3e-4c96-a4a8-e8f6ab02b5f4"},"vehicle_type_id":"4","last_reported":1684271162,"current_range_meters":0,"station_id":"ce4bh292rcd13ifvqdf0","pricing_plan_id":"free"},{"bike_id":"b1d3e7fa-292f-432a-8e4e-201d4dc0452a","system_id":"levelo_inurba_marseille","lat":43.29515,"lon":5.3941,"is_reserved":false,"is_disabled":false,"rental_uris":{"android":"levelo://app?vid=b1d3e7fa-292f-432a-8e4e-201d4dc0452a","ios":"levelo://app?vid=b1d3e7fa-292f-432a-8e4e-201d4dc0452a"},"vehicle_type_id":"4","last_reported":1684271162,"current_range_meters":0,"station_id":"ce4bh292rcd13ifvqdf0","pricing_plan_id":"free"},{"bike_id":"f9b1d8a0-7f24-43e0-9c33-c0676b39ed13","system_id":"levelo_inurba_marseille","lat":43.29516,"lon":5.39412,"is_reserved":false,"is_disabled":false,"rental_uris":{"android":"levelo://app?vid=f9b1d8a0-7f24-43e0-9c33-c0676b39ed13","ios":"levelo://app?vid=f9b1d8a0-7f24-43e0-9c33-c0676b39ed13"},"vehicle_type_id":"4","last_reported":1684271162,"current_range_meters":2800,"station_id":"ce4bh292rcd13ifvqdf0","pricing_plan_id":"free"},{"bike_id":"7551e5c4-2b50-4572-860a-3ee9a7d78583","system_id":"levelo_inurba_marseille","lat":43.29513,"lon":5.39409,"is_reserved":false,"is_disabled":false,"rental_uris":{"android":"levelo://app?vid=7551e5c4-2b50-4572-860a-3ee9a7d78583","ios":"levelo://app?vid=7551e5c4-2b50-4572-860a-3ee9a7d78583"},"vehicle_type_id":"4","last_reported":1684271162,"current_range_meters":0,"station_id":"ce4bh292rcd13ifvqdf0","pricing_plan_id":"free"},{"bike_id":"e965a641-6aac-4757-aef9-527a73d76846","system_id":"levelo_inurba_marseille","lat":43.295194,"lon":5.39397,"is_reserved":false,"is_disabled":false,"rental_uris":{"android":"levelo://app?vid=e965a641-6aac-4757-aef9-527a73d76846","ios":"levelo://app?vid=e965a641-6aac-4757-aef9-527a73d76846"},"vehicle_type_id":"4","last_reported":1684271162,"current_range_meters":18400,"station_id":"ce4bh292rcd13ifvqdf0","pricing_plan_id":"free"},{"bike_id":"6f2a4fc9-11cc-436a-92d4-b1f62e22b022","system_id":"levelo_inurba_marseille","lat":43.29518,"lon":5.39417,"is_reserved":false,"is_disabled":false,"rental_uris":{"android":"levelo://app?vid=6f2a4fc9-11cc-436a-92d4-b1f62e22b022","ios":"levelo://app?vid=6f2a4fc9-11cc-436a-92d4-b1f62e22b022"},"vehicle_type_id":"4","last_reported":1684271162,"current_range_meters":4000,"station_id":"ce4bh292rcd13ifvqdf0","pricing_plan_id":"free"},{"bike_id":"64837222-6e46-4ddd-a5bc-ed8dec76864e","system_id":"levelo_inurba_marseille","lat":43.295194,"lon":5.39397,"is_reserved":false,"is_disabled":false,"rental_uris":{"android":"levelo://app?vid=64837222-6e46-4ddd-a5bc-ed8dec76864e","ios":"levelo://app?vid=64837222-6e46-4ddd-a5bc-ed8dec76864e"},"vehicle_type_id":"4","last_reported":1684271162,"current_range_meters":18000,"station_id":"ce4bh292rcd13ifvqdf0","pricing_plan_id":"free"},{"bike_id":"9fc48f2d-4358-4e8d-ab64-ae210ac547fa","system_id":"levelo_inurba_marseille","lat":43.295194,"lon":5.39397,"is_reserved":false,"is_disabled":false,"rental_uris":{"android":"levelo://app?vid=9fc48f2d-4358-4e8d-ab64-ae210ac547fa","ios":"levelo://app?vid=9fc48f2d-4358-4e8d-ab64-ae210ac547fa"},"vehicle_type_id":"4","last_reported":1684271162,"current_range_meters":12000,"station_id":"ce4bh292rcd13ifvqdf0","pricing_plan_id":"free"},{"bike_id":"ccc7c848-7b10-451b-9ce2-81699ab70539","system_id":"levelo_inurba_marseille","lat":43.302529,"lon":5.400637,"is_reserved":false,"is_disabled":false,"rental_uris":{"android":"levelo://app?vid=ccc7c848-7b10-451b-9ce2-81699ab70539","ios":"levelo://app?vid=ccc7c848-7b10-451b-9ce2-81699ab70539"},"vehicle_type_id":"4","last_reported":1684271162,"current_range_meters":19600,"station_id":"","pricing_plan_id":"free"},{"bike_id":"9d093104-f17c-4561-bcd8-ed4921f09d8a","system_id":"levelo_inurba_marseille","lat":43.302759,"lon":5.400793,"is_reserved":false,"is_disabled":false,"rental_uris":{"android":"levelo://app?vid=9d093104-f17c-4561-bcd8-ed4921f09d8a","ios":"levelo://app?vid=9d093104-f17c-4561-bcd8-ed4921f09d8a"},"vehicle_type_id":"4","last_reported":1684271162,"current_range_meters":0,"station_id":"ce4bgvh2rcd13ifvqcs0","pricing_plan_id":"free"},{"bike_id":"155116d6-d6b6-465d-ad8c-9ac3376ea2ba","system_id":"levelo_inurba_marseille","lat":43.302759,"lon":5.400793,"is_reserved":false,"is_disabled":false,"rental_uris":{"android":"levelo://app?vid=155116d6-d6b6-465d-ad8c-9ac3376ea2ba","ios":"levelo://app?vid=155116d6-d6b6-465d-ad8c-9ac3376ea2ba"},"vehicle_type_id":"4","last_reported":1684271162,"current_range_meters":31200,"station_id":"ce4bgvh2rcd13ifvqcs0","pricing_plan_id":"free"},{"bike_id":"fb6409cd-af49-48e5-beae-ad7dee1285e1","system_id":"levelo_inurba_marseille","lat":43.302759,"lon":5.400793,"is_reserved":false,"is_disabled":false,"rental_uris":{"android":"levelo://app?vid=fb6409cd-af49-48e5-beae-ad7dee1285e1","ios":"levelo://app?vid=fb6409cd-af49-48e5-beae-ad7dee1285e1"},"vehicle_type_id":"4","last_reported":1684271162,"current_range_meters":16400,"station_id":"ce4bgvh2rcd13ifvqcs0","pricing_plan_id":"free"},{"bike_id":"5e1c7b28-5109-4736-b813-78f032ff77ef","system_id":"levelo_inurba_marseille","lat":43.302759,"lon":5.400793,"is_reserved":false,"is_disabled":false,"rental_uris":{"android":"levelo://app?vid=5e1c7b28-5109-4736-b813-78f032ff77ef","ios":"levelo://app?vid=5e1c7b28-5109-4736-b813-78f032ff77ef"},"vehicle_type_id":"4","last_reported":1684271162,"current_range_meters":31200,"station_id":"ce4bgvh2rcd13ifvqcs0","pricing_plan_id":"free"},{"bike_id":"776eb584-6c0e-4e0a-822d-34b45ab4f629","system_id":"levelo_inurba_marseille","lat":43.302759,"lon":5.400793,"is_reserved":false,"is_disabled":false,"rental_uris":{"android":"levelo://app?vid=776eb584-6c0e-4e0a-822d-34b45ab4f629","ios":"levelo://app?vid=776eb584-6c0e-4e0a-822d-34b45ab4f629"},"vehicle_type_id":"4","last_reported":1684271162,"current_range_meters":1600,"station_id":"ce4bgvh2rcd13ifvqcs0","pricing_plan_id":"free"},{"bike_id":"ab30b125-903d-4e77-864b-3147ef10b90c","system_id":"levelo_inurba_marseille","lat":43.302759,"lon":5.400793,"is_reserved":false,"is_disabled":false,"rental_uris":{"android":"levelo://app?vid=ab30b125-903d-4e77-864b-3147ef10b90c","ios":"levelo://app?vid=ab30b125-903d-4e77-864b-3147ef10b90c"},"vehicle_type_id":"4","last_reported":1684271162,"current_range_meters":30400,"station_id":"ce4bgvh2rcd13ifvqcs0","pricing_plan_id":"free"},{"bike_id":"ab86d07d-a7e8-4b97-b35d-3e5df4948757","system_id":"levelo_inurba_marseille","lat":43.302759,"lon":5.400793,"is_reserved":false,"is_disabled":false,"rental_uris":{"android":"levelo://app?vid=ab86d07d-a7e8-4b97-b35d-3e5df4948757","ios":"levelo://app?vid=ab86d07d-a7e8-4b97-b35d-3e5df4948757"},"vehicle_type_id":"4","last_reported":1684271162,"current_range_meters":30800,"station_id":"ce4bgvh2rcd13ifvqcs0","pricing_plan_id":"free"},{"bike_id":"cee419bc-77e6-45e4-a625-b6e218deaed6","system_id":"levelo_inurba_marseille","lat":43.302759,"lon":5.400793,"is_reserved":false,"is_disabled":false,"rental_uris":{"android":"levelo://app?vid=cee419bc-77e6-45e4-a625-b6e218deaed6","ios":"levelo://app?vid=cee419bc-77e6-45e4-a625-b6e218deaed6"},"vehicle_type_id":"4","last_reported":1684271162,"current_range_meters":29600,"station_id":"ce4bgvh2rcd13ifvqcs0","pricing_plan_id":"free"},{"bike_id":"316e7563-9d0f-4dba-a01c-0a3d56192a1b","system_id":"levelo_inurba_marseille","lat":43.28617,"lon":5.37064,"is_reserved":false,"is_disabled":false,"rental_uris":{"android":"levelo://app?vid=316e7563-9d0f-4dba-a01c-0a3d56192a1b","ios":"levelo://app?vid=316e7563-9d0f-4dba-a01c-0a3d56192a1b"},"vehicle_type_id":"4","last_reported":1684271162,"current_range_meters":25600,"station_id":"ce4bht12rcd13ifvqi60","pricing_plan_id":"free"},{"bike_id":"17076558-8062-476c-9b5d-da834bf08c04","system_id":"levelo_inurba_marseille","lat":43.302759,"lon":5.400793,"is_reserved":false,"is_disabled":false,"rental_uris":{"android":"levelo://app?vid=17076558-8062-476c-9b5d-da834bf08c04","ios":"levelo://app?vid=17076558-8062-476c-9b5d-da834bf08c04"},"vehicle_type_id":"4","last_reported":1684271162,"current_range_meters":31600,"station_id":"ce4bgvh2rcd13ifvqcs0","pricing_plan_id":"free"},{"bike_id":"a12d307a-1820-4458-ad77-5e781ad3686f","system_id":"levelo_inurba_marseille","lat":43.302759,"lon":5.400793,"is_reserved":false,"is_disabled":false,"rental_uris":{"android":"levelo://app?vid=a12d307a-1820-4458-ad77-5e781ad3686f","ios":"levelo://app?vid=a12d307a-1820-4458-ad77-5e781ad3686f"},"vehicle_type_id":"4","last_reported":1684271162,"current_range_meters":30000,"station_id":"ce4bgvh2rcd13ifvqcs0","pricing_plan_id":"free"},{"bike_id":"025c04ab-0ed7-4f2e-b97c-1b8abe69507d","system_id":"levelo_inurba_marseille","lat":43.302759,"lon":5.400793,"is_reserved":false,"is_disabled":false,"rental_uris":{"android":"levelo://app?vid=025c04ab-0ed7-4f2e-b97c-1b8abe69507d","ios":"levelo://app?vid=025c04ab-0ed7-4f2e-b97c-1b8abe69507d"},"vehicle_type_id":"4","last_reported":1684271162,"current_range_meters":7600,"station_id":"ce4bgvh2rcd13ifvqcs0","pricing_plan_id":"free"},{"bike_id":"d4c26a2c-5f33-4195-8630-34933c8a00df","system_id":"levelo_inurba_marseille","lat":43.28605,"lon":5.37062,"is_reserved":false,"is_disabled":false,"rental_uris":{"android":"levelo://app?vid=d4c26a2c-5f33-4195-8630-34933c8a00df","ios":"levelo://app?vid=d4c26a2c-5f33-4195-8630-34933c8a00df"},"vehicle_type_id":"4","last_reported":1684271162,"current_range_meters":18800,"station_id":"ce4bht12rcd13ifvqi60","pricing_plan_id":"free"},{"bike_id":"c8687b12-b139-41b1-b2be-6e07b8c2d3b2","system_id":"levelo_inurba_marseille","lat":43.286031,"lon":5.370539,"is_reserved":false,"is_disabled":false,"rental_uris":{"android":"levelo://app?vid=c8687b12-b139-41b1-b2be-6e07b8c2d3b2","ios":"levelo://app?vid=c8687b12-b139-41b1-b2be-6e07b8c2d3b2"},"vehicle_type_id":"4","last_reported":1684271162,"current_range_meters":27200,"station_id":"ce4bht12rcd13ifvqi60","pricing_plan_id":"free"},{"bike_id":"19edfe31-83ed-494d-8c83-0d77b1a1b99e","system_id":"levelo_inurba_marseille","lat":43.31209,"lon":5.4039,"is_reserved":false,"is_disabled":false,"rental_uris":{"android":"levelo://app?vid=19edfe31-83ed-494d-8c83-0d77b1a1b99e","ios":"levelo://app?vid=19edfe31-83ed-494d-8c83-0d77b1a1b99e"},