{"last_updated":1753035250,"ttl":60,"version":"2.2","data":{"bikes":[{"bike_id":"53b742a7-31ae-4272-9bba-7740339e2a2f","system_id":"levelo_inurba_marseille","lat":43.33747,"lon":5.37463,"is_reserved":false,"is_disabled":false,"rental_uris":{"android":"levelo://app?vid=53b742a7-31ae-4272-9bba-7740339e2a2f","ios":"levelo://app?vid=53b742a7-31ae-4272-9bba-7740339e2a2f"},"vehicle_type_id":"1","last_reported":1753035250,"current_range_meters":9600,"station_id":"","pricing_plan_id":"cebpf4jnsgd1na2vs0mg"},{"bike_id":"77f8e264-b913-4793-b117-72b62492a75e","system_id":"levelo_inurba_marseille","lat":43.29705,"lon":5.36607,"is_reserved":false,"is_disabled":false,"rental_uris":{"android":"levelo://app?vid=77f8e264-b913-4793-b117-72b62492a75e","ios":"levelo://app?vid=77f8e264-b913-4793-b117-72b62492a75e"},"vehicle_type_id":"4","last_reported":1753035250,"current_range_meters":2800,"station_id":"ce4bgn12rcd13ifvqbt0","pricing_plan_id":"cebpf4jnsgd1na2vs0mg"},{"bike_id":"26ce13f4-08cf-4ff1-886d-0a1d8befd50e","system_id":"levelo_inurba_marseille","lat":43.278146,"lon":5.407162,"is_reserved":false,"is_disabled":false,"rental_uris":{"android":"levelo://app?vid=26ce13f4-08cf-4ff1-886d-0a1d8befd50e","ios":"levelo://app?vid=26ce13f4-08cf-4ff1-886d-0a1d8befd50e"},"vehicle_type_id":"4","last_reported":1753035250,"current_range_meters":2800,"station_id":"ce4bhnh2rcd13ifvqgtg","pricing_plan_id":"cebpf4jnsgd1na2vs0mg"},{"bike_id":"327621da-4c6f-4f21-b9b5-4a99369403cb","system_id":"levelo_inurba_marseille","lat":43.30269,"lon":5.37711,"is_reserved":false,"is_disabled":false,"rental_uris":{"android":"levelo://app?vid=327621da-4c6f-4f21-b9b5-4a99369403cb","ios":"levelo://app?vid=327621da-4c6f-4f21-b9b5-4a99369403cb"},"vehicle_type_id":"4","last_reported":1753035250,"current_range_meters":2000,"station_id":"ce4bguh2rcd13ifvqcj0","pricing_plan_id":"cebpf4jnsgd1na2vs0mg"},{"bike_id":"64a2f514-4942-458d-b3fc-7d7fd0dfd1b1","system_id":"levelo_inurba_marseille","lat":43.21193,"lon":5.35075,"is_reserved":false,"is_disabled":false,"rental_uris":{"android":"levelo://app?vid=64a2f514-4942-458d-b3fc-7d7fd0dfd1b1","ios":"levelo://app?vid=64a2f514-4942-458d-b3fc-7d7fd0dfd1b1"},"vehicle_type_id":"4","last_reported":1753035250,"current_range_meters":2800,"station_id":"st_cvj6sg6p6f1abm77japg","pricing_plan_id":"cebpf4jnsgd1na2vs0mg"},{"bike_id":"90be13fb-7ad5-4523-8325-7180e0a58779","system_id":"levelo_inurba_marseille","lat":43.30944,"lon":5.39034,"is_reserved":false,"is_disabled":false,"rental_uris":{"android":"levelo://app?vid=90be13fb-7ad5-4523-8325-7180e0a58779","ios":"levelo://app?vid=90be13fb-7ad5-4523-8325-7180e0a58779"},"vehicle_type_id":"4","last_reported":1753035250,"current_range_meters":3200,"station_id":"ce4bgup2rcd13ifvqco0","pricing_plan_id":"cebpf4jnsgd1na2vs0mg"},{"bike_id":"be854ba8-3152-4420-97c2-b279c17ba1d1","system_id":"levelo_inurba_marseille","lat":43.262031,"lon":5.3744,"is_reserved":false,"is_disabled":true,"rental_uris":{"android":"levelo://app?vid=be854ba8-3152-4420-97c2-b279c17ba1d1","ios":"levelo://app?vid=be854ba8-3152-4420-97c2-b279c17ba1d1"},"vehicle_type_id":"4","last_reported":1753035250,"current_range_meters":3200,"station_id":"ce4bhgp2rcd13ifvqfc0","pricing_plan_id":"cebpf4jnsgd1na2vs0mg"},{"bike_id":"53cd3bc2-32f5-4e0b-bf77-53fab3c47926","system_id":"levelo_inurba_marseille","lat":43.26212,"lon":5.37444,"is_reserved":false,"is_disabled":false,"rental_uris":{"android":"levelo://app?vid=53cd3bc2-32f5-4e0b-bf77-53fab3c47926","ios":"levelo://app?vid=53cd3bc2-32f5-4e0b-bf77-53fab3c47926"},"vehicle_type_id":"4","last_reported":1753035250,"current_range_meters":3200,"station_id":"ce4bhgp2rcd13ifvqfc0","pricing_plan_id":"cebpf4jnsgd1na2vs0mg"},{"bike_id":"38b9a480-3be9-4648-9d75-b6780b0842f6","system_id":"levelo_inurba_marseille","lat":43.24075,"lon":5.37758,"is_reserved":false,"is_disabled":false,"rental_uris":{"android":"levelo://app?vid=38b9a480-3be9-4648-9d75-b6780b0842f6","ios":"levelo://app?vid=38b9a480-3be9-4648-9d75-b6780b0842f6"},"vehicle_type_id":"4","last_reported":1753035250,"current_range_meters":3600,"station_id":"ce4bhnp2rcd13ifvqgvg","pricing_plan_id":"cebpf4jnsgd1na2vs0mg"},{"bike_id":"95200c10-d6bf-4811-8286-f5791fc82c35","system_id":"levelo_inurba_marseille","lat":43.24389,"lon":5.37064,"is_reserved":false,"is_disabled":false,"rental_uris":{"android":"levelo://app?vid=95200c10-d6bf-4811-8286-f5791fc82c35","ios":"levelo://app?vid=95200c10-d6bf-4811-8286-f5791fc82c35"},"vehicle_type_id":"4","last_reported":1753035250,"current_range_meters":4000,"station_id":"ce4bhhh2rcd13ifvqfk0","pricing_plan_id":"cebpf4jnsgd1na2vs0mg"},{"bike_id":"c6db0f6a-96fe-4e1d-8ded-c2ef38c9bab4","system_id":"levelo_inurba_marseille","lat":43.305688,"lon":5.418387,"is_reserved":false,"is_disabled":true,"rental_uris":{"android":"levelo://app?vid=c6db0f6a-96fe-4e1d-8ded-c2ef38c9bab4","ios":"levelo://app?vid=c6db0f6a-96fe-4e1d-8ded-c2ef38c9bab4"},"vehicle_type_id":"4","last_reported":1753035250,"current_range_meters":4000,"station_id":"ce4bht12rcd13ifvqi60","pricing_plan_id":"cebpf4jnsgd1na2vs0mg"},{"bike_id":"ab8c511a-6481-4d3a-8469-191a883191ab","system_id":"levelo_inurba_marseille","lat":43.284028,"lon":5.375093,"is_reserved":false,"is_disabled":false,"rental_uris":{"android":"levelo://app?vid=ab8c511a-6481-4d3a-8469-191a883191ab","ios":"levelo://app?vid=ab8c511a-6481-4d3a-8469-191a883191ab"},"vehicle_type_id":"4","last_reported":1753035250,"current_range_meters":4000,"station_id":"ce4bh412rcd13ifvqds0","pricing_plan_id":"cebpf4jnsgd1na2vs0mg"},{"bike_id":"2e532954-91d6-45d0-820d-bd93ef877e83","system_id":"levelo_inurba_marseille","lat":43.303243,"lon":5.394574,"is_reserved":false,"is_disabled":true,"rental_uris":{"android":"levelo://app?vid=2e532954-91d6-45d0-820d-bd93ef877e83","ios":"levelo://app?vid=2e532954-91d6-45d0-820d-bd93ef877e83"},"vehicle_type_id":"4","last_reported":1753035250,"current_range_meters":4000,"station_id":"","pricing_plan_id":"cebpf4jnsgd1na2vs0mg"},{"bike_id":"f8dfe7dd-6155-4c5c-b006-864c954b559a","system_id":"levelo_inurba_marseille","lat":43.30306,"lon":5.36875,"is_reserved":false,"is_disabled":false,"rental_uris":{"android":"levelo://app?vid=f8dfe7dd-6155-4c5c-b006-864c954b559a","ios":"levelo://app?vid=f8dfe7dd-6155-4c5c-b006-864c954b559a"},"vehicle_type_id":"4","last_reported":1753035250,"current_range_meters":4000,"station_id":"ce4bgqh2rcd13ifvqc5g","pricing_plan_id":"cebpf4jnsgd1na2vs0mg"},{"bike_id":"57bb565d-2136-465a-803d-648474c4a3a7","system_id":"levelo_inurba_marseille","lat":43.33111,"lon":5.35485,"is_reserved":false,"is_disabled":false,"rental_uris":{"android":"levelo://app?vid=57bb565d-2136-465a-803d-648474c4a3a7","ios":"levelo://app?vid=57bb565d-2136-465a-803d-648474c4a3a7"},"vehicle_type_id":"4","last_reported":1753035250,"current_range_meters":4000,"station_id":"","pricing_plan_id":"cebpf4jnsgd1na2vs0mg"},{"bike_id":"bc71386f-1818-4471-9687-ebbd8fde0dd7","system_id":"levelo_inurba_marseille","lat":43.26968,"lon":5.36645,"is_reserved":false,"is_disabled":false,"rental_uris":{"android":"levelo://app?vid=bc71386f-1818-4471-9687-ebbd8fde0dd7","ios":"levelo://app?vid=bc71386f-1818-4471-9687-ebbd8fde0dd7"},"vehicle_type_id":"4","last_reported":1753035250,"current_range_meters":4000,"station_id":"","pricing_plan_id":"cebpf4jnsgd1na2vs0mg"},{"bike_id":"cf93587b-177e-4352-ad69-4be01831a113","system_id":"levelo_inurba_marseille","lat":43.31692,"lon":5.40458,"is_reserved":false,"is_disabled":false,"rental_uris":{"android":"levelo://app?vid=cf93587b-177e-4352-ad69-4be01831a113","ios":"levelo://app?vid=cf93587b-177e-4352-ad69-4be01831a113"},"vehicle_type_id":"4","last_reported":1753035250,"current_range_meters":4400,"station_id":"ce4bh012rcd13ifvqd00","pricing_plan_id":"cebpf4jnsgd1na2vs0mg"},{"bike_id":"5175554d-a415-4dbb-856d-8004ee78b65b","system_id":"levelo_inurba_marseille","lat":43.31332,"lon":5.39699,"is_reserved":false,"is_disabled":false,"rental_uris":{"android":"levelo://app?vid=5175554d-a415-4dbb-856d-8004ee78b65b","ios":"levelo://app?vid=5175554d-a415-4dbb-856d-8004ee78b65b"},"vehicle_type_id":"4","last_reported":1753035250,"current_range_meters":4800,"station_id":"ce4bgvp2rcd13ifvqcu0","pricing_plan_id":"cebpf4jnsgd1na2vs0mg"},{"bike_id":"054ecc6e-2b4c-4c54-9135-4206be8521bc","system_id":"levelo_inurba_marseille","lat":43.30645,"lon":5.40076,"is_reserved":false,"is_disabled":false,"rental_uris":{"android":"levelo://app?vid=054ecc6e-2b4c-4c54-9135-4206be8521bc","ios":"levelo://app?vid=054ecc6e-2b4c-4c54-9135-4206be8521bc"},"vehicle_type_id":"4","last_reported":1753035250,"current_range_meters":4800,"station_id":"ce4bh112rcd13ifvqda0","pricing_plan_id":"cebpf4jnsgd1na2vs0mg"},{"bike_id":"6456e0a7-c625-414b-8703-f6ac4337374c","system_id":"levelo_inurba_marseille","lat":43.292603,"lon":5.376191,"is_reserved":false,"is_disabled":false,"rental_uris":{"android":"levelo://app?vid=6456e0a7-c625-414b-8703-f6ac4337374c","ios":"levelo://app?vid=6456e0a7-c625-414b-8703-f6ac4337374c"},"vehicle_type_id":"4","last_reported":1753035250,"current_range_meters":5600,"station_id":"ce4bgi12rcd13ifvqb80","pricing_plan_id":"cebpf4jnsgd1na2vs0mg"},{"bike_id":"8d5f13da-d5c2-4387-bab5-9a759b98851d","system_id":"levelo_inurba_marseille","lat":43.255792,"lon":5.382301,"is_reserved":false,"is_disabled":true,"rental_uris":{"android":"levelo://app?vid=8d5f13da-d5c2-4387-bab5-9a759b98851d","ios":"levelo://app?vid=8d5f13da-d5c2-4387-bab5-9a759b98851d"},"vehicle_type_id":"4","last_reported":1753035250,"current_range_meters":5600,"station_id":"ce4bhih2rcd13ifvqfs0","pricing_plan_id":"cebpf4jnsgd1na2vs0mg"},{"bike_id":"787a3890-afb8-4675-acb6-69dc65ef815a","system_id":"levelo_inurba_marseille","lat":43.25,"lon":5.38922,"is_reserved":false,"is_disabled":false,"rental_uris":{"android":"levelo://app?vid=787a3890-afb8-4675-acb6-69dc65ef815a","ios":"levelo://app?vid=787a3890-afb8-4675-acb6-69dc65ef815a"},"vehicle_type_id":"4","last_reported":1753035250,"current_range_meters":5600,"station_id":"ce4bhgp2rcd13ifvqfd0","pricing_plan_id":"cebpf4jnsgd1na2vs0mg"},{"bike_id":"6f18ab1b-0c74-47b1-bed8-837677176207","system_id":"levelo_inurba_marseille","lat":43.32064,"lon":5.40954,"is_reserved":false,"is_disabled":true,"rental_uris":{"android":"levelo://app?vid=6f18ab1b-0c74-47b1-bed8-837677176207","ios":"levelo://app?vid=6f18ab1b-0c74-47b1-bed8-837677176207"},"vehicle_type_id":"4","last_reported":1753035250,"current_range_meters":6000,"station_id":"","pricing_plan_id":"cebpf4jnsgd1na2vs0mg"},{"bike_id":"1fe2880b-fff2-4370-ad25-a3aa0d8cf384","system_id":"levelo_inurba_marseille","lat":43.26227,"lon":5.40456,"is_reserved":false,"is_disabled":false,"rental_uris":{"android":"levelo://app?vid=1fe2880b-fff2-4370-ad25-a3aa0d8cf384","ios":"levelo://app?vid=1fe2880b-fff2-4370-ad25-a3aa0d8cf384"},"vehicle_type_id":"4","last_reported":1753035250,"current_range_meters":6000,"station_id":"ce4bhmh2rcd13ifvqgmg","pricing_plan_id":"cebpf4jnsgd1na2vs0mg"},{"bike_id":"2d5426b7-c5ef-4761-9a4a-28e19dac621a","system_id":"levelo_inurba_marseille","lat":43.304236,"lon":5.412866,"is_reserved":false,"is_disabled":true,"rental_uris":{"android":"levelo://app?vid=2d5426b7-c5ef-4761-9a4a-28e19dac621a","ios":"levelo://app?vid=2d5426b7-c5ef-4761-9a4a-28e19dac621a"},"vehicle_type_id":"4","last_reported":1753035250,"current_range_meters":6400,"station_id":"ce4bhop2rcd13ifvqh8g","pricing_plan_id":"cebpf4jnsgd1na2vs0mg"},{"bike_id":"a3ade69d-c59f-4658-ba58-709b01a011b7","system_id":"levelo_inurba_marseille","lat":43.28038,"lon":5.36936,"is_reserved":false,"is_disabled":false,"rental_uris":{"android":"levelo://app?vid=a3ade69d-c59f-4658-ba58-709b01a011b7","ios":"levelo://app?vid=a3ade69d-c59f-4658-ba58-709b01a011b7"},"vehicle_type_id":"4","last_reported":1753035250,"current_range_meters":6400,"station_id":"ce4bha12rcd13ifvqef0","pricing_plan_id":"cebpf4jnsgd1na2vs0mg"},{"bike_id":"475b9799-8c28-49d7-a2bd-b989a871d401","system_id":"levelo_inurba_marseille","lat":43.240742,"lon":5.377536,"is_reserved":false,"is_disabled":true,"rental_uris":{"android":"levelo://app?vid=475b9799-8c28-49d7-a2bd-b989a871d401","ios":"levelo://app?vid=475b9799-8c28-49d7-a2bd-b989a871d401"},"vehicle_type_id":"4","last_reported":1753035250,"current_range_meters":6800,"station_id":"ce4bhnp2rcd13ifvqgvg","pricing_plan_id":"cebpf4jnsgd1na2vs0mg"},{"bike_id":"38ce8a6a-f1a0-4438-a6e9-dea47a9afc4a","system_id":"levelo_inurba_marseille","lat":43.31111,"lon":5.37765,"is_reserved":false,"is_disabled":false,"rental_uris":{"android":"levelo://app?vid=38ce8a6a-f1a0-4438-a6e9-dea47a9afc4a","ios":"levelo://app?vid=38ce8a6a-f1a0-4438-a6e9-dea47a9afc4a"},"vehicle_type_id":"4","last_reported":1753035250,"current_range_meters":6800,"station_id":"ce4bgt92rcd13ifvqcg0","pricing_plan_id":"cebpf4jnsgd1na2vs0mg"},{"bike_id":"a11549b0-af35-48f6-8aa1-9ee0e841a35f","system_id":"levelo_inurba_marseille","lat":43.26211,"lon":5.37447,"is_reserved":false,"is_disabled":false,"rental_uris":{"android":"levelo://app?vid=a11549b0-af35-48f6-8aa1-9ee0e841a35f","ios":"levelo://app?vid=a11549b0-af35-48f6-8aa1-9ee0e841a35f"},"vehicle_type_id":"4","last_reported":1753035250,"current_range_meters":6800,"station_id":"ce4bhgp2rcd13ifvqfc0","pricing_plan_id":"cebpf4jnsgd1na2vs0mg"},{"bike_id":"06fcaf41-a3b3-4096-a515-28545e82af83","system_id":"levelo_inurba_marseille","lat":43.22692,"lon":5.34803,"is_reserved":false,"is_disabled":false,"rental_uris":{"android":"levelo://app?vid=06fcaf41-a3b3-4096-a515-28545e82af83","ios":"levelo://app?vid=06fcaf41-a3b3-4096-a515-28545e82af83"},"vehicle_type_id":"4","last_reported":1753035250,"current_range_meters":6800,"station_id":"","pricing_plan_id":"cebpf4jnsgd1na2vs0mg"},{"bike_id":"05707400-3844-4773-8529-65cf4432e347","system_id":"levelo_inurba_marseille","lat":43.33605,"lon":5.4103,"is_reserved":false,"is_disabled":false,"rental_uris":{"android":"levelo://app?vid=05707400-3844-4773-8529-65cf4432e347","ios":"levelo://app?vid=05707400-3844-4773-8529-65cf4432e347"},"vehicle_type_id":"4","last_reported":1753035250,"current_range_meters":6800,"station_id":"ce4bhqh2rcd13ifvqhmg","pricing_plan_id":"cebpf4jnsgd1na2vs0mg"},{"bike_id":"83cdc87e-b3d9-4e00-88f8-c28ac19a45bd","system_id":"levelo_inurba_marseille","lat":43.30938,"lon":5.40137,"is_reserved":false,"is_disabled":false,"rental_uris":{"android":"levelo://app?vid=83cdc87e-b3d9-4e00-88f8-c28ac19a45bd","ios":"levelo://app?vid=83cdc87e-b3d9-4e00-88f8-c28ac19a45bd"},"vehicle_type_id":"4","last_reported":1753035250,"current_range_meters":6800,"station_id":"ce4bgvp2rcd13ifvqct0","pricing_plan_id":"cebpf4jnsgd1na2vs0mg"},{"bike_id":"1e7ee3c7-7313-4cf1-becc-c25fa75d4399","system_id":"levelo_inurba_marseille","lat":43.284546,"lon":5.358719,"is_reserved":false,"is_disabled":false,"rental_uris":{"android":"levelo://app?vid=1e7ee3c7-7313-4cf1-becc-c25fa75d4399","ios":"levelo://app?vid=1e7ee3c7-7313-4cf1-becc-c25fa75d4399"},"vehicle_type_id":"4","last_reported":1753035250,"current_range_meters":6800,"station_id":"ce4bh2p2rcd13ifvqdi0","pricing_plan_id":"cebpf4jnsgd1na2vs0mg"},{"bike_id":"b3e8d1dd-81a4-4761-8509-afb99f2e09c2","system_id":"levelo_inurba_marseille","lat":43.30316,"lon":5.40431,"is_reserved":false,"is_disabled":false,"rental_uris":{"android":"levelo://app?vid=b3e8d1dd-81a4-4761-8509-afb99f2e09c2","ios":"levelo://app?vid=b3e8d1dd-81a4-4761-8509-afb99f2e09c2"},"vehicle_type_id":"4","last_reported":1753035250,"current_range_meters":7200,"station_id":"ce4bh012rcd13ifvqd10","pricing_plan_id":"cebpf4jnsgd1na2vs0mg"},{"bike_id":"11a43a3e-2d75-4df3-ba59-43e1875d5f3e","system_id":"levelo_inurba_marseille","lat":43.24173,"lon":5.36401,"is_reserved":false,"is_disabled":true,"rental_uris":{"android":"levelo://app?vid=11a43a3e-2d75-4df3-ba59-43e1875d5f3e","ios":"levelo://app?vid=11a43a3e-2d75-4df3-ba59-43e1875d5f3e"},"vehicle_type_id":"4","last_reported":1753035250,"current_range_meters":7200,"station_id":"cpo36qri1sfpv3e86is0","pricing_plan_id":"cebpf4jnsgd1na2vs0mg"},{"bike_id":"8259e16e-b654-470a-9f23-61a37fe84369","system_id":"levelo_inurba_marseille","lat":43.29865,"lon":5.39729,"is_reserved":false,"is_disabled":false,"rental_uris":{"android":"levelo://app?vid=8259e16e-b654-470a-9f23-61a37fe84369","ios":"levelo://app?vid=8259e16e-b654-470a-9f23-61a37fe84369"},"vehicle_type_id":"4","last_reported":1753035250,"current_range_meters":7200,"station_id":"ce4bh0h2rcd13ifvqd50","pricing_plan_id":"cebpf4jnsgd1na2vs0mg"},{"bike_id":"0d1a74c2-cf29-4b33-9483-9cdc91bbabb4","system_id":"levelo_inurba_marseille","lat":43.231608,"lon":5.436958,"is_reserved":false,"is_disabled":false,"rental_uris":{"android":"levelo://app?vid=0d1a74c2-cf29-4b33-9483-9cdc91bbabb4","ios":"levelo://app?vid=0d1a74c2-cf29-4b33-9483-9cdc91bbabb4"},"vehicle_type_id":"4","last_reported":1753035250,"current_range_meters":8000,"station_id":"ce4bhmp2rcd13ifvqgog","pricing_plan_id":"cebpf4jnsgd1na2vs0mg"},{"bike_id":"eaad0ba3-d573-4f3f-921a-40d7308ea5cd","system_id":"levelo_inurba_marseille","lat":43.30433,"lon":5.38882,"is_reserved":false,"is_disabled":false,"rental_uris":{"android":"levelo://app?vid=eaad0ba3-d573-4f3f-921a-40d7308ea5cd","ios":"levelo://app?vid=eaad0ba3-d573-4f3f-921a-40d7308ea5cd"},"vehicle_type_id":"4","last_reported":1753035250,"current_range_meters":8000,"station_id":"ce4bgk12rcd13ifvqbi0","pricing_plan_id":"cebpf4jnsgd1na2vs0mg"},{"bike_id":"69330df8-278b-4233-a183-c9c5c17b0812","system_id":"levelo_inurba_marseille","lat":43.29933,"lon":5.36537,"is_reserved":false,"is_disabled":false,"rental_uris":{"android":"levelo://app?vid=69330df8-278b-4233-a183-c9c5c17b0812","ios":"levelo://app?vid=69330df8-278b-4233-a183-c9c5c17b0812"},"vehicle_type_id":"4","last_reported":1753035250,"current_range_meters":8000,"station_id":"ce4bgm92rcd13ifvqbr0","pricing_plan_id":"cebpf4jnsgd1na2vs0mg"},{"bike_id":"efc75dae-a1d8-4073-850b-7ee7daef90c7","system_id":"levelo_inurba_marseille","lat":43.29767,"lon":5.37105,"is_reserved":false,"is_disabled":false,"rental_uris":{"android":"levelo://app?vid=efc75dae-a1d8-4073-850b-7ee7daef90c7","ios":"levelo://app?vid=efc75dae-a1d8-4073-850b-7ee7daef90c7"},"vehicle_type_id":"4","last_reported":1753035250,"current_range_meters":8000,"station_id":"ce4bgop2rcd13ifvqc1g","pricing_plan_id":"cebpf4jnsgd1na2vs0mg"},{"bike_id":"99175f43-0eb0-4f90-b03f-bed3404dc3db","system_id":"levelo_inurba_marseille","lat":43.309614,"lon":5.390286,"is_reserved":false,"is_disabled":false,"rental_uris":{"android":"levelo://app?vid=99175f43-0eb0-4f90-b03f-bed3404dc3db","ios":"levelo://app?vid=99175f43-0eb0-4f90-b03f-bed3404dc3db"},"vehicle_type_id":"4","last_reported":1753035250,"current_range_meters":8000,"station_id":"ce4bgup2rcd13ifvqco0","pricing_plan_id":"cebpf4jnsgd1na2vs0mg"},{"bike_id":"12d8a105-7d95-4291-8874-65b50e58f378","system_id":"levelo_inurba_marseille","lat":43.23183,"lon":5.39977,"is_reserved":false,"is_disabled":false,"rental_uris":{"android":"levelo://app?vid=12d8a105-7d95-4291-8874-65b50e58f378","ios":"levelo://app?vid=12d8a105-7d95-4291-8874-65b50e58f378"},"vehicle_type_id":"4","last_reported":1753035250,"current_range_meters":8000,"station_id":"ce4bhn12rcd13ifvqgqg","pricing_plan_id":"cebpf4jnsgd1na2vs0mg"},{"bike_id":"1cfc1186-f9d1-4ba7-90a7-ff400f5fe39c","system_id":"levelo_inurba_marseille","lat":43.28927,"lon":5.3839,"is_reserved":false,"is_disabled":false,"rental_uris":{"android":"levelo://app?vid=1cfc1186-f9d1-4ba7-90a7-ff400f5fe39c","ios":"levelo://app?vid=1cfc1186-f9d1-4ba7-90a7-ff400f5fe39c"},"vehicle_type_id":"4","last_reported":1753035250,"current_range_meters":8000,"station_id":"ce4bh612rcd13ifvqe6g","pricing_plan_id":"cebpf4jnsgd1na2vs0mg"},{"bike_id":"1c34f659-e5a0-4ca5-8524-c6e4aa22787e","system_id":"levelo_inurba_marseille","lat":43.30187,"lon":5.36603,"is_reserved":false,"is_disabled":false,"rental_uris":{"android":"levelo://app?vid=1c34f659-e5a0-4ca5-8524-c6e4aa22787e","ios":"levelo://app?vid=1c34f659-e5a0-4ca5-8524-c6e4aa22787e"},"vehicle_type_id":"4","last_reported":1753035250,"current_range_meters":8000,"station_id":"ce4bgrh2rcd13ifvqc8g","pricing_plan_id":"cebpf4jnsgd1na2vs0mg"},{"bike_id":"94c07cb2-0943-4d24-99f2-97bdab47aa3f","system_id":"levelo_inurba_marseille","lat":43.337444,"lon":5.374475,"is_reserved":false,"is_disabled":false,"rental_uris":{"android":"levelo://app?vid=94c07cb2-0943-4d24-99f2-97bdab47aa3f","ios":"levelo://app?vid=94c07cb2-0943-4d24-99f2-97bdab47aa3f"},"vehicle_type_id":"4","last_reported":1753035250,"current_range_meters":8000,"station_id":"","pricing_plan_id":"cebpf4jnsgd1na2vs0mg"},{"bike_id":"0aab618c-b890-4604-80ad-1893bb9c7269","system_id":"levelo_inurba_marseille","lat":43.26228,"lon":5.4045,"is_reserved":false,"is_disabled":false,"rental_uris":{"android":"levelo://app?vid=0aab618c-b890-4604-80ad-1893bb9c7269","ios":"levelo://app?vid=0aab618c-b890-4604-80ad-1893bb9c7269"},"vehicle_type_id":"4","last_reported":1753035250,"current_range_meters":8400,"station_id":"ce4bhmh2rcd13ifvqgmg","pricing_plan_id":"cebpf4jnsgd1na2vs0mg"},{"bike_id":"732155d5-6c12-4758-9ead-5d629108854f","system_id":"levelo_inurba_marseille","lat":43.30953,"lon":5.39041,"is_reserved":false,"is_disabled":false,"rental_uris":{"android":"levelo://app?vid=732155d5-6c12-4758-9ead-5d629108854f","ios":"levelo://app?vid=732155d5-6c12-4758-9ead-5d629108854f"},"vehicle_type_id":"4","last_reported":1753035250,"current_range_meters":8400,"station_id":"ce4bgup2rcd13ifvqco0","pricing_plan_id":"cebpf4jnsgd1na2vs0mg"},{"bike_id":"71e64412-f58a-4c02-a56d-84bb27bda6b3","system_id":"levelo_inurba_marseille","lat":43.28927,"lon":5.384,"is_reserved":false,"is_disabled":false,"rental_uris":{"android":"levelo://app?vid=71e64412-f58a-4c02-a56d-84bb27bda6b3","ios":"levelo://app?vid=71e64412-f58a-4c02-a56d-84bb27bda6b3"},"vehicle_type_id":"4","last_reported":1753035250,"current_range_meters":8400,"station_id":"ce4bh612rcd13ifvqe6g","pricing_plan_id":"cebpf4jnsgd1na2vs0mg"},{"bike_id":"04dd64cb-d78a-47b0-a87d-dc70723c3ecc","system_id":"levelo_inurba_marseille","lat":43.317618,"lon":5.390131,"is_reserved":false,"is_disabled":false,"rental_uris":{"android":"levelo://app?vid=04dd64cb-d78a-47b0-a87d-dc70723c3ecc","ios":"levelo://app?vid=04dd64cb-d78a-47b0-a87d-dc70723c3ecc"},"vehicle_type_id":"4","last_reported":1753035250,"current_range_meters":8800,"station_id":"ce4bhqp2rcd13ifvqhng","pricing_plan_id":"cebpf4jnsgd1na2vs0mg"},{"bike_id":"dbe3f53f-5cf1-428e-b135-1e976ecdd9e1","system_id":"levelo_inurba_marseille","lat":43.229295,"lon":5.353761,"is_reserved":false,"is_disabled":true,"rental_uris":{"android":"levelo://app?vid=dbe3f53f-5cf1-428e-b135-1e976ecdd9e1","ios":"levelo://app?vid=dbe3f53f-5cf1-428e-b135-1e976ecdd9e1"},"vehicle_type_id":"4","last_reported":1753035250,"current_range_meters":8800,"station_id":"","pricing_plan_id":"cebpf4jnsgd1na2vs0mg"},{"bike_id":"663185e5-990f-4787-8759-3cd75a37d8b6","system_id":"levelo_inurba_marseille","lat":43.24174,"lon":5.39741,"is_reserved":false,"is_disabled":false,"rental_uris":{"android":"levelo://app?vid=663185e5-990f-4787-8759-3cd75a37d8b6","ios":"levelo://app?vid=663185e5-990f-4787-8759-3cd75a37d8b6"},"vehicle_type_id":"4","last_reported":1753035250,"current_range_meters":8800,"station_id":"ce4bhn12rcd13ifvqgpg","pricing_plan_id":"cebpf4jnsgd1na2vs0mg"},{"bike_id":"d9961fb5-3c2e-4788-a90e-c2e0a7337589","system_id":"levelo_inurba_marseille","lat":43.29711,"lon":5.36607,"is_reserved":false,"is_disabled":false,"rental_uris":{"android":"levelo://app?vid=d9961fb5-3c2e-4788-a90e-c2e0a7337589","ios":"levelo://app?vid=d9961fb5-3c2e-4788-a90e-c2e0a7337589"},"vehicle_type_id":"4","last_reported":1753035250,"current_range_meters":9200,"station_id":"ce4bgn12rcd13ifvqbt0","pricing_plan_id":"cebpf4jnsgd1na2vs0mg"},{"bike_id":"9672c077-fd83-4c70-bce8-00167100d3e7","system_id":"levelo_inurba_marseille","lat":43.28368,"lon":5.38624,"is_reserved":false,"is_disabled":false,"rental_uris":{"android":"levelo://app?vid=9672c077-fd83-4c70-bce8-00167100d3e7","ios":"levelo://app?vid=9672c077-fd83-4c70-bce8-00167100d3e7"},"vehicle_type_id":"4","last_reported":1753035250,"current_range_meters":9200,"station_id":"ce4bh492rcd13ifvqdvg","pricing_plan_id":"cebpf4jnsgd1na2vs0mg"},{"bike_id":"c05c2d43-3640-46c8-8c24-553607c82bfb","system_id":"levelo_inurba_marseille","lat":43.29633,"lon":5.37153,"is_reserved":false,"is_disabled":false,"rental_uris":{"android":"levelo://app?vid=c05c2d43-3640-46c8-8c24-553607c82bfb","ios":"levelo://app?vid=c05c2d43-3640-46c8-8c24-553607c82bfb"},"vehicle_type_id":"4","last_reported":1753035250,"current_range_meters":9600,"station_id":"","pricing_plan_id":"cebpf4jnsgd1na2vs0mg"},{"bike_id":"0fd02cf6-67fb-4589-807f-241dd50b7e1a","system_id":"levelo_inurba_marseille","lat":43.29903,"lon":5.43579,"is_reserved":false,"is_disabled":true,"rental_uris":{"android":"levelo://app?vid=0fd02cf6-67fb-4589-807f-241dd50b7e1a","ios":"levelo://app?vid=0fd02cf6-67fb-4589-807f-241dd50b7e1a"},"vehicle_type_id":"4","last_reported":1753035250,"current_range_meters":9600,"station_id":"ce4bhpp2rcd13ifvqhfg","pricing_plan_id":"cebpf4jnsgd1na2vs0mg"},{"bike_id":"2f7b9cdf-b6c7-4492-81a2-2bd894f35745","system_id":"levelo_inurba_marseille","lat":43.23076,"lon":5.35501,"is_reserved":false,"is_disabled":true,"rental_uris":{"android":"levelo://app?vid=2f7b9cdf-b6c7-4492-81a2-2bd894f35745","ios":"levelo://app?vid=2f7b9cdf-b6c7-4492-81a2-2bd894f35745"},"vehicle_type_id":"4","last_reported":1753035250,"current_range_meters":9600,"station_id":"cpo3342slgdg3j2ifvpg","pricing_plan_id":"cebpf4jnsgd1na2vs0mg"},{"bike_id":"cbd7089c-9d2d-42db-a268-faaaa69d7343","system_id":"levelo_inurba_marseille","lat":43.26232,"lon":5.37406,"is_reserved":false,"is_disabled":true,"rental_uris":{"android":"levelo://app?vid=cbd7089c-9d2d-42db-a268-faaaa69d7343","ios":"levelo://app?vid=cbd7089c-9d2d-42db-a268-faaaa69d7343"},"vehicle_type_id":"4","last_reported":1753035250,"current_range_meters":9600,"station_id":"","pricing_plan_id":"cebpf4jnsgd1na2vs0mg"},{"bike_id":"8651eeb9-bc01-49a2-a35a-1eefeefccf62","system_id":"levelo_inurba_marseille","lat":43.26679,"lon":5.38267,"is_reserved":false,"is_disabled":false,"rental_uris":{"android":"levelo://app?vid=8651eeb9-bc01-49a2-a35a-1eefeefccf62","ios":"levelo://app?vid=8651eeb9-bc01-49a2-a35a-1eefeefccf62"},"vehicle_type_id":"4","last_reported":1753035250,"current_range_meters":9600,"station_id":"ce4bhg92rcd13ifvqf90","pricing_plan_id":"cebpf4jnsgd1na2vs0mg"},{"bike_id":"cbdcd63e-c995-46bb-b10e-1c5d9796f11e","system_id":"levelo_inurba_marseille","lat":43.33728,"lon":5.39175,"is_reserved":false,"is_disabled":false,"rental_uris":{"android":"levelo://app?vid=cbdcd63e-c995-46bb-b10e-1c5d9796f11e","ios":"levelo://app?vid=cbdcd63e-c995-46bb-b10e-1c5d9796f11e"},"vehicle_type_id":"4","last_reported":1753035250,"current_range_meters":10000,"station_id":"ce4bhr92rcd13ifvqhsg","pricing_plan_id":"cebpf4jnsgd1na2vs0mg"},{"bike_id":"cf9f7b6f-b252-45aa-bd41-e7b8a5947e88","system_id":"levelo_inurba_marseille","lat":43.269447,"lon":5.402811,"is_reserved":false,"is_disabled":true,"rental_uris":{"android":"levelo://app?vid=cf9f7b6f-b252-45aa-bd41-e7b8a5947e88","ios":"levelo://app?vid=cf9f7b6f-b252-45aa-bd41-e7b8a5947e88"},"vehicle_type_id":"4","last_reported":1753035250,"current_range_meters":10000,"station_id":"cjm6bp8fraef2m0cb0m0","pricing_plan_id":"cebpf4jnsgd1na2vs0mg"},{"bike_id":"f5bead43-d3de-4cfe-88ab-507979309934","system_id":"levelo_inurba_marseille","lat":43.30958,"lon":5.39045,"is_reserved":false,"is_disabled":false,"rental_uris":{"android":"levelo://app?vid=f5bead43-d3de-4cfe-88ab-507979309934","ios":"levelo://app?vid=f5bead43-d3de-4cfe-88ab-507979309934"},"vehicle_type_id":"4","last_reported":1753035250,"current_range_meters":10000,"station_id":"ce4bgup2rcd13ifvqco0","pricing_plan_id":"cebpf4jnsgd1na2vs0mg"},{"bike_id":"3581e735-186c-4f7c-a905-f7969175be88","system_id":"levelo_inurba_marseille","lat":43.32286,"lon":5.38292,"is_reserved":false,"is_disabled":false,"rental_uris":{"android":"levelo://app?vid=3581e735-186c-4f7c-a905-f7969175be88","ios":"levelo://app?vid=3581e735-186c-4f7c-a905-f7969175be88"},"vehicle_type_id":"4","last_reported":1753035250,"current_range_meters":10000,"station_id":"ce4bhr12rcd13ifvqhqg","pricing_plan_id":"cebpf4jnsgd1na2vs0mg"},{"bike_id":"9e379ffe-078a-4e89-996d-18a5e63bc2df","system_id":"levelo_inurba_marseille","lat":43.29631,"lon":5.37148,"is_reserved":false,"is_disabled":false,"rental_uris":{"android":"levelo://app?vid=9e379ffe-078a-4e89-996d-18a5e63bc2df","ios":"levelo://app?vid=9e379ffe-078a-4e89-996d-18a5e63bc2df"},"vehicle_type_id":"4","last_reported":1753035250,"current_range_meters":10000,"station_id":"","pricing_plan_id":"cebpf4jnsgd1na2vs0mg"},{"bike_id":"86c88981-7c8a-474f-838a-e3fb6c31afd2","system_id":"levelo_inurba_marseille","lat":43.231814,"lon":5.399867,"is_reserved":false,"is_disabled":false,"rental_uris":{"android":"levelo://app?vid=86c88981-7c8a-474f-838a-e3fb6c31afd2","ios":"levelo://app?vid=86c88981-7c8a-474f-838a-e3fb6c31afd2"},"vehicle_type_id":"4","last_reported":1753035250,"current_range_meters":10000,"station_id":"ce4bhn12rcd13ifvqgqg","pricing_plan_id":"cebpf4jnsgd1na2vs0mg"},{"bike_id":"2c5ddb33-4cc8-4122-8dea-005c4069864d","system_id":"levelo_inurba_marseille","lat":43.29615,"lon":5.3716,"is_reserved":false,"is_disabled":false,"rental_uris":{"android":"levelo://app?vid=2c5ddb33-4cc8-4122-8dea-005c4069864d","ios":"levelo://app?vid=2c5ddb33-4cc8-4122-8dea-005c4069864d"},"vehicle_type_id":"4","last_reported":1753035250,"current_range_meters":10800,"station_id":"","pricing_plan_id":"cebpf4jnsgd1na2vs0mg"},{"bike_id":"ae6ef1f0-2b2e-431e-af77-b08c94a38bfc","system_id":"levelo_inurba_marseille","lat":43.29608,"lon":5.38615,"is_reserved":false,"is_disabled":false,"rental_uris":{"android":"levelo://app?vid=ae6ef1f0-2b2e-431e-af77-b08c94a38bfc","ios":"levelo://app?vid=ae6ef1f0-2b2e-431e-af77-b08c94a38bfc"},"vehicle_type_id":"4","last_reported":1753035250,"current_range_meters":10800,"station_id":"","pricing_plan_id":"cebpf4jnsgd1na2vs0mg"},{"bike_id":"7da69f3d-17ea-45bd-8065-f715d544d5a5","system_id":"levelo_inurba_marseille","lat":43.27079,"lon":5.4226,"is_reserved":false,"is_disabled":false,"rental_uris":{"android":"levelo://app?vid=7da69f3d-17ea-45bd-8065-f715d544d5a5","ios":"levelo://app?vid=7da69f3d-17ea-45bd-8065-f715d544d5a5"},"vehicle_type_id":"4","last_reported":1753035250,"current_range_meters":10800,"station_id":"ce4bhk92rcd13ifvqgb0","pricing_plan_id":"cebpf4jnsgd1na2vs0mg"},{"bike_id":"ac141403-2eff-454e-8bd1-3d400d40ed2b","system_id":"levelo_inurba_marseille","lat":43.33103,"lon":5.39996,"is_reserved":false,"is_disabled":false,"rental_uris":{"android":"levelo://app?vid=ac141403-2eff-454e-8bd1-3d400d40ed2b","ios":"levelo://app?vid=ac141403-2eff-454e-8bd1-3d400d40ed2b"},"vehicle_type_id":"4","last_reported":1753035250,"current_range_meters":10800,"station_id":"","pricing_plan_id":"cebpf4jnsgd1na2vs0mg"},{"bike_id":"a6de290b-5c15-427b-bc37-8301607e1735","system_id":"levelo_inurba_marseille","lat":43.337444,"lon":5.374475,"is_reserved":false,"is_disabled":false,"rental_uris":{"android":"levelo://app?vid=a6de290b-5c15-427b-bc37-8301607e1735","ios":"levelo://app?vid=a6de290b-5c15-427b-bc37-8301607e1735"},"vehicle_type_id":"4","last_reported":1753035250,"current_range_meters":10800,"station_id":"","pricing_plan_id":"cebpf4jnsgd1na2vs0mg"},{"bike_id":"ed415a14-b4b4-4caf-8a06-7fd1c907bac5","system_id":"levelo_inurba_marseille","lat":43.217436,"lon":5.346034,"is_reserved":false,"is_disabled":false,"rental_uris":{"android":"levelo://app?vid=ed415a14-b4b4-4caf-8a06-7fd1c907bac5","ios":"levelo://app?vid=ed415a14-b4b4-4caf-8a06-7fd1c907bac5"},"vehicle_type_id":"4","last_reported":1753035250,"current_range_meters":10800,"station_id":"st_cvj6r9ubvosntc0bgbag","pricing_plan_id":"cebpf4jnsgd1na2vs0mg"},{"bike_id":"892e06aa-05f6-415f-96f6-13455b0802de","system_id":"levelo_inurba_marseille","lat":43.295829,"lon":5.375069,"is_reserved":false,"is_disabled":true,"rental_uris":{"android":"levelo://app?vid=892e06aa-05f6-415f-96f6-13455b0802de","ios":"levelo://app?vid=892e06aa-05f6-415f-96f6-13455b0802de"},"vehicle_type_id":"4","last_reported":1753035250,"current_range_meters":10800,"station_id":"ce4bgh92rcd13ifvqb50","pricing_plan_id":"cebpf4jnsgd1na2vs0mg"},{"bike_id":"d2885ec6-9c7e-42eb-97af-cd2f2cee2049","system_id":"levelo_inurba_marseille","lat":43.29048,"lon":5.35907,"is_reserved":false,"is_disabled":false,"rental_uris":{"android":"levelo://app?vid=d2885ec6-9c7e-42eb-97af-cd2f2cee2049","ios":"levelo://app?vid=d2885ec6-9c7e-42eb-97af-cd2f2cee2049"},"vehicle_type_id":"4","last_reported":1753035250,"current_range_meters":10800,"station_id":"ce4bha92rcd13ifvqeg0","pricing_plan_id":"cebpf4jnsgd1na2vs0mg"},{"bike_id":"4268961c-8e3c-4bac-891f-a8846cba533f","system_id":"levelo_inurba_marseille","lat":43.32465,"lon":5.36541,"is_reserved":false,"is_disabled":false,"rental_uris":{"android":"levelo://app?vid=4268961c-8e3c-4bac-891f-a8846cba533f","ios":"levelo://app?vid=4268961c-8e3c-4bac-891f-a8846cba533f"},"vehicle_type_id":"4","last_reported":1753035250,"current_range_meters":10800,"station_id":"ce4bhs12rcd13ifvqhvg","pricing_plan_id":"cebpf4jnsgd1na2vs0mg"},{"bike_id":"5e3dec28-7b37-4e0a-8ac9-83a9a27b1e83","system_id":"levelo_inurba_marseille","lat":43.24546,"lon":5.39526,"is_reserved":false,"is_disabled":false,"rental_uris":{"android":"levelo://app?vid=5e3dec28-7b37-4e0a-8ac9-83a9a27b1e83","ios":"levelo://app?vid=5e3dec28-7b37-4e0a-8ac9-83a9a27b1e83"},"vehicle_type_id":"4","last_reported":1753035250,"current_range_meters":10800,"station_id":"ce4bhlp2rcd13ifvqgjg","pricing_plan_id":"cebpf4jnsgd1na2vs0mg"},{"bike_id":"386d72cf-db57-4a92-97d6-7579d8b04383","system_id":"levelo_inurba_marseille","lat":43.29932,"lon":5.36527,"is_reserved":false,"is_disabled":false,"rental_uris":{"android":"levelo://app?vid=386d72cf-db57-4a92-97d6-7579d8b04383","ios":"levelo://app?vid=386d72cf-db57-4a92-97d6-7579d8b04383"},"vehicle_type_id":"4","last_reported":1753035250,"current_range_meters":10800,"station_id":"ce4bgm92rcd13ifvqbr0","pricing_plan_id":"cebpf4jnsgd1na2vs0mg"},{"bike_id":"325a9bd4-689b-40d4-ac71-6046cd4890a5","system_id":"levelo_inurba_marseille","lat":43.28946,"lon":5.36389,"is_reserved":false,"is_disabled":true,"rental_uris":{"android":"levelo://app?vid=325a9bd4-689b-40d4-ac71-6046cd4890a5","ios":"levelo://app?vid=325a9bd4-689b-40d4-ac71-6046cd4890a5"},"vehicle_type_id":"4","last_reported":1753035250,"current_range_meters":10800,"station_id":"ce4bhc92rcd13ifvqetg","pricing_plan_id":"cebpf4jnsgd1na2vs0mg"},{"bike_id":"f18952d9-de72-4b00-ac50-ca46d1bc16b9","system_id":"levelo_inurba_marseille","lat":43.211942,"lon":5.350706,"is_reserved":false,"is_disabled":false,"rental_uris":{"android":"levelo://app?vid=f18952d9-de72-4b00-ac50-ca46d1bc16b9","ios":"levelo://app?vid=f18952d9-de72-4b00-ac50-ca46d1bc16b9"},"vehicle_type_id":"4","last_reported":1753035250,"current_range_meters":10800,"station_id":"st_cvj6sg6p6f1abm77japg","pricing_plan_id":"cebpf4jnsgd1na2vs0mg"},{"bike_id":"d25b3b74-1eb0-48d4-998a-10d14228da57","system_id":"levelo_inurba_marseille","lat":43.297108,"lon":5.366259,"is_reserved":false,"is_disabled":true,"rental_uris":{"android":"levelo://app?vid=d25b3b74-1eb0-48d4-998a-10d14228da57","ios":"levelo://app?vid=d25b3b74-1eb0-48d4-998a-10d14228da57"},"vehicle_type_id":"4","last_reported":1753035250,"current_range_meters":11200,"station_id":"ce4bgn12rcd13ifvqbt0","pricing_plan_id":"cebpf4jnsgd1na2vs0mg"},{"bike_id":"79e395cf-5541-4777-a3ef-ce2b430ddcae","system_id":"levelo_inurba_marseille","lat":43.29623,"lon":5.40594,"is_reserved":false,"is_disabled":false,"rental_uris":{"android":"levelo://app?vid=79e395cf-5541-4777-a3ef-ce2b430ddcae","ios":"levelo://app?vid=79e395cf-5541-4777-a3ef-ce2b430ddcae"},"vehicle_type_id":"4","last_reported":1753035250,"current_range_meters":11200,"station_id":"ce4bh0h2rcd13ifvqd60","pricing_plan_id":"cebpf4jnsgd1na2vs0mg"},{"bike_id":"8c6eb2ef-2493-42b9-8725-60e34b12f468","system_id":"levelo_inurba_marseille","lat":43.284046,"lon":5.37508,"is_reserved":false,"is_disabled":false,"rental_uris":{"android":"levelo://app?vid=8c6eb2ef-2493-42b9-8725-60e34b12f468","ios":"levelo://app?vid=8c6eb2ef-2493-42b9-8725-60e34b12f468"},"vehicle_type_id":"4","last_reported":1753035250,"current_range_meters":11200,"station_id":"ce4bh412rcd13ifvqds0","pricing_plan_id":"cebpf4jnsgd1na2vs0mg"},{"bike_id":"29a54575-7640-42e9-a548-3e52f89fbeb5","system_id":"levelo_inurba_marseille","lat":43.28967,"lon":5.37814,"is_reserved":false,"is_disabled":false,"rental_uris":{"android":"levelo://app?vid=29a54575-7640-42e9-a548-3e52f89fbeb5","ios":"levelo://app?vid=29a54575-7640-42e9-a548-3e52f89fbeb5"},"vehicle_type_id":"4","last_reported":1753035250,"current_range_meters":11200,"station_id":"ce4bh9p2rcd13ifvqed0","pricing_plan_id":"cebpf4jnsgd1na2vs0mg"},{"bike_id":"86c3422c-5828-4ec9-8c82-7bec17ac3699","system_id":"levelo_inurba_marseille","lat":43.23185,"lon":5.39985,"is_reserved":false,"is_disabled":false,"rental_uris":{"android":"levelo://app?vid=86c3422c-5828-4ec9-8c82-7bec17ac3699","ios":"levelo://app?vid=86c3422c-5828-4ec9-8c82-7bec17ac3699"},"vehicle_type_id":"4","last_reported":1753035250,"current_range_meters":11200,"station_id":"ce4bhn12rcd13ifvqgqg","pricing_plan_id":"cebpf4jnsgd1na2vs0mg"},{"bike_id":"7a2e1cf8-de90-4b24-ade1-9d8b3a17f052","system_id":"levelo_inurba_marseille","lat":43.25185,"lon":5.37562,"is_reserved":false,"is_disabled":false,"rental_uris":{"android":"levelo://app?vid=7a2e1cf8-de90-4b24-ade1-9d8b3a17f052","ios":"levelo://app?vid=7a2e1cf8-de90-4b24-ade1-9d8b3a17f052"},"vehicle_type_id":"4","last_reported":1753035250,"current_range_meters":11200,"station_id":"","pricing_plan_id":"cebpf4jnsgd1na2vs0mg"},{"bike_id":"ad9a0bec-cce1-4296-b8e7-8f0973f6d6e2","system_id":"levelo_inurba_marseille","lat":43.25578,"lon":5.38234,"is_reserved":false,"is_disabled":false,"rental_uris":{"android":"levelo://app?vid=ad9a0bec-cce1-4296-b8e7-8f0973f6d6e2","ios":"levelo://app?vid=ad9a0bec-cce1-4296-b8e7-8f0973f6d6e2"},"vehicle_type_id":"4","last_reported":1753035250,"current_range_meters":11200,"station_id":"ce4bhih2rcd13ifvqfs0","pricing_plan_id":"cebpf4jnsgd1na2vs0mg"},{"bike_id":"bdd969c3-9e0a-4f25-9eb0-adc05f5732c3","system_id":"levelo_inurba_marseille","lat":43.261937,"lon":5.374463,"is_reserved":false,"is_disabled":false,"rental_uris":{"android":"levelo://app?vid=bdd969c3-9e0a-4f25-9eb0-adc05f5732c3","ios":"levelo://app?vid=bdd969c3-9e0a-4f25-9eb0-adc05f5732c3"},"vehicle_type_id":"4","last_reported":1753035250,"current_range_meters":11200,"station_id":"ce4bhgp2rcd13ifvqfc0","pricing_plan_id":"cebpf4jnsgd1na2vs0mg"},{"bike_id":"6563cc2e-90de-450b-aedd-1474c76f6966","system_id":"levelo_inurba_marseille","lat":43.308824,"lon":5.396506,"is_reserved":false,"is_disabled":false,"rental_uris":{"android":"levelo://app?vid=6563cc2e-90de-450b-aedd-1474c76f6966","ios":"levelo://app?vid=6563cc2e-90de-450b-aedd-1474c76f6966"},"vehicle_type_id":"4","last_reported":1753035250,"current_range_meters":10800,"station_id":"ce4bh012rcd13ifvqcv0","pricing_plan_id":"cebpf4jnsgd1na2vs0mg"},{"bike_id":"5f6cb7dd-c406-446b-aab4-05895d56be0d","system_id":"levelo_inurba_marseille","lat":43.29596,"lon":5.38096,"is_reserved":false,"is_disabled":false,"rental_uris":{"android":"levelo://app?vid=5f6cb7dd-c406-446b-aab4-05895d56be0d","ios":"levelo://app?vid=5f6cb7dd-c406-446b-aab4-05895d56be0d"},"vehicle_type_id":"4","last_reported":1753035250,"current_range_meters":10800,"station_id":"ce4bgl12rcd13ifvqbo0","pricing_plan_id":"cebpf4jnsgd1na2vs0mg"},{"bike_id":"ef478fc8-32e7-4b2f-976a-3f6c25fa9fb7","system_id":"levelo_inurba_marseille","lat":43.30138,"lon":5.38764,"is_reserved":false,"is_disabled":false,"rental_uris":{"android":"levelo://app?vid=ef478fc8-32e7-4b2f-976a-3f6c25fa9fb7","ios":"levelo://app?vid=ef478fc8-32e7-4b2f-976a-3f6c25fa9fb7"},"vehicle_type_id":"4","last_reported":1753035250,"current_range_meters":11200,"station_id":"ce4bghh2rcd13ifvqb60","pricing_plan_id":"cebpf4jnsgd1na2vs0mg"},{"bike_id":"f8e4c19e-9f1d-402e-8f8f-18325e962147","system_id":"levelo_inurba_marseille","lat":43.30927,"lon":5.4014,"is_reserved":false,"is_disabled":false,"rental_uris":{"android":"levelo://app?vid=f8e4c19e-9f1d-402e-8f8f-18325e962147","ios":"levelo://app?vid=f8e4c19e-9f1d-402e-8f8f-18325e962147"},"vehicle_type_id":"4","last_reported":1753035250,"current_range_meters":11200,"station_id":"ce4bgvp2rcd13ifvqct0","pricing_plan_id":"cebpf4jnsgd1na2vs0mg"},{"bike_id":"b9d2f6b1-2316-4e08-a5d8-0d15d3bb3c6d","system_id":"levelo_inurba_marseille","lat":43.27417,"lon":5.38828,"is_reserved":false,"is_disabled":false,"rental_uris":{"android":"levelo://app?vid=b9d2f6b1-2316-4e08-a5d8-0d15d3bb3c6d","ios":"levelo://app?vid=b9d2f6b1-2316-4e08-a5d8-0d15d3bb3c6d"},"vehicle_type_id":"4","last_reported":1753035250,"current_range_meters":11600,"station_id":"","pricing_plan_id":"cebpf4jnsgd1na2vs0mg"},{"bike_id":"747a9921-9b97-445c-9bab-2721d1fdcbc0","system_id":"levelo_inurba_marseille","lat":43.28714,"lon":5.37937,"is_reserved":false,"is_disabled":false,"rental_uris":{"android":"levelo://app?vid=747a9921-9b97-445c-9bab-2721d1fdcbc0","ios":"levelo://app?vid=747a9921-9b97-445c-9bab-2721d1fdcbc0"},"vehicle_type_id":"4","last_reported":1753035250,"current_range_meters":11600,"station_id":"ce4bh9p2rcd13ifvqec0","pricing_plan_id":"cebpf4jnsgd1na2vs0mg"},{"bike_id":"1c9054b8-7714-4ac2-a9be-7e4b3b262ea5","system_id":"levelo_inurba_marseille","lat":43.290727,"lon":5.355911,"is_reserved":false,"is_disabled":false,"rental_uris":{"android":"levelo://app?vid=1c9054b8-7714-4ac2-a9be-7e4b3b262ea5","ios":"levelo://app?vid=1c9054b8-7714-4ac2-a9be-7e4b3b262ea5"},"vehicle_type_id":"4","last_reported":1753035250,"current_range_meters":12000,"station_id":"ce4bhbh2rcd13ifvqepg","pricing_plan_id":"cebpf4jnsgd1na2vs0mg"},{"bike_id":"fa06e38c-58b9-4aea-bcf5-74a645703fd3","system_id":"levelo_inurba_marseille","lat":43.28715,"lon":5.39989,"is_reserved":false,"is_disabled":true,"rental_uris":{"android":"levelo://app?vid=fa06e38c-58b9-4aea-bcf5-74a645703fd3","ios":"levelo://app?vid=fa06e38c-58b9-4aea-bcf5-74a645703fd3"},"vehicle_type_id":"4","last_reported":1753035250,"current_range_meters":12000,"station_id":"ce4bho92rcd13ifvqh3g","pricing_plan_id":"cebpf4jnsgd1na2vs0mg"},{"bike_id":"beb14892-a851-4f8e-b873-cbd3d15ad0a9","system_id":"levelo_inurba_marseille","lat":43.23773,"lon":5.36171,"is_reserved":false,"is_disabled":false,"rental_uris":{"android":"levelo://app?vid=beb14892-a851-4f8e-b873-cbd3d15ad0a9","ios":"levelo://app?vid=beb14892-a851-4f8e-b873-cbd3d15ad0a9"},"vehicle_type_id":"4","last_reported":1753035250,"current_range_meters":12000,"station_id":"","pricing_plan_id":"cebpf4jnsgd1na2vs0mg"},{"bike_id":"fb91b71f-37f2-4090-a027-6723890c84c6","system_id":"levelo_inurba_marseille","lat":43.308834,"lon":5.396467,"is_reserved":false,"is_disabled":false,"rental_uris":{"android":"levelo://app?vid=fb91b71f-37f2-4090-a027-6723890c84c6","ios":"levelo://app?vid=fb91b71f-37f2-4090-a027-6723890c84c6"},"vehicle_type_id":"4","last_reported":1753035250,"current_range_meters":12000,"station_id":"ce4bh012rcd13ifvqcv0","pricing_plan_id":"cebpf4jnsgd1na2vs0mg"},{"bike_id":"20597f8e-6c1b-4a51-9e3f-8ecf88381375","system_id":"levelo_inurba_marseille","lat":43.30304,"lon":5.39203,"is_reserved":false,"is_disabled":true,"rental_uris":{"android":"levelo://app?vid=20597f8e-6c1b-4a51-9e3f-8ecf88381375","ios":"levelo://app?vid=20597f8e-6c1b-4a51-9e3f-8ecf88381375"},"vehicle_type_id":"4","last_reported":1753035250,"current_range_meters":12000,"station_id":"ce4bgkh2rcd13ifvqbk0","pricing_plan_id":"cebpf4jnsgd1na2vs0mg"},{"bike_id":"1c73d57b-8ea1-45cf-89cf-c6c96315b119","system_id":"levelo_inurba_marseille","lat":43.22932,"lon":5.35359,"is_reserved":false,"is_disabled":false,"rental_uris":{"android":"levelo://app?vid=1c73d57b-8ea1-45cf-89cf-c6c96315b119","ios":"levelo://app?vid=1c73d57b-8ea1-45cf-89cf-c6c96315b119"},"vehicle_type_id":"4","last_reported":1753035250,"current_range_meters":12000,"station_id":"cpo3532slgdg3j2ikp40","pricing_plan_id":"cebpf4jnsgd1na2vs0mg"},{"bike_id":"218a227e-c64f-4f98-8a22-59cb1cdfd846","system_id":"levelo_inurba_marseille","lat":43.24068,"lon":5.37733,"is_reserved":false,"is_disabled":true,"rental_uris":{"android":"levelo://app?vid=218a227e-c64f-4f98-8a22-59cb1cdfd846","ios":"levelo://app?vid=218a227e-c64f-4f98-8a22-59cb1cdfd846"},"vehicle_type_id":"4","last_reported":1753035250,"current_range_meters":12400,"station_id":"ce4bhnp2rcd13ifvqgvg","pricing_plan_id":"cebpf4jnsgd1na2vs0mg"},{"bike_id":"ec56498c-7315-46d2-8779-4f1d12c61dba","system_id":"levelo_inurba_marseille","lat":43.26733,"lon":5.37843,"is_reserved":false,"is_disabled":false,"rental_uris":{"android":"levelo://app?vid=ec56498c-7315-46d2-8779-4f1d12c61dba","ios":"levelo://app?vid=ec56498c-7315-46d2-8779-4f1d12c61dba"},"vehicle_type_id":"4","last_reported":1753035250,"current_range_meters":12400,"station_id":"","pricing_plan_id":"cebpf4jnsgd1na2vs0mg"},{"bike_id":"307a4692-b153-4856-93a4-d66211186a4d","system_id":"levelo_inurba_marseille","lat":43.30945,"lon":5.3903,"is_reserved":false,"is_disabled":false,"rental_uris":{"android":"levelo://app?vid=307a4692-b153-4856-93a4-d66211186a4d","ios":"levelo://app?vid=307a4692-b153-4856-93a4-d66211186a4d"},"vehicle_type_id":"4","last_reported":1753035250,"current_range_meters":12400,"station_id":"ce4bgup2rcd13ifvqco0","pricing_plan_id":"cebpf4jnsgd1na2vs0mg"},{"bike_id":"1e8b1880-264c-4b77-bf82-6c996a6dc688","system_id":"levelo_inurba_marseille","lat":43.21188,"lon":5.35075,"is_reserved":false,"is_disabled":false,"rental_uris":{"android":"levelo://app?vid=1e8b1880-264c-4b77-bf82-6c996a6dc688","ios":"levelo://app?vid=1e8b1880-264c-4b77-bf82-6c996a6dc688"},"vehicle_type_id":"4","last_reported":1753035250,"current_range_meters":12400,"station_id":"st_cvj6sg6p6f1abm77japg","pricing_plan_id":"cebpf4jnsgd1na2vs0mg"},{"bike_id":"4d3b0a03-d059-417b-91dd-9a483be69e9d","system_id":"levelo_inurba_marseille","lat":43.29787,"lon":5.37095,"is_reserved":false,"is_disabled":false,"rental_uris":{"android":"levelo://app?vid=4d3b0a03-d059-417b-91dd-9a483be69e9d","ios":"levelo://app?vid=4d3b0a03-d059-417b-91dd-9a483be69e9d"},"vehicle_type_id":"4","last_reported":1753035250,"current_range_meters":12400,"station_id":"ce4bgop2rcd13ifvqc1g","pricing_plan_id":"cebpf4jnsgd1na2vs0mg"},{"bike_id":"7be4caef-9d15-4804-9b48-56a4e2681e47","system_id":"levelo_inurba_marseille","lat":43.303015,"lon":5.392232,"is_reserved":false,"is_disabled":false,"rental_uris":{"android":"levelo://app?vid=7be4caef-9d15-4804-9b48-56a4e2681e47","ios":"levelo://app?vid=7be4caef-9d15-4804-9b48-56a4e2681e47"},"vehicle_type_id":"4","last_reported":1753035250,"current_range_meters":12400,"station_id":"ce4bgkh2rcd13ifvqbk0","pricing_plan_id":"cebpf4jnsgd1na2vs0mg"},{"bike_id":"aec805fc-d403-4c4e-99dc-56a20cef0ed1","system_id":"levelo_inurba_marseille","lat":43.28417,"lon":5.34948,"is_reserved":false,"is_disabled":false,"rental_uris":{"android":"levelo://app?vid=aec805fc-d403-4c4e-99dc-56a20cef0ed1","ios":"levelo://app?vid=aec805fc-d403-4c4e-99dc-56a20cef0ed1"},"vehicle_type_id":"4","last_reported":1753035250,"current_range_meters":12400,"station_id":"ce4bhbh2rcd13ifvqepg","pricing_plan_id":"cebpf4jnsgd1na2vs0mg"},{"bike_id":"95b5bcfa-54af-48c0-bd18-8f73f959ce2b","system_id":"levelo_inurba_marseille","lat":43.31935,"lon":5.37313,"is_reserved":false,"is_disabled":false,"rental_uris":{"android":"levelo://app?vid=95b5bcfa-54af-48c0-bd18-8f73f959ce2b","ios":"levelo://app?vid=95b5bcfa-54af-48c0-bd18-8f73f959ce2b"},"vehicle_type_id":"4","last_reported":1753035250,"current_range_meters":12400,"station_id":"","pricing_plan_id":"cebpf4jnsgd1na2vs0mg"},{"bike_id":"9cc371a2-7c5d-4315-8fb5-724e3f50e0e8","system_id":"levelo_inurba_marseille","lat":43.23077,"lon":5.35483,"is_reserved":false,"is_disabled":false,"rental_uris":{"android":"levelo://app?vid=9cc371a2-7c5d-4315-8fb5-724e3f50e0e8","ios":"levelo://app?vid=9cc371a2-7c5d-4315-8fb5-724e3f50e0e8"},"vehicle_type_id":"4","last_reported":1753035250,"current_range_meters":12400,"station_id":"cpo3342slgdg3j2ifvpg","pricing_plan_id":"cebpf4jnsgd1na2vs0mg"},{"bike_id":"299ec8a6-d5a7-41ea-8121-1c7f792257d2","system_id":"levelo_inurba_marseille","lat":43.27377,"lon":5.3625,"is_reserved":false,"is_disabled":true,"rental_uris":{"android":"levelo://app?vid=299ec8a6-d5a7-41ea-8121-1c7f792257d2","ios":"levelo://app?vid=299ec8a6-d5a7-41ea-8121-1c7f792257d2"},"vehicle_type_id":"4","last_reported":1753035250,"current_range_meters":12800,"station_id":"ce4bhbh2rcd13ifvqeo0","pricing_plan_id":"cebpf4jnsgd1na2vs0mg"},{"bike_id":"2ace5925-4322-4d7d-b2b5-7e38e4764f77","system_id":"levelo_inurba_marseille","lat":43.28415,"lon":5.34967,"is_reserved":false,"is_disabled":false,"rental_uris":{"android":"levelo://app?vid=2ace5925-4322-4d7d-b2b5-7e38e4764f77","ios":"levelo://app?vid=2ace5925-4322-4d7d-b2b5-7e38e4764f77"},"vehicle_type_id":"4","last_reported":1753035250,"current_range_meters":12800,"station_id":"ce4bhbh2rcd13ifvqepg","pricing_plan_id":"cebpf4jnsgd1na2vs0mg"},{"bike_id":"3c612d33-b46b-45b5-9dc2-3d6c81b25914","system_id":"levelo_inurba_marseille","lat":43.292577,"lon":5.384419,"is_reserved":false,"is_disabled":false,"rental_uris":{"android":"levelo://app?vid=3c612d33-b46b-45b5-9dc2-3d6c81b25914","ios":"levelo://app?vid=3c612d33-b46b-45b5-9dc2-3d6c81b25914"},"vehicle_type_id":"4","last_reported":1753035250,"current_range_meters":12800,"station_id":"ce4bh692rcd13ifvqea0","pricing_plan_id":"cebpf4jnsgd1na2vs0mg"},{"bike_id":"7988183c-a382-4df8-bfe0-44c34ab63148","system_id":"levelo_inurba_marseille","lat":43.24668,"lon":5.38148,"is_reserved":false,"is_disabled":false,"rental_uris":{"android":"levelo://app?vid=7988183c-a382-4df8-bfe0-44c34ab63148","ios":"levelo://app?vid=7988183c-a382-4df8-bfe0-44c34ab63148"},"vehicle_type_id":"4","last_reported":1753035250,"current_range_meters":12800,"station_id":"ce4bhih2rcd13ifvqfr0","pricing_plan_id":"cebpf4jnsgd1na2vs0mg"},{"bike_id":"541d1175-798d-463b-9f71-d399f4ab2eed","system_id":"levelo_inurba_marseille","lat":43.29696,"lon":5.36595,"is_reserved":false,"is_disabled":false,"rental_uris":{"android":"levelo://app?vid=541d1175-798d-463b-9f71-d399f4ab2eed","ios":"levelo://app?vid=541d1175-798d-463b-9f71-d399f4ab2eed"},"vehicle_type_id":"4","last_reported":1753035250,"current_range_meters":13600,"station_id":"ce4bgn12rcd13ifvqbt0","pricing_plan_id":"cebpf4jnsgd1na2vs0mg"},{"bike_id":"d2de94d4-e1d9-4df2-81f3-4cc2123ddefc","system_id":"levelo_inurba_marseille","lat":43.287225,"lon":5.37936,"is_reserved":false,"is_disabled":false,"rental_uris":{"android":"levelo://app?vid=d2de94d4-e1d9-4df2-81f3-4cc2123ddefc","ios":"levelo://app?vid=d2de94d4-e1d9-4df2-81f3-4cc2123ddefc"},"vehicle_type_id":"4","last_reported":1753035250,"current_range_meters":13600,"station_id":"ce4bh9p2rcd13ifvqec0","pricing_plan_id":"cebpf4jnsgd1na2vs0mg"},{"bike_id":"96793585-b370-4499-97b5-55297e845c8f","system_id":"levelo_inurba_marseille","lat":43.21752,"lon":5.34578,"is_reserved":false,"is_disabled":true,"rental_uris":{"android":"levelo://app?vid=96793585-b370-4499-97b5-55297e845c8f","ios":"levelo://app?vid=96793585-b370-4499-97b5-55297e845c8f"},"vehicle_type_id":"4","last_reported":1753035250,"current_range_meters":13600,"station_id":"st_cvj6r9ubvosntc0bgbag","pricing_plan_id":"cebpf4jnsgd1na2vs0mg"},{"bike_id":"dee6628b-f370-478a-a4db-32c84542aee7","system_id":"levelo_inurba_marseille","lat":43.33293,"lon":5.38986,"is_reserved":false,"is_disabled":false,"rental_uris":{"android":"levelo://app?vid=dee6628b-f370-478a-a4db-32c84542aee7","ios":"levelo://app?vid=dee6628b-f370-478a-a4db-32c84542aee7"},"vehicle_type_id":"4","last_reported":1753035250,"current_range_meters":13600,"station_id":"","pricing_plan_id":"cebpf4jnsgd1na2vs0mg"},{"bike_id":"c9695da4-3048-4cfc-83f0-62c3fac1ccbe","system_id":"levelo_inurba_marseille","lat":43.23059,"lon":5.35471,"is_reserved":false,"is_disabled":true,"rental_uris":{"android":"levelo://app?vid=c9695da4-3048-4cfc-83f0-62c3fac1ccbe","ios":"levelo://app?vid=c9695da4-3048-4cfc-83f0-62c3fac1ccbe"},"vehicle_type_id":"4","last_reported":1753035250,"current_range_meters":14000,"station_id":"cpo3342slgdg3j2ifvpg","pricing_plan_id":"cebpf4jnsgd1na2vs0mg"},{"bike_id":"d3aca52a-4e64-461a-8fd1-e9a035bafbdf","system_id":"levelo_inurba_marseille","lat":43.257213,"lon":5.411019,"is_reserved":false,"is_disabled":false,"rental_uris":{"android":"levelo://app?vid=d3aca52a-4e64-461a-8fd1-e9a035bafbdf","ios":"levelo://app?vid=d3aca52a-4e64-461a-8fd1-e9a035bafbdf"},"vehicle_type_id":"4","last_reported":1753035250,"current_range_meters":14000,"station_id":"","pricing_plan_id":"cebpf4jnsgd1na2vs0mg"},{"bike_id":"c5b2ea91-1871-49dc-b076-d2ceac62ad53","system_id":"levelo_inurba_marseille","lat":43.30879,"lon":5.3719,"is_reserved":false,"is_disabled":false,"rental_uris":{"android":"levelo://app?vid=c5b2ea91-1871-49dc-b076-d2ceac62ad53","ios":"levelo://app?vid=c5b2ea91-1871-49dc-b076-d2ceac62ad53"},"vehicle_type_id":"4","last_reported":1753035250,"current_range_meters":14000,"station_id":"ce4bguh2rcd13ifvqckg","pricing_plan_id":"cebpf4jnsgd1na2vs0mg"},{"bike_id":"0cb2c80a-7457-4a4a-ad92-f0361b5225d6","system_id":"levelo_inurba_marseille","lat":43.24402,"lon":5.37403,"is_reserved":false,"is_disabled":false,"rental_uris":{"android":"levelo://app?vid=0cb2c80a-7457-4a4a-ad92-f0361b5225d6","ios":"levelo://app?vid=0cb2c80a-7457-4a4a-ad92-f0361b5225d6"},"vehicle_type_id":"4","last_reported":1753035250,"current_range_meters":14000,"station_id":"","pricing_plan_id":"cebpf4jnsgd1na2vs0mg"},{"bike_id":"151ede10-5fab-479e-94ae-875c4f5d3c6c","system_id":"levelo_inurba_marseille","lat":43.324828,"lon":5.365817,"is_reserved":false,"is_disabled":false,"rental_uris":{"android":"levelo://app?vid=151ede10-5fab-479e-94ae-875c4f5d3c6c","ios":"levelo://app?vid=151ede10-5fab-479e-94ae-875c4f5d3c6c"},"vehicle_type_id":"4","last_reported":1753035250,"current_range_meters":14000,"station_id":"ce4bhs12rcd13ifvqhvg","pricing_plan_id":"cebpf4jnsgd1na2vs0mg"},{"bike_id":"9dffb4db-f8cc-42bc-8ef7-ffd3c0748929","system_id":"levelo_inurba_marseille","lat":43.29023,"lon":5.38639,"is_reserved":false,"is_disabled":false,"rental_uris":{"android":"levelo://app?vid=9dffb4db-f8cc-42bc-8ef7-ffd3c0748929","ios":"levelo://app?vid=9dffb4db-f8cc-42bc-8ef7-ffd3c0748929"},"vehicle_type_id":"4","last_reported":1753035250,"current_range_meters":13600,"station_id":"ce4bh4p2rcd13ifvqe0g","pricing_plan_id":"cebpf4jnsgd1na2vs0mg"},{"bike_id":"a61dcce2-1eb3-444f-8c30-fdb609e21138","system_id":"levelo_inurba_marseille","lat":43.23578,"lon":5.36136,"is_reserved":false,"is_disabled":false,"rental_uris":{"android":"levelo://app?vid=a61dcce2-1eb3-444f-8c30-fdb609e21138","ios":"levelo://app?vid=a61dcce2-1eb3-444f-8c30-fdb609e21138"},"vehicle_type_id":"4","last_reported":1753035250,"current_range_meters":14400,"station_id":"","pricing_plan_id":"cebpf4jnsgd1na2vs0mg"},{"bike_id":"30a8f08d-36a1-44ed-8549-d7cf1755c064","system_id":"levelo_inurba_marseille","lat":43.29704,"lon":5.3661,"is_reserved":false,"is_disabled":false,"rental_uris":{"android":"levelo://app?vid=30a8f08d-36a1-44ed-8549-d7cf1755c064","ios":"levelo://app?vid=30a8f08d-36a1-44ed-8549-d7cf1755c064"},"vehicle_type_id":"4","last_reported":1753035250,"current_range_meters":14400,"station_id":"ce4bgn12rcd13ifvqbt0","pricing_plan_id":"cebpf4jnsgd1na2vs0mg"},{"bike_id":"cdd2b4aa-247f-499a-a0c9-00e97c2a180f","system_id":"levelo_inurba_marseille","lat":43.29526,"lon":5.3854,"is_reserved":false,"is_disabled":false,"rental_uris":{"android":"levelo://app?vid=cdd2b4aa-247f-499a-a0c9-00e97c2a180f","ios":"levelo://app?vid=cdd2b4aa-247f-499a-a0c9-00e97c2a180f"},"vehicle_type_id":"4","last_reported":1753035250,"current_range_meters":14400,"station_id":"ce4bgih2rcd13ifvqba0","pricing_plan_id":"cebpf4jnsgd1na2vs0mg"},{"bike_id":"d1454d61-06dd-40d3-958d-54f2fa2a4b6c","system_id":"levelo_inurba_marseille","lat":43.297979,"lon":5.380929,"is_reserved":false,"is_disabled":false,"rental_uris":{"android":"levelo://app?vid=d1454d61-06dd-40d3-958d-54f2fa2a4b6c","ios":"levelo://app?vid=d1454d61-06dd-40d3-958d-54f2fa2a4b6c"},"vehicle_type_id":"4","last_reported":1753035250,"current_range_meters":14400,"station_id":"ce4bgip2rcd13ifvqbb0","pricing_plan_id":"cebpf4jnsgd1na2vs0mg"},{"bike_id":"053762ef-2967-4c03-83aa-9c21c06b9aed","system_id":"levelo_inurba_marseille","lat":43.24071,"lon":5.37694,"is_reserved":false,"is_disabled":false,"rental_uris":{"android":"levelo://app?vid=053762ef-2967-4c03-83aa-9c21c06b9aed","ios":"levelo://app?vid=053762ef-2967-4c03-83aa-9c21c06b9aed"},"vehicle_type_id":"4","last_reported":1753035250,"current_range_meters":14400,"station_id":"ce4bhnp2rcd13ifvqgvg","pricing_plan_id":"cebpf4jnsgd1na2vs0mg"},{"bike_id":"38188964-4978-44c1-8278-3d99d01337ed","system_id":"levelo_inurba_marseille","lat":43.292917,"lon":5.383424,"is_reserved":false,"is_disabled":false,"rental_uris":{"android":"levelo://app?vid=38188964-4978-44c1-8278-3d99d01337ed","ios":"levelo://app?vid=38188964-4978-44c1-8278-3d99d01337ed"},"vehicle_type_id":"4","last_reported":1753035250,"current_range_meters":14400,"station_id":"","pricing_plan_id":"cebpf4jnsgd1na2vs0mg"},{"bike_id":"0486efe4-2f06-4c14-a14d-8625511b5450","system_id":"levelo_inurba_marseille","lat":43.30885,"lon":5.39651,"is_reserved":false,"is_disabled":false,"rental_uris":{"android":"levelo://app?vid=0486efe4-2f06-4c14-a14d-8625511b5450","ios":"levelo://app?vid=0486efe4-2f06-4c14-a14d-8625511b5450"},"vehicle_type_id":"4","last_reported":1753035250,"current_range_meters":14400,"station_id":"ce4bh012rcd13ifvqcv0","pricing_plan_id":"cebpf4jnsgd1na2vs0mg"},{"bike_id":"ff2c165e-5b5b-40b7-9ef9-0c664fd09a94","system_id":"levelo_inurba_marseille","lat":43.29023,"lon":5.38624,"is_reserved":false,"is_disabled":true,"rental_uris":{"android":"levelo://app?vid=ff2c165e-5b5b-40b7-9ef9-0c664fd09a94","ios":"levelo://app?vid=ff2c165e-5b5b-40b7-9ef9-0c664fd09a94"},"vehicle_type_id":"4","last_reported":1753035250,"current_range_meters":14400,"station_id":"ce4bh4p2rcd13ifvqe0g","pricing_plan_id":"cebpf4jnsgd1na2vs0mg"},{"bike_id":"7dd0ad0d-d990-4132-8bfa-6c74c445bdc3","system_id":"levelo_inurba_marseille","lat":43.21746,"lon":5.3461,"is_reserved":false,"is_disabled":false,"rental_uris":{"android":"levelo://app?vid=7dd0ad0d-d990-4132-8bfa-6c74c445bdc3","ios":"levelo://app?vid=7dd0ad0d-d990-4132-8bfa-6c74c445bdc3"},"vehicle_type_id":"4","last_reported":1753035250,"current_range_meters":14800,"station_id":"","pricing_plan_id":"cebpf4jnsgd1na2vs0mg"},{"bike_id":"19881fdb-5988-4cdb-9afc-1ef2bfc959ea","system_id":"levelo_inurba_marseille","lat":43.29978,"lon":5.37177,"is_reserved":false,"is_disabled":false,"rental_uris":{"android":"levelo://app?vid=19881fdb-5988-4cdb-9afc-1ef2bfc959ea","ios":"levelo://app?vid=19881fdb-5988-4cdb-9afc-1ef2bfc959ea"},"vehicle_type_id":"4","last_reported":1753035250,"current_range_meters":14400,"station_id":"ce4bgr92rcd13ifvqc7g","pricing_plan_id":"cebpf4jnsgd1na2vs0mg"},{"bike_id":"3f12eff8-9ea9-4272-a2bd-661034a4887c","system_id":"levelo_inurba_marseille","lat":43.31681,"lon":5.40459,"is_reserved":false,"is_disabled":false,"rental_uris":{"android":"levelo://app?vid=3f12eff8-9ea9-4272-a2bd-661034a4887c","ios":"levelo://app?vid=3f12eff8-9ea9-4272-a2bd-661034a4887c"},"vehicle_type_id":"4","last_reported":1753035250,"current_range_meters":14800,"station_id":"ce4bh012rcd13ifvqd00","pricing_plan_id":"cebpf4jnsgd1na2vs0mg"},{"bike_id":"149fd12e-a5bc-467b-9ff8-c1526e163af4","system_id":"levelo_inurba_marseille","lat":43.302251,"lon":5.387025,"is_reserved":false,"is_disabled":false,"rental_uris":{"android":"levelo://app?vid=149fd12e-a5bc-467b-9ff8-c1526e163af4","ios":"levelo://app?vid=149fd12e-a5bc-467b-9ff8-c1526e163af4"},"vehicle_type_id":"4","last_reported":1753035250,"current_range_meters":14400,"station_id":"ce4bgk12rcd13ifvqbi0","pricing_plan_id":"cebpf4jnsgd1na2vs0mg"},{"bike_id":"9a1109a4-f27a-4945-8b23-81862e789c4b","system_id":"levelo_inurba_marseille","lat":43.284636,"lon":5.358877,"is_reserved":false,"is_disabled":false,"rental_uris":{"android":"levelo://app?vid=9a1109a4-f27a-4945-8b23-81862e789c4b","ios":"levelo://app?vid=9a1109a4-f27a-4945-8b23-81862e789c4b"},"vehicle_type_id":"4","last_reported":1753035250,"current_range_meters":14800,"station_id":"ce4bhah2rcd13ifvqei0","pricing_plan_id":"cebpf4jnsgd1na2vs0mg"},{"bike_id":"288915d4-14ba-4022-8c8e-7751628cb49f","system_id":"levelo_inurba_marseille","lat":43.24078,"lon":5.37751,"is_reserved":false,"is_disabled":false,"rental_uris":{"android":"levelo://app?vid=288915d4-14ba-4022-8c8e-7751628cb49f","ios":"levelo://app?vid=288915d4-14ba-4022-8c8e-7751628cb49f"},"vehicle_type_id":"4","last_reported":1753035250,"current_range_meters":14800,"station_id":"ce4bhnp2rcd13ifvqgvg","pricing_plan_id":"cebpf4jnsgd1na2vs0mg"},{"bike_id":"33780747-b8a1-4c91-a821-537e8213a91e","system_id":"levelo_inurba_marseille","lat":43.28948,"lon":5.36415,"is_reserved":false,"is_disabled":false,"rental_uris":{"android":"levelo://app?vid=33780747-b8a1-4c91-a821-537e8213a91e","ios":"levelo://app?vid=33780747-b8a1-4c91-a821-537e8213a91e"},"vehicle_type_id":"4","last_reported":1753035250,"current_range_meters":14800,"station_id":"ce4bhc92rcd13ifvqetg","pricing_plan_id":"cebpf4jnsgd1na2vs0mg"},{"bike_id":"f335eb8b-f2b0-48df-963c-2425602f9038","system_id":"levelo_inurba_marseille","lat":43.270044,"lon":5.401204,"is_reserved":false,"is_disabled":true,"rental_uris":{"android":"levelo://app?vid=f335eb8b-f2b0-48df-963c-2425602f9038","ios":"levelo://app?vid=f335eb8b-f2b0-48df-963c-2425602f9038"},"vehicle_type_id":"4","last_reported":1753035250,"current_range_meters":15200,"station_id":"","pricing_plan_id":"cebpf4jnsgd1na2vs0mg"},{"bike_id":"cb331a89-56a6-4651-9865-7241cd4ca587","system_id":"levelo_inurba_marseille","lat":43.32481,"lon":5.36558,"is_reserved":false,"is_disabled":false,"rental_uris":{"android":"levelo://app?vid=cb331a89-56a6-4651-9865-7241cd4ca587","ios":"levelo://app?vid=cb331a89-56a6-4651-9865-7241cd4ca587"},"vehicle_type_id":"4","last_reported":1753035250,"current_range_meters":15200,"station_id":"ce4bhs12rcd13ifvqhvg","pricing_plan_id":"cebpf4jnsgd1na2vs0mg"},{"bike_id":"82eeba01-70f3-4bad-b835-ea660adca712","system_id":"levelo_inurba_marseille","lat":43.30949,"lon":5.39035,"is_reserved":false,"is_disabled":false,"rental_uris":{"android":"levelo://app?vid=82eeba01-70f3-4bad-b835-ea660adca712","ios":"levelo://app?vid=82eeba01-70f3-4bad-b835-ea660adca712"},"vehicle_type_id":"4","last_reported":1753035250,"current_range_meters":15200,"station_id":"ce4bgup2rcd13ifvqco0","pricing_plan_id":"cebpf4jnsgd1na2vs0mg"},{"bike_id":"8b70e333-db95-4dad-9f25-3f58617e52f2","system_id":"levelo_inurba_marseille","lat":43.29907,"lon":5.43655,"is_reserved":false,"is_disabled":false,"rental_uris":{"android":"levelo://app?vid=8b70e333-db95-4dad-9f25-3f58617e52f2","ios":"levelo://app?vid=8b70e333-db95-4dad-9f25-3f58617e52f2"},"vehicle_type_id":"4","last_reported":1753035250,"current_range_meters":15200,"station_id":"ce4bhpp2rcd13ifvqhfg","pricing_plan_id":"cebpf4jnsgd1na2vs0mg"},{"bike_id":"cfcae7be-ddc9-4132-82e2-d96002af046a","system_id":"levelo_inurba_marseille","lat":43.22929,"lon":5.35373,"is_reserved":false,"is_disabled":false,"rental_uris":{"android":"levelo://app?vid=cfcae7be-ddc9-4132-82e2-d96002af046a","ios":"levelo://app?vid=cfcae7be-ddc9-4132-82e2-d96002af046a"},"vehicle_type_id":"4","last_reported":1753035250,"current_range_meters":15200,"station_id":"cpo3532slgdg3j2ikp40","pricing_plan_id":"cebpf4jnsgd1na2vs0mg"},{"bike_id":"3484ae10-901c-4d4e-b004-1ca6c2a47c86","system_id":"levelo_inurba_marseille","lat":43.309503,"lon":5.390237,"is_reserved":false,"is_disabled":false,"rental_uris":{"android":"levelo://app?vid=3484ae10-901c-4d4e-b004-1ca6c2a47c86","ios":"levelo://app?vid=3484ae10-901c-4d4e-b004-1ca6c2a47c86"},"vehicle_type_id":"4","last_reported":1753035250,"current_range_meters":16000,"station_id":"ce4bgup2rcd13ifvqco0","pricing_plan_id":"cebpf4jnsgd1na2vs0mg"},{"bike_id":"eb240428-00e7-472b-91f5-4bf4c52fb633","system_id":"levelo_inurba_marseille","lat":43.26212,"lon":5.3793,"is_reserved":false,"is_disabled":true,"rental_uris":{"android":"levelo://app?vid=eb240428-00e7-472b-91f5-4bf4c52fb633","ios":"levelo://app?vid=eb240428-00e7-472b-91f5-4bf4c52fb633"},"vehicle_type_id":"4","last_reported":1753035250,"current_range_meters":16000,"station_id":"ce4bhjp2rcd13ifvqg90","pricing_plan_id":"cebpf4jnsgd1na2vs0mg"},{"bike_id":"341eec4e-ddcf-4f75-95c6-ecd84ef432ec","system_id":"levelo_inurba_marseille","lat":43.22926,"lon":5.35351,"is_reserved":false,"is_disabled":false,"rental_uris":{"android":"levelo://app?vid=341eec4e-ddcf-4f75-95c6-ecd84ef432ec","ios":"levelo://app?vid=341eec4e-ddcf-4f75-95c6-ecd84ef432ec"},"vehicle_type_id":"4","last_reported":1753035250,"current_range_meters":16000,"station_id":"cpo3532slgdg3j2ikp40","pricing_plan_id":"cebpf4jnsgd1na2vs0mg"},{"bike_id":"ff304561-c8ce-4ac1-9008-9c7fa7a2d85b","system_id":"levelo_inurba_marseille","lat":43.29256,"lon":5.38439,"is_reserved":false,"is_disabled":true,"rental_uris":{"android":"levelo://app?vid=ff304561-c8ce-4ac1-9008-9c7fa7a2d85b","ios":"levelo://app?vid=ff304561-c8ce-4ac1-9008-9c7fa7a2d85b"},"vehicle_type_id":"4","last_reported":1753035250,"current_range_meters":16000,"station_id":"ce4bh692rcd13ifvqea0","pricing_plan_id":"cebpf4jnsgd1na2vs0mg"},{"bike_id":"c1e6057c-ff5a-4477-a9f1-93444a633642","system_id":"levelo_inurba_marseille","lat":43.27179,"lon":5.39014,"is_reserved":false,"is_disabled":false,"rental_uris":{"android":"levelo://app?vid=c1e6057c-ff5a-4477-a9f1-93444a633642","ios":"levelo://app?vid=c1e6057c-ff5a-4477-a9f1-93444a633642"},"vehicle_type_id":"4","last_reported":1753035250,"current_range_meters":16000,"station_id":"","pricing_plan_id":"cebpf4jnsgd1na2vs0mg"},{"bike_id":"aa7039ed-31a0-4747-a640-e94f3558d15e","system_id":"levelo_inurba_marseille","lat":43.22503,"lon":5.34774,"is_reserved":false,"is_disabled":true,"rental_uris":{"android":"levelo://app?vid=aa7039ed-31a0-4747-a640-e94f3558d15e","ios":"levelo://app?vid=aa7039ed-31a0-4747-a640-e94f3558d15e"},"vehicle_type_id":"4","last_reported":1753035250,"current_range_meters":16000,"station_id":"","pricing_plan_id":"cebpf4jnsgd1na2vs0mg"},{"bike_id":"53cb4f43-b1af-4efe-9f40-e0338804f4d4","system_id":"levelo_inurba_marseille","lat":43.31267,"lon":5.39072,"is_reserved":false,"is_disabled":false,"rental_uris":{"android":"levelo://app?vid=53cb4f43-b1af-4efe-9f40-e0338804f4d4","ios":"levelo://app?vid=53cb4f43-b1af-4efe-9f40-e0338804f4d4"},"vehicle_type_id":"4","last_reported":1753035250,"current_range_meters":16000,"station_id":"","pricing_plan_id":"cebpf4jnsgd1na2vs0mg"},{"bike_id":"5ccf6fcb-646f-4acf-9fbc-c7f16de7c973","system_id":"levelo_inurba_marseille","lat":43.32659,"lon":5.42321,"is_reserved":false,"is_disabled":false,"rental_uris":{"android":"levelo://app?vid=5ccf6fcb-646f-4acf-9fbc-c7f16de7c973","ios":"levelo://app?vid=5ccf6fcb-646f-4acf-9fbc-c7f16de7c973"},"vehicle_type_id":"4","last_reported":1753035250,"current_range_meters":16000,"station_id":"","pricing_plan_id":"cebpf4jnsgd1na2vs0mg"},{"bike_id":"07cdfafc-f31d-475e-b196-66c066928703","system_id":"levelo_inurba_marseille","lat":43.25598,"lon":5.3819,"is_reserved":false,"is_disabled":false,"rental_uris":{"android":"levelo://app?vid=07cdfafc-f31d-475e-b196-66c066928703","ios":"levelo://app?vid=07cdfafc-f31d-475e-b196-66c066928703"},"vehicle_type_id":"4","last_reported":1753035250,"current_range_meters":16000,"station_id":"ce4bhih2rcd13ifvqfs0","pricing_plan_id":"cebpf4jnsgd1na2vs0mg"},{"bike_id":"6712c677-02d9-4058-80dc-65931ee1cec1","system_id":"levelo_inurba_marseille","lat":43.28675,"lon":5.38662,"is_reserved":false,"is_disabled":false,"rental_uris":{"android":"levelo://app?vid=6712c677-02d9-4058-80dc-65931ee1cec1","ios":"levelo://app?vid=6712c677-02d9-4058-80dc-65931ee1cec1"},"vehicle_type_id":"4","last_reported":1753035250,"current_range_meters":16000,"station_id":"ce4bh492rcd13ifvqdug","pricing_plan_id":"cebpf4jnsgd1na2vs0mg"},{"bike_id":"a500829a-0327-4b9e-908c-a1a350c1ed23","system_id":"levelo_inurba_marseille","lat":43.29269,"lon":5.38443,"is_reserved":false,"is_disabled":false,"rental_uris":{"android":"levelo://app?vid=a500829a-0327-4b9e-908c-a1a350c1ed23","ios":"levelo://app?vid=a500829a-0327-4b9e-908c-a1a350c1ed23"},"vehicle_type_id":"4","last_reported":1753035250,"current_range_meters":16000,"station_id":"ce4bh692rcd13ifvqea0","pricing_plan_id":"cebpf4jnsgd1na2vs0mg"},{"bike_id":"4355836e-ae99-4039-b85f-c4e239c9dca5","system_id":"levelo_inurba_marseille","lat":43.29902,"lon":5.43643,"is_reserved":false,"is_disabled":false,"rental_uris":{"android":"levelo://app?vid=4355836e-ae99-4039-b85f-c4e239c9dca5","ios":"levelo://app?vid=4355836e-ae99-4039-b85f-c4e239c9dca5"},"vehicle_type_id":"4","last_reported":1753035250,"current_range_meters":16400,"station_id":"ce4bhpp2rcd13ifvqhfg","pricing_plan_id":"cebpf4jnsgd1na2vs0mg"},{"bike_id":"6e9a1427-dc9c-43d9-92e2-3c03a7d4d52f","system_id":"levelo_inurba_marseille","lat":43.33147,"lon":5.38131,"is_reserved":false,"is_disabled":false,"rental_uris":{"android":"levelo://app?vid=6e9a1427-dc9c-43d9-92e2-3c03a7d4d52f","ios":"levelo://app?vid=6e9a1427-dc9c-43d9-92e2-3c03a7d4d52f"},"vehicle_type_id":"4","last_reported":1753035250,"current_range_meters":16400,"station_id":"","pricing_plan_id":"cebpf4jnsgd1na2vs0mg"},{"bike_id":"4c8283f7-9214-4f90-b93f-b371d5ff3abb","system_id":"levelo_inurba_marseille","lat":43.21193,"lon":5.35072,"is_reserved":false,"is_disabled":false,"rental_uris":{"android":"levelo://app?vid=4c8283f7-9214-4f90-b93f-b371d5ff3abb","ios":"levelo://app?vid=4c8283f7-9214-4f90-b93f-b371d5ff3abb"},"vehicle_type_id":"4","last_reported":1753035250,"current_range_meters":16400,"station_id":"st_cvj6sg6p6f1abm77japg","pricing_plan_id":"cebpf4jnsgd1na2vs0mg"},{"bike_id":"f3f581c3-7fd6-46b6-b25c-df950de01306","system_id":"levelo_inurba_marseille","lat":43.28731,"lon":5.39975,"is_reserved":false,"is_disabled":true,"rental_uris":{"android":"levelo://app?vid=f3f581c3-7fd6-46b6-b25c-df950de01306","ios":"levelo://app?vid=f3f581c3-7fd6-46b6-b25c-df950de01306"},"vehicle_type_id":"4","last_reported":1753035250,"current_range_meters":16400,"station_id":"ce4bho92rcd13ifvqh3g","pricing_plan_id":"cebpf4jnsgd1na2vs0mg"},{"bike_id":"7ec58e84-cdf8-426e-b0e1-b02417ddacf4","system_id":"levelo_inurba_marseille","lat":43.29424,"lon":5.38593,"is_reserved":false,"is_disabled":false,"rental_uris":{"android":"levelo://app?vid=7ec58e84-cdf8-426e-b0e1-b02417ddacf4","ios":"levelo://app?vid=7ec58e84-cdf8-426e-b0e1-b02417ddacf4"},"vehicle_type_id":"4","last_reported":1753035250,"current_range_meters":16400,"station_id":"ce4bh2h2rcd13ifvqdh0","pricing_plan_id":"cebpf4jnsgd1na2vs0mg"},{"bike_id":"bed4303f-eaeb-480e-a542-e5ad252f5798","system_id":"levelo_inurba_marseille","lat":43.27371,"lon":5.36253,"is_reserved":false,"is_disabled":false,"rental_uris":{"android":"levelo://app?vid=bed4303f-eaeb-480e-a542-e5ad252f5798","ios":"levelo://app?vid=bed4303f-eaeb-480e-a542-e5ad252f5798"},"vehicle_type_id":"4","last_reported":1753035250,"current_range_meters":16400,"station_id":"ce4bhbh2rcd13ifvqeo0","pricing_plan_id":"cebpf4jnsgd1na2vs0mg"},{"bike_id":"8979afbb-d831-492b-8bd1-2b5d774796f7","system_id":"levelo_inurba_marseille","lat":43.2708,"lon":5.42249,"is_reserved":false,"is_disabled":false,"rental_uris":{"android":"levelo://app?vid=8979afbb-d831-492b-8bd1-2b5d774796f7","ios":"levelo://app?vid=8979afbb-d831-492b-8bd1-2b5d774796f7"},"vehicle_type_id":"4","last_reported":1753035250,"current_range_meters":16400,"station_id":"ce4bhk92rcd13ifvqgb0","pricing_plan_id":"cebpf4jnsgd1na2vs0mg"},{"bike_id":"7230cb4d-8cd2-4957-9d99-c27265ab6ce1","system_id":"levelo_inurba_marseille","lat":43.29299,"lon":5.37168,"is_reserved":false,"is_disabled":false,"rental_uris":{"android":"levelo://app?vid=7230cb4d-8cd2-4957-9d99-c27265ab6ce1","ios":"levelo://app?vid=7230cb4d-8cd2-4957-9d99-c27265ab6ce1"},"vehicle_type_id":"4","last_reported":1753035250,"current_range_meters":16400,"station_id":"","pricing_plan_id":"cebpf4jnsgd1na2vs0mg"},{"bike_id":"f2e40cb8-0e5a-4acd-9c4a-fd2a14320439","system_id":"levelo_inurba_marseille","lat":43.27914,"lon":5.39574,"is_reserved":false,"is_disabled":false,"rental_uris":{"android":"levelo://app?vid=f2e40cb8-0e5a-4acd-9c4a-fd2a14320439","ios":"levelo://app?vid=f2e40cb8-0e5a-4acd-9c4a-fd2a14320439"},"vehicle_type_id":"4","last_reported":1753035250,"current_range_meters":16400,"station_id":"ce4bhf92rcd13ifvqf40","pricing_plan_id":"cebpf4jnsgd1na2vs0mg"},{"bike_id":"200e9035-76e0-4844-a618-b882e0b057e7","system_id":"levelo_inurba_marseille","lat":43.28854,"lon":5.35849,"is_reserved":false,"is_disabled":false,"rental_uris":{"android":"levelo://app?vid=200e9035-76e0-4844-a618-b882e0b057e7","ios":"levelo://app?vid=200e9035-76e0-4844-a618-b882e0b057e7"},"vehicle_type_id":"4","last_reported":1753035250,"current_range_meters":16400,"station_id":"ce4bhb12rcd13ifvqem0","pricing_plan_id":"cebpf4jnsgd1na2vs0mg"},{"bike_id":"4c40b2af-d959-403d-a695-e22d3976eddc","system_id":"levelo_inurba_marseille","lat":43.27368,"lon":5.36255,"is_reserved":false,"is_disabled":false,"rental_uris":{"android":"levelo://app?vid=4c40b2af-d959-403d-a695-e22d3976eddc","ios":"levelo://app?vid=4c40b2af-d959-403d-a695-e22d3976eddc"},"vehicle_type_id":"4","last_reported":1753035250,"current_range_meters":16400,"station_id":"ce4bhbh2rcd13ifvqeo0","pricing_plan_id":"cebpf4jnsgd1na2vs0mg"},{"bike_id":"4e5823ac-9313-4e20-81da-720a18c2dac7","system_id":"levelo_inurba_marseille","lat":43.32111,"lon":5.36774,"is_reserved":false,"is_disabled":false,"rental_uris":{"android":"levelo://app?vid=4e5823ac-9313-4e20-81da-720a18c2dac7","ios":"levelo://app?vid=4e5823ac-9313-4e20-81da-720a18c2dac7"},"vehicle_type_id":"4","last_reported":1753035250,"current_range_meters":16400,"station_id":"ce4bhrh2rcd13ifvqhug","pricing_plan_id":"cebpf4jnsgd1na2vs0mg"},{"bike_id":"57abbde9-9ee5-483b-8063-641c82b7c2e7","system_id":"levelo_inurba_marseille","lat":43.232024,"lon":5.399921,"is_reserved":false,"is_disabled":false,"rental_uris":{"android":"levelo://app?vid=57abbde9-9ee5-483b-8063-641c82b7c2e7","ios":"levelo://app?vid=57abbde9-9ee5-483b-8063-641c82b7c2e7"},"vehicle_type_id":"4","last_reported":1753035250,"current_range_meters":16400,"station_id":"ce4bhn12rcd13ifvqgqg","pricing_plan_id":"cebpf4jnsgd1na2vs0mg"},{"bike_id":"be986fb3-fc53-417d-ab1b-065a992fbe78","system_id":"levelo_inurba_marseille","lat":43.27067,"lon":5.42272,"is_reserved":false,"is_disabled":false,"rental_uris":{"android":"levelo://app?vid=be986fb3-fc53-417d-ab1b-065a992fbe78","ios":"levelo://app?vid=be986fb3-fc53-417d-ab1b-065a992fbe78"},"vehicle_type_id":"4","last_reported":1753035250,"current_range_meters":16400,"station_id":"ce4bhk92rcd13ifvqgb0","pricing_plan_id":"cebpf4jnsgd1na2vs0mg"},{"bike_id":"45f484f7-f884-4bb2-b999-0e689bd9e672","system_id":"levelo_inurba_marseille","lat":43.27375,"lon":5.36244,"is_reserved":false,"is_disabled":false,"rental_uris":{"android":"levelo://app?vid=45f484f7-f884-4bb2-b999-0e689bd9e672","ios":"levelo://app?vid=45f484f7-f884-4bb2-b999-0e689bd9e672"},"vehicle_type_id":"4","last_reported":1753035250,"current_range_meters":16400,"station_id":"ce4bhbh2rcd13ifvqeo0","pricing_plan_id":"cebpf4jnsgd1na2vs0mg"},{"bike_id":"63b0b856-af33-4970-b22e-c07117f2395e","system_id":"levelo_inurba_marseille","lat":43.21202,"lon":5.35095,"is_reserved":false,"is_disabled":false,"rental_uris":{"android":"levelo://app?vid=63b0b856-af33-4970-b22e-c07117f2395e","ios":"levelo://app?vid=63b0b856-af33-4970-b22e-c07117f2395e"},"vehicle_type_id":"4","last_reported":1753035250,"current_range_meters":16400,"station_id":"st_cvj6sg6p6f1abm77japg","pricing_plan_id":"cebpf4jnsgd1na2vs0mg"},{"bike_id":"03772b11-05f4-48cd-b352-479340b3f53c","system_id":"levelo_inurba_marseille","lat":43.28504,"lon":5.38434,"is_reserved":false,"is_disabled":true,"rental_uris":{"android":"levelo://app?vid=03772b11-05f4-48cd-b352-479340b3f53c","ios":"levelo://app?vid=03772b11-05f4-48cd-b352-479340b3f53c"},"vehicle_type_id":"4","last_reported":1753035250,"current_range_meters":16400,"station_id":"ce4bh512rcd13ifvqe3g","pricing_plan_id":"cebpf4jnsgd1na2vs0mg"},{"bike_id":"42752829-3ee2-4e84-849d-429017304915","system_id":"levelo_inurba_marseille","lat":43.285355,"lon":5.358616,"is_reserved":false,"is_disabled":true,"rental_uris":{"android":"levelo://app?vid=42752829-3ee2-4e84-849d-429017304915","ios":"levelo://app?vid=42752829-3ee2-4e84-849d-429017304915"},"vehicle_type_id":"4","last_reported":1753035250,"current_range_meters":16400,"station_id":"ce4bhah2rcd13ifvqei0","pricing_plan_id":"cebpf4jnsgd1na2vs0mg"},{"bike_id":"3a0ad0b3-730c-4b6f-afc8-d25401cb7d69","system_id":"levelo_inurba_marseille","lat":43.24643,"lon":5.38167,"is_reserved":false,"is_disabled":false,"rental_uris":{"android":"levelo://app?vid=3a0ad0b3-730c-4b6f-afc8-d25401cb7d69","ios":"levelo://app?vid=3a0ad0b3-730c-4b6f-afc8-d25401cb7d69"},"vehicle_type_id":"4","last_reported":1753035250,"current_range_meters":16400,"station_id":"ce4bhih2rcd13ifvqfr0","pricing_plan_id":"cebpf4jnsgd1na2vs0mg"},{"bike_id":"2d4603f5-2e2e-406e-9bbd-29af571247a7","system_id":"levelo_inurba_marseille","lat":43.24171,"lon":5.36398,"is_reserved":false,"is_disabled":false,"rental_uris":{"android":"levelo://app?vid=2d4603f5-2e2e-406e-9bbd-29af571247a7","ios":"levelo://app?vid=2d4603f5-2e2e-406e-9bbd-29af571247a7"},"vehicle_type_id":"4","last_reported":1753035250,"current_range_meters":16800,"station_id":"cpo36qri1sfpv3e86is0","pricing_plan_id":"cebpf4jnsgd1na2vs0mg"},{"bike_id":"168e5339-ab9a-42ac-bb9a-72ea0952ee2b","system_id":"levelo_inurba_marseille","lat":43.24999,"lon":5.38931,"is_reserved":false,"is_disabled":false,"rental_uris":{"android":"levelo://app?vid=168e5339-ab9a-42ac-bb9a-72ea0952ee2b","ios":"levelo://app?vid=168e5339-ab9a-42ac-bb9a-72ea0952ee2b"},"vehicle_type_id":"4","last_reported":1753035250,"current_range_meters":16800,"station_id":"ce4bhgp2rcd13ifvqfd0","pricing_plan_id":"cebpf4jnsgd1na2vs0mg"},{"bike_id":"ba8e384e-d6ab-4488-8163-58521a7b44f4","system_id":"levelo_inurba_marseille","lat":43.29849,"lon":5.36282,"is_reserved":false,"is_disabled":false,"rental_uris":{"android":"levelo://app?vid=ba8e384e-d6ab-4488-8163-58521a7b44f4","ios":"levelo://app?vid=ba8e384e-d6ab-4488-8163-58521a7b44f4"},"vehicle_type_id":"4","last_reported":1753035250,"current_range_meters":16800,"station_id":"ce4bgpp2rcd13ifvqc3g","pricing_plan_id":"cebpf4jnsgd1na2vs0mg"},{"bike_id":"42ea02fd-d2ab-47b6-8764-b588945e9589","system_id":"levelo_inurba_marseille","lat":43.24175,"lon":5.39731,"is_reserved":false,"is_disabled":false,"rental_uris":{"android":"levelo://app?vid=42ea02fd-d2ab-47b6-8764-b588945e9589","ios":"levelo://app?vid=42ea02fd-d2ab-47b6-8764-b588945e9589"},"vehicle_type_id":"4","last_reported":1753035250,"current_range_meters":16800,"station_id":"ce4bhn12rcd13ifvqgpg","pricing_plan_id":"cebpf4jnsgd1na2vs0mg"},{"bike_id":"dbdb1cb6-deab-4cf3-be81-aae4753dd0bd","system_id":"levelo_inurba_marseille","lat":43.22517,"lon":5.34745,"is_reserved":false,"is_disabled":false,"rental_uris":{"android":"levelo://app?vid=dbdb1cb6-deab-4cf3-be81-aae4753dd0bd","ios":"levelo://app?vid=dbdb1cb6-deab-4cf3-be81-aae4753dd0bd"},"vehicle_type_id":"4","last_reported":1753035250,"current_range_meters":16800,"station_id":"st_cvj5dfep6f1abm77gieg","pricing_plan_id":"cebpf4jnsgd1na2vs0mg"},{"bike_id":"1c22819b-ef69-41c3-af80-068c7a58af48","system_id":"levelo_inurba_marseille","lat":43.32106,"lon":5.36762,"is_reserved":false,"is_disabled":false,"rental_uris":{"android":"levelo://app?vid=1c22819b-ef69-41c3-af80-068c7a58af48","ios":"levelo://app?vid=1c22819b-ef69-41c3-af80-068c7a58af48"},"vehicle_type_id":"4","last_reported":1753035250,"current_range_meters":16800,"station_id":"ce4bhrh2rcd13ifvqhug","pricing_plan_id":"cebpf4jnsgd1na2vs0mg"},{"bike_id":"7d6804c6-3c58-45a6-86a8-aec23f0a05b8","system_id":"levelo_inurba_marseille","lat":43.28847,"lon":5.3586,"is_reserved":false,"is_disabled":false,"rental_uris":{"android":"levelo://app?vid=7d6804c6-3c58-45a6-86a8-aec23f0a05b8","ios":"levelo://app?vid=7d6804c6-3c58-45a6-86a8-aec23f0a05b8"},"vehicle_type_id":"4","last_reported":1753035250,"current_range_meters":16800,"station_id":"ce4bhb12rcd13ifvqem0","pricing_plan_id":"cebpf4jnsgd1na2vs0mg"},{"bike_id":"43e703c6-9907-49a0-ac06-2809026f4383","system_id":"levelo_inurba_marseille","lat":43.22499,"lon":5.34777,"is_reserved":false,"is_disabled":false,"rental_uris":{"android":"levelo://app?vid=43e703c6-9907-49a0-ac06-2809026f4383","ios":"levelo://app?vid=43e703c6-9907-49a0-ac06-2809026f4383"},"vehicle_type_id":"4","last_reported":1753035250,"current_range_meters":16800,"station_id":"st_cvj5dfep6f1abm77gieg","pricing_plan_id":"cebpf4jnsgd1na2vs0mg"},{"bike_id":"d293dfff-03f9-4cd5-b7d5-cd21a5b6f4de","system_id":"levelo_inurba_marseille","lat":43.30961,"lon":5.390333,"is_reserved":false,"is_disabled":false,"rental_uris":{"android":"levelo://app?vid=d293dfff-03f9-4cd5-b7d5-cd21a5b6f4de","ios":"levelo://app?vid=d293dfff-03f9-4cd5-b7d5-cd21a5b6f4de"},"vehicle_type_id":"4","last_reported":1753035250,"current_range_meters":17200,"station_id":"ce4bgup2rcd13ifvqco0","pricing_plan_id":"cebpf4jnsgd1na2vs0mg"},{"bike_id":"9122425b-c5cf-427e-9633-739726b096af","system_id":"levelo_inurba_marseille","lat":43.29422,"lon":5.386006,"is_reserved":false,"is_disabled":false,"rental_uris":{"android":"levelo://app?vid=9122425b-c5cf-427e-9633-739726b096af","ios":"levelo://app?vid=9122425b-c5cf-427e-9633-739726b096af"},"vehicle_type_id":"4","last_reported":1753035250,"current_range_meters":17200,"station_id":"ce4bho92rcd13ifvqh3g","pricing_plan_id":"cebpf4jnsgd1na2vs0mg"},{"bike_id":"52fc553f-1e8c-4701-a604-31e90c76b1d4","system_id":"levelo_inurba_marseille","lat":43.31477,"lon":5.37304,"is_reserved":false,"is_disabled":false,"rental_uris":{"android":"levelo://app?vid=52fc553f-1e8c-4701-a604-31e90c76b1d4","ios":"levelo://app?vid=52fc553f-1e8c-4701-a604-31e90c76b1d4"},"vehicle_type_id":"4","last_reported":1753035250,"current_range_meters":17200,"station_id":"ce4bgt12rcd13ifvqcd0","pricing_plan_id":"cebpf4jnsgd1na2vs0mg"},{"bike_id":"5df34afb-8350-407f-83b9-911f05bf9d48","system_id":"levelo_inurba_marseille","lat":43.30263,"lon":5.37705,"is_reserved":false,"is_disabled":false,"rental_uris":{"android":"levelo://app?vid=5df34afb-8350-407f-83b9-911f05bf9d48","ios":"levelo://app?vid=5df34afb-8350-407f-83b9-911f05bf9d48"},"vehicle_type_id":"4","last_reported":1753035250,"current_range_meters":17200,"station_id":"ce4bguh2rcd13ifvqcj0","pricing_plan_id":"cebpf4jnsgd1na2vs0mg"},{"bike_id":"6a6b2ff3-cee3-4205-bb5e-82a0645ef825","system_id":"levelo_inurba_marseille","lat":43.29857,"lon":5.39745,"is_reserved":false,"is_disabled":false,"rental_uris":{"android":"levelo://app?vid=6a6b2ff3-cee3-4205-bb5e-82a0645ef825","ios":"levelo://app?vid=6a6b2ff3-cee3-4205-bb5e-82a0645ef825"},"vehicle_type_id":"4","last_reported":1753035250,"current_range_meters":17200,"station_id":"ce4bh0h2rcd13ifvqd50","pricing_plan_id":"cebpf4jnsgd1na2vs0mg"},{"bike_id":"01ef6f38-0cb9-4831-9c9a-0f76f326e484","system_id":"levelo_inurba_marseille","lat":43.29,"lon":5.356,"is_reserved":false,"is_disabled":true,"rental_uris":{"android":"levelo://app?vid=01ef6f38-0cb9-4831-9c9a-0f76f326e484","ios":"levelo://app?vid=01ef6f38-0cb9-4831-9c9a-0f76f326e484"},"vehicle_type_id":"4","last_reported":1753035250,"current_range_meters":17200,"station_id":"ce4bhb92rcd13ifvqen0","pricing_plan_id":"cebpf4jnsgd1na2vs0mg"},{"bike_id":"3d36c590-bfb3-4f3d-a821-3b0275041fa7","system_id":"levelo_inurba_marseille","lat":43.30432,"lon":5.41285,"is_reserved":false,"is_disabled":false,"rental_uris":{"android":"levelo://app?vid=3d36c590-bfb3-4f3d-a821-3b0275041fa7","ios":"levelo://app?vid=3d36c590-bfb3-4f3d-a821-3b0275041fa7"},"vehicle_type_id":"4","last_reported":1753035250,"current_range_meters":17200,"station_id":"ce4bhop2rcd13ifvqh8g","pricing_plan_id":"cebpf4jnsgd1na2vs0mg"},{"bike_id":"d2a9ef2a-3ecf-454e-ac8d-c81b3a196753","system_id":"levelo_inurba_marseille","lat":43.28623,"lon":5.3822,"is_reserved":false,"is_disabled":false,"rental_uris":{"android":"levelo://app?vid=d2a9ef2a-3ecf-454e-ac8d-c81b3a196753","ios":"levelo://app?vid=d2a9ef2a-3ecf-454e-ac8d-c81b3a196753"},"vehicle_type_id":"4","last_reported":1753035250,"current_range_meters":17200,"station_id":"","pricing_plan_id":"cebpf4jnsgd1na2vs0mg"},{"bike_id":"841226dc-d800-4af0-adb4-d3fc7c7cf8e8","system_id":"levelo_inurba_marseille","lat":43.29552,"lon":5.42298,"is_reserved":false,"is_disabled":true,"rental_uris":{"android":"levelo://app?vid=841226dc-d800-4af0-adb4-d3fc7c7cf8e8","ios":"levelo://app?vid=841226dc-d800-4af0-adb4-d3fc7c7cf8e8"},"vehicle_type_id":"4","last_reported":1753035250,"current_range_meters":17200,"station_id":"ce4bhph2rcd13ifvqhdg","pricing_plan_id":"cebpf4jnsgd1na2vs0mg"},{"bike_id":"1705f469-72b3-4b6b-a3ab-684dfcba22ca","system_id":"levelo_inurba_marseille","lat":43.26565,"lon":5.39004,"is_reserved":false,"is_disabled":true,"rental_uris":{"android":"levelo://app?vid=1705f469-72b3-4b6b-a3ab-684dfcba22ca","ios":"levelo://app?vid=1705f469-72b3-4b6b-a3ab-684dfcba22ca"},"vehicle_type_id":"4","last_reported":1753035250,"current_range_meters":17200,"station_id":"ce4bhe12rcd13ifvqf30","pricing_plan_id":"cebpf4jnsgd1na2vs0mg"},{"bike_id":"27840914-96ce-47d9-8461-044ffaee2b9e","system_id":"levelo_inurba_marseille","lat":43.29853,"lon":5.36283,"is_reserved":false,"is_disabled":false,"rental_uris":{"android":"levelo://app?vid=27840914-96ce-47d9-8461-044ffaee2b9e","ios":"levelo://app?vid=27840914-96ce-47d9-8461-044ffaee2b9e"},"vehicle_type_id":"4","last_reported":1753035250,"current_range_meters":17200,"station_id":"ce4bgpp2rcd13ifvqc3g","pricing_plan_id":"cebpf4jnsgd1na2vs0mg"},{"bike_id":"0c6aa303-c758-4f37-ad47-292d4281656f","system_id":"levelo_inurba_marseille","lat":43.31755,"lon":5.39012,"is_reserved":false,"is_disabled":false,"rental_uris":{"android":"levelo://app?vid=0c6aa303-c758-4f37-ad47-292d4281656f","ios":"levelo://app?vid=0c6aa303-c758-4f37-ad47-292d4281656f"},"vehicle_type_id":"4","last_reported":1753035250,"current_range_meters":17600,"station_id":"ce4bhqp2rcd13ifvqhng","pricing_plan_id":"cebpf4jnsgd1na2vs0mg"},{"bike_id":"730b33a7-fc15-4896-9d82-e3ffc8e37908","system_id":"levelo_inurba_marseille","lat":43.22505,"lon":5.34769,"is_reserved":false,"is_disabled":false,"rental_uris":{"android":"levelo://app?vid=730b33a7-fc15-4896-9d82-e3ffc8e37908","ios":"levelo://app?vid=730b33a7-fc15-4896-9d82-e3ffc8e37908"},"vehicle_type_id":"4","last_reported":1753035250,"current_range_meters":17600,"station_id":"st_cvj5dfep6f1abm77gieg","pricing_plan_id":"cebpf4jnsgd1na2vs0mg"},{"bike_id":"c6f13c59-2793-4a1e-87aa-6f0d71252623","system_id":"levelo_inurba_marseille","lat":43.29908,"lon":5.43658,"is_reserved":false,"is_disabled":false,"rental_uris":{"android":"levelo://app?vid=c6f13c59-2793-4a1e-87aa-6f0d71252623","ios":"levelo://app?vid=c6f13c59-2793-4a1e-87aa-6f0d71252623"},"vehicle_type_id":"4","last_reported":1753035250,"current_range_meters":17600,"station_id":"ce4bhpp2rcd13ifvqhfg","pricing_plan_id":"cebpf4jnsgd1na2vs0mg"},{"bike_id":"1c37a6c0-7fed-49e2-8fd4-2d775c26b7b0","system_id":"levelo_inurba_marseille","lat":43.23197,"lon":5.35533,"is_reserved":false,"is_disabled":false,"rental_uris":{"android":"levelo://app?vid=1c37a6c0-7fed-49e2-8fd4-2d775c26b7b0","ios":"levelo://app?vid=1c37a6c0-7fed-49e2-8fd4-2d775c26b7b0"},"vehicle_type_id":"4","last_reported":1753035250,"current_range_meters":17600,"station_id":"ce4bhu92rcd13ifvqi70","pricing_plan_id":"cebpf4jnsgd1na2vs0mg"},{"bike_id":"320ef5fd-b23e-415a-b8d2-eb440287349c","system_id":"levelo_inurba_marseille","lat":43.29423,"lon":5.38596,"is_reserved":false,"is_disabled":false,"rental_uris":{"android":"levelo://app?vid=320ef5fd-b23e-415a-b8d2-eb440287349c","ios":"levelo://app?vid=320ef5fd-b23e-415a-b8d2-eb440287349c"},"vehicle_type_id":"4","last_reported":1753035250,"current_range_meters":17600,"station_id":"ce4bh2h2rcd13ifvqdh0","pricing_plan_id":"cebpf4jnsgd1na2vs0mg"},{"bike_id":"474ac65d-bd8b-4629-a217-92eff3842408","system_id":"levelo_inurba_marseille","lat":43.29382,"lon":5.37846,"is_reserved":false,"is_disabled":true,"rental_uris":{"android":"levelo://app?vid=474ac65d-bd8b-4629-a217-92eff3842408","ios":"levelo://app?vid=474ac65d-bd8b-4629-a217-92eff3842408"},"vehicle_type_id":"4","last_reported":1753035250,"current_range_meters":18000,"station_id":"ce4bgjh2rcd13ifvqbf0","pricing_plan_id":"cebpf4jnsgd1na2vs0mg"},{"bike_id":"d100812f-9e77-4b3a-a11b-18211b570584","system_id":"levelo_inurba_marseille","lat":43.32504,"lon":5.36565,"is_reserved":false,"is_disabled":false,"rental_uris":{"android":"levelo://app?vid=d100812f-9e77-4b3a-a11b-18211b570584","ios":"levelo://app?vid=d100812f-9e77-4b3a-a11b-18211b570584"},"vehicle_type_id":"4","last_reported":1753035250,"current_range_meters":17600,"station_id":"ce4bhs12rcd13ifvqhvg","pricing_plan_id":"cebpf4jnsgd1na2vs0mg"},{"bike_id":"002c7006-42ef-43c9-b4b9-553d5a06f37c","system_id":"levelo_inurba_marseille","lat":43.28265,"lon":5.35054,"is_reserved":false,"is_disabled":false,"rental_uris":{"android":"levelo://app?vid=002c7006-42ef-43c9-b4b9-553d5a06f37c","ios":"levelo://app?vid=002c7006-42ef-43c9-b4b9-553d5a06f37c"},"vehicle_type_id":"4","last_reported":1753035250,"current_range_meters":17600,"station_id":"ce4bhbp2rcd13ifvqerg","pricing_plan_id":"cebpf4jnsgd1na2vs0mg"},{"bike_id":"3527e5ec-8e88-4544-ab6a-55654224d928","system_id":"levelo_inurba_marseille","lat":43.2307,"lon":5.35471,"is_reserved":false,"is_disabled":false,"rental_uris":{"android":"levelo://app?vid=3527e5ec-8e88-4544-ab6a-55654224d928","ios":"levelo://app?vid=3527e5ec-8e88-4544-ab6a-55654224d928"},"vehicle_type_id":"4","last_reported":1753035250,"current_range_meters":17600,"station_id":"cpo3342slgdg3j2ifvpg","pricing_plan_id":"cebpf4jnsgd1na2vs0mg"},{"bike_id":"c47c4612-aa9a-40e0-9a78-5da247b20688","system_id":"levelo_inurba_marseille","lat":43.22505,"lon":5.34779,"is_reserved":false,"is_disabled":false,"rental_uris":{"android":"levelo://app?vid=c47c4612-aa9a-40e0-9a78-5da247b20688","ios":"levelo://app?vid=c47c4612-aa9a-40e0-9a78-5da247b20688"},"vehicle_type_id":"4","last_reported":1753035250,"current_range_meters":17600,"station_id":"st_cvj5dfep6f1abm77gieg","pricing_plan_id":"cebpf4jnsgd1na2vs0mg"},{"bike_id":"0a1807bd-cfe8-4ee6-ab39-af6ebbd71a34","system_id":"levelo_inurba_marseille","lat":43.29838,"lon":5.36269,"is_reserved":false,"is_disabled":false,"rental_uris":{"android":"levelo://app?vid=0a1807bd-cfe8-4ee6-ab39-af6ebbd71a34","ios":"levelo://app?vid=0a1807bd-cfe8-4ee6-ab39-af6ebbd71a34"},"vehicle_type_id":"4","last_reported":1753035250,"current_range_meters":17200,"station_id":"ce4bgpp2rcd13ifvqc3g","pricing_plan_id":"cebpf4jnsgd1na2vs0mg"},{"bike_id":"1bff2a07-f5ea-43a5-9113-6ab29a6a6cf8","system_id":"levelo_inurba_marseille","lat":43.31268,"lon":5.40161,"is_reserved":false,"is_disabled":false,"rental_uris":{"android":"levelo://app?vid=1bff2a07-f5ea-43a5-9113-6ab29a6a6cf8","ios":"levelo://app?vid=1bff2a07-f5ea-43a5-9113-6ab29a6a6cf8"},"vehicle_type_id":"4","last_reported":1753035250,"current_range_meters":18000,"station_id":"ce4bh092rcd13ifvqd30","pricing_plan_id":"cebpf4jnsgd1na2vs0mg"},{"bike_id":"1d173fff-3ca8-4a39-a2be-44db01efab69","system_id":"levelo_inurba_marseille","lat":43.30221,"lon":5.39475,"is_reserved":false,"is_disabled":false,"rental_uris":{"android":"levelo://app?vid=1d173fff-3ca8-4a39-a2be-44db01efab69","ios":"levelo://app?vid=1d173fff-3ca8-4a39-a2be-44db01efab69"},"vehicle_type_id":"4","last_reported":1753035250,"current_range_meters":18000,"station_id":"ce4bh0p2rcd13ifvqd70","pricing_plan_id":"cebpf4jnsgd1na2vs0mg"},{"bike_id":"736c363b-3641-43dd-b890-bd43d8fd5283","system_id":"levelo_inurba_marseille","lat":43.2119,"lon":5.35066,"is_reserved":false,"is_disabled":false,"rental_uris":{"android":"levelo://app?vid=736c363b-3641-43dd-b890-bd43d8fd5283","ios":"levelo://app?vid=736c363b-3641-43dd-b890-bd43d8fd5283"},"vehicle_type_id":"4","last_reported":1753035250,"current_range_meters":18000,"station_id":"st_cvj6sg6p6f1abm77japg","pricing_plan_id":"cebpf4jnsgd1na2vs0mg"},{"bike_id":"299ff7f7-5864-4139-af32-da7a1975186d","system_id":"levelo_inurba_marseille","lat":43.225087,"lon":5.347867,"is_reserved":false,"is_disabled":false,"rental_uris":{"android":"levelo://app?vid=299ff7f7-5864-4139-af32-da7a1975186d","ios":"levelo://app?vid=299ff7f7-5864-4139-af32-da7a1975186d"},"vehicle_type_id":"4","last_reported":1753035250,"current_range_meters":18000,"station_id":"","pricing_plan_id":"cebpf4jnsgd1na2vs0mg"},{"bike_id":"e1d03f0c-d835-4cf2-8aa1-84b014b3aaa6","system_id":"levelo_inurba_marseille","lat":43.22499,"lon":5.34776,"is_reserved":false,"is_disabled":false,"rental_uris":{"android":"levelo://app?vid=e1d03f0c-d835-4cf2-8aa1-84b014b3aaa6","ios":"levelo://app?vid=e1d03f0c-d835-4cf2-8aa1-84b014b3aaa6"},"vehicle_type_id":"4","last_reported":1753035250,"current_range_meters":18000,"station_id":"st_cvj5dfep6f1abm77gieg","pricing_plan_id":"cebpf4jnsgd1na2vs0mg"},{"bike_id":"f0007319-a60b-410d-baf0-ee866c04b523","system_id":"levelo_inurba_marseille","lat":43.29224,"lon":5.36142,"is_reserved":false,"is_disabled":false,"rental_uris":{"android":"levelo://app?vid=f0007319-a60b-410d-baf0-ee866c04b523","ios":"levelo://app?vid=f0007319-a60b-410d-baf0-ee866c04b523"},"vehicle_type_id":"4","last_reported":1753035250,"current_range_meters":18000,"station_id":"ce4bh012rcd13ifvqcv0","pricing_plan_id":"cebpf4jnsgd1na2vs0mg"},{"bike_id":"ac49738a-4d4f-43d3-9c67-46980e61ae95","system_id":"levelo_inurba_marseille","lat":43.3181,"lon":5.37527,"is_reserved":false,"is_disabled":false,"rental_uris":{"android":"levelo://app?vid=ac49738a-4d4f-43d3-9c67-46980e61ae95","ios":"levelo://app?vid=ac49738a-4d4f-43d3-9c67-46980e61ae95"},"vehicle_type_id":"4","last_reported":1753035250,"current_range_meters":18000,"station_id":"","pricing_plan_id":"cebpf4jnsgd1na2vs0mg"},{"bike_id":"0ab5edff-8724-4c93-922c-a841549140d2","system_id":"levelo_inurba_marseille","lat":43.22508,"lon":5.34756,"is_reserved":false,"is_disabled":false,"rental_uris":{"android":"levelo://app?vid=0ab5edff-8724-4c93-922c-a841549140d2","ios":"levelo://app?vid=0ab5edff-8724-4c93-922c-a841549140d2"},"vehicle_type_id":"4","last_reported":1753035250,"current_range_meters":18000,"station_id":"st_cvj5dfep6f1abm77gieg","pricing_plan_id":"cebpf4jnsgd1na2vs0mg"},{"bike_id":"ff5bba57-6d14-4f97-bab2-4d71c3e63161","system_id":"levelo_inurba_marseille","lat":43.2119,"lon":5.35076,"is_reserved":false,"is_disabled":false,"rental_uris":{"android":"levelo://app?vid=ff5bba57-6d14-4f97-bab2-4d71c3e63161","ios":"levelo://app?vid=ff5bba57-6d14-4f97-bab2-4d71c3e63161"},"vehicle_type_id":"4","last_reported":1753035250,"current_range_meters":18800,"station_id":"st_cvj6sg6p6f1abm77japg","pricing_plan_id":"cebpf4jnsgd1na2vs0mg"},{"bike_id":"dd371c48-ea0f-4767-9616-29542af2cdd5","system_id":"levelo_inurba_marseille","lat":43.305281,"lon":5.384188,"is_reserved":false,"is_disabled":false,"rental_uris":{"android":"levelo://app?vid=dd371c48-ea0f-4767-9616-29542af2cdd5","ios":"levelo://app?vid=dd371c48-ea0f-4767-9616-29542af2cdd5"},"vehicle_type_id":"4","last_reported":1753035250,"current_range_meters":18000,"station_id":"ce4bgg92rcd13ifvqb30","pricing_plan_id":"cebpf4jnsgd1na2vs0mg"},{"bike_id":"c86332f6-99c6-4be3-8199-22dfcb89aec8","system_id":"levelo_inurba_marseille","lat":43.29005,"lon":5.35614,"is_reserved":false,"is_disabled":false,"rental_uris":{"android":"levelo://app?vid=c86332f6-99c6-4be3-8199-22dfcb89aec8","ios":"levelo://app?vid=c86332f6-99c6-4be3-8199-22dfcb89aec8"},"vehicle_type_id":"4","last_reported":1753035250,"current_range_meters":18800,"station_id":"ce4bhb92rcd13ifvqen0","pricing_plan_id":"cebpf4jnsgd1na2vs0mg"},{"bike_id":"551976cf-01df-4655-b8b6-f004d6681f19","system_id":"levelo_inurba_marseille","lat":43.27074,"lon":5.40251,"is_reserved":false,"is_disabled":true,"rental_uris":{"android":"levelo://app?vid=551976cf-01df-4655-b8b6-f004d6681f19","ios":"levelo://app?vid=551976cf-01df-4655-b8b6-f004d6681f19"},"vehicle_type_id":"4","last_reported":1753035250,"current_range_meters":18800,"station_id":"ce4bhk92rcd13ifvqgc0","pricing_plan_id":"cebpf4jnsgd1na2vs0mg"},{"bike_id":"88efb387-4497-4f85-8961-86144c5a4f44","system_id":"levelo_inurba_marseille","lat":43.29624,"lon":5.37149,"is_reserved":false,"is_disabled":false,"rental_uris":{"android":"levelo://app?vid=88efb387-4497-4f85-8961-86144c5a4f44","ios":"levelo://app?vid=88efb387-4497-4f85-8961-86144c5a4f44"},"vehicle_type_id":"4","last_reported":1753035250,"current_range_meters":18800,"station_id":"","pricing_plan_id":"cebpf4jnsgd1na2vs0mg"},{"bike_id":"19665075-1169-45a7-af41-9f1c346d2c17","system_id":"levelo_inurba_marseille","lat":43.2395,"lon":5.36634,"is_reserved":false,"is_disabled":true,"rental_uris":{"android":"levelo://app?vid=19665075-1169-45a7-af41-9f1c346d2c17","ios":"levelo://app?vid=19665075-1169-45a7-af41-9f1c346d2c17"},"vehicle_type_id":"4","last_reported":1753035250,"current_range_meters":18800,"station_id":"ce4bhi12rcd13ifvqfp0","pricing_plan_id":"cebpf4jnsgd1na2vs0mg"},{"bike_id":"5c7cfd38-807b-4bef-9c5d-c2f0c95ce8df","system_id":"levelo_inurba_marseille","lat":43.23071,"lon":5.35453,"is_reserved":false,"is_disabled":false,"rental_uris":{"android":"levelo://app?vid=5c7cfd38-807b-4bef-9c5d-c2f0c95ce8df","ios":"levelo://app?vid=5c7cfd38-807b-4bef-9c5d-c2f0c95ce8df"},"vehicle_type_id":"4","last_reported":1753035250,"current_range_meters":18800,"station_id":"cpo3342slgdg3j2ifvpg","pricing_plan_id":"cebpf4jnsgd1na2vs0mg"},{"bike_id":"2202d4e1-43b2-495b-89e8-e4d9f8d5cf6b","system_id":"levelo_inurba_marseille","lat":43.21185,"lon":5.35072,"is_reserved":false,"is_disabled":false,"rental_uris":{"android":"levelo://app?vid=2202d4e1-43b2-495b-89e8-e4d9f8d5cf6b","ios":"levelo://app?vid=2202d4e1-43b2-495b-89e8-e4d9f8d5cf6b"},"vehicle_type_id":"4","last_reported":1753035250,"current_range_meters":18800,"station_id":"st_cvj6sg6p6f1abm77japg","pricing_plan_id":"cebpf4jnsgd1na2vs0mg"},{"bike_id":"3117258b-a0b2-4038-960e-7505313a6719","system_id":"levelo_inurba_marseille","lat":43.32111,"lon":5.36777,"is_reserved":false,"is_disabled":false,"rental_uris":{"android":"levelo://app?vid=3117258b-a0b2-4038-960e-7505313a6719","ios":"levelo://app?vid=3117258b-a0b2-4038-960e-7505313a6719"},"vehicle_type_id":"4","last_reported":1753035250,"current_range_meters":18800,"station_id":"ce4bhrh2rcd13ifvqhug","pricing_plan_id":"cebpf4jnsgd1na2vs0mg"},{"bike_id":"2a61001c-d84b-4c05-ae05-a023f5a0f9cc","system_id":"levelo_inurba_marseille","lat":43.30321,"lon":5.40434,"is_reserved":false,"is_disabled":false,"rental_uris":{"android":"levelo://app?vid=2a61001c-d84b-4c05-ae05-a023f5a0f9cc","ios":"levelo://app?vid=2a61001c-d84b-4c05-ae05-a023f5a0f9cc"},"vehicle_type_id":"4","last_reported":1753035250,"current_range_meters":18800,"station_id":"ce4bh012rcd13ifvqd10","pricing_plan_id":"cebpf4jnsgd1na2vs0mg"},{"bike_id":"b456876d-88a5-419f-91d5-7ff0369393e2","system_id":"levelo_inurba_marseille","lat":43.22506,"lon":5.34784,"is_reserved":false,"is_disabled":false,"rental_uris":{"android":"levelo://app?vid=b456876d-88a5-419f-91d5-7ff0369393e2","ios":"levelo://app?vid=b456876d-88a5-419f-91d5-7ff0369393e2"},"vehicle_type_id":"4","last_reported":1753035250,"current_range_meters":18800,"station_id":"st_cvj5dfep6f1abm77gieg","pricing_plan_id":"cebpf4jnsgd1na2vs0mg"},{"bike_id":"02bda465-5730-4d42-a0d1-5ffc89217a3f","system_id":"levelo_inurba_marseille","lat":43.28258,"lon":5.35066,"is_reserved":false,"is_disabled":false,"rental_uris":{"android":"levelo://app?vid=02bda465-5730-4d42-a0d1-5ffc89217a3f","ios":"levelo://app?vid=02bda465-5730-4d42-a0d1-5ffc89217a3f"},"vehicle_type_id":"4","last_reported":1753035250,"current_range_meters":18800,"station_id":"","pricing_plan_id":"cebpf4jnsgd1na2vs0mg"},