{"last_updated":1736507273,"ttl":60,"version":"2.2","data":{"bikes":[{"bike_id":"6ba3023b-e160-451a-a11e-7a2f288a6f7b","system_id":"levelo_inurba_marseille","lat":43.3027,"lon":5.37726,"is_reserved":false,"is_disabled":false,"rental_uris":{"android":"levelo://app?vid=6ba3023b-e160-451a-a11e-7a2f288a6f7b","ios":"levelo://app?vid=6ba3023b-e160-451a-a11e-7a2f288a6f7b"},"vehicle_type_id":"4","last_reported":1736507273,"current_range_meters":38800,"station_id":"ce4bguh2rcd13ifvqcj0","pricing_plan_id":"cebpf4jnsgd1na2vs0mg"},{"bike_id":"33653293-4421-45a0-85e3-6cc50fd2acb7","system_id":"levelo_inurba_marseille","lat":43.32051,"lon":5.41552,"is_reserved":false,"is_disabled":false,"rental_uris":{"android":"levelo://app?vid=33653293-4421-45a0-85e3-6cc50fd2acb7","ios":"levelo://app?vid=33653293-4421-45a0-85e3-6cc50fd2acb7"},"vehicle_type_id":"4","last_reported":1736507273,"current_range_meters":13600,"station_id":"ce4bhq92rcd13ifvqhkg","pricing_plan_id":"cebpf4jnsgd1na2vs0mg"},{"bike_id":"87c59741-1f05-4e3d-8c14-38f01f8816a9","system_id":"levelo_inurba_marseille","lat":43.23191,"lon":5.35572,"is_reserved":false,"is_disabled":false,"rental_uris":{"android":"levelo://app?vid=87c59741-1f05-4e3d-8c14-38f01f8816a9","ios":"levelo://app?vid=87c59741-1f05-4e3d-8c14-38f01f8816a9"},"vehicle_type_id":"4","last_reported":1736507273,"current_range_meters":10800,"station_id":"ce4bhu92rcd13ifvqi70","pricing_plan_id":"cebpf4jnsgd1na2vs0mg"},{"bike_id":"46bb0059-fd29-489a-92c8-7ec6e72f0cd8","system_id":"levelo_inurba_marseille","lat":43.32047,"lon":5.415414,"is_reserved":false,"is_disabled":false,"rental_uris":{"android":"levelo://app?vid=46bb0059-fd29-489a-92c8-7ec6e72f0cd8","ios":"levelo://app?vid=46bb0059-fd29-489a-92c8-7ec6e72f0cd8"},"vehicle_type_id":"4","last_reported":1736507273,"current_range_meters":39200,"station_id":"ce4bhq92rcd13ifvqhkg","pricing_plan_id":"cebpf4jnsgd1na2vs0mg"},{"bike_id":"bbabd9f4-0056-40a8-881b-b14292dbcb52","system_id":"levelo_inurba_marseille","lat":43.29233,"lon":5.40827,"is_reserved":false,"is_disabled":false,"rental_uris":{"android":"levelo://app?vid=bbabd9f4-0056-40a8-881b-b14292dbcb52","ios":"levelo://app?vid=bbabd9f4-0056-40a8-881b-b14292dbcb52"},"vehicle_type_id":"4","last_reported":1736507273,"current_range_meters":39200,"station_id":"ce4bh192rcd13ifvqdc0","pricing_plan_id":"cebpf4jnsgd1na2vs0mg"},{"bike_id":"6369c140-3323-465a-a3e4-b9f4b2637437","system_id":"levelo_inurba_marseille","lat":43.25922,"lon":5.40914,"is_reserved":false,"is_disabled":false,"rental_uris":{"android":"levelo://app?vid=6369c140-3323-465a-a3e4-b9f4b2637437","ios":"levelo://app?vid=6369c140-3323-465a-a3e4-b9f4b2637437"},"vehicle_type_id":"4","last_reported":1736507273,"current_range_meters":30400,"station_id":"ce4bhm92rcd13ifvqglg","pricing_plan_id":"cebpf4jnsgd1na2vs0mg"},{"bike_id":"2d6c236c-6962-4db0-8c1c-2f479db973ca","system_id":"levelo_inurba_marseille","lat":43.25827,"lon":5.3944,"is_reserved":false,"is_disabled":false,"rental_uris":{"android":"levelo://app?vid=2d6c236c-6962-4db0-8c1c-2f479db973ca","ios":"levelo://app?vid=2d6c236c-6962-4db0-8c1c-2f479db973ca"},"vehicle_type_id":"4","last_reported":1736507273,"current_range_meters":38800,"station_id":"ce4bhip2rcd13ifvqft0","pricing_plan_id":"cebpf4jnsgd1na2vs0mg"},{"bike_id":"c41c948e-ec41-4193-aa46-37aca070655a","system_id":"levelo_inurba_marseille","lat":43.29613,"lon":5.37155,"is_reserved":false,"is_disabled":false,"rental_uris":{"android":"levelo://app?vid=c41c948e-ec41-4193-aa46-37aca070655a","ios":"levelo://app?vid=c41c948e-ec41-4193-aa46-37aca070655a"},"vehicle_type_id":"4","last_reported":1736507273,"current_range_meters":29600,"station_id":"ce4bgnh2rcd13ifvqc0g","pricing_plan_id":"cebpf4jnsgd1na2vs0mg"},{"bike_id":"47532ca9-10bb-4fb6-9e01-8331536a997f","system_id":"levelo_inurba_marseille","lat":43.30546,"lon":5.36538,"is_reserved":false,"is_disabled":false,"rental_uris":{"android":"levelo://app?vid=47532ca9-10bb-4fb6-9e01-8331536a997f","ios":"levelo://app?vid=47532ca9-10bb-4fb6-9e01-8331536a997f"},"vehicle_type_id":"4","last_reported":1736507273,"current_range_meters":39200,"station_id":"ce4bgs12rcd13ifvqcag","pricing_plan_id":"cebpf4jnsgd1na2vs0mg"},{"bike_id":"911c467b-e83f-4f29-a2f1-6780b539574d","system_id":"levelo_inurba_marseille","lat":43.29421,"lon":5.38626,"is_reserved":false,"is_disabled":false,"rental_uris":{"android":"levelo://app?vid=911c467b-e83f-4f29-a2f1-6780b539574d","ios":"levelo://app?vid=911c467b-e83f-4f29-a2f1-6780b539574d"},"vehicle_type_id":"4","last_reported":1736507273,"current_range_meters":30000,"station_id":"ce4bh2h2rcd13ifvqdh0","pricing_plan_id":"cebpf4jnsgd1na2vs0mg"},{"bike_id":"5f54f5aa-f30f-4b3f-860d-3aafa44ee543","system_id":"levelo_inurba_marseille","lat":43.24056,"lon":5.37784,"is_reserved":false,"is_disabled":false,"rental_uris":{"android":"levelo://app?vid=5f54f5aa-f30f-4b3f-860d-3aafa44ee543","ios":"levelo://app?vid=5f54f5aa-f30f-4b3f-860d-3aafa44ee543"},"vehicle_type_id":"4","last_reported":1736507273,"current_range_meters":38800,"station_id":"ce4bhnp2rcd13ifvqgvg","pricing_plan_id":"cebpf4jnsgd1na2vs0mg"},{"bike_id":"7df73f52-8199-4a3f-b0e9-424d028349bf","system_id":"levelo_inurba_marseille","lat":43.31367,"lon":5.36701,"is_reserved":false,"is_disabled":false,"rental_uris":{"android":"levelo://app?vid=7df73f52-8199-4a3f-b0e9-424d028349bf","ios":"levelo://app?vid=7df73f52-8199-4a3f-b0e9-424d028349bf"},"vehicle_type_id":"4","last_reported":1736507273,"current_range_meters":38800,"station_id":"ce4bgr92rcd13ifvqc6g","pricing_plan_id":"cebpf4jnsgd1na2vs0mg"},{"bike_id":"6b19ceef-b6b6-424f-b18b-94bd379c29a0","system_id":"levelo_inurba_marseille","lat":43.28932,"lon":5.38399,"is_reserved":false,"is_disabled":false,"rental_uris":{"android":"levelo://app?vid=6b19ceef-b6b6-424f-b18b-94bd379c29a0","ios":"levelo://app?vid=6b19ceef-b6b6-424f-b18b-94bd379c29a0"},"vehicle_type_id":"4","last_reported":1736507273,"current_range_meters":37600,"station_id":"ce4bh612rcd13ifvqe6g","pricing_plan_id":"cebpf4jnsgd1na2vs0mg"},{"bike_id":"6997943a-025f-4730-9c4b-a22ad05a6557","system_id":"levelo_inurba_marseille","lat":43.28253,"lon":5.35083,"is_reserved":false,"is_disabled":false,"rental_uris":{"android":"levelo://app?vid=6997943a-025f-4730-9c4b-a22ad05a6557","ios":"levelo://app?vid=6997943a-025f-4730-9c4b-a22ad05a6557"},"vehicle_type_id":"4","last_reported":1736507273,"current_range_meters":34000,"station_id":"ce4bhbp2rcd13ifvqerg","pricing_plan_id":"cebpf4jnsgd1na2vs0mg"},{"bike_id":"ece82557-6569-4215-9027-5b44a37fe52e","system_id":"levelo_inurba_marseille","lat":43.29085,"lon":5.3801,"is_reserved":false,"is_disabled":true,"rental_uris":{"android":"levelo://app?vid=ece82557-6569-4215-9027-5b44a37fe52e","ios":"levelo://app?vid=ece82557-6569-4215-9027-5b44a37fe52e"},"vehicle_type_id":"4","last_reported":1736507273,"current_range_meters":0,"station_id":"","pricing_plan_id":"cebpf4jnsgd1na2vs0mg"},{"bike_id":"2dd6555b-6bc4-416c-a7b5-ce2f2351f8f6","system_id":"levelo_inurba_marseille","lat":43.29718,"lon":5.37709,"is_reserved":false,"is_disabled":false,"rental_uris":{"android":"levelo://app?vid=2dd6555b-6bc4-416c-a7b5-ce2f2351f8f6","ios":"levelo://app?vid=2dd6555b-6bc4-416c-a7b5-ce2f2351f8f6"},"vehicle_type_id":"4","last_reported":1736507273,"current_range_meters":39200,"station_id":"ce4bgkh2rcd13ifvqbl0","pricing_plan_id":"cebpf4jnsgd1na2vs0mg"},{"bike_id":"4809d538-09a6-4754-98ec-5fc8eb395183","system_id":"levelo_inurba_marseille","lat":43.26209,"lon":5.37446,"is_reserved":false,"is_disabled":false,"rental_uris":{"android":"levelo://app?vid=4809d538-09a6-4754-98ec-5fc8eb395183","ios":"levelo://app?vid=4809d538-09a6-4754-98ec-5fc8eb395183"},"vehicle_type_id":"4","last_reported":1736507273,"current_range_meters":28400,"station_id":"ce4bhgp2rcd13ifvqfc0","pricing_plan_id":"cebpf4jnsgd1na2vs0mg"},{"bike_id":"c360d990-dcc5-4611-9114-4b1e79e3aa74","system_id":"levelo_inurba_marseille","lat":43.30542,"lon":5.36546,"is_reserved":false,"is_disabled":false,"rental_uris":{"android":"levelo://app?vid=c360d990-dcc5-4611-9114-4b1e79e3aa74","ios":"levelo://app?vid=c360d990-dcc5-4611-9114-4b1e79e3aa74"},"vehicle_type_id":"4","last_reported":1736507273,"current_range_meters":38800,"station_id":"ce4bgs12rcd13ifvqcag","pricing_plan_id":"cebpf4jnsgd1na2vs0mg"},{"bike_id":"0771b7ed-c880-4b9e-8489-9820c522d97f","system_id":"levelo_inurba_marseille","lat":43.3015,"lon":5.38094,"is_reserved":false,"is_disabled":false,"rental_uris":{"android":"levelo://app?vid=0771b7ed-c880-4b9e-8489-9820c522d97f","ios":"levelo://app?vid=0771b7ed-c880-4b9e-8489-9820c522d97f"},"vehicle_type_id":"4","last_reported":1736507273,"current_range_meters":11200,"station_id":"ce4bgjp2rcd13ifvqbh0","pricing_plan_id":"cebpf4jnsgd1na2vs0mg"},{"bike_id":"04745ce5-c863-4d05-a4b1-70a293af40c0","system_id":"levelo_inurba_marseille","lat":43.29201,"lon":5.40888,"is_reserved":false,"is_disabled":false,"rental_uris":{"android":"levelo://app?vid=04745ce5-c863-4d05-a4b1-70a293af40c0","ios":"levelo://app?vid=04745ce5-c863-4d05-a4b1-70a293af40c0"},"vehicle_type_id":"4","last_reported":1736507273,"current_range_meters":10000,"station_id":"ce4bh192rcd13ifvqdc0","pricing_plan_id":"cebpf4jnsgd1na2vs0mg"},{"bike_id":"004c2ac5-7f25-4e48-8a80-9a02537f6ba6","system_id":"levelo_inurba_marseille","lat":43.32098,"lon":5.367957,"is_reserved":false,"is_disabled":false,"rental_uris":{"android":"levelo://app?vid=004c2ac5-7f25-4e48-8a80-9a02537f6ba6","ios":"levelo://app?vid=004c2ac5-7f25-4e48-8a80-9a02537f6ba6"},"vehicle_type_id":"4","last_reported":1736507273,"current_range_meters":36400,"station_id":"ce4bhrh2rcd13ifvqhug","pricing_plan_id":"cebpf4jnsgd1na2vs0mg"},{"bike_id":"1d7eed34-26a7-4525-a746-95fc01d85a12","system_id":"levelo_inurba_marseille","lat":43.26956,"lon":5.38635,"is_reserved":false,"is_disabled":false,"rental_uris":{"android":"levelo://app?vid=1d7eed34-26a7-4525-a746-95fc01d85a12","ios":"levelo://app?vid=1d7eed34-26a7-4525-a746-95fc01d85a12"},"vehicle_type_id":"4","last_reported":1736507273,"current_range_meters":38800,"station_id":"ce4bhh92rcd13ifvqfh0","pricing_plan_id":"cebpf4jnsgd1na2vs0mg"},{"bike_id":"49d154ab-b066-4a04-b00a-22a27742a39e","system_id":"levelo_inurba_marseille","lat":43.24188,"lon":5.39731,"is_reserved":false,"is_disabled":false,"rental_uris":{"android":"levelo://app?vid=49d154ab-b066-4a04-b00a-22a27742a39e","ios":"levelo://app?vid=49d154ab-b066-4a04-b00a-22a27742a39e"},"vehicle_type_id":"4","last_reported":1736507273,"current_range_meters":39200,"station_id":"ce4bhn12rcd13ifvqgpg","pricing_plan_id":"cebpf4jnsgd1na2vs0mg"},{"bike_id":"738eea2a-ca99-4889-bfd2-05bdd49d5251","system_id":"levelo_inurba_marseille","lat":43.27814,"lon":5.40716,"is_reserved":false,"is_disabled":false,"rental_uris":{"android":"levelo://app?vid=738eea2a-ca99-4889-bfd2-05bdd49d5251","ios":"levelo://app?vid=738eea2a-ca99-4889-bfd2-05bdd49d5251"},"vehicle_type_id":"4","last_reported":1736507273,"current_range_meters":19600,"station_id":"ce4bhnh2rcd13ifvqgtg","pricing_plan_id":"cebpf4jnsgd1na2vs0mg"},{"bike_id":"50b71c1b-b2a4-447e-ad41-1105966bb345","system_id":"levelo_inurba_marseille","lat":43.25126,"lon":5.37544,"is_reserved":false,"is_disabled":true,"rental_uris":{"android":"levelo://app?vid=50b71c1b-b2a4-447e-ad41-1105966bb345","ios":"levelo://app?vid=50b71c1b-b2a4-447e-ad41-1105966bb345"},"vehicle_type_id":"4","last_reported":1736507273,"current_range_meters":1600,"station_id":"","pricing_plan_id":"cebpf4jnsgd1na2vs0mg"},{"bike_id":"9f35e75c-ba6d-4f8b-b521-eefbbebfb95e","system_id":"levelo_inurba_marseille","lat":43.24669,"lon":5.38152,"is_reserved":false,"is_disabled":false,"rental_uris":{"android":"levelo://app?vid=9f35e75c-ba6d-4f8b-b521-eefbbebfb95e","ios":"levelo://app?vid=9f35e75c-ba6d-4f8b-b521-eefbbebfb95e"},"vehicle_type_id":"4","last_reported":1736507273,"current_range_meters":16400,"station_id":"ce4bhih2rcd13ifvqfr0","pricing_plan_id":"cebpf4jnsgd1na2vs0mg"},{"bike_id":"8a0df70f-3b60-4510-bdf9-1eb41a2abb80","system_id":"levelo_inurba_marseille","lat":43.33613,"lon":5.41016,"is_reserved":false,"is_disabled":false,"rental_uris":{"android":"levelo://app?vid=8a0df70f-3b60-4510-bdf9-1eb41a2abb80","ios":"levelo://app?vid=8a0df70f-3b60-4510-bdf9-1eb41a2abb80"},"vehicle_type_id":"4","last_reported":1736507273,"current_range_meters":38000,"station_id":"ce4bhqh2rcd13ifvqhmg","pricing_plan_id":"cebpf4jnsgd1na2vs0mg"},{"bike_id":"279ffd3f-43e4-44ed-b002-cac559c41c70","system_id":"levelo_inurba_marseille","lat":43.23059,"lon":5.35493,"is_reserved":false,"is_disabled":false,"rental_uris":{"android":"levelo://app?vid=279ffd3f-43e4-44ed-b002-cac559c41c70","ios":"levelo://app?vid=279ffd3f-43e4-44ed-b002-cac559c41c70"},"vehicle_type_id":"4","last_reported":1736507273,"current_range_meters":25200,"station_id":"cpo3342slgdg3j2ifvpg","pricing_plan_id":"cebpf4jnsgd1na2vs0mg"},{"bike_id":"da294aad-6c12-406a-8734-cdfa3c43d2ff","system_id":"levelo_inurba_marseille","lat":43.30305,"lon":5.36911,"is_reserved":false,"is_disabled":false,"rental_uris":{"android":"levelo://app?vid=da294aad-6c12-406a-8734-cdfa3c43d2ff","ios":"levelo://app?vid=da294aad-6c12-406a-8734-cdfa3c43d2ff"},"vehicle_type_id":"4","last_reported":1736507273,"current_range_meters":18800,"station_id":"ce4bgqh2rcd13ifvqc5g","pricing_plan_id":"cebpf4jnsgd1na2vs0mg"},{"bike_id":"e1d410c6-22be-4056-903b-af42d8b54faa","system_id":"levelo_inurba_marseille","lat":43.25003,"lon":5.38941,"is_reserved":false,"is_disabled":false,"rental_uris":{"android":"levelo://app?vid=e1d410c6-22be-4056-903b-af42d8b54faa","ios":"levelo://app?vid=e1d410c6-22be-4056-903b-af42d8b54faa"},"vehicle_type_id":"4","last_reported":1736507273,"current_range_meters":27600,"station_id":"ce4bhgp2rcd13ifvqfd0","pricing_plan_id":"cebpf4jnsgd1na2vs0mg"},{"bike_id":"98e7f821-41c5-432b-899e-09a493e0315a","system_id":"levelo_inurba_marseille","lat":43.27981,"lon":5.41664,"is_reserved":false,"is_disabled":false,"rental_uris":{"android":"levelo://app?vid=98e7f821-41c5-432b-899e-09a493e0315a","ios":"levelo://app?vid=98e7f821-41c5-432b-899e-09a493e0315a"},"vehicle_type_id":"4","last_reported":1736507273,"current_range_meters":34800,"station_id":"ce4bho12rcd13ifvqh1g","pricing_plan_id":"cebpf4jnsgd1na2vs0mg"},{"bike_id":"678ecc6a-68b8-4782-ab6d-14117fed5936","system_id":"levelo_inurba_marseille","lat":43.30908,"lon":5.36854,"is_reserved":false,"is_disabled":false,"rental_uris":{"android":"levelo://app?vid=678ecc6a-68b8-4782-ab6d-14117fed5936","ios":"levelo://app?vid=678ecc6a-68b8-4782-ab6d-14117fed5936"},"vehicle_type_id":"4","last_reported":1736507273,"current_range_meters":38000,"station_id":"ce4bgn92rcd13ifvqbvg","pricing_plan_id":"cebpf4jnsgd1na2vs0mg"},{"bike_id":"9d5535df-7edb-47f9-ac14-54793dd626e0","system_id":"levelo_inurba_marseille","lat":43.22926,"lon":5.35391,"is_reserved":false,"is_disabled":false,"rental_uris":{"android":"levelo://app?vid=9d5535df-7edb-47f9-ac14-54793dd626e0","ios":"levelo://app?vid=9d5535df-7edb-47f9-ac14-54793dd626e0"},"vehicle_type_id":"4","last_reported":1736507273,"current_range_meters":25200,"station_id":"cpo3532slgdg3j2ikp40","pricing_plan_id":"cebpf4jnsgd1na2vs0mg"},{"bike_id":"6a37db2e-c575-4bb3-b858-7fc08de43543","system_id":"levelo_inurba_marseille","lat":43.26567,"lon":5.37331,"is_reserved":false,"is_disabled":false,"rental_uris":{"android":"levelo://app?vid=6a37db2e-c575-4bb3-b858-7fc08de43543","ios":"levelo://app?vid=6a37db2e-c575-4bb3-b858-7fc08de43543"},"vehicle_type_id":"4","last_reported":1736507273,"current_range_meters":38800,"station_id":"ce4bhg12rcd13ifvqf70","pricing_plan_id":"cebpf4jnsgd1na2vs0mg"},{"bike_id":"0617fde0-97c2-4716-8570-25581d6a6543","system_id":"levelo_inurba_marseille","lat":43.27493,"lon":5.42463,"is_reserved":false,"is_disabled":false,"rental_uris":{"android":"levelo://app?vid=0617fde0-97c2-4716-8570-25581d6a6543","ios":"levelo://app?vid=0617fde0-97c2-4716-8570-25581d6a6543"},"vehicle_type_id":"4","last_reported":1736507273,"current_range_meters":38400,"station_id":"ce4bhn92rcd13ifvqgrg","pricing_plan_id":"cebpf4jnsgd1na2vs0mg"},{"bike_id":"719ccbb5-f74d-49b1-8d28-a840736f16cb","system_id":"levelo_inurba_marseille","lat":43.27205,"lon":5.39189,"is_reserved":false,"is_disabled":false,"rental_uris":{"android":"levelo://app?vid=719ccbb5-f74d-49b1-8d28-a840736f16cb","ios":"levelo://app?vid=719ccbb5-f74d-49b1-8d28-a840736f16cb"},"vehicle_type_id":"4","last_reported":1736507273,"current_range_meters":28000,"station_id":"ce4bhhp2rcd13ifvqfm0","pricing_plan_id":"cebpf4jnsgd1na2vs0mg"},{"bike_id":"e2aa416f-0759-4629-861d-bd99778ba17a","system_id":"levelo_inurba_marseille","lat":43.22926,"lon":5.3539,"is_reserved":false,"is_disabled":true,"rental_uris":{"android":"levelo://app?vid=e2aa416f-0759-4629-861d-bd99778ba17a","ios":"levelo://app?vid=e2aa416f-0759-4629-861d-bd99778ba17a"},"vehicle_type_id":"4","last_reported":1736507273,"current_range_meters":400,"station_id":"cpo3532slgdg3j2ikp40","pricing_plan_id":"cebpf4jnsgd1na2vs0mg"},{"bike_id":"1a7bc4b7-38c8-4c3d-a9c3-234788ba462a","system_id":"levelo_inurba_marseille","lat":43.30156,"lon":5.38086,"is_reserved":false,"is_disabled":false,"rental_uris":{"android":"levelo://app?vid=1a7bc4b7-38c8-4c3d-a9c3-234788ba462a","ios":"levelo://app?vid=1a7bc4b7-38c8-4c3d-a9c3-234788ba462a"},"vehicle_type_id":"4","last_reported":1736507273,"current_range_meters":38800,"station_id":"ce4bgjp2rcd13ifvqbh0","pricing_plan_id":"cebpf4jnsgd1na2vs0mg"},{"bike_id":"4c409def-6081-4bf0-94f7-1f8888bc6844","system_id":"levelo_inurba_marseille","lat":43.30185,"lon":5.39493,"is_reserved":false,"is_disabled":false,"rental_uris":{"android":"levelo://app?vid=4c409def-6081-4bf0-94f7-1f8888bc6844","ios":"levelo://app?vid=4c409def-6081-4bf0-94f7-1f8888bc6844"},"vehicle_type_id":"4","last_reported":1736507273,"current_range_meters":36400,"station_id":"ce4bh0p2rcd13ifvqd70","pricing_plan_id":"cebpf4jnsgd1na2vs0mg"},{"bike_id":"02c900fa-8b4e-4e77-8348-d1e27c2ae626","system_id":"levelo_inurba_marseille","lat":43.31729,"lon":5.40438,"is_reserved":false,"is_disabled":false,"rental_uris":{"android":"levelo://app?vid=02c900fa-8b4e-4e77-8348-d1e27c2ae626","ios":"levelo://app?vid=02c900fa-8b4e-4e77-8348-d1e27c2ae626"},"vehicle_type_id":"4","last_reported":1736507273,"current_range_meters":17600,"station_id":"ce4bh012rcd13ifvqd00","pricing_plan_id":"cebpf4jnsgd1na2vs0mg"},{"bike_id":"e0f3f4e6-9117-430e-9f8e-dfe5b7c3f4d0","system_id":"levelo_inurba_marseille","lat":43.2795,"lon":5.41059,"is_reserved":false,"is_disabled":false,"rental_uris":{"android":"levelo://app?vid=e0f3f4e6-9117-430e-9f8e-dfe5b7c3f4d0","ios":"levelo://app?vid=e0f3f4e6-9117-430e-9f8e-dfe5b7c3f4d0"},"vehicle_type_id":"4","last_reported":1736507273,"current_range_meters":22800,"station_id":"ce4bhnp2rcd13ifvqh0g","pricing_plan_id":"cebpf4jnsgd1na2vs0mg"},{"bike_id":"dbe4d7d2-95f9-4a28-b000-f9ac7c3f52eb","system_id":"levelo_inurba_marseille","lat":43.29184,"lon":5.39342,"is_reserved":false,"is_disabled":true,"rental_uris":{"android":"levelo://app?vid=dbe4d7d2-95f9-4a28-b000-f9ac7c3f52eb","ios":"levelo://app?vid=dbe4d7d2-95f9-4a28-b000-f9ac7c3f52eb"},"vehicle_type_id":"4","last_reported":1736507273,"current_range_meters":0,"station_id":"ce4bh192rcd13ifvqdd0","pricing_plan_id":"cebpf4jnsgd1na2vs0mg"},{"bike_id":"4af16076-0c4c-4b77-bf13-a9dfad761f4a","system_id":"levelo_inurba_marseille","lat":43.26025,"lon":5.37559,"is_reserved":false,"is_disabled":true,"rental_uris":{"android":"levelo://app?vid=4af16076-0c4c-4b77-bf13-a9dfad761f4a","ios":"levelo://app?vid=4af16076-0c4c-4b77-bf13-a9dfad761f4a"},"vehicle_type_id":"4","last_reported":1736507273,"current_range_meters":1600,"station_id":"ce4bhgh2rcd13ifvqfa0","pricing_plan_id":"cebpf4jnsgd1na2vs0mg"},{"bike_id":"5942ccd7-42b2-4303-8790-28bc52228871","system_id":"levelo_inurba_marseille","lat":43.29609,"lon":5.38097,"is_reserved":false,"is_disabled":false,"rental_uris":{"android":"levelo://app?vid=5942ccd7-42b2-4303-8790-28bc52228871","ios":"levelo://app?vid=5942ccd7-42b2-4303-8790-28bc52228871"},"vehicle_type_id":"4","last_reported":1736507273,"current_range_meters":26800,"station_id":"ce4bgl12rcd13ifvqbo0","pricing_plan_id":"cebpf4jnsgd1na2vs0mg"},{"bike_id":"ce9b9648-b90a-4e04-b3e7-46571076b958","system_id":"levelo_inurba_marseille","lat":43.29303,"lon":5.37163,"is_reserved":false,"is_disabled":false,"rental_uris":{"android":"levelo://app?vid=ce9b9648-b90a-4e04-b3e7-46571076b958","ios":"levelo://app?vid=ce9b9648-b90a-4e04-b3e7-46571076b958"},"vehicle_type_id":"4","last_reported":1736507273,"current_range_meters":37600,"station_id":"ce4bgh92rcd13ifvqb40","pricing_plan_id":"cebpf4jnsgd1na2vs0mg"},{"bike_id":"6d907632-b7a4-409f-98d5-031bae93ab87","system_id":"levelo_inurba_marseille","lat":43.23955,"lon":5.36664,"is_reserved":false,"is_disabled":false,"rental_uris":{"android":"levelo://app?vid=6d907632-b7a4-409f-98d5-031bae93ab87","ios":"levelo://app?vid=6d907632-b7a4-409f-98d5-031bae93ab87"},"vehicle_type_id":"4","last_reported":1736507273,"current_range_meters":38800,"station_id":"ce4bhi12rcd13ifvqfp0","pricing_plan_id":"cebpf4jnsgd1na2vs0mg"},{"bike_id":"4139e9da-32e8-4421-a77c-8be36e19d80e","system_id":"levelo_inurba_marseille","lat":43.24386,"lon":5.37067,"is_reserved":false,"is_disabled":false,"rental_uris":{"android":"levelo://app?vid=4139e9da-32e8-4421-a77c-8be36e19d80e","ios":"levelo://app?vid=4139e9da-32e8-4421-a77c-8be36e19d80e"},"vehicle_type_id":"4","last_reported":1736507273,"current_range_meters":25600,"station_id":"ce4bhhh2rcd13ifvqfk0","pricing_plan_id":"cebpf4jnsgd1na2vs0mg"},{"bike_id":"e317371f-3cb8-4455-a218-71b01dcac120","system_id":"levelo_inurba_marseille","lat":43.29529,"lon":5.37499,"is_reserved":false,"is_disabled":false,"rental_uris":{"android":"levelo://app?vid=e317371f-3cb8-4455-a218-71b01dcac120","ios":"levelo://app?vid=e317371f-3cb8-4455-a218-71b01dcac120"},"vehicle_type_id":"4","last_reported":1736507273,"current_range_meters":37600,"station_id":"ce4bgkp2rcd13ifvqbmg","pricing_plan_id":"cebpf4jnsgd1na2vs0mg"},{"bike_id":"dafa00c8-aa63-4e9a-b090-bc223ab75b71","system_id":"levelo_inurba_marseille","lat":43.25938,"lon":5.4092,"is_reserved":false,"is_disabled":false,"rental_uris":{"android":"levelo://app?vid=dafa00c8-aa63-4e9a-b090-bc223ab75b71","ios":"levelo://app?vid=dafa00c8-aa63-4e9a-b090-bc223ab75b71"},"vehicle_type_id":"4","last_reported":1736507273,"current_range_meters":38800,"station_id":"ce4bhm92rcd13ifvqglg","pricing_plan_id":"cebpf4jnsgd1na2vs0mg"},{"bike_id":"60c97533-95bd-4324-a21f-a804a4e55da7","system_id":"levelo_inurba_marseille","lat":43.26681,"lon":5.38273,"is_reserved":false,"is_disabled":false,"rental_uris":{"android":"levelo://app?vid=60c97533-95bd-4324-a21f-a804a4e55da7","ios":"levelo://app?vid=60c97533-95bd-4324-a21f-a804a4e55da7"},"vehicle_type_id":"4","last_reported":1736507273,"current_range_meters":17200,"station_id":"ce4bhg92rcd13ifvqf90","pricing_plan_id":"cebpf4jnsgd1na2vs0mg"},{"bike_id":"168c2084-99c3-45eb-88e5-cf54af8eb1df","system_id":"levelo_inurba_marseille","lat":43.27938,"lon":5.38753,"is_reserved":false,"is_disabled":true,"rental_uris":{"android":"levelo://app?vid=168c2084-99c3-45eb-88e5-cf54af8eb1df","ios":"levelo://app?vid=168c2084-99c3-45eb-88e5-cf54af8eb1df"},"vehicle_type_id":"4","last_reported":1736507273,"current_range_meters":1200,"station_id":"ce4bhg12rcd13ifvqf80","pricing_plan_id":"cebpf4jnsgd1na2vs0mg"},{"bike_id":"68ea1000-5d56-4ac7-8d5f-e4f50111a9ca","system_id":"levelo_inurba_marseille","lat":43.2781,"lon":5.40727,"is_reserved":false,"is_disabled":false,"rental_uris":{"android":"levelo://app?vid=68ea1000-5d56-4ac7-8d5f-e4f50111a9ca","ios":"levelo://app?vid=68ea1000-5d56-4ac7-8d5f-e4f50111a9ca"},"vehicle_type_id":"4","last_reported":1736507273,"current_range_meters":36800,"station_id":"ce4bhnh2rcd13ifvqgtg","pricing_plan_id":"cebpf4jnsgd1na2vs0mg"},{"bike_id":"1b4587cd-457c-43a2-92e0-249106938ab1","system_id":"levelo_inurba_marseille","lat":43.26186,"lon":5.37979,"is_reserved":false,"is_disabled":false,"rental_uris":{"android":"levelo://app?vid=1b4587cd-457c-43a2-92e0-249106938ab1","ios":"levelo://app?vid=1b4587cd-457c-43a2-92e0-249106938ab1"},"vehicle_type_id":"4","last_reported":1736507273,"current_range_meters":25600,"station_id":"ce4bhjp2rcd13ifvqg90","pricing_plan_id":"cebpf4jnsgd1na2vs0mg"},{"bike_id":"dac810d5-e9fe-473a-916f-21ca3850cc9b","system_id":"levelo_inurba_marseille","lat":43.2606,"lon":5.39401,"is_reserved":false,"is_disabled":false,"rental_uris":{"android":"levelo://app?vid=dac810d5-e9fe-473a-916f-21ca3850cc9b","ios":"levelo://app?vid=dac810d5-e9fe-473a-916f-21ca3850cc9b"},"vehicle_type_id":"4","last_reported":1736507273,"current_range_meters":36400,"station_id":"ce4bhh92rcd13ifvqfj0","pricing_plan_id":"cebpf4jnsgd1na2vs0mg"},{"bike_id":"dc7c3254-8743-46e0-83e6-a66225f60699","system_id":"levelo_inurba_marseille","lat":43.31187,"lon":5.36849,"is_reserved":false,"is_disabled":false,"rental_uris":{"android":"levelo://app?vid=dc7c3254-8743-46e0-83e6-a66225f60699","ios":"levelo://app?vid=dc7c3254-8743-46e0-83e6-a66225f60699"},"vehicle_type_id":"4","last_reported":1736507273,"current_range_meters":24000,"station_id":"ce4bgl92rcd13ifvqbq0","pricing_plan_id":"cebpf4jnsgd1na2vs0mg"},{"bike_id":"426ee80e-06b0-4d0f-86a5-ea8ad64aaa11","system_id":"levelo_inurba_marseille","lat":43.28937,"lon":5.43775,"is_reserved":false,"is_disabled":false,"rental_uris":{"android":"levelo://app?vid=426ee80e-06b0-4d0f-86a5-ea8ad64aaa11","ios":"levelo://app?vid=426ee80e-06b0-4d0f-86a5-ea8ad64aaa11"},"vehicle_type_id":"4","last_reported":1736507273,"current_range_meters":22000,"station_id":"","pricing_plan_id":"cebpf4jnsgd1na2vs0mg"},{"bike_id":"26e99618-7509-4292-89a6-e22bb8ba9da0","system_id":"levelo_inurba_marseille","lat":43.33749,"lon":5.3745,"is_reserved":false,"is_disabled":false,"rental_uris":{"android":"levelo://app?vid=26e99618-7509-4292-89a6-e22bb8ba9da0","ios":"levelo://app?vid=26e99618-7509-4292-89a6-e22bb8ba9da0"},"vehicle_type_id":"4","last_reported":1736507273,"current_range_meters":38800,"station_id":"","pricing_plan_id":"cebpf4jnsgd1na2vs0mg"},{"bike_id":"2977bbcd-113d-43a7-9780-de2fb14de1e7","system_id":"levelo_inurba_marseille","lat":43.29293,"lon":5.3747,"is_reserved":false,"is_disabled":false,"rental_uris":{"android":"levelo://app?vid=2977bbcd-113d-43a7-9780-de2fb14de1e7","ios":"levelo://app?vid=2977bbcd-113d-43a7-9780-de2fb14de1e7"},"vehicle_type_id":"4","last_reported":1736507273,"current_range_meters":38400,"station_id":"ce4bgi12rcd13ifvqb70","pricing_plan_id":"cebpf4jnsgd1na2vs0mg"},{"bike_id":"4b63a2de-fb6d-4d99-a67a-7732200ce7d3","system_id":"levelo_inurba_marseille","lat":43.29923,"lon":5.36542,"is_reserved":false,"is_disabled":false,"rental_uris":{"android":"levelo://app?vid=4b63a2de-fb6d-4d99-a67a-7732200ce7d3","ios":"levelo://app?vid=4b63a2de-fb6d-4d99-a67a-7732200ce7d3"},"vehicle_type_id":"4","last_reported":1736507273,"current_range_meters":34000,"station_id":"ce4bgm92rcd13ifvqbr0","pricing_plan_id":"cebpf4jnsgd1na2vs0mg"},{"bike_id":"9b3d97c9-0e0b-429b-be92-9de889b7cdb6","system_id":"levelo_inurba_marseille","lat":43.27961,"lon":5.38751,"is_reserved":false,"is_disabled":true,"rental_uris":{"android":"levelo://app?vid=9b3d97c9-0e0b-429b-be92-9de889b7cdb6","ios":"levelo://app?vid=9b3d97c9-0e0b-429b-be92-9de889b7cdb6"},"vehicle_type_id":"4","last_reported":1736507273,"current_range_meters":38800,"station_id":"ce4bhg12rcd13ifvqf80","pricing_plan_id":"cebpf4jnsgd1na2vs0mg"},{"bike_id":"48b9cca7-8158-4b70-b575-dc41d3837e7a","system_id":"levelo_inurba_marseille","lat":43.2883,"lon":5.39331,"is_reserved":false,"is_disabled":false,"rental_uris":{"android":"levelo://app?vid=48b9cca7-8158-4b70-b575-dc41d3837e7a","ios":"levelo://app?vid=48b9cca7-8158-4b70-b575-dc41d3837e7a"},"vehicle_type_id":"4","last_reported":1736507273,"current_range_meters":38800,"station_id":"ce4bh2p2rcd13ifvqdi0","pricing_plan_id":"cebpf4jnsgd1na2vs0mg"},{"bike_id":"aeb5c1e7-80b3-4264-b4dd-27292493ad7b","system_id":"levelo_inurba_marseille","lat":43.27501,"lon":5.42444,"is_reserved":false,"is_disabled":false,"rental_uris":{"android":"levelo://app?vid=aeb5c1e7-80b3-4264-b4dd-27292493ad7b","ios":"levelo://app?vid=aeb5c1e7-80b3-4264-b4dd-27292493ad7b"},"vehicle_type_id":"4","last_reported":1736507273,"current_range_meters":12400,"station_id":"ce4bhn92rcd13ifvqgrg","pricing_plan_id":"cebpf4jnsgd1na2vs0mg"},{"bike_id":"4b38882c-ba9d-4741-88fd-5a0cd2a690f7","system_id":"levelo_inurba_marseille","lat":43.28436,"lon":5.39195,"is_reserved":false,"is_disabled":true,"rental_uris":{"android":"levelo://app?vid=4b38882c-ba9d-4741-88fd-5a0cd2a690f7","ios":"levelo://app?vid=4b38882c-ba9d-4741-88fd-5a0cd2a690f7"},"vehicle_type_id":"4","last_reported":1736507273,"current_range_meters":8800,"station_id":"ce4bhoh2rcd13ifvqh5g","pricing_plan_id":"cebpf4jnsgd1na2vs0mg"},{"bike_id":"4fb54f46-efe2-4d02-8caa-fba59b818312","system_id":"levelo_inurba_marseille","lat":43.29729,"lon":5.37693,"is_reserved":false,"is_disabled":false,"rental_uris":{"android":"levelo://app?vid=4fb54f46-efe2-4d02-8caa-fba59b818312","ios":"levelo://app?vid=4fb54f46-efe2-4d02-8caa-fba59b818312"},"vehicle_type_id":"4","last_reported":1736507273,"current_range_meters":30400,"station_id":"ce4bgkh2rcd13ifvqbl0","pricing_plan_id":"cebpf4jnsgd1na2vs0mg"},{"bike_id":"e51b2d29-f6fd-4ba7-80e0-f85ab68cc69e","system_id":"levelo_inurba_marseille","lat":43.27066,"lon":5.42296,"is_reserved":false,"is_disabled":false,"rental_uris":{"android":"levelo://app?vid=e51b2d29-f6fd-4ba7-80e0-f85ab68cc69e","ios":"levelo://app?vid=e51b2d29-f6fd-4ba7-80e0-f85ab68cc69e"},"vehicle_type_id":"4","last_reported":1736507273,"current_range_meters":38800,"station_id":"ce4bhk92rcd13ifvqgb0","pricing_plan_id":"cebpf4jnsgd1na2vs0mg"},{"bike_id":"5432503e-9c33-4485-9518-1bca4050a610","system_id":"levelo_inurba_marseille","lat":43.3107,"lon":5.38361,"is_reserved":false,"is_disabled":false,"rental_uris":{"android":"levelo://app?vid=5432503e-9c33-4485-9518-1bca4050a610","ios":"levelo://app?vid=5432503e-9c33-4485-9518-1bca4050a610"},"vehicle_type_id":"4","last_reported":1736507273,"current_range_meters":16400,"station_id":"ce4bgv92rcd13ifvqcr0","pricing_plan_id":"cebpf4jnsgd1na2vs0mg"},{"bike_id":"e96e1983-9907-49ac-a2c1-9eee4ab9f689","system_id":"levelo_inurba_marseille","lat":43.30966,"lon":5.39048,"is_reserved":false,"is_disabled":false,"rental_uris":{"android":"levelo://app?vid=e96e1983-9907-49ac-a2c1-9eee4ab9f689","ios":"levelo://app?vid=e96e1983-9907-49ac-a2c1-9eee4ab9f689"},"vehicle_type_id":"4","last_reported":1736507273,"current_range_meters":28800,"station_id":"ce4bgup2rcd13ifvqco0","pricing_plan_id":"cebpf4jnsgd1na2vs0mg"},{"bike_id":"2c9f87a8-522f-432b-ba2f-20b0bd1c694f","system_id":"levelo_inurba_marseille","lat":43.309,"lon":5.36853,"is_reserved":false,"is_disabled":false,"rental_uris":{"android":"levelo://app?vid=2c9f87a8-522f-432b-ba2f-20b0bd1c694f","ios":"levelo://app?vid=2c9f87a8-522f-432b-ba2f-20b0bd1c694f"},"vehicle_type_id":"4","last_reported":1736507273,"current_range_meters":38800,"station_id":"ce4bgn92rcd13ifvqbvg","pricing_plan_id":"cebpf4jnsgd1na2vs0mg"},{"bike_id":"aebffcef-ecfd-4644-baa5-41ef6ceb4909","system_id":"levelo_inurba_marseille","lat":43.23956,"lon":5.36645,"is_reserved":false,"is_disabled":false,"rental_uris":{"android":"levelo://app?vid=aebffcef-ecfd-4644-baa5-41ef6ceb4909","ios":"levelo://app?vid=aebffcef-ecfd-4644-baa5-41ef6ceb4909"},"vehicle_type_id":"4","last_reported":1736507273,"current_range_meters":22800,"station_id":"ce4bhi12rcd13ifvqfp0","pricing_plan_id":"cebpf4jnsgd1na2vs0mg"},{"bike_id":"d1dfdd5b-7c77-4eb7-b4b4-c8880890dbb4","system_id":"levelo_inurba_marseille","lat":43.336067,"lon":5.41018,"is_reserved":false,"is_disabled":false,"rental_uris":{"android":"levelo://app?vid=d1dfdd5b-7c77-4eb7-b4b4-c8880890dbb4","ios":"levelo://app?vid=d1dfdd5b-7c77-4eb7-b4b4-c8880890dbb4"},"vehicle_type_id":"4","last_reported":1736507273,"current_range_meters":19200,"station_id":"ce4bhqh2rcd13ifvqhmg","pricing_plan_id":"cebpf4jnsgd1na2vs0mg"},{"bike_id":"a34d11e0-f731-4ea8-8ef5-9738ad51a012","system_id":"levelo_inurba_marseille","lat":43.29002,"lon":5.35613,"is_reserved":false,"is_disabled":false,"rental_uris":{"android":"levelo://app?vid=a34d11e0-f731-4ea8-8ef5-9738ad51a012","ios":"levelo://app?vid=a34d11e0-f731-4ea8-8ef5-9738ad51a012"},"vehicle_type_id":"4","last_reported":1736507273,"current_range_meters":20400,"station_id":"ce4bhb92rcd13ifvqen0","pricing_plan_id":"cebpf4jnsgd1na2vs0mg"},{"bike_id":"6d0e52d5-171f-4142-95ad-661bb82f8fd1","system_id":"levelo_inurba_marseille","lat":43.26563,"lon":5.37301,"is_reserved":false,"is_disabled":false,"rental_uris":{"android":"levelo://app?vid=6d0e52d5-171f-4142-95ad-661bb82f8fd1","ios":"levelo://app?vid=6d0e52d5-171f-4142-95ad-661bb82f8fd1"},"vehicle_type_id":"4","last_reported":1736507273,"current_range_meters":32000,"station_id":"ce4bhg12rcd13ifvqf70","pricing_plan_id":"cebpf4jnsgd1na2vs0mg"},{"bike_id":"eccda36e-f31d-4d01-b219-d2103b9a6ede","system_id":"levelo_inurba_marseille","lat":43.27601,"lon":5.36126,"is_reserved":false,"is_disabled":false,"rental_uris":{"android":"levelo://app?vid=eccda36e-f31d-4d01-b219-d2103b9a6ede","ios":"levelo://app?vid=eccda36e-f31d-4d01-b219-d2103b9a6ede"},"vehicle_type_id":"4","last_reported":1736507273,"current_range_meters":38400,"station_id":"ce4bgj92rcd13ifvqbe0","pricing_plan_id":"cebpf4jnsgd1na2vs0mg"},{"bike_id":"ae344df5-e0e8-4103-ac07-7e76d9cda216","system_id":"levelo_inurba_marseille","lat":43.23682,"lon":5.3734,"is_reserved":false,"is_disabled":false,"rental_uris":{"android":"levelo://app?vid=ae344df5-e0e8-4103-ac07-7e76d9cda216","ios":"levelo://app?vid=ae344df5-e0e8-4103-ac07-7e76d9cda216"},"vehicle_type_id":"4","last_reported":1736507273,"current_range_meters":36000,"station_id":"","pricing_plan_id":"cebpf4jnsgd1na2vs0mg"},{"bike_id":"6c16b955-c13c-49a6-a5bb-29559922d02c","system_id":"levelo_inurba_marseille","lat":43.23961,"lon":5.36631,"is_reserved":false,"is_disabled":false,"rental_uris":{"android":"levelo://app?vid=6c16b955-c13c-49a6-a5bb-29559922d02c","ios":"levelo://app?vid=6c16b955-c13c-49a6-a5bb-29559922d02c"},"vehicle_type_id":"4","last_reported":1736507273,"current_range_meters":25600,"station_id":"ce4bhi12rcd13ifvqfp0","pricing_plan_id":"cebpf4jnsgd1na2vs0mg"},{"bike_id":"e5b661c0-5639-40a4-90a1-dcef1f99f698","system_id":"levelo_inurba_marseille","lat":43.30468,"lon":5.37905,"is_reserved":false,"is_disabled":false,"rental_uris":{"android":"levelo://app?vid=e5b661c0-5639-40a4-90a1-dcef1f99f698","ios":"levelo://app?vid=e5b661c0-5639-40a4-90a1-dcef1f99f698"},"vehicle_type_id":"4","last_reported":1736507273,"current_range_meters":34000,"station_id":"ce4bgup2rcd13ifvqcn0","pricing_plan_id":"cebpf4jnsgd1na2vs0mg"},{"bike_id":"dd95b172-24fd-4056-9bb1-1ba37d74b460","system_id":"levelo_inurba_marseille","lat":43.25575,"lon":5.3825,"is_reserved":false,"is_disabled":false,"rental_uris":{"android":"levelo://app?vid=dd95b172-24fd-4056-9bb1-1ba37d74b460","ios":"levelo://app?vid=dd95b172-24fd-4056-9bb1-1ba37d74b460"},"vehicle_type_id":"4","last_reported":1736507273,"current_range_meters":16400,"station_id":"ce4bhih2rcd13ifvqfs0","pricing_plan_id":"cebpf4jnsgd1na2vs0mg"},{"bike_id":"182bb2b4-4d40-4c8b-8352-ef4599096cac","system_id":"levelo_inurba_marseille","lat":43.26025,"lon":5.37561,"is_reserved":false,"is_disabled":false,"rental_uris":{"android":"levelo://app?vid=182bb2b4-4d40-4c8b-8352-ef4599096cac","ios":"levelo://app?vid=182bb2b4-4d40-4c8b-8352-ef4599096cac"},"vehicle_type_id":"4","last_reported":1736507273,"current_range_meters":39200,"station_id":"ce4bhgh2rcd13ifvqfa0","pricing_plan_id":"cebpf4jnsgd1na2vs0mg"},{"bike_id":"1310b0a7-2d92-48eb-8ea3-50e68c13d411","system_id":"levelo_inurba_marseille","lat":43.30252,"lon":5.37757,"is_reserved":false,"is_disabled":false,"rental_uris":{"android":"levelo://app?vid=1310b0a7-2d92-48eb-8ea3-50e68c13d411","ios":"levelo://app?vid=1310b0a7-2d92-48eb-8ea3-50e68c13d411"},"vehicle_type_id":"4","last_reported":1736507273,"current_range_meters":38800,"station_id":"ce4bguh2rcd13ifvqcj0","pricing_plan_id":"cebpf4jnsgd1na2vs0mg"},{"bike_id":"e247b89a-68d3-4787-a893-22107163a77e","system_id":"levelo_inurba_marseille","lat":43.23177,"lon":5.39986,"is_reserved":false,"is_disabled":false,"rental_uris":{"android":"levelo://app?vid=e247b89a-68d3-4787-a893-22107163a77e","ios":"levelo://app?vid=e247b89a-68d3-4787-a893-22107163a77e"},"vehicle_type_id":"4","last_reported":1736507273,"current_range_meters":20400,"station_id":"ce4bhn12rcd13ifvqgqg","pricing_plan_id":"cebpf4jnsgd1na2vs0mg"},{"bike_id":"a1a982e7-e625-4dfa-991a-019bb63c806f","system_id":"levelo_inurba_marseille","lat":43.23956,"lon":5.36654,"is_reserved":false,"is_disabled":false,"rental_uris":{"android":"levelo://app?vid=a1a982e7-e625-4dfa-991a-019bb63c806f","ios":"levelo://app?vid=a1a982e7-e625-4dfa-991a-019bb63c806f"},"vehicle_type_id":"4","last_reported":1736507273,"current_range_meters":23200,"station_id":"ce4bhi12rcd13ifvqfp0","pricing_plan_id":"cebpf4jnsgd1na2vs0mg"},{"bike_id":"4128a329-9f92-4942-845a-f8bcda68ed73","system_id":"levelo_inurba_marseille","lat":43.30163,"lon":5.38108,"is_reserved":false,"is_disabled":false,"rental_uris":{"android":"levelo://app?vid=4128a329-9f92-4942-845a-f8bcda68ed73","ios":"levelo://app?vid=4128a329-9f92-4942-845a-f8bcda68ed73"},"vehicle_type_id":"4","last_reported":1736507273,"current_range_meters":32400,"station_id":"ce4bgjp2rcd13ifvqbh0","pricing_plan_id":"cebpf4jnsgd1na2vs0mg"},{"bike_id":"13c9ffd1-0571-4a01-b1c4-cdbe934dff2a","system_id":"levelo_inurba_marseille","lat":43.24997,"lon":5.38939,"is_reserved":false,"is_disabled":false,"rental_uris":{"android":"levelo://app?vid=13c9ffd1-0571-4a01-b1c4-cdbe934dff2a","ios":"levelo://app?vid=13c9ffd1-0571-4a01-b1c4-cdbe934dff2a"},"vehicle_type_id":"4","last_reported":1736507273,"current_range_meters":32400,"station_id":"ce4bhgp2rcd13ifvqfd0","pricing_plan_id":"cebpf4jnsgd1na2vs0mg"},{"bike_id":"e71db8cf-7b3c-485e-a8dd-487e8221434b","system_id":"levelo_inurba_marseille","lat":43.305443,"lon":5.36694,"is_reserved":false,"is_disabled":false,"rental_uris":{"android":"levelo://app?vid=e71db8cf-7b3c-485e-a8dd-487e8221434b","ios":"levelo://app?vid=e71db8cf-7b3c-485e-a8dd-487e8221434b"},"vehicle_type_id":"4","last_reported":1736507273,"current_range_meters":39200,"station_id":"ce4bgrp2rcd13ifvqc9g","pricing_plan_id":"cebpf4jnsgd1na2vs0mg"},{"bike_id":"db2bb327-84ca-49b3-a980-9c69d6ef41a2","system_id":"levelo_inurba_marseille","lat":43.23194,"lon":5.35556,"is_reserved":false,"is_disabled":false,"rental_uris":{"android":"levelo://app?vid=db2bb327-84ca-49b3-a980-9c69d6ef41a2","ios":"levelo://app?vid=db2bb327-84ca-49b3-a980-9c69d6ef41a2"},"vehicle_type_id":"4","last_reported":1736507273,"current_range_meters":38400,"station_id":"ce4bhu92rcd13ifvqi70","pricing_plan_id":"cebpf4jnsgd1na2vs0mg"},{"bike_id":"b1cd05bd-cc6d-452b-8b8c-f24ee7fb627f","system_id":"levelo_inurba_marseille","lat":43.25813,"lon":5.39475,"is_reserved":false,"is_disabled":false,"rental_uris":{"android":"levelo://app?vid=b1cd05bd-cc6d-452b-8b8c-f24ee7fb627f","ios":"levelo://app?vid=b1cd05bd-cc6d-452b-8b8c-f24ee7fb627f"},"vehicle_type_id":"4","last_reported":1736507273,"current_range_meters":36800,"station_id":"ce4bhip2rcd13ifvqft0","pricing_plan_id":"cebpf4jnsgd1na2vs0mg"},{"bike_id":"c2c90c49-5df2-4ff1-8234-e3f893d514f5","system_id":"levelo_inurba_marseille","lat":43.32046,"lon":5.41542,"is_reserved":false,"is_disabled":false,"rental_uris":{"android":"levelo://app?vid=c2c90c49-5df2-4ff1-8234-e3f893d514f5","ios":"levelo://app?vid=c2c90c49-5df2-4ff1-8234-e3f893d514f5"},"vehicle_type_id":"4","last_reported":1736507273,"current_range_meters":39200,"station_id":"ce4bhq92rcd13ifvqhkg","pricing_plan_id":"cebpf4jnsgd1na2vs0mg"},{"bike_id":"9d27d288-9638-4ffa-a41f-98c9e72676c0","system_id":"levelo_inurba_marseille","lat":43.231931,"lon":5.355543,"is_reserved":false,"is_disabled":false,"rental_uris":{"android":"levelo://app?vid=9d27d288-9638-4ffa-a41f-98c9e72676c0","ios":"levelo://app?vid=9d27d288-9638-4ffa-a41f-98c9e72676c0"},"vehicle_type_id":"4","last_reported":1736507273,"current_range_meters":8800,"station_id":"ce4bhu92rcd13ifvqi70","pricing_plan_id":"cebpf4jnsgd1na2vs0mg"},{"bike_id":"5aee579e-4d1a-4cdd-b13b-286ee35e83d9","system_id":"levelo_inurba_marseille","lat":43.25919,"lon":5.4091,"is_reserved":false,"is_disabled":false,"rental_uris":{"android":"levelo://app?vid=5aee579e-4d1a-4cdd-b13b-286ee35e83d9","ios":"levelo://app?vid=5aee579e-4d1a-4cdd-b13b-286ee35e83d9"},"vehicle_type_id":"4","last_reported":1736507273,"current_range_meters":36800,"station_id":"ce4bhm92rcd13ifvqglg","pricing_plan_id":"cebpf4jnsgd1na2vs0mg"},{"bike_id":"b9976952-4a08-4451-ad5d-1dcdb3e3ca97","system_id":"levelo_inurba_marseille","lat":43.2994,"lon":5.38539,"is_reserved":false,"is_disabled":true,"rental_uris":{"android":"levelo://app?vid=b9976952-4a08-4451-ad5d-1dcdb3e3ca97","ios":"levelo://app?vid=b9976952-4a08-4451-ad5d-1dcdb3e3ca97"},"vehicle_type_id":"4","last_reported":1736507273,"current_range_meters":27200,"station_id":"ce4bgj92rcd13ifvqbd0","pricing_plan_id":"cebpf4jnsgd1na2vs0mg"},{"bike_id":"11585661-9606-4540-9904-4049c3c3dbe3","system_id":"levelo_inurba_marseille","lat":43.29624,"lon":5.37172,"is_reserved":false,"is_disabled":false,"rental_uris":{"android":"levelo://app?vid=11585661-9606-4540-9904-4049c3c3dbe3","ios":"levelo://app?vid=11585661-9606-4540-9904-4049c3c3dbe3"},"vehicle_type_id":"4","last_reported":1736507273,"current_range_meters":14000,"station_id":"ce4bgnh2rcd13ifvqc0g","pricing_plan_id":"cebpf4jnsgd1na2vs0mg"},{"bike_id":"3eedbd93-96ef-443d-9d1e-c330b02afecf","system_id":"levelo_inurba_marseille","lat":43.30126,"lon":5.3984,"is_reserved":false,"is_disabled":false,"rental_uris":{"android":"levelo://app?vid=3eedbd93-96ef-443d-9d1e-c330b02afecf","ios":"levelo://app?vid=3eedbd93-96ef-443d-9d1e-c330b02afecf"},"vehicle_type_id":"4","last_reported":1736507273,"current_range_meters":22400,"station_id":"ce4bh0h2rcd13ifvqd40","pricing_plan_id":"cebpf4jnsgd1na2vs0mg"},{"bike_id":"7f5893fb-4e43-4da6-9b69-a4af97f22837","system_id":"levelo_inurba_marseille","lat":43.27811,"lon":5.4071,"is_reserved":false,"is_disabled":false,"rental_uris":{"android":"levelo://app?vid=7f5893fb-4e43-4da6-9b69-a4af97f22837","ios":"levelo://app?vid=7f5893fb-4e43-4da6-9b69-a4af97f22837"},"vehicle_type_id":"4","last_reported":1736507273,"current_range_meters":28000,"station_id":"ce4bhnh2rcd13ifvqgtg","pricing_plan_id":"cebpf4jnsgd1na2vs0mg"},{"bike_id":"2c56569d-ff0b-4284-ba64-74611e7006a4","system_id":"levelo_inurba_marseille","lat":43.24991,"lon":5.38947,"is_reserved":false,"is_disabled":false,"rental_uris":{"android":"levelo://app?vid=2c56569d-ff0b-4284-ba64-74611e7006a4","ios":"levelo://app?vid=2c56569d-ff0b-4284-ba64-74611e7006a4"},"vehicle_type_id":"4","last_reported":1736507273,"current_range_meters":20800,"station_id":"ce4bhgp2rcd13ifvqfd0","pricing_plan_id":"cebpf4jnsgd1na2vs0mg"},{"bike_id":"b7a9af4a-f050-47c0-8298-26fae1024e10","system_id":"levelo_inurba_marseille","lat":43.26669,"lon":5.38287,"is_reserved":false,"is_disabled":false,"rental_uris":{"android":"levelo://app?vid=b7a9af4a-f050-47c0-8298-26fae1024e10","ios":"levelo://app?vid=b7a9af4a-f050-47c0-8298-26fae1024e10"},"vehicle_type_id":"4","last_reported":1736507273,"current_range_meters":28800,"station_id":"ce4bhg92rcd13ifvqf90","pricing_plan_id":"cebpf4jnsgd1na2vs0mg"},{"bike_id":"3d30a71a-2c30-474a-bc72-07a8166c738b","system_id":"levelo_inurba_marseille","lat":43.27812,"lon":5.40716,"is_reserved":false,"is_disabled":false,"rental_uris":{"android":"levelo://app?vid=3d30a71a-2c30-474a-bc72-07a8166c738b","ios":"levelo://app?vid=3d30a71a-2c30-474a-bc72-07a8166c738b"},"vehicle_type_id":"4","last_reported":1736507273,"current_range_meters":11200,"station_id":"ce4bhnh2rcd13ifvqgtg","pricing_plan_id":"cebpf4jnsgd1na2vs0mg"},{"bike_id":"9ed1c0a7-5035-4dde-954f-378a0451f32a","system_id":"levelo_inurba_marseille","lat":43.23951,"lon":5.36659,"is_reserved":false,"is_disabled":false,"rental_uris":{"android":"levelo://app?vid=9ed1c0a7-5035-4dde-954f-378a0451f32a","ios":"levelo://app?vid=9ed1c0a7-5035-4dde-954f-378a0451f32a"},"vehicle_type_id":"4","last_reported":1736507273,"current_range_meters":38800,"station_id":"ce4bhi12rcd13ifvqfp0","pricing_plan_id":"cebpf4jnsgd1na2vs0mg"},{"bike_id":"5e52071d-7890-4e3f-bbd9-fed138027d4b","system_id":"levelo_inurba_marseille","lat":43.29868,"lon":5.38923,"is_reserved":false,"is_disabled":true,"rental_uris":{"android":"levelo://app?vid=5e52071d-7890-4e3f-bbd9-fed138027d4b","ios":"levelo://app?vid=5e52071d-7890-4e3f-bbd9-fed138027d4b"},"vehicle_type_id":"4","last_reported":1736507273,"current_range_meters":39200,"station_id":"ce4bh392rcd13ifvqdl0","pricing_plan_id":"cebpf4jnsgd1na2vs0mg"},{"bike_id":"1f04e43e-ad27-41d8-af08-5001240149b3","system_id":"levelo_inurba_marseille","lat":43.3021,"lon":5.39473,"is_reserved":false,"is_disabled":true,"rental_uris":{"android":"levelo://app?vid=1f04e43e-ad27-41d8-af08-5001240149b3","ios":"levelo://app?vid=1f04e43e-ad27-41d8-af08-5001240149b3"},"vehicle_type_id":"4","last_reported":1736507273,"current_range_meters":1600,"station_id":"ce4bh0p2rcd13ifvqd70","pricing_plan_id":"cebpf4jnsgd1na2vs0mg"},{"bike_id":"185e258a-94ee-4bc0-a518-8b2443039ff9","system_id":"levelo_inurba_marseille","lat":43.32537,"lon":5.4144,"is_reserved":false,"is_disabled":false,"rental_uris":{"android":"levelo://app?vid=185e258a-94ee-4bc0-a518-8b2443039ff9","ios":"levelo://app?vid=185e258a-94ee-4bc0-a518-8b2443039ff9"},"vehicle_type_id":"4","last_reported":1736507273,"current_range_meters":8400,"station_id":"ce4bhq12rcd13ifvqhhg","pricing_plan_id":"cebpf4jnsgd1na2vs0mg"},{"bike_id":"3499c2e3-a89c-4eb9-b8bb-035633a0657e","system_id":"levelo_inurba_marseille","lat":43.28944,"lon":5.39662,"is_reserved":false,"is_disabled":false,"rental_uris":{"android":"levelo://app?vid=3499c2e3-a89c-4eb9-b8bb-035633a0657e","ios":"levelo://app?vid=3499c2e3-a89c-4eb9-b8bb-035633a0657e"},"vehicle_type_id":"4","last_reported":1736507273,"current_range_meters":38800,"station_id":"ce4bh3h2rcd13ifvqdn0","pricing_plan_id":"cebpf4jnsgd1na2vs0mg"},{"bike_id":"af1d8654-7f66-4539-8667-313d56746f24","system_id":"levelo_inurba_marseille","lat":43.2508,"lon":5.3953,"is_reserved":false,"is_disabled":false,"rental_uris":{"android":"levelo://app?vid=af1d8654-7f66-4539-8667-313d56746f24","ios":"levelo://app?vid=af1d8654-7f66-4539-8667-313d56746f24"},"vehicle_type_id":"4","last_reported":1736507273,"current_range_meters":39200,"station_id":"ce4bhm12rcd13ifvqgkg","pricing_plan_id":"cebpf4jnsgd1na2vs0mg"},{"bike_id":"42f80fe0-86fa-4580-b212-cc05dc66ee8c","system_id":"levelo_inurba_marseille","lat":43.33598,"lon":5.41014,"is_reserved":false,"is_disabled":false,"rental_uris":{"android":"levelo://app?vid=42f80fe0-86fa-4580-b212-cc05dc66ee8c","ios":"levelo://app?vid=42f80fe0-86fa-4580-b212-cc05dc66ee8c"},"vehicle_type_id":"4","last_reported":1736507273,"current_range_meters":25200,"station_id":"ce4bhqh2rcd13ifvqhmg","pricing_plan_id":"cebpf4jnsgd1na2vs0mg"},{"bike_id":"e5a91d57-d97c-49e2-a4d4-8c1a496db589","system_id":"levelo_inurba_marseille","lat":43.28927,"lon":5.38397,"is_reserved":false,"is_disabled":false,"rental_uris":{"android":"levelo://app?vid=e5a91d57-d97c-49e2-a4d4-8c1a496db589","ios":"levelo://app?vid=e5a91d57-d97c-49e2-a4d4-8c1a496db589"},"vehicle_type_id":"4","last_reported":1736507273,"current_range_meters":38800,"station_id":"ce4bh612rcd13ifvqe6g","pricing_plan_id":"cebpf4jnsgd1na2vs0mg"},{"bike_id":"7a0a8a69-615c-43f3-a001-073b74f4a57b","system_id":"levelo_inurba_marseille","lat":43.2557,"lon":5.38255,"is_reserved":false,"is_disabled":false,"rental_uris":{"android":"levelo://app?vid=7a0a8a69-615c-43f3-a001-073b74f4a57b","ios":"levelo://app?vid=7a0a8a69-615c-43f3-a001-073b74f4a57b"},"vehicle_type_id":"4","last_reported":1736507273,"current_range_meters":27200,"station_id":"ce4bhih2rcd13ifvqfs0","pricing_plan_id":"cebpf4jnsgd1na2vs0mg"},{"bike_id":"04b99ebe-7927-40e6-9554-a7aa6d8ff5da","system_id":"levelo_inurba_marseille","lat":43.33016,"lon":5.39043,"is_reserved":false,"is_disabled":false,"rental_uris":{"android":"levelo://app?vid=04b99ebe-7927-40e6-9554-a7aa6d8ff5da","ios":"levelo://app?vid=04b99ebe-7927-40e6-9554-a7aa6d8ff5da"},"vehicle_type_id":"4","last_reported":1736507273,"current_range_meters":39200,"station_id":"ce4bhr92rcd13ifvqhrg","pricing_plan_id":"cebpf4jnsgd1na2vs0mg"},{"bike_id":"284e1831-9922-4f3c-809c-0f802c9ef2e6","system_id":"levelo_inurba_marseille","lat":43.29554,"lon":5.42299,"is_reserved":false,"is_disabled":false,"rental_uris":{"android":"levelo://app?vid=284e1831-9922-4f3c-809c-0f802c9ef2e6","ios":"levelo://app?vid=284e1831-9922-4f3c-809c-0f802c9ef2e6"},"vehicle_type_id":"4","last_reported":1736507273,"current_range_meters":15200,"station_id":"ce4bhph2rcd13ifvqhdg","pricing_plan_id":"cebpf4jnsgd1na2vs0mg"},{"bike_id":"ad744619-fbc5-4026-9541-81b1adebd4d3","system_id":"levelo_inurba_marseille","lat":43.26024,"lon":5.37556,"is_reserved":false,"is_disabled":true,"rental_uris":{"android":"levelo://app?vid=ad744619-fbc5-4026-9541-81b1adebd4d3","ios":"levelo://app?vid=ad744619-fbc5-4026-9541-81b1adebd4d3"},"vehicle_type_id":"4","last_reported":1736507273,"current_range_meters":38800,"station_id":"ce4bhgh2rcd13ifvqfa0","pricing_plan_id":"cebpf4jnsgd1na2vs0mg"},{"bike_id":"2b68127b-8c99-46f9-b65f-98bf288dc9b7","system_id":"levelo_inurba_marseille","lat":43.25586,"lon":5.38258,"is_reserved":false,"is_disabled":false,"rental_uris":{"android":"levelo://app?vid=2b68127b-8c99-46f9-b65f-98bf288dc9b7","ios":"levelo://app?vid=2b68127b-8c99-46f9-b65f-98bf288dc9b7"},"vehicle_type_id":"4","last_reported":1736507273,"current_range_meters":7200,"station_id":"ce4bhih2rcd13ifvqfs0","pricing_plan_id":"cebpf4jnsgd1na2vs0mg"},{"bike_id":"a15f089b-8038-4ac5-8af8-5d12836e08e5","system_id":"levelo_inurba_marseille","lat":43.2668,"lon":5.382722,"is_reserved":false,"is_disabled":false,"rental_uris":{"android":"levelo://app?vid=a15f089b-8038-4ac5-8af8-5d12836e08e5","ios":"levelo://app?vid=a15f089b-8038-4ac5-8af8-5d12836e08e5"},"vehicle_type_id":"4","last_reported":1736507273,"current_range_meters":20800,"station_id":"ce4bhah2rcd13ifvqei0","pricing_plan_id":"cebpf4jnsgd1na2vs0mg"},{"bike_id":"30fdde89-77f1-46b6-af7d-a1ba0072fa0f","system_id":"levelo_inurba_marseille","lat":43.30141,"lon":5.39861,"is_reserved":false,"is_disabled":false,"rental_uris":{"android":"levelo://app?vid=30fdde89-77f1-46b6-af7d-a1ba0072fa0f","ios":"levelo://app?vid=30fdde89-77f1-46b6-af7d-a1ba0072fa0f"},"vehicle_type_id":"4","last_reported":1736507273,"current_range_meters":32400,"station_id":"ce4bh0h2rcd13ifvqd40","pricing_plan_id":"cebpf4jnsgd1na2vs0mg"},{"bike_id":"54471564-bd33-4455-b850-4f293cdf3987","system_id":"levelo_inurba_marseille","lat":43.23064,"lon":5.35493,"is_reserved":false,"is_disabled":false,"rental_uris":{"android":"levelo://app?vid=54471564-bd33-4455-b850-4f293cdf3987","ios":"levelo://app?vid=54471564-bd33-4455-b850-4f293cdf3987"},"vehicle_type_id":"4","last_reported":1736507273,"current_range_meters":12400,"station_id":"cpo3342slgdg3j2ifvpg","pricing_plan_id":"cebpf4jnsgd1na2vs0mg"},{"bike_id":"17204acd-dbd1-405f-af09-6fe61f9f8eff","system_id":"levelo_inurba_marseille","lat":43.270592,"lon":5.40255,"is_reserved":false,"is_disabled":false,"rental_uris":{"android":"levelo://app?vid=17204acd-dbd1-405f-af09-6fe61f9f8eff","ios":"levelo://app?vid=17204acd-dbd1-405f-af09-6fe61f9f8eff"},"vehicle_type_id":"4","last_reported":1736507273,"current_range_meters":29600,"station_id":"ce4bhk92rcd13ifvqgc0","pricing_plan_id":"cebpf4jnsgd1na2vs0mg"},{"bike_id":"8038473f-41bb-4c43-a65c-88becaf0a94d","system_id":"levelo_inurba_marseille","lat":43.32637,"lon":5.40996,"is_reserved":false,"is_disabled":false,"rental_uris":{"android":"levelo://app?vid=8038473f-41bb-4c43-a65c-88becaf0a94d","ios":"levelo://app?vid=8038473f-41bb-4c43-a65c-88becaf0a94d"},"vehicle_type_id":"4","last_reported":1736507273,"current_range_meters":8800,"station_id":"ce4bhpp2rcd13ifvqhgg","pricing_plan_id":"cebpf4jnsgd1na2vs0mg"},{"bike_id":"af5f5815-c481-4410-9936-f2b0c2629cd7","system_id":"levelo_inurba_marseille","lat":43.29369,"lon":5.37852,"is_reserved":false,"is_disabled":false,"rental_uris":{"android":"levelo://app?vid=af5f5815-c481-4410-9936-f2b0c2629cd7","ios":"levelo://app?vid=af5f5815-c481-4410-9936-f2b0c2629cd7"},"vehicle_type_id":"4","last_reported":1736507273,"current_range_meters":26000,"station_id":"ce4bgjh2rcd13ifvqbf0","pricing_plan_id":"cebpf4jnsgd1na2vs0mg"},{"bike_id":"37f9d671-8cf0-4f55-b6f8-808ab130e732","system_id":"levelo_inurba_marseille","lat":43.2961,"lon":5.37734,"is_reserved":false,"is_disabled":false,"rental_uris":{"android":"levelo://app?vid=37f9d671-8cf0-4f55-b6f8-808ab130e732","ios":"levelo://app?vid=37f9d671-8cf0-4f55-b6f8-808ab130e732"},"vehicle_type_id":"4","last_reported":1736507273,"current_range_meters":37600,"station_id":"ce4bgi92rcd13ifvqb90","pricing_plan_id":"cebpf4jnsgd1na2vs0mg"},{"bike_id":"6dc9317b-65fd-472e-9bab-c11939d63948","system_id":"levelo_inurba_marseille","lat":43.29573,"lon":5.37517,"is_reserved":false,"is_disabled":false,"rental_uris":{"android":"levelo://app?vid=6dc9317b-65fd-472e-9bab-c11939d63948","ios":"levelo://app?vid=6dc9317b-65fd-472e-9bab-c11939d63948"},"vehicle_type_id":"4","last_reported":1736507273,"current_range_meters":31200,"station_id":"ce4bgh92rcd13ifvqb50","pricing_plan_id":"cebpf4jnsgd1na2vs0mg"},{"bike_id":"2e414a70-54b3-420b-bc06-3746b6491a4b","system_id":"levelo_inurba_marseille","lat":43.24542,"lon":5.39526,"is_reserved":false,"is_disabled":false,"rental_uris":{"android":"levelo://app?vid=2e414a70-54b3-420b-bc06-3746b6491a4b","ios":"levelo://app?vid=2e414a70-54b3-420b-bc06-3746b6491a4b"},"vehicle_type_id":"4","last_reported":1736507273,"current_range_meters":30000,"station_id":"ce4bhlp2rcd13ifvqgjg","pricing_plan_id":"cebpf4jnsgd1na2vs0mg"},{"bike_id":"c4504b27-5588-41f3-897e-07bc12129b95","system_id":"levelo_inurba_marseille","lat":43.30145,"lon":5.38077,"is_reserved":false,"is_disabled":false,"rental_uris":{"android":"levelo://app?vid=c4504b27-5588-41f3-897e-07bc12129b95","ios":"levelo://app?vid=c4504b27-5588-41f3-897e-07bc12129b95"},"vehicle_type_id":"4","last_reported":1736507273,"current_range_meters":22400,"station_id":"ce4bgjp2rcd13ifvqbh0","pricing_plan_id":"cebpf4jnsgd1na2vs0mg"},{"bike_id":"6927f15e-bcac-445c-8616-81dfd2276d30","system_id":"levelo_inurba_marseille","lat":43.27171,"lon":5.40992,"is_reserved":false,"is_disabled":false,"rental_uris":{"android":"levelo://app?vid=6927f15e-bcac-445c-8616-81dfd2276d30","ios":"levelo://app?vid=6927f15e-bcac-445c-8616-81dfd2276d30"},"vehicle_type_id":"4","last_reported":1736507273,"current_range_meters":38800,"station_id":"ce4bhl12rcd13ifvqgf0","pricing_plan_id":"cebpf4jnsgd1na2vs0mg"},{"bike_id":"315b0a81-0cdc-4bde-b4a3-0c4d420190bc","system_id":"levelo_inurba_marseille","lat":43.27618,"lon":5.36109,"is_reserved":false,"is_disabled":false,"rental_uris":{"android":"levelo://app?vid=315b0a81-0cdc-4bde-b4a3-0c4d420190bc","ios":"levelo://app?vid=315b0a81-0cdc-4bde-b4a3-0c4d420190bc"},"vehicle_type_id":"4","last_reported":1736507273,"current_range_meters":25200,"station_id":"ce4bgj92rcd13ifvqbe0","pricing_plan_id":"cebpf4jnsgd1na2vs0mg"},{"bike_id":"9196395b-caa3-4c4e-b20e-5e513ffaa848","system_id":"levelo_inurba_marseille","lat":43.30121,"lon":5.39847,"is_reserved":false,"is_disabled":false,"rental_uris":{"android":"levelo://app?vid=9196395b-caa3-4c4e-b20e-5e513ffaa848","ios":"levelo://app?vid=9196395b-caa3-4c4e-b20e-5e513ffaa848"},"vehicle_type_id":"4","last_reported":1736507273,"current_range_meters":38800,"station_id":"ce4bh0h2rcd13ifvqd40","pricing_plan_id":"cebpf4jnsgd1na2vs0mg"},{"bike_id":"580a010c-6185-4463-8b6f-00cfce1f73e6","system_id":"levelo_inurba_marseille","lat":43.29294,"lon":5.37445,"is_reserved":false,"is_disabled":false,"rental_uris":{"android":"levelo://app?vid=580a010c-6185-4463-8b6f-00cfce1f73e6","ios":"levelo://app?vid=580a010c-6185-4463-8b6f-00cfce1f73e6"},"vehicle_type_id":"4","last_reported":1736507273,"current_range_meters":37600,"station_id":"ce4bgi12rcd13ifvqb70","pricing_plan_id":"cebpf4jnsgd1na2vs0mg"},{"bike_id":"7e225827-041a-42b6-bee9-05b9aaf89e59","system_id":"levelo_inurba_marseille","lat":43.32558,"lon":5.4144,"is_reserved":false,"is_disabled":true,"rental_uris":{"android":"levelo://app?vid=7e225827-041a-42b6-bee9-05b9aaf89e59","ios":"levelo://app?vid=7e225827-041a-42b6-bee9-05b9aaf89e59"},"vehicle_type_id":"4","last_reported":1736507273,"current_range_meters":38800,"station_id":"ce4bhq12rcd13ifvqhhg","pricing_plan_id":"cebpf4jnsgd1na2vs0mg"},{"bike_id":"dab217a0-b2df-4ca9-a812-c80195b1fbf4","system_id":"levelo_inurba_marseille","lat":43.31312,"lon":5.36741,"is_reserved":false,"is_disabled":false,"rental_uris":{"android":"levelo://app?vid=dab217a0-b2df-4ca9-a812-c80195b1fbf4","ios":"levelo://app?vid=dab217a0-b2df-4ca9-a812-c80195b1fbf4"},"vehicle_type_id":"4","last_reported":1736507273,"current_range_meters":37600,"station_id":"ce4bgr92rcd13ifvqc6g","pricing_plan_id":"cebpf4jnsgd1na2vs0mg"},{"bike_id":"d4b9ec52-492e-41b6-8dae-be3aec56cf81","system_id":"levelo_inurba_marseille","lat":43.28623,"lon":5.35107,"is_reserved":false,"is_disabled":false,"rental_uris":{"android":"levelo://app?vid=d4b9ec52-492e-41b6-8dae-be3aec56cf81","ios":"levelo://app?vid=d4b9ec52-492e-41b6-8dae-be3aec56cf81"},"vehicle_type_id":"4","last_reported":1736507273,"current_range_meters":10000,"station_id":"ce4bhch2rcd13ifvqeug","pricing_plan_id":"cebpf4jnsgd1na2vs0mg"},{"bike_id":"37d8e1ef-d932-49d7-b893-49542cf44d13","system_id":"levelo_inurba_marseille","lat":43.32345,"lon":5.40629,"is_reserved":false,"is_disabled":true,"rental_uris":{"android":"levelo://app?vid=37d8e1ef-d932-49d7-b893-49542cf44d13","ios":"levelo://app?vid=37d8e1ef-d932-49d7-b893-49542cf44d13"},"vehicle_type_id":"4","last_reported":1736507273,"current_range_meters":0,"station_id":"ce4bhq92rcd13ifvqhjg","pricing_plan_id":"cebpf4jnsgd1na2vs0mg"},{"bike_id":"458c3d58-e6a5-4d1a-8df2-05d9cb3e0072","system_id":"levelo_inurba_marseille","lat":43.25562,"lon":5.38256,"is_reserved":false,"is_disabled":false,"rental_uris":{"android":"levelo://app?vid=458c3d58-e6a5-4d1a-8df2-05d9cb3e0072","ios":"levelo://app?vid=458c3d58-e6a5-4d1a-8df2-05d9cb3e0072"},"vehicle_type_id":"4","last_reported":1736507273,"current_range_meters":17200,"station_id":"ce4bhih2rcd13ifvqfs0","pricing_plan_id":"cebpf4jnsgd1na2vs0mg"},{"bike_id":"10f7d31a-ef8d-4e8a-acbf-8aa9a8c72143","system_id":"levelo_inurba_marseille","lat":43.24406,"lon":5.37064,"is_reserved":false,"is_disabled":false,"rental_uris":{"android":"levelo://app?vid=10f7d31a-ef8d-4e8a-acbf-8aa9a8c72143","ios":"levelo://app?vid=10f7d31a-ef8d-4e8a-acbf-8aa9a8c72143"},"vehicle_type_id":"4","last_reported":1736507273,"current_range_meters":24400,"station_id":"ce4bhhh2rcd13ifvqfk0","pricing_plan_id":"cebpf4jnsgd1na2vs0mg"},{"bike_id":"7141829f-44e3-4a22-99fa-1744dc6416f3","system_id":"levelo_inurba_marseille","lat":43.29186,"lon":5.39316,"is_reserved":false,"is_disabled":false,"rental_uris":{"android":"levelo://app?vid=7141829f-44e3-4a22-99fa-1744dc6416f3","ios":"levelo://app?vid=7141829f-44e3-4a22-99fa-1744dc6416f3"},"vehicle_type_id":"4","last_reported":1736507273,"current_range_meters":39200,"station_id":"ce4bh192rcd13ifvqdd0","pricing_plan_id":"cebpf4jnsgd1na2vs0mg"},{"bike_id":"7abe7f69-ea4a-4674-acfe-457b55378656","system_id":"levelo_inurba_marseille","lat":43.28468,"lon":5.38404,"is_reserved":false,"is_disabled":false,"rental_uris":{"android":"levelo://app?vid=7abe7f69-ea4a-4674-acfe-457b55378656","ios":"levelo://app?vid=7abe7f69-ea4a-4674-acfe-457b55378656"},"vehicle_type_id":"4","last_reported":1736507273,"current_range_meters":21600,"station_id":"ce4bh512rcd13ifvqe3g","pricing_plan_id":"cebpf4jnsgd1na2vs0mg"},{"bike_id":"a2b8733f-18d3-4c7f-a699-4ad1eee082fe","system_id":"levelo_inurba_marseille","lat":43.31721,"lon":5.42412,"is_reserved":false,"is_disabled":false,"rental_uris":{"android":"levelo://app?vid=a2b8733f-18d3-4c7f-a699-4ad1eee082fe","ios":"levelo://app?vid=a2b8733f-18d3-4c7f-a699-4ad1eee082fe"},"vehicle_type_id":"4","last_reported":1736507273,"current_range_meters":38800,"station_id":"ce4bhp92rcd13ifvqhbg","pricing_plan_id":"cebpf4jnsgd1na2vs0mg"},{"bike_id":"5dec9a86-4547-4207-8ebf-1361e0e301a5","system_id":"levelo_inurba_marseille","lat":43.27487,"lon":5.42463,"is_reserved":false,"is_disabled":false,"rental_uris":{"android":"levelo://app?vid=5dec9a86-4547-4207-8ebf-1361e0e301a5","ios":"levelo://app?vid=5dec9a86-4547-4207-8ebf-1361e0e301a5"},"vehicle_type_id":"4","last_reported":1736507273,"current_range_meters":8400,"station_id":"ce4bhn92rcd13ifvqgrg","pricing_plan_id":"cebpf4jnsgd1na2vs0mg"},{"bike_id":"4a372c6f-2401-445c-8d80-5d4d4bd4dbfc","system_id":"levelo_inurba_marseille","lat":43.293115,"lon":5.37465,"is_reserved":false,"is_disabled":false,"rental_uris":{"android":"levelo://app?vid=4a372c6f-2401-445c-8d80-5d4d4bd4dbfc","ios":"levelo://app?vid=4a372c6f-2401-445c-8d80-5d4d4bd4dbfc"},"vehicle_type_id":"4","last_reported":1736507273,"current_range_meters":25600,"station_id":"ce4bgi12rcd13ifvqb70","pricing_plan_id":"cebpf4jnsgd1na2vs0mg"},{"bike_id":"972bb94f-4946-45b8-9f8f-d0eaa257ba59","system_id":"levelo_inurba_marseille","lat":43.30313,"lon":5.36934,"is_reserved":false,"is_disabled":false,"rental_uris":{"android":"levelo://app?vid=972bb94f-4946-45b8-9f8f-d0eaa257ba59","ios":"levelo://app?vid=972bb94f-4946-45b8-9f8f-d0eaa257ba59"},"vehicle_type_id":"4","last_reported":1736507273,"current_range_meters":39200,"station_id":"ce4bgqh2rcd13ifvqc5g","pricing_plan_id":"cebpf4jnsgd1na2vs0mg"},{"bike_id":"c150f8af-fc8f-4eb5-ac98-0b06dadf4ce0","system_id":"levelo_inurba_marseille","lat":43.25574,"lon":5.38252,"is_reserved":false,"is_disabled":false,"rental_uris":{"android":"levelo://app?vid=c150f8af-fc8f-4eb5-ac98-0b06dadf4ce0","ios":"levelo://app?vid=c150f8af-fc8f-4eb5-ac98-0b06dadf4ce0"},"vehicle_type_id":"4","last_reported":1736507273,"current_range_meters":34000,"station_id":"ce4bhih2rcd13ifvqfs0","pricing_plan_id":"cebpf4jnsgd1na2vs0mg"},{"bike_id":"ff45e7b0-f7ac-4438-a41c-45b74df8aef7","system_id":"levelo_inurba_marseille","lat":43.2886,"lon":5.39324,"is_reserved":false,"is_disabled":false,"rental_uris":{"android":"levelo://app?vid=ff45e7b0-f7ac-4438-a41c-45b74df8aef7","ios":"levelo://app?vid=ff45e7b0-f7ac-4438-a41c-45b74df8aef7"},"vehicle_type_id":"4","last_reported":1736507273,"current_range_meters":22800,"station_id":"ce4bh2p2rcd13ifvqdi0","pricing_plan_id":"cebpf4jnsgd1na2vs0mg"},{"bike_id":"80e6d864-209b-44fb-bebb-aeae347160a6","system_id":"levelo_inurba_marseille","lat":43.2409,"lon":5.37747,"is_reserved":false,"is_disabled":false,"rental_uris":{"android":"levelo://app?vid=80e6d864-209b-44fb-bebb-aeae347160a6","ios":"levelo://app?vid=80e6d864-209b-44fb-bebb-aeae347160a6"},"vehicle_type_id":"4","last_reported":1736507273,"current_range_meters":24000,"station_id":"ce4bhnp2rcd13ifvqgvg","pricing_plan_id":"cebpf4jnsgd1na2vs0mg"},{"bike_id":"4b9646ad-a99a-4502-a04f-6d61b7c184b4","system_id":"levelo_inurba_marseille","lat":43.29199,"lon":5.39319,"is_reserved":false,"is_disabled":false,"rental_uris":{"android":"levelo://app?vid=4b9646ad-a99a-4502-a04f-6d61b7c184b4","ios":"levelo://app?vid=4b9646ad-a99a-4502-a04f-6d61b7c184b4"},"vehicle_type_id":"4","last_reported":1736507273,"current_range_meters":25200,"station_id":"ce4bh192rcd13ifvqdd0","pricing_plan_id":"cebpf4jnsgd1na2vs0mg"},{"bike_id":"60ce1b70-e47d-4caf-abee-52e7d5bfe299","system_id":"levelo_inurba_marseille","lat":43.24652,"lon":5.38893,"is_reserved":false,"is_disabled":false,"rental_uris":{"android":"levelo://app?vid=60ce1b70-e47d-4caf-abee-52e7d5bfe299","ios":"levelo://app?vid=60ce1b70-e47d-4caf-abee-52e7d5bfe299"},"vehicle_type_id":"4","last_reported":1736507273,"current_range_meters":35200,"station_id":"ce4bhg12rcd13ifvqf60","pricing_plan_id":"cebpf4jnsgd1na2vs0mg"},{"bike_id":"372cb971-d9de-46ec-bc7c-25ae9d743356","system_id":"levelo_inurba_marseille","lat":43.24088,"lon":5.37749,"is_reserved":false,"is_disabled":false,"rental_uris":{"android":"levelo://app?vid=372cb971-d9de-46ec-bc7c-25ae9d743356","ios":"levelo://app?vid=372cb971-d9de-46ec-bc7c-25ae9d743356"},"vehicle_type_id":"4","last_reported":1736507273,"current_range_meters":38000,"station_id":"ce4bhnp2rcd13ifvqgvg","pricing_plan_id":"cebpf4jnsgd1na2vs0mg"},{"bike_id":"408554f9-e938-4c8d-b712-51774be7b111","system_id":"levelo_inurba_marseille","lat":43.30555,"lon":5.36547,"is_reserved":false,"is_disabled":false,"rental_uris":{"android":"levelo://app?vid=408554f9-e938-4c8d-b712-51774be7b111","ios":"levelo://app?vid=408554f9-e938-4c8d-b712-51774be7b111"},"vehicle_type_id":"4","last_reported":1736507273,"current_range_meters":38800,"station_id":"ce4bgs12rcd13ifvqcag","pricing_plan_id":"cebpf4jnsgd1na2vs0mg"},{"bike_id":"f1b033b6-af92-4955-9050-9071573a5c44","system_id":"levelo_inurba_marseille","lat":43.2962,"lon":5.3774,"is_reserved":false,"is_disabled":false,"rental_uris":{"android":"levelo://app?vid=f1b033b6-af92-4955-9050-9071573a5c44","ios":"levelo://app?vid=f1b033b6-af92-4955-9050-9071573a5c44"},"vehicle_type_id":"4","last_reported":1736507273,"current_range_meters":33200,"station_id":"ce4bgi92rcd13ifvqb90","pricing_plan_id":"cebpf4jnsgd1na2vs0mg"},{"bike_id":"30f3e0bf-8ba1-45c2-857b-0d14640ed8e5","system_id":"levelo_inurba_marseille","lat":43.29445,"lon":5.38641,"is_reserved":false,"is_disabled":false,"rental_uris":{"android":"levelo://app?vid=30f3e0bf-8ba1-45c2-857b-0d14640ed8e5","ios":"levelo://app?vid=30f3e0bf-8ba1-45c2-857b-0d14640ed8e5"},"vehicle_type_id":"4","last_reported":1736507273,"current_range_meters":38800,"station_id":"ce4bh2h2rcd13ifvqdh0","pricing_plan_id":"cebpf4jnsgd1na2vs0mg"},{"bike_id":"08caf81c-b258-48c3-aadb-0e8164fd6904","system_id":"levelo_inurba_marseille","lat":43.29098,"lon":5.38133,"is_reserved":false,"is_disabled":false,"rental_uris":{"android":"levelo://app?vid=08caf81c-b258-48c3-aadb-0e8164fd6904","ios":"levelo://app?vid=08caf81c-b258-48c3-aadb-0e8164fd6904"},"vehicle_type_id":"4","last_reported":1736507273,"current_range_meters":31200,"station_id":"ce4bh512rcd13ifvqe2g","pricing_plan_id":"cebpf4jnsgd1na2vs0mg"},{"bike_id":"48998462-e2fe-4046-8dbf-a3db091ad704","system_id":"levelo_inurba_marseille","lat":43.25578,"lon":5.38255,"is_reserved":false,"is_disabled":true,"rental_uris":{"android":"levelo://app?vid=48998462-e2fe-4046-8dbf-a3db091ad704","ios":"levelo://app?vid=48998462-e2fe-4046-8dbf-a3db091ad704"},"vehicle_type_id":"4","last_reported":1736507273,"current_range_meters":24000,"station_id":"ce4bhih2rcd13ifvqfs0","pricing_plan_id":"cebpf4jnsgd1na2vs0mg"},{"bike_id":"cad4a6a5-5208-47dd-a17d-ca38efa63f22","system_id":"levelo_inurba_marseille","lat":43.31074,"lon":5.38343,"is_reserved":false,"is_disabled":true,"rental_uris":{"android":"levelo://app?vid=cad4a6a5-5208-47dd-a17d-ca38efa63f22","ios":"levelo://app?vid=cad4a6a5-5208-47dd-a17d-ca38efa63f22"},"vehicle_type_id":"4","last_reported":1736507273,"current_range_meters":26000,"station_id":"ce4bgv92rcd13ifvqcr0","pricing_plan_id":"cebpf4jnsgd1na2vs0mg"},{"bike_id":"59680959-993e-49d5-827b-d5b17bfefc71","system_id":"levelo_inurba_marseille","lat":43.27832,"lon":5.39216,"is_reserved":false,"is_disabled":true,"rental_uris":{"android":"levelo://app?vid=59680959-993e-49d5-827b-d5b17bfefc71","ios":"levelo://app?vid=59680959-993e-49d5-827b-d5b17bfefc71"},"vehicle_type_id":"4","last_reported":1736507273,"current_range_meters":0,"station_id":"ce4bhjp2rcd13ifvqga0","pricing_plan_id":"cebpf4jnsgd1na2vs0mg"},{"bike_id":"70b3322a-4c73-46bc-a4dc-dda5617a46c1","system_id":"levelo_inurba_marseille","lat":43.28149,"lon":5.42651,"is_reserved":false,"is_disabled":false,"rental_uris":{"android":"levelo://app?vid=70b3322a-4c73-46bc-a4dc-dda5617a46c1","ios":"levelo://app?vid=70b3322a-4c73-46bc-a4dc-dda5617a46c1"},"vehicle_type_id":"4","last_reported":1736507273,"current_range_meters":38800,"station_id":"ce4bhnh2rcd13ifvqgug","pricing_plan_id":"cebpf4jnsgd1na2vs0mg"},{"bike_id":"04c144bb-885d-4367-8bc8-e2ccfca26ca3","system_id":"levelo_inurba_marseille","lat":43.31328,"lon":5.39713,"is_reserved":false,"is_disabled":true,"rental_uris":{"android":"levelo://app?vid=04c144bb-885d-4367-8bc8-e2ccfca26ca3","ios":"levelo://app?vid=04c144bb-885d-4367-8bc8-e2ccfca26ca3"},"vehicle_type_id":"4","last_reported":1736507273,"current_range_meters":26000,"station_id":"ce4bgvp2rcd13ifvqcu0","pricing_plan_id":"cebpf4jnsgd1na2vs0mg"},{"bike_id":"fc1057d4-90a1-4917-8219-50abd6b84da3","system_id":"levelo_inurba_marseille","lat":43.32139,"lon":5.36752,"is_reserved":false,"is_disabled":false,"rental_uris":{"android":"levelo://app?vid=fc1057d4-90a1-4917-8219-50abd6b84da3","ios":"levelo://app?vid=fc1057d4-90a1-4917-8219-50abd6b84da3"},"vehicle_type_id":"4","last_reported":1736507273,"current_range_meters":23200,"station_id":"ce4bhrh2rcd13ifvqhug","pricing_plan_id":"cebpf4jnsgd1na2vs0mg"},{"bike_id":"7134c9bc-ce0f-4887-95b7-d5756f86bc8e","system_id":"levelo_inurba_marseille","lat":43.28358,"lon":5.38105,"is_reserved":false,"is_disabled":true,"rental_uris":{"android":"levelo://app?vid=7134c9bc-ce0f-4887-95b7-d5756f86bc8e","ios":"levelo://app?vid=7134c9bc-ce0f-4887-95b7-d5756f86bc8e"},"vehicle_type_id":"4","last_reported":1736507273,"current_range_meters":38800,"station_id":"ce4bh412rcd13ifvqdr0","pricing_plan_id":"cebpf4jnsgd1na2vs0mg"},{"bike_id":"aa637afa-5dab-4e4f-a5b1-a846e41a59b6","system_id":"levelo_inurba_marseille","lat":43.24082,"lon":5.37753,"is_reserved":false,"is_disabled":false,"rental_uris":{"android":"levelo://app?vid=aa637afa-5dab-4e4f-a5b1-a846e41a59b6","ios":"levelo://app?vid=aa637afa-5dab-4e4f-a5b1-a846e41a59b6"},"vehicle_type_id":"4","last_reported":1736507273,"current_range_meters":38800,"station_id":"ce4bhnp2rcd13ifvqgvg","pricing_plan_id":"cebpf4jnsgd1na2vs0mg"},{"bike_id":"f32869fb-daed-4ea3-baaa-65b4aa7d261e","system_id":"levelo_inurba_marseille","lat":43.3123,"lon":5.36866,"is_reserved":false,"is_disabled":false,"rental_uris":{"android":"levelo://app?vid=f32869fb-daed-4ea3-baaa-65b4aa7d261e","ios":"levelo://app?vid=f32869fb-daed-4ea3-baaa-65b4aa7d261e"},"vehicle_type_id":"4","last_reported":1736507273,"current_range_meters":30000,"station_id":"ce4bgl92rcd13ifvqbq0","pricing_plan_id":"cebpf4jnsgd1na2vs0mg"},{"bike_id":"7475f743-fa68-4b23-ab37-60e01b01184f","system_id":"levelo_inurba_marseille","lat":43.32099,"lon":5.36792,"is_reserved":false,"is_disabled":false,"rental_uris":{"android":"levelo://app?vid=7475f743-fa68-4b23-ab37-60e01b01184f","ios":"levelo://app?vid=7475f743-fa68-4b23-ab37-60e01b01184f"},"vehicle_type_id":"4","last_reported":1736507273,"current_range_meters":32400,"station_id":"ce4bhrh2rcd13ifvqhug","pricing_plan_id":"cebpf4jnsgd1na2vs0mg"},{"bike_id":"6d09cd7e-f3f4-4ac3-9d96-1d208f846ec1","system_id":"levelo_inurba_marseille","lat":43.2884,"lon":5.39302,"is_reserved":false,"is_disabled":false,"rental_uris":{"android":"levelo://app?vid=6d09cd7e-f3f4-4ac3-9d96-1d208f846ec1","ios":"levelo://app?vid=6d09cd7e-f3f4-4ac3-9d96-1d208f846ec1"},"vehicle_type_id":"4","last_reported":1736507273,"current_range_meters":38000,"station_id":"ce4bh2p2rcd13ifvqdi0","pricing_plan_id":"cebpf4jnsgd1na2vs0mg"},{"bike_id":"3925390d-80a6-472f-bd92-3d81e10a11de","system_id":"levelo_inurba_marseille","lat":43.293,"lon":5.3746,"is_reserved":false,"is_disabled":false,"rental_uris":{"android":"levelo://app?vid=3925390d-80a6-472f-bd92-3d81e10a11de","ios":"levelo://app?vid=3925390d-80a6-472f-bd92-3d81e10a11de"},"vehicle_type_id":"4","last_reported":1736507273,"current_range_meters":20400,"station_id":"ce4bgi12rcd13ifvqb70","pricing_plan_id":"cebpf4jnsgd1na2vs0mg"},{"bike_id":"4e415297-1651-4007-b5da-4923f3ed2b98","system_id":"levelo_inurba_marseille","lat":43.30163,"lon":5.38081,"is_reserved":false,"is_disabled":false,"rental_uris":{"android":"levelo://app?vid=4e415297-1651-4007-b5da-4923f3ed2b98","ios":"levelo://app?vid=4e415297-1651-4007-b5da-4923f3ed2b98"},"vehicle_type_id":"4","last_reported":1736507273,"current_range_meters":25600,"station_id":"ce4bgjp2rcd13ifvqbh0","pricing_plan_id":"cebpf4jnsgd1na2vs0mg"},{"bike_id":"3d97d3e0-d45c-47c2-9a56-3b2182dc5b15","system_id":"levelo_inurba_marseille","lat":43.2794,"lon":5.38727,"is_reserved":false,"is_disabled":true,"rental_uris":{"android":"levelo://app?vid=3d97d3e0-d45c-47c2-9a56-3b2182dc5b15","ios":"levelo://app?vid=3d97d3e0-d45c-47c2-9a56-3b2182dc5b15"},"vehicle_type_id":"4","last_reported":1736507273,"current_range_meters":0,"station_id":"ce4bhg12rcd13ifvqf80","pricing_plan_id":"cebpf4jnsgd1na2vs0mg"},{"bike_id":"9f953a4c-73cc-41f8-9c4c-79873217d4ce","system_id":"levelo_inurba_marseille","lat":43.2901,"lon":5.38134,"is_reserved":false,"is_disabled":false,"rental_uris":{"android":"levelo://app?vid=9f953a4c-73cc-41f8-9c4c-79873217d4ce","ios":"levelo://app?vid=9f953a4c-73cc-41f8-9c4c-79873217d4ce"},"vehicle_type_id":"4","last_reported":1736507273,"current_range_meters":14400,"station_id":"ce4bh4p2rcd13ifvqe1g","pricing_plan_id":"cebpf4jnsgd1na2vs0mg"},{"bike_id":"2eb264c8-1e8d-4f17-a831-3cda07857865","system_id":"levelo_inurba_marseille","lat":43.321124,"lon":5.367739,"is_reserved":false,"is_disabled":false,"rental_uris":{"android":"levelo://app?vid=2eb264c8-1e8d-4f17-a831-3cda07857865","ios":"levelo://app?vid=2eb264c8-1e8d-4f17-a831-3cda07857865"},"vehicle_type_id":"4","last_reported":1736507273,"current_range_meters":35200,"station_id":"ce4bhrh2rcd13ifvqhug","pricing_plan_id":"cebpf4jnsgd1na2vs0mg"},{"bike_id":"6c73134e-c658-49a4-bbd7-9746d8c3ffeb","system_id":"levelo_inurba_marseille","lat":43.27165,"lon":5.40995,"is_reserved":false,"is_disabled":false,"rental_uris":{"android":"levelo://app?vid=6c73134e-c658-49a4-bbd7-9746d8c3ffeb","ios":"levelo://app?vid=6c73134e-c658-49a4-bbd7-9746d8c3ffeb"},"vehicle_type_id":"4","last_reported":1736507273,"current_range_meters":37600,"station_id":"ce4bhl12rcd13ifvqgf0","pricing_plan_id":"cebpf4jnsgd1na2vs0mg"},{"bike_id":"1ab93b1f-5a42-46d7-882b-f1dbd883513c","system_id":"levelo_inurba_marseille","lat":43.27208,"lon":5.3917,"is_reserved":false,"is_disabled":false,"rental_uris":{"android":"levelo://app?vid=1ab93b1f-5a42-46d7-882b-f1dbd883513c","ios":"levelo://app?vid=1ab93b1f-5a42-46d7-882b-f1dbd883513c"},"vehicle_type_id":"4","last_reported":1736507273,"current_range_meters":38800,"station_id":"ce4bhhp2rcd13ifvqfm0","pricing_plan_id":"cebpf4jnsgd1na2vs0mg"},{"bike_id":"1e2223a2-c032-49e7-8dbf-982df86a0520","system_id":"levelo_inurba_marseille","lat":43.229115,"lon":5.353786,"is_reserved":false,"is_disabled":false,"rental_uris":{"android":"levelo://app?vid=1e2223a2-c032-49e7-8dbf-982df86a0520","ios":"levelo://app?vid=1e2223a2-c032-49e7-8dbf-982df86a0520"},"vehicle_type_id":"4","last_reported":1736507273,"current_range_meters":32400,"station_id":"cpo3532slgdg3j2ikp40","pricing_plan_id":"cebpf4jnsgd1na2vs0mg"},{"bike_id":"145cfbb0-a64d-4e6e-9f48-a8948b305dc3","system_id":"levelo_inurba_marseille","lat":43.30556,"lon":5.36527,"is_reserved":false,"is_disabled":false,"rental_uris":{"android":"levelo://app?vid=145cfbb0-a64d-4e6e-9f48-a8948b305dc3","ios":"levelo://app?vid=145cfbb0-a64d-4e6e-9f48-a8948b305dc3"},"vehicle_type_id":"4","last_reported":1736507273,"current_range_meters":30400,"station_id":"ce4bgs12rcd13ifvqcag","pricing_plan_id":"cebpf4jnsgd1na2vs0mg"},{"bike_id":"3a9d12a8-ecee-4d38-be79-c77cc7dbf077","system_id":"levelo_inurba_marseille","lat":43.25566,"lon":5.38251,"is_reserved":false,"is_disabled":false,"rental_uris":{"android":"levelo://app?vid=3a9d12a8-ecee-4d38-be79-c77cc7dbf077","ios":"levelo://app?vid=3a9d12a8-ecee-4d38-be79-c77cc7dbf077"},"vehicle_type_id":"4","last_reported":1736507273,"current_range_meters":37600,"station_id":"ce4bhih2rcd13ifvqfs0","pricing_plan_id":"cebpf4jnsgd1na2vs0mg"},{"bike_id":"be8a233f-ad85-41b2-af03-bfa1e3033438","system_id":"levelo_inurba_marseille","lat":43.23199,"lon":5.35555,"is_reserved":false,"is_disabled":false,"rental_uris":{"android":"levelo://app?vid=be8a233f-ad85-41b2-af03-bfa1e3033438","ios":"levelo://app?vid=be8a233f-ad85-41b2-af03-bfa1e3033438"},"vehicle_type_id":"4","last_reported":1736507273,"current_range_meters":24800,"station_id":"ce4bhu92rcd13ifvqi70","pricing_plan_id":"cebpf4jnsgd1na2vs0mg"},{"bike_id":"4443be62-bb8d-495a-9616-cb98b6d1534b","system_id":"levelo_inurba_marseille","lat":43.30144,"lon":5.38091,"is_reserved":false,"is_disabled":false,"rental_uris":{"android":"levelo://app?vid=4443be62-bb8d-495a-9616-cb98b6d1534b","ios":"levelo://app?vid=4443be62-bb8d-495a-9616-cb98b6d1534b"},"vehicle_type_id":"4","last_reported":1736507273,"current_range_meters":16400,"station_id":"ce4bgjp2rcd13ifvqbh0","pricing_plan_id":"cebpf4jnsgd1na2vs0mg"},{"bike_id":"093d9ce3-4d12-4d1d-bdcc-8d78ef369464","system_id":"levelo_inurba_marseille","lat":43.29253,"lon":5.40905,"is_reserved":false,"is_disabled":false,"rental_uris":{"android":"levelo://app?vid=093d9ce3-4d12-4d1d-bdcc-8d78ef369464","ios":"levelo://app?vid=093d9ce3-4d12-4d1d-bdcc-8d78ef369464"},"vehicle_type_id":"4","last_reported":1736507273,"current_range_meters":17200,"station_id":"ce4bh192rcd13ifvqdc0","pricing_plan_id":"cebpf4jnsgd1na2vs0mg"},{"bike_id":"306c08d5-05a9-4895-9292-f7ba2fb51159","system_id":"levelo_inurba_marseille","lat":43.30573,"lon":5.38424,"is_reserved":false,"is_disabled":false,"rental_uris":{"android":"levelo://app?vid=306c08d5-05a9-4895-9292-f7ba2fb51159","ios":"levelo://app?vid=306c08d5-05a9-4895-9292-f7ba2fb51159"},"vehicle_type_id":"4","last_reported":1736507273,"current_range_meters":38000,"station_id":"ce4bgg92rcd13ifvqb30","pricing_plan_id":"cebpf4jnsgd1na2vs0mg"},{"bike_id":"a67ae84a-0c24-431f-a673-452f4927377e","system_id":"levelo_inurba_marseille","lat":43.24173,"lon":5.39741,"is_reserved":false,"is_disabled":false,"rental_uris":{"android":"levelo://app?vid=a67ae84a-0c24-431f-a673-452f4927377e","ios":"levelo://app?vid=a67ae84a-0c24-431f-a673-452f4927377e"},"vehicle_type_id":"4","last_reported":1736507273,"current_range_meters":34800,"station_id":"ce4bhn12rcd13ifvqgpg","pricing_plan_id":"cebpf4jnsgd1na2vs0mg"},{"bike_id":"5d3bf06a-a6f7-4641-af93-d780e27467b6","system_id":"levelo_inurba_marseille","lat":43.30807,"lon":5.38177,"is_reserved":false,"is_disabled":true,"rental_uris":{"android":"levelo://app?vid=5d3bf06a-a6f7-4641-af93-d780e27467b6","ios":"levelo://app?vid=5d3bf06a-a6f7-4641-af93-d780e27467b6"},"vehicle_type_id":"4","last_reported":1736507273,"current_range_meters":32000,"station_id":"ce4bgt12rcd13ifvqce0","pricing_plan_id":"cebpf4jnsgd1na2vs0mg"},{"bike_id":"7c6b4ab8-094c-4fb3-b826-f64ede01dc18","system_id":"levelo_inurba_marseille","lat":43.29312,"lon":5.37179,"is_reserved":false,"is_disabled":false,"rental_uris":{"android":"levelo://app?vid=7c6b4ab8-094c-4fb3-b826-f64ede01dc18","ios":"levelo://app?vid=7c6b4ab8-094c-4fb3-b826-f64ede01dc18"},"vehicle_type_id":"4","last_reported":1736507273,"current_range_meters":30400,"station_id":"ce4bgh92rcd13ifvqb40","pricing_plan_id":"cebpf4jnsgd1na2vs0mg"},{"bike_id":"d12dfc13-6be7-4c83-8f24-c4bc7182f2d5","system_id":"levelo_inurba_marseille","lat":43.24056,"lon":5.37785,"is_reserved":false,"is_disabled":false,"rental_uris":{"android":"levelo://app?vid=d12dfc13-6be7-4c83-8f24-c4bc7182f2d5","ios":"levelo://app?vid=d12dfc13-6be7-4c83-8f24-c4bc7182f2d5"},"vehicle_type_id":"4","last_reported":1736507273,"current_range_meters":17200,"station_id":"ce4bhnp2rcd13ifvqgvg","pricing_plan_id":"cebpf4jnsgd1na2vs0mg"},{"bike_id":"7863d40f-5fee-4d3d-ba6f-99d8c77e1e5e","system_id":"levelo_inurba_marseille","lat":43.27476,"lon":5.42509,"is_reserved":false,"is_disabled":false,"rental_uris":{"android":"levelo://app?vid=7863d40f-5fee-4d3d-ba6f-99d8c77e1e5e","ios":"levelo://app?vid=7863d40f-5fee-4d3d-ba6f-99d8c77e1e5e"},"vehicle_type_id":"4","last_reported":1736507273,"current_range_meters":16000,"station_id":"","pricing_plan_id":"cebpf4jnsgd1na2vs0mg"},{"bike_id":"0751221b-37bf-4486-a78f-e3467767c553","system_id":"levelo_inurba_marseille","lat":43.25578,"lon":5.38261,"is_reserved":false,"is_disabled":false,"rental_uris":{"android":"levelo://app?vid=0751221b-37bf-4486-a78f-e3467767c553","ios":"levelo://app?vid=0751221b-37bf-4486-a78f-e3467767c553"},"vehicle_type_id":"4","last_reported":1736507273,"current_range_meters":33600,"station_id":"ce4bhih2rcd13ifvqfs0","pricing_plan_id":"cebpf4jnsgd1na2vs0mg"},{"bike_id":"4b27d136-6e3d-46a2-a7d8-48d967d674ba","system_id":"levelo_inurba_marseille","lat":43.30548,"lon":5.36559,"is_reserved":false,"is_disabled":false,"rental_uris":{"android":"levelo://app?vid=4b27d136-6e3d-46a2-a7d8-48d967d674ba","ios":"levelo://app?vid=4b27d136-6e3d-46a2-a7d8-48d967d674ba"},"vehicle_type_id":"4","last_reported":1736507273,"current_range_meters":27200,"station_id":"ce4bgs12rcd13ifvqcag","pricing_plan_id":"cebpf4jnsgd1na2vs0mg"},{"bike_id":"ce2cca2d-f10c-4078-a6c6-e3331fe38940","system_id":"levelo_inurba_marseille","lat":43.30124,"lon":5.38788,"is_reserved":false,"is_disabled":true,"rental_uris":{"android":"levelo://app?vid=ce2cca2d-f10c-4078-a6c6-e3331fe38940","ios":"levelo://app?vid=ce2cca2d-f10c-4078-a6c6-e3331fe38940"},"vehicle_type_id":"4","last_reported":1736507273,"current_range_meters":38000,"station_id":"ce4bghh2rcd13ifvqb60","pricing_plan_id":"cebpf4jnsgd1na2vs0mg"},{"bike_id":"f3475986-5a3d-411a-95eb-ebab577a40c0","system_id":"levelo_inurba_marseille","lat":43.275702,"lon":5.384303,"is_reserved":false,"is_disabled":false,"rental_uris":{"android":"levelo://app?vid=f3475986-5a3d-411a-95eb-ebab577a40c0","ios":"levelo://app?vid=f3475986-5a3d-411a-95eb-ebab577a40c0"},"vehicle_type_id":"4","last_reported":1736507273,"current_range_meters":33600,"station_id":"ce4bhh92rcd13ifvqfi0","pricing_plan_id":"cebpf4jnsgd1na2vs0mg"},{"bike_id":"fc9288ed-9da0-4c7f-9aba-d64070cdbf51","system_id":"levelo_inurba_marseille","lat":43.23162,"lon":5.43714,"is_reserved":false,"is_disabled":false,"rental_uris":{"android":"levelo://app?vid=fc9288ed-9da0-4c7f-9aba-d64070cdbf51","ios":"levelo://app?vid=fc9288ed-9da0-4c7f-9aba-d64070cdbf51"},"vehicle_type_id":"4","last_reported":1736507273,"current_range_meters":38000,"station_id":"ce4bhmp2rcd13ifvqgog","pricing_plan_id":"cebpf4jnsgd1na2vs0mg"},{"bike_id":"ad28bd53-1c8c-44ea-9a1c-1e5a5b2498fe","system_id":"levelo_inurba_marseille","lat":43.2415,"lon":5.36438,"is_reserved":false,"is_disabled":false,"rental_uris":{"android":"levelo://app?vid=ad28bd53-1c8c-44ea-9a1c-1e5a5b2498fe","ios":"levelo://app?vid=ad28bd53-1c8c-44ea-9a1c-1e5a5b2498fe"},"vehicle_type_id":"4","last_reported":1736507273,"current_range_meters":10000,"station_id":"cpo36qri1sfpv3e86is0","pricing_plan_id":"cebpf4jnsgd1na2vs0mg"},{"bike_id":"7cc080c1-6d2e-4866-b115-dfa2031f2dba","system_id":"levelo_inurba_marseille","lat":43.27994,"lon":5.40013,"is_reserved":false,"is_disabled":false,"rental_uris":{"android":"levelo://app?vid=7cc080c1-6d2e-4866-b115-dfa2031f2dba","ios":"levelo://app?vid=7cc080c1-6d2e-4866-b115-dfa2031f2dba"},"vehicle_type_id":"4","last_reported":1736507273,"current_range_meters":31200,"station_id":"ce4bho92rcd13ifvqh4g","pricing_plan_id":"cebpf4jnsgd1na2vs0mg"},{"bike_id":"ed5f8f9c-24db-4495-ba73-b7cea4b154a2","system_id":"levelo_inurba_marseille","lat":43.24068,"lon":5.37743,"is_reserved":false,"is_disabled":false,"rental_uris":{"android":"levelo://app?vid=ed5f8f9c-24db-4495-ba73-b7cea4b154a2","ios":"levelo://app?vid=ed5f8f9c-24db-4495-ba73-b7cea4b154a2"},"vehicle_type_id":"4","last_reported":1736507273,"current_range_meters":38800,"station_id":"ce4bhnp2rcd13ifvqgvg","pricing_plan_id":"cebpf4jnsgd1na2vs0mg"},{"bike_id":"2977f7ec-ec99-4512-b3ae-53609de4f979","system_id":"levelo_inurba_marseille","lat":43.30874,"lon":5.37177,"is_reserved":false,"is_disabled":false,"rental_uris":{"android":"levelo://app?vid=2977f7ec-ec99-4512-b3ae-53609de4f979","ios":"levelo://app?vid=2977f7ec-ec99-4512-b3ae-53609de4f979"},"vehicle_type_id":"4","last_reported":1736507273,"current_range_meters":39200,"station_id":"ce4bguh2rcd13ifvqckg","pricing_plan_id":"cebpf4jnsgd1na2vs0mg"},{"bike_id":"06bc23f9-1449-4ecb-8815-1bd5e784d3da","system_id":"levelo_inurba_marseille","lat":43.30176,"lon":5.38083,"is_reserved":false,"is_disabled":false,"rental_uris":{"android":"levelo://app?vid=06bc23f9-1449-4ecb-8815-1bd5e784d3da","ios":"levelo://app?vid=06bc23f9-1449-4ecb-8815-1bd5e784d3da"},"vehicle_type_id":"4","last_reported":1736507273,"current_range_meters":38800,"station_id":"ce4bgjp2rcd13ifvqbh0","pricing_plan_id":"cebpf4jnsgd1na2vs0mg"},{"bike_id":"e3dc1723-c304-42fb-b1ea-ebc3611aa765","system_id":"levelo_inurba_marseille","lat":43.25936,"lon":5.40874,"is_reserved":false,"is_disabled":false,"rental_uris":{"android":"levelo://app?vid=e3dc1723-c304-42fb-b1ea-ebc3611aa765","ios":"levelo://app?vid=e3dc1723-c304-42fb-b1ea-ebc3611aa765"},"vehicle_type_id":"4","last_reported":1736507273,"current_range_meters":38400,"station_id":"ce4bhm92rcd13ifvqglg","pricing_plan_id":"cebpf4jnsgd1na2vs0mg"},{"bike_id":"90fe7dbe-f1e9-4142-9fe6-fd098be26db8","system_id":"levelo_inurba_marseille","lat":43.28618,"lon":5.35111,"is_reserved":false,"is_disabled":false,"rental_uris":{"android":"levelo://app?vid=90fe7dbe-f1e9-4142-9fe6-fd098be26db8","ios":"levelo://app?vid=90fe7dbe-f1e9-4142-9fe6-fd098be26db8"},"vehicle_type_id":"4","last_reported":1736507273,"current_range_meters":20400,"station_id":"ce4bhch2rcd13ifvqeug","pricing_plan_id":"cebpf4jnsgd1na2vs0mg"},{"bike_id":"1f28d195-0ef1-4542-970b-9cc9d35a34e0","system_id":"levelo_inurba_marseille","lat":43.26681,"lon":5.38271,"is_reserved":false,"is_disabled":false,"rental_uris":{"android":"levelo://app?vid=1f28d195-0ef1-4542-970b-9cc9d35a34e0","ios":"levelo://app?vid=1f28d195-0ef1-4542-970b-9cc9d35a34e0"},"vehicle_type_id":"4","last_reported":1736507273,"current_range_meters":37600,"station_id":"ce4bhg92rcd13ifvqf90","pricing_plan_id":"cebpf4jnsgd1na2vs0mg"},{"bike_id":"b8acbba0-a715-4ced-a2aa-0517db10ac9d","system_id":"levelo_inurba_marseille","lat":43.22928,"lon":5.35407,"is_reserved":false,"is_disabled":false,"rental_uris":{"android":"levelo://app?vid=b8acbba0-a715-4ced-a2aa-0517db10ac9d","ios":"levelo://app?vid=b8acbba0-a715-4ced-a2aa-0517db10ac9d"},"vehicle_type_id":"4","last_reported":1736507273,"current_range_meters":8000,"station_id":"cpo3532slgdg3j2ikp40","pricing_plan_id":"cebpf4jnsgd1na2vs0mg"},{"bike_id":"9f1e5591-0cbd-49ea-af15-a23634f2e4ea","system_id":"levelo_inurba_marseille","lat":43.29788,"lon":5.38123,"is_reserved":false,"is_disabled":false,"rental_uris":{"android":"levelo://app?vid=9f1e5591-0cbd-49ea-af15-a23634f2e4ea","ios":"levelo://app?vid=9f1e5591-0cbd-49ea-af15-a23634f2e4ea"},"vehicle_type_id":"4","last_reported":1736507273,"current_range_meters":32000,"station_id":"ce4bgip2rcd13ifvqbb0","pricing_plan_id":"cebpf4jnsgd1na2vs0mg"},{"bike_id":"5a173ea0-4611-4766-882b-d81deb475ed2","system_id":"levelo_inurba_marseille","lat":43.24034,"lon":5.3776,"is_reserved":false,"is_disabled":false,"rental_uris":{"android":"levelo://app?vid=5a173ea0-4611-4766-882b-d81deb475ed2","ios":"levelo://app?vid=5a173ea0-4611-4766-882b-d81deb475ed2"},"vehicle_type_id":"4","last_reported":1736507273,"current_range_meters":38800,"station_id":"ce4bhnp2rcd13ifvqgvg","pricing_plan_id":"cebpf4jnsgd1na2vs0mg"},{"bike_id":"e97b87a7-cef3-46f7-bcb4-b77ff7e634a9","system_id":"levelo_inurba_marseille","lat":43.28959,"lon":5.37858,"is_reserved":false,"is_disabled":false,"rental_uris":{"android":"levelo://app?vid=e97b87a7-cef3-46f7-bcb4-b77ff7e634a9","ios":"levelo://app?vid=e97b87a7-cef3-46f7-bcb4-b77ff7e634a9"},"vehicle_type_id":"4","last_reported":1736507273,"current_range_meters":38800,"station_id":"ce4bh9p2rcd13ifvqed0","pricing_plan_id":"cebpf4jnsgd1na2vs0mg"},{"bike_id":"62f87a94-556e-4521-8c9a-cb113eefc874","system_id":"levelo_inurba_marseille","lat":43.28921,"lon":5.38399,"is_reserved":false,"is_disabled":true,"rental_uris":{"android":"levelo://app?vid=62f87a94-556e-4521-8c9a-cb113eefc874","ios":"levelo://app?vid=62f87a94-556e-4521-8c9a-cb113eefc874"},"vehicle_type_id":"4","last_reported":1736507273,"current_range_meters":2000,"station_id":"ce4bh612rcd13ifvqe6g","pricing_plan_id":"cebpf4jnsgd1na2vs0mg"},{"bike_id":"ad113f76-a766-497a-90be-d1902352af36","system_id":"levelo_inurba_marseille","lat":43.32098,"lon":5.36799,"is_reserved":false,"is_disabled":false,"rental_uris":{"android":"levelo://app?vid=ad113f76-a766-497a-90be-d1902352af36","ios":"levelo://app?vid=ad113f76-a766-497a-90be-d1902352af36"},"vehicle_type_id":"4","last_reported":1736507273,"current_range_meters":38400,"station_id":"ce4bhrh2rcd13ifvqhug","pricing_plan_id":"cebpf4jnsgd1na2vs0mg"},{"bike_id":"9f45806b-0439-44e8-9147-35b59088d5f3","system_id":"levelo_inurba_marseille","lat":43.24078,"lon":5.36511,"is_reserved":false,"is_disabled":false,"rental_uris":{"android":"levelo://app?vid=9f45806b-0439-44e8-9147-35b59088d5f3","ios":"levelo://app?vid=9f45806b-0439-44e8-9147-35b59088d5f3"},"vehicle_type_id":"4","last_reported":1736507273,"current_range_meters":14400,"station_id":"cpo36qri1sfpv3e86is0","pricing_plan_id":"cebpf4jnsgd1na2vs0mg"},{"bike_id":"296554a1-3d2b-425a-9c24-6483df5ac9bc","system_id":"levelo_inurba_marseille","lat":43.313508,"lon":5.367147,"is_reserved":false,"is_disabled":false,"rental_uris":{"android":"levelo://app?vid=296554a1-3d2b-425a-9c24-6483df5ac9bc","ios":"levelo://app?vid=296554a1-3d2b-425a-9c24-6483df5ac9bc"},"vehicle_type_id":"4","last_reported":1736507273,"current_range_meters":38800,"station_id":"ce4bgr92rcd13ifvqc6g","pricing_plan_id":"cebpf4jnsgd1na2vs0mg"},{"bike_id":"aa6b1eb9-b3bb-4ed6-a1ba-c8ad3aa466ff","system_id":"levelo_inurba_marseille","lat":43.29784,"lon":5.37087,"is_reserved":false,"is_disabled":false,"rental_uris":{"android":"levelo://app?vid=aa6b1eb9-b3bb-4ed6-a1ba-c8ad3aa466ff","ios":"levelo://app?vid=aa6b1eb9-b3bb-4ed6-a1ba-c8ad3aa466ff"},"vehicle_type_id":"4","last_reported":1736507273,"current_range_meters":16800,"station_id":"ce4bgop2rcd13ifvqc1g","pricing_plan_id":"cebpf4jnsgd1na2vs0mg"},{"bike_id":"c2a59147-d880-440f-83e8-2316a93c29de","system_id":"levelo_inurba_marseille","lat":43.2998,"lon":5.38495,"is_reserved":false,"is_disabled":false,"rental_uris":{"android":"levelo://app?vid=c2a59147-d880-440f-83e8-2316a93c29de","ios":"levelo://app?vid=c2a59147-d880-440f-83e8-2316a93c29de"},"vehicle_type_id":"4","last_reported":1736507273,"current_range_meters":28800,"station_id":"ce4bgj92rcd13ifvqbd0","pricing_plan_id":"cebpf4jnsgd1na2vs0mg"},{"bike_id":"07ccab10-cdda-4c0b-bba3-cb0e1013117c","system_id":"levelo_inurba_marseille","lat":43.29793,"lon":5.39349,"is_reserved":false,"is_disabled":true,"rental_uris":{"android":"levelo://app?vid=07ccab10-cdda-4c0b-bba3-cb0e1013117c","ios":"levelo://app?vid=07ccab10-cdda-4c0b-bba3-cb0e1013117c"},"vehicle_type_id":"4","last_reported":1736507273,"current_range_meters":6800,"station_id":"chh1huq6cuj3fo74tm60","pricing_plan_id":"cebpf4jnsgd1na2vs0mg"},{"bike_id":"c30c9d00-a0a5-423a-8d57-391517b3c871","system_id":"levelo_inurba_marseille","lat":43.28483,"lon":5.38554,"is_reserved":false,"is_disabled":false,"rental_uris":{"android":"levelo://app?vid=c30c9d00-a0a5-423a-8d57-391517b3c871","ios":"levelo://app?vid=c30c9d00-a0a5-423a-8d57-391517b3c871"},"vehicle_type_id":"4","last_reported":1736507273,"current_range_meters":12000,"station_id":"ce4bh8p2rcd13ifvqeb0","pricing_plan_id":"cebpf4jnsgd1na2vs0mg"},{"bike_id":"9ac16c0a-752a-4ddb-9974-110b746d07b9","system_id":"levelo_inurba_marseille","lat":43.25488,"lon":5.37656,"is_reserved":false,"is_disabled":true,"rental_uris":{"android":"levelo://app?vid=9ac16c0a-752a-4ddb-9974-110b746d07b9","ios":"levelo://app?vid=9ac16c0a-752a-4ddb-9974-110b746d07b9"},"vehicle_type_id":"4","last_reported":1736507273,"current_range_meters":38000,"station_id":"ce4bhh12rcd13ifvqff0","pricing_plan_id":"cebpf4jnsgd1na2vs0mg"},{"bike_id":"b7134f4d-db9b-4988-8d37-8b974d1032be","system_id":"levelo_inurba_marseille","lat":43.26672,"lon":5.38292,"is_reserved":false,"is_disabled":false,"rental_uris":{"android":"levelo://app?vid=b7134f4d-db9b-4988-8d37-8b974d1032be","ios":"levelo://app?vid=b7134f4d-db9b-4988-8d37-8b974d1032be"},"vehicle_type_id":"4","last_reported":1736507273,"current_range_meters":38800,"station_id":"ce4bhg92rcd13ifvqf90","pricing_plan_id":"cebpf4jnsgd1na2vs0mg"},{"bike_id":"528c7a13-c07a-4cf7-9f6f-8eb394589c0c","system_id":"levelo_inurba_marseille","lat":43.26055,"lon":5.39409,"is_reserved":false,"is_disabled":false,"rental_uris":{"android":"levelo://app?vid=528c7a13-c07a-4cf7-9f6f-8eb394589c0c","ios":"levelo://app?vid=528c7a13-c07a-4cf7-9f6f-8eb394589c0c"},"vehicle_type_id":"4","last_reported":1736507273,"current_range_meters":38800,"station_id":"ce4bhh92rcd13ifvqfj0","pricing_plan_id":"cebpf4jnsgd1na2vs0mg"},{"bike_id":"a27a27df-43fe-458b-9678-ced92de2aadb","system_id":"levelo_inurba_marseille","lat":43.30154,"lon":5.38087,"is_reserved":false,"is_disabled":false,"rental_uris":{"android":"levelo://app?vid=a27a27df-43fe-458b-9678-ced92de2aadb","ios":"levelo://app?vid=a27a27df-43fe-458b-9678-ced92de2aadb"},"vehicle_type_id":"4","last_reported":1736507273,"current_range_meters":19600,"station_id":"ce4bgjp2rcd13ifvqbh0","pricing_plan_id":"cebpf4jnsgd1na2vs0mg"},{"bike_id":"943fa472-d36d-4a3a-96c3-1b421652c222","system_id":"levelo_inurba_marseille","lat":43.26184,"lon":5.37926,"is_reserved":false,"is_disabled":false,"rental_uris":{"android":"levelo://app?vid=943fa472-d36d-4a3a-96c3-1b421652c222","ios":"levelo://app?vid=943fa472-d36d-4a3a-96c3-1b421652c222"},"vehicle_type_id":"4","last_reported":1736507273,"current_range_meters":38000,"station_id":"ce4bhjp2rcd13ifvqg90","pricing_plan_id":"cebpf4jnsgd1na2vs0mg"},{"bike_id":"a02335ae-6ecf-4558-a33e-05dce8c3b768","system_id":"levelo_inurba_marseille","lat":43.29553,"lon":5.4229,"is_reserved":false,"is_disabled":false,"rental_uris":{"android":"levelo://app?vid=a02335ae-6ecf-4558-a33e-05dce8c3b768","ios":"levelo://app?vid=a02335ae-6ecf-4558-a33e-05dce8c3b768"},"vehicle_type_id":"4","last_reported":1736507273,"current_range_meters":10000,"station_id":"ce4bhph2rcd13ifvqhdg","pricing_plan_id":"cebpf4jnsgd1na2vs0mg"},{"bike_id":"ed9462d8-d77c-4cc6-be70-a6b4d5aa253b","system_id":"levelo_inurba_marseille","lat":43.2744,"lon":5.39406,"is_reserved":false,"is_disabled":false,"rental_uris":{"android":"levelo://app?vid=ed9462d8-d77c-4cc6-be70-a6b4d5aa253b","ios":"levelo://app?vid=ed9462d8-d77c-4cc6-be70-a6b4d5aa253b"},"vehicle_type_id":"4","last_reported":1736507273,"current_range_meters":34800,"station_id":"ce4bhdp2rcd13ifvqf20","pricing_plan_id":"cebpf4jnsgd1na2vs0mg"},{"bike_id":"f95a3f6e-e375-4dc4-9d6e-2ae8c5602a90","system_id":"levelo_inurba_marseille","lat":43.28614,"lon":5.35127,"is_reserved":false,"is_disabled":false,"rental_uris":{"android":"levelo://app?vid=f95a3f6e-e375-4dc4-9d6e-2ae8c5602a90","ios":"levelo://app?vid=f95a3f6e-e375-4dc4-9d6e-2ae8c5602a90"},"vehicle_type_id":"4","last_reported":1736507273,"current_range_meters":25200,"station_id":"ce4bhch2rcd13ifvqeug","pricing_plan_id":"cebpf4jnsgd1na2vs0mg"},{"bike_id":"b3087262-1d90-47d2-b171-9187fb306b43","system_id":"levelo_inurba_marseille","lat":43.30311,"lon":5.39178,"is_reserved":false,"is_disabled":true,"rental_uris":{"android":"levelo://app?vid=b3087262-1d90-47d2-b171-9187fb306b43","ios":"levelo://app?vid=b3087262-1d90-47d2-b171-9187fb306b43"},"vehicle_type_id":"4","last_reported":1736507273,"current_range_meters":38400,"station_id":"ce4bgkh2rcd13ifvqbk0","pricing_plan_id":"cebpf4jnsgd1na2vs0mg"},{"bike_id":"e3bab8d4-de07-4908-bf68-239acfaf5d47","system_id":"levelo_inurba_marseille","lat":43.31307,"lon":5.37617,"is_reserved":false,"is_disabled":false,"rental_uris":{"android":"levelo://app?vid=e3bab8d4-de07-4908-bf68-239acfaf5d47","ios":"levelo://app?vid=e3bab8d4-de07-4908-bf68-239acfaf5d47"},"vehicle_type_id":"4","last_reported":1736507273,"current_range_meters":26000,"station_id":"ce4bgt92rcd13ifvqcg0","pricing_plan_id":"cebpf4jnsgd1na2vs0mg"},{"bike_id":"10837590-8cff-4e9e-a42f-5348f2c9d3bc","system_id":"levelo_inurba_marseille","lat":43.26868,"lon":5.38928,"is_reserved":false,"is_disabled":true,"rental_uris":{"android":"levelo://app?vid=10837590-8cff-4e9e-a42f-5348f2c9d3bc","ios":"levelo://app?vid=10837590-8cff-4e9e-a42f-5348f2c9d3bc"},"vehicle_type_id":"4","last_reported":1736507273,"current_range_meters":0,"station_id":"","pricing_plan_id":"cebpf4jnsgd1na2vs0mg"},{"bike_id":"2a875bb3-68e7-4cec-a663-5685f035d616","system_id":"levelo_inurba_marseille","lat":43.29834,"lon":5.36274,"is_reserved":false,"is_disabled":false,"rental_uris":{"android":"levelo://app?vid=2a875bb3-68e7-4cec-a663-5685f035d616","ios":"levelo://app?vid=2a875bb3-68e7-4cec-a663-5685f035d616"},"vehicle_type_id":"4","last_reported":1736507273,"current_range_meters":20000,"station_id":"ce4bgpp2rcd13ifvqc3g","pricing_plan_id":"cebpf4jnsgd1na2vs0mg"},{"bike_id":"df6aaea0-4eca-4e3d-b60a-c06495a4d3f3","system_id":"levelo_inurba_marseille","lat":43.23159,"lon":5.43708,"is_reserved":false,"is_disabled":false,"rental_uris":{"android":"levelo://app?vid=df6aaea0-4eca-4e3d-b60a-c06495a4d3f3","ios":"levelo://app?vid=df6aaea0-4eca-4e3d-b60a-c06495a4d3f3"},"vehicle_type_id":"4","last_reported":1736507273,"current_range_meters":28000,"station_id":"ce4bhmp2rcd13ifvqgog","pricing_plan_id":"cebpf4jnsgd1na2vs0mg"},{"bike_id":"1fa5d6c8-6c35-448b-a928-e5af108635bc","system_id":"levelo_inurba_marseille","lat":43.23181,"lon":5.39988,"is_reserved":false,"is_disabled":false,"rental_uris":{"android":"levelo://app?vid=1fa5d6c8-6c35-448b-a928-e5af108635bc","ios":"levelo://app?vid=1fa5d6c8-6c35-448b-a928-e5af108635bc"},"vehicle_type_id":"4","last_reported":1736507273,"current_range_meters":15200,"station_id":"ce4bhn12rcd13ifvqgqg","pricing_plan_id":"cebpf4jnsgd1na2vs0mg"},{"bike_id":"1431c94b-714b-4f9c-ac90-29f70544b5bf","system_id":"levelo_inurba_marseille","lat":43.29913,"lon":5.37469,"is_reserved":false,"is_disabled":false,"rental_uris":{"android":"levelo://app?vid=1431c94b-714b-4f9c-ac90-29f70544b5bf","ios":"levelo://app?vid=1431c94b-714b-4f9c-ac90-29f70544b5bf"},"vehicle_type_id":"4","last_reported":1736507273,"current_range_meters":31200,"station_id":"ce4bgjh2rcd13ifvqbg0","pricing_plan_id":"cebpf4jnsgd1na2vs0mg"},{"bike_id":"e18d664d-e971-4224-824e-d92fbe1ad063","system_id":"levelo_inurba_marseille","lat":43.30144,"lon":5.38091,"is_reserved":false,"is_disabled":false,"rental_uris":{"android":"levelo://app?vid=e18d664d-e971-4224-824e-d92fbe1ad063","ios":"levelo://app?vid=e18d664d-e971-4224-824e-d92fbe1ad063"},"vehicle_type_id":"4","last_reported":1736507273,"current_range_meters":38800,"station_id":"ce4bgjp2rcd13ifvqbh0","pricing_plan_id":"cebpf4jnsgd1na2vs0mg"},{"bike_id":"b2276f87-6263-43da-9c8b-7d754eba6c03","system_id":"levelo_inurba_marseille","lat":43.28266,"lon":5.35065,"is_reserved":false,"is_disabled":false,"rental_uris":{"android":"levelo://app?vid=b2276f87-6263-43da-9c8b-7d754eba6c03","ios":"levelo://app?vid=b2276f87-6263-43da-9c8b-7d754eba6c03"},"vehicle_type_id":"4","last_reported":1736507273,"current_range_meters":27600,"station_id":"ce4bhbp2rcd13ifvqerg","pricing_plan_id":"cebpf4jnsgd1na2vs0mg"},{"bike_id":"63962032-a969-4b71-be70-1083d1fade4e","system_id":"levelo_inurba_marseille","lat":43.240797,"lon":5.377621,"is_reserved":false,"is_disabled":false,"rental_uris":{"android":"levelo://app?vid=63962032-a969-4b71-be70-1083d1fade4e","ios":"levelo://app?vid=63962032-a969-4b71-be70-1083d1fade4e"},"vehicle_type_id":"4","last_reported":1736507273,"current_range_meters":39200,"station_id":"ce4bhnp2rcd13ifvqgvg","pricing_plan_id":"cebpf4jnsgd1na2vs0mg"},{"bike_id":"ca2450e7-5c66-4bdc-b528-943118702b91","system_id":"levelo_inurba_marseille","lat":43.33723,"lon":5.39195,"is_reserved":false,"is_disabled":false,"rental_uris":{"android":"levelo://app?vid=ca2450e7-5c66-4bdc-b528-943118702b91","ios":"levelo://app?vid=ca2450e7-5c66-4bdc-b528-943118702b91"},"vehicle_type_id":"4","last_reported":1736507273,"current_range_meters":38800,"station_id":"ce4bhr92rcd13ifvqhsg","pricing_plan_id":"cebpf4jnsgd1na2vs0mg"},