{"last_updated":1742224241,"ttl":60,"version":"2.2","data":{"bikes":[{"bike_id":"3b92661c-277e-40b4-8a32-9b745ef34294","system_id":"levelo_inurba_marseille","lat":43.29567,"lon":5.37517,"is_reserved":false,"is_disabled":false,"rental_uris":{"android":"levelo://app?vid=3b92661c-277e-40b4-8a32-9b745ef34294","ios":"levelo://app?vid=3b92661c-277e-40b4-8a32-9b745ef34294"},"vehicle_type_id":"4","last_reported":1742224242,"current_range_meters":2800,"station_id":"ce4bgh92rcd13ifvqb50","pricing_plan_id":"cebpf4jnsgd1na2vs0mg"},{"bike_id":"992594b2-1129-40ab-9b5d-fdd5eac5d05f","system_id":"levelo_inurba_marseille","lat":43.31688,"lon":5.3759,"is_reserved":false,"is_disabled":false,"rental_uris":{"android":"levelo://app?vid=992594b2-1129-40ab-9b5d-fdd5eac5d05f","ios":"levelo://app?vid=992594b2-1129-40ab-9b5d-fdd5eac5d05f"},"vehicle_type_id":"4","last_reported":1742224242,"current_range_meters":2800,"station_id":"","pricing_plan_id":"cebpf4jnsgd1na2vs0mg"},{"bike_id":"0bcd053f-45d8-4c11-b865-b5654ec81af3","system_id":"levelo_inurba_marseille","lat":43.30463,"lon":5.37902,"is_reserved":false,"is_disabled":false,"rental_uris":{"android":"levelo://app?vid=0bcd053f-45d8-4c11-b865-b5654ec81af3","ios":"levelo://app?vid=0bcd053f-45d8-4c11-b865-b5654ec81af3"},"vehicle_type_id":"4","last_reported":1742224242,"current_range_meters":2000,"station_id":"ce4bgup2rcd13ifvqcn0","pricing_plan_id":"cebpf4jnsgd1na2vs0mg"},{"bike_id":"d8c4eeb1-7702-42d9-a2cf-4055ac17f159","system_id":"levelo_inurba_marseille","lat":43.27831,"lon":5.39197,"is_reserved":false,"is_disabled":true,"rental_uris":{"android":"levelo://app?vid=d8c4eeb1-7702-42d9-a2cf-4055ac17f159","ios":"levelo://app?vid=d8c4eeb1-7702-42d9-a2cf-4055ac17f159"},"vehicle_type_id":"4","last_reported":1742224242,"current_range_meters":2800,"station_id":"ce4bhjp2rcd13ifvqga0","pricing_plan_id":"cebpf4jnsgd1na2vs0mg"},{"bike_id":"4a0b33e4-54f0-4a2f-a0ca-75d7ed5364ed","system_id":"levelo_inurba_marseille","lat":43.29303,"lon":5.37463,"is_reserved":false,"is_disabled":false,"rental_uris":{"android":"levelo://app?vid=4a0b33e4-54f0-4a2f-a0ca-75d7ed5364ed","ios":"levelo://app?vid=4a0b33e4-54f0-4a2f-a0ca-75d7ed5364ed"},"vehicle_type_id":"4","last_reported":1742224242,"current_range_meters":2800,"station_id":"ce4bgi12rcd13ifvqb70","pricing_plan_id":"cebpf4jnsgd1na2vs0mg"},{"bike_id":"2588dd17-49fa-4378-a5d4-772b19bd8e6a","system_id":"levelo_inurba_marseille","lat":43.23148,"lon":5.43719,"is_reserved":false,"is_disabled":false,"rental_uris":{"android":"levelo://app?vid=2588dd17-49fa-4378-a5d4-772b19bd8e6a","ios":"levelo://app?vid=2588dd17-49fa-4378-a5d4-772b19bd8e6a"},"vehicle_type_id":"4","last_reported":1742224242,"current_range_meters":3200,"station_id":"ce4bhmp2rcd13ifvqgog","pricing_plan_id":"cebpf4jnsgd1na2vs0mg"},{"bike_id":"2982f4bf-2822-40cc-86f6-f89c97b4432c","system_id":"levelo_inurba_marseille","lat":43.26791,"lon":5.39412,"is_reserved":false,"is_disabled":false,"rental_uris":{"android":"levelo://app?vid=2982f4bf-2822-40cc-86f6-f89c97b4432c","ios":"levelo://app?vid=2982f4bf-2822-40cc-86f6-f89c97b4432c"},"vehicle_type_id":"4","last_reported":1742224242,"current_range_meters":3600,"station_id":"ce4bhh12rcd13ifvqfg0","pricing_plan_id":"cebpf4jnsgd1na2vs0mg"},{"bike_id":"58e7e064-7a4f-486f-9a9c-3032c1ac8404","system_id":"levelo_inurba_marseille","lat":43.32482,"lon":5.36561,"is_reserved":false,"is_disabled":false,"rental_uris":{"android":"levelo://app?vid=58e7e064-7a4f-486f-9a9c-3032c1ac8404","ios":"levelo://app?vid=58e7e064-7a4f-486f-9a9c-3032c1ac8404"},"vehicle_type_id":"4","last_reported":1742224242,"current_range_meters":3600,"station_id":"ce4bhs12rcd13ifvqhvg","pricing_plan_id":"cebpf4jnsgd1na2vs0mg"},{"bike_id":"3e0c2884-ba26-46fb-a066-d0e8fc24b9c5","system_id":"levelo_inurba_marseille","lat":43.31075,"lon":5.38348,"is_reserved":false,"is_disabled":false,"rental_uris":{"android":"levelo://app?vid=3e0c2884-ba26-46fb-a066-d0e8fc24b9c5","ios":"levelo://app?vid=3e0c2884-ba26-46fb-a066-d0e8fc24b9c5"},"vehicle_type_id":"4","last_reported":1742224242,"current_range_meters":4000,"station_id":"ce4bgv92rcd13ifvqcr0","pricing_plan_id":"cebpf4jnsgd1na2vs0mg"},{"bike_id":"30eb253d-6805-4e7e-8083-172bb5221ad8","system_id":"levelo_inurba_marseille","lat":43.31169,"lon":5.38716,"is_reserved":false,"is_disabled":false,"rental_uris":{"android":"levelo://app?vid=30eb253d-6805-4e7e-8083-172bb5221ad8","ios":"levelo://app?vid=30eb253d-6805-4e7e-8083-172bb5221ad8"},"vehicle_type_id":"4","last_reported":1742224242,"current_range_meters":4000,"station_id":"ce4bgv12rcd13ifvqcp0","pricing_plan_id":"cebpf4jnsgd1na2vs0mg"},{"bike_id":"aa6f727f-eade-4509-953f-e118d4813421","system_id":"levelo_inurba_marseille","lat":43.22928,"lon":5.35382,"is_reserved":false,"is_disabled":false,"rental_uris":{"android":"levelo://app?vid=aa6f727f-eade-4509-953f-e118d4813421","ios":"levelo://app?vid=aa6f727f-eade-4509-953f-e118d4813421"},"vehicle_type_id":"4","last_reported":1742224242,"current_range_meters":4000,"station_id":"cpo3532slgdg3j2ikp40","pricing_plan_id":"cebpf4jnsgd1na2vs0mg"},{"bike_id":"ab915bb9-9705-44d8-b3a9-31f78c357f6a","system_id":"levelo_inurba_marseille","lat":43.24162,"lon":5.39704,"is_reserved":false,"is_disabled":false,"rental_uris":{"android":"levelo://app?vid=ab915bb9-9705-44d8-b3a9-31f78c357f6a","ios":"levelo://app?vid=ab915bb9-9705-44d8-b3a9-31f78c357f6a"},"vehicle_type_id":"4","last_reported":1742224242,"current_range_meters":4000,"station_id":"ce4bhn12rcd13ifvqgpg","pricing_plan_id":"cebpf4jnsgd1na2vs0mg"},{"bike_id":"0bceadc6-6d52-4da7-a983-9e626e1e744a","system_id":"levelo_inurba_marseille","lat":43.25502,"lon":5.37639,"is_reserved":false,"is_disabled":false,"rental_uris":{"android":"levelo://app?vid=0bceadc6-6d52-4da7-a983-9e626e1e744a","ios":"levelo://app?vid=0bceadc6-6d52-4da7-a983-9e626e1e744a"},"vehicle_type_id":"4","last_reported":1742224242,"current_range_meters":4000,"station_id":"ce4bhh12rcd13ifvqff0","pricing_plan_id":"cebpf4jnsgd1na2vs0mg"},{"bike_id":"75eca607-f4fe-4195-b2a5-9ee078b9149d","system_id":"levelo_inurba_marseille","lat":43.29559,"lon":5.42294,"is_reserved":false,"is_disabled":false,"rental_uris":{"android":"levelo://app?vid=75eca607-f4fe-4195-b2a5-9ee078b9149d","ios":"levelo://app?vid=75eca607-f4fe-4195-b2a5-9ee078b9149d"},"vehicle_type_id":"4","last_reported":1742224242,"current_range_meters":4400,"station_id":"ce4bhph2rcd13ifvqhdg","pricing_plan_id":"cebpf4jnsgd1na2vs0mg"},{"bike_id":"63c4dc35-03d1-47e4-9a62-5f8af618aa06","system_id":"levelo_inurba_marseille","lat":43.28721,"lon":5.37967,"is_reserved":false,"is_disabled":false,"rental_uris":{"android":"levelo://app?vid=63c4dc35-03d1-47e4-9a62-5f8af618aa06","ios":"levelo://app?vid=63c4dc35-03d1-47e4-9a62-5f8af618aa06"},"vehicle_type_id":"4","last_reported":1742224242,"current_range_meters":4400,"station_id":"ce4bh9p2rcd13ifvqec0","pricing_plan_id":"cebpf4jnsgd1na2vs0mg"},{"bike_id":"3d0dc32f-30cc-44f2-ab5c-c99dd08d9b94","system_id":"levelo_inurba_marseille","lat":43.30839,"lon":5.377176,"is_reserved":false,"is_disabled":false,"rental_uris":{"android":"levelo://app?vid=3d0dc32f-30cc-44f2-ab5c-c99dd08d9b94","ios":"levelo://app?vid=3d0dc32f-30cc-44f2-ab5c-c99dd08d9b94"},"vehicle_type_id":"4","last_reported":1742224242,"current_range_meters":4000,"station_id":"ce4bgv92rcd13ifvqcq0","pricing_plan_id":"cebpf4jnsgd1na2vs0mg"},{"bike_id":"f3656e47-7e0f-4d6f-9ff8-2771645ed31d","system_id":"levelo_inurba_marseille","lat":43.30153,"lon":5.38094,"is_reserved":false,"is_disabled":false,"rental_uris":{"android":"levelo://app?vid=f3656e47-7e0f-4d6f-9ff8-2771645ed31d","ios":"levelo://app?vid=f3656e47-7e0f-4d6f-9ff8-2771645ed31d"},"vehicle_type_id":"4","last_reported":1742224242,"current_range_meters":4400,"station_id":"ce4bgjp2rcd13ifvqbh0","pricing_plan_id":"cebpf4jnsgd1na2vs0mg"},{"bike_id":"0a72f768-dee5-4d72-81b3-9751abd1ea51","system_id":"levelo_inurba_marseille","lat":43.30131,"lon":5.38793,"is_reserved":false,"is_disabled":false,"rental_uris":{"android":"levelo://app?vid=0a72f768-dee5-4d72-81b3-9751abd1ea51","ios":"levelo://app?vid=0a72f768-dee5-4d72-81b3-9751abd1ea51"},"vehicle_type_id":"4","last_reported":1742224242,"current_range_meters":4400,"station_id":"ce4bghh2rcd13ifvqb60","pricing_plan_id":"cebpf4jnsgd1na2vs0mg"},{"bike_id":"8ba87235-a34b-48f5-9938-70fca1d983e1","system_id":"levelo_inurba_marseille","lat":43.23203,"lon":5.35562,"is_reserved":false,"is_disabled":false,"rental_uris":{"android":"levelo://app?vid=8ba87235-a34b-48f5-9938-70fca1d983e1","ios":"levelo://app?vid=8ba87235-a34b-48f5-9938-70fca1d983e1"},"vehicle_type_id":"4","last_reported":1742224242,"current_range_meters":4400,"station_id":"ce4bhu92rcd13ifvqi70","pricing_plan_id":"cebpf4jnsgd1na2vs0mg"},{"bike_id":"da4af89f-b57e-4338-a2dc-1fb2e55820b1","system_id":"levelo_inurba_marseille","lat":43.23058,"lon":5.35492,"is_reserved":false,"is_disabled":false,"rental_uris":{"android":"levelo://app?vid=da4af89f-b57e-4338-a2dc-1fb2e55820b1","ios":"levelo://app?vid=da4af89f-b57e-4338-a2dc-1fb2e55820b1"},"vehicle_type_id":"4","last_reported":1742224242,"current_range_meters":4800,"station_id":"cpo3342slgdg3j2ifvpg","pricing_plan_id":"cebpf4jnsgd1na2vs0mg"},{"bike_id":"8840f3a3-c8b6-490a-97fd-2574681fb080","system_id":"levelo_inurba_marseille","lat":43.25494,"lon":5.37649,"is_reserved":false,"is_disabled":false,"rental_uris":{"android":"levelo://app?vid=8840f3a3-c8b6-490a-97fd-2574681fb080","ios":"levelo://app?vid=8840f3a3-c8b6-490a-97fd-2574681fb080"},"vehicle_type_id":"4","last_reported":1742224242,"current_range_meters":4800,"station_id":"ce4bhh12rcd13ifvqff0","pricing_plan_id":"cebpf4jnsgd1na2vs0mg"},{"bike_id":"16539784-7caa-470a-82c9-1bebeb3d6fe7","system_id":"levelo_inurba_marseille","lat":43.301514,"lon":5.380945,"is_reserved":false,"is_disabled":false,"rental_uris":{"android":"levelo://app?vid=16539784-7caa-470a-82c9-1bebeb3d6fe7","ios":"levelo://app?vid=16539784-7caa-470a-82c9-1bebeb3d6fe7"},"vehicle_type_id":"4","last_reported":1742224242,"current_range_meters":4400,"station_id":"ce4bgjp2rcd13ifvqbh0","pricing_plan_id":"cebpf4jnsgd1na2vs0mg"},{"bike_id":"35072518-fb0d-413c-868f-31cef58f5ebf","system_id":"levelo_inurba_marseille","lat":43.32034,"lon":5.41573,"is_reserved":false,"is_disabled":false,"rental_uris":{"android":"levelo://app?vid=35072518-fb0d-413c-868f-31cef58f5ebf","ios":"levelo://app?vid=35072518-fb0d-413c-868f-31cef58f5ebf"},"vehicle_type_id":"4","last_reported":1742224242,"current_range_meters":4800,"station_id":"ce4bhq92rcd13ifvqhkg","pricing_plan_id":"cebpf4jnsgd1na2vs0mg"},{"bike_id":"76f822d5-be56-4bfb-bc4b-02443a6e266d","system_id":"levelo_inurba_marseille","lat":43.27177,"lon":5.40995,"is_reserved":false,"is_disabled":false,"rental_uris":{"android":"levelo://app?vid=76f822d5-be56-4bfb-bc4b-02443a6e266d","ios":"levelo://app?vid=76f822d5-be56-4bfb-bc4b-02443a6e266d"},"vehicle_type_id":"4","last_reported":1742224242,"current_range_meters":4800,"station_id":"ce4bhl12rcd13ifvqgf0","pricing_plan_id":"cebpf4jnsgd1na2vs0mg"},{"bike_id":"05377a79-8713-4eee-bb4a-1499973cb279","system_id":"levelo_inurba_marseille","lat":43.28424,"lon":5.34986,"is_reserved":false,"is_disabled":false,"rental_uris":{"android":"levelo://app?vid=05377a79-8713-4eee-bb4a-1499973cb279","ios":"levelo://app?vid=05377a79-8713-4eee-bb4a-1499973cb279"},"vehicle_type_id":"4","last_reported":1742224242,"current_range_meters":4800,"station_id":"ce4bhbh2rcd13ifvqepg","pricing_plan_id":"cebpf4jnsgd1na2vs0mg"},{"bike_id":"b2dde6db-9cdf-4a47-8df4-a09a115dd967","system_id":"levelo_inurba_marseille","lat":43.23157,"lon":5.43719,"is_reserved":false,"is_disabled":false,"rental_uris":{"android":"levelo://app?vid=b2dde6db-9cdf-4a47-8df4-a09a115dd967","ios":"levelo://app?vid=b2dde6db-9cdf-4a47-8df4-a09a115dd967"},"vehicle_type_id":"4","last_reported":1742224242,"current_range_meters":5600,"station_id":"ce4bhmp2rcd13ifvqgog","pricing_plan_id":"cebpf4jnsgd1na2vs0mg"},{"bike_id":"5d3dbd3a-1365-40c0-af69-8ba2c314a313","system_id":"levelo_inurba_marseille","lat":43.29887,"lon":5.43648,"is_reserved":false,"is_disabled":false,"rental_uris":{"android":"levelo://app?vid=5d3dbd3a-1365-40c0-af69-8ba2c314a313","ios":"levelo://app?vid=5d3dbd3a-1365-40c0-af69-8ba2c314a313"},"vehicle_type_id":"4","last_reported":1742224242,"current_range_meters":5600,"station_id":"ce4bhpp2rcd13ifvqhfg","pricing_plan_id":"cebpf4jnsgd1na2vs0mg"},{"bike_id":"9092f613-b680-4306-988d-cddc2ccb76de","system_id":"levelo_inurba_marseille","lat":43.28237,"lon":5.35074,"is_reserved":false,"is_disabled":false,"rental_uris":{"android":"levelo://app?vid=9092f613-b680-4306-988d-cddc2ccb76de","ios":"levelo://app?vid=9092f613-b680-4306-988d-cddc2ccb76de"},"vehicle_type_id":"4","last_reported":1742224242,"current_range_meters":5600,"station_id":"ce4bhbp2rcd13ifvqerg","pricing_plan_id":"cebpf4jnsgd1na2vs0mg"},{"bike_id":"d87d01b0-53bb-405d-a34e-24df13294a43","system_id":"levelo_inurba_marseille","lat":43.29192,"lon":5.39309,"is_reserved":false,"is_disabled":true,"rental_uris":{"android":"levelo://app?vid=d87d01b0-53bb-405d-a34e-24df13294a43","ios":"levelo://app?vid=d87d01b0-53bb-405d-a34e-24df13294a43"},"vehicle_type_id":"4","last_reported":1742224242,"current_range_meters":5600,"station_id":"ce4bh192rcd13ifvqdd0","pricing_plan_id":"cebpf4jnsgd1na2vs0mg"},{"bike_id":"5be9a1f5-43e5-44fe-8fe5-fcea0272093f","system_id":"levelo_inurba_marseille","lat":43.24175,"lon":5.39714,"is_reserved":false,"is_disabled":false,"rental_uris":{"android":"levelo://app?vid=5be9a1f5-43e5-44fe-8fe5-fcea0272093f","ios":"levelo://app?vid=5be9a1f5-43e5-44fe-8fe5-fcea0272093f"},"vehicle_type_id":"4","last_reported":1742224242,"current_range_meters":5600,"station_id":"ce4bhn12rcd13ifvqgpg","pricing_plan_id":"cebpf4jnsgd1na2vs0mg"},{"bike_id":"20e0a5b3-595b-4a82-b23f-00884f840406","system_id":"levelo_inurba_marseille","lat":43.23152,"lon":5.43719,"is_reserved":false,"is_disabled":false,"rental_uris":{"android":"levelo://app?vid=20e0a5b3-595b-4a82-b23f-00884f840406","ios":"levelo://app?vid=20e0a5b3-595b-4a82-b23f-00884f840406"},"vehicle_type_id":"4","last_reported":1742224242,"current_range_meters":5600,"station_id":"ce4bhmp2rcd13ifvqgog","pricing_plan_id":"cebpf4jnsgd1na2vs0mg"},{"bike_id":"f762fd6f-ca69-45f6-995f-65c0e25825a3","system_id":"levelo_inurba_marseille","lat":43.3255,"lon":5.41476,"is_reserved":false,"is_disabled":true,"rental_uris":{"android":"levelo://app?vid=f762fd6f-ca69-45f6-995f-65c0e25825a3","ios":"levelo://app?vid=f762fd6f-ca69-45f6-995f-65c0e25825a3"},"vehicle_type_id":"4","last_reported":1742224242,"current_range_meters":6000,"station_id":"ce4bhq12rcd13ifvqhhg","pricing_plan_id":"cebpf4jnsgd1na2vs0mg"},{"bike_id":"fbec38d7-a785-412d-b793-121527d1d6b6","system_id":"levelo_inurba_marseille","lat":43.23195,"lon":5.35555,"is_reserved":false,"is_disabled":false,"rental_uris":{"android":"levelo://app?vid=fbec38d7-a785-412d-b793-121527d1d6b6","ios":"levelo://app?vid=fbec38d7-a785-412d-b793-121527d1d6b6"},"vehicle_type_id":"4","last_reported":1742224242,"current_range_meters":5600,"station_id":"ce4bhu92rcd13ifvqi70","pricing_plan_id":"cebpf4jnsgd1na2vs0mg"},{"bike_id":"6ae6f76c-6a01-4d75-9d3f-dfa610803a78","system_id":"levelo_inurba_marseille","lat":43.23097,"lon":5.35476,"is_reserved":false,"is_disabled":false,"rental_uris":{"android":"levelo://app?vid=6ae6f76c-6a01-4d75-9d3f-dfa610803a78","ios":"levelo://app?vid=6ae6f76c-6a01-4d75-9d3f-dfa610803a78"},"vehicle_type_id":"4","last_reported":1742224242,"current_range_meters":6000,"station_id":"","pricing_plan_id":"cebpf4jnsgd1na2vs0mg"},{"bike_id":"436163ae-329e-4516-a54b-ab951f1eae33","system_id":"levelo_inurba_marseille","lat":43.25578,"lon":5.38234,"is_reserved":false,"is_disabled":false,"rental_uris":{"android":"levelo://app?vid=436163ae-329e-4516-a54b-ab951f1eae33","ios":"levelo://app?vid=436163ae-329e-4516-a54b-ab951f1eae33"},"vehicle_type_id":"4","last_reported":1742224242,"current_range_meters":6000,"station_id":"ce4bhih2rcd13ifvqfs0","pricing_plan_id":"cebpf4jnsgd1na2vs0mg"},{"bike_id":"92d6acd4-36fe-4541-9cb8-b5cac76d15fb","system_id":"levelo_inurba_marseille","lat":43.292023,"lon":5.357993,"is_reserved":false,"is_disabled":false,"rental_uris":{"android":"levelo://app?vid=92d6acd4-36fe-4541-9cb8-b5cac76d15fb","ios":"levelo://app?vid=92d6acd4-36fe-4541-9cb8-b5cac76d15fb"},"vehicle_type_id":"4","last_reported":1742224242,"current_range_meters":6000,"station_id":"ce4bhb12rcd13ifvqel0","pricing_plan_id":"cebpf4jnsgd1na2vs0mg"},{"bike_id":"ad611920-9c6c-4343-811a-613204b58de8","system_id":"levelo_inurba_marseille","lat":43.26494,"lon":5.39562,"is_reserved":false,"is_disabled":false,"rental_uris":{"android":"levelo://app?vid=ad611920-9c6c-4343-811a-613204b58de8","ios":"levelo://app?vid=ad611920-9c6c-4343-811a-613204b58de8"},"vehicle_type_id":"4","last_reported":1742224242,"current_range_meters":6000,"station_id":"ce4bhi12rcd13ifvqfq0","pricing_plan_id":"cebpf4jnsgd1na2vs0mg"},{"bike_id":"c4ec09b2-6d7f-446a-8363-18b996e380b7","system_id":"levelo_inurba_marseille","lat":43.23149,"lon":5.437,"is_reserved":false,"is_disabled":false,"rental_uris":{"android":"levelo://app?vid=c4ec09b2-6d7f-446a-8363-18b996e380b7","ios":"levelo://app?vid=c4ec09b2-6d7f-446a-8363-18b996e380b7"},"vehicle_type_id":"4","last_reported":1742224242,"current_range_meters":6000,"station_id":"ce4bhmp2rcd13ifvqgog","pricing_plan_id":"cebpf4jnsgd1na2vs0mg"},{"bike_id":"b6d520f3-d2b4-4ce1-9377-d372a1b38591","system_id":"levelo_inurba_marseille","lat":43.27205,"lon":5.39194,"is_reserved":false,"is_disabled":false,"rental_uris":{"android":"levelo://app?vid=b6d520f3-d2b4-4ce1-9377-d372a1b38591","ios":"levelo://app?vid=b6d520f3-d2b4-4ce1-9377-d372a1b38591"},"vehicle_type_id":"4","last_reported":1742224242,"current_range_meters":6400,"station_id":"ce4bhhp2rcd13ifvqfm0","pricing_plan_id":"cebpf4jnsgd1na2vs0mg"},{"bike_id":"4129c05f-ef1d-4540-9c7c-acff09fdabd4","system_id":"levelo_inurba_marseille","lat":43.2989,"lon":5.38914,"is_reserved":false,"is_disabled":false,"rental_uris":{"android":"levelo://app?vid=4129c05f-ef1d-4540-9c7c-acff09fdabd4","ios":"levelo://app?vid=4129c05f-ef1d-4540-9c7c-acff09fdabd4"},"vehicle_type_id":"4","last_reported":1742224242,"current_range_meters":6400,"station_id":"ce4bh392rcd13ifvqdl0","pricing_plan_id":"cebpf4jnsgd1na2vs0mg"},{"bike_id":"5d33ee2e-ab8c-4d48-b2e3-8df7c0b816e1","system_id":"levelo_inurba_marseille","lat":43.23064,"lon":5.35503,"is_reserved":false,"is_disabled":false,"rental_uris":{"android":"levelo://app?vid=5d33ee2e-ab8c-4d48-b2e3-8df7c0b816e1","ios":"levelo://app?vid=5d33ee2e-ab8c-4d48-b2e3-8df7c0b816e1"},"vehicle_type_id":"4","last_reported":1742224242,"current_range_meters":6400,"station_id":"cpo3342slgdg3j2ifvpg","pricing_plan_id":"cebpf4jnsgd1na2vs0mg"},{"bike_id":"7821f6a8-da79-4f9c-b784-b63f987ffda5","system_id":"levelo_inurba_marseille","lat":43.31244,"lon":5.36895,"is_reserved":false,"is_disabled":false,"rental_uris":{"android":"levelo://app?vid=7821f6a8-da79-4f9c-b784-b63f987ffda5","ios":"levelo://app?vid=7821f6a8-da79-4f9c-b784-b63f987ffda5"},"vehicle_type_id":"4","last_reported":1742224242,"current_range_meters":6400,"station_id":"ce4bgl92rcd13ifvqbq0","pricing_plan_id":"cebpf4jnsgd1na2vs0mg"},{"bike_id":"04e5e5b7-50fc-4eb1-90d6-364e3b03b2d6","system_id":"levelo_inurba_marseille","lat":43.24079,"lon":5.37744,"is_reserved":false,"is_disabled":true,"rental_uris":{"android":"levelo://app?vid=04e5e5b7-50fc-4eb1-90d6-364e3b03b2d6","ios":"levelo://app?vid=04e5e5b7-50fc-4eb1-90d6-364e3b03b2d6"},"vehicle_type_id":"4","last_reported":1742224242,"current_range_meters":6400,"station_id":"ce4bhnp2rcd13ifvqgvg","pricing_plan_id":"cebpf4jnsgd1na2vs0mg"},{"bike_id":"f31da457-6e9b-4ad6-be1d-5ffba7cbc733","system_id":"levelo_inurba_marseille","lat":43.25005,"lon":5.38926,"is_reserved":false,"is_disabled":false,"rental_uris":{"android":"levelo://app?vid=f31da457-6e9b-4ad6-be1d-5ffba7cbc733","ios":"levelo://app?vid=f31da457-6e9b-4ad6-be1d-5ffba7cbc733"},"vehicle_type_id":"4","last_reported":1742224242,"current_range_meters":6400,"station_id":"ce4bhgp2rcd13ifvqfd0","pricing_plan_id":"cebpf4jnsgd1na2vs0mg"},{"bike_id":"6f44aed4-835a-461b-be1a-ac81e33b33c8","system_id":"levelo_inurba_marseille","lat":43.29043,"lon":5.35918,"is_reserved":false,"is_disabled":false,"rental_uris":{"android":"levelo://app?vid=6f44aed4-835a-461b-be1a-ac81e33b33c8","ios":"levelo://app?vid=6f44aed4-835a-461b-be1a-ac81e33b33c8"},"vehicle_type_id":"4","last_reported":1742224242,"current_range_meters":6400,"station_id":"ce4bha92rcd13ifvqeg0","pricing_plan_id":"cebpf4jnsgd1na2vs0mg"},{"bike_id":"2cad790d-8767-4dde-a366-83aeeac91662","system_id":"levelo_inurba_marseille","lat":43.24145,"lon":5.39685,"is_reserved":false,"is_disabled":false,"rental_uris":{"android":"levelo://app?vid=2cad790d-8767-4dde-a366-83aeeac91662","ios":"levelo://app?vid=2cad790d-8767-4dde-a366-83aeeac91662"},"vehicle_type_id":"4","last_reported":1742224242,"current_range_meters":6400,"station_id":"ce4bhn12rcd13ifvqgpg","pricing_plan_id":"cebpf4jnsgd1na2vs0mg"},{"bike_id":"51dcaea0-15d3-4aaf-96dc-a3b64a803599","system_id":"levelo_inurba_marseille","lat":43.23145,"lon":5.43731,"is_reserved":false,"is_disabled":false,"rental_uris":{"android":"levelo://app?vid=51dcaea0-15d3-4aaf-96dc-a3b64a803599","ios":"levelo://app?vid=51dcaea0-15d3-4aaf-96dc-a3b64a803599"},"vehicle_type_id":"4","last_reported":1742224242,"current_range_meters":6400,"station_id":"ce4bhmp2rcd13ifvqgog","pricing_plan_id":"cebpf4jnsgd1na2vs0mg"},{"bike_id":"cc15e210-f7bf-4599-93be-6ee01d8146d0","system_id":"levelo_inurba_marseille","lat":43.23164,"lon":5.4372,"is_reserved":false,"is_disabled":false,"rental_uris":{"android":"levelo://app?vid=cc15e210-f7bf-4599-93be-6ee01d8146d0","ios":"levelo://app?vid=cc15e210-f7bf-4599-93be-6ee01d8146d0"},"vehicle_type_id":"4","last_reported":1742224242,"current_range_meters":6800,"station_id":"ce4bhmp2rcd13ifvqgog","pricing_plan_id":"cebpf4jnsgd1na2vs0mg"},{"bike_id":"f3eb6a65-a610-4e3f-9466-127bf5275334","system_id":"levelo_inurba_marseille","lat":43.23162,"lon":5.43728,"is_reserved":false,"is_disabled":false,"rental_uris":{"android":"levelo://app?vid=f3eb6a65-a610-4e3f-9466-127bf5275334","ios":"levelo://app?vid=f3eb6a65-a610-4e3f-9466-127bf5275334"},"vehicle_type_id":"4","last_reported":1742224242,"current_range_meters":6800,"station_id":"ce4bhmp2rcd13ifvqgog","pricing_plan_id":"cebpf4jnsgd1na2vs0mg"},{"bike_id":"5a14338c-3bd8-41df-b649-06e806759699","system_id":"levelo_inurba_marseille","lat":43.23968,"lon":5.36635,"is_reserved":false,"is_disabled":false,"rental_uris":{"android":"levelo://app?vid=5a14338c-3bd8-41df-b649-06e806759699","ios":"levelo://app?vid=5a14338c-3bd8-41df-b649-06e806759699"},"vehicle_type_id":"4","last_reported":1742224242,"current_range_meters":6800,"station_id":"ce4bhi12rcd13ifvqfp0","pricing_plan_id":"cebpf4jnsgd1na2vs0mg"},{"bike_id":"6222df0f-bda6-41d5-ade4-b4d3ca5dc59e","system_id":"levelo_inurba_marseille","lat":43.2573,"lon":5.41109,"is_reserved":false,"is_disabled":false,"rental_uris":{"android":"levelo://app?vid=6222df0f-bda6-41d5-ade4-b4d3ca5dc59e","ios":"levelo://app?vid=6222df0f-bda6-41d5-ade4-b4d3ca5dc59e"},"vehicle_type_id":"4","last_reported":1742224242,"current_range_meters":6800,"station_id":"ce4bhkp2rcd13ifvqgd0","pricing_plan_id":"cebpf4jnsgd1na2vs0mg"},{"bike_id":"e5648786-ac93-4c04-b758-6a2ba547b6d4","system_id":"levelo_inurba_marseille","lat":43.29964,"lon":5.38496,"is_reserved":false,"is_disabled":false,"rental_uris":{"android":"levelo://app?vid=e5648786-ac93-4c04-b758-6a2ba547b6d4","ios":"levelo://app?vid=e5648786-ac93-4c04-b758-6a2ba547b6d4"},"vehicle_type_id":"4","last_reported":1742224242,"current_range_meters":6400,"station_id":"ce4bgj92rcd13ifvqbd0","pricing_plan_id":"cebpf4jnsgd1na2vs0mg"},{"bike_id":"d62841a2-6dc2-4a3c-a2b1-52e5b3d95014","system_id":"levelo_inurba_marseille","lat":43.26552,"lon":5.39022,"is_reserved":false,"is_disabled":false,"rental_uris":{"android":"levelo://app?vid=d62841a2-6dc2-4a3c-a2b1-52e5b3d95014","ios":"levelo://app?vid=d62841a2-6dc2-4a3c-a2b1-52e5b3d95014"},"vehicle_type_id":"4","last_reported":1742224242,"current_range_meters":6800,"station_id":"ce4bhe12rcd13ifvqf30","pricing_plan_id":"cebpf4jnsgd1na2vs0mg"},{"bike_id":"7f072423-96a6-475b-9c39-40fa85ebf966","system_id":"levelo_inurba_marseille","lat":43.26203,"lon":5.37918,"is_reserved":false,"is_disabled":false,"rental_uris":{"android":"levelo://app?vid=7f072423-96a6-475b-9c39-40fa85ebf966","ios":"levelo://app?vid=7f072423-96a6-475b-9c39-40fa85ebf966"},"vehicle_type_id":"4","last_reported":1742224242,"current_range_meters":6800,"station_id":"ce4bhjp2rcd13ifvqg90","pricing_plan_id":"cebpf4jnsgd1na2vs0mg"},{"bike_id":"e8abda8e-f91d-4997-a00a-19030cb9f77f","system_id":"levelo_inurba_marseille","lat":43.24179,"lon":5.39724,"is_reserved":false,"is_disabled":false,"rental_uris":{"android":"levelo://app?vid=e8abda8e-f91d-4997-a00a-19030cb9f77f","ios":"levelo://app?vid=e8abda8e-f91d-4997-a00a-19030cb9f77f"},"vehicle_type_id":"4","last_reported":1742224242,"current_range_meters":6800,"station_id":"ce4bhn12rcd13ifvqgpg","pricing_plan_id":"cebpf4jnsgd1na2vs0mg"},{"bike_id":"12527f85-a72e-4be2-af47-5cdf2494e740","system_id":"levelo_inurba_marseille","lat":43.29007,"lon":5.35615,"is_reserved":false,"is_disabled":false,"rental_uris":{"android":"levelo://app?vid=12527f85-a72e-4be2-af47-5cdf2494e740","ios":"levelo://app?vid=12527f85-a72e-4be2-af47-5cdf2494e740"},"vehicle_type_id":"4","last_reported":1742224242,"current_range_meters":6800,"station_id":"ce4bhb92rcd13ifvqen0","pricing_plan_id":"cebpf4jnsgd1na2vs0mg"},{"bike_id":"574c6264-9ead-4067-9d53-ef9ca0765d8a","system_id":"levelo_inurba_marseille","lat":43.25934,"lon":5.40899,"is_reserved":false,"is_disabled":false,"rental_uris":{"android":"levelo://app?vid=574c6264-9ead-4067-9d53-ef9ca0765d8a","ios":"levelo://app?vid=574c6264-9ead-4067-9d53-ef9ca0765d8a"},"vehicle_type_id":"4","last_reported":1742224242,"current_range_meters":6800,"station_id":"ce4bhm92rcd13ifvqglg","pricing_plan_id":"cebpf4jnsgd1na2vs0mg"},{"bike_id":"67e45879-f63f-477c-99d3-a1cf8df0b3ef","system_id":"levelo_inurba_marseille","lat":43.26221,"lon":5.37448,"is_reserved":false,"is_disabled":false,"rental_uris":{"android":"levelo://app?vid=67e45879-f63f-477c-99d3-a1cf8df0b3ef","ios":"levelo://app?vid=67e45879-f63f-477c-99d3-a1cf8df0b3ef"},"vehicle_type_id":"4","last_reported":1742224242,"current_range_meters":6400,"station_id":"ce4bhgp2rcd13ifvqfc0","pricing_plan_id":"cebpf4jnsgd1na2vs0mg"},{"bike_id":"6b8ffa9f-0e09-4bfb-a7c9-f730a8d18a65","system_id":"levelo_inurba_marseille","lat":43.24516,"lon":5.37275,"is_reserved":false,"is_disabled":false,"rental_uris":{"android":"levelo://app?vid=6b8ffa9f-0e09-4bfb-a7c9-f730a8d18a65","ios":"levelo://app?vid=6b8ffa9f-0e09-4bfb-a7c9-f730a8d18a65"},"vehicle_type_id":"4","last_reported":1742224242,"current_range_meters":6800,"station_id":"","pricing_plan_id":"cebpf4jnsgd1na2vs0mg"},{"bike_id":"1f2ca29d-df46-4c07-80be-ce982efa349b","system_id":"levelo_inurba_marseille","lat":43.23064,"lon":5.35492,"is_reserved":false,"is_disabled":false,"rental_uris":{"android":"levelo://app?vid=1f2ca29d-df46-4c07-80be-ce982efa349b","ios":"levelo://app?vid=1f2ca29d-df46-4c07-80be-ce982efa349b"},"vehicle_type_id":"4","last_reported":1742224242,"current_range_meters":6800,"station_id":"cpo3342slgdg3j2ifvpg","pricing_plan_id":"cebpf4jnsgd1na2vs0mg"},{"bike_id":"fcced352-4241-4495-9bf7-d760e7e54b5a","system_id":"levelo_inurba_marseille","lat":43.2721,"lon":5.39183,"is_reserved":false,"is_disabled":false,"rental_uris":{"android":"levelo://app?vid=fcced352-4241-4495-9bf7-d760e7e54b5a","ios":"levelo://app?vid=fcced352-4241-4495-9bf7-d760e7e54b5a"},"vehicle_type_id":"4","last_reported":1742224242,"current_range_meters":7200,"station_id":"ce4bhhp2rcd13ifvqfm0","pricing_plan_id":"cebpf4jnsgd1na2vs0mg"},{"bike_id":"05398b67-af1b-4020-97ec-f9cca790bec0","system_id":"levelo_inurba_marseille","lat":43.28617,"lon":5.3511,"is_reserved":false,"is_disabled":false,"rental_uris":{"android":"levelo://app?vid=05398b67-af1b-4020-97ec-f9cca790bec0","ios":"levelo://app?vid=05398b67-af1b-4020-97ec-f9cca790bec0"},"vehicle_type_id":"4","last_reported":1742224242,"current_range_meters":7200,"station_id":"ce4bhch2rcd13ifvqeug","pricing_plan_id":"cebpf4jnsgd1na2vs0mg"},{"bike_id":"abd48a52-c8cc-4abb-a801-8dce64155a4a","system_id":"levelo_inurba_marseille","lat":43.24998,"lon":5.38933,"is_reserved":false,"is_disabled":false,"rental_uris":{"android":"levelo://app?vid=abd48a52-c8cc-4abb-a801-8dce64155a4a","ios":"levelo://app?vid=abd48a52-c8cc-4abb-a801-8dce64155a4a"},"vehicle_type_id":"4","last_reported":1742224242,"current_range_meters":7200,"station_id":"ce4bhgp2rcd13ifvqfd0","pricing_plan_id":"cebpf4jnsgd1na2vs0mg"},{"bike_id":"a53dfc5c-d888-4129-bafd-ffc106083902","system_id":"levelo_inurba_marseille","lat":43.27616,"lon":5.36104,"is_reserved":false,"is_disabled":false,"rental_uris":{"android":"levelo://app?vid=a53dfc5c-d888-4129-bafd-ffc106083902","ios":"levelo://app?vid=a53dfc5c-d888-4129-bafd-ffc106083902"},"vehicle_type_id":"4","last_reported":1742224242,"current_range_meters":7200,"station_id":"ce4bgj92rcd13ifvqbe0","pricing_plan_id":"cebpf4jnsgd1na2vs0mg"},{"bike_id":"14cd229a-e82f-4d5d-bc54-5bd7b491925a","system_id":"levelo_inurba_marseille","lat":43.23188,"lon":5.39978,"is_reserved":false,"is_disabled":false,"rental_uris":{"android":"levelo://app?vid=14cd229a-e82f-4d5d-bc54-5bd7b491925a","ios":"levelo://app?vid=14cd229a-e82f-4d5d-bc54-5bd7b491925a"},"vehicle_type_id":"4","last_reported":1742224242,"current_range_meters":7200,"station_id":"ce4bhn12rcd13ifvqgqg","pricing_plan_id":"cebpf4jnsgd1na2vs0mg"},{"bike_id":"b29a0463-5e75-49d5-8955-7693d791a747","system_id":"levelo_inurba_marseille","lat":43.27618,"lon":5.36111,"is_reserved":false,"is_disabled":false,"rental_uris":{"android":"levelo://app?vid=b29a0463-5e75-49d5-8955-7693d791a747","ios":"levelo://app?vid=b29a0463-5e75-49d5-8955-7693d791a747"},"vehicle_type_id":"4","last_reported":1742224242,"current_range_meters":7200,"station_id":"ce4bgj92rcd13ifvqbe0","pricing_plan_id":"cebpf4jnsgd1na2vs0mg"},{"bike_id":"74620aff-b1f0-4b60-8841-bc8a0a2edc3e","system_id":"levelo_inurba_marseille","lat":43.23192,"lon":5.35561,"is_reserved":false,"is_disabled":false,"rental_uris":{"android":"levelo://app?vid=74620aff-b1f0-4b60-8841-bc8a0a2edc3e","ios":"levelo://app?vid=74620aff-b1f0-4b60-8841-bc8a0a2edc3e"},"vehicle_type_id":"4","last_reported":1742224242,"current_range_meters":8000,"station_id":"ce4bhu92rcd13ifvqi70","pricing_plan_id":"cebpf4jnsgd1na2vs0mg"},{"bike_id":"6fc12898-2397-4b4f-ac69-eddefb442ad6","system_id":"levelo_inurba_marseille","lat":43.27943,"lon":5.41051,"is_reserved":false,"is_disabled":false,"rental_uris":{"android":"levelo://app?vid=6fc12898-2397-4b4f-ac69-eddefb442ad6","ios":"levelo://app?vid=6fc12898-2397-4b4f-ac69-eddefb442ad6"},"vehicle_type_id":"4","last_reported":1742224242,"current_range_meters":8000,"station_id":"ce4bhnp2rcd13ifvqh0g","pricing_plan_id":"cebpf4jnsgd1na2vs0mg"},{"bike_id":"3e0fcc09-88bb-41d8-a93f-e38379bfc074","system_id":"levelo_inurba_marseille","lat":43.26225,"lon":5.40446,"is_reserved":false,"is_disabled":false,"rental_uris":{"android":"levelo://app?vid=3e0fcc09-88bb-41d8-a93f-e38379bfc074","ios":"levelo://app?vid=3e0fcc09-88bb-41d8-a93f-e38379bfc074"},"vehicle_type_id":"4","last_reported":1742224242,"current_range_meters":8000,"station_id":"ce4bhmh2rcd13ifvqgmg","pricing_plan_id":"cebpf4jnsgd1na2vs0mg"},{"bike_id":"acb972a8-071b-4fe7-b152-8fbaf9927cae","system_id":"levelo_inurba_marseille","lat":43.30637,"lon":5.40093,"is_reserved":false,"is_disabled":false,"rental_uris":{"android":"levelo://app?vid=acb972a8-071b-4fe7-b152-8fbaf9927cae","ios":"levelo://app?vid=acb972a8-071b-4fe7-b152-8fbaf9927cae"},"vehicle_type_id":"4","last_reported":1742224242,"current_range_meters":9200,"station_id":"ce4bh112rcd13ifvqda0","pricing_plan_id":"cebpf4jnsgd1na2vs0mg"},{"bike_id":"510bdaa7-edb7-4be0-ae3c-c55ef6ac4762","system_id":"levelo_inurba_marseille","lat":43.22926,"lon":5.35373,"is_reserved":false,"is_disabled":false,"rental_uris":{"android":"levelo://app?vid=510bdaa7-edb7-4be0-ae3c-c55ef6ac4762","ios":"levelo://app?vid=510bdaa7-edb7-4be0-ae3c-c55ef6ac4762"},"vehicle_type_id":"4","last_reported":1742224242,"current_range_meters":8000,"station_id":"cpo3532slgdg3j2ikp40","pricing_plan_id":"cebpf4jnsgd1na2vs0mg"},{"bike_id":"e39f083d-4542-4f7b-9173-1e8fe9e09597","system_id":"levelo_inurba_marseille","lat":43.27505,"lon":5.42458,"is_reserved":false,"is_disabled":true,"rental_uris":{"android":"levelo://app?vid=e39f083d-4542-4f7b-9173-1e8fe9e09597","ios":"levelo://app?vid=e39f083d-4542-4f7b-9173-1e8fe9e09597"},"vehicle_type_id":"4","last_reported":1742224242,"current_range_meters":8000,"station_id":"ce4bhn92rcd13ifvqgrg","pricing_plan_id":"cebpf4jnsgd1na2vs0mg"},{"bike_id":"8328075f-d508-4d51-8cda-eb51cdd3db9d","system_id":"levelo_inurba_marseille","lat":43.32117,"lon":5.3677,"is_reserved":false,"is_disabled":false,"rental_uris":{"android":"levelo://app?vid=8328075f-d508-4d51-8cda-eb51cdd3db9d","ios":"levelo://app?vid=8328075f-d508-4d51-8cda-eb51cdd3db9d"},"vehicle_type_id":"4","last_reported":1742224242,"current_range_meters":8000,"station_id":"ce4bhrh2rcd13ifvqhug","pricing_plan_id":"cebpf4jnsgd1na2vs0mg"},{"bike_id":"a561f3af-dc1c-4af4-b9a4-ead55b35e495","system_id":"levelo_inurba_marseille","lat":43.23196,"lon":5.35556,"is_reserved":false,"is_disabled":false,"rental_uris":{"android":"levelo://app?vid=a561f3af-dc1c-4af4-b9a4-ead55b35e495","ios":"levelo://app?vid=a561f3af-dc1c-4af4-b9a4-ead55b35e495"},"vehicle_type_id":"4","last_reported":1742224242,"current_range_meters":8000,"station_id":"ce4bhu92rcd13ifvqi70","pricing_plan_id":"cebpf4jnsgd1na2vs0mg"},{"bike_id":"8abf5c72-692f-4fd9-8537-22fe861d9366","system_id":"levelo_inurba_marseille","lat":43.32351,"lon":5.3674,"is_reserved":false,"is_disabled":false,"rental_uris":{"android":"levelo://app?vid=8abf5c72-692f-4fd9-8537-22fe861d9366","ios":"levelo://app?vid=8abf5c72-692f-4fd9-8537-22fe861d9366"},"vehicle_type_id":"4","last_reported":1742224242,"current_range_meters":8000,"station_id":"ce4bhsh2rcd13ifvqi2g","pricing_plan_id":"cebpf4jnsgd1na2vs0mg"},{"bike_id":"4a82e9fa-897e-4db9-9848-eca7bdecdfdc","system_id":"levelo_inurba_marseille","lat":43.27913,"lon":5.38218,"is_reserved":false,"is_disabled":false,"rental_uris":{"android":"levelo://app?vid=4a82e9fa-897e-4db9-9848-eca7bdecdfdc","ios":"levelo://app?vid=4a82e9fa-897e-4db9-9848-eca7bdecdfdc"},"vehicle_type_id":"4","last_reported":1742224242,"current_range_meters":8000,"station_id":"","pricing_plan_id":"cebpf4jnsgd1na2vs0mg"},{"bike_id":"854983dd-4940-4021-9fc0-ad53ee25a135","system_id":"levelo_inurba_marseille","lat":43.292,"lon":5.35789,"is_reserved":false,"is_disabled":false,"rental_uris":{"android":"levelo://app?vid=854983dd-4940-4021-9fc0-ad53ee25a135","ios":"levelo://app?vid=854983dd-4940-4021-9fc0-ad53ee25a135"},"vehicle_type_id":"4","last_reported":1742224242,"current_range_meters":8000,"station_id":"ce4bhb12rcd13ifvqel0","pricing_plan_id":"cebpf4jnsgd1na2vs0mg"},{"bike_id":"4ffdacba-034c-421f-8d42-ca57612cd8c0","system_id":"levelo_inurba_marseille","lat":43.32361,"lon":5.36764,"is_reserved":false,"is_disabled":false,"rental_uris":{"android":"levelo://app?vid=4ffdacba-034c-421f-8d42-ca57612cd8c0","ios":"levelo://app?vid=4ffdacba-034c-421f-8d42-ca57612cd8c0"},"vehicle_type_id":"4","last_reported":1742224242,"current_range_meters":8000,"station_id":"ce4bhsh2rcd13ifvqi2g","pricing_plan_id":"cebpf4jnsgd1na2vs0mg"},{"bike_id":"584afa3f-48c1-4f25-a5dc-28dc6ad9e4c6","system_id":"levelo_inurba_marseille","lat":43.29558,"lon":5.42295,"is_reserved":false,"is_disabled":false,"rental_uris":{"android":"levelo://app?vid=584afa3f-48c1-4f25-a5dc-28dc6ad9e4c6","ios":"levelo://app?vid=584afa3f-48c1-4f25-a5dc-28dc6ad9e4c6"},"vehicle_type_id":"4","last_reported":1742224242,"current_range_meters":8400,"station_id":"ce4bhph2rcd13ifvqhdg","pricing_plan_id":"cebpf4jnsgd1na2vs0mg"},{"bike_id":"8d542ee4-838b-4699-8232-94c9bd1cf6b1","system_id":"levelo_inurba_marseille","lat":43.23153,"lon":5.43705,"is_reserved":false,"is_disabled":false,"rental_uris":{"android":"levelo://app?vid=8d542ee4-838b-4699-8232-94c9bd1cf6b1","ios":"levelo://app?vid=8d542ee4-838b-4699-8232-94c9bd1cf6b1"},"vehicle_type_id":"4","last_reported":1742224242,"current_range_meters":8400,"station_id":"ce4bhmp2rcd13ifvqgog","pricing_plan_id":"cebpf4jnsgd1na2vs0mg"},{"bike_id":"ef9b20c2-24a5-462d-8f71-a0b89cbc915f","system_id":"levelo_inurba_marseille","lat":43.26021,"lon":5.41742,"is_reserved":false,"is_disabled":false,"rental_uris":{"android":"levelo://app?vid=ef9b20c2-24a5-462d-8f71-a0b89cbc915f","ios":"levelo://app?vid=ef9b20c2-24a5-462d-8f71-a0b89cbc915f"},"vehicle_type_id":"4","last_reported":1742224242,"current_range_meters":8400,"station_id":"","pricing_plan_id":"cebpf4jnsgd1na2vs0mg"},{"bike_id":"ddb3fece-6176-4ea5-bd33-ae2e1d3a7073","system_id":"levelo_inurba_marseille","lat":43.28263,"lon":5.35072,"is_reserved":false,"is_disabled":false,"rental_uris":{"android":"levelo://app?vid=ddb3fece-6176-4ea5-bd33-ae2e1d3a7073","ios":"levelo://app?vid=ddb3fece-6176-4ea5-bd33-ae2e1d3a7073"},"vehicle_type_id":"4","last_reported":1742224242,"current_range_meters":8400,"station_id":"ce4bhbp2rcd13ifvqerg","pricing_plan_id":"cebpf4jnsgd1na2vs0mg"},{"bike_id":"c5716ef8-3072-44f9-b67a-30ce2fa0930b","system_id":"levelo_inurba_marseille","lat":43.29223,"lon":5.40873,"is_reserved":false,"is_disabled":false,"rental_uris":{"android":"levelo://app?vid=c5716ef8-3072-44f9-b67a-30ce2fa0930b","ios":"levelo://app?vid=c5716ef8-3072-44f9-b67a-30ce2fa0930b"},"vehicle_type_id":"4","last_reported":1742224242,"current_range_meters":9200,"station_id":"ce4bh192rcd13ifvqdc0","pricing_plan_id":"cebpf4jnsgd1na2vs0mg"},{"bike_id":"2fe6b5d4-c6f7-40d2-9a0b-4798d57f392b","system_id":"levelo_inurba_marseille","lat":43.23062,"lon":5.35495,"is_reserved":false,"is_disabled":false,"rental_uris":{"android":"levelo://app?vid=2fe6b5d4-c6f7-40d2-9a0b-4798d57f392b","ios":"levelo://app?vid=2fe6b5d4-c6f7-40d2-9a0b-4798d57f392b"},"vehicle_type_id":"4","last_reported":1742224242,"current_range_meters":8400,"station_id":"cpo3342slgdg3j2ifvpg","pricing_plan_id":"cebpf4jnsgd1na2vs0mg"},{"bike_id":"9dcb622a-e621-4cef-b659-02a845217b91","system_id":"levelo_inurba_marseille","lat":43.32365,"lon":5.38877,"is_reserved":false,"is_disabled":false,"rental_uris":{"android":"levelo://app?vid=9dcb622a-e621-4cef-b659-02a845217b91","ios":"levelo://app?vid=9dcb622a-e621-4cef-b659-02a845217b91"},"vehicle_type_id":"4","last_reported":1742224242,"current_range_meters":8400,"station_id":"ce4bhqp2rcd13ifvqhog","pricing_plan_id":"cebpf4jnsgd1na2vs0mg"},{"bike_id":"021238b5-2b9d-46d2-b80c-a5e816fdc135","system_id":"levelo_inurba_marseille","lat":43.29506,"lon":5.42484,"is_reserved":false,"is_disabled":false,"rental_uris":{"android":"levelo://app?vid=021238b5-2b9d-46d2-b80c-a5e816fdc135","ios":"levelo://app?vid=021238b5-2b9d-46d2-b80c-a5e816fdc135"},"vehicle_type_id":"4","last_reported":1742224242,"current_range_meters":8400,"station_id":"","pricing_plan_id":"cebpf4jnsgd1na2vs0mg"},{"bike_id":"21ea14e4-e712-4c55-80e9-78ee64e17fba","system_id":"levelo_inurba_marseille","lat":43.23158,"lon":5.43715,"is_reserved":false,"is_disabled":false,"rental_uris":{"android":"levelo://app?vid=21ea14e4-e712-4c55-80e9-78ee64e17fba","ios":"levelo://app?vid=21ea14e4-e712-4c55-80e9-78ee64e17fba"},"vehicle_type_id":"4","last_reported":1742224242,"current_range_meters":8400,"station_id":"ce4bhmp2rcd13ifvqgog","pricing_plan_id":"cebpf4jnsgd1na2vs0mg"},{"bike_id":"706f1cef-8e9b-45d5-be65-fab94aa4791b","system_id":"levelo_inurba_marseille","lat":43.22925,"lon":5.35369,"is_reserved":false,"is_disabled":false,"rental_uris":{"android":"levelo://app?vid=706f1cef-8e9b-45d5-be65-fab94aa4791b","ios":"levelo://app?vid=706f1cef-8e9b-45d5-be65-fab94aa4791b"},"vehicle_type_id":"4","last_reported":1742224242,"current_range_meters":8400,"station_id":"cpo3532slgdg3j2ikp40","pricing_plan_id":"cebpf4jnsgd1na2vs0mg"},{"bike_id":"5ae3389f-4861-401c-8ef6-b6dce59ed540","system_id":"levelo_inurba_marseille","lat":43.32114,"lon":5.36778,"is_reserved":false,"is_disabled":false,"rental_uris":{"android":"levelo://app?vid=5ae3389f-4861-401c-8ef6-b6dce59ed540","ios":"levelo://app?vid=5ae3389f-4861-401c-8ef6-b6dce59ed540"},"vehicle_type_id":"4","last_reported":1742224242,"current_range_meters":8400,"station_id":"ce4bhrh2rcd13ifvqhug","pricing_plan_id":"cebpf4jnsgd1na2vs0mg"},{"bike_id":"a9056739-2708-4842-a118-d8149d860ee6","system_id":"levelo_inurba_marseille","lat":43.27919,"lon":5.39599,"is_reserved":false,"is_disabled":false,"rental_uris":{"android":"levelo://app?vid=a9056739-2708-4842-a118-d8149d860ee6","ios":"levelo://app?vid=a9056739-2708-4842-a118-d8149d860ee6"},"vehicle_type_id":"4","last_reported":1742224242,"current_range_meters":8400,"station_id":"ce4bhf92rcd13ifvqf40","pricing_plan_id":"cebpf4jnsgd1na2vs0mg"},{"bike_id":"97a620f5-50b0-47e0-b7e6-1ae08d012eec","system_id":"levelo_inurba_marseille","lat":43.27062,"lon":5.42307,"is_reserved":false,"is_disabled":false,"rental_uris":{"android":"levelo://app?vid=97a620f5-50b0-47e0-b7e6-1ae08d012eec","ios":"levelo://app?vid=97a620f5-50b0-47e0-b7e6-1ae08d012eec"},"vehicle_type_id":"4","last_reported":1742224242,"current_range_meters":8800,"station_id":"ce4bhk92rcd13ifvqgb0","pricing_plan_id":"cebpf4jnsgd1na2vs0mg"},{"bike_id":"58a278f8-8ea4-4b76-a9bf-0d4dc0e128dc","system_id":"levelo_inurba_marseille","lat":43.25827,"lon":5.39441,"is_reserved":false,"is_disabled":false,"rental_uris":{"android":"levelo://app?vid=58a278f8-8ea4-4b76-a9bf-0d4dc0e128dc","ios":"levelo://app?vid=58a278f8-8ea4-4b76-a9bf-0d4dc0e128dc"},"vehicle_type_id":"4","last_reported":1742224242,"current_range_meters":8400,"station_id":"ce4bhip2rcd13ifvqft0","pricing_plan_id":"cebpf4jnsgd1na2vs0mg"},{"bike_id":"b1caf000-cb2b-4aa7-9447-b41fe156b415","system_id":"levelo_inurba_marseille","lat":43.25932,"lon":5.40901,"is_reserved":false,"is_disabled":false,"rental_uris":{"android":"levelo://app?vid=b1caf000-cb2b-4aa7-9447-b41fe156b415","ios":"levelo://app?vid=b1caf000-cb2b-4aa7-9447-b41fe156b415"},"vehicle_type_id":"4","last_reported":1742224242,"current_range_meters":8400,"station_id":"ce4bhm92rcd13ifvqglg","pricing_plan_id":"cebpf4jnsgd1na2vs0mg"},{"bike_id":"2b7011fc-7dee-42c2-86d6-7293fa23c29b","system_id":"levelo_inurba_marseille","lat":43.286136,"lon":5.35108,"is_reserved":false,"is_disabled":true,"rental_uris":{"android":"levelo://app?vid=2b7011fc-7dee-42c2-86d6-7293fa23c29b","ios":"levelo://app?vid=2b7011fc-7dee-42c2-86d6-7293fa23c29b"},"vehicle_type_id":"4","last_reported":1742224242,"current_range_meters":8400,"station_id":"","pricing_plan_id":"cebpf4jnsgd1na2vs0mg"},{"bike_id":"6761eb52-5117-4e08-9320-7ef4b08203c3","system_id":"levelo_inurba_marseille","lat":43.26681,"lon":5.38268,"is_reserved":false,"is_disabled":false,"rental_uris":{"android":"levelo://app?vid=6761eb52-5117-4e08-9320-7ef4b08203c3","ios":"levelo://app?vid=6761eb52-5117-4e08-9320-7ef4b08203c3"},"vehicle_type_id":"4","last_reported":1742224242,"current_range_meters":8000,"station_id":"ce4bhg92rcd13ifvqf90","pricing_plan_id":"cebpf4jnsgd1na2vs0mg"},{"bike_id":"37318ebc-5116-45fa-9b0b-1ded29253926","system_id":"levelo_inurba_marseille","lat":43.27999,"lon":5.41671,"is_reserved":false,"is_disabled":false,"rental_uris":{"android":"levelo://app?vid=37318ebc-5116-45fa-9b0b-1ded29253926","ios":"levelo://app?vid=37318ebc-5116-45fa-9b0b-1ded29253926"},"vehicle_type_id":"4","last_reported":1742224242,"current_range_meters":8800,"station_id":"ce4bho12rcd13ifvqh1g","pricing_plan_id":"cebpf4jnsgd1na2vs0mg"},{"bike_id":"110b157f-d750-4228-8073-da9575787581","system_id":"levelo_inurba_marseille","lat":43.3054,"lon":5.38424,"is_reserved":false,"is_disabled":false,"rental_uris":{"android":"levelo://app?vid=110b157f-d750-4228-8073-da9575787581","ios":"levelo://app?vid=110b157f-d750-4228-8073-da9575787581"},"vehicle_type_id":"4","last_reported":1742224242,"current_range_meters":9200,"station_id":"ce4bgg92rcd13ifvqb30","pricing_plan_id":"cebpf4jnsgd1na2vs0mg"},{"bike_id":"0a018086-283c-4259-a1ff-a9304b066761","system_id":"levelo_inurba_marseille","lat":43.2502,"lon":5.38897,"is_reserved":false,"is_disabled":false,"rental_uris":{"android":"levelo://app?vid=0a018086-283c-4259-a1ff-a9304b066761","ios":"levelo://app?vid=0a018086-283c-4259-a1ff-a9304b066761"},"vehicle_type_id":"4","last_reported":1742224242,"current_range_meters":8400,"station_id":"ce4bhgp2rcd13ifvqfd0","pricing_plan_id":"cebpf4jnsgd1na2vs0mg"},{"bike_id":"e99a08a9-f5db-4e01-a4cb-00ef0ffaad75","system_id":"levelo_inurba_marseille","lat":43.2842,"lon":5.34996,"is_reserved":false,"is_disabled":false,"rental_uris":{"android":"levelo://app?vid=e99a08a9-f5db-4e01-a4cb-00ef0ffaad75","ios":"levelo://app?vid=e99a08a9-f5db-4e01-a4cb-00ef0ffaad75"},"vehicle_type_id":"4","last_reported":1742224242,"current_range_meters":8800,"station_id":"ce4bhbh2rcd13ifvqepg","pricing_plan_id":"cebpf4jnsgd1na2vs0mg"},{"bike_id":"9ee8265a-0fdc-4849-933f-8351e6c3b1de","system_id":"levelo_inurba_marseille","lat":43.23182,"lon":5.39995,"is_reserved":false,"is_disabled":false,"rental_uris":{"android":"levelo://app?vid=9ee8265a-0fdc-4849-933f-8351e6c3b1de","ios":"levelo://app?vid=9ee8265a-0fdc-4849-933f-8351e6c3b1de"},"vehicle_type_id":"4","last_reported":1742224242,"current_range_meters":8800,"station_id":"ce4bhn12rcd13ifvqgqg","pricing_plan_id":"cebpf4jnsgd1na2vs0mg"},{"bike_id":"c610338b-0008-4d1e-8a0a-c61418d52eac","system_id":"levelo_inurba_marseille","lat":43.311,"lon":5.4244,"is_reserved":false,"is_disabled":false,"rental_uris":{"android":"levelo://app?vid=c610338b-0008-4d1e-8a0a-c61418d52eac","ios":"levelo://app?vid=c610338b-0008-4d1e-8a0a-c61418d52eac"},"vehicle_type_id":"4","last_reported":1742224242,"current_range_meters":8800,"station_id":"ce4bhp92rcd13ifvqhag","pricing_plan_id":"cebpf4jnsgd1na2vs0mg"},{"bike_id":"6b16a642-1d28-461a-b58f-22d007c19719","system_id":"levelo_inurba_marseille","lat":43.26556,"lon":5.37288,"is_reserved":false,"is_disabled":false,"rental_uris":{"android":"levelo://app?vid=6b16a642-1d28-461a-b58f-22d007c19719","ios":"levelo://app?vid=6b16a642-1d28-461a-b58f-22d007c19719"},"vehicle_type_id":"4","last_reported":1742224242,"current_range_meters":9200,"station_id":"ce4bhg12rcd13ifvqf70","pricing_plan_id":"cebpf4jnsgd1na2vs0mg"},{"bike_id":"b93f987f-582c-4eb2-91ec-2badd23f30c3","system_id":"levelo_inurba_marseille","lat":43.29617,"lon":5.37716,"is_reserved":false,"is_disabled":false,"rental_uris":{"android":"levelo://app?vid=b93f987f-582c-4eb2-91ec-2badd23f30c3","ios":"levelo://app?vid=b93f987f-582c-4eb2-91ec-2badd23f30c3"},"vehicle_type_id":"4","last_reported":1742224242,"current_range_meters":9200,"station_id":"ce4bgi92rcd13ifvqb90","pricing_plan_id":"cebpf4jnsgd1na2vs0mg"},{"bike_id":"73ba6054-b256-49f9-a881-8617a962027d","system_id":"levelo_inurba_marseille","lat":43.23061,"lon":5.3549,"is_reserved":false,"is_disabled":false,"rental_uris":{"android":"levelo://app?vid=73ba6054-b256-49f9-a881-8617a962027d","ios":"levelo://app?vid=73ba6054-b256-49f9-a881-8617a962027d"},"vehicle_type_id":"4","last_reported":1742224242,"current_range_meters":9200,"station_id":"cpo3342slgdg3j2ifvpg","pricing_plan_id":"cebpf4jnsgd1na2vs0mg"},{"bike_id":"85243c15-2c9b-4159-9d9b-4f8d5cc5647b","system_id":"levelo_inurba_marseille","lat":43.31443,"lon":5.36651,"is_reserved":false,"is_disabled":false,"rental_uris":{"android":"levelo://app?vid=85243c15-2c9b-4159-9d9b-4f8d5cc5647b","ios":"levelo://app?vid=85243c15-2c9b-4159-9d9b-4f8d5cc5647b"},"vehicle_type_id":"4","last_reported":1742224242,"current_range_meters":9200,"station_id":"","pricing_plan_id":"cebpf4jnsgd1na2vs0mg"},{"bike_id":"e95151cd-abc4-4dae-8ab5-1de4cba734f5","system_id":"levelo_inurba_marseille","lat":43.24173,"lon":5.39714,"is_reserved":false,"is_disabled":false,"rental_uris":{"android":"levelo://app?vid=e95151cd-abc4-4dae-8ab5-1de4cba734f5","ios":"levelo://app?vid=e95151cd-abc4-4dae-8ab5-1de4cba734f5"},"vehicle_type_id":"4","last_reported":1742224242,"current_range_meters":9200,"station_id":"ce4bhn12rcd13ifvqgpg","pricing_plan_id":"cebpf4jnsgd1na2vs0mg"},{"bike_id":"1ecb9fc8-c55f-4906-a6b3-3b2b095fb135","system_id":"levelo_inurba_marseille","lat":43.29553,"lon":5.42278,"is_reserved":false,"is_disabled":false,"rental_uris":{"android":"levelo://app?vid=1ecb9fc8-c55f-4906-a6b3-3b2b095fb135","ios":"levelo://app?vid=1ecb9fc8-c55f-4906-a6b3-3b2b095fb135"},"vehicle_type_id":"4","last_reported":1742224242,"current_range_meters":9200,"station_id":"ce4bhph2rcd13ifvqhdg","pricing_plan_id":"cebpf4jnsgd1na2vs0mg"},{"bike_id":"dd117a7c-a536-40a1-91af-43693b0b8fe5","system_id":"levelo_inurba_marseille","lat":43.259,"lon":5.40818,"is_reserved":false,"is_disabled":false,"rental_uris":{"android":"levelo://app?vid=dd117a7c-a536-40a1-91af-43693b0b8fe5","ios":"levelo://app?vid=dd117a7c-a536-40a1-91af-43693b0b8fe5"},"vehicle_type_id":"4","last_reported":1742224242,"current_range_meters":9200,"station_id":"","pricing_plan_id":"cebpf4jnsgd1na2vs0mg"},{"bike_id":"644d1680-4ef2-4dc5-940c-1f01a16b3786","system_id":"levelo_inurba_marseille","lat":43.23965,"lon":5.36635,"is_reserved":false,"is_disabled":false,"rental_uris":{"android":"levelo://app?vid=644d1680-4ef2-4dc5-940c-1f01a16b3786","ios":"levelo://app?vid=644d1680-4ef2-4dc5-940c-1f01a16b3786"},"vehicle_type_id":"4","last_reported":1742224242,"current_range_meters":9200,"station_id":"ce4bhi12rcd13ifvqfp0","pricing_plan_id":"cebpf4jnsgd1na2vs0mg"},{"bike_id":"e0e721b1-c009-4a6b-a340-c83a0d53ecc1","system_id":"levelo_inurba_marseille","lat":43.3235,"lon":5.36742,"is_reserved":false,"is_disabled":false,"rental_uris":{"android":"levelo://app?vid=e0e721b1-c009-4a6b-a340-c83a0d53ecc1","ios":"levelo://app?vid=e0e721b1-c009-4a6b-a340-c83a0d53ecc1"},"vehicle_type_id":"4","last_reported":1742224242,"current_range_meters":9200,"station_id":"ce4bhsh2rcd13ifvqi2g","pricing_plan_id":"cebpf4jnsgd1na2vs0mg"},{"bike_id":"2c80c324-e998-4153-891b-3dea4176fd9b","system_id":"levelo_inurba_marseille","lat":43.32357,"lon":5.42057,"is_reserved":false,"is_disabled":false,"rental_uris":{"android":"levelo://app?vid=2c80c324-e998-4153-891b-3dea4176fd9b","ios":"levelo://app?vid=2c80c324-e998-4153-891b-3dea4176fd9b"},"vehicle_type_id":"4","last_reported":1742224242,"current_range_meters":9200,"station_id":"","pricing_plan_id":"cebpf4jnsgd1na2vs0mg"},{"bike_id":"e8242d0d-3b15-4ca0-b108-ab68f9d5c098","system_id":"levelo_inurba_marseille","lat":43.28272,"lon":5.35078,"is_reserved":false,"is_disabled":false,"rental_uris":{"android":"levelo://app?vid=e8242d0d-3b15-4ca0-b108-ab68f9d5c098","ios":"levelo://app?vid=e8242d0d-3b15-4ca0-b108-ab68f9d5c098"},"vehicle_type_id":"4","last_reported":1742224242,"current_range_meters":9200,"station_id":"ce4bhbp2rcd13ifvqerg","pricing_plan_id":"cebpf4jnsgd1na2vs0mg"},{"bike_id":"649a1820-3813-4ab9-ab93-b0221a9c1c04","system_id":"levelo_inurba_marseille","lat":43.27217,"lon":5.39205,"is_reserved":false,"is_disabled":false,"rental_uris":{"android":"levelo://app?vid=649a1820-3813-4ab9-ab93-b0221a9c1c04","ios":"levelo://app?vid=649a1820-3813-4ab9-ab93-b0221a9c1c04"},"vehicle_type_id":"4","last_reported":1742224242,"current_range_meters":9200,"station_id":"ce4bhhp2rcd13ifvqfm0","pricing_plan_id":"cebpf4jnsgd1na2vs0mg"},{"bike_id":"e10a2bc9-ebc3-40e9-a4e2-42ccab6297cf","system_id":"levelo_inurba_marseille","lat":43.2756,"lon":5.38432,"is_reserved":false,"is_disabled":false,"rental_uris":{"android":"levelo://app?vid=e10a2bc9-ebc3-40e9-a4e2-42ccab6297cf","ios":"levelo://app?vid=e10a2bc9-ebc3-40e9-a4e2-42ccab6297cf"},"vehicle_type_id":"4","last_reported":1742224242,"current_range_meters":9200,"station_id":"ce4bhh92rcd13ifvqfi0","pricing_plan_id":"cebpf4jnsgd1na2vs0mg"},{"bike_id":"3f3917b2-0edf-47a4-83c9-ca8fcf5cba45","system_id":"levelo_inurba_marseille","lat":43.27623,"lon":5.42478,"is_reserved":false,"is_disabled":false,"rental_uris":{"android":"levelo://app?vid=3f3917b2-0edf-47a4-83c9-ca8fcf5cba45","ios":"levelo://app?vid=3f3917b2-0edf-47a4-83c9-ca8fcf5cba45"},"vehicle_type_id":"4","last_reported":1742224242,"current_range_meters":9200,"station_id":"","pricing_plan_id":"cebpf4jnsgd1na2vs0mg"},{"bike_id":"86fdbf7c-823d-4a20-b07c-6a4e04c85d04","system_id":"levelo_inurba_marseille","lat":43.32035,"lon":5.41555,"is_reserved":false,"is_disabled":false,"rental_uris":{"android":"levelo://app?vid=86fdbf7c-823d-4a20-b07c-6a4e04c85d04","ios":"levelo://app?vid=86fdbf7c-823d-4a20-b07c-6a4e04c85d04"},"vehicle_type_id":"4","last_reported":1742224242,"current_range_meters":9200,"station_id":"ce4bhq92rcd13ifvqhkg","pricing_plan_id":"cebpf4jnsgd1na2vs0mg"},{"bike_id":"85d87f2d-ca0f-405a-bce8-a1269c2dc06e","system_id":"levelo_inurba_marseille","lat":43.2696,"lon":5.3861,"is_reserved":false,"is_disabled":false,"rental_uris":{"android":"levelo://app?vid=85d87f2d-ca0f-405a-bce8-a1269c2dc06e","ios":"levelo://app?vid=85d87f2d-ca0f-405a-bce8-a1269c2dc06e"},"vehicle_type_id":"4","last_reported":1742224242,"current_range_meters":9200,"station_id":"ce4bhh92rcd13ifvqfh0","pricing_plan_id":"cebpf4jnsgd1na2vs0mg"},{"bike_id":"c532d59e-39e8-43d7-9452-2db466e08640","system_id":"levelo_inurba_marseille","lat":43.23153,"lon":5.43699,"is_reserved":false,"is_disabled":false,"rental_uris":{"android":"levelo://app?vid=c532d59e-39e8-43d7-9452-2db466e08640","ios":"levelo://app?vid=c532d59e-39e8-43d7-9452-2db466e08640"},"vehicle_type_id":"4","last_reported":1742224242,"current_range_meters":9600,"station_id":"ce4bhmp2rcd13ifvqgog","pricing_plan_id":"cebpf4jnsgd1na2vs0mg"},{"bike_id":"2caf4a9a-0fdc-4be8-99c3-92290684314e","system_id":"levelo_inurba_marseille","lat":43.24996,"lon":5.38971,"is_reserved":false,"is_disabled":false,"rental_uris":{"android":"levelo://app?vid=2caf4a9a-0fdc-4be8-99c3-92290684314e","ios":"levelo://app?vid=2caf4a9a-0fdc-4be8-99c3-92290684314e"},"vehicle_type_id":"4","last_reported":1742224242,"current_range_meters":9600,"station_id":"ce4bhgp2rcd13ifvqfd0","pricing_plan_id":"cebpf4jnsgd1na2vs0mg"},{"bike_id":"6d8e8090-a4c7-4966-a3f4-a833922b9e5a","system_id":"levelo_inurba_marseille","lat":43.23201,"lon":5.3555,"is_reserved":false,"is_disabled":false,"rental_uris":{"android":"levelo://app?vid=6d8e8090-a4c7-4966-a3f4-a833922b9e5a","ios":"levelo://app?vid=6d8e8090-a4c7-4966-a3f4-a833922b9e5a"},"vehicle_type_id":"4","last_reported":1742224242,"current_range_meters":9600,"station_id":"ce4bhu92rcd13ifvqi70","pricing_plan_id":"cebpf4jnsgd1na2vs0mg"},{"bike_id":"71ab1ae7-62b1-4d42-aa0f-dcde40ca280e","system_id":"levelo_inurba_marseille","lat":43.2592,"lon":5.40952,"is_reserved":false,"is_disabled":false,"rental_uris":{"android":"levelo://app?vid=71ab1ae7-62b1-4d42-aa0f-dcde40ca280e","ios":"levelo://app?vid=71ab1ae7-62b1-4d42-aa0f-dcde40ca280e"},"vehicle_type_id":"4","last_reported":1742224242,"current_range_meters":9600,"station_id":"ce4bhm92rcd13ifvqglg","pricing_plan_id":"cebpf4jnsgd1na2vs0mg"},{"bike_id":"d5df88ae-5b46-46bb-8522-51d1234ccff8","system_id":"levelo_inurba_marseille","lat":43.23201,"lon":5.35548,"is_reserved":false,"is_disabled":false,"rental_uris":{"android":"levelo://app?vid=d5df88ae-5b46-46bb-8522-51d1234ccff8","ios":"levelo://app?vid=d5df88ae-5b46-46bb-8522-51d1234ccff8"},"vehicle_type_id":"4","last_reported":1742224242,"current_range_meters":9200,"station_id":"ce4bhu92rcd13ifvqi70","pricing_plan_id":"cebpf4jnsgd1na2vs0mg"},{"bike_id":"68c57267-0826-45b1-820f-19fbd105c8f5","system_id":"levelo_inurba_marseille","lat":43.25493,"lon":5.37647,"is_reserved":false,"is_disabled":false,"rental_uris":{"android":"levelo://app?vid=68c57267-0826-45b1-820f-19fbd105c8f5","ios":"levelo://app?vid=68c57267-0826-45b1-820f-19fbd105c8f5"},"vehicle_type_id":"4","last_reported":1742224242,"current_range_meters":9600,"station_id":"ce4bhh12rcd13ifvqff0","pricing_plan_id":"cebpf4jnsgd1na2vs0mg"},{"bike_id":"62399145-9ad9-4901-bac2-91a881fc5d30","system_id":"levelo_inurba_marseille","lat":43.2314,"lon":5.43696,"is_reserved":false,"is_disabled":false,"rental_uris":{"android":"levelo://app?vid=62399145-9ad9-4901-bac2-91a881fc5d30","ios":"levelo://app?vid=62399145-9ad9-4901-bac2-91a881fc5d30"},"vehicle_type_id":"4","last_reported":1742224242,"current_range_meters":9600,"station_id":"ce4bhmp2rcd13ifvqgog","pricing_plan_id":"cebpf4jnsgd1na2vs0mg"},{"bike_id":"fa5f15ab-8994-45e1-84de-31aa4c8b3ced","system_id":"levelo_inurba_marseille","lat":43.23175,"lon":5.35577,"is_reserved":false,"is_disabled":false,"rental_uris":{"android":"levelo://app?vid=fa5f15ab-8994-45e1-84de-31aa4c8b3ced","ios":"levelo://app?vid=fa5f15ab-8994-45e1-84de-31aa4c8b3ced"},"vehicle_type_id":"4","last_reported":1742224242,"current_range_meters":9600,"station_id":"ce4bhu92rcd13ifvqi70","pricing_plan_id":"cebpf4jnsgd1na2vs0mg"},{"bike_id":"fdd56a3e-db28-485a-ba53-21439e7aa6ca","system_id":"levelo_inurba_marseille","lat":43.23151,"lon":5.43708,"is_reserved":false,"is_disabled":false,"rental_uris":{"android":"levelo://app?vid=fdd56a3e-db28-485a-ba53-21439e7aa6ca","ios":"levelo://app?vid=fdd56a3e-db28-485a-ba53-21439e7aa6ca"},"vehicle_type_id":"4","last_reported":1742224242,"current_range_meters":9600,"station_id":"ce4bhmp2rcd13ifvqgog","pricing_plan_id":"cebpf4jnsgd1na2vs0mg"},{"bike_id":"f54ca62e-ff46-465d-a658-7a04756d9eba","system_id":"levelo_inurba_marseille","lat":43.29268,"lon":5.36857,"is_reserved":false,"is_disabled":false,"rental_uris":{"android":"levelo://app?vid=f54ca62e-ff46-465d-a658-7a04756d9eba","ios":"levelo://app?vid=f54ca62e-ff46-465d-a658-7a04756d9eba"},"vehicle_type_id":"4","last_reported":1742224242,"current_range_meters":9600,"station_id":"ce4bhbp2rcd13ifvqesg","pricing_plan_id":"cebpf4jnsgd1na2vs0mg"},{"bike_id":"5f0680d4-d6b6-4b0b-9812-761486c229a7","system_id":"levelo_inurba_marseille","lat":43.22925,"lon":5.35383,"is_reserved":false,"is_disabled":false,"rental_uris":{"android":"levelo://app?vid=5f0680d4-d6b6-4b0b-9812-761486c229a7","ios":"levelo://app?vid=5f0680d4-d6b6-4b0b-9812-761486c229a7"},"vehicle_type_id":"4","last_reported":1742224242,"current_range_meters":9600,"station_id":"cpo3532slgdg3j2ikp40","pricing_plan_id":"cebpf4jnsgd1na2vs0mg"},{"bike_id":"b54a649d-2707-4569-87ee-d2c230e19409","system_id":"levelo_inurba_marseille","lat":43.27452,"lon":5.40906,"is_reserved":false,"is_disabled":false,"rental_uris":{"android":"levelo://app?vid=b54a649d-2707-4569-87ee-d2c230e19409","ios":"levelo://app?vid=b54a649d-2707-4569-87ee-d2c230e19409"},"vehicle_type_id":"4","last_reported":1742224242,"current_range_meters":9600,"station_id":"","pricing_plan_id":"cebpf4jnsgd1na2vs0mg"},{"bike_id":"836e6160-43fb-4e74-bca4-6228c501760e","system_id":"levelo_inurba_marseille","lat":43.25505,"lon":5.37668,"is_reserved":false,"is_disabled":false,"rental_uris":{"android":"levelo://app?vid=836e6160-43fb-4e74-bca4-6228c501760e","ios":"levelo://app?vid=836e6160-43fb-4e74-bca4-6228c501760e"},"vehicle_type_id":"4","last_reported":1742224242,"current_range_meters":9600,"station_id":"ce4bhh12rcd13ifvqff0","pricing_plan_id":"cebpf4jnsgd1na2vs0mg"},{"bike_id":"4d37376e-5944-402f-8fbb-7d0f48a208aa","system_id":"levelo_inurba_marseille","lat":43.32365,"lon":5.36746,"is_reserved":false,"is_disabled":false,"rental_uris":{"android":"levelo://app?vid=4d37376e-5944-402f-8fbb-7d0f48a208aa","ios":"levelo://app?vid=4d37376e-5944-402f-8fbb-7d0f48a208aa"},"vehicle_type_id":"4","last_reported":1742224242,"current_range_meters":9600,"station_id":"ce4bhsh2rcd13ifvqi2g","pricing_plan_id":"cebpf4jnsgd1na2vs0mg"},{"bike_id":"cc843ebf-c99e-4fc7-8a85-ccb338be8619","system_id":"levelo_inurba_marseille","lat":43.26218,"lon":5.37452,"is_reserved":false,"is_disabled":false,"rental_uris":{"android":"levelo://app?vid=cc843ebf-c99e-4fc7-8a85-ccb338be8619","ios":"levelo://app?vid=cc843ebf-c99e-4fc7-8a85-ccb338be8619"},"vehicle_type_id":"4","last_reported":1742224242,"current_range_meters":9600,"station_id":"ce4bhgp2rcd13ifvqfc0","pricing_plan_id":"cebpf4jnsgd1na2vs0mg"},{"bike_id":"e69a4e43-e93c-42ee-8c25-38460f4a4d27","system_id":"levelo_inurba_marseille","lat":43.27061,"lon":5.4027,"is_reserved":false,"is_disabled":false,"rental_uris":{"android":"levelo://app?vid=e69a4e43-e93c-42ee-8c25-38460f4a4d27","ios":"levelo://app?vid=e69a4e43-e93c-42ee-8c25-38460f4a4d27"},"vehicle_type_id":"4","last_reported":1742224242,"current_range_meters":10000,"station_id":"ce4bhk92rcd13ifvqgc0","pricing_plan_id":"cebpf4jnsgd1na2vs0mg"},{"bike_id":"d155b6d7-4f04-4869-a663-a1baa5b8f97e","system_id":"levelo_inurba_marseille","lat":43.23187,"lon":5.35563,"is_reserved":false,"is_disabled":false,"rental_uris":{"android":"levelo://app?vid=d155b6d7-4f04-4869-a663-a1baa5b8f97e","ios":"levelo://app?vid=d155b6d7-4f04-4869-a663-a1baa5b8f97e"},"vehicle_type_id":"4","last_reported":1742224242,"current_range_meters":10000,"station_id":"ce4bhu92rcd13ifvqi70","pricing_plan_id":"cebpf4jnsgd1na2vs0mg"},{"bike_id":"2cfea23f-97b4-4970-9375-fe39f97bb29e","system_id":"levelo_inurba_marseille","lat":43.26207,"lon":5.37906,"is_reserved":false,"is_disabled":false,"rental_uris":{"android":"levelo://app?vid=2cfea23f-97b4-4970-9375-fe39f97bb29e","ios":"levelo://app?vid=2cfea23f-97b4-4970-9375-fe39f97bb29e"},"vehicle_type_id":"4","last_reported":1742224242,"current_range_meters":10000,"station_id":"ce4bhjp2rcd13ifvqg90","pricing_plan_id":"cebpf4jnsgd1na2vs0mg"},{"bike_id":"8248000c-a654-46c1-b16e-2bc312e30a82","system_id":"levelo_inurba_marseille","lat":43.2905,"lon":5.3591,"is_reserved":false,"is_disabled":false,"rental_uris":{"android":"levelo://app?vid=8248000c-a654-46c1-b16e-2bc312e30a82","ios":"levelo://app?vid=8248000c-a654-46c1-b16e-2bc312e30a82"},"vehicle_type_id":"4","last_reported":1742224242,"current_range_meters":10000,"station_id":"ce4bha92rcd13ifvqeg0","pricing_plan_id":"cebpf4jnsgd1na2vs0mg"},{"bike_id":"70cae1f3-5abb-4f8b-b484-647e3631bfaa","system_id":"levelo_inurba_marseille","lat":43.28153,"lon":5.42657,"is_reserved":false,"is_disabled":false,"rental_uris":{"android":"levelo://app?vid=70cae1f3-5abb-4f8b-b484-647e3631bfaa","ios":"levelo://app?vid=70cae1f3-5abb-4f8b-b484-647e3631bfaa"},"vehicle_type_id":"4","last_reported":1742224242,"current_range_meters":10000,"station_id":"ce4bhnh2rcd13ifvqgug","pricing_plan_id":"cebpf4jnsgd1na2vs0mg"},{"bike_id":"857ef143-5138-4792-9b9b-d0725de73e0e","system_id":"levelo_inurba_marseille","lat":43.31343,"lon":5.36713,"is_reserved":false,"is_disabled":false,"rental_uris":{"android":"levelo://app?vid=857ef143-5138-4792-9b9b-d0725de73e0e","ios":"levelo://app?vid=857ef143-5138-4792-9b9b-d0725de73e0e"},"vehicle_type_id":"4","last_reported":1742224242,"current_range_meters":10000,"station_id":"ce4bgr92rcd13ifvqc6g","pricing_plan_id":"cebpf4jnsgd1na2vs0mg"},{"bike_id":"b0346890-f5a6-4328-94db-223df6bf9144","system_id":"levelo_inurba_marseille","lat":43.29612,"lon":5.38109,"is_reserved":false,"is_disabled":false,"rental_uris":{"android":"levelo://app?vid=b0346890-f5a6-4328-94db-223df6bf9144","ios":"levelo://app?vid=b0346890-f5a6-4328-94db-223df6bf9144"},"vehicle_type_id":"4","last_reported":1742224242,"current_range_meters":10000,"station_id":"ce4bgl12rcd13ifvqbo0","pricing_plan_id":"cebpf4jnsgd1na2vs0mg"},{"bike_id":"00620a36-546f-4468-8a2c-399aef8da33b","system_id":"levelo_inurba_marseille","lat":43.28183,"lon":5.42632,"is_reserved":false,"is_disabled":false,"rental_uris":{"android":"levelo://app?vid=00620a36-546f-4468-8a2c-399aef8da33b","ios":"levelo://app?vid=00620a36-546f-4468-8a2c-399aef8da33b"},"vehicle_type_id":"4","last_reported":1742224242,"current_range_meters":10000,"station_id":"ce4bhnh2rcd13ifvqgug","pricing_plan_id":"cebpf4jnsgd1na2vs0mg"},{"bike_id":"d0ae4d71-6fe1-4bf2-aa35-8d6f43fda438","system_id":"levelo_inurba_marseille","lat":43.2885,"lon":5.35855,"is_reserved":false,"is_disabled":false,"rental_uris":{"android":"levelo://app?vid=d0ae4d71-6fe1-4bf2-aa35-8d6f43fda438","ios":"levelo://app?vid=d0ae4d71-6fe1-4bf2-aa35-8d6f43fda438"},"vehicle_type_id":"4","last_reported":1742224242,"current_range_meters":10000,"station_id":"ce4bhb12rcd13ifvqem0","pricing_plan_id":"cebpf4jnsgd1na2vs0mg"},{"bike_id":"0668d844-8af2-4798-a692-ebe7f40f59fc","system_id":"levelo_inurba_marseille","lat":43.3178,"lon":5.39033,"is_reserved":false,"is_disabled":false,"rental_uris":{"android":"levelo://app?vid=0668d844-8af2-4798-a692-ebe7f40f59fc","ios":"levelo://app?vid=0668d844-8af2-4798-a692-ebe7f40f59fc"},"vehicle_type_id":"4","last_reported":1742224242,"current_range_meters":8800,"station_id":"ce4bhqp2rcd13ifvqhng","pricing_plan_id":"cebpf4jnsgd1na2vs0mg"},{"bike_id":"b1b41327-66f3-4983-ac80-93a6af2a034d","system_id":"levelo_inurba_marseille","lat":43.23066,"lon":5.35498,"is_reserved":false,"is_disabled":false,"rental_uris":{"android":"levelo://app?vid=b1b41327-66f3-4983-ac80-93a6af2a034d","ios":"levelo://app?vid=b1b41327-66f3-4983-ac80-93a6af2a034d"},"vehicle_type_id":"4","last_reported":1742224242,"current_range_meters":10800,"station_id":"cpo3342slgdg3j2ifvpg","pricing_plan_id":"cebpf4jnsgd1na2vs0mg"},{"bike_id":"780deb50-a73a-4c97-bf0b-2f8b14b19155","system_id":"levelo_inurba_marseille","lat":43.30261,"lon":5.40083,"is_reserved":false,"is_disabled":false,"rental_uris":{"android":"levelo://app?vid=780deb50-a73a-4c97-bf0b-2f8b14b19155","ios":"levelo://app?vid=780deb50-a73a-4c97-bf0b-2f8b14b19155"},"vehicle_type_id":"4","last_reported":1742224242,"current_range_meters":10800,"station_id":"ce4bgvh2rcd13ifvqcs0","pricing_plan_id":"cebpf4jnsgd1na2vs0mg"},{"bike_id":"50d5a895-aeab-4551-8d24-4548fb8a1c51","system_id":"levelo_inurba_marseille","lat":43.27903,"lon":5.37994,"is_reserved":false,"is_disabled":false,"rental_uris":{"android":"levelo://app?vid=50d5a895-aeab-4551-8d24-4548fb8a1c51","ios":"levelo://app?vid=50d5a895-aeab-4551-8d24-4548fb8a1c51"},"vehicle_type_id":"4","last_reported":1742224242,"current_range_meters":11200,"station_id":"ce4bhf92rcd13ifvqf50","pricing_plan_id":"cebpf4jnsgd1na2vs0mg"},{"bike_id":"703447d3-0a6e-4767-a0f7-81222e2c6326","system_id":"levelo_inurba_marseille","lat":43.2816,"lon":5.42631,"is_reserved":false,"is_disabled":false,"rental_uris":{"android":"levelo://app?vid=703447d3-0a6e-4767-a0f7-81222e2c6326","ios":"levelo://app?vid=703447d3-0a6e-4767-a0f7-81222e2c6326"},"vehicle_type_id":"4","last_reported":1742224242,"current_range_meters":10800,"station_id":"ce4bhnh2rcd13ifvqgug","pricing_plan_id":"cebpf4jnsgd1na2vs0mg"},{"bike_id":"fddb55d4-2f6d-458b-a063-69a98e83f2fb","system_id":"levelo_inurba_marseille","lat":43.24173,"lon":5.39735,"is_reserved":false,"is_disabled":false,"rental_uris":{"android":"levelo://app?vid=fddb55d4-2f6d-458b-a063-69a98e83f2fb","ios":"levelo://app?vid=fddb55d4-2f6d-458b-a063-69a98e83f2fb"},"vehicle_type_id":"4","last_reported":1742224242,"current_range_meters":10800,"station_id":"ce4bhn12rcd13ifvqgpg","pricing_plan_id":"cebpf4jnsgd1na2vs0mg"},{"bike_id":"3d5016d1-6687-4220-aa49-28bbd107ce48","system_id":"levelo_inurba_marseille","lat":43.25932,"lon":5.40849,"is_reserved":false,"is_disabled":false,"rental_uris":{"android":"levelo://app?vid=3d5016d1-6687-4220-aa49-28bbd107ce48","ios":"levelo://app?vid=3d5016d1-6687-4220-aa49-28bbd107ce48"},"vehicle_type_id":"4","last_reported":1742224242,"current_range_meters":10800,"station_id":"ce4bhm92rcd13ifvqglg","pricing_plan_id":"cebpf4jnsgd1na2vs0mg"},{"bike_id":"1e6bba5d-5a6b-47c1-964a-fc01f3515e69","system_id":"levelo_inurba_marseille","lat":43.23166,"lon":5.43697,"is_reserved":false,"is_disabled":false,"rental_uris":{"android":"levelo://app?vid=1e6bba5d-5a6b-47c1-964a-fc01f3515e69","ios":"levelo://app?vid=1e6bba5d-5a6b-47c1-964a-fc01f3515e69"},"vehicle_type_id":"4","last_reported":1742224242,"current_range_meters":10800,"station_id":"ce4bhmp2rcd13ifvqgog","pricing_plan_id":"cebpf4jnsgd1na2vs0mg"},{"bike_id":"0d3accb9-853e-4df0-b9d8-4607b8048f46","system_id":"levelo_inurba_marseille","lat":43.24176,"lon":5.36377,"is_reserved":false,"is_disabled":false,"rental_uris":{"android":"levelo://app?vid=0d3accb9-853e-4df0-b9d8-4607b8048f46","ios":"levelo://app?vid=0d3accb9-853e-4df0-b9d8-4607b8048f46"},"vehicle_type_id":"4","last_reported":1742224242,"current_range_meters":10800,"station_id":"cpo36qri1sfpv3e86is0","pricing_plan_id":"cebpf4jnsgd1na2vs0mg"},{"bike_id":"9f1541ea-a47c-4463-b934-3f2a9866c617","system_id":"levelo_inurba_marseille","lat":43.28713,"lon":5.38602,"is_reserved":false,"is_disabled":false,"rental_uris":{"android":"levelo://app?vid=9f1541ea-a47c-4463-b934-3f2a9866c617","ios":"levelo://app?vid=9f1541ea-a47c-4463-b934-3f2a9866c617"},"vehicle_type_id":"4","last_reported":1742224242,"current_range_meters":10000,"station_id":"ce4bh492rcd13ifvqdug","pricing_plan_id":"cebpf4jnsgd1na2vs0mg"},{"bike_id":"6f269e2d-5984-437a-a538-7f120c4fc7dd","system_id":"levelo_inurba_marseille","lat":43.23064,"lon":5.35488,"is_reserved":false,"is_disabled":false,"rental_uris":{"android":"levelo://app?vid=6f269e2d-5984-437a-a538-7f120c4fc7dd","ios":"levelo://app?vid=6f269e2d-5984-437a-a538-7f120c4fc7dd"},"vehicle_type_id":"4","last_reported":1742224242,"current_range_meters":10800,"station_id":"cpo3342slgdg3j2ifvpg","pricing_plan_id":"cebpf4jnsgd1na2vs0mg"},{"bike_id":"8fe7e33b-57fc-439c-ba02-015988635c80","system_id":"levelo_inurba_marseille","lat":43.27075,"lon":5.42272,"is_reserved":false,"is_disabled":true,"rental_uris":{"android":"levelo://app?vid=8fe7e33b-57fc-439c-ba02-015988635c80","ios":"levelo://app?vid=8fe7e33b-57fc-439c-ba02-015988635c80"},"vehicle_type_id":"4","last_reported":1742224242,"current_range_meters":10800,"station_id":"ce4bhk92rcd13ifvqgb0","pricing_plan_id":"cebpf4jnsgd1na2vs0mg"},{"bike_id":"aec1e65c-daab-454b-8910-46f19c20e587","system_id":"levelo_inurba_marseille","lat":43.25909,"lon":5.40867,"is_reserved":false,"is_disabled":false,"rental_uris":{"android":"levelo://app?vid=aec1e65c-daab-454b-8910-46f19c20e587","ios":"levelo://app?vid=aec1e65c-daab-454b-8910-46f19c20e587"},"vehicle_type_id":"4","last_reported":1742224242,"current_range_meters":10800,"station_id":"ce4bhm92rcd13ifvqglg","pricing_plan_id":"cebpf4jnsgd1na2vs0mg"},{"bike_id":"021d8e52-1d54-4904-b972-67a3e75557ed","system_id":"levelo_inurba_marseille","lat":43.29019,"lon":5.38649,"is_reserved":false,"is_disabled":false,"rental_uris":{"android":"levelo://app?vid=021d8e52-1d54-4904-b972-67a3e75557ed","ios":"levelo://app?vid=021d8e52-1d54-4904-b972-67a3e75557ed"},"vehicle_type_id":"4","last_reported":1742224242,"current_range_meters":10800,"station_id":"ce4bh4p2rcd13ifvqe0g","pricing_plan_id":"cebpf4jnsgd1na2vs0mg"},{"bike_id":"778bb9be-cac9-4071-8852-fa6565752a0d","system_id":"levelo_inurba_marseille","lat":43.30153,"lon":5.38085,"is_reserved":false,"is_disabled":false,"rental_uris":{"android":"levelo://app?vid=778bb9be-cac9-4071-8852-fa6565752a0d","ios":"levelo://app?vid=778bb9be-cac9-4071-8852-fa6565752a0d"},"vehicle_type_id":"4","last_reported":1742224242,"current_range_meters":10000,"station_id":"ce4bgjp2rcd13ifvqbh0","pricing_plan_id":"cebpf4jnsgd1na2vs0mg"},{"bike_id":"286da521-aa1d-485a-8adb-321b712ff550","system_id":"levelo_inurba_marseille","lat":43.23151,"lon":5.43722,"is_reserved":false,"is_disabled":false,"rental_uris":{"android":"levelo://app?vid=286da521-aa1d-485a-8adb-321b712ff550","ios":"levelo://app?vid=286da521-aa1d-485a-8adb-321b712ff550"},"vehicle_type_id":"4","last_reported":1742224242,"current_range_meters":10800,"station_id":"ce4bhmp2rcd13ifvqgog","pricing_plan_id":"cebpf4jnsgd1na2vs0mg"},{"bike_id":"2665cc4b-07ed-4ae6-a66f-2b09983c709d","system_id":"levelo_inurba_marseille","lat":43.33761,"lon":5.37489,"is_reserved":false,"is_disabled":false,"rental_uris":{"android":"levelo://app?vid=2665cc4b-07ed-4ae6-a66f-2b09983c709d","ios":"levelo://app?vid=2665cc4b-07ed-4ae6-a66f-2b09983c709d"},"vehicle_type_id":"4","last_reported":1742224242,"current_range_meters":11200,"station_id":"","pricing_plan_id":"cebpf4jnsgd1na2vs0mg"},{"bike_id":"c16ac4e9-9604-44a8-b213-255959ff7c04","system_id":"levelo_inurba_marseille","lat":43.28264,"lon":5.35072,"is_reserved":false,"is_disabled":false,"rental_uris":{"android":"levelo://app?vid=c16ac4e9-9604-44a8-b213-255959ff7c04","ios":"levelo://app?vid=c16ac4e9-9604-44a8-b213-255959ff7c04"},"vehicle_type_id":"4","last_reported":1742224242,"current_range_meters":11200,"station_id":"ce4bhbp2rcd13ifvqerg","pricing_plan_id":"cebpf4jnsgd1na2vs0mg"},{"bike_id":"7a8a8ccb-b5ee-4bab-9535-af226cc12302","system_id":"levelo_inurba_marseille","lat":43.29073,"lon":5.42355,"is_reserved":false,"is_disabled":false,"rental_uris":{"android":"levelo://app?vid=7a8a8ccb-b5ee-4bab-9535-af226cc12302","ios":"levelo://app?vid=7a8a8ccb-b5ee-4bab-9535-af226cc12302"},"vehicle_type_id":"4","last_reported":1742224242,"current_range_meters":11200,"station_id":"","pricing_plan_id":"cebpf4jnsgd1na2vs0mg"},{"bike_id":"42833c33-f9f4-4008-a9b0-9e49b23b442a","system_id":"levelo_inurba_marseille","lat":43.29894,"lon":5.38896,"is_reserved":false,"is_disabled":false,"rental_uris":{"android":"levelo://app?vid=42833c33-f9f4-4008-a9b0-9e49b23b442a","ios":"levelo://app?vid=42833c33-f9f4-4008-a9b0-9e49b23b442a"},"vehicle_type_id":"4","last_reported":1742224242,"current_range_meters":11200,"station_id":"ce4bh392rcd13ifvqdl0","pricing_plan_id":"cebpf4jnsgd1na2vs0mg"},{"bike_id":"593f0f80-f0f8-4be5-90a3-684a7f8897bf","system_id":"levelo_inurba_marseille","lat":43.25943,"lon":5.40904,"is_reserved":false,"is_disabled":false,"rental_uris":{"android":"levelo://app?vid=593f0f80-f0f8-4be5-90a3-684a7f8897bf","ios":"levelo://app?vid=593f0f80-f0f8-4be5-90a3-684a7f8897bf"},"vehicle_type_id":"4","last_reported":1742224242,"current_range_meters":11200,"station_id":"ce4bhm92rcd13ifvqglg","pricing_plan_id":"cebpf4jnsgd1na2vs0mg"},{"bike_id":"be16e40a-5767-44ed-aa75-2a81c0e433d3","system_id":"levelo_inurba_marseille","lat":43.32563,"lon":5.41453,"is_reserved":false,"is_disabled":false,"rental_uris":{"android":"levelo://app?vid=be16e40a-5767-44ed-aa75-2a81c0e433d3","ios":"levelo://app?vid=be16e40a-5767-44ed-aa75-2a81c0e433d3"},"vehicle_type_id":"4","last_reported":1742224242,"current_range_meters":11600,"station_id":"ce4bhq12rcd13ifvqhhg","pricing_plan_id":"cebpf4jnsgd1na2vs0mg"},{"bike_id":"c34aaf33-0bee-4add-b585-91bc8a67854f","system_id":"levelo_inurba_marseille","lat":43.31998,"lon":5.38167,"is_reserved":false,"is_disabled":false,"rental_uris":{"android":"levelo://app?vid=c34aaf33-0bee-4add-b585-91bc8a67854f","ios":"levelo://app?vid=c34aaf33-0bee-4add-b585-91bc8a67854f"},"vehicle_type_id":"4","last_reported":1742224242,"current_range_meters":11600,"station_id":"ce4bhr12rcd13ifvqhpg","pricing_plan_id":"cebpf4jnsgd1na2vs0mg"},{"bike_id":"5c07f3ca-a9f9-47ce-89e2-28a4e4e57955","system_id":"levelo_inurba_marseille","lat":43.26565,"lon":5.39023,"is_reserved":false,"is_disabled":false,"rental_uris":{"android":"levelo://app?vid=5c07f3ca-a9f9-47ce-89e2-28a4e4e57955","ios":"levelo://app?vid=5c07f3ca-a9f9-47ce-89e2-28a4e4e57955"},"vehicle_type_id":"4","last_reported":1742224242,"current_range_meters":11600,"station_id":"ce4bhe12rcd13ifvqf30","pricing_plan_id":"cebpf4jnsgd1na2vs0mg"},{"bike_id":"8d1ad279-0915-46e7-acc6-ea0d57e605c5","system_id":"levelo_inurba_marseille","lat":43.2901,"lon":5.356,"is_reserved":false,"is_disabled":false,"rental_uris":{"android":"levelo://app?vid=8d1ad279-0915-46e7-acc6-ea0d57e605c5","ios":"levelo://app?vid=8d1ad279-0915-46e7-acc6-ea0d57e605c5"},"vehicle_type_id":"4","last_reported":1742224242,"current_range_meters":11600,"station_id":"ce4bhb92rcd13ifvqen0","pricing_plan_id":"cebpf4jnsgd1na2vs0mg"},{"bike_id":"57ef593f-f618-45ca-8b97-31a47543ae66","system_id":"levelo_inurba_marseille","lat":43.23207,"lon":5.35562,"is_reserved":false,"is_disabled":false,"rental_uris":{"android":"levelo://app?vid=57ef593f-f618-45ca-8b97-31a47543ae66","ios":"levelo://app?vid=57ef593f-f618-45ca-8b97-31a47543ae66"},"vehicle_type_id":"4","last_reported":1742224242,"current_range_meters":11600,"station_id":"ce4bhu92rcd13ifvqi70","pricing_plan_id":"cebpf4jnsgd1na2vs0mg"},{"bike_id":"7ba1e3fe-e301-487b-a701-faf19b9271bc","system_id":"levelo_inurba_marseille","lat":43.25925,"lon":5.40901,"is_reserved":false,"is_disabled":false,"rental_uris":{"android":"levelo://app?vid=7ba1e3fe-e301-487b-a701-faf19b9271bc","ios":"levelo://app?vid=7ba1e3fe-e301-487b-a701-faf19b9271bc"},"vehicle_type_id":"4","last_reported":1742224242,"current_range_meters":11600,"station_id":"ce4bhm92rcd13ifvqglg","pricing_plan_id":"cebpf4jnsgd1na2vs0mg"},{"bike_id":"0e9a9167-2ed3-4e5f-bef9-de029ff38312","system_id":"levelo_inurba_marseille","lat":43.28282,"lon":5.35091,"is_reserved":false,"is_disabled":false,"rental_uris":{"android":"levelo://app?vid=0e9a9167-2ed3-4e5f-bef9-de029ff38312","ios":"levelo://app?vid=0e9a9167-2ed3-4e5f-bef9-de029ff38312"},"vehicle_type_id":"4","last_reported":1742224242,"current_range_meters":11600,"station_id":"ce4bhbp2rcd13ifvqerg","pricing_plan_id":"cebpf4jnsgd1na2vs0mg"},{"bike_id":"4ae5b7d5-b80a-444e-9f12-eae78afeb051","system_id":"levelo_inurba_marseille","lat":43.30544,"lon":5.36526,"is_reserved":false,"is_disabled":false,"rental_uris":{"android":"levelo://app?vid=4ae5b7d5-b80a-444e-9f12-eae78afeb051","ios":"levelo://app?vid=4ae5b7d5-b80a-444e-9f12-eae78afeb051"},"vehicle_type_id":"4","last_reported":1742224242,"current_range_meters":11600,"station_id":"ce4bgs12rcd13ifvqcag","pricing_plan_id":"cebpf4jnsgd1na2vs0mg"},{"bike_id":"ba17eb78-f062-4f77-b8b0-1a4a31d62a9e","system_id":"levelo_inurba_marseille","lat":43.25715,"lon":5.41107,"is_reserved":false,"is_disabled":true,"rental_uris":{"android":"levelo://app?vid=ba17eb78-f062-4f77-b8b0-1a4a31d62a9e","ios":"levelo://app?vid=ba17eb78-f062-4f77-b8b0-1a4a31d62a9e"},"vehicle_type_id":"4","last_reported":1742224242,"current_range_meters":11600,"station_id":"ce4bhkp2rcd13ifvqgd0","pricing_plan_id":"cebpf4jnsgd1na2vs0mg"},{"bike_id":"1d5c028e-c2ca-48ac-b46c-0f076aa3f1e3","system_id":"levelo_inurba_marseille","lat":43.23972,"lon":5.36628,"is_reserved":false,"is_disabled":false,"rental_uris":{"android":"levelo://app?vid=1d5c028e-c2ca-48ac-b46c-0f076aa3f1e3","ios":"levelo://app?vid=1d5c028e-c2ca-48ac-b46c-0f076aa3f1e3"},"vehicle_type_id":"4","last_reported":1742224242,"current_range_meters":12000,"station_id":"ce4bhi12rcd13ifvqfp0","pricing_plan_id":"cebpf4jnsgd1na2vs0mg"},{"bike_id":"a7739d61-c0cc-4810-bd3f-6273fe964104","system_id":"levelo_inurba_marseille","lat":43.296493,"lon":5.37183,"is_reserved":false,"is_disabled":false,"rental_uris":{"android":"levelo://app?vid=a7739d61-c0cc-4810-bd3f-6273fe964104","ios":"levelo://app?vid=a7739d61-c0cc-4810-bd3f-6273fe964104"},"vehicle_type_id":"4","last_reported":1742224242,"current_range_meters":12000,"station_id":"ce4bhch2rcd13ifvqeug","pricing_plan_id":"cebpf4jnsgd1na2vs0mg"},{"bike_id":"8826fe7c-d97b-4817-9555-04b6da7b8307","system_id":"levelo_inurba_marseille","lat":43.25096,"lon":5.39504,"is_reserved":false,"is_disabled":false,"rental_uris":{"android":"levelo://app?vid=8826fe7c-d97b-4817-9555-04b6da7b8307","ios":"levelo://app?vid=8826fe7c-d97b-4817-9555-04b6da7b8307"},"vehicle_type_id":"4","last_reported":1742224242,"current_range_meters":12000,"station_id":"ce4bhm12rcd13ifvqgkg","pricing_plan_id":"cebpf4jnsgd1na2vs0mg"},{"bike_id":"ef387ae4-9c87-4cd0-8124-b4fc4eb0cbb8","system_id":"levelo_inurba_marseille","lat":43.28417,"lon":5.34988,"is_reserved":false,"is_disabled":false,"rental_uris":{"android":"levelo://app?vid=ef387ae4-9c87-4cd0-8124-b4fc4eb0cbb8","ios":"levelo://app?vid=ef387ae4-9c87-4cd0-8124-b4fc4eb0cbb8"},"vehicle_type_id":"4","last_reported":1742224242,"current_range_meters":12000,"station_id":"ce4bhbh2rcd13ifvqepg","pricing_plan_id":"cebpf4jnsgd1na2vs0mg"},{"bike_id":"de836014-b98c-485c-a2d2-e285e161186e","system_id":"levelo_inurba_marseille","lat":43.30141,"lon":5.37431,"is_reserved":false,"is_disabled":false,"rental_uris":{"android":"levelo://app?vid=de836014-b98c-485c-a2d2-e285e161186e","ios":"levelo://app?vid=de836014-b98c-485c-a2d2-e285e161186e"},"vehicle_type_id":"4","last_reported":1742224242,"current_range_meters":12000,"station_id":"ce4bgs92rcd13ifvqcc0","pricing_plan_id":"cebpf4jnsgd1na2vs0mg"},{"bike_id":"bf53558a-323c-40e3-9c37-ac64ba388e1c","system_id":"levelo_inurba_marseille","lat":43.23956,"lon":5.36638,"is_reserved":false,"is_disabled":false,"rental_uris":{"android":"levelo://app?vid=bf53558a-323c-40e3-9c37-ac64ba388e1c","ios":"levelo://app?vid=bf53558a-323c-40e3-9c37-ac64ba388e1c"},"vehicle_type_id":"4","last_reported":1742224242,"current_range_meters":12000,"station_id":"ce4bhi12rcd13ifvqfp0","pricing_plan_id":"cebpf4jnsgd1na2vs0mg"},{"bike_id":"77163660-fe2f-46b2-8a7c-cad05f97baf7","system_id":"levelo_inurba_marseille","lat":43.25106,"lon":5.40326,"is_reserved":false,"is_disabled":false,"rental_uris":{"android":"levelo://app?vid=77163660-fe2f-46b2-8a7c-cad05f97baf7","ios":"levelo://app?vid=77163660-fe2f-46b2-8a7c-cad05f97baf7"},"vehicle_type_id":"4","last_reported":1742224242,"current_range_meters":12400,"station_id":"ce4bhlh2rcd13ifvqgig","pricing_plan_id":"cebpf4jnsgd1na2vs0mg"},{"bike_id":"eb7c2bfe-28aa-4d40-884d-376e9312bfc1","system_id":"levelo_inurba_marseille","lat":43.26201,"lon":5.37911,"is_reserved":false,"is_disabled":false,"rental_uris":{"android":"levelo://app?vid=eb7c2bfe-28aa-4d40-884d-376e9312bfc1","ios":"levelo://app?vid=eb7c2bfe-28aa-4d40-884d-376e9312bfc1"},"vehicle_type_id":"4","last_reported":1742224242,"current_range_meters":12400,"station_id":"ce4bhjp2rcd13ifvqg90","pricing_plan_id":"cebpf4jnsgd1na2vs0mg"},{"bike_id":"d6fd92bb-0b7c-4f3a-95a4-9af49341ff8b","system_id":"levelo_inurba_marseille","lat":43.29002,"lon":5.3562,"is_reserved":false,"is_disabled":false,"rental_uris":{"android":"levelo://app?vid=d6fd92bb-0b7c-4f3a-95a4-9af49341ff8b","ios":"levelo://app?vid=d6fd92bb-0b7c-4f3a-95a4-9af49341ff8b"},"vehicle_type_id":"4","last_reported":1742224242,"current_range_meters":12400,"station_id":"ce4bhb92rcd13ifvqen0","pricing_plan_id":"cebpf4jnsgd1na2vs0mg"},{"bike_id":"96e89a39-929a-49fe-8d6c-e47bf8ca7a6f","system_id":"levelo_inurba_marseille","lat":43.23058,"lon":5.355,"is_reserved":false,"is_disabled":false,"rental_uris":{"android":"levelo://app?vid=96e89a39-929a-49fe-8d6c-e47bf8ca7a6f","ios":"levelo://app?vid=96e89a39-929a-49fe-8d6c-e47bf8ca7a6f"},"vehicle_type_id":"4","last_reported":1742224242,"current_range_meters":12400,"station_id":"cpo3342slgdg3j2ifvpg","pricing_plan_id":"cebpf4jnsgd1na2vs0mg"},{"bike_id":"56ed4273-4d15-41e9-8570-801a82c21ea8","system_id":"levelo_inurba_marseille","lat":43.29012,"lon":5.35616,"is_reserved":false,"is_disabled":false,"rental_uris":{"android":"levelo://app?vid=56ed4273-4d15-41e9-8570-801a82c21ea8","ios":"levelo://app?vid=56ed4273-4d15-41e9-8570-801a82c21ea8"},"vehicle_type_id":"4","last_reported":1742224242,"current_range_meters":12400,"station_id":"ce4bhb92rcd13ifvqen0","pricing_plan_id":"cebpf4jnsgd1na2vs0mg"},{"bike_id":"ef9dbd54-52a2-4e98-b6a9-315780783731","system_id":"levelo_inurba_marseille","lat":43.23189,"lon":5.3999,"is_reserved":false,"is_disabled":false,"rental_uris":{"android":"levelo://app?vid=ef9dbd54-52a2-4e98-b6a9-315780783731","ios":"levelo://app?vid=ef9dbd54-52a2-4e98-b6a9-315780783731"},"vehicle_type_id":"4","last_reported":1742224242,"current_range_meters":12400,"station_id":"ce4bhn12rcd13ifvqgqg","pricing_plan_id":"cebpf4jnsgd1na2vs0mg"},{"bike_id":"42e35520-f310-4cc9-afe0-cc69621e6853","system_id":"levelo_inurba_marseille","lat":43.3238,"lon":5.38871,"is_reserved":false,"is_disabled":false,"rental_uris":{"android":"levelo://app?vid=42e35520-f310-4cc9-afe0-cc69621e6853","ios":"levelo://app?vid=42e35520-f310-4cc9-afe0-cc69621e6853"},"vehicle_type_id":"4","last_reported":1742224242,"current_range_meters":12400,"station_id":"ce4bhqp2rcd13ifvqhog","pricing_plan_id":"cebpf4jnsgd1na2vs0mg"},{"bike_id":"dc76fe10-f2f9-4a62-bc65-2aa1b8266c01","system_id":"levelo_inurba_marseille","lat":43.30421,"lon":5.39756,"is_reserved":false,"is_disabled":false,"rental_uris":{"android":"levelo://app?vid=dc76fe10-f2f9-4a62-bc65-2aa1b8266c01","ios":"levelo://app?vid=dc76fe10-f2f9-4a62-bc65-2aa1b8266c01"},"vehicle_type_id":"4","last_reported":1742224242,"current_range_meters":12400,"station_id":"ce4bh092rcd13ifvqd20","pricing_plan_id":"cebpf4jnsgd1na2vs0mg"},{"bike_id":"6ce6594f-1460-4d62-8c26-35226d190255","system_id":"levelo_inurba_marseille","lat":43.28415,"lon":5.34985,"is_reserved":false,"is_disabled":false,"rental_uris":{"android":"levelo://app?vid=6ce6594f-1460-4d62-8c26-35226d190255","ios":"levelo://app?vid=6ce6594f-1460-4d62-8c26-35226d190255"},"vehicle_type_id":"4","last_reported":1742224242,"current_range_meters":12400,"station_id":"ce4bhbh2rcd13ifvqepg","pricing_plan_id":"cebpf4jnsgd1na2vs0mg"},{"bike_id":"ee54ac11-db4c-4dd1-9f8e-34ff11e58d2c","system_id":"levelo_inurba_marseille","lat":43.26675,"lon":5.38263,"is_reserved":false,"is_disabled":false,"rental_uris":{"android":"levelo://app?vid=ee54ac11-db4c-4dd1-9f8e-34ff11e58d2c","ios":"levelo://app?vid=ee54ac11-db4c-4dd1-9f8e-34ff11e58d2c"},"vehicle_type_id":"4","last_reported":1742224242,"current_range_meters":12400,"station_id":"ce4bhg92rcd13ifvqf90","pricing_plan_id":"cebpf4jnsgd1na2vs0mg"},{"bike_id":"7b8f73d3-9426-41d4-981f-baca13c9a73a","system_id":"levelo_inurba_marseille","lat":43.29933,"lon":5.36546,"is_reserved":false,"is_disabled":false,"rental_uris":{"android":"levelo://app?vid=7b8f73d3-9426-41d4-981f-baca13c9a73a","ios":"levelo://app?vid=7b8f73d3-9426-41d4-981f-baca13c9a73a"},"vehicle_type_id":"4","last_reported":1742224242,"current_range_meters":12800,"station_id":"ce4bgm92rcd13ifvqbr0","pricing_plan_id":"cebpf4jnsgd1na2vs0mg"},{"bike_id":"09be20b3-ccfa-43d5-8616-036d82fe33a0","system_id":"levelo_inurba_marseille","lat":43.25,"lon":5.38938,"is_reserved":false,"is_disabled":false,"rental_uris":{"android":"levelo://app?vid=09be20b3-ccfa-43d5-8616-036d82fe33a0","ios":"levelo://app?vid=09be20b3-ccfa-43d5-8616-036d82fe33a0"},"vehicle_type_id":"4","last_reported":1742224242,"current_range_meters":12800,"station_id":"ce4bhgp2rcd13ifvqfd0","pricing_plan_id":"cebpf4jnsgd1na2vs0mg"},{"bike_id":"c6caae70-3635-4ba5-b765-4c1b7f8fb16b","system_id":"levelo_inurba_marseille","lat":43.31486,"lon":5.37297,"is_reserved":false,"is_disabled":false,"rental_uris":{"android":"levelo://app?vid=c6caae70-3635-4ba5-b765-4c1b7f8fb16b","ios":"levelo://app?vid=c6caae70-3635-4ba5-b765-4c1b7f8fb16b"},"vehicle_type_id":"4","last_reported":1742224242,"current_range_meters":12800,"station_id":"ce4bgt12rcd13ifvqcd0","pricing_plan_id":"cebpf4jnsgd1na2vs0mg"},{"bike_id":"68efa26f-19bd-4d41-bebe-c8935b4d7da9","system_id":"levelo_inurba_marseille","lat":43.33012,"lon":5.3907,"is_reserved":false,"is_disabled":false,"rental_uris":{"android":"levelo://app?vid=68efa26f-19bd-4d41-bebe-c8935b4d7da9","ios":"levelo://app?vid=68efa26f-19bd-4d41-bebe-c8935b4d7da9"},"vehicle_type_id":"4","last_reported":1742224242,"current_range_meters":12800,"station_id":"ce4bhr92rcd13ifvqhrg","pricing_plan_id":"cebpf4jnsgd1na2vs0mg"},{"bike_id":"66605c12-7747-43fb-bd66-de32f35cdd22","system_id":"levelo_inurba_marseille","lat":43.28618,"lon":5.35105,"is_reserved":false,"is_disabled":false,"rental_uris":{"android":"levelo://app?vid=66605c12-7747-43fb-bd66-de32f35cdd22","ios":"levelo://app?vid=66605c12-7747-43fb-bd66-de32f35cdd22"},"vehicle_type_id":"4","last_reported":1742224242,"current_range_meters":12800,"station_id":"ce4bhch2rcd13ifvqeug","pricing_plan_id":"cebpf4jnsgd1na2vs0mg"},{"bike_id":"5410d9ac-09e1-44ad-882b-7522d469273a","system_id":"levelo_inurba_marseille","lat":43.28074,"lon":5.39658,"is_reserved":false,"is_disabled":false,"rental_uris":{"android":"levelo://app?vid=5410d9ac-09e1-44ad-882b-7522d469273a","ios":"levelo://app?vid=5410d9ac-09e1-44ad-882b-7522d469273a"},"vehicle_type_id":"4","last_reported":1742224242,"current_range_meters":12800,"station_id":"ce4bho12rcd13ifvqh2g","pricing_plan_id":"cebpf4jnsgd1na2vs0mg"},{"bike_id":"f93ea0c4-d4ae-419b-a2b4-6782da5455ad","system_id":"levelo_inurba_marseille","lat":43.28263,"lon":5.35068,"is_reserved":false,"is_disabled":false,"rental_uris":{"android":"levelo://app?vid=f93ea0c4-d4ae-419b-a2b4-6782da5455ad","ios":"levelo://app?vid=f93ea0c4-d4ae-419b-a2b4-6782da5455ad"},"vehicle_type_id":"4","last_reported":1742224242,"current_range_meters":13600,"station_id":"ce4bhbp2rcd13ifvqerg","pricing_plan_id":"cebpf4jnsgd1na2vs0mg"},{"bike_id":"cb151f2f-c8d4-493c-8040-3bc4d320acac","system_id":"levelo_inurba_marseille","lat":43.30813,"lon":5.38155,"is_reserved":false,"is_disabled":true,"rental_uris":{"android":"levelo://app?vid=cb151f2f-c8d4-493c-8040-3bc4d320acac","ios":"levelo://app?vid=cb151f2f-c8d4-493c-8040-3bc4d320acac"},"vehicle_type_id":"4","last_reported":1742224242,"current_range_meters":13600,"station_id":"ce4bgt12rcd13ifvqce0","pricing_plan_id":"cebpf4jnsgd1na2vs0mg"},{"bike_id":"71af31b7-e627-4153-a944-d3fcf5c632f4","system_id":"levelo_inurba_marseille","lat":43.3148,"lon":5.37302,"is_reserved":false,"is_disabled":false,"rental_uris":{"android":"levelo://app?vid=71af31b7-e627-4153-a944-d3fcf5c632f4","ios":"levelo://app?vid=71af31b7-e627-4153-a944-d3fcf5c632f4"},"vehicle_type_id":"4","last_reported":1742224242,"current_range_meters":13600,"station_id":"ce4bgt12rcd13ifvqcd0","pricing_plan_id":"cebpf4jnsgd1na2vs0mg"},{"bike_id":"4e950670-b096-4049-8c8c-3012830ea5a4","system_id":"levelo_inurba_marseille","lat":43.24384,"lon":5.3706,"is_reserved":false,"is_disabled":false,"rental_uris":{"android":"levelo://app?vid=4e950670-b096-4049-8c8c-3012830ea5a4","ios":"levelo://app?vid=4e950670-b096-4049-8c8c-3012830ea5a4"},"vehicle_type_id":"4","last_reported":1742224242,"current_range_meters":14000,"station_id":"ce4bhhh2rcd13ifvqfk0","pricing_plan_id":"cebpf4jnsgd1na2vs0mg"},{"bike_id":"54926091-72f3-499e-ac31-51c348b55f94","system_id":"levelo_inurba_marseille","lat":43.30463,"lon":5.37906,"is_reserved":false,"is_disabled":false,"rental_uris":{"android":"levelo://app?vid=54926091-72f3-499e-ac31-51c348b55f94","ios":"levelo://app?vid=54926091-72f3-499e-ac31-51c348b55f94"},"vehicle_type_id":"4","last_reported":1742224242,"current_range_meters":14400,"station_id":"ce4bgup2rcd13ifvqcn0","pricing_plan_id":"cebpf4jnsgd1na2vs0mg"},{"bike_id":"46e9cbe0-4bec-4368-889b-87912b57c2b1","system_id":"levelo_inurba_marseille","lat":43.26013,"lon":5.41763,"is_reserved":false,"is_disabled":false,"rental_uris":{"android":"levelo://app?vid=46e9cbe0-4bec-4368-889b-87912b57c2b1","ios":"levelo://app?vid=46e9cbe0-4bec-4368-889b-87912b57c2b1"},"vehicle_type_id":"4","last_reported":1742224242,"current_range_meters":14000,"station_id":"","pricing_plan_id":"cebpf4jnsgd1na2vs0mg"},{"bike_id":"28122982-c6ac-4bea-b91f-81b8b2e431fa","system_id":"levelo_inurba_marseille","lat":43.26552,"lon":5.37294,"is_reserved":false,"is_disabled":false,"rental_uris":{"android":"levelo://app?vid=28122982-c6ac-4bea-b91f-81b8b2e431fa","ios":"levelo://app?vid=28122982-c6ac-4bea-b91f-81b8b2e431fa"},"vehicle_type_id":"4","last_reported":1742224242,"current_range_meters":14000,"station_id":"ce4bhg12rcd13ifvqf70","pricing_plan_id":"cebpf4jnsgd1na2vs0mg"},{"bike_id":"4a180dc5-b0d8-4bc0-8045-f22f28ecb14b","system_id":"levelo_inurba_marseille","lat":43.28413,"lon":5.34981,"is_reserved":false,"is_disabled":false,"rental_uris":{"android":"levelo://app?vid=4a180dc5-b0d8-4bc0-8045-f22f28ecb14b","ios":"levelo://app?vid=4a180dc5-b0d8-4bc0-8045-f22f28ecb14b"},"vehicle_type_id":"4","last_reported":1742224242,"current_range_meters":14000,"station_id":"ce4bhbh2rcd13ifvqepg","pricing_plan_id":"cebpf4jnsgd1na2vs0mg"},{"bike_id":"eb45823c-5e28-4763-a7b9-fbe7b7f19c48","system_id":"levelo_inurba_marseille","lat":43.26569,"lon":5.38999,"is_reserved":false,"is_disabled":false,"rental_uris":{"android":"levelo://app?vid=eb45823c-5e28-4763-a7b9-fbe7b7f19c48","ios":"levelo://app?vid=eb45823c-5e28-4763-a7b9-fbe7b7f19c48"},"vehicle_type_id":"4","last_reported":1742224242,"current_range_meters":14000,"station_id":"ce4bhe12rcd13ifvqf30","pricing_plan_id":"cebpf4jnsgd1na2vs0mg"},{"bike_id":"0c392af2-3b85-4cda-8bc5-5b4df1b4ffa7","system_id":"levelo_inurba_marseille","lat":43.25921,"lon":5.40877,"is_reserved":false,"is_disabled":false,"rental_uris":{"android":"levelo://app?vid=0c392af2-3b85-4cda-8bc5-5b4df1b4ffa7","ios":"levelo://app?vid=0c392af2-3b85-4cda-8bc5-5b4df1b4ffa7"},"vehicle_type_id":"4","last_reported":1742224242,"current_range_meters":14000,"station_id":"ce4bhm92rcd13ifvqglg","pricing_plan_id":"cebpf4jnsgd1na2vs0mg"},{"bike_id":"ac2061aa-434f-4fef-a6c9-785c0bba2cbb","system_id":"levelo_inurba_marseille","lat":43.287,"lon":5.39985,"is_reserved":false,"is_disabled":false,"rental_uris":{"android":"levelo://app?vid=ac2061aa-434f-4fef-a6c9-785c0bba2cbb","ios":"levelo://app?vid=ac2061aa-434f-4fef-a6c9-785c0bba2cbb"},"vehicle_type_id":"4","last_reported":1742224242,"current_range_meters":14400,"station_id":"ce4bho92rcd13ifvqh3g","pricing_plan_id":"cebpf4jnsgd1na2vs0mg"},{"bike_id":"b53f170c-3af0-4269-83b6-8b209cc22157","system_id":"levelo_inurba_marseille","lat":43.25926,"lon":5.4091,"is_reserved":false,"is_disabled":false,"rental_uris":{"android":"levelo://app?vid=b53f170c-3af0-4269-83b6-8b209cc22157","ios":"levelo://app?vid=b53f170c-3af0-4269-83b6-8b209cc22157"},"vehicle_type_id":"4","last_reported":1742224242,"current_range_meters":14400,"station_id":"ce4bhm92rcd13ifvqglg","pricing_plan_id":"cebpf4jnsgd1na2vs0mg"},{"bike_id":"13e2ea22-f26b-4725-b9eb-a2a16ab911f3","system_id":"levelo_inurba_marseille","lat":43.26558,"lon":5.37283,"is_reserved":false,"is_disabled":false,"rental_uris":{"android":"levelo://app?vid=13e2ea22-f26b-4725-b9eb-a2a16ab911f3","ios":"levelo://app?vid=13e2ea22-f26b-4725-b9eb-a2a16ab911f3"},"vehicle_type_id":"4","last_reported":1742224242,"current_range_meters":14400,"station_id":"ce4bhg12rcd13ifvqf70","pricing_plan_id":"cebpf4jnsgd1na2vs0mg"},{"bike_id":"738d5a2a-1fe0-49dd-a3a3-3b9ad8ed3acf","system_id":"levelo_inurba_marseille","lat":43.29417,"lon":5.38615,"is_reserved":false,"is_disabled":true,"rental_uris":{"android":"levelo://app?vid=738d5a2a-1fe0-49dd-a3a3-3b9ad8ed3acf","ios":"levelo://app?vid=738d5a2a-1fe0-49dd-a3a3-3b9ad8ed3acf"},"vehicle_type_id":"4","last_reported":1742224242,"current_range_meters":14400,"station_id":"ce4bh2h2rcd13ifvqdh0","pricing_plan_id":"cebpf4jnsgd1na2vs0mg"},{"bike_id":"39d2df96-c36f-4593-8a68-432fe8c8d072","system_id":"levelo_inurba_marseille","lat":43.29888,"lon":5.43653,"is_reserved":false,"is_disabled":false,"rental_uris":{"android":"levelo://app?vid=39d2df96-c36f-4593-8a68-432fe8c8d072","ios":"levelo://app?vid=39d2df96-c36f-4593-8a68-432fe8c8d072"},"vehicle_type_id":"4","last_reported":1742224242,"current_range_meters":14800,"station_id":"ce4bhpp2rcd13ifvqhfg","pricing_plan_id":"cebpf4jnsgd1na2vs0mg"},{"bike_id":"1ab0fd49-064c-4366-8fdc-72587180de48","system_id":"levelo_inurba_marseille","lat":43.3081,"lon":5.38153,"is_reserved":false,"is_disabled":false,"rental_uris":{"android":"levelo://app?vid=1ab0fd49-064c-4366-8fdc-72587180de48","ios":"levelo://app?vid=1ab0fd49-064c-4366-8fdc-72587180de48"},"vehicle_type_id":"4","last_reported":1742224242,"current_range_meters":14800,"station_id":"ce4bgt12rcd13ifvqce0","pricing_plan_id":"cebpf4jnsgd1na2vs0mg"},{"bike_id":"93a3df3d-e94e-49d7-9f41-4bd43695a4a4","system_id":"levelo_inurba_marseille","lat":43.33412,"lon":5.40054,"is_reserved":false,"is_disabled":false,"rental_uris":{"android":"levelo://app?vid=93a3df3d-e94e-49d7-9f41-4bd43695a4a4","ios":"levelo://app?vid=93a3df3d-e94e-49d7-9f41-4bd43695a4a4"},"vehicle_type_id":"4","last_reported":1742224242,"current_range_meters":14800,"station_id":"","pricing_plan_id":"cebpf4jnsgd1na2vs0mg"},{"bike_id":"a3534a93-c56f-4718-b4b4-d3ab8c6ff00f","system_id":"levelo_inurba_marseille","lat":43.29793,"lon":5.39337,"is_reserved":false,"is_disabled":false,"rental_uris":{"android":"levelo://app?vid=a3534a93-c56f-4718-b4b4-d3ab8c6ff00f","ios":"levelo://app?vid=a3534a93-c56f-4718-b4b4-d3ab8c6ff00f"},"vehicle_type_id":"4","last_reported":1742224242,"current_range_meters":14400,"station_id":"chh1huq6cuj3fo74tm60","pricing_plan_id":"cebpf4jnsgd1na2vs0mg"},{"bike_id":"37f4d751-0d35-4744-be55-4d93eaeaa38a","system_id":"levelo_inurba_marseille","lat":43.308076,"lon":5.381519,"is_reserved":false,"is_disabled":false,"rental_uris":{"android":"levelo://app?vid=37f4d751-0d35-4744-be55-4d93eaeaa38a","ios":"levelo://app?vid=37f4d751-0d35-4744-be55-4d93eaeaa38a"},"vehicle_type_id":"4","last_reported":1742224242,"current_range_meters":14800,"station_id":"ce4bgt12rcd13ifvqce0","pricing_plan_id":"cebpf4jnsgd1na2vs0mg"},{"bike_id":"6d72b2ae-e69d-45cf-8485-77eb40fead5b","system_id":"levelo_inurba_marseille","lat":43.28148,"lon":5.42645,"is_reserved":false,"is_disabled":false,"rental_uris":{"android":"levelo://app?vid=6d72b2ae-e69d-45cf-8485-77eb40fead5b","ios":"levelo://app?vid=6d72b2ae-e69d-45cf-8485-77eb40fead5b"},"vehicle_type_id":"4","last_reported":1742224242,"current_range_meters":14800,"station_id":"ce4bhnh2rcd13ifvqgug","pricing_plan_id":"cebpf4jnsgd1na2vs0mg"},{"bike_id":"68d6cc26-a570-4d64-943e-84972183104b","system_id":"levelo_inurba_marseille","lat":43.27664,"lon":5.38945,"is_reserved":false,"is_disabled":false,"rental_uris":{"android":"levelo://app?vid=68d6cc26-a570-4d64-943e-84972183104b","ios":"levelo://app?vid=68d6cc26-a570-4d64-943e-84972183104b"},"vehicle_type_id":"4","last_reported":1742224242,"current_range_meters":14800,"station_id":"","pricing_plan_id":"cebpf4jnsgd1na2vs0mg"},{"bike_id":"522f99cb-f105-4bf1-8b05-dccec75ba908","system_id":"levelo_inurba_marseille","lat":43.302756,"lon":5.37683,"is_reserved":false,"is_disabled":false,"rental_uris":{"android":"levelo://app?vid=522f99cb-f105-4bf1-8b05-dccec75ba908","ios":"levelo://app?vid=522f99cb-f105-4bf1-8b05-dccec75ba908"},"vehicle_type_id":"4","last_reported":1742224242,"current_range_meters":15200,"station_id":"","pricing_plan_id":"cebpf4jnsgd1na2vs0mg"},{"bike_id":"519efbbc-7577-4063-8eac-658ef30e98a3","system_id":"levelo_inurba_marseille","lat":43.25007,"lon":5.38929,"is_reserved":false,"is_disabled":false,"rental_uris":{"android":"levelo://app?vid=519efbbc-7577-4063-8eac-658ef30e98a3","ios":"levelo://app?vid=519efbbc-7577-4063-8eac-658ef30e98a3"},"vehicle_type_id":"4","last_reported":1742224242,"current_range_meters":15200,"station_id":"ce4bhgp2rcd13ifvqfd0","pricing_plan_id":"cebpf4jnsgd1na2vs0mg"},{"bike_id":"915069eb-fbc0-4609-8562-f6809f0984c7","system_id":"levelo_inurba_marseille","lat":43.29171,"lon":5.37164,"is_reserved":false,"is_disabled":false,"rental_uris":{"android":"levelo://app?vid=915069eb-fbc0-4609-8562-f6809f0984c7","ios":"levelo://app?vid=915069eb-fbc0-4609-8562-f6809f0984c7"},"vehicle_type_id":"4","last_reported":1742224242,"current_range_meters":16800,"station_id":"ce4bha92rcd13ifvqeh0","pricing_plan_id":"cebpf4jnsgd1na2vs0mg"},{"bike_id":"fcbf8319-46ee-47ae-8883-0a19ea75ee9e","system_id":"levelo_inurba_marseille","lat":43.28273,"lon":5.35073,"is_reserved":false,"is_disabled":false,"rental_uris":{"android":"levelo://app?vid=fcbf8319-46ee-47ae-8883-0a19ea75ee9e","ios":"levelo://app?vid=fcbf8319-46ee-47ae-8883-0a19ea75ee9e"},"vehicle_type_id":"4","last_reported":1742224242,"current_range_meters":15200,"station_id":"ce4bhbp2rcd13ifvqerg","pricing_plan_id":"cebpf4jnsgd1na2vs0mg"},{"bike_id":"eff07992-6812-4692-88fa-1cbcfc8cd92a","system_id":"levelo_inurba_marseille","lat":43.30375,"lon":5.42482,"is_reserved":false,"is_disabled":false,"rental_uris":{"android":"levelo://app?vid=eff07992-6812-4692-88fa-1cbcfc8cd92a","ios":"levelo://app?vid=eff07992-6812-4692-88fa-1cbcfc8cd92a"},"vehicle_type_id":"4","last_reported":1742224242,"current_range_meters":16000,"station_id":"ce4bhoh2rcd13ifvqh6g","pricing_plan_id":"cebpf4jnsgd1na2vs0mg"},{"bike_id":"7f7736fb-327d-441e-baf9-b30194a9e4f5","system_id":"levelo_inurba_marseille","lat":43.3088,"lon":5.37123,"is_reserved":false,"is_disabled":false,"rental_uris":{"android":"levelo://app?vid=7f7736fb-327d-441e-baf9-b30194a9e4f5","ios":"levelo://app?vid=7f7736fb-327d-441e-baf9-b30194a9e4f5"},