{"last_updated":1752351051,"ttl":60,"version":"2.2","data":{"bikes":[{"bike_id":"0608d800-097b-4f70-a518-7bebbd73d51f","system_id":"levelo_inurba_marseille","lat":43.31351,"lon":5.385,"is_reserved":false,"is_disabled":true,"rental_uris":{"android":"levelo://app?vid=0608d800-097b-4f70-a518-7bebbd73d51f","ios":"levelo://app?vid=0608d800-097b-4f70-a518-7bebbd73d51f"},"vehicle_type_id":"4","last_reported":1752351051,"current_range_meters":2800,"station_id":"ce4bgt92rcd13ifvqcf0","pricing_plan_id":"cebpf4jnsgd1na2vs0mg"},{"bike_id":"733cdf2f-9344-485e-af92-546feccd0261","system_id":"levelo_inurba_marseille","lat":43.30545,"lon":5.365609,"is_reserved":false,"is_disabled":true,"rental_uris":{"android":"levelo://app?vid=733cdf2f-9344-485e-af92-546feccd0261","ios":"levelo://app?vid=733cdf2f-9344-485e-af92-546feccd0261"},"vehicle_type_id":"4","last_reported":1752351051,"current_range_meters":3200,"station_id":"ce4bgs12rcd13ifvqcag","pricing_plan_id":"cebpf4jnsgd1na2vs0mg"},{"bike_id":"c71329bb-2bda-46ae-a8e6-3f6900b96b90","system_id":"levelo_inurba_marseille","lat":43.25494,"lon":5.37643,"is_reserved":false,"is_disabled":false,"rental_uris":{"android":"levelo://app?vid=c71329bb-2bda-46ae-a8e6-3f6900b96b90","ios":"levelo://app?vid=c71329bb-2bda-46ae-a8e6-3f6900b96b90"},"vehicle_type_id":"4","last_reported":1752351051,"current_range_meters":3200,"station_id":"ce4bhh12rcd13ifvqff0","pricing_plan_id":"cebpf4jnsgd1na2vs0mg"},{"bike_id":"8a95da67-c3dd-4941-8d5a-f775b52b4f22","system_id":"levelo_inurba_marseille","lat":43.25464,"lon":5.37672,"is_reserved":false,"is_disabled":false,"rental_uris":{"android":"levelo://app?vid=8a95da67-c3dd-4941-8d5a-f775b52b4f22","ios":"levelo://app?vid=8a95da67-c3dd-4941-8d5a-f775b52b4f22"},"vehicle_type_id":"4","last_reported":1752351051,"current_range_meters":3200,"station_id":"ce4bhh12rcd13ifvqff0","pricing_plan_id":"cebpf4jnsgd1na2vs0mg"},{"bike_id":"27a5e43a-db77-4607-91c1-6650bd6b8db7","system_id":"levelo_inurba_marseille","lat":43.286988,"lon":5.37384,"is_reserved":false,"is_disabled":false,"rental_uris":{"android":"levelo://app?vid=27a5e43a-db77-4607-91c1-6650bd6b8db7","ios":"levelo://app?vid=27a5e43a-db77-4607-91c1-6650bd6b8db7"},"vehicle_type_id":"4","last_reported":1752351051,"current_range_meters":3600,"station_id":"ce4bh3p2rcd13ifvqdq0","pricing_plan_id":"cebpf4jnsgd1na2vs0mg"},{"bike_id":"b25e716b-466d-4073-bda9-c1fa6de3ef16","system_id":"levelo_inurba_marseille","lat":43.29304,"lon":5.37454,"is_reserved":false,"is_disabled":true,"rental_uris":{"android":"levelo://app?vid=b25e716b-466d-4073-bda9-c1fa6de3ef16","ios":"levelo://app?vid=b25e716b-466d-4073-bda9-c1fa6de3ef16"},"vehicle_type_id":"4","last_reported":1752351051,"current_range_meters":4400,"station_id":"ce4bgi12rcd13ifvqb70","pricing_plan_id":"cebpf4jnsgd1na2vs0mg"},{"bike_id":"028d33fd-a31a-4462-923e-189583905324","system_id":"levelo_inurba_marseille","lat":43.304618,"lon":5.379036,"is_reserved":false,"is_disabled":false,"rental_uris":{"android":"levelo://app?vid=028d33fd-a31a-4462-923e-189583905324","ios":"levelo://app?vid=028d33fd-a31a-4462-923e-189583905324"},"vehicle_type_id":"4","last_reported":1752351051,"current_range_meters":4400,"station_id":"ce4bgup2rcd13ifvqcn0","pricing_plan_id":"cebpf4jnsgd1na2vs0mg"},{"bike_id":"73ce75de-ff21-4c79-a50a-94414be44578","system_id":"levelo_inurba_marseille","lat":43.2618,"lon":5.37462,"is_reserved":false,"is_disabled":false,"rental_uris":{"android":"levelo://app?vid=73ce75de-ff21-4c79-a50a-94414be44578","ios":"levelo://app?vid=73ce75de-ff21-4c79-a50a-94414be44578"},"vehicle_type_id":"4","last_reported":1752351051,"current_range_meters":4400,"station_id":"ce4bhgp2rcd13ifvqfc0","pricing_plan_id":"cebpf4jnsgd1na2vs0mg"},{"bike_id":"1cd785c2-3121-4585-8cf0-5499d43d0a65","system_id":"levelo_inurba_marseille","lat":43.30946,"lon":5.39049,"is_reserved":false,"is_disabled":false,"rental_uris":{"android":"levelo://app?vid=1cd785c2-3121-4585-8cf0-5499d43d0a65","ios":"levelo://app?vid=1cd785c2-3121-4585-8cf0-5499d43d0a65"},"vehicle_type_id":"4","last_reported":1752351051,"current_range_meters":4800,"station_id":"ce4bgup2rcd13ifvqco0","pricing_plan_id":"cebpf4jnsgd1na2vs0mg"},{"bike_id":"42b32965-6cf6-4412-a647-bab8cd2b6dc7","system_id":"levelo_inurba_marseille","lat":43.27809,"lon":5.40716,"is_reserved":false,"is_disabled":false,"rental_uris":{"android":"levelo://app?vid=42b32965-6cf6-4412-a647-bab8cd2b6dc7","ios":"levelo://app?vid=42b32965-6cf6-4412-a647-bab8cd2b6dc7"},"vehicle_type_id":"4","last_reported":1752351051,"current_range_meters":4800,"station_id":"ce4bhnh2rcd13ifvqgtg","pricing_plan_id":"cebpf4jnsgd1na2vs0mg"},{"bike_id":"7b40ce61-a8b4-402d-b52f-90083fbbf79b","system_id":"levelo_inurba_marseille","lat":43.25491,"lon":5.37646,"is_reserved":false,"is_disabled":false,"rental_uris":{"android":"levelo://app?vid=7b40ce61-a8b4-402d-b52f-90083fbbf79b","ios":"levelo://app?vid=7b40ce61-a8b4-402d-b52f-90083fbbf79b"},"vehicle_type_id":"4","last_reported":1752351051,"current_range_meters":4800,"station_id":"ce4bhh12rcd13ifvqff0","pricing_plan_id":"cebpf4jnsgd1na2vs0mg"},{"bike_id":"4e40f6db-419c-4d0a-8b67-e7fb5aa97ab8","system_id":"levelo_inurba_marseille","lat":43.26207,"lon":5.3744,"is_reserved":false,"is_disabled":false,"rental_uris":{"android":"levelo://app?vid=4e40f6db-419c-4d0a-8b67-e7fb5aa97ab8","ios":"levelo://app?vid=4e40f6db-419c-4d0a-8b67-e7fb5aa97ab8"},"vehicle_type_id":"4","last_reported":1752351051,"current_range_meters":6000,"station_id":"ce4bhgp2rcd13ifvqfc0","pricing_plan_id":"cebpf4jnsgd1na2vs0mg"},{"bike_id":"ffa7f182-1f57-4e6d-bf4c-f6468ce98ed9","system_id":"levelo_inurba_marseille","lat":43.26209,"lon":5.37448,"is_reserved":false,"is_disabled":false,"rental_uris":{"android":"levelo://app?vid=ffa7f182-1f57-4e6d-bf4c-f6468ce98ed9","ios":"levelo://app?vid=ffa7f182-1f57-4e6d-bf4c-f6468ce98ed9"},"vehicle_type_id":"4","last_reported":1752351051,"current_range_meters":6400,"station_id":"ce4bhgp2rcd13ifvqfc0","pricing_plan_id":"cebpf4jnsgd1na2vs0mg"},{"bike_id":"b7ee85fa-9c5f-4728-9023-6704e5a155aa","system_id":"levelo_inurba_marseille","lat":43.27369,"lon":5.36263,"is_reserved":false,"is_disabled":false,"rental_uris":{"android":"levelo://app?vid=b7ee85fa-9c5f-4728-9023-6704e5a155aa","ios":"levelo://app?vid=b7ee85fa-9c5f-4728-9023-6704e5a155aa"},"vehicle_type_id":"4","last_reported":1752351051,"current_range_meters":6400,"station_id":"ce4bhbh2rcd13ifvqeo0","pricing_plan_id":"cebpf4jnsgd1na2vs0mg"},{"bike_id":"69a37c36-ae05-412e-999b-69bec2207366","system_id":"levelo_inurba_marseille","lat":43.24802,"lon":5.37455,"is_reserved":false,"is_disabled":false,"rental_uris":{"android":"levelo://app?vid=69a37c36-ae05-412e-999b-69bec2207366","ios":"levelo://app?vid=69a37c36-ae05-412e-999b-69bec2207366"},"vehicle_type_id":"4","last_reported":1752351051,"current_range_meters":6400,"station_id":"ce4bhgh2rcd13ifvqfb0","pricing_plan_id":"cebpf4jnsgd1na2vs0mg"},{"bike_id":"cb9282c9-0a04-426f-af4a-9dc494a82650","system_id":"levelo_inurba_marseille","lat":43.225037,"lon":5.347922,"is_reserved":false,"is_disabled":false,"rental_uris":{"android":"levelo://app?vid=cb9282c9-0a04-426f-af4a-9dc494a82650","ios":"levelo://app?vid=cb9282c9-0a04-426f-af4a-9dc494a82650"},"vehicle_type_id":"4","last_reported":1752351051,"current_range_meters":6400,"station_id":"","pricing_plan_id":"cebpf4jnsgd1na2vs0mg"},{"bike_id":"534ed68d-5ceb-43a8-968b-be30f01dfa74","system_id":"levelo_inurba_marseille","lat":43.28219,"lon":5.39086,"is_reserved":false,"is_disabled":false,"rental_uris":{"android":"levelo://app?vid=534ed68d-5ceb-43a8-968b-be30f01dfa74","ios":"levelo://app?vid=534ed68d-5ceb-43a8-968b-be30f01dfa74"},"vehicle_type_id":"4","last_reported":1752351051,"current_range_meters":6800,"station_id":"","pricing_plan_id":"cebpf4jnsgd1na2vs0mg"},{"bike_id":"bced4aa7-a628-4057-a6e6-27edc27c5e17","system_id":"levelo_inurba_marseille","lat":43.21217,"lon":5.35054,"is_reserved":false,"is_disabled":false,"rental_uris":{"android":"levelo://app?vid=bced4aa7-a628-4057-a6e6-27edc27c5e17","ios":"levelo://app?vid=bced4aa7-a628-4057-a6e6-27edc27c5e17"},"vehicle_type_id":"4","last_reported":1752351051,"current_range_meters":6800,"station_id":"st_cvj6sg6p6f1abm77japg","pricing_plan_id":"cebpf4jnsgd1na2vs0mg"},{"bike_id":"4701a18c-d6c0-4281-9efd-8c244f45f570","system_id":"levelo_inurba_marseille","lat":43.32398,"lon":5.38987,"is_reserved":false,"is_disabled":true,"rental_uris":{"android":"levelo://app?vid=4701a18c-d6c0-4281-9efd-8c244f45f570","ios":"levelo://app?vid=4701a18c-d6c0-4281-9efd-8c244f45f570"},"vehicle_type_id":"4","last_reported":1752351051,"current_range_meters":6800,"station_id":"","pricing_plan_id":"cebpf4jnsgd1na2vs0mg"},{"bike_id":"9d0db895-1a4d-468a-8ea2-ae147f694c27","system_id":"levelo_inurba_marseille","lat":43.292676,"lon":5.384346,"is_reserved":false,"is_disabled":false,"rental_uris":{"android":"levelo://app?vid=9d0db895-1a4d-468a-8ea2-ae147f694c27","ios":"levelo://app?vid=9d0db895-1a4d-468a-8ea2-ae147f694c27"},"vehicle_type_id":"4","last_reported":1752351051,"current_range_meters":6800,"station_id":"ce4bgt12rcd13ifvqce0","pricing_plan_id":"cebpf4jnsgd1na2vs0mg"},{"bike_id":"d9d795ef-2a87-4625-afa5-1f60b291f1df","system_id":"levelo_inurba_marseille","lat":43.30886,"lon":5.37442,"is_reserved":false,"is_disabled":false,"rental_uris":{"android":"levelo://app?vid=d9d795ef-2a87-4625-afa5-1f60b291f1df","ios":"levelo://app?vid=d9d795ef-2a87-4625-afa5-1f60b291f1df"},"vehicle_type_id":"4","last_reported":1752351051,"current_range_meters":8000,"station_id":"","pricing_plan_id":"cebpf4jnsgd1na2vs0mg"},{"bike_id":"4ab59cdc-8b57-4e43-ab39-09949ea9fe4e","system_id":"levelo_inurba_marseille","lat":43.29488,"lon":5.37444,"is_reserved":false,"is_disabled":false,"rental_uris":{"android":"levelo://app?vid=4ab59cdc-8b57-4e43-ab39-09949ea9fe4e","ios":"levelo://app?vid=4ab59cdc-8b57-4e43-ab39-09949ea9fe4e"},"vehicle_type_id":"4","last_reported":1752351051,"current_range_meters":7200,"station_id":"","pricing_plan_id":"cebpf4jnsgd1na2vs0mg"},{"bike_id":"0f1287f9-390e-4629-ab8e-ad2d35ff61ae","system_id":"levelo_inurba_marseille","lat":43.25558,"lon":5.38272,"is_reserved":false,"is_disabled":true,"rental_uris":{"android":"levelo://app?vid=0f1287f9-390e-4629-ab8e-ad2d35ff61ae","ios":"levelo://app?vid=0f1287f9-390e-4629-ab8e-ad2d35ff61ae"},"vehicle_type_id":"4","last_reported":1752351051,"current_range_meters":7200,"station_id":"ce4bhih2rcd13ifvqfs0","pricing_plan_id":"cebpf4jnsgd1na2vs0mg"},{"bike_id":"f26779ea-db08-4de3-b4f8-beb0dca78ac6","system_id":"levelo_inurba_marseille","lat":43.26678,"lon":5.38268,"is_reserved":false,"is_disabled":false,"rental_uris":{"android":"levelo://app?vid=f26779ea-db08-4de3-b4f8-beb0dca78ac6","ios":"levelo://app?vid=f26779ea-db08-4de3-b4f8-beb0dca78ac6"},"vehicle_type_id":"4","last_reported":1752351051,"current_range_meters":8000,"station_id":"ce4bhg92rcd13ifvqf90","pricing_plan_id":"cebpf4jnsgd1na2vs0mg"},{"bike_id":"f0078b56-73be-4547-8cb3-86241d08f039","system_id":"levelo_inurba_marseille","lat":43.299359,"lon":5.365592,"is_reserved":false,"is_disabled":false,"rental_uris":{"android":"levelo://app?vid=f0078b56-73be-4547-8cb3-86241d08f039","ios":"levelo://app?vid=f0078b56-73be-4547-8cb3-86241d08f039"},"vehicle_type_id":"4","last_reported":1752351051,"current_range_meters":8000,"station_id":"ce4bgm92rcd13ifvqbr0","pricing_plan_id":"cebpf4jnsgd1na2vs0mg"},{"bike_id":"3dd815e4-abcc-4b66-85a9-dc6b87665063","system_id":"levelo_inurba_marseille","lat":43.30323,"lon":5.40436,"is_reserved":false,"is_disabled":false,"rental_uris":{"android":"levelo://app?vid=3dd815e4-abcc-4b66-85a9-dc6b87665063","ios":"levelo://app?vid=3dd815e4-abcc-4b66-85a9-dc6b87665063"},"vehicle_type_id":"4","last_reported":1752351051,"current_range_meters":8000,"station_id":"ce4bh012rcd13ifvqd10","pricing_plan_id":"cebpf4jnsgd1na2vs0mg"},{"bike_id":"7c4cd190-8c74-4e5b-8fbc-fe653510c798","system_id":"levelo_inurba_marseille","lat":43.26013,"lon":5.37558,"is_reserved":false,"is_disabled":false,"rental_uris":{"android":"levelo://app?vid=7c4cd190-8c74-4e5b-8fbc-fe653510c798","ios":"levelo://app?vid=7c4cd190-8c74-4e5b-8fbc-fe653510c798"},"vehicle_type_id":"4","last_reported":1752351051,"current_range_meters":8000,"station_id":"ce4bhgh2rcd13ifvqfa0","pricing_plan_id":"cebpf4jnsgd1na2vs0mg"},{"bike_id":"9a721a67-800d-41fb-b2c2-3309f63164c3","system_id":"levelo_inurba_marseille","lat":43.21198,"lon":5.35057,"is_reserved":false,"is_disabled":false,"rental_uris":{"android":"levelo://app?vid=9a721a67-800d-41fb-b2c2-3309f63164c3","ios":"levelo://app?vid=9a721a67-800d-41fb-b2c2-3309f63164c3"},"vehicle_type_id":"4","last_reported":1752351051,"current_range_meters":8000,"station_id":"st_cvj6sg6p6f1abm77japg","pricing_plan_id":"cebpf4jnsgd1na2vs0mg"},{"bike_id":"2f0ba75c-aff3-43f4-857b-fc7c66f4e426","system_id":"levelo_inurba_marseille","lat":43.30967,"lon":5.39019,"is_reserved":false,"is_disabled":true,"rental_uris":{"android":"levelo://app?vid=2f0ba75c-aff3-43f4-857b-fc7c66f4e426","ios":"levelo://app?vid=2f0ba75c-aff3-43f4-857b-fc7c66f4e426"},"vehicle_type_id":"4","last_reported":1752351051,"current_range_meters":8400,"station_id":"ce4bgup2rcd13ifvqco0","pricing_plan_id":"cebpf4jnsgd1na2vs0mg"},{"bike_id":"04bf99cc-25e3-4597-b02a-72efe86e401f","system_id":"levelo_inurba_marseille","lat":43.29935,"lon":5.36544,"is_reserved":false,"is_disabled":false,"rental_uris":{"android":"levelo://app?vid=04bf99cc-25e3-4597-b02a-72efe86e401f","ios":"levelo://app?vid=04bf99cc-25e3-4597-b02a-72efe86e401f"},"vehicle_type_id":"4","last_reported":1752351051,"current_range_meters":8400,"station_id":"ce4bgm92rcd13ifvqbr0","pricing_plan_id":"cebpf4jnsgd1na2vs0mg"},{"bike_id":"a5ca7410-24c5-405f-b9ae-029576c1c975","system_id":"levelo_inurba_marseille","lat":43.31538,"lon":5.42414,"is_reserved":false,"is_disabled":false,"rental_uris":{"android":"levelo://app?vid=a5ca7410-24c5-405f-b9ae-029576c1c975","ios":"levelo://app?vid=a5ca7410-24c5-405f-b9ae-029576c1c975"},"vehicle_type_id":"4","last_reported":1752351051,"current_range_meters":8400,"station_id":"","pricing_plan_id":"cebpf4jnsgd1na2vs0mg"},{"bike_id":"737bb46a-955d-402f-9979-df5acde862e8","system_id":"levelo_inurba_marseille","lat":43.29599,"lon":5.380953,"is_reserved":false,"is_disabled":false,"rental_uris":{"android":"levelo://app?vid=737bb46a-955d-402f-9979-df5acde862e8","ios":"levelo://app?vid=737bb46a-955d-402f-9979-df5acde862e8"},"vehicle_type_id":"4","last_reported":1752351051,"current_range_meters":8800,"station_id":"ce4bhbh2rcd13ifvqepg","pricing_plan_id":"cebpf4jnsgd1na2vs0mg"},{"bike_id":"5f6082ef-e4fa-4931-9809-c53d0a27bb00","system_id":"levelo_inurba_marseille","lat":43.28406,"lon":5.37529,"is_reserved":false,"is_disabled":true,"rental_uris":{"android":"levelo://app?vid=5f6082ef-e4fa-4931-9809-c53d0a27bb00","ios":"levelo://app?vid=5f6082ef-e4fa-4931-9809-c53d0a27bb00"},"vehicle_type_id":"4","last_reported":1752351051,"current_range_meters":8800,"station_id":"ce4bh412rcd13ifvqds0","pricing_plan_id":"cebpf4jnsgd1na2vs0mg"},{"bike_id":"b28d0174-de13-4e25-9ce4-6256661848c8","system_id":"levelo_inurba_marseille","lat":43.309387,"lon":5.390513,"is_reserved":false,"is_disabled":false,"rental_uris":{"android":"levelo://app?vid=b28d0174-de13-4e25-9ce4-6256661848c8","ios":"levelo://app?vid=b28d0174-de13-4e25-9ce4-6256661848c8"},"vehicle_type_id":"4","last_reported":1752351051,"current_range_meters":8800,"station_id":"ce4bgup2rcd13ifvqco0","pricing_plan_id":"cebpf4jnsgd1na2vs0mg"},{"bike_id":"595e9351-a7ce-45de-8995-771f7d9fe86e","system_id":"levelo_inurba_marseille","lat":43.309243,"lon":5.378088,"is_reserved":false,"is_disabled":false,"rental_uris":{"android":"levelo://app?vid=595e9351-a7ce-45de-8995-771f7d9fe86e","ios":"levelo://app?vid=595e9351-a7ce-45de-8995-771f7d9fe86e"},"vehicle_type_id":"4","last_reported":1752351051,"current_range_meters":8800,"station_id":"","pricing_plan_id":"cebpf4jnsgd1na2vs0mg"},{"bike_id":"e3a75ee9-c614-467b-8cc2-f813bcef2ab1","system_id":"levelo_inurba_marseille","lat":43.33743,"lon":5.3919,"is_reserved":false,"is_disabled":true,"rental_uris":{"android":"levelo://app?vid=e3a75ee9-c614-467b-8cc2-f813bcef2ab1","ios":"levelo://app?vid=e3a75ee9-c614-467b-8cc2-f813bcef2ab1"},"vehicle_type_id":"4","last_reported":1752351051,"current_range_meters":8800,"station_id":"ce4bhr92rcd13ifvqhsg","pricing_plan_id":"cebpf4jnsgd1na2vs0mg"},{"bike_id":"fd99b2a2-14cc-4a14-a709-c16778cae547","system_id":"levelo_inurba_marseille","lat":43.28669,"lon":5.38661,"is_reserved":false,"is_disabled":false,"rental_uris":{"android":"levelo://app?vid=fd99b2a2-14cc-4a14-a709-c16778cae547","ios":"levelo://app?vid=fd99b2a2-14cc-4a14-a709-c16778cae547"},"vehicle_type_id":"4","last_reported":1752351051,"current_range_meters":9200,"station_id":"ce4bh492rcd13ifvqdug","pricing_plan_id":"cebpf4jnsgd1na2vs0mg"},{"bike_id":"097106d7-0dc8-4152-8540-cae0e1de8dea","system_id":"levelo_inurba_marseille","lat":43.21146,"lon":5.3507,"is_reserved":false,"is_disabled":false,"rental_uris":{"android":"levelo://app?vid=097106d7-0dc8-4152-8540-cae0e1de8dea","ios":"levelo://app?vid=097106d7-0dc8-4152-8540-cae0e1de8dea"},"vehicle_type_id":"4","last_reported":1752351051,"current_range_meters":9200,"station_id":"st_cvj6sg6p6f1abm77japg","pricing_plan_id":"cebpf4jnsgd1na2vs0mg"},{"bike_id":"03251f63-26eb-493f-9d65-8e11851ca687","system_id":"levelo_inurba_marseille","lat":43.28863,"lon":5.39305,"is_reserved":false,"is_disabled":true,"rental_uris":{"android":"levelo://app?vid=03251f63-26eb-493f-9d65-8e11851ca687","ios":"levelo://app?vid=03251f63-26eb-493f-9d65-8e11851ca687"},"vehicle_type_id":"4","last_reported":1752351051,"current_range_meters":9200,"station_id":"ce4bh2p2rcd13ifvqdi0","pricing_plan_id":"cebpf4jnsgd1na2vs0mg"},{"bike_id":"df64248e-70bd-49e7-b528-2e25ff87d83c","system_id":"levelo_inurba_marseille","lat":43.25491,"lon":5.3765,"is_reserved":false,"is_disabled":false,"rental_uris":{"android":"levelo://app?vid=df64248e-70bd-49e7-b528-2e25ff87d83c","ios":"levelo://app?vid=df64248e-70bd-49e7-b528-2e25ff87d83c"},"vehicle_type_id":"4","last_reported":1752351051,"current_range_meters":8800,"station_id":"ce4bhh12rcd13ifvqff0","pricing_plan_id":"cebpf4jnsgd1na2vs0mg"},{"bike_id":"93b26d68-4ec3-408c-ba77-575bab6b881c","system_id":"levelo_inurba_marseille","lat":43.26212,"lon":5.3743,"is_reserved":false,"is_disabled":false,"rental_uris":{"android":"levelo://app?vid=93b26d68-4ec3-408c-ba77-575bab6b881c","ios":"levelo://app?vid=93b26d68-4ec3-408c-ba77-575bab6b881c"},"vehicle_type_id":"4","last_reported":1752351051,"current_range_meters":9200,"station_id":"ce4bhgp2rcd13ifvqfc0","pricing_plan_id":"cebpf4jnsgd1na2vs0mg"},{"bike_id":"30082c6b-4a7b-4638-a4ae-66135ff7d26c","system_id":"levelo_inurba_marseille","lat":43.23243,"lon":5.35462,"is_reserved":false,"is_disabled":false,"rental_uris":{"android":"levelo://app?vid=30082c6b-4a7b-4638-a4ae-66135ff7d26c","ios":"levelo://app?vid=30082c6b-4a7b-4638-a4ae-66135ff7d26c"},"vehicle_type_id":"4","last_reported":1752351051,"current_range_meters":9200,"station_id":"ce4bhu92rcd13ifvqi70","pricing_plan_id":"cebpf4jnsgd1na2vs0mg"},{"bike_id":"49c81f2e-8823-400f-8709-e2ca69cf30ab","system_id":"levelo_inurba_marseille","lat":43.28455,"lon":5.35883,"is_reserved":false,"is_disabled":false,"rental_uris":{"android":"levelo://app?vid=49c81f2e-8823-400f-8709-e2ca69cf30ab","ios":"levelo://app?vid=49c81f2e-8823-400f-8709-e2ca69cf30ab"},"vehicle_type_id":"4","last_reported":1752351051,"current_range_meters":9200,"station_id":"ce4bhah2rcd13ifvqei0","pricing_plan_id":"cebpf4jnsgd1na2vs0mg"},{"bike_id":"621e3d77-a052-4190-9fa9-0c299bf51976","system_id":"levelo_inurba_marseille","lat":43.296,"lon":5.38102,"is_reserved":false,"is_disabled":false,"rental_uris":{"android":"levelo://app?vid=621e3d77-a052-4190-9fa9-0c299bf51976","ios":"levelo://app?vid=621e3d77-a052-4190-9fa9-0c299bf51976"},"vehicle_type_id":"4","last_reported":1752351051,"current_range_meters":9200,"station_id":"ce4bgl12rcd13ifvqbo0","pricing_plan_id":"cebpf4jnsgd1na2vs0mg"},{"bike_id":"7525ad54-d49b-4c94-b554-9fc1a2f0b8b8","system_id":"levelo_inurba_marseille","lat":43.26929,"lon":5.38921,"is_reserved":false,"is_disabled":false,"rental_uris":{"android":"levelo://app?vid=7525ad54-d49b-4c94-b554-9fc1a2f0b8b8","ios":"levelo://app?vid=7525ad54-d49b-4c94-b554-9fc1a2f0b8b8"},"vehicle_type_id":"4","last_reported":1752351051,"current_range_meters":8800,"station_id":"ce4bhhh2rcd13ifvqfl0","pricing_plan_id":"cebpf4jnsgd1na2vs0mg"},{"bike_id":"56dc526a-672d-4a22-b5b5-e95b5cb8c05d","system_id":"levelo_inurba_marseille","lat":43.29087,"lon":5.38162,"is_reserved":false,"is_disabled":false,"rental_uris":{"android":"levelo://app?vid=56dc526a-672d-4a22-b5b5-e95b5cb8c05d","ios":"levelo://app?vid=56dc526a-672d-4a22-b5b5-e95b5cb8c05d"},"vehicle_type_id":"4","last_reported":1752351051,"current_range_meters":9600,"station_id":"ce4bh512rcd13ifvqe2g","pricing_plan_id":"cebpf4jnsgd1na2vs0mg"},{"bike_id":"8929c1bf-fd4d-44e4-aa66-b3eb6538c998","system_id":"levelo_inurba_marseille","lat":43.28558,"lon":5.42999,"is_reserved":false,"is_disabled":false,"rental_uris":{"android":"levelo://app?vid=8929c1bf-fd4d-44e4-aa66-b3eb6538c998","ios":"levelo://app?vid=8929c1bf-fd4d-44e4-aa66-b3eb6538c998"},"vehicle_type_id":"4","last_reported":1752351051,"current_range_meters":9600,"station_id":"","pricing_plan_id":"cebpf4jnsgd1na2vs0mg"},{"bike_id":"5a71ab42-51f6-4d74-8942-e5c8339f2255","system_id":"levelo_inurba_marseille","lat":43.31755,"lon":5.390183,"is_reserved":false,"is_disabled":true,"rental_uris":{"android":"levelo://app?vid=5a71ab42-51f6-4d74-8942-e5c8339f2255","ios":"levelo://app?vid=5a71ab42-51f6-4d74-8942-e5c8339f2255"},"vehicle_type_id":"4","last_reported":1752351051,"current_range_meters":9600,"station_id":"ce4bhqp2rcd13ifvqhng","pricing_plan_id":"cebpf4jnsgd1na2vs0mg"},{"bike_id":"df61839a-7a72-4634-9960-e8ea0d9a8d35","system_id":"levelo_inurba_marseille","lat":43.239474,"lon":5.366089,"is_reserved":false,"is_disabled":true,"rental_uris":{"android":"levelo://app?vid=df61839a-7a72-4634-9960-e8ea0d9a8d35","ios":"levelo://app?vid=df61839a-7a72-4634-9960-e8ea0d9a8d35"},"vehicle_type_id":"4","last_reported":1752351051,"current_range_meters":9600,"station_id":"","pricing_plan_id":"cebpf4jnsgd1na2vs0mg"},{"bike_id":"0603dd57-f21e-4570-839c-34971d5a49ab","system_id":"levelo_inurba_marseille","lat":43.296398,"lon":5.405982,"is_reserved":false,"is_disabled":false,"rental_uris":{"android":"levelo://app?vid=0603dd57-f21e-4570-839c-34971d5a49ab","ios":"levelo://app?vid=0603dd57-f21e-4570-839c-34971d5a49ab"},"vehicle_type_id":"4","last_reported":1752351051,"current_range_meters":9600,"station_id":"ce4bh0h2rcd13ifvqd60","pricing_plan_id":"cebpf4jnsgd1na2vs0mg"},{"bike_id":"e62e329b-c179-45b8-adb5-25e4517e11e8","system_id":"levelo_inurba_marseille","lat":43.30886,"lon":5.39646,"is_reserved":false,"is_disabled":false,"rental_uris":{"android":"levelo://app?vid=e62e329b-c179-45b8-adb5-25e4517e11e8","ios":"levelo://app?vid=e62e329b-c179-45b8-adb5-25e4517e11e8"},"vehicle_type_id":"4","last_reported":1752351051,"current_range_meters":9600,"station_id":"ce4bh012rcd13ifvqcv0","pricing_plan_id":"cebpf4jnsgd1na2vs0mg"},{"bike_id":"75bb1dd6-50a7-47a9-9e4b-6b29bd46237a","system_id":"levelo_inurba_marseille","lat":43.21234,"lon":5.35035,"is_reserved":false,"is_disabled":false,"rental_uris":{"android":"levelo://app?vid=75bb1dd6-50a7-47a9-9e4b-6b29bd46237a","ios":"levelo://app?vid=75bb1dd6-50a7-47a9-9e4b-6b29bd46237a"},"vehicle_type_id":"4","last_reported":1752351051,"current_range_meters":9600,"station_id":"","pricing_plan_id":"cebpf4jnsgd1na2vs0mg"},{"bike_id":"01099cd6-61d6-4214-88fc-1ca9b3a720ab","system_id":"levelo_inurba_marseille","lat":43.28733,"lon":5.37948,"is_reserved":false,"is_disabled":false,"rental_uris":{"android":"levelo://app?vid=01099cd6-61d6-4214-88fc-1ca9b3a720ab","ios":"levelo://app?vid=01099cd6-61d6-4214-88fc-1ca9b3a720ab"},"vehicle_type_id":"4","last_reported":1752351051,"current_range_meters":9600,"station_id":"ce4bh9p2rcd13ifvqec0","pricing_plan_id":"cebpf4jnsgd1na2vs0mg"},{"bike_id":"bec36068-89b3-42c2-83a9-9e90fb975687","system_id":"levelo_inurba_marseille","lat":43.26025,"lon":5.37545,"is_reserved":false,"is_disabled":false,"rental_uris":{"android":"levelo://app?vid=bec36068-89b3-42c2-83a9-9e90fb975687","ios":"levelo://app?vid=bec36068-89b3-42c2-83a9-9e90fb975687"},"vehicle_type_id":"4","last_reported":1752351051,"current_range_meters":10000,"station_id":"ce4bhgh2rcd13ifvqfa0","pricing_plan_id":"cebpf4jnsgd1na2vs0mg"},{"bike_id":"46cacac0-84b7-4c70-a453-a1cb8250fb4d","system_id":"levelo_inurba_marseille","lat":43.33801,"lon":5.37416,"is_reserved":false,"is_disabled":false,"rental_uris":{"android":"levelo://app?vid=46cacac0-84b7-4c70-a453-a1cb8250fb4d","ios":"levelo://app?vid=46cacac0-84b7-4c70-a453-a1cb8250fb4d"},"vehicle_type_id":"4","last_reported":1752351051,"current_range_meters":10000,"station_id":"","pricing_plan_id":"cebpf4jnsgd1na2vs0mg"},{"bike_id":"051d9f17-9d29-46ab-9983-0430b271137a","system_id":"levelo_inurba_marseille","lat":43.26158,"lon":5.3749,"is_reserved":false,"is_disabled":false,"rental_uris":{"android":"levelo://app?vid=051d9f17-9d29-46ab-9983-0430b271137a","ios":"levelo://app?vid=051d9f17-9d29-46ab-9983-0430b271137a"},"vehicle_type_id":"4","last_reported":1752351051,"current_range_meters":10000,"station_id":"ce4bhgp2rcd13ifvqfc0","pricing_plan_id":"cebpf4jnsgd1na2vs0mg"},{"bike_id":"21f51f77-8b78-488b-a42e-44d2a504cf11","system_id":"levelo_inurba_marseille","lat":43.24166,"lon":5.36376,"is_reserved":false,"is_disabled":true,"rental_uris":{"android":"levelo://app?vid=21f51f77-8b78-488b-a42e-44d2a504cf11","ios":"levelo://app?vid=21f51f77-8b78-488b-a42e-44d2a504cf11"},"vehicle_type_id":"4","last_reported":1752351051,"current_range_meters":10000,"station_id":"cpo36qri1sfpv3e86is0","pricing_plan_id":"cebpf4jnsgd1na2vs0mg"},{"bike_id":"3756969e-c913-4463-b8d5-f958fdd0684c","system_id":"levelo_inurba_marseille","lat":43.23186,"lon":5.39985,"is_reserved":false,"is_disabled":false,"rental_uris":{"android":"levelo://app?vid=3756969e-c913-4463-b8d5-f958fdd0684c","ios":"levelo://app?vid=3756969e-c913-4463-b8d5-f958fdd0684c"},"vehicle_type_id":"4","last_reported":1752351051,"current_range_meters":10800,"station_id":"ce4bhn12rcd13ifvqgqg","pricing_plan_id":"cebpf4jnsgd1na2vs0mg"},{"bike_id":"070d3785-d84e-4ab6-b98f-267cad579044","system_id":"levelo_inurba_marseille","lat":43.29521,"lon":5.39405,"is_reserved":false,"is_disabled":false,"rental_uris":{"android":"levelo://app?vid=070d3785-d84e-4ab6-b98f-267cad579044","ios":"levelo://app?vid=070d3785-d84e-4ab6-b98f-267cad579044"},"vehicle_type_id":"4","last_reported":1752351051,"current_range_meters":10800,"station_id":"ce4bh292rcd13ifvqdf0","pricing_plan_id":"cebpf4jnsgd1na2vs0mg"},{"bike_id":"bbecabe1-2d3f-49c4-b660-0696144c61b8","system_id":"levelo_inurba_marseille","lat":43.2926,"lon":5.38454,"is_reserved":false,"is_disabled":false,"rental_uris":{"android":"levelo://app?vid=bbecabe1-2d3f-49c4-b660-0696144c61b8","ios":"levelo://app?vid=bbecabe1-2d3f-49c4-b660-0696144c61b8"},"vehicle_type_id":"4","last_reported":1752351051,"current_range_meters":10800,"station_id":"ce4bh692rcd13ifvqea0","pricing_plan_id":"cebpf4jnsgd1na2vs0mg"},{"bike_id":"61198919-e72c-4fce-bc96-126627987dc0","system_id":"levelo_inurba_marseille","lat":43.29577,"lon":5.37863,"is_reserved":false,"is_disabled":false,"rental_uris":{"android":"levelo://app?vid=61198919-e72c-4fce-bc96-126627987dc0","ios":"levelo://app?vid=61198919-e72c-4fce-bc96-126627987dc0"},"vehicle_type_id":"4","last_reported":1752351051,"current_range_meters":10800,"station_id":"","pricing_plan_id":"cebpf4jnsgd1na2vs0mg"},{"bike_id":"53d147c2-ad17-4be8-b9c4-7dfe6540661a","system_id":"levelo_inurba_marseille","lat":43.28452,"lon":5.39179,"is_reserved":false,"is_disabled":false,"rental_uris":{"android":"levelo://app?vid=53d147c2-ad17-4be8-b9c4-7dfe6540661a","ios":"levelo://app?vid=53d147c2-ad17-4be8-b9c4-7dfe6540661a"},"vehicle_type_id":"4","last_reported":1752351051,"current_range_meters":10800,"station_id":"ce4bhoh2rcd13ifvqh5g","pricing_plan_id":"cebpf4jnsgd1na2vs0mg"},{"bike_id":"4e18f6a0-cf0a-4e54-823e-14d073e25d70","system_id":"levelo_inurba_marseille","lat":43.28031,"lon":5.36945,"is_reserved":false,"is_disabled":true,"rental_uris":{"android":"levelo://app?vid=4e18f6a0-cf0a-4e54-823e-14d073e25d70","ios":"levelo://app?vid=4e18f6a0-cf0a-4e54-823e-14d073e25d70"},"vehicle_type_id":"4","last_reported":1752351051,"current_range_meters":10800,"station_id":"ce4bha12rcd13ifvqef0","pricing_plan_id":"cebpf4jnsgd1na2vs0mg"},{"bike_id":"3c4552a5-5614-4c82-b6dc-da5ec6fa86d8","system_id":"levelo_inurba_marseille","lat":43.26019,"lon":5.37553,"is_reserved":false,"is_disabled":false,"rental_uris":{"android":"levelo://app?vid=3c4552a5-5614-4c82-b6dc-da5ec6fa86d8","ios":"levelo://app?vid=3c4552a5-5614-4c82-b6dc-da5ec6fa86d8"},"vehicle_type_id":"4","last_reported":1752351051,"current_range_meters":10800,"station_id":"ce4bhgh2rcd13ifvqfa0","pricing_plan_id":"cebpf4jnsgd1na2vs0mg"},{"bike_id":"c453155a-5220-48fc-922b-600ca54f8ab5","system_id":"levelo_inurba_marseille","lat":43.28649,"lon":5.36348,"is_reserved":false,"is_disabled":true,"rental_uris":{"android":"levelo://app?vid=c453155a-5220-48fc-922b-600ca54f8ab5","ios":"levelo://app?vid=c453155a-5220-48fc-922b-600ca54f8ab5"},"vehicle_type_id":"4","last_reported":1752351051,"current_range_meters":10800,"station_id":"ce4bhah2rcd13ifvqej0","pricing_plan_id":"cebpf4jnsgd1na2vs0mg"},{"bike_id":"297f7a4d-6e86-4c62-9995-41f8589188c2","system_id":"levelo_inurba_marseille","lat":43.29267,"lon":5.38442,"is_reserved":false,"is_disabled":false,"rental_uris":{"android":"levelo://app?vid=297f7a4d-6e86-4c62-9995-41f8589188c2","ios":"levelo://app?vid=297f7a4d-6e86-4c62-9995-41f8589188c2"},"vehicle_type_id":"4","last_reported":1752351051,"current_range_meters":11200,"station_id":"ce4bh692rcd13ifvqea0","pricing_plan_id":"cebpf4jnsgd1na2vs0mg"},{"bike_id":"e6e72963-b2bd-4a67-a076-069cdfba7612","system_id":"levelo_inurba_marseille","lat":43.30408,"lon":5.41294,"is_reserved":false,"is_disabled":false,"rental_uris":{"android":"levelo://app?vid=e6e72963-b2bd-4a67-a076-069cdfba7612","ios":"levelo://app?vid=e6e72963-b2bd-4a67-a076-069cdfba7612"},"vehicle_type_id":"4","last_reported":1752351051,"current_range_meters":11200,"station_id":"ce4bhop2rcd13ifvqh8g","pricing_plan_id":"cebpf4jnsgd1na2vs0mg"},{"bike_id":"6bd7002a-7d96-44e0-bd6c-ca0cb9be047d","system_id":"levelo_inurba_marseille","lat":43.26188,"lon":5.37452,"is_reserved":false,"is_disabled":false,"rental_uris":{"android":"levelo://app?vid=6bd7002a-7d96-44e0-bd6c-ca0cb9be047d","ios":"levelo://app?vid=6bd7002a-7d96-44e0-bd6c-ca0cb9be047d"},"vehicle_type_id":"4","last_reported":1752351051,"current_range_meters":11200,"station_id":"ce4bh112rcd13ifvqd90","pricing_plan_id":"cebpf4jnsgd1na2vs0mg"},{"bike_id":"2f2bafa8-e4b6-48bc-a4e4-62a59edca0c6","system_id":"levelo_inurba_marseille","lat":43.29617,"lon":5.37164,"is_reserved":false,"is_disabled":false,"rental_uris":{"android":"levelo://app?vid=2f2bafa8-e4b6-48bc-a4e4-62a59edca0c6","ios":"levelo://app?vid=2f2bafa8-e4b6-48bc-a4e4-62a59edca0c6"},"vehicle_type_id":"4","last_reported":1752351051,"current_range_meters":10800,"station_id":"ce4bgnh2rcd13ifvqc0g","pricing_plan_id":"cebpf4jnsgd1na2vs0mg"},{"bike_id":"2a736229-884a-4263-9201-29e71006e1b4","system_id":"levelo_inurba_marseille","lat":43.32317,"lon":5.40617,"is_reserved":false,"is_disabled":false,"rental_uris":{"android":"levelo://app?vid=2a736229-884a-4263-9201-29e71006e1b4","ios":"levelo://app?vid=2a736229-884a-4263-9201-29e71006e1b4"},"vehicle_type_id":"4","last_reported":1752351051,"current_range_meters":11200,"station_id":"ce4bhq92rcd13ifvqhjg","pricing_plan_id":"cebpf4jnsgd1na2vs0mg"},{"bike_id":"5a1aa169-e8de-4c42-8232-f9cf794c57f1","system_id":"levelo_inurba_marseille","lat":43.21183,"lon":5.35075,"is_reserved":false,"is_disabled":false,"rental_uris":{"android":"levelo://app?vid=5a1aa169-e8de-4c42-8232-f9cf794c57f1","ios":"levelo://app?vid=5a1aa169-e8de-4c42-8232-f9cf794c57f1"},"vehicle_type_id":"4","last_reported":1752351051,"current_range_meters":11200,"station_id":"st_cvj6sg6p6f1abm77japg","pricing_plan_id":"cebpf4jnsgd1na2vs0mg"},{"bike_id":"c11adfa1-b508-4fe0-ae53-980aeb066f94","system_id":"levelo_inurba_marseille","lat":43.31809,"lon":5.39061,"is_reserved":false,"is_disabled":false,"rental_uris":{"android":"levelo://app?vid=c11adfa1-b508-4fe0-ae53-980aeb066f94","ios":"levelo://app?vid=c11adfa1-b508-4fe0-ae53-980aeb066f94"},"vehicle_type_id":"4","last_reported":1752351051,"current_range_meters":11200,"station_id":"","pricing_plan_id":"cebpf4jnsgd1na2vs0mg"},{"bike_id":"dbba3321-20c7-4989-a7b5-ea9ab2c4b3e8","system_id":"levelo_inurba_marseille","lat":43.261935,"lon":5.374477,"is_reserved":false,"is_disabled":false,"rental_uris":{"android":"levelo://app?vid=dbba3321-20c7-4989-a7b5-ea9ab2c4b3e8","ios":"levelo://app?vid=dbba3321-20c7-4989-a7b5-ea9ab2c4b3e8"},"vehicle_type_id":"4","last_reported":1752351051,"current_range_meters":11200,"station_id":"ce4bhgp2rcd13ifvqfc0","pricing_plan_id":"cebpf4jnsgd1na2vs0mg"},{"bike_id":"eabc5a23-ffbe-45df-a4b2-0c68ee322774","system_id":"levelo_inurba_marseille","lat":43.2993,"lon":5.3654,"is_reserved":false,"is_disabled":false,"rental_uris":{"android":"levelo://app?vid=eabc5a23-ffbe-45df-a4b2-0c68ee322774","ios":"levelo://app?vid=eabc5a23-ffbe-45df-a4b2-0c68ee322774"},"vehicle_type_id":"4","last_reported":1752351051,"current_range_meters":11600,"station_id":"ce4bgm92rcd13ifvqbr0","pricing_plan_id":"cebpf4jnsgd1na2vs0mg"},{"bike_id":"febec9a3-2797-423d-a424-12f3a796fcb3","system_id":"levelo_inurba_marseille","lat":43.31674,"lon":5.40427,"is_reserved":false,"is_disabled":false,"rental_uris":{"android":"levelo://app?vid=febec9a3-2797-423d-a424-12f3a796fcb3","ios":"levelo://app?vid=febec9a3-2797-423d-a424-12f3a796fcb3"},"vehicle_type_id":"4","last_reported":1752351051,"current_range_meters":11600,"station_id":"ce4bh012rcd13ifvqd00","pricing_plan_id":"cebpf4jnsgd1na2vs0mg"},{"bike_id":"ffe907d6-7ed9-401c-9d9c-e32dcd8dda6d","system_id":"levelo_inurba_marseille","lat":43.29247,"lon":5.38457,"is_reserved":false,"is_disabled":false,"rental_uris":{"android":"levelo://app?vid=ffe907d6-7ed9-401c-9d9c-e32dcd8dda6d","ios":"levelo://app?vid=ffe907d6-7ed9-401c-9d9c-e32dcd8dda6d"},"vehicle_type_id":"4","last_reported":1752351051,"current_range_meters":11600,"station_id":"ce4bh692rcd13ifvqea0","pricing_plan_id":"cebpf4jnsgd1na2vs0mg"},{"bike_id":"ab6cb234-c8d6-4ce4-ab4f-b14b364484d3","system_id":"levelo_inurba_marseille","lat":43.30089,"lon":5.38162,"is_reserved":false,"is_disabled":false,"rental_uris":{"android":"levelo://app?vid=ab6cb234-c8d6-4ce4-ab4f-b14b364484d3","ios":"levelo://app?vid=ab6cb234-c8d6-4ce4-ab4f-b14b364484d3"},"vehicle_type_id":"4","last_reported":1752351051,"current_range_meters":11600,"station_id":"","pricing_plan_id":"cebpf4jnsgd1na2vs0mg"},{"bike_id":"26e33ae6-66f8-45d0-bec5-947f91d6b116","system_id":"levelo_inurba_marseille","lat":43.26204,"lon":5.37449,"is_reserved":false,"is_disabled":false,"rental_uris":{"android":"levelo://app?vid=26e33ae6-66f8-45d0-bec5-947f91d6b116","ios":"levelo://app?vid=26e33ae6-66f8-45d0-bec5-947f91d6b116"},"vehicle_type_id":"4","last_reported":1752351051,"current_range_meters":11600,"station_id":"ce4bhgp2rcd13ifvqfc0","pricing_plan_id":"cebpf4jnsgd1na2vs0mg"},{"bike_id":"92c7f818-8d00-4462-91c1-ef0370e03299","system_id":"levelo_inurba_marseille","lat":43.269309,"lon":5.389102,"is_reserved":false,"is_disabled":false,"rental_uris":{"android":"levelo://app?vid=92c7f818-8d00-4462-91c1-ef0370e03299","ios":"levelo://app?vid=92c7f818-8d00-4462-91c1-ef0370e03299"},"vehicle_type_id":"4","last_reported":1752351051,"current_range_meters":12000,"station_id":"ce4bhhh2rcd13ifvqfl0","pricing_plan_id":"cebpf4jnsgd1na2vs0mg"},{"bike_id":"d502518b-cea4-4a93-9e26-6385d9028156","system_id":"levelo_inurba_marseille","lat":43.295349,"lon":5.385473,"is_reserved":false,"is_disabled":false,"rental_uris":{"android":"levelo://app?vid=d502518b-cea4-4a93-9e26-6385d9028156","ios":"levelo://app?vid=d502518b-cea4-4a93-9e26-6385d9028156"},"vehicle_type_id":"4","last_reported":1752351051,"current_range_meters":12000,"station_id":"ce4bhb12rcd13ifvqem0","pricing_plan_id":"cebpf4jnsgd1na2vs0mg"},{"bike_id":"38815d2b-48df-4038-9515-127ee3516d98","system_id":"levelo_inurba_marseille","lat":43.31079,"lon":5.42427,"is_reserved":false,"is_disabled":false,"rental_uris":{"android":"levelo://app?vid=38815d2b-48df-4038-9515-127ee3516d98","ios":"levelo://app?vid=38815d2b-48df-4038-9515-127ee3516d98"},"vehicle_type_id":"4","last_reported":1752351051,"current_range_meters":12000,"station_id":"ce4bhp92rcd13ifvqhag","pricing_plan_id":"cebpf4jnsgd1na2vs0mg"},{"bike_id":"aeef83a0-cd48-47ed-b123-08598ed42290","system_id":"levelo_inurba_marseille","lat":43.310717,"lon":5.383491,"is_reserved":false,"is_disabled":false,"rental_uris":{"android":"levelo://app?vid=aeef83a0-cd48-47ed-b123-08598ed42290","ios":"levelo://app?vid=aeef83a0-cd48-47ed-b123-08598ed42290"},"vehicle_type_id":"4","last_reported":1752351051,"current_range_meters":12000,"station_id":"ce4bgv92rcd13ifvqcr0","pricing_plan_id":"cebpf4jnsgd1na2vs0mg"},{"bike_id":"48167428-318e-40e4-8acf-b6c7fceb9c42","system_id":"levelo_inurba_marseille","lat":43.287249,"lon":5.360916,"is_reserved":false,"is_disabled":false,"rental_uris":{"android":"levelo://app?vid=48167428-318e-40e4-8acf-b6c7fceb9c42","ios":"levelo://app?vid=48167428-318e-40e4-8acf-b6c7fceb9c42"},"vehicle_type_id":"4","last_reported":1752351051,"current_range_meters":12000,"station_id":"cki0cbj6b192h4jlfktg","pricing_plan_id":"cebpf4jnsgd1na2vs0mg"},{"bike_id":"3c3c92ed-5141-446c-ba99-73a670bc734d","system_id":"levelo_inurba_marseille","lat":43.25491,"lon":5.37652,"is_reserved":false,"is_disabled":false,"rental_uris":{"android":"levelo://app?vid=3c3c92ed-5141-446c-ba99-73a670bc734d","ios":"levelo://app?vid=3c3c92ed-5141-446c-ba99-73a670bc734d"},"vehicle_type_id":"4","last_reported":1752351051,"current_range_meters":12000,"station_id":"ce4bhh12rcd13ifvqff0","pricing_plan_id":"cebpf4jnsgd1na2vs0mg"},{"bike_id":"26e4b2ab-0c78-47b3-93ec-a4f124eed472","system_id":"levelo_inurba_marseille","lat":43.30951,"lon":5.39038,"is_reserved":false,"is_disabled":false,"rental_uris":{"android":"levelo://app?vid=26e4b2ab-0c78-47b3-93ec-a4f124eed472","ios":"levelo://app?vid=26e4b2ab-0c78-47b3-93ec-a4f124eed472"},"vehicle_type_id":"4","last_reported":1752351051,"current_range_meters":12000,"station_id":"ce4bgup2rcd13ifvqco0","pricing_plan_id":"cebpf4jnsgd1na2vs0mg"},{"bike_id":"c54adf24-1ba5-4887-be3f-861a28959cad","system_id":"levelo_inurba_marseille","lat":43.3097,"lon":5.39016,"is_reserved":false,"is_disabled":false,"rental_uris":{"android":"levelo://app?vid=c54adf24-1ba5-4887-be3f-861a28959cad","ios":"levelo://app?vid=c54adf24-1ba5-4887-be3f-861a28959cad"},"vehicle_type_id":"4","last_reported":1752351051,"current_range_meters":12000,"station_id":"ce4bgup2rcd13ifvqco0","pricing_plan_id":"cebpf4jnsgd1na2vs0mg"},{"bike_id":"c816310d-8ff0-4290-b10a-aad431dd902c","system_id":"levelo_inurba_marseille","lat":43.2173,"lon":5.34647,"is_reserved":false,"is_disabled":true,"rental_uris":{"android":"levelo://app?vid=c816310d-8ff0-4290-b10a-aad431dd902c","ios":"levelo://app?vid=c816310d-8ff0-4290-b10a-aad431dd902c"},"vehicle_type_id":"4","last_reported":1752351051,"current_range_meters":12400,"station_id":"st_cvj6r9ubvosntc0bgbag","pricing_plan_id":"cebpf4jnsgd1na2vs0mg"},{"bike_id":"8a1d06ba-2115-4a2f-84a8-48907a4a37ec","system_id":"levelo_inurba_marseille","lat":43.2931,"lon":5.37172,"is_reserved":false,"is_disabled":false,"rental_uris":{"android":"levelo://app?vid=8a1d06ba-2115-4a2f-84a8-48907a4a37ec","ios":"levelo://app?vid=8a1d06ba-2115-4a2f-84a8-48907a4a37ec"},"vehicle_type_id":"4","last_reported":1752351051,"current_range_meters":12400,"station_id":"ce4bgh92rcd13ifvqb40","pricing_plan_id":"cebpf4jnsgd1na2vs0mg"},{"bike_id":"ee5338dd-18a1-4b48-a5b0-f8c72f7b1319","system_id":"levelo_inurba_marseille","lat":43.31871,"lon":5.36786,"is_reserved":false,"is_disabled":false,"rental_uris":{"android":"levelo://app?vid=ee5338dd-18a1-4b48-a5b0-f8c72f7b1319","ios":"levelo://app?vid=ee5338dd-18a1-4b48-a5b0-f8c72f7b1319"},"vehicle_type_id":"4","last_reported":1752351051,"current_range_meters":12400,"station_id":"","pricing_plan_id":"cebpf4jnsgd1na2vs0mg"},{"bike_id":"9ddcfd2a-bb38-4cf4-bdda-488c986d0b54","system_id":"levelo_inurba_marseille","lat":43.29302,"lon":5.37458,"is_reserved":false,"is_disabled":false,"rental_uris":{"android":"levelo://app?vid=9ddcfd2a-bb38-4cf4-bdda-488c986d0b54","ios":"levelo://app?vid=9ddcfd2a-bb38-4cf4-bdda-488c986d0b54"},"vehicle_type_id":"4","last_reported":1752351051,"current_range_meters":12400,"station_id":"ce4bgi12rcd13ifvqb70","pricing_plan_id":"cebpf4jnsgd1na2vs0mg"},{"bike_id":"806091c9-1f12-4ca0-9b76-3a92a69ca35d","system_id":"levelo_inurba_marseille","lat":43.26552,"lon":5.37292,"is_reserved":false,"is_disabled":false,"rental_uris":{"android":"levelo://app?vid=806091c9-1f12-4ca0-9b76-3a92a69ca35d","ios":"levelo://app?vid=806091c9-1f12-4ca0-9b76-3a92a69ca35d"},"vehicle_type_id":"4","last_reported":1752351051,"current_range_meters":12400,"station_id":"ce4bhg12rcd13ifvqf70","pricing_plan_id":"cebpf4jnsgd1na2vs0mg"},{"bike_id":"504802ca-c26e-4fcf-842a-69479b3a16c1","system_id":"levelo_inurba_marseille","lat":43.28481,"lon":5.38418,"is_reserved":false,"is_disabled":false,"rental_uris":{"android":"levelo://app?vid=504802ca-c26e-4fcf-842a-69479b3a16c1","ios":"levelo://app?vid=504802ca-c26e-4fcf-842a-69479b3a16c1"},"vehicle_type_id":"4","last_reported":1752351051,"current_range_meters":12400,"station_id":"ce4bh512rcd13ifvqe3g","pricing_plan_id":"cebpf4jnsgd1na2vs0mg"},{"bike_id":"76cc2f9d-978f-46b2-bb74-158db85a4fb3","system_id":"levelo_inurba_marseille","lat":43.23181,"lon":5.39982,"is_reserved":false,"is_disabled":false,"rental_uris":{"android":"levelo://app?vid=76cc2f9d-978f-46b2-bb74-158db85a4fb3","ios":"levelo://app?vid=76cc2f9d-978f-46b2-bb74-158db85a4fb3"},"vehicle_type_id":"4","last_reported":1752351051,"current_range_meters":12800,"station_id":"ce4bhn12rcd13ifvqgqg","pricing_plan_id":"cebpf4jnsgd1na2vs0mg"},{"bike_id":"5c15f630-99cc-4065-b04b-77d302300f75","system_id":"levelo_inurba_marseille","lat":43.30417,"lon":5.41279,"is_reserved":false,"is_disabled":false,"rental_uris":{"android":"levelo://app?vid=5c15f630-99cc-4065-b04b-77d302300f75","ios":"levelo://app?vid=5c15f630-99cc-4065-b04b-77d302300f75"},"vehicle_type_id":"4","last_reported":1752351051,"current_range_meters":12800,"station_id":"ce4bhop2rcd13ifvqh8g","pricing_plan_id":"cebpf4jnsgd1na2vs0mg"},{"bike_id":"ad3a92a9-aac6-4694-a2f3-20c935fef2b6","system_id":"levelo_inurba_marseille","lat":43.292986,"lon":5.374656,"is_reserved":false,"is_disabled":false,"rental_uris":{"android":"levelo://app?vid=ad3a92a9-aac6-4694-a2f3-20c935fef2b6","ios":"levelo://app?vid=ad3a92a9-aac6-4694-a2f3-20c935fef2b6"},"vehicle_type_id":"4","last_reported":1752351051,"current_range_meters":12800,"station_id":"","pricing_plan_id":"cebpf4jnsgd1na2vs0mg"},{"bike_id":"b775145c-9e4d-4714-a570-4fda4f64cf2b","system_id":"levelo_inurba_marseille","lat":43.27907,"lon":5.39585,"is_reserved":false,"is_disabled":false,"rental_uris":{"android":"levelo://app?vid=b775145c-9e4d-4714-a570-4fda4f64cf2b","ios":"levelo://app?vid=b775145c-9e4d-4714-a570-4fda4f64cf2b"},"vehicle_type_id":"4","last_reported":1752351051,"current_range_meters":12800,"station_id":"ce4bhf92rcd13ifvqf40","pricing_plan_id":"cebpf4jnsgd1na2vs0mg"},{"bike_id":"c09b4acb-d816-4cfc-94be-3685545d9977","system_id":"levelo_inurba_marseille","lat":43.25488,"lon":5.37674,"is_reserved":false,"is_disabled":false,"rental_uris":{"android":"levelo://app?vid=c09b4acb-d816-4cfc-94be-3685545d9977","ios":"levelo://app?vid=c09b4acb-d816-4cfc-94be-3685545d9977"},"vehicle_type_id":"4","last_reported":1752351051,"current_range_meters":12400,"station_id":"ce4bhh12rcd13ifvqff0","pricing_plan_id":"cebpf4jnsgd1na2vs0mg"},{"bike_id":"470d1e9d-8c05-40b8-a6b2-039f183b9f6a","system_id":"levelo_inurba_marseille","lat":43.231961,"lon":5.355544,"is_reserved":false,"is_disabled":true,"rental_uris":{"android":"levelo://app?vid=470d1e9d-8c05-40b8-a6b2-039f183b9f6a","ios":"levelo://app?vid=470d1e9d-8c05-40b8-a6b2-039f183b9f6a"},"vehicle_type_id":"4","last_reported":1752351051,"current_range_meters":12800,"station_id":"ce4bhu92rcd13ifvqi70","pricing_plan_id":"cebpf4jnsgd1na2vs0mg"},{"bike_id":"0a470e55-b9f9-490a-89b6-57c32522f6cb","system_id":"levelo_inurba_marseille","lat":43.28673,"lon":5.3867,"is_reserved":false,"is_disabled":false,"rental_uris":{"android":"levelo://app?vid=0a470e55-b9f9-490a-89b6-57c32522f6cb","ios":"levelo://app?vid=0a470e55-b9f9-490a-89b6-57c32522f6cb"},"vehicle_type_id":"4","last_reported":1752351051,"current_range_meters":13600,"station_id":"ce4bh492rcd13ifvqdug","pricing_plan_id":"cebpf4jnsgd1na2vs0mg"},{"bike_id":"7f02047d-a6cd-43f4-a617-996f2b9a8bc8","system_id":"levelo_inurba_marseille","lat":43.32355,"lon":5.36724,"is_reserved":false,"is_disabled":false,"rental_uris":{"android":"levelo://app?vid=7f02047d-a6cd-43f4-a617-996f2b9a8bc8","ios":"levelo://app?vid=7f02047d-a6cd-43f4-a617-996f2b9a8bc8"},"vehicle_type_id":"4","last_reported":1752351051,"current_range_meters":13600,"station_id":"ce4bhsh2rcd13ifvqi2g","pricing_plan_id":"cebpf4jnsgd1na2vs0mg"},{"bike_id":"3f2f54ea-4770-4590-b19e-824f4e2eec26","system_id":"levelo_inurba_marseille","lat":43.26019,"lon":5.37556,"is_reserved":false,"is_disabled":false,"rental_uris":{"android":"levelo://app?vid=3f2f54ea-4770-4590-b19e-824f4e2eec26","ios":"levelo://app?vid=3f2f54ea-4770-4590-b19e-824f4e2eec26"},"vehicle_type_id":"4","last_reported":1752351051,"current_range_meters":13600,"station_id":"ce4bhgh2rcd13ifvqfa0","pricing_plan_id":"cebpf4jnsgd1na2vs0mg"},{"bike_id":"fbacda24-025c-4da3-b3df-def6e9ee4c00","system_id":"levelo_inurba_marseille","lat":43.28649,"lon":5.36347,"is_reserved":false,"is_disabled":false,"rental_uris":{"android":"levelo://app?vid=fbacda24-025c-4da3-b3df-def6e9ee4c00","ios":"levelo://app?vid=fbacda24-025c-4da3-b3df-def6e9ee4c00"},"vehicle_type_id":"4","last_reported":1752351051,"current_range_meters":14000,"station_id":"ce4bhah2rcd13ifvqej0","pricing_plan_id":"cebpf4jnsgd1na2vs0mg"},{"bike_id":"2c01c085-a118-4b6b-9ba6-2000ce1f20ec","system_id":"levelo_inurba_marseille","lat":43.28711,"lon":5.37952,"is_reserved":false,"is_disabled":false,"rental_uris":{"android":"levelo://app?vid=2c01c085-a118-4b6b-9ba6-2000ce1f20ec","ios":"levelo://app?vid=2c01c085-a118-4b6b-9ba6-2000ce1f20ec"},"vehicle_type_id":"4","last_reported":1752351051,"current_range_meters":14000,"station_id":"ce4bh9p2rcd13ifvqec0","pricing_plan_id":"cebpf4jnsgd1na2vs0mg"},{"bike_id":"737ead6f-e608-42f1-8a55-8949c954e8e3","system_id":"levelo_inurba_marseille","lat":43.21206,"lon":5.35084,"is_reserved":false,"is_disabled":false,"rental_uris":{"android":"levelo://app?vid=737ead6f-e608-42f1-8a55-8949c954e8e3","ios":"levelo://app?vid=737ead6f-e608-42f1-8a55-8949c954e8e3"},"vehicle_type_id":"4","last_reported":1752351051,"current_range_meters":14000,"station_id":"st_cvj6sg6p6f1abm77japg","pricing_plan_id":"cebpf4jnsgd1na2vs0mg"},{"bike_id":"df7983a8-bf4a-4bdb-8469-9e5e1cfb98e8","system_id":"levelo_inurba_marseille","lat":43.30949,"lon":5.39038,"is_reserved":false,"is_disabled":false,"rental_uris":{"android":"levelo://app?vid=df7983a8-bf4a-4bdb-8469-9e5e1cfb98e8","ios":"levelo://app?vid=df7983a8-bf4a-4bdb-8469-9e5e1cfb98e8"},"vehicle_type_id":"4","last_reported":1752351051,"current_range_meters":14000,"station_id":"ce4bgup2rcd13ifvqco0","pricing_plan_id":"cebpf4jnsgd1na2vs0mg"},{"bike_id":"a4b94f25-7aa9-44d8-8d16-8ce346cbd6ae","system_id":"levelo_inurba_marseille","lat":43.29966,"lon":5.38494,"is_reserved":false,"is_disabled":false,"rental_uris":{"android":"levelo://app?vid=a4b94f25-7aa9-44d8-8d16-8ce346cbd6ae","ios":"levelo://app?vid=a4b94f25-7aa9-44d8-8d16-8ce346cbd6ae"},"vehicle_type_id":"4","last_reported":1752351051,"current_range_meters":14400,"station_id":"ce4bgj92rcd13ifvqbd0","pricing_plan_id":"cebpf4jnsgd1na2vs0mg"},{"bike_id":"383a2485-518e-4235-b1cd-0ebf65ba74a5","system_id":"levelo_inurba_marseille","lat":43.29533,"lon":5.38557,"is_reserved":false,"is_disabled":true,"rental_uris":{"android":"levelo://app?vid=383a2485-518e-4235-b1cd-0ebf65ba74a5","ios":"levelo://app?vid=383a2485-518e-4235-b1cd-0ebf65ba74a5"},"vehicle_type_id":"4","last_reported":1752351051,"current_range_meters":14400,"station_id":"ce4bgih2rcd13ifvqba0","pricing_plan_id":"cebpf4jnsgd1na2vs0mg"},{"bike_id":"51890362-46b0-4ee7-9f02-afbf036d064e","system_id":"levelo_inurba_marseille","lat":43.21211,"lon":5.35062,"is_reserved":false,"is_disabled":false,"rental_uris":{"android":"levelo://app?vid=51890362-46b0-4ee7-9f02-afbf036d064e","ios":"levelo://app?vid=51890362-46b0-4ee7-9f02-afbf036d064e"},"vehicle_type_id":"4","last_reported":1752351051,"current_range_meters":14400,"station_id":"st_cvj6sg6p6f1abm77japg","pricing_plan_id":"cebpf4jnsgd1na2vs0mg"},{"bike_id":"49801dc2-618a-44b8-84ae-416cd87fdbe9","system_id":"levelo_inurba_marseille","lat":43.33752,"lon":5.37497,"is_reserved":false,"is_disabled":false,"rental_uris":{"android":"levelo://app?vid=49801dc2-618a-44b8-84ae-416cd87fdbe9","ios":"levelo://app?vid=49801dc2-618a-44b8-84ae-416cd87fdbe9"},"vehicle_type_id":"4","last_reported":1752351051,"current_range_meters":14400,"station_id":"","pricing_plan_id":"cebpf4jnsgd1na2vs0mg"},{"bike_id":"cc17ace5-b9d8-4e22-99d4-e7ae1f63b7fd","system_id":"levelo_inurba_marseille","lat":43.30947,"lon":5.39044,"is_reserved":false,"is_disabled":false,"rental_uris":{"android":"levelo://app?vid=cc17ace5-b9d8-4e22-99d4-e7ae1f63b7fd","ios":"levelo://app?vid=cc17ace5-b9d8-4e22-99d4-e7ae1f63b7fd"},"vehicle_type_id":"4","last_reported":1752351051,"current_range_meters":14800,"station_id":"ce4bgup2rcd13ifvqco0","pricing_plan_id":"cebpf4jnsgd1na2vs0mg"},{"bike_id":"3b2ff412-7ec0-4a3f-9637-73befdda4b40","system_id":"levelo_inurba_marseille","lat":43.2971,"lon":5.36613,"is_reserved":false,"is_disabled":false,"rental_uris":{"android":"levelo://app?vid=3b2ff412-7ec0-4a3f-9637-73befdda4b40","ios":"levelo://app?vid=3b2ff412-7ec0-4a3f-9637-73befdda4b40"},"vehicle_type_id":"4","last_reported":1752351051,"current_range_meters":14800,"station_id":"ce4bgn12rcd13ifvqbt0","pricing_plan_id":"cebpf4jnsgd1na2vs0mg"},{"bike_id":"d7d851de-d966-47dc-9bd8-1a9ae0c433a4","system_id":"levelo_inurba_marseille","lat":43.225055,"lon":5.347843,"is_reserved":false,"is_disabled":false,"rental_uris":{"android":"levelo://app?vid=d7d851de-d966-47dc-9bd8-1a9ae0c433a4","ios":"levelo://app?vid=d7d851de-d966-47dc-9bd8-1a9ae0c433a4"},"vehicle_type_id":"4","last_reported":1752351051,"current_range_meters":14800,"station_id":"","pricing_plan_id":"cebpf4jnsgd1na2vs0mg"},{"bike_id":"55950910-e1df-4c23-818f-997abd1c9fea","system_id":"levelo_inurba_marseille","lat":43.288453,"lon":5.39321,"is_reserved":false,"is_disabled":false,"rental_uris":{"android":"levelo://app?vid=55950910-e1df-4c23-818f-997abd1c9fea","ios":"levelo://app?vid=55950910-e1df-4c23-818f-997abd1c9fea"},"vehicle_type_id":"4","last_reported":1752351051,"current_range_meters":14800,"station_id":"ce4bh2p2rcd13ifvqdi0","pricing_plan_id":"cebpf4jnsgd1na2vs0mg"},{"bike_id":"ff12513b-478c-4f81-9d13-9e238175c660","system_id":"levelo_inurba_marseille","lat":43.29528,"lon":5.3855,"is_reserved":false,"is_disabled":false,"rental_uris":{"android":"levelo://app?vid=ff12513b-478c-4f81-9d13-9e238175c660","ios":"levelo://app?vid=ff12513b-478c-4f81-9d13-9e238175c660"},"vehicle_type_id":"4","last_reported":1752351051,"current_range_meters":14800,"station_id":"ce4bgih2rcd13ifvqba0","pricing_plan_id":"cebpf4jnsgd1na2vs0mg"},{"bike_id":"dcff0918-ab2a-4589-900b-b5609eb99255","system_id":"levelo_inurba_marseille","lat":43.293047,"lon":5.371814,"is_reserved":false,"is_disabled":false,"rental_uris":{"android":"levelo://app?vid=dcff0918-ab2a-4589-900b-b5609eb99255","ios":"levelo://app?vid=dcff0918-ab2a-4589-900b-b5609eb99255"},"vehicle_type_id":"4","last_reported":1752351051,"current_range_meters":14800,"station_id":"ce4bgh92rcd13ifvqb40","pricing_plan_id":"cebpf4jnsgd1na2vs0mg"},{"bike_id":"a0137104-c9f4-434a-a5e3-80725cd5a2b4","system_id":"levelo_inurba_marseille","lat":43.21176,"lon":5.35078,"is_reserved":false,"is_disabled":false,"rental_uris":{"android":"levelo://app?vid=a0137104-c9f4-434a-a5e3-80725cd5a2b4","ios":"levelo://app?vid=a0137104-c9f4-434a-a5e3-80725cd5a2b4"},"vehicle_type_id":"4","last_reported":1752351051,"current_range_meters":14800,"station_id":"st_cvj6sg6p6f1abm77japg","pricing_plan_id":"cebpf4jnsgd1na2vs0mg"},{"bike_id":"c3455266-2b79-4fd9-b0cd-450056d6b1c3","system_id":"levelo_inurba_marseille","lat":43.30948,"lon":5.39071,"is_reserved":false,"is_disabled":false,"rental_uris":{"android":"levelo://app?vid=c3455266-2b79-4fd9-b0cd-450056d6b1c3","ios":"levelo://app?vid=c3455266-2b79-4fd9-b0cd-450056d6b1c3"},"vehicle_type_id":"4","last_reported":1752351051,"current_range_meters":14800,"station_id":"ce4bgup2rcd13ifvqco0","pricing_plan_id":"cebpf4jnsgd1na2vs0mg"},{"bike_id":"55699f15-aa2d-4fd6-a829-51e5af849929","system_id":"levelo_inurba_marseille","lat":43.317268,"lon":5.423956,"is_reserved":false,"is_disabled":false,"rental_uris":{"android":"levelo://app?vid=55699f15-aa2d-4fd6-a829-51e5af849929","ios":"levelo://app?vid=55699f15-aa2d-4fd6-a829-51e5af849929"},"vehicle_type_id":"4","last_reported":1752351051,"current_range_meters":15200,"station_id":"ce4bhp92rcd13ifvqhbg","pricing_plan_id":"cebpf4jnsgd1na2vs0mg"},{"bike_id":"01ec080a-2072-40fe-8f02-ee71150e5d55","system_id":"levelo_inurba_marseille","lat":43.29271,"lon":5.36845,"is_reserved":false,"is_disabled":false,"rental_uris":{"android":"levelo://app?vid=01ec080a-2072-40fe-8f02-ee71150e5d55","ios":"levelo://app?vid=01ec080a-2072-40fe-8f02-ee71150e5d55"},"vehicle_type_id":"4","last_reported":1752351051,"current_range_meters":15200,"station_id":"ce4bhbp2rcd13ifvqesg","pricing_plan_id":"cebpf4jnsgd1na2vs0mg"},{"bike_id":"00bc0b3b-e317-4a17-a011-a3a9a29d816a","system_id":"levelo_inurba_marseille","lat":43.21163,"lon":5.3508,"is_reserved":false,"is_disabled":false,"rental_uris":{"android":"levelo://app?vid=00bc0b3b-e317-4a17-a011-a3a9a29d816a","ios":"levelo://app?vid=00bc0b3b-e317-4a17-a011-a3a9a29d816a"},"vehicle_type_id":"4","last_reported":1752351051,"current_range_meters":15200,"station_id":"st_cvj6sg6p6f1abm77japg","pricing_plan_id":"cebpf4jnsgd1na2vs0mg"},{"bike_id":"4ab460f6-2b13-462f-a8b8-8ee3ec6489ea","system_id":"levelo_inurba_marseille","lat":43.26231,"lon":5.40452,"is_reserved":false,"is_disabled":false,"rental_uris":{"android":"levelo://app?vid=4ab460f6-2b13-462f-a8b8-8ee3ec6489ea","ios":"levelo://app?vid=4ab460f6-2b13-462f-a8b8-8ee3ec6489ea"},"vehicle_type_id":"4","last_reported":1752351051,"current_range_meters":15200,"station_id":"ce4bhmh2rcd13ifvqgmg","pricing_plan_id":"cebpf4jnsgd1na2vs0mg"},{"bike_id":"25548ffc-4576-4171-b8e0-e833fa4b2e60","system_id":"levelo_inurba_marseille","lat":43.29542,"lon":5.38522,"is_reserved":false,"is_disabled":false,"rental_uris":{"android":"levelo://app?vid=25548ffc-4576-4171-b8e0-e833fa4b2e60","ios":"levelo://app?vid=25548ffc-4576-4171-b8e0-e833fa4b2e60"},"vehicle_type_id":"4","last_reported":1752351051,"current_range_meters":15200,"station_id":"ce4bgih2rcd13ifvqba0","pricing_plan_id":"cebpf4jnsgd1na2vs0mg"},{"bike_id":"854d5dbd-9ed2-47cd-9380-9348e08a193d","system_id":"levelo_inurba_marseille","lat":43.29884,"lon":5.37474,"is_reserved":false,"is_disabled":false,"rental_uris":{"android":"levelo://app?vid=854d5dbd-9ed2-47cd-9380-9348e08a193d","ios":"levelo://app?vid=854d5dbd-9ed2-47cd-9380-9348e08a193d"},"vehicle_type_id":"4","last_reported":1752351051,"current_range_meters":16000,"station_id":"ce4bgjh2rcd13ifvqbg0","pricing_plan_id":"cebpf4jnsgd1na2vs0mg"},{"bike_id":"740a8133-cdf7-472c-b2b6-e199dff03f1c","system_id":"levelo_inurba_marseille","lat":43.231953,"lon":5.399864,"is_reserved":false,"is_disabled":false,"rental_uris":{"android":"levelo://app?vid=740a8133-cdf7-472c-b2b6-e199dff03f1c","ios":"levelo://app?vid=740a8133-cdf7-472c-b2b6-e199dff03f1c"},"vehicle_type_id":"4","last_reported":1752351051,"current_range_meters":16000,"station_id":"ce4bhn12rcd13ifvqgqg","pricing_plan_id":"cebpf4jnsgd1na2vs0mg"},{"bike_id":"57692aae-9841-41ad-bc01-254866eaf8b0","system_id":"levelo_inurba_marseille","lat":43.32323,"lon":5.40627,"is_reserved":false,"is_disabled":false,"rental_uris":{"android":"levelo://app?vid=57692aae-9841-41ad-bc01-254866eaf8b0","ios":"levelo://app?vid=57692aae-9841-41ad-bc01-254866eaf8b0"},"vehicle_type_id":"4","last_reported":1752351051,"current_range_meters":16400,"station_id":"ce4bhq92rcd13ifvqhjg","pricing_plan_id":"cebpf4jnsgd1na2vs0mg"},{"bike_id":"016a0553-daa1-434d-8dba-ff1fbded5db8","system_id":"levelo_inurba_marseille","lat":43.22504,"lon":5.34775,"is_reserved":false,"is_disabled":false,"rental_uris":{"android":"levelo://app?vid=016a0553-daa1-434d-8dba-ff1fbded5db8","ios":"levelo://app?vid=016a0553-daa1-434d-8dba-ff1fbded5db8"},"vehicle_type_id":"4","last_reported":1752351051,"current_range_meters":16000,"station_id":"st_cvj5dfep6f1abm77gieg","pricing_plan_id":"cebpf4jnsgd1na2vs0mg"},{"bike_id":"fd4ea8a4-19a2-471d-a213-096f14af8bf9","system_id":"levelo_inurba_marseille","lat":43.29243,"lon":5.38446,"is_reserved":false,"is_disabled":false,"rental_uris":{"android":"levelo://app?vid=fd4ea8a4-19a2-471d-a213-096f14af8bf9","ios":"levelo://app?vid=fd4ea8a4-19a2-471d-a213-096f14af8bf9"},"vehicle_type_id":"4","last_reported":1752351051,"current_range_meters":16000,"station_id":"ce4bh692rcd13ifvqea0","pricing_plan_id":"cebpf4jnsgd1na2vs0mg"},{"bike_id":"8b37f03f-f226-4bbc-8648-b109da7ba145","system_id":"levelo_inurba_marseille","lat":43.30536,"lon":5.366999,"is_reserved":false,"is_disabled":false,"rental_uris":{"android":"levelo://app?vid=8b37f03f-f226-4bbc-8648-b109da7ba145","ios":"levelo://app?vid=8b37f03f-f226-4bbc-8648-b109da7ba145"},"vehicle_type_id":"4","last_reported":1752351051,"current_range_meters":16000,"station_id":"","pricing_plan_id":"cebpf4jnsgd1na2vs0mg"},{"bike_id":"54c42649-7aa4-4934-92f3-a23a386f7d15","system_id":"levelo_inurba_marseille","lat":43.241701,"lon":5.364053,"is_reserved":false,"is_disabled":false,"rental_uris":{"android":"levelo://app?vid=54c42649-7aa4-4934-92f3-a23a386f7d15","ios":"levelo://app?vid=54c42649-7aa4-4934-92f3-a23a386f7d15"},"vehicle_type_id":"4","last_reported":1752351051,"current_range_meters":16000,"station_id":"cpo36qri1sfpv3e86is0","pricing_plan_id":"cebpf4jnsgd1na2vs0mg"},{"bike_id":"40e17277-ff35-4a59-a20b-0c82eea17cd4","system_id":"levelo_inurba_marseille","lat":43.26189,"lon":5.37454,"is_reserved":false,"is_disabled":false,"rental_uris":{"android":"levelo://app?vid=40e17277-ff35-4a59-a20b-0c82eea17cd4","ios":"levelo://app?vid=40e17277-ff35-4a59-a20b-0c82eea17cd4"},"vehicle_type_id":"4","last_reported":1752351051,"current_range_meters":16000,"station_id":"ce4bhgp2rcd13ifvqfc0","pricing_plan_id":"cebpf4jnsgd1na2vs0mg"},{"bike_id":"f23760ff-ab61-4853-aa67-28aac93822c1","system_id":"levelo_inurba_marseille","lat":43.337444,"lon":5.374475,"is_reserved":false,"is_disabled":false,"rental_uris":{"android":"levelo://app?vid=f23760ff-ab61-4853-aa67-28aac93822c1","ios":"levelo://app?vid=f23760ff-ab61-4853-aa67-28aac93822c1"},"vehicle_type_id":"4","last_reported":1752351051,"current_range_meters":16000,"station_id":"","pricing_plan_id":"cebpf4jnsgd1na2vs0mg"},{"bike_id":"fe458cb9-f635-43ef-a426-ee4b4d2db6c3","system_id":"levelo_inurba_marseille","lat":43.2926,"lon":5.38452,"is_reserved":false,"is_disabled":false,"rental_uris":{"android":"levelo://app?vid=fe458cb9-f635-43ef-a426-ee4b4d2db6c3","ios":"levelo://app?vid=fe458cb9-f635-43ef-a426-ee4b4d2db6c3"},"vehicle_type_id":"4","last_reported":1752351051,"current_range_meters":16000,"station_id":"ce4bh692rcd13ifvqea0","pricing_plan_id":"cebpf4jnsgd1na2vs0mg"},{"bike_id":"216d39df-dcff-40ff-947b-04fd8d85b26d","system_id":"levelo_inurba_marseille","lat":43.29045,"lon":5.37542,"is_reserved":false,"is_disabled":false,"rental_uris":{"android":"levelo://app?vid=216d39df-dcff-40ff-947b-04fd8d85b26d","ios":"levelo://app?vid=216d39df-dcff-40ff-947b-04fd8d85b26d"},"vehicle_type_id":"4","last_reported":1752351051,"current_range_meters":16000,"station_id":"ce4bh692rcd13ifvqe90","pricing_plan_id":"cebpf4jnsgd1na2vs0mg"},{"bike_id":"d3eb6ebc-944c-4672-ad0e-46dbd50d6295","system_id":"levelo_inurba_marseille","lat":43.26188,"lon":5.37469,"is_reserved":false,"is_disabled":false,"rental_uris":{"android":"levelo://app?vid=d3eb6ebc-944c-4672-ad0e-46dbd50d6295","ios":"levelo://app?vid=d3eb6ebc-944c-4672-ad0e-46dbd50d6295"},"vehicle_type_id":"4","last_reported":1752351051,"current_range_meters":16000,"station_id":"ce4bhgp2rcd13ifvqfc0","pricing_plan_id":"cebpf4jnsgd1na2vs0mg"},{"bike_id":"776662cf-18e5-4145-a4cc-50e963ed182b","system_id":"levelo_inurba_marseille","lat":43.29017,"lon":5.38635,"is_reserved":false,"is_disabled":false,"rental_uris":{"android":"levelo://app?vid=776662cf-18e5-4145-a4cc-50e963ed182b","ios":"levelo://app?vid=776662cf-18e5-4145-a4cc-50e963ed182b"},"vehicle_type_id":"4","last_reported":1752351051,"current_range_meters":15200,"station_id":"ce4bh4p2rcd13ifvqe0g","pricing_plan_id":"cebpf4jnsgd1na2vs0mg"},{"bike_id":"b105f991-1563-4fc4-9371-7364ce9b8c80","system_id":"levelo_inurba_marseille","lat":43.287285,"lon":5.395579,"is_reserved":false,"is_disabled":false,"rental_uris":{"android":"levelo://app?vid=b105f991-1563-4fc4-9371-7364ce9b8c80","ios":"levelo://app?vid=b105f991-1563-4fc4-9371-7364ce9b8c80"},"vehicle_type_id":"4","last_reported":1752351051,"current_range_meters":16000,"station_id":"","pricing_plan_id":"cebpf4jnsgd1na2vs0mg"},{"bike_id":"9d648e91-4ddb-4e08-b4da-92c626679f52","system_id":"levelo_inurba_marseille","lat":43.29259,"lon":5.40902,"is_reserved":false,"is_disabled":false,"rental_uris":{"android":"levelo://app?vid=9d648e91-4ddb-4e08-b4da-92c626679f52","ios":"levelo://app?vid=9d648e91-4ddb-4e08-b4da-92c626679f52"},"vehicle_type_id":"4","last_reported":1752351051,"current_range_meters":16000,"station_id":"ce4bh192rcd13ifvqdc0","pricing_plan_id":"cebpf4jnsgd1na2vs0mg"},{"bike_id":"a61e028a-36e9-4025-8157-1d1c64997dcc","system_id":"levelo_inurba_marseille","lat":43.29569,"lon":5.37517,"is_reserved":false,"is_disabled":false,"rental_uris":{"android":"levelo://app?vid=a61e028a-36e9-4025-8157-1d1c64997dcc","ios":"levelo://app?vid=a61e028a-36e9-4025-8157-1d1c64997dcc"},"vehicle_type_id":"4","last_reported":1752351051,"current_range_meters":16000,"station_id":"ce4bgh92rcd13ifvqb50","pricing_plan_id":"cebpf4jnsgd1na2vs0mg"},{"bike_id":"57de4b26-22c8-48ad-b606-857f503c18fe","system_id":"levelo_inurba_marseille","lat":43.26021,"lon":5.37545,"is_reserved":false,"is_disabled":false,"rental_uris":{"android":"levelo://app?vid=57de4b26-22c8-48ad-b606-857f503c18fe","ios":"levelo://app?vid=57de4b26-22c8-48ad-b606-857f503c18fe"},"vehicle_type_id":"4","last_reported":1752351051,"current_range_meters":16400,"station_id":"ce4bhgh2rcd13ifvqfa0","pricing_plan_id":"cebpf4jnsgd1na2vs0mg"},{"bike_id":"844b44b6-4e33-4917-878d-a3c647561239","system_id":"levelo_inurba_marseille","lat":43.307607,"lon":5.424458,"is_reserved":false,"is_disabled":false,"rental_uris":{"android":"levelo://app?vid=844b44b6-4e33-4917-878d-a3c647561239","ios":"levelo://app?vid=844b44b6-4e33-4917-878d-a3c647561239"},"vehicle_type_id":"4","last_reported":1752351051,"current_range_meters":16400,"station_id":"st_cvj6ca6bvosntc0bfgr0","pricing_plan_id":"cebpf4jnsgd1na2vs0mg"},{"bike_id":"4100bc4f-2218-4922-9dc2-ac7a30b24292","system_id":"levelo_inurba_marseille","lat":43.29529,"lon":5.38541,"is_reserved":false,"is_disabled":false,"rental_uris":{"android":"levelo://app?vid=4100bc4f-2218-4922-9dc2-ac7a30b24292","ios":"levelo://app?vid=4100bc4f-2218-4922-9dc2-ac7a30b24292"},"vehicle_type_id":"4","last_reported":1752351051,"current_range_meters":16400,"station_id":"ce4bgih2rcd13ifvqba0","pricing_plan_id":"cebpf4jnsgd1na2vs0mg"},{"bike_id":"4b8da722-ee9e-48a4-a5e5-3a8a10364708","system_id":"levelo_inurba_marseille","lat":43.3117,"lon":5.37817,"is_reserved":false,"is_disabled":false,"rental_uris":{"android":"levelo://app?vid=4b8da722-ee9e-48a4-a5e5-3a8a10364708","ios":"levelo://app?vid=4b8da722-ee9e-48a4-a5e5-3a8a10364708"},"vehicle_type_id":"4","last_reported":1752351051,"current_range_meters":16400,"station_id":"","pricing_plan_id":"cebpf4jnsgd1na2vs0mg"},{"bike_id":"184be0bc-3cb8-47e7-9c43-c542f197b8d8","system_id":"levelo_inurba_marseille","lat":43.30409,"lon":5.39766,"is_reserved":false,"is_disabled":false,"rental_uris":{"android":"levelo://app?vid=184be0bc-3cb8-47e7-9c43-c542f197b8d8","ios":"levelo://app?vid=184be0bc-3cb8-47e7-9c43-c542f197b8d8"},"vehicle_type_id":"4","last_reported":1752351051,"current_range_meters":16400,"station_id":"ce4bh092rcd13ifvqd20","pricing_plan_id":"cebpf4jnsgd1na2vs0mg"},{"bike_id":"e34f5d7d-0125-44e4-b2d1-8a57ed3ee9a0","system_id":"levelo_inurba_marseille","lat":43.26012,"lon":5.37553,"is_reserved":false,"is_disabled":false,"rental_uris":{"android":"levelo://app?vid=e34f5d7d-0125-44e4-b2d1-8a57ed3ee9a0","ios":"levelo://app?vid=e34f5d7d-0125-44e4-b2d1-8a57ed3ee9a0"},"vehicle_type_id":"4","last_reported":1752351051,"current_range_meters":16400,"station_id":"ce4bhgh2rcd13ifvqfa0","pricing_plan_id":"cebpf4jnsgd1na2vs0mg"},{"bike_id":"782feeff-b340-46c1-a51e-abde62371563","system_id":"levelo_inurba_marseille","lat":43.31995,"lon":5.38163,"is_reserved":false,"is_disabled":false,"rental_uris":{"android":"levelo://app?vid=782feeff-b340-46c1-a51e-abde62371563","ios":"levelo://app?vid=782feeff-b340-46c1-a51e-abde62371563"},"vehicle_type_id":"4","last_reported":1752351051,"current_range_meters":16000,"station_id":"ce4bhr12rcd13ifvqhpg","pricing_plan_id":"cebpf4jnsgd1na2vs0mg"},{"bike_id":"f3f552e8-2fe8-42cc-ac51-e00cbdda749f","system_id":"levelo_inurba_marseille","lat":43.28458,"lon":5.35896,"is_reserved":false,"is_disabled":false,"rental_uris":{"android":"levelo://app?vid=f3f552e8-2fe8-42cc-ac51-e00cbdda749f","ios":"levelo://app?vid=f3f552e8-2fe8-42cc-ac51-e00cbdda749f"},"vehicle_type_id":"4","last_reported":1752351051,"current_range_meters":16000,"station_id":"ce4bhah2rcd13ifvqei0","pricing_plan_id":"cebpf4jnsgd1na2vs0mg"},{"bike_id":"c1d0629c-eaee-41e7-8c10-68b0ec1b077d","system_id":"levelo_inurba_marseille","lat":43.32775,"lon":5.39078,"is_reserved":false,"is_disabled":false,"rental_uris":{"android":"levelo://app?vid=c1d0629c-eaee-41e7-8c10-68b0ec1b077d","ios":"levelo://app?vid=c1d0629c-eaee-41e7-8c10-68b0ec1b077d"},"vehicle_type_id":"4","last_reported":1752351051,"current_range_meters":16400,"station_id":"","pricing_plan_id":"cebpf4jnsgd1na2vs0mg"},{"bike_id":"44fa6e38-0925-4458-8c8f-bdce3c203299","system_id":"levelo_inurba_marseille","lat":43.29259,"lon":5.38451,"is_reserved":false,"is_disabled":false,"rental_uris":{"android":"levelo://app?vid=44fa6e38-0925-4458-8c8f-bdce3c203299","ios":"levelo://app?vid=44fa6e38-0925-4458-8c8f-bdce3c203299"},"vehicle_type_id":"4","last_reported":1752351051,"current_range_meters":16400,"station_id":"ce4bh692rcd13ifvqea0","pricing_plan_id":"cebpf4jnsgd1na2vs0mg"},{"bike_id":"cbd3cbb3-a3d9-4c52-8d8a-b0a35699f699","system_id":"levelo_inurba_marseille","lat":43.27621,"lon":5.36102,"is_reserved":false,"is_disabled":false,"rental_uris":{"android":"levelo://app?vid=cbd3cbb3-a3d9-4c52-8d8a-b0a35699f699","ios":"levelo://app?vid=cbd3cbb3-a3d9-4c52-8d8a-b0a35699f699"},"vehicle_type_id":"4","last_reported":1752351051,"current_range_meters":16400,"station_id":"ce4bgj92rcd13ifvqbe0","pricing_plan_id":"cebpf4jnsgd1na2vs0mg"},{"bike_id":"6d3f299a-d341-49bc-a1f9-7534528d9b67","system_id":"levelo_inurba_marseille","lat":43.2318,"lon":5.35556,"is_reserved":false,"is_disabled":false,"rental_uris":{"android":"levelo://app?vid=6d3f299a-d341-49bc-a1f9-7534528d9b67","ios":"levelo://app?vid=6d3f299a-d341-49bc-a1f9-7534528d9b67"},"vehicle_type_id":"4","last_reported":1752351051,"current_range_meters":16800,"station_id":"ce4bhu92rcd13ifvqi70","pricing_plan_id":"cebpf4jnsgd1na2vs0mg"},{"bike_id":"a44f68aa-b920-4eb6-845e-df1183944a6b","system_id":"levelo_inurba_marseille","lat":43.285646,"lon":5.350586,"is_reserved":false,"is_disabled":true,"rental_uris":{"android":"levelo://app?vid=a44f68aa-b920-4eb6-845e-df1183944a6b","ios":"levelo://app?vid=a44f68aa-b920-4eb6-845e-df1183944a6b"},"vehicle_type_id":"4","last_reported":1752351051,"current_range_meters":16800,"station_id":"","pricing_plan_id":"cebpf4jnsgd1na2vs0mg"},{"bike_id":"e2ce6e8a-ef9f-4211-8776-042780e4931d","system_id":"levelo_inurba_marseille","lat":43.28419,"lon":5.3498,"is_reserved":false,"is_disabled":true,"rental_uris":{"android":"levelo://app?vid=e2ce6e8a-ef9f-4211-8776-042780e4931d","ios":"levelo://app?vid=e2ce6e8a-ef9f-4211-8776-042780e4931d"},"vehicle_type_id":"4","last_reported":1752351051,"current_range_meters":16800,"station_id":"ce4bhbh2rcd13ifvqepg","pricing_plan_id":"cebpf4jnsgd1na2vs0mg"},{"bike_id":"9cb1ec35-5a2b-4d24-b9f2-4ef250164a3a","system_id":"levelo_inurba_marseille","lat":43.29706,"lon":5.36613,"is_reserved":false,"is_disabled":false,"rental_uris":{"android":"levelo://app?vid=9cb1ec35-5a2b-4d24-b9f2-4ef250164a3a","ios":"levelo://app?vid=9cb1ec35-5a2b-4d24-b9f2-4ef250164a3a"},"vehicle_type_id":"4","last_reported":1752351051,"current_range_meters":16400,"station_id":"ce4bgn12rcd13ifvqbt0","pricing_plan_id":"cebpf4jnsgd1na2vs0mg"},{"bike_id":"df40f023-f13c-49b0-b949-77aa55e16bc6","system_id":"levelo_inurba_marseille","lat":43.2621,"lon":5.37446,"is_reserved":false,"is_disabled":false,"rental_uris":{"android":"levelo://app?vid=df40f023-f13c-49b0-b949-77aa55e16bc6","ios":"levelo://app?vid=df40f023-f13c-49b0-b949-77aa55e16bc6"},"vehicle_type_id":"4","last_reported":1752351051,"current_range_meters":16800,"station_id":"ce4bhgp2rcd13ifvqfc0","pricing_plan_id":"cebpf4jnsgd1na2vs0mg"},{"bike_id":"fe84b5ed-e410-41a6-814d-0f806389542e","system_id":"levelo_inurba_marseille","lat":43.29572,"lon":5.37506,"is_reserved":false,"is_disabled":false,"rental_uris":{"android":"levelo://app?vid=fe84b5ed-e410-41a6-814d-0f806389542e","ios":"levelo://app?vid=fe84b5ed-e410-41a6-814d-0f806389542e"},"vehicle_type_id":"4","last_reported":1752351051,"current_range_meters":16800,"station_id":"ce4bgh92rcd13ifvqb50","pricing_plan_id":"cebpf4jnsgd1na2vs0mg"},{"bike_id":"867d98f5-c689-4b8c-88dc-bb0a55b1f9f4","system_id":"levelo_inurba_marseille","lat":43.29528,"lon":5.38537,"is_reserved":false,"is_disabled":false,"rental_uris":{"android":"levelo://app?vid=867d98f5-c689-4b8c-88dc-bb0a55b1f9f4","ios":"levelo://app?vid=867d98f5-c689-4b8c-88dc-bb0a55b1f9f4"},"vehicle_type_id":"4","last_reported":1752351051,"current_range_meters":16800,"station_id":"ce4bgih2rcd13ifvqba0","pricing_plan_id":"cebpf4jnsgd1na2vs0mg"},{"bike_id":"f0db057c-08fc-4119-8562-656dfff8564d","system_id":"levelo_inurba_marseille","lat":43.2794,"lon":5.41039,"is_reserved":false,"is_disabled":false,"rental_uris":{"android":"levelo://app?vid=f0db057c-08fc-4119-8562-656dfff8564d","ios":"levelo://app?vid=f0db057c-08fc-4119-8562-656dfff8564d"},"vehicle_type_id":"4","last_reported":1752351051,"current_range_meters":16800,"station_id":"ce4bhnp2rcd13ifvqh0g","pricing_plan_id":"cebpf4jnsgd1na2vs0mg"},{"bike_id":"3e8e03bf-ec25-49a9-be60-035cba3ce77e","system_id":"levelo_inurba_marseille","lat":43.29525,"lon":5.38541,"is_reserved":false,"is_disabled":false,"rental_uris":{"android":"levelo://app?vid=3e8e03bf-ec25-49a9-be60-035cba3ce77e","ios":"levelo://app?vid=3e8e03bf-ec25-49a9-be60-035cba3ce77e"},"vehicle_type_id":"4","last_reported":1752351051,"current_range_meters":17200,"station_id":"ce4bgih2rcd13ifvqba0","pricing_plan_id":"cebpf4jnsgd1na2vs0mg"},{"bike_id":"a2c873e7-3c1b-4da7-8105-f28b3175454b","system_id":"levelo_inurba_marseille","lat":43.27805,"lon":5.40705,"is_reserved":false,"is_disabled":false,"rental_uris":{"android":"levelo://app?vid=a2c873e7-3c1b-4da7-8105-f28b3175454b","ios":"levelo://app?vid=a2c873e7-3c1b-4da7-8105-f28b3175454b"},"vehicle_type_id":"4","last_reported":1752351051,"current_range_meters":17200,"station_id":"ce4bhnh2rcd13ifvqgtg","pricing_plan_id":"cebpf4jnsgd1na2vs0mg"},{"bike_id":"54398d99-4eb6-4d33-9598-00d527a15a13","system_id":"levelo_inurba_marseille","lat":43.26191,"lon":5.37459,"is_reserved":false,"is_disabled":false,"rental_uris":{"android":"levelo://app?vid=54398d99-4eb6-4d33-9598-00d527a15a13","ios":"levelo://app?vid=54398d99-4eb6-4d33-9598-00d527a15a13"},"vehicle_type_id":"4","last_reported":1752351051,"current_range_meters":17200,"station_id":"ce4bhgp2rcd13ifvqfc0","pricing_plan_id":"cebpf4jnsgd1na2vs0mg"},{"bike_id":"4a175d8f-eeed-4f1b-a5b3-5499317dcfdb","system_id":"levelo_inurba_marseille","lat":43.29525,"lon":5.38546,"is_reserved":false,"is_disabled":false,"rental_uris":{"android":"levelo://app?vid=4a175d8f-eeed-4f1b-a5b3-5499317dcfdb","ios":"levelo://app?vid=4a175d8f-eeed-4f1b-a5b3-5499317dcfdb"},"vehicle_type_id":"4","last_reported":1752351051,"current_range_meters":17200,"station_id":"ce4bgih2rcd13ifvqba0","pricing_plan_id":"cebpf4jnsgd1na2vs0mg"},{"bike_id":"40852cb7-756c-48ce-a54a-3b6f524ef63c","system_id":"levelo_inurba_marseille","lat":43.302155,"lon":5.367299,"is_reserved":false,"is_disabled":false,"rental_uris":{"android":"levelo://app?vid=40852cb7-756c-48ce-a54a-3b6f524ef63c","ios":"levelo://app?vid=40852cb7-756c-48ce-a54a-3b6f524ef63c"},"vehicle_type_id":"4","last_reported":1752351051,"current_range_meters":18000,"station_id":"ce4bgrh2rcd13ifvqc8g","pricing_plan_id":"cebpf4jnsgd1na2vs0mg"},{"bike_id":"8580f10a-56db-49eb-bce3-b75e4956c47b","system_id":"levelo_inurba_marseille","lat":43.31402,"lon":5.37397,"is_reserved":false,"is_disabled":false,"rental_uris":{"android":"levelo://app?vid=8580f10a-56db-49eb-bce3-b75e4956c47b","ios":"levelo://app?vid=8580f10a-56db-49eb-bce3-b75e4956c47b"},"vehicle_type_id":"4","last_reported":1752351051,"current_range_meters":18000,"station_id":"","pricing_plan_id":"cebpf4jnsgd1na2vs0mg"},{"bike_id":"6329262e-ca0f-4825-be20-36e72160cc52","system_id":"levelo_inurba_marseille","lat":43.30944,"lon":5.39057,"is_reserved":false,"is_disabled":false,"rental_uris":{"android":"levelo://app?vid=6329262e-ca0f-4825-be20-36e72160cc52","ios":"levelo://app?vid=6329262e-ca0f-4825-be20-36e72160cc52"},"vehicle_type_id":"4","last_reported":1752351051,"current_range_meters":17600,"station_id":"ce4bgup2rcd13ifvqco0","pricing_plan_id":"cebpf4jnsgd1na2vs0mg"},{"bike_id":"2b4aa21a-5de6-48c6-a397-c3e458a50b33","system_id":"levelo_inurba_marseille","lat":43.30298,"lon":5.36897,"is_reserved":false,"is_disabled":false,"rental_uris":{"android":"levelo://app?vid=2b4aa21a-5de6-48c6-a397-c3e458a50b33","ios":"levelo://app?vid=2b4aa21a-5de6-48c6-a397-c3e458a50b33"},"vehicle_type_id":"4","last_reported":1752351051,"current_range_meters":17600,"station_id":"ce4bgqh2rcd13ifvqc5g","pricing_plan_id":"cebpf4jnsgd1na2vs0mg"},{"bike_id":"a8830b52-7b57-46c5-8d4c-beadddaa5f60","system_id":"levelo_inurba_marseille","lat":43.2656,"lon":5.37286,"is_reserved":false,"is_disabled":false,"rental_uris":{"android":"levelo://app?vid=a8830b52-7b57-46c5-8d4c-beadddaa5f60","ios":"levelo://app?vid=a8830b52-7b57-46c5-8d4c-beadddaa5f60"},"vehicle_type_id":"4","last_reported":1752351051,"current_range_meters":17600,"station_id":"ce4bhg12rcd13ifvqf70","pricing_plan_id":"cebpf4jnsgd1na2vs0mg"},{"bike_id":"f9924005-c8ac-4086-8e25-9a21391f65ea","system_id":"levelo_inurba_marseille","lat":43.21193,"lon":5.3507,"is_reserved":false,"is_disabled":false,"rental_uris":{"android":"levelo://app?vid=f9924005-c8ac-4086-8e25-9a21391f65ea","ios":"levelo://app?vid=f9924005-c8ac-4086-8e25-9a21391f65ea"},"vehicle_type_id":"4","last_reported":1752351051,"current_range_meters":17600,"station_id":"st_cvj6sg6p6f1abm77japg","pricing_plan_id":"cebpf4jnsgd1na2vs0mg"},{"bike_id":"50ab0617-e097-449a-ace5-beb113a3c21e","system_id":"levelo_inurba_marseille","lat":43.25491,"lon":5.37647,"is_reserved":false,"is_disabled":false,"rental_uris":{"android":"levelo://app?vid=50ab0617-e097-449a-ace5-beb113a3c21e","ios":"levelo://app?vid=50ab0617-e097-449a-ace5-beb113a3c21e"},"vehicle_type_id":"4","last_reported":1752351051,"current_range_meters":17600,"station_id":"ce4bhh12rcd13ifvqff0","pricing_plan_id":"cebpf4jnsgd1na2vs0mg"},{"bike_id":"2afd10ce-5f23-4122-9c7a-a3416be941b2","system_id":"levelo_inurba_marseille","lat":43.26022,"lon":5.3756,"is_reserved":false,"is_disabled":true,"rental_uris":{"android":"levelo://app?vid=2afd10ce-5f23-4122-9c7a-a3416be941b2","ios":"levelo://app?vid=2afd10ce-5f23-4122-9c7a-a3416be941b2"},"vehicle_type_id":"4","last_reported":1752351051,"current_range_meters":17600,"station_id":"ce4bhgh2rcd13ifvqfa0","pricing_plan_id":"cebpf4jnsgd1na2vs0mg"},{"bike_id":"a7cc6e3c-0c6a-4d59-8373-8e8e44d19a8d","system_id":"levelo_inurba_marseille","lat":43.28431,"lon":5.39193,"is_reserved":false,"is_disabled":false,"rental_uris":{"android":"levelo://app?vid=a7cc6e3c-0c6a-4d59-8373-8e8e44d19a8d","ios":"levelo://app?vid=a7cc6e3c-0c6a-4d59-8373-8e8e44d19a8d"},"vehicle_type_id":"4","last_reported":1752351051,"current_range_meters":17600,"station_id":"ce4bhoh2rcd13ifvqh5g","pricing_plan_id":"cebpf4jnsgd1na2vs0mg"},{"bike_id":"7048b274-bb73-4f78-bd84-2dffe4927289","system_id":"levelo_inurba_marseille","lat":43.29802,"lon":5.39345,"is_reserved":false,"is_disabled":true,"rental_uris":{"android":"levelo://app?vid=7048b274-bb73-4f78-bd84-2dffe4927289","ios":"levelo://app?vid=7048b274-bb73-4f78-bd84-2dffe4927289"},"vehicle_type_id":"4","last_reported":1752351051,"current_range_meters":17600,"station_id":"chh1huq6cuj3fo74tm60","pricing_plan_id":"cebpf4jnsgd1na2vs0mg"},{"bike_id":"28a0b227-45df-4117-8ee1-3c3fe241af02","system_id":"levelo_inurba_marseille","lat":43.295312,"lon":5.385395,"is_reserved":false,"is_disabled":false,"rental_uris":{"android":"levelo://app?vid=28a0b227-45df-4117-8ee1-3c3fe241af02","ios":"levelo://app?vid=28a0b227-45df-4117-8ee1-3c3fe241af02"},"vehicle_type_id":"4","last_reported":1752351051,"current_range_meters":17600,"station_id":"ce4bgih2rcd13ifvqba0","pricing_plan_id":"cebpf4jnsgd1na2vs0mg"},{"bike_id":"826fa7b0-d3c3-4f7b-b2e4-ca771786f4ef","system_id":"levelo_inurba_marseille","lat":43.29243,"lon":5.38462,"is_reserved":false,"is_disabled":false,"rental_uris":{"android":"levelo://app?vid=826fa7b0-d3c3-4f7b-b2e4-ca771786f4ef","ios":"levelo://app?vid=826fa7b0-d3c3-4f7b-b2e4-ca771786f4ef"},"vehicle_type_id":"4","last_reported":1752351051,"current_range_meters":17600,"station_id":"ce4bh692rcd13ifvqea0","pricing_plan_id":"cebpf4jnsgd1na2vs0mg"},{"bike_id":"0ca52cb5-24d0-4652-a243-6482a6c01846","system_id":"levelo_inurba_marseille","lat":43.30303,"lon":5.36903,"is_reserved":false,"is_disabled":false,"rental_uris":{"android":"levelo://app?vid=0ca52cb5-24d0-4652-a243-6482a6c01846","ios":"levelo://app?vid=0ca52cb5-24d0-4652-a243-6482a6c01846"},"vehicle_type_id":"4","last_reported":1752351051,"current_range_meters":17600,"station_id":"ce4bgqh2rcd13ifvqc5g","pricing_plan_id":"cebpf4jnsgd1na2vs0mg"},{"bike_id":"a35f5113-b742-48ac-9409-269753f73583","system_id":"levelo_inurba_marseille","lat":43.29912,"lon":5.38148,"is_reserved":false,"is_disabled":false,"rental_uris":{"android":"levelo://app?vid=a35f5113-b742-48ac-9409-269753f73583","ios":"levelo://app?vid=a35f5113-b742-48ac-9409-269753f73583"},"vehicle_type_id":"4","last_reported":1752351051,"current_range_meters":18000,"station_id":"ce4bgj12rcd13ifvqbc0","pricing_plan_id":"cebpf4jnsgd1na2vs0mg"},{"bike_id":"9ac0406f-d24c-4cbb-96de-ba6903408475","system_id":"levelo_inurba_marseille","lat":43.29257,"lon":5.38454,"is_reserved":false,"is_disabled":false,"rental_uris":{"android":"levelo://app?vid=9ac0406f-d24c-4cbb-96de-ba6903408475","ios":"levelo://app?vid=9ac0406f-d24c-4cbb-96de-ba6903408475"},"vehicle_type_id":"4","last_reported":1752351051,"current_range_meters":18000,"station_id":"ce4bh692rcd13ifvqea0","pricing_plan_id":"cebpf4jnsgd1na2vs0mg"},{"bike_id":"735f6469-5f72-4a25-bc39-e21f00163ed6","system_id":"levelo_inurba_marseille","lat":43.307953,"lon":5.381575,"is_reserved":false,"is_disabled":false,"rental_uris":{"android":"levelo://app?vid=735f6469-5f72-4a25-bc39-e21f00163ed6","ios":"levelo://app?vid=735f6469-5f72-4a25-bc39-e21f00163ed6"},"vehicle_type_id":"4","last_reported":1752351051,"current_range_meters":18000,"station_id":"ce4bgt12rcd13ifvqce0","pricing_plan_id":"cebpf4jnsgd1na2vs0mg"},{"bike_id":"6db2d44d-c7ca-41ac-b814-ccca58d47fae","system_id":"levelo_inurba_marseille","lat":43.26212,"lon":5.37454,"is_reserved":false,"is_disabled":false,"rental_uris":{"android":"levelo://app?vid=6db2d44d-c7ca-41ac-b814-ccca58d47fae","ios":"levelo://app?vid=6db2d44d-c7ca-41ac-b814-ccca58d47fae"},"vehicle_type_id":"4","last_reported":1752351051,"current_range_meters":18000,"station_id":"ce4bhgp2rcd13ifvqfc0","pricing_plan_id":"cebpf4jnsgd1na2vs0mg"},{"bike_id":"633ccaf4-8d4c-41f3-8634-2b25f472ed5e","system_id":"levelo_inurba_marseille","lat":43.28269,"lon":5.35068,"is_reserved":false,"is_disabled":false,"rental_uris":{"android":"levelo://app?vid=633ccaf4-8d4c-41f3-8634-2b25f472ed5e","ios":"levelo://app?vid=633ccaf4-8d4c-41f3-8634-2b25f472ed5e"},"vehicle_type_id":"4","last_reported":1752351051,"current_range_meters":18000,"station_id":"ce4bhbp2rcd13ifvqerg","pricing_plan_id":"cebpf4jnsgd1na2vs0mg"},{"bike_id":"b606f300-9197-4497-8d28-e9c5f1eeeac0","system_id":"levelo_inurba_marseille","lat":43.29592,"lon":5.38095,"is_reserved":false,"is_disabled":false,"rental_uris":{"android":"levelo://app?vid=b606f300-9197-4497-8d28-e9c5f1eeeac0","ios":"levelo://app?vid=b606f300-9197-4497-8d28-e9c5f1eeeac0"},"vehicle_type_id":"4","last_reported":1752351051,"current_range_meters":18000,"station_id":"ce4bgl12rcd13ifvqbo0","pricing_plan_id":"cebpf4jnsgd1na2vs0mg"},{"bike_id":"718eafe4-1059-4d0b-9935-83404501b5b5","system_id":"levelo_inurba_marseille","lat":43.31708,"lon":5.37757,"is_reserved":false,"is_disabled":false,"rental_uris":{"android":"levelo://app?vid=718eafe4-1059-4d0b-9935-83404501b5b5","ios":"levelo://app?vid=718eafe4-1059-4d0b-9935-83404501b5b5"},"vehicle_type_id":"4","last_reported":1752351051,"current_range_meters":18000,"station_id":"ce4bgth2rcd13ifvqch0","pricing_plan_id":"cebpf4jnsgd1na2vs0mg"},{"bike_id":"8b35647d-58c6-4f68-9c78-22b31b5970be","system_id":"levelo_inurba_marseille","lat":43.288531,"lon":5.393214,"is_reserved":false,"is_disabled":false,"rental_uris":{"android":"levelo://app?vid=8b35647d-58c6-4f68-9c78-22b31b5970be","ios":"levelo://app?vid=8b35647d-58c6-4f68-9c78-22b31b5970be"},"vehicle_type_id":"4","last_reported":1752351051,"current_range_meters":18000,"station_id":"ce4bh2p2rcd13ifvqdi0","pricing_plan_id":"cebpf4jnsgd1na2vs0mg"},{"bike_id":"eaf67edf-afa5-42e2-bbf0-97699e148a26","system_id":"levelo_inurba_marseille","lat":43.29237,"lon":5.38453,"is_reserved":false,"is_disabled":false,"rental_uris":{"android":"levelo://app?vid=eaf67edf-afa5-42e2-bbf0-97699e148a26","ios":"levelo://app?vid=eaf67edf-afa5-42e2-bbf0-97699e148a26"},"vehicle_type_id":"4","last_reported":1752351051,"current_range_meters":18000,"station_id":"ce4bh692rcd13ifvqea0","pricing_plan_id":"cebpf4jnsgd1na2vs0mg"},{"bike_id":"20e0c8b7-30ca-4d0d-855f-89e1fa81bb49","system_id":"levelo_inurba_marseille","lat":43.284912,"lon":5.385351,"is_reserved":false,"is_disabled":false,"rental_uris":{"android":"levelo://app?vid=20e0c8b7-30ca-4d0d-855f-89e1fa81bb49","ios":"levelo://app?vid=20e0c8b7-30ca-4d0d-855f-89e1fa81bb49"},"vehicle_type_id":"4","last_reported":1752351051,"current_range_meters":18000,"station_id":"","pricing_plan_id":"cebpf4jnsgd1na2vs0mg"},{"bike_id":"dbf78402-9380-4208-a15a-2558ad00150a","system_id":"levelo_inurba_marseille","lat":43.26204,"lon":5.3745,"is_reserved":false,"is_disabled":false,"rental_uris":{"android":"levelo://app?vid=dbf78402-9380-4208-a15a-2558ad00150a","ios":"levelo://app?vid=dbf78402-9380-4208-a15a-2558ad00150a"},"vehicle_type_id":"4","last_reported":1752351051,"current_range_meters":18000,"station_id":"ce4bhgp2rcd13ifvqfc0","pricing_plan_id":"cebpf4jnsgd1na2vs0mg"},{"bike_id":"f2bc0789-b423-4281-ac6d-334972b8325a","system_id":"levelo_inurba_marseille","lat":43.29975,"lon":5.38487,"is_reserved":false,"is_disabled":false,"rental_uris":{"android":"levelo://app?vid=f2bc0789-b423-4281-ac6d-334972b8325a","ios":"levelo://app?vid=f2bc0789-b423-4281-ac6d-334972b8325a"},"vehicle_type_id":"4","last_reported":1752351051,"current_range_meters":18000,"station_id":"ce4bgj92rcd13ifvqbd0","pricing_plan_id":"cebpf4jnsgd1na2vs0mg"},{"bike_id":"2961e602-3c28-430d-9125-75e883099cf9","system_id":"levelo_inurba_marseille","lat":43.29618,"lon":5.37155,"is_reserved":false,"is_disabled":false,"rental_uris":{"android":"levelo://app?vid=2961e602-3c28-430d-9125-75e883099cf9","ios":"levelo://app?vid=2961e602-3c28-430d-9125-75e883099cf9"},"vehicle_type_id":"4","last_reported":1752351051,"current_range_meters":18000,"station_id":"ce4bgnh2rcd13ifvqc0g","pricing_plan_id":"cebpf4jnsgd1na2vs0mg"},{"bike_id":"d0f1cdfb-a1d0-48c8-bd73-259f60d4d655","system_id":"levelo_inurba_marseille","lat":43.29252,"lon":5.38471,"is_reserved":false,"is_disabled":false,"rental_uris":{"android":"levelo://app?vid=d0f1cdfb-a1d0-48c8-bd73-259f60d4d655","ios":"levelo://app?vid=d0f1cdfb-a1d0-48c8-bd73-259f60d4d655"},"vehicle_type_id":"4","last_reported":1752351051,"current_range_meters":18000,"station_id":"ce4bh692rcd13ifvqea0","pricing_plan_id":"cebpf4jnsgd1na2vs0mg"},{"bike_id":"21a57e85-e254-4500-a792-a97fa1cc4eaa","system_id":"levelo_inurba_marseille","lat":43.2846,"lon":5.35874,"is_reserved":false,"is_disabled":false,"rental_uris":{"android":"levelo://app?vid=21a57e85-e254-4500-a792-a97fa1cc4eaa","ios":"levelo://app?vid=21a57e85-e254-4500-a792-a97fa1cc4eaa"},"vehicle_type_id":"4","last_reported":1752351051,"current_range_meters":18800,"station_id":"ce4bhah2rcd13ifvqei0","pricing_plan_id":"cebpf4jnsgd1na2vs0mg"},{"bike_id":"9b40dc73-509b-4d2f-8a27-44696719b175","system_id":"levelo_inurba_marseille","lat":43.27082,"lon":5.42304,"is_reserved":false,"is_disabled":false,"rental_uris":{"android":"levelo://app?vid=9b40dc73-509b-4d2f-8a27-44696719b175","ios":"levelo://app?vid=9b40dc73-509b-4d2f-8a27-44696719b175"},"vehicle_type_id":"4","last_reported":1752351051,"current_range_meters":18800,"station_id":"ce4bhk92rcd13ifvqgb0","pricing_plan_id":"cebpf4jnsgd1na2vs0mg"},{"bike_id":"09334d41-cc3f-4830-ac12-e843115d37f5","system_id":"levelo_inurba_marseille","lat":43.29541,"lon":5.38528,"is_reserved":false,"is_disabled":false,"rental_uris":{"android":"levelo://app?vid=09334d41-cc3f-4830-ac12-e843115d37f5","ios":"levelo://app?vid=09334d41-cc3f-4830-ac12-e843115d37f5"},"vehicle_type_id":"4","last_reported":1752351051,"current_range_meters":18800,"station_id":"ce4bgih2rcd13ifvqba0","pricing_plan_id":"cebpf4jnsgd1na2vs0mg"},{"bike_id":"aa05afc5-76c9-44d5-85ec-01920e6b56c0","system_id":"levelo_inurba_marseille","lat":43.302319,"lon":5.395019,"is_reserved":false,"is_disabled":false,"rental_uris":{"android":"levelo://app?vid=aa05afc5-76c9-44d5-85ec-01920e6b56c0","ios":"levelo://app?vid=aa05afc5-76c9-44d5-85ec-01920e6b56c0"},"vehicle_type_id":"4","last_reported":1752351051,"current_range_meters":18800,"station_id":"ce4bh192rcd13ifvqdd0","pricing_plan_id":"cebpf4jnsgd1na2vs0mg"},{"bike_id":"081d645f-c8aa-463e-aeac-a5e66fcfeb00","system_id":"levelo_inurba_marseille","lat":43.26026,"lon":5.37553,"is_reserved":false,"is_disabled":false,"rental_uris":{"android":"levelo://app?vid=081d645f-c8aa-463e-aeac-a5e66fcfeb00","ios":"levelo://app?vid=081d645f-c8aa-463e-aeac-a5e66fcfeb00"},"vehicle_type_id":"4","last_reported":1752351051,"current_range_meters":18800,"station_id":"ce4bhgh2rcd13ifvqfa0","pricing_plan_id":"cebpf4jnsgd1na2vs0mg"},{"bike_id":"e99a2309-624d-449e-be01-46e7e6b47e58","system_id":"levelo_inurba_marseille","lat":43.29084,"lon":5.38171,"is_reserved":false,"is_disabled":false,"rental_uris":{"android":"levelo://app?vid=e99a2309-624d-449e-be01-46e7e6b47e58","ios":"levelo://app?vid=e99a2309-624d-449e-be01-46e7e6b47e58"},"vehicle_type_id":"4","last_reported":1752351051,"current_range_meters":18000,"station_id":"ce4bh512rcd13ifvqe2g","pricing_plan_id":"cebpf4jnsgd1na2vs0mg"},{"bike_id":"7d9e3f53-cf37-4d56-9ff5-57d7cc79d46c","system_id":"levelo_inurba_marseille","lat":43.29545,"lon":5.38523,"is_reserved":false,"is_disabled":false,"rental_uris":{"android":"levelo://app?vid=7d9e3f53-cf37-4d56-9ff5-57d7cc79d46c","ios":"levelo://app?vid=7d9e3f53-cf37-4d56-9ff5-57d7cc79d46c"},"vehicle_type_id":"4","last_reported":1752351051,"current_range_meters":18800,"station_id":"ce4bgih2rcd13ifvqba0","pricing_plan_id":"cebpf4jnsgd1na2vs0mg"},{"bike_id":"9628fc31-6936-43ec-bf4c-f53aaa82a6a9","system_id":"levelo_inurba_marseille","lat":43.33602,"lon":5.41021,"is_reserved":false,"is_disabled":false,"rental_uris":{"android":"levelo://app?vid=9628fc31-6936-43ec-bf4c-f53aaa82a6a9","ios":"levelo://app?vid=9628fc31-6936-43ec-bf4c-f53aaa82a6a9"},"vehicle_type_id":"4","last_reported":1752351051,"current_range_meters":18000,"station_id":"ce4bhqh2rcd13ifvqhmg","pricing_plan_id":"cebpf4jnsgd1na2vs0mg"},{"bike_id":"0b697ac8-09ba-40f1-aa88-f86e79cf244d","system_id":"levelo_inurba_marseille","lat":43.260146,"lon":5.375348,"is_reserved":false,"is_disabled":false,"rental_uris":{"android":"levelo://app?vid=0b697ac8-09ba-40f1-aa88-f86e79cf244d","ios":"levelo://app?vid=0b697ac8-09ba-40f1-aa88-f86e79cf244d"},"vehicle_type_id":"4","last_reported":1752351051,"current_range_meters":18800,"station_id":"","pricing_plan_id":"cebpf4jnsgd1na2vs0mg"},{"bike_id":"6182d049-a5d8-422a-b0b9-1e868d3cc374","system_id":"levelo_inurba_marseille","lat":43.3094,"lon":5.39042,"is_reserved":false,"is_disabled":false,"rental_uris":{"android":"levelo://app?vid=6182d049-a5d8-422a-b0b9-1e868d3cc374","ios":"levelo://app?vid=6182d049-a5d8-422a-b0b9-1e868d3cc374"},"vehicle_type_id":"4","last_reported":1752351051,"current_range_meters":19200,"station_id":"ce4bgup2rcd13ifvqco0","pricing_plan_id":"cebpf4jnsgd1na2vs0mg"},{"bike_id":"300e41aa-f750-4dc7-8b55-65fc6d001d62","system_id":"levelo_inurba_marseille","lat":43.21172,"lon":5.35086,"is_reserved":false,"is_disabled":false,"rental_uris":{"android":"levelo://app?vid=300e41aa-f750-4dc7-8b55-65fc6d001d62","ios":"levelo://app?vid=300e41aa-f750-4dc7-8b55-65fc6d001d62"},"vehicle_type_id":"4","last_reported":1752351051,"current_range_meters":19200,"station_id":"st_cvj6sg6p6f1abm77japg","pricing_plan_id":"cebpf4jnsgd1na2vs0mg"},{"bike_id":"be5a67d7-da54-47ce-ad56-15cf558b55a4","system_id":"levelo_inurba_marseille","lat":43.255,"lon":5.37637,"is_reserved":false,"is_disabled":false,"rental_uris":{"android":"levelo://app?vid=be5a67d7-da54-47ce-ad56-15cf558b55a4","ios":"levelo://app?vid=be5a67d7-da54-47ce-ad56-15cf558b55a4"},"vehicle_type_id":"4","last_reported":1752351051,"current_range_meters":19200,"station_id":"ce4bhh12rcd13ifvqff0","pricing_plan_id":"cebpf4jnsgd1na2vs0mg"},{"bike_id":"6acc4a15-ecd0-414f-a16e-33b5c9fc16f1","system_id":"levelo_inurba_marseille","lat":43.30932,"lon":5.36832,"is_reserved":false,"is_disabled":false,"rental_uris":{"android":"levelo://app?vid=6acc4a15-ecd0-414f-a16e-33b5c9fc16f1","ios":"levelo://app?vid=6acc4a15-ecd0-414f-a16e-33b5c9fc16f1"},"vehicle_type_id":"4","last_reported":1752351051,"current_range_meters":19200,"station_id":"","pricing_plan_id":"cebpf4jnsgd1na2vs0mg"},{"bike_id":"ed32cfd6-c32d-421a-8e15-11f5e12bc66d","system_id":"levelo_inurba_marseille","lat":43.31886,"lon":5.40738,"is_reserved":false,"is_disabled":false,"rental_uris":{"android":"levelo://app?vid=ed32cfd6-c32d-421a-8e15-11f5e12bc66d","ios":"levelo://app?vid=ed32cfd6-c32d-421a-8e15-11f5e12bc66d"},"vehicle_type_id":"4","last_reported":1752351051,"current_range_meters":18800,"station_id":"ce4bhq12rcd13ifvqhig","pricing_plan_id":"cebpf4jnsgd1na2vs0mg"},{"bike_id":"899f3cd4-00cc-438c-bf29-379d610fdcc2","system_id":"levelo_inurba_marseille","lat":43.2602,"lon":5.37561,"is_reserved":false,"is_disabled":false,"rental_uris":{"android":"levelo://app?vid=899f3cd4-00cc-438c-bf29-379d610fdcc2","ios":"levelo://app?vid=899f3cd4-00cc-438c-bf29-379d610fdcc2"},"vehicle_type_id":"4","last_reported":1752351051,"current_range_meters":19200,"station_id":"ce4bhgh2rcd13ifvqfa0","pricing_plan_id":"cebpf4jnsgd1na2vs0mg"},{"bike_id":"5308d5f0-5b82-47fe-b795-c3c6c0c58435","system_id":"levelo_inurba_marseille","lat":43.27557,"lon":5.38414,"is_reserved":false,"is_disabled":false,"rental_uris":{"android":"levelo://app?vid=5308d5f0-5b82-47fe-b795-c3c6c0c58435","ios":"levelo://app?vid=5308d5f0-5b82-47fe-b795-c3c6c0c58435"},"vehicle_type_id":"4","last_reported":1752351051,"current_range_meters":19200,"station_id":"ce4bhh92rcd13ifvqfi0","pricing_plan_id":"cebpf4jnsgd1na2vs0mg"},{"bike_id":"f70d4eb7-0483-4b22-b4af-6857c0805839","system_id":"levelo_inurba_marseille","lat":43.2994,"lon":5.3812,"is_reserved":false,"is_disabled":true,"rental_uris":{"android":"levelo://app?vid=f70d4eb7-0483-4b22-b4af-6857c0805839","ios":"levelo://app?vid=f70d4eb7-0483-4b22-b4af-6857c0805839"},"vehicle_type_id":"4","last_reported":1752351051,"current_range_meters":19200,"station_id":"ce4bgj12rcd13ifvqbc0","pricing_plan_id":"cebpf4jnsgd1na2vs0mg"},{"bike_id":"14faa97f-c731-4814-944c-7bfde9726326","system_id":"levelo_inurba_marseille","lat":43.299776,"lon":5.38496,"is_reserved":false,"is_disabled":false,"rental_uris":{"android":"levelo://app?vid=14faa97f-c731-4814-944c-7bfde9726326","ios":"levelo://app?vid=14faa97f-c731-4814-944c-7bfde9726326"},"vehicle_type_id":"4","last_reported":1752351051,"current_range_meters":19200,"station_id":"ce4bgj92rcd13ifvqbd0","pricing_plan_id":"cebpf4jnsgd1na2vs0mg"},{"bike_id":"1eac17b1-29c9-4e25-a5fe-00593f25a1c4","system_id":"levelo_inurba_marseille","lat":43.30946,"lon":5.39036,"is_reserved":false,"is_disabled":false,"rental_uris":{"android":"levelo://app?vid=1eac17b1-29c9-4e25-a5fe-00593f25a1c4","ios":"levelo://app?vid=1eac17b1-29c9-4e25-a5fe-00593f25a1c4"},"vehicle_type_id":"4","last_reported":1752351051,"current_range_meters":19200,"station_id":"ce4bgup2rcd13ifvqco0","pricing_plan_id":"cebpf4jnsgd1na2vs0mg"},{"bike_id":"1bf2d551-15b1-424b-b262-5e53675978dc","system_id":"levelo_inurba_marseille","lat":43.31065,"lon":5.38358,"is_reserved":false,"is_disabled":false,"rental_uris":{"android":"levelo://app?vid=1bf2d551-15b1-424b-b262-5e53675978dc","ios":"levelo://app?vid=1bf2d551-15b1-424b-b262-5e53675978dc"},"vehicle_type_id":"4","last_reported":1752351051,"current_range_meters":19200,"station_id":"ce4bgv92rcd13ifvqcr0","pricing_plan_id":"cebpf4jnsgd1na2vs0mg"},{"bike_id":"51ecb449-9edf-46be-b831-6d02721e6fa2","system_id":"levelo_inurba_marseille","lat":43.30963,"lon":5.39043,"is_reserved":false,"is_disabled":false,"rental_uris":{"android":"levelo://app?vid=51ecb449-9edf-46be-b831-6d02721e6fa2","ios":"levelo://app?vid=51ecb449-9edf-46be-b831-6d02721e6fa2"},"vehicle_type_id":"4","last_reported":1752351051,"current_range_meters":19200,"station_id":"ce4bgup2rcd13ifvqco0","pricing_plan_id":"cebpf4jnsgd1na2vs0mg"},{"bike_id":"875bcb3e-7f48-434b-b665-c8e1af3dda2d","system_id":"levelo_inurba_marseille","lat":43.26061,"lon":5.39395,"is_reserved":false,"is_disabled":false,"rental_uris":{"android":"levelo://app?vid=875bcb3e-7f48-434b-b665-c8e1af3dda2d","ios":"levelo://app?vid=875bcb3e-7f48-434b-b665-c8e1af3dda2d"},"vehicle_type_id":"4","last_reported":1752351051,"current_range_meters":19200,"station_id":"ce4bhh92rcd13ifvqfj0","pricing_plan_id":"cebpf4jnsgd1na2vs0mg"},{"bike_id":"8ef7a6ce-be1b-4bc7-b58f-0ca8300dace4","system_id":"levelo_inurba_marseille","lat":43.3133,"lon":5.39684,"is_reserved":false,"is_disabled":false,"rental_uris":{"android":"levelo://app?vid=8ef7a6ce-be1b-4bc7-b58f-0ca8300dace4","ios":"levelo://app?vid=8ef7a6ce-be1b-4bc7-b58f-0ca8300dace4"},"vehicle_type_id":"4","last_reported":1752351051,"current_range_meters":19200,"station_id":"ce4bgvp2rcd13ifvqcu0","pricing_plan_id":"cebpf4jnsgd1na2vs0mg"},{"bike_id":"5ba1306e-17d8-4dbc-acca-4fbb012874e8","system_id":"levelo_inurba_marseille","lat":43.29276,"lon":5.38414,"is_reserved":false,"is_disabled":false,"rental_uris":{"android":"levelo://app?vid=5ba1306e-17d8-4dbc-acca-4fbb012874e8","ios":"levelo://app?vid=5ba1306e-17d8-4dbc-acca-4fbb012874e8"},"vehicle_type_id":"4","last_reported":1752351051,"current_range_meters":19200,"station_id":"ce4bh692rcd13ifvqea0","pricing_plan_id":"cebpf4jnsgd1na2vs0mg"},{"bike_id":"1deeeea6-8f08-4f38-a2ec-5763ba7418f2","system_id":"levelo_inurba_marseille","lat":43.29535,"lon":5.37498,"is_reserved":false,"is_disabled":false,"rental_uris":{"android":"levelo://app?vid=1deeeea6-8f08-4f38-a2ec-5763ba7418f2","ios":"levelo://app?vid=1deeeea6-8f08-4f38-a2ec-5763ba7418f2"},"vehicle_type_id":"4","last_reported":1752351051,"current_range_meters":19600,"station_id":"ce4bgkp2rcd13ifvqbmg","pricing_plan_id":"cebpf4jnsgd1na2vs0mg"},{"bike_id":"bacc14c9-7840-475b-8d77-3d452179f3b7","system_id":"levelo_inurba_marseille","lat":43.25105,"lon":5.40324,"is_reserved":false,"is_disabled":false,"rental_uris":{"android":"levelo://app?vid=bacc14c9-7840-475b-8d77-3d452179f3b7","ios":"levelo://app?vid=bacc14c9-7840-475b-8d77-3d452179f3b7"},"vehicle_type_id":"4","last_reported":1752351051,"current_range_meters":19600,"station_id":"ce4bhlh2rcd13ifvqgig","pricing_plan_id":"cebpf4jnsgd1na2vs0mg"},{"bike_id":"2a73bed0-8bf5-463c-8670-00dc931d8f77","system_id":"levelo_inurba_marseille","lat":43.29932,"lon":5.36554,"is_reserved":false,"is_disabled":false,"rental_uris":{"android":"levelo://app?vid=2a73bed0-8bf5-463c-8670-00dc931d8f77","ios":"levelo://app?vid=2a73bed0-8bf5-463c-8670-00dc931d8f77"},"vehicle_type_id":"4","last_reported":1752351051,"current_range_meters":19600,"station_id":"ce4bgm92rcd13ifvqbr0","pricing_plan_id":"cebpf4jnsgd1na2vs0mg"},{"bike_id":"cb1cc61e-2c97-4884-a03f-16bc11f5bec3","system_id":"levelo_inurba_marseille","lat":43.27368,"lon":5.36246,"is_reserved":false,"is_disabled":false,"rental_uris":{"android":"levelo://app?vid=cb1cc61e-2c97-4884-a03f-16bc11f5bec3","ios":"levelo://app?vid=cb1cc61e-2c97-4884-a03f-16bc11f5bec3"},"vehicle_type_id":"4","last_reported":1752351051,"current_range_meters":19600,"station_id":"ce4bhbh2rcd13ifvqeo0","pricing_plan_id":"cebpf4jnsgd1na2vs0mg"},{"bike_id":"cdd5c241-a8e8-46da-9eb7-dcfe1186f5e6","system_id":"levelo_inurba_marseille","lat":43.28152,"lon":5.42645,"is_reserved":false,"is_disabled":false,"rental_uris":{"android":"levelo://app?vid=cdd5c241-a8e8-46da-9eb7-dcfe1186f5e6","ios":"levelo://app?vid=cdd5c241-a8e8-46da-9eb7-dcfe1186f5e6"},"vehicle_type_id":"4","last_reported":1752351051,"current_range_meters":19600,"station_id":"ce4bhnh2rcd13ifvqgug","pricing_plan_id":"cebpf4jnsgd1na2vs0mg"},{"bike_id":"f5a47db5-6fb2-46bd-a2de-efa4ad13bf60","system_id":"levelo_inurba_marseille","lat":43.2121,"lon":5.35047,"is_reserved":false,"is_disabled":false,"rental_uris":{"android":"levelo://app?vid=f5a47db5-6fb2-46bd-a2de-efa4ad13bf60","ios":"levelo://app?vid=f5a47db5-6fb2-46bd-a2de-efa4ad13bf60"},"vehicle_type_id":"4","last_reported":1752351051,"current_range_meters":19600,"station_id":"","pricing_plan_id":"cebpf4jnsgd1na2vs0mg"},{"bike_id":"8577aaca-7915-49c3-b3eb-bc84fe946baf","system_id":"levelo_inurba_marseille","lat":43.275755,"lon":5.416755,"is_reserved":false,"is_disabled":false,"rental_uris":{"android":"levelo://app?vid=8577aaca-7915-49c3-b3eb-bc84fe946baf","ios":"levelo://app?vid=8577aaca-7915-49c3-b3eb-bc84fe946baf"},"vehicle_type_id":"4","last_reported":1752351051,"current_range_meters":19600,"station_id":"","pricing_plan_id":"cebpf4jnsgd1na2vs0mg"},{"bike_id":"436e917a-7f3e-467e-946b-136c32e6f617","system_id":"levelo_inurba_marseille","lat":43.26222,"lon":5.40446,"is_reserved":false,"is_disabled":false,"rental_uris":{"android":"levelo://app?vid=436e917a-7f3e-467e-946b-136c32e6f617","ios":"levelo://app?vid=436e917a-7f3e-467e-946b-136c32e6f617"},