{"last_updated":1741158595,"ttl":60,"version":"2.2","data":{"bikes":[{"bike_id":"905da3b5-ffda-4093-b252-634c59f7dd89","system_id":"levelo_inurba_marseille","lat":43.28608,"lon":5.35114,"is_reserved":false,"is_disabled":false,"rental_uris":{"android":"levelo://app?vid=905da3b5-ffda-4093-b252-634c59f7dd89","ios":"levelo://app?vid=905da3b5-ffda-4093-b252-634c59f7dd89"},"vehicle_type_id":"4","last_reported":1741158595,"current_range_meters":2800,"station_id":"ce4bhch2rcd13ifvqeug","pricing_plan_id":"cebpf4jnsgd1na2vs0mg"},{"bike_id":"bfe26a9a-f533-4fbe-b0b6-95a1e95a5f24","system_id":"levelo_inurba_marseille","lat":43.28097,"lon":5.39662,"is_reserved":false,"is_disabled":true,"rental_uris":{"android":"levelo://app?vid=bfe26a9a-f533-4fbe-b0b6-95a1e95a5f24","ios":"levelo://app?vid=bfe26a9a-f533-4fbe-b0b6-95a1e95a5f24"},"vehicle_type_id":"4","last_reported":1741158595,"current_range_meters":2800,"station_id":"ce4bho12rcd13ifvqh2g","pricing_plan_id":"cebpf4jnsgd1na2vs0mg"},{"bike_id":"ade3e3f0-4695-4047-af63-4f7248628ece","system_id":"levelo_inurba_marseille","lat":43.30475,"lon":5.37921,"is_reserved":false,"is_disabled":false,"rental_uris":{"android":"levelo://app?vid=ade3e3f0-4695-4047-af63-4f7248628ece","ios":"levelo://app?vid=ade3e3f0-4695-4047-af63-4f7248628ece"},"vehicle_type_id":"4","last_reported":1741158595,"current_range_meters":2800,"station_id":"ce4bgup2rcd13ifvqcn0","pricing_plan_id":"cebpf4jnsgd1na2vs0mg"},{"bike_id":"30b53145-2c06-4cbc-89d0-59b3dc96ddfe","system_id":"levelo_inurba_marseille","lat":43.280937,"lon":5.422153,"is_reserved":false,"is_disabled":false,"rental_uris":{"android":"levelo://app?vid=30b53145-2c06-4cbc-89d0-59b3dc96ddfe","ios":"levelo://app?vid=30b53145-2c06-4cbc-89d0-59b3dc96ddfe"},"vehicle_type_id":"4","last_reported":1741158595,"current_range_meters":2800,"station_id":"","pricing_plan_id":"cebpf4jnsgd1na2vs0mg"},{"bike_id":"e65082d6-5529-479d-9979-0976e546b0b6","system_id":"levelo_inurba_marseille","lat":43.25564,"lon":5.38253,"is_reserved":false,"is_disabled":false,"rental_uris":{"android":"levelo://app?vid=e65082d6-5529-479d-9979-0976e546b0b6","ios":"levelo://app?vid=e65082d6-5529-479d-9979-0976e546b0b6"},"vehicle_type_id":"4","last_reported":1741158595,"current_range_meters":2800,"station_id":"ce4bhih2rcd13ifvqfs0","pricing_plan_id":"cebpf4jnsgd1na2vs0mg"},{"bike_id":"2abf1942-1862-4339-bf29-38ec0fab5a44","system_id":"levelo_inurba_marseille","lat":43.30271,"lon":5.37709,"is_reserved":false,"is_disabled":false,"rental_uris":{"android":"levelo://app?vid=2abf1942-1862-4339-bf29-38ec0fab5a44","ios":"levelo://app?vid=2abf1942-1862-4339-bf29-38ec0fab5a44"},"vehicle_type_id":"4","last_reported":1741158595,"current_range_meters":2800,"station_id":"ce4bguh2rcd13ifvqcj0","pricing_plan_id":"cebpf4jnsgd1na2vs0mg"},{"bike_id":"b0806cb3-c04d-4b6e-9222-a91573a6c6af","system_id":"levelo_inurba_marseille","lat":43.29854,"lon":5.36291,"is_reserved":false,"is_disabled":false,"rental_uris":{"android":"levelo://app?vid=b0806cb3-c04d-4b6e-9222-a91573a6c6af","ios":"levelo://app?vid=b0806cb3-c04d-4b6e-9222-a91573a6c6af"},"vehicle_type_id":"4","last_reported":1741158595,"current_range_meters":2800,"station_id":"ce4bgpp2rcd13ifvqc3g","pricing_plan_id":"cebpf4jnsgd1na2vs0mg"},{"bike_id":"3fdc9a7e-2885-4db2-b302-c77e590b4771","system_id":"levelo_inurba_marseille","lat":43.31029,"lon":5.37564,"is_reserved":false,"is_disabled":true,"rental_uris":{"android":"levelo://app?vid=3fdc9a7e-2885-4db2-b302-c77e590b4771","ios":"levelo://app?vid=3fdc9a7e-2885-4db2-b302-c77e590b4771"},"vehicle_type_id":"4","last_reported":1741158595,"current_range_meters":2800,"station_id":"","pricing_plan_id":"cebpf4jnsgd1na2vs0mg"},{"bike_id":"90637203-948d-4c63-8efc-9933b6919ad6","system_id":"levelo_inurba_marseille","lat":43.31349,"lon":5.36696,"is_reserved":false,"is_disabled":false,"rental_uris":{"android":"levelo://app?vid=90637203-948d-4c63-8efc-9933b6919ad6","ios":"levelo://app?vid=90637203-948d-4c63-8efc-9933b6919ad6"},"vehicle_type_id":"4","last_reported":1741158595,"current_range_meters":2800,"station_id":"ce4bgr92rcd13ifvqc6g","pricing_plan_id":"cebpf4jnsgd1na2vs0mg"},{"bike_id":"771552a7-ab8d-491e-9bd8-ee533f6ca525","system_id":"levelo_inurba_marseille","lat":43.23148,"lon":5.43718,"is_reserved":false,"is_disabled":false,"rental_uris":{"android":"levelo://app?vid=771552a7-ab8d-491e-9bd8-ee533f6ca525","ios":"levelo://app?vid=771552a7-ab8d-491e-9bd8-ee533f6ca525"},"vehicle_type_id":"4","last_reported":1741158595,"current_range_meters":3200,"station_id":"ce4bhmp2rcd13ifvqgog","pricing_plan_id":"cebpf4jnsgd1na2vs0mg"},{"bike_id":"c9392d3c-3fe5-41a7-8f1b-b7ef3b8c9697","system_id":"levelo_inurba_marseille","lat":43.29041,"lon":5.39972,"is_reserved":false,"is_disabled":false,"rental_uris":{"android":"levelo://app?vid=c9392d3c-3fe5-41a7-8f1b-b7ef3b8c9697","ios":"levelo://app?vid=c9392d3c-3fe5-41a7-8f1b-b7ef3b8c9697"},"vehicle_type_id":"4","last_reported":1741158595,"current_range_meters":3200,"station_id":"ce4bh392rcd13ifvqdm0","pricing_plan_id":"cebpf4jnsgd1na2vs0mg"},{"bike_id":"6581966a-db1e-4a11-8281-94f86cfbfe18","system_id":"levelo_inurba_marseille","lat":43.27965,"lon":5.38724,"is_reserved":false,"is_disabled":false,"rental_uris":{"android":"levelo://app?vid=6581966a-db1e-4a11-8281-94f86cfbfe18","ios":"levelo://app?vid=6581966a-db1e-4a11-8281-94f86cfbfe18"},"vehicle_type_id":"4","last_reported":1741158595,"current_range_meters":3200,"station_id":"ce4bhg12rcd13ifvqf80","pricing_plan_id":"cebpf4jnsgd1na2vs0mg"},{"bike_id":"81837559-78cb-4a14-a847-89a84b64c16b","system_id":"levelo_inurba_marseille","lat":43.25013,"lon":5.38935,"is_reserved":false,"is_disabled":false,"rental_uris":{"android":"levelo://app?vid=81837559-78cb-4a14-a847-89a84b64c16b","ios":"levelo://app?vid=81837559-78cb-4a14-a847-89a84b64c16b"},"vehicle_type_id":"4","last_reported":1741158595,"current_range_meters":3200,"station_id":"ce4bhgp2rcd13ifvqfd0","pricing_plan_id":"cebpf4jnsgd1na2vs0mg"},{"bike_id":"b4055064-44c6-499f-bdaa-65df7700920d","system_id":"levelo_inurba_marseille","lat":43.25935,"lon":5.40909,"is_reserved":false,"is_disabled":false,"rental_uris":{"android":"levelo://app?vid=b4055064-44c6-499f-bdaa-65df7700920d","ios":"levelo://app?vid=b4055064-44c6-499f-bdaa-65df7700920d"},"vehicle_type_id":"4","last_reported":1741158595,"current_range_meters":3200,"station_id":"ce4bhm92rcd13ifvqglg","pricing_plan_id":"cebpf4jnsgd1na2vs0mg"},{"bike_id":"ce8ef3d2-07e3-4512-8813-bcde53a01429","system_id":"levelo_inurba_marseille","lat":43.24164,"lon":5.36419,"is_reserved":false,"is_disabled":false,"rental_uris":{"android":"levelo://app?vid=ce8ef3d2-07e3-4512-8813-bcde53a01429","ios":"levelo://app?vid=ce8ef3d2-07e3-4512-8813-bcde53a01429"},"vehicle_type_id":"4","last_reported":1741158595,"current_range_meters":3600,"station_id":"cpo36qri1sfpv3e86is0","pricing_plan_id":"cebpf4jnsgd1na2vs0mg"},{"bike_id":"56b861b8-5315-4ddc-9ba4-4b7d6d0340bb","system_id":"levelo_inurba_marseille","lat":43.29036,"lon":5.39982,"is_reserved":false,"is_disabled":false,"rental_uris":{"android":"levelo://app?vid=56b861b8-5315-4ddc-9ba4-4b7d6d0340bb","ios":"levelo://app?vid=56b861b8-5315-4ddc-9ba4-4b7d6d0340bb"},"vehicle_type_id":"4","last_reported":1741158595,"current_range_meters":3600,"station_id":"ce4bh392rcd13ifvqdm0","pricing_plan_id":"cebpf4jnsgd1na2vs0mg"},{"bike_id":"4e6cec20-be55-41a8-a086-12c51410ea8f","system_id":"levelo_inurba_marseille","lat":43.30465,"lon":5.37904,"is_reserved":false,"is_disabled":false,"rental_uris":{"android":"levelo://app?vid=4e6cec20-be55-41a8-a086-12c51410ea8f","ios":"levelo://app?vid=4e6cec20-be55-41a8-a086-12c51410ea8f"},"vehicle_type_id":"4","last_reported":1741158595,"current_range_meters":3600,"station_id":"ce4bgup2rcd13ifvqcn0","pricing_plan_id":"cebpf4jnsgd1na2vs0mg"},{"bike_id":"f3f8a075-f2ce-49cf-993f-cd20f2d76af8","system_id":"levelo_inurba_marseille","lat":43.26049,"lon":5.3941,"is_reserved":false,"is_disabled":false,"rental_uris":{"android":"levelo://app?vid=f3f8a075-f2ce-49cf-993f-cd20f2d76af8","ios":"levelo://app?vid=f3f8a075-f2ce-49cf-993f-cd20f2d76af8"},"vehicle_type_id":"4","last_reported":1741158595,"current_range_meters":3600,"station_id":"ce4bhh92rcd13ifvqfj0","pricing_plan_id":"cebpf4jnsgd1na2vs0mg"},{"bike_id":"a6322abd-df49-4966-b7b9-f1f3b7d6e4a3","system_id":"levelo_inurba_marseille","lat":43.29435,"lon":5.39759,"is_reserved":false,"is_disabled":false,"rental_uris":{"android":"levelo://app?vid=a6322abd-df49-4966-b7b9-f1f3b7d6e4a3","ios":"levelo://app?vid=a6322abd-df49-4966-b7b9-f1f3b7d6e4a3"},"vehicle_type_id":"4","last_reported":1741158595,"current_range_meters":3600,"station_id":"ce4bh3h2rcd13ifvqdo0","pricing_plan_id":"cebpf4jnsgd1na2vs0mg"},{"bike_id":"cdfb91ec-7ee7-41b1-b614-7969d8e9230c","system_id":"levelo_inurba_marseille","lat":43.279828,"lon":5.404626,"is_reserved":false,"is_disabled":true,"rental_uris":{"android":"levelo://app?vid=cdfb91ec-7ee7-41b1-b614-7969d8e9230c","ios":"levelo://app?vid=cdfb91ec-7ee7-41b1-b614-7969d8e9230c"},"vehicle_type_id":"4","last_reported":1741158595,"current_range_meters":3600,"station_id":"","pricing_plan_id":"cebpf4jnsgd1na2vs0mg"},{"bike_id":"79687e17-5ece-4f9c-9252-898196d1c2cb","system_id":"levelo_inurba_marseille","lat":43.29892,"lon":5.38506,"is_reserved":false,"is_disabled":true,"rental_uris":{"android":"levelo://app?vid=79687e17-5ece-4f9c-9252-898196d1c2cb","ios":"levelo://app?vid=79687e17-5ece-4f9c-9252-898196d1c2cb"},"vehicle_type_id":"4","last_reported":1741158595,"current_range_meters":4000,"station_id":"","pricing_plan_id":"cebpf4jnsgd1na2vs0mg"},{"bike_id":"13c44e5e-5463-4505-ba1b-c0544af7d8ca","system_id":"levelo_inurba_marseille","lat":43.23197,"lon":5.35563,"is_reserved":false,"is_disabled":false,"rental_uris":{"android":"levelo://app?vid=13c44e5e-5463-4505-ba1b-c0544af7d8ca","ios":"levelo://app?vid=13c44e5e-5463-4505-ba1b-c0544af7d8ca"},"vehicle_type_id":"4","last_reported":1741158595,"current_range_meters":4000,"station_id":"ce4bhu92rcd13ifvqi70","pricing_plan_id":"cebpf4jnsgd1na2vs0mg"},{"bike_id":"599fb211-30bc-48ad-b14d-44f4de33a890","system_id":"levelo_inurba_marseille","lat":43.26552,"lon":5.39035,"is_reserved":false,"is_disabled":false,"rental_uris":{"android":"levelo://app?vid=599fb211-30bc-48ad-b14d-44f4de33a890","ios":"levelo://app?vid=599fb211-30bc-48ad-b14d-44f4de33a890"},"vehicle_type_id":"4","last_reported":1741158595,"current_range_meters":4000,"station_id":"ce4bhe12rcd13ifvqf30","pricing_plan_id":"cebpf4jnsgd1na2vs0mg"},{"bike_id":"dc7f228c-f690-47dd-84d3-3353a33e8cda","system_id":"levelo_inurba_marseille","lat":43.246157,"lon":5.431505,"is_reserved":false,"is_disabled":false,"rental_uris":{"android":"levelo://app?vid=dc7f228c-f690-47dd-84d3-3353a33e8cda","ios":"levelo://app?vid=dc7f228c-f690-47dd-84d3-3353a33e8cda"},"vehicle_type_id":"4","last_reported":1741158595,"current_range_meters":4000,"station_id":"","pricing_plan_id":"cebpf4jnsgd1na2vs0mg"},{"bike_id":"250b246e-351e-47f8-b06a-ca0b2d457593","system_id":"levelo_inurba_marseille","lat":43.30202,"lon":5.37598,"is_reserved":false,"is_disabled":false,"rental_uris":{"android":"levelo://app?vid=250b246e-351e-47f8-b06a-ca0b2d457593","ios":"levelo://app?vid=250b246e-351e-47f8-b06a-ca0b2d457593"},"vehicle_type_id":"4","last_reported":1741158595,"current_range_meters":4400,"station_id":"ce4bguh2rcd13ifvqcj0","pricing_plan_id":"cebpf4jnsgd1na2vs0mg"},{"bike_id":"de44d09a-d4db-4ce3-a2dd-62f4dc2e96ab","system_id":"levelo_inurba_marseille","lat":43.27495,"lon":5.42453,"is_reserved":false,"is_disabled":false,"rental_uris":{"android":"levelo://app?vid=de44d09a-d4db-4ce3-a2dd-62f4dc2e96ab","ios":"levelo://app?vid=de44d09a-d4db-4ce3-a2dd-62f4dc2e96ab"},"vehicle_type_id":"4","last_reported":1741158595,"current_range_meters":4400,"station_id":"ce4bhn92rcd13ifvqgrg","pricing_plan_id":"cebpf4jnsgd1na2vs0mg"},{"bike_id":"d0297490-db8c-4c8f-93d8-ca976c117f19","system_id":"levelo_inurba_marseille","lat":43.24073,"lon":5.37764,"is_reserved":false,"is_disabled":false,"rental_uris":{"android":"levelo://app?vid=d0297490-db8c-4c8f-93d8-ca976c117f19","ios":"levelo://app?vid=d0297490-db8c-4c8f-93d8-ca976c117f19"},"vehicle_type_id":"4","last_reported":1741158595,"current_range_meters":4400,"station_id":"ce4bhnp2rcd13ifvqgvg","pricing_plan_id":"cebpf4jnsgd1na2vs0mg"},{"bike_id":"e89e2431-4828-4dd3-b871-651d5ceb703c","system_id":"levelo_inurba_marseille","lat":43.34143,"lon":5.40895,"is_reserved":false,"is_disabled":false,"rental_uris":{"android":"levelo://app?vid=e89e2431-4828-4dd3-b871-651d5ceb703c","ios":"levelo://app?vid=e89e2431-4828-4dd3-b871-651d5ceb703c"},"vehicle_type_id":"4","last_reported":1741158595,"current_range_meters":4400,"station_id":"ce4bhqh2rcd13ifvqhlg","pricing_plan_id":"cebpf4jnsgd1na2vs0mg"},{"bike_id":"0b818497-4d97-451b-b637-cef3d02b5c9d","system_id":"levelo_inurba_marseille","lat":43.31709,"lon":5.43703,"is_reserved":false,"is_disabled":false,"rental_uris":{"android":"levelo://app?vid=0b818497-4d97-451b-b637-cef3d02b5c9d","ios":"levelo://app?vid=0b818497-4d97-451b-b637-cef3d02b5c9d"},"vehicle_type_id":"4","last_reported":1741158595,"current_range_meters":4800,"station_id":"ce4bhp92rcd13ifvqhcg","pricing_plan_id":"cebpf4jnsgd1na2vs0mg"},{"bike_id":"ac42a181-2deb-4a2e-a090-a06629a13fe2","system_id":"levelo_inurba_marseille","lat":43.29272,"lon":5.40129,"is_reserved":false,"is_disabled":false,"rental_uris":{"android":"levelo://app?vid=ac42a181-2deb-4a2e-a090-a06629a13fe2","ios":"levelo://app?vid=ac42a181-2deb-4a2e-a090-a06629a13fe2"},"vehicle_type_id":"4","last_reported":1741158595,"current_range_meters":4800,"station_id":"ce4bh312rcd13ifvqdk0","pricing_plan_id":"cebpf4jnsgd1na2vs0mg"},{"bike_id":"58401567-57e2-4a69-9c4f-e61167adc096","system_id":"levelo_inurba_marseille","lat":43.29042,"lon":5.39961,"is_reserved":false,"is_disabled":false,"rental_uris":{"android":"levelo://app?vid=58401567-57e2-4a69-9c4f-e61167adc096","ios":"levelo://app?vid=58401567-57e2-4a69-9c4f-e61167adc096"},"vehicle_type_id":"4","last_reported":1741158595,"current_range_meters":5600,"station_id":"ce4bh392rcd13ifvqdm0","pricing_plan_id":"cebpf4jnsgd1na2vs0mg"},{"bike_id":"5378e4ed-1f7e-4aa0-8024-19cb705165aa","system_id":"levelo_inurba_marseille","lat":43.30432,"lon":5.38888,"is_reserved":false,"is_disabled":false,"rental_uris":{"android":"levelo://app?vid=5378e4ed-1f7e-4aa0-8024-19cb705165aa","ios":"levelo://app?vid=5378e4ed-1f7e-4aa0-8024-19cb705165aa"},"vehicle_type_id":"4","last_reported":1741158595,"current_range_meters":4800,"station_id":"ce4bgk12rcd13ifvqbi0","pricing_plan_id":"cebpf4jnsgd1na2vs0mg"},{"bike_id":"24f3f337-19f2-44d1-a163-2687f1bcbb96","system_id":"levelo_inurba_marseille","lat":43.28081,"lon":5.39664,"is_reserved":false,"is_disabled":false,"rental_uris":{"android":"levelo://app?vid=24f3f337-19f2-44d1-a163-2687f1bcbb96","ios":"levelo://app?vid=24f3f337-19f2-44d1-a163-2687f1bcbb96"},"vehicle_type_id":"4","last_reported":1741158595,"current_range_meters":5600,"station_id":"ce4bho12rcd13ifvqh2g","pricing_plan_id":"cebpf4jnsgd1na2vs0mg"},{"bike_id":"4953908e-c12d-41ee-881a-cce039598782","system_id":"levelo_inurba_marseille","lat":43.307991,"lon":5.435235,"is_reserved":false,"is_disabled":false,"rental_uris":{"android":"levelo://app?vid=4953908e-c12d-41ee-881a-cce039598782","ios":"levelo://app?vid=4953908e-c12d-41ee-881a-cce039598782"},"vehicle_type_id":"4","last_reported":1741158595,"current_range_meters":5600,"station_id":"ce4bhph2rcd13ifvqheg","pricing_plan_id":"cebpf4jnsgd1na2vs0mg"},{"bike_id":"89721c29-6bac-4f2b-8a58-9e1a16f55fe3","system_id":"levelo_inurba_marseille","lat":43.246984,"lon":5.376861,"is_reserved":false,"is_disabled":false,"rental_uris":{"android":"levelo://app?vid=89721c29-6bac-4f2b-8a58-9e1a16f55fe3","ios":"levelo://app?vid=89721c29-6bac-4f2b-8a58-9e1a16f55fe3"},"vehicle_type_id":"4","last_reported":1741158595,"current_range_meters":6000,"station_id":"","pricing_plan_id":"cebpf4jnsgd1na2vs0mg"},{"bike_id":"a7e4c0d5-f8e4-4c3b-acad-9c7d5ce39506","system_id":"levelo_inurba_marseille","lat":43.317072,"lon":5.437018,"is_reserved":false,"is_disabled":false,"rental_uris":{"android":"levelo://app?vid=a7e4c0d5-f8e4-4c3b-acad-9c7d5ce39506","ios":"levelo://app?vid=a7e4c0d5-f8e4-4c3b-acad-9c7d5ce39506"},"vehicle_type_id":"4","last_reported":1741158595,"current_range_meters":6000,"station_id":"ce4bhp92rcd13ifvqhcg","pricing_plan_id":"cebpf4jnsgd1na2vs0mg"},{"bike_id":"7c56e753-c384-40ec-96b6-b270324269c6","system_id":"levelo_inurba_marseille","lat":43.26262,"lon":5.40453,"is_reserved":false,"is_disabled":false,"rental_uris":{"android":"levelo://app?vid=7c56e753-c384-40ec-96b6-b270324269c6","ios":"levelo://app?vid=7c56e753-c384-40ec-96b6-b270324269c6"},"vehicle_type_id":"4","last_reported":1741158595,"current_range_meters":6000,"station_id":"ce4bhmh2rcd13ifvqgmg","pricing_plan_id":"cebpf4jnsgd1na2vs0mg"},{"bike_id":"2d3b3c09-42a9-4d38-ad3f-30c0062d2ff1","system_id":"levelo_inurba_marseille","lat":43.25823,"lon":5.39452,"is_reserved":false,"is_disabled":false,"rental_uris":{"android":"levelo://app?vid=2d3b3c09-42a9-4d38-ad3f-30c0062d2ff1","ios":"levelo://app?vid=2d3b3c09-42a9-4d38-ad3f-30c0062d2ff1"},"vehicle_type_id":"4","last_reported":1741158595,"current_range_meters":6000,"station_id":"ce4bhip2rcd13ifvqft0","pricing_plan_id":"cebpf4jnsgd1na2vs0mg"},{"bike_id":"64953142-7637-42b4-b0d1-c449e63f1db7","system_id":"levelo_inurba_marseille","lat":43.296361,"lon":5.360157,"is_reserved":false,"is_disabled":false,"rental_uris":{"android":"levelo://app?vid=64953142-7637-42b4-b0d1-c449e63f1db7","ios":"levelo://app?vid=64953142-7637-42b4-b0d1-c449e63f1db7"},"vehicle_type_id":"4","last_reported":1741158595,"current_range_meters":6000,"station_id":"","pricing_plan_id":"cebpf4jnsgd1na2vs0mg"},{"bike_id":"633dba64-87a5-42a4-a07d-4562a706a629","system_id":"levelo_inurba_marseille","lat":43.2834,"lon":5.38116,"is_reserved":false,"is_disabled":false,"rental_uris":{"android":"levelo://app?vid=633dba64-87a5-42a4-a07d-4562a706a629","ios":"levelo://app?vid=633dba64-87a5-42a4-a07d-4562a706a629"},"vehicle_type_id":"4","last_reported":1741158595,"current_range_meters":6000,"station_id":"ce4bh412rcd13ifvqdr0","pricing_plan_id":"cebpf4jnsgd1na2vs0mg"},{"bike_id":"60e2b920-a98b-4523-bdd7-996197f57c57","system_id":"levelo_inurba_marseille","lat":43.30211,"lon":5.39466,"is_reserved":false,"is_disabled":false,"rental_uris":{"android":"levelo://app?vid=60e2b920-a98b-4523-bdd7-996197f57c57","ios":"levelo://app?vid=60e2b920-a98b-4523-bdd7-996197f57c57"},"vehicle_type_id":"4","last_reported":1741158595,"current_range_meters":6400,"station_id":"ce4bh0p2rcd13ifvqd70","pricing_plan_id":"cebpf4jnsgd1na2vs0mg"},{"bike_id":"f696188d-3b32-43da-b39d-a04eff2ac177","system_id":"levelo_inurba_marseille","lat":43.23151,"lon":5.4372,"is_reserved":false,"is_disabled":false,"rental_uris":{"android":"levelo://app?vid=f696188d-3b32-43da-b39d-a04eff2ac177","ios":"levelo://app?vid=f696188d-3b32-43da-b39d-a04eff2ac177"},"vehicle_type_id":"4","last_reported":1741158595,"current_range_meters":6400,"station_id":"ce4bhmp2rcd13ifvqgog","pricing_plan_id":"cebpf4jnsgd1na2vs0mg"},{"bike_id":"4900e558-d896-4e88-a482-c92483d35a16","system_id":"levelo_inurba_marseille","lat":43.28138,"lon":5.44577,"is_reserved":false,"is_disabled":false,"rental_uris":{"android":"levelo://app?vid=4900e558-d896-4e88-a482-c92483d35a16","ios":"levelo://app?vid=4900e558-d896-4e88-a482-c92483d35a16"},"vehicle_type_id":"4","last_reported":1741158595,"current_range_meters":6400,"station_id":"","pricing_plan_id":"cebpf4jnsgd1na2vs0mg"},{"bike_id":"ef586f23-ee4b-465a-84b4-b76ec36bdcf2","system_id":"levelo_inurba_marseille","lat":43.28414,"lon":5.37526,"is_reserved":false,"is_disabled":false,"rental_uris":{"android":"levelo://app?vid=ef586f23-ee4b-465a-84b4-b76ec36bdcf2","ios":"levelo://app?vid=ef586f23-ee4b-465a-84b4-b76ec36bdcf2"},"vehicle_type_id":"4","last_reported":1741158595,"current_range_meters":6400,"station_id":"ce4bh412rcd13ifvqds0","pricing_plan_id":"cebpf4jnsgd1na2vs0mg"},{"bike_id":"4d031821-b90c-420c-be9f-756d9af38822","system_id":"levelo_inurba_marseille","lat":43.27708,"lon":5.40749,"is_reserved":false,"is_disabled":false,"rental_uris":{"android":"levelo://app?vid=4d031821-b90c-420c-be9f-756d9af38822","ios":"levelo://app?vid=4d031821-b90c-420c-be9f-756d9af38822"},"vehicle_type_id":"4","last_reported":1741158595,"current_range_meters":6800,"station_id":"","pricing_plan_id":"cebpf4jnsgd1na2vs0mg"},{"bike_id":"780e520d-feaf-412f-bb3f-708088ce3e6b","system_id":"levelo_inurba_marseille","lat":43.29088,"lon":5.38151,"is_reserved":false,"is_disabled":false,"rental_uris":{"android":"levelo://app?vid=780e520d-feaf-412f-bb3f-708088ce3e6b","ios":"levelo://app?vid=780e520d-feaf-412f-bb3f-708088ce3e6b"},"vehicle_type_id":"4","last_reported":1741158595,"current_range_meters":6800,"station_id":"ce4bh512rcd13ifvqe2g","pricing_plan_id":"cebpf4jnsgd1na2vs0mg"},{"bike_id":"8a41fa9b-5e16-4238-9659-a23b1216d147","system_id":"levelo_inurba_marseille","lat":43.266936,"lon":5.382794,"is_reserved":false,"is_disabled":true,"rental_uris":{"android":"levelo://app?vid=8a41fa9b-5e16-4238-9659-a23b1216d147","ios":"levelo://app?vid=8a41fa9b-5e16-4238-9659-a23b1216d147"},"vehicle_type_id":"4","last_reported":1741158595,"current_range_meters":6800,"station_id":"ce4bhg92rcd13ifvqf90","pricing_plan_id":"cebpf4jnsgd1na2vs0mg"},{"bike_id":"f359d7d7-3f3b-4614-9c6b-1e5a2e2b1763","system_id":"levelo_inurba_marseille","lat":43.26577,"lon":5.38994,"is_reserved":false,"is_disabled":false,"rental_uris":{"android":"levelo://app?vid=f359d7d7-3f3b-4614-9c6b-1e5a2e2b1763","ios":"levelo://app?vid=f359d7d7-3f3b-4614-9c6b-1e5a2e2b1763"},"vehicle_type_id":"4","last_reported":1741158595,"current_range_meters":6800,"station_id":"ce4bhe12rcd13ifvqf30","pricing_plan_id":"cebpf4jnsgd1na2vs0mg"},{"bike_id":"b8c19084-4418-4ab3-ba7c-139e0f9ac3cc","system_id":"levelo_inurba_marseille","lat":43.27493,"lon":5.42467,"is_reserved":false,"is_disabled":false,"rental_uris":{"android":"levelo://app?vid=b8c19084-4418-4ab3-ba7c-139e0f9ac3cc","ios":"levelo://app?vid=b8c19084-4418-4ab3-ba7c-139e0f9ac3cc"},"vehicle_type_id":"4","last_reported":1741158595,"current_range_meters":6800,"station_id":"ce4bhn92rcd13ifvqgrg","pricing_plan_id":"cebpf4jnsgd1na2vs0mg"},{"bike_id":"95e67be9-ed01-463f-96c1-b9e4bee02a49","system_id":"levelo_inurba_marseille","lat":43.29015,"lon":5.38136,"is_reserved":false,"is_disabled":false,"rental_uris":{"android":"levelo://app?vid=95e67be9-ed01-463f-96c1-b9e4bee02a49","ios":"levelo://app?vid=95e67be9-ed01-463f-96c1-b9e4bee02a49"},"vehicle_type_id":"4","last_reported":1741158595,"current_range_meters":6800,"station_id":"ce4bh4p2rcd13ifvqe1g","pricing_plan_id":"cebpf4jnsgd1na2vs0mg"},{"bike_id":"098e1208-3091-42bd-9bb4-612148ea4ada","system_id":"levelo_inurba_marseille","lat":43.233563,"lon":5.360106,"is_reserved":false,"is_disabled":false,"rental_uris":{"android":"levelo://app?vid=098e1208-3091-42bd-9bb4-612148ea4ada","ios":"levelo://app?vid=098e1208-3091-42bd-9bb4-612148ea4ada"},"vehicle_type_id":"4","last_reported":1741158595,"current_range_meters":6800,"station_id":"","pricing_plan_id":"cebpf4jnsgd1na2vs0mg"},{"bike_id":"b0479589-1011-43d8-ba32-9007c5d086cd","system_id":"levelo_inurba_marseille","lat":43.27504,"lon":5.42458,"is_reserved":false,"is_disabled":false,"rental_uris":{"android":"levelo://app?vid=b0479589-1011-43d8-ba32-9007c5d086cd","ios":"levelo://app?vid=b0479589-1011-43d8-ba32-9007c5d086cd"},"vehicle_type_id":"4","last_reported":1741158595,"current_range_meters":6800,"station_id":"ce4bhn92rcd13ifvqgrg","pricing_plan_id":"cebpf4jnsgd1na2vs0mg"},{"bike_id":"a1f61a9a-e36a-4047-9ecb-85f504c8e1ed","system_id":"levelo_inurba_marseille","lat":43.29046,"lon":5.3997,"is_reserved":false,"is_disabled":false,"rental_uris":{"android":"levelo://app?vid=a1f61a9a-e36a-4047-9ecb-85f504c8e1ed","ios":"levelo://app?vid=a1f61a9a-e36a-4047-9ecb-85f504c8e1ed"},"vehicle_type_id":"4","last_reported":1741158595,"current_range_meters":6800,"station_id":"ce4bh392rcd13ifvqdm0","pricing_plan_id":"cebpf4jnsgd1na2vs0mg"},{"bike_id":"0bb46f14-b2b5-499f-8485-2bbd9b87e01f","system_id":"levelo_inurba_marseille","lat":43.27053,"lon":5.40267,"is_reserved":false,"is_disabled":false,"rental_uris":{"android":"levelo://app?vid=0bb46f14-b2b5-499f-8485-2bbd9b87e01f","ios":"levelo://app?vid=0bb46f14-b2b5-499f-8485-2bbd9b87e01f"},"vehicle_type_id":"4","last_reported":1741158595,"current_range_meters":7200,"station_id":"ce4bhk92rcd13ifvqgc0","pricing_plan_id":"cebpf4jnsgd1na2vs0mg"},{"bike_id":"6eecd9a2-7f58-4d22-b3d0-d5ddac1cc0a6","system_id":"levelo_inurba_marseille","lat":43.27477,"lon":5.424557,"is_reserved":false,"is_disabled":false,"rental_uris":{"android":"levelo://app?vid=6eecd9a2-7f58-4d22-b3d0-d5ddac1cc0a6","ios":"levelo://app?vid=6eecd9a2-7f58-4d22-b3d0-d5ddac1cc0a6"},"vehicle_type_id":"4","last_reported":1741158595,"current_range_meters":7200,"station_id":"ce4bhn92rcd13ifvqgrg","pricing_plan_id":"cebpf4jnsgd1na2vs0mg"},{"bike_id":"48d28e38-4ec2-4e1e-b64a-7d4b817a6fea","system_id":"levelo_inurba_marseille","lat":43.231778,"lon":5.399817,"is_reserved":false,"is_disabled":false,"rental_uris":{"android":"levelo://app?vid=48d28e38-4ec2-4e1e-b64a-7d4b817a6fea","ios":"levelo://app?vid=48d28e38-4ec2-4e1e-b64a-7d4b817a6fea"},"vehicle_type_id":"4","last_reported":1741158595,"current_range_meters":7200,"station_id":"ce4bhn12rcd13ifvqgqg","pricing_plan_id":"cebpf4jnsgd1na2vs0mg"},{"bike_id":"1a491b64-2a02-4228-939d-cb05b3fd909c","system_id":"levelo_inurba_marseille","lat":43.27484,"lon":5.42464,"is_reserved":false,"is_disabled":false,"rental_uris":{"android":"levelo://app?vid=1a491b64-2a02-4228-939d-cb05b3fd909c","ios":"levelo://app?vid=1a491b64-2a02-4228-939d-cb05b3fd909c"},"vehicle_type_id":"4","last_reported":1741158595,"current_range_meters":7200,"station_id":"ce4bhn92rcd13ifvqgrg","pricing_plan_id":"cebpf4jnsgd1na2vs0mg"},{"bike_id":"7cf386a1-f879-4a1b-a7c4-9eebe0c89ca8","system_id":"levelo_inurba_marseille","lat":43.28095,"lon":5.39663,"is_reserved":false,"is_disabled":false,"rental_uris":{"android":"levelo://app?vid=7cf386a1-f879-4a1b-a7c4-9eebe0c89ca8","ios":"levelo://app?vid=7cf386a1-f879-4a1b-a7c4-9eebe0c89ca8"},"vehicle_type_id":"4","last_reported":1741158595,"current_range_meters":7200,"station_id":"ce4bho12rcd13ifvqh2g","pricing_plan_id":"cebpf4jnsgd1na2vs0mg"},{"bike_id":"67f170b2-c527-4f82-a5e7-48060deabad3","system_id":"levelo_inurba_marseille","lat":43.2803,"lon":5.36942,"is_reserved":false,"is_disabled":false,"rental_uris":{"android":"levelo://app?vid=67f170b2-c527-4f82-a5e7-48060deabad3","ios":"levelo://app?vid=67f170b2-c527-4f82-a5e7-48060deabad3"},"vehicle_type_id":"4","last_reported":1741158595,"current_range_meters":7200,"station_id":"ce4bha12rcd13ifvqef0","pricing_plan_id":"cebpf4jnsgd1na2vs0mg"},{"bike_id":"13cc4aae-49e8-44f7-bfab-719bb6820256","system_id":"levelo_inurba_marseille","lat":43.27816,"lon":5.407183,"is_reserved":false,"is_disabled":true,"rental_uris":{"android":"levelo://app?vid=13cc4aae-49e8-44f7-bfab-719bb6820256","ios":"levelo://app?vid=13cc4aae-49e8-44f7-bfab-719bb6820256"},"vehicle_type_id":"4","last_reported":1741158595,"current_range_meters":7200,"station_id":"ce4bhnh2rcd13ifvqgtg","pricing_plan_id":"cebpf4jnsgd1na2vs0mg"},{"bike_id":"fa109f68-1fd3-4d86-8b58-8ac9b08f7ab0","system_id":"levelo_inurba_marseille","lat":43.305367,"lon":5.384241,"is_reserved":false,"is_disabled":false,"rental_uris":{"android":"levelo://app?vid=fa109f68-1fd3-4d86-8b58-8ac9b08f7ab0","ios":"levelo://app?vid=fa109f68-1fd3-4d86-8b58-8ac9b08f7ab0"},"vehicle_type_id":"4","last_reported":1741158595,"current_range_meters":7200,"station_id":"ce4bh192rcd13ifvqdc0","pricing_plan_id":"cebpf4jnsgd1na2vs0mg"},{"bike_id":"32ec58ac-1836-4fb6-ae91-f231fbc95936","system_id":"levelo_inurba_marseille","lat":43.32091,"lon":5.40961,"is_reserved":false,"is_disabled":false,"rental_uris":{"android":"levelo://app?vid=32ec58ac-1836-4fb6-ae91-f231fbc95936","ios":"levelo://app?vid=32ec58ac-1836-4fb6-ae91-f231fbc95936"},"vehicle_type_id":"4","last_reported":1741158595,"current_range_meters":7200,"station_id":"","pricing_plan_id":"cebpf4jnsgd1na2vs0mg"},{"bike_id":"9714328d-1dec-474b-af9b-191f184b579f","system_id":"levelo_inurba_marseille","lat":43.28476,"lon":5.38424,"is_reserved":false,"is_disabled":false,"rental_uris":{"android":"levelo://app?vid=9714328d-1dec-474b-af9b-191f184b579f","ios":"levelo://app?vid=9714328d-1dec-474b-af9b-191f184b579f"},"vehicle_type_id":"4","last_reported":1741158595,"current_range_meters":7200,"station_id":"ce4bh512rcd13ifvqe3g","pricing_plan_id":"cebpf4jnsgd1na2vs0mg"},{"bike_id":"40592169-4d72-4b69-a512-be614d00ab33","system_id":"levelo_inurba_marseille","lat":43.28071,"lon":5.39653,"is_reserved":false,"is_disabled":false,"rental_uris":{"android":"levelo://app?vid=40592169-4d72-4b69-a512-be614d00ab33","ios":"levelo://app?vid=40592169-4d72-4b69-a512-be614d00ab33"},"vehicle_type_id":"4","last_reported":1741158595,"current_range_meters":7200,"station_id":"ce4bho12rcd13ifvqh2g","pricing_plan_id":"cebpf4jnsgd1na2vs0mg"},{"bike_id":"da012e55-56aa-4836-97eb-401c7578f569","system_id":"levelo_inurba_marseille","lat":43.25924,"lon":5.40907,"is_reserved":false,"is_disabled":false,"rental_uris":{"android":"levelo://app?vid=da012e55-56aa-4836-97eb-401c7578f569","ios":"levelo://app?vid=da012e55-56aa-4836-97eb-401c7578f569"},"vehicle_type_id":"4","last_reported":1741158595,"current_range_meters":7200,"station_id":"ce4bhm92rcd13ifvqglg","pricing_plan_id":"cebpf4jnsgd1na2vs0mg"},{"bike_id":"ee1d2ad1-36ca-49dd-a328-f2a9a9994ecb","system_id":"levelo_inurba_marseille","lat":43.31097,"lon":5.38072,"is_reserved":false,"is_disabled":false,"rental_uris":{"android":"levelo://app?vid=ee1d2ad1-36ca-49dd-a328-f2a9a9994ecb","ios":"levelo://app?vid=ee1d2ad1-36ca-49dd-a328-f2a9a9994ecb"},"vehicle_type_id":"4","last_reported":1741158595,"current_range_meters":8000,"station_id":"","pricing_plan_id":"cebpf4jnsgd1na2vs0mg"},{"bike_id":"4bc22bc8-57d9-4e3e-bbf9-5bb2e57875a0","system_id":"levelo_inurba_marseille","lat":43.27807,"lon":5.40726,"is_reserved":false,"is_disabled":false,"rental_uris":{"android":"levelo://app?vid=4bc22bc8-57d9-4e3e-bbf9-5bb2e57875a0","ios":"levelo://app?vid=4bc22bc8-57d9-4e3e-bbf9-5bb2e57875a0"},"vehicle_type_id":"4","last_reported":1741158595,"current_range_meters":8000,"station_id":"ce4bhnh2rcd13ifvqgtg","pricing_plan_id":"cebpf4jnsgd1na2vs0mg"},{"bike_id":"b8dacfd7-6aa1-4cb2-ac25-dfdf82e53218","system_id":"levelo_inurba_marseille","lat":43.32365,"lon":5.38878,"is_reserved":false,"is_disabled":false,"rental_uris":{"android":"levelo://app?vid=b8dacfd7-6aa1-4cb2-ac25-dfdf82e53218","ios":"levelo://app?vid=b8dacfd7-6aa1-4cb2-ac25-dfdf82e53218"},"vehicle_type_id":"4","last_reported":1741158595,"current_range_meters":8000,"station_id":"ce4bhqp2rcd13ifvqhog","pricing_plan_id":"cebpf4jnsgd1na2vs0mg"},{"bike_id":"9b540801-2fb4-4668-80c9-cb399c571c1a","system_id":"levelo_inurba_marseille","lat":43.26565,"lon":5.39018,"is_reserved":false,"is_disabled":false,"rental_uris":{"android":"levelo://app?vid=9b540801-2fb4-4668-80c9-cb399c571c1a","ios":"levelo://app?vid=9b540801-2fb4-4668-80c9-cb399c571c1a"},"vehicle_type_id":"4","last_reported":1741158595,"current_range_meters":8000,"station_id":"ce4bhe12rcd13ifvqf30","pricing_plan_id":"cebpf4jnsgd1na2vs0mg"},{"bike_id":"7e757512-bae9-4ad0-aec5-105ded7bdfd8","system_id":"levelo_inurba_marseille","lat":43.30463,"lon":5.37915,"is_reserved":false,"is_disabled":false,"rental_uris":{"android":"levelo://app?vid=7e757512-bae9-4ad0-aec5-105ded7bdfd8","ios":"levelo://app?vid=7e757512-bae9-4ad0-aec5-105ded7bdfd8"},"vehicle_type_id":"4","last_reported":1741158595,"current_range_meters":8000,"station_id":"ce4bgup2rcd13ifvqcn0","pricing_plan_id":"cebpf4jnsgd1na2vs0mg"},{"bike_id":"119408e4-7624-4320-bf5e-e4f029d82dc4","system_id":"levelo_inurba_marseille","lat":43.28732,"lon":5.40023,"is_reserved":false,"is_disabled":true,"rental_uris":{"android":"levelo://app?vid=119408e4-7624-4320-bf5e-e4f029d82dc4","ios":"levelo://app?vid=119408e4-7624-4320-bf5e-e4f029d82dc4"},"vehicle_type_id":"4","last_reported":1741158595,"current_range_meters":8000,"station_id":"ce4bho92rcd13ifvqh3g","pricing_plan_id":"cebpf4jnsgd1na2vs0mg"},{"bike_id":"673a0145-2d59-42c5-a9c3-2acb956f3a40","system_id":"levelo_inurba_marseille","lat":43.248119,"lon":5.374662,"is_reserved":false,"is_disabled":false,"rental_uris":{"android":"levelo://app?vid=673a0145-2d59-42c5-a9c3-2acb956f3a40","ios":"levelo://app?vid=673a0145-2d59-42c5-a9c3-2acb956f3a40"},"vehicle_type_id":"4","last_reported":1741158595,"current_range_meters":8000,"station_id":"ce4bhgh2rcd13ifvqfb0","pricing_plan_id":"cebpf4jnsgd1na2vs0mg"},{"bike_id":"d4856af7-9b74-4c20-9ef9-3e21a73f2567","system_id":"levelo_inurba_marseille","lat":43.26216,"lon":5.40478,"is_reserved":false,"is_disabled":false,"rental_uris":{"android":"levelo://app?vid=d4856af7-9b74-4c20-9ef9-3e21a73f2567","ios":"levelo://app?vid=d4856af7-9b74-4c20-9ef9-3e21a73f2567"},"vehicle_type_id":"4","last_reported":1741158595,"current_range_meters":8000,"station_id":"ce4bhmh2rcd13ifvqgmg","pricing_plan_id":"cebpf4jnsgd1na2vs0mg"},{"bike_id":"ab731e16-e279-4ae3-957f-2d69bce547d7","system_id":"levelo_inurba_marseille","lat":43.31318,"lon":5.3972,"is_reserved":false,"is_disabled":false,"rental_uris":{"android":"levelo://app?vid=ab731e16-e279-4ae3-957f-2d69bce547d7","ios":"levelo://app?vid=ab731e16-e279-4ae3-957f-2d69bce547d7"},"vehicle_type_id":"4","last_reported":1741158595,"current_range_meters":8400,"station_id":"ce4bgvp2rcd13ifvqcu0","pricing_plan_id":"cebpf4jnsgd1na2vs0mg"},{"bike_id":"88a49e92-76f3-4e81-8502-3812c06f00bb","system_id":"levelo_inurba_marseille","lat":43.28759,"lon":5.38993,"is_reserved":false,"is_disabled":false,"rental_uris":{"android":"levelo://app?vid=88a49e92-76f3-4e81-8502-3812c06f00bb","ios":"levelo://app?vid=88a49e92-76f3-4e81-8502-3812c06f00bb"},"vehicle_type_id":"4","last_reported":1741158595,"current_range_meters":8400,"station_id":"","pricing_plan_id":"cebpf4jnsgd1na2vs0mg"},{"bike_id":"bb688706-69e9-4ba8-9806-7df641f3b926","system_id":"levelo_inurba_marseille","lat":43.29281,"lon":5.40138,"is_reserved":false,"is_disabled":false,"rental_uris":{"android":"levelo://app?vid=bb688706-69e9-4ba8-9806-7df641f3b926","ios":"levelo://app?vid=bb688706-69e9-4ba8-9806-7df641f3b926"},"vehicle_type_id":"4","last_reported":1741158595,"current_range_meters":8400,"station_id":"ce4bh312rcd13ifvqdk0","pricing_plan_id":"cebpf4jnsgd1na2vs0mg"},{"bike_id":"e6a4f953-5895-4fa8-ac31-a0a59838afae","system_id":"levelo_inurba_marseille","lat":43.25931,"lon":5.40866,"is_reserved":false,"is_disabled":false,"rental_uris":{"android":"levelo://app?vid=e6a4f953-5895-4fa8-ac31-a0a59838afae","ios":"levelo://app?vid=e6a4f953-5895-4fa8-ac31-a0a59838afae"},"vehicle_type_id":"4","last_reported":1741158595,"current_range_meters":8400,"station_id":"ce4bhm92rcd13ifvqglg","pricing_plan_id":"cebpf4jnsgd1na2vs0mg"},{"bike_id":"a2e9312b-d692-42a0-9823-fe0aab56075b","system_id":"levelo_inurba_marseille","lat":43.23155,"lon":5.437,"is_reserved":false,"is_disabled":true,"rental_uris":{"android":"levelo://app?vid=a2e9312b-d692-42a0-9823-fe0aab56075b","ios":"levelo://app?vid=a2e9312b-d692-42a0-9823-fe0aab56075b"},"vehicle_type_id":"4","last_reported":1741158595,"current_range_meters":8400,"station_id":"ce4bhmp2rcd13ifvqgog","pricing_plan_id":"cebpf4jnsgd1na2vs0mg"},{"bike_id":"f89caf14-7c2c-447f-b5e6-d86f458c364e","system_id":"levelo_inurba_marseille","lat":43.24089,"lon":5.37756,"is_reserved":false,"is_disabled":false,"rental_uris":{"android":"levelo://app?vid=f89caf14-7c2c-447f-b5e6-d86f458c364e","ios":"levelo://app?vid=f89caf14-7c2c-447f-b5e6-d86f458c364e"},"vehicle_type_id":"4","last_reported":1741158595,"current_range_meters":8400,"station_id":"ce4bhnp2rcd13ifvqgvg","pricing_plan_id":"cebpf4jnsgd1na2vs0mg"},{"bike_id":"bf284b86-4ac3-4366-b668-6c33ec16b817","system_id":"levelo_inurba_marseille","lat":43.3175,"lon":5.3902,"is_reserved":false,"is_disabled":false,"rental_uris":{"android":"levelo://app?vid=bf284b86-4ac3-4366-b668-6c33ec16b817","ios":"levelo://app?vid=bf284b86-4ac3-4366-b668-6c33ec16b817"},"vehicle_type_id":"4","last_reported":1741158595,"current_range_meters":8400,"station_id":"ce4bhqp2rcd13ifvqhng","pricing_plan_id":"cebpf4jnsgd1na2vs0mg"},{"bike_id":"beefb766-3b75-47e8-9459-e13ab9d8775c","system_id":"levelo_inurba_marseille","lat":43.29038,"lon":5.39974,"is_reserved":false,"is_disabled":false,"rental_uris":{"android":"levelo://app?vid=beefb766-3b75-47e8-9459-e13ab9d8775c","ios":"levelo://app?vid=beefb766-3b75-47e8-9459-e13ab9d8775c"},"vehicle_type_id":"4","last_reported":1741158595,"current_range_meters":8400,"station_id":"ce4bh392rcd13ifvqdm0","pricing_plan_id":"cebpf4jnsgd1na2vs0mg"},{"bike_id":"da26748f-c9b8-406a-97da-4e2614f8590a","system_id":"levelo_inurba_marseille","lat":43.28257,"lon":5.35075,"is_reserved":false,"is_disabled":false,"rental_uris":{"android":"levelo://app?vid=da26748f-c9b8-406a-97da-4e2614f8590a","ios":"levelo://app?vid=da26748f-c9b8-406a-97da-4e2614f8590a"},"vehicle_type_id":"4","last_reported":1741158595,"current_range_meters":8400,"station_id":"ce4bhbp2rcd13ifvqerg","pricing_plan_id":"cebpf4jnsgd1na2vs0mg"},{"bike_id":"3dd9df62-4d8c-4def-90b5-e3dbdb26151d","system_id":"levelo_inurba_marseille","lat":43.3053,"lon":5.36712,"is_reserved":false,"is_disabled":false,"rental_uris":{"android":"levelo://app?vid=3dd9df62-4d8c-4def-90b5-e3dbdb26151d","ios":"levelo://app?vid=3dd9df62-4d8c-4def-90b5-e3dbdb26151d"},"vehicle_type_id":"4","last_reported":1741158595,"current_range_meters":8400,"station_id":"ce4bgrp2rcd13ifvqc9g","pricing_plan_id":"cebpf4jnsgd1na2vs0mg"},{"bike_id":"389b31c3-8bd1-49ce-bd1b-c2ee146758d7","system_id":"levelo_inurba_marseille","lat":43.2893,"lon":5.36651,"is_reserved":false,"is_disabled":false,"rental_uris":{"android":"levelo://app?vid=389b31c3-8bd1-49ce-bd1b-c2ee146758d7","ios":"levelo://app?vid=389b31c3-8bd1-49ce-bd1b-c2ee146758d7"},"vehicle_type_id":"4","last_reported":1741158595,"current_range_meters":8400,"station_id":"ce4bhap2rcd13ifvqek0","pricing_plan_id":"cebpf4jnsgd1na2vs0mg"},{"bike_id":"21b19842-9ad9-4db0-bc46-3d2827c0069e","system_id":"levelo_inurba_marseille","lat":43.23185,"lon":5.3559,"is_reserved":false,"is_disabled":false,"rental_uris":{"android":"levelo://app?vid=21b19842-9ad9-4db0-bc46-3d2827c0069e","ios":"levelo://app?vid=21b19842-9ad9-4db0-bc46-3d2827c0069e"},"vehicle_type_id":"4","last_reported":1741158595,"current_range_meters":8400,"station_id":"ce4bhu92rcd13ifvqi70","pricing_plan_id":"cebpf4jnsgd1na2vs0mg"},{"bike_id":"44a7153b-0fd7-4509-836b-676bbf84fb06","system_id":"levelo_inurba_marseille","lat":43.231844,"lon":5.355545,"is_reserved":false,"is_disabled":false,"rental_uris":{"android":"levelo://app?vid=44a7153b-0fd7-4509-836b-676bbf84fb06","ios":"levelo://app?vid=44a7153b-0fd7-4509-836b-676bbf84fb06"},"vehicle_type_id":"4","last_reported":1741158595,"current_range_meters":8400,"station_id":"ce4bhu92rcd13ifvqi70","pricing_plan_id":"cebpf4jnsgd1na2vs0mg"},{"bike_id":"378742b7-983e-469b-a38e-ad703616c184","system_id":"levelo_inurba_marseille","lat":43.284611,"lon":5.358795,"is_reserved":false,"is_disabled":false,"rental_uris":{"android":"levelo://app?vid=378742b7-983e-469b-a38e-ad703616c184","ios":"levelo://app?vid=378742b7-983e-469b-a38e-ad703616c184"},"vehicle_type_id":"4","last_reported":1741158595,"current_range_meters":8400,"station_id":"ce4bhah2rcd13ifvqei0","pricing_plan_id":"cebpf4jnsgd1na2vs0mg"},{"bike_id":"aea7ba3c-e67c-45c0-92e4-8dde7cacd2a2","system_id":"levelo_inurba_marseille","lat":43.30775,"lon":5.37667,"is_reserved":false,"is_disabled":true,"rental_uris":{"android":"levelo://app?vid=aea7ba3c-e67c-45c0-92e4-8dde7cacd2a2","ios":"levelo://app?vid=aea7ba3c-e67c-45c0-92e4-8dde7cacd2a2"},"vehicle_type_id":"4","last_reported":1741158595,"current_range_meters":8800,"station_id":"ce4bgv92rcd13ifvqcq0","pricing_plan_id":"cebpf4jnsgd1na2vs0mg"},{"bike_id":"d0ca81a9-e00f-4db3-8736-356c22988b10","system_id":"levelo_inurba_marseille","lat":43.30797,"lon":5.43541,"is_reserved":false,"is_disabled":false,"rental_uris":{"android":"levelo://app?vid=d0ca81a9-e00f-4db3-8736-356c22988b10","ios":"levelo://app?vid=d0ca81a9-e00f-4db3-8736-356c22988b10"},"vehicle_type_id":"4","last_reported":1741158595,"current_range_meters":8800,"station_id":"ce4bhph2rcd13ifvqheg","pricing_plan_id":"cebpf4jnsgd1na2vs0mg"},{"bike_id":"3e69cd68-ba33-4fee-b9f7-49359b858289","system_id":"levelo_inurba_marseille","lat":43.33786,"lon":5.37433,"is_reserved":false,"is_disabled":false,"rental_uris":{"android":"levelo://app?vid=3e69cd68-ba33-4fee-b9f7-49359b858289","ios":"levelo://app?vid=3e69cd68-ba33-4fee-b9f7-49359b858289"},"vehicle_type_id":"4","last_reported":1741158595,"current_range_meters":8800,"station_id":"","pricing_plan_id":"cebpf4jnsgd1na2vs0mg"},{"bike_id":"f39e669b-fd55-4008-96e5-6f8758f940cb","system_id":"levelo_inurba_marseille","lat":43.27053,"lon":5.40274,"is_reserved":false,"is_disabled":false,"rental_uris":{"android":"levelo://app?vid=f39e669b-fd55-4008-96e5-6f8758f940cb","ios":"levelo://app?vid=f39e669b-fd55-4008-96e5-6f8758f940cb"},"vehicle_type_id":"4","last_reported":1741158595,"current_range_meters":8800,"station_id":"ce4bhk92rcd13ifvqgc0","pricing_plan_id":"cebpf4jnsgd1na2vs0mg"},{"bike_id":"913bb55b-2edb-4434-9d82-fe796f8d08f1","system_id":"levelo_inurba_marseille","lat":43.28629,"lon":5.3509,"is_reserved":false,"is_disabled":false,"rental_uris":{"android":"levelo://app?vid=913bb55b-2edb-4434-9d82-fe796f8d08f1","ios":"levelo://app?vid=913bb55b-2edb-4434-9d82-fe796f8d08f1"},"vehicle_type_id":"4","last_reported":1741158595,"current_range_meters":8800,"station_id":"ce4bhch2rcd13ifvqeug","pricing_plan_id":"cebpf4jnsgd1na2vs0mg"},{"bike_id":"255619fa-dd78-4fdb-8982-2ee0fd77d4b7","system_id":"levelo_inurba_marseille","lat":43.28255,"lon":5.35075,"is_reserved":false,"is_disabled":false,"rental_uris":{"android":"levelo://app?vid=255619fa-dd78-4fdb-8982-2ee0fd77d4b7","ios":"levelo://app?vid=255619fa-dd78-4fdb-8982-2ee0fd77d4b7"},"vehicle_type_id":"4","last_reported":1741158595,"current_range_meters":8800,"station_id":"ce4bhbp2rcd13ifvqerg","pricing_plan_id":"cebpf4jnsgd1na2vs0mg"},{"bike_id":"332abda5-2296-4955-8d29-1593f717e1c9","system_id":"levelo_inurba_marseille","lat":43.27958,"lon":5.41579,"is_reserved":false,"is_disabled":false,"rental_uris":{"android":"levelo://app?vid=332abda5-2296-4955-8d29-1593f717e1c9","ios":"levelo://app?vid=332abda5-2296-4955-8d29-1593f717e1c9"},"vehicle_type_id":"4","last_reported":1741158595,"current_range_meters":9200,"station_id":"","pricing_plan_id":"cebpf4jnsgd1na2vs0mg"},{"bike_id":"582c2a00-2f0a-4448-b241-804b9569d8ed","system_id":"levelo_inurba_marseille","lat":43.275,"lon":5.42452,"is_reserved":false,"is_disabled":false,"rental_uris":{"android":"levelo://app?vid=582c2a00-2f0a-4448-b241-804b9569d8ed","ios":"levelo://app?vid=582c2a00-2f0a-4448-b241-804b9569d8ed"},"vehicle_type_id":"4","last_reported":1741158595,"current_range_meters":9200,"station_id":"ce4bhn92rcd13ifvqgrg","pricing_plan_id":"cebpf4jnsgd1na2vs0mg"},{"bike_id":"c39e2295-e7a5-4c5b-833a-007e71b3658e","system_id":"levelo_inurba_marseille","lat":43.30793,"lon":5.43556,"is_reserved":false,"is_disabled":false,"rental_uris":{"android":"levelo://app?vid=c39e2295-e7a5-4c5b-833a-007e71b3658e","ios":"levelo://app?vid=c39e2295-e7a5-4c5b-833a-007e71b3658e"},"vehicle_type_id":"4","last_reported":1741158595,"current_range_meters":9200,"station_id":"ce4bhph2rcd13ifvqheg","pricing_plan_id":"cebpf4jnsgd1na2vs0mg"},{"bike_id":"0596970d-6eb4-4331-8d1d-96c25a649f4a","system_id":"levelo_inurba_marseille","lat":43.286676,"lon":5.363416,"is_reserved":false,"is_disabled":true,"rental_uris":{"android":"levelo://app?vid=0596970d-6eb4-4331-8d1d-96c25a649f4a","ios":"levelo://app?vid=0596970d-6eb4-4331-8d1d-96c25a649f4a"},"vehicle_type_id":"4","last_reported":1741158595,"current_range_meters":9200,"station_id":"ce4bhah2rcd13ifvqej0","pricing_plan_id":"cebpf4jnsgd1na2vs0mg"},{"bike_id":"fb6dafce-8f44-4dc1-b03f-f793bb833581","system_id":"levelo_inurba_marseille","lat":43.24075,"lon":5.37768,"is_reserved":false,"is_disabled":false,"rental_uris":{"android":"levelo://app?vid=fb6dafce-8f44-4dc1-b03f-f793bb833581","ios":"levelo://app?vid=fb6dafce-8f44-4dc1-b03f-f793bb833581"},"vehicle_type_id":"4","last_reported":1741158595,"current_range_meters":9200,"station_id":"ce4bhnp2rcd13ifvqgvg","pricing_plan_id":"cebpf4jnsgd1na2vs0mg"},{"bike_id":"3eb72fbf-7948-4624-8ffb-a8d97ab7c9e6","system_id":"levelo_inurba_marseille","lat":43.239652,"lon":5.366317,"is_reserved":false,"is_disabled":false,"rental_uris":{"android":"levelo://app?vid=3eb72fbf-7948-4624-8ffb-a8d97ab7c9e6","ios":"levelo://app?vid=3eb72fbf-7948-4624-8ffb-a8d97ab7c9e6"},"vehicle_type_id":"4","last_reported":1741158595,"current_range_meters":9200,"station_id":"ce4bhi12rcd13ifvqfp0","pricing_plan_id":"cebpf4jnsgd1na2vs0mg"},{"bike_id":"53f986b5-b4ac-4e4d-bde6-b88e844ffa37","system_id":"levelo_inurba_marseille","lat":43.24062,"lon":5.37796,"is_reserved":false,"is_disabled":false,"rental_uris":{"android":"levelo://app?vid=53f986b5-b4ac-4e4d-bde6-b88e844ffa37","ios":"levelo://app?vid=53f986b5-b4ac-4e4d-bde6-b88e844ffa37"},"vehicle_type_id":"4","last_reported":1741158595,"current_range_meters":9200,"station_id":"ce4bhnp2rcd13ifvqgvg","pricing_plan_id":"cebpf4jnsgd1na2vs0mg"},{"bike_id":"196eecdc-f26b-4491-8f4d-77fd059fe56f","system_id":"levelo_inurba_marseille","lat":43.32538,"lon":5.41439,"is_reserved":false,"is_disabled":false,"rental_uris":{"android":"levelo://app?vid=196eecdc-f26b-4491-8f4d-77fd059fe56f","ios":"levelo://app?vid=196eecdc-f26b-4491-8f4d-77fd059fe56f"},"vehicle_type_id":"4","last_reported":1741158595,"current_range_meters":9200,"station_id":"ce4bhq12rcd13ifvqhhg","pricing_plan_id":"cebpf4jnsgd1na2vs0mg"},{"bike_id":"0122c1c3-b417-4093-9107-12ae15086493","system_id":"levelo_inurba_marseille","lat":43.31325,"lon":5.39731,"is_reserved":false,"is_disabled":false,"rental_uris":{"android":"levelo://app?vid=0122c1c3-b417-4093-9107-12ae15086493","ios":"levelo://app?vid=0122c1c3-b417-4093-9107-12ae15086493"},"vehicle_type_id":"4","last_reported":1741158595,"current_range_meters":9600,"station_id":"ce4bgvp2rcd13ifvqcu0","pricing_plan_id":"cebpf4jnsgd1na2vs0mg"},{"bike_id":"b649405b-b2a2-44f9-ae3e-40b0053e081d","system_id":"levelo_inurba_marseille","lat":43.31222,"lon":5.36866,"is_reserved":false,"is_disabled":false,"rental_uris":{"android":"levelo://app?vid=b649405b-b2a2-44f9-ae3e-40b0053e081d","ios":"levelo://app?vid=b649405b-b2a2-44f9-ae3e-40b0053e081d"},"vehicle_type_id":"4","last_reported":1741158595,"current_range_meters":9600,"station_id":"ce4bgl92rcd13ifvqbq0","pricing_plan_id":"cebpf4jnsgd1na2vs0mg"},{"bike_id":"c743212a-653d-4524-b33a-31000cc2ce7a","system_id":"levelo_inurba_marseille","lat":43.30936,"lon":5.39025,"is_reserved":false,"is_disabled":false,"rental_uris":{"android":"levelo://app?vid=c743212a-653d-4524-b33a-31000cc2ce7a","ios":"levelo://app?vid=c743212a-653d-4524-b33a-31000cc2ce7a"},"vehicle_type_id":"4","last_reported":1741158595,"current_range_meters":9600,"station_id":"ce4bgup2rcd13ifvqco0","pricing_plan_id":"cebpf4jnsgd1na2vs0mg"},{"bike_id":"ed4c1c10-3fc3-47c0-be84-e8c73611bf7f","system_id":"levelo_inurba_marseille","lat":43.27039,"lon":5.40296,"is_reserved":false,"is_disabled":false,"rental_uris":{"android":"levelo://app?vid=ed4c1c10-3fc3-47c0-be84-e8c73611bf7f","ios":"levelo://app?vid=ed4c1c10-3fc3-47c0-be84-e8c73611bf7f"},"vehicle_type_id":"4","last_reported":1741158595,"current_range_meters":9600,"station_id":"ce4bhk92rcd13ifvqgc0","pricing_plan_id":"cebpf4jnsgd1na2vs0mg"},{"bike_id":"51f6f578-8898-487a-9da7-ff3d6d379d1b","system_id":"levelo_inurba_marseille","lat":43.32108,"lon":5.367902,"is_reserved":false,"is_disabled":false,"rental_uris":{"android":"levelo://app?vid=51f6f578-8898-487a-9da7-ff3d6d379d1b","ios":"levelo://app?vid=51f6f578-8898-487a-9da7-ff3d6d379d1b"},"vehicle_type_id":"4","last_reported":1741158595,"current_range_meters":9600,"station_id":"ce4bhrh2rcd13ifvqhug","pricing_plan_id":"cebpf4jnsgd1na2vs0mg"},{"bike_id":"c69e1cc5-0899-4738-ab9b-d12f1eee9335","system_id":"levelo_inurba_marseille","lat":43.26569,"lon":5.39014,"is_reserved":false,"is_disabled":false,"rental_uris":{"android":"levelo://app?vid=c69e1cc5-0899-4738-ab9b-d12f1eee9335","ios":"levelo://app?vid=c69e1cc5-0899-4738-ab9b-d12f1eee9335"},"vehicle_type_id":"4","last_reported":1741158595,"current_range_meters":9600,"station_id":"ce4bhe12rcd13ifvqf30","pricing_plan_id":"cebpf4jnsgd1na2vs0mg"},{"bike_id":"4c0e314a-87e2-48f0-a7b0-ec6605046de8","system_id":"levelo_inurba_marseille","lat":43.32108,"lon":5.36766,"is_reserved":false,"is_disabled":false,"rental_uris":{"android":"levelo://app?vid=4c0e314a-87e2-48f0-a7b0-ec6605046de8","ios":"levelo://app?vid=4c0e314a-87e2-48f0-a7b0-ec6605046de8"},"vehicle_type_id":"4","last_reported":1741158595,"current_range_meters":9600,"station_id":"ce4bhrh2rcd13ifvqhug","pricing_plan_id":"cebpf4jnsgd1na2vs0mg"},{"bike_id":"ec1930f4-7944-4e1a-8967-bad6e440e5c9","system_id":"levelo_inurba_marseille","lat":43.24659,"lon":5.38156,"is_reserved":false,"is_disabled":false,"rental_uris":{"android":"levelo://app?vid=ec1930f4-7944-4e1a-8967-bad6e440e5c9","ios":"levelo://app?vid=ec1930f4-7944-4e1a-8967-bad6e440e5c9"},"vehicle_type_id":"4","last_reported":1741158595,"current_range_meters":9600,"station_id":"ce4bhih2rcd13ifvqfr0","pricing_plan_id":"cebpf4jnsgd1na2vs0mg"},{"bike_id":"79d77c05-7744-4903-85f7-218b89fcbe44","system_id":"levelo_inurba_marseille","lat":43.28366,"lon":5.38642,"is_reserved":false,"is_disabled":false,"rental_uris":{"android":"levelo://app?vid=79d77c05-7744-4903-85f7-218b89fcbe44","ios":"levelo://app?vid=79d77c05-7744-4903-85f7-218b89fcbe44"},"vehicle_type_id":"4","last_reported":1741158595,"current_range_meters":10000,"station_id":"ce4bh492rcd13ifvqdvg","pricing_plan_id":"cebpf4jnsgd1na2vs0mg"},{"bike_id":"9250a28a-9289-4df0-ba18-f9b6050fcdec","system_id":"levelo_inurba_marseille","lat":43.29902,"lon":5.39198,"is_reserved":false,"is_disabled":false,"rental_uris":{"android":"levelo://app?vid=9250a28a-9289-4df0-ba18-f9b6050fcdec","ios":"levelo://app?vid=9250a28a-9289-4df0-ba18-f9b6050fcdec"},"vehicle_type_id":"4","last_reported":1741158595,"current_range_meters":10000,"station_id":"","pricing_plan_id":"cebpf4jnsgd1na2vs0mg"},{"bike_id":"819bac88-8826-437d-9963-ad968afb1a80","system_id":"levelo_inurba_marseille","lat":43.2465,"lon":5.389,"is_reserved":false,"is_disabled":false,"rental_uris":{"android":"levelo://app?vid=819bac88-8826-437d-9963-ad968afb1a80","ios":"levelo://app?vid=819bac88-8826-437d-9963-ad968afb1a80"},"vehicle_type_id":"4","last_reported":1741158595,"current_range_meters":10000,"station_id":"ce4bhg12rcd13ifvqf60","pricing_plan_id":"cebpf4jnsgd1na2vs0mg"},{"bike_id":"6ea8ab5c-65c2-4db6-8cb6-dfdbe5b30189","system_id":"levelo_inurba_marseille","lat":43.3236,"lon":5.3889,"is_reserved":false,"is_disabled":false,"rental_uris":{"android":"levelo://app?vid=6ea8ab5c-65c2-4db6-8cb6-dfdbe5b30189","ios":"levelo://app?vid=6ea8ab5c-65c2-4db6-8cb6-dfdbe5b30189"},"vehicle_type_id":"4","last_reported":1741158595,"current_range_meters":10000,"station_id":"ce4bhqp2rcd13ifvqhog","pricing_plan_id":"cebpf4jnsgd1na2vs0mg"},{"bike_id":"62abbf65-fdb4-4039-8d17-a6787ca98437","system_id":"levelo_inurba_marseille","lat":43.26486,"lon":5.39561,"is_reserved":false,"is_disabled":true,"rental_uris":{"android":"levelo://app?vid=62abbf65-fdb4-4039-8d17-a6787ca98437","ios":"levelo://app?vid=62abbf65-fdb4-4039-8d17-a6787ca98437"},"vehicle_type_id":"4","last_reported":1741158595,"current_range_meters":10000,"station_id":"ce4bhi12rcd13ifvqfq0","pricing_plan_id":"cebpf4jnsgd1na2vs0mg"},{"bike_id":"6061c82f-63ed-42ba-870f-42df5f1a263a","system_id":"levelo_inurba_marseille","lat":43.28829,"lon":5.35864,"is_reserved":false,"is_disabled":false,"rental_uris":{"android":"levelo://app?vid=6061c82f-63ed-42ba-870f-42df5f1a263a","ios":"levelo://app?vid=6061c82f-63ed-42ba-870f-42df5f1a263a"},"vehicle_type_id":"4","last_reported":1741158595,"current_range_meters":10000,"station_id":"ce4bhb12rcd13ifvqem0","pricing_plan_id":"cebpf4jnsgd1na2vs0mg"},{"bike_id":"e24b58cd-1c8e-4e08-8a60-cc65b8817bf3","system_id":"levelo_inurba_marseille","lat":43.28568,"lon":5.394992,"is_reserved":false,"is_disabled":false,"rental_uris":{"android":"levelo://app?vid=e24b58cd-1c8e-4e08-8a60-cc65b8817bf3","ios":"levelo://app?vid=e24b58cd-1c8e-4e08-8a60-cc65b8817bf3"},"vehicle_type_id":"4","last_reported":1741158595,"current_range_meters":10000,"station_id":"ce4bgn92rcd13ifvqbvg","pricing_plan_id":"cebpf4jnsgd1na2vs0mg"},{"bike_id":"86a9169c-83f9-4d62-ab70-8746bf8f87a1","system_id":"levelo_inurba_marseille","lat":43.28573,"lon":5.39504,"is_reserved":false,"is_disabled":false,"rental_uris":{"android":"levelo://app?vid=86a9169c-83f9-4d62-ab70-8746bf8f87a1","ios":"levelo://app?vid=86a9169c-83f9-4d62-ab70-8746bf8f87a1"},"vehicle_type_id":"4","last_reported":1741158595,"current_range_meters":10000,"station_id":"ce4bh292rcd13ifvqdg0","pricing_plan_id":"cebpf4jnsgd1na2vs0mg"},{"bike_id":"0eb9fef3-83c8-47c8-ad9e-cfe2998c47d1","system_id":"levelo_inurba_marseille","lat":43.31048,"lon":5.3757,"is_reserved":false,"is_disabled":false,"rental_uris":{"android":"levelo://app?vid=0eb9fef3-83c8-47c8-ad9e-cfe2998c47d1","ios":"levelo://app?vid=0eb9fef3-83c8-47c8-ad9e-cfe2998c47d1"},"vehicle_type_id":"4","last_reported":1741158595,"current_range_meters":10800,"station_id":"","pricing_plan_id":"cebpf4jnsgd1na2vs0mg"},{"bike_id":"a5802434-b463-4e34-acd3-c9e37f5a7d21","system_id":"levelo_inurba_marseille","lat":43.32559,"lon":5.41443,"is_reserved":false,"is_disabled":false,"rental_uris":{"android":"levelo://app?vid=a5802434-b463-4e34-acd3-c9e37f5a7d21","ios":"levelo://app?vid=a5802434-b463-4e34-acd3-c9e37f5a7d21"},"vehicle_type_id":"4","last_reported":1741158595,"current_range_meters":10800,"station_id":"ce4bhq12rcd13ifvqhhg","pricing_plan_id":"cebpf4jnsgd1na2vs0mg"},{"bike_id":"895f4c40-8d49-47ad-ac3d-54bc4b80d81c","system_id":"levelo_inurba_marseille","lat":43.24399,"lon":5.3705,"is_reserved":false,"is_disabled":false,"rental_uris":{"android":"levelo://app?vid=895f4c40-8d49-47ad-ac3d-54bc4b80d81c","ios":"levelo://app?vid=895f4c40-8d49-47ad-ac3d-54bc4b80d81c"},"vehicle_type_id":"4","last_reported":1741158595,"current_range_meters":10800,"station_id":"ce4bhhh2rcd13ifvqfk0","pricing_plan_id":"cebpf4jnsgd1na2vs0mg"},{"bike_id":"391744a2-abab-4ab2-a32e-38c6ddee882a","system_id":"levelo_inurba_marseille","lat":43.29953,"lon":5.38529,"is_reserved":false,"is_disabled":true,"rental_uris":{"android":"levelo://app?vid=391744a2-abab-4ab2-a32e-38c6ddee882a","ios":"levelo://app?vid=391744a2-abab-4ab2-a32e-38c6ddee882a"},"vehicle_type_id":"4","last_reported":1741158595,"current_range_meters":10800,"station_id":"ce4bgj92rcd13ifvqbd0","pricing_plan_id":"cebpf4jnsgd1na2vs0mg"},{"bike_id":"7cd5e07c-ad2a-4af8-99d9-77c41335ce79","system_id":"levelo_inurba_marseille","lat":43.24166,"lon":5.363922,"is_reserved":false,"is_disabled":false,"rental_uris":{"android":"levelo://app?vid=7cd5e07c-ad2a-4af8-99d9-77c41335ce79","ios":"levelo://app?vid=7cd5e07c-ad2a-4af8-99d9-77c41335ce79"},"vehicle_type_id":"4","last_reported":1741158595,"current_range_meters":10800,"station_id":"cpo36qri1sfpv3e86is0","pricing_plan_id":"cebpf4jnsgd1na2vs0mg"},{"bike_id":"6d43b52d-edb7-44c3-8ec8-85fd8093a142","system_id":"levelo_inurba_marseille","lat":43.281026,"lon":5.378521,"is_reserved":false,"is_disabled":false,"rental_uris":{"android":"levelo://app?vid=6d43b52d-edb7-44c3-8ec8-85fd8093a142","ios":"levelo://app?vid=6d43b52d-edb7-44c3-8ec8-85fd8093a142"},"vehicle_type_id":"4","last_reported":1741158595,"current_range_meters":10800,"station_id":"ce4bha12rcd13ifvqee0","pricing_plan_id":"cebpf4jnsgd1na2vs0mg"},{"bike_id":"d571166c-77a4-4a91-b051-9cc34ad31336","system_id":"levelo_inurba_marseille","lat":43.30199,"lon":5.39335,"is_reserved":false,"is_disabled":false,"rental_uris":{"android":"levelo://app?vid=d571166c-77a4-4a91-b051-9cc34ad31336","ios":"levelo://app?vid=d571166c-77a4-4a91-b051-9cc34ad31336"},"vehicle_type_id":"4","last_reported":1741158595,"current_range_meters":10800,"station_id":"","pricing_plan_id":"cebpf4jnsgd1na2vs0mg"},{"bike_id":"8441514c-4110-42af-a6dc-85606173b4cc","system_id":"levelo_inurba_marseille","lat":43.24647,"lon":5.3817,"is_reserved":false,"is_disabled":false,"rental_uris":{"android":"levelo://app?vid=8441514c-4110-42af-a6dc-85606173b4cc","ios":"levelo://app?vid=8441514c-4110-42af-a6dc-85606173b4cc"},"vehicle_type_id":"4","last_reported":1741158595,"current_range_meters":10800,"station_id":"ce4bhih2rcd13ifvqfr0","pricing_plan_id":"cebpf4jnsgd1na2vs0mg"},{"bike_id":"90eb32d3-dcf9-4b4c-8da6-471f534f1e4e","system_id":"levelo_inurba_marseille","lat":43.29267,"lon":5.38432,"is_reserved":false,"is_disabled":false,"rental_uris":{"android":"levelo://app?vid=90eb32d3-dcf9-4b4c-8da6-471f534f1e4e","ios":"levelo://app?vid=90eb32d3-dcf9-4b4c-8da6-471f534f1e4e"},"vehicle_type_id":"4","last_reported":1741158595,"current_range_meters":10800,"station_id":"ce4bh692rcd13ifvqea0","pricing_plan_id":"cebpf4jnsgd1na2vs0mg"},{"bike_id":"a47a13a9-c176-4f2b-bca1-9dd7e5a64881","system_id":"levelo_inurba_marseille","lat":43.30922,"lon":5.40193,"is_reserved":false,"is_disabled":true,"rental_uris":{"android":"levelo://app?vid=a47a13a9-c176-4f2b-bca1-9dd7e5a64881","ios":"levelo://app?vid=a47a13a9-c176-4f2b-bca1-9dd7e5a64881"},"vehicle_type_id":"4","last_reported":1741158595,"current_range_meters":10800,"station_id":"ce4bgvp2rcd13ifvqct0","pricing_plan_id":"cebpf4jnsgd1na2vs0mg"},{"bike_id":"65454335-2b8f-41a7-9a83-ad755de99323","system_id":"levelo_inurba_marseille","lat":43.24815,"lon":5.37458,"is_reserved":false,"is_disabled":false,"rental_uris":{"android":"levelo://app?vid=65454335-2b8f-41a7-9a83-ad755de99323","ios":"levelo://app?vid=65454335-2b8f-41a7-9a83-ad755de99323"},"vehicle_type_id":"4","last_reported":1741158595,"current_range_meters":10800,"station_id":"ce4bhgh2rcd13ifvqfb0","pricing_plan_id":"cebpf4jnsgd1na2vs0mg"},{"bike_id":"17c04b47-b4f3-4a2a-accd-d5f659a10fa3","system_id":"levelo_inurba_marseille","lat":43.32468,"lon":5.36585,"is_reserved":false,"is_disabled":false,"rental_uris":{"android":"levelo://app?vid=17c04b47-b4f3-4a2a-accd-d5f659a10fa3","ios":"levelo://app?vid=17c04b47-b4f3-4a2a-accd-d5f659a10fa3"},"vehicle_type_id":"4","last_reported":1741158595,"current_range_meters":11200,"station_id":"ce4bhs12rcd13ifvqhvg","pricing_plan_id":"cebpf4jnsgd1na2vs0mg"},{"bike_id":"9664280c-ec19-44a4-9913-206ac50d66b9","system_id":"levelo_inurba_marseille","lat":43.26159,"lon":5.40471,"is_reserved":false,"is_disabled":false,"rental_uris":{"android":"levelo://app?vid=9664280c-ec19-44a4-9913-206ac50d66b9","ios":"levelo://app?vid=9664280c-ec19-44a4-9913-206ac50d66b9"},"vehicle_type_id":"4","last_reported":1741158595,"current_range_meters":11200,"station_id":"ce4bhmh2rcd13ifvqgmg","pricing_plan_id":"cebpf4jnsgd1na2vs0mg"},{"bike_id":"c19d2d03-17b5-4949-b7dc-22a7fd555156","system_id":"levelo_inurba_marseille","lat":43.30026,"lon":5.39971,"is_reserved":false,"is_disabled":false,"rental_uris":{"android":"levelo://app?vid=c19d2d03-17b5-4949-b7dc-22a7fd555156","ios":"levelo://app?vid=c19d2d03-17b5-4949-b7dc-22a7fd555156"},"vehicle_type_id":"4","last_reported":1741158595,"current_range_meters":11200,"station_id":"","pricing_plan_id":"cebpf4jnsgd1na2vs0mg"},{"bike_id":"d45ce4bf-f9f2-429a-8e99-fd1c9932a08a","system_id":"levelo_inurba_marseille","lat":43.306473,"lon":5.407406,"is_reserved":false,"is_disabled":false,"rental_uris":{"android":"levelo://app?vid=d45ce4bf-f9f2-429a-8e99-fd1c9932a08a","ios":"levelo://app?vid=d45ce4bf-f9f2-429a-8e99-fd1c9932a08a"},"vehicle_type_id":"4","last_reported":1741158595,"current_range_meters":11200,"station_id":"","pricing_plan_id":"cebpf4jnsgd1na2vs0mg"},{"bike_id":"03d5bd23-db2c-4a3d-9573-a1403447f741","system_id":"levelo_inurba_marseille","lat":43.27814,"lon":5.40725,"is_reserved":false,"is_disabled":false,"rental_uris":{"android":"levelo://app?vid=03d5bd23-db2c-4a3d-9573-a1403447f741","ios":"levelo://app?vid=03d5bd23-db2c-4a3d-9573-a1403447f741"},"vehicle_type_id":"4","last_reported":1741158595,"current_range_meters":11200,"station_id":"ce4bhnh2rcd13ifvqgtg","pricing_plan_id":"cebpf4jnsgd1na2vs0mg"},{"bike_id":"963d308c-f9b6-418c-81dd-8351100dfd58","system_id":"levelo_inurba_marseille","lat":43.3058,"lon":5.39367,"is_reserved":false,"is_disabled":false,"rental_uris":{"android":"levelo://app?vid=963d308c-f9b6-418c-81dd-8351100dfd58","ios":"levelo://app?vid=963d308c-f9b6-418c-81dd-8351100dfd58"},"vehicle_type_id":"4","last_reported":1741158595,"current_range_meters":11200,"station_id":"ce4bh0p2rcd13ifvqd80","pricing_plan_id":"cebpf4jnsgd1na2vs0mg"},{"bike_id":"c55557ad-1ed5-4997-aee7-ac92107f14b6","system_id":"levelo_inurba_marseille","lat":43.264615,"lon":5.375038,"is_reserved":false,"is_disabled":false,"rental_uris":{"android":"levelo://app?vid=c55557ad-1ed5-4997-aee7-ac92107f14b6","ios":"levelo://app?vid=c55557ad-1ed5-4997-aee7-ac92107f14b6"},"vehicle_type_id":"4","last_reported":1741158595,"current_range_meters":11600,"station_id":"","pricing_plan_id":"cebpf4jnsgd1na2vs0mg"},{"bike_id":"e147a6d0-e38e-41ed-9620-b5ceb546b3f6","system_id":"levelo_inurba_marseille","lat":43.27493,"lon":5.42454,"is_reserved":false,"is_disabled":false,"rental_uris":{"android":"levelo://app?vid=e147a6d0-e38e-41ed-9620-b5ceb546b3f6","ios":"levelo://app?vid=e147a6d0-e38e-41ed-9620-b5ceb546b3f6"},"vehicle_type_id":"4","last_reported":1741158595,"current_range_meters":11600,"station_id":"ce4bhn92rcd13ifvqgrg","pricing_plan_id":"cebpf4jnsgd1na2vs0mg"},{"bike_id":"28096b7f-96ae-4ea2-8ceb-2396385a6306","system_id":"levelo_inurba_marseille","lat":43.24648,"lon":5.38886,"is_reserved":false,"is_disabled":true,"rental_uris":{"android":"levelo://app?vid=28096b7f-96ae-4ea2-8ceb-2396385a6306","ios":"levelo://app?vid=28096b7f-96ae-4ea2-8ceb-2396385a6306"},"vehicle_type_id":"4","last_reported":1741158595,"current_range_meters":11600,"station_id":"ce4bhg12rcd13ifvqf60","pricing_plan_id":"cebpf4jnsgd1na2vs0mg"},{"bike_id":"977faacd-4379-4321-a617-67a59b429cfe","system_id":"levelo_inurba_marseille","lat":43.306912,"lon":5.394971,"is_reserved":false,"is_disabled":false,"rental_uris":{"android":"levelo://app?vid=977faacd-4379-4321-a617-67a59b429cfe","ios":"levelo://app?vid=977faacd-4379-4321-a617-67a59b429cfe"},"vehicle_type_id":"4","last_reported":1741158595,"current_range_meters":11600,"station_id":"ce4bhah2rcd13ifvqei0","pricing_plan_id":"cebpf4jnsgd1na2vs0mg"},{"bike_id":"e1cdc4f0-509b-415c-9592-9c6eaf597898","system_id":"levelo_inurba_marseille","lat":43.27809,"lon":5.40742,"is_reserved":false,"is_disabled":false,"rental_uris":{"android":"levelo://app?vid=e1cdc4f0-509b-415c-9592-9c6eaf597898","ios":"levelo://app?vid=e1cdc4f0-509b-415c-9592-9c6eaf597898"},"vehicle_type_id":"4","last_reported":1741158595,"current_range_meters":11600,"station_id":"ce4bhnh2rcd13ifvqgtg","pricing_plan_id":"cebpf4jnsgd1na2vs0mg"},{"bike_id":"412f437b-f2ab-4427-83a3-d8cf5b98501c","system_id":"levelo_inurba_marseille","lat":43.29043,"lon":5.39974,"is_reserved":false,"is_disabled":false,"rental_uris":{"android":"levelo://app?vid=412f437b-f2ab-4427-83a3-d8cf5b98501c","ios":"levelo://app?vid=412f437b-f2ab-4427-83a3-d8cf5b98501c"},"vehicle_type_id":"4","last_reported":1741158595,"current_range_meters":11600,"station_id":"ce4bh392rcd13ifvqdm0","pricing_plan_id":"cebpf4jnsgd1na2vs0mg"},{"bike_id":"3065b7b7-26f9-49b2-80ff-abf611f54a0a","system_id":"levelo_inurba_marseille","lat":43.29553,"lon":5.42294,"is_reserved":false,"is_disabled":false,"rental_uris":{"android":"levelo://app?vid=3065b7b7-26f9-49b2-80ff-abf611f54a0a","ios":"levelo://app?vid=3065b7b7-26f9-49b2-80ff-abf611f54a0a"},"vehicle_type_id":"4","last_reported":1741158595,"current_range_meters":11600,"station_id":"ce4bhph2rcd13ifvqhdg","pricing_plan_id":"cebpf4jnsgd1na2vs0mg"},{"bike_id":"01bbf7ca-6d4c-432d-87aa-bf28ea00dcb5","system_id":"levelo_inurba_marseille","lat":43.3248,"lon":5.36569,"is_reserved":false,"is_disabled":false,"rental_uris":{"android":"levelo://app?vid=01bbf7ca-6d4c-432d-87aa-bf28ea00dcb5","ios":"levelo://app?vid=01bbf7ca-6d4c-432d-87aa-bf28ea00dcb5"},"vehicle_type_id":"4","last_reported":1741158595,"current_range_meters":12000,"station_id":"ce4bhs12rcd13ifvqhvg","pricing_plan_id":"cebpf4jnsgd1na2vs0mg"},{"bike_id":"66156a03-26ce-42e5-b8e5-c5a8976c2ed6","system_id":"levelo_inurba_marseille","lat":43.29701,"lon":5.36591,"is_reserved":false,"is_disabled":false,"rental_uris":{"android":"levelo://app?vid=66156a03-26ce-42e5-b8e5-c5a8976c2ed6","ios":"levelo://app?vid=66156a03-26ce-42e5-b8e5-c5a8976c2ed6"},"vehicle_type_id":"4","last_reported":1741158595,"current_range_meters":12000,"station_id":"ce4bgn12rcd13ifvqbt0","pricing_plan_id":"cebpf4jnsgd1na2vs0mg"},{"bike_id":"d726aba3-5d50-4e2e-9209-ba22e2312b15","system_id":"levelo_inurba_marseille","lat":43.28947,"lon":5.36397,"is_reserved":false,"is_disabled":false,"rental_uris":{"android":"levelo://app?vid=d726aba3-5d50-4e2e-9209-ba22e2312b15","ios":"levelo://app?vid=d726aba3-5d50-4e2e-9209-ba22e2312b15"},"vehicle_type_id":"4","last_reported":1741158595,"current_range_meters":12000,"station_id":"ce4bhc92rcd13ifvqetg","pricing_plan_id":"cebpf4jnsgd1na2vs0mg"},{"bike_id":"4e099002-469e-40dd-a988-90ba29d19792","system_id":"levelo_inurba_marseille","lat":43.24538,"lon":5.3955,"is_reserved":false,"is_disabled":false,"rental_uris":{"android":"levelo://app?vid=4e099002-469e-40dd-a988-90ba29d19792","ios":"levelo://app?vid=4e099002-469e-40dd-a988-90ba29d19792"},"vehicle_type_id":"4","last_reported":1741158595,"current_range_meters":12000,"station_id":"ce4bhlp2rcd13ifvqgjg","pricing_plan_id":"cebpf4jnsgd1na2vs0mg"},{"bike_id":"fa5e9d91-e98c-41ce-bc6e-f6de9ded794b","system_id":"levelo_inurba_marseille","lat":43.25499,"lon":5.37655,"is_reserved":false,"is_disabled":false,"rental_uris":{"android":"levelo://app?vid=fa5e9d91-e98c-41ce-bc6e-f6de9ded794b","ios":"levelo://app?vid=fa5e9d91-e98c-41ce-bc6e-f6de9ded794b"},"vehicle_type_id":"4","last_reported":1741158595,"current_range_meters":12000,"station_id":"ce4bhh12rcd13ifvqff0","pricing_plan_id":"cebpf4jnsgd1na2vs0mg"},{"bike_id":"df4cb1b2-fb7b-4dce-8888-0afba30ebd84","system_id":"levelo_inurba_marseille","lat":43.29255,"lon":5.40909,"is_reserved":false,"is_disabled":false,"rental_uris":{"android":"levelo://app?vid=df4cb1b2-fb7b-4dce-8888-0afba30ebd84","ios":"levelo://app?vid=df4cb1b2-fb7b-4dce-8888-0afba30ebd84"},"vehicle_type_id":"4","last_reported":1741158595,"current_range_meters":12000,"station_id":"ce4bh192rcd13ifvqdc0","pricing_plan_id":"cebpf4jnsgd1na2vs0mg"},{"bike_id":"0887995a-7163-48cf-a17f-e3237da9ea00","system_id":"levelo_inurba_marseille","lat":43.23198,"lon":5.39984,"is_reserved":false,"is_disabled":false,"rental_uris":{"android":"levelo://app?vid=0887995a-7163-48cf-a17f-e3237da9ea00","ios":"levelo://app?vid=0887995a-7163-48cf-a17f-e3237da9ea00"},"vehicle_type_id":"4","last_reported":1741158595,"current_range_meters":12000,"station_id":"ce4bhn12rcd13ifvqgqg","pricing_plan_id":"cebpf4jnsgd1na2vs0mg"},{"bike_id":"d805d10e-5040-4977-9608-2b096babd9f4","system_id":"levelo_inurba_marseille","lat":43.29037,"lon":5.3866,"is_reserved":false,"is_disabled":false,"rental_uris":{"android":"levelo://app?vid=d805d10e-5040-4977-9608-2b096babd9f4","ios":"levelo://app?vid=d805d10e-5040-4977-9608-2b096babd9f4"},"vehicle_type_id":"4","last_reported":1741158595,"current_range_meters":12400,"station_id":"ce4bh4p2rcd13ifvqe0g","pricing_plan_id":"cebpf4jnsgd1na2vs0mg"},{"bike_id":"10460c2d-c60a-48a9-88b4-17ea9ade6ecf","system_id":"levelo_inurba_marseille","lat":43.24076,"lon":5.37758,"is_reserved":false,"is_disabled":false,"rental_uris":{"android":"levelo://app?vid=10460c2d-c60a-48a9-88b4-17ea9ade6ecf","ios":"levelo://app?vid=10460c2d-c60a-48a9-88b4-17ea9ade6ecf"},"vehicle_type_id":"4","last_reported":1741158595,"current_range_meters":12400,"station_id":"ce4bhnp2rcd13ifvqgvg","pricing_plan_id":"cebpf4jnsgd1na2vs0mg"},{"bike_id":"cd6daa3a-07f9-42ed-90a2-4f41a2e8d311","system_id":"levelo_inurba_marseille","lat":43.30219,"lon":5.39481,"is_reserved":false,"is_disabled":false,"rental_uris":{"android":"levelo://app?vid=cd6daa3a-07f9-42ed-90a2-4f41a2e8d311","ios":"levelo://app?vid=cd6daa3a-07f9-42ed-90a2-4f41a2e8d311"},"vehicle_type_id":"4","last_reported":1741158595,"current_range_meters":12400,"station_id":"ce4bh0p2rcd13ifvqd70","pricing_plan_id":"cebpf4jnsgd1na2vs0mg"},{"bike_id":"17f5fdda-b4e2-4eff-a786-ed389d122e5b","system_id":"levelo_inurba_marseille","lat":43.2695,"lon":5.38635,"is_reserved":false,"is_disabled":false,"rental_uris":{"android":"levelo://app?vid=17f5fdda-b4e2-4eff-a786-ed389d122e5b","ios":"levelo://app?vid=17f5fdda-b4e2-4eff-a786-ed389d122e5b"},"vehicle_type_id":"4","last_reported":1741158595,"current_range_meters":12400,"station_id":"ce4bhh92rcd13ifvqfh0","pricing_plan_id":"cebpf4jnsgd1na2vs0mg"},{"bike_id":"4c318e6f-45ad-4827-bf6b-ffb0059697a8","system_id":"levelo_inurba_marseille","lat":43.32285,"lon":5.4064,"is_reserved":false,"is_disabled":false,"rental_uris":{"android":"levelo://app?vid=4c318e6f-45ad-4827-bf6b-ffb0059697a8","ios":"levelo://app?vid=4c318e6f-45ad-4827-bf6b-ffb0059697a8"},"vehicle_type_id":"4","last_reported":1741158595,"current_range_meters":12400,"station_id":"","pricing_plan_id":"cebpf4jnsgd1na2vs0mg"},{"bike_id":"4b37ce1f-b43f-429e-a19c-b8c9e00f65d3","system_id":"levelo_inurba_marseille","lat":43.24058,"lon":5.37755,"is_reserved":false,"is_disabled":false,"rental_uris":{"android":"levelo://app?vid=4b37ce1f-b43f-429e-a19c-b8c9e00f65d3","ios":"levelo://app?vid=4b37ce1f-b43f-429e-a19c-b8c9e00f65d3"},"vehicle_type_id":"4","last_reported":1741158595,"current_range_meters":12800,"station_id":"ce4bhnp2rcd13ifvqgvg","pricing_plan_id":"cebpf4jnsgd1na2vs0mg"},{"bike_id":"5b6fcdc1-50e2-4472-90f8-4d03bb8c7382","system_id":"levelo_inurba_marseille","lat":43.29226,"lon":5.36064,"is_reserved":false,"is_disabled":false,"rental_uris":{"android":"levelo://app?vid=5b6fcdc1-50e2-4472-90f8-4d03bb8c7382","ios":"levelo://app?vid=5b6fcdc1-50e2-4472-90f8-4d03bb8c7382"},"vehicle_type_id":"4","last_reported":1741158595,"current_range_meters":12800,"station_id":"ce4bhbh2rcd13ifvqeqg","pricing_plan_id":"cebpf4jnsgd1na2vs0mg"},{"bike_id":"61874337-5ccd-4955-8b89-7147d0c4091e","system_id":"levelo_inurba_marseille","lat":43.292669,"lon":5.401621,"is_reserved":false,"is_disabled":false,"rental_uris":{"android":"levelo://app?vid=61874337-5ccd-4955-8b89-7147d0c4091e","ios":"levelo://app?vid=61874337-5ccd-4955-8b89-7147d0c4091e"},"vehicle_type_id":"4","last_reported":1741158595,"current_range_meters":12800,"station_id":"ce4bh312rcd13ifvqdk0","pricing_plan_id":"cebpf4jnsgd1na2vs0mg"},{"bike_id":"65eca687-68d5-4246-98e3-a514f2396bc6","system_id":"levelo_inurba_marseille","lat":43.27482,"lon":5.42495,"is_reserved":false,"is_disabled":false,"rental_uris":{"android":"levelo://app?vid=65eca687-68d5-4246-98e3-a514f2396bc6","ios":"levelo://app?vid=65eca687-68d5-4246-98e3-a514f2396bc6"},"vehicle_type_id":"4","last_reported":1741158595,"current_range_meters":12800,"station_id":"ce4bhn92rcd13ifvqgrg","pricing_plan_id":"cebpf4jnsgd1na2vs0mg"},{"bike_id":"ad84434d-20fb-4dcc-8def-077a9f6fa45b","system_id":"levelo_inurba_marseille","lat":43.284061,"lon":5.375022,"is_reserved":false,"is_disabled":true,"rental_uris":{"android":"levelo://app?vid=ad84434d-20fb-4dcc-8def-077a9f6fa45b","ios":"levelo://app?vid=ad84434d-20fb-4dcc-8def-077a9f6fa45b"},"vehicle_type_id":"4","last_reported":1741158595,"current_range_meters":13600,"station_id":"","pricing_plan_id":"cebpf4jnsgd1na2vs0mg"},{"bike_id":"cba6a766-3158-4fdc-849a-5887af830bdc","system_id":"levelo_inurba_marseille","lat":43.292492,"lon":5.382198,"is_reserved":false,"is_disabled":false,"rental_uris":{"android":"levelo://app?vid=cba6a766-3158-4fdc-849a-5887af830bdc","ios":"levelo://app?vid=cba6a766-3158-4fdc-849a-5887af830bdc"},"vehicle_type_id":"4","last_reported":1741158595,"current_range_meters":13600,"station_id":"","pricing_plan_id":"cebpf4jnsgd1na2vs0mg"},{"bike_id":"330426bc-0af9-4c3e-8e4c-6ec10833df11","system_id":"levelo_inurba_marseille","lat":43.29896,"lon":5.43666,"is_reserved":false,"is_disabled":false,"rental_uris":{"android":"levelo://app?vid=330426bc-0af9-4c3e-8e4c-6ec10833df11","ios":"levelo://app?vid=330426bc-0af9-4c3e-8e4c-6ec10833df11"},"vehicle_type_id":"4","last_reported":1741158595,"current_range_meters":13600,"station_id":"ce4bhpp2rcd13ifvqhfg","pricing_plan_id":"cebpf4jnsgd1na2vs0mg"},{"bike_id":"253377e6-7164-4811-973b-4d94bddbeffc","system_id":"levelo_inurba_marseille","lat":43.30495,"lon":5.3746,"is_reserved":false,"is_disabled":false,"rental_uris":{"android":"levelo://app?vid=253377e6-7164-4811-973b-4d94bddbeffc","ios":"levelo://app?vid=253377e6-7164-4811-973b-4d94bddbeffc"},"vehicle_type_id":"4","last_reported":1741158595,"current_range_meters":13600,"station_id":"","pricing_plan_id":"cebpf4jnsgd1na2vs0mg"},{"bike_id":"8c84de50-4ed2-4850-905b-13e7610bb596","system_id":"levelo_inurba_marseille","lat":43.33774,"lon":5.37452,"is_reserved":false,"is_disabled":false,"rental_uris":{"android":"levelo://app?vid=8c84de50-4ed2-4850-905b-13e7610bb596","ios":"levelo://app?vid=8c84de50-4ed2-4850-905b-13e7610bb596"},"vehicle_type_id":"4","last_reported":1741158595,"current_range_meters":13600,"station_id":"","pricing_plan_id":"cebpf4jnsgd1na2vs0mg"},{"bike_id":"bbf19e9b-a77f-45a2-8d3a-b9ed1a683a89","system_id":"levelo_inurba_marseille","lat":43.30616,"lon":5.39335,"is_reserved":false,"is_disabled":false,"rental_uris":{"android":"levelo://app?vid=bbf19e9b-a77f-45a2-8d3a-b9ed1a683a89","ios":"levelo://app?vid=bbf19e9b-a77f-45a2-8d3a-b9ed1a683a89"},"vehicle_type_id":"4","last_reported":1741158595,"current_range_meters":13600,"station_id":"ce4bh0p2rcd13ifvqd80","pricing_plan_id":"cebpf4jnsgd1na2vs0mg"},{"bike_id":"8e67c6c2-1f86-420e-855b-676e159ed831","system_id":"levelo_inurba_marseille","lat":43.23059,"lon":5.35499,"is_reserved":false,"is_disabled":false,"rental_uris":{"android":"levelo://app?vid=8e67c6c2-1f86-420e-855b-676e159ed831","ios":"levelo://app?vid=8e67c6c2-1f86-420e-855b-676e159ed831"},"vehicle_type_id":"4","last_reported":1741158595,"current_range_meters":14000,"station_id":"cpo3342slgdg3j2ifvpg","pricing_plan_id":"cebpf4jnsgd1na2vs0mg"},{"bike_id":"9cbb5914-3ce0-45a9-bfe4-895657d5f46f","system_id":"levelo_inurba_marseille","lat":43.23193,"lon":5.35582,"is_reserved":false,"is_disabled":false,"rental_uris":{"android":"levelo://app?vid=9cbb5914-3ce0-45a9-bfe4-895657d5f46f","ios":"levelo://app?vid=9cbb5914-3ce0-45a9-bfe4-895657d5f46f"},"vehicle_type_id":"4","last_reported":1741158595,"current_range_meters":14000,"station_id":"ce4bhu92rcd13ifvqi70","pricing_plan_id":"cebpf4jnsgd1na2vs0mg"},{"bike_id":"12e18254-b863-444d-8925-63c2865f1afd","system_id":"levelo_inurba_marseille","lat":43.31343,"lon":5.36757,"is_reserved":false,"is_disabled":false,"rental_uris":{"android":"levelo://app?vid=12e18254-b863-444d-8925-63c2865f1afd","ios":"levelo://app?vid=12e18254-b863-444d-8925-63c2865f1afd"},"vehicle_type_id":"4","last_reported":1741158595,"current_range_meters":14000,"station_id":"ce4bgr92rcd13ifvqc6g","pricing_plan_id":"cebpf4jnsgd1na2vs0mg"},{"bike_id":"05272325-b8db-43dc-b08b-96c70bfe400a","system_id":"levelo_inurba_marseille","lat":43.29791,"lon":5.38117,"is_reserved":false,"is_disabled":false,"rental_uris":{"android":"levelo://app?vid=05272325-b8db-43dc-b08b-96c70bfe400a","ios":"levelo://app?vid=05272325-b8db-43dc-b08b-96c70bfe400a"},"vehicle_type_id":"4","last_reported":1741158595,"current_range_meters":14000,"station_id":"ce4bgip2rcd13ifvqbb0","pricing_plan_id":"cebpf4jnsgd1na2vs0mg"},{"bike_id":"bfaefdd0-de3c-401c-9815-bd6ab825eef1","system_id":"levelo_inurba_marseille","lat":43.3175,"lon":5.39045,"is_reserved":false,"is_disabled":false,"rental_uris":{"android":"levelo://app?vid=bfaefdd0-de3c-401c-9815-bd6ab825eef1","ios":"levelo://app?vid=bfaefdd0-de3c-401c-9815-bd6ab825eef1"},"vehicle_type_id":"4","last_reported":1741158595,"current_range_meters":14000,"station_id":"ce4bhqp2rcd13ifvqhng","pricing_plan_id":"cebpf4jnsgd1na2vs0mg"},{"bike_id":"4d12b479-7a2c-4f8a-a9bc-6cf98eea0d34","system_id":"levelo_inurba_marseille","lat":43.30144,"lon":5.39506,"is_reserved":false,"is_disabled":false,"rental_uris":{"android":"levelo://app?vid=4d12b479-7a2c-4f8a-a9bc-6cf98eea0d34","ios":"levelo://app?vid=4d12b479-7a2c-4f8a-a9bc-6cf98eea0d34"},"vehicle_type_id":"4","last_reported":1741158595,"current_range_meters":14000,"station_id":"","pricing_plan_id":"cebpf4jnsgd1na2vs0mg"},{"bike_id":"9f27314b-4dcf-4d6e-a311-b88edf56542c","system_id":"levelo_inurba_marseille","lat":43.2407,"lon":5.37761,"is_reserved":false,"is_disabled":false,"rental_uris":{"android":"levelo://app?vid=9f27314b-4dcf-4d6e-a311-b88edf56542c","ios":"levelo://app?vid=9f27314b-4dcf-4d6e-a311-b88edf56542c"},"vehicle_type_id":"4","last_reported":1741158595,"current_range_meters":14400,"station_id":"ce4bhnp2rcd13ifvqgvg","pricing_plan_id":"cebpf4jnsgd1na2vs0mg"},{"bike_id":"e8fb3957-55aa-4712-b8af-a6da8b77890f","system_id":"levelo_inurba_marseille","lat":43.30166,"lon":5.38128,"is_reserved":false,"is_disabled":false,"rental_uris":{"android":"levelo://app?vid=e8fb3957-55aa-4712-b8af-a6da8b77890f","ios":"levelo://app?vid=e8fb3957-55aa-4712-b8af-a6da8b77890f"},"vehicle_type_id":"4","last_reported":1741158595,"current_range_meters":14400,"station_id":"ce4bgjp2rcd13ifvqbh0","pricing_plan_id":"cebpf4jnsgd1na2vs0mg"},{"bike_id":"a490f13d-ff40-47b1-9376-19fb2024ec77","system_id":"levelo_inurba_marseille","lat":43.28561,"lon":5.39533,"is_reserved":false,"is_disabled":true,"rental_uris":{"android":"levelo://app?vid=a490f13d-ff40-47b1-9376-19fb2024ec77","ios":"levelo://app?vid=a490f13d-ff40-47b1-9376-19fb2024ec77"},"vehicle_type_id":"4","last_reported":1741158595,"current_range_meters":14400,"station_id":"ce4bh292rcd13ifvqdg0","pricing_plan_id":"cebpf4jnsgd1na2vs0mg"},{"bike_id":"ee59b3a3-0f87-489f-91b5-15c91569f1b2","system_id":"levelo_inurba_marseille","lat":43.24161,"lon":5.36392,"is_reserved":false,"is_disabled":false,"rental_uris":{"android":"levelo://app?vid=ee59b3a3-0f87-489f-91b5-15c91569f1b2","ios":"levelo://app?vid=ee59b3a3-0f87-489f-91b5-15c91569f1b2"},"vehicle_type_id":"4","last_reported":1741158595,"current_range_meters":14400,"station_id":"cpo36qri1sfpv3e86is0","pricing_plan_id":"cebpf4jnsgd1na2vs0mg"},{"bike_id":"7e141603-5076-446b-a90d-8e44d6246006","system_id":"levelo_inurba_marseille","lat":43.31227,"lon":5.36861,"is_reserved":false,"is_disabled":false,"rental_uris":{"android":"levelo://app?vid=7e141603-5076-446b-a90d-8e44d6246006","ios":"levelo://app?vid=7e141603-5076-446b-a90d-8e44d6246006"},"vehicle_type_id":"4","last_reported":1741158595,"current_range_meters":14400,"station_id":"ce4bgl92rcd13ifvqbq0","pricing_plan_id":"cebpf4jnsgd1na2vs0mg"},{"bike_id":"c3a15966-d6db-4a67-a176-541b2fe5f082","system_id":"levelo_inurba_marseille","lat":43.32358,"lon":5.38897,"is_reserved":false,"is_disabled":false,"rental_uris":{"android":"levelo://app?vid=c3a15966-d6db-4a67-a176-541b2fe5f082","ios":"levelo://app?vid=c3a15966-d6db-4a67-a176-541b2fe5f082"},"vehicle_type_id":"4","last_reported":1741158595,"current_range_meters":14400,"station_id":"ce4bhqp2rcd13ifvqhog","pricing_plan_id":"cebpf4jnsgd1na2vs0mg"},{"bike_id":"36ea3d78-c071-48b9-b2be-3275c7728da2","system_id":"levelo_inurba_marseille","lat":43.26955,"lon":5.38632,"is_reserved":false,"is_disabled":false,"rental_uris":{"android":"levelo://app?vid=36ea3d78-c071-48b9-b2be-3275c7728da2","ios":"levelo://app?vid=36ea3d78-c071-48b9-b2be-3275c7728da2"},"vehicle_type_id":"4","last_reported":1741158595,"current_range_meters":14400,"station_id":"ce4bhh92rcd13ifvqfh0","pricing_plan_id":"cebpf4jnsgd1na2vs0mg"},{"bike_id":"8479d310-69c3-461f-820a-fc2b327af55a","system_id":"levelo_inurba_marseille","lat":43.25864,"lon":5.39909,"is_reserved":false,"is_disabled":false,"rental_uris":{"android":"levelo://app?vid=8479d310-69c3-461f-820a-fc2b327af55a","ios":"levelo://app?vid=8479d310-69c3-461f-820a-fc2b327af55a"},"vehicle_type_id":"4","last_reported":1741158595,"current_range_meters":14800,"station_id":"ce4bhl92rcd13ifvqghg","pricing_plan_id":"cebpf4jnsgd1na2vs0mg"},{"bike_id":"6be2d959-3029-43e5-9ca2-a3dfb9eee01b","system_id":"levelo_inurba_marseille","lat":43.308,"lon":5.4352,"is_reserved":false,"is_disabled":false,"rental_uris":{"android":"levelo://app?vid=6be2d959-3029-43e5-9ca2-a3dfb9eee01b","ios":"levelo://app?vid=6be2d959-3029-43e5-9ca2-a3dfb9eee01b"},"vehicle_type_id":"4","last_reported":1741158595,"current_range_meters":14800,"station_id":"ce4bhph2rcd13ifvqheg","pricing_plan_id":"cebpf4jnsgd1na2vs0mg"},{"bike_id":"800727a8-2cae-46cb-a72d-1b53d5019d82","system_id":"levelo_inurba_marseille","lat":43.280311,"lon":5.369459,"is_reserved":false,"is_disabled":false,"rental_uris":{"android":"levelo://app?vid=800727a8-2cae-46cb-a72d-1b53d5019d82","ios":"levelo://app?vid=800727a8-2cae-46cb-a72d-1b53d5019d82"},"vehicle_type_id":"4","last_reported":1741158595,"current_range_meters":14800,"station_id":"ce4bha12rcd13ifvqef0","pricing_plan_id":"cebpf4jnsgd1na2vs0mg"},{"bike_id":"95a7f661-84a3-41c8-b322-371de73d76ec","system_id":"levelo_inurba_marseille","lat":43.25941,"lon":5.40905,"is_reserved":false,"is_disabled":false,"rental_uris":{"android":"levelo://app?vid=95a7f661-84a3-41c8-b322-371de73d76ec","ios":"levelo://app?vid=95a7f661-84a3-41c8-b322-371de73d76ec"},"vehicle_type_id":"4","last_reported":1741158595,"current_range_meters":14800,"station_id":"ce4bhm92rcd13ifvqglg","pricing_plan_id":"cebpf4jnsgd1na2vs0mg"},{"bike_id":"0faeee3c-6c6f-4cf8-8288-4de383e5b254","system_id":"levelo_inurba_marseille","lat":43.31157,"lon":5.40349,"is_reserved":false,"is_disabled":false,"rental_uris":{"android":"levelo://app?vid=0faeee3c-6c6f-4cf8-8288-4de383e5b254","ios":"levelo://app?vid=0faeee3c-6c6f-4cf8-8288-4de383e5b254"},"vehicle_type_id":"4","last_reported":1741158595,"current_range_meters":15200,"station_id":"","pricing_plan_id":"cebpf4jnsgd1na2vs0mg"},{"bike_id":"37daac2b-b440-4805-b0a3-514ded11a5e0","system_id":"levelo_inurba_marseille","lat":43.30521,"lon":5.3671,"is_reserved":false,"is_disabled":false,"rental_uris":{"android":"levelo://app?vid=37daac2b-b440-4805-b0a3-514ded11a5e0","ios":"levelo://app?vid=37daac2b-b440-4805-b0a3-514ded11a5e0"},"vehicle_type_id":"4","last_reported":1741158595,"current_range_meters":15200,"station_id":"ce4bgrp2rcd13ifvqc9g","pricing_plan_id":"cebpf4jnsgd1na2vs0mg"},{"bike_id":"bd63c991-b79f-4d03-bfb2-9894a8fc616e","system_id":"levelo_inurba_marseille","lat":43.30442,"lon":5.37912,"is_reserved":false,"is_disabled":false,"rental_uris":{"android":"levelo://app?vid=bd63c991-b79f-4d03-bfb2-9894a8fc616e","ios":"levelo://app?vid=bd63c991-b79f-4d03-bfb2-9894a8fc616e"},"vehicle_type_id":"4","last_reported":1741158595,"current_range_meters":15200,"station_id":"ce4bgup2rcd13ifvqcn0","pricing_plan_id":"cebpf4jnsgd1na2vs0mg"},{"bike_id":"2f20fe16-3dfa-4f85-9620-feefc22192a9","system_id":"levelo_inurba_marseille","lat":43.24798,"lon":5.37452,"is_reserved":false,"is_disabled":false,"rental_uris":{"android":"levelo://app?vid=2f20fe16-3dfa-4f85-9620-feefc22192a9","ios":"levelo://app?vid=2f20fe16-3dfa-4f85-9620-feefc22192a9"},"vehicle_type_id":"4","last_reported":1741158595,"current_range_meters":16000,"station_id":"ce4bhgh2rcd13ifvqfb0","pricing_plan_id":"cebpf4jnsgd1na2vs0mg"},{"bike_id":"adb8c1f5-13dc-48d4-a9be-b9d3a66bbed8","system_id":"levelo_inurba_marseille","lat":43.29599,"lon":5.38118,"is_reserved":false,"is_disabled":false,"rental_uris":{"android":"levelo://app?vid=adb8c1f5-13dc-48d4-a9be-b9d3a66bbed8","ios":"levelo://app?vid=adb8c1f5-13dc-48d4-a9be-b9d3a66bbed8"},"vehicle_type_id":"4","last_reported":1741158595,"current_range_meters":16000,"station_id":"ce4bgl12rcd13ifvqbo0","pricing_plan_id":"cebpf4jnsgd1na2vs0mg"},{"bike_id":"aa2df70d-6382-46d7-b4f4-57998ee8a055","system_id":"levelo_inurba_marseille","lat":43.23198,"lon":5.39986,"is_reserved":false,"is_disabled":false,"rental_uris":{"android":"levelo://app?vid=aa2df70d-6382-46d7-b4f4-57998ee8a055","ios":"levelo://app?vid=aa2df70d-6382-46d7-b4f4-57998ee8a055"},"vehicle_type_id":"4","last_reported":1741158595,"current_range_meters":16000,"station_id":"ce4bhn12rcd13ifvqgqg","pricing_plan_id":"cebpf4jnsgd1na2vs0mg"},{"bike_id":"ddc4e932-3700-46b0-a34f-49ccac99feb1","system_id":"levelo_inurba_marseille","lat":43.28399,"lon":5.37534,"is_reserved":false,"is_disabled":false,"rental_uris":{"android":"levelo://app?vid=ddc4e932-3700-46b0-a34f-49ccac99feb1","ios":"levelo://app?vid=ddc4e932-3700-46b0-a34f-49ccac99feb1"},"vehicle_type_id":"4","last_reported":1741158595,"current_range_meters":16000,"station_id":"ce4bh412rcd13ifvqds0","pricing_plan_id":"cebpf4jnsgd1na2vs0mg"},{"bike_id":"dbc958c9-b359-4140-80d7-1f164ada71f5","system_id":"levelo_inurba_marseille","lat":43.31517,"lon":5.37285,"is_reserved":false,"is_disabled":true,"rental_uris":{"android":"levelo://app?vid=dbc958c9-b359-4140-80d7-1f164ada71f5","ios":"levelo://app?vid=dbc958c9-b359-4140-80d7-1f164ada71f5"},"vehicle_type_id":"4","last_reported":1741158595,"current_range_meters":16000,"station_id":"ce4bgt12rcd13ifvqcd0","pricing_plan_id":"cebpf4jnsgd1na2vs0mg"},{"bike_id":"61490806-c3d1-49d8-affc-d46d1f9d07b0","system_id":"levelo_inurba_marseille","lat":43.31337,"lon":5.36706,"is_reserved":false,"is_disabled":false,"rental_uris":{"android":"levelo://app?vid=61490806-c3d1-49d8-affc-d46d1f9d07b0","ios":"levelo://app?vid=61490806-c3d1-49d8-affc-d46d1f9d07b0"},"vehicle_type_id":"4","last_reported":1741158595,"current_range_meters":16000,"station_id":"ce4bgr92rcd13ifvqc6g","pricing_plan_id":"cebpf4jnsgd1na2vs0mg"},{"bike_id":"7a93d7dc-7b6c-4124-b6b3-af4f07c904b1","system_id":"levelo_inurba_marseille","lat":43.30577,"lon":5.39359,"is_reserved":false,"is_disabled":false,"rental_uris":{"android":"levelo://app?vid=7a93d7dc-7b6c-4124-b6b3-af4f07c904b1","ios":"levelo://app?vid=7a93d7dc-7b6c-4124-b6b3-af4f07c904b1"},"vehicle_type_id":"4","last_reported":1741158595,"current_range_meters":16400,"station_id":"ce4bh0p2rcd13ifvqd80","pricing_plan_id":"cebpf4jnsgd1na2vs0mg"},{"bike_id":"0b3cb245-c1ab-4265-9e03-36f6b9bfa685","system_id":"levelo_inurba_marseille","lat":43.23064,"lon":5.354974,"is_reserved":false,"is_disabled":false,"rental_uris":{"android":"levelo://app?vid=0b3cb245-c1ab-4265-9e03-36f6b9bfa685","ios":"levelo://app?vid=0b3cb245-c1ab-4265-9e03-36f6b9bfa685"},"vehicle_type_id":"4","last_reported":1741158595,"current_range_meters":16400,"station_id":"cpo3342slgdg3j2ifvpg","pricing_plan_id":"cebpf4jnsgd1na2vs0mg"},{"bike_id":"3159f143-6727-415f-9917-79c1d639d2e9","system_id":"levelo_inurba_marseille","lat":43.28352,"lon":5.38103,"is_reserved":false,"is_disabled":false,"rental_uris":{"android":"levelo://app?vid=3159f143-6727-415f-9917-79c1d639d2e9","ios":"levelo://app?vid=3159f143-6727-415f-9917-79c1d639d2e9"},"vehicle_type_id":"4","last_reported":1741158595,"current_range_meters":16400,"station_id":"ce4bh412rcd13ifvqdr0","pricing_plan_id":"cebpf4jnsgd1na2vs0mg"},{"bike_id":"e01955a4-91d8-4de2-9c8d-bbb965be7dd3","system_id":"levelo_inurba_marseille","lat":43.297899,"lon":5.393552,"is_reserved":false,"is_disabled":true,"rental_uris":{"android":"levelo://app?vid=e01955a4-91d8-4de2-9c8d-bbb965be7dd3","ios":"levelo://app?vid=e01955a4-91d8-4de2-9c8d-bbb965be7dd3"},"vehicle_type_id":"4","last_reported":1741158595,"current_range_meters":16400,"station_id":"chh1huq6cuj3fo74tm60","pricing_plan_id":"cebpf4jnsgd1na2vs0mg"},{"bike_id":"ba60ddd0-090a-4921-a3fa-f07dc23829f3","system_id":"levelo_inurba_marseille","lat":43.27987,"lon":5.41667,"is_reserved":false,"is_disabled":false,"rental_uris":{"android":"levelo://app?vid=ba60ddd0-090a-4921-a3fa-f07dc23829f3","ios":"levelo://app?vid=ba60ddd0-090a-4921-a3fa-f07dc23829f3"},"vehicle_type_id":"4","last_reported":1741158595,"current_range_meters":16400,"station_id":"ce4bho12rcd13ifvqh1g","pricing_plan_id":"cebpf4jnsgd1na2vs0mg"},{"bike_id":"9cdc0688-b476-4e47-b0c2-48124c4a767c","system_id":"levelo_inurba_marseille","lat":43.25,"lon":5.38939,"is_reserved":false,"is_disabled":false,"rental_uris":{"android":"levelo://app?vid=9cdc0688-b476-4e47-b0c2-48124c4a767c","ios":"levelo://app?vid=9cdc0688-b476-4e47-b0c2-48124c4a767c"},"vehicle_type_id":"4","last_reported":1741158595,"current_range_meters":16400,"station_id":"ce4bhgp2rcd13ifvqfd0","pricing_plan_id":"cebpf4jnsgd1na2vs0mg"},{"bike_id":"c40242ef-c243-471a-a3f5-e67b334e86dc","system_id":"levelo_inurba_marseille","lat":43.27495,"lon":5.42456,"is_reserved":false,"is_disabled":false,"rental_uris":{"android":"levelo://app?vid=c40242ef-c243-471a-a3f5-e67b334e86dc","ios":"levelo://app?vid=c40242ef-c243-471a-a3f5-e67b334e86dc"},"vehicle_type_id":"4","last_reported":1741158595,"current_range_meters":16800,"station_id":"ce4bhn92rcd13ifvqgrg","pricing_plan_id":"cebpf4jnsgd1na2vs0mg"},{"bike_id":"1d739e01-c903-4e05-bebc-44e7e3296204","system_id":"levelo_inurba_marseille","lat":43.29242,"lon":5.38092,"is_reserved":false,"is_disabled":false,"rental_uris":{"android":"levelo://app?vid=1d739e01-c903-4e05-bebc-44e7e3296204","ios":"levelo://app?vid=1d739e01-c903-4e05-bebc-44e7e3296204"},"vehicle_type_id":"4","last_reported":1741158595,"current_range_meters":16800,"station_id":"ce4bgjh2rcd13ifvqbf0","pricing_plan_id":"cebpf4jnsgd1na2vs0mg"},{"bike_id":"0688c598-89fc-453d-a05f-bf32d9a0752f","system_id":"levelo_inurba_marseille","lat":43.2902,"lon":5.38651,"is_reserved":false,"is_disabled":false,"rental_uris":{"android":"levelo://app?vid=0688c598-89fc-453d-a05f-bf32d9a0752f","ios":"levelo://app?vid=0688c598-89fc-453d-a05f-bf32d9a0752f"},"vehicle_type_id":"4","last_reported":1741158595,"current_range_meters":16800,"station_id":"ce4bh4p2rcd13ifvqe0g","pricing_plan_id":"cebpf4jnsgd1na2vs0mg"},{"bike_id":"1df93f6d-c72f-4453-89b7-17a4db3cd88e","system_id":"levelo_inurba_marseille","lat":43.24078,"lon":5.37749,"is_reserved":false,"is_disabled":false,"rental_uris":{"android":"levelo://app?vid=1df93f6d-c72f-4453-89b7-17a4db3cd88e","ios":"levelo://app?vid=1df93f6d-c72f-4453-89b7-17a4db3cd88e"},"vehicle_type_id":"4","last_reported":1741158595,"current_range_meters":16800,"station_id":"ce4bhnp2rcd13ifvqgvg","pricing_plan_id":"cebpf4jnsgd1na2vs0mg"},{"bike_id":"497f36e6-1b4d-4194-810d-d7a7f9228aa4","system_id":"levelo_inurba_marseille","lat":43.27172,"lon":5.41007,"is_reserved":false,"is_disabled":false,"rental_uris":{"android":"levelo://app?vid=497f36e6-1b4d-4194-810d-d7a7f9228aa4","ios":"levelo://app?vid=497f36e6-1b4d-4194-810d-d7a7f9228aa4"},"vehicle_type_id":"4","last_reported":1741158595,"current_range_meters":16800,"station_id":"ce4bhl12rcd13ifvqgf0","pricing_plan_id":"cebpf4jnsgd1na2vs0mg"},{"bike_id":"0998abad-2e95-4112-a39f-b55007d9cff8","system_id":"levelo_inurba_marseille","lat":43.286217,"lon":5.351063,"is_reserved":false,"is_disabled":false,"rental_uris":{"android":"levelo://app?vid=0998abad-2e95-4112-a39f-b55007d9cff8","ios":"levelo://app?vid=0998abad-2e95-4112-a39f-b55007d9cff8"},"vehicle_type_id":"4","last_reported":1741158595,"current_range_meters":16800,"station_id":"ce4bhch2rcd13ifvqeug","pricing_plan_id":"cebpf4jnsgd1na2vs0mg"},{"bike_id":"7f1905bf-da4d-4f13-af14-c5d46804e585","system_id":"levelo_inurba_marseille","lat":43.23184,"lon":5.35568,"is_reserved":false,"is_disabled":false,"rental_uris":{"android":"levelo://app?vid=7f1905bf-da4d-4f13-af14-c5d46804e585","ios":"levelo://app?vid=7f1905bf-da4d-4f13-af14-c5d46804e585"},"vehicle_type_id":"4","last_reported":1741158595,"current_range_meters":16800,"station_id":"ce4bhu92rcd13ifvqi70","pricing_plan_id":"cebpf4jnsgd1na2vs0mg"},{"bike_id":"cea81acd-f239-4e67-9d99-9015e24d802b","system_id":"levelo_inurba_marseille","lat":43.26951,"lon":5.38628,"is_reserved":false,"is_disabled":false,"rental_uris":{"android":"levelo://app?vid=cea81acd-f239-4e67-9d99-9015e24d802b","ios":"levelo://app?vid=cea81acd-f239-4e67-9d99-9015e24d802b"},"vehicle_type_id":"4","last_reported":1741158595,"current_range_meters":16800,"station_id":"ce4bhh92rcd13ifvqfh0","pricing_plan_id":"cebpf4jnsgd1na2vs0mg"},{"bike_id":"f7766229-c313-48ea-9bd7-71ba8b0c105b","system_id":"levelo_inurba_marseille","lat":43.30155,"lon":5.38078,"is_reserved":false,"is_disabled":false,"rental_uris":{"android":"levelo://app?vid=f7766229-c313-48ea-9bd7-71ba8b0c105b","ios":"levelo://app?vid=f7766229-c313-48ea-9bd7-71ba8b0c105b"},"vehicle_type_id":"4","last_reported":1741158595,"current_range_meters":17200,"station_id":"ce4bgjp2rcd13ifvqbh0","pricing_plan_id":"cebpf4jnsgd1na2vs0mg"},{"bike_id":"e5d41598-0b8c-4934-983a-bc2927772685","system_id":"levelo_inurba_marseille","lat":43.30951,"lon":5.39037,"is_reserved":false,"is_disabled":false,"rental_uris":{"android":"levelo://app?vid=e5d41598-0b8c-4934-983a-bc2927772685","ios":"levelo://app?vid=e5d41598-0b8c-4934-983a-bc2927772685"},"vehicle_type_id":"4","last_reported":1741158595,"current_range_meters":17200,"station_id":"ce4bgup2rcd13ifvqco0","pricing_plan_id":"cebpf4jnsgd1na2vs0mg"},{"bike_id":"37d49625-a41a-424f-867d-8323fa9ce7c1","system_id":"levelo_inurba_marseille","lat":43.28409,"lon":5.37527,"is_reserved":false,"is_disabled":false,"rental_uris":{"android":"levelo://app?vid=37d49625-a41a-424f-867d-8323fa9ce7c1","ios":"levelo://app?vid=37d49625-a41a-424f-867d-8323fa9ce7c1"},"vehicle_type_id":"4","last_reported":1741158595,"current_range_meters":17200,"station_id":"ce4bh412rcd13ifvqds0","pricing_plan_id":"cebpf4jnsgd1na2vs0mg"},{"bike_id":"5981e5fd-8ca3-4e17-921d-10437ee17d35","system_id":"levelo_inurba_marseille","lat":43.24166,"lon":5.36401,"is_reserved":false,"is_disabled":false,"rental_uris":{"android":"levelo://app?vid=5981e5fd-8ca3-4e17-921d-10437ee17d35","ios":"levelo://app?vid=5981e5fd-8ca3-4e17-921d-10437ee17d35"},"vehicle_type_id":"4","last_reported":1741158595,"current_range_meters":17200,"station_id":"cpo36qri1sfpv3e86is0","pricing_plan_id":"cebpf4jnsgd1na2vs0mg"},{"bike_id":"c0c9898b-544e-487f-b48c-d9691751b894","system_id":"levelo_inurba_marseille","lat":43.28599,"lon":5.35116,"is_reserved":false,"is_disabled":false,"rental_uris":{"android":"levelo://app?vid=c0c9898b-544e-487f-b48c-d9691751b894","ios":"levelo://app?vid=c0c9898b-544e-487f-b48c-d9691751b894"},"vehicle_type_id":"4","last_reported":1741158595,"current_range_meters":17200,"station_id":"ce4bhch2rcd13ifvqeug","pricing_plan_id":"cebpf4jnsgd1na2vs0mg"},{"bike_id":"2d32c39c-b5a1-45d2-b7cb-d372111c53cd","system_id":"levelo_inurba_marseille","lat":43.30211,"lon":5.39476,"is_reserved":false,"is_disabled":false,"rental_uris":{"android":"levelo://app?vid=2d32c39c-b5a1-45d2-b7cb-d372111c53cd","ios":"levelo://app?vid=2d32c39c-b5a1-45d2-b7cb-d372111c53cd"},"vehicle_type_id":"4","last_reported":1741158595,"current_range_meters":17200,"station_id":"ce4bh0p2rcd13ifvqd70","pricing_plan_id":"cebpf4jnsgd1na2vs0mg"},{"bike_id":"4a371f4b-829f-4d5b-a81f-9583acfbbde9","system_id":"levelo_inurba_marseille","lat":43.31156,"lon":5.38736,"is_reserved":false,"is_disabled":false,"rental_uris":{"android":"levelo://app?vid=4a371f4b-829f-4d5b-a81f-9583acfbbde9","ios":"levelo://app?vid=4a371f4b-829f-4d5b-a81f-9583acfbbde9"},"vehicle_type_id":"4","last_reported":1741158595,"current_range_meters":17200,"station_id":"ce4bgv12rcd13ifvqcp0","pricing_plan_id":"cebpf4jnsgd1na2vs0mg"},{"bike_id":"8a1b397f-69b7-492a-9703-485ef26c5184","system_id":"levelo_inurba_marseille","lat":43.26536,"lon":5.39046,"is_reserved":false,"is_disabled":true,"rental_uris":{"android":"levelo://app?vid=8a1b397f-69b7-492a-9703-485ef26c5184","ios":"levelo://app?vid=8a1b397f-69b7-492a-9703-485ef26c5184"},"vehicle_type_id":"4","last_reported":1741158595,"current_range_meters":17600,"station_id":"ce4bhe12rcd13ifvqf30","pricing_plan_id":"cebpf4jnsgd1na2vs0mg"},{"bike_id":"88a97269-1519-4a4a-93dd-fbb36e8afec0","system_id":"levelo_inurba_marseille","lat":43.23151,"lon":5.43721,"is_reserved":false,"is_disabled":false,"rental_uris":{"android":"levelo://app?vid=88a97269-1519-4a4a-93dd-fbb36e8afec0","ios":"levelo://app?vid=88a97269-1519-4a4a-93dd-fbb36e8afec0"},"vehicle_type_id":"4","last_reported":1741158595,"current_range_meters":17600,"station_id":"ce4bhmp2rcd13ifvqgog","pricing_plan_id":"cebpf4jnsgd1na2vs0mg"},{"bike_id":"20ec722b-0094-47d9-82e0-e3e0a0e9aa2e","system_id":"levelo_inurba_marseille","lat":43.28736,"lon":5.36071,"is_reserved":false,"is_disabled":false,"rental_uris":{"android":"levelo://app?vid=20ec722b-0094-47d9-82e0-e3e0a0e9aa2e","ios":"levelo://app?vid=20ec722b-0094-47d9-82e0-e3e0a0e9aa2e"},"vehicle_type_id":"4","last_reported":1741158595,"current_range_meters":17600,"station_id":"cki0cbj6b192h4jlfktg","pricing_plan_id":"cebpf4jnsgd1na2vs0mg"},{"bike_id":"d566b349-fad5-4c65-ba67-763095a86b52","system_id":"levelo_inurba_marseille","lat":43.284027,"lon":5.375115,"is_reserved":false,"is_disabled":true,"rental_uris":{"android":"levelo://app?vid=d566b349-fad5-4c65-ba67-763095a86b52","ios":"levelo://app?vid=d566b349-fad5-4c65-ba67-763095a86b52"},"vehicle_type_id":"4","last_reported":1741158595,"current_range_meters":17600,"station_id":"ce4bh412rcd13ifvqds0","pricing_plan_id":"cebpf4jnsgd1na2vs0mg"},{"bike_id":"946e4ecf-fad9-4839-b716-fff17ccb476d","system_id":"levelo_inurba_marseille","lat":43.32363,"lon":5.38883,"is_reserved":false,"is_disabled":false,"rental_uris":{"android":"levelo://app?vid=946e4ecf-fad9-4839-b716-fff17ccb476d","ios":"levelo://app?vid=946e4ecf-fad9-4839-b716-fff17ccb476d"},"vehicle_type_id":"4","last_reported":1741158595,"current_range_meters":17600,"station_id":"ce4bhqp2rcd13ifvqhog","pricing_plan_id":"cebpf4jnsgd1na2vs0mg"},{"bike_id":"a1ca49c0-021a-4370-8a3d-0f8d01cde1a2","system_id":"levelo_inurba_marseille","lat":43.28039,"lon":5.36946,"is_reserved":false,"is_disabled":false,"rental_uris":{"android":"levelo://app?vid=a1ca49c0-021a-4370-8a3d-0f8d01cde1a2","ios":"levelo://app?vid=a1ca49c0-021a-4370-8a3d-0f8d01cde1a2"},"vehicle_type_id":"4","last_reported":1741158595,"current_range_meters":17600,"station_id":"ce4bha12rcd13ifvqef0","pricing_plan_id":"cebpf4jnsgd1na2vs0mg"},{"bike_id":"30f48192-7373-4199-b6d6-4dc7df19305a","system_id":"levelo_inurba_marseille","lat":43.27794,"lon":5.4073,"is_reserved":false,"is_disabled":false,"rental_uris":{"android":"levelo://app?vid=30f48192-7373-4199-b6d6-4dc7df19305a","ios":"levelo://app?vid=30f48192-7373-4199-b6d6-4dc7df19305a"},"vehicle_type_id":"4","last_reported":1741158595,"current_range_meters":17600,"station_id":"ce4bhnh2rcd13ifvqgtg","pricing_plan_id":"cebpf4jnsgd1na2vs0mg"},{"bike_id":"764d29c0-acc6-4b3d-94e6-686cf2b240dc","system_id":"levelo_inurba_marseille","lat":43.24155,"lon":5.39731,"is_reserved":false,"is_disabled":false,"rental_uris":{"android":"levelo://app?vid=764d29c0-acc6-4b3d-94e6-686cf2b240dc","ios":"levelo://app?vid=764d29c0-acc6-4b3d-94e6-686cf2b240dc"},"vehicle_type_id":"4","last_reported":1741158595,"current_range_meters":17600,"station_id":"ce4bhn12rcd13ifvqgpg","pricing_plan_id":"cebpf4jnsgd1na2vs0mg"},{"bike_id":"8ec52a3d-265d-4f3d-974d-a670d034e5b6","system_id":"levelo_inurba_marseille","lat":43.31216,"lon":5.36868,"is_reserved":false,"is_disabled":false,"rental_uris":{"android":"levelo://app?vid=8ec52a3d-265d-4f3d-974d-a670d034e5b6","ios":"levelo://app?vid=8ec52a3d-265d-4f3d-974d-a670d034e5b6"},"vehicle_type_id":"4","last_reported":1741158595,"current_range_meters":17600,"station_id":"ce4bgl92rcd13ifvqbq0","pricing_plan_id":"cebpf4jnsgd1na2vs0mg"},{"bike_id":"d0dec762-10d8-42d2-a8e9-af304ae2a30c","system_id":"levelo_inurba_marseille","lat":43.268486,"lon":5.402911,"is_reserved":false,"is_disabled":false,"rental_uris":{"android":"levelo://app?vid=d0dec762-10d8-42d2-a8e9-af304ae2a30c","ios":"levelo://app?vid=d0dec762-10d8-42d2-a8e9-af304ae2a30c"},"vehicle_type_id":"4","last_reported":1741158595,"current_range_meters":17600,"station_id":"ce4bhkp2rcd13ifvqgd0","pricing_plan_id":"cebpf4jnsgd1na2vs0mg"},