{"last_updated":1735715345,"ttl":60,"version":"2.2","data":{"bikes":[{"bike_id":"2f56c5dc-0755-4629-adf9-4349a3b8ebb1","system_id":"levelo_inurba_marseille","lat":43.281546,"lon":5.426412,"is_reserved":false,"is_disabled":false,"rental_uris":{"android":"levelo://app?vid=2f56c5dc-0755-4629-adf9-4349a3b8ebb1","ios":"levelo://app?vid=2f56c5dc-0755-4629-adf9-4349a3b8ebb1"},"vehicle_type_id":"4","last_reported":1735715346,"current_range_meters":24000,"station_id":"ce4bhnh2rcd13ifvqgug","pricing_plan_id":"cebpf4jnsgd1na2vs0mg"},{"bike_id":"1738d3f2-d086-440d-b66d-032e59c23b31","system_id":"levelo_inurba_marseille","lat":43.31758,"lon":5.39014,"is_reserved":false,"is_disabled":false,"rental_uris":{"android":"levelo://app?vid=1738d3f2-d086-440d-b66d-032e59c23b31","ios":"levelo://app?vid=1738d3f2-d086-440d-b66d-032e59c23b31"},"vehicle_type_id":"4","last_reported":1735715346,"current_range_meters":24000,"station_id":"ce4bhqp2rcd13ifvqhng","pricing_plan_id":"cebpf4jnsgd1na2vs0mg"},{"bike_id":"eebc4850-6ef9-46e6-b48b-57b8c062b998","system_id":"levelo_inurba_marseille","lat":43.28701,"lon":5.37931,"is_reserved":false,"is_disabled":true,"rental_uris":{"android":"levelo://app?vid=eebc4850-6ef9-46e6-b48b-57b8c062b998","ios":"levelo://app?vid=eebc4850-6ef9-46e6-b48b-57b8c062b998"},"vehicle_type_id":"4","last_reported":1735715346,"current_range_meters":18800,"station_id":"ce4bh9p2rcd13ifvqec0","pricing_plan_id":"cebpf4jnsgd1na2vs0mg"},{"bike_id":"d06b5da1-2f20-4593-9d79-0cd21b76f9bd","system_id":"levelo_inurba_marseille","lat":43.27837,"lon":5.39206,"is_reserved":false,"is_disabled":false,"rental_uris":{"android":"levelo://app?vid=d06b5da1-2f20-4593-9d79-0cd21b76f9bd","ios":"levelo://app?vid=d06b5da1-2f20-4593-9d79-0cd21b76f9bd"},"vehicle_type_id":"4","last_reported":1735715346,"current_range_meters":38800,"station_id":"ce4bhjp2rcd13ifvqga0","pricing_plan_id":"cebpf4jnsgd1na2vs0mg"},{"bike_id":"30675ccc-9ef1-40b1-963e-228cee2b4741","system_id":"levelo_inurba_marseille","lat":43.27946,"lon":5.40951,"is_reserved":false,"is_disabled":true,"rental_uris":{"android":"levelo://app?vid=30675ccc-9ef1-40b1-963e-228cee2b4741","ios":"levelo://app?vid=30675ccc-9ef1-40b1-963e-228cee2b4741"},"vehicle_type_id":"4","last_reported":1735715346,"current_range_meters":22000,"station_id":"","pricing_plan_id":"cebpf4jnsgd1na2vs0mg"},{"bike_id":"071b3015-16c7-4ddd-bbee-f44a92d6240d","system_id":"levelo_inurba_marseille","lat":43.30889,"lon":5.39634,"is_reserved":false,"is_disabled":false,"rental_uris":{"android":"levelo://app?vid=071b3015-16c7-4ddd-bbee-f44a92d6240d","ios":"levelo://app?vid=071b3015-16c7-4ddd-bbee-f44a92d6240d"},"vehicle_type_id":"4","last_reported":1735715346,"current_range_meters":4800,"station_id":"ce4bh012rcd13ifvqcv0","pricing_plan_id":"cebpf4jnsgd1na2vs0mg"},{"bike_id":"919d90ff-217d-42a9-bd04-cc1f8e2a42b8","system_id":"levelo_inurba_marseille","lat":43.325217,"lon":5.414821,"is_reserved":false,"is_disabled":false,"rental_uris":{"android":"levelo://app?vid=919d90ff-217d-42a9-bd04-cc1f8e2a42b8","ios":"levelo://app?vid=919d90ff-217d-42a9-bd04-cc1f8e2a42b8"},"vehicle_type_id":"4","last_reported":1735715346,"current_range_meters":18000,"station_id":"ce4bhq12rcd13ifvqhhg","pricing_plan_id":"cebpf4jnsgd1na2vs0mg"},{"bike_id":"3991aac2-ec7f-43c8-801f-23e11845f2d6","system_id":"levelo_inurba_marseille","lat":43.281543,"lon":5.426398,"is_reserved":false,"is_disabled":false,"rental_uris":{"android":"levelo://app?vid=3991aac2-ec7f-43c8-801f-23e11845f2d6","ios":"levelo://app?vid=3991aac2-ec7f-43c8-801f-23e11845f2d6"},"vehicle_type_id":"4","last_reported":1735715346,"current_range_meters":38800,"station_id":"ce4bhnh2rcd13ifvqgug","pricing_plan_id":"cebpf4jnsgd1na2vs0mg"},{"bike_id":"412465e4-bc53-4332-80a4-5c0b3a5dd3c3","system_id":"levelo_inurba_marseille","lat":43.2442,"lon":5.37029,"is_reserved":false,"is_disabled":true,"rental_uris":{"android":"levelo://app?vid=412465e4-bc53-4332-80a4-5c0b3a5dd3c3","ios":"levelo://app?vid=412465e4-bc53-4332-80a4-5c0b3a5dd3c3"},"vehicle_type_id":"4","last_reported":1735715346,"current_range_meters":10000,"station_id":"","pricing_plan_id":"cebpf4jnsgd1na2vs0mg"},{"bike_id":"a84c903a-16f0-44ed-becd-c6849674ff70","system_id":"levelo_inurba_marseille","lat":43.229279,"lon":5.353761,"is_reserved":false,"is_disabled":false,"rental_uris":{"android":"levelo://app?vid=a84c903a-16f0-44ed-becd-c6849674ff70","ios":"levelo://app?vid=a84c903a-16f0-44ed-becd-c6849674ff70"},"vehicle_type_id":"4","last_reported":1735715346,"current_range_meters":6400,"station_id":"cpo3532slgdg3j2ikp40","pricing_plan_id":"cebpf4jnsgd1na2vs0mg"},{"bike_id":"0281d372-9299-4341-9108-4b4ae9dbd61a","system_id":"levelo_inurba_marseille","lat":43.27831,"lon":5.39191,"is_reserved":false,"is_disabled":false,"rental_uris":{"android":"levelo://app?vid=0281d372-9299-4341-9108-4b4ae9dbd61a","ios":"levelo://app?vid=0281d372-9299-4341-9108-4b4ae9dbd61a"},"vehicle_type_id":"4","last_reported":1735715346,"current_range_meters":37600,"station_id":"ce4bhjp2rcd13ifvqga0","pricing_plan_id":"cebpf4jnsgd1na2vs0mg"},{"bike_id":"73d37c64-b56a-41a1-b46d-f0fc99e1d21a","system_id":"levelo_inurba_marseille","lat":43.29294,"lon":5.40128,"is_reserved":false,"is_disabled":false,"rental_uris":{"android":"levelo://app?vid=73d37c64-b56a-41a1-b46d-f0fc99e1d21a","ios":"levelo://app?vid=73d37c64-b56a-41a1-b46d-f0fc99e1d21a"},"vehicle_type_id":"4","last_reported":1735715346,"current_range_meters":8000,"station_id":"ce4bh312rcd13ifvqdk0","pricing_plan_id":"cebpf4jnsgd1na2vs0mg"},{"bike_id":"97176dc8-ab2c-438e-898d-b4e537439946","system_id":"levelo_inurba_marseille","lat":43.30412,"lon":5.41299,"is_reserved":false,"is_disabled":false,"rental_uris":{"android":"levelo://app?vid=97176dc8-ab2c-438e-898d-b4e537439946","ios":"levelo://app?vid=97176dc8-ab2c-438e-898d-b4e537439946"},"vehicle_type_id":"4","last_reported":1735715346,"current_range_meters":24800,"station_id":"ce4bhop2rcd13ifvqh8g","pricing_plan_id":"cebpf4jnsgd1na2vs0mg"},{"bike_id":"8ad09b60-3a79-4fc1-9f8d-63dc687108f3","system_id":"levelo_inurba_marseille","lat":43.337444,"lon":5.374475,"is_reserved":false,"is_disabled":false,"rental_uris":{"android":"levelo://app?vid=8ad09b60-3a79-4fc1-9f8d-63dc687108f3","ios":"levelo://app?vid=8ad09b60-3a79-4fc1-9f8d-63dc687108f3"},"vehicle_type_id":"4","last_reported":1735715346,"current_range_meters":36000,"station_id":"","pricing_plan_id":"cebpf4jnsgd1na2vs0mg"},{"bike_id":"aaf2847c-1c33-449a-8a3d-243e799ec2b1","system_id":"levelo_inurba_marseille","lat":43.23945,"lon":5.36661,"is_reserved":false,"is_disabled":false,"rental_uris":{"android":"levelo://app?vid=aaf2847c-1c33-449a-8a3d-243e799ec2b1","ios":"levelo://app?vid=aaf2847c-1c33-449a-8a3d-243e799ec2b1"},"vehicle_type_id":"4","last_reported":1735715346,"current_range_meters":38400,"station_id":"ce4bhi12rcd13ifvqfp0","pricing_plan_id":"cebpf4jnsgd1na2vs0mg"},{"bike_id":"68b69d72-ad09-41dc-8ff7-dcced0cf6d09","system_id":"levelo_inurba_marseille","lat":43.274245,"lon":5.393976,"is_reserved":false,"is_disabled":false,"rental_uris":{"android":"levelo://app?vid=68b69d72-ad09-41dc-8ff7-dcced0cf6d09","ios":"levelo://app?vid=68b69d72-ad09-41dc-8ff7-dcced0cf6d09"},"vehicle_type_id":"4","last_reported":1735715346,"current_range_meters":31200,"station_id":"ce4bhdp2rcd13ifvqf20","pricing_plan_id":"cebpf4jnsgd1na2vs0mg"},{"bike_id":"5430a545-a0f1-45ad-a500-b4193006fdcf","system_id":"levelo_inurba_marseille","lat":43.23203,"lon":5.35565,"is_reserved":false,"is_disabled":false,"rental_uris":{"android":"levelo://app?vid=5430a545-a0f1-45ad-a500-b4193006fdcf","ios":"levelo://app?vid=5430a545-a0f1-45ad-a500-b4193006fdcf"},"vehicle_type_id":"4","last_reported":1735715346,"current_range_meters":27200,"station_id":"ce4bhu92rcd13ifvqi70","pricing_plan_id":"cebpf4jnsgd1na2vs0mg"},{"bike_id":"59f96b49-77b3-43aa-8b90-acc517685175","system_id":"levelo_inurba_marseille","lat":43.29878,"lon":5.38924,"is_reserved":false,"is_disabled":true,"rental_uris":{"android":"levelo://app?vid=59f96b49-77b3-43aa-8b90-acc517685175","ios":"levelo://app?vid=59f96b49-77b3-43aa-8b90-acc517685175"},"vehicle_type_id":"4","last_reported":1735715346,"current_range_meters":800,"station_id":"ce4bh392rcd13ifvqdl0","pricing_plan_id":"cebpf4jnsgd1na2vs0mg"},{"bike_id":"aa4fcdb8-7919-4e96-9fad-bb7045a210c7","system_id":"levelo_inurba_marseille","lat":43.30894,"lon":5.39622,"is_reserved":false,"is_disabled":false,"rental_uris":{"android":"levelo://app?vid=aa4fcdb8-7919-4e96-9fad-bb7045a210c7","ios":"levelo://app?vid=aa4fcdb8-7919-4e96-9fad-bb7045a210c7"},"vehicle_type_id":"4","last_reported":1735715346,"current_range_meters":35200,"station_id":"ce4bh012rcd13ifvqcv0","pricing_plan_id":"cebpf4jnsgd1na2vs0mg"},{"bike_id":"ebb56956-e2e2-4f51-8f7a-80ccc26c078c","system_id":"levelo_inurba_marseille","lat":43.28161,"lon":5.42657,"is_reserved":false,"is_disabled":false,"rental_uris":{"android":"levelo://app?vid=ebb56956-e2e2-4f51-8f7a-80ccc26c078c","ios":"levelo://app?vid=ebb56956-e2e2-4f51-8f7a-80ccc26c078c"},"vehicle_type_id":"4","last_reported":1735715346,"current_range_meters":38800,"station_id":"ce4bhnh2rcd13ifvqgug","pricing_plan_id":"cebpf4jnsgd1na2vs0mg"},{"bike_id":"e97feb8d-305b-476f-a18a-facbd48b51f1","system_id":"levelo_inurba_marseille","lat":43.33606,"lon":5.41032,"is_reserved":false,"is_disabled":false,"rental_uris":{"android":"levelo://app?vid=e97feb8d-305b-476f-a18a-facbd48b51f1","ios":"levelo://app?vid=e97feb8d-305b-476f-a18a-facbd48b51f1"},"vehicle_type_id":"4","last_reported":1735715346,"current_range_meters":30800,"station_id":"ce4bhqh2rcd13ifvqhmg","pricing_plan_id":"cebpf4jnsgd1na2vs0mg"},{"bike_id":"7298264b-332b-4cd6-9585-222dbe95a1ae","system_id":"levelo_inurba_marseille","lat":43.28934,"lon":5.36634,"is_reserved":false,"is_disabled":false,"rental_uris":{"android":"levelo://app?vid=7298264b-332b-4cd6-9585-222dbe95a1ae","ios":"levelo://app?vid=7298264b-332b-4cd6-9585-222dbe95a1ae"},"vehicle_type_id":"4","last_reported":1735715346,"current_range_meters":21600,"station_id":"ce4bhap2rcd13ifvqek0","pricing_plan_id":"cebpf4jnsgd1na2vs0mg"},{"bike_id":"130216fe-4347-436d-a9ad-8cc79303e7ce","system_id":"levelo_inurba_marseille","lat":43.23181,"lon":5.39981,"is_reserved":false,"is_disabled":false,"rental_uris":{"android":"levelo://app?vid=130216fe-4347-436d-a9ad-8cc79303e7ce","ios":"levelo://app?vid=130216fe-4347-436d-a9ad-8cc79303e7ce"},"vehicle_type_id":"4","last_reported":1735715346,"current_range_meters":27600,"station_id":"ce4bhn12rcd13ifvqgqg","pricing_plan_id":"cebpf4jnsgd1na2vs0mg"},{"bike_id":"406c72fc-c815-4840-861a-36d7f7f2fd01","system_id":"levelo_inurba_marseille","lat":43.23194,"lon":5.35543,"is_reserved":false,"is_disabled":false,"rental_uris":{"android":"levelo://app?vid=406c72fc-c815-4840-861a-36d7f7f2fd01","ios":"levelo://app?vid=406c72fc-c815-4840-861a-36d7f7f2fd01"},"vehicle_type_id":"4","last_reported":1735715346,"current_range_meters":39200,"station_id":"ce4bhu92rcd13ifvqi70","pricing_plan_id":"cebpf4jnsgd1na2vs0mg"},{"bike_id":"cd63b73b-158a-4ce8-98f8-e6170fd57f1a","system_id":"levelo_inurba_marseille","lat":43.30647,"lon":5.40062,"is_reserved":false,"is_disabled":false,"rental_uris":{"android":"levelo://app?vid=cd63b73b-158a-4ce8-98f8-e6170fd57f1a","ios":"levelo://app?vid=cd63b73b-158a-4ce8-98f8-e6170fd57f1a"},"vehicle_type_id":"4","last_reported":1735715346,"current_range_meters":38800,"station_id":"ce4bh112rcd13ifvqda0","pricing_plan_id":"cebpf4jnsgd1na2vs0mg"},{"bike_id":"d08aed72-c4aa-4b14-9e94-1554d28646fc","system_id":"levelo_inurba_marseille","lat":43.2396,"lon":5.36636,"is_reserved":false,"is_disabled":false,"rental_uris":{"android":"levelo://app?vid=d08aed72-c4aa-4b14-9e94-1554d28646fc","ios":"levelo://app?vid=d08aed72-c4aa-4b14-9e94-1554d28646fc"},"vehicle_type_id":"4","last_reported":1735715346,"current_range_meters":38800,"station_id":"ce4bhi12rcd13ifvqfp0","pricing_plan_id":"cebpf4jnsgd1na2vs0mg"},{"bike_id":"76443485-bcd6-4607-9286-3a71978e6eb5","system_id":"levelo_inurba_marseille","lat":43.24383,"lon":5.37058,"is_reserved":false,"is_disabled":false,"rental_uris":{"android":"levelo://app?vid=76443485-bcd6-4607-9286-3a71978e6eb5","ios":"levelo://app?vid=76443485-bcd6-4607-9286-3a71978e6eb5"},"vehicle_type_id":"4","last_reported":1735715346,"current_range_meters":10000,"station_id":"ce4bhhh2rcd13ifvqfk0","pricing_plan_id":"cebpf4jnsgd1na2vs0mg"},{"bike_id":"690005fd-7c1a-41a6-9719-b7a5eac6797e","system_id":"levelo_inurba_marseille","lat":43.29418,"lon":5.38626,"is_reserved":false,"is_disabled":false,"rental_uris":{"android":"levelo://app?vid=690005fd-7c1a-41a6-9719-b7a5eac6797e","ios":"levelo://app?vid=690005fd-7c1a-41a6-9719-b7a5eac6797e"},"vehicle_type_id":"4","last_reported":1735715346,"current_range_meters":38000,"station_id":"ce4bh2h2rcd13ifvqdh0","pricing_plan_id":"cebpf4jnsgd1na2vs0mg"},{"bike_id":"cfe106c9-317a-4dfe-a370-65e124f77347","system_id":"levelo_inurba_marseille","lat":43.25725,"lon":5.41098,"is_reserved":false,"is_disabled":false,"rental_uris":{"android":"levelo://app?vid=cfe106c9-317a-4dfe-a370-65e124f77347","ios":"levelo://app?vid=cfe106c9-317a-4dfe-a370-65e124f77347"},"vehicle_type_id":"4","last_reported":1735715346,"current_range_meters":32800,"station_id":"ce4bhkp2rcd13ifvqgd0","pricing_plan_id":"cebpf4jnsgd1na2vs0mg"},{"bike_id":"29e41b02-be52-4633-b267-4292f5ed1d1a","system_id":"levelo_inurba_marseille","lat":43.25868,"lon":5.39924,"is_reserved":false,"is_disabled":false,"rental_uris":{"android":"levelo://app?vid=29e41b02-be52-4633-b267-4292f5ed1d1a","ios":"levelo://app?vid=29e41b02-be52-4633-b267-4292f5ed1d1a"},"vehicle_type_id":"4","last_reported":1735715346,"current_range_meters":4800,"station_id":"ce4bhl92rcd13ifvqghg","pricing_plan_id":"cebpf4jnsgd1na2vs0mg"},{"bike_id":"00f7efe2-286c-4c74-8a73-6c0ed5e07c5c","system_id":"levelo_inurba_marseille","lat":43.30205,"lon":5.39461,"is_reserved":false,"is_disabled":false,"rental_uris":{"android":"levelo://app?vid=00f7efe2-286c-4c74-8a73-6c0ed5e07c5c","ios":"levelo://app?vid=00f7efe2-286c-4c74-8a73-6c0ed5e07c5c"},"vehicle_type_id":"4","last_reported":1735715346,"current_range_meters":14000,"station_id":"ce4bh0p2rcd13ifvqd70","pricing_plan_id":"cebpf4jnsgd1na2vs0mg"},{"bike_id":"24dac079-e8aa-44eb-a502-b403f4bd6bc4","system_id":"levelo_inurba_marseille","lat":43.301348,"lon":5.387746,"is_reserved":false,"is_disabled":true,"rental_uris":{"android":"levelo://app?vid=24dac079-e8aa-44eb-a502-b403f4bd6bc4","ios":"levelo://app?vid=24dac079-e8aa-44eb-a502-b403f4bd6bc4"},"vehicle_type_id":"4","last_reported":1735715346,"current_range_meters":0,"station_id":"ce4bghh2rcd13ifvqb60","pricing_plan_id":"cebpf4jnsgd1na2vs0mg"},{"bike_id":"8a8d2384-33d6-4e3f-befc-59293242646b","system_id":"levelo_inurba_marseille","lat":43.30777,"lon":5.37653,"is_reserved":false,"is_disabled":false,"rental_uris":{"android":"levelo://app?vid=8a8d2384-33d6-4e3f-befc-59293242646b","ios":"levelo://app?vid=8a8d2384-33d6-4e3f-befc-59293242646b"},"vehicle_type_id":"4","last_reported":1735715346,"current_range_meters":39200,"station_id":"ce4bgv92rcd13ifvqcq0","pricing_plan_id":"cebpf4jnsgd1na2vs0mg"},{"bike_id":"e8f618f1-15fd-499b-ad4d-89ab6231d56b","system_id":"levelo_inurba_marseille","lat":43.27838,"lon":5.39205,"is_reserved":false,"is_disabled":false,"rental_uris":{"android":"levelo://app?vid=e8f618f1-15fd-499b-ad4d-89ab6231d56b","ios":"levelo://app?vid=e8f618f1-15fd-499b-ad4d-89ab6231d56b"},"vehicle_type_id":"4","last_reported":1735715346,"current_range_meters":19200,"station_id":"ce4bhjp2rcd13ifvqga0","pricing_plan_id":"cebpf4jnsgd1na2vs0mg"},{"bike_id":"ff49d49a-53c3-499a-b296-89a67f332a8a","system_id":"levelo_inurba_marseille","lat":43.24164,"lon":5.36399,"is_reserved":false,"is_disabled":false,"rental_uris":{"android":"levelo://app?vid=ff49d49a-53c3-499a-b296-89a67f332a8a","ios":"levelo://app?vid=ff49d49a-53c3-499a-b296-89a67f332a8a"},"vehicle_type_id":"4","last_reported":1735715346,"current_range_meters":34800,"station_id":"cpo36qri1sfpv3e86is0","pricing_plan_id":"cebpf4jnsgd1na2vs0mg"},{"bike_id":"f060fe60-43b5-4c23-8bc7-369e88e1b658","system_id":"levelo_inurba_marseille","lat":43.32361,"lon":5.38877,"is_reserved":false,"is_disabled":false,"rental_uris":{"android":"levelo://app?vid=f060fe60-43b5-4c23-8bc7-369e88e1b658","ios":"levelo://app?vid=f060fe60-43b5-4c23-8bc7-369e88e1b658"},"vehicle_type_id":"4","last_reported":1735715346,"current_range_meters":9200,"station_id":"ce4bhqp2rcd13ifvqhog","pricing_plan_id":"cebpf4jnsgd1na2vs0mg"},{"bike_id":"d9b95949-d692-4b6d-b82f-65dd27c9ef21","system_id":"levelo_inurba_marseille","lat":43.32473,"lon":5.36573,"is_reserved":false,"is_disabled":false,"rental_uris":{"android":"levelo://app?vid=d9b95949-d692-4b6d-b82f-65dd27c9ef21","ios":"levelo://app?vid=d9b95949-d692-4b6d-b82f-65dd27c9ef21"},"vehicle_type_id":"4","last_reported":1735715346,"current_range_meters":30400,"station_id":"ce4bhs12rcd13ifvqhvg","pricing_plan_id":"cebpf4jnsgd1na2vs0mg"},{"bike_id":"d36c28b7-1920-459f-a14b-5ffc814bc4ed","system_id":"levelo_inurba_marseille","lat":43.2512,"lon":5.4032,"is_reserved":false,"is_disabled":false,"rental_uris":{"android":"levelo://app?vid=d36c28b7-1920-459f-a14b-5ffc814bc4ed","ios":"levelo://app?vid=d36c28b7-1920-459f-a14b-5ffc814bc4ed"},"vehicle_type_id":"4","last_reported":1735715346,"current_range_meters":6800,"station_id":"ce4bhlh2rcd13ifvqgig","pricing_plan_id":"cebpf4jnsgd1na2vs0mg"},{"bike_id":"c3ba5b5b-015c-4689-95a9-abcb1279b90e","system_id":"levelo_inurba_marseille","lat":43.24649,"lon":5.38882,"is_reserved":false,"is_disabled":false,"rental_uris":{"android":"levelo://app?vid=c3ba5b5b-015c-4689-95a9-abcb1279b90e","ios":"levelo://app?vid=c3ba5b5b-015c-4689-95a9-abcb1279b90e"},"vehicle_type_id":"4","last_reported":1735715346,"current_range_meters":39200,"station_id":"ce4bhg12rcd13ifvqf60","pricing_plan_id":"cebpf4jnsgd1na2vs0mg"},{"bike_id":"027085de-3c06-4c90-8099-b9537f78e863","system_id":"levelo_inurba_marseille","lat":43.23175,"lon":5.43662,"is_reserved":false,"is_disabled":false,"rental_uris":{"android":"levelo://app?vid=027085de-3c06-4c90-8099-b9537f78e863","ios":"levelo://app?vid=027085de-3c06-4c90-8099-b9537f78e863"},"vehicle_type_id":"4","last_reported":1735715346,"current_range_meters":36400,"station_id":"ce4bhmp2rcd13ifvqgog","pricing_plan_id":"cebpf4jnsgd1na2vs0mg"},{"bike_id":"924b8338-4a40-42e8-8ff9-5a56a6ed9db8","system_id":"levelo_inurba_marseille","lat":43.28708,"lon":5.39981,"is_reserved":false,"is_disabled":false,"rental_uris":{"android":"levelo://app?vid=924b8338-4a40-42e8-8ff9-5a56a6ed9db8","ios":"levelo://app?vid=924b8338-4a40-42e8-8ff9-5a56a6ed9db8"},"vehicle_type_id":"4","last_reported":1735715346,"current_range_meters":38800,"station_id":"ce4bho92rcd13ifvqh3g","pricing_plan_id":"cebpf4jnsgd1na2vs0mg"},{"bike_id":"ed4dbc06-5f02-4135-b3d8-03e171e13ed9","system_id":"levelo_inurba_marseille","lat":43.26562,"lon":5.39019,"is_reserved":false,"is_disabled":false,"rental_uris":{"android":"levelo://app?vid=ed4dbc06-5f02-4135-b3d8-03e171e13ed9","ios":"levelo://app?vid=ed4dbc06-5f02-4135-b3d8-03e171e13ed9"},"vehicle_type_id":"4","last_reported":1735715346,"current_range_meters":27600,"station_id":"ce4bhe12rcd13ifvqf30","pricing_plan_id":"cebpf4jnsgd1na2vs0mg"},{"bike_id":"dd43ec1a-328a-4f14-a1c5-2dfbd492ab23","system_id":"levelo_inurba_marseille","lat":43.31348,"lon":5.3973,"is_reserved":false,"is_disabled":true,"rental_uris":{"android":"levelo://app?vid=dd43ec1a-328a-4f14-a1c5-2dfbd492ab23","ios":"levelo://app?vid=dd43ec1a-328a-4f14-a1c5-2dfbd492ab23"},"vehicle_type_id":"4","last_reported":1735715346,"current_range_meters":36000,"station_id":"ce4bgvp2rcd13ifvqcu0","pricing_plan_id":"cebpf4jnsgd1na2vs0mg"},{"bike_id":"e0b75704-655c-410c-bd45-e0fa32b6327d","system_id":"levelo_inurba_marseille","lat":43.30147,"lon":5.39886,"is_reserved":false,"is_disabled":true,"rental_uris":{"android":"levelo://app?vid=e0b75704-655c-410c-bd45-e0fa32b6327d","ios":"levelo://app?vid=e0b75704-655c-410c-bd45-e0fa32b6327d"},"vehicle_type_id":"4","last_reported":1735715346,"current_range_meters":8800,"station_id":"ce4bh0h2rcd13ifvqd40","pricing_plan_id":"cebpf4jnsgd1na2vs0mg"},{"bike_id":"317bbece-85f5-4709-8e50-643ba25a75ff","system_id":"levelo_inurba_marseille","lat":43.33778,"lon":5.37426,"is_reserved":false,"is_disabled":false,"rental_uris":{"android":"levelo://app?vid=317bbece-85f5-4709-8e50-643ba25a75ff","ios":"levelo://app?vid=317bbece-85f5-4709-8e50-643ba25a75ff"},"vehicle_type_id":"4","last_reported":1735715346,"current_range_meters":32400,"station_id":"","pricing_plan_id":"cebpf4jnsgd1na2vs0mg"},{"bike_id":"e7774da4-c308-4bfa-aba8-31efca07b3a0","system_id":"levelo_inurba_marseille","lat":43.33741,"lon":5.37467,"is_reserved":false,"is_disabled":false,"rental_uris":{"android":"levelo://app?vid=e7774da4-c308-4bfa-aba8-31efca07b3a0","ios":"levelo://app?vid=e7774da4-c308-4bfa-aba8-31efca07b3a0"},"vehicle_type_id":"4","last_reported":1735715346,"current_range_meters":9200,"station_id":"","pricing_plan_id":"cebpf4jnsgd1na2vs0mg"},{"bike_id":"fbd4ca60-5264-46ea-ad1e-0ef82282be7d","system_id":"levelo_inurba_marseille","lat":43.28695,"lon":5.37389,"is_reserved":false,"is_disabled":false,"rental_uris":{"android":"levelo://app?vid=fbd4ca60-5264-46ea-ad1e-0ef82282be7d","ios":"levelo://app?vid=fbd4ca60-5264-46ea-ad1e-0ef82282be7d"},"vehicle_type_id":"4","last_reported":1735715346,"current_range_meters":37600,"station_id":"ce4bh3p2rcd13ifvqdq0","pricing_plan_id":"cebpf4jnsgd1na2vs0mg"},{"bike_id":"76efae45-a52e-4bbd-a0f0-7f166072bc17","system_id":"levelo_inurba_marseille","lat":43.31372,"lon":5.38494,"is_reserved":false,"is_disabled":true,"rental_uris":{"android":"levelo://app?vid=76efae45-a52e-4bbd-a0f0-7f166072bc17","ios":"levelo://app?vid=76efae45-a52e-4bbd-a0f0-7f166072bc17"},"vehicle_type_id":"4","last_reported":1735715346,"current_range_meters":1200,"station_id":"ce4bgt92rcd13ifvqcf0","pricing_plan_id":"cebpf4jnsgd1na2vs0mg"},{"bike_id":"ad09079b-2a66-443a-a13d-b1f84ab569d5","system_id":"levelo_inurba_marseille","lat":43.250039,"lon":5.389283,"is_reserved":false,"is_disabled":false,"rental_uris":{"android":"levelo://app?vid=ad09079b-2a66-443a-a13d-b1f84ab569d5","ios":"levelo://app?vid=ad09079b-2a66-443a-a13d-b1f84ab569d5"},"vehicle_type_id":"4","last_reported":1735715346,"current_range_meters":38400,"station_id":"ce4bhgp2rcd13ifvqfd0","pricing_plan_id":"cebpf4jnsgd1na2vs0mg"},{"bike_id":"55cdd24f-9e2e-41e5-9590-d69333b5dd4a","system_id":"levelo_inurba_marseille","lat":43.28865,"lon":5.35822,"is_reserved":false,"is_disabled":false,"rental_uris":{"android":"levelo://app?vid=55cdd24f-9e2e-41e5-9590-d69333b5dd4a","ios":"levelo://app?vid=55cdd24f-9e2e-41e5-9590-d69333b5dd4a"},"vehicle_type_id":"4","last_reported":1735715346,"current_range_meters":10800,"station_id":"ce4bhb12rcd13ifvqem0","pricing_plan_id":"cebpf4jnsgd1na2vs0mg"},{"bike_id":"1b9666de-703f-4874-9b63-e9d42533848b","system_id":"levelo_inurba_marseille","lat":43.3188,"lon":5.40726,"is_reserved":false,"is_disabled":false,"rental_uris":{"android":"levelo://app?vid=1b9666de-703f-4874-9b63-e9d42533848b","ios":"levelo://app?vid=1b9666de-703f-4874-9b63-e9d42533848b"},"vehicle_type_id":"4","last_reported":1735715346,"current_range_meters":39200,"station_id":"ce4bhq12rcd13ifvqhig","pricing_plan_id":"cebpf4jnsgd1na2vs0mg"},{"bike_id":"67ba2b1c-c61a-46e9-95cd-2243b1c0a80c","system_id":"levelo_inurba_marseille","lat":43.30872,"lon":5.37225,"is_reserved":false,"is_disabled":false,"rental_uris":{"android":"levelo://app?vid=67ba2b1c-c61a-46e9-95cd-2243b1c0a80c","ios":"levelo://app?vid=67ba2b1c-c61a-46e9-95cd-2243b1c0a80c"},"vehicle_type_id":"4","last_reported":1735715346,"current_range_meters":28800,"station_id":"","pricing_plan_id":"cebpf4jnsgd1na2vs0mg"},{"bike_id":"20b97b14-b05f-4f41-ab7f-556e4a7b2e8c","system_id":"levelo_inurba_marseille","lat":43.3014,"lon":5.39862,"is_reserved":false,"is_disabled":false,"rental_uris":{"android":"levelo://app?vid=20b97b14-b05f-4f41-ab7f-556e4a7b2e8c","ios":"levelo://app?vid=20b97b14-b05f-4f41-ab7f-556e4a7b2e8c"},"vehicle_type_id":"4","last_reported":1735715346,"current_range_meters":36000,"station_id":"ce4bh0h2rcd13ifvqd40","pricing_plan_id":"cebpf4jnsgd1na2vs0mg"},{"bike_id":"1f6c2c11-6e60-4a9c-8157-56eb72ae0771","system_id":"levelo_inurba_marseille","lat":43.2861,"lon":5.3706,"is_reserved":false,"is_disabled":false,"rental_uris":{"android":"levelo://app?vid=1f6c2c11-6e60-4a9c-8157-56eb72ae0771","ios":"levelo://app?vid=1f6c2c11-6e60-4a9c-8157-56eb72ae0771"},"vehicle_type_id":"4","last_reported":1735715346,"current_range_meters":33200,"station_id":"ce4bht12rcd13ifvqi60","pricing_plan_id":"cebpf4jnsgd1na2vs0mg"},{"bike_id":"8aee6e51-ec03-4d1e-a7f9-0bc033449db3","system_id":"levelo_inurba_marseille","lat":43.28424,"lon":5.37526,"is_reserved":false,"is_disabled":false,"rental_uris":{"android":"levelo://app?vid=8aee6e51-ec03-4d1e-a7f9-0bc033449db3","ios":"levelo://app?vid=8aee6e51-ec03-4d1e-a7f9-0bc033449db3"},"vehicle_type_id":"4","last_reported":1735715346,"current_range_meters":32800,"station_id":"ce4bh412rcd13ifvqds0","pricing_plan_id":"cebpf4jnsgd1na2vs0mg"},{"bike_id":"fc9ca4dc-eb81-4943-ba4c-9803a0a93bbb","system_id":"levelo_inurba_marseille","lat":43.32481,"lon":5.36582,"is_reserved":false,"is_disabled":false,"rental_uris":{"android":"levelo://app?vid=fc9ca4dc-eb81-4943-ba4c-9803a0a93bbb","ios":"levelo://app?vid=fc9ca4dc-eb81-4943-ba4c-9803a0a93bbb"},"vehicle_type_id":"4","last_reported":1735715346,"current_range_meters":30000,"station_id":"ce4bhs12rcd13ifvqhvg","pricing_plan_id":"cebpf4jnsgd1na2vs0mg"},{"bike_id":"da3075ee-8070-42f9-8350-58e475a60c82","system_id":"levelo_inurba_marseille","lat":43.27558,"lon":5.38378,"is_reserved":false,"is_disabled":false,"rental_uris":{"android":"levelo://app?vid=da3075ee-8070-42f9-8350-58e475a60c82","ios":"levelo://app?vid=da3075ee-8070-42f9-8350-58e475a60c82"},"vehicle_type_id":"4","last_reported":1735715346,"current_range_meters":38800,"station_id":"ce4bhh92rcd13ifvqfi0","pricing_plan_id":"cebpf4jnsgd1na2vs0mg"},{"bike_id":"201d3095-2daa-41b3-a3b9-f477b54ffd04","system_id":"levelo_inurba_marseille","lat":43.30897,"lon":5.39621,"is_reserved":false,"is_disabled":false,"rental_uris":{"android":"levelo://app?vid=201d3095-2daa-41b3-a3b9-f477b54ffd04","ios":"levelo://app?vid=201d3095-2daa-41b3-a3b9-f477b54ffd04"},"vehicle_type_id":"4","last_reported":1735715346,"current_range_meters":30000,"station_id":"ce4bh012rcd13ifvqcv0","pricing_plan_id":"cebpf4jnsgd1na2vs0mg"},{"bike_id":"3b872dc0-6792-454f-a693-b0c523932607","system_id":"levelo_inurba_marseille","lat":43.29041,"lon":5.3757,"is_reserved":false,"is_disabled":false,"rental_uris":{"android":"levelo://app?vid=3b872dc0-6792-454f-a693-b0c523932607","ios":"levelo://app?vid=3b872dc0-6792-454f-a693-b0c523932607"},"vehicle_type_id":"4","last_reported":1735715346,"current_range_meters":16800,"station_id":"ce4bh692rcd13ifvqe90","pricing_plan_id":"cebpf4jnsgd1na2vs0mg"},{"bike_id":"980e2d46-ca12-4a5a-b061-24f9c7a13628","system_id":"levelo_inurba_marseille","lat":43.27199,"lon":5.40965,"is_reserved":false,"is_disabled":false,"rental_uris":{"android":"levelo://app?vid=980e2d46-ca12-4a5a-b061-24f9c7a13628","ios":"levelo://app?vid=980e2d46-ca12-4a5a-b061-24f9c7a13628"},"vehicle_type_id":"4","last_reported":1735715346,"current_range_meters":28800,"station_id":"ce4bhl12rcd13ifvqgf0","pricing_plan_id":"cebpf4jnsgd1na2vs0mg"},{"bike_id":"28e59975-b964-4c0f-ac87-03dd9aa0f102","system_id":"levelo_inurba_marseille","lat":43.28932,"lon":5.36385,"is_reserved":false,"is_disabled":false,"rental_uris":{"android":"levelo://app?vid=28e59975-b964-4c0f-ac87-03dd9aa0f102","ios":"levelo://app?vid=28e59975-b964-4c0f-ac87-03dd9aa0f102"},"vehicle_type_id":"4","last_reported":1735715346,"current_range_meters":24800,"station_id":"ce4bhc92rcd13ifvqetg","pricing_plan_id":"cebpf4jnsgd1na2vs0mg"},{"bike_id":"e5fc90b8-f4d7-48fe-9b1b-e04042412667","system_id":"levelo_inurba_marseille","lat":43.320001,"lon":5.38144,"is_reserved":false,"is_disabled":false,"rental_uris":{"android":"levelo://app?vid=e5fc90b8-f4d7-48fe-9b1b-e04042412667","ios":"levelo://app?vid=e5fc90b8-f4d7-48fe-9b1b-e04042412667"},"vehicle_type_id":"4","last_reported":1735715346,"current_range_meters":38800,"station_id":"ce4bhr12rcd13ifvqhpg","pricing_plan_id":"cebpf4jnsgd1na2vs0mg"},{"bike_id":"153a191c-c472-4cba-bc69-68d338935f0b","system_id":"levelo_inurba_marseille","lat":43.308781,"lon":5.371869,"is_reserved":false,"is_disabled":false,"rental_uris":{"android":"levelo://app?vid=153a191c-c472-4cba-bc69-68d338935f0b","ios":"levelo://app?vid=153a191c-c472-4cba-bc69-68d338935f0b"},"vehicle_type_id":"4","last_reported":1735715346,"current_range_meters":8400,"station_id":"ce4bguh2rcd13ifvqckg","pricing_plan_id":"cebpf4jnsgd1na2vs0mg"},{"bike_id":"beecdd74-bfcf-4ee1-ba68-eb6b8681c064","system_id":"levelo_inurba_marseille","lat":43.28442,"lon":5.39188,"is_reserved":false,"is_disabled":false,"rental_uris":{"android":"levelo://app?vid=beecdd74-bfcf-4ee1-ba68-eb6b8681c064","ios":"levelo://app?vid=beecdd74-bfcf-4ee1-ba68-eb6b8681c064"},"vehicle_type_id":"4","last_reported":1735715346,"current_range_meters":38000,"station_id":"ce4bhoh2rcd13ifvqh5g","pricing_plan_id":"cebpf4jnsgd1na2vs0mg"},{"bike_id":"a0d49c80-bdc7-467f-97fc-149de6202389","system_id":"levelo_inurba_marseille","lat":43.2574,"lon":5.41105,"is_reserved":false,"is_disabled":false,"rental_uris":{"android":"levelo://app?vid=a0d49c80-bdc7-467f-97fc-149de6202389","ios":"levelo://app?vid=a0d49c80-bdc7-467f-97fc-149de6202389"},"vehicle_type_id":"4","last_reported":1735715346,"current_range_meters":8400,"station_id":"ce4bhkp2rcd13ifvqgd0","pricing_plan_id":"cebpf4jnsgd1na2vs0mg"},{"bike_id":"b6daf7f7-9e92-49f6-9bd6-324d01a67477","system_id":"levelo_inurba_marseille","lat":43.30192,"lon":5.36632,"is_reserved":false,"is_disabled":false,"rental_uris":{"android":"levelo://app?vid=b6daf7f7-9e92-49f6-9bd6-324d01a67477","ios":"levelo://app?vid=b6daf7f7-9e92-49f6-9bd6-324d01a67477"},"vehicle_type_id":"4","last_reported":1735715346,"current_range_meters":38000,"station_id":"ce4bgrh2rcd13ifvqc8g","pricing_plan_id":"cebpf4jnsgd1na2vs0mg"},{"bike_id":"6611339c-c6f1-4ce8-9613-d42f5088a636","system_id":"levelo_inurba_marseille","lat":43.268114,"lon":5.402574,"is_reserved":false,"is_disabled":false,"rental_uris":{"android":"levelo://app?vid=6611339c-c6f1-4ce8-9613-d42f5088a636","ios":"levelo://app?vid=6611339c-c6f1-4ce8-9613-d42f5088a636"},"vehicle_type_id":"4","last_reported":1735715346,"current_range_meters":38800,"station_id":"ce501612rcd8frsf0b60","pricing_plan_id":"cebpf4jnsgd1na2vs0mg"},{"bike_id":"b29e6f20-8cee-47fa-909d-1ea34c4aaaa0","system_id":"levelo_inurba_marseille","lat":43.25609,"lon":5.41247,"is_reserved":false,"is_disabled":false,"rental_uris":{"android":"levelo://app?vid=b29e6f20-8cee-47fa-909d-1ea34c4aaaa0","ios":"levelo://app?vid=b29e6f20-8cee-47fa-909d-1ea34c4aaaa0"},"vehicle_type_id":"4","last_reported":1735715346,"current_range_meters":19600,"station_id":"","pricing_plan_id":"cebpf4jnsgd1na2vs0mg"},{"bike_id":"f1ae0bf8-0350-41dd-95ca-65a425c0e4b6","system_id":"levelo_inurba_marseille","lat":43.30314,"lon":5.36899,"is_reserved":false,"is_disabled":false,"rental_uris":{"android":"levelo://app?vid=f1ae0bf8-0350-41dd-95ca-65a425c0e4b6","ios":"levelo://app?vid=f1ae0bf8-0350-41dd-95ca-65a425c0e4b6"},"vehicle_type_id":"4","last_reported":1735715346,"current_range_meters":38400,"station_id":"ce4bgqh2rcd13ifvqc5g","pricing_plan_id":"cebpf4jnsgd1na2vs0mg"},{"bike_id":"436e82f4-f2ae-49ca-b349-14409bc9531c","system_id":"levelo_inurba_marseille","lat":43.26687,"lon":5.38253,"is_reserved":false,"is_disabled":false,"rental_uris":{"android":"levelo://app?vid=436e82f4-f2ae-49ca-b349-14409bc9531c","ios":"levelo://app?vid=436e82f4-f2ae-49ca-b349-14409bc9531c"},"vehicle_type_id":"4","last_reported":1735715346,"current_range_meters":29600,"station_id":"ce4bhg92rcd13ifvqf90","pricing_plan_id":"cebpf4jnsgd1na2vs0mg"},{"bike_id":"73951743-e2d8-48c8-9b4b-49f6b638eeb5","system_id":"levelo_inurba_marseille","lat":43.311172,"lon":5.377664,"is_reserved":false,"is_disabled":false,"rental_uris":{"android":"levelo://app?vid=73951743-e2d8-48c8-9b4b-49f6b638eeb5","ios":"levelo://app?vid=73951743-e2d8-48c8-9b4b-49f6b638eeb5"},"vehicle_type_id":"4","last_reported":1735715346,"current_range_meters":33600,"station_id":"ce4bgt92rcd13ifvqcg0","pricing_plan_id":"cebpf4jnsgd1na2vs0mg"},{"bike_id":"2958545c-c42f-40c6-b109-d7dd39b54efc","system_id":"levelo_inurba_marseille","lat":43.27809,"lon":5.40716,"is_reserved":false,"is_disabled":false,"rental_uris":{"android":"levelo://app?vid=2958545c-c42f-40c6-b109-d7dd39b54efc","ios":"levelo://app?vid=2958545c-c42f-40c6-b109-d7dd39b54efc"},"vehicle_type_id":"4","last_reported":1735715346,"current_range_meters":35200,"station_id":"ce4bhnh2rcd13ifvqgtg","pricing_plan_id":"cebpf4jnsgd1na2vs0mg"},{"bike_id":"d625e588-11c3-4fb0-bbf8-82531f0a858d","system_id":"levelo_inurba_marseille","lat":43.28841,"lon":5.39329,"is_reserved":false,"is_disabled":false,"rental_uris":{"android":"levelo://app?vid=d625e588-11c3-4fb0-bbf8-82531f0a858d","ios":"levelo://app?vid=d625e588-11c3-4fb0-bbf8-82531f0a858d"},"vehicle_type_id":"4","last_reported":1735715346,"current_range_meters":38800,"station_id":"ce4bh2p2rcd13ifvqdi0","pricing_plan_id":"cebpf4jnsgd1na2vs0mg"},{"bike_id":"4e946ccd-6648-4aaa-ac0d-746ef34c5d06","system_id":"levelo_inurba_marseille","lat":43.3088,"lon":5.3965,"is_reserved":false,"is_disabled":false,"rental_uris":{"android":"levelo://app?vid=4e946ccd-6648-4aaa-ac0d-746ef34c5d06","ios":"levelo://app?vid=4e946ccd-6648-4aaa-ac0d-746ef34c5d06"},"vehicle_type_id":"4","last_reported":1735715346,"current_range_meters":12400,"station_id":"ce4bh012rcd13ifvqcv0","pricing_plan_id":"cebpf4jnsgd1na2vs0mg"},{"bike_id":"66ed4723-8a35-4bf4-860b-cd758b67909b","system_id":"levelo_inurba_marseille","lat":43.31361,"lon":5.38493,"is_reserved":false,"is_disabled":false,"rental_uris":{"android":"levelo://app?vid=66ed4723-8a35-4bf4-860b-cd758b67909b","ios":"levelo://app?vid=66ed4723-8a35-4bf4-860b-cd758b67909b"},"vehicle_type_id":"4","last_reported":1735715346,"current_range_meters":39200,"station_id":"ce4bgt92rcd13ifvqcf0","pricing_plan_id":"cebpf4jnsgd1na2vs0mg"},{"bike_id":"ba936ddb-3421-4c87-83fc-05fd5470238a","system_id":"levelo_inurba_marseille","lat":43.29449,"lon":5.39746,"is_reserved":false,"is_disabled":false,"rental_uris":{"android":"levelo://app?vid=ba936ddb-3421-4c87-83fc-05fd5470238a","ios":"levelo://app?vid=ba936ddb-3421-4c87-83fc-05fd5470238a"},"vehicle_type_id":"4","last_reported":1735715346,"current_range_meters":38800,"station_id":"ce4bh3h2rcd13ifvqdo0","pricing_plan_id":"cebpf4jnsgd1na2vs0mg"},{"bike_id":"8b9949d8-2468-4baa-924d-f750df0d0ee9","system_id":"levelo_inurba_marseille","lat":43.271763,"lon":5.409957,"is_reserved":false,"is_disabled":false,"rental_uris":{"android":"levelo://app?vid=8b9949d8-2468-4baa-924d-f750df0d0ee9","ios":"levelo://app?vid=8b9949d8-2468-4baa-924d-f750df0d0ee9"},"vehicle_type_id":"4","last_reported":1735715346,"current_range_meters":19200,"station_id":"ce4bhl12rcd13ifvqgf0","pricing_plan_id":"cebpf4jnsgd1na2vs0mg"},{"bike_id":"ddd55fce-9a6a-4592-9cd2-9a1785ff7b1f","system_id":"levelo_inurba_marseille","lat":43.33036,"lon":5.39022,"is_reserved":false,"is_disabled":false,"rental_uris":{"android":"levelo://app?vid=ddd55fce-9a6a-4592-9cd2-9a1785ff7b1f","ios":"levelo://app?vid=ddd55fce-9a6a-4592-9cd2-9a1785ff7b1f"},"vehicle_type_id":"4","last_reported":1735715346,"current_range_meters":36800,"station_id":"ce4bhr92rcd13ifvqhrg","pricing_plan_id":"cebpf4jnsgd1na2vs0mg"},{"bike_id":"2f46ed5f-d621-4960-be21-137d8f9ca518","system_id":"levelo_inurba_marseille","lat":43.29256,"lon":5.38437,"is_reserved":false,"is_disabled":true,"rental_uris":{"android":"levelo://app?vid=2f46ed5f-d621-4960-be21-137d8f9ca518","ios":"levelo://app?vid=2f46ed5f-d621-4960-be21-137d8f9ca518"},"vehicle_type_id":"4","last_reported":1735715346,"current_range_meters":0,"station_id":"ce4bh692rcd13ifvqea0","pricing_plan_id":"cebpf4jnsgd1na2vs0mg"},{"bike_id":"b55acca6-b0a7-437a-9d12-a1bdcc4f524c","system_id":"levelo_inurba_marseille","lat":43.29198,"lon":5.39303,"is_reserved":false,"is_disabled":false,"rental_uris":{"android":"levelo://app?vid=b55acca6-b0a7-437a-9d12-a1bdcc4f524c","ios":"levelo://app?vid=b55acca6-b0a7-437a-9d12-a1bdcc4f524c"},"vehicle_type_id":"4","last_reported":1735715346,"current_range_meters":39200,"station_id":"ce4bh192rcd13ifvqdd0","pricing_plan_id":"cebpf4jnsgd1na2vs0mg"},{"bike_id":"6531a9a9-51ea-4d64-9cf9-3bdd7e3a4118","system_id":"levelo_inurba_marseille","lat":43.28467,"lon":5.38405,"is_reserved":false,"is_disabled":false,"rental_uris":{"android":"levelo://app?vid=6531a9a9-51ea-4d64-9cf9-3bdd7e3a4118","ios":"levelo://app?vid=6531a9a9-51ea-4d64-9cf9-3bdd7e3a4118"},"vehicle_type_id":"4","last_reported":1735715346,"current_range_meters":15200,"station_id":"ce4bh512rcd13ifvqe3g","pricing_plan_id":"cebpf4jnsgd1na2vs0mg"},{"bike_id":"f92e0b80-cd61-42c7-82b0-cf418b51b985","system_id":"levelo_inurba_marseille","lat":43.298976,"lon":5.436674,"is_reserved":false,"is_disabled":false,"rental_uris":{"android":"levelo://app?vid=f92e0b80-cd61-42c7-82b0-cf418b51b985","ios":"levelo://app?vid=f92e0b80-cd61-42c7-82b0-cf418b51b985"},"vehicle_type_id":"4","last_reported":1735715346,"current_range_meters":5600,"station_id":"ce4bhpp2rcd13ifvqhfg","pricing_plan_id":"cebpf4jnsgd1na2vs0mg"},{"bike_id":"845d744d-cf1d-41e6-a4cd-da0e1e5d0caa","system_id":"levelo_inurba_marseille","lat":43.22931,"lon":5.35367,"is_reserved":false,"is_disabled":false,"rental_uris":{"android":"levelo://app?vid=845d744d-cf1d-41e6-a4cd-da0e1e5d0caa","ios":"levelo://app?vid=845d744d-cf1d-41e6-a4cd-da0e1e5d0caa"},"vehicle_type_id":"4","last_reported":1735715346,"current_range_meters":37600,"station_id":"cpo3532slgdg3j2ikp40","pricing_plan_id":"cebpf4jnsgd1na2vs0mg"},{"bike_id":"d358c29f-6972-45d9-ab88-d417f38017f7","system_id":"levelo_inurba_marseille","lat":43.28737,"lon":5.36084,"is_reserved":false,"is_disabled":false,"rental_uris":{"android":"levelo://app?vid=d358c29f-6972-45d9-ab88-d417f38017f7","ios":"levelo://app?vid=d358c29f-6972-45d9-ab88-d417f38017f7"},"vehicle_type_id":"4","last_reported":1735715346,"current_range_meters":30400,"station_id":"cki0cbj6b192h4jlfktg","pricing_plan_id":"cebpf4jnsgd1na2vs0mg"},{"bike_id":"24fd1ceb-578d-4632-806d-7d0442aa3d86","system_id":"levelo_inurba_marseille","lat":43.29819,"lon":5.39545,"is_reserved":false,"is_disabled":true,"rental_uris":{"android":"levelo://app?vid=24fd1ceb-578d-4632-806d-7d0442aa3d86","ios":"levelo://app?vid=24fd1ceb-578d-4632-806d-7d0442aa3d86"},"vehicle_type_id":"4","last_reported":1735715346,"current_range_meters":0,"station_id":"","pricing_plan_id":"cebpf4jnsgd1na2vs0mg"},{"bike_id":"578d9fdd-b32b-48de-81bf-8d798f5b413d","system_id":"levelo_inurba_marseille","lat":43.28944,"lon":5.36642,"is_reserved":false,"is_disabled":false,"rental_uris":{"android":"levelo://app?vid=578d9fdd-b32b-48de-81bf-8d798f5b413d","ios":"levelo://app?vid=578d9fdd-b32b-48de-81bf-8d798f5b413d"},"vehicle_type_id":"4","last_reported":1735715346,"current_range_meters":32000,"station_id":"ce4bhap2rcd13ifvqek0","pricing_plan_id":"cebpf4jnsgd1na2vs0mg"},{"bike_id":"30a49652-d136-44e4-a4d9-d7c1b83f0627","system_id":"levelo_inurba_marseille","lat":43.337444,"lon":5.374475,"is_reserved":false,"is_disabled":false,"rental_uris":{"android":"levelo://app?vid=30a49652-d136-44e4-a4d9-d7c1b83f0627","ios":"levelo://app?vid=30a49652-d136-44e4-a4d9-d7c1b83f0627"},"vehicle_type_id":"4","last_reported":1735715346,"current_range_meters":15200,"station_id":"","pricing_plan_id":"cebpf4jnsgd1na2vs0mg"},{"bike_id":"8e43fa85-9764-4a8e-9f3b-20e1a8b81057","system_id":"levelo_inurba_marseille","lat":43.338449,"lon":5.422775,"is_reserved":false,"is_disabled":false,"rental_uris":{"android":"levelo://app?vid=8e43fa85-9764-4a8e-9f3b-20e1a8b81057","ios":"levelo://app?vid=8e43fa85-9764-4a8e-9f3b-20e1a8b81057"},"vehicle_type_id":"4","last_reported":1735715346,"current_range_meters":9600,"station_id":"","pricing_plan_id":"cebpf4jnsgd1na2vs0mg"},{"bike_id":"0bcf789e-c193-4157-8287-677205df1e1a","system_id":"levelo_inurba_marseille","lat":43.28432,"lon":5.38042,"is_reserved":false,"is_disabled":true,"rental_uris":{"android":"levelo://app?vid=0bcf789e-c193-4157-8287-677205df1e1a","ios":"levelo://app?vid=0bcf789e-c193-4157-8287-677205df1e1a"},"vehicle_type_id":"4","last_reported":1735715346,"current_range_meters":0,"station_id":"ce4bh412rcd13ifvqdr0","pricing_plan_id":"cebpf4jnsgd1na2vs0mg"},{"bike_id":"511330d4-5d57-4228-9cb8-ea4983ae2d24","system_id":"levelo_inurba_marseille","lat":43.251,"lon":5.4031,"is_reserved":false,"is_disabled":false,"rental_uris":{"android":"levelo://app?vid=511330d4-5d57-4228-9cb8-ea4983ae2d24","ios":"levelo://app?vid=511330d4-5d57-4228-9cb8-ea4983ae2d24"},"vehicle_type_id":"4","last_reported":1735715346,"current_range_meters":14400,"station_id":"ce4bhlh2rcd13ifvqgig","pricing_plan_id":"cebpf4jnsgd1na2vs0mg"},{"bike_id":"d80e9bec-0f8d-442d-adeb-8a9f45ad9450","system_id":"levelo_inurba_marseille","lat":43.28351,"lon":5.38106,"is_reserved":false,"is_disabled":false,"rental_uris":{"android":"levelo://app?vid=d80e9bec-0f8d-442d-adeb-8a9f45ad9450","ios":"levelo://app?vid=d80e9bec-0f8d-442d-adeb-8a9f45ad9450"},"vehicle_type_id":"4","last_reported":1735715346,"current_range_meters":22000,"station_id":"ce4bh412rcd13ifvqdr0","pricing_plan_id":"cebpf4jnsgd1na2vs0mg"},{"bike_id":"9965033c-8b8a-4b3a-853b-785e6ed02405","system_id":"levelo_inurba_marseille","lat":43.3105,"lon":5.38155,"is_reserved":false,"is_disabled":false,"rental_uris":{"android":"levelo://app?vid=9965033c-8b8a-4b3a-853b-785e6ed02405","ios":"levelo://app?vid=9965033c-8b8a-4b3a-853b-785e6ed02405"},"vehicle_type_id":"4","last_reported":1735715346,"current_range_meters":25200,"station_id":"","pricing_plan_id":"cebpf4jnsgd1na2vs0mg"},{"bike_id":"b895e7be-3b22-4c26-a96b-8e72c85a6dee","system_id":"levelo_inurba_marseille","lat":43.28712,"lon":5.40002,"is_reserved":false,"is_disabled":false,"rental_uris":{"android":"levelo://app?vid=b895e7be-3b22-4c26-a96b-8e72c85a6dee","ios":"levelo://app?vid=b895e7be-3b22-4c26-a96b-8e72c85a6dee"},"vehicle_type_id":"4","last_reported":1735715346,"current_range_meters":30400,"station_id":"ce4bho92rcd13ifvqh3g","pricing_plan_id":"cebpf4jnsgd1na2vs0mg"},{"bike_id":"cd74a333-9a1d-4930-b287-4902bed467c1","system_id":"levelo_inurba_marseille","lat":43.30836,"lon":5.38122,"is_reserved":false,"is_disabled":false,"rental_uris":{"android":"levelo://app?vid=cd74a333-9a1d-4930-b287-4902bed467c1","ios":"levelo://app?vid=cd74a333-9a1d-4930-b287-4902bed467c1"},"vehicle_type_id":"4","last_reported":1735715346,"current_range_meters":5600,"station_id":"ce4bgt12rcd13ifvqce0","pricing_plan_id":"cebpf4jnsgd1na2vs0mg"},{"bike_id":"602066a0-2260-4df6-91ea-a3f6be32a7d2","system_id":"levelo_inurba_marseille","lat":43.31773,"lon":5.38999,"is_reserved":false,"is_disabled":false,"rental_uris":{"android":"levelo://app?vid=602066a0-2260-4df6-91ea-a3f6be32a7d2","ios":"levelo://app?vid=602066a0-2260-4df6-91ea-a3f6be32a7d2"},"vehicle_type_id":"4","last_reported":1735715346,"current_range_meters":38800,"station_id":"ce4bhqp2rcd13ifvqhng","pricing_plan_id":"cebpf4jnsgd1na2vs0mg"},{"bike_id":"d996ebe6-a085-4671-8aef-57e91ba860dc","system_id":"levelo_inurba_marseille","lat":43.26812,"lon":5.40254,"is_reserved":false,"is_disabled":false,"rental_uris":{"android":"levelo://app?vid=d996ebe6-a085-4671-8aef-57e91ba860dc","ios":"levelo://app?vid=d996ebe6-a085-4671-8aef-57e91ba860dc"},"vehicle_type_id":"4","last_reported":1735715346,"current_range_meters":30000,"station_id":"ce501612rcd8frsf0b60","pricing_plan_id":"cebpf4jnsgd1na2vs0mg"},{"bike_id":"1fa11319-427d-42b2-8f07-2d78d11bd9fa","system_id":"levelo_inurba_marseille","lat":43.31134,"lon":5.42281,"is_reserved":false,"is_disabled":false,"rental_uris":{"android":"levelo://app?vid=1fa11319-427d-42b2-8f07-2d78d11bd9fa","ios":"levelo://app?vid=1fa11319-427d-42b2-8f07-2d78d11bd9fa"},"vehicle_type_id":"4","last_reported":1735715346,"current_range_meters":25200,"station_id":"","pricing_plan_id":"cebpf4jnsgd1na2vs0mg"},{"bike_id":"6c29b31c-ae3e-4023-8789-26b6c4d26fc4","system_id":"levelo_inurba_marseille","lat":43.24082,"lon":5.37755,"is_reserved":false,"is_disabled":false,"rental_uris":{"android":"levelo://app?vid=6c29b31c-ae3e-4023-8789-26b6c4d26fc4","ios":"levelo://app?vid=6c29b31c-ae3e-4023-8789-26b6c4d26fc4"},"vehicle_type_id":"4","last_reported":1735715346,"current_range_meters":38000,"station_id":"ce4bhnp2rcd13ifvqgvg","pricing_plan_id":"cebpf4jnsgd1na2vs0mg"},{"bike_id":"e52aa72e-6856-4128-bf29-e8ed46cba8b6","system_id":"levelo_inurba_marseille","lat":43.2916,"lon":5.37151,"is_reserved":false,"is_disabled":false,"rental_uris":{"android":"levelo://app?vid=e52aa72e-6856-4128-bf29-e8ed46cba8b6","ios":"levelo://app?vid=e52aa72e-6856-4128-bf29-e8ed46cba8b6"},"vehicle_type_id":"4","last_reported":1735715346,"current_range_meters":35200,"station_id":"ce4bha92rcd13ifvqeh0","pricing_plan_id":"cebpf4jnsgd1na2vs0mg"},{"bike_id":"7f9e49d8-8213-48ff-8267-1347961734e7","system_id":"levelo_inurba_marseille","lat":43.27833,"lon":5.392,"is_reserved":false,"is_disabled":false,"rental_uris":{"android":"levelo://app?vid=7f9e49d8-8213-48ff-8267-1347961734e7","ios":"levelo://app?vid=7f9e49d8-8213-48ff-8267-1347961734e7"},"vehicle_type_id":"4","last_reported":1735715346,"current_range_meters":38800,"station_id":"ce4bhjp2rcd13ifvqga0","pricing_plan_id":"cebpf4jnsgd1na2vs0mg"},{"bike_id":"737ef40e-a86b-4f85-a60b-fd1719a16354","system_id":"levelo_inurba_marseille","lat":43.28694,"lon":5.39971,"is_reserved":false,"is_disabled":false,"rental_uris":{"android":"levelo://app?vid=737ef40e-a86b-4f85-a60b-fd1719a16354","ios":"levelo://app?vid=737ef40e-a86b-4f85-a60b-fd1719a16354"},"vehicle_type_id":"4","last_reported":1735715346,"current_range_meters":7200,"station_id":"ce4bho92rcd13ifvqh3g","pricing_plan_id":"cebpf4jnsgd1na2vs0mg"},{"bike_id":"a20f199d-71af-445c-a87d-133fcc7dd779","system_id":"levelo_inurba_marseille","lat":43.28566,"lon":5.39487,"is_reserved":false,"is_disabled":false,"rental_uris":{"android":"levelo://app?vid=a20f199d-71af-445c-a87d-133fcc7dd779","ios":"levelo://app?vid=a20f199d-71af-445c-a87d-133fcc7dd779"},"vehicle_type_id":"4","last_reported":1735715346,"current_range_meters":38000,"station_id":"ce4bh292rcd13ifvqdg0","pricing_plan_id":"cebpf4jnsgd1na2vs0mg"},{"bike_id":"ea990fc9-5f95-4acd-a2be-29105099e24e","system_id":"levelo_inurba_marseille","lat":43.23063,"lon":5.35489,"is_reserved":false,"is_disabled":false,"rental_uris":{"android":"levelo://app?vid=ea990fc9-5f95-4acd-a2be-29105099e24e","ios":"levelo://app?vid=ea990fc9-5f95-4acd-a2be-29105099e24e"},"vehicle_type_id":"4","last_reported":1735715346,"current_range_meters":32000,"station_id":"cpo3342slgdg3j2ifvpg","pricing_plan_id":"cebpf4jnsgd1na2vs0mg"},{"bike_id":"36f44142-1c0d-42e7-8ea9-53a7b179edb1","system_id":"levelo_inurba_marseille","lat":43.30796,"lon":5.38149,"is_reserved":false,"is_disabled":false,"rental_uris":{"android":"levelo://app?vid=36f44142-1c0d-42e7-8ea9-53a7b179edb1","ios":"levelo://app?vid=36f44142-1c0d-42e7-8ea9-53a7b179edb1"},"vehicle_type_id":"4","last_reported":1735715346,"current_range_meters":36400,"station_id":"ce4bgt12rcd13ifvqce0","pricing_plan_id":"cebpf4jnsgd1na2vs0mg"},{"bike_id":"711f1fd4-0cad-4b01-a65d-e868b4eef140","system_id":"levelo_inurba_marseille","lat":43.29281,"lon":5.40931,"is_reserved":false,"is_disabled":false,"rental_uris":{"android":"levelo://app?vid=711f1fd4-0cad-4b01-a65d-e868b4eef140","ios":"levelo://app?vid=711f1fd4-0cad-4b01-a65d-e868b4eef140"},"vehicle_type_id":"4","last_reported":1735715346,"current_range_meters":38800,"station_id":"ce4bh192rcd13ifvqdc0","pricing_plan_id":"cebpf4jnsgd1na2vs0mg"},{"bike_id":"875a1f95-fa28-45eb-8a15-cb8df7fccf00","system_id":"levelo_inurba_marseille","lat":43.32491,"lon":5.36531,"is_reserved":false,"is_disabled":false,"rental_uris":{"android":"levelo://app?vid=875a1f95-fa28-45eb-8a15-cb8df7fccf00","ios":"levelo://app?vid=875a1f95-fa28-45eb-8a15-cb8df7fccf00"},"vehicle_type_id":"4","last_reported":1735715346,"current_range_meters":36000,"station_id":"ce4bhs12rcd13ifvqhvg","pricing_plan_id":"cebpf4jnsgd1na2vs0mg"},{"bike_id":"cd7b9558-8d06-49df-8212-34adf989ba57","system_id":"levelo_inurba_marseille","lat":43.30933,"lon":5.4015,"is_reserved":false,"is_disabled":false,"rental_uris":{"android":"levelo://app?vid=cd7b9558-8d06-49df-8212-34adf989ba57","ios":"levelo://app?vid=cd7b9558-8d06-49df-8212-34adf989ba57"},"vehicle_type_id":"4","last_reported":1735715346,"current_range_meters":28000,"station_id":"ce4bgvp2rcd13ifvqct0","pricing_plan_id":"cebpf4jnsgd1na2vs0mg"},{"bike_id":"d13b199e-e620-4f52-ae43-9a360f46ed32","system_id":"levelo_inurba_marseille","lat":43.27984,"lon":5.4001,"is_reserved":false,"is_disabled":false,"rental_uris":{"android":"levelo://app?vid=d13b199e-e620-4f52-ae43-9a360f46ed32","ios":"levelo://app?vid=d13b199e-e620-4f52-ae43-9a360f46ed32"},"vehicle_type_id":"4","last_reported":1735715346,"current_range_meters":7200,"station_id":"ce4bho92rcd13ifvqh4g","pricing_plan_id":"cebpf4jnsgd1na2vs0mg"},{"bike_id":"062bd3e7-a1b0-4a7b-be3e-67845610f912","system_id":"levelo_inurba_marseille","lat":43.31288,"lon":5.40163,"is_reserved":false,"is_disabled":false,"rental_uris":{"android":"levelo://app?vid=062bd3e7-a1b0-4a7b-be3e-67845610f912","ios":"levelo://app?vid=062bd3e7-a1b0-4a7b-be3e-67845610f912"},"vehicle_type_id":"4","last_reported":1735715346,"current_range_meters":30000,"station_id":"ce4bh092rcd13ifvqd30","pricing_plan_id":"cebpf4jnsgd1na2vs0mg"},{"bike_id":"64b201b6-baea-40fe-8ce0-09f71446a830","system_id":"levelo_inurba_marseille","lat":43.2697,"lon":5.38624,"is_reserved":false,"is_disabled":false,"rental_uris":{"android":"levelo://app?vid=64b201b6-baea-40fe-8ce0-09f71446a830","ios":"levelo://app?vid=64b201b6-baea-40fe-8ce0-09f71446a830"},"vehicle_type_id":"4","last_reported":1735715346,"current_range_meters":32400,"station_id":"ce4bhh92rcd13ifvqfh0","pricing_plan_id":"cebpf4jnsgd1na2vs0mg"},{"bike_id":"32afc6cc-1544-4f88-ab5c-34496cc35b04","system_id":"levelo_inurba_marseille","lat":43.23069,"lon":5.35492,"is_reserved":false,"is_disabled":false,"rental_uris":{"android":"levelo://app?vid=32afc6cc-1544-4f88-ab5c-34496cc35b04","ios":"levelo://app?vid=32afc6cc-1544-4f88-ab5c-34496cc35b04"},"vehicle_type_id":"4","last_reported":1735715346,"current_range_meters":12800,"station_id":"cpo3342slgdg3j2ifvpg","pricing_plan_id":"cebpf4jnsgd1na2vs0mg"},{"bike_id":"34d20bf1-6aea-4179-808b-978c64e28d8c","system_id":"levelo_inurba_marseille","lat":43.278147,"lon":5.40713,"is_reserved":false,"is_disabled":false,"rental_uris":{"android":"levelo://app?vid=34d20bf1-6aea-4179-808b-978c64e28d8c","ios":"levelo://app?vid=34d20bf1-6aea-4179-808b-978c64e28d8c"},"vehicle_type_id":"4","last_reported":1735715346,"current_range_meters":38800,"station_id":"ce4bhnh2rcd13ifvqgtg","pricing_plan_id":"cebpf4jnsgd1na2vs0mg"},{"bike_id":"b2838581-a430-4e92-a319-537c0694319a","system_id":"levelo_inurba_marseille","lat":43.30878,"lon":5.39661,"is_reserved":false,"is_disabled":false,"rental_uris":{"android":"levelo://app?vid=b2838581-a430-4e92-a319-537c0694319a","ios":"levelo://app?vid=b2838581-a430-4e92-a319-537c0694319a"},"vehicle_type_id":"4","last_reported":1735715346,"current_range_meters":24400,"station_id":"ce4bh012rcd13ifvqcv0","pricing_plan_id":"cebpf4jnsgd1na2vs0mg"},{"bike_id":"4a93cd50-834a-4002-a210-2c1693916d49","system_id":"levelo_inurba_marseille","lat":43.31244,"lon":5.37253,"is_reserved":false,"is_disabled":false,"rental_uris":{"android":"levelo://app?vid=4a93cd50-834a-4002-a210-2c1693916d49","ios":"levelo://app?vid=4a93cd50-834a-4002-a210-2c1693916d49"},"vehicle_type_id":"4","last_reported":1735715346,"current_range_meters":29600,"station_id":"","pricing_plan_id":"cebpf4jnsgd1na2vs0mg"},{"bike_id":"a1a08613-ef2e-4334-a9f9-a3d31972b96c","system_id":"levelo_inurba_marseille","lat":43.27065,"lon":5.40263,"is_reserved":false,"is_disabled":false,"rental_uris":{"android":"levelo://app?vid=a1a08613-ef2e-4334-a9f9-a3d31972b96c","ios":"levelo://app?vid=a1a08613-ef2e-4334-a9f9-a3d31972b96c"},"vehicle_type_id":"4","last_reported":1735715346,"current_range_meters":20000,"station_id":"ce4bhk92rcd13ifvqgc0","pricing_plan_id":"cebpf4jnsgd1na2vs0mg"},{"bike_id":"e5967929-b43d-4a0a-924e-13dc4eba2a6f","system_id":"levelo_inurba_marseille","lat":43.31758,"lon":5.39008,"is_reserved":false,"is_disabled":false,"rental_uris":{"android":"levelo://app?vid=e5967929-b43d-4a0a-924e-13dc4eba2a6f","ios":"levelo://app?vid=e5967929-b43d-4a0a-924e-13dc4eba2a6f"},"vehicle_type_id":"4","last_reported":1735715346,"current_range_meters":30000,"station_id":"ce4bhqp2rcd13ifvqhng","pricing_plan_id":"cebpf4jnsgd1na2vs0mg"},{"bike_id":"535f06dd-0df7-426f-8058-e523b64a9d08","system_id":"levelo_inurba_marseille","lat":43.25012,"lon":5.38923,"is_reserved":false,"is_disabled":false,"rental_uris":{"android":"levelo://app?vid=535f06dd-0df7-426f-8058-e523b64a9d08","ios":"levelo://app?vid=535f06dd-0df7-426f-8058-e523b64a9d08"},"vehicle_type_id":"4","last_reported":1735715346,"current_range_meters":10800,"station_id":"ce4bhgp2rcd13ifvqfd0","pricing_plan_id":"cebpf4jnsgd1na2vs0mg"},{"bike_id":"b1e5eb72-81e6-47c8-81f0-5df7140b8a5b","system_id":"levelo_inurba_marseille","lat":43.31077,"lon":5.42423,"is_reserved":false,"is_disabled":false,"rental_uris":{"android":"levelo://app?vid=b1e5eb72-81e6-47c8-81f0-5df7140b8a5b","ios":"levelo://app?vid=b1e5eb72-81e6-47c8-81f0-5df7140b8a5b"},"vehicle_type_id":"4","last_reported":1735715346,"current_range_meters":38800,"station_id":"ce4bhp92rcd13ifvqhag","pricing_plan_id":"cebpf4jnsgd1na2vs0mg"},{"bike_id":"d9039fb6-1526-43a5-ab47-bf6c74051347","system_id":"levelo_inurba_marseille","lat":43.28146,"lon":5.42656,"is_reserved":false,"is_disabled":false,"rental_uris":{"android":"levelo://app?vid=d9039fb6-1526-43a5-ab47-bf6c74051347","ios":"levelo://app?vid=d9039fb6-1526-43a5-ab47-bf6c74051347"},"vehicle_type_id":"4","last_reported":1735715346,"current_range_meters":8400,"station_id":"ce4bhnh2rcd13ifvqgug","pricing_plan_id":"cebpf4jnsgd1na2vs0mg"},{"bike_id":"85d511af-c5d8-4223-9956-3b8f289b598c","system_id":"levelo_inurba_marseille","lat":43.28276,"lon":5.35078,"is_reserved":false,"is_disabled":false,"rental_uris":{"android":"levelo://app?vid=85d511af-c5d8-4223-9956-3b8f289b598c","ios":"levelo://app?vid=85d511af-c5d8-4223-9956-3b8f289b598c"},"vehicle_type_id":"4","last_reported":1735715346,"current_range_meters":33200,"station_id":"ce4bhbp2rcd13ifvqerg","pricing_plan_id":"cebpf4jnsgd1na2vs0mg"},{"bike_id":"41f82925-3aff-4ae8-bef1-2e85a078111b","system_id":"levelo_inurba_marseille","lat":43.308873,"lon":5.396346,"is_reserved":false,"is_disabled":false,"rental_uris":{"android":"levelo://app?vid=41f82925-3aff-4ae8-bef1-2e85a078111b","ios":"levelo://app?vid=41f82925-3aff-4ae8-bef1-2e85a078111b"},"vehicle_type_id":"4","last_reported":1735715346,"current_range_meters":35600,"station_id":"ce4bh012rcd13ifvqcv0","pricing_plan_id":"cebpf4jnsgd1na2vs0mg"},{"bike_id":"cad9e3fc-bf11-4cf5-b9f2-3d777441891d","system_id":"levelo_inurba_marseille","lat":43.28712,"lon":5.3999,"is_reserved":false,"is_disabled":false,"rental_uris":{"android":"levelo://app?vid=cad9e3fc-bf11-4cf5-b9f2-3d777441891d","ios":"levelo://app?vid=cad9e3fc-bf11-4cf5-b9f2-3d777441891d"},"vehicle_type_id":"4","last_reported":1735715346,"current_range_meters":33200,"station_id":"ce4bho92rcd13ifvqh3g","pricing_plan_id":"cebpf4jnsgd1na2vs0mg"},{"bike_id":"022d826a-d31d-48ef-b07e-f8dd0ceaa746","system_id":"levelo_inurba_marseille","lat":43.24996,"lon":5.38935,"is_reserved":false,"is_disabled":false,"rental_uris":{"android":"levelo://app?vid=022d826a-d31d-48ef-b07e-f8dd0ceaa746","ios":"levelo://app?vid=022d826a-d31d-48ef-b07e-f8dd0ceaa746"},"vehicle_type_id":"4","last_reported":1735715346,"current_range_meters":33600,"station_id":"ce4bhgp2rcd13ifvqfd0","pricing_plan_id":"cebpf4jnsgd1na2vs0mg"},{"bike_id":"c9d01350-1227-4b65-b16a-371c8344a674","system_id":"levelo_inurba_marseille","lat":43.287,"lon":5.39989,"is_reserved":false,"is_disabled":false,"rental_uris":{"android":"levelo://app?vid=c9d01350-1227-4b65-b16a-371c8344a674","ios":"levelo://app?vid=c9d01350-1227-4b65-b16a-371c8344a674"},"vehicle_type_id":"4","last_reported":1735715346,"current_range_meters":18800,"station_id":"ce4bho92rcd13ifvqh3g","pricing_plan_id":"cebpf4jnsgd1na2vs0mg"},{"bike_id":"04e7867a-1371-4222-a6db-9d80083cea73","system_id":"levelo_inurba_marseille","lat":43.28844,"lon":5.35846,"is_reserved":false,"is_disabled":true,"rental_uris":{"android":"levelo://app?vid=04e7867a-1371-4222-a6db-9d80083cea73","ios":"levelo://app?vid=04e7867a-1371-4222-a6db-9d80083cea73"},"vehicle_type_id":"4","last_reported":1735715346,"current_range_meters":34000,"station_id":"ce4bhb12rcd13ifvqem0","pricing_plan_id":"cebpf4jnsgd1na2vs0mg"},{"bike_id":"8a146b06-afc0-42cb-8186-7682971ad0d0","system_id":"levelo_inurba_marseille","lat":43.31485,"lon":5.37294,"is_reserved":false,"is_disabled":false,"rental_uris":{"android":"levelo://app?vid=8a146b06-afc0-42cb-8186-7682971ad0d0","ios":"levelo://app?vid=8a146b06-afc0-42cb-8186-7682971ad0d0"},"vehicle_type_id":"4","last_reported":1735715346,"current_range_meters":8000,"station_id":"ce4bgt12rcd13ifvqcd0","pricing_plan_id":"cebpf4jnsgd1na2vs0mg"},{"bike_id":"4d1a84a8-b869-4c6c-a789-022dd0dc51b8","system_id":"levelo_inurba_marseille","lat":43.31283,"lon":5.40151,"is_reserved":false,"is_disabled":false,"rental_uris":{"android":"levelo://app?vid=4d1a84a8-b869-4c6c-a789-022dd0dc51b8","ios":"levelo://app?vid=4d1a84a8-b869-4c6c-a789-022dd0dc51b8"},"vehicle_type_id":"4","last_reported":1735715346,"current_range_meters":38800,"station_id":"ce4bh092rcd13ifvqd30","pricing_plan_id":"cebpf4jnsgd1na2vs0mg"},{"bike_id":"dacb31f4-90b7-43f7-bc2e-c7ea69b2bb33","system_id":"levelo_inurba_marseille","lat":43.31249,"lon":5.36878,"is_reserved":false,"is_disabled":true,"rental_uris":{"android":"levelo://app?vid=dacb31f4-90b7-43f7-bc2e-c7ea69b2bb33","ios":"levelo://app?vid=dacb31f4-90b7-43f7-bc2e-c7ea69b2bb33"},"vehicle_type_id":"4","last_reported":1735715346,"current_range_meters":38800,"station_id":"ce4bgl92rcd13ifvqbq0","pricing_plan_id":"cebpf4jnsgd1na2vs0mg"},{"bike_id":"ce832012-a3ed-43f4-b69b-817fb4ff309b","system_id":"levelo_inurba_marseille","lat":43.30426,"lon":5.39759,"is_reserved":false,"is_disabled":false,"rental_uris":{"android":"levelo://app?vid=ce832012-a3ed-43f4-b69b-817fb4ff309b","ios":"levelo://app?vid=ce832012-a3ed-43f4-b69b-817fb4ff309b"},"vehicle_type_id":"4","last_reported":1735715346,"current_range_meters":37600,"station_id":"ce4bh092rcd13ifvqd20","pricing_plan_id":"cebpf4jnsgd1na2vs0mg"},{"bike_id":"428d9846-0630-4f49-8fa8-8571caa761ea","system_id":"levelo_inurba_marseille","lat":43.308936,"lon":5.37199,"is_reserved":false,"is_disabled":false,"rental_uris":{"android":"levelo://app?vid=428d9846-0630-4f49-8fa8-8571caa761ea","ios":"levelo://app?vid=428d9846-0630-4f49-8fa8-8571caa761ea"},"vehicle_type_id":"4","last_reported":1735715346,"current_range_meters":31200,"station_id":"ce4bguh2rcd13ifvqckg","pricing_plan_id":"cebpf4jnsgd1na2vs0mg"},{"bike_id":"6bd3afe6-91ca-4d9c-9df4-f4d2d0202408","system_id":"levelo_inurba_marseille","lat":43.28727,"lon":5.39989,"is_reserved":false,"is_disabled":false,"rental_uris":{"android":"levelo://app?vid=6bd3afe6-91ca-4d9c-9df4-f4d2d0202408","ios":"levelo://app?vid=6bd3afe6-91ca-4d9c-9df4-f4d2d0202408"},"vehicle_type_id":"4","last_reported":1735715346,"current_range_meters":19600,"station_id":"ce4bho92rcd13ifvqh3g","pricing_plan_id":"cebpf4jnsgd1na2vs0mg"},{"bike_id":"bf654c11-a7e0-4cab-821c-d8bcb8858e68","system_id":"levelo_inurba_marseille","lat":43.28704,"lon":5.37385,"is_reserved":false,"is_disabled":false,"rental_uris":{"android":"levelo://app?vid=bf654c11-a7e0-4cab-821c-d8bcb8858e68","ios":"levelo://app?vid=bf654c11-a7e0-4cab-821c-d8bcb8858e68"},"vehicle_type_id":"4","last_reported":1735715346,"current_range_meters":32000,"station_id":"ce4bh3p2rcd13ifvqdq0","pricing_plan_id":"cebpf4jnsgd1na2vs0mg"},{"bike_id":"564a3d09-1ba5-4dd8-ba88-dab5b710821c","system_id":"levelo_inurba_marseille","lat":43.31993,"lon":5.38141,"is_reserved":false,"is_disabled":false,"rental_uris":{"android":"levelo://app?vid=564a3d09-1ba5-4dd8-ba88-dab5b710821c","ios":"levelo://app?vid=564a3d09-1ba5-4dd8-ba88-dab5b710821c"},"vehicle_type_id":"4","last_reported":1735715346,"current_range_meters":11200,"station_id":"ce4bhr12rcd13ifvqhpg","pricing_plan_id":"cebpf4jnsgd1na2vs0mg"},{"bike_id":"a005e1bf-2999-4035-942d-1957469d29ca","system_id":"levelo_inurba_marseille","lat":43.24673,"lon":5.38164,"is_reserved":false,"is_disabled":true,"rental_uris":{"android":"levelo://app?vid=a005e1bf-2999-4035-942d-1957469d29ca","ios":"levelo://app?vid=a005e1bf-2999-4035-942d-1957469d29ca"},"vehicle_type_id":"4","last_reported":1735715346,"current_range_meters":34800,"station_id":"ce4bhih2rcd13ifvqfr0","pricing_plan_id":"cebpf4jnsgd1na2vs0mg"},{"bike_id":"59aea15c-63a1-4bc3-8429-95a2a875a733","system_id":"levelo_inurba_marseille","lat":43.3171,"lon":5.43704,"is_reserved":false,"is_disabled":true,"rental_uris":{"android":"levelo://app?vid=59aea15c-63a1-4bc3-8429-95a2a875a733","ios":"levelo://app?vid=59aea15c-63a1-4bc3-8429-95a2a875a733"},"vehicle_type_id":"4","last_reported":1735715346,"current_range_meters":13600,"station_id":"ce4bhp92rcd13ifvqhcg","pricing_plan_id":"cebpf4jnsgd1na2vs0mg"},{"bike_id":"f6c3569e-efa4-4a1c-b75b-94ded8df3e64","system_id":"levelo_inurba_marseille","lat":43.2795,"lon":5.38694,"is_reserved":false,"is_disabled":false,"rental_uris":{"android":"levelo://app?vid=f6c3569e-efa4-4a1c-b75b-94ded8df3e64","ios":"levelo://app?vid=f6c3569e-efa4-4a1c-b75b-94ded8df3e64"},"vehicle_type_id":"4","last_reported":1735715346,"current_range_meters":29600,"station_id":"ce4bhg12rcd13ifvqf80","pricing_plan_id":"cebpf4jnsgd1na2vs0mg"},{"bike_id":"cf9ddc20-a956-4ff8-926a-7954a2ba41fb","system_id":"levelo_inurba_marseille","lat":43.29883,"lon":5.38907,"is_reserved":false,"is_disabled":false,"rental_uris":{"android":"levelo://app?vid=cf9ddc20-a956-4ff8-926a-7954a2ba41fb","ios":"levelo://app?vid=cf9ddc20-a956-4ff8-926a-7954a2ba41fb"},"vehicle_type_id":"4","last_reported":1735715346,"current_range_meters":37600,"station_id":"ce4bh392rcd13ifvqdl0","pricing_plan_id":"cebpf4jnsgd1na2vs0mg"},{"bike_id":"5510f670-eb3d-4a9d-951e-27e21575eef2","system_id":"levelo_inurba_marseille","lat":43.32469,"lon":5.36566,"is_reserved":false,"is_disabled":false,"rental_uris":{"android":"levelo://app?vid=5510f670-eb3d-4a9d-951e-27e21575eef2","ios":"levelo://app?vid=5510f670-eb3d-4a9d-951e-27e21575eef2"},"vehicle_type_id":"4","last_reported":1735715346,"current_range_meters":38800,"station_id":"ce4bhs12rcd13ifvqhvg","pricing_plan_id":"cebpf4jnsgd1na2vs0mg"},{"bike_id":"937431f3-544e-43d2-844d-453dc9871b62","system_id":"levelo_inurba_marseille","lat":43.29197,"lon":5.35792,"is_reserved":false,"is_disabled":false,"rental_uris":{"android":"levelo://app?vid=937431f3-544e-43d2-844d-453dc9871b62","ios":"levelo://app?vid=937431f3-544e-43d2-844d-453dc9871b62"},"vehicle_type_id":"4","last_reported":1735715346,"current_range_meters":27600,"station_id":"ce4bhb12rcd13ifvqel0","pricing_plan_id":"cebpf4jnsgd1na2vs0mg"},{"bike_id":"852b588b-071f-4cfc-b014-8768e4a4625a","system_id":"levelo_inurba_marseille","lat":43.28257,"lon":5.35073,"is_reserved":false,"is_disabled":false,"rental_uris":{"android":"levelo://app?vid=852b588b-071f-4cfc-b014-8768e4a4625a","ios":"levelo://app?vid=852b588b-071f-4cfc-b014-8768e4a4625a"},"vehicle_type_id":"4","last_reported":1735715346,"current_range_meters":12800,"station_id":"ce4bhbp2rcd13ifvqerg","pricing_plan_id":"cebpf4jnsgd1na2vs0mg"},{"bike_id":"9a86c5f4-222e-40da-ad75-b0cb7264de3b","system_id":"levelo_inurba_marseille","lat":43.2782,"lon":5.40725,"is_reserved":false,"is_disabled":false,"rental_uris":{"android":"levelo://app?vid=9a86c5f4-222e-40da-ad75-b0cb7264de3b","ios":"levelo://app?vid=9a86c5f4-222e-40da-ad75-b0cb7264de3b"},"vehicle_type_id":"4","last_reported":1735715346,"current_range_meters":28800,"station_id":"ce4bhnh2rcd13ifvqgtg","pricing_plan_id":"cebpf4jnsgd1na2vs0mg"},{"bike_id":"ff9fb98a-12b7-4913-b4c5-8600f1cc4ece","system_id":"levelo_inurba_marseille","lat":43.2669,"lon":5.38276,"is_reserved":false,"is_disabled":false,"rental_uris":{"android":"levelo://app?vid=ff9fb98a-12b7-4913-b4c5-8600f1cc4ece","ios":"levelo://app?vid=ff9fb98a-12b7-4913-b4c5-8600f1cc4ece"},"vehicle_type_id":"4","last_reported":1735715346,"current_range_meters":28400,"station_id":"ce4bhg92rcd13ifvqf90","pricing_plan_id":"cebpf4jnsgd1na2vs0mg"},{"bike_id":"e7f232e6-9751-45f4-a24f-005b95d10947","system_id":"levelo_inurba_marseille","lat":43.296108,"lon":5.377144,"is_reserved":false,"is_disabled":true,"rental_uris":{"android":"levelo://app?vid=e7f232e6-9751-45f4-a24f-005b95d10947","ios":"levelo://app?vid=e7f232e6-9751-45f4-a24f-005b95d10947"},"vehicle_type_id":"4","last_reported":1735715346,"current_range_meters":38000,"station_id":"ce4bgi92rcd13ifvqb90","pricing_plan_id":"cebpf4jnsgd1na2vs0mg"},{"bike_id":"4f2ac8ed-dfff-4d5d-afd2-2813f6005d43","system_id":"levelo_inurba_marseille","lat":43.32471,"lon":5.36541,"is_reserved":false,"is_disabled":false,"rental_uris":{"android":"levelo://app?vid=4f2ac8ed-dfff-4d5d-afd2-2813f6005d43","ios":"levelo://app?vid=4f2ac8ed-dfff-4d5d-afd2-2813f6005d43"},"vehicle_type_id":"4","last_reported":1735715346,"current_range_meters":8000,"station_id":"ce4bhs12rcd13ifvqhvg","pricing_plan_id":"cebpf4jnsgd1na2vs0mg"},{"bike_id":"f3998a04-3b93-4948-8eb7-aa16047370fd","system_id":"levelo_inurba_marseille","lat":43.27944,"lon":5.4105,"is_reserved":false,"is_disabled":false,"rental_uris":{"android":"levelo://app?vid=f3998a04-3b93-4948-8eb7-aa16047370fd","ios":"levelo://app?vid=f3998a04-3b93-4948-8eb7-aa16047370fd"},"vehicle_type_id":"4","last_reported":1735715346,"current_range_meters":28000,"station_id":"ce4bhnp2rcd13ifvqh0g","pricing_plan_id":"cebpf4jnsgd1na2vs0mg"},{"bike_id":"2241734e-29b7-4c37-ae32-2588a0ac3a7c","system_id":"levelo_inurba_marseille","lat":43.32491,"lon":5.36551,"is_reserved":false,"is_disabled":false,"rental_uris":{"android":"levelo://app?vid=2241734e-29b7-4c37-ae32-2588a0ac3a7c","ios":"levelo://app?vid=2241734e-29b7-4c37-ae32-2588a0ac3a7c"},"vehicle_type_id":"4","last_reported":1735715346,"current_range_meters":38800,"station_id":"ce4bhs12rcd13ifvqhvg","pricing_plan_id":"cebpf4jnsgd1na2vs0mg"},{"bike_id":"4e5ddd94-96b7-43d6-9911-f47ef0293625","system_id":"levelo_inurba_marseille","lat":43.30339,"lon":5.41903,"is_reserved":false,"is_disabled":false,"rental_uris":{"android":"levelo://app?vid=4e5ddd94-96b7-43d6-9911-f47ef0293625","ios":"levelo://app?vid=4e5ddd94-96b7-43d6-9911-f47ef0293625"},"vehicle_type_id":"4","last_reported":1735715346,"current_range_meters":37600,"station_id":"ce4bhop2rcd13ifvqh7g","pricing_plan_id":"cebpf4jnsgd1na2vs0mg"},{"bike_id":"39d9f610-5223-49ac-852d-17a3ed22dbf7","system_id":"levelo_inurba_marseille","lat":43.27617,"lon":5.36106,"is_reserved":false,"is_disabled":false,"rental_uris":{"android":"levelo://app?vid=39d9f610-5223-49ac-852d-17a3ed22dbf7","ios":"levelo://app?vid=39d9f610-5223-49ac-852d-17a3ed22dbf7"},"vehicle_type_id":"4","last_reported":1735715346,"current_range_meters":37600,"station_id":"ce4bgj92rcd13ifvqbe0","pricing_plan_id":"cebpf4jnsgd1na2vs0mg"},{"bike_id":"8ead7e35-2ddd-4db1-b525-2dbe32578065","system_id":"levelo_inurba_marseille","lat":43.30309,"lon":5.36902,"is_reserved":false,"is_disabled":true,"rental_uris":{"android":"levelo://app?vid=8ead7e35-2ddd-4db1-b525-2dbe32578065","ios":"levelo://app?vid=8ead7e35-2ddd-4db1-b525-2dbe32578065"},"vehicle_type_id":"4","last_reported":1735715346,"current_range_meters":36800,"station_id":"ce4bgqh2rcd13ifvqc5g","pricing_plan_id":"cebpf4jnsgd1na2vs0mg"},{"bike_id":"8aee7335-9bb9-4f23-b622-e2e583683fb9","system_id":"levelo_inurba_marseille","lat":43.29881,"lon":5.38896,"is_reserved":false,"is_disabled":false,"rental_uris":{"android":"levelo://app?vid=8aee7335-9bb9-4f23-b622-e2e583683fb9","ios":"levelo://app?vid=8aee7335-9bb9-4f23-b622-e2e583683fb9"},"vehicle_type_id":"4","last_reported":1735715346,"current_range_meters":38800,"station_id":"ce4bh392rcd13ifvqdl0","pricing_plan_id":"cebpf4jnsgd1na2vs0mg"},{"bike_id":"e157af35-862f-4ff3-a971-0cec14143385","system_id":"levelo_inurba_marseille","lat":43.27942,"lon":5.41036,"is_reserved":false,"is_disabled":false,"rental_uris":{"android":"levelo://app?vid=e157af35-862f-4ff3-a971-0cec14143385","ios":"levelo://app?vid=e157af35-862f-4ff3-a971-0cec14143385"},"vehicle_type_id":"4","last_reported":1735715346,"current_range_meters":33600,"station_id":"ce4bhnp2rcd13ifvqh0g","pricing_plan_id":"cebpf4jnsgd1na2vs0mg"},{"bike_id":"f500b8cb-43cd-4100-bd55-280f871dca0e","system_id":"levelo_inurba_marseille","lat":43.31183,"lon":5.38676,"is_reserved":false,"is_disabled":false,"rental_uris":{"android":"levelo://app?vid=f500b8cb-43cd-4100-bd55-280f871dca0e","ios":"levelo://app?vid=f500b8cb-43cd-4100-bd55-280f871dca0e"},"vehicle_type_id":"4","last_reported":1735715346,"current_range_meters":37600,"station_id":"ce4bgv12rcd13ifvqcp0","pricing_plan_id":"cebpf4jnsgd1na2vs0mg"},{"bike_id":"5c2de9bd-86ba-44d1-aad3-0f54961df2b8","system_id":"levelo_inurba_marseille","lat":43.26798,"lon":5.40279,"is_reserved":false,"is_disabled":false,"rental_uris":{"android":"levelo://app?vid=5c2de9bd-86ba-44d1-aad3-0f54961df2b8","ios":"levelo://app?vid=5c2de9bd-86ba-44d1-aad3-0f54961df2b8"},"vehicle_type_id":"4","last_reported":1735715346,"current_range_meters":7200,"station_id":"ce501612rcd8frsf0b60","pricing_plan_id":"cebpf4jnsgd1na2vs0mg"},{"bike_id":"f5997a88-606e-48c9-933e-041b10894cea","system_id":"levelo_inurba_marseille","lat":43.2707,"lon":5.42264,"is_reserved":false,"is_disabled":false,"rental_uris":{"android":"levelo://app?vid=f5997a88-606e-48c9-933e-041b10894cea","ios":"levelo://app?vid=f5997a88-606e-48c9-933e-041b10894cea"},"vehicle_type_id":"4","last_reported":1735715346,"current_range_meters":19600,"station_id":"ce4bhk92rcd13ifvqgb0","pricing_plan_id":"cebpf4jnsgd1na2vs0mg"},{"bike_id":"3c87408a-36a2-4ba6-a149-50ae31d5c3c3","system_id":"levelo_inurba_marseille","lat":43.27566,"lon":5.38424,"is_reserved":false,"is_disabled":true,"rental_uris":{"android":"levelo://app?vid=3c87408a-36a2-4ba6-a149-50ae31d5c3c3","ios":"levelo://app?vid=3c87408a-36a2-4ba6-a149-50ae31d5c3c3"},"vehicle_type_id":"4","last_reported":1735715346,"current_range_meters":0,"station_id":"ce4bhh92rcd13ifvqfi0","pricing_plan_id":"cebpf4jnsgd1na2vs0mg"},{"bike_id":"b2efc2c9-4c50-4ae0-9f7a-2ebbe60214c1","system_id":"levelo_inurba_marseille","lat":43.25118,"lon":5.40315,"is_reserved":false,"is_disabled":false,"rental_uris":{"android":"levelo://app?vid=b2efc2c9-4c50-4ae0-9f7a-2ebbe60214c1","ios":"levelo://app?vid=b2efc2c9-4c50-4ae0-9f7a-2ebbe60214c1"},"vehicle_type_id":"4","last_reported":1735715346,"current_range_meters":8400,"station_id":"ce4bhlh2rcd13ifvqgig","pricing_plan_id":"cebpf4jnsgd1na2vs0mg"},{"bike_id":"87e52f07-b8c7-42c2-acea-272e41e6e085","system_id":"levelo_inurba_marseille","lat":43.29045,"lon":5.35918,"is_reserved":false,"is_disabled":false,"rental_uris":{"android":"levelo://app?vid=87e52f07-b8c7-42c2-acea-272e41e6e085","ios":"levelo://app?vid=87e52f07-b8c7-42c2-acea-272e41e6e085"},"vehicle_type_id":"4","last_reported":1735715346,"current_range_meters":37600,"station_id":"ce4bha92rcd13ifvqeg0","pricing_plan_id":"cebpf4jnsgd1na2vs0mg"},{"bike_id":"236b3030-26dc-4d31-a5ec-3e724cdce4e6","system_id":"levelo_inurba_marseille","lat":43.30877,"lon":5.39617,"is_reserved":false,"is_disabled":false,"rental_uris":{"android":"levelo://app?vid=236b3030-26dc-4d31-a5ec-3e724cdce4e6","ios":"levelo://app?vid=236b3030-26dc-4d31-a5ec-3e724cdce4e6"},"vehicle_type_id":"4","last_reported":1735715346,"current_range_meters":38800,"station_id":"ce4bh012rcd13ifvqcv0","pricing_plan_id":"cebpf4jnsgd1na2vs0mg"},{"bike_id":"feaee7f2-ad2c-4d64-9a6d-551b5c8ebcd4","system_id":"levelo_inurba_marseille","lat":43.3165,"lon":5.37733,"is_reserved":false,"is_disabled":false,"rental_uris":{"android":"levelo://app?vid=feaee7f2-ad2c-4d64-9a6d-551b5c8ebcd4","ios":"levelo://app?vid=feaee7f2-ad2c-4d64-9a6d-551b5c8ebcd4"},"vehicle_type_id":"4","last_reported":1735715346,"current_range_meters":10000,"station_id":"ce4bgth2rcd13ifvqch0","pricing_plan_id":"cebpf4jnsgd1na2vs0mg"},{"bike_id":"4ae90592-e920-400e-8a25-b327a1d3d78f","system_id":"levelo_inurba_marseille","lat":43.24661,"lon":5.38169,"is_reserved":false,"is_disabled":false,"rental_uris":{"android":"levelo://app?vid=4ae90592-e920-400e-8a25-b327a1d3d78f","ios":"levelo://app?vid=4ae90592-e920-400e-8a25-b327a1d3d78f"},"vehicle_type_id":"4","last_reported":1735715346,"current_range_meters":6800,"station_id":"ce4bhih2rcd13ifvqfr0","pricing_plan_id":"cebpf4jnsgd1na2vs0mg"},{"bike_id":"7423a698-8ffc-4eb4-b004-2a2364db3293","system_id":"levelo_inurba_marseille","lat":43.26959,"lon":5.3864,"is_reserved":false,"is_disabled":false,"rental_uris":{"android":"levelo://app?vid=7423a698-8ffc-4eb4-b004-2a2364db3293","ios":"levelo://app?vid=7423a698-8ffc-4eb4-b004-2a2364db3293"},"vehicle_type_id":"4","last_reported":1735715346,"current_range_meters":24400,"station_id":"ce4bhh92rcd13ifvqfh0","pricing_plan_id":"cebpf4jnsgd1na2vs0mg"},{"bike_id":"2fc8e17d-9495-4922-8d89-7dea2e5ea943","system_id":"levelo_inurba_marseille","lat":43.27052,"lon":5.40273,"is_reserved":false,"is_disabled":false,"rental_uris":{"android":"levelo://app?vid=2fc8e17d-9495-4922-8d89-7dea2e5ea943","ios":"levelo://app?vid=2fc8e17d-9495-4922-8d89-7dea2e5ea943"},"vehicle_type_id":"4","last_reported":1735715346,"current_range_meters":8800,"station_id":"ce4bhk92rcd13ifvqgc0","pricing_plan_id":"cebpf4jnsgd1na2vs0mg"},{"bike_id":"eaf838b7-144d-4291-9d25-0dcea3a4b36c","system_id":"levelo_inurba_marseille","lat":43.31125,"lon":5.3774,"is_reserved":false,"is_disabled":false,"rental_uris":{"android":"levelo://app?vid=eaf838b7-144d-4291-9d25-0dcea3a4b36c","ios":"levelo://app?vid=eaf838b7-144d-4291-9d25-0dcea3a4b36c"},"vehicle_type_id":"4","last_reported":1735715346,"current_range_meters":25200,"station_id":"ce4bgt92rcd13ifvqcg0","pricing_plan_id":"cebpf4jnsgd1na2vs0mg"},{"bike_id":"84ff672c-254b-42d1-ad81-4f7d674dca47","system_id":"levelo_inurba_marseille","lat":43.24398,"lon":5.37051,"is_reserved":false,"is_disabled":false,"rental_uris":{"android":"levelo://app?vid=84ff672c-254b-42d1-ad81-4f7d674dca47","ios":"levelo://app?vid=84ff672c-254b-42d1-ad81-4f7d674dca47"},"vehicle_type_id":"4","last_reported":1735715346,"current_range_meters":34800,"station_id":"ce4bhhh2rcd13ifvqfk0","pricing_plan_id":"cebpf4jnsgd1na2vs0mg"},{"bike_id":"d42bc978-4b09-4a1a-a3f8-f73483d2bd7b","system_id":"levelo_inurba_marseille","lat":43.324845,"lon":5.365675,"is_reserved":false,"is_disabled":false,"rental_uris":{"android":"levelo://app?vid=d42bc978-4b09-4a1a-a3f8-f73483d2bd7b","ios":"levelo://app?vid=d42bc978-4b09-4a1a-a3f8-f73483d2bd7b"},"vehicle_type_id":"4","last_reported":1735715346,"current_range_meters":22000,"station_id":"ce4bhs12rcd13ifvqhvg","pricing_plan_id":"cebpf4jnsgd1na2vs0mg"},{"bike_id":"84574380-5e63-4a67-bbf0-475b0a817486","system_id":"levelo_inurba_marseille","lat":43.27683,"lon":5.38908,"is_reserved":false,"is_disabled":false,"rental_uris":{"android":"levelo://app?vid=84574380-5e63-4a67-bbf0-475b0a817486","ios":"levelo://app?vid=84574380-5e63-4a67-bbf0-475b0a817486"},"vehicle_type_id":"4","last_reported":1735715346,"current_range_meters":39200,"station_id":"ce4bhi12rcd13ifvqfo0","pricing_plan_id":"cebpf4jnsgd1na2vs0mg"},{"bike_id":"e446fa3b-8379-4d34-9d75-ea10c796c01a","system_id":"levelo_inurba_marseille","lat":43.31355,"lon":5.38493,"is_reserved":false,"is_disabled":false,"rental_uris":{"android":"levelo://app?vid=e446fa3b-8379-4d34-9d75-ea10c796c01a","ios":"levelo://app?vid=e446fa3b-8379-4d34-9d75-ea10c796c01a"},"vehicle_type_id":"4","last_reported":1735715346,"current_range_meters":33600,"station_id":"ce4bgt92rcd13ifvqcf0","pricing_plan_id":"cebpf4jnsgd1na2vs0mg"},{"bike_id":"ebbdb52f-ebba-4684-b557-d63f96169510","system_id":"levelo_inurba_marseille","lat":43.34155,"lon":5.409104,"is_reserved":false,"is_disabled":false,"rental_uris":{"android":"levelo://app?vid=ebbdb52f-ebba-4684-b557-d63f96169510","ios":"levelo://app?vid=ebbdb52f-ebba-4684-b557-d63f96169510"},"vehicle_type_id":"4","last_reported":1735715346,"current_range_meters":39200,"station_id":"ce4bhqh2rcd13ifvqhlg","pricing_plan_id":"cebpf4jnsgd1na2vs0mg"},{"bike_id":"1909837d-c3cb-4f0e-93e1-5dcfc1b3166a","system_id":"levelo_inurba_marseille","lat":43.33606,"lon":5.41034,"is_reserved":false,"is_disabled":false,"rental_uris":{"android":"levelo://app?vid=1909837d-c3cb-4f0e-93e1-5dcfc1b3166a","ios":"levelo://app?vid=1909837d-c3cb-4f0e-93e1-5dcfc1b3166a"},"vehicle_type_id":"4","last_reported":1735715346,"current_range_meters":25600,"station_id":"ce4bhqh2rcd13ifvqhmg","pricing_plan_id":"cebpf4jnsgd1na2vs0mg"},{"bike_id":"3bcfc247-595e-4073-9ae9-f2ca8e7ff582","system_id":"levelo_inurba_marseille","lat":43.30431,"lon":5.388913,"is_reserved":false,"is_disabled":false,"rental_uris":{"android":"levelo://app?vid=3bcfc247-595e-4073-9ae9-f2ca8e7ff582","ios":"levelo://app?vid=3bcfc247-595e-4073-9ae9-f2ca8e7ff582"},"vehicle_type_id":"4","last_reported":1735715346,"current_range_meters":38800,"station_id":"ce4bgk12rcd13ifvqbi0","pricing_plan_id":"cebpf4jnsgd1na2vs0mg"},{"bike_id":"94e6dee2-3159-449e-9ee5-297188ebe26e","system_id":"levelo_inurba_marseille","lat":43.299208,"lon":5.374478,"is_reserved":false,"is_disabled":false,"rental_uris":{"android":"levelo://app?vid=94e6dee2-3159-449e-9ee5-297188ebe26e","ios":"levelo://app?vid=94e6dee2-3159-449e-9ee5-297188ebe26e"},"vehicle_type_id":"4","last_reported":1735715346,"current_range_meters":22800,"station_id":"ce4bgjh2rcd13ifvqbg0","pricing_plan_id":"cebpf4jnsgd1na2vs0mg"},{"bike_id":"abbfded5-56c2-44f5-8004-1e2a51b9d0ff","system_id":"levelo_inurba_marseille","lat":43.2815,"lon":5.42635,"is_reserved":false,"is_disabled":false,"rental_uris":{"android":"levelo://app?vid=abbfded5-56c2-44f5-8004-1e2a51b9d0ff","ios":"levelo://app?vid=abbfded5-56c2-44f5-8004-1e2a51b9d0ff"},"vehicle_type_id":"4","last_reported":1735715346,"current_range_meters":24000,"station_id":"ce4bhnh2rcd13ifvqgug","pricing_plan_id":"cebpf4jnsgd1na2vs0mg"},{"bike_id":"3c092760-f0fd-4792-abf7-ff55c2f417a1","system_id":"levelo_inurba_marseille","lat":43.3188,"lon":5.40735,"is_reserved":false,"is_disabled":false,"rental_uris":{"android":"levelo://app?vid=3c092760-f0fd-4792-abf7-ff55c2f417a1","ios":"levelo://app?vid=3c092760-f0fd-4792-abf7-ff55c2f417a1"},"vehicle_type_id":"4","last_reported":1735715346,"current_range_meters":39200,"station_id":"ce4bhq12rcd13ifvqhig","pricing_plan_id":"cebpf4jnsgd1na2vs0mg"},{"bike_id":"8cbc8b99-428c-4040-b86c-4e2c4fffea65","system_id":"levelo_inurba_marseille","lat":43.33758,"lon":5.37447,"is_reserved":false,"is_disabled":true,"rental_uris":{"android":"levelo://app?vid=8cbc8b99-428c-4040-b86c-4e2c4fffea65","ios":"levelo://app?vid=8cbc8b99-428c-4040-b86c-4e2c4fffea65"},"vehicle_type_id":"4","last_reported":1735715346,"current_range_meters":36800,"station_id":"","pricing_plan_id":"cebpf4jnsgd1na2vs0mg"},{"bike_id":"a16950a8-6a01-4579-bde0-a7f1b91a931c","system_id":"levelo_inurba_marseille","lat":43.28929,"lon":5.38414,"is_reserved":false,"is_disabled":false,"rental_uris":{"android":"levelo://app?vid=a16950a8-6a01-4579-bde0-a7f1b91a931c","ios":"levelo://app?vid=a16950a8-6a01-4579-bde0-a7f1b91a931c"},"vehicle_type_id":"4","last_reported":1735715346,"current_range_meters":38800,"station_id":"ce4bh612rcd13ifvqe6g","pricing_plan_id":"cebpf4jnsgd1na2vs0mg"},{"bike_id":"7cc7d65a-b957-4c8c-84a5-f9d97edb0047","system_id":"levelo_inurba_marseille","lat":43.30302,"lon":5.39197,"is_reserved":false,"is_disabled":true,"rental_uris":{"android":"levelo://app?vid=7cc7d65a-b957-4c8c-84a5-f9d97edb0047","ios":"levelo://app?vid=7cc7d65a-b957-4c8c-84a5-f9d97edb0047"},"vehicle_type_id":"4","last_reported":1735715346,"current_range_meters":34800,"station_id":"ce4bgkh2rcd13ifvqbk0","pricing_plan_id":"cebpf4jnsgd1na2vs0mg"},{"bike_id":"576c3c6b-bcf6-433f-9d79-5f33ae917960","system_id":"levelo_inurba_marseille","lat":43.29552,"lon":5.42282,"is_reserved":false,"is_disabled":false,"rental_uris":{"android":"levelo://app?vid=576c3c6b-bcf6-433f-9d79-5f33ae917960","ios":"levelo://app?vid=576c3c6b-bcf6-433f-9d79-5f33ae917960"},"vehicle_type_id":"4","last_reported":1735715346,"current_range_meters":30800,"station_id":"ce4bhph2rcd13ifvqhdg","pricing_plan_id":"cebpf4jnsgd1na2vs0mg"},{"bike_id":"62af83b8-0bcb-4a53-9c44-e8ad4810fed3","system_id":"levelo_inurba_marseille","lat":43.265004,"lon":5.395468,"is_reserved":false,"is_disabled":false,"rental_uris":{"android":"levelo://app?vid=62af83b8-0bcb-4a53-9c44-e8ad4810fed3","ios":"levelo://app?vid=62af83b8-0bcb-4a53-9c44-e8ad4810fed3"},"vehicle_type_id":"4","last_reported":1735715346,"current_range_meters":25600,"station_id":"ce4bhi12rcd13ifvqfq0","pricing_plan_id":"cebpf4jnsgd1na2vs0mg"},{"bike_id":"cfd9b0aa-0985-41bd-a744-766658df9439","system_id":"levelo_inurba_marseille","lat":43.29853,"lon":5.37603,"is_reserved":false,"is_disabled":true,"rental_uris":{"android":"levelo://app?vid=cfd9b0aa-0985-41bd-a744-766658df9439","ios":"levelo://app?vid=cfd9b0aa-0985-41bd-a744-766658df9439"},"vehicle_type_id":"4","last_reported":1735715346,"current_range_meters":0,"station_id":"","pricing_plan_id":"cebpf4jnsgd1na2vs0mg"},{"bike_id":"241064ff-27c5-4706-9532-739a8faf7045","system_id":"levelo_inurba_marseille","lat":43.31669,"lon":5.40386,"is_reserved":false,"is_disabled":false,"rental_uris":{"android":"levelo://app?vid=241064ff-27c5-4706-9532-739a8faf7045","ios":"levelo://app?vid=241064ff-27c5-4706-9532-739a8faf7045"},"vehicle_type_id":"4","last_reported":1735715346,"current_range_meters":3200,"station_id":"","pricing_plan_id":"cebpf4jnsgd1na2vs0mg"},{"bike_id":"fefea1a2-364a-4023-a074-5805fb41ee32","system_id":"levelo_inurba_marseille","lat":43.30774,"lon":5.37641,"is_reserved":false,"is_disabled":true,"rental_uris":{"android":"levelo://app?vid=fefea1a2-364a-4023-a074-5805fb41ee32","ios":"levelo://app?vid=fefea1a2-364a-4023-a074-5805fb41ee32"},"vehicle_type_id":"4","last_reported":1735715346,"current_range_meters":1200,"station_id":"ce4bgv92rcd13ifvqcq0","pricing_plan_id":"cebpf4jnsgd1na2vs0mg"},{"bike_id":"b1815487-383e-42be-8a0b-8b8db0c2ceef","system_id":"levelo_inurba_marseille","lat":43.32261,"lon":5.38274,"is_reserved":false,"is_disabled":false,"rental_uris":{"android":"levelo://app?vid=b1815487-383e-42be-8a0b-8b8db0c2ceef","ios":"levelo://app?vid=b1815487-383e-42be-8a0b-8b8db0c2ceef"},"vehicle_type_id":"4","last_reported":1735715346,"current_range_meters":38800,"station_id":"ce4bhr12rcd13ifvqhqg","pricing_plan_id":"cebpf4jnsgd1na2vs0mg"},{"bike_id":"2f71d5d0-4248-4fd8-90b9-7615dc7e3077","system_id":"levelo_inurba_marseille","lat":43.25136,"lon":5.40323,"is_reserved":false,"is_disabled":false,"rental_uris":{"android":"levelo://app?vid=2f71d5d0-4248-4fd8-90b9-7615dc7e3077","ios":"levelo://app?vid=2f71d5d0-4248-4fd8-90b9-7615dc7e3077"},"vehicle_type_id":"4","last_reported":1735715346,"current_range_meters":38800,"station_id":"ce4bhlh2rcd13ifvqgig","pricing_plan_id":"cebpf4jnsgd1na2vs0mg"},{"bike_id":"f46bd378-e30f-485c-b539-9d29fba578aa","system_id":"levelo_inurba_marseille","lat":43.34143,"lon":5.4091,"is_reserved":false,"is_disabled":false,"rental_uris":{"android":"levelo://app?vid=f46bd378-e30f-485c-b539-9d29fba578aa","ios":"levelo://app?vid=f46bd378-e30f-485c-b539-9d29fba578aa"},"vehicle_type_id":"4","last_reported":1735715346,"current_range_meters":39200,"station_id":"ce4bhqh2rcd13ifvqhlg","pricing_plan_id":"cebpf4jnsgd1na2vs0mg"},{"bike_id":"7ec4d381-79e4-4c43-b132-77d2c6adbb98","system_id":"levelo_inurba_marseille","lat":43.30882,"lon":5.39655,"is_reserved":false,"is_disabled":false,"rental_uris":{"android":"levelo://app?vid=7ec4d381-79e4-4c43-b132-77d2c6adbb98","ios":"levelo://app?vid=7ec4d381-79e4-4c43-b132-77d2c6adbb98"},"vehicle_type_id":"4","last_reported":1735715346,"current_range_meters":38800,"station_id":"ce4bh012rcd13ifvqcv0","pricing_plan_id":"cebpf4jnsgd1na2vs0mg"},{"bike_id":"f009e540-d0f8-4c32-a5bf-eaf55d3e7a9b","system_id":"levelo_inurba_marseille","lat":43.289328,"lon":5.364044,"is_reserved":false,"is_disabled":false,"rental_uris":{"android":"levelo://app?vid=f009e540-d0f8-4c32-a5bf-eaf55d3e7a9b","ios":"levelo://app?vid=f009e540-d0f8-4c32-a5bf-eaf55d3e7a9b"},"vehicle_type_id":"4","last_reported":1735715346,"current_range_meters":26800,"station_id":"ce4bhc92rcd13ifvqetg","pricing_plan_id":"cebpf4jnsgd1na2vs0mg"},{"bike_id":"df334d50-4421-42a5-a762-fb7f39807cc1","system_id":"levelo_inurba_marseille","lat":43.337444,"lon":5.374475,"is_reserved":false,"is_disabled":false,"rental_uris":{"android":"levelo://app?vid=df334d50-4421-42a5-a762-fb7f39807cc1","ios":"levelo://app?vid=df334d50-4421-42a5-a762-fb7f39807cc1"},"vehicle_type_id":"4","last_reported":1735715346,"current_range_meters":36000,"station_id":"","pricing_plan_id":"cebpf4jnsgd1na2vs0mg"},{"bike_id":"17ee2f4f-57a7-419d-a07b-9fc1f77ed6fd","system_id":"levelo_inurba_marseille","lat":43.26059,"lon":5.39394,"is_reserved":false,"is_disabled":false,"rental_uris":{"android":"levelo://app?vid=17ee2f4f-57a7-419d-a07b-9fc1f77ed6fd","ios":"levelo://app?vid=17ee2f4f-57a7-419d-a07b-9fc1f77ed6fd"},"vehicle_type_id":"4","last_reported":1735715346,"current_range_meters":28400,"station_id":"ce4bhh92rcd13ifvqfj0","pricing_plan_id":"cebpf4jnsgd1na2vs0mg"},{"bike_id":"35d7b981-f2f8-4e1f-bf58-6f3547d4e1f6","system_id":"levelo_inurba_marseille","lat":43.303094,"lon":5.369099,"is_reserved":false,"is_disabled":true,"rental_uris":{"android":"levelo://app?vid=35d7b981-f2f8-4e1f-bf58-6f3547d4e1f6","ios":"levelo://app?vid=35d7b981-f2f8-4e1f-bf58-6f3547d4e1f6"},"vehicle_type_id":"4","last_reported":1735715346,"current_range_meters":24800,"station_id":"ce4bgqh2rcd13ifvqc5g","pricing_plan_id":"cebpf4jnsgd1na2vs0mg"},{"bike_id":"01e3daf2-3dc3-42f0-a716-39b38bbee6f9","system_id":"levelo_inurba_marseille","lat":43.28697,"lon":5.39965,"is_reserved":false,"is_disabled":false,"rental_uris":{"android":"levelo://app?vid=01e3daf2-3dc3-42f0-a716-39b38bbee6f9","ios":"levelo://app?vid=01e3daf2-3dc3-42f0-a716-39b38bbee6f9"},"vehicle_type_id":"4","last_reported":1735715346,"current_range_meters":26800,"station_id":"ce4bho92rcd13ifvqh3g","pricing_plan_id":"cebpf4jnsgd1na2vs0mg"},{"bike_id":"847e09aa-0198-46d1-b907-778eecf50dd1","system_id":"levelo_inurba_marseille","lat":43.31229,"lon":5.36871,"is_reserved":false,"is_disabled":true,"rental_uris":{"android":"levelo://app?vid=847e09aa-0198-46d1-b907-778eecf50dd1","ios":"levelo://app?vid=847e09aa-0198-46d1-b907-778eecf50dd1"},"vehicle_type_id":"4","last_reported":1735715346,"current_range_meters":38800,"station_id":"ce4bgl92rcd13ifvqbq0","pricing_plan_id":"cebpf4jnsgd1na2vs0mg"},{"bike_id":"a2cc55cd-4242-417c-a2b1-1d0a21800575","system_id":"levelo_inurba_marseille","lat":43.28106,"lon":5.37847,"is_reserved":false,"is_disabled":false,"rental_uris":{"android":"levelo://app?vid=a2cc55cd-4242-417c-a2b1-1d0a21800575","ios":"levelo://app?vid=a2cc55cd-4242-417c-a2b1-1d0a21800575"},"vehicle_type_id":"4","last_reported":1735715346,"current_range_meters":30400,"station_id":"ce4bha12rcd13ifvqee0","pricing_plan_id":"cebpf4jnsgd1na2vs0mg"},{"bike_id":"5367a292-5564-4681-91cd-97babb89fc00","system_id":"levelo_inurba_marseille","lat":43.22933,"lon":5.35373,"is_reserved":false,"is_disabled":false,"rental_uris":{"android":"levelo://app?vid=5367a292-5564-4681-91cd-97babb89fc00","ios":"levelo://app?vid=5367a292-5564-4681-91cd-97babb89fc00"},"vehicle_type_id":"4","last_reported":1735715346,"current_range_meters":24400,"station_id":"cpo3532slgdg3j2ikp40","pricing_plan_id":"cebpf4jnsgd1na2vs0mg"},{"bike_id":"1d5543c4-1c87-4447-ad2e-0cc64903ea75","system_id":"levelo_inurba_marseille","lat":43.258671,"lon":5.398977,"is_reserved":false,"is_disabled":false,"rental_uris":{"android":"levelo://app?vid=1d5543c4-1c87-4447-ad2e-0cc64903ea75","ios":"levelo://app?vid=1d5543c4-1c87-4447-ad2e-0cc64903ea75"},"vehicle_type_id":"4","last_reported":1735715346,"current_range_meters":39200,"station_id":"ce4bhl92rcd13ifvqghg","pricing_plan_id":"cebpf4jnsgd1na2vs0mg"},{"bike_id":"0483d5a5-12c2-4b90-8e6c-47d6d5a4b82c","system_id":"levelo_inurba_marseille","lat":43.25827,"lon":5.39428,"is_reserved":false,"is_disabled":false,"rental_uris":{"android":"levelo://app?vid=0483d5a5-12c2-4b90-8e6c-47d6d5a4b82c","ios":"levelo://app?vid=0483d5a5-12c2-4b90-8e6c-47d6d5a4b82c"},"vehicle_type_id":"4","last_reported":1735715346,"current_range_meters":38800,"station_id":"ce4bhip2rcd13ifvqft0","pricing_plan_id":"cebpf4jnsgd1na2vs0mg"},{"bike_id":"523f53b8-d5fa-4c60-a25e-8902b398e89d","system_id":"levelo_inurba_marseille","lat":43.295664,"lon":5.422792,"is_reserved":false,"is_disabled":false,"rental_uris":{"android":"levelo://app?vid=523f53b8-d5fa-4c60-a25e-8902b398e89d","ios":"levelo://app?vid=523f53b8-d5fa-4c60-a25e-8902b398e89d"},"vehicle_type_id":"4","last_reported":1735715346,"current_range_meters":38800,"station_id":"ce4bhph2rcd13ifvqhdg","pricing_plan_id":"cebpf4jnsgd1na2vs0mg"},{"bike_id":"519ffc69-b7ec-4b3a-ae4e-feeddb8d6701","system_id":"levelo_inurba_marseille","lat":43.293027,"lon":5.369558,"is_reserved":false,"is_disabled":false,"rental_uris":{"android":"levelo://app?vid=519ffc69-b7ec-4b3a-ae4e-feeddb8d6701","ios":"levelo://app?vid=519ffc69-b7ec-4b3a-ae4e-feeddb8d6701"},"vehicle_type_id":"4","last_reported":1735715346,"current_range_meters":17600,"station_id":"","pricing_plan_id":"cebpf4jnsgd1na2vs0mg"},{"bike_id":"9000f02a-b6fe-42af-8351-b80067f79863","system_id":"levelo_inurba_marseille","lat":43.31216,"lon":5.36888,"is_reserved":false,"is_disabled":false,"rental_uris":{"android":"levelo://app?vid=9000f02a-b6fe-42af-8351-b80067f79863","ios":"levelo://app?vid=9000f02a-b6fe-42af-8351-b80067f79863"},"vehicle_type_id":"4","last_reported":1735715346,"current_range_meters":37600,"station_id":"ce4bgl92rcd13ifvqbq0","pricing_plan_id":"cebpf4jnsgd1na2vs0mg"},{"bike_id":"90ea32f2-8b16-412b-9028-e97b2dd7bfd3","system_id":"levelo_inurba_marseille","lat":43.31677,"lon":5.40446,"is_reserved":false,"is_disabled":false,"rental_uris":{"android":"levelo://app?vid=90ea32f2-8b16-412b-9028-e97b2dd7bfd3","ios":"levelo://app?vid=90ea32f2-8b16-412b-9028-e97b2dd7bfd3"},"vehicle_type_id":"4","last_reported":1735715346,"current_range_meters":38400,"station_id":"ce4bh012rcd13ifvqd00","pricing_plan_id":"cebpf4jnsgd1na2vs0mg"},{"bike_id":"bb0b4800-77bf-4fe1-91ff-67ba6b41255a","system_id":"levelo_inurba_marseille","lat":43.3033,"lon":5.40435,"is_reserved":false,"is_disabled":true,"rental_uris":{"android":"levelo://app?vid=bb0b4800-77bf-4fe1-91ff-67ba6b41255a","ios":"levelo://app?vid=bb0b4800-77bf-4fe1-91ff-67ba6b41255a"},"vehicle_type_id":"4","last_reported":1735715346,"current_range_meters":0,"station_id":"ce4bh012rcd13ifvqd10","pricing_plan_id":"cebpf4jnsgd1na2vs0mg"},{"bike_id":"cd7951d2-d0f1-4fc8-a1c4-9f3518978642","system_id":"levelo_inurba_marseille","lat":43.29627,"lon":5.37171,"is_reserved":false,"is_disabled":false,"rental_uris":{"android":"levelo://app?vid=cd7951d2-d0f1-4fc8-a1c4-9f3518978642","ios":"levelo://app?vid=cd7951d2-d0f1-4fc8-a1c4-9f3518978642"},"vehicle_type_id":"4","last_reported":1735715346,"current_range_meters":38000,"station_id":"ce4bgnh2rcd13ifvqc0g","pricing_plan_id":"cebpf4jnsgd1na2vs0mg"},{"bike_id":"fd43e90a-0d3f-4c01-9e7a-84edd9379a72","system_id":"levelo_inurba_marseille","lat":43.26562,"lon":5.39027,"is_reserved":false,"is_disabled":false,"rental_uris":{"android":"levelo://app?vid=fd43e90a-0d3f-4c01-9e7a-84edd9379a72","ios":"levelo://app?vid=fd43e90a-0d3f-4c01-9e7a-84edd9379a72"},"vehicle_type_id":"4","last_reported":1735715346,"current_range_meters":16400,"station_id":"ce4bhe12rcd13ifvqf30","pricing_plan_id":"cebpf4jnsgd1na2vs0mg"},{"bike_id":"6164fd70-bd1e-4bfa-b09a-6196d7e0229b","system_id":"levelo_inurba_marseille","lat":43.243962,"lon":5.370546,"is_reserved":false,"is_disabled":false,"rental_uris":{"android":"levelo://app?vid=6164fd70-bd1e-4bfa-b09a-6196d7e0229b","ios":"levelo://app?vid=6164fd70-bd1e-4bfa-b09a-6196d7e0229b"},"vehicle_type_id":"4","last_reported":1735715346,"current_range_meters":38800,"station_id":"ce4bhhh2rcd13ifvqfk0","pricing_plan_id":"cebpf4jnsgd1na2vs0mg"},{"bike_id":"63867230-2338-42eb-96b6-b18727d6caa4","system_id":"levelo_inurba_marseille","lat":43.29293,"lon":5.40131,"is_reserved":false,"is_disabled":true,"rental_uris":{"android":"levelo://app?vid=63867230-2338-42eb-96b6-b18727d6caa4","ios":"levelo://app?vid=63867230-2338-42eb-96b6-b18727d6caa4"},"vehicle_type_id":"4","last_reported":1735715346,"current_range_meters":37600,"station_id":"ce4bh312rcd13ifvqdk0","pricing_plan_id":"cebpf4jnsgd1na2vs0mg"},{"bike_id":"5600542f-1491-4294-bd76-258204cc22be","system_id":"levelo_inurba_marseille","lat":43.28337,"lon":5.38108,"is_reserved":false,"is_disabled":false,"rental_uris":{"android":"levelo://app?vid=5600542f-1491-4294-bd76-258204cc22be","ios":"levelo://app?vid=5600542f-1491-4294-bd76-258204cc22be"},"vehicle_type_id":"4","last_reported":1735715346,"current_range_meters":32800,"station_id":"ce4bh412rcd13ifvqdr0","pricing_plan_id":"cebpf4jnsgd1na2vs0mg"},{"bike_id":"f95720da-0457-46a2-9e12-e1876d50dcd2","system_id":"levelo_inurba_marseille","lat":43.26559,"lon":5.39022,"is_reserved":false,"is_disabled":false,"rental_uris":{"android":"levelo://app?vid=f95720da-0457-46a2-9e12-e1876d50dcd2","ios":"levelo://app?vid=f95720da-0457-46a2-9e12-e1876d50dcd2"},"vehicle_type_id":"4","last_reported":1735715346,"current_range_meters":35200,"station_id":"ce4bhe12rcd13ifvqf30","pricing_plan_id":"cebpf4jnsgd1na2vs0mg"},{"bike_id":"d5c2c518-30da-4640-9157-1229bd53cb8d","system_id":"levelo_inurba_marseille","lat":43.26947,"lon":5.40247,"is_reserved":false,"is_disabled":false,"rental_uris":{"android":"levelo://app?vid=d5c2c518-30da-4640-9157-1229bd53cb8d","ios":"levelo://app?vid=d5c2c518-30da-4640-9157-1229bd53cb8d"},"vehicle_type_id":"4","last_reported":1735715346,"current_range_meters":22800,"station_id":"cjm6bp8fraef2m0cb0m0","pricing_plan_id":"cebpf4jnsgd1na2vs0mg"},{"bike_id":"dbabe84f-1e8d-4444-bbd2-f0bdaeff74bc","system_id":"levelo_inurba_marseille","lat":43.30921,"lon":5.36844,"is_reserved":false,"is_disabled":false,"rental_uris":{"android":"levelo://app?vid=dbabe84f-1e8d-4444-bbd2-f0bdaeff74bc","ios":"levelo://app?vid=dbabe84f-1e8d-4444-bbd2-f0bdaeff74bc"},"vehicle_type_id":"4","last_reported":1735715346,"current_range_meters":34000,"station_id":"ce4bgn92rcd13ifvqbvg","pricing_plan_id":"cebpf4jnsgd1na2vs0mg"},{"bike_id":"21cba4ef-9636-4b81-a418-95db6be87b7d","system_id":"levelo_inurba_marseille","lat":43.31129,"lon":5.37783,"is_reserved":false,"is_disabled":false,"rental_uris":{"android":"levelo://app?vid=21cba4ef-9636-4b81-a418-95db6be87b7d","ios":"levelo://app?vid=21cba4ef-9636-4b81-a418-95db6be87b7d"},"vehicle_type_id":"4","last_reported":1735715346,"current_range_meters":36800,"station_id":"ce4bgt92rcd13ifvqcg0","pricing_plan_id":"cebpf4jnsgd1na2vs0mg"},{"bike_id":"bbfc5010-5ad1-478a-9bf0-def17e142c1c","system_id":"levelo_inurba_marseille","lat":43.280328,"lon":5.369459,"is_reserved":false,"is_disabled":true,"rental_uris":{"android":"levelo://app?vid=bbfc5010-5ad1-478a-9bf0-def17e142c1c","ios":"levelo://app?vid=bbfc5010-5ad1-478a-9bf0-def17e142c1c"},"vehicle_type_id":"4","last_reported":1735715346,"current_range_meters":2000,"station_id":"ce4bha12rcd13ifvqef0","pricing_plan_id":"cebpf4jnsgd1na2vs0mg"},{"bike_id":"2e95937c-71d1-4f05-a281-71f72a40056b","system_id":"levelo_inurba_marseille","lat":43.29792,"lon":5.40396,"is_reserved":false,"is_disabled":false,"rental_uris":{"android":"levelo://app?vid=2e95937c-71d1-4f05-a281-71f72a40056b","ios":"levelo://app?vid=2e95937c-71d1-4f05-a281-71f72a40056b"},"vehicle_type_id":"4","last_reported":1735715346,"current_range_meters":37600,"station_id":"ce4bh112rcd13ifvqd90","pricing_plan_id":"cebpf4jnsgd1na2vs0mg"},{"bike_id":"f4d31bdd-067d-44f1-8dce-9df56d6287d9","system_id":"levelo_inurba_marseille","lat":43.27881,"lon":5.41023,"is_reserved":false,"is_disabled":false,"rental_uris":{"android":"levelo://app?vid=f4d31bdd-067d-44f1-8dce-9df56d6287d9","ios":"levelo://app?vid=f4d31bdd-067d-44f1-8dce-9df56d6287d9"},"vehicle_type_id":"4","last_reported":1735715346,"current_range_meters":10800,"station_id":"","pricing_plan_id":"cebpf4jnsgd1na2vs0mg"},{"bike_id":"2e6288e7-c1a1-42a6-b293-94eda04dcffc","system_id":"levelo_inurba_marseille","lat":43.31115,"lon":5.37769,"is_reserved":false,"is_disabled":false,"rental_uris":{"android":"levelo://app?vid=2e6288e7-c1a1-42a6-b293-94eda04dcffc","ios":"levelo://app?vid=2e6288e7-c1a1-42a6-b293-94eda04dcffc"},"vehicle_type_id":"4","last_reported":1735715346,"current_range_meters":16000,"station_id":"ce4bgt92rcd13ifvqcg0","pricing_plan_id":"cebpf4jnsgd1na2vs0mg"},{"bike_id":"dac94ecf-3203-4c89-acc0-21c14e979588","system_id":"levelo_inurba_marseille","lat":43.26683,"lon":5.3822,"is_reserved":false,"is_disabled":false,"rental_uris":{"android":"levelo://app?vid=dac94ecf-3203-4c89-acc0-21c14e979588","ios":"levelo://app?vid=dac94ecf-3203-4c89-acc0-21c14e979588"},"vehicle_type_id":"4","last_reported":1735715346,"current_range_meters":10000,"station_id":"ce4bhg92rcd13ifvqf90","pricing_plan_id":"cebpf4jnsgd1na2vs0mg"},{"bike_id":"560a082e-860d-453b-bdd6-7a868105718c","system_id":"levelo_inurba_marseille","lat":43.26802,"lon":5.40265,"is_reserved":false,"is_disabled":false,"rental_uris":{"android":"levelo://app?vid=560a082e-860d-453b-bdd6-7a868105718c","ios":"levelo://app?vid=560a082e-860d-453b-bdd6-7a868105718c"},"vehicle_type_id":"4","last_reported":1735715346,"current_range_meters":38000,"station_id":"ce501612rcd8frsf0b60","pricing_plan_id":"cebpf4jnsgd1na2vs0mg"},{"bike_id":"34c94d6b-e825-45a5-a340-625525b8066e","system_id":"levelo_inurba_marseille","lat":43.32354,"lon":5.38877,"is_reserved":false,"is_disabled":false,"rental_uris":{"android":"levelo://app?vid=34c94d6b-e825-45a5-a340-625525b8066e","ios":"levelo://app?vid=34c94d6b-e825-45a5-a340-625525b8066e"},"vehicle_type_id":"4","last_reported":1735715346,"current_range_meters":19200,"station_id":"ce4bhqp2rcd13ifvqhog","pricing_plan_id":"cebpf4jnsgd1na2vs0mg"},{"bike_id":"9c42c59a-a990-48ee-91ac-32ebebcaabf5","system_id":"levelo_inurba_marseille","lat":43.275822,"lon":5.384143,"is_reserved":false,"is_disabled":false,"rental_uris":{"android":"levelo://app?vid=9c42c59a-a990-48ee-91ac-32ebebcaabf5","ios":"levelo://app?vid=9c42c59a-a990-48ee-91ac-32ebebcaabf5"},"vehicle_type_id":"4","last_reported":1735715346,"current_range_meters":38800,"station_id":"ce4bhh92rcd13ifvqfi0","pricing_plan_id":"cebpf4jnsgd1na2vs0mg"},{"bike_id":"1183fb3d-73ae-4779-a76c-d9eac4c3cf71","system_id":"levelo_inurba_marseille","lat":43.28508,"lon":5.38455,"is_reserved":false,"is_disabled":false,"rental_uris":{"android":"levelo://app?vid=1183fb3d-73ae-4779-a76c-d9eac4c3cf71","ios":"levelo://app?vid=1183fb3d-73ae-4779-a76c-d9eac4c3cf71"},"vehicle_type_id":"4","last_reported":1735715346,"current_range_meters":25600,"station_id":"ce4bh512rcd13ifvqe3g","pricing_plan_id":"cebpf4jnsgd1na2vs0mg"},{"bike_id":"16e02510-3bf0-4cb1-80f6-1ee86bd92dd1","system_id":"levelo_inurba_marseille","lat":43.29251,"lon":5.40889,"is_reserved":false,"is_disabled":false,"rental_uris":{"android":"levelo://app?vid=16e02510-3bf0-4cb1-80f6-1ee86bd92dd1","ios":"levelo://app?vid=16e02510-3bf0-4cb1-80f6-1ee86bd92dd1"},"vehicle_type_id":"4","last_reported":1735715346,"current_range_meters":30400,"station_id":"ce4bh192rcd13ifvqdc0","pricing_plan_id":"cebpf4jnsgd1na2vs0mg"},