{"last_updated":1708038430,"ttl":30,"version":"2.2","data":{"bikes":[{"bike_id":"6f6c679d-39ca-44ae-86b2-9e75d5241db9","system_id":"levelo_inurba_marseille","lat":43.313391,"lon":5.36706,"is_reserved":false,"is_disabled":false,"rental_uris":{"android":"levelo://app?vid=6f6c679d-39ca-44ae-86b2-9e75d5241db9","ios":"levelo://app?vid=6f6c679d-39ca-44ae-86b2-9e75d5241db9"},"vehicle_type_id":"4","last_reported":1708038430,"current_range_meters":1600,"station_id":"ce4bgr92rcd13ifvqc6g","pricing_plan_id":"cebpf4jnsgd1na2vs0mg"},{"bike_id":"80d40d17-e730-4767-81ee-7310bc20947a","system_id":"levelo_inurba_marseille","lat":43.31226,"lon":5.36843,"is_reserved":false,"is_disabled":false,"rental_uris":{"android":"levelo://app?vid=80d40d17-e730-4767-81ee-7310bc20947a","ios":"levelo://app?vid=80d40d17-e730-4767-81ee-7310bc20947a"},"vehicle_type_id":"4","last_reported":1708038430,"current_range_meters":23200,"station_id":"ce4bgl92rcd13ifvqbq0","pricing_plan_id":"cebpf4jnsgd1na2vs0mg"},{"bike_id":"43c5850b-30fa-4d0b-a43d-4a828d86d980","system_id":"levelo_inurba_marseille","lat":43.31223,"lon":5.36842,"is_reserved":false,"is_disabled":false,"rental_uris":{"android":"levelo://app?vid=43c5850b-30fa-4d0b-a43d-4a828d86d980","ios":"levelo://app?vid=43c5850b-30fa-4d0b-a43d-4a828d86d980"},"vehicle_type_id":"4","last_reported":1708038430,"current_range_meters":16800,"station_id":"ce4bgl92rcd13ifvqbq0","pricing_plan_id":"cebpf4jnsgd1na2vs0mg"},{"bike_id":"a9777f56-dfa2-4ef5-b6c0-372a44d5558d","system_id":"levelo_inurba_marseille","lat":43.312239,"lon":5.368562,"is_reserved":false,"is_disabled":false,"rental_uris":{"android":"levelo://app?vid=a9777f56-dfa2-4ef5-b6c0-372a44d5558d","ios":"levelo://app?vid=a9777f56-dfa2-4ef5-b6c0-372a44d5558d"},"vehicle_type_id":"4","last_reported":1708038430,"current_range_meters":3600,"station_id":"ce4bgl92rcd13ifvqbq0","pricing_plan_id":"cebpf4jnsgd1na2vs0mg"},{"bike_id":"1e4d0e10-e730-4255-9f98-887873e86383","system_id":"levelo_inurba_marseille","lat":43.312239,"lon":5.368562,"is_reserved":false,"is_disabled":false,"rental_uris":{"android":"levelo://app?vid=1e4d0e10-e730-4255-9f98-887873e86383","ios":"levelo://app?vid=1e4d0e10-e730-4255-9f98-887873e86383"},"vehicle_type_id":"4","last_reported":1708038430,"current_range_meters":10400,"station_id":"ce4bgl92rcd13ifvqbq0","pricing_plan_id":"cebpf4jnsgd1na2vs0mg"},{"bike_id":"1886e30f-e37f-4776-b1e7-da3bb096356c","system_id":"levelo_inurba_marseille","lat":43.312239,"lon":5.368562,"is_reserved":false,"is_disabled":false,"rental_uris":{"android":"levelo://app?vid=1886e30f-e37f-4776-b1e7-da3bb096356c","ios":"levelo://app?vid=1886e30f-e37f-4776-b1e7-da3bb096356c"},"vehicle_type_id":"4","last_reported":1708038430,"current_range_meters":21600,"station_id":"ce4bgl92rcd13ifvqbq0","pricing_plan_id":"cebpf4jnsgd1na2vs0mg"},{"bike_id":"3d72799f-f4a9-44e5-9ab4-f714592b15a0","system_id":"levelo_inurba_marseille","lat":43.312239,"lon":5.368562,"is_reserved":false,"is_disabled":false,"rental_uris":{"android":"levelo://app?vid=3d72799f-f4a9-44e5-9ab4-f714592b15a0","ios":"levelo://app?vid=3d72799f-f4a9-44e5-9ab4-f714592b15a0"},"vehicle_type_id":"4","last_reported":1708038430,"current_range_meters":19600,"station_id":"ce4bgl92rcd13ifvqbq0","pricing_plan_id":"cebpf4jnsgd1na2vs0mg"},{"bike_id":"db13be7d-9864-4e9d-84be-4df9c90383e8","system_id":"levelo_inurba_marseille","lat":43.312239,"lon":5.368562,"is_reserved":false,"is_disabled":false,"rental_uris":{"android":"levelo://app?vid=db13be7d-9864-4e9d-84be-4df9c90383e8","ios":"levelo://app?vid=db13be7d-9864-4e9d-84be-4df9c90383e8"},"vehicle_type_id":"4","last_reported":1708038430,"current_range_meters":8000,"station_id":"ce4bgl92rcd13ifvqbq0","pricing_plan_id":"cebpf4jnsgd1na2vs0mg"},{"bike_id":"d819a46c-365f-40f0-8f32-f360c2640213","system_id":"levelo_inurba_marseille","lat":43.312239,"lon":5.368562,"is_reserved":false,"is_disabled":false,"rental_uris":{"android":"levelo://app?vid=d819a46c-365f-40f0-8f32-f360c2640213","ios":"levelo://app?vid=d819a46c-365f-40f0-8f32-f360c2640213"},"vehicle_type_id":"4","last_reported":1708038430,"current_range_meters":19600,"station_id":"ce4bgl92rcd13ifvqbq0","pricing_plan_id":"cebpf4jnsgd1na2vs0mg"},{"bike_id":"658e0baa-0920-44aa-bd27-5dd1e2c82b42","system_id":"levelo_inurba_marseille","lat":43.309076,"lon":5.368465,"is_reserved":false,"is_disabled":false,"rental_uris":{"android":"levelo://app?vid=658e0baa-0920-44aa-bd27-5dd1e2c82b42","ios":"levelo://app?vid=658e0baa-0920-44aa-bd27-5dd1e2c82b42"},"vehicle_type_id":"4","last_reported":1708038430,"current_range_meters":25200,"station_id":"ce4bgn92rcd13ifvqbvg","pricing_plan_id":"cebpf4jnsgd1na2vs0mg"},{"bike_id":"a8b5b6e9-ee1f-404c-bea9-db08c8e8ae41","system_id":"levelo_inurba_marseille","lat":43.309076,"lon":5.368465,"is_reserved":false,"is_disabled":false,"rental_uris":{"android":"levelo://app?vid=a8b5b6e9-ee1f-404c-bea9-db08c8e8ae41","ios":"levelo://app?vid=a8b5b6e9-ee1f-404c-bea9-db08c8e8ae41"},"vehicle_type_id":"4","last_reported":1708038430,"current_range_meters":18000,"station_id":"ce4bgn92rcd13ifvqbvg","pricing_plan_id":"cebpf4jnsgd1na2vs0mg"},{"bike_id":"17937e26-59a3-419b-91eb-b5e17d3968f6","system_id":"levelo_inurba_marseille","lat":43.309076,"lon":5.368465,"is_reserved":false,"is_disabled":false,"rental_uris":{"android":"levelo://app?vid=17937e26-59a3-419b-91eb-b5e17d3968f6","ios":"levelo://app?vid=17937e26-59a3-419b-91eb-b5e17d3968f6"},"vehicle_type_id":"4","last_reported":1708038430,"current_range_meters":16400,"station_id":"ce4bgn92rcd13ifvqbvg","pricing_plan_id":"cebpf4jnsgd1na2vs0mg"},{"bike_id":"248f89d7-eb37-4626-80a4-07f36692ddd9","system_id":"levelo_inurba_marseille","lat":43.314811,"lon":5.373103,"is_reserved":false,"is_disabled":false,"rental_uris":{"android":"levelo://app?vid=248f89d7-eb37-4626-80a4-07f36692ddd9","ios":"levelo://app?vid=248f89d7-eb37-4626-80a4-07f36692ddd9"},"vehicle_type_id":"4","last_reported":1708038430,"current_range_meters":26800,"station_id":"ce4bgt12rcd13ifvqcd0","pricing_plan_id":"cebpf4jnsgd1na2vs0mg"},{"bike_id":"e722a7fd-affa-4393-b9cf-91069942d8df","system_id":"levelo_inurba_marseille","lat":43.314811,"lon":5.373103,"is_reserved":false,"is_disabled":false,"rental_uris":{"android":"levelo://app?vid=e722a7fd-affa-4393-b9cf-91069942d8df","ios":"levelo://app?vid=e722a7fd-affa-4393-b9cf-91069942d8df"},"vehicle_type_id":"4","last_reported":1708038430,"current_range_meters":2000,"station_id":"ce4bgt12rcd13ifvqcd0","pricing_plan_id":"cebpf4jnsgd1na2vs0mg"},{"bike_id":"44664950-8a83-4d38-8b90-c0da0d8aa6a1","system_id":"levelo_inurba_marseille","lat":43.309039,"lon":5.371797,"is_reserved":false,"is_disabled":false,"rental_uris":{"android":"levelo://app?vid=44664950-8a83-4d38-8b90-c0da0d8aa6a1","ios":"levelo://app?vid=44664950-8a83-4d38-8b90-c0da0d8aa6a1"},"vehicle_type_id":"4","last_reported":1708038430,"current_range_meters":28800,"station_id":"ce4bguh2rcd13ifvqckg","pricing_plan_id":"cebpf4jnsgd1na2vs0mg"},{"bike_id":"29e67b27-522d-4e52-87a1-b03cff41b2d6","system_id":"levelo_inurba_marseille","lat":43.309039,"lon":5.371797,"is_reserved":false,"is_disabled":false,"rental_uris":{"android":"levelo://app?vid=29e67b27-522d-4e52-87a1-b03cff41b2d6","ios":"levelo://app?vid=29e67b27-522d-4e52-87a1-b03cff41b2d6"},"vehicle_type_id":"4","last_reported":1708038430,"current_range_meters":27200,"station_id":"ce4bguh2rcd13ifvqckg","pricing_plan_id":"cebpf4jnsgd1na2vs0mg"},{"bike_id":"54f44e60-e880-49b1-a4ed-5262ff5f7639","system_id":"levelo_inurba_marseille","lat":43.309034,"lon":5.371783,"is_reserved":false,"is_disabled":false,"rental_uris":{"android":"levelo://app?vid=54f44e60-e880-49b1-a4ed-5262ff5f7639","ios":"levelo://app?vid=54f44e60-e880-49b1-a4ed-5262ff5f7639"},"vehicle_type_id":"4","last_reported":1708038430,"current_range_meters":30400,"station_id":"ce4bguh2rcd13ifvqckg","pricing_plan_id":"cebpf4jnsgd1na2vs0mg"},{"bike_id":"3f45fde7-4384-4d44-86da-b5cceb5821e5","system_id":"levelo_inurba_marseille","lat":43.305714,"lon":5.365633,"is_reserved":false,"is_disabled":false,"rental_uris":{"android":"levelo://app?vid=3f45fde7-4384-4d44-86da-b5cceb5821e5","ios":"levelo://app?vid=3f45fde7-4384-4d44-86da-b5cceb5821e5"},"vehicle_type_id":"4","last_reported":1708038430,"current_range_meters":6800,"station_id":"ce4bgs12rcd13ifvqcag","pricing_plan_id":"cebpf4jnsgd1na2vs0mg"},{"bike_id":"536d086a-e1b5-40a4-94b8-35b804731018","system_id":"levelo_inurba_marseille","lat":43.305368,"lon":5.367343,"is_reserved":false,"is_disabled":false,"rental_uris":{"android":"levelo://app?vid=536d086a-e1b5-40a4-94b8-35b804731018","ios":"levelo://app?vid=536d086a-e1b5-40a4-94b8-35b804731018"},"vehicle_type_id":"4","last_reported":1708038430,"current_range_meters":0,"station_id":"ce4bgrp2rcd13ifvqc9g","pricing_plan_id":"cebpf4jnsgd1na2vs0mg"},{"bike_id":"88ce1175-6683-475f-bff5-b120f667192d","system_id":"levelo_inurba_marseille","lat":43.305368,"lon":5.367343,"is_reserved":false,"is_disabled":false,"rental_uris":{"android":"levelo://app?vid=88ce1175-6683-475f-bff5-b120f667192d","ios":"levelo://app?vid=88ce1175-6683-475f-bff5-b120f667192d"},"vehicle_type_id":"4","last_reported":1708038430,"current_range_meters":31200,"station_id":"ce4bgrp2rcd13ifvqc9g","pricing_plan_id":"cebpf4jnsgd1na2vs0mg"},{"bike_id":"38c56a46-6f6d-46c4-a14c-d81b1880d84a","system_id":"levelo_inurba_marseille","lat":43.305989,"lon":5.37225,"is_reserved":false,"is_disabled":false,"rental_uris":{"android":"levelo://app?vid=38c56a46-6f6d-46c4-a14c-d81b1880d84a","ios":"levelo://app?vid=38c56a46-6f6d-46c4-a14c-d81b1880d84a"},"vehicle_type_id":"4","last_reported":1708038430,"current_range_meters":6000,"station_id":"ce4bgqh2rcd13ifvqc4g","pricing_plan_id":"cebpf4jnsgd1na2vs0mg"},{"bike_id":"e4da1c85-b59b-464d-9c74-2c3a4b8de2a1","system_id":"levelo_inurba_marseille","lat":43.305989,"lon":5.37225,"is_reserved":false,"is_disabled":false,"rental_uris":{"android":"levelo://app?vid=e4da1c85-b59b-464d-9c74-2c3a4b8de2a1","ios":"levelo://app?vid=e4da1c85-b59b-464d-9c74-2c3a4b8de2a1"},"vehicle_type_id":"4","last_reported":1708038430,"current_range_meters":7200,"station_id":"ce4bgqh2rcd13ifvqc4g","pricing_plan_id":"cebpf4jnsgd1na2vs0mg"},{"bike_id":"7b421892-f466-49c6-8efc-99b4f7793941","system_id":"levelo_inurba_marseille","lat":43.305989,"lon":5.37225,"is_reserved":false,"is_disabled":false,"rental_uris":{"android":"levelo://app?vid=7b421892-f466-49c6-8efc-99b4f7793941","ios":"levelo://app?vid=7b421892-f466-49c6-8efc-99b4f7793941"},"vehicle_type_id":"4","last_reported":1708038430,"current_range_meters":10400,"station_id":"ce4bgqh2rcd13ifvqc4g","pricing_plan_id":"cebpf4jnsgd1na2vs0mg"},{"bike_id":"326f744e-f7bb-4e92-b44e-2c98bd92b232","system_id":"levelo_inurba_marseille","lat":43.311131,"lon":5.377651,"is_reserved":false,"is_disabled":false,"rental_uris":{"android":"levelo://app?vid=326f744e-f7bb-4e92-b44e-2c98bd92b232","ios":"levelo://app?vid=326f744e-f7bb-4e92-b44e-2c98bd92b232"},"vehicle_type_id":"4","last_reported":1708038430,"current_range_meters":2800,"station_id":"ce4bgt92rcd13ifvqcg0","pricing_plan_id":"cebpf4jnsgd1na2vs0mg"},{"bike_id":"cd893a2f-3bb5-413b-812a-17af98c59678","system_id":"levelo_inurba_marseille","lat":43.311131,"lon":5.377651,"is_reserved":false,"is_disabled":false,"rental_uris":{"android":"levelo://app?vid=cd893a2f-3bb5-413b-812a-17af98c59678","ios":"levelo://app?vid=cd893a2f-3bb5-413b-812a-17af98c59678"},"vehicle_type_id":"4","last_reported":1708038430,"current_range_meters":27200,"station_id":"ce4bgt92rcd13ifvqcg0","pricing_plan_id":"cebpf4jnsgd1na2vs0mg"},{"bike_id":"7cf6c0ff-bce6-47f1-b6fe-5ab1236b74db","system_id":"levelo_inurba_marseille","lat":43.3113,"lon":5.37764,"is_reserved":false,"is_disabled":false,"rental_uris":{"android":"levelo://app?vid=7cf6c0ff-bce6-47f1-b6fe-5ab1236b74db","ios":"levelo://app?vid=7cf6c0ff-bce6-47f1-b6fe-5ab1236b74db"},"vehicle_type_id":"4","last_reported":1708038430,"current_range_meters":0,"station_id":"ce4bgt92rcd13ifvqcg0","pricing_plan_id":"cebpf4jnsgd1na2vs0mg"},{"bike_id":"df7164c7-d670-4d02-a01a-881f90bd45db","system_id":"levelo_inurba_marseille","lat":43.311131,"lon":5.377651,"is_reserved":false,"is_disabled":false,"rental_uris":{"android":"levelo://app?vid=df7164c7-d670-4d02-a01a-881f90bd45db","ios":"levelo://app?vid=df7164c7-d670-4d02-a01a-881f90bd45db"},"vehicle_type_id":"4","last_reported":1708038430,"current_range_meters":10400,"station_id":"ce4bgt92rcd13ifvqcg0","pricing_plan_id":"cebpf4jnsgd1na2vs0mg"},{"bike_id":"36c4cac5-0923-43b9-b545-1bf3e5af092d","system_id":"levelo_inurba_marseille","lat":43.311131,"lon":5.377651,"is_reserved":false,"is_disabled":false,"rental_uris":{"android":"levelo://app?vid=36c4cac5-0923-43b9-b545-1bf3e5af092d","ios":"levelo://app?vid=36c4cac5-0923-43b9-b545-1bf3e5af092d"},"vehicle_type_id":"4","last_reported":1708038430,"current_range_meters":14400,"station_id":"ce4bgt92rcd13ifvqcg0","pricing_plan_id":"cebpf4jnsgd1na2vs0mg"},{"bike_id":"752aa9f8-c31f-44ce-83e9-f2911a21a674","system_id":"levelo_inurba_marseille","lat":43.313391,"lon":5.36706,"is_reserved":false,"is_disabled":false,"rental_uris":{"android":"levelo://app?vid=752aa9f8-c31f-44ce-83e9-f2911a21a674","ios":"levelo://app?vid=752aa9f8-c31f-44ce-83e9-f2911a21a674"},"vehicle_type_id":"4","last_reported":1708038430,"current_range_meters":26800,"station_id":"ce4bgr92rcd13ifvqc6g","pricing_plan_id":"cebpf4jnsgd1na2vs0mg"},{"bike_id":"978ed11a-0a52-484b-9e76-5af07e161748","system_id":"levelo_inurba_marseille","lat":43.307945,"lon":5.376487,"is_reserved":false,"is_disabled":false,"rental_uris":{"android":"levelo://app?vid=978ed11a-0a52-484b-9e76-5af07e161748","ios":"levelo://app?vid=978ed11a-0a52-484b-9e76-5af07e161748"},"vehicle_type_id":"4","last_reported":1708038430,"current_range_meters":25200,"station_id":"ce4bgv92rcd13ifvqcq0","pricing_plan_id":"cebpf4jnsgd1na2vs0mg"},{"bike_id":"2fca39f8-6a10-42b9-80c8-ff25bebc9e9e","system_id":"levelo_inurba_marseille","lat":43.307945,"lon":5.376487,"is_reserved":false,"is_disabled":false,"rental_uris":{"android":"levelo://app?vid=2fca39f8-6a10-42b9-80c8-ff25bebc9e9e","ios":"levelo://app?vid=2fca39f8-6a10-42b9-80c8-ff25bebc9e9e"},"vehicle_type_id":"4","last_reported":1708038430,"current_range_meters":30000,"station_id":"ce4bgv92rcd13ifvqcq0","pricing_plan_id":"cebpf4jnsgd1na2vs0mg"},{"bike_id":"52a3977f-b948-4427-8189-406f5207363e","system_id":"levelo_inurba_marseille","lat":43.30788,"lon":5.376507,"is_reserved":false,"is_disabled":false,"rental_uris":{"android":"levelo://app?vid=52a3977f-b948-4427-8189-406f5207363e","ios":"levelo://app?vid=52a3977f-b948-4427-8189-406f5207363e"},"vehicle_type_id":"4","last_reported":1708038430,"current_range_meters":3600,"station_id":"ce4bgv92rcd13ifvqcq0","pricing_plan_id":"cebpf4jnsgd1na2vs0mg"},{"bike_id":"8a8fcb00-336d-4096-a685-d52e4602f461","system_id":"levelo_inurba_marseille","lat":43.30787,"lon":5.3765,"is_reserved":false,"is_disabled":false,"rental_uris":{"android":"levelo://app?vid=8a8fcb00-336d-4096-a685-d52e4602f461","ios":"levelo://app?vid=8a8fcb00-336d-4096-a685-d52e4602f461"},"vehicle_type_id":"4","last_reported":1708038430,"current_range_meters":29600,"station_id":"","pricing_plan_id":"cebpf4jnsgd1na2vs0mg"},{"bike_id":"2aa57958-534a-4c6f-a8d3-1d23b42768f8","system_id":"levelo_inurba_marseille","lat":43.307856,"lon":5.37651,"is_reserved":false,"is_disabled":false,"rental_uris":{"android":"levelo://app?vid=2aa57958-534a-4c6f-a8d3-1d23b42768f8","ios":"levelo://app?vid=2aa57958-534a-4c6f-a8d3-1d23b42768f8"},"vehicle_type_id":"4","last_reported":1708038430,"current_range_meters":11600,"station_id":"ce4bgv92rcd13ifvqcq0","pricing_plan_id":"cebpf4jnsgd1na2vs0mg"},{"bike_id":"675e8e6e-3c5a-402c-a789-48ab73907593","system_id":"levelo_inurba_marseille","lat":43.307853,"lon":5.376507,"is_reserved":false,"is_disabled":false,"rental_uris":{"android":"levelo://app?vid=675e8e6e-3c5a-402c-a789-48ab73907593","ios":"levelo://app?vid=675e8e6e-3c5a-402c-a789-48ab73907593"},"vehicle_type_id":"4","last_reported":1708038430,"current_range_meters":14000,"station_id":"ce4bgv92rcd13ifvqcq0","pricing_plan_id":"cebpf4jnsgd1na2vs0mg"},{"bike_id":"d932df92-576d-48e7-a8cb-a8abfc83a10d","system_id":"levelo_inurba_marseille","lat":43.317075,"lon":5.377367,"is_reserved":false,"is_disabled":false,"rental_uris":{"android":"levelo://app?vid=d932df92-576d-48e7-a8cb-a8abfc83a10d","ios":"levelo://app?vid=d932df92-576d-48e7-a8cb-a8abfc83a10d"},"vehicle_type_id":"4","last_reported":1708038430,"current_range_meters":4000,"station_id":"ce4bgth2rcd13ifvqch0","pricing_plan_id":"cebpf4jnsgd1na2vs0mg"},{"bike_id":"8c2d62e3-3ad7-4140-9a67-65fa03190e2f","system_id":"levelo_inurba_marseille","lat":43.317075,"lon":5.377367,"is_reserved":false,"is_disabled":false,"rental_uris":{"android":"levelo://app?vid=8c2d62e3-3ad7-4140-9a67-65fa03190e2f","ios":"levelo://app?vid=8c2d62e3-3ad7-4140-9a67-65fa03190e2f"},"vehicle_type_id":"4","last_reported":1708038430,"current_range_meters":22400,"station_id":"ce4bgth2rcd13ifvqch0","pricing_plan_id":"cebpf4jnsgd1na2vs0mg"},{"bike_id":"aa533a6f-0dc9-4d7d-8582-0387547a46a5","system_id":"levelo_inurba_marseille","lat":43.317075,"lon":5.377367,"is_reserved":false,"is_disabled":false,"rental_uris":{"android":"levelo://app?vid=aa533a6f-0dc9-4d7d-8582-0387547a46a5","ios":"levelo://app?vid=aa533a6f-0dc9-4d7d-8582-0387547a46a5"},"vehicle_type_id":"4","last_reported":1708038430,"current_range_meters":4400,"station_id":"ce4bgth2rcd13ifvqch0","pricing_plan_id":"cebpf4jnsgd1na2vs0mg"},{"bike_id":"e8396d9b-01ad-42aa-ae6a-25e7361077f6","system_id":"levelo_inurba_marseille","lat":43.317075,"lon":5.377367,"is_reserved":false,"is_disabled":false,"rental_uris":{"android":"levelo://app?vid=e8396d9b-01ad-42aa-ae6a-25e7361077f6","ios":"levelo://app?vid=e8396d9b-01ad-42aa-ae6a-25e7361077f6"},"vehicle_type_id":"4","last_reported":1708038430,"current_range_meters":31200,"station_id":"ce4bgth2rcd13ifvqch0","pricing_plan_id":"cebpf4jnsgd1na2vs0mg"},{"bike_id":"e0ab11de-fc9c-4d4b-971a-3b2ba2a23340","system_id":"levelo_inurba_marseille","lat":43.317075,"lon":5.377367,"is_reserved":false,"is_disabled":false,"rental_uris":{"android":"levelo://app?vid=e0ab11de-fc9c-4d4b-971a-3b2ba2a23340","ios":"levelo://app?vid=e0ab11de-fc9c-4d4b-971a-3b2ba2a23340"},"vehicle_type_id":"4","last_reported":1708038430,"current_range_meters":31200,"station_id":"ce4bgth2rcd13ifvqch0","pricing_plan_id":"cebpf4jnsgd1na2vs0mg"},{"bike_id":"32026692-5527-40f2-a535-e55bf2d47370","system_id":"levelo_inurba_marseille","lat":43.317075,"lon":5.377367,"is_reserved":false,"is_disabled":false,"rental_uris":{"android":"levelo://app?vid=32026692-5527-40f2-a535-e55bf2d47370","ios":"levelo://app?vid=32026692-5527-40f2-a535-e55bf2d47370"},"vehicle_type_id":"4","last_reported":1708038430,"current_range_meters":8000,"station_id":"ce4bgth2rcd13ifvqch0","pricing_plan_id":"cebpf4jnsgd1na2vs0mg"},{"bike_id":"6f39090b-b91e-4eaa-81f6-ef24a66149be","system_id":"levelo_inurba_marseille","lat":43.317075,"lon":5.377367,"is_reserved":false,"is_disabled":false,"rental_uris":{"android":"levelo://app?vid=6f39090b-b91e-4eaa-81f6-ef24a66149be","ios":"levelo://app?vid=6f39090b-b91e-4eaa-81f6-ef24a66149be"},"vehicle_type_id":"4","last_reported":1708038430,"current_range_meters":23200,"station_id":"ce4bgth2rcd13ifvqch0","pricing_plan_id":"cebpf4jnsgd1na2vs0mg"},{"bike_id":"3c9de073-dca8-45b4-9f85-3f927607f92c","system_id":"levelo_inurba_marseille","lat":43.30314,"lon":5.36894,"is_reserved":false,"is_disabled":false,"rental_uris":{"android":"levelo://app?vid=3c9de073-dca8-45b4-9f85-3f927607f92c","ios":"levelo://app?vid=3c9de073-dca8-45b4-9f85-3f927607f92c"},"vehicle_type_id":"4","last_reported":1708038430,"current_range_meters":25200,"station_id":"ce4bgqh2rcd13ifvqc5g","pricing_plan_id":"cebpf4jnsgd1na2vs0mg"},{"bike_id":"e48eafa2-25f1-4367-910a-9c1c68d594ca","system_id":"levelo_inurba_marseille","lat":43.315293,"lon":5.380349,"is_reserved":false,"is_disabled":false,"rental_uris":{"android":"levelo://app?vid=e48eafa2-25f1-4367-910a-9c1c68d594ca","ios":"levelo://app?vid=e48eafa2-25f1-4367-910a-9c1c68d594ca"},"vehicle_type_id":"4","last_reported":1708038430,"current_range_meters":31600,"station_id":"ce4bhsp2rcd13ifvqi50","pricing_plan_id":"cebpf4jnsgd1na2vs0mg"},{"bike_id":"2460bb75-16c1-4f11-808c-9c0fc729d203","system_id":"levelo_inurba_marseille","lat":43.315293,"lon":5.380349,"is_reserved":false,"is_disabled":false,"rental_uris":{"android":"levelo://app?vid=2460bb75-16c1-4f11-808c-9c0fc729d203","ios":"levelo://app?vid=2460bb75-16c1-4f11-808c-9c0fc729d203"},"vehicle_type_id":"4","last_reported":1708038430,"current_range_meters":13200,"station_id":"ce4bhsp2rcd13ifvqi50","pricing_plan_id":"cebpf4jnsgd1na2vs0mg"},{"bike_id":"50efbcea-44ce-48a3-8193-be34ac537b0c","system_id":"levelo_inurba_marseille","lat":43.315293,"lon":5.380349,"is_reserved":false,"is_disabled":false,"rental_uris":{"android":"levelo://app?vid=50efbcea-44ce-48a3-8193-be34ac537b0c","ios":"levelo://app?vid=50efbcea-44ce-48a3-8193-be34ac537b0c"},"vehicle_type_id":"4","last_reported":1708038430,"current_range_meters":26000,"station_id":"ce4bhsp2rcd13ifvqi50","pricing_plan_id":"cebpf4jnsgd1na2vs0mg"},{"bike_id":"fab85cb8-17a5-46ee-a726-d0504fc2647c","system_id":"levelo_inurba_marseille","lat":43.315293,"lon":5.380349,"is_reserved":false,"is_disabled":false,"rental_uris":{"android":"levelo://app?vid=fab85cb8-17a5-46ee-a726-d0504fc2647c","ios":"levelo://app?vid=fab85cb8-17a5-46ee-a726-d0504fc2647c"},"vehicle_type_id":"4","last_reported":1708038430,"current_range_meters":18000,"station_id":"ce4bhsp2rcd13ifvqi50","pricing_plan_id":"cebpf4jnsgd1na2vs0mg"},{"bike_id":"1f9ec4f6-1ba3-4da3-a3fd-b6b73101ce3f","system_id":"levelo_inurba_marseille","lat":43.301943,"lon":5.366253,"is_reserved":false,"is_disabled":false,"rental_uris":{"android":"levelo://app?vid=1f9ec4f6-1ba3-4da3-a3fd-b6b73101ce3f","ios":"levelo://app?vid=1f9ec4f6-1ba3-4da3-a3fd-b6b73101ce3f"},"vehicle_type_id":"4","last_reported":1708038430,"current_range_meters":28800,"station_id":"ce4bgrh2rcd13ifvqc8g","pricing_plan_id":"cebpf4jnsgd1na2vs0mg"},{"bike_id":"ff1a131c-c75e-4300-8fe0-a4f8f46b33c8","system_id":"levelo_inurba_marseille","lat":43.301939,"lon":5.366286,"is_reserved":false,"is_disabled":false,"rental_uris":{"android":"levelo://app?vid=ff1a131c-c75e-4300-8fe0-a4f8f46b33c8","ios":"levelo://app?vid=ff1a131c-c75e-4300-8fe0-a4f8f46b33c8"},"vehicle_type_id":"4","last_reported":1708038430,"current_range_meters":25600,"station_id":"ce4bgrh2rcd13ifvqc8g","pricing_plan_id":"cebpf4jnsgd1na2vs0mg"},{"bike_id":"aac8e987-9134-42c0-a007-51190edaea31","system_id":"levelo_inurba_marseille","lat":43.30184,"lon":5.36627,"is_reserved":false,"is_disabled":false,"rental_uris":{"android":"levelo://app?vid=aac8e987-9134-42c0-a007-51190edaea31","ios":"levelo://app?vid=aac8e987-9134-42c0-a007-51190edaea31"},"vehicle_type_id":"4","last_reported":1708038430,"current_range_meters":12800,"station_id":"ce4bgrh2rcd13ifvqc8g","pricing_plan_id":"cebpf4jnsgd1na2vs0mg"},{"bike_id":"41bdd999-69c5-4394-acee-6f02f6363ef5","system_id":"levelo_inurba_marseille","lat":43.301939,"lon":5.366286,"is_reserved":false,"is_disabled":false,"rental_uris":{"android":"levelo://app?vid=41bdd999-69c5-4394-acee-6f02f6363ef5","ios":"levelo://app?vid=41bdd999-69c5-4394-acee-6f02f6363ef5"},"vehicle_type_id":"4","last_reported":1708038430,"current_range_meters":27200,"station_id":"ce4bgrh2rcd13ifvqc8g","pricing_plan_id":"cebpf4jnsgd1na2vs0mg"},{"bike_id":"01282f6b-edaa-4c26-83f4-efdacbf916fe","system_id":"levelo_inurba_marseille","lat":43.301939,"lon":5.366286,"is_reserved":false,"is_disabled":false,"rental_uris":{"android":"levelo://app?vid=01282f6b-edaa-4c26-83f4-efdacbf916fe","ios":"levelo://app?vid=01282f6b-edaa-4c26-83f4-efdacbf916fe"},"vehicle_type_id":"4","last_reported":1708038430,"current_range_meters":6000,"station_id":"ce4bgrh2rcd13ifvqc8g","pricing_plan_id":"cebpf4jnsgd1na2vs0mg"},{"bike_id":"d009c2aa-21c6-4813-b756-91b7c989bbb9","system_id":"levelo_inurba_marseille","lat":43.308012,"lon":5.381511,"is_reserved":false,"is_disabled":false,"rental_uris":{"android":"levelo://app?vid=d009c2aa-21c6-4813-b756-91b7c989bbb9","ios":"levelo://app?vid=d009c2aa-21c6-4813-b756-91b7c989bbb9"},"vehicle_type_id":"4","last_reported":1708038430,"current_range_meters":4800,"station_id":"ce4bgt12rcd13ifvqce0","pricing_plan_id":"cebpf4jnsgd1na2vs0mg"},{"bike_id":"ae15e681-aa9b-4217-ba60-6b0c1a4f5118","system_id":"levelo_inurba_marseille","lat":43.308012,"lon":5.381511,"is_reserved":false,"is_disabled":false,"rental_uris":{"android":"levelo://app?vid=ae15e681-aa9b-4217-ba60-6b0c1a4f5118","ios":"levelo://app?vid=ae15e681-aa9b-4217-ba60-6b0c1a4f5118"},"vehicle_type_id":"4","last_reported":1708038430,"current_range_meters":21200,"station_id":"ce4bgt12rcd13ifvqce0","pricing_plan_id":"cebpf4jnsgd1na2vs0mg"},{"bike_id":"3bae3dab-cd23-477a-b620-83cccc8f7249","system_id":"levelo_inurba_marseille","lat":43.308012,"lon":5.381511,"is_reserved":false,"is_disabled":false,"rental_uris":{"android":"levelo://app?vid=3bae3dab-cd23-477a-b620-83cccc8f7249","ios":"levelo://app?vid=3bae3dab-cd23-477a-b620-83cccc8f7249"},"vehicle_type_id":"4","last_reported":1708038430,"current_range_meters":25200,"station_id":"ce4bgt12rcd13ifvqce0","pricing_plan_id":"cebpf4jnsgd1na2vs0mg"},{"bike_id":"9311530a-c78c-4b42-9d67-6bd517487447","system_id":"levelo_inurba_marseille","lat":43.30796,"lon":5.38145,"is_reserved":false,"is_disabled":false,"rental_uris":{"android":"levelo://app?vid=9311530a-c78c-4b42-9d67-6bd517487447","ios":"levelo://app?vid=9311530a-c78c-4b42-9d67-6bd517487447"},"vehicle_type_id":"4","last_reported":1708038430,"current_range_meters":24000,"station_id":"ce4bgt12rcd13ifvqce0","pricing_plan_id":"cebpf4jnsgd1na2vs0mg"},{"bike_id":"c6845a72-5c93-456d-9d8f-d44949cdac38","system_id":"levelo_inurba_marseille","lat":43.30801,"lon":5.38149,"is_reserved":false,"is_disabled":false,"rental_uris":{"android":"levelo://app?vid=c6845a72-5c93-456d-9d8f-d44949cdac38","ios":"levelo://app?vid=c6845a72-5c93-456d-9d8f-d44949cdac38"},"vehicle_type_id":"4","last_reported":1708038430,"current_range_meters":16400,"station_id":"ce4bgt12rcd13ifvqce0","pricing_plan_id":"cebpf4jnsgd1na2vs0mg"},{"bike_id":"953fdc51-39c9-4bbb-83ef-e3c15cbd7afc","system_id":"levelo_inurba_marseille","lat":43.308012,"lon":5.381511,"is_reserved":false,"is_disabled":false,"rental_uris":{"android":"levelo://app?vid=953fdc51-39c9-4bbb-83ef-e3c15cbd7afc","ios":"levelo://app?vid=953fdc51-39c9-4bbb-83ef-e3c15cbd7afc"},"vehicle_type_id":"4","last_reported":1708038430,"current_range_meters":23600,"station_id":"ce4bgt12rcd13ifvqce0","pricing_plan_id":"cebpf4jnsgd1na2vs0mg"},{"bike_id":"79be640c-01ac-4db6-8adb-98b9e787651e","system_id":"levelo_inurba_marseille","lat":43.308012,"lon":5.381511,"is_reserved":false,"is_disabled":false,"rental_uris":{"android":"levelo://app?vid=79be640c-01ac-4db6-8adb-98b9e787651e","ios":"levelo://app?vid=79be640c-01ac-4db6-8adb-98b9e787651e"},"vehicle_type_id":"4","last_reported":1708038430,"current_range_meters":19600,"station_id":"ce4bgt12rcd13ifvqce0","pricing_plan_id":"cebpf4jnsgd1na2vs0mg"},{"bike_id":"f6c7747e-b0f2-4b03-9fa4-0f68160d3e6c","system_id":"levelo_inurba_marseille","lat":43.308012,"lon":5.381511,"is_reserved":false,"is_disabled":false,"rental_uris":{"android":"levelo://app?vid=f6c7747e-b0f2-4b03-9fa4-0f68160d3e6c","ios":"levelo://app?vid=f6c7747e-b0f2-4b03-9fa4-0f68160d3e6c"},"vehicle_type_id":"4","last_reported":1708038430,"current_range_meters":10400,"station_id":"ce4bgt12rcd13ifvqce0","pricing_plan_id":"cebpf4jnsgd1na2vs0mg"},{"bike_id":"70ce027d-d613-4495-ae6e-9516a77be22f","system_id":"levelo_inurba_marseille","lat":43.308012,"lon":5.381511,"is_reserved":false,"is_disabled":false,"rental_uris":{"android":"levelo://app?vid=70ce027d-d613-4495-ae6e-9516a77be22f","ios":"levelo://app?vid=70ce027d-d613-4495-ae6e-9516a77be22f"},"vehicle_type_id":"4","last_reported":1708038430,"current_range_meters":31200,"station_id":"ce4bgt12rcd13ifvqce0","pricing_plan_id":"cebpf4jnsgd1na2vs0mg"},{"bike_id":"6baa8ca2-5b09-4501-b44d-7262f40d8eab","system_id":"levelo_inurba_marseille","lat":43.308012,"lon":5.381511,"is_reserved":false,"is_disabled":false,"rental_uris":{"android":"levelo://app?vid=6baa8ca2-5b09-4501-b44d-7262f40d8eab","ios":"levelo://app?vid=6baa8ca2-5b09-4501-b44d-7262f40d8eab"},"vehicle_type_id":"4","last_reported":1708038430,"current_range_meters":3600,"station_id":"ce4bgt12rcd13ifvqce0","pricing_plan_id":"cebpf4jnsgd1na2vs0mg"},{"bike_id":"bffb43a8-4398-476e-aa24-fe17d5693404","system_id":"levelo_inurba_marseille","lat":43.308012,"lon":5.381511,"is_reserved":false,"is_disabled":false,"rental_uris":{"android":"levelo://app?vid=bffb43a8-4398-476e-aa24-fe17d5693404","ios":"levelo://app?vid=bffb43a8-4398-476e-aa24-fe17d5693404"},"vehicle_type_id":"4","last_reported":1708038430,"current_range_meters":7200,"station_id":"ce4bgt12rcd13ifvqce0","pricing_plan_id":"cebpf4jnsgd1na2vs0mg"},{"bike_id":"0c5aa703-532a-48fc-81d9-d86718092b00","system_id":"levelo_inurba_marseille","lat":43.304606,"lon":5.379026,"is_reserved":false,"is_disabled":false,"rental_uris":{"android":"levelo://app?vid=0c5aa703-532a-48fc-81d9-d86718092b00","ios":"levelo://app?vid=0c5aa703-532a-48fc-81d9-d86718092b00"},"vehicle_type_id":"4","last_reported":1708038430,"current_range_meters":22400,"station_id":"ce4bgup2rcd13ifvqcn0","pricing_plan_id":"cebpf4jnsgd1na2vs0mg"},{"bike_id":"f70d4a85-6ce8-4d50-b1d8-2f4138bfb286","system_id":"levelo_inurba_marseille","lat":43.304606,"lon":5.379026,"is_reserved":false,"is_disabled":false,"rental_uris":{"android":"levelo://app?vid=f70d4a85-6ce8-4d50-b1d8-2f4138bfb286","ios":"levelo://app?vid=f70d4a85-6ce8-4d50-b1d8-2f4138bfb286"},"vehicle_type_id":"4","last_reported":1708038430,"current_range_meters":0,"station_id":"ce4bgup2rcd13ifvqcn0","pricing_plan_id":"cebpf4jnsgd1na2vs0mg"},{"bike_id":"74040d89-d5b2-4f31-8c52-790dda89ed07","system_id":"levelo_inurba_marseille","lat":43.324771,"lon":5.36557,"is_reserved":false,"is_disabled":false,"rental_uris":{"android":"levelo://app?vid=74040d89-d5b2-4f31-8c52-790dda89ed07","ios":"levelo://app?vid=74040d89-d5b2-4f31-8c52-790dda89ed07"},"vehicle_type_id":"4","last_reported":1708038430,"current_range_meters":12000,"station_id":"ce4bhs12rcd13ifvqhvg","pricing_plan_id":"cebpf4jnsgd1na2vs0mg"},{"bike_id":"5ed0a109-9ca7-4876-adad-41d58d377d1a","system_id":"levelo_inurba_marseille","lat":43.324771,"lon":5.36557,"is_reserved":false,"is_disabled":false,"rental_uris":{"android":"levelo://app?vid=5ed0a109-9ca7-4876-adad-41d58d377d1a","ios":"levelo://app?vid=5ed0a109-9ca7-4876-adad-41d58d377d1a"},"vehicle_type_id":"4","last_reported":1708038430,"current_range_meters":4000,"station_id":"ce4bhs12rcd13ifvqhvg","pricing_plan_id":"cebpf4jnsgd1na2vs0mg"},{"bike_id":"67079a29-f28c-4d70-8856-b0af88c8d642","system_id":"levelo_inurba_marseille","lat":43.324771,"lon":5.36557,"is_reserved":false,"is_disabled":false,"rental_uris":{"android":"levelo://app?vid=67079a29-f28c-4d70-8856-b0af88c8d642","ios":"levelo://app?vid=67079a29-f28c-4d70-8856-b0af88c8d642"},"vehicle_type_id":"4","last_reported":1708038430,"current_range_meters":23600,"station_id":"ce4bhs12rcd13ifvqhvg","pricing_plan_id":"cebpf4jnsgd1na2vs0mg"},{"bike_id":"eb331c1c-770d-4ab0-8716-5793c3e19a18","system_id":"levelo_inurba_marseille","lat":43.324771,"lon":5.36557,"is_reserved":false,"is_disabled":false,"rental_uris":{"android":"levelo://app?vid=eb331c1c-770d-4ab0-8716-5793c3e19a18","ios":"levelo://app?vid=eb331c1c-770d-4ab0-8716-5793c3e19a18"},"vehicle_type_id":"4","last_reported":1708038430,"current_range_meters":10000,"station_id":"ce4bhs12rcd13ifvqhvg","pricing_plan_id":"cebpf4jnsgd1na2vs0mg"},{"bike_id":"7eac1002-a816-4569-b798-3a3a62c5a4d3","system_id":"levelo_inurba_marseille","lat":43.324771,"lon":5.36557,"is_reserved":false,"is_disabled":false,"rental_uris":{"android":"levelo://app?vid=7eac1002-a816-4569-b798-3a3a62c5a4d3","ios":"levelo://app?vid=7eac1002-a816-4569-b798-3a3a62c5a4d3"},"vehicle_type_id":"4","last_reported":1708038430,"current_range_meters":6800,"station_id":"ce4bhs12rcd13ifvqhvg","pricing_plan_id":"cebpf4jnsgd1na2vs0mg"},{"bike_id":"980c8cba-35b1-44d2-a18a-a8be39861f38","system_id":"levelo_inurba_marseille","lat":43.324771,"lon":5.36557,"is_reserved":false,"is_disabled":false,"rental_uris":{"android":"levelo://app?vid=980c8cba-35b1-44d2-a18a-a8be39861f38","ios":"levelo://app?vid=980c8cba-35b1-44d2-a18a-a8be39861f38"},"vehicle_type_id":"4","last_reported":1708038430,"current_range_meters":24000,"station_id":"ce4bhs12rcd13ifvqhvg","pricing_plan_id":"cebpf4jnsgd1na2vs0mg"},{"bike_id":"8cc61c4a-5302-4b6c-a32c-54803363c1d2","system_id":"levelo_inurba_marseille","lat":43.310714,"lon":5.38349,"is_reserved":false,"is_disabled":false,"rental_uris":{"android":"levelo://app?vid=8cc61c4a-5302-4b6c-a32c-54803363c1d2","ios":"levelo://app?vid=8cc61c4a-5302-4b6c-a32c-54803363c1d2"},"vehicle_type_id":"4","last_reported":1708038430,"current_range_meters":29600,"station_id":"ce4bgv92rcd13ifvqcr0","pricing_plan_id":"cebpf4jnsgd1na2vs0mg"},{"bike_id":"da4fadf5-3e37-4933-b2d3-0de431b1409d","system_id":"levelo_inurba_marseille","lat":43.310761,"lon":5.383508,"is_reserved":false,"is_disabled":false,"rental_uris":{"android":"levelo://app?vid=da4fadf5-3e37-4933-b2d3-0de431b1409d","ios":"levelo://app?vid=da4fadf5-3e37-4933-b2d3-0de431b1409d"},"vehicle_type_id":"4","last_reported":1708038430,"current_range_meters":0,"station_id":"ce4bgv92rcd13ifvqcr0","pricing_plan_id":"cebpf4jnsgd1na2vs0mg"},{"bike_id":"9a29bd98-7765-4199-8212-1ef4fe8ca9fe","system_id":"levelo_inurba_marseille","lat":43.31069,"lon":5.3835,"is_reserved":false,"is_disabled":false,"rental_uris":{"android":"levelo://app?vid=9a29bd98-7765-4199-8212-1ef4fe8ca9fe","ios":"levelo://app?vid=9a29bd98-7765-4199-8212-1ef4fe8ca9fe"},"vehicle_type_id":"4","last_reported":1708038430,"current_range_meters":1200,"station_id":"ce4bgv92rcd13ifvqcr0","pricing_plan_id":"cebpf4jnsgd1na2vs0mg"},{"bike_id":"2d834dbd-16b5-4e7f-8b94-a3c26253ebd1","system_id":"levelo_inurba_marseille","lat":43.310804,"lon":5.38359,"is_reserved":false,"is_disabled":false,"rental_uris":{"android":"levelo://app?vid=2d834dbd-16b5-4e7f-8b94-a3c26253ebd1","ios":"levelo://app?vid=2d834dbd-16b5-4e7f-8b94-a3c26253ebd1"},"vehicle_type_id":"4","last_reported":1708038430,"current_range_meters":6000,"station_id":"ce4bgv92rcd13ifvqcr0","pricing_plan_id":"cebpf4jnsgd1na2vs0mg"},{"bike_id":"c4a33b3a-50c1-4e50-8d7e-e5f5ec04e441","system_id":"levelo_inurba_marseille","lat":43.310804,"lon":5.38359,"is_reserved":false,"is_disabled":false,"rental_uris":{"android":"levelo://app?vid=c4a33b3a-50c1-4e50-8d7e-e5f5ec04e441","ios":"levelo://app?vid=c4a33b3a-50c1-4e50-8d7e-e5f5ec04e441"},"vehicle_type_id":"4","last_reported":1708038430,"current_range_meters":3200,"station_id":"ce4bgv92rcd13ifvqcr0","pricing_plan_id":"cebpf4jnsgd1na2vs0mg"},{"bike_id":"94ccd055-ac62-4dce-b15d-a257bbe9b731","system_id":"levelo_inurba_marseille","lat":43.310804,"lon":5.38359,"is_reserved":false,"is_disabled":false,"rental_uris":{"android":"levelo://app?vid=94ccd055-ac62-4dce-b15d-a257bbe9b731","ios":"levelo://app?vid=94ccd055-ac62-4dce-b15d-a257bbe9b731"},"vehicle_type_id":"4","last_reported":1708038430,"current_range_meters":2400,"station_id":"ce4bgv92rcd13ifvqcr0","pricing_plan_id":"cebpf4jnsgd1na2vs0mg"},{"bike_id":"3ba45bb5-5c20-4d90-aa8a-70a65b3bc284","system_id":"levelo_inurba_marseille","lat":43.302784,"lon":5.377158,"is_reserved":false,"is_disabled":false,"rental_uris":{"android":"levelo://app?vid=3ba45bb5-5c20-4d90-aa8a-70a65b3bc284","ios":"levelo://app?vid=3ba45bb5-5c20-4d90-aa8a-70a65b3bc284"},"vehicle_type_id":"4","last_reported":1708038430,"current_range_meters":17200,"station_id":"ce4bguh2rcd13ifvqcj0","pricing_plan_id":"cebpf4jnsgd1na2vs0mg"},{"bike_id":"0e53949d-06ed-45b7-8a87-fdca71c413b2","system_id":"levelo_inurba_marseille","lat":43.302784,"lon":5.377158,"is_reserved":false,"is_disabled":false,"rental_uris":{"android":"levelo://app?vid=0e53949d-06ed-45b7-8a87-fdca71c413b2","ios":"levelo://app?vid=0e53949d-06ed-45b7-8a87-fdca71c413b2"},"vehicle_type_id":"4","last_reported":1708038430,"current_range_meters":15600,"station_id":"ce4bguh2rcd13ifvqcj0","pricing_plan_id":"cebpf4jnsgd1na2vs0mg"},{"bike_id":"86d438c2-740b-4c96-8dfb-0664e1104c1b","system_id":"levelo_inurba_marseille","lat":43.30277,"lon":5.37705,"is_reserved":false,"is_disabled":false,"rental_uris":{"android":"levelo://app?vid=86d438c2-740b-4c96-8dfb-0664e1104c1b","ios":"levelo://app?vid=86d438c2-740b-4c96-8dfb-0664e1104c1b"},"vehicle_type_id":"4","last_reported":1708038430,"current_range_meters":29200,"station_id":"ce4bguh2rcd13ifvqcj0","pricing_plan_id":"cebpf4jnsgd1na2vs0mg"},{"bike_id":"cb9c2966-14f7-46bd-b78d-7e8fe642577d","system_id":"levelo_inurba_marseille","lat":43.301429,"lon":5.37413,"is_reserved":false,"is_disabled":false,"rental_uris":{"android":"levelo://app?vid=cb9c2966-14f7-46bd-b78d-7e8fe642577d","ios":"levelo://app?vid=cb9c2966-14f7-46bd-b78d-7e8fe642577d"},"vehicle_type_id":"4","last_reported":1708038430,"current_range_meters":12000,"station_id":"ce4bgs92rcd13ifvqcc0","pricing_plan_id":"cebpf4jnsgd1na2vs0mg"},{"bike_id":"470fde00-3503-4c79-922c-c4e020e38520","system_id":"levelo_inurba_marseille","lat":43.319935,"lon":5.381699,"is_reserved":false,"is_disabled":false,"rental_uris":{"android":"levelo://app?vid=470fde00-3503-4c79-922c-c4e020e38520","ios":"levelo://app?vid=470fde00-3503-4c79-922c-c4e020e38520"},"vehicle_type_id":"4","last_reported":1708038430,"current_range_meters":31200,"station_id":"ce4bhr12rcd13ifvqhpg","pricing_plan_id":"cebpf4jnsgd1na2vs0mg"},{"bike_id":"1524caed-e036-4a1d-90f3-0fb3698ebab1","system_id":"levelo_inurba_marseille","lat":43.319935,"lon":5.381699,"is_reserved":false,"is_disabled":false,"rental_uris":{"android":"levelo://app?vid=1524caed-e036-4a1d-90f3-0fb3698ebab1","ios":"levelo://app?vid=1524caed-e036-4a1d-90f3-0fb3698ebab1"},"vehicle_type_id":"4","last_reported":1708038430,"current_range_meters":2400,"station_id":"ce4bhr12rcd13ifvqhpg","pricing_plan_id":"cebpf4jnsgd1na2vs0mg"},{"bike_id":"401c17bb-22c6-40b7-8f6d-a63d489fd73f","system_id":"levelo_inurba_marseille","lat":43.319935,"lon":5.381699,"is_reserved":false,"is_disabled":false,"rental_uris":{"android":"levelo://app?vid=401c17bb-22c6-40b7-8f6d-a63d489fd73f","ios":"levelo://app?vid=401c17bb-22c6-40b7-8f6d-a63d489fd73f"},"vehicle_type_id":"4","last_reported":1708038430,"current_range_meters":9600,"station_id":"ce4bhr12rcd13ifvqhpg","pricing_plan_id":"cebpf4jnsgd1na2vs0mg"},{"bike_id":"c4f3a2cc-5e97-4f44-8d5e-f1dc56798a09","system_id":"levelo_inurba_marseille","lat":43.319935,"lon":5.381699,"is_reserved":false,"is_disabled":false,"rental_uris":{"android":"levelo://app?vid=c4f3a2cc-5e97-4f44-8d5e-f1dc56798a09","ios":"levelo://app?vid=c4f3a2cc-5e97-4f44-8d5e-f1dc56798a09"},"vehicle_type_id":"4","last_reported":1708038430,"current_range_meters":3200,"station_id":"ce4bhr12rcd13ifvqhpg","pricing_plan_id":"cebpf4jnsgd1na2vs0mg"},{"bike_id":"b72f3c89-27e7-4ae8-be9d-459fc80ba35b","system_id":"levelo_inurba_marseille","lat":43.313571,"lon":5.384829,"is_reserved":false,"is_disabled":false,"rental_uris":{"android":"levelo://app?vid=b72f3c89-27e7-4ae8-be9d-459fc80ba35b","ios":"levelo://app?vid=b72f3c89-27e7-4ae8-be9d-459fc80ba35b"},"vehicle_type_id":"4","last_reported":1708038430,"current_range_meters":13200,"station_id":"ce4bgt92rcd13ifvqcf0","pricing_plan_id":"cebpf4jnsgd1na2vs0mg"},{"bike_id":"907a9688-94c1-46db-b8f9-3840c732093c","system_id":"levelo_inurba_marseille","lat":43.313571,"lon":5.384829,"is_reserved":false,"is_disabled":false,"rental_uris":{"android":"levelo://app?vid=907a9688-94c1-46db-b8f9-3840c732093c","ios":"levelo://app?vid=907a9688-94c1-46db-b8f9-3840c732093c"},"vehicle_type_id":"4","last_reported":1708038430,"current_range_meters":20400,"station_id":"ce4bgt92rcd13ifvqcf0","pricing_plan_id":"cebpf4jnsgd1na2vs0mg"},{"bike_id":"8eefd68b-4638-4414-bd45-e93d6aaf32fd","system_id":"levelo_inurba_marseille","lat":43.313571,"lon":5.384829,"is_reserved":false,"is_disabled":false,"rental_uris":{"android":"levelo://app?vid=8eefd68b-4638-4414-bd45-e93d6aaf32fd","ios":"levelo://app?vid=8eefd68b-4638-4414-bd45-e93d6aaf32fd"},"vehicle_type_id":"4","last_reported":1708038430,"current_range_meters":31600,"station_id":"ce4bgt92rcd13ifvqcf0","pricing_plan_id":"cebpf4jnsgd1na2vs0mg"},{"bike_id":"df7fe229-b831-4c35-a5f2-0d23baf55cad","system_id":"levelo_inurba_marseille","lat":43.299724,"lon":5.371829,"is_reserved":false,"is_disabled":false,"rental_uris":{"android":"levelo://app?vid=df7fe229-b831-4c35-a5f2-0d23baf55cad","ios":"levelo://app?vid=df7fe229-b831-4c35-a5f2-0d23baf55cad"},"vehicle_type_id":"4","last_reported":1708038430,"current_range_meters":27200,"station_id":"ce4bgr92rcd13ifvqc7g","pricing_plan_id":"cebpf4jnsgd1na2vs0mg"},{"bike_id":"2a0a050e-4607-4684-89e6-c07e72207f5e","system_id":"levelo_inurba_marseille","lat":43.299724,"lon":5.371829,"is_reserved":false,"is_disabled":false,"rental_uris":{"android":"levelo://app?vid=2a0a050e-4607-4684-89e6-c07e72207f5e","ios":"levelo://app?vid=2a0a050e-4607-4684-89e6-c07e72207f5e"},"vehicle_type_id":"4","last_reported":1708038430,"current_range_meters":28000,"station_id":"ce4bgr92rcd13ifvqc7g","pricing_plan_id":"cebpf4jnsgd1na2vs0mg"},{"bike_id":"79854c7c-0ab7-402b-920f-8ad582be0e43","system_id":"levelo_inurba_marseille","lat":43.299497,"lon":5.37395,"is_reserved":false,"is_disabled":false,"rental_uris":{"android":"levelo://app?vid=79854c7c-0ab7-402b-920f-8ad582be0e43","ios":"levelo://app?vid=79854c7c-0ab7-402b-920f-8ad582be0e43"},"vehicle_type_id":"4","last_reported":1708038430,"current_range_meters":28000,"station_id":"","pricing_plan_id":"cebpf4jnsgd1na2vs0mg"},{"bike_id":"ced03295-56f7-40e5-9d42-547064af989e","system_id":"levelo_inurba_marseille","lat":43.311722,"lon":5.387247,"is_reserved":false,"is_disabled":false,"rental_uris":{"android":"levelo://app?vid=ced03295-56f7-40e5-9d42-547064af989e","ios":"levelo://app?vid=ced03295-56f7-40e5-9d42-547064af989e"},"vehicle_type_id":"4","last_reported":1708038430,"current_range_meters":6000,"station_id":"ce4bgv12rcd13ifvqcp0","pricing_plan_id":"cebpf4jnsgd1na2vs0mg"},{"bike_id":"94f61cf9-ebca-47e5-a284-a233fe291851","system_id":"levelo_inurba_marseille","lat":43.31183,"lon":5.38706,"is_reserved":false,"is_disabled":false,"rental_uris":{"android":"levelo://app?vid=94f61cf9-ebca-47e5-a284-a233fe291851","ios":"levelo://app?vid=94f61cf9-ebca-47e5-a284-a233fe291851"},"vehicle_type_id":"4","last_reported":1708038430,"current_range_meters":1600,"station_id":"ce4bgv12rcd13ifvqcp0","pricing_plan_id":"cebpf4jnsgd1na2vs0mg"},{"bike_id":"d7241ed0-7b3c-4073-95ce-4637350cd9d7","system_id":"levelo_inurba_marseille","lat":43.305364,"lon":5.384119,"is_reserved":false,"is_disabled":false,"rental_uris":{"android":"levelo://app?vid=d7241ed0-7b3c-4073-95ce-4637350cd9d7","ios":"levelo://app?vid=d7241ed0-7b3c-4073-95ce-4637350cd9d7"},"vehicle_type_id":"4","last_reported":1708038430,"current_range_meters":2800,"station_id":"ce4bgg92rcd13ifvqb30","pricing_plan_id":"cebpf4jnsgd1na2vs0mg"},{"bike_id":"8e03ea0f-9d91-47a6-8124-006e2f36ea71","system_id":"levelo_inurba_marseille","lat":43.299243,"lon":5.37481,"is_reserved":false,"is_disabled":false,"rental_uris":{"android":"levelo://app?vid=8e03ea0f-9d91-47a6-8124-006e2f36ea71","ios":"levelo://app?vid=8e03ea0f-9d91-47a6-8124-006e2f36ea71"},"vehicle_type_id":"4","last_reported":1708038430,"current_range_meters":22800,"station_id":"ce4bgjh2rcd13ifvqbg0","pricing_plan_id":"cebpf4jnsgd1na2vs0mg"},{"bike_id":"ddb0bc11-91cf-4c4c-86a1-4c9e5c9f6689","system_id":"levelo_inurba_marseille","lat":43.311722,"lon":5.387247,"is_reserved":false,"is_disabled":false,"rental_uris":{"android":"levelo://app?vid=ddb0bc11-91cf-4c4c-86a1-4c9e5c9f6689","ios":"levelo://app?vid=ddb0bc11-91cf-4c4c-86a1-4c9e5c9f6689"},"vehicle_type_id":"4","last_reported":1708038430,"current_range_meters":7200,"station_id":"ce4bgv12rcd13ifvqcp0","pricing_plan_id":"cebpf4jnsgd1na2vs0mg"},{"bike_id":"1d424355-2f5b-4d9e-9b08-0a05fb0909af","system_id":"levelo_inurba_marseille","lat":43.311722,"lon":5.387247,"is_reserved":false,"is_disabled":false,"rental_uris":{"android":"levelo://app?vid=1d424355-2f5b-4d9e-9b08-0a05fb0909af","ios":"levelo://app?vid=1d424355-2f5b-4d9e-9b08-0a05fb0909af"},"vehicle_type_id":"4","last_reported":1708038430,"current_range_meters":24400,"station_id":"ce4bgv12rcd13ifvqcp0","pricing_plan_id":"cebpf4jnsgd1na2vs0mg"},{"bike_id":"6538d9e0-9df9-47a0-a614-8748dc307907","system_id":"levelo_inurba_marseille","lat":43.311722,"lon":5.387247,"is_reserved":false,"is_disabled":false,"rental_uris":{"android":"levelo://app?vid=6538d9e0-9df9-47a0-a614-8748dc307907","ios":"levelo://app?vid=6538d9e0-9df9-47a0-a614-8748dc307907"},"vehicle_type_id":"4","last_reported":1708038430,"current_range_meters":18000,"station_id":"ce4bgv12rcd13ifvqcp0","pricing_plan_id":"cebpf4jnsgd1na2vs0mg"},{"bike_id":"33b3bd62-9377-4b20-855e-49bae7cf6980","system_id":"levelo_inurba_marseille","lat":43.297662,"lon":5.369582,"is_reserved":false,"is_disabled":false,"rental_uris":{"android":"levelo://app?vid=33b3bd62-9377-4b20-855e-49bae7cf6980","ios":"levelo://app?vid=33b3bd62-9377-4b20-855e-49bae7cf6980"},"vehicle_type_id":"4","last_reported":1708038430,"current_range_meters":18400,"station_id":"","pricing_plan_id":"cebpf4jnsgd1na2vs0mg"},{"bike_id":"5b12ad66-370d-411f-8a89-1045f139e107","system_id":"levelo_inurba_marseille","lat":43.322872,"lon":5.382756,"is_reserved":false,"is_disabled":false,"rental_uris":{"android":"levelo://app?vid=5b12ad66-370d-411f-8a89-1045f139e107","ios":"levelo://app?vid=5b12ad66-370d-411f-8a89-1045f139e107"},"vehicle_type_id":"4","last_reported":1708038430,"current_range_meters":31200,"station_id":"ce4bhr12rcd13ifvqhqg","pricing_plan_id":"cebpf4jnsgd1na2vs0mg"},{"bike_id":"e7ddac79-3e05-4879-8044-19bc4cd52fa1","system_id":"levelo_inurba_marseille","lat":43.322872,"lon":5.382756,"is_reserved":false,"is_disabled":false,"rental_uris":{"android":"levelo://app?vid=e7ddac79-3e05-4879-8044-19bc4cd52fa1","ios":"levelo://app?vid=e7ddac79-3e05-4879-8044-19bc4cd52fa1"},"vehicle_type_id":"4","last_reported":1708038430,"current_range_meters":4800,"station_id":"ce4bhr12rcd13ifvqhqg","pricing_plan_id":"cebpf4jnsgd1na2vs0mg"},{"bike_id":"8f6edb34-5a88-45b3-b210-ae7579b9b87b","system_id":"levelo_inurba_marseille","lat":43.32291,"lon":5.38264,"is_reserved":false,"is_disabled":false,"rental_uris":{"android":"levelo://app?vid=8f6edb34-5a88-45b3-b210-ae7579b9b87b","ios":"levelo://app?vid=8f6edb34-5a88-45b3-b210-ae7579b9b87b"},"vehicle_type_id":"4","last_reported":1708038430,"current_range_meters":8800,"station_id":"ce4bhr12rcd13ifvqhqg","pricing_plan_id":"cebpf4jnsgd1na2vs0mg"},{"bike_id":"c3544a8b-3b2b-43d9-8c06-a1e4cd30f44c","system_id":"levelo_inurba_marseille","lat":43.299997,"lon":5.378597,"is_reserved":false,"is_disabled":false,"rental_uris":{"android":"levelo://app?vid=c3544a8b-3b2b-43d9-8c06-a1e4cd30f44c","ios":"levelo://app?vid=c3544a8b-3b2b-43d9-8c06-a1e4cd30f44c"},"vehicle_type_id":"4","last_reported":1708038430,"current_range_meters":0,"station_id":"","pricing_plan_id":"cebpf4jnsgd1na2vs0mg"},{"bike_id":"466a0b3c-d73b-4507-b8b6-683f9244ed96","system_id":"levelo_inurba_marseille","lat":43.322872,"lon":5.382756,"is_reserved":false,"is_disabled":false,"rental_uris":{"android":"levelo://app?vid=466a0b3c-d73b-4507-b8b6-683f9244ed96","ios":"levelo://app?vid=466a0b3c-d73b-4507-b8b6-683f9244ed96"},"vehicle_type_id":"4","last_reported":1708038430,"current_range_meters":30000,"station_id":"ce4bhr12rcd13ifvqhqg","pricing_plan_id":"cebpf4jnsgd1na2vs0mg"},{"bike_id":"e674677d-7bc1-48fa-80fb-1e56b1f01f35","system_id":"levelo_inurba_marseille","lat":43.322872,"lon":5.382756,"is_reserved":false,"is_disabled":false,"rental_uris":{"android":"levelo://app?vid=e674677d-7bc1-48fa-80fb-1e56b1f01f35","ios":"levelo://app?vid=e674677d-7bc1-48fa-80fb-1e56b1f01f35"},"vehicle_type_id":"4","last_reported":1708038430,"current_range_meters":22400,"station_id":"ce4bhr12rcd13ifvqhqg","pricing_plan_id":"cebpf4jnsgd1na2vs0mg"},{"bike_id":"aed9e4ad-9c1a-4a51-8095-58a12f0b44f4","system_id":"levelo_inurba_marseille","lat":43.322872,"lon":5.382756,"is_reserved":false,"is_disabled":false,"rental_uris":{"android":"levelo://app?vid=aed9e4ad-9c1a-4a51-8095-58a12f0b44f4","ios":"levelo://app?vid=aed9e4ad-9c1a-4a51-8095-58a12f0b44f4"},"vehicle_type_id":"4","last_reported":1708038430,"current_range_meters":30800,"station_id":"ce4bhr12rcd13ifvqhqg","pricing_plan_id":"cebpf4jnsgd1na2vs0mg"},{"bike_id":"cce45d5b-b827-4599-8137-34ad81fdf112","system_id":"levelo_inurba_marseille","lat":43.322872,"lon":5.382756,"is_reserved":false,"is_disabled":false,"rental_uris":{"android":"levelo://app?vid=cce45d5b-b827-4599-8137-34ad81fdf112","ios":"levelo://app?vid=cce45d5b-b827-4599-8137-34ad81fdf112"},"vehicle_type_id":"4","last_reported":1708038430,"current_range_meters":5200,"station_id":"ce4bhr12rcd13ifvqhqg","pricing_plan_id":"cebpf4jnsgd1na2vs0mg"},{"bike_id":"f4b6c96f-f863-415f-916a-aff3ff7977d0","system_id":"levelo_inurba_marseille","lat":43.322872,"lon":5.382756,"is_reserved":false,"is_disabled":false,"rental_uris":{"android":"levelo://app?vid=f4b6c96f-f863-415f-916a-aff3ff7977d0","ios":"levelo://app?vid=f4b6c96f-f863-415f-916a-aff3ff7977d0"},"vehicle_type_id":"4","last_reported":1708038430,"current_range_meters":31200,"station_id":"ce4bhr12rcd13ifvqhqg","pricing_plan_id":"cebpf4jnsgd1na2vs0mg"},{"bike_id":"d059372d-713e-4306-a0dc-ef5b2b5ad059","system_id":"levelo_inurba_marseille","lat":43.32823,"lon":5.36682,"is_reserved":false,"is_disabled":false,"rental_uris":{"android":"levelo://app?vid=d059372d-713e-4306-a0dc-ef5b2b5ad059","ios":"levelo://app?vid=d059372d-713e-4306-a0dc-ef5b2b5ad059"},"vehicle_type_id":"4","last_reported":1708038430,"current_range_meters":0,"station_id":"ce4bhs92rcd13ifvqi0g","pricing_plan_id":"cebpf4jnsgd1na2vs0mg"},{"bike_id":"ec21c626-faeb-41e5-9192-4d2bef3ee4d3","system_id":"levelo_inurba_marseille","lat":43.32826,"lon":5.36681,"is_reserved":false,"is_disabled":false,"rental_uris":{"android":"levelo://app?vid=ec21c626-faeb-41e5-9192-4d2bef3ee4d3","ios":"levelo://app?vid=ec21c626-faeb-41e5-9192-4d2bef3ee4d3"},"vehicle_type_id":"4","last_reported":1708038430,"current_range_meters":4000,"station_id":"ce4bhs92rcd13ifvqi0g","pricing_plan_id":"cebpf4jnsgd1na2vs0mg"},{"bike_id":"e4cc1337-7654-41c0-8296-b1f3b25edb39","system_id":"levelo_inurba_marseille","lat":43.32826,"lon":5.36681,"is_reserved":false,"is_disabled":false,"rental_uris":{"android":"levelo://app?vid=e4cc1337-7654-41c0-8296-b1f3b25edb39","ios":"levelo://app?vid=e4cc1337-7654-41c0-8296-b1f3b25edb39"},"vehicle_type_id":"4","last_reported":1708038430,"current_range_meters":11600,"station_id":"ce4bhs92rcd13ifvqi0g","pricing_plan_id":"cebpf4jnsgd1na2vs0mg"},{"bike_id":"24cbb04a-c763-4b6c-91c7-7ce4ce9a6969","system_id":"levelo_inurba_marseille","lat":43.328261,"lon":5.366823,"is_reserved":false,"is_disabled":false,"rental_uris":{"android":"levelo://app?vid=24cbb04a-c763-4b6c-91c7-7ce4ce9a6969","ios":"levelo://app?vid=24cbb04a-c763-4b6c-91c7-7ce4ce9a6969"},"vehicle_type_id":"4","last_reported":1708038430,"current_range_meters":11200,"station_id":"ce4bhs92rcd13ifvqi0g","pricing_plan_id":"cebpf4jnsgd1na2vs0mg"},{"bike_id":"b354d40e-f748-45df-b8a4-085ee0f39b31","system_id":"levelo_inurba_marseille","lat":43.32827,"lon":5.36682,"is_reserved":false,"is_disabled":false,"rental_uris":{"android":"levelo://app?vid=b354d40e-f748-45df-b8a4-085ee0f39b31","ios":"levelo://app?vid=b354d40e-f748-45df-b8a4-085ee0f39b31"},"vehicle_type_id":"4","last_reported":1708038430,"current_range_meters":18800,"station_id":"ce4bhs92rcd13ifvqi0g","pricing_plan_id":"cebpf4jnsgd1na2vs0mg"},{"bike_id":"c9b88aad-86c2-4a51-9436-08e8586a0048","system_id":"levelo_inurba_marseille","lat":43.328275,"lon":5.366863,"is_reserved":false,"is_disabled":false,"rental_uris":{"android":"levelo://app?vid=c9b88aad-86c2-4a51-9436-08e8586a0048","ios":"levelo://app?vid=c9b88aad-86c2-4a51-9436-08e8586a0048"},"vehicle_type_id":"4","last_reported":1708038430,"current_range_meters":14000,"station_id":"ce4bhs92rcd13ifvqi0g","pricing_plan_id":"cebpf4jnsgd1na2vs0mg"},{"bike_id":"4a0314a3-53ac-4faf-a81a-365240b15a43","system_id":"levelo_inurba_marseille","lat":43.32828,"lon":5.36682,"is_reserved":false,"is_disabled":false,"rental_uris":{"android":"levelo://app?vid=4a0314a3-53ac-4faf-a81a-365240b15a43","ios":"levelo://app?vid=4a0314a3-53ac-4faf-a81a-365240b15a43"},"vehicle_type_id":"4","last_reported":1708038430,"current_range_meters":25200,"station_id":"ce4bhs92rcd13ifvqi0g","pricing_plan_id":"cebpf4jnsgd1na2vs0mg"},{"bike_id":"ecc597d3-f2ea-41b5-b374-bc2279e4f21f","system_id":"levelo_inurba_marseille","lat":43.32828,"lon":5.3668,"is_reserved":false,"is_disabled":false,"rental_uris":{"android":"levelo://app?vid=ecc597d3-f2ea-41b5-b374-bc2279e4f21f","ios":"levelo://app?vid=ecc597d3-f2ea-41b5-b374-bc2279e4f21f"},"vehicle_type_id":"4","last_reported":1708038430,"current_range_meters":5600,"station_id":"ce4bhs92rcd13ifvqi0g","pricing_plan_id":"cebpf4jnsgd1na2vs0mg"},{"bike_id":"20747a73-3ec2-4ec7-9c3a-f0ad85525260","system_id":"levelo_inurba_marseille","lat":43.32828,"lon":5.3668,"is_reserved":false,"is_disabled":false,"rental_uris":{"android":"levelo://app?vid=20747a73-3ec2-4ec7-9c3a-f0ad85525260","ios":"levelo://app?vid=20747a73-3ec2-4ec7-9c3a-f0ad85525260"},"vehicle_type_id":"4","last_reported":1708038430,"current_range_meters":0,"station_id":"ce4bhs92rcd13ifvqi0g","pricing_plan_id":"cebpf4jnsgd1na2vs0mg"},{"bike_id":"db22ed90-3327-46a9-9568-3a914f891c9a","system_id":"levelo_inurba_marseille","lat":43.32829,"lon":5.366893,"is_reserved":false,"is_disabled":false,"rental_uris":{"android":"levelo://app?vid=db22ed90-3327-46a9-9568-3a914f891c9a","ios":"levelo://app?vid=db22ed90-3327-46a9-9568-3a914f891c9a"},"vehicle_type_id":"4","last_reported":1708038430,"current_range_meters":0,"station_id":"ce4bhs92rcd13ifvqi0g","pricing_plan_id":"cebpf4jnsgd1na2vs0mg"},{"bike_id":"c579bad3-e2d0-4712-a783-f41c065e4e3f","system_id":"levelo_inurba_marseille","lat":43.32829,"lon":5.36671,"is_reserved":false,"is_disabled":false,"rental_uris":{"android":"levelo://app?vid=c579bad3-e2d0-4712-a783-f41c065e4e3f","ios":"levelo://app?vid=c579bad3-e2d0-4712-a783-f41c065e4e3f"},"vehicle_type_id":"4","last_reported":1708038430,"current_range_meters":4400,"station_id":"ce4bhs92rcd13ifvqi0g","pricing_plan_id":"cebpf4jnsgd1na2vs0mg"},{"bike_id":"7c47e388-9433-4092-857a-2e1a28e7faaa","system_id":"levelo_inurba_marseille","lat":43.3283,"lon":5.36676,"is_reserved":false,"is_disabled":false,"rental_uris":{"android":"levelo://app?vid=7c47e388-9433-4092-857a-2e1a28e7faaa","ios":"levelo://app?vid=7c47e388-9433-4092-857a-2e1a28e7faaa"},"vehicle_type_id":"4","last_reported":1708038430,"current_range_meters":22000,"station_id":"ce4bhs92rcd13ifvqi0g","pricing_plan_id":"cebpf4jnsgd1na2vs0mg"},{"bike_id":"57f57f96-aa15-40ae-a761-f5242a8c30b7","system_id":"levelo_inurba_marseille","lat":43.328303,"lon":5.366815,"is_reserved":false,"is_disabled":false,"rental_uris":{"android":"levelo://app?vid=57f57f96-aa15-40ae-a761-f5242a8c30b7","ios":"levelo://app?vid=57f57f96-aa15-40ae-a761-f5242a8c30b7"},"vehicle_type_id":"4","last_reported":1708038430,"current_range_meters":10000,"station_id":"ce4bhs92rcd13ifvqi0g","pricing_plan_id":"cebpf4jnsgd1na2vs0mg"},{"bike_id":"a587ca06-20c3-495b-af00-feeb2b6eba27","system_id":"levelo_inurba_marseille","lat":43.32831,"lon":5.36684,"is_reserved":false,"is_disabled":false,"rental_uris":{"android":"levelo://app?vid=a587ca06-20c3-495b-af00-feeb2b6eba27","ios":"levelo://app?vid=a587ca06-20c3-495b-af00-feeb2b6eba27"},"vehicle_type_id":"4","last_reported":1708038430,"current_range_meters":4000,"station_id":"ce4bhs92rcd13ifvqi0g","pricing_plan_id":"cebpf4jnsgd1na2vs0mg"},{"bike_id":"7a4dca57-f04c-4571-b308-319f5253d6f2","system_id":"levelo_inurba_marseille","lat":43.32833,"lon":5.36681,"is_reserved":false,"is_disabled":false,"rental_uris":{"android":"levelo://app?vid=7a4dca57-f04c-4571-b308-319f5253d6f2","ios":"levelo://app?vid=7a4dca57-f04c-4571-b308-319f5253d6f2"},"vehicle_type_id":"4","last_reported":1708038430,"current_range_meters":16000,"station_id":"ce4bhs92rcd13ifvqi0g","pricing_plan_id":"cebpf4jnsgd1na2vs0mg"},{"bike_id":"47a35669-d0b6-4a02-a97b-72f7a44f3c09","system_id":"levelo_inurba_marseille","lat":43.30009,"lon":5.37964,"is_reserved":false,"is_disabled":false,"rental_uris":{"android":"levelo://app?vid=47a35669-d0b6-4a02-a97b-72f7a44f3c09","ios":"levelo://app?vid=47a35669-d0b6-4a02-a97b-72f7a44f3c09"},"vehicle_type_id":"4","last_reported":1708038430,"current_range_meters":15200,"station_id":"","pricing_plan_id":"cebpf4jnsgd1na2vs0mg"},{"bike_id":"46d1e19d-6ca5-45db-8d0b-836ba912c5af","system_id":"levelo_inurba_marseille","lat":43.2968,"lon":5.37291,"is_reserved":false,"is_disabled":false,"rental_uris":{"android":"levelo://app?vid=46d1e19d-6ca5-45db-8d0b-836ba912c5af","ios":"levelo://app?vid=46d1e19d-6ca5-45db-8d0b-836ba912c5af"},"vehicle_type_id":"4","last_reported":1708038430,"current_range_meters":14800,"station_id":"ce4bgk12rcd13ifvqbj0","pricing_plan_id":"cebpf4jnsgd1na2vs0mg"},{"bike_id":"fc08d636-f0e7-4355-af11-58fa40f51bfc","system_id":"levelo_inurba_marseille","lat":43.29573,"lon":5.367355,"is_reserved":false,"is_disabled":false,"rental_uris":{"android":"levelo://app?vid=fc08d636-f0e7-4355-af11-58fa40f51bfc","ios":"levelo://app?vid=fc08d636-f0e7-4355-af11-58fa40f51bfc"},"vehicle_type_id":"4","last_reported":1708038430,"current_range_meters":3200,"station_id":"ce4bgph2rcd13ifvqc2g","pricing_plan_id":"cebpf4jnsgd1na2vs0mg"},{"bike_id":"1f77f6cc-f05e-4d9f-95b2-2247d3c1ad51","system_id":"levelo_inurba_marseille","lat":43.296921,"lon":5.376579,"is_reserved":false,"is_disabled":false,"rental_uris":{"android":"levelo://app?vid=1f77f6cc-f05e-4d9f-95b2-2247d3c1ad51","ios":"levelo://app?vid=1f77f6cc-f05e-4d9f-95b2-2247d3c1ad51"},"vehicle_type_id":"4","last_reported":1708038430,"current_range_meters":24800,"station_id":"ce4bgkh2rcd13ifvqbl0","pricing_plan_id":"cebpf4jnsgd1na2vs0mg"},{"bike_id":"2c2fb767-2914-4c47-a3df-1b653d2affb2","system_id":"levelo_inurba_marseille","lat":43.298681,"lon":5.397225,"is_reserved":false,"is_disabled":false,"rental_uris":{"android":"levelo://app?vid=2c2fb767-2914-4c47-a3df-1b653d2affb2","ios":"levelo://app?vid=2c2fb767-2914-4c47-a3df-1b653d2affb2"},"vehicle_type_id":"4","last_reported":1708038430,"current_range_meters":19600,"station_id":"ce4bh0h2rcd13ifvqd50","pricing_plan_id":"cebpf4jnsgd1na2vs0mg"},{"bike_id":"53ba3b52-3229-4a19-9b7b-3e85ec4d74d1","system_id":"levelo_inurba_marseille","lat":43.296935,"lon":5.376544,"is_reserved":false,"is_disabled":false,"rental_uris":{"android":"levelo://app?vid=53ba3b52-3229-4a19-9b7b-3e85ec4d74d1","ios":"levelo://app?vid=53ba3b52-3229-4a19-9b7b-3e85ec4d74d1"},"vehicle_type_id":"4","last_reported":1708038430,"current_range_meters":10800,"station_id":"ce4bgkh2rcd13ifvqbl0","pricing_plan_id":"cebpf4jnsgd1na2vs0mg"},{"bike_id":"b3dcb9ba-bf07-48c1-aada-2fbdb761a352","system_id":"levelo_inurba_marseille","lat":43.317557,"lon":5.390173,"is_reserved":false,"is_disabled":false,"rental_uris":{"android":"levelo://app?vid=b3dcb9ba-bf07-48c1-aada-2fbdb761a352","ios":"levelo://app?vid=b3dcb9ba-bf07-48c1-aada-2fbdb761a352"},"vehicle_type_id":"4","last_reported":1708038430,"current_range_meters":31200,"station_id":"ce4bhqp2rcd13ifvqhng","pricing_plan_id":"cebpf4jnsgd1na2vs0mg"},{"bike_id":"04a263cc-f7fb-40e2-9889-8225f7c983b8","system_id":"levelo_inurba_marseille","lat":43.31757,"lon":5.3901,"is_reserved":false,"is_disabled":false,"rental_uris":{"android":"levelo://app?vid=04a263cc-f7fb-40e2-9889-8225f7c983b8","ios":"levelo://app?vid=04a263cc-f7fb-40e2-9889-8225f7c983b8"},"vehicle_type_id":"4","last_reported":1708038430,"current_range_meters":0,"station_id":"ce4bhqp2rcd13ifvqhng","pricing_plan_id":"cebpf4jnsgd1na2vs0mg"},{"bike_id":"12fde8e2-7aff-44e5-b0cb-316b4dfe9ecf","system_id":"levelo_inurba_marseille","lat":43.317557,"lon":5.390173,"is_reserved":false,"is_disabled":false,"rental_uris":{"android":"levelo://app?vid=12fde8e2-7aff-44e5-b0cb-316b4dfe9ecf","ios":"levelo://app?vid=12fde8e2-7aff-44e5-b0cb-316b4dfe9ecf"},"vehicle_type_id":"4","last_reported":1708038430,"current_range_meters":28800,"station_id":"ce4bhqp2rcd13ifvqhng","pricing_plan_id":"cebpf4jnsgd1na2vs0mg"},{"bike_id":"0d568f49-9e25-417a-91e9-babe78949eca","system_id":"levelo_inurba_marseille","lat":43.317557,"lon":5.390173,"is_reserved":false,"is_disabled":false,"rental_uris":{"android":"levelo://app?vid=0d568f49-9e25-417a-91e9-babe78949eca","ios":"levelo://app?vid=0d568f49-9e25-417a-91e9-babe78949eca"},"vehicle_type_id":"4","last_reported":1708038430,"current_range_meters":30800,"station_id":"ce4bhqp2rcd13ifvqhng","pricing_plan_id":"cebpf4jnsgd1na2vs0mg"},{"bike_id":"27aaf622-ad2c-42b5-9690-9fff0a27e24d","system_id":"levelo_inurba_marseille","lat":43.317557,"lon":5.390173,"is_reserved":false,"is_disabled":false,"rental_uris":{"android":"levelo://app?vid=27aaf622-ad2c-42b5-9690-9fff0a27e24d","ios":"levelo://app?vid=27aaf622-ad2c-42b5-9690-9fff0a27e24d"},"vehicle_type_id":"4","last_reported":1708038430,"current_range_meters":29200,"station_id":"ce4bhqp2rcd13ifvqhng","pricing_plan_id":"cebpf4jnsgd1na2vs0mg"},{"bike_id":"4d1fc426-76ca-4e7f-b775-e8d4d4862683","system_id":"levelo_inurba_marseille","lat":43.317557,"lon":5.390173,"is_reserved":false,"is_disabled":false,"rental_uris":{"android":"levelo://app?vid=4d1fc426-76ca-4e7f-b775-e8d4d4862683","ios":"levelo://app?vid=4d1fc426-76ca-4e7f-b775-e8d4d4862683"},"vehicle_type_id":"4","last_reported":1708038430,"current_range_meters":31200,"station_id":"ce4bhqp2rcd13ifvqhng","pricing_plan_id":"cebpf4jnsgd1na2vs0mg"},{"bike_id":"b67306fa-d95b-4754-b4be-c4de1138c990","system_id":"levelo_inurba_marseille","lat":43.31747,"lon":5.39021,"is_reserved":false,"is_disabled":false,"rental_uris":{"android":"levelo://app?vid=b67306fa-d95b-4754-b4be-c4de1138c990","ios":"levelo://app?vid=b67306fa-d95b-4754-b4be-c4de1138c990"},"vehicle_type_id":"4","last_reported":1708038430,"current_range_meters":13600,"station_id":"","pricing_plan_id":"cebpf4jnsgd1na2vs0mg"},{"bike_id":"cece8118-751e-4704-b260-95811fc140db","system_id":"levelo_inurba_marseille","lat":43.317557,"lon":5.390173,"is_reserved":false,"is_disabled":false,"rental_uris":{"android":"levelo://app?vid=cece8118-751e-4704-b260-95811fc140db","ios":"levelo://app?vid=cece8118-751e-4704-b260-95811fc140db"},"vehicle_type_id":"4","last_reported":1708038430,"current_range_meters":30800,"station_id":"ce4bhqp2rcd13ifvqhng","pricing_plan_id":"cebpf4jnsgd1na2vs0mg"},{"bike_id":"b38bbca5-1482-40ad-8405-56dac9cba366","system_id":"levelo_inurba_marseille","lat":43.317557,"lon":5.390173,"is_reserved":false,"is_disabled":false,"rental_uris":{"android":"levelo://app?vid=b38bbca5-1482-40ad-8405-56dac9cba366","ios":"levelo://app?vid=b38bbca5-1482-40ad-8405-56dac9cba366"},"vehicle_type_id":"4","last_reported":1708038430,"current_range_meters":27600,"station_id":"ce4bhqp2rcd13ifvqhng","pricing_plan_id":"cebpf4jnsgd1na2vs0mg"},{"bike_id":"732e5b28-993c-42c5-90a3-0986a8fb1481","system_id":"levelo_inurba_marseille","lat":43.29658,"lon":5.37656,"is_reserved":false,"is_disabled":false,"rental_uris":{"android":"levelo://app?vid=732e5b28-993c-42c5-90a3-0986a8fb1481","ios":"levelo://app?vid=732e5b28-993c-42c5-90a3-0986a8fb1481"},"vehicle_type_id":"4","last_reported":1708038430,"current_range_meters":4800,"station_id":"","pricing_plan_id":"cebpf4jnsgd1na2vs0mg"},{"bike_id":"338d5d5a-fa4f-4ab9-95dc-383427a6158d","system_id":"levelo_inurba_marseille","lat":43.30437,"lon":5.38878,"is_reserved":false,"is_disabled":false,"rental_uris":{"android":"levelo://app?vid=338d5d5a-fa4f-4ab9-95dc-383427a6158d","ios":"levelo://app?vid=338d5d5a-fa4f-4ab9-95dc-383427a6158d"},"vehicle_type_id":"4","last_reported":1708038430,"current_range_meters":15200,"station_id":"ce4bgk12rcd13ifvqbi0","pricing_plan_id":"cebpf4jnsgd1na2vs0mg"},{"bike_id":"f7f7c210-a86b-49d0-9242-6f0348da9886","system_id":"levelo_inurba_marseille","lat":43.304278,"lon":5.388868,"is_reserved":false,"is_disabled":false,"rental_uris":{"android":"levelo://app?vid=f7f7c210-a86b-49d0-9242-6f0348da9886","ios":"levelo://app?vid=f7f7c210-a86b-49d0-9242-6f0348da9886"},"vehicle_type_id":"4","last_reported":1708038430,"current_range_meters":28400,"station_id":"ce4bgk12rcd13ifvqbi0","pricing_plan_id":"cebpf4jnsgd1na2vs0mg"},{"bike_id":"fbffe62b-4f68-4ebb-b0b2-548e70e6896f","system_id":"levelo_inurba_marseille","lat":43.30439,"lon":5.38883,"is_reserved":false,"is_disabled":false,"rental_uris":{"android":"levelo://app?vid=fbffe62b-4f68-4ebb-b0b2-548e70e6896f","ios":"levelo://app?vid=fbffe62b-4f68-4ebb-b0b2-548e70e6896f"},"vehicle_type_id":"4","last_reported":1708038430,"current_range_meters":0,"station_id":"ce4bgk12rcd13ifvqbi0","pricing_plan_id":"cebpf4jnsgd1na2vs0mg"},{"bike_id":"523af342-5027-4a62-a51b-ab3e8a538701","system_id":"levelo_inurba_marseille","lat":43.304278,"lon":5.388868,"is_reserved":false,"is_disabled":false,"rental_uris":{"android":"levelo://app?vid=523af342-5027-4a62-a51b-ab3e8a538701","ios":"levelo://app?vid=523af342-5027-4a62-a51b-ab3e8a538701"},"vehicle_type_id":"4","last_reported":1708038430,"current_range_meters":31600,"station_id":"ce4bgk12rcd13ifvqbi0","pricing_plan_id":"cebpf4jnsgd1na2vs0mg"},{"bike_id":"0c579ed9-d995-4715-ba91-9d1d048dcd1d","system_id":"levelo_inurba_marseille","lat":43.304222,"lon":5.388713,"is_reserved":false,"is_disabled":false,"rental_uris":{"android":"levelo://app?vid=0c579ed9-d995-4715-ba91-9d1d048dcd1d","ios":"levelo://app?vid=0c579ed9-d995-4715-ba91-9d1d048dcd1d"},"vehicle_type_id":"4","last_reported":1708038430,"current_range_meters":11600,"station_id":"ce4bgk12rcd13ifvqbi0","pricing_plan_id":"cebpf4jnsgd1na2vs0mg"},{"bike_id":"649d0103-8b16-4e59-a312-377cf528357b","system_id":"levelo_inurba_marseille","lat":43.304386,"lon":5.388844,"is_reserved":false,"is_disabled":false,"rental_uris":{"android":"levelo://app?vid=649d0103-8b16-4e59-a312-377cf528357b","ios":"levelo://app?vid=649d0103-8b16-4e59-a312-377cf528357b"},"vehicle_type_id":"4","last_reported":1708038430,"current_range_meters":28800,"station_id":"ce4bgk12rcd13ifvqbi0","pricing_plan_id":"cebpf4jnsgd1na2vs0mg"},{"bike_id":"49c1ae2b-f5ed-4488-83cf-947edcc711e4","system_id":"levelo_inurba_marseille","lat":43.30435,"lon":5.38883,"is_reserved":false,"is_disabled":false,"rental_uris":{"android":"levelo://app?vid=49c1ae2b-f5ed-4488-83cf-947edcc711e4","ios":"levelo://app?vid=49c1ae2b-f5ed-4488-83cf-947edcc711e4"},"vehicle_type_id":"4","last_reported":1708038430,"current_range_meters":14000,"station_id":"ce4bgk12rcd13ifvqbi0","pricing_plan_id":"cebpf4jnsgd1na2vs0mg"},{"bike_id":"c8254644-779e-47af-ac54-2359260a40c6","system_id":"levelo_inurba_marseille","lat":43.30434,"lon":5.38883,"is_reserved":false,"is_disabled":false,"rental_uris":{"android":"levelo://app?vid=c8254644-779e-47af-ac54-2359260a40c6","ios":"levelo://app?vid=c8254644-779e-47af-ac54-2359260a40c6"},"vehicle_type_id":"4","last_reported":1708038430,"current_range_meters":17600,"station_id":"ce4bgk12rcd13ifvqbi0","pricing_plan_id":"cebpf4jnsgd1na2vs0mg"},{"bike_id":"5d805a4d-898a-4453-8800-c16375c66ad2","system_id":"levelo_inurba_marseille","lat":43.30433,"lon":5.38884,"is_reserved":false,"is_disabled":false,"rental_uris":{"android":"levelo://app?vid=5d805a4d-898a-4453-8800-c16375c66ad2","ios":"levelo://app?vid=5d805a4d-898a-4453-8800-c16375c66ad2"},"vehicle_type_id":"4","last_reported":1708038430,"current_range_meters":8800,"station_id":"ce4bgk12rcd13ifvqbi0","pricing_plan_id":"cebpf4jnsgd1na2vs0mg"},{"bike_id":"536593a1-260d-4221-819b-67bf8d05c5de","system_id":"levelo_inurba_marseille","lat":43.304278,"lon":5.388868,"is_reserved":false,"is_disabled":false,"rental_uris":{"android":"levelo://app?vid=536593a1-260d-4221-819b-67bf8d05c5de","ios":"levelo://app?vid=536593a1-260d-4221-819b-67bf8d05c5de"},"vehicle_type_id":"4","last_reported":1708038430,"current_range_meters":16000,"station_id":"ce4bgk12rcd13ifvqbi0","pricing_plan_id":"cebpf4jnsgd1na2vs0mg"},{"bike_id":"d950a5c1-0eb9-4646-b774-9994b201b2d7","system_id":"levelo_inurba_marseille","lat":43.30426,"lon":5.38885,"is_reserved":false,"is_disabled":false,"rental_uris":{"android":"levelo://app?vid=d950a5c1-0eb9-4646-b774-9994b201b2d7","ios":"levelo://app?vid=d950a5c1-0eb9-4646-b774-9994b201b2d7"},"vehicle_type_id":"4","last_reported":1708038430,"current_range_meters":4000,"station_id":"ce4bgk12rcd13ifvqbi0","pricing_plan_id":"cebpf4jnsgd1na2vs0mg"},{"bike_id":"c537b4b5-b84c-4b0a-82b8-333e82941033","system_id":"levelo_inurba_marseille","lat":43.304278,"lon":5.388868,"is_reserved":false,"is_disabled":false,"rental_uris":{"android":"levelo://app?vid=c537b4b5-b84c-4b0a-82b8-333e82941033","ios":"levelo://app?vid=c537b4b5-b84c-4b0a-82b8-333e82941033"},"vehicle_type_id":"4","last_reported":1708038430,"current_range_meters":24400,"station_id":"ce4bgk12rcd13ifvqbi0","pricing_plan_id":"cebpf4jnsgd1na2vs0mg"},{"bike_id":"aa638172-f43f-419e-adbf-d9edc8b94798","system_id":"levelo_inurba_marseille","lat":43.304278,"lon":5.388868,"is_reserved":false,"is_disabled":false,"rental_uris":{"android":"levelo://app?vid=aa638172-f43f-419e-adbf-d9edc8b94798","ios":"levelo://app?vid=aa638172-f43f-419e-adbf-d9edc8b94798"},"vehicle_type_id":"4","last_reported":1708038430,"current_range_meters":14000,"station_id":"ce4bgk12rcd13ifvqbi0","pricing_plan_id":"cebpf4jnsgd1na2vs0mg"},{"bike_id":"28e80e4a-44fe-4df1-84dd-28f41b09a2e6","system_id":"levelo_inurba_marseille","lat":43.304278,"lon":5.388868,"is_reserved":false,"is_disabled":false,"rental_uris":{"android":"levelo://app?vid=28e80e4a-44fe-4df1-84dd-28f41b09a2e6","ios":"levelo://app?vid=28e80e4a-44fe-4df1-84dd-28f41b09a2e6"},"vehicle_type_id":"4","last_reported":1708038430,"current_range_meters":29200,"station_id":"ce4bgk12rcd13ifvqbi0","pricing_plan_id":"cebpf4jnsgd1na2vs0mg"},{"bike_id":"6024d16e-3626-41a3-9d26-55558996b05b","system_id":"levelo_inurba_marseille","lat":43.314811,"lon":5.373104,"is_reserved":false,"is_disabled":false,"rental_uris":{"android":"levelo://app?vid=6024d16e-3626-41a3-9d26-55558996b05b","ios":"levelo://app?vid=6024d16e-3626-41a3-9d26-55558996b05b"},"vehicle_type_id":"4","last_reported":1708038430,"current_range_meters":11600,"station_id":"ce4bgt12rcd13ifvqcd0","pricing_plan_id":"cebpf4jnsgd1na2vs0mg"},{"bike_id":"703ba552-5e8f-4240-9103-370bdf21973d","system_id":"levelo_inurba_marseille","lat":43.32733,"lon":5.38266,"is_reserved":false,"is_disabled":false,"rental_uris":{"android":"levelo://app?vid=703ba552-5e8f-4240-9103-370bdf21973d","ios":"levelo://app?vid=703ba552-5e8f-4240-9103-370bdf21973d"},"vehicle_type_id":"4","last_reported":1708038430,"current_range_meters":20800,"station_id":"","pricing_plan_id":"cebpf4jnsgd1na2vs0mg"},{"bike_id":"267ff4e2-37b3-4468-90de-fe5bd9665e0a","system_id":"levelo_inurba_marseille","lat":43.299724,"lon":5.384848,"is_reserved":false,"is_disabled":false,"rental_uris":{"android":"levelo://app?vid=267ff4e2-37b3-4468-90de-fe5bd9665e0a","ios":"levelo://app?vid=267ff4e2-37b3-4468-90de-fe5bd9665e0a"},"vehicle_type_id":"4","last_reported":1708038430,"current_range_meters":9200,"station_id":"ce4bgj92rcd13ifvqbd0","pricing_plan_id":"cebpf4jnsgd1na2vs0mg"},{"bike_id":"3059ce71-168a-4ce7-9524-d9a91cbd17c3","system_id":"levelo_inurba_marseille","lat":43.295279,"lon":5.375048,"is_reserved":false,"is_disabled":false,"rental_uris":{"android":"levelo://app?vid=3059ce71-168a-4ce7-9524-d9a91cbd17c3","ios":"levelo://app?vid=3059ce71-168a-4ce7-9524-d9a91cbd17c3"},"vehicle_type_id":"4","last_reported":1708038430,"current_range_meters":4400,"station_id":"ce4bgkp2rcd13ifvqbmg","pricing_plan_id":"cebpf4jnsgd1na2vs0mg"},{"bike_id":"92260d39-bf11-4bcb-a8b9-81b728ac70f1","system_id":"levelo_inurba_marseille","lat":43.32367,"lon":5.388836,"is_reserved":false,"is_disabled":false,"rental_uris":{"android":"levelo://app?vid=92260d39-bf11-4bcb-a8b9-81b728ac70f1","ios":"levelo://app?vid=92260d39-bf11-4bcb-a8b9-81b728ac70f1"},"vehicle_type_id":"4","last_reported":1708038430,"current_range_meters":0,"station_id":"ce4bhqp2rcd13ifvqhog","pricing_plan_id":"cebpf4jnsgd1na2vs0mg"},{"bike_id":"db5a62d4-f9ba-40ff-9ae3-5d05cc8e7704","system_id":"levelo_inurba_marseille","lat":43.32367,"lon":5.388836,"is_reserved":false,"is_disabled":false,"rental_uris":{"android":"levelo://app?vid=db5a62d4-f9ba-40ff-9ae3-5d05cc8e7704","ios":"levelo://app?vid=db5a62d4-f9ba-40ff-9ae3-5d05cc8e7704"},"vehicle_type_id":"4","last_reported":1708038430,"current_range_meters":6800,"station_id":"ce4bhqp2rcd13ifvqhog","pricing_plan_id":"cebpf4jnsgd1na2vs0mg"},{"bike_id":"28152d88-f1e7-4013-9b8c-cad9c3cb847e","system_id":"levelo_inurba_marseille","lat":43.32367,"lon":5.388836,"is_reserved":false,"is_disabled":false,"rental_uris":{"android":"levelo://app?vid=28152d88-f1e7-4013-9b8c-cad9c3cb847e","ios":"levelo://app?vid=28152d88-f1e7-4013-9b8c-cad9c3cb847e"},"vehicle_type_id":"4","last_reported":1708038430,"current_range_meters":10800,"station_id":"ce4bhqp2rcd13ifvqhog","pricing_plan_id":"cebpf4jnsgd1na2vs0mg"},{"bike_id":"db2bc009-1b6b-43a5-9572-4ba46f979c16","system_id":"levelo_inurba_marseille","lat":43.32367,"lon":5.388836,"is_reserved":false,"is_disabled":false,"rental_uris":{"android":"levelo://app?vid=db2bc009-1b6b-43a5-9572-4ba46f979c16","ios":"levelo://app?vid=db2bc009-1b6b-43a5-9572-4ba46f979c16"},"vehicle_type_id":"4","last_reported":1708038430,"current_range_meters":18000,"station_id":"ce4bhqp2rcd13ifvqhog","pricing_plan_id":"cebpf4jnsgd1na2vs0mg"},{"bike_id":"9a785585-c85b-4fa3-85aa-80d29ca57d9f","system_id":"levelo_inurba_marseille","lat":43.32367,"lon":5.388836,"is_reserved":false,"is_disabled":false,"rental_uris":{"android":"levelo://app?vid=9a785585-c85b-4fa3-85aa-80d29ca57d9f","ios":"levelo://app?vid=9a785585-c85b-4fa3-85aa-80d29ca57d9f"},"vehicle_type_id":"4","last_reported":1708038430,"current_range_meters":7200,"station_id":"ce4bhqp2rcd13ifvqhog","pricing_plan_id":"cebpf4jnsgd1na2vs0mg"},{"bike_id":"86aac113-ad26-4e1e-a9a2-1e0a7b7f3734","system_id":"levelo_inurba_marseille","lat":43.32367,"lon":5.388836,"is_reserved":false,"is_disabled":false,"rental_uris":{"android":"levelo://app?vid=86aac113-ad26-4e1e-a9a2-1e0a7b7f3734","ios":"levelo://app?vid=86aac113-ad26-4e1e-a9a2-1e0a7b7f3734"},"vehicle_type_id":"4","last_reported":1708038430,"current_range_meters":14800,"station_id":"ce4bhqp2rcd13ifvqhog","pricing_plan_id":"cebpf4jnsgd1na2vs0mg"},{"bike_id":"22835b97-3d5c-4086-89cb-d0702c84ca31","system_id":"levelo_inurba_marseille","lat":43.32367,"lon":5.388836,"is_reserved":false,"is_disabled":false,"rental_uris":{"android":"levelo://app?vid=22835b97-3d5c-4086-89cb-d0702c84ca31","ios":"levelo://app?vid=22835b97-3d5c-4086-89cb-d0702c84ca31"},"vehicle_type_id":"4","last_reported":1708038430,"current_range_meters":17200,"station_id":"ce4bhqp2rcd13ifvqhog","pricing_plan_id":"cebpf4jnsgd1na2vs0mg"},{"bike_id":"b990bd33-11fa-4194-a071-8e5a2381ab47","system_id":"levelo_inurba_marseille","lat":43.32367,"lon":5.388836,"is_reserved":false,"is_disabled":false,"rental_uris":{"android":"levelo://app?vid=b990bd33-11fa-4194-a071-8e5a2381ab47","ios":"levelo://app?vid=b990bd33-11fa-4194-a071-8e5a2381ab47"},"vehicle_type_id":"4","last_reported":1708038430,"current_range_meters":5600,"station_id":"ce4bhqp2rcd13ifvqhog","pricing_plan_id":"cebpf4jnsgd1na2vs0mg"},{"bike_id":"7b8ae2a5-fea4-420f-9e1d-5f67a20c6887","system_id":"levelo_inurba_marseille","lat":43.32367,"lon":5.388836,"is_reserved":false,"is_disabled":false,"rental_uris":{"android":"levelo://app?vid=7b8ae2a5-fea4-420f-9e1d-5f67a20c6887","ios":"levelo://app?vid=7b8ae2a5-fea4-420f-9e1d-5f67a20c6887"},"vehicle_type_id":"4","last_reported":1708038430,"current_range_meters":19200,"station_id":"ce4bhqp2rcd13ifvqhog","pricing_plan_id":"cebpf4jnsgd1na2vs0mg"},{"bike_id":"a8c7fcf6-2476-48b4-a2a7-391dc6d39d14","system_id":"levelo_inurba_marseille","lat":43.32367,"lon":5.388836,"is_reserved":false,"is_disabled":false,"rental_uris":{"android":"levelo://app?vid=a8c7fcf6-2476-48b4-a2a7-391dc6d39d14","ios":"levelo://app?vid=a8c7fcf6-2476-48b4-a2a7-391dc6d39d14"},"vehicle_type_id":"4","last_reported":1708038430,"current_range_meters":0,"station_id":"ce4bhqp2rcd13ifvqhog","pricing_plan_id":"cebpf4jnsgd1na2vs0mg"},{"bike_id":"3599737e-ae83-4f55-9a99-5309907deb86","system_id":"levelo_inurba_marseille","lat":43.29311,"lon":5.3718,"is_reserved":false,"is_disabled":false,"rental_uris":{"android":"levelo://app?vid=3599737e-ae83-4f55-9a99-5309907deb86","ios":"levelo://app?vid=3599737e-ae83-4f55-9a99-5309907deb86"},"vehicle_type_id":"4","last_reported":1708038430,"current_range_meters":31200,"station_id":"ce4bgh92rcd13ifvqb40","pricing_plan_id":"cebpf4jnsgd1na2vs0mg"},{"bike_id":"112bfe12-208e-49e2-8789-44b8015c9189","system_id":"levelo_inurba_marseille","lat":43.29309,"lon":5.3717,"is_reserved":false,"is_disabled":false,"rental_uris":{"android":"levelo://app?vid=112bfe12-208e-49e2-8789-44b8015c9189","ios":"levelo://app?vid=112bfe12-208e-49e2-8789-44b8015c9189"},"vehicle_type_id":"4","last_reported":1708038430,"current_range_meters":31200,"station_id":"ce4bgh92rcd13ifvqb40","pricing_plan_id":"cebpf4jnsgd1na2vs0mg"},{"bike_id":"088091d0-8fa6-4246-9a0c-ef11f30a237b","system_id":"levelo_inurba_marseille","lat":43.2931,"lon":5.3718,"is_reserved":false,"is_disabled":false,"rental_uris":{"android":"levelo://app?vid=088091d0-8fa6-4246-9a0c-ef11f30a237b","ios":"levelo://app?vid=088091d0-8fa6-4246-9a0c-ef11f30a237b"},"vehicle_type_id":"4","last_reported":1708038430,"current_range_meters":30400,"station_id":"ce4bgh92rcd13ifvqb40","pricing_plan_id":"cebpf4jnsgd1na2vs0mg"},{"bike_id":"514fe556-30f1-44e4-9f56-358228ea04d7","system_id":"levelo_inurba_marseille","lat":43.29306,"lon":5.37185,"is_reserved":false,"is_disabled":false,"rental_uris":{"android":"levelo://app?vid=514fe556-30f1-44e4-9f56-358228ea04d7","ios":"levelo://app?vid=514fe556-30f1-44e4-9f56-358228ea04d7"},"vehicle_type_id":"4","last_reported":1708038430,"current_range_meters":25200,"station_id":"ce4bgh92rcd13ifvqb40","pricing_plan_id":"cebpf4jnsgd1na2vs0mg"},{"bike_id":"8797ac22-b5fe-42e1-bf5c-595d66e213c4","system_id":"levelo_inurba_marseille","lat":43.29304,"lon":5.37171,"is_reserved":false,"is_disabled":false,"rental_uris":{"android":"levelo://app?vid=8797ac22-b5fe-42e1-bf5c-595d66e213c4","ios":"levelo://app?vid=8797ac22-b5fe-42e1-bf5c-595d66e213c4"},"vehicle_type_id":"4","last_reported":1708038430,"current_range_meters":23200,"station_id":"ce4bgh92rcd13ifvqb40","pricing_plan_id":"cebpf4jnsgd1na2vs0mg"},{"bike_id":"5350c7f9-d39f-4bff-a410-2c25c586fe63","system_id":"levelo_inurba_marseille","lat":43.29272,"lon":5.3685,"is_reserved":false,"is_disabled":false,"rental_uris":{"android":"levelo://app?vid=5350c7f9-d39f-4bff-a410-2c25c586fe63","ios":"levelo://app?vid=5350c7f9-d39f-4bff-a410-2c25c586fe63"},"vehicle_type_id":"4","last_reported":1708038430,"current_range_meters":31200,"station_id":"ce4bhbp2rcd13ifvqesg","pricing_plan_id":"cebpf4jnsgd1na2vs0mg"},{"bike_id":"8f795d00-eb66-4272-baa0-530010bec413","system_id":"levelo_inurba_marseille","lat":43.2927,"lon":5.36852,"is_reserved":false,"is_disabled":false,"rental_uris":{"android":"levelo://app?vid=8f795d00-eb66-4272-baa0-530010bec413","ios":"levelo://app?vid=8f795d00-eb66-4272-baa0-530010bec413"},"vehicle_type_id":"4","last_reported":1708038430,"current_range_meters":31200,"station_id":"ce4bhbp2rcd13ifvqesg","pricing_plan_id":"cebpf4jnsgd1na2vs0mg"},{"bike_id":"8fbc1eab-e5db-4f09-8f6f-1dd230213364","system_id":"levelo_inurba_marseille","lat":43.305994,"lon":5.393687,"is_reserved":false,"is_disabled":false,"rental_uris":{"android":"levelo://app?vid=8fbc1eab-e5db-4f09-8f6f-1dd230213364","ios":"levelo://app?vid=8fbc1eab-e5db-4f09-8f6f-1dd230213364"},"vehicle_type_id":"4","last_reported":1708038430,"current_range_meters":11600,"station_id":"ce4bh0p2rcd13ifvqd80","pricing_plan_id":"cebpf4jnsgd1na2vs0mg"},{"bike_id":"a21dc213-c8d3-4490-a0a2-3fd02eea4d1e","system_id":"levelo_inurba_marseille","lat":43.305994,"lon":5.393687,"is_reserved":false,"is_disabled":false,"rental_uris":{"android":"levelo://app?vid=a21dc213-c8d3-4490-a0a2-3fd02eea4d1e","ios":"levelo://app?vid=a21dc213-c8d3-4490-a0a2-3fd02eea4d1e"},"vehicle_type_id":"4","last_reported":1708038430,"current_range_meters":24800,"station_id":"ce4bh0p2rcd13ifvqd80","pricing_plan_id":"cebpf4jnsgd1na2vs0mg"},{"bike_id":"3648eae4-e136-49f4-821e-64c078db00b7","system_id":"levelo_inurba_marseille","lat":43.305994,"lon":5.393687,"is_reserved":false,"is_disabled":false,"rental_uris":{"android":"levelo://app?vid=3648eae4-e136-49f4-821e-64c078db00b7","ios":"levelo://app?vid=3648eae4-e136-49f4-821e-64c078db00b7"},"vehicle_type_id":"4","last_reported":1708038430,"current_range_meters":8000,"station_id":"ce4bh0p2rcd13ifvqd80","pricing_plan_id":"cebpf4jnsgd1na2vs0mg"},{"bike_id":"e24464c2-7bf0-49bb-b0b6-ce69ae695881","system_id":"levelo_inurba_marseille","lat":43.305994,"lon":5.393687,"is_reserved":false,"is_disabled":false,"rental_uris":{"android":"levelo://app?vid=e24464c2-7bf0-49bb-b0b6-ce69ae695881","ios":"levelo://app?vid=e24464c2-7bf0-49bb-b0b6-ce69ae695881"},"vehicle_type_id":"4","last_reported":1708038430,"current_range_meters":8400,"station_id":"ce4bh0p2rcd13ifvqd80","pricing_plan_id":"cebpf4jnsgd1na2vs0mg"},{"bike_id":"c9dcabee-52b5-4bb9-b4d8-a51ee4a81328","system_id":"levelo_inurba_marseille","lat":43.2936,"lon":5.37835,"is_reserved":false,"is_disabled":false,"rental_uris":{"android":"levelo://app?vid=c9dcabee-52b5-4bb9-b4d8-a51ee4a81328","ios":"levelo://app?vid=c9dcabee-52b5-4bb9-b4d8-a51ee4a81328"},"vehicle_type_id":"4","last_reported":1708038430,"current_range_meters":8800,"station_id":"ce4bgjh2rcd13ifvqbf0","pricing_plan_id":"cebpf4jnsgd1na2vs0mg"},{"bike_id":"eab17684-edbe-454a-9f9e-e1d5b77449bd","system_id":"levelo_inurba_marseille","lat":43.303002,"lon":5.392142,"is_reserved":false,"is_disabled":false,"rental_uris":{"android":"levelo://app?vid=eab17684-edbe-454a-9f9e-e1d5b77449bd","ios":"levelo://app?vid=eab17684-edbe-454a-9f9e-e1d5b77449bd"},"vehicle_type_id":"4","last_reported":1708038430,"current_range_meters":16800,"station_id":"ce4bgkh2rcd13ifvqbk0","pricing_plan_id":"cebpf4jnsgd1na2vs0mg"},{"bike_id":"60d5f52c-fa21-46ff-aa88-400003faf6dd","system_id":"levelo_inurba_marseille","lat":43.30085,"lon":5.390856,"is_reserved":false,"is_disabled":false,"rental_uris":{"android":"levelo://app?vid=60d5f52c-fa21-46ff-aa88-400003faf6dd","ios":"levelo://app?vid=60d5f52c-fa21-46ff-aa88-400003faf6dd"},"vehicle_type_id":"4","last_reported":1708038430,"current_range_meters":28000,"station_id":"ce4bh192rcd13ifvqdb0","pricing_plan_id":"cebpf4jnsgd1na2vs0mg"},{"bike_id":"1cf62bcb-34d9-4c38-9870-ca22924b8df7","system_id":"levelo_inurba_marseille","lat":43.300852,"lon":5.390859,"is_reserved":false,"is_disabled":false,"rental_uris":{"android":"levelo://app?vid=1cf62bcb-34d9-4c38-9870-ca22924b8df7","ios":"levelo://app?vid=1cf62bcb-34d9-4c38-9870-ca22924b8df7"},"vehicle_type_id":"4","last_reported":1708038430,"current_range_meters":21200,"station_id":"ce4bh192rcd13ifvqdb0","pricing_plan_id":"cebpf4jnsgd1na2vs0mg"},{"bike_id":"e2e52467-2f48-476f-9e7f-c84b5976d602","system_id":"levelo_inurba_marseille","lat":43.300852,"lon":5.390859,"is_reserved":false,"is_disabled":false,"rental_uris":{"android":"levelo://app?vid=e2e52467-2f48-476f-9e7f-c84b5976d602","ios":"levelo://app?vid=e2e52467-2f48-476f-9e7f-c84b5976d602"},"vehicle_type_id":"4","last_reported":1708038430,"current_range_meters":30400,"station_id":"ce4bh192rcd13ifvqdb0","pricing_plan_id":"cebpf4jnsgd1na2vs0mg"},{"bike_id":"f0cdb7f7-8c78-4dd3-b158-7c98e67aee7b","system_id":"levelo_inurba_marseille","lat":43.300852,"lon":5.390859,"is_reserved":false,"is_disabled":false,"rental_uris":{"android":"levelo://app?vid=f0cdb7f7-8c78-4dd3-b158-7c98e67aee7b","ios":"levelo://app?vid=f0cdb7f7-8c78-4dd3-b158-7c98e67aee7b"},"vehicle_type_id":"4","last_reported":1708038430,"current_range_meters":9600,"station_id":"ce4bh192rcd13ifvqdb0","pricing_plan_id":"cebpf4jnsgd1na2vs0mg"},{"bike_id":"b7c278db-5b67-4adc-9ef3-6957c9009926","system_id":"levelo_inurba_marseille","lat":43.30085,"lon":5.390856,"is_reserved":false,"is_disabled":false,"rental_uris":{"android":"levelo://app?vid=b7c278db-5b67-4adc-9ef3-6957c9009926","ios":"levelo://app?vid=b7c278db-5b67-4adc-9ef3-6957c9009926"},"vehicle_type_id":"4","last_reported":1708038430,"current_range_meters":31200,"station_id":"ce4bh192rcd13ifvqdb0","pricing_plan_id":"cebpf4jnsgd1na2vs0mg"},{"bike_id":"0f235831-9e55-40f9-acaf-88d3afb2b877","system_id":"levelo_inurba_marseille","lat":43.300852,"lon":5.390859,"is_reserved":false,"is_disabled":false,"rental_uris":{"android":"levelo://app?vid=0f235831-9e55-40f9-acaf-88d3afb2b877","ios":"levelo://app?vid=0f235831-9e55-40f9-acaf-88d3afb2b877"},"vehicle_type_id":"4","last_reported":1708038430,"current_range_meters":14000,"station_id":"ce4bh192rcd13ifvqdb0","pricing_plan_id":"cebpf4jnsgd1na2vs0mg"},{"bike_id":"236576a4-dad6-4c50-b8da-14e56bdbc875","system_id":"levelo_inurba_marseille","lat":43.30085,"lon":5.390856,"is_reserved":false,"is_disabled":false,"rental_uris":{"android":"levelo://app?vid=236576a4-dad6-4c50-b8da-14e56bdbc875","ios":"levelo://app?vid=236576a4-dad6-4c50-b8da-14e56bdbc875"},"vehicle_type_id":"4","last_reported":1708038430,"current_range_meters":16000,"station_id":"ce4bh192rcd13ifvqdb0","pricing_plan_id":"cebpf4jnsgd1na2vs0mg"},{"bike_id":"ea2dcd2b-03e8-44d3-a2d4-1cbc0417fb38","system_id":"levelo_inurba_marseille","lat":43.299105,"lon":5.389005,"is_reserved":false,"is_disabled":false,"rental_uris":{"android":"levelo://app?vid=ea2dcd2b-03e8-44d3-a2d4-1cbc0417fb38","ios":"levelo://app?vid=ea2dcd2b-03e8-44d3-a2d4-1cbc0417fb38"},"vehicle_type_id":"4","last_reported":1708038430,"current_range_meters":8800,"station_id":"","pricing_plan_id":"cebpf4jnsgd1na2vs0mg"},{"bike_id":"f618a93e-2e65-4cb3-ad02-29aac37bbe03","system_id":"levelo_inurba_marseille","lat":43.298764,"lon":5.388973,"is_reserved":false,"is_disabled":false,"rental_uris":{"android":"levelo://app?vid=f618a93e-2e65-4cb3-ad02-29aac37bbe03","ios":"levelo://app?vid=f618a93e-2e65-4cb3-ad02-29aac37bbe03"},"vehicle_type_id":"4","last_reported":1708038430,"current_range_meters":24800,"station_id":"ce4bh392rcd13ifvqdl0","pricing_plan_id":"cebpf4jnsgd1na2vs0mg"},{"bike_id":"324c65f0-a136-47cc-b723-d44356312e60","system_id":"levelo_inurba_marseille","lat":43.298764,"lon":5.388973,"is_reserved":false,"is_disabled":false,"rental_uris":{"android":"levelo://app?vid=324c65f0-a136-47cc-b723-d44356312e60","ios":"levelo://app?vid=324c65f0-a136-47cc-b723-d44356312e60"},"vehicle_type_id":"4","last_reported":1708038430,"current_range_meters":10800,"station_id":"ce4bh392rcd13ifvqdl0","pricing_plan_id":"cebpf4jnsgd1na2vs0mg"},{"bike_id":"601d6b87-ef51-46b0-8098-db3926e917c3","system_id":"levelo_inurba_marseille","lat":43.298764,"lon":5.388973,"is_reserved":false,"is_disabled":false,"rental_uris":{"android":"levelo://app?vid=601d6b87-ef51-46b0-8098-db3926e917c3","ios":"levelo://app?vid=601d6b87-ef51-46b0-8098-db3926e917c3"},"vehicle_type_id":"4","last_reported":1708038430,"current_range_meters":800,"station_id":"ce4bh392rcd13ifvqdl0","pricing_plan_id":"cebpf4jnsgd1na2vs0mg"},{"bike_id":"82282f38-3bc4-46a6-b5d0-8b366272de42","system_id":"levelo_inurba_marseille","lat":43.291994,"lon":5.357886,"is_reserved":false,"is_disabled":false,"rental_uris":{"android":"levelo://app?vid=82282f38-3bc4-46a6-b5d0-8b366272de42","ios":"levelo://app?vid=82282f38-3bc4-46a6-b5d0-8b366272de42"},"vehicle_type_id":"4","last_reported":1708038430,"current_range_meters":22800,"station_id":"ce4bhb12rcd13ifvqel0","pricing_plan_id":"cebpf4jnsgd1na2vs0mg"},{"bike_id":"f4423796-ae47-4166-883b-f60cf33c6836","system_id":"levelo_inurba_marseille","lat":43.291997,"lon":5.358014,"is_reserved":false,"is_disabled":false,"rental_uris":{"android":"levelo://app?vid=f4423796-ae47-4166-883b-f60cf33c6836","ios":"levelo://app?vid=f4423796-ae47-4166-883b-f60cf33c6836"},"vehicle_type_id":"4","last_reported":1708038430,"current_range_meters":5600,"station_id":"ce4bhb12rcd13ifvqel0","pricing_plan_id":"cebpf4jnsgd1na2vs0mg"},{"bike_id":"f27e88e3-0e85-49c3-9125-947bd05cd441","system_id":"levelo_inurba_marseille","lat":43.309038,"lon":5.396546,"is_reserved":false,"is_disabled":false,"rental_uris":{"android":"levelo://app?vid=f27e88e3-0e85-49c3-9125-947bd05cd441","ios":"levelo://app?vid=f27e88e3-0e85-49c3-9125-947bd05cd441"},"vehicle_type_id":"4","last_reported":1708038430,"current_range_meters":19200,"station_id":"ce4bh012rcd13ifvqcv0","pricing_plan_id":"cebpf4jnsgd1na2vs0mg"},{"bike_id":"2824e9e2-51de-4b11-a0f5-4c8be6cd090b","system_id":"levelo_inurba_marseille","lat":43.309047,"lon":5.396551,"is_reserved":false,"is_disabled":false,"rental_uris":{"android":"levelo://app?vid=2824e9e2-51de-4b11-a0f5-4c8be6cd090b","ios":"levelo://app?vid=2824e9e2-51de-4b11-a0f5-4c8be6cd090b"},"vehicle_type_id":"4","last_reported":1708038430,"current_range_meters":22800,"station_id":"ce4bh012rcd13ifvqcv0","pricing_plan_id":"cebpf4jnsgd1na2vs0mg"},{"bike_id":"335315e2-db4c-40db-858f-d69afeaf1210","system_id":"levelo_inurba_marseille","lat":43.313291,"lon":5.396838,"is_reserved":false,"is_disabled":false,"rental_uris":{"android":"levelo://app?vid=335315e2-db4c-40db-858f-d69afeaf1210","ios":"levelo://app?vid=335315e2-db4c-40db-858f-d69afeaf1210"},"vehicle_type_id":"4","last_reported":1708038430,"current_range_meters":16800,"station_id":"ce4bgvp2rcd13ifvqcu0","pricing_plan_id":"cebpf4jnsgd1na2vs0mg"},{"bike_id":"af142075-b4b5-499d-8207-101416a5b50f","system_id":"levelo_inurba_marseille","lat":43.309047,"lon":5.396551,"is_reserved":false,"is_disabled":false,"rental_uris":{"android":"levelo://app?vid=af142075-b4b5-499d-8207-101416a5b50f","ios":"levelo://app?vid=af142075-b4b5-499d-8207-101416a5b50f"},"vehicle_type_id":"4","last_reported":1708038430,"current_range_meters":24000,"station_id":"ce4bh012rcd13ifvqcv0","pricing_plan_id":"cebpf4jnsgd1na2vs0mg"},{"bike_id":"89056fb0-c841-48ae-a48f-efa5f1af8039","system_id":"levelo_inurba_marseille","lat":43.313291,"lon":5.396838,"is_reserved":false,"is_disabled":false,"rental_uris":{"android":"levelo://app?vid=89056fb0-c841-48ae-a48f-efa5f1af8039","ios":"levelo://app?vid=89056fb0-c841-48ae-a48f-efa5f1af8039"},"vehicle_type_id":"4","last_reported":1708038430,"current_range_meters":31200,"station_id":"ce4bgvp2rcd13ifvqcu0","pricing_plan_id":"cebpf4jnsgd1na2vs0mg"},{"bike_id":"843b637f-e1f4-4300-8028-63a66c17e13a","system_id":"levelo_inurba_marseille","lat":43.313291,"lon":5.396838,"is_reserved":false,"is_disabled":false,"rental_uris":{"android":"levelo://app?vid=843b637f-e1f4-4300-8028-63a66c17e13a","ios":"levelo://app?vid=843b637f-e1f4-4300-8028-63a66c17e13a"},"vehicle_type_id":"4","last_reported":1708038430,"current_range_meters":31200,"station_id":"ce4bgvp2rcd13ifvqcu0","pricing_plan_id":"cebpf4jnsgd1na2vs0mg"},{"bike_id":"59e9ba6b-fdfb-4b5a-87f2-75fd7f57c434","system_id":"levelo_inurba_marseille","lat":43.313291,"lon":5.396838,"is_reserved":false,"is_disabled":false,"rental_uris":{"android":"levelo://app?vid=59e9ba6b-fdfb-4b5a-87f2-75fd7f57c434","ios":"levelo://app?vid=59e9ba6b-fdfb-4b5a-87f2-75fd7f57c434"},"vehicle_type_id":"4","last_reported":1708038430,"current_range_meters":21200,"station_id":"ce4bgvp2rcd13ifvqcu0","pricing_plan_id":"cebpf4jnsgd1na2vs0mg"},{"bike_id":"8790fa5a-041b-4883-9e63-8e016b0d62ca","system_id":"levelo_inurba_marseille","lat":43.313291,"lon":5.396838,"is_reserved":false,"is_disabled":false,"rental_uris":{"android":"levelo://app?vid=8790fa5a-041b-4883-9e63-8e016b0d62ca","ios":"levelo://app?vid=8790fa5a-041b-4883-9e63-8e016b0d62ca"},"vehicle_type_id":"4","last_reported":1708038430,"current_range_meters":2400,"station_id":"ce4bgvp2rcd13ifvqcu0","pricing_plan_id":"cebpf4jnsgd1na2vs0mg"},{"bike_id":"7342eddc-bc7c-40d5-9adc-9fa5d7e9b69c","system_id":"levelo_inurba_marseille","lat":43.309038,"lon":5.396546,"is_reserved":false,"is_disabled":false,"rental_uris":{"android":"levelo://app?vid=7342eddc-bc7c-40d5-9adc-9fa5d7e9b69c","ios":"levelo://app?vid=7342eddc-bc7c-40d5-9adc-9fa5d7e9b69c"},"vehicle_type_id":"4","last_reported":1708038430,"current_range_meters":8800,"station_id":"ce4bh012rcd13ifvqcv0","pricing_plan_id":"cebpf4jnsgd1na2vs0mg"},{"bike_id":"b8a665da-9e7c-4538-925a-a49701e7014e","system_id":"levelo_inurba_marseille","lat":43.309047,"lon":5.396551,"is_reserved":false,"is_disabled":false,"rental_uris":{"android":"levelo://app?vid=b8a665da-9e7c-4538-925a-a49701e7014e","ios":"levelo://app?vid=b8a665da-9e7c-4538-925a-a49701e7014e"},"vehicle_type_id":"4","last_reported":1708038430,"current_range_meters":30400,"station_id":"ce4bh012rcd13ifvqcv0","pricing_plan_id":"cebpf4jnsgd1na2vs0mg"},{"bike_id":"fbf2a8c9-1fd4-4431-b1fb-c70ebec01e64","system_id":"levelo_inurba_marseille","lat":43.313291,"lon":5.396838,"is_reserved":false,"is_disabled":false,"rental_uris":{"android":"levelo://app?vid=fbf2a8c9-1fd4-4431-b1fb-c70ebec01e64","ios":"levelo://app?vid=fbf2a8c9-1fd4-4431-b1fb-c70ebec01e64"},"vehicle_type_id":"4","last_reported":1708038430,"current_range_meters":31200,"station_id":"ce4bgvp2rcd13ifvqcu0","pricing_plan_id":"cebpf4jnsgd1na2vs0mg"},{"bike_id":"b6c6753d-1a98-474b-a89d-689164603a62","system_id":"levelo_inurba_marseille","lat":43.309038,"lon":5.396546,"is_reserved":false,"is_disabled":false,"rental_uris":{"android":"levelo://app?vid=b6c6753d-1a98-474b-a89d-689164603a62","ios":"levelo://app?vid=b6c6753d-1a98-474b-a89d-689164603a62"},"vehicle_type_id":"4","last_reported":1708038430,"current_range_meters":6400,"station_id":"ce4bh012rcd13ifvqcv0","pricing_plan_id":"cebpf4jnsgd1na2vs0mg"},{"bike_id":"d818e89a-bc5e-4cea-b58a-28fd10f065c3","system_id":"levelo_inurba_marseille","lat":43.290624,"lon":5.359245,"is_reserved":false,"is_disabled":false,"rental_uris":{"android":"levelo://app?vid=d818e89a-bc5e-4cea-b58a-28fd10f065c3","ios":"levelo://app?vid=d818e89a-bc5e-4cea-b58a-28fd10f065c3"},"vehicle_type_id":"4","last_reported":1708038430,"current_range_meters":18800,"station_id":"ce4bha92rcd13ifvqeg0","pricing_plan_id":"cebpf4jnsgd1na2vs0mg"},{"bike_id":"c717c6c1-e6dc-4129-ac12-623e5039077b","system_id":"levelo_inurba_marseille","lat":43.290624,"lon":5.359245,"is_reserved":false,"is_disabled":false,"rental_uris":{"android":"levelo://app?vid=c717c6c1-e6dc-4129-ac12-623e5039077b","ios":"levelo://app?vid=c717c6c1-e6dc-4129-ac12-623e5039077b"},"vehicle_type_id":"4","last_reported":1708038430,"current_range_meters":14000,"station_id":"ce4bha92rcd13ifvqeg0","pricing_plan_id":"cebpf4jnsgd1na2vs0mg"},{"bike_id":"31e71826-7d0a-432d-88ae-1a2cbbaf8412","system_id":"levelo_inurba_marseille","lat":43.29047,"lon":5.35917,"is_reserved":false,"is_disabled":false,"rental_uris":{"android":"levelo://app?vid=31e71826-7d0a-432d-88ae-1a2cbbaf8412","ios":"levelo://app?vid=31e71826-7d0a-432d-88ae-1a2cbbaf8412"},"vehicle_type_id":"4","last_reported":1708038430,"current_range_meters":2800,"station_id":"ce4bha92rcd13ifvqeg0","pricing_plan_id":"cebpf4jnsgd1na2vs0mg"},{"bike_id":"49e5d620-f84f-4664-af65-aaea39ac335a","system_id":"levelo_inurba_marseille","lat":43.290624,"lon":5.359245,"is_reserved":false,"is_disabled":false,"rental_uris":{"android":"levelo://app?vid=49e5d620-f84f-4664-af65-aaea39ac335a","ios":"levelo://app?vid=49e5d620-f84f-4664-af65-aaea39ac335a"},"vehicle_type_id":"4","last_reported":1708038430,"current_range_meters":29600,"station_id":"ce4bha92rcd13ifvqeg0","pricing_plan_id":"cebpf4jnsgd1na2vs0mg"},{"bike_id":"405485ba-f27c-4e89-a7cf-9c424ed179a7","system_id":"levelo_inurba_marseille","lat":43.290453,"lon":5.359225,"is_reserved":false,"is_disabled":false,"rental_uris":{"android":"levelo://app?vid=405485ba-f27c-4e89-a7cf-9c424ed179a7","ios":"levelo://app?vid=405485ba-f27c-4e89-a7cf-9c424ed179a7"},"vehicle_type_id":"4","last_reported":1708038430,"current_range_meters":20000,"station_id":"ce4bha92rcd13ifvqeg0","pricing_plan_id":"cebpf4jnsgd1na2vs0mg"},{"bike_id":"85fe2657-06b9-4053-b6f6-f420f6de1456","system_id":"levelo_inurba_marseille","lat":43.290438,"lon":5.359122,"is_reserved":false,"is_disabled":false,"rental_uris":{"android":"levelo://app?vid=85fe2657-06b9-4053-b6f6-f420f6de1456","ios":"levelo://app?vid=85fe2657-06b9-4053-b6f6-f420f6de1456"},"vehicle_type_id":"4","last_reported":1708038430,"current_range_meters":4800,"station_id":"ce4bha92rcd13ifvqeg0","pricing_plan_id":"cebpf4jnsgd1na2vs0mg"},{"bike_id":"c0501394-6f8c-418c-aba2-da61c97700f2","system_id":"levelo_inurba_marseille","lat":43.290624,"lon":5.359245,"is_reserved":false,"is_disabled":false,"rental_uris":{"android":"levelo://app?vid=c0501394-6f8c-418c-aba2-da61c97700f2","ios":"levelo://app?vid=c0501394-6f8c-418c-aba2-da61c97700f2"},"vehicle_type_id":"4","last_reported":1708038430,"current_range_meters":24800,"station_id":"ce4bha92rcd13ifvqeg0","pricing_plan_id":"cebpf4jnsgd1na2vs0mg"},{"bike_id":"582ce4f7-e103-47aa-be2e-46e025750c40","system_id":"levelo_inurba_marseille","lat":43.289468,"lon":5.363719,"is_reserved":false,"is_disabled":false,"rental_uris":{"android":"levelo://app?vid=582ce4f7-e103-47aa-be2e-46e025750c40","ios":"levelo://app?vid=582ce4f7-e103-47aa-be2e-46e025750c40"},"vehicle_type_id":"4","last_reported":1708038430,"current_range_meters":30000,"station_id":"ce4bhc92rcd13ifvqetg","pricing_plan_id":"cebpf4jnsgd1na2vs0mg"},{"bike_id":"8257a217-843c-45bc-8f32-4c9f27ec3515","system_id":"levelo_inurba_marseille","lat":43.289184,"lon":5.366408,"is_reserved":false,"is_disabled":false,"rental_uris":{"android":"levelo://app?vid=8257a217-843c-45bc-8f32-4c9f27ec3515","ios":"levelo://app?vid=8257a217-843c-45bc-8f32-4c9f27ec3515"},"vehicle_type_id":"4","last_reported":1708038430,"current_range_meters":10800,"station_id":"ce4bhap2rcd13ifvqek0","pricing_plan_id":"cebpf4jnsgd1na2vs0mg"},{"bike_id":"538df069-8b7a-4442-b2e0-a6060c806a08","system_id":"levelo_inurba_marseille","lat":43.289468,"lon":5.363719,"is_reserved":false,"is_disabled":false,"rental_uris":{"android":"levelo://app?vid=538df069-8b7a-4442-b2e0-a6060c806a08","ios":"levelo://app?vid=538df069-8b7a-4442-b2e0-a6060c806a08"},"vehicle_type_id":"4","last_reported":1708038430,"current_range_meters":20800,"station_id":"ce4bhc92rcd13ifvqetg","pricing_plan_id":"cebpf4jnsgd1na2vs0mg"},{"bike_id":"e01831d2-426d-4503-8991-66308a03a3b6","system_id":"levelo_inurba_marseille","lat":43.289434,"lon":5.363943,"is_reserved":false,"is_disabled":false,"rental_uris":{"android":"levelo://app?vid=e01831d2-426d-4503-8991-66308a03a3b6","ios":"levelo://app?vid=e01831d2-426d-4503-8991-66308a03a3b6"},"vehicle_type_id":"4","last_reported":1708038430,"current_range_meters":13600,"station_id":"ce4bhc92rcd13ifvqetg","pricing_plan_id":"cebpf4jnsgd1na2vs0mg"},{"bike_id":"0071769d-414c-4e8d-ba08-50c2ccec49fa","system_id":"levelo_inurba_marseille","lat":43.304296,"lon":5.397513,"is_reserved":false,"is_disabled":false,"rental_uris":{"android":"levelo://app?vid=0071769d-414c-4e8d-ba08-50c2ccec49fa","ios":"levelo://app?vid=0071769d-414c-4e8d-ba08-50c2ccec49fa"},"vehicle_type_id":"4","last_reported":1708038430,"current_range_meters":24400,"station_id":"ce4bh092rcd13ifvqd20","pricing_plan_id":"cebpf4jnsgd1na2vs0mg"},{"bike_id":"1c5eaf3c-8374-4265-9e10-ac4bf5c88db4","system_id":"levelo_inurba_marseille","lat":43.29103,"lon":5.38085,"is_reserved":false,"is_disabled":false,"rental_uris":{"android":"levelo://app?vid=1c5eaf3c-8374-4265-9e10-ac4bf5c88db4","ios":"levelo://app?vid=1c5eaf3c-8374-4265-9e10-ac4bf5c88db4"},"vehicle_type_id":"4","last_reported":1708038430,"current_range_meters":30800,"station_id":"","pricing_plan_id":"cebpf4jnsgd1na2vs0mg"},{"bike_id":"804592df-3fff-4db8-9dba-842495948a11","system_id":"levelo_inurba_marseille","lat":43.290104,"lon":5.356111,"is_reserved":false,"is_disabled":false,"rental_uris":{"android":"levelo://app?vid=804592df-3fff-4db8-9dba-842495948a11","ios":"levelo://app?vid=804592df-3fff-4db8-9dba-842495948a11"},