{"last_updated":1762359231,"ttl":60,"version":"2.2","data":{"bikes":[{"bike_id":"b7c5e96f-2666-418c-b8cc-36dfc613348c","system_id":"levelo_inurba_marseille","lat":43.337444,"lon":5.374475,"is_reserved":false,"is_disabled":false,"rental_uris":{"android":"levelo://app?vid=b7c5e96f-2666-418c-b8cc-36dfc613348c","ios":"levelo://app?vid=b7c5e96f-2666-418c-b8cc-36dfc613348c"},"vehicle_type_id":"4","last_reported":1762359231,"current_range_meters":0,"station_id":"","pricing_plan_id":"cebpf4jnsgd1na2vs0mg"},{"bike_id":"9c46a9f5-39cb-461a-ac28-286dc216524b","system_id":"levelo_inurba_marseille","lat":43.337444,"lon":5.374475,"is_reserved":false,"is_disabled":false,"rental_uris":{"android":"levelo://app?vid=9c46a9f5-39cb-461a-ac28-286dc216524b","ios":"levelo://app?vid=9c46a9f5-39cb-461a-ac28-286dc216524b"},"vehicle_type_id":"4","last_reported":1762359231,"current_range_meters":0,"station_id":"","pricing_plan_id":"cebpf4jnsgd1na2vs0mg"},{"bike_id":"2aa95e42-5a8c-4825-81d0-40d356e0168e","system_id":"levelo_inurba_marseille","lat":43.337444,"lon":5.374475,"is_reserved":false,"is_disabled":false,"rental_uris":{"android":"levelo://app?vid=2aa95e42-5a8c-4825-81d0-40d356e0168e","ios":"levelo://app?vid=2aa95e42-5a8c-4825-81d0-40d356e0168e"},"vehicle_type_id":"4","last_reported":1762359231,"current_range_meters":0,"station_id":"","pricing_plan_id":"cebpf4jnsgd1na2vs0mg"},{"bike_id":"23f7c00c-abd3-4b9e-b454-b625ef68ddce","system_id":"levelo_inurba_marseille","lat":43.337444,"lon":5.374475,"is_reserved":false,"is_disabled":false,"rental_uris":{"android":"levelo://app?vid=23f7c00c-abd3-4b9e-b454-b625ef68ddce","ios":"levelo://app?vid=23f7c00c-abd3-4b9e-b454-b625ef68ddce"},"vehicle_type_id":"4","last_reported":1762359231,"current_range_meters":0,"station_id":"","pricing_plan_id":"cebpf4jnsgd1na2vs0mg"},{"bike_id":"a3451d83-9c80-4ffa-96f9-a14c25634465","system_id":"levelo_inurba_marseille","lat":43.337444,"lon":5.374475,"is_reserved":false,"is_disabled":false,"rental_uris":{"android":"levelo://app?vid=a3451d83-9c80-4ffa-96f9-a14c25634465","ios":"levelo://app?vid=a3451d83-9c80-4ffa-96f9-a14c25634465"},"vehicle_type_id":"4","last_reported":1762359231,"current_range_meters":0,"station_id":"","pricing_plan_id":"cebpf4jnsgd1na2vs0mg"},{"bike_id":"19649598-fd0f-4237-a302-8b748132eb30","system_id":"levelo_inurba_marseille","lat":43.337444,"lon":5.374475,"is_reserved":false,"is_disabled":false,"rental_uris":{"android":"levelo://app?vid=19649598-fd0f-4237-a302-8b748132eb30","ios":"levelo://app?vid=19649598-fd0f-4237-a302-8b748132eb30"},"vehicle_type_id":"4","last_reported":1762359231,"current_range_meters":0,"station_id":"","pricing_plan_id":"cebpf4jnsgd1na2vs0mg"},{"bike_id":"79f0199f-1fbb-40b2-9337-191d82b520a7","system_id":"levelo_inurba_marseille","lat":43.337444,"lon":5.374475,"is_reserved":false,"is_disabled":false,"rental_uris":{"android":"levelo://app?vid=79f0199f-1fbb-40b2-9337-191d82b520a7","ios":"levelo://app?vid=79f0199f-1fbb-40b2-9337-191d82b520a7"},"vehicle_type_id":"4","last_reported":1762359231,"current_range_meters":0,"station_id":"","pricing_plan_id":"cebpf4jnsgd1na2vs0mg"},{"bike_id":"34a0d96e-bbf5-4ab6-8de8-a56cc767fd57","system_id":"levelo_inurba_marseille","lat":43.337444,"lon":5.374475,"is_reserved":false,"is_disabled":false,"rental_uris":{"android":"levelo://app?vid=34a0d96e-bbf5-4ab6-8de8-a56cc767fd57","ios":"levelo://app?vid=34a0d96e-bbf5-4ab6-8de8-a56cc767fd57"},"vehicle_type_id":"4","last_reported":1762359231,"current_range_meters":0,"station_id":"","pricing_plan_id":"cebpf4jnsgd1na2vs0mg"},{"bike_id":"30c4756b-2e3a-4ac9-b1fb-aa08283eecaa","system_id":"levelo_inurba_marseille","lat":43.337444,"lon":5.374475,"is_reserved":false,"is_disabled":false,"rental_uris":{"android":"levelo://app?vid=30c4756b-2e3a-4ac9-b1fb-aa08283eecaa","ios":"levelo://app?vid=30c4756b-2e3a-4ac9-b1fb-aa08283eecaa"},"vehicle_type_id":"4","last_reported":1762359231,"current_range_meters":0,"station_id":"","pricing_plan_id":"cebpf4jnsgd1na2vs0mg"},{"bike_id":"cb5b6ee7-3ef8-4299-a38d-cc32f035098b","system_id":"levelo_inurba_marseille","lat":43.337444,"lon":5.374475,"is_reserved":false,"is_disabled":false,"rental_uris":{"android":"levelo://app?vid=cb5b6ee7-3ef8-4299-a38d-cc32f035098b","ios":"levelo://app?vid=cb5b6ee7-3ef8-4299-a38d-cc32f035098b"},"vehicle_type_id":"4","last_reported":1762359231,"current_range_meters":0,"station_id":"","pricing_plan_id":"cebpf4jnsgd1na2vs0mg"},{"bike_id":"0dbf8834-1963-4427-879a-60d5139a1252","system_id":"levelo_inurba_marseille","lat":43.337444,"lon":5.374475,"is_reserved":false,"is_disabled":false,"rental_uris":{"android":"levelo://app?vid=0dbf8834-1963-4427-879a-60d5139a1252","ios":"levelo://app?vid=0dbf8834-1963-4427-879a-60d5139a1252"},"vehicle_type_id":"4","last_reported":1762359231,"current_range_meters":0,"station_id":"","pricing_plan_id":"cebpf4jnsgd1na2vs0mg"},{"bike_id":"c3d3ce5c-8075-4b42-9455-beadd1468f17","system_id":"levelo_inurba_marseille","lat":43.337444,"lon":5.374475,"is_reserved":false,"is_disabled":false,"rental_uris":{"android":"levelo://app?vid=c3d3ce5c-8075-4b42-9455-beadd1468f17","ios":"levelo://app?vid=c3d3ce5c-8075-4b42-9455-beadd1468f17"},"vehicle_type_id":"4","last_reported":1762359231,"current_range_meters":0,"station_id":"","pricing_plan_id":"cebpf4jnsgd1na2vs0mg"},{"bike_id":"2177a091-7ad7-4fcd-ad08-e78406d1a8ef","system_id":"levelo_inurba_marseille","lat":43.337444,"lon":5.374475,"is_reserved":false,"is_disabled":false,"rental_uris":{"android":"levelo://app?vid=2177a091-7ad7-4fcd-ad08-e78406d1a8ef","ios":"levelo://app?vid=2177a091-7ad7-4fcd-ad08-e78406d1a8ef"},"vehicle_type_id":"4","last_reported":1762359231,"current_range_meters":0,"station_id":"","pricing_plan_id":"cebpf4jnsgd1na2vs0mg"},{"bike_id":"ed2dc6ad-7a96-47d2-b4d0-3deee38fd62c","system_id":"levelo_inurba_marseille","lat":43.337444,"lon":5.374475,"is_reserved":false,"is_disabled":false,"rental_uris":{"android":"levelo://app?vid=ed2dc6ad-7a96-47d2-b4d0-3deee38fd62c","ios":"levelo://app?vid=ed2dc6ad-7a96-47d2-b4d0-3deee38fd62c"},"vehicle_type_id":"4","last_reported":1762359231,"current_range_meters":0,"station_id":"","pricing_plan_id":"cebpf4jnsgd1na2vs0mg"},{"bike_id":"42735ee1-244b-4d96-8480-f9806199924f","system_id":"levelo_inurba_marseille","lat":43.337444,"lon":5.374475,"is_reserved":false,"is_disabled":false,"rental_uris":{"android":"levelo://app?vid=42735ee1-244b-4d96-8480-f9806199924f","ios":"levelo://app?vid=42735ee1-244b-4d96-8480-f9806199924f"},"vehicle_type_id":"4","last_reported":1762359231,"current_range_meters":0,"station_id":"","pricing_plan_id":"cebpf4jnsgd1na2vs0mg"},{"bike_id":"0d7ab61a-02ec-456f-ab23-ba92f34594d5","system_id":"levelo_inurba_marseille","lat":43.337444,"lon":5.374475,"is_reserved":false,"is_disabled":false,"rental_uris":{"android":"levelo://app?vid=0d7ab61a-02ec-456f-ab23-ba92f34594d5","ios":"levelo://app?vid=0d7ab61a-02ec-456f-ab23-ba92f34594d5"},"vehicle_type_id":"4","last_reported":1762359231,"current_range_meters":0,"station_id":"","pricing_plan_id":"cebpf4jnsgd1na2vs0mg"},{"bike_id":"f68022fa-eb0a-4aac-8aea-6f2e14d0afb9","system_id":"levelo_inurba_marseille","lat":43.337444,"lon":5.374475,"is_reserved":false,"is_disabled":false,"rental_uris":{"android":"levelo://app?vid=f68022fa-eb0a-4aac-8aea-6f2e14d0afb9","ios":"levelo://app?vid=f68022fa-eb0a-4aac-8aea-6f2e14d0afb9"},"vehicle_type_id":"4","last_reported":1762359231,"current_range_meters":0,"station_id":"","pricing_plan_id":"cebpf4jnsgd1na2vs0mg"},{"bike_id":"386a9781-f1f4-4d33-8679-4d1163c3b9de","system_id":"levelo_inurba_marseille","lat":43.337444,"lon":5.374475,"is_reserved":false,"is_disabled":false,"rental_uris":{"android":"levelo://app?vid=386a9781-f1f4-4d33-8679-4d1163c3b9de","ios":"levelo://app?vid=386a9781-f1f4-4d33-8679-4d1163c3b9de"},"vehicle_type_id":"4","last_reported":1762359231,"current_range_meters":0,"station_id":"","pricing_plan_id":"cebpf4jnsgd1na2vs0mg"},{"bike_id":"4692d694-8a80-47c7-a7c6-1264ca94c6df","system_id":"levelo_inurba_marseille","lat":43.337444,"lon":5.374475,"is_reserved":false,"is_disabled":false,"rental_uris":{"android":"levelo://app?vid=4692d694-8a80-47c7-a7c6-1264ca94c6df","ios":"levelo://app?vid=4692d694-8a80-47c7-a7c6-1264ca94c6df"},"vehicle_type_id":"4","last_reported":1762359231,"current_range_meters":0,"station_id":"","pricing_plan_id":"cebpf4jnsgd1na2vs0mg"},{"bike_id":"4706d18d-408c-4dc1-a44f-b0f99f27bdf0","system_id":"levelo_inurba_marseille","lat":43.337444,"lon":5.374475,"is_reserved":false,"is_disabled":false,"rental_uris":{"android":"levelo://app?vid=4706d18d-408c-4dc1-a44f-b0f99f27bdf0","ios":"levelo://app?vid=4706d18d-408c-4dc1-a44f-b0f99f27bdf0"},"vehicle_type_id":"4","last_reported":1762359231,"current_range_meters":0,"station_id":"","pricing_plan_id":"cebpf4jnsgd1na2vs0mg"},{"bike_id":"abb77335-fe7b-4b75-9b2f-be4bb45cbb0d","system_id":"levelo_inurba_marseille","lat":43.337444,"lon":5.374475,"is_reserved":false,"is_disabled":false,"rental_uris":{"android":"levelo://app?vid=abb77335-fe7b-4b75-9b2f-be4bb45cbb0d","ios":"levelo://app?vid=abb77335-fe7b-4b75-9b2f-be4bb45cbb0d"},"vehicle_type_id":"4","last_reported":1762359231,"current_range_meters":0,"station_id":"","pricing_plan_id":"cebpf4jnsgd1na2vs0mg"},{"bike_id":"4bde9393-6919-41f3-8fef-f4b40f375cc0","system_id":"levelo_inurba_marseille","lat":43.337444,"lon":5.374475,"is_reserved":false,"is_disabled":false,"rental_uris":{"android":"levelo://app?vid=4bde9393-6919-41f3-8fef-f4b40f375cc0","ios":"levelo://app?vid=4bde9393-6919-41f3-8fef-f4b40f375cc0"},"vehicle_type_id":"4","last_reported":1762359231,"current_range_meters":0,"station_id":"","pricing_plan_id":"cebpf4jnsgd1na2vs0mg"},{"bike_id":"51f4e824-5009-4c5b-9283-cfda2d34404c","system_id":"levelo_inurba_marseille","lat":43.337444,"lon":5.374475,"is_reserved":false,"is_disabled":false,"rental_uris":{"android":"levelo://app?vid=51f4e824-5009-4c5b-9283-cfda2d34404c","ios":"levelo://app?vid=51f4e824-5009-4c5b-9283-cfda2d34404c"},"vehicle_type_id":"4","last_reported":1762359231,"current_range_meters":0,"station_id":"","pricing_plan_id":"cebpf4jnsgd1na2vs0mg"},{"bike_id":"d155d58c-f50a-4469-b126-b5af1b8d3f8a","system_id":"levelo_inurba_marseille","lat":43.337444,"lon":5.374475,"is_reserved":false,"is_disabled":false,"rental_uris":{"android":"levelo://app?vid=d155d58c-f50a-4469-b126-b5af1b8d3f8a","ios":"levelo://app?vid=d155d58c-f50a-4469-b126-b5af1b8d3f8a"},"vehicle_type_id":"4","last_reported":1762359231,"current_range_meters":0,"station_id":"","pricing_plan_id":"cebpf4jnsgd1na2vs0mg"},{"bike_id":"16f471c2-a8ed-4e61-ba2a-d83085a9c284","system_id":"levelo_inurba_marseille","lat":43.337444,"lon":5.374475,"is_reserved":false,"is_disabled":false,"rental_uris":{"android":"levelo://app?vid=16f471c2-a8ed-4e61-ba2a-d83085a9c284","ios":"levelo://app?vid=16f471c2-a8ed-4e61-ba2a-d83085a9c284"},"vehicle_type_id":"4","last_reported":1762359231,"current_range_meters":0,"station_id":"","pricing_plan_id":"cebpf4jnsgd1na2vs0mg"},{"bike_id":"b8bd4cc4-f519-43de-b194-2cc2cf75483c","system_id":"levelo_inurba_marseille","lat":43.337444,"lon":5.374475,"is_reserved":false,"is_disabled":false,"rental_uris":{"android":"levelo://app?vid=b8bd4cc4-f519-43de-b194-2cc2cf75483c","ios":"levelo://app?vid=b8bd4cc4-f519-43de-b194-2cc2cf75483c"},"vehicle_type_id":"4","last_reported":1762359231,"current_range_meters":0,"station_id":"","pricing_plan_id":"cebpf4jnsgd1na2vs0mg"},{"bike_id":"591b062c-0423-40a0-9120-f7c30f97e98f","system_id":"levelo_inurba_marseille","lat":43.337444,"lon":5.374475,"is_reserved":false,"is_disabled":false,"rental_uris":{"android":"levelo://app?vid=591b062c-0423-40a0-9120-f7c30f97e98f","ios":"levelo://app?vid=591b062c-0423-40a0-9120-f7c30f97e98f"},"vehicle_type_id":"4","last_reported":1762359231,"current_range_meters":0,"station_id":"","pricing_plan_id":"cebpf4jnsgd1na2vs0mg"},{"bike_id":"8fbb8d57-565e-4232-a867-846a316b3375","system_id":"levelo_inurba_marseille","lat":43.337444,"lon":5.374475,"is_reserved":false,"is_disabled":false,"rental_uris":{"android":"levelo://app?vid=8fbb8d57-565e-4232-a867-846a316b3375","ios":"levelo://app?vid=8fbb8d57-565e-4232-a867-846a316b3375"},"vehicle_type_id":"4","last_reported":1762359231,"current_range_meters":0,"station_id":"","pricing_plan_id":"cebpf4jnsgd1na2vs0mg"},{"bike_id":"e6134458-396f-46c5-87ab-a79cf2b6424c","system_id":"levelo_inurba_marseille","lat":43.337444,"lon":5.374475,"is_reserved":false,"is_disabled":false,"rental_uris":{"android":"levelo://app?vid=e6134458-396f-46c5-87ab-a79cf2b6424c","ios":"levelo://app?vid=e6134458-396f-46c5-87ab-a79cf2b6424c"},"vehicle_type_id":"4","last_reported":1762359231,"current_range_meters":0,"station_id":"","pricing_plan_id":"cebpf4jnsgd1na2vs0mg"},{"bike_id":"0a0d4295-fe5b-4614-b2ca-f5579d5190b0","system_id":"levelo_inurba_marseille","lat":43.337444,"lon":5.374475,"is_reserved":false,"is_disabled":false,"rental_uris":{"android":"levelo://app?vid=0a0d4295-fe5b-4614-b2ca-f5579d5190b0","ios":"levelo://app?vid=0a0d4295-fe5b-4614-b2ca-f5579d5190b0"},"vehicle_type_id":"4","last_reported":1762359231,"current_range_meters":0,"station_id":"","pricing_plan_id":"cebpf4jnsgd1na2vs0mg"},{"bike_id":"b2dfea07-d052-4cc8-afcf-635e0c5b9735","system_id":"levelo_inurba_marseille","lat":43.257136,"lon":5.376634,"is_reserved":false,"is_disabled":false,"rental_uris":{"android":"levelo://app?vid=b2dfea07-d052-4cc8-afcf-635e0c5b9735","ios":"levelo://app?vid=b2dfea07-d052-4cc8-afcf-635e0c5b9735"},"vehicle_type_id":"4","last_reported":1762359231,"current_range_meters":2800,"station_id":"ce4bhh12rcd13ifvqff0","pricing_plan_id":"cebpf4jnsgd1na2vs0mg"},{"bike_id":"93e60748-606f-4a7c-a0a4-d33fc5c01e6a","system_id":"levelo_inurba_marseille","lat":43.31481,"lon":5.37305,"is_reserved":false,"is_disabled":false,"rental_uris":{"android":"levelo://app?vid=93e60748-606f-4a7c-a0a4-d33fc5c01e6a","ios":"levelo://app?vid=93e60748-606f-4a7c-a0a4-d33fc5c01e6a"},"vehicle_type_id":"4","last_reported":1762359231,"current_range_meters":2800,"station_id":"ce4bgt12rcd13ifvqcd0","pricing_plan_id":"cebpf4jnsgd1na2vs0mg"},{"bike_id":"0464b9d1-e411-4c9a-8aee-df4743e5280b","system_id":"levelo_inurba_marseille","lat":43.321,"lon":5.36799,"is_reserved":false,"is_disabled":false,"rental_uris":{"android":"levelo://app?vid=0464b9d1-e411-4c9a-8aee-df4743e5280b","ios":"levelo://app?vid=0464b9d1-e411-4c9a-8aee-df4743e5280b"},"vehicle_type_id":"4","last_reported":1762359231,"current_range_meters":2800,"station_id":"ce4bhrh2rcd13ifvqhug","pricing_plan_id":"cebpf4jnsgd1na2vs0mg"},{"bike_id":"13cd5a13-de5d-49d9-9305-0deb10f2c5a5","system_id":"levelo_inurba_marseille","lat":43.25002,"lon":5.38927,"is_reserved":false,"is_disabled":false,"rental_uris":{"android":"levelo://app?vid=13cd5a13-de5d-49d9-9305-0deb10f2c5a5","ios":"levelo://app?vid=13cd5a13-de5d-49d9-9305-0deb10f2c5a5"},"vehicle_type_id":"4","last_reported":1762359231,"current_range_meters":2800,"station_id":"ce4bhgp2rcd13ifvqfd0","pricing_plan_id":"cebpf4jnsgd1na2vs0mg"},{"bike_id":"7e59d6e2-3e98-462c-a654-001b5c831167","system_id":"levelo_inurba_marseille","lat":43.32036,"lon":5.41561,"is_reserved":false,"is_disabled":false,"rental_uris":{"android":"levelo://app?vid=7e59d6e2-3e98-462c-a654-001b5c831167","ios":"levelo://app?vid=7e59d6e2-3e98-462c-a654-001b5c831167"},"vehicle_type_id":"4","last_reported":1762359231,"current_range_meters":2800,"station_id":"ce4bhq92rcd13ifvqhkg","pricing_plan_id":"cebpf4jnsgd1na2vs0mg"},{"bike_id":"4206fd1c-fca5-4468-81b6-1c50d2a4a589","system_id":"levelo_inurba_marseille","lat":43.29783,"lon":5.43811,"is_reserved":false,"is_disabled":false,"rental_uris":{"android":"levelo://app?vid=4206fd1c-fca5-4468-81b6-1c50d2a4a589","ios":"levelo://app?vid=4206fd1c-fca5-4468-81b6-1c50d2a4a589"},"vehicle_type_id":"4","last_reported":1762359231,"current_range_meters":3200,"station_id":"","pricing_plan_id":"cebpf4jnsgd1na2vs0mg"},{"bike_id":"b7274164-d104-4569-8e8d-d56b2a397565","system_id":"levelo_inurba_marseille","lat":43.28483,"lon":5.48376,"is_reserved":false,"is_disabled":false,"rental_uris":{"android":"levelo://app?vid=b7274164-d104-4569-8e8d-d56b2a397565","ios":"levelo://app?vid=b7274164-d104-4569-8e8d-d56b2a397565"},"vehicle_type_id":"4","last_reported":1762359231,"current_range_meters":3200,"station_id":"st_d3svhcjqgbts73a3dn0g","pricing_plan_id":"cebpf4jnsgd1na2vs0mg"},{"bike_id":"1052afa2-eb32-42ed-ba58-902a01ace44f","system_id":"levelo_inurba_marseille","lat":43.27912,"lon":5.39578,"is_reserved":false,"is_disabled":false,"rental_uris":{"android":"levelo://app?vid=1052afa2-eb32-42ed-ba58-902a01ace44f","ios":"levelo://app?vid=1052afa2-eb32-42ed-ba58-902a01ace44f"},"vehicle_type_id":"4","last_reported":1762359231,"current_range_meters":3200,"station_id":"ce4bhf92rcd13ifvqf40","pricing_plan_id":"cebpf4jnsgd1na2vs0mg"},{"bike_id":"eae7647a-4857-4c2c-83fd-4aa63d97e13d","system_id":"levelo_inurba_marseille","lat":43.23183,"lon":5.39984,"is_reserved":false,"is_disabled":false,"rental_uris":{"android":"levelo://app?vid=eae7647a-4857-4c2c-83fd-4aa63d97e13d","ios":"levelo://app?vid=eae7647a-4857-4c2c-83fd-4aa63d97e13d"},"vehicle_type_id":"4","last_reported":1762359231,"current_range_meters":3200,"station_id":"ce4bhn12rcd13ifvqgqg","pricing_plan_id":"cebpf4jnsgd1na2vs0mg"},{"bike_id":"6b7227d9-546c-46d3-bac4-ddad98263634","system_id":"levelo_inurba_marseille","lat":43.27949,"lon":5.41049,"is_reserved":false,"is_disabled":true,"rental_uris":{"android":"levelo://app?vid=6b7227d9-546c-46d3-bac4-ddad98263634","ios":"levelo://app?vid=6b7227d9-546c-46d3-bac4-ddad98263634"},"vehicle_type_id":"4","last_reported":1762359231,"current_range_meters":3600,"station_id":"ce4bhnp2rcd13ifvqh0g","pricing_plan_id":"cebpf4jnsgd1na2vs0mg"},{"bike_id":"60fd2392-832d-4279-bd39-5c03dbe5fbe8","system_id":"levelo_inurba_marseille","lat":43.286107,"lon":5.370654,"is_reserved":false,"is_disabled":false,"rental_uris":{"android":"levelo://app?vid=60fd2392-832d-4279-bd39-5c03dbe5fbe8","ios":"levelo://app?vid=60fd2392-832d-4279-bd39-5c03dbe5fbe8"},"vehicle_type_id":"4","last_reported":1762359231,"current_range_meters":4000,"station_id":"ce4bht12rcd13ifvqi60","pricing_plan_id":"cebpf4jnsgd1na2vs0mg"},{"bike_id":"1c93721d-091d-460f-9fd7-13245ff1c80e","system_id":"levelo_inurba_marseille","lat":43.30922,"lon":5.40147,"is_reserved":false,"is_disabled":false,"rental_uris":{"android":"levelo://app?vid=1c93721d-091d-460f-9fd7-13245ff1c80e","ios":"levelo://app?vid=1c93721d-091d-460f-9fd7-13245ff1c80e"},"vehicle_type_id":"4","last_reported":1762359231,"current_range_meters":4000,"station_id":"ce4bgvp2rcd13ifvqct0","pricing_plan_id":"cebpf4jnsgd1na2vs0mg"},{"bike_id":"ec654542-4401-4a32-9275-6babb31e0855","system_id":"levelo_inurba_marseille","lat":43.279942,"lon":5.416709,"is_reserved":false,"is_disabled":true,"rental_uris":{"android":"levelo://app?vid=ec654542-4401-4a32-9275-6babb31e0855","ios":"levelo://app?vid=ec654542-4401-4a32-9275-6babb31e0855"},"vehicle_type_id":"4","last_reported":1762359231,"current_range_meters":4400,"station_id":"ce4bho12rcd13ifvqh1g","pricing_plan_id":"cebpf4jnsgd1na2vs0mg"},{"bike_id":"4bacc718-bab5-4aff-89e7-ef0fff3cc0ae","system_id":"levelo_inurba_marseille","lat":43.30558,"lon":5.36555,"is_reserved":false,"is_disabled":false,"rental_uris":{"android":"levelo://app?vid=4bacc718-bab5-4aff-89e7-ef0fff3cc0ae","ios":"levelo://app?vid=4bacc718-bab5-4aff-89e7-ef0fff3cc0ae"},"vehicle_type_id":"4","last_reported":1762359231,"current_range_meters":4400,"station_id":"ce4bgs12rcd13ifvqcag","pricing_plan_id":"cebpf4jnsgd1na2vs0mg"},{"bike_id":"8238b597-6943-47b1-846e-b6ceb3bf4468","system_id":"levelo_inurba_marseille","lat":43.28444,"lon":5.37605,"is_reserved":false,"is_disabled":false,"rental_uris":{"android":"levelo://app?vid=8238b597-6943-47b1-846e-b6ceb3bf4468","ios":"levelo://app?vid=8238b597-6943-47b1-846e-b6ceb3bf4468"},"vehicle_type_id":"4","last_reported":1762359231,"current_range_meters":4400,"station_id":"","pricing_plan_id":"cebpf4jnsgd1na2vs0mg"},{"bike_id":"628744d9-be2e-47fc-a6d5-ef98ef83b637","system_id":"levelo_inurba_marseille","lat":43.29946,"lon":5.36556,"is_reserved":false,"is_disabled":false,"rental_uris":{"android":"levelo://app?vid=628744d9-be2e-47fc-a6d5-ef98ef83b637","ios":"levelo://app?vid=628744d9-be2e-47fc-a6d5-ef98ef83b637"},"vehicle_type_id":"4","last_reported":1762359231,"current_range_meters":4400,"station_id":"ce4bgm92rcd13ifvqbr0","pricing_plan_id":"cebpf4jnsgd1na2vs0mg"},{"bike_id":"28b85111-1e3c-4e94-9d4a-5a837507bfee","system_id":"levelo_inurba_marseille","lat":43.29717,"lon":5.42636,"is_reserved":false,"is_disabled":false,"rental_uris":{"android":"levelo://app?vid=28b85111-1e3c-4e94-9d4a-5a837507bfee","ios":"levelo://app?vid=28b85111-1e3c-4e94-9d4a-5a837507bfee"},"vehicle_type_id":"4","last_reported":1762359231,"current_range_meters":4800,"station_id":"","pricing_plan_id":"cebpf4jnsgd1na2vs0mg"},{"bike_id":"1da988fd-171e-45ff-81bf-7efb1112010a","system_id":"levelo_inurba_marseille","lat":43.29978,"lon":5.37194,"is_reserved":false,"is_disabled":false,"rental_uris":{"android":"levelo://app?vid=1da988fd-171e-45ff-81bf-7efb1112010a","ios":"levelo://app?vid=1da988fd-171e-45ff-81bf-7efb1112010a"},"vehicle_type_id":"4","last_reported":1762359231,"current_range_meters":4800,"station_id":"ce4bgr92rcd13ifvqc7g","pricing_plan_id":"cebpf4jnsgd1na2vs0mg"},{"bike_id":"f4f5f345-50d6-4c8d-a0bf-f12dbb549d35","system_id":"levelo_inurba_marseille","lat":43.272046,"lon":5.391829,"is_reserved":false,"is_disabled":false,"rental_uris":{"android":"levelo://app?vid=f4f5f345-50d6-4c8d-a0bf-f12dbb549d35","ios":"levelo://app?vid=f4f5f345-50d6-4c8d-a0bf-f12dbb549d35"},"vehicle_type_id":"4","last_reported":1762359231,"current_range_meters":4800,"station_id":"","pricing_plan_id":"cebpf4jnsgd1na2vs0mg"},{"bike_id":"1d3cfb2e-e1b6-4b48-954a-70697d9c3616","system_id":"levelo_inurba_marseille","lat":43.292793,"lon":5.368358,"is_reserved":false,"is_disabled":false,"rental_uris":{"android":"levelo://app?vid=1d3cfb2e-e1b6-4b48-954a-70697d9c3616","ios":"levelo://app?vid=1d3cfb2e-e1b6-4b48-954a-70697d9c3616"},"vehicle_type_id":"4","last_reported":1762359231,"current_range_meters":4800,"station_id":"ce4bhbp2rcd13ifvqesg","pricing_plan_id":"cebpf4jnsgd1na2vs0mg"},{"bike_id":"eff956d8-cd82-4270-aae1-9c7af16b2711","system_id":"levelo_inurba_marseille","lat":43.25335,"lon":5.42175,"is_reserved":false,"is_disabled":false,"rental_uris":{"android":"levelo://app?vid=eff956d8-cd82-4270-aae1-9c7af16b2711","ios":"levelo://app?vid=eff956d8-cd82-4270-aae1-9c7af16b2711"},"vehicle_type_id":"4","last_reported":1762359231,"current_range_meters":4800,"station_id":"st_d2m65c5bi1j21697t3ng","pricing_plan_id":"cebpf4jnsgd1na2vs0mg"},{"bike_id":"e9856231-4e72-4013-8cb8-847322beb61e","system_id":"levelo_inurba_marseille","lat":43.31547,"lon":5.37252,"is_reserved":false,"is_disabled":false,"rental_uris":{"android":"levelo://app?vid=e9856231-4e72-4013-8cb8-847322beb61e","ios":"levelo://app?vid=e9856231-4e72-4013-8cb8-847322beb61e"},"vehicle_type_id":"4","last_reported":1762359231,"current_range_meters":4800,"station_id":"","pricing_plan_id":"cebpf4jnsgd1na2vs0mg"},{"bike_id":"4ef1ddda-ba5c-4309-bd77-563ea557439e","system_id":"levelo_inurba_marseille","lat":43.315318,"lon":5.380414,"is_reserved":false,"is_disabled":false,"rental_uris":{"android":"levelo://app?vid=4ef1ddda-ba5c-4309-bd77-563ea557439e","ios":"levelo://app?vid=4ef1ddda-ba5c-4309-bd77-563ea557439e"},"vehicle_type_id":"4","last_reported":1762359231,"current_range_meters":4800,"station_id":"ce4bhsp2rcd13ifvqi50","pricing_plan_id":"cebpf4jnsgd1na2vs0mg"},{"bike_id":"960efa87-4b01-4af9-99fd-d268f4ef39f2","system_id":"levelo_inurba_marseille","lat":43.245276,"lon":5.395421,"is_reserved":false,"is_disabled":false,"rental_uris":{"android":"levelo://app?vid=960efa87-4b01-4af9-99fd-d268f4ef39f2","ios":"levelo://app?vid=960efa87-4b01-4af9-99fd-d268f4ef39f2"},"vehicle_type_id":"4","last_reported":1762359231,"current_range_meters":4800,"station_id":"ce4bhlp2rcd13ifvqgjg","pricing_plan_id":"cebpf4jnsgd1na2vs0mg"},{"bike_id":"811dfb6d-8287-48ee-8f02-7d2df6abf4fb","system_id":"levelo_inurba_marseille","lat":43.29554,"lon":5.42283,"is_reserved":false,"is_disabled":false,"rental_uris":{"android":"levelo://app?vid=811dfb6d-8287-48ee-8f02-7d2df6abf4fb","ios":"levelo://app?vid=811dfb6d-8287-48ee-8f02-7d2df6abf4fb"},"vehicle_type_id":"4","last_reported":1762359231,"current_range_meters":5600,"station_id":"ce4bhph2rcd13ifvqhdg","pricing_plan_id":"cebpf4jnsgd1na2vs0mg"},{"bike_id":"f9b55f15-cf36-4ad9-90e5-59c582e0b2c7","system_id":"levelo_inurba_marseille","lat":43.22978,"lon":5.43993,"is_reserved":false,"is_disabled":false,"rental_uris":{"android":"levelo://app?vid=f9b55f15-cf36-4ad9-90e5-59c582e0b2c7","ios":"levelo://app?vid=f9b55f15-cf36-4ad9-90e5-59c582e0b2c7"},"vehicle_type_id":"4","last_reported":1762359231,"current_range_meters":5600,"station_id":"","pricing_plan_id":"cebpf4jnsgd1na2vs0mg"},{"bike_id":"d6136f69-f122-4896-9e1d-4c8264d467b3","system_id":"levelo_inurba_marseille","lat":43.31884,"lon":5.40736,"is_reserved":false,"is_disabled":false,"rental_uris":{"android":"levelo://app?vid=d6136f69-f122-4896-9e1d-4c8264d467b3","ios":"levelo://app?vid=d6136f69-f122-4896-9e1d-4c8264d467b3"},"vehicle_type_id":"4","last_reported":1762359231,"current_range_meters":5600,"station_id":"ce4bhq12rcd13ifvqhig","pricing_plan_id":"cebpf4jnsgd1na2vs0mg"},{"bike_id":"8d7fd27e-7f96-40cd-b792-15ee077023f0","system_id":"levelo_inurba_marseille","lat":43.24554,"lon":5.39527,"is_reserved":false,"is_disabled":false,"rental_uris":{"android":"levelo://app?vid=8d7fd27e-7f96-40cd-b792-15ee077023f0","ios":"levelo://app?vid=8d7fd27e-7f96-40cd-b792-15ee077023f0"},"vehicle_type_id":"4","last_reported":1762359231,"current_range_meters":5600,"station_id":"ce4bhlp2rcd13ifvqgjg","pricing_plan_id":"cebpf4jnsgd1na2vs0mg"},{"bike_id":"705ee8ff-9b5d-4065-b4c3-d410d0796205","system_id":"levelo_inurba_marseille","lat":43.29704,"lon":5.37699,"is_reserved":false,"is_disabled":false,"rental_uris":{"android":"levelo://app?vid=705ee8ff-9b5d-4065-b4c3-d410d0796205","ios":"levelo://app?vid=705ee8ff-9b5d-4065-b4c3-d410d0796205"},"vehicle_type_id":"4","last_reported":1762359231,"current_range_meters":6000,"station_id":"ce4bgkh2rcd13ifvqbl0","pricing_plan_id":"cebpf4jnsgd1na2vs0mg"},{"bike_id":"f33b43ae-dd60-4d4c-8c42-15af3fa14303","system_id":"levelo_inurba_marseille","lat":43.30194,"lon":5.36621,"is_reserved":false,"is_disabled":false,"rental_uris":{"android":"levelo://app?vid=f33b43ae-dd60-4d4c-8c42-15af3fa14303","ios":"levelo://app?vid=f33b43ae-dd60-4d4c-8c42-15af3fa14303"},"vehicle_type_id":"4","last_reported":1762359231,"current_range_meters":6000,"station_id":"ce4bgrh2rcd13ifvqc8g","pricing_plan_id":"cebpf4jnsgd1na2vs0mg"},{"bike_id":"871e50d3-440c-4de5-8142-5ee03e1b9af1","system_id":"levelo_inurba_marseille","lat":43.33726,"lon":5.39182,"is_reserved":false,"is_disabled":false,"rental_uris":{"android":"levelo://app?vid=871e50d3-440c-4de5-8142-5ee03e1b9af1","ios":"levelo://app?vid=871e50d3-440c-4de5-8142-5ee03e1b9af1"},"vehicle_type_id":"4","last_reported":1762359231,"current_range_meters":6000,"station_id":"ce4bhr92rcd13ifvqhsg","pricing_plan_id":"cebpf4jnsgd1na2vs0mg"},{"bike_id":"e342f63c-295c-4799-8e52-4ddb08f24795","system_id":"levelo_inurba_marseille","lat":43.30946,"lon":5.4011,"is_reserved":false,"is_disabled":false,"rental_uris":{"android":"levelo://app?vid=e342f63c-295c-4799-8e52-4ddb08f24795","ios":"levelo://app?vid=e342f63c-295c-4799-8e52-4ddb08f24795"},"vehicle_type_id":"4","last_reported":1762359231,"current_range_meters":6400,"station_id":"","pricing_plan_id":"cebpf4jnsgd1na2vs0mg"},{"bike_id":"3800314d-6410-4feb-bd76-28cb0729c673","system_id":"levelo_inurba_marseille","lat":43.30341,"lon":5.40075,"is_reserved":false,"is_disabled":false,"rental_uris":{"android":"levelo://app?vid=3800314d-6410-4feb-bd76-28cb0729c673","ios":"levelo://app?vid=3800314d-6410-4feb-bd76-28cb0729c673"},"vehicle_type_id":"4","last_reported":1762359231,"current_range_meters":6400,"station_id":"","pricing_plan_id":"cebpf4jnsgd1na2vs0mg"},{"bike_id":"9d1fc2e0-d860-42e4-8b2c-44afdd41a56d","system_id":"levelo_inurba_marseille","lat":43.3043,"lon":5.39739,"is_reserved":false,"is_disabled":false,"rental_uris":{"android":"levelo://app?vid=9d1fc2e0-d860-42e4-8b2c-44afdd41a56d","ios":"levelo://app?vid=9d1fc2e0-d860-42e4-8b2c-44afdd41a56d"},"vehicle_type_id":"4","last_reported":1762359231,"current_range_meters":6400,"station_id":"ce4bh092rcd13ifvqd20","pricing_plan_id":"cebpf4jnsgd1na2vs0mg"},{"bike_id":"663c1282-fbf9-4303-b9aa-00529c606e1f","system_id":"levelo_inurba_marseille","lat":43.30048,"lon":5.37646,"is_reserved":false,"is_disabled":false,"rental_uris":{"android":"levelo://app?vid=663c1282-fbf9-4303-b9aa-00529c606e1f","ios":"levelo://app?vid=663c1282-fbf9-4303-b9aa-00529c606e1f"},"vehicle_type_id":"4","last_reported":1762359231,"current_range_meters":6400,"station_id":"","pricing_plan_id":"cebpf4jnsgd1na2vs0mg"},{"bike_id":"f6c591ba-8c0d-4629-98af-e0d9d1b1aefa","system_id":"levelo_inurba_marseille","lat":43.27946,"lon":5.41058,"is_reserved":false,"is_disabled":false,"rental_uris":{"android":"levelo://app?vid=f6c591ba-8c0d-4629-98af-e0d9d1b1aefa","ios":"levelo://app?vid=f6c591ba-8c0d-4629-98af-e0d9d1b1aefa"},"vehicle_type_id":"4","last_reported":1762359231,"current_range_meters":6800,"station_id":"ce4bhnp2rcd13ifvqh0g","pricing_plan_id":"cebpf4jnsgd1na2vs0mg"},{"bike_id":"967ac7f1-f7bb-46c7-912e-7a3cd32f5c99","system_id":"levelo_inurba_marseille","lat":43.26481,"lon":5.39561,"is_reserved":false,"is_disabled":false,"rental_uris":{"android":"levelo://app?vid=967ac7f1-f7bb-46c7-912e-7a3cd32f5c99","ios":"levelo://app?vid=967ac7f1-f7bb-46c7-912e-7a3cd32f5c99"},"vehicle_type_id":"4","last_reported":1762359231,"current_range_meters":6800,"station_id":"ce4bhi12rcd13ifvqfq0","pricing_plan_id":"cebpf4jnsgd1na2vs0mg"},{"bike_id":"6c1bb363-47c0-42dc-8a3e-4d1a73ad3d9a","system_id":"levelo_inurba_marseille","lat":43.289276,"lon":5.383989,"is_reserved":false,"is_disabled":false,"rental_uris":{"android":"levelo://app?vid=6c1bb363-47c0-42dc-8a3e-4d1a73ad3d9a","ios":"levelo://app?vid=6c1bb363-47c0-42dc-8a3e-4d1a73ad3d9a"},"vehicle_type_id":"4","last_reported":1762359231,"current_range_meters":6800,"station_id":"ce4bh612rcd13ifvqe6g","pricing_plan_id":"cebpf4jnsgd1na2vs0mg"},{"bike_id":"ca027186-72c6-4358-8d7a-70b219e6273a","system_id":"levelo_inurba_marseille","lat":43.35096,"lon":5.38093,"is_reserved":false,"is_disabled":false,"rental_uris":{"android":"levelo://app?vid=ca027186-72c6-4358-8d7a-70b219e6273a","ios":"levelo://app?vid=ca027186-72c6-4358-8d7a-70b219e6273a"},"vehicle_type_id":"4","last_reported":1762359231,"current_range_meters":7200,"station_id":"","pricing_plan_id":"cebpf4jnsgd1na2vs0mg"},{"bike_id":"654dc482-8458-4686-a09b-a5e21a822232","system_id":"levelo_inurba_marseille","lat":43.23193,"lon":5.35563,"is_reserved":false,"is_disabled":true,"rental_uris":{"android":"levelo://app?vid=654dc482-8458-4686-a09b-a5e21a822232","ios":"levelo://app?vid=654dc482-8458-4686-a09b-a5e21a822232"},"vehicle_type_id":"4","last_reported":1762359231,"current_range_meters":7200,"station_id":"ce4bhu92rcd13ifvqi70","pricing_plan_id":"cebpf4jnsgd1na2vs0mg"},{"bike_id":"5abe94bb-e835-4867-b5ca-f4f4deecc6bb","system_id":"levelo_inurba_marseille","lat":43.24179,"lon":5.39725,"is_reserved":false,"is_disabled":false,"rental_uris":{"android":"levelo://app?vid=5abe94bb-e835-4867-b5ca-f4f4deecc6bb","ios":"levelo://app?vid=5abe94bb-e835-4867-b5ca-f4f4deecc6bb"},"vehicle_type_id":"4","last_reported":1762359231,"current_range_meters":7200,"station_id":"ce4bhn12rcd13ifvqgpg","pricing_plan_id":"cebpf4jnsgd1na2vs0mg"},{"bike_id":"97d1c492-4fb3-49d3-801b-9e74a51b1440","system_id":"levelo_inurba_marseille","lat":43.25506,"lon":5.37697,"is_reserved":false,"is_disabled":false,"rental_uris":{"android":"levelo://app?vid=97d1c492-4fb3-49d3-801b-9e74a51b1440","ios":"levelo://app?vid=97d1c492-4fb3-49d3-801b-9e74a51b1440"},"vehicle_type_id":"4","last_reported":1762359231,"current_range_meters":8000,"station_id":"ce4bhh12rcd13ifvqff0","pricing_plan_id":"cebpf4jnsgd1na2vs0mg"},{"bike_id":"a03b07b4-9426-4718-9414-8e444798b7d9","system_id":"levelo_inurba_marseille","lat":43.29195,"lon":5.39313,"is_reserved":false,"is_disabled":false,"rental_uris":{"android":"levelo://app?vid=a03b07b4-9426-4718-9414-8e444798b7d9","ios":"levelo://app?vid=a03b07b4-9426-4718-9414-8e444798b7d9"},"vehicle_type_id":"4","last_reported":1762359231,"current_range_meters":8000,"station_id":"ce4bh192rcd13ifvqdd0","pricing_plan_id":"cebpf4jnsgd1na2vs0mg"},{"bike_id":"7c572724-d246-444c-a818-2550f93cae1a","system_id":"levelo_inurba_marseille","lat":43.28823,"lon":5.38619,"is_reserved":false,"is_disabled":false,"rental_uris":{"android":"levelo://app?vid=7c572724-d246-444c-a818-2550f93cae1a","ios":"levelo://app?vid=7c572724-d246-444c-a818-2550f93cae1a"},"vehicle_type_id":"4","last_reported":1762359231,"current_range_meters":8000,"station_id":"","pricing_plan_id":"cebpf4jnsgd1na2vs0mg"},{"bike_id":"b77179df-9d6e-4ca7-a061-90cf324de8a0","system_id":"levelo_inurba_marseille","lat":43.29437,"lon":5.3975,"is_reserved":false,"is_disabled":false,"rental_uris":{"android":"levelo://app?vid=b77179df-9d6e-4ca7-a061-90cf324de8a0","ios":"levelo://app?vid=b77179df-9d6e-4ca7-a061-90cf324de8a0"},"vehicle_type_id":"4","last_reported":1762359231,"current_range_meters":8000,"station_id":"ce4bh3h2rcd13ifvqdo0","pricing_plan_id":"cebpf4jnsgd1na2vs0mg"},{"bike_id":"8625fd71-52f7-4d25-987b-6e76164035a5","system_id":"levelo_inurba_marseille","lat":43.307839,"lon":5.405432,"is_reserved":false,"is_disabled":false,"rental_uris":{"android":"levelo://app?vid=8625fd71-52f7-4d25-987b-6e76164035a5","ios":"levelo://app?vid=8625fd71-52f7-4d25-987b-6e76164035a5"},"vehicle_type_id":"4","last_reported":1762359231,"current_range_meters":8000,"station_id":"","pricing_plan_id":"cebpf4jnsgd1na2vs0mg"},{"bike_id":"f842f661-e0b9-4ed7-9590-2fd2f10216f5","system_id":"levelo_inurba_marseille","lat":43.32378,"lon":5.36785,"is_reserved":false,"is_disabled":false,"rental_uris":{"android":"levelo://app?vid=f842f661-e0b9-4ed7-9590-2fd2f10216f5","ios":"levelo://app?vid=f842f661-e0b9-4ed7-9590-2fd2f10216f5"},"vehicle_type_id":"4","last_reported":1762359231,"current_range_meters":8000,"station_id":"ce4bhsh2rcd13ifvqi2g","pricing_plan_id":"cebpf4jnsgd1na2vs0mg"},{"bike_id":"e3c17956-ea0f-43ae-865d-f8df81b9ddf8","system_id":"levelo_inurba_marseille","lat":43.26805,"lon":5.40267,"is_reserved":false,"is_disabled":false,"rental_uris":{"android":"levelo://app?vid=e3c17956-ea0f-43ae-865d-f8df81b9ddf8","ios":"levelo://app?vid=e3c17956-ea0f-43ae-865d-f8df81b9ddf8"},"vehicle_type_id":"4","last_reported":1762359231,"current_range_meters":8000,"station_id":"ce501612rcd8frsf0b60","pricing_plan_id":"cebpf4jnsgd1na2vs0mg"},{"bike_id":"43b6b911-927b-412d-9f35-b3335029a8dd","system_id":"levelo_inurba_marseille","lat":43.312759,"lon":5.401662,"is_reserved":false,"is_disabled":false,"rental_uris":{"android":"levelo://app?vid=43b6b911-927b-412d-9f35-b3335029a8dd","ios":"levelo://app?vid=43b6b911-927b-412d-9f35-b3335029a8dd"},"vehicle_type_id":"4","last_reported":1762359231,"current_range_meters":8000,"station_id":"ce4bh092rcd13ifvqd30","pricing_plan_id":"cebpf4jnsgd1na2vs0mg"},{"bike_id":"795ee997-64fc-42f7-bb44-5c4e9ac7730c","system_id":"levelo_inurba_marseille","lat":43.248077,"lon":5.374595,"is_reserved":false,"is_disabled":false,"rental_uris":{"android":"levelo://app?vid=795ee997-64fc-42f7-bb44-5c4e9ac7730c","ios":"levelo://app?vid=795ee997-64fc-42f7-bb44-5c4e9ac7730c"},"vehicle_type_id":"4","last_reported":1762359231,"current_range_meters":8400,"station_id":"ce4bhgh2rcd13ifvqfb0","pricing_plan_id":"cebpf4jnsgd1na2vs0mg"},{"bike_id":"5e6b5e6b-9f8a-43ab-9eb8-b69e41a6c1e6","system_id":"levelo_inurba_marseille","lat":43.225298,"lon":5.348365,"is_reserved":false,"is_disabled":false,"rental_uris":{"android":"levelo://app?vid=5e6b5e6b-9f8a-43ab-9eb8-b69e41a6c1e6","ios":"levelo://app?vid=5e6b5e6b-9f8a-43ab-9eb8-b69e41a6c1e6"},"vehicle_type_id":"4","last_reported":1762359231,"current_range_meters":8400,"station_id":"","pricing_plan_id":"cebpf4jnsgd1na2vs0mg"},{"bike_id":"19ae79ba-439f-44d2-9a61-82b61bd51fc1","system_id":"levelo_inurba_marseille","lat":43.29547,"lon":5.4228,"is_reserved":false,"is_disabled":false,"rental_uris":{"android":"levelo://app?vid=19ae79ba-439f-44d2-9a61-82b61bd51fc1","ios":"levelo://app?vid=19ae79ba-439f-44d2-9a61-82b61bd51fc1"},"vehicle_type_id":"4","last_reported":1762359231,"current_range_meters":8400,"station_id":"ce4bhph2rcd13ifvqhdg","pricing_plan_id":"cebpf4jnsgd1na2vs0mg"},{"bike_id":"47de9693-398c-4078-bb2e-bf0d38c76c57","system_id":"levelo_inurba_marseille","lat":43.28997,"lon":5.39038,"is_reserved":false,"is_disabled":false,"rental_uris":{"android":"levelo://app?vid=47de9693-398c-4078-bb2e-bf0d38c76c57","ios":"levelo://app?vid=47de9693-398c-4078-bb2e-bf0d38c76c57"},"vehicle_type_id":"4","last_reported":1762359231,"current_range_meters":8400,"station_id":"","pricing_plan_id":"cebpf4jnsgd1na2vs0mg"},{"bike_id":"c7173e1f-51a6-40ff-979f-aca44a8cad2b","system_id":"levelo_inurba_marseille","lat":43.266815,"lon":5.38284,"is_reserved":false,"is_disabled":false,"rental_uris":{"android":"levelo://app?vid=c7173e1f-51a6-40ff-979f-aca44a8cad2b","ios":"levelo://app?vid=c7173e1f-51a6-40ff-979f-aca44a8cad2b"},"vehicle_type_id":"4","last_reported":1762359231,"current_range_meters":8400,"station_id":"ce4bhbh2rcd13ifvqeqg","pricing_plan_id":"cebpf4jnsgd1na2vs0mg"},{"bike_id":"eed78698-4705-4f36-b1cc-c3cc31682f5d","system_id":"levelo_inurba_marseille","lat":43.33416,"lon":5.41953,"is_reserved":false,"is_disabled":false,"rental_uris":{"android":"levelo://app?vid=eed78698-4705-4f36-b1cc-c3cc31682f5d","ios":"levelo://app?vid=eed78698-4705-4f36-b1cc-c3cc31682f5d"},"vehicle_type_id":"4","last_reported":1762359231,"current_range_meters":8400,"station_id":"","pricing_plan_id":"cebpf4jnsgd1na2vs0mg"},{"bike_id":"ad483091-7411-4e16-8cc4-09042e8161f5","system_id":"levelo_inurba_marseille","lat":43.273468,"lon":5.385179,"is_reserved":false,"is_disabled":true,"rental_uris":{"android":"levelo://app?vid=ad483091-7411-4e16-8cc4-09042e8161f5","ios":"levelo://app?vid=ad483091-7411-4e16-8cc4-09042e8161f5"},"vehicle_type_id":"4","last_reported":1762359231,"current_range_meters":8400,"station_id":"","pricing_plan_id":"cebpf4jnsgd1na2vs0mg"},{"bike_id":"b59030ea-b465-4478-a3aa-14408f825ffe","system_id":"levelo_inurba_marseille","lat":43.26069,"lon":5.39397,"is_reserved":false,"is_disabled":false,"rental_uris":{"android":"levelo://app?vid=b59030ea-b465-4478-a3aa-14408f825ffe","ios":"levelo://app?vid=b59030ea-b465-4478-a3aa-14408f825ffe"},"vehicle_type_id":"4","last_reported":1762359231,"current_range_meters":8400,"station_id":"ce4bhh92rcd13ifvqfj0","pricing_plan_id":"cebpf4jnsgd1na2vs0mg"},{"bike_id":"0d1cf7fc-812d-42ba-98d8-72588644b45f","system_id":"levelo_inurba_marseille","lat":43.30448,"lon":5.38887,"is_reserved":false,"is_disabled":false,"rental_uris":{"android":"levelo://app?vid=0d1cf7fc-812d-42ba-98d8-72588644b45f","ios":"levelo://app?vid=0d1cf7fc-812d-42ba-98d8-72588644b45f"},"vehicle_type_id":"4","last_reported":1762359231,"current_range_meters":8400,"station_id":"ce4bgk12rcd13ifvqbi0","pricing_plan_id":"cebpf4jnsgd1na2vs0mg"},{"bike_id":"80bc9ddf-45a6-4e95-82cb-d359b21f97c0","system_id":"levelo_inurba_marseille","lat":43.229797,"lon":5.354381,"is_reserved":false,"is_disabled":false,"rental_uris":{"android":"levelo://app?vid=80bc9ddf-45a6-4e95-82cb-d359b21f97c0","ios":"levelo://app?vid=80bc9ddf-45a6-4e95-82cb-d359b21f97c0"},"vehicle_type_id":"4","last_reported":1762359231,"current_range_meters":8800,"station_id":"ce4bhoh2rcd13ifvqh6g","pricing_plan_id":"cebpf4jnsgd1na2vs0mg"},{"bike_id":"f7a192fe-ecfa-451f-8d3a-3c4f39209fc4","system_id":"levelo_inurba_marseille","lat":43.32368,"lon":5.38886,"is_reserved":false,"is_disabled":false,"rental_uris":{"android":"levelo://app?vid=f7a192fe-ecfa-451f-8d3a-3c4f39209fc4","ios":"levelo://app?vid=f7a192fe-ecfa-451f-8d3a-3c4f39209fc4"},"vehicle_type_id":"4","last_reported":1762359231,"current_range_meters":8800,"station_id":"ce4bhqp2rcd13ifvqhog","pricing_plan_id":"cebpf4jnsgd1na2vs0mg"},{"bike_id":"3118b448-8017-4b01-8e4a-47c2b3d49f0e","system_id":"levelo_inurba_marseille","lat":43.262267,"lon":5.404527,"is_reserved":false,"is_disabled":false,"rental_uris":{"android":"levelo://app?vid=3118b448-8017-4b01-8e4a-47c2b3d49f0e","ios":"levelo://app?vid=3118b448-8017-4b01-8e4a-47c2b3d49f0e"},"vehicle_type_id":"4","last_reported":1762359231,"current_range_meters":8800,"station_id":"ce4bhmh2rcd13ifvqgmg","pricing_plan_id":"cebpf4jnsgd1na2vs0mg"},{"bike_id":"40967d9e-57e4-4b7e-a9ff-a3d6de543c56","system_id":"levelo_inurba_marseille","lat":43.28079,"lon":5.39675,"is_reserved":false,"is_disabled":false,"rental_uris":{"android":"levelo://app?vid=40967d9e-57e4-4b7e-a9ff-a3d6de543c56","ios":"levelo://app?vid=40967d9e-57e4-4b7e-a9ff-a3d6de543c56"},"vehicle_type_id":"4","last_reported":1762359231,"current_range_meters":8800,"station_id":"ce4bho12rcd13ifvqh2g","pricing_plan_id":"cebpf4jnsgd1na2vs0mg"},{"bike_id":"cd9c6c8f-813a-4b2c-b0c7-7a3265cb2fa0","system_id":"levelo_inurba_marseille","lat":43.242284,"lon":5.39324,"is_reserved":false,"is_disabled":false,"rental_uris":{"android":"levelo://app?vid=cd9c6c8f-813a-4b2c-b0c7-7a3265cb2fa0","ios":"levelo://app?vid=cd9c6c8f-813a-4b2c-b0c7-7a3265cb2fa0"},"vehicle_type_id":"4","last_reported":1762359231,"current_range_meters":9200,"station_id":"","pricing_plan_id":"cebpf4jnsgd1na2vs0mg"},{"bike_id":"688d836e-a3cb-4196-836d-41e8ea21366f","system_id":"levelo_inurba_marseille","lat":43.26943,"lon":5.40255,"is_reserved":false,"is_disabled":false,"rental_uris":{"android":"levelo://app?vid=688d836e-a3cb-4196-836d-41e8ea21366f","ios":"levelo://app?vid=688d836e-a3cb-4196-836d-41e8ea21366f"},"vehicle_type_id":"4","last_reported":1762359231,"current_range_meters":9200,"station_id":"cjm6bp8fraef2m0cb0m0","pricing_plan_id":"cebpf4jnsgd1na2vs0mg"},{"bike_id":"10e60007-c492-4433-804a-dcf2a78794e8","system_id":"levelo_inurba_marseille","lat":43.241796,"lon":5.397288,"is_reserved":false,"is_disabled":false,"rental_uris":{"android":"levelo://app?vid=10e60007-c492-4433-804a-dcf2a78794e8","ios":"levelo://app?vid=10e60007-c492-4433-804a-dcf2a78794e8"},"vehicle_type_id":"4","last_reported":1762359231,"current_range_meters":9200,"station_id":"ce4bhn12rcd13ifvqgpg","pricing_plan_id":"cebpf4jnsgd1na2vs0mg"},{"bike_id":"36dadbf7-a228-4f6f-8b08-391008b68693","system_id":"levelo_inurba_marseille","lat":43.34557,"lon":5.36836,"is_reserved":false,"is_disabled":false,"rental_uris":{"android":"levelo://app?vid=36dadbf7-a228-4f6f-8b08-391008b68693","ios":"levelo://app?vid=36dadbf7-a228-4f6f-8b08-391008b68693"},"vehicle_type_id":"4","last_reported":1762359231,"current_range_meters":9600,"station_id":"","pricing_plan_id":"cebpf4jnsgd1na2vs0mg"},{"bike_id":"bab9a936-2695-4ad2-8c32-11084ec98934","system_id":"levelo_inurba_marseille","lat":43.284866,"lon":5.385701,"is_reserved":false,"is_disabled":false,"rental_uris":{"android":"levelo://app?vid=bab9a936-2695-4ad2-8c32-11084ec98934","ios":"levelo://app?vid=bab9a936-2695-4ad2-8c32-11084ec98934"},"vehicle_type_id":"4","last_reported":1762359231,"current_range_meters":9600,"station_id":"ce4bh8p2rcd13ifvqeb0","pricing_plan_id":"cebpf4jnsgd1na2vs0mg"},{"bike_id":"a17dfec4-40ab-4500-ab5b-389439192320","system_id":"levelo_inurba_marseille","lat":43.24648,"lon":5.38894,"is_reserved":false,"is_disabled":false,"rental_uris":{"android":"levelo://app?vid=a17dfec4-40ab-4500-ab5b-389439192320","ios":"levelo://app?vid=a17dfec4-40ab-4500-ab5b-389439192320"},"vehicle_type_id":"4","last_reported":1762359231,"current_range_meters":9600,"station_id":"ce4bhg12rcd13ifvqf60","pricing_plan_id":"cebpf4jnsgd1na2vs0mg"},{"bike_id":"0504d02a-90f5-4108-bd4e-05789c138fd8","system_id":"levelo_inurba_marseille","lat":43.24546,"lon":5.39525,"is_reserved":false,"is_disabled":false,"rental_uris":{"android":"levelo://app?vid=0504d02a-90f5-4108-bd4e-05789c138fd8","ios":"levelo://app?vid=0504d02a-90f5-4108-bd4e-05789c138fd8"},"vehicle_type_id":"4","last_reported":1762359231,"current_range_meters":9600,"station_id":"ce4bhlp2rcd13ifvqgjg","pricing_plan_id":"cebpf4jnsgd1na2vs0mg"},{"bike_id":"ea4f4b84-78b0-4180-a7f8-ecb8c6182713","system_id":"levelo_inurba_marseille","lat":43.2953,"lon":5.36104,"is_reserved":false,"is_disabled":true,"rental_uris":{"android":"levelo://app?vid=ea4f4b84-78b0-4180-a7f8-ecb8c6182713","ios":"levelo://app?vid=ea4f4b84-78b0-4180-a7f8-ecb8c6182713"},"vehicle_type_id":"4","last_reported":1762359231,"current_range_meters":9600,"station_id":"","pricing_plan_id":"cebpf4jnsgd1na2vs0mg"},{"bike_id":"0bd1e355-6edc-4daf-a160-42959de10f7d","system_id":"levelo_inurba_marseille","lat":43.28406,"lon":5.37514,"is_reserved":false,"is_disabled":false,"rental_uris":{"android":"levelo://app?vid=0bd1e355-6edc-4daf-a160-42959de10f7d","ios":"levelo://app?vid=0bd1e355-6edc-4daf-a160-42959de10f7d"},"vehicle_type_id":"4","last_reported":1762359231,"current_range_meters":9600,"station_id":"ce4bh412rcd13ifvqds0","pricing_plan_id":"cebpf4jnsgd1na2vs0mg"},{"bike_id":"7479cfee-6f68-4a59-afc8-ceca6b83dba4","system_id":"levelo_inurba_marseille","lat":43.25563,"lon":5.38241,"is_reserved":false,"is_disabled":false,"rental_uris":{"android":"levelo://app?vid=7479cfee-6f68-4a59-afc8-ceca6b83dba4","ios":"levelo://app?vid=7479cfee-6f68-4a59-afc8-ceca6b83dba4"},"vehicle_type_id":"4","last_reported":1762359231,"current_range_meters":10000,"station_id":"ce4bhih2rcd13ifvqfs0","pricing_plan_id":"cebpf4jnsgd1na2vs0mg"},{"bike_id":"5c929592-6f0d-456a-8dda-191451d3b627","system_id":"levelo_inurba_marseille","lat":43.30887,"lon":5.39666,"is_reserved":false,"is_disabled":false,"rental_uris":{"android":"levelo://app?vid=5c929592-6f0d-456a-8dda-191451d3b627","ios":"levelo://app?vid=5c929592-6f0d-456a-8dda-191451d3b627"},"vehicle_type_id":"4","last_reported":1762359231,"current_range_meters":10000,"station_id":"ce4bh012rcd13ifvqcv0","pricing_plan_id":"cebpf4jnsgd1na2vs0mg"},{"bike_id":"b5f953b8-0b23-4a53-85d8-d39eab8e6c05","system_id":"levelo_inurba_marseille","lat":43.30313,"lon":5.36896,"is_reserved":false,"is_disabled":false,"rental_uris":{"android":"levelo://app?vid=b5f953b8-0b23-4a53-85d8-d39eab8e6c05","ios":"levelo://app?vid=b5f953b8-0b23-4a53-85d8-d39eab8e6c05"},"vehicle_type_id":"4","last_reported":1762359231,"current_range_meters":10000,"station_id":"ce4bgqh2rcd13ifvqc5g","pricing_plan_id":"cebpf4jnsgd1na2vs0mg"},{"bike_id":"3519c411-5975-4168-a12c-bebd5e99691e","system_id":"levelo_inurba_marseille","lat":43.23194,"lon":5.35549,"is_reserved":false,"is_disabled":false,"rental_uris":{"android":"levelo://app?vid=3519c411-5975-4168-a12c-bebd5e99691e","ios":"levelo://app?vid=3519c411-5975-4168-a12c-bebd5e99691e"},"vehicle_type_id":"4","last_reported":1762359231,"current_range_meters":10000,"station_id":"ce4bhu92rcd13ifvqi70","pricing_plan_id":"cebpf4jnsgd1na2vs0mg"},{"bike_id":"4061f0e1-aacc-4d2b-8c5c-31fc41e5ac30","system_id":"levelo_inurba_marseille","lat":43.23968,"lon":5.36632,"is_reserved":false,"is_disabled":false,"rental_uris":{"android":"levelo://app?vid=4061f0e1-aacc-4d2b-8c5c-31fc41e5ac30","ios":"levelo://app?vid=4061f0e1-aacc-4d2b-8c5c-31fc41e5ac30"},"vehicle_type_id":"4","last_reported":1762359231,"current_range_meters":10000,"station_id":"ce4bhi12rcd13ifvqfp0","pricing_plan_id":"cebpf4jnsgd1na2vs0mg"},{"bike_id":"a3510842-29cd-4ec3-9995-fdc06c1ac630","system_id":"levelo_inurba_marseille","lat":43.30605,"lon":5.3723,"is_reserved":false,"is_disabled":false,"rental_uris":{"android":"levelo://app?vid=a3510842-29cd-4ec3-9995-fdc06c1ac630","ios":"levelo://app?vid=a3510842-29cd-4ec3-9995-fdc06c1ac630"},"vehicle_type_id":"4","last_reported":1762359231,"current_range_meters":10000,"station_id":"ce4bgqh2rcd13ifvqc4g","pricing_plan_id":"cebpf4jnsgd1na2vs0mg"},{"bike_id":"a2a116fc-7b5e-4e53-86ec-7d8ff2d9e6fb","system_id":"levelo_inurba_marseille","lat":43.31328,"lon":5.39696,"is_reserved":false,"is_disabled":false,"rental_uris":{"android":"levelo://app?vid=a2a116fc-7b5e-4e53-86ec-7d8ff2d9e6fb","ios":"levelo://app?vid=a2a116fc-7b5e-4e53-86ec-7d8ff2d9e6fb"},"vehicle_type_id":"4","last_reported":1762359231,"current_range_meters":10800,"station_id":"ce4bgvp2rcd13ifvqcu0","pricing_plan_id":"cebpf4jnsgd1na2vs0mg"},{"bike_id":"02c565c9-e1be-4475-b1a9-b37751cdb830","system_id":"levelo_inurba_marseille","lat":43.34368,"lon":5.34912,"is_reserved":false,"is_disabled":false,"rental_uris":{"android":"levelo://app?vid=02c565c9-e1be-4475-b1a9-b37751cdb830","ios":"levelo://app?vid=02c565c9-e1be-4475-b1a9-b37751cdb830"},"vehicle_type_id":"4","last_reported":1762359231,"current_range_meters":10800,"station_id":"","pricing_plan_id":"cebpf4jnsgd1na2vs0mg"},{"bike_id":"a4f522e7-c43d-4637-8718-9ec38a586f80","system_id":"levelo_inurba_marseille","lat":43.30434,"lon":5.39759,"is_reserved":false,"is_disabled":false,"rental_uris":{"android":"levelo://app?vid=a4f522e7-c43d-4637-8718-9ec38a586f80","ios":"levelo://app?vid=a4f522e7-c43d-4637-8718-9ec38a586f80"},"vehicle_type_id":"4","last_reported":1762359231,"current_range_meters":10800,"station_id":"ce4bh092rcd13ifvqd20","pricing_plan_id":"cebpf4jnsgd1na2vs0mg"},{"bike_id":"9c4d7ae9-4e19-4827-bfb5-16f23ff8a492","system_id":"levelo_inurba_marseille","lat":43.29906,"lon":5.37474,"is_reserved":false,"is_disabled":false,"rental_uris":{"android":"levelo://app?vid=9c4d7ae9-4e19-4827-bfb5-16f23ff8a492","ios":"levelo://app?vid=9c4d7ae9-4e19-4827-bfb5-16f23ff8a492"},"vehicle_type_id":"4","last_reported":1762359231,"current_range_meters":10800,"station_id":"ce4bgjh2rcd13ifvqbg0","pricing_plan_id":"cebpf4jnsgd1na2vs0mg"},{"bike_id":"e7002296-a724-4792-9c77-9aa7da662e7d","system_id":"levelo_inurba_marseille","lat":43.29752,"lon":5.36248,"is_reserved":false,"is_disabled":false,"rental_uris":{"android":"levelo://app?vid=e7002296-a724-4792-9c77-9aa7da662e7d","ios":"levelo://app?vid=e7002296-a724-4792-9c77-9aa7da662e7d"},"vehicle_type_id":"4","last_reported":1762359231,"current_range_meters":10800,"station_id":"","pricing_plan_id":"cebpf4jnsgd1na2vs0mg"},{"bike_id":"3ffe46e4-4ab2-42c7-a5bf-f088feeab9fc","system_id":"levelo_inurba_marseille","lat":43.30794,"lon":5.3765,"is_reserved":false,"is_disabled":false,"rental_uris":{"android":"levelo://app?vid=3ffe46e4-4ab2-42c7-a5bf-f088feeab9fc","ios":"levelo://app?vid=3ffe46e4-4ab2-42c7-a5bf-f088feeab9fc"},"vehicle_type_id":"4","last_reported":1762359231,"current_range_meters":10800,"station_id":"ce4bgv92rcd13ifvqcq0","pricing_plan_id":"cebpf4jnsgd1na2vs0mg"},{"bike_id":"4b24dbba-41a5-4ecf-ade9-ac15d69f3a39","system_id":"levelo_inurba_marseille","lat":43.30277,"lon":5.37689,"is_reserved":false,"is_disabled":false,"rental_uris":{"android":"levelo://app?vid=4b24dbba-41a5-4ecf-ade9-ac15d69f3a39","ios":"levelo://app?vid=4b24dbba-41a5-4ecf-ade9-ac15d69f3a39"},"vehicle_type_id":"4","last_reported":1762359231,"current_range_meters":11200,"station_id":"ce4bguh2rcd13ifvqcj0","pricing_plan_id":"cebpf4jnsgd1na2vs0mg"},{"bike_id":"dceb4beb-6bb5-4225-ae7e-d3c4b9815bbe","system_id":"levelo_inurba_marseille","lat":43.28481,"lon":5.48404,"is_reserved":false,"is_disabled":false,"rental_uris":{"android":"levelo://app?vid=dceb4beb-6bb5-4225-ae7e-d3c4b9815bbe","ios":"levelo://app?vid=dceb4beb-6bb5-4225-ae7e-d3c4b9815bbe"},"vehicle_type_id":"4","last_reported":1762359231,"current_range_meters":11200,"station_id":"st_d3svhcjqgbts73a3dn0g","pricing_plan_id":"cebpf4jnsgd1na2vs0mg"},{"bike_id":"cf30e3ea-f99e-4bd5-baf6-f2bc7e56f5d1","system_id":"levelo_inurba_marseille","lat":43.30802,"lon":5.38152,"is_reserved":false,"is_disabled":false,"rental_uris":{"android":"levelo://app?vid=cf30e3ea-f99e-4bd5-baf6-f2bc7e56f5d1","ios":"levelo://app?vid=cf30e3ea-f99e-4bd5-baf6-f2bc7e56f5d1"},"vehicle_type_id":"4","last_reported":1762359231,"current_range_meters":11200,"station_id":"ce4bgt12rcd13ifvqce0","pricing_plan_id":"cebpf4jnsgd1na2vs0mg"},{"bike_id":"a83ec8b9-c0ea-4ae8-974c-cc57ab5c361b","system_id":"levelo_inurba_marseille","lat":43.217513,"lon":5.346036,"is_reserved":false,"is_disabled":false,"rental_uris":{"android":"levelo://app?vid=a83ec8b9-c0ea-4ae8-974c-cc57ab5c361b","ios":"levelo://app?vid=a83ec8b9-c0ea-4ae8-974c-cc57ab5c361b"},"vehicle_type_id":"4","last_reported":1762359231,"current_range_meters":11200,"station_id":"ce4bhh92rcd13ifvqfi0","pricing_plan_id":"cebpf4jnsgd1na2vs0mg"},{"bike_id":"7e8da862-2af0-47cd-9267-b7b5a54bf28d","system_id":"levelo_inurba_marseille","lat":43.22927,"lon":5.35379,"is_reserved":false,"is_disabled":false,"rental_uris":{"android":"levelo://app?vid=7e8da862-2af0-47cd-9267-b7b5a54bf28d","ios":"levelo://app?vid=7e8da862-2af0-47cd-9267-b7b5a54bf28d"},"vehicle_type_id":"4","last_reported":1762359231,"current_range_meters":11200,"station_id":"cpo3532slgdg3j2ikp40","pricing_plan_id":"cebpf4jnsgd1na2vs0mg"},{"bike_id":"765b9661-2b24-4c0f-a9fb-732d7409b10c","system_id":"levelo_inurba_marseille","lat":43.21624,"lon":5.34432,"is_reserved":false,"is_disabled":false,"rental_uris":{"android":"levelo://app?vid=765b9661-2b24-4c0f-a9fb-732d7409b10c","ios":"levelo://app?vid=765b9661-2b24-4c0f-a9fb-732d7409b10c"},"vehicle_type_id":"4","last_reported":1762359231,"current_range_meters":11200,"station_id":"","pricing_plan_id":"cebpf4jnsgd1na2vs0mg"},{"bike_id":"7c8c77e6-611f-4f5e-8374-da326e1729a3","system_id":"levelo_inurba_marseille","lat":43.29808,"lon":5.44063,"is_reserved":false,"is_disabled":false,"rental_uris":{"android":"levelo://app?vid=7c8c77e6-611f-4f5e-8374-da326e1729a3","ios":"levelo://app?vid=7c8c77e6-611f-4f5e-8374-da326e1729a3"},"vehicle_type_id":"4","last_reported":1762359231,"current_range_meters":11200,"station_id":"st_d3jp68qikq2c7381ktn0","pricing_plan_id":"cebpf4jnsgd1na2vs0mg"},{"bike_id":"92f1987a-55b8-4d4f-b4b6-cdbfa4658be9","system_id":"levelo_inurba_marseille","lat":43.32448,"lon":5.36575,"is_reserved":false,"is_disabled":false,"rental_uris":{"android":"levelo://app?vid=92f1987a-55b8-4d4f-b4b6-cdbfa4658be9","ios":"levelo://app?vid=92f1987a-55b8-4d4f-b4b6-cdbfa4658be9"},"vehicle_type_id":"4","last_reported":1762359231,"current_range_meters":11200,"station_id":"ce4bhs12rcd13ifvqhvg","pricing_plan_id":"cebpf4jnsgd1na2vs0mg"},{"bike_id":"aa810d40-2a58-4495-a063-a01ce41fc515","system_id":"levelo_inurba_marseille","lat":43.29899,"lon":5.37483,"is_reserved":false,"is_disabled":false,"rental_uris":{"android":"levelo://app?vid=aa810d40-2a58-4495-a063-a01ce41fc515","ios":"levelo://app?vid=aa810d40-2a58-4495-a063-a01ce41fc515"},"vehicle_type_id":"4","last_reported":1762359231,"current_range_meters":11200,"station_id":"ce4bgjh2rcd13ifvqbg0","pricing_plan_id":"cebpf4jnsgd1na2vs0mg"},{"bike_id":"359c0f3a-4e42-42b5-8ca9-4a59256db590","system_id":"levelo_inurba_marseille","lat":43.29268,"lon":5.38448,"is_reserved":false,"is_disabled":false,"rental_uris":{"android":"levelo://app?vid=359c0f3a-4e42-42b5-8ca9-4a59256db590","ios":"levelo://app?vid=359c0f3a-4e42-42b5-8ca9-4a59256db590"},"vehicle_type_id":"4","last_reported":1762359231,"current_range_meters":11600,"station_id":"ce4bh692rcd13ifvqea0","pricing_plan_id":"cebpf4jnsgd1na2vs0mg"},{"bike_id":"13c3ccaa-99d2-4685-a1fa-a15f41ed3f72","system_id":"levelo_inurba_marseille","lat":43.305554,"lon":5.365407,"is_reserved":false,"is_disabled":false,"rental_uris":{"android":"levelo://app?vid=13c3ccaa-99d2-4685-a1fa-a15f41ed3f72","ios":"levelo://app?vid=13c3ccaa-99d2-4685-a1fa-a15f41ed3f72"},"vehicle_type_id":"4","last_reported":1762359231,"current_range_meters":11600,"station_id":"ce4bgs12rcd13ifvqcag","pricing_plan_id":"cebpf4jnsgd1na2vs0mg"},{"bike_id":"e458a04e-8648-405c-ad83-b53d61f3e64a","system_id":"levelo_inurba_marseille","lat":43.22931,"lon":5.353842,"is_reserved":false,"is_disabled":false,"rental_uris":{"android":"levelo://app?vid=e458a04e-8648-405c-ad83-b53d61f3e64a","ios":"levelo://app?vid=e458a04e-8648-405c-ad83-b53d61f3e64a"},"vehicle_type_id":"4","last_reported":1762359231,"current_range_meters":12000,"station_id":"cpo3532slgdg3j2ikp40","pricing_plan_id":"cebpf4jnsgd1na2vs0mg"},{"bike_id":"e2104b6a-7e12-4a20-ae1b-cf4b446d5e26","system_id":"levelo_inurba_marseille","lat":43.28484,"lon":5.48398,"is_reserved":false,"is_disabled":false,"rental_uris":{"android":"levelo://app?vid=e2104b6a-7e12-4a20-ae1b-cf4b446d5e26","ios":"levelo://app?vid=e2104b6a-7e12-4a20-ae1b-cf4b446d5e26"},"vehicle_type_id":"4","last_reported":1762359231,"current_range_meters":12000,"station_id":"st_d3svhcjqgbts73a3dn0g","pricing_plan_id":"cebpf4jnsgd1na2vs0mg"},{"bike_id":"8f98e0e7-cde9-4b4d-8aa2-bc9bccf1c257","system_id":"levelo_inurba_marseille","lat":43.28721,"lon":5.379384,"is_reserved":false,"is_disabled":false,"rental_uris":{"android":"levelo://app?vid=8f98e0e7-cde9-4b4d-8aa2-bc9bccf1c257","ios":"levelo://app?vid=8f98e0e7-cde9-4b4d-8aa2-bc9bccf1c257"},"vehicle_type_id":"4","last_reported":1762359231,"current_range_meters":12000,"station_id":"ce4bh9p2rcd13ifvqec0","pricing_plan_id":"cebpf4jnsgd1na2vs0mg"},{"bike_id":"ac3661dd-248f-4b92-ad04-1fbf8e5c6660","system_id":"levelo_inurba_marseille","lat":43.28035,"lon":5.36946,"is_reserved":false,"is_disabled":true,"rental_uris":{"android":"levelo://app?vid=ac3661dd-248f-4b92-ad04-1fbf8e5c6660","ios":"levelo://app?vid=ac3661dd-248f-4b92-ad04-1fbf8e5c6660"},"vehicle_type_id":"4","last_reported":1762359231,"current_range_meters":12000,"station_id":"ce4bha12rcd13ifvqef0","pricing_plan_id":"cebpf4jnsgd1na2vs0mg"},{"bike_id":"66195177-304e-442a-a67d-1f54c419efa0","system_id":"levelo_inurba_marseille","lat":43.267584,"lon":5.394228,"is_reserved":false,"is_disabled":false,"rental_uris":{"android":"levelo://app?vid=66195177-304e-442a-a67d-1f54c419efa0","ios":"levelo://app?vid=66195177-304e-442a-a67d-1f54c419efa0"},"vehicle_type_id":"4","last_reported":1762359231,"current_range_meters":12400,"station_id":"ce4bhh12rcd13ifvqfg0","pricing_plan_id":"cebpf4jnsgd1na2vs0mg"},{"bike_id":"8f5c5e28-dca5-4cf0-8947-a5cfbda88464","system_id":"levelo_inurba_marseille","lat":43.2317,"lon":5.40017,"is_reserved":false,"is_disabled":false,"rental_uris":{"android":"levelo://app?vid=8f5c5e28-dca5-4cf0-8947-a5cfbda88464","ios":"levelo://app?vid=8f5c5e28-dca5-4cf0-8947-a5cfbda88464"},"vehicle_type_id":"4","last_reported":1762359231,"current_range_meters":12400,"station_id":"ce4bhn12rcd13ifvqgqg","pricing_plan_id":"cebpf4jnsgd1na2vs0mg"},{"bike_id":"f7136861-bd5e-467c-9bb1-984472acf015","system_id":"levelo_inurba_marseille","lat":43.30466,"lon":5.37904,"is_reserved":false,"is_disabled":false,"rental_uris":{"android":"levelo://app?vid=f7136861-bd5e-467c-9bb1-984472acf015","ios":"levelo://app?vid=f7136861-bd5e-467c-9bb1-984472acf015"},"vehicle_type_id":"4","last_reported":1762359231,"current_range_meters":12400,"station_id":"ce4bgup2rcd13ifvqcn0","pricing_plan_id":"cebpf4jnsgd1na2vs0mg"},{"bike_id":"dae30738-204c-4787-a9b5-e056fa94e0c9","system_id":"levelo_inurba_marseille","lat":43.22572,"lon":5.41627,"is_reserved":false,"is_disabled":false,"rental_uris":{"android":"levelo://app?vid=dae30738-204c-4787-a9b5-e056fa94e0c9","ios":"levelo://app?vid=dae30738-204c-4787-a9b5-e056fa94e0c9"},"vehicle_type_id":"4","last_reported":1762359231,"current_range_meters":12400,"station_id":"st_d2o4gvlbi1j2169b742g","pricing_plan_id":"cebpf4jnsgd1na2vs0mg"},{"bike_id":"afc8c897-cdf2-4a49-b11a-0584135f611e","system_id":"levelo_inurba_marseille","lat":43.24546,"lon":5.39523,"is_reserved":false,"is_disabled":false,"rental_uris":{"android":"levelo://app?vid=afc8c897-cdf2-4a49-b11a-0584135f611e","ios":"levelo://app?vid=afc8c897-cdf2-4a49-b11a-0584135f611e"},"vehicle_type_id":"4","last_reported":1762359231,"current_range_meters":12400,"station_id":"ce4bhlp2rcd13ifvqgjg","pricing_plan_id":"cebpf4jnsgd1na2vs0mg"},{"bike_id":"6bb3c1ef-8a1e-4e3b-b568-46425bae0cb7","system_id":"levelo_inurba_marseille","lat":43.29796,"lon":5.39336,"is_reserved":false,"is_disabled":false,"rental_uris":{"android":"levelo://app?vid=6bb3c1ef-8a1e-4e3b-b568-46425bae0cb7","ios":"levelo://app?vid=6bb3c1ef-8a1e-4e3b-b568-46425bae0cb7"},"vehicle_type_id":"4","last_reported":1762359231,"current_range_meters":12400,"station_id":"chh1huq6cuj3fo74tm60","pricing_plan_id":"cebpf4jnsgd1na2vs0mg"},{"bike_id":"8f992860-685a-427f-b6d6-e40f2fc8faf5","system_id":"levelo_inurba_marseille","lat":43.256754,"lon":5.394848,"is_reserved":false,"is_disabled":false,"rental_uris":{"android":"levelo://app?vid=8f992860-685a-427f-b6d6-e40f2fc8faf5","ios":"levelo://app?vid=8f992860-685a-427f-b6d6-e40f2fc8faf5"},"vehicle_type_id":"4","last_reported":1762359231,"current_range_meters":12400,"station_id":"ce4bhip2rcd13ifvqft0","pricing_plan_id":"cebpf4jnsgd1na2vs0mg"},{"bike_id":"e858a06f-fba4-4666-b231-1b452f797d3f","system_id":"levelo_inurba_marseille","lat":43.284814,"lon":5.359453,"is_reserved":false,"is_disabled":false,"rental_uris":{"android":"levelo://app?vid=e858a06f-fba4-4666-b231-1b452f797d3f","ios":"levelo://app?vid=e858a06f-fba4-4666-b231-1b452f797d3f"},"vehicle_type_id":"4","last_reported":1762359231,"current_range_meters":12800,"station_id":"ce4bhah2rcd13ifvqei0","pricing_plan_id":"cebpf4jnsgd1na2vs0mg"},{"bike_id":"ab9b2bcc-ea75-449d-adbb-4add292d38c4","system_id":"levelo_inurba_marseille","lat":43.34056,"lon":5.38119,"is_reserved":false,"is_disabled":false,"rental_uris":{"android":"levelo://app?vid=ab9b2bcc-ea75-449d-adbb-4add292d38c4","ios":"levelo://app?vid=ab9b2bcc-ea75-449d-adbb-4add292d38c4"},"vehicle_type_id":"4","last_reported":1762359231,"current_range_meters":12800,"station_id":"","pricing_plan_id":"cebpf4jnsgd1na2vs0mg"},{"bike_id":"5fabf099-b828-4e06-bcc5-f1068fd0d1be","system_id":"levelo_inurba_marseille","lat":43.28231,"lon":5.39072,"is_reserved":false,"is_disabled":false,"rental_uris":{"android":"levelo://app?vid=5fabf099-b828-4e06-bcc5-f1068fd0d1be","ios":"levelo://app?vid=5fabf099-b828-4e06-bcc5-f1068fd0d1be"},"vehicle_type_id":"4","last_reported":1762359231,"current_range_meters":12800,"station_id":"ce4bhn92rcd13ifvqgsg","pricing_plan_id":"cebpf4jnsgd1na2vs0mg"},{"bike_id":"d0e358d0-2b7f-4690-bfeb-b519074127bb","system_id":"levelo_inurba_marseille","lat":43.25584,"lon":5.38246,"is_reserved":false,"is_disabled":false,"rental_uris":{"android":"levelo://app?vid=d0e358d0-2b7f-4690-bfeb-b519074127bb","ios":"levelo://app?vid=d0e358d0-2b7f-4690-bfeb-b519074127bb"},"vehicle_type_id":"4","last_reported":1762359231,"current_range_meters":12800,"station_id":"ce4bhih2rcd13ifvqfs0","pricing_plan_id":"cebpf4jnsgd1na2vs0mg"},{"bike_id":"879d958d-a506-45c4-943b-a2c3fa29f453","system_id":"levelo_inurba_marseille","lat":43.21187,"lon":5.35073,"is_reserved":false,"is_disabled":false,"rental_uris":{"android":"levelo://app?vid=879d958d-a506-45c4-943b-a2c3fa29f453","ios":"levelo://app?vid=879d958d-a506-45c4-943b-a2c3fa29f453"},"vehicle_type_id":"4","last_reported":1762359231,"current_range_meters":12800,"station_id":"st_cvj6sg6p6f1abm77japg","pricing_plan_id":"cebpf4jnsgd1na2vs0mg"},{"bike_id":"571bd3a6-912b-44a3-9841-50c558a61481","system_id":"levelo_inurba_marseille","lat":43.28122,"lon":5.40582,"is_reserved":false,"is_disabled":false,"rental_uris":{"android":"levelo://app?vid=571bd3a6-912b-44a3-9841-50c558a61481","ios":"levelo://app?vid=571bd3a6-912b-44a3-9841-50c558a61481"},"vehicle_type_id":"4","last_reported":1762359231,"current_range_meters":13600,"station_id":"","pricing_plan_id":"cebpf4jnsgd1na2vs0mg"},{"bike_id":"198173c2-3faf-4d4f-b7d8-9c6d9f4d4cf2","system_id":"levelo_inurba_marseille","lat":43.29306,"lon":5.3717,"is_reserved":false,"is_disabled":false,"rental_uris":{"android":"levelo://app?vid=198173c2-3faf-4d4f-b7d8-9c6d9f4d4cf2","ios":"levelo://app?vid=198173c2-3faf-4d4f-b7d8-9c6d9f4d4cf2"},"vehicle_type_id":"4","last_reported":1762359231,"current_range_meters":13600,"station_id":"ce4bgh92rcd13ifvqb40","pricing_plan_id":"cebpf4jnsgd1na2vs0mg"},{"bike_id":"b828d11a-c3d2-4a15-80f8-3b6a90b33f42","system_id":"levelo_inurba_marseille","lat":43.27338,"lon":5.3906,"is_reserved":false,"is_disabled":false,"rental_uris":{"android":"levelo://app?vid=b828d11a-c3d2-4a15-80f8-3b6a90b33f42","ios":"levelo://app?vid=b828d11a-c3d2-4a15-80f8-3b6a90b33f42"},"vehicle_type_id":"4","last_reported":1762359231,"current_range_meters":13600,"station_id":"ce4bhgp2rcd13ifvqfe0","pricing_plan_id":"cebpf4jnsgd1na2vs0mg"},{"bike_id":"6edaa430-e37a-4cc5-b572-2c09b5252b2c","system_id":"levelo_inurba_marseille","lat":43.323693,"lon":5.388809,"is_reserved":false,"is_disabled":false,"rental_uris":{"android":"levelo://app?vid=6edaa430-e37a-4cc5-b572-2c09b5252b2c","ios":"levelo://app?vid=6edaa430-e37a-4cc5-b572-2c09b5252b2c"},"vehicle_type_id":"4","last_reported":1762359231,"current_range_meters":14000,"station_id":"ce4bhqp2rcd13ifvqhog","pricing_plan_id":"cebpf4jnsgd1na2vs0mg"},{"bike_id":"025364ac-af1c-4a8f-a746-41b6adb6e7ca","system_id":"levelo_inurba_marseille","lat":43.28422,"lon":5.37517,"is_reserved":false,"is_disabled":false,"rental_uris":{"android":"levelo://app?vid=025364ac-af1c-4a8f-a746-41b6adb6e7ca","ios":"levelo://app?vid=025364ac-af1c-4a8f-a746-41b6adb6e7ca"},"vehicle_type_id":"4","last_reported":1762359231,"current_range_meters":14000,"station_id":"ce4bh412rcd13ifvqds0","pricing_plan_id":"cebpf4jnsgd1na2vs0mg"},{"bike_id":"94b06f3e-9c43-404e-899a-d1e48d6d7a76","system_id":"levelo_inurba_marseille","lat":43.287102,"lon":5.399967,"is_reserved":false,"is_disabled":false,"rental_uris":{"android":"levelo://app?vid=94b06f3e-9c43-404e-899a-d1e48d6d7a76","ios":"levelo://app?vid=94b06f3e-9c43-404e-899a-d1e48d6d7a76"},"vehicle_type_id":"4","last_reported":1762359231,"current_range_meters":14400,"station_id":"ce4bho92rcd13ifvqh3g","pricing_plan_id":"cebpf4jnsgd1na2vs0mg"},{"bike_id":"bcb3c39b-ec48-48ef-9eac-eb8b71840959","system_id":"levelo_inurba_marseille","lat":43.33757,"lon":5.37464,"is_reserved":false,"is_disabled":false,"rental_uris":{"android":"levelo://app?vid=bcb3c39b-ec48-48ef-9eac-eb8b71840959","ios":"levelo://app?vid=bcb3c39b-ec48-48ef-9eac-eb8b71840959"},"vehicle_type_id":"4","last_reported":1762359231,"current_range_meters":14400,"station_id":"","pricing_plan_id":"cebpf4jnsgd1na2vs0mg"},{"bike_id":"556a7d27-7918-4481-bac9-06e15a930c34","system_id":"levelo_inurba_marseille","lat":43.25338,"lon":5.42175,"is_reserved":false,"is_disabled":false,"rental_uris":{"android":"levelo://app?vid=556a7d27-7918-4481-bac9-06e15a930c34","ios":"levelo://app?vid=556a7d27-7918-4481-bac9-06e15a930c34"},"vehicle_type_id":"4","last_reported":1762359231,"current_range_meters":14400,"station_id":"st_d2m65c5bi1j21697t3ng","pricing_plan_id":"cebpf4jnsgd1na2vs0mg"},{"bike_id":"761b4093-e9a9-4035-8bc4-55a8ef848908","system_id":"levelo_inurba_marseille","lat":43.27635,"lon":5.36193,"is_reserved":false,"is_disabled":false,"rental_uris":{"android":"levelo://app?vid=761b4093-e9a9-4035-8bc4-55a8ef848908","ios":"levelo://app?vid=761b4093-e9a9-4035-8bc4-55a8ef848908"},"vehicle_type_id":"4","last_reported":1762359231,"current_range_meters":14400,"station_id":"","pricing_plan_id":"cebpf4jnsgd1na2vs0mg"},{"bike_id":"c14b70b2-98d4-4848-a2d9-32722b8d1daf","system_id":"levelo_inurba_marseille","lat":43.32092,"lon":5.36798,"is_reserved":false,"is_disabled":false,"rental_uris":{"android":"levelo://app?vid=c14b70b2-98d4-4848-a2d9-32722b8d1daf","ios":"levelo://app?vid=c14b70b2-98d4-4848-a2d9-32722b8d1daf"},"vehicle_type_id":"4","last_reported":1762359231,"current_range_meters":14400,"station_id":"ce4bhrh2rcd13ifvqhug","pricing_plan_id":"cebpf4jnsgd1na2vs0mg"},{"bike_id":"42d2792a-88bd-48e5-afe0-4b6400cd337a","system_id":"levelo_inurba_marseille","lat":43.31658,"lon":5.3821,"is_reserved":false,"is_disabled":false,"rental_uris":{"android":"levelo://app?vid=42d2792a-88bd-48e5-afe0-4b6400cd337a","ios":"levelo://app?vid=42d2792a-88bd-48e5-afe0-4b6400cd337a"},"vehicle_type_id":"4","last_reported":1762359231,"current_range_meters":14400,"station_id":"","pricing_plan_id":"cebpf4jnsgd1na2vs0mg"},{"bike_id":"27aefe03-bbd2-43d3-8d72-3a7105da9194","system_id":"levelo_inurba_marseille","lat":43.31356,"lon":5.37911,"is_reserved":false,"is_disabled":false,"rental_uris":{"android":"levelo://app?vid=27aefe03-bbd2-43d3-8d72-3a7105da9194","ios":"levelo://app?vid=27aefe03-bbd2-43d3-8d72-3a7105da9194"},"vehicle_type_id":"4","last_reported":1762359231,"current_range_meters":14400,"station_id":"","pricing_plan_id":"cebpf4jnsgd1na2vs0mg"},{"bike_id":"81dcc136-dea2-46c0-98af-42dbdee92b54","system_id":"levelo_inurba_marseille","lat":43.284749,"lon":5.484099,"is_reserved":false,"is_disabled":false,"rental_uris":{"android":"levelo://app?vid=81dcc136-dea2-46c0-98af-42dbdee92b54","ios":"levelo://app?vid=81dcc136-dea2-46c0-98af-42dbdee92b54"},"vehicle_type_id":"4","last_reported":1762359231,"current_range_meters":14400,"station_id":"","pricing_plan_id":"cebpf4jnsgd1na2vs0mg"},{"bike_id":"4de751a2-5343-495c-92b8-acdd5308db60","system_id":"levelo_inurba_marseille","lat":43.31163,"lon":5.38712,"is_reserved":false,"is_disabled":false,"rental_uris":{"android":"levelo://app?vid=4de751a2-5343-495c-92b8-acdd5308db60","ios":"levelo://app?vid=4de751a2-5343-495c-92b8-acdd5308db60"},"vehicle_type_id":"4","last_reported":1762359231,"current_range_meters":14800,"station_id":"ce4bgv12rcd13ifvqcp0","pricing_plan_id":"cebpf4jnsgd1na2vs0mg"},{"bike_id":"813d84df-d28e-442a-86a4-2693a3f1117d","system_id":"levelo_inurba_marseille","lat":43.230505,"lon":5.354934,"is_reserved":false,"is_disabled":false,"rental_uris":{"android":"levelo://app?vid=813d84df-d28e-442a-86a4-2693a3f1117d","ios":"levelo://app?vid=813d84df-d28e-442a-86a4-2693a3f1117d"},"vehicle_type_id":"4","last_reported":1762359231,"current_range_meters":14800,"station_id":"cpo3342slgdg3j2ifvpg","pricing_plan_id":"cebpf4jnsgd1na2vs0mg"},{"bike_id":"cff64f4e-5f37-43ea-ae7e-1ca574864a38","system_id":"levelo_inurba_marseille","lat":43.32454,"lon":5.42823,"is_reserved":false,"is_disabled":false,"rental_uris":{"android":"levelo://app?vid=cff64f4e-5f37-43ea-ae7e-1ca574864a38","ios":"levelo://app?vid=cff64f4e-5f37-43ea-ae7e-1ca574864a38"},"vehicle_type_id":"4","last_reported":1762359231,"current_range_meters":14800,"station_id":"","pricing_plan_id":"cebpf4jnsgd1na2vs0mg"},{"bike_id":"84da7d19-8cb6-42a5-8095-d8b1bdebe779","system_id":"levelo_inurba_marseille","lat":43.26575,"lon":5.39016,"is_reserved":false,"is_disabled":false,"rental_uris":{"android":"levelo://app?vid=84da7d19-8cb6-42a5-8095-d8b1bdebe779","ios":"levelo://app?vid=84da7d19-8cb6-42a5-8095-d8b1bdebe779"},"vehicle_type_id":"4","last_reported":1762359231,"current_range_meters":14800,"station_id":"ce4bhe12rcd13ifvqf30","pricing_plan_id":"cebpf4jnsgd1na2vs0mg"},{"bike_id":"c1384915-c9ec-4969-beb0-6a1d95a4fc03","system_id":"levelo_inurba_marseille","lat":43.281545,"lon":5.426188,"is_reserved":false,"is_disabled":false,"rental_uris":{"android":"levelo://app?vid=c1384915-c9ec-4969-beb0-6a1d95a4fc03","ios":"levelo://app?vid=c1384915-c9ec-4969-beb0-6a1d95a4fc03"},"vehicle_type_id":"4","last_reported":1762359231,"current_range_meters":14800,"station_id":"ce4bhnh2rcd13ifvqgug","pricing_plan_id":"cebpf4jnsgd1na2vs0mg"},{"bike_id":"e80aa6fd-7609-4410-9f9f-110052ce017b","system_id":"levelo_inurba_marseille","lat":43.30095,"lon":5.3962,"is_reserved":false,"is_disabled":false,"rental_uris":{"android":"levelo://app?vid=e80aa6fd-7609-4410-9f9f-110052ce017b","ios":"levelo://app?vid=e80aa6fd-7609-4410-9f9f-110052ce017b"},"vehicle_type_id":"4","last_reported":1762359231,"current_range_meters":14800,"station_id":"","pricing_plan_id":"cebpf4jnsgd1na2vs0mg"},{"bike_id":"f9ca2616-2427-4907-b5b4-b726801bb670","system_id":"levelo_inurba_marseille","lat":43.27418,"lon":5.39416,"is_reserved":false,"is_disabled":false,"rental_uris":{"android":"levelo://app?vid=f9ca2616-2427-4907-b5b4-b726801bb670","ios":"levelo://app?vid=f9ca2616-2427-4907-b5b4-b726801bb670"},"vehicle_type_id":"4","last_reported":1762359231,"current_range_meters":15200,"station_id":"ce4bhdp2rcd13ifvqf20","pricing_plan_id":"cebpf4jnsgd1na2vs0mg"},{"bike_id":"ca46fdbd-ac89-432a-9c58-507605a7d54c","system_id":"levelo_inurba_marseille","lat":43.29269,"lon":5.37629,"is_reserved":false,"is_disabled":false,"rental_uris":{"android":"levelo://app?vid=ca46fdbd-ac89-432a-9c58-507605a7d54c","ios":"levelo://app?vid=ca46fdbd-ac89-432a-9c58-507605a7d54c"},"vehicle_type_id":"4","last_reported":1762359231,"current_range_meters":15200,"station_id":"ce4bgi12rcd13ifvqb80","pricing_plan_id":"cebpf4jnsgd1na2vs0mg"},{"bike_id":"89668189-b95b-43c4-a0b4-cad5f1f90638","system_id":"levelo_inurba_marseille","lat":43.30165,"lon":5.38091,"is_reserved":false,"is_disabled":true,"rental_uris":{"android":"levelo://app?vid=89668189-b95b-43c4-a0b4-cad5f1f90638","ios":"levelo://app?vid=89668189-b95b-43c4-a0b4-cad5f1f90638"},"vehicle_type_id":"4","last_reported":1762359231,"current_range_meters":15200,"station_id":"ce4bgjp2rcd13ifvqbh0","pricing_plan_id":"cebpf4jnsgd1na2vs0mg"},{"bike_id":"fa7e4ea3-1bbf-417d-9f88-3815101f8241","system_id":"levelo_inurba_marseille","lat":43.24667,"lon":5.38164,"is_reserved":false,"is_disabled":false,"rental_uris":{"android":"levelo://app?vid=fa7e4ea3-1bbf-417d-9f88-3815101f8241","ios":"levelo://app?vid=fa7e4ea3-1bbf-417d-9f88-3815101f8241"},"vehicle_type_id":"4","last_reported":1762359231,"current_range_meters":15200,"station_id":"ce4bhih2rcd13ifvqfr0","pricing_plan_id":"cebpf4jnsgd1na2vs0mg"},{"bike_id":"6a809bca-8e07-4d4a-926a-533252e3c7f9","system_id":"levelo_inurba_marseille","lat":43.29454,"lon":5.38652,"is_reserved":false,"is_disabled":false,"rental_uris":{"android":"levelo://app?vid=6a809bca-8e07-4d4a-926a-533252e3c7f9","ios":"levelo://app?vid=6a809bca-8e07-4d4a-926a-533252e3c7f9"},"vehicle_type_id":"4","last_reported":1762359231,"current_range_meters":15200,"station_id":"","pricing_plan_id":"cebpf4jnsgd1na2vs0mg"},{"bike_id":"8cf54d33-efb5-4166-8509-df2cb57488b1","system_id":"levelo_inurba_marseille","lat":43.33454,"lon":5.40067,"is_reserved":false,"is_disabled":false,"rental_uris":{"android":"levelo://app?vid=8cf54d33-efb5-4166-8509-df2cb57488b1","ios":"levelo://app?vid=8cf54d33-efb5-4166-8509-df2cb57488b1"},"vehicle_type_id":"4","last_reported":1762359231,"current_range_meters":15200,"station_id":"","pricing_plan_id":"cebpf4jnsgd1na2vs0mg"},{"bike_id":"4b9b61f9-e84c-4648-b6f6-faf53029a4ee","system_id":"levelo_inurba_marseille","lat":43.27068,"lon":5.42301,"is_reserved":false,"is_disabled":false,"rental_uris":{"android":"levelo://app?vid=4b9b61f9-e84c-4648-b6f6-faf53029a4ee","ios":"levelo://app?vid=4b9b61f9-e84c-4648-b6f6-faf53029a4ee"},"vehicle_type_id":"4","last_reported":1762359231,"current_range_meters":16000,"station_id":"ce4bhk92rcd13ifvqgb0","pricing_plan_id":"cebpf4jnsgd1na2vs0mg"},{"bike_id":"5de18194-9760-4b90-8d22-67740462e0c5","system_id":"levelo_inurba_marseille","lat":43.29036,"lon":5.38128,"is_reserved":false,"is_disabled":false,"rental_uris":{"android":"levelo://app?vid=5de18194-9760-4b90-8d22-67740462e0c5","ios":"levelo://app?vid=5de18194-9760-4b90-8d22-67740462e0c5"},"vehicle_type_id":"4","last_reported":1762359231,"current_range_meters":16000,"station_id":"ce4bh4p2rcd13ifvqe1g","pricing_plan_id":"cebpf4jnsgd1na2vs0mg"},{"bike_id":"cc1f8b8d-3150-4134-8c92-5211acf24059","system_id":"levelo_inurba_marseille","lat":43.303521,"lon":5.418843,"is_reserved":false,"is_disabled":false,"rental_uris":{"android":"levelo://app?vid=cc1f8b8d-3150-4134-8c92-5211acf24059","ios":"levelo://app?vid=cc1f8b8d-3150-4134-8c92-5211acf24059"},"vehicle_type_id":"4","last_reported":1762359231,"current_range_meters":16000,"station_id":"ce4bhop2rcd13ifvqh7g","pricing_plan_id":"cebpf4jnsgd1na2vs0mg"},{"bike_id":"5cdb7ec9-d243-4f4b-b2f7-4c6c0fabd980","system_id":"levelo_inurba_marseille","lat":43.29166,"lon":5.37162,"is_reserved":false,"is_disabled":false,"rental_uris":{"android":"levelo://app?vid=5cdb7ec9-d243-4f4b-b2f7-4c6c0fabd980","ios":"levelo://app?vid=5cdb7ec9-d243-4f4b-b2f7-4c6c0fabd980"},"vehicle_type_id":"4","last_reported":1762359231,"current_range_meters":16000,"station_id":"ce4bha92rcd13ifvqeh0","pricing_plan_id":"cebpf4jnsgd1na2vs0mg"},{"bike_id":"aee05e44-58d8-4251-b642-bba3a7afe48a","system_id":"levelo_inurba_marseille","lat":43.21191,"lon":5.35067,"is_reserved":false,"is_disabled":false,"rental_uris":{"android":"levelo://app?vid=aee05e44-58d8-4251-b642-bba3a7afe48a","ios":"levelo://app?vid=aee05e44-58d8-4251-b642-bba3a7afe48a"},"vehicle_type_id":"4","last_reported":1762359231,"current_range_meters":16000,"station_id":"st_cvj6sg6p6f1abm77japg","pricing_plan_id":"cebpf4jnsgd1na2vs0mg"},{"bike_id":"34e7be42-4e83-4176-b6a3-c8ff34e46162","system_id":"levelo_inurba_marseille","lat":43.28481,"lon":5.38428,"is_reserved":false,"is_disabled":false,"rental_uris":{"android":"levelo://app?vid=34e7be42-4e83-4176-b6a3-c8ff34e46162","ios":"levelo://app?vid=34e7be42-4e83-4176-b6a3-c8ff34e46162"},"vehicle_type_id":"4","last_reported":1762359231,"current_range_meters":16400,"station_id":"ce4bh512rcd13ifvqe3g","pricing_plan_id":"cebpf4jnsgd1na2vs0mg"},{"bike_id":"a6010974-670e-49c0-b408-8e5fee4c2775","system_id":"levelo_inurba_marseille","lat":43.241676,"lon":5.363957,"is_reserved":false,"is_disabled":false,"rental_uris":{"android":"levelo://app?vid=a6010974-670e-49c0-b408-8e5fee4c2775","ios":"levelo://app?vid=a6010974-670e-49c0-b408-8e5fee4c2775"},"vehicle_type_id":"4","last_reported":1762359231,"current_range_meters":16400,"station_id":"cpo36qri1sfpv3e86is0","pricing_plan_id":"cebpf4jnsgd1na2vs0mg"},{"bike_id":"57d7b013-6212-494f-b4ef-1d8b49b3d422","system_id":"levelo_inurba_marseille","lat":43.286571,"lon":5.35477,"is_reserved":false,"is_disabled":false,"rental_uris":{"android":"levelo://app?vid=57d7b013-6212-494f-b4ef-1d8b49b3d422","ios":"levelo://app?vid=57d7b013-6212-494f-b4ef-1d8b49b3d422"},"vehicle_type_id":"4","last_reported":1762359231,"current_range_meters":16400,"station_id":"","pricing_plan_id":"cebpf4jnsgd1na2vs0mg"},{"bike_id":"c6d2dafc-fb2c-4b82-8b78-f3d7d347211b","system_id":"levelo_inurba_marseille","lat":43.32366,"lon":5.36761,"is_reserved":false,"is_disabled":false,"rental_uris":{"android":"levelo://app?vid=c6d2dafc-fb2c-4b82-8b78-f3d7d347211b","ios":"levelo://app?vid=c6d2dafc-fb2c-4b82-8b78-f3d7d347211b"},"vehicle_type_id":"4","last_reported":1762359231,"current_range_meters":16400,"station_id":"ce4bhsh2rcd13ifvqi2g","pricing_plan_id":"cebpf4jnsgd1na2vs0mg"},{"bike_id":"d77a88e5-20b9-4fe1-89df-69baec122738","system_id":"levelo_inurba_marseille","lat":43.29748,"lon":5.38075,"is_reserved":false,"is_disabled":false,"rental_uris":{"android":"levelo://app?vid=d77a88e5-20b9-4fe1-89df-69baec122738","ios":"levelo://app?vid=d77a88e5-20b9-4fe1-89df-69baec122738"},"vehicle_type_id":"4","last_reported":1762359231,"current_range_meters":16400,"station_id":"","pricing_plan_id":"cebpf4jnsgd1na2vs0mg"},{"bike_id":"456325d2-f213-43d0-b8bb-83874dc983a6","system_id":"levelo_inurba_marseille","lat":43.25575,"lon":5.38238,"is_reserved":false,"is_disabled":false,"rental_uris":{"android":"levelo://app?vid=456325d2-f213-43d0-b8bb-83874dc983a6","ios":"levelo://app?vid=456325d2-f213-43d0-b8bb-83874dc983a6"},"vehicle_type_id":"4","last_reported":1762359231,"current_range_meters":16400,"station_id":"ce4bhih2rcd13ifvqfs0","pricing_plan_id":"cebpf4jnsgd1na2vs0mg"},{"bike_id":"7153d28d-f63a-4b62-8398-9b78859a0dcb","system_id":"levelo_inurba_marseille","lat":43.29695,"lon":5.35973,"is_reserved":false,"is_disabled":false,"rental_uris":{"android":"levelo://app?vid=7153d28d-f63a-4b62-8398-9b78859a0dcb","ios":"levelo://app?vid=7153d28d-f63a-4b62-8398-9b78859a0dcb"},"vehicle_type_id":"4","last_reported":1762359231,"current_range_meters":16400,"station_id":"","pricing_plan_id":"cebpf4jnsgd1na2vs0mg"},{"bike_id":"cfa4882c-2437-4767-a77f-216d3978d073","system_id":"levelo_inurba_marseille","lat":43.286104,"lon":5.370652,"is_reserved":false,"is_disabled":false,"rental_uris":{"android":"levelo://app?vid=cfa4882c-2437-4767-a77f-216d3978d073","ios":"levelo://app?vid=cfa4882c-2437-4767-a77f-216d3978d073"},"vehicle_type_id":"4","last_reported":1762359231,"current_range_meters":16400,"station_id":"ce4bh612rcd13ifvqe6g","pricing_plan_id":"cebpf4jnsgd1na2vs0mg"},{"bike_id":"5af1a322-68ac-4ccc-b129-c3bbed219b25","system_id":"levelo_inurba_marseille","lat":43.31462,"lon":5.37325,"is_reserved":false,"is_disabled":false,"rental_uris":{"android":"levelo://app?vid=5af1a322-68ac-4ccc-b129-c3bbed219b25","ios":"levelo://app?vid=5af1a322-68ac-4ccc-b129-c3bbed219b25"},"vehicle_type_id":"4","last_reported":1762359231,"current_range_meters":16800,"station_id":"ce4bgt12rcd13ifvqcd0","pricing_plan_id":"cebpf4jnsgd1na2vs0mg"},{"bike_id":"1972d616-0980-48ec-8dcf-fd9496b29051","system_id":"levelo_inurba_marseille","lat":43.24674,"lon":5.38143,"is_reserved":false,"is_disabled":false,"rental_uris":{"android":"levelo://app?vid=1972d616-0980-48ec-8dcf-fd9496b29051","ios":"levelo://app?vid=1972d616-0980-48ec-8dcf-fd9496b29051"},"vehicle_type_id":"4","last_reported":1762359231,"current_range_meters":16800,"station_id":"ce4bhih2rcd13ifvqfr0","pricing_plan_id":"cebpf4jnsgd1na2vs0mg"},{"bike_id":"f522ce77-1b95-429b-9f15-a73981df8fec","system_id":"levelo_inurba_marseille","lat":43.30923,"lon":5.40151,"is_reserved":false,"is_disabled":false,"rental_uris":{"android":"levelo://app?vid=f522ce77-1b95-429b-9f15-a73981df8fec","ios":"levelo://app?vid=f522ce77-1b95-429b-9f15-a73981df8fec"},"vehicle_type_id":"4","last_reported":1762359231,"current_range_meters":16800,"station_id":"ce4bgvp2rcd13ifvqct0","pricing_plan_id":"cebpf4jnsgd1na2vs0mg"},{"bike_id":"c39ccd7c-6ead-48bf-be71-0a6ea551e4a5","system_id":"levelo_inurba_marseille","lat":43.30168,"lon":5.38087,"is_reserved":false,"is_disabled":false,"rental_uris":{"android":"levelo://app?vid=c39ccd7c-6ead-48bf-be71-0a6ea551e4a5","ios":"levelo://app?vid=c39ccd7c-6ead-48bf-be71-0a6ea551e4a5"},"vehicle_type_id":"4","last_reported":1762359231,"current_range_meters":16800,"station_id":"ce4bgjp2rcd13ifvqbh0","pricing_plan_id":"cebpf4jnsgd1na2vs0mg"},{"bike_id":"c566ed07-85ec-40b3-b7c9-cf508dc0972f","system_id":"levelo_inurba_marseille","lat":43.29708,"lon":5.36599,"is_reserved":false,"is_disabled":false,"rental_uris":{"android":"levelo://app?vid=c566ed07-85ec-40b3-b7c9-cf508dc0972f","ios":"levelo://app?vid=c566ed07-85ec-40b3-b7c9-cf508dc0972f"},"vehicle_type_id":"4","last_reported":1762359231,"current_range_meters":16800,"station_id":"ce4bgn12rcd13ifvqbt0","pricing_plan_id":"cebpf4jnsgd1na2vs0mg"},{"bike_id":"b0b297e2-ec80-4188-8e85-54978bf41747","system_id":"levelo_inurba_marseille","lat":43.2862,"lon":5.35106,"is_reserved":false,"is_disabled":false,"rental_uris":{"android":"levelo://app?vid=b0b297e2-ec80-4188-8e85-54978bf41747","ios":"levelo://app?vid=b0b297e2-ec80-4188-8e85-54978bf41747"},"vehicle_type_id":"4","last_reported":1762359231,"current_range_meters":16800,"station_id":"ce4bhch2rcd13ifvqeug","pricing_plan_id":"cebpf4jnsgd1na2vs0mg"},{"bike_id":"40f5976f-c878-42d3-9960-e1343fe3aac7","system_id":"levelo_inurba_marseille","lat":43.26539,"lon":5.37303,"is_reserved":false,"is_disabled":false,"rental_uris":{"android":"levelo://app?vid=40f5976f-c878-42d3-9960-e1343fe3aac7","ios":"levelo://app?vid=40f5976f-c878-42d3-9960-e1343fe3aac7"},"vehicle_type_id":"4","last_reported":1762359231,"current_range_meters":17200,"station_id":"ce4bhg12rcd13ifvqf70","pricing_plan_id":"cebpf4jnsgd1na2vs0mg"},{"bike_id":"c3099294-07de-461a-ab07-d7f77ecdfb93","system_id":"levelo_inurba_marseille","lat":43.28144,"lon":5.40195,"is_reserved":false,"is_disabled":false,"rental_uris":{"android":"levelo://app?vid=c3099294-07de-461a-ab07-d7f77ecdfb93","ios":"levelo://app?vid=c3099294-07de-461a-ab07-d7f77ecdfb93"},"vehicle_type_id":"4","last_reported":1762359231,"current_range_meters":17200,"station_id":"","pricing_plan_id":"cebpf4jnsgd1na2vs0mg"},{"bike_id":"9bbd3d85-b440-471b-b356-6d920393d718","system_id":"levelo_inurba_marseille","lat":43.23968,"lon":5.3663,"is_reserved":false,"is_disabled":false,"rental_uris":{"android":"levelo://app?vid=9bbd3d85-b440-471b-b356-6d920393d718","ios":"levelo://app?vid=9bbd3d85-b440-471b-b356-6d920393d718"},"vehicle_type_id":"4","last_reported":1762359231,"current_range_meters":17200,"station_id":"ce4bhi12rcd13ifvqfp0","pricing_plan_id":"cebpf4jnsgd1na2vs0mg"},{"bike_id":"afe89711-be95-438f-aab9-06a649587584","system_id":"levelo_inurba_marseille","lat":43.29279,"lon":5.36849,"is_reserved":false,"is_disabled":false,"rental_uris":{"android":"levelo://app?vid=afe89711-be95-438f-aab9-06a649587584","ios":"levelo://app?vid=afe89711-be95-438f-aab9-06a649587584"},"vehicle_type_id":"4","last_reported":1762359231,"current_range_meters":17600,"station_id":"ce4bhbp2rcd13ifvqesg","pricing_plan_id":"cebpf4jnsgd1na2vs0mg"},{"bike_id":"4409e8e6-e2b1-45fd-ac80-4ccdb4f82c11","system_id":"levelo_inurba_marseille","lat":43.3109,"lon":5.42425,"is_reserved":false,"is_disabled":false,"rental_uris":{"android":"levelo://app?vid=4409e8e6-e2b1-45fd-ac80-4ccdb4f82c11","ios":"levelo://app?vid=4409e8e6-e2b1-45fd-ac80-4ccdb4f82c11"},"vehicle_type_id":"4","last_reported":1762359231,"current_range_meters":17600,"station_id":"ce4bhp92rcd13ifvqhag","pricing_plan_id":"cebpf4jnsgd1na2vs0mg"},{"bike_id":"917a643b-60ef-49a9-b797-4e58fec456a8","system_id":"levelo_inurba_marseille","lat":43.27814,"lon":5.40719,"is_reserved":false,"is_disabled":false,"rental_uris":{"android":"levelo://app?vid=917a643b-60ef-49a9-b797-4e58fec456a8","ios":"levelo://app?vid=917a643b-60ef-49a9-b797-4e58fec456a8"},"vehicle_type_id":"4","last_reported":1762359231,"current_range_meters":17600,"station_id":"ce4bhnh2rcd13ifvqgtg","pricing_plan_id":"cebpf4jnsgd1na2vs0mg"},{"bike_id":"a715c0ef-3857-414c-967a-b5d1a542eb13","system_id":"levelo_inurba_marseille","lat":43.224571,"lon":5.347186,"is_reserved":false,"is_disabled":false,"rental_uris":{"android":"levelo://app?vid=a715c0ef-3857-414c-967a-b5d1a542eb13","ios":"levelo://app?vid=a715c0ef-3857-414c-967a-b5d1a542eb13"},"vehicle_type_id":"4","last_reported":1762359231,"current_range_meters":17600,"station_id":"","pricing_plan_id":"cebpf4jnsgd1na2vs0mg"},{"bike_id":"05cfcf42-3384-4094-a155-4e4318a3bfd3","system_id":"levelo_inurba_marseille","lat":43.2795,"lon":5.41045,"is_reserved":false,"is_disabled":false,"rental_uris":{"android":"levelo://app?vid=05cfcf42-3384-4094-a155-4e4318a3bfd3","ios":"levelo://app?vid=05cfcf42-3384-4094-a155-4e4318a3bfd3"},"vehicle_type_id":"4","last_reported":1762359231,"current_range_meters":17600,"station_id":"ce4bhnp2rcd13ifvqh0g","pricing_plan_id":"cebpf4jnsgd1na2vs0mg"},{"bike_id":"b73e9d5e-9a3b-45ed-8298-1186c64538a5","system_id":"levelo_inurba_marseille","lat":43.29595,"lon":5.38097,"is_reserved":false,"is_disabled":false,"rental_uris":{"android":"levelo://app?vid=b73e9d5e-9a3b-45ed-8298-1186c64538a5","ios":"levelo://app?vid=b73e9d5e-9a3b-45ed-8298-1186c64538a5"},"vehicle_type_id":"4","last_reported":1762359231,"current_range_meters":17600,"station_id":"ce4bgl12rcd13ifvqbo0","pricing_plan_id":"cebpf4jnsgd1na2vs0mg"},{"bike_id":"cd0cb19e-bbdd-4d48-b0f6-49ec081f4c28","system_id":"levelo_inurba_marseille","lat":43.30513,"lon":5.36764,"is_reserved":false,"is_disabled":false,"rental_uris":{"android":"levelo://app?vid=cd0cb19e-bbdd-4d48-b0f6-49ec081f4c28","ios":"levelo://app?vid=cd0cb19e-bbdd-4d48-b0f6-49ec081f4c28"},"vehicle_type_id":"4","last_reported":1762359231,"current_range_meters":18000,"station_id":"ce4bgrp2rcd13ifvqc9g","pricing_plan_id":"cebpf4jnsgd1na2vs0mg"},{"bike_id":"65d83eaf-428a-43cd-a356-ecaed95948ff","system_id":"levelo_inurba_marseille","lat":43.2484,"lon":5.39769,"is_reserved":false,"is_disabled":false,"rental_uris":{"android":"levelo://app?vid=65d83eaf-428a-43cd-a356-ecaed95948ff","ios":"levelo://app?vid=65d83eaf-428a-43cd-a356-ecaed95948ff"},"vehicle_type_id":"4","last_reported":1762359231,"current_range_meters":18000,"station_id":"","pricing_plan_id":"cebpf4jnsgd1na2vs0mg"},{"bike_id":"7294334a-2b5d-4f41-8f85-ce4f5bbc157b","system_id":"levelo_inurba_marseille","lat":43.25517,"lon":5.37692,"is_reserved":false,"is_disabled":false,"rental_uris":{"android":"levelo://app?vid=7294334a-2b5d-4f41-8f85-ce4f5bbc157b","ios":"levelo://app?vid=7294334a-2b5d-4f41-8f85-ce4f5bbc157b"},"vehicle_type_id":"4","last_reported":1762359231,"current_range_meters":18000,"station_id":"ce4bhh12rcd13ifvqff0","pricing_plan_id":"cebpf4jnsgd1na2vs0mg"},{"bike_id":"b311b2f6-735e-444b-9f9c-f00dfe7c9f6f","system_id":"levelo_inurba_marseille","lat":43.229364,"lon":5.353889,"is_reserved":false,"is_disabled":false,"rental_uris":{"android":"levelo://app?vid=b311b2f6-735e-444b-9f9c-f00dfe7c9f6f","ios":"levelo://app?vid=b311b2f6-735e-444b-9f9c-f00dfe7c9f6f"},"vehicle_type_id":"4","last_reported":1762359231,"current_range_meters":18000,"station_id":"cpo3532slgdg3j2ikp40","pricing_plan_id":"cebpf4jnsgd1na2vs0mg"},{"bike_id":"34fadfb2-3c42-4ec0-82b6-bde102c43924","system_id":"levelo_inurba_marseille","lat":43.29649,"lon":5.40596,"is_reserved":false,"is_disabled":false,"rental_uris":{"android":"levelo://app?vid=34fadfb2-3c42-4ec0-82b6-bde102c43924","ios":"levelo://app?vid=34fadfb2-3c42-4ec0-82b6-bde102c43924"},"vehicle_type_id":"4","last_reported":1762359231,"current_range_meters":18000,"station_id":"ce4bh0h2rcd13ifvqd60","pricing_plan_id":"cebpf4jnsgd1na2vs0mg"},{"bike_id":"c07320bb-ffb7-4ac3-8a9e-4dda6dea134d","system_id":"levelo_inurba_marseille","lat":43.28694,"lon":5.37384,"is_reserved":false,"is_disabled":false,"rental_uris":{"android":"levelo://app?vid=c07320bb-ffb7-4ac3-8a9e-4dda6dea134d","ios":"levelo://app?vid=c07320bb-ffb7-4ac3-8a9e-4dda6dea134d"},"vehicle_type_id":"4","last_reported":1762359231,"current_range_meters":18000,"station_id":"ce4bh3p2rcd13ifvqdq0","pricing_plan_id":"cebpf4jnsgd1na2vs0mg"},{"bike_id":"e36a6a12-a7fe-4355-9231-257e2061d1bd","system_id":"levelo_inurba_marseille","lat":43.28486,"lon":5.48401,"is_reserved":false,"is_disabled":false,"rental_uris":{"android":"levelo://app?vid=e36a6a12-a7fe-4355-9231-257e2061d1bd","ios":"levelo://app?vid=e36a6a12-a7fe-4355-9231-257e2061d1bd"},"vehicle_type_id":"4","last_reported":1762359231,"current_range_meters":18000,"station_id":"st_d3svhcjqgbts73a3dn0g","pricing_plan_id":"cebpf4jnsgd1na2vs0mg"},{"bike_id":"71967476-752a-4f5e-b222-99c0eea95f39","system_id":"levelo_inurba_marseille","lat":43.323234,"lon":5.383991,"is_reserved":false,"is_disabled":false,"rental_uris":{"android":"levelo://app?vid=71967476-752a-4f5e-b222-99c0eea95f39","ios":"levelo://app?vid=71967476-752a-4f5e-b222-99c0eea95f39"},"vehicle_type_id":"4","last_reported":1762359231,"current_range_meters":18000,"station_id":"","pricing_plan_id":"cebpf4jnsgd1na2vs0mg"},{"bike_id":"1d6aa403-e813-4c94-a673-0386843d0833","system_id":"levelo_inurba_marseille","lat":43.27055,"lon":5.40259,"is_reserved":false,"is_disabled":false,"rental_uris":{"android":"levelo://app?vid=1d6aa403-e813-4c94-a673-0386843d0833","ios":"levelo://app?vid=1d6aa403-e813-4c94-a673-0386843d0833"},"vehicle_type_id":"4","last_reported":1762359231,"current_range_meters":18000,"station_id":"ce4bhk92rcd13ifvqgc0","pricing_plan_id":"cebpf4jnsgd1na2vs0mg"},{"bike_id":"841de2ec-d9a2-435a-b7f9-f1b754a9faac","system_id":"levelo_inurba_marseille","lat":43.25831,"lon":5.39438,"is_reserved":false,"is_disabled":false,"rental_uris":{"android":"levelo://app?vid=841de2ec-d9a2-435a-b7f9-f1b754a9faac","ios":"levelo://app?vid=841de2ec-d9a2-435a-b7f9-f1b754a9faac"},"vehicle_type_id":"4","last_reported":1762359231,"current_range_meters":18000,"station_id":"ce4bhip2rcd13ifvqft0","pricing_plan_id":"cebpf4jnsgd1na2vs0mg"},{"bike_id":"8574468f-faf7-4a61-977f-90a5896c01c9","system_id":"levelo_inurba_marseille","lat":43.26554,"lon":5.413,"is_reserved":false,"is_disabled":false,"rental_uris":{"android":"levelo://app?vid=8574468f-faf7-4a61-977f-90a5896c01c9","ios":"levelo://app?vid=8574468f-faf7-4a61-977f-90a5896c01c9"},"vehicle_type_id":"4","last_reported":1762359231,"current_range_meters":18800,"station_id":"","pricing_plan_id":"cebpf4jnsgd1na2vs0mg"},{"bike_id":"b3b3fcde-ef29-4ae9-9661-53fb5ec40466","system_id":"levelo_inurba_marseille","lat":43.31327,"lon":5.39701,"is_reserved":false,"is_disabled":false,"rental_uris":{"android":"levelo://app?vid=b3b3fcde-ef29-4ae9-9661-53fb5ec40466","ios":"levelo://app?vid=b3b3fcde-ef29-4ae9-9661-53fb5ec40466"},"vehicle_type_id":"4","last_reported":1762359231,"current_range_meters":18800,"station_id":"","pricing_plan_id":"cebpf4jnsgd1na2vs0mg"},{"bike_id":"23c45bb2-8443-4392-98dc-2b5f45e8985b","system_id":"levelo_inurba_marseille","lat":43.26066,"lon":5.39394,"is_reserved":false,"is_disabled":false,"rental_uris":{"android":"levelo://app?vid=23c45bb2-8443-4392-98dc-2b5f45e8985b","ios":"levelo://app?vid=23c45bb2-8443-4392-98dc-2b5f45e8985b"},"vehicle_type_id":"4","last_reported":1762359231,"current_range_meters":18800,"station_id":"ce4bhh92rcd13ifvqfj0","pricing_plan_id":"cebpf4jnsgd1na2vs0mg"},{"bike_id":"b8db43c7-aad5-404d-af95-53081eddb1b2","system_id":"levelo_inurba_marseille","lat":43.29797,"lon":5.39328,"is_reserved":false,"is_disabled":false,"rental_uris":{"android":"levelo://app?vid=b8db43c7-aad5-404d-af95-53081eddb1b2","ios":"levelo://app?vid=b8db43c7-aad5-404d-af95-53081eddb1b2"},"vehicle_type_id":"4","last_reported":1762359231,"current_range_meters":19200,"station_id":"chh1huq6cuj3fo74tm60","pricing_plan_id":"cebpf4jnsgd1na2vs0mg"},{"bike_id":"5f433812-4992-4556-8bea-3ef019818e9b","system_id":"levelo_inurba_marseille","lat":43.30058,"lon":5.36539,"is_reserved":false,"is_disabled":false,"rental_uris":{"android":"levelo://app?vid=5f433812-4992-4556-8bea-3ef019818e9b","ios":"levelo://app?vid=5f433812-4992-4556-8bea-3ef019818e9b"},"vehicle_type_id":"4","last_reported":1762359231,"current_range_meters":19200,"station_id":"","pricing_plan_id":"cebpf4jnsgd1na2vs0mg"},{"bike_id":"8af14e8f-43c9-4372-9527-65c72f55ed13","system_id":"levelo_inurba_marseille","lat":43.30535,"lon":5.36536,"is_reserved":false,"is_disabled":false,"rental_uris":{"android":"levelo://app?vid=8af14e8f-43c9-4372-9527-65c72f55ed13","ios":"levelo://app?vid=8af14e8f-43c9-4372-9527-65c72f55ed13"},"vehicle_type_id":"4","last_reported":1762359231,"current_range_meters":19200,"station_id":"ce4bgs12rcd13ifvqcag","pricing_plan_id":"cebpf4jnsgd1na2vs0mg"},{"bike_id":"02931a4f-41ca-4d63-991e-b78142ffd2df","system_id":"levelo_inurba_marseille","lat":43.3248,"lon":5.36573,"is_reserved":false,"is_disabled":true,"rental_uris":{"android":"levelo://app?vid=02931a4f-41ca-4d63-991e-b78142ffd2df","ios":"levelo://app?vid=02931a4f-41ca-4d63-991e-b78142ffd2df"},"vehicle_type_id":"4","last_reported":1762359231,"current_range_meters":19200,"station_id":"ce4bhs12rcd13ifvqhvg","pricing_plan_id":"cebpf4jnsgd1na2vs0mg"},{"bike_id":"89d513e0-d87f-49a8-a541-9a2bce25ec04","system_id":"levelo_inurba_marseille","lat":43.24178,"lon":5.39728,"is_reserved":false,"is_disabled":false,"rental_uris":{"android":"levelo://app?vid=89d513e0-d87f-49a8-a541-9a2bce25ec04","ios":"levelo://app?vid=89d513e0-d87f-49a8-a541-9a2bce25ec04"},"vehicle_type_id":"4","last_reported":1762359231,"current_range_meters":19200,"station_id":"ce4bhn12rcd13ifvqgpg","pricing_plan_id":"cebpf4jnsgd1na2vs0mg"},{"bike_id":"d0581743-e06c-4ad1-9f8a-41b25975ba07","system_id":"levelo_inurba_marseille","lat":43.29818,"lon":5.44078,"is_reserved":false,"is_disabled":false,"rental_uris":{"android":"levelo://app?vid=d0581743-e06c-4ad1-9f8a-41b25975ba07","ios":"levelo://app?vid=d0581743-e06c-4ad1-9f8a-41b25975ba07"},"vehicle_type_id":"4","last_reported":1762359231,"current_range_meters":19200,"station_id":"st_d3jp68qikq2c7381ktn0","pricing_plan_id":"cebpf4jnsgd1na2vs0mg"},{"bike_id":"0af7cfde-d669-4d8a-a74f-4e9278698aed","system_id":"levelo_inurba_marseille","lat":43.25829,"lon":5.39437,"is_reserved":false,"is_disabled":false,"rental_uris":{"android":"levelo://app?vid=0af7cfde-d669-4d8a-a74f-4e9278698aed","ios":"levelo://app?vid=0af7cfde-d669-4d8a-a74f-4e9278698aed"},"vehicle_type_id":"4","last_reported":1762359231,"current_range_meters":19200,"station_id":"ce4bhip2rcd13ifvqft0","pricing_plan_id":"cebpf4jnsgd1na2vs0mg"},{"bike_id":"9f2da96b-e073-41e9-9cb6-b8c289d4a763","system_id":"levelo_inurba_marseille","lat":43.23182,"lon":5.39991,"is_reserved":false,"is_disabled":false,"rental_uris":{"android":"levelo://app?vid=9f2da96b-e073-41e9-9cb6-b8c289d4a763","ios":"levelo://app?vid=9f2da96b-e073-41e9-9cb6-b8c289d4a763"},"vehicle_type_id":"4","last_reported":1762359231,"current_range_meters":19200,"station_id":"ce4bhn12rcd13ifvqgqg","pricing_plan_id":"cebpf4jnsgd1na2vs0mg"},{"bike_id":"db142622-8c1e-4c90-8c64-6c0de8f77be4","system_id":"levelo_inurba_marseille","lat":43.21189,"lon":5.350775,"is_reserved":false,"is_disabled":false,"rental_uris":{"android":"levelo://app?vid=db142622-8c1e-4c90-8c64-6c0de8f77be4","ios":"levelo://app?vid=db142622-8c1e-4c90-8c64-6c0de8f77be4"},"vehicle_type_id":"4","last_reported":1762359231,"current_range_meters":19200,"station_id":"st_cvj6sg6p6f1abm77japg","pricing_plan_id":"cebpf4jnsgd1na2vs0mg"},{"bike_id":"27c1997d-b82a-4ec8-ba1a-dcbacd0c2472","system_id":"levelo_inurba_marseille","lat":43.29294,"lon":5.36835,"is_reserved":false,"is_disabled":false,"rental_uris":{"android":"levelo://app?vid=27c1997d-b82a-4ec8-ba1a-dcbacd0c2472","ios":"levelo://app?vid=27c1997d-b82a-4ec8-ba1a-dcbacd0c2472"},"vehicle_type_id":"4","last_reported":1762359231,"current_range_meters":19600,"station_id":"ce4bhbp2rcd13ifvqesg","pricing_plan_id":"cebpf4jnsgd1na2vs0mg"},{"bike_id":"9cbdc504-7ee7-467c-8b59-7fdd4f757557","system_id":"levelo_inurba_marseille","lat":43.309522,"lon":5.39031,"is_reserved":false,"is_disabled":false,"rental_uris":{"android":"levelo://app?vid=9cbdc504-7ee7-467c-8b59-7fdd4f757557","ios":"levelo://app?vid=9cbdc504-7ee7-467c-8b59-7fdd4f757557"},"vehicle_type_id":"4","last_reported":1762359231,"current_range_meters":19600,"station_id":"ce4bh492rcd13ifvqdug","pricing_plan_id":"cebpf4jnsgd1na2vs0mg"},{"bike_id":"43c80b3b-e96a-4090-a5e1-dcb041aff759","system_id":"levelo_inurba_marseille","lat":43.31321,"lon":5.39682,"is_reserved":false,"is_disabled":false,"rental_uris":{"android":"levelo://app?vid=43c80b3b-e96a-4090-a5e1-dcb041aff759","ios":"levelo://app?vid=43c80b3b-e96a-4090-a5e1-dcb041aff759"},"vehicle_type_id":"4","last_reported":1762359231,"current_range_meters":19600,"station_id":"ce4bgvp2rcd13ifvqcu0","pricing_plan_id":"cebpf4jnsgd1na2vs0mg"},{"bike_id":"d15d7ff9-806e-4436-af3b-f8a144ec3290","system_id":"levelo_inurba_marseille","lat":43.272,"lon":5.39193,"is_reserved":false,"is_disabled":true,"rental_uris":{"android":"levelo://app?vid=d15d7ff9-806e-4436-af3b-f8a144ec3290","ios":"levelo://app?vid=d15d7ff9-806e-4436-af3b-f8a144ec3290"},"vehicle_type_id":"4","last_reported":1762359231,"current_range_meters":19600,"station_id":"ce4bhhp2rcd13ifvqfm0","pricing_plan_id":"cebpf4jnsgd1na2vs0mg"},{"bike_id":"268d9bbe-d8e3-4dea-a8ac-95e7013dff6e","system_id":"levelo_inurba_marseille","lat":43.265425,"lon":5.372943,"is_reserved":false,"is_disabled":false,"rental_uris":{"android":"levelo://app?vid=268d9bbe-d8e3-4dea-a8ac-95e7013dff6e","ios":"levelo://app?vid=268d9bbe-d8e3-4dea-a8ac-95e7013dff6e"},"vehicle_type_id":"4","last_reported":1762359231,"current_range_meters":19600,"station_id":"ce4bhg12rcd13ifvqf70","pricing_plan_id":"cebpf4jnsgd1na2vs0mg"},{"bike_id":"01a57c46-f341-402c-aa52-948cd1c63408","system_id":"levelo_inurba_marseille","lat":43.2781,"lon":5.4071,"is_reserved":false,"is_disabled":false,"rental_uris":{"android":"levelo://app?vid=01a57c46-f341-402c-aa52-948cd1c63408","ios":"levelo://app?vid=01a57c46-f341-402c-aa52-948cd1c63408"},"vehicle_type_id":"4","last_reported":1762359231,"current_range_meters":20000,"station_id":"ce4bhnh2rcd13ifvqgtg","pricing_plan_id":"cebpf4jnsgd1na2vs0mg"},{"bike_id":"9db579f9-d9a2-47ac-aabf-2fb966cdf360","system_id":"levelo_inurba_marseille","lat":43.29632,"lon":5.40601,"is_reserved":false,"is_disabled":false,"rental_uris":{"android":"levelo://app?vid=9db579f9-d9a2-47ac-aabf-2fb966cdf360","ios":"levelo://app?vid=9db579f9-d9a2-47ac-aabf-2fb966cdf360"},