{"last_updated":1703847948,"ttl":30,"version":"2.2","data":{"bikes":[{"bike_id":"b29fa230-86de-4b00-bae1-ab98c3c96fc0","system_id":"levelo_inurba_marseille","lat":43.31341,"lon":5.367098,"is_reserved":false,"is_disabled":false,"rental_uris":{"android":"levelo://app?vid=b29fa230-86de-4b00-bae1-ab98c3c96fc0","ios":"levelo://app?vid=b29fa230-86de-4b00-bae1-ab98c3c96fc0"},"vehicle_type_id":"4","last_reported":1703847948,"current_range_meters":18400,"station_id":"ce4bgr92rcd13ifvqc6g","pricing_plan_id":"free"},{"bike_id":"58882068-94a6-41d2-b81c-250a815b3f28","system_id":"levelo_inurba_marseille","lat":43.314811,"lon":5.373104,"is_reserved":false,"is_disabled":false,"rental_uris":{"android":"levelo://app?vid=58882068-94a6-41d2-b81c-250a815b3f28","ios":"levelo://app?vid=58882068-94a6-41d2-b81c-250a815b3f28"},"vehicle_type_id":"4","last_reported":1703847948,"current_range_meters":22400,"station_id":"ce4bgt12rcd13ifvqcd0","pricing_plan_id":"free"},{"bike_id":"5b849cb2-bb20-4562-9931-da93835f0f60","system_id":"levelo_inurba_marseille","lat":43.309039,"lon":5.371797,"is_reserved":false,"is_disabled":false,"rental_uris":{"android":"levelo://app?vid=5b849cb2-bb20-4562-9931-da93835f0f60","ios":"levelo://app?vid=5b849cb2-bb20-4562-9931-da93835f0f60"},"vehicle_type_id":"4","last_reported":1703847948,"current_range_meters":29200,"station_id":"ce4bguh2rcd13ifvqckg","pricing_plan_id":"free"},{"bike_id":"44443f35-52b2-4820-a03d-d5e5c4a6bed7","system_id":"levelo_inurba_marseille","lat":43.309039,"lon":5.371797,"is_reserved":false,"is_disabled":false,"rental_uris":{"android":"levelo://app?vid=44443f35-52b2-4820-a03d-d5e5c4a6bed7","ios":"levelo://app?vid=44443f35-52b2-4820-a03d-d5e5c4a6bed7"},"vehicle_type_id":"4","last_reported":1703847948,"current_range_meters":26400,"station_id":"ce4bguh2rcd13ifvqckg","pricing_plan_id":"free"},{"bike_id":"1e000501-dc25-4cff-9adb-df9ee7e6acb7","system_id":"levelo_inurba_marseille","lat":43.309039,"lon":5.371797,"is_reserved":false,"is_disabled":false,"rental_uris":{"android":"levelo://app?vid=1e000501-dc25-4cff-9adb-df9ee7e6acb7","ios":"levelo://app?vid=1e000501-dc25-4cff-9adb-df9ee7e6acb7"},"vehicle_type_id":"4","last_reported":1703847948,"current_range_meters":21200,"station_id":"ce4bguh2rcd13ifvqckg","pricing_plan_id":"free"},{"bike_id":"a5aac7fd-33ca-46a3-98d8-21e6de83a247","system_id":"levelo_inurba_marseille","lat":43.31822,"lon":5.37286,"is_reserved":false,"is_disabled":false,"rental_uris":{"android":"levelo://app?vid=a5aac7fd-33ca-46a3-98d8-21e6de83a247","ios":"levelo://app?vid=a5aac7fd-33ca-46a3-98d8-21e6de83a247"},"vehicle_type_id":"4","last_reported":1703847948,"current_range_meters":22000,"station_id":"","pricing_plan_id":"free"},{"bike_id":"85bf332f-195f-4c21-a399-f54927826088","system_id":"levelo_inurba_marseille","lat":43.305706,"lon":5.365654,"is_reserved":false,"is_disabled":false,"rental_uris":{"android":"levelo://app?vid=85bf332f-195f-4c21-a399-f54927826088","ios":"levelo://app?vid=85bf332f-195f-4c21-a399-f54927826088"},"vehicle_type_id":"4","last_reported":1703847948,"current_range_meters":17200,"station_id":"ce4bgs12rcd13ifvqcag","pricing_plan_id":"free"},{"bike_id":"608b4a68-007d-472d-ad7a-cacdde132626","system_id":"levelo_inurba_marseille","lat":43.305712,"lon":5.365641,"is_reserved":false,"is_disabled":false,"rental_uris":{"android":"levelo://app?vid=608b4a68-007d-472d-ad7a-cacdde132626","ios":"levelo://app?vid=608b4a68-007d-472d-ad7a-cacdde132626"},"vehicle_type_id":"4","last_reported":1703847948,"current_range_meters":19200,"station_id":"ce4bgs12rcd13ifvqcag","pricing_plan_id":"free"},{"bike_id":"da0c6436-1550-4bdf-a4e3-327bd6db5921","system_id":"levelo_inurba_marseille","lat":43.305419,"lon":5.365429,"is_reserved":false,"is_disabled":false,"rental_uris":{"android":"levelo://app?vid=da0c6436-1550-4bdf-a4e3-327bd6db5921","ios":"levelo://app?vid=da0c6436-1550-4bdf-a4e3-327bd6db5921"},"vehicle_type_id":"4","last_reported":1703847948,"current_range_meters":31200,"station_id":"ce4bgs12rcd13ifvqcag","pricing_plan_id":"free"},{"bike_id":"d47fb8ef-2d46-4cb4-b4c8-d45af96174b6","system_id":"levelo_inurba_marseille","lat":43.30539,"lon":5.36536,"is_reserved":false,"is_disabled":false,"rental_uris":{"android":"levelo://app?vid=d47fb8ef-2d46-4cb4-b4c8-d45af96174b6","ios":"levelo://app?vid=d47fb8ef-2d46-4cb4-b4c8-d45af96174b6"},"vehicle_type_id":"4","last_reported":1703847948,"current_range_meters":29600,"station_id":"ce4bgs12rcd13ifvqcag","pricing_plan_id":"free"},{"bike_id":"2bf1159c-4b34-4bc3-a8b5-156be571c011","system_id":"levelo_inurba_marseille","lat":43.30724,"lon":5.37382,"is_reserved":false,"is_disabled":false,"rental_uris":{"android":"levelo://app?vid=2bf1159c-4b34-4bc3-a8b5-156be571c011","ios":"levelo://app?vid=2bf1159c-4b34-4bc3-a8b5-156be571c011"},"vehicle_type_id":"4","last_reported":1703847948,"current_range_meters":28800,"station_id":"","pricing_plan_id":"free"},{"bike_id":"07a6ce2f-f44f-48c3-ab70-7cb3fe5d702c","system_id":"levelo_inurba_marseille","lat":43.305706,"lon":5.365654,"is_reserved":false,"is_disabled":false,"rental_uris":{"android":"levelo://app?vid=07a6ce2f-f44f-48c3-ab70-7cb3fe5d702c","ios":"levelo://app?vid=07a6ce2f-f44f-48c3-ab70-7cb3fe5d702c"},"vehicle_type_id":"4","last_reported":1703847948,"current_range_meters":24800,"station_id":"ce4bgs12rcd13ifvqcag","pricing_plan_id":"free"},{"bike_id":"d9ac79ea-39f8-4fb6-b46f-024017eba94f","system_id":"levelo_inurba_marseille","lat":43.305706,"lon":5.365654,"is_reserved":false,"is_disabled":false,"rental_uris":{"android":"levelo://app?vid=d9ac79ea-39f8-4fb6-b46f-024017eba94f","ios":"levelo://app?vid=d9ac79ea-39f8-4fb6-b46f-024017eba94f"},"vehicle_type_id":"4","last_reported":1703847948,"current_range_meters":5200,"station_id":"ce4bgs12rcd13ifvqcag","pricing_plan_id":"free"},{"bike_id":"0cd73e44-a0a7-4305-b215-45404e84db96","system_id":"levelo_inurba_marseille","lat":43.305706,"lon":5.365654,"is_reserved":false,"is_disabled":false,"rental_uris":{"android":"levelo://app?vid=0cd73e44-a0a7-4305-b215-45404e84db96","ios":"levelo://app?vid=0cd73e44-a0a7-4305-b215-45404e84db96"},"vehicle_type_id":"4","last_reported":1703847948,"current_range_meters":31600,"station_id":"ce4bgs12rcd13ifvqcag","pricing_plan_id":"free"},{"bike_id":"189c35b5-972c-4c3b-b16b-c3196730e953","system_id":"levelo_inurba_marseille","lat":43.305706,"lon":5.365654,"is_reserved":false,"is_disabled":false,"rental_uris":{"android":"levelo://app?vid=189c35b5-972c-4c3b-b16b-c3196730e953","ios":"levelo://app?vid=189c35b5-972c-4c3b-b16b-c3196730e953"},"vehicle_type_id":"4","last_reported":1703847948,"current_range_meters":5200,"station_id":"ce4bgs12rcd13ifvqcag","pricing_plan_id":"free"},{"bike_id":"55be3461-0fbd-46bc-9675-7fa84a1b209e","system_id":"levelo_inurba_marseille","lat":43.305989,"lon":5.37225,"is_reserved":false,"is_disabled":false,"rental_uris":{"android":"levelo://app?vid=55be3461-0fbd-46bc-9675-7fa84a1b209e","ios":"levelo://app?vid=55be3461-0fbd-46bc-9675-7fa84a1b209e"},"vehicle_type_id":"4","last_reported":1703847948,"current_range_meters":27600,"station_id":"ce4bgqh2rcd13ifvqc4g","pricing_plan_id":"free"},{"bike_id":"b1c1aab2-2ace-4e37-b25e-72bb48c75242","system_id":"levelo_inurba_marseille","lat":43.305989,"lon":5.37225,"is_reserved":false,"is_disabled":false,"rental_uris":{"android":"levelo://app?vid=b1c1aab2-2ace-4e37-b25e-72bb48c75242","ios":"levelo://app?vid=b1c1aab2-2ace-4e37-b25e-72bb48c75242"},"vehicle_type_id":"4","last_reported":1703847948,"current_range_meters":6400,"station_id":"ce4bgqh2rcd13ifvqc4g","pricing_plan_id":"free"},{"bike_id":"e0b9c4ea-6580-4c71-9aa6-916af83c690e","system_id":"levelo_inurba_marseille","lat":43.305989,"lon":5.37225,"is_reserved":false,"is_disabled":false,"rental_uris":{"android":"levelo://app?vid=e0b9c4ea-6580-4c71-9aa6-916af83c690e","ios":"levelo://app?vid=e0b9c4ea-6580-4c71-9aa6-916af83c690e"},"vehicle_type_id":"4","last_reported":1703847948,"current_range_meters":21200,"station_id":"ce4bgqh2rcd13ifvqc4g","pricing_plan_id":"free"},{"bike_id":"10c24399-d987-4050-90a0-f906aaf45027","system_id":"levelo_inurba_marseille","lat":43.305989,"lon":5.37225,"is_reserved":false,"is_disabled":false,"rental_uris":{"android":"levelo://app?vid=10c24399-d987-4050-90a0-f906aaf45027","ios":"levelo://app?vid=10c24399-d987-4050-90a0-f906aaf45027"},"vehicle_type_id":"4","last_reported":1703847948,"current_range_meters":22800,"station_id":"ce4bgqh2rcd13ifvqc4g","pricing_plan_id":"free"},{"bike_id":"7f0ac62c-b320-4b19-8a13-9d18056fe63f","system_id":"levelo_inurba_marseille","lat":43.305989,"lon":5.37225,"is_reserved":false,"is_disabled":false,"rental_uris":{"android":"levelo://app?vid=7f0ac62c-b320-4b19-8a13-9d18056fe63f","ios":"levelo://app?vid=7f0ac62c-b320-4b19-8a13-9d18056fe63f"},"vehicle_type_id":"4","last_reported":1703847948,"current_range_meters":31600,"station_id":"ce4bgqh2rcd13ifvqc4g","pricing_plan_id":"free"},{"bike_id":"0682ba12-3ef8-4a10-9558-dd2661b42520","system_id":"levelo_inurba_marseille","lat":43.307945,"lon":5.376487,"is_reserved":false,"is_disabled":false,"rental_uris":{"android":"levelo://app?vid=0682ba12-3ef8-4a10-9558-dd2661b42520","ios":"levelo://app?vid=0682ba12-3ef8-4a10-9558-dd2661b42520"},"vehicle_type_id":"4","last_reported":1703847948,"current_range_meters":28400,"station_id":"ce4bgv92rcd13ifvqcq0","pricing_plan_id":"free"},{"bike_id":"a9a5dfd0-b300-4fc2-b6e7-fd986ab57c3a","system_id":"levelo_inurba_marseille","lat":43.307945,"lon":5.376487,"is_reserved":false,"is_disabled":false,"rental_uris":{"android":"levelo://app?vid=a9a5dfd0-b300-4fc2-b6e7-fd986ab57c3a","ios":"levelo://app?vid=a9a5dfd0-b300-4fc2-b6e7-fd986ab57c3a"},"vehicle_type_id":"4","last_reported":1703847948,"current_range_meters":31200,"station_id":"ce4bgv92rcd13ifvqcq0","pricing_plan_id":"free"},{"bike_id":"71049d74-1ec8-497c-881b-34c4947d99e5","system_id":"levelo_inurba_marseille","lat":43.317075,"lon":5.377367,"is_reserved":false,"is_disabled":false,"rental_uris":{"android":"levelo://app?vid=71049d74-1ec8-497c-881b-34c4947d99e5","ios":"levelo://app?vid=71049d74-1ec8-497c-881b-34c4947d99e5"},"vehicle_type_id":"4","last_reported":1703847948,"current_range_meters":23200,"station_id":"ce4bgth2rcd13ifvqch0","pricing_plan_id":"free"},{"bike_id":"11f76219-cc9d-49d1-852b-dfc7e044b580","system_id":"levelo_inurba_marseille","lat":43.303046,"lon":5.368981,"is_reserved":false,"is_disabled":false,"rental_uris":{"android":"levelo://app?vid=11f76219-cc9d-49d1-852b-dfc7e044b580","ios":"levelo://app?vid=11f76219-cc9d-49d1-852b-dfc7e044b580"},"vehicle_type_id":"4","last_reported":1703847948,"current_range_meters":29200,"station_id":"ce4bgqh2rcd13ifvqc5g","pricing_plan_id":"free"},{"bike_id":"418069a6-0b8b-428d-acc3-e49a938a31b9","system_id":"levelo_inurba_marseille","lat":43.303046,"lon":5.368981,"is_reserved":false,"is_disabled":false,"rental_uris":{"android":"levelo://app?vid=418069a6-0b8b-428d-acc3-e49a938a31b9","ios":"levelo://app?vid=418069a6-0b8b-428d-acc3-e49a938a31b9"},"vehicle_type_id":"4","last_reported":1703847948,"current_range_meters":27200,"station_id":"ce4bgqh2rcd13ifvqc5g","pricing_plan_id":"free"},{"bike_id":"20de0219-b392-435d-9bc4-8ef6ef7347ff","system_id":"levelo_inurba_marseille","lat":43.303046,"lon":5.368981,"is_reserved":false,"is_disabled":false,"rental_uris":{"android":"levelo://app?vid=20de0219-b392-435d-9bc4-8ef6ef7347ff","ios":"levelo://app?vid=20de0219-b392-435d-9bc4-8ef6ef7347ff"},"vehicle_type_id":"4","last_reported":1703847948,"current_range_meters":17200,"station_id":"ce4bgqh2rcd13ifvqc5g","pricing_plan_id":"free"},{"bike_id":"90db3963-6212-4aaf-8329-f77edccb687b","system_id":"levelo_inurba_marseille","lat":43.302867,"lon":5.372033,"is_reserved":false,"is_disabled":false,"rental_uris":{"android":"levelo://app?vid=90db3963-6212-4aaf-8329-f77edccb687b","ios":"levelo://app?vid=90db3963-6212-4aaf-8329-f77edccb687b"},"vehicle_type_id":"4","last_reported":1703847948,"current_range_meters":4400,"station_id":"","pricing_plan_id":"free"},{"bike_id":"a7de2c43-285a-431c-a230-b689c4d3bcce","system_id":"levelo_inurba_marseille","lat":43.308012,"lon":5.381511,"is_reserved":false,"is_disabled":false,"rental_uris":{"android":"levelo://app?vid=a7de2c43-285a-431c-a230-b689c4d3bcce","ios":"levelo://app?vid=a7de2c43-285a-431c-a230-b689c4d3bcce"},"vehicle_type_id":"4","last_reported":1703847948,"current_range_meters":27600,"station_id":"ce4bgt12rcd13ifvqce0","pricing_plan_id":"free"},{"bike_id":"fc62a8e3-8b90-4fbd-9036-714df192acb1","system_id":"levelo_inurba_marseille","lat":43.304606,"lon":5.379026,"is_reserved":false,"is_disabled":false,"rental_uris":{"android":"levelo://app?vid=fc62a8e3-8b90-4fbd-9036-714df192acb1","ios":"levelo://app?vid=fc62a8e3-8b90-4fbd-9036-714df192acb1"},"vehicle_type_id":"4","last_reported":1703847948,"current_range_meters":17200,"station_id":"ce4bgup2rcd13ifvqcn0","pricing_plan_id":"free"},{"bike_id":"2be804a4-7d19-4dcd-8ff4-fd71e63b9636","system_id":"levelo_inurba_marseille","lat":43.304606,"lon":5.379026,"is_reserved":false,"is_disabled":false,"rental_uris":{"android":"levelo://app?vid=2be804a4-7d19-4dcd-8ff4-fd71e63b9636","ios":"levelo://app?vid=2be804a4-7d19-4dcd-8ff4-fd71e63b9636"},"vehicle_type_id":"4","last_reported":1703847948,"current_range_meters":21200,"station_id":"ce4bgup2rcd13ifvqcn0","pricing_plan_id":"free"},{"bike_id":"9cf75e76-8f02-4564-90e5-2b3b4935e573","system_id":"levelo_inurba_marseille","lat":43.304606,"lon":5.379026,"is_reserved":false,"is_disabled":false,"rental_uris":{"android":"levelo://app?vid=9cf75e76-8f02-4564-90e5-2b3b4935e573","ios":"levelo://app?vid=9cf75e76-8f02-4564-90e5-2b3b4935e573"},"vehicle_type_id":"4","last_reported":1703847948,"current_range_meters":22000,"station_id":"ce4bgup2rcd13ifvqcn0","pricing_plan_id":"free"},{"bike_id":"f15b892e-52a0-44bd-8af0-c727e84edf41","system_id":"levelo_inurba_marseille","lat":43.304606,"lon":5.379026,"is_reserved":false,"is_disabled":false,"rental_uris":{"android":"levelo://app?vid=f15b892e-52a0-44bd-8af0-c727e84edf41","ios":"levelo://app?vid=f15b892e-52a0-44bd-8af0-c727e84edf41"},"vehicle_type_id":"4","last_reported":1703847948,"current_range_meters":14400,"station_id":"ce4bgup2rcd13ifvqcn0","pricing_plan_id":"free"},{"bike_id":"5aba64c7-8e55-4d13-a986-180d5b4f2ae8","system_id":"levelo_inurba_marseille","lat":43.304606,"lon":5.379026,"is_reserved":false,"is_disabled":false,"rental_uris":{"android":"levelo://app?vid=5aba64c7-8e55-4d13-a986-180d5b4f2ae8","ios":"levelo://app?vid=5aba64c7-8e55-4d13-a986-180d5b4f2ae8"},"vehicle_type_id":"4","last_reported":1703847948,"current_range_meters":22400,"station_id":"ce4bgup2rcd13ifvqcn0","pricing_plan_id":"free"},{"bike_id":"caac3c02-2b03-452c-b71c-3f50d8fbc6e7","system_id":"levelo_inurba_marseille","lat":43.304606,"lon":5.379026,"is_reserved":false,"is_disabled":false,"rental_uris":{"android":"levelo://app?vid=caac3c02-2b03-452c-b71c-3f50d8fbc6e7","ios":"levelo://app?vid=caac3c02-2b03-452c-b71c-3f50d8fbc6e7"},"vehicle_type_id":"4","last_reported":1703847948,"current_range_meters":30000,"station_id":"ce4bgup2rcd13ifvqcn0","pricing_plan_id":"free"},{"bike_id":"82f609bf-7df5-48ae-8f8e-9f544b74ea21","system_id":"levelo_inurba_marseille","lat":43.304606,"lon":5.379026,"is_reserved":false,"is_disabled":false,"rental_uris":{"android":"levelo://app?vid=82f609bf-7df5-48ae-8f8e-9f544b74ea21","ios":"levelo://app?vid=82f609bf-7df5-48ae-8f8e-9f544b74ea21"},"vehicle_type_id":"4","last_reported":1703847948,"current_range_meters":22800,"station_id":"ce4bgup2rcd13ifvqcn0","pricing_plan_id":"free"},{"bike_id":"65a7d136-99e5-4eda-8dd9-8c128dc8f4fe","system_id":"levelo_inurba_marseille","lat":43.324771,"lon":5.36557,"is_reserved":false,"is_disabled":false,"rental_uris":{"android":"levelo://app?vid=65a7d136-99e5-4eda-8dd9-8c128dc8f4fe","ios":"levelo://app?vid=65a7d136-99e5-4eda-8dd9-8c128dc8f4fe"},"vehicle_type_id":"4","last_reported":1703847948,"current_range_meters":19200,"station_id":"ce4bhs12rcd13ifvqhvg","pricing_plan_id":"free"},{"bike_id":"7e5fd0c9-2750-437d-9ddb-5dfbe17e4d1f","system_id":"levelo_inurba_marseille","lat":43.304606,"lon":5.379026,"is_reserved":false,"is_disabled":false,"rental_uris":{"android":"levelo://app?vid=7e5fd0c9-2750-437d-9ddb-5dfbe17e4d1f","ios":"levelo://app?vid=7e5fd0c9-2750-437d-9ddb-5dfbe17e4d1f"},"vehicle_type_id":"4","last_reported":1703847948,"current_range_meters":22000,"station_id":"ce4bgup2rcd13ifvqcn0","pricing_plan_id":"free"},{"bike_id":"eb75f652-373e-4726-9e33-c05a085e4a2d","system_id":"levelo_inurba_marseille","lat":43.301453,"lon":5.37416,"is_reserved":false,"is_disabled":false,"rental_uris":{"android":"levelo://app?vid=eb75f652-373e-4726-9e33-c05a085e4a2d","ios":"levelo://app?vid=eb75f652-373e-4726-9e33-c05a085e4a2d"},"vehicle_type_id":"4","last_reported":1703847948,"current_range_meters":2400,"station_id":"","pricing_plan_id":"free"},{"bike_id":"68943fca-7a03-46b5-9443-d55dd2a02cee","system_id":"levelo_inurba_marseille","lat":43.301429,"lon":5.37413,"is_reserved":false,"is_disabled":false,"rental_uris":{"android":"levelo://app?vid=68943fca-7a03-46b5-9443-d55dd2a02cee","ios":"levelo://app?vid=68943fca-7a03-46b5-9443-d55dd2a02cee"},"vehicle_type_id":"4","last_reported":1703847948,"current_range_meters":31200,"station_id":"ce4bgs92rcd13ifvqcc0","pricing_plan_id":"free"},{"bike_id":"d6846346-6fc9-4f47-a16b-79973d5c3bea","system_id":"levelo_inurba_marseille","lat":43.30143,"lon":5.37413,"is_reserved":false,"is_disabled":false,"rental_uris":{"android":"levelo://app?vid=d6846346-6fc9-4f47-a16b-79973d5c3bea","ios":"levelo://app?vid=d6846346-6fc9-4f47-a16b-79973d5c3bea"},"vehicle_type_id":"4","last_reported":1703847948,"current_range_meters":27600,"station_id":"ce4bgs92rcd13ifvqcc0","pricing_plan_id":"free"},{"bike_id":"a2a4190a-dd08-4db5-a4d9-0d0f4f4930ef","system_id":"levelo_inurba_marseille","lat":43.301429,"lon":5.37413,"is_reserved":false,"is_disabled":false,"rental_uris":{"android":"levelo://app?vid=a2a4190a-dd08-4db5-a4d9-0d0f4f4930ef","ios":"levelo://app?vid=a2a4190a-dd08-4db5-a4d9-0d0f4f4930ef"},"vehicle_type_id":"4","last_reported":1703847948,"current_range_meters":18400,"station_id":"ce4bgs92rcd13ifvqcc0","pricing_plan_id":"free"},{"bike_id":"be005218-082b-4ff0-a467-1b11cf78b6b3","system_id":"levelo_inurba_marseille","lat":43.319935,"lon":5.381699,"is_reserved":false,"is_disabled":false,"rental_uris":{"android":"levelo://app?vid=be005218-082b-4ff0-a467-1b11cf78b6b3","ios":"levelo://app?vid=be005218-082b-4ff0-a467-1b11cf78b6b3"},"vehicle_type_id":"4","last_reported":1703847948,"current_range_meters":23200,"station_id":"ce4bhr12rcd13ifvqhpg","pricing_plan_id":"free"},{"bike_id":"771b0024-f5b3-4315-90d0-7f128572b3b4","system_id":"levelo_inurba_marseille","lat":43.319935,"lon":5.381699,"is_reserved":false,"is_disabled":false,"rental_uris":{"android":"levelo://app?vid=771b0024-f5b3-4315-90d0-7f128572b3b4","ios":"levelo://app?vid=771b0024-f5b3-4315-90d0-7f128572b3b4"},"vehicle_type_id":"4","last_reported":1703847948,"current_range_meters":27200,"station_id":"ce4bhr12rcd13ifvqhpg","pricing_plan_id":"free"},{"bike_id":"c9ae0f03-960e-4700-bf93-cf2e727178c0","system_id":"levelo_inurba_marseille","lat":43.313571,"lon":5.384829,"is_reserved":false,"is_disabled":false,"rental_uris":{"android":"levelo://app?vid=c9ae0f03-960e-4700-bf93-cf2e727178c0","ios":"levelo://app?vid=c9ae0f03-960e-4700-bf93-cf2e727178c0"},"vehicle_type_id":"4","last_reported":1703847948,"current_range_meters":30400,"station_id":"ce4bgt92rcd13ifvqcf0","pricing_plan_id":"free"},{"bike_id":"6aab7a94-fa15-4b76-adbf-c91b2932e1e7","system_id":"levelo_inurba_marseille","lat":43.299222,"lon":5.365554,"is_reserved":false,"is_disabled":false,"rental_uris":{"android":"levelo://app?vid=6aab7a94-fa15-4b76-adbf-c91b2932e1e7","ios":"levelo://app?vid=6aab7a94-fa15-4b76-adbf-c91b2932e1e7"},"vehicle_type_id":"4","last_reported":1703847948,"current_range_meters":27200,"station_id":"ce4bgm92rcd13ifvqbr0","pricing_plan_id":"free"},{"bike_id":"cde2157f-d101-4fe1-a6dd-d7104f9397a6","system_id":"levelo_inurba_marseille","lat":43.299222,"lon":5.365554,"is_reserved":false,"is_disabled":false,"rental_uris":{"android":"levelo://app?vid=cde2157f-d101-4fe1-a6dd-d7104f9397a6","ios":"levelo://app?vid=cde2157f-d101-4fe1-a6dd-d7104f9397a6"},"vehicle_type_id":"4","last_reported":1703847948,"current_range_meters":22400,"station_id":"ce4bgm92rcd13ifvqbr0","pricing_plan_id":"free"},{"bike_id":"f3c66c0c-115b-48b7-a7ea-b32b7e2beb21","system_id":"levelo_inurba_marseille","lat":43.299724,"lon":5.371829,"is_reserved":false,"is_disabled":false,"rental_uris":{"android":"levelo://app?vid=f3c66c0c-115b-48b7-a7ea-b32b7e2beb21","ios":"levelo://app?vid=f3c66c0c-115b-48b7-a7ea-b32b7e2beb21"},"vehicle_type_id":"4","last_reported":1703847948,"current_range_meters":20000,"station_id":"ce4bgr92rcd13ifvqc7g","pricing_plan_id":"free"},{"bike_id":"4b67a15a-6302-4682-96e7-285eed503aa6","system_id":"levelo_inurba_marseille","lat":43.298433,"lon":5.362774,"is_reserved":false,"is_disabled":false,"rental_uris":{"android":"levelo://app?vid=4b67a15a-6302-4682-96e7-285eed503aa6","ios":"levelo://app?vid=4b67a15a-6302-4682-96e7-285eed503aa6"},"vehicle_type_id":"4","last_reported":1703847948,"current_range_meters":22000,"station_id":"ce4bgpp2rcd13ifvqc3g","pricing_plan_id":"free"},{"bike_id":"d7de5682-8545-4bbb-a259-8a8db05a9943","system_id":"levelo_inurba_marseille","lat":43.298433,"lon":5.362774,"is_reserved":false,"is_disabled":false,"rental_uris":{"android":"levelo://app?vid=d7de5682-8545-4bbb-a259-8a8db05a9943","ios":"levelo://app?vid=d7de5682-8545-4bbb-a259-8a8db05a9943"},"vehicle_type_id":"4","last_reported":1703847948,"current_range_meters":28400,"station_id":"ce4bgpp2rcd13ifvqc3g","pricing_plan_id":"free"},{"bike_id":"2ad237aa-91b5-4ab8-a128-4500dced085d","system_id":"levelo_inurba_marseille","lat":43.298433,"lon":5.362774,"is_reserved":false,"is_disabled":false,"rental_uris":{"android":"levelo://app?vid=2ad237aa-91b5-4ab8-a128-4500dced085d","ios":"levelo://app?vid=2ad237aa-91b5-4ab8-a128-4500dced085d"},"vehicle_type_id":"4","last_reported":1703847948,"current_range_meters":19600,"station_id":"ce4bgpp2rcd13ifvqc3g","pricing_plan_id":"free"},{"bike_id":"f5b39c03-b7ed-4df9-aa9c-84c55a007399","system_id":"levelo_inurba_marseille","lat":43.298433,"lon":5.362774,"is_reserved":false,"is_disabled":false,"rental_uris":{"android":"levelo://app?vid=f5b39c03-b7ed-4df9-aa9c-84c55a007399","ios":"levelo://app?vid=f5b39c03-b7ed-4df9-aa9c-84c55a007399"},"vehicle_type_id":"4","last_reported":1703847948,"current_range_meters":28800,"station_id":"ce4bgpp2rcd13ifvqc3g","pricing_plan_id":"free"},{"bike_id":"300e7562-ac0e-4e90-acdc-50debc8fc68d","system_id":"levelo_inurba_marseille","lat":43.298433,"lon":5.362774,"is_reserved":false,"is_disabled":false,"rental_uris":{"android":"levelo://app?vid=300e7562-ac0e-4e90-acdc-50debc8fc68d","ios":"levelo://app?vid=300e7562-ac0e-4e90-acdc-50debc8fc68d"},"vehicle_type_id":"4","last_reported":1703847948,"current_range_meters":16800,"station_id":"ce4bgpp2rcd13ifvqc3g","pricing_plan_id":"free"},{"bike_id":"9fa8f97d-548d-48ea-85ce-315170f856b2","system_id":"levelo_inurba_marseille","lat":43.298433,"lon":5.362774,"is_reserved":false,"is_disabled":false,"rental_uris":{"android":"levelo://app?vid=9fa8f97d-548d-48ea-85ce-315170f856b2","ios":"levelo://app?vid=9fa8f97d-548d-48ea-85ce-315170f856b2"},"vehicle_type_id":"4","last_reported":1703847948,"current_range_meters":19200,"station_id":"ce4bgpp2rcd13ifvqc3g","pricing_plan_id":"free"},{"bike_id":"4f4ac79f-9ac4-4fbc-8618-930b912c5086","system_id":"levelo_inurba_marseille","lat":43.29843,"lon":5.36267,"is_reserved":false,"is_disabled":false,"rental_uris":{"android":"levelo://app?vid=4f4ac79f-9ac4-4fbc-8618-930b912c5086","ios":"levelo://app?vid=4f4ac79f-9ac4-4fbc-8618-930b912c5086"},"vehicle_type_id":"4","last_reported":1703847948,"current_range_meters":6400,"station_id":"ce4bgpp2rcd13ifvqc3g","pricing_plan_id":"free"},{"bike_id":"9c3808e2-91cc-4303-ab02-e24046dea3ce","system_id":"levelo_inurba_marseille","lat":43.299243,"lon":5.37481,"is_reserved":false,"is_disabled":false,"rental_uris":{"android":"levelo://app?vid=9c3808e2-91cc-4303-ab02-e24046dea3ce","ios":"levelo://app?vid=9c3808e2-91cc-4303-ab02-e24046dea3ce"},"vehicle_type_id":"4","last_reported":1703847948,"current_range_meters":25600,"station_id":"ce4bgjh2rcd13ifvqbg0","pricing_plan_id":"free"},{"bike_id":"6593638e-700c-4c76-a081-5e8a09d348e5","system_id":"levelo_inurba_marseille","lat":43.297794,"lon":5.370888,"is_reserved":false,"is_disabled":false,"rental_uris":{"android":"levelo://app?vid=6593638e-700c-4c76-a081-5e8a09d348e5","ios":"levelo://app?vid=6593638e-700c-4c76-a081-5e8a09d348e5"},"vehicle_type_id":"4","last_reported":1703847948,"current_range_meters":31200,"station_id":"ce4bgop2rcd13ifvqc1g","pricing_plan_id":"free"},{"bike_id":"accbbe6d-f8a2-4d0d-badc-393301aad27d","system_id":"levelo_inurba_marseille","lat":43.322872,"lon":5.382756,"is_reserved":false,"is_disabled":false,"rental_uris":{"android":"levelo://app?vid=accbbe6d-f8a2-4d0d-badc-393301aad27d","ios":"levelo://app?vid=accbbe6d-f8a2-4d0d-badc-393301aad27d"},"vehicle_type_id":"4","last_reported":1703847948,"current_range_meters":28800,"station_id":"ce4bhr12rcd13ifvqhqg","pricing_plan_id":"free"},{"bike_id":"3270f28d-7b09-46cb-ba43-f40752fc3385","system_id":"levelo_inurba_marseille","lat":43.322872,"lon":5.382756,"is_reserved":false,"is_disabled":false,"rental_uris":{"android":"levelo://app?vid=3270f28d-7b09-46cb-ba43-f40752fc3385","ios":"levelo://app?vid=3270f28d-7b09-46cb-ba43-f40752fc3385"},"vehicle_type_id":"4","last_reported":1703847948,"current_range_meters":31200,"station_id":"ce4bhr12rcd13ifvqhqg","pricing_plan_id":"free"},{"bike_id":"46dbe005-5ca3-482b-baed-bdd79922e2fc","system_id":"levelo_inurba_marseille","lat":43.3282,"lon":5.366903,"is_reserved":false,"is_disabled":false,"rental_uris":{"android":"levelo://app?vid=46dbe005-5ca3-482b-baed-bdd79922e2fc","ios":"levelo://app?vid=46dbe005-5ca3-482b-baed-bdd79922e2fc"},"vehicle_type_id":"4","last_reported":1703847948,"current_range_meters":22800,"station_id":"ce4bhs92rcd13ifvqi0g","pricing_plan_id":"free"},{"bike_id":"5c89eee7-6e83-42b4-bd81-efdcf68f6666","system_id":"levelo_inurba_marseille","lat":43.328217,"lon":5.366727,"is_reserved":false,"is_disabled":false,"rental_uris":{"android":"levelo://app?vid=5c89eee7-6e83-42b4-bd81-efdcf68f6666","ios":"levelo://app?vid=5c89eee7-6e83-42b4-bd81-efdcf68f6666"},"vehicle_type_id":"4","last_reported":1703847948,"current_range_meters":28400,"station_id":"ce4bhs92rcd13ifvqi0g","pricing_plan_id":"free"},{"bike_id":"a677cd10-a09b-4b2e-bffd-45b05d2c9229","system_id":"levelo_inurba_marseille","lat":43.328245,"lon":5.36677,"is_reserved":false,"is_disabled":false,"rental_uris":{"android":"levelo://app?vid=a677cd10-a09b-4b2e-bffd-45b05d2c9229","ios":"levelo://app?vid=a677cd10-a09b-4b2e-bffd-45b05d2c9229"},"vehicle_type_id":"4","last_reported":1703847948,"current_range_meters":22000,"station_id":"ce4bhs92rcd13ifvqi0g","pricing_plan_id":"free"},{"bike_id":"c99c1421-6c70-45e1-a99f-19afba82ca69","system_id":"levelo_inurba_marseille","lat":43.32826,"lon":5.36679,"is_reserved":false,"is_disabled":false,"rental_uris":{"android":"levelo://app?vid=c99c1421-6c70-45e1-a99f-19afba82ca69","ios":"levelo://app?vid=c99c1421-6c70-45e1-a99f-19afba82ca69"},"vehicle_type_id":"4","last_reported":1703847948,"current_range_meters":30000,"station_id":"ce4bhs92rcd13ifvqi0g","pricing_plan_id":"free"},{"bike_id":"51714c4a-3132-4951-88ec-80e85fa125e8","system_id":"levelo_inurba_marseille","lat":43.32827,"lon":5.36684,"is_reserved":false,"is_disabled":false,"rental_uris":{"android":"levelo://app?vid=51714c4a-3132-4951-88ec-80e85fa125e8","ios":"levelo://app?vid=51714c4a-3132-4951-88ec-80e85fa125e8"},"vehicle_type_id":"4","last_reported":1703847948,"current_range_meters":14800,"station_id":"ce4bhs92rcd13ifvqi0g","pricing_plan_id":"free"},{"bike_id":"b30b3d1b-ef61-4776-bd7b-61c34fd8cc81","system_id":"levelo_inurba_marseille","lat":43.32827,"lon":5.366822,"is_reserved":false,"is_disabled":false,"rental_uris":{"android":"levelo://app?vid=b30b3d1b-ef61-4776-bd7b-61c34fd8cc81","ios":"levelo://app?vid=b30b3d1b-ef61-4776-bd7b-61c34fd8cc81"},"vehicle_type_id":"4","last_reported":1703847948,"current_range_meters":13200,"station_id":"ce4bhs92rcd13ifvqi0g","pricing_plan_id":"free"},{"bike_id":"a448ca86-2b35-41e1-89c4-32a99bab0563","system_id":"levelo_inurba_marseille","lat":43.328371,"lon":5.366912,"is_reserved":false,"is_disabled":false,"rental_uris":{"android":"levelo://app?vid=a448ca86-2b35-41e1-89c4-32a99bab0563","ios":"levelo://app?vid=a448ca86-2b35-41e1-89c4-32a99bab0563"},"vehicle_type_id":"4","last_reported":1703847948,"current_range_meters":20000,"station_id":"ce4bhs92rcd13ifvqi0g","pricing_plan_id":"free"},{"bike_id":"96cf793f-3bea-48e9-ad43-3f4f189e0b76","system_id":"levelo_inurba_marseille","lat":43.328273,"lon":5.366822,"is_reserved":false,"is_disabled":false,"rental_uris":{"android":"levelo://app?vid=96cf793f-3bea-48e9-ad43-3f4f189e0b76","ios":"levelo://app?vid=96cf793f-3bea-48e9-ad43-3f4f189e0b76"},"vehicle_type_id":"4","last_reported":1703847948,"current_range_meters":29600,"station_id":"ce4bhs92rcd13ifvqi0g","pricing_plan_id":"free"},{"bike_id":"18a514cc-b799-4d5c-8007-6d7e3d72dda3","system_id":"levelo_inurba_marseille","lat":43.32828,"lon":5.36677,"is_reserved":false,"is_disabled":false,"rental_uris":{"android":"levelo://app?vid=18a514cc-b799-4d5c-8007-6d7e3d72dda3","ios":"levelo://app?vid=18a514cc-b799-4d5c-8007-6d7e3d72dda3"},"vehicle_type_id":"4","last_reported":1703847948,"current_range_meters":22000,"station_id":"ce4bhs92rcd13ifvqi0g","pricing_plan_id":"free"},{"bike_id":"904f83aa-e9ab-401d-84c1-9edfed82b884","system_id":"levelo_inurba_marseille","lat":43.328371,"lon":5.366912,"is_reserved":false,"is_disabled":false,"rental_uris":{"android":"levelo://app?vid=904f83aa-e9ab-401d-84c1-9edfed82b884","ios":"levelo://app?vid=904f83aa-e9ab-401d-84c1-9edfed82b884"},"vehicle_type_id":"4","last_reported":1703847948,"current_range_meters":30400,"station_id":"ce4bhs92rcd13ifvqi0g","pricing_plan_id":"free"},{"bike_id":"ea7074d7-b7c9-4941-82c2-dff391bae9cb","system_id":"levelo_inurba_marseille","lat":43.3283,"lon":5.366748,"is_reserved":false,"is_disabled":false,"rental_uris":{"android":"levelo://app?vid=ea7074d7-b7c9-4941-82c2-dff391bae9cb","ios":"levelo://app?vid=ea7074d7-b7c9-4941-82c2-dff391bae9cb"},"vehicle_type_id":"4","last_reported":1703847948,"current_range_meters":11200,"station_id":"ce4bhs92rcd13ifvqi0g","pricing_plan_id":"free"},{"bike_id":"de708f00-7118-4d7c-9021-d7dcbd798473","system_id":"levelo_inurba_marseille","lat":43.328301,"lon":5.366776,"is_reserved":false,"is_disabled":false,"rental_uris":{"android":"levelo://app?vid=de708f00-7118-4d7c-9021-d7dcbd798473","ios":"levelo://app?vid=de708f00-7118-4d7c-9021-d7dcbd798473"},"vehicle_type_id":"4","last_reported":1703847948,"current_range_meters":10800,"station_id":"ce4bhs92rcd13ifvqi0g","pricing_plan_id":"free"},{"bike_id":"520290bd-48a0-4016-9c3c-b95db8586e08","system_id":"levelo_inurba_marseille","lat":43.328306,"lon":5.366712,"is_reserved":false,"is_disabled":false,"rental_uris":{"android":"levelo://app?vid=520290bd-48a0-4016-9c3c-b95db8586e08","ios":"levelo://app?vid=520290bd-48a0-4016-9c3c-b95db8586e08"},"vehicle_type_id":"4","last_reported":1703847948,"current_range_meters":19600,"station_id":"ce4bhs92rcd13ifvqi0g","pricing_plan_id":"free"},{"bike_id":"1ea82e61-37ea-4b15-a6ef-01d29683b9fd","system_id":"levelo_inurba_marseille","lat":43.328319,"lon":5.366742,"is_reserved":false,"is_disabled":false,"rental_uris":{"android":"levelo://app?vid=1ea82e61-37ea-4b15-a6ef-01d29683b9fd","ios":"levelo://app?vid=1ea82e61-37ea-4b15-a6ef-01d29683b9fd"},"vehicle_type_id":"4","last_reported":1703847948,"current_range_meters":16400,"station_id":"ce4bhs92rcd13ifvqi0g","pricing_plan_id":"free"},{"bike_id":"6eb75a18-acfd-4ffa-bf23-27c5e63a3c58","system_id":"levelo_inurba_marseille","lat":43.32832,"lon":5.36681,"is_reserved":false,"is_disabled":false,"rental_uris":{"android":"levelo://app?vid=6eb75a18-acfd-4ffa-bf23-27c5e63a3c58","ios":"levelo://app?vid=6eb75a18-acfd-4ffa-bf23-27c5e63a3c58"},"vehicle_type_id":"4","last_reported":1703847948,"current_range_meters":19200,"station_id":"ce4bhs92rcd13ifvqi0g","pricing_plan_id":"free"},{"bike_id":"a1dac54d-476c-4dac-913f-aae102098541","system_id":"levelo_inurba_marseille","lat":43.32833,"lon":5.36667,"is_reserved":false,"is_disabled":false,"rental_uris":{"android":"levelo://app?vid=a1dac54d-476c-4dac-913f-aae102098541","ios":"levelo://app?vid=a1dac54d-476c-4dac-913f-aae102098541"},"vehicle_type_id":"4","last_reported":1703847948,"current_range_meters":26000,"station_id":"ce4bhs92rcd13ifvqi0g","pricing_plan_id":"free"},{"bike_id":"c5148a93-b957-4625-8299-141753f2bd05","system_id":"levelo_inurba_marseille","lat":43.328348,"lon":5.366773,"is_reserved":false,"is_disabled":false,"rental_uris":{"android":"levelo://app?vid=c5148a93-b957-4625-8299-141753f2bd05","ios":"levelo://app?vid=c5148a93-b957-4625-8299-141753f2bd05"},"vehicle_type_id":"4","last_reported":1703847948,"current_range_meters":30400,"station_id":"ce4bhs92rcd13ifvqi0g","pricing_plan_id":"free"},{"bike_id":"70017d6e-6f1a-4af6-baf6-320a119b5691","system_id":"levelo_inurba_marseille","lat":43.328354,"lon":5.366787,"is_reserved":false,"is_disabled":false,"rental_uris":{"android":"levelo://app?vid=70017d6e-6f1a-4af6-baf6-320a119b5691","ios":"levelo://app?vid=70017d6e-6f1a-4af6-baf6-320a119b5691"},"vehicle_type_id":"4","last_reported":1703847948,"current_range_meters":9600,"station_id":"ce4bhs92rcd13ifvqi0g","pricing_plan_id":"free"},{"bike_id":"370cccf7-c9ba-46c2-819b-c8e8cacc4c21","system_id":"levelo_inurba_marseille","lat":43.3277,"lon":5.37458,"is_reserved":false,"is_disabled":false,"rental_uris":{"android":"levelo://app?vid=370cccf7-c9ba-46c2-819b-c8e8cacc4c21","ios":"levelo://app?vid=370cccf7-c9ba-46c2-819b-c8e8cacc4c21"},"vehicle_type_id":"4","last_reported":1703847948,"current_range_meters":18000,"station_id":"","pricing_plan_id":"free"},{"bike_id":"921b424d-ad0d-4c7a-9d74-66e3a49bfa19","system_id":"levelo_inurba_marseille","lat":43.32934,"lon":5.36612,"is_reserved":false,"is_disabled":false,"rental_uris":{"android":"levelo://app?vid=921b424d-ad0d-4c7a-9d74-66e3a49bfa19","ios":"levelo://app?vid=921b424d-ad0d-4c7a-9d74-66e3a49bfa19"},"vehicle_type_id":"4","last_reported":1703847948,"current_range_meters":10000,"station_id":"","pricing_plan_id":"free"},{"bike_id":"b1a9fd4f-7257-4a13-a678-5307fa53d216","system_id":"levelo_inurba_marseille","lat":43.29573,"lon":5.367355,"is_reserved":false,"is_disabled":false,"rental_uris":{"android":"levelo://app?vid=b1a9fd4f-7257-4a13-a678-5307fa53d216","ios":"levelo://app?vid=b1a9fd4f-7257-4a13-a678-5307fa53d216"},"vehicle_type_id":"4","last_reported":1703847948,"current_range_meters":25600,"station_id":"ce4bgph2rcd13ifvqc2g","pricing_plan_id":"free"},{"bike_id":"873391e5-2fcf-44e1-b82e-0771ac21ced5","system_id":"levelo_inurba_marseille","lat":43.296129,"lon":5.370777,"is_reserved":false,"is_disabled":false,"rental_uris":{"android":"levelo://app?vid=873391e5-2fcf-44e1-b82e-0771ac21ced5","ios":"levelo://app?vid=873391e5-2fcf-44e1-b82e-0771ac21ced5"},"vehicle_type_id":"4","last_reported":1703847948,"current_range_meters":27600,"station_id":"ce4bgnh2rcd13ifvqc0g","pricing_plan_id":"free"},{"bike_id":"4d5fe16f-65aa-4de9-9b84-3b4d3b310687","system_id":"levelo_inurba_marseille","lat":43.29573,"lon":5.367355,"is_reserved":false,"is_disabled":false,"rental_uris":{"android":"levelo://app?vid=4d5fe16f-65aa-4de9-9b84-3b4d3b310687","ios":"levelo://app?vid=4d5fe16f-65aa-4de9-9b84-3b4d3b310687"},"vehicle_type_id":"4","last_reported":1703847948,"current_range_meters":12400,"station_id":"ce4bgph2rcd13ifvqc2g","pricing_plan_id":"free"},{"bike_id":"e164f1ca-6d33-4289-abe7-cc4026c8745a","system_id":"levelo_inurba_marseille","lat":43.29573,"lon":5.367355,"is_reserved":false,"is_disabled":false,"rental_uris":{"android":"levelo://app?vid=e164f1ca-6d33-4289-abe7-cc4026c8745a","ios":"levelo://app?vid=e164f1ca-6d33-4289-abe7-cc4026c8745a"},"vehicle_type_id":"4","last_reported":1703847948,"current_range_meters":6400,"station_id":"ce4bgph2rcd13ifvqc2g","pricing_plan_id":"free"},{"bike_id":"c166ef79-05d2-46e7-9c44-335c3d7177f4","system_id":"levelo_inurba_marseille","lat":43.299028,"lon":5.381509,"is_reserved":false,"is_disabled":false,"rental_uris":{"android":"levelo://app?vid=c166ef79-05d2-46e7-9c44-335c3d7177f4","ios":"levelo://app?vid=c166ef79-05d2-46e7-9c44-335c3d7177f4"},"vehicle_type_id":"4","last_reported":1703847948,"current_range_meters":22000,"station_id":"ce4bgj12rcd13ifvqbc0","pricing_plan_id":"free"},{"bike_id":"96c90746-a0a5-4eb1-9f9d-df675e27527c","system_id":"levelo_inurba_marseille","lat":43.296921,"lon":5.376579,"is_reserved":false,"is_disabled":false,"rental_uris":{"android":"levelo://app?vid=96c90746-a0a5-4eb1-9f9d-df675e27527c","ios":"levelo://app?vid=96c90746-a0a5-4eb1-9f9d-df675e27527c"},"vehicle_type_id":"4","last_reported":1703847948,"current_range_meters":19600,"station_id":"ce4bgkh2rcd13ifvqbl0","pricing_plan_id":"free"},{"bike_id":"bbef500d-0cee-4826-b935-d74972248145","system_id":"levelo_inurba_marseille","lat":43.309493,"lon":5.39041,"is_reserved":false,"is_disabled":false,"rental_uris":{"android":"levelo://app?vid=bbef500d-0cee-4826-b935-d74972248145","ios":"levelo://app?vid=bbef500d-0cee-4826-b935-d74972248145"},"vehicle_type_id":"4","last_reported":1703847948,"current_range_meters":22400,"station_id":"","pricing_plan_id":"free"},{"bike_id":"e6270e07-7d38-4634-9103-543b64b9f946","system_id":"levelo_inurba_marseille","lat":43.317557,"lon":5.390173,"is_reserved":false,"is_disabled":false,"rental_uris":{"android":"levelo://app?vid=e6270e07-7d38-4634-9103-543b64b9f946","ios":"levelo://app?vid=e6270e07-7d38-4634-9103-543b64b9f946"},"vehicle_type_id":"4","last_reported":1703847948,"current_range_meters":18000,"station_id":"ce4bhqp2rcd13ifvqhng","pricing_plan_id":"free"},{"bike_id":"3fb56e7f-b8d8-44d9-becd-7f5b6bb92d8f","system_id":"levelo_inurba_marseille","lat":43.295748,"lon":5.37522,"is_reserved":false,"is_disabled":false,"rental_uris":{"android":"levelo://app?vid=3fb56e7f-b8d8-44d9-becd-7f5b6bb92d8f","ios":"levelo://app?vid=3fb56e7f-b8d8-44d9-becd-7f5b6bb92d8f"},"vehicle_type_id":"4","last_reported":1703847948,"current_range_meters":29600,"station_id":"ce4bgh92rcd13ifvqb50","pricing_plan_id":"free"},{"bike_id":"3328fc32-8735-4ae9-8a9d-21cc30312342","system_id":"levelo_inurba_marseille","lat":43.295748,"lon":5.37522,"is_reserved":false,"is_disabled":false,"rental_uris":{"android":"levelo://app?vid=3328fc32-8735-4ae9-8a9d-21cc30312342","ios":"levelo://app?vid=3328fc32-8735-4ae9-8a9d-21cc30312342"},"vehicle_type_id":"4","last_reported":1703847948,"current_range_meters":29600,"station_id":"ce4bgh92rcd13ifvqb50","pricing_plan_id":"free"},{"bike_id":"9223e525-e7e1-4d18-8f88-5c8767bb4516","system_id":"levelo_inurba_marseille","lat":43.295748,"lon":5.37522,"is_reserved":false,"is_disabled":false,"rental_uris":{"android":"levelo://app?vid=9223e525-e7e1-4d18-8f88-5c8767bb4516","ios":"levelo://app?vid=9223e525-e7e1-4d18-8f88-5c8767bb4516"},"vehicle_type_id":"4","last_reported":1703847948,"current_range_meters":18000,"station_id":"ce4bgh92rcd13ifvqb50","pricing_plan_id":"free"},{"bike_id":"a3fb4673-b6a1-44f3-abb4-c45419ec04c5","system_id":"levelo_inurba_marseille","lat":43.295748,"lon":5.37522,"is_reserved":false,"is_disabled":false,"rental_uris":{"android":"levelo://app?vid=a3fb4673-b6a1-44f3-abb4-c45419ec04c5","ios":"levelo://app?vid=a3fb4673-b6a1-44f3-abb4-c45419ec04c5"},"vehicle_type_id":"4","last_reported":1703847948,"current_range_meters":24400,"station_id":"ce4bgh92rcd13ifvqb50","pricing_plan_id":"free"},{"bike_id":"6ec4e8bd-903c-4280-b066-5aeec266b0f7","system_id":"levelo_inurba_marseille","lat":43.296263,"lon":5.377094,"is_reserved":false,"is_disabled":false,"rental_uris":{"android":"levelo://app?vid=6ec4e8bd-903c-4280-b066-5aeec266b0f7","ios":"levelo://app?vid=6ec4e8bd-903c-4280-b066-5aeec266b0f7"},"vehicle_type_id":"4","last_reported":1703847948,"current_range_meters":27600,"station_id":"ce4bgi92rcd13ifvqb90","pricing_plan_id":"free"},{"bike_id":"30c8d605-fea4-4fe8-88c8-bdc0f43dfd7c","system_id":"levelo_inurba_marseille","lat":43.304278,"lon":5.388868,"is_reserved":false,"is_disabled":false,"rental_uris":{"android":"levelo://app?vid=30c8d605-fea4-4fe8-88c8-bdc0f43dfd7c","ios":"levelo://app?vid=30c8d605-fea4-4fe8-88c8-bdc0f43dfd7c"},"vehicle_type_id":"4","last_reported":1703847948,"current_range_meters":23200,"station_id":"ce4bgk12rcd13ifvqbi0","pricing_plan_id":"free"},{"bike_id":"d60802d6-4f47-444a-b234-883690eec05b","system_id":"levelo_inurba_marseille","lat":43.33062,"lon":5.3627,"is_reserved":false,"is_disabled":false,"rental_uris":{"android":"levelo://app?vid=d60802d6-4f47-444a-b234-883690eec05b","ios":"levelo://app?vid=d60802d6-4f47-444a-b234-883690eec05b"},"vehicle_type_id":"4","last_reported":1703847948,"current_range_meters":31200,"station_id":"","pricing_plan_id":"free"},{"bike_id":"50871fee-7ca8-49cb-82b7-ad1992eb00ad","system_id":"levelo_inurba_marseille","lat":43.295748,"lon":5.37522,"is_reserved":false,"is_disabled":false,"rental_uris":{"android":"levelo://app?vid=50871fee-7ca8-49cb-82b7-ad1992eb00ad","ios":"levelo://app?vid=50871fee-7ca8-49cb-82b7-ad1992eb00ad"},"vehicle_type_id":"4","last_reported":1703847948,"current_range_meters":23600,"station_id":"ce4bgh92rcd13ifvqb50","pricing_plan_id":"free"},{"bike_id":"0f596148-ee4d-48d3-b60b-7358519e2d36","system_id":"levelo_inurba_marseille","lat":43.296263,"lon":5.377094,"is_reserved":false,"is_disabled":false,"rental_uris":{"android":"levelo://app?vid=0f596148-ee4d-48d3-b60b-7358519e2d36","ios":"levelo://app?vid=0f596148-ee4d-48d3-b60b-7358519e2d36"},"vehicle_type_id":"4","last_reported":1703847948,"current_range_meters":14400,"station_id":"ce4bgi92rcd13ifvqb90","pricing_plan_id":"free"},{"bike_id":"7119845d-00aa-4d9f-be8c-fc97d41f1380","system_id":"levelo_inurba_marseille","lat":43.297594,"lon":5.381134,"is_reserved":false,"is_disabled":false,"rental_uris":{"android":"levelo://app?vid=7119845d-00aa-4d9f-be8c-fc97d41f1380","ios":"levelo://app?vid=7119845d-00aa-4d9f-be8c-fc97d41f1380"},"vehicle_type_id":"4","last_reported":1703847948,"current_range_meters":20000,"station_id":"ce4bgip2rcd13ifvqbb0","pricing_plan_id":"free"},{"bike_id":"c1feb4ef-9b10-4721-85f8-570a8b1cb760","system_id":"levelo_inurba_marseille","lat":43.295279,"lon":5.375048,"is_reserved":false,"is_disabled":false,"rental_uris":{"android":"levelo://app?vid=c1feb4ef-9b10-4721-85f8-570a8b1cb760","ios":"levelo://app?vid=c1feb4ef-9b10-4721-85f8-570a8b1cb760"},"vehicle_type_id":"4","last_reported":1703847948,"current_range_meters":22000,"station_id":"ce4bgkp2rcd13ifvqbmg","pricing_plan_id":"free"},{"bike_id":"c87e1635-08d7-4b26-bb46-88f0df10736f","system_id":"levelo_inurba_marseille","lat":43.295213,"lon":5.375088,"is_reserved":false,"is_disabled":false,"rental_uris":{"android":"levelo://app?vid=c87e1635-08d7-4b26-bb46-88f0df10736f","ios":"levelo://app?vid=c87e1635-08d7-4b26-bb46-88f0df10736f"},"vehicle_type_id":"4","last_reported":1703847948,"current_range_meters":30400,"station_id":"ce4bgkp2rcd13ifvqbmg","pricing_plan_id":"free"},{"bike_id":"64e08778-3e7b-4c08-aaa7-765ecbf426e5","system_id":"levelo_inurba_marseille","lat":43.32367,"lon":5.388836,"is_reserved":false,"is_disabled":false,"rental_uris":{"android":"levelo://app?vid=64e08778-3e7b-4c08-aaa7-765ecbf426e5","ios":"levelo://app?vid=64e08778-3e7b-4c08-aaa7-765ecbf426e5"},"vehicle_type_id":"4","last_reported":1703847948,"current_range_meters":28000,"station_id":"ce4bhqp2rcd13ifvqhog","pricing_plan_id":"free"},{"bike_id":"0a9fe2ad-fe58-4254-bd4e-0f72c5c44005","system_id":"levelo_inurba_marseille","lat":43.32367,"lon":5.388836,"is_reserved":false,"is_disabled":false,"rental_uris":{"android":"levelo://app?vid=0a9fe2ad-fe58-4254-bd4e-0f72c5c44005","ios":"levelo://app?vid=0a9fe2ad-fe58-4254-bd4e-0f72c5c44005"},"vehicle_type_id":"4","last_reported":1703847948,"current_range_meters":24000,"station_id":"ce4bhqp2rcd13ifvqhog","pricing_plan_id":"free"},{"bike_id":"412b0300-bca9-407f-8529-62d2e7880d74","system_id":"levelo_inurba_marseille","lat":43.32367,"lon":5.388836,"is_reserved":false,"is_disabled":false,"rental_uris":{"android":"levelo://app?vid=412b0300-bca9-407f-8529-62d2e7880d74","ios":"levelo://app?vid=412b0300-bca9-407f-8529-62d2e7880d74"},"vehicle_type_id":"4","last_reported":1703847948,"current_range_meters":29600,"station_id":"ce4bhqp2rcd13ifvqhog","pricing_plan_id":"free"},{"bike_id":"b6a0828f-4c16-423e-a429-9b330a74d3a4","system_id":"levelo_inurba_marseille","lat":43.293259,"lon":5.371586,"is_reserved":false,"is_disabled":false,"rental_uris":{"android":"levelo://app?vid=b6a0828f-4c16-423e-a429-9b330a74d3a4","ios":"levelo://app?vid=b6a0828f-4c16-423e-a429-9b330a74d3a4"},"vehicle_type_id":"4","last_reported":1703847948,"current_range_meters":31200,"station_id":"ce4bgh92rcd13ifvqb40","pricing_plan_id":"free"},{"bike_id":"81cb1a51-55ac-403a-9b1c-4261c710944b","system_id":"levelo_inurba_marseille","lat":43.293009,"lon":5.374584,"is_reserved":false,"is_disabled":false,"rental_uris":{"android":"levelo://app?vid=81cb1a51-55ac-403a-9b1c-4261c710944b","ios":"levelo://app?vid=81cb1a51-55ac-403a-9b1c-4261c710944b"},"vehicle_type_id":"4","last_reported":1703847948,"current_range_meters":26000,"station_id":"ce4bgi12rcd13ifvqb70","pricing_plan_id":"free"},{"bike_id":"037c8652-58cc-4f32-b963-d4ea06d9a057","system_id":"levelo_inurba_marseille","lat":43.303002,"lon":5.392142,"is_reserved":false,"is_disabled":false,"rental_uris":{"android":"levelo://app?vid=037c8652-58cc-4f32-b963-d4ea06d9a057","ios":"levelo://app?vid=037c8652-58cc-4f32-b963-d4ea06d9a057"},"vehicle_type_id":"4","last_reported":1703847948,"current_range_meters":24800,"station_id":"ce4bgkh2rcd13ifvqbk0","pricing_plan_id":"free"},{"bike_id":"91489c8a-b2fa-4640-bd3d-288533f4b64e","system_id":"levelo_inurba_marseille","lat":43.2936,"lon":5.37835,"is_reserved":false,"is_disabled":false,"rental_uris":{"android":"levelo://app?vid=91489c8a-b2fa-4640-bd3d-288533f4b64e","ios":"levelo://app?vid=91489c8a-b2fa-4640-bd3d-288533f4b64e"},"vehicle_type_id":"4","last_reported":1703847948,"current_range_meters":31600,"station_id":"ce4bgjh2rcd13ifvqbf0","pricing_plan_id":"free"},{"bike_id":"4a786380-44d6-4ee1-9afd-6bdb1e1c5c1a","system_id":"levelo_inurba_marseille","lat":43.2936,"lon":5.37835,"is_reserved":false,"is_disabled":false,"rental_uris":{"android":"levelo://app?vid=4a786380-44d6-4ee1-9afd-6bdb1e1c5c1a","ios":"levelo://app?vid=4a786380-44d6-4ee1-9afd-6bdb1e1c5c1a"},"vehicle_type_id":"4","last_reported":1703847948,"current_range_meters":29600,"station_id":"ce4bgjh2rcd13ifvqbf0","pricing_plan_id":"free"},{"bike_id":"6eacc578-84d5-403d-b518-beb25a341a8e","system_id":"levelo_inurba_marseille","lat":43.298945,"lon":5.388552,"is_reserved":false,"is_disabled":false,"rental_uris":{"android":"levelo://app?vid=6eacc578-84d5-403d-b518-beb25a341a8e","ios":"levelo://app?vid=6eacc578-84d5-403d-b518-beb25a341a8e"},"vehicle_type_id":"4","last_reported":1703847948,"current_range_meters":400,"station_id":"","pricing_plan_id":"free"},{"bike_id":"3ed3c822-c02a-4a19-b479-1d34a7c9dc0a","system_id":"levelo_inurba_marseille","lat":43.29866,"lon":5.38903,"is_reserved":false,"is_disabled":false,"rental_uris":{"android":"levelo://app?vid=3ed3c822-c02a-4a19-b479-1d34a7c9dc0a","ios":"levelo://app?vid=3ed3c822-c02a-4a19-b479-1d34a7c9dc0a"},"vehicle_type_id":"4","last_reported":1703847948,"current_range_meters":22400,"station_id":"","pricing_plan_id":"free"},{"bike_id":"8f108e26-6818-4a35-b401-48283b8b1b6b","system_id":"levelo_inurba_marseille","lat":43.291675,"lon":5.371583,"is_reserved":false,"is_disabled":false,"rental_uris":{"android":"levelo://app?vid=8f108e26-6818-4a35-b401-48283b8b1b6b","ios":"levelo://app?vid=8f108e26-6818-4a35-b401-48283b8b1b6b"},"vehicle_type_id":"4","last_reported":1703847948,"current_range_meters":24800,"station_id":"ce4bha92rcd13ifvqeh0","pricing_plan_id":"free"},{"bike_id":"b6018cfd-6ee4-4027-949d-2d6c2c3a9925","system_id":"levelo_inurba_marseille","lat":43.2936,"lon":5.37835,"is_reserved":false,"is_disabled":false,"rental_uris":{"android":"levelo://app?vid=b6018cfd-6ee4-4027-949d-2d6c2c3a9925","ios":"levelo://app?vid=b6018cfd-6ee4-4027-949d-2d6c2c3a9925"},"vehicle_type_id":"4","last_reported":1703847948,"current_range_meters":20000,"station_id":"ce4bgjh2rcd13ifvqbf0","pricing_plan_id":"free"},{"bike_id":"b096e382-d95f-47d4-9ac9-34159b9887fb","system_id":"levelo_inurba_marseille","lat":43.313291,"lon":5.396838,"is_reserved":false,"is_disabled":false,"rental_uris":{"android":"levelo://app?vid=b096e382-d95f-47d4-9ac9-34159b9887fb","ios":"levelo://app?vid=b096e382-d95f-47d4-9ac9-34159b9887fb"},"vehicle_type_id":"4","last_reported":1703847948,"current_range_meters":28000,"station_id":"ce4bgvp2rcd13ifvqcu0","pricing_plan_id":"free"},{"bike_id":"98f8ae77-6426-4faa-8181-4c4d9734368a","system_id":"levelo_inurba_marseille","lat":43.313291,"lon":5.396838,"is_reserved":false,"is_disabled":false,"rental_uris":{"android":"levelo://app?vid=98f8ae77-6426-4faa-8181-4c4d9734368a","ios":"levelo://app?vid=98f8ae77-6426-4faa-8181-4c4d9734368a"},"vehicle_type_id":"4","last_reported":1703847948,"current_range_meters":31600,"station_id":"ce4bgvp2rcd13ifvqcu0","pricing_plan_id":"free"},{"bike_id":"a9fa11e4-f12f-4653-a78d-4d1182480cd1","system_id":"levelo_inurba_marseille","lat":43.313291,"lon":5.396838,"is_reserved":false,"is_disabled":false,"rental_uris":{"android":"levelo://app?vid=a9fa11e4-f12f-4653-a78d-4d1182480cd1","ios":"levelo://app?vid=a9fa11e4-f12f-4653-a78d-4d1182480cd1"},"vehicle_type_id":"4","last_reported":1703847948,"current_range_meters":31600,"station_id":"ce4bgvp2rcd13ifvqcu0","pricing_plan_id":"free"},{"bike_id":"7eaf2406-c318-498c-9e6b-f06d10b2a088","system_id":"levelo_inurba_marseille","lat":43.313291,"lon":5.396838,"is_reserved":false,"is_disabled":false,"rental_uris":{"android":"levelo://app?vid=7eaf2406-c318-498c-9e6b-f06d10b2a088","ios":"levelo://app?vid=7eaf2406-c318-498c-9e6b-f06d10b2a088"},"vehicle_type_id":"4","last_reported":1703847948,"current_range_meters":31200,"station_id":"ce4bgvp2rcd13ifvqcu0","pricing_plan_id":"free"},{"bike_id":"3b92a06d-74e9-42ad-8100-81d77a065f06","system_id":"levelo_inurba_marseille","lat":43.313291,"lon":5.396838,"is_reserved":false,"is_disabled":false,"rental_uris":{"android":"levelo://app?vid=3b92a06d-74e9-42ad-8100-81d77a065f06","ios":"levelo://app?vid=3b92a06d-74e9-42ad-8100-81d77a065f06"},"vehicle_type_id":"4","last_reported":1703847948,"current_range_meters":22800,"station_id":"ce4bgvp2rcd13ifvqcu0","pricing_plan_id":"free"},{"bike_id":"5d74bfea-2ca3-4899-bd1a-e69d8aadaf5d","system_id":"levelo_inurba_marseille","lat":43.313291,"lon":5.396838,"is_reserved":false,"is_disabled":false,"rental_uris":{"android":"levelo://app?vid=5d74bfea-2ca3-4899-bd1a-e69d8aadaf5d","ios":"levelo://app?vid=5d74bfea-2ca3-4899-bd1a-e69d8aadaf5d"},"vehicle_type_id":"4","last_reported":1703847948,"current_range_meters":19600,"station_id":"ce4bgvp2rcd13ifvqcu0","pricing_plan_id":"free"},{"bike_id":"4c663c03-9a8e-471f-b372-1cf224046326","system_id":"levelo_inurba_marseille","lat":43.292642,"lon":5.384254,"is_reserved":false,"is_disabled":false,"rental_uris":{"android":"levelo://app?vid=4c663c03-9a8e-471f-b372-1cf224046326","ios":"levelo://app?vid=4c663c03-9a8e-471f-b372-1cf224046326"},"vehicle_type_id":"4","last_reported":1703847948,"current_range_meters":22400,"station_id":"ce4bh692rcd13ifvqea0","pricing_plan_id":"free"},{"bike_id":"d91fa727-1fb6-4603-ad32-c7bf7ff5df83","system_id":"levelo_inurba_marseille","lat":43.288919,"lon":5.363263,"is_reserved":false,"is_disabled":false,"rental_uris":{"android":"levelo://app?vid=d91fa727-1fb6-4603-ad32-c7bf7ff5df83","ios":"levelo://app?vid=d91fa727-1fb6-4603-ad32-c7bf7ff5df83"},"vehicle_type_id":"4","last_reported":1703847948,"current_range_meters":20800,"station_id":"","pricing_plan_id":"free"},{"bike_id":"16eb5779-9db2-4b1b-a19c-ad3b28c7b77a","system_id":"levelo_inurba_marseille","lat":43.290995,"lon":5.381361,"is_reserved":false,"is_disabled":false,"rental_uris":{"android":"levelo://app?vid=16eb5779-9db2-4b1b-a19c-ad3b28c7b77a","ios":"levelo://app?vid=16eb5779-9db2-4b1b-a19c-ad3b28c7b77a"},"vehicle_type_id":"4","last_reported":1703847948,"current_range_meters":28800,"station_id":"ce4bh512rcd13ifvqe2g","pricing_plan_id":"free"},{"bike_id":"28a16b2e-87f5-458c-a69a-7ceeca57700a","system_id":"levelo_inurba_marseille","lat":43.290995,"lon":5.381361,"is_reserved":false,"is_disabled":false,"rental_uris":{"android":"levelo://app?vid=28a16b2e-87f5-458c-a69a-7ceeca57700a","ios":"levelo://app?vid=28a16b2e-87f5-458c-a69a-7ceeca57700a"},"vehicle_type_id":"4","last_reported":1703847948,"current_range_meters":18400,"station_id":"ce4bh512rcd13ifvqe2g","pricing_plan_id":"free"},{"bike_id":"495faf64-a935-4c6e-b77f-2b296d14493a","system_id":"levelo_inurba_marseille","lat":43.331017,"lon":5.389194,"is_reserved":false,"is_disabled":false,"rental_uris":{"android":"levelo://app?vid=495faf64-a935-4c6e-b77f-2b296d14493a","ios":"levelo://app?vid=495faf64-a935-4c6e-b77f-2b296d14493a"},"vehicle_type_id":"4","last_reported":1703847948,"current_range_meters":8000,"station_id":"","pricing_plan_id":"free"},{"bike_id":"04f0c9fa-2fd6-41aa-843b-5e4e109f4732","system_id":"levelo_inurba_marseille","lat":43.330442,"lon":5.389148,"is_reserved":false,"is_disabled":false,"rental_uris":{"android":"levelo://app?vid=04f0c9fa-2fd6-41aa-843b-5e4e109f4732","ios":"levelo://app?vid=04f0c9fa-2fd6-41aa-843b-5e4e109f4732"},"vehicle_type_id":"4","last_reported":1703847948,"current_range_meters":22000,"station_id":"ce4bhr92rcd13ifvqhrg","pricing_plan_id":"free"},{"bike_id":"d917e6e0-f7ef-4b1c-8509-4f6583031204","system_id":"levelo_inurba_marseille","lat":43.295169,"lon":5.390426,"is_reserved":false,"is_disabled":false,"rental_uris":{"android":"levelo://app?vid=d917e6e0-f7ef-4b1c-8509-4f6583031204","ios":"levelo://app?vid=d917e6e0-f7ef-4b1c-8509-4f6583031204"},"vehicle_type_id":"4","last_reported":1703847948,"current_range_meters":22400,"station_id":"ce4bh3p2rcd13ifvqdp0","pricing_plan_id":"free"},{"bike_id":"19dc3118-1cfa-4a99-9f88-bf8832f57d88","system_id":"levelo_inurba_marseille","lat":43.2901,"lon":5.381269,"is_reserved":false,"is_disabled":false,"rental_uris":{"android":"levelo://app?vid=19dc3118-1cfa-4a99-9f88-bf8832f57d88","ios":"levelo://app?vid=19dc3118-1cfa-4a99-9f88-bf8832f57d88"},"vehicle_type_id":"4","last_reported":1703847948,"current_range_meters":24800,"station_id":"ce4bh4p2rcd13ifvqe1g","pricing_plan_id":"free"},{"bike_id":"66d7330c-bc99-49df-9da7-d53c451108d7","system_id":"levelo_inurba_marseille","lat":43.29013,"lon":5.38131,"is_reserved":false,"is_disabled":false,"rental_uris":{"android":"levelo://app?vid=66d7330c-bc99-49df-9da7-d53c451108d7","ios":"levelo://app?vid=66d7330c-bc99-49df-9da7-d53c451108d7"},"vehicle_type_id":"4","last_reported":1703847948,"current_range_meters":30400,"station_id":"ce4bh4p2rcd13ifvqe1g","pricing_plan_id":"free"},{"bike_id":"165016e8-bc62-4940-8763-67bf42492bb7","system_id":"levelo_inurba_marseille","lat":43.290094,"lon":5.381264,"is_reserved":false,"is_disabled":false,"rental_uris":{"android":"levelo://app?vid=165016e8-bc62-4940-8763-67bf42492bb7","ios":"levelo://app?vid=165016e8-bc62-4940-8763-67bf42492bb7"},"vehicle_type_id":"4","last_reported":1703847948,"current_range_meters":14800,"station_id":"ce4bh4p2rcd13ifvqe1g","pricing_plan_id":"free"},{"bike_id":"0f77e5c1-acd3-4588-b799-63c1730334b2","system_id":"levelo_inurba_marseille","lat":43.300139,"lon":5.396664,"is_reserved":false,"is_disabled":false,"rental_uris":{"android":"levelo://app?vid=0f77e5c1-acd3-4588-b799-63c1730334b2","ios":"levelo://app?vid=0f77e5c1-acd3-4588-b799-63c1730334b2"},"vehicle_type_id":"4","last_reported":1703847948,"current_range_meters":0,"station_id":"","pricing_plan_id":"free"},{"bike_id":"96198da7-0f86-4639-b2c2-602b8a55bdda","system_id":"levelo_inurba_marseille","lat":43.309371,"lon":5.401449,"is_reserved":false,"is_disabled":false,"rental_uris":{"android":"levelo://app?vid=96198da7-0f86-4639-b2c2-602b8a55bdda","ios":"levelo://app?vid=96198da7-0f86-4639-b2c2-602b8a55bdda"},"vehicle_type_id":"4","last_reported":1703847948,"current_range_meters":29600,"station_id":"ce4bgvp2rcd13ifvqct0","pricing_plan_id":"free"},{"bike_id":"d29f7a6c-6eff-46b1-9d51-bbf08faabfa1","system_id":"levelo_inurba_marseille","lat":43.337477,"lon":5.374431,"is_reserved":false,"is_disabled":false,"rental_uris":{"android":"levelo://app?vid=d29f7a6c-6eff-46b1-9d51-bbf08faabfa1","ios":"levelo://app?vid=d29f7a6c-6eff-46b1-9d51-bbf08faabfa1"},"vehicle_type_id":"4","last_reported":1703847948,"current_range_meters":4000,"station_id":"","pricing_plan_id":"free"},{"bike_id":"908ad96d-58c1-4662-9ee3-5e429902b0af","system_id":"levelo_inurba_marseille","lat":43.312609,"lon":5.401662,"is_reserved":false,"is_disabled":false,"rental_uris":{"android":"levelo://app?vid=908ad96d-58c1-4662-9ee3-5e429902b0af","ios":"levelo://app?vid=908ad96d-58c1-4662-9ee3-5e429902b0af"},"vehicle_type_id":"4","last_reported":1703847948,"current_range_meters":14000,"station_id":"ce4bh092rcd13ifvqd30","pricing_plan_id":"free"},{"bike_id":"dfed2bf4-90de-4b70-9178-32315c78f060","system_id":"levelo_inurba_marseille","lat":43.337648,"lon":5.374425,"is_reserved":false,"is_disabled":false,"rental_uris":{"android":"levelo://app?vid=dfed2bf4-90de-4b70-9178-32315c78f060","ios":"levelo://app?vid=dfed2bf4-90de-4b70-9178-32315c78f060"},"vehicle_type_id":"4","last_reported":1703847948,"current_range_meters":30000,"station_id":"ce4rr2p2rcd13i802rgg","pricing_plan_id":"free"},{"bike_id":"8eee8d2e-32e1-4acb-9f67-165b654b9628","system_id":"levelo_inurba_marseille","lat":43.30642,"lon":5.401031,"is_reserved":false,"is_disabled":false,"rental_uris":{"android":"levelo://app?vid=8eee8d2e-32e1-4acb-9f67-165b654b9628","ios":"levelo://app?vid=8eee8d2e-32e1-4acb-9f67-165b654b9628"},"vehicle_type_id":"4","last_reported":1703847948,"current_range_meters":17600,"station_id":"ce4bh112rcd13ifvqda0","pricing_plan_id":"free"},{"bike_id":"ec9c8c14-ee22-4d2e-a489-0db75c590474","system_id":"levelo_inurba_marseille","lat":43.301117,"lon":5.398795,"is_reserved":false,"is_disabled":false,"rental_uris":{"android":"levelo://app?vid=ec9c8c14-ee22-4d2e-a489-0db75c590474","ios":"levelo://app?vid=ec9c8c14-ee22-4d2e-a489-0db75c590474"},"vehicle_type_id":"4","last_reported":1703847948,"current_range_meters":20000,"station_id":"ce4bh0h2rcd13ifvqd40","pricing_plan_id":"free"},{"bike_id":"bb315701-5ddd-47af-a0e8-8e234552c90a","system_id":"levelo_inurba_marseille","lat":43.28727,"lon":5.36078,"is_reserved":false,"is_disabled":false,"rental_uris":{"android":"levelo://app?vid=bb315701-5ddd-47af-a0e8-8e234552c90a","ios":"levelo://app?vid=bb315701-5ddd-47af-a0e8-8e234552c90a"},"vehicle_type_id":"4","last_reported":1703847948,"current_range_meters":31200,"station_id":"cki0cbj6b192h4jlfktg","pricing_plan_id":"free"},{"bike_id":"f378e8ef-4040-42da-a71a-50df8af085e1","system_id":"levelo_inurba_marseille","lat":43.295196,"lon":5.39397,"is_reserved":false,"is_disabled":false,"rental_uris":{"android":"levelo://app?vid=f378e8ef-4040-42da-a71a-50df8af085e1","ios":"levelo://app?vid=f378e8ef-4040-42da-a71a-50df8af085e1"},"vehicle_type_id":"4","last_reported":1703847948,"current_range_meters":28400,"station_id":"ce4bh292rcd13ifvqdf0","pricing_plan_id":"free"},{"bike_id":"9e4c682c-0688-4a83-adef-3b9e548c7e02","system_id":"levelo_inurba_marseille","lat":43.289307,"lon":5.38406,"is_reserved":false,"is_disabled":false,"rental_uris":{"android":"levelo://app?vid=9e4c682c-0688-4a83-adef-3b9e548c7e02","ios":"levelo://app?vid=9e4c682c-0688-4a83-adef-3b9e548c7e02"},"vehicle_type_id":"4","last_reported":1703847948,"current_range_meters":29200,"station_id":"ce4bh612rcd13ifvqe6g","pricing_plan_id":"free"},{"bike_id":"b8e29c57-3a5f-4d87-92ef-d46af480bfc4","system_id":"levelo_inurba_marseille","lat":43.289307,"lon":5.38406,"is_reserved":false,"is_disabled":false,"rental_uris":{"android":"levelo://app?vid=b8e29c57-3a5f-4d87-92ef-d46af480bfc4","ios":"levelo://app?vid=b8e29c57-3a5f-4d87-92ef-d46af480bfc4"},"vehicle_type_id":"4","last_reported":1703847948,"current_range_meters":30800,"station_id":"ce4bh612rcd13ifvqe6g","pricing_plan_id":"free"},{"bike_id":"62471bd4-6e7b-4e97-b097-952cd5c71b2b","system_id":"levelo_inurba_marseille","lat":43.289307,"lon":5.38406,"is_reserved":false,"is_disabled":false,"rental_uris":{"android":"levelo://app?vid=62471bd4-6e7b-4e97-b097-952cd5c71b2b","ios":"levelo://app?vid=62471bd4-6e7b-4e97-b097-952cd5c71b2b"},"vehicle_type_id":"4","last_reported":1703847948,"current_range_meters":22000,"station_id":"ce4bh612rcd13ifvqe6g","pricing_plan_id":"free"},{"bike_id":"410ccb4c-3c0d-41d5-9dba-7cb6880fb32c","system_id":"levelo_inurba_marseille","lat":43.302759,"lon":5.400793,"is_reserved":false,"is_disabled":false,"rental_uris":{"android":"levelo://app?vid=410ccb4c-3c0d-41d5-9dba-7cb6880fb32c","ios":"levelo://app?vid=410ccb4c-3c0d-41d5-9dba-7cb6880fb32c"},"vehicle_type_id":"4","last_reported":1703847948,"current_range_meters":12400,"station_id":"ce4bgvh2rcd13ifvqcs0","pricing_plan_id":"free"},{"bike_id":"49aebe2b-dfbb-4bb2-b147-c1dec6e2de75","system_id":"levelo_inurba_marseille","lat":43.302759,"lon":5.400793,"is_reserved":false,"is_disabled":false,"rental_uris":{"android":"levelo://app?vid=49aebe2b-dfbb-4bb2-b147-c1dec6e2de75","ios":"levelo://app?vid=49aebe2b-dfbb-4bb2-b147-c1dec6e2de75"},"vehicle_type_id":"4","last_reported":1703847948,"current_range_meters":14800,"station_id":"ce4bgvh2rcd13ifvqcs0","pricing_plan_id":"free"},{"bike_id":"fb857fce-d050-4576-b48c-c943e3e813a3","system_id":"levelo_inurba_marseille","lat":43.290336,"lon":5.386425,"is_reserved":false,"is_disabled":false,"rental_uris":{"android":"levelo://app?vid=fb857fce-d050-4576-b48c-c943e3e813a3","ios":"levelo://app?vid=fb857fce-d050-4576-b48c-c943e3e813a3"},"vehicle_type_id":"4","last_reported":1703847948,"current_range_meters":24400,"station_id":"ce4bh4p2rcd13ifvqe0g","pricing_plan_id":"free"},{"bike_id":"7681b42e-3405-4507-b7c7-dd692f5f0e50","system_id":"levelo_inurba_marseille","lat":43.287185,"lon":5.379373,"is_reserved":false,"is_disabled":false,"rental_uris":{"android":"levelo://app?vid=7681b42e-3405-4507-b7c7-dd692f5f0e50","ios":"levelo://app?vid=7681b42e-3405-4507-b7c7-dd692f5f0e50"},"vehicle_type_id":"4","last_reported":1703847948,"current_range_meters":30800,"station_id":"ce4bh9p2rcd13ifvqec0","pricing_plan_id":"free"},{"bike_id":"b7def547-50d8-4383-871d-1f84cd66e941","system_id":"levelo_inurba_marseille","lat":43.287185,"lon":5.379373,"is_reserved":false,"is_disabled":false,"rental_uris":{"android":"levelo://app?vid=b7def547-50d8-4383-871d-1f84cd66e941","ios":"levelo://app?vid=b7def547-50d8-4383-871d-1f84cd66e941"},"vehicle_type_id":"4","last_reported":1703847948,"current_range_meters":27200,"station_id":"ce4bh9p2rcd13ifvqec0","pricing_plan_id":"free"},{"bike_id":"1a60f811-b20d-4e5d-951c-464d20432200","system_id":"levelo_inurba_marseille","lat":43.287184,"lon":5.37937,"is_reserved":false,"is_disabled":false,"rental_uris":{"android":"levelo://app?vid=1a60f811-b20d-4e5d-951c-464d20432200","ios":"levelo://app?vid=1a60f811-b20d-4e5d-951c-464d20432200"},"vehicle_type_id":"4","last_reported":1703847948,"current_range_meters":18800,"station_id":"ce4bh9p2rcd13ifvqec0","pricing_plan_id":"free"},{"bike_id":"aac00441-5e5c-4474-92e6-e699a3867bae","system_id":"levelo_inurba_marseille","lat":43.285798,"lon":5.360189,"is_reserved":false,"is_disabled":false,"rental_uris":{"android":"levelo://app?vid=aac00441-5e5c-4474-92e6-e699a3867bae","ios":"levelo://app?vid=aac00441-5e5c-4474-92e6-e699a3867bae"},"vehicle_type_id":"4","last_reported":1703847948,"current_range_meters":27600,"station_id":"","pricing_plan_id":"free"},{"bike_id":"4ff69062-b4c1-40b0-9369-8974f016e861","system_id":"levelo_inurba_marseille","lat":43.316828,"lon":5.404723,"is_reserved":false,"is_disabled":false,"rental_uris":{"android":"levelo://app?vid=4ff69062-b4c1-40b0-9369-8974f016e861","ios":"levelo://app?vid=4ff69062-b4c1-40b0-9369-8974f016e861"},"vehicle_type_id":"4","last_reported":1703847948,"current_range_meters":7200,"station_id":"ce4bh012rcd13ifvqd00","pricing_plan_id":"free"},{"bike_id":"5a7c8325-3109-4e53-8e91-44f79971cb56","system_id":"levelo_inurba_marseille","lat":43.291994,"lon":5.392907,"is_reserved":false,"is_disabled":false,"rental_uris":{"android":"levelo://app?vid=5a7c8325-3109-4e53-8e91-44f79971cb56","ios":"levelo://app?vid=5a7c8325-3109-4e53-8e91-44f79971cb56"},"vehicle_type_id":"4","last_reported":1703847948,"current_range_meters":28000,"station_id":"ce4bh192rcd13ifvqdd0","pricing_plan_id":"free"},{"bike_id":"0a4bc910-6b92-4f31-9fe2-2efcaaf7aad7","system_id":"levelo_inurba_marseille","lat":43.291994,"lon":5.392907,"is_reserved":false,"is_disabled":false,"rental_uris":{"android":"levelo://app?vid=0a4bc910-6b92-4f31-9fe2-2efcaaf7aad7","ios":"levelo://app?vid=0a4bc910-6b92-4f31-9fe2-2efcaaf7aad7"},"vehicle_type_id":"4","last_reported":1703847948,"current_range_meters":22400,"station_id":"ce4bh192rcd13ifvqdd0","pricing_plan_id":"free"},{"bike_id":"85251027-069d-43dc-b0ba-2a1464230052","system_id":"levelo_inurba_marseille","lat":43.284538,"lon":5.358657,"is_reserved":false,"is_disabled":false,"rental_uris":{"android":"levelo://app?vid=85251027-069d-43dc-b0ba-2a1464230052","ios":"levelo://app?vid=85251027-069d-43dc-b0ba-2a1464230052"},"vehicle_type_id":"4","last_reported":1703847948,"current_range_meters":28400,"station_id":"ce4bhah2rcd13ifvqei0","pricing_plan_id":"free"},{"bike_id":"1d60ade4-5bfb-46f8-be7a-1071b675c76a","system_id":"levelo_inurba_marseille","lat":43.284534,"lon":5.358662,"is_reserved":false,"is_disabled":false,"rental_uris":{"android":"levelo://app?vid=1d60ade4-5bfb-46f8-be7a-1071b675c76a","ios":"levelo://app?vid=1d60ade4-5bfb-46f8-be7a-1071b675c76a"},"vehicle_type_id":"4","last_reported":1703847948,"current_range_meters":21600,"station_id":"ce4bhah2rcd13ifvqei0","pricing_plan_id":"free"},{"bike_id":"f9bf009b-9d83-4a32-9daa-4cc73a4a8c42","system_id":"levelo_inurba_marseille","lat":43.294314,"lon":5.397498,"is_reserved":false,"is_disabled":false,"rental_uris":{"android":"levelo://app?vid=f9bf009b-9d83-4a32-9daa-4cc73a4a8c42","ios":"levelo://app?vid=f9bf009b-9d83-4a32-9daa-4cc73a4a8c42"},"vehicle_type_id":"4","last_reported":1703847948,"current_range_meters":25600,"station_id":"ce4bh3h2rcd13ifvqdo0","pricing_plan_id":"free"},{"bike_id":"51e2c164-c570-4eb6-a608-06dafd884cec","system_id":"levelo_inurba_marseille","lat":43.294314,"lon":5.397498,"is_reserved":false,"is_disabled":false,"rental_uris":{"android":"levelo://app?vid=51e2c164-c570-4eb6-a608-06dafd884cec","ios":"levelo://app?vid=51e2c164-c570-4eb6-a608-06dafd884cec"},"vehicle_type_id":"4","last_reported":1703847948,"current_range_meters":18000,"station_id":"ce4bh3h2rcd13ifvqdo0","pricing_plan_id":"free"},{"bike_id":"f80b60bb-7501-4d3e-8ef6-f9fbee070d7d","system_id":"levelo_inurba_marseille","lat":43.294314,"lon":5.397498,"is_reserved":false,"is_disabled":false,"rental_uris":{"android":"levelo://app?vid=f80b60bb-7501-4d3e-8ef6-f9fbee070d7d","ios":"levelo://app?vid=f80b60bb-7501-4d3e-8ef6-f9fbee070d7d"},"vehicle_type_id":"4","last_reported":1703847948,"current_range_meters":21200,"station_id":"ce4bh3h2rcd13ifvqdo0","pricing_plan_id":"free"},{"bike_id":"71893643-d6ae-45d8-a949-21d20bad230a","system_id":"levelo_inurba_marseille","lat":43.286595,"lon":5.386795,"is_reserved":false,"is_disabled":false,"rental_uris":{"android":"levelo://app?vid=71893643-d6ae-45d8-a949-21d20bad230a","ios":"levelo://app?vid=71893643-d6ae-45d8-a949-21d20bad230a"},"vehicle_type_id":"4","last_reported":1703847948,"current_range_meters":16000,"station_id":"ce4bh492rcd13ifvqdug","pricing_plan_id":"free"},{"bike_id":"c7043699-7053-4b27-a7b0-f85b8d74a566","system_id":"levelo_inurba_marseille","lat":43.286595,"lon":5.386795,"is_reserved":false,"is_disabled":false,"rental_uris":{"android":"levelo://app?vid=c7043699-7053-4b27-a7b0-f85b8d74a566","ios":"levelo://app?vid=c7043699-7053-4b27-a7b0-f85b8d74a566"},"vehicle_type_id":"4","last_reported":1703847948,"current_range_meters":28400,"station_id":"ce4bh492rcd13ifvqdug","pricing_plan_id":"free"},{"bike_id":"6970de18-e1c1-4e92-839d-003f9056f7b0","system_id":"levelo_inurba_marseille","lat":43.286595,"lon":5.386795,"is_reserved":false,"is_disabled":false,"rental_uris":{"android":"levelo://app?vid=6970de18-e1c1-4e92-839d-003f9056f7b0","ios":"levelo://app?vid=6970de18-e1c1-4e92-839d-003f9056f7b0"},"vehicle_type_id":"4","last_reported":1703847948,"current_range_meters":30000,"station_id":"ce4bh492rcd13ifvqdug","pricing_plan_id":"free"},{"bike_id":"2802626b-9213-4a7b-8607-0dde7aca39ea","system_id":"levelo_inurba_marseille","lat":43.319179,"lon":5.407725,"is_reserved":false,"is_disabled":false,"rental_uris":{"android":"levelo://app?vid=2802626b-9213-4a7b-8607-0dde7aca39ea","ios":"levelo://app?vid=2802626b-9213-4a7b-8607-0dde7aca39ea"},"vehicle_type_id":"4","last_reported":1703847948,"current_range_meters":29200,"station_id":"ce4bhq12rcd13ifvqhig","pricing_plan_id":"free"},{"bike_id":"88a90eb6-df1d-4c20-8e42-f03f5a6f3a0d","system_id":"levelo_inurba_marseille","lat":43.3372,"lon":5.39178,"is_reserved":false,"is_disabled":false,"rental_uris":{"android":"levelo://app?vid=88a90eb6-df1d-4c20-8e42-f03f5a6f3a0d","ios":"levelo://app?vid=88a90eb6-df1d-4c20-8e42-f03f5a6f3a0d"},"vehicle_type_id":"4","last_reported":1703847948,"current_range_meters":7600,"station_id":"ce4bhr92rcd13ifvqhsg","pricing_plan_id":"free"},{"bike_id":"dc01f71e-723b-469f-aec5-061ea8997c0f","system_id":"levelo_inurba_marseille","lat":43.337168,"lon":5.391825,"is_reserved":false,"is_disabled":false,"rental_uris":{"android":"levelo://app?vid=dc01f71e-723b-469f-aec5-061ea8997c0f","ios":"levelo://app?vid=dc01f71e-723b-469f-aec5-061ea8997c0f"},"vehicle_type_id":"4","last_reported":1703847948,"current_range_meters":31200,"station_id":"ce4bhr92rcd13ifvqhsg","pricing_plan_id":"free"},{"bike_id":"62c99a34-ebf8-4262-aab1-f313d6a9d508","system_id":"levelo_inurba_marseille","lat":43.323464,"lon":5.406297,"is_reserved":false,"is_disabled":false,"rental_uris":{"android":"levelo://app?vid=62c99a34-ebf8-4262-aab1-f313d6a9d508","ios":"levelo://app?vid=62c99a34-ebf8-4262-aab1-f313d6a9d508"},"vehicle_type_id":"4","last_reported":1703847948,"current_range_meters":21200,"station_id":"ce4bhq92rcd13ifvqhjg","pricing_plan_id":"free"},{"bike_id":"5c5c748b-92be-461a-ab0b-9881ab0f70e0","system_id":"levelo_inurba_marseille","lat":43.323464,"lon":5.406297,"is_reserved":false,"is_disabled":false,"rental_uris":{"android":"levelo://app?vid=5c5c748b-92be-461a-ab0b-9881ab0f70e0","ios":"levelo://app?vid=5c5c748b-92be-461a-ab0b-9881ab0f70e0"},"vehicle_type_id":"4","last_reported":1703847948,"current_range_meters":14800,"station_id":"ce4bhq92rcd13ifvqhjg","pricing_plan_id":"free"},{"bike_id":"05b69abe-5f9e-4f64-92b2-0d85f8ca8094","system_id":"levelo_inurba_marseille","lat":43.323464,"lon":5.406297,"is_reserved":false,"is_disabled":false,"rental_uris":{"android":"levelo://app?vid=05b69abe-5f9e-4f64-92b2-0d85f8ca8094","ios":"levelo://app?vid=05b69abe-5f9e-4f64-92b2-0d85f8ca8094"},"vehicle_type_id":"4","last_reported":1703847948,"current_range_meters":23600,"station_id":"ce4bhq92rcd13ifvqhjg","pricing_plan_id":"free"},{"bike_id":"30c28359-fe6f-4521-b6f8-124ed38a777b","system_id":"levelo_inurba_marseille","lat":43.323464,"lon":5.406297,"is_reserved":false,"is_disabled":false,"rental_uris":{"android":"levelo://app?vid=30c28359-fe6f-4521-b6f8-124ed38a777b","ios":"levelo://app?vid=30c28359-fe6f-4521-b6f8-124ed38a777b"},"vehicle_type_id":"4","last_reported":1703847948,"current_range_meters":13600,"station_id":"ce4bhq92rcd13ifvqhjg","pricing_plan_id":"free"},{"bike_id":"2ad95a4b-214e-48fc-9c4c-dced021e229f","system_id":"levelo_inurba_marseille","lat":43.323464,"lon":5.406297,"is_reserved":false,"is_disabled":false,"rental_uris":{"android":"levelo://app?vid=2ad95a4b-214e-48fc-9c4c-dced021e229f","ios":"levelo://app?vid=2ad95a4b-214e-48fc-9c4c-dced021e229f"},"vehicle_type_id":"4","last_reported":1703847948,"current_range_meters":31200,"station_id":"ce4bhq92rcd13ifvqhjg","pricing_plan_id":"free"},{"bike_id":"15dce106-3840-40ea-ab69-e4f1bd9fed82","system_id":"levelo_inurba_marseille","lat":43.295713,"lon":5.399639,"is_reserved":false,"is_disabled":false,"rental_uris":{"android":"levelo://app?vid=15dce106-3840-40ea-ab69-e4f1bd9fed82","ios":"levelo://app?vid=15dce106-3840-40ea-ab69-e4f1bd9fed82"},"vehicle_type_id":"4","last_reported":1703847948,"current_range_meters":18400,"station_id":"ce4bh312rcd13ifvqdj0","pricing_plan_id":"free"},{"bike_id":"bbe2d521-57d8-4a34-8d20-9f455dc807b5","system_id":"levelo_inurba_marseille","lat":43.284793,"lon":5.384119,"is_reserved":false,"is_disabled":false,"rental_uris":{"android":"levelo://app?vid=bbe2d521-57d8-4a34-8d20-9f455dc807b5","ios":"levelo://app?vid=bbe2d521-57d8-4a34-8d20-9f455dc807b5"},"vehicle_type_id":"4","last_reported":1703847948,"current_range_meters":12400,"station_id":"ce4bh512rcd13ifvqe3g","pricing_plan_id":"free"},{"bike_id":"3bae48e0-73fa-48b0-bb42-b6152191508a","system_id":"levelo_inurba_marseille","lat":43.284787,"lon":5.384116,"is_reserved":false,"is_disabled":false,"rental_uris":{"android":"levelo://app?vid=3bae48e0-73fa-48b0-bb42-b6152191508a","ios":"levelo://app?vid=3bae48e0-73fa-48b0-bb42-b6152191508a"},"vehicle_type_id":"4","last_reported":1703847948,"current_range_meters":26000,"station_id":"ce4bh512rcd13ifvqe3g","pricing_plan_id":"free"},{"bike_id":"a203ec50-09f2-4ade-88fd-b4a7d59269c8","system_id":"levelo_inurba_marseille","lat":43.284787,"lon":5.384116,"is_reserved":false,"is_disabled":false,"rental_uris":{"android":"levelo://app?vid=a203ec50-09f2-4ade-88fd-b4a7d59269c8","ios":"levelo://app?vid=a203ec50-09f2-4ade-88fd-b4a7d59269c8"},"vehicle_type_id":"4","last_reported":1703847948,"current_range_meters":14400,"station_id":"ce4bh512rcd13ifvqe3g","pricing_plan_id":"free"},{"bike_id":"23a1d045-ca36-4393-8488-d6e8a241b774","system_id":"levelo_inurba_marseille","lat":43.284793,"lon":5.384119,"is_reserved":false,"is_disabled":false,"rental_uris":{"android":"levelo://app?vid=23a1d045-ca36-4393-8488-d6e8a241b774","ios":"levelo://app?vid=23a1d045-ca36-4393-8488-d6e8a241b774"},"vehicle_type_id":"4","last_reported":1703847948,"current_range_meters":19600,"station_id":"ce4bh512rcd13ifvqe3g","pricing_plan_id":"free"},{"bike_id":"e485450b-2736-4f4c-b94b-0da5a69b88aa","system_id":"levelo_inurba_marseille","lat":43.33385,"lon":5.39822,"is_reserved":false,"is_disabled":false,"rental_uris":{"android":"levelo://app?vid=e485450b-2736-4f4c-b94b-0da5a69b88aa","ios":"levelo://app?vid=e485450b-2736-4f4c-b94b-0da5a69b88aa"},"vehicle_type_id":"4","last_reported":1703847948,"current_range_meters":11200,"station_id":"","pricing_plan_id":"free"},{"bike_id":"28a127fe-4de6-430a-94d1-b9861cec5cec","system_id":"levelo_inurba_marseille","lat":43.28418,"lon":5.34982,"is_reserved":false,"is_disabled":false,"rental_uris":{"android":"levelo://app?vid=28a127fe-4de6-430a-94d1-b9861cec5cec","ios":"levelo://app?vid=28a127fe-4de6-430a-94d1-b9861cec5cec"},"vehicle_type_id":"4","last_reported":1703847948,"current_range_meters":8400,"station_id":"ce4bhbh2rcd13ifvqepg","pricing_plan_id":"free"},{"bike_id":"fe7d6894-aae8-45dd-8de7-55d3ba19b55c","system_id":"levelo_inurba_marseille","lat":43.289363,"lon":5.396322,"is_reserved":false,"is_disabled":false,"rental_uris":{"android":"levelo://app?vid=fe7d6894-aae8-45dd-8de7-55d3ba19b55c","ios":"levelo://app?vid=fe7d6894-aae8-45dd-8de7-55d3ba19b55c"},"vehicle_type_id":"4","last_reported":1703847948,"current_range_meters":26000,"station_id":"ce4bh3h2rcd13ifvqdn0","pricing_plan_id":"free"},{"bike_id":"98bc3456-0aa7-43c0-af9b-30bc50d2c0d1","system_id":"levelo_inurba_marseille","lat":43.28271,"lon":5.35074,"is_reserved":false,"is_disabled":false,"rental_uris":{"android":"levelo://app?vid=98bc3456-0aa7-43c0-af9b-30bc50d2c0d1","ios":"levelo://app?vid=98bc3456-0aa7-43c0-af9b-30bc50d2c0d1"},"vehicle_type_id":"4","last_reported":1703847948,"current_range_meters":31200,"station_id":"ce4bhbp2rcd13ifvqerg","pricing_plan_id":"free"},{"bike_id":"5ee10e04-284d-4733-a80a-4c6319c51114","system_id":"levelo_inurba_marseille","lat":43.28272,"lon":5.35059,"is_reserved":false,"is_disabled":false,"rental_uris":{"android":"levelo://app?vid=5ee10e04-284d-4733-a80a-4c6319c51114","ios":"levelo://app?vid=5ee10e04-284d-4733-a80a-4c6319c51114"},"vehicle_type_id":"4","last_reported":1703847948,"current_range_meters":28800,"station_id":"ce4bhbp2rcd13ifvqerg","pricing_plan_id":"free"},{"bike_id":"e15c5a50-70df-4807-9c86-29441b1a1d75","system_id":"levelo_inurba_marseille","lat":43.282656,"lon":5.350646,"is_reserved":false,"is_disabled":false,"rental_uris":{"android":"levelo://app?vid=e15c5a50-70df-4807-9c86-29441b1a1d75","ios":"levelo://app?vid=e15c5a50-70df-4807-9c86-29441b1a1d75"},"vehicle_type_id":"4","last_reported":1703847948,"current_range_meters":30000,"station_id":"ce4bhbp2rcd13ifvqerg","pricing_plan_id":"free"},{"bike_id":"5d794532-c44e-41c3-95ba-18567aa2776f","system_id":"levelo_inurba_marseille","lat":43.28265,"lon":5.35064,"is_reserved":false,"is_disabled":false,"rental_uris":{"android":"levelo://app?vid=5d794532-c44e-41c3-95ba-18567aa2776f","ios":"levelo://app?vid=5d794532-c44e-41c3-95ba-18567aa2776f"},"vehicle_type_id":"4","last_reported":1703847948,"current_range_meters":31200,"station_id":"ce4bhbp2rcd13ifvqerg","pricing_plan_id":"free"},{"bike_id":"bad7088c-a9ba-401e-aebb-9a8f98945ec4","system_id":"levelo_inurba_marseille","lat":43.28265,"lon":5.35062,"is_reserved":false,"is_disabled":false,"rental_uris":{"android":"levelo://app?vid=bad7088c-a9ba-401e-aebb-9a8f98945ec4","ios":"levelo://app?vid=bad7088c-a9ba-401e-aebb-9a8f98945ec4"},"vehicle_type_id":"4","last_reported":1703847948,"current_range_meters":26000,"station_id":"ce4bhbp2rcd13ifvqerg","pricing_plan_id":"free"},{"bike_id":"bf7b175b-de14-462d-b1b1-0381735d201e","system_id":"levelo_inurba_marseille","lat":43.283502,"lon":5.386471,"is_reserved":false,"is_disabled":false,"rental_uris":{"android":"levelo://app?vid=bf7b175b-de14-462d-b1b1-0381735d201e","ios":"levelo://app?vid=bf7b175b-de14-462d-b1b1-0381735d201e"},"vehicle_type_id":"4","last_reported":1703847948,"current_range_meters":22000,"station_id":"ce4bh492rcd13ifvqdvg","pricing_plan_id":"free"},{"bike_id":"9b0eb865-1732-47e8-8622-541121b05d70","system_id":"levelo_inurba_marseille","lat":43.28039,"lon":5.369297,"is_reserved":false,"is_disabled":false,"rental_uris":{"android":"levelo://app?vid=9b0eb865-1732-47e8-8622-541121b05d70","ios":"levelo://app?vid=9b0eb865-1732-47e8-8622-541121b05d70"},"vehicle_type_id":"4","last_reported":1703847948,"current_range_meters":20000,"station_id":"ce4bha12rcd13ifvqef0","pricing_plan_id":"free"},{"bike_id":"cefc6323-d34d-43fd-b7c9-1b7cfc220ded","system_id":"levelo_inurba_marseille","lat":43.284462,"lon":5.392121,"is_reserved":false,"is_disabled":false,"rental_uris":{"android":"levelo://app?vid=cefc6323-d34d-43fd-b7c9-1b7cfc220ded","ios":"levelo://app?vid=cefc6323-d34d-43fd-b7c9-1b7cfc220ded"},"vehicle_type_id":"4","last_reported":1703847948,"current_range_meters":2800,"station_id":"ce4bhoh2rcd13ifvqh5g","pricing_plan_id":"free"},{"bike_id":"54aff5a5-e1a0-4b45-aa9c-de3ccbeaaa92","system_id":"levelo_inurba_marseille","lat":43.279087,"lon":5.380114,"is_reserved":false,"is_disabled":false,"rental_uris":{"android":"levelo://app?vid=54aff5a5-e1a0-4b45-aa9c-de3ccbeaaa92","ios":"levelo://app?vid=54aff5a5-e1a0-4b45-aa9c-de3ccbeaaa92"},"vehicle_type_id":"4","last_reported":1703847948,"current_range_meters":16800,"station_id":"ce4bhf92rcd13ifvqf50","pricing_plan_id":"free"},{"bike_id":"1ec792bc-8c87-4e2d-8e43-f8f29613ea13","system_id":"levelo_inurba_marseille","lat":43.320045,"lon":5.415046,"is_reserved":false,"is_disabled":false,"rental_uris":{"android":"levelo://app?vid=1ec792bc-8c87-4e2d-8e43-f8f29613ea13","ios":"levelo://app?vid=1ec792bc-8c87-4e2d-8e43-f8f29613ea13"},"vehicle_type_id":"4","last_reported":1703847948,"current_range_meters":30000,"station_id":"ce4bhq92rcd13ifvqhkg","pricing_plan_id":"free"},{"bike_id":"0dfc0438-6735-4c63-851b-7eb778c40576","system_id":"levelo_inurba_marseille","lat":43.279742,"lon":5.38744,"is_reserved":false,"is_disabled":false,"rental_uris":{"android":"levelo://app?vid=0dfc0438-6735-4c63-851b-7eb778c40576","ios":"levelo://app?vid=0dfc0438-6735-4c63-851b-7eb778c40576"},"vehicle_type_id":"4","last_reported":1703847948,"current_range_meters":27200,"station_id":"ce4bhg12rcd13ifvqf80","pricing_plan_id":"free"},{"bike_id":"3b4427f9-c7d9-4a5d-b01f-2f2fa78bac1a","system_id":"levelo_inurba_marseille","lat":43.279742,"lon":5.38744,"is_reserved":false,"is_disabled":false,"rental_uris":{"android":"levelo://app?vid=3b4427f9-c7d9-4a5d-b01f-2f2fa78bac1a","ios":"levelo://app?vid=3b4427f9-c7d9-4a5d-b01f-2f2fa78bac1a"},"vehicle_type_id":"4","last_reported":1703847948,"current_range_meters":23200,"station_id":"ce4bhg12rcd13ifvqf80","pricing_plan_id":"free"},{"bike_id":"97e33827-8d9c-4b1d-9b38-2372379f88e6","system_id":"levelo_inurba_marseille","lat":43.279742,"lon":5.38744,"is_reserved":false,"is_disabled":false,"rental_uris":{"android":"levelo://app?vid=97e33827-8d9c-4b1d-9b38-2372379f88e6","ios":"levelo://app?vid=97e33827-8d9c-4b1d-9b38-2372379f88e6"},"vehicle_type_id":"4","last_reported":1703847948,"current_range_meters":26000,"station_id":"ce4bhg12rcd13ifvqf80","pricing_plan_id":"free"},{"bike_id":"ca2b2943-8cd1-4b93-a020-7ceaef3816a0","system_id":"levelo_inurba_marseille","lat":43.320045,"lon":5.415048,"is_reserved":false,"is_disabled":false,"rental_uris":{"android":"levelo://app?vid=ca2b2943-8cd1-4b93-a020-7ceaef3816a0","ios":"levelo://app?vid=ca2b2943-8cd1-4b93-a020-7ceaef3816a0"},"vehicle_type_id":"4","last_reported":1703847948,"current_range_meters":9600,"station_id":"ce4bhq92rcd13ifvqhkg","pricing_plan_id":"free"},{"bike_id":"4a3d140d-113b-467c-a9c4-85151d2ac927","system_id":"levelo_inurba_marseille","lat":43.27618,"lon":5.361009,"is_reserved":false,"is_disabled":false,"rental_uris":{"android":"levelo://app?vid=4a3d140d-113b-467c-a9c4-85151d2ac927","ios":"levelo://app?vid=4a3d140d-113b-467c-a9c4-85151d2ac927"},"vehicle_type_id":"4","last_reported":1703847948,"current_range_meters":13200,"station_id":"ce4bgj92rcd13ifvqbe0","pricing_plan_id":"free"},{"bike_id":"843c7d23-efaf-41ae-b133-7bb5dd4a3e57","system_id":"levelo_inurba_marseille","lat":43.27618,"lon":5.361009,"is_reserved":false,"is_disabled":false,"rental_uris":{"android":"levelo://app?vid=843c7d23-efaf-41ae-b133-7bb5dd4a3e57","ios":"levelo://app?vid=843c7d23-efaf-41ae-b133-7bb5dd4a3e57"},"vehicle_type_id":"4","last_reported":1703847948,"current_range_meters":0,"station_id":"ce4bgj92rcd13ifvqbe0","pricing_plan_id":"free"},{"bike_id":"39940598-40d6-4a1b-9ba9-5035ee5fb6ef","system_id":"levelo_inurba_marseille","lat":43.276179,"lon":5.361009,"is_reserved":false,"is_disabled":false,"rental_uris":{"android":"levelo://app?vid=39940598-40d6-4a1b-9ba9-5035ee5fb6ef","ios":"levelo://app?vid=39940598-40d6-4a1b-9ba9-5035ee5fb6ef"},"vehicle_type_id":"4","last_reported":1703847948,"current_range_meters":24000,"station_id":"ce4bgj92rcd13ifvqbe0","pricing_plan_id":"free"},{"bike_id":"810badb4-2430-46d9-9211-b7f902221d44","system_id":"levelo_inurba_marseille","lat":43.325243,"lon":5.414326,"is_reserved":false,"is_disabled":false,"rental_uris":{"android":"levelo://app?vid=810badb4-2430-46d9-9211-b7f902221d44","ios":"levelo://app?vid=810badb4-2430-46d9-9211-b7f902221d44"},"vehicle_type_id":"4","last_reported":1703847948,"current_range_meters":25200,"station_id":"ce4bhq12rcd13ifvqhhg","pricing_plan_id":"free"},{"bike_id":"1cfa2c67-3cf0-434b-b356-1136962b5a22","system_id":"levelo_inurba_marseille","lat":43.280784,"lon":5.396622,"is_reserved":false,"is_disabled":false,"rental_uris":{"android":"levelo://app?vid=1cfa2c67-3cf0-434b-b356-1136962b5a22","ios":"levelo://app?vid=1cfa2c67-3cf0-434b-b356-1136962b5a22"},"vehicle_type_id":"4","last_reported":1703847948,"current_range_meters":31200,"station_id":"ce4bho12rcd13ifvqh2g","pricing_plan_id":"free"},{"bike_id":"85eb7789-3aed-41b5-932d-4c30bdb220ac","system_id":"levelo_inurba_marseille","lat":43.303837,"lon":5.418724,"is_reserved":false,"is_disabled":false,"rental_uris":{"android":"levelo://app?vid=85eb7789-3aed-41b5-932d-4c30bdb220ac","ios":"levelo://app?vid=85eb7789-3aed-41b5-932d-4c30bdb220ac"},"vehicle_type_id":"4","last_reported":1703847948,"current_range_meters":28400,"station_id":"ce4bhop2rcd13ifvqh7g","pricing_plan_id":"free"},{"bike_id":"eb79de0a-04ab-4d61-af17-700740ea9306","system_id":"levelo_inurba_marseille","lat":43.33596,"lon":5.410115,"is_reserved":false,"is_disabled":false,"rental_uris":{"android":"levelo://app?vid=eb79de0a-04ab-4d61-af17-700740ea9306","ios":"levelo://app?vid=eb79de0a-04ab-4d61-af17-700740ea9306"},"vehicle_type_id":"4","last_reported":1703847948,"current_range_meters":26400,"station_id":"ce4bhqh2rcd13ifvqhmg","pricing_plan_id":"free"},{"bike_id":"fded7ab9-e1d0-44bf-b6e9-de20708360ba","system_id":"levelo_inurba_marseille","lat":43.275625,"lon":5.384392,"is_reserved":false,"is_disabled":false,"rental_uris":{"android":"levelo://app?vid=fded7ab9-e1d0-44bf-b6e9-de20708360ba","ios":"levelo://app?vid=fded7ab9-e1d0-44bf-b6e9-de20708360ba"},"vehicle_type_id":"4","last_reported":1703847948,"current_range_meters":31200,"station_id":"ce4bhh92rcd13ifvqfi0","pricing_plan_id":"free"},{"bike_id":"8c89c02e-da3b-47fe-b02a-e2ab146807e9","system_id":"levelo_inurba_marseille","lat":43.275625,"lon":5.384392,"is_reserved":false,"is_disabled":false,"rental_uris":{"android":"levelo://app?vid=8c89c02e-da3b-47fe-b02a-e2ab146807e9","ios":"levelo://app?vid=8c89c02e-da3b-47fe-b02a-e2ab146807e9"},"vehicle_type_id":"4","last_reported":1703847948,"current_range_meters":26800,"station_id":"ce4bhh92rcd13ifvqfi0","pricing_plan_id":"free"},{"bike_id":"ed084271-8a00-41ad-bd8e-fd18ea3fd3b4","system_id":"levelo_inurba_marseille","lat":43.275625,"lon":5.384392,"is_reserved":false,"is_disabled":false,"rental_uris":{"android":"levelo://app?vid=ed084271-8a00-41ad-bd8e-fd18ea3fd3b4","ios":"levelo://app?vid=ed084271-8a00-41ad-bd8e-fd18ea3fd3b4"},"vehicle_type_id":"4","last_reported":1703847948,"current_range_meters":27200,"station_id":"ce4bhh92rcd13ifvqfi0","pricing_plan_id":"free"},{"bike_id":"06aeca28-58c7-4dd3-98ec-7292b88ddaa3","system_id":"levelo_inurba_marseille","lat":43.279952,"lon":5.400085,"is_reserved":false,"is_disabled":false,"rental_uris":{"android":"levelo://app?vid=06aeca28-58c7-4dd3-98ec-7292b88ddaa3","ios":"levelo://app?vid=06aeca28-58c7-4dd3-98ec-7292b88ddaa3"},"vehicle_type_id":"4","last_reported":1703847948,"current_range_meters":22400,"station_id":"ce4bho92rcd13ifvqh4g","pricing_plan_id":"free"},{"bike_id":"1aa24b15-9b12-4588-97fb-1cfdd276ecd2","system_id":"levelo_inurba_marseille","lat":43.279975,"lon":5.40009,"is_reserved":false,"is_disabled":false,"rental_uris":{"android":"levelo://app?vid=1aa24b15-9b12-4588-97fb-1cfdd276ecd2","ios":"levelo://app?vid=1aa24b15-9b12-4588-97fb-1cfdd276ecd2"},"vehicle_type_id":"4","last_reported":1703847948,"current_range_meters":25200,"station_id":"ce4bho92rcd13ifvqh4g","pricing_plan_id":"free"},{"bike_id":"e9ebc297-5690-454c-90ee-c665d575ca1a","system_id":"levelo_inurba_marseille","lat":43.317121,"lon":5.423936,"is_reserved":false,"is_disabled":false,"rental_uris":{"android":"levelo://app?vid=e9ebc297-5690-454c-90ee-c665d575ca1a","ios":"levelo://app?vid=e9ebc297-5690-454c-90ee-c665d575ca1a"},"vehicle_type_id":"4","last_reported":1703847948,"current_range_meters":30000,"station_id":"ce4bhp92rcd13ifvqhbg","pricing_plan_id":"free"},{"bike_id":"1a16c248-260d-4c68-b0d5-f07822219418","system_id":"levelo_inurba_marseille","lat":43.340804,"lon":5.410219,"is_reserved":false,"is_disabled":false,"rental_uris":{"android":"levelo://app?vid=1a16c248-260d-4c68-b0d5-f07822219418","ios":"levelo://app?vid=1a16c248-260d-4c68-b0d5-f07822219418"},"vehicle_type_id":"4","last_reported":1703847948,"current_range_meters":12000,"station_id":"ce4bhqh2rcd13ifvqhlg","pricing_plan_id":"free"},{"bike_id":"e2fd0ea3-8e75-46ed-91dd-141950cbbf81","system_id":"levelo_inurba_marseille","lat":43.340804,"lon":5.410219,"is_reserved":false,"is_disabled":false,"rental_uris":{"android":"levelo://app?vid=e2fd0ea3-8e75-46ed-91dd-141950cbbf81","ios":"levelo://app?vid=e2fd0ea3-8e75-46ed-91dd-141950cbbf81"},"vehicle_type_id":"4","last_reported":1703847948,"current_range_meters":30400,"station_id":"ce4bhqh2rcd13ifvqhlg","pricing_plan_id":"free"},{"bike_id":"8285c850-195f-4c23-8409-bc0b1fe08b6a","system_id":"levelo_inurba_marseille","lat":43.273125,"lon":5.390731,"is_reserved":false,"is_disabled":false,"rental_uris":{"android":"levelo://app?vid=8285c850-195f-4c23-8409-bc0b1fe08b6a","ios":"levelo://app?vid=8285c850-195f-4c23-8409-bc0b1fe08b6a"},"vehicle_type_id":"4","last_reported":1703847948,"current_range_meters":29200,"station_id":"ce4bhgp2rcd13ifvqfe0","pricing_plan_id":"free"},{"bike_id":"d2fbed49-e56c-491d-9e61-f589a48af637","system_id":"levelo_inurba_marseille","lat":43.304096,"lon":5.425385,"is_reserved":false,"is_disabled":false,"rental_uris":{"android":"levelo://app?vid=d2fbed49-e56c-491d-9e61-f589a48af637","ios":"levelo://app?vid=d2fbed49-e56c-491d-9e61-f589a48af637"},"vehicle_type_id":"4","last_reported":1703847948,"current_range_meters":14800,"station_id":"ce4bhoh2rcd13ifvqh6g","pricing_plan_id":"free"},{"bike_id":"e43782e5-9b2d-4e13-9246-2452f501c0ed","system_id":"levelo_inurba_marseille","lat":43.275003,"lon":5.397517,"is_reserved":false,"is_disabled":false,"rental_uris":{"android":"levelo://app?vid=e43782e5-9b2d-4e13-9246-2452f501c0ed","ios":"levelo://app?vid=e43782e5-9b2d-4e13-9246-2452f501c0ed"},"vehicle_type_id":"4","last_reported":1703847948,"current_range_meters":24000,"station_id":"","pricing_plan_id":"free"},{"bike_id":"e192df68-2c2b-482d-b6fd-3b8920434290","system_id":"levelo_inurba_marseille","lat":43.29552,"lon":5.42279,"is_reserved":false,"is_disabled":false,"rental_uris":{"android":"levelo://app?vid=e192df68-2c2b-482d-b6fd-3b8920434290","ios":"levelo://app?vid=e192df68-2c2b-482d-b6fd-3b8920434290"},"vehicle_type_id":"4","last_reported":1703847948,"current_range_meters":18800,"station_id":"ce4bhph2rcd13ifvqhdg","pricing_plan_id":"free"},{"bike_id":"0c41bc08-49fa-41b0-83dd-5c7480a15cc6","system_id":"levelo_inurba_marseille","lat":43.295567,"lon":5.42284,"is_reserved":false,"is_disabled":false,"rental_uris":{"android":"levelo://app?vid=0c41bc08-49fa-41b0-83dd-5c7480a15cc6","ios":"levelo://app?vid=0c41bc08-49fa-41b0-83dd-5c7480a15cc6"},"vehicle_type_id":"4","last_reported":1703847948,"current_range_meters":27200,"station_id":"ce4bhph2rcd13ifvqhdg","pricing_plan_id":"free"},{"bike_id":"e0d8746c-ec91-49ac-8566-f5a0316d9fee","system_id":"levelo_inurba_marseille","lat":43.272116,"lon":5.391763,"is_reserved":false,"is_disabled":false,"rental_uris":{"android":"levelo://app?vid=e0d8746c-ec91-49ac-8566-f5a0316d9fee","ios":"levelo://app?vid=e0d8746c-ec91-49ac-8566-f5a0316d9fee"},"vehicle_type_id":"4","last_reported":1703847948,"current_range_meters":18000,"station_id":"ce4bhhp2rcd13ifvqfm0","pricing_plan_id":"free"},{"bike_id":"163ef23c-6137-48a3-80d0-a9b617f8c3d5","system_id":"levelo_inurba_marseille","lat":43.272118,"lon":5.391758,"is_reserved":false,"is_disabled":false,"rental_uris":{"android":"levelo://app?vid=163ef23c-6137-48a3-80d0-a9b617f8c3d5","ios":"levelo://app?vid=163ef23c-6137-48a3-80d0-a9b617f8c3d5"},"vehicle_type_id":"4","last_reported":1703847948,"current_range_meters":6400,"station_id":"ce4bhhp2rcd13ifvqfm0","pricing_plan_id":"free"},{"bike_id":"26696b8a-14a0-422c-ace4-e5095a275365","system_id":"levelo_inurba_marseille","lat":43.272118,"lon":5.391758,"is_reserved":false,"is_disabled":false,"rental_uris":{"android":"levelo://app?vid=26696b8a-14a0-422c-ace4-e5095a275365","ios":"levelo://app?vid=26696b8a-14a0-422c-ace4-e5095a275365"},"vehicle_type_id":"4","last_reported":1703847948,"current_range_meters":28000,"station_id":"ce4bhhp2rcd13ifvqfm0","pricing_plan_id":"free"},{"bike_id":"9af353d0-3284-426c-85bd-36e08ff1ded3","system_id":"levelo_inurba_marseille","lat":43.272116,"lon":5.391763,"is_reserved":false,"is_disabled":false,"rental_uris":{"android":"levelo://app?vid=9af353d0-3284-426c-85bd-36e08ff1ded3","ios":"levelo://app?vid=9af353d0-3284-426c-85bd-36e08ff1ded3"},"vehicle_type_id":"4","last_reported":1703847948,"current_range_meters":5200,"station_id":"ce4bhhp2rcd13ifvqfm0","pricing_plan_id":"free"},{"bike_id":"0375cb33-1069-488a-adfb-35aa9b90f4d5","system_id":"levelo_inurba_marseille","lat":43.269467,"lon":5.386439,"is_reserved":false,"is_disabled":false,"rental_uris":{"android":"levelo://app?vid=0375cb33-1069-488a-adfb-35aa9b90f4d5","ios":"levelo://app?vid=0375cb33-1069-488a-adfb-35aa9b90f4d5"},"vehicle_type_id":"4","last_reported":1703847948,"current_range_meters":29600,"station_id":"ce4bhh92rcd13ifvqfh0","pricing_plan_id":"free"},{"bike_id":"348e4ebf-424d-408a-b6f5-d2df81b314ab","system_id":"levelo_inurba_marseille","lat":43.269467,"lon":5.386439,"is_reserved":false,"is_disabled":false,"rental_uris":{"android":"levelo://app?vid=348e4ebf-424d-408a-b6f5-d2df81b314ab","ios":"levelo://app?vid=348e4ebf-424d-408a-b6f5-d2df81b314ab"},"vehicle_type_id":"4","last_reported":1703847948,"current_range_meters":31200,"station_id":"ce4bhh92rcd13ifvqfh0","pricing_plan_id":"free"},{"bike_id":"f447d391-3615-4e02-9cbf-a1417fec2e76","system_id":"levelo_inurba_marseille","lat":43.269467,"lon":5.386439,"is_reserved":false,"is_disabled":false,"rental_uris":{"android":"levelo://app?vid=f447d391-3615-4e02-9cbf-a1417fec2e76","ios":"levelo://app?vid=f447d391-3615-4e02-9cbf-a1417fec2e76"},"vehicle_type_id":"4","last_reported":1703847948,"current_range_meters":29200,"station_id":"ce4bhh92rcd13ifvqfh0","pricing_plan_id":"free"},{"bike_id":"074e0c69-f177-422a-8ad1-5eadc591f34e","system_id":"levelo_inurba_marseille","lat":43.269467,"lon":5.386439,"is_reserved":false,"is_disabled":false,"rental_uris":{"android":"levelo://app?vid=074e0c69-f177-422a-8ad1-5eadc591f34e","ios":"levelo://app?vid=074e0c69-f177-422a-8ad1-5eadc591f34e"},"vehicle_type_id":"4","last_reported":1703847948,"current_range_meters":20800,"station_id":"ce4bhh92rcd13ifvqfh0","pricing_plan_id":"free"},{"bike_id":"7e297f8a-5a57-42bc-98d6-f05a35b2fcc1","system_id":"levelo_inurba_marseille","lat":43.269467,"lon":5.386439,"is_reserved":false,"is_disabled":false,"rental_uris":{"android":"levelo://app?vid=7e297f8a-5a57-42bc-98d6-f05a35b2fcc1","ios":"levelo://app?vid=7e297f8a-5a57-42bc-98d6-f05a35b2fcc1"},"vehicle_type_id":"4","last_reported":1703847948,"current_range_meters":3600,"station_id":"ce4bhh92rcd13ifvqfh0","pricing_plan_id":"free"},{"bike_id":"b398344e-9696-438e-ab3c-9e308e0aa7e0","system_id":"levelo_inurba_marseille","lat":43.279465,"lon":5.410561,"is_reserved":false,"is_disabled":false,"rental_uris":{"android":"levelo://app?vid=b398344e-9696-438e-ab3c-9e308e0aa7e0","ios":"levelo://app?vid=b398344e-9696-438e-ab3c-9e308e0aa7e0"},"vehicle_type_id":"4","last_reported":1703847948,"current_range_meters":19600,"station_id":"ce4bhnp2rcd13ifvqh0g","pricing_plan_id":"free"},{"bike_id":"4be303ad-1644-4a37-9c55-cc1533d14818","system_id":"levelo_inurba_marseille","lat":43.279465,"lon":5.410561,"is_reserved":false,"is_disabled":false,"rental_uris":{"android":"levelo://app?vid=4be303ad-1644-4a37-9c55-cc1533d14818","ios":"levelo://app?vid=4be303ad-1644-4a37-9c55-cc1533d14818"},"vehicle_type_id":"4","last_reported":1703847948,"current_range_meters":20000,"station_id":"ce4bhnp2rcd13ifvqh0g","pricing_plan_id":"free"},{"bike_id":"420ac632-288a-4c08-9a4b-a93c307617d3","system_id":"levelo_inurba_marseille","lat":43.27943,"lon":5.41051,"is_reserved":false,"is_disabled":false,"rental_uris":{"android":"levelo://app?vid=420ac632-288a-4c08-9a4b-a93c307617d3","ios":"levelo://app?vid=420ac632-288a-4c08-9a4b-a93c307617d3"},"vehicle_type_id":"4","last_reported":1703847948,"current_range_meters":18000,"station_id":"ce4bhnp2rcd13ifvqh0g","pricing_plan_id":"free"},{"bike_id":"16d7bcc7-0ca6-452c-9efe-3d8cfe3caeab","system_id":"levelo_inurba_marseille","lat":43.26681,"lon":5.382694,"is_reserved":false,"is_disabled":false,"rental_uris":{"android":"levelo://app?vid=16d7bcc7-0ca6-452c-9efe-3d8cfe3caeab","ios":"levelo://app?vid=16d7bcc7-0ca6-452c-9efe-3d8cfe3caeab"},"vehicle_type_id":"4","last_reported":1703847948,"current_range_meters":20400,"station_id":"ce4bhg92rcd13ifvqf90","pricing_plan_id":"free"},{"bike_id":"7bcb780b-f29c-46cf-a70b-f38ad3e7bf72","system_id":"levelo_inurba_marseille","lat":43.26682,"lon":5.38266,"is_reserved":false,"is_disabled":false,"rental_uris":{"android":"levelo://app?vid=7bcb780b-f29c-46cf-a70b-f38ad3e7bf72","ios":"levelo://app?vid=7bcb780b-f29c-46cf-a70b-f38ad3e7bf72"},"vehicle_type_id":"4","last_reported":1703847948,"current_range_meters":31600,"station_id":"ce4bhg92rcd13ifvqf90","pricing_plan_id":"free"},{"bike_id":"64e44c37-02fa-410b-8031-3722018edfc4","system_id":"levelo_inurba_marseille","lat":43.266824,"lon":5.382786,"is_reserved":false,"is_disabled":false,"rental_uris":{"android":"levelo://app?vid=64e44c37-02fa-410b-8031-3722018edfc4","ios":"levelo://app?vid=64e44c37-02fa-410b-8031-3722018edfc4"},"vehicle_type_id":"4","last_reported":1703847948,"current_range_meters":19600,"station_id":"ce4bhg92rcd13ifvqf90","pricing_plan_id":"free"},{"bike_id":"b142e925-c295-43ac-bd4d-906b4f93788a","system_id":"levelo_inurba_marseille","lat":43.268549,"lon":5.394294,"is_reserved":false,"is_disabled":false,"rental_uris":{"android":"levelo://app?vid=b142e925-c295-43ac-bd4d-906b4f93788a","ios":"levelo://app?vid=b142e925-c295-43ac-bd4d-906b4f93788a"},"vehicle_type_id":"4","last_reported":1703847948,"current_range_meters":26000,"station_id":"","pricing_plan_id":"free"},{"bike_id":"7e52f9fe-170c-460b-84a9-62969e911261","system_id":"levelo_inurba_marseille","lat":43.27988,"lon":5.41663,"is_reserved":false,"is_disabled":false,"rental_uris":{"android":"levelo://app?vid=7e52f9fe-170c-460b-84a9-62969e911261","ios":"levelo://app?vid=7e52f9fe-170c-460b-84a9-62969e911261"},"vehicle_type_id":"4","last_reported":1703847948,"current_range_meters":8400,"station_id":"ce4bho12rcd13ifvqh1g","pricing_plan_id":"free"},{"bike_id":"96f6342a-8a2b-4dc6-b13a-2131ead01e18","system_id":"levelo_inurba_marseille","lat":43.27996,"lon":5.416624,"is_reserved":false,"is_disabled":false,"rental_uris":{"android":"levelo://app?vid=96f6342a-8a2b-4dc6-b13a-2131ead01e18","ios":"levelo://app?vid=96f6342a-8a2b-4dc6-b13a-2131ead01e18"},"vehicle_type_id":"4","last_reported":1703847948,"current_range_meters":30400,"station_id":"ce4bho12rcd13ifvqh1g","pricing_plan_id":"free"},{"bike_id":"38ea3980-80de-4e7b-be15-5e860f075d9b","system_id":"levelo_inurba_marseille","lat":43.265714,"lon":5.372891,"is_reserved":false,"is_disabled":false,"rental_uris":{"android":"levelo://app?vid=38ea3980-80de-4e7b-be15-5e860f075d9b","ios":"levelo://app?vid=38ea3980-80de-4e7b-be15-5e860f075d9b"},"vehicle_type_id":"4","last_reported":1703847948,"current_range_meters":31200,"station_id":"ce4bhg12rcd13ifvqf70","pricing_plan_id":"free"},{"bike_id":"b8227ffc-1f0a-4a1d-add4-c78705f19d14","system_id":"levelo_inurba_marseille","lat":43.267966,"lon":5.393976,"is_reserved":false,"is_disabled":false,"rental_uris":{"android":"levelo://app?vid=b8227ffc-1f0a-4a1d-add4-c78705f19d14","ios":"levelo://app?vid=b8227ffc-1f0a-4a1d-add4-c78705f19d14"},"vehicle_type_id":"4","last_reported":1703847948,"current_range_meters":12000,"station_id":"ce4bhh12rcd13ifvqfg0","pricing_plan_id":"free"},{"bike_id":"ecdc7b4b-f76e-471f-839f-c66e957e5073","system_id":"levelo_inurba_marseille","lat":43.265714,"lon":5.372891,"is_reserved":false,"is_disabled":false,"rental_uris":{"android":"levelo://app?vid=ecdc7b4b-f76e-471f-839f-c66e957e5073","ios":"levelo://app?vid=ecdc7b4b-f76e-471f-839f-c66e957e5073"},