{"last_updated":1726316084,"ttl":30,"version":"2.2","data":{"bikes":[{"bike_id":"bc35aeaa-3e4d-43e6-9935-c8f1110a4b4c","system_id":"levelo_inurba_marseille","lat":43.30512,"lon":5.36709,"is_reserved":false,"is_disabled":false,"rental_uris":{"android":"levelo://app?vid=bc35aeaa-3e4d-43e6-9935-c8f1110a4b4c","ios":"levelo://app?vid=bc35aeaa-3e4d-43e6-9935-c8f1110a4b4c"},"vehicle_type_id":"4","last_reported":1726316084,"current_range_meters":32800,"station_id":"ce4bgrp2rcd13ifvqc9g","pricing_plan_id":"cebpf4jnsgd1na2vs0mg"},{"bike_id":"eb87fb95-d7e8-4523-9c3a-8580e30ec6d8","system_id":"levelo_inurba_marseille","lat":43.24392,"lon":5.3706,"is_reserved":false,"is_disabled":false,"rental_uris":{"android":"levelo://app?vid=eb87fb95-d7e8-4523-9c3a-8580e30ec6d8","ios":"levelo://app?vid=eb87fb95-d7e8-4523-9c3a-8580e30ec6d8"},"vehicle_type_id":"4","last_reported":1726316084,"current_range_meters":38400,"station_id":"ce4bhhh2rcd13ifvqfk0","pricing_plan_id":"cebpf4jnsgd1na2vs0mg"},{"bike_id":"436cf2d0-47d5-45b8-b9e9-e05936c9b5ce","system_id":"levelo_inurba_marseille","lat":43.30537,"lon":5.36533,"is_reserved":false,"is_disabled":false,"rental_uris":{"android":"levelo://app?vid=436cf2d0-47d5-45b8-b9e9-e05936c9b5ce","ios":"levelo://app?vid=436cf2d0-47d5-45b8-b9e9-e05936c9b5ce"},"vehicle_type_id":"4","last_reported":1726316084,"current_range_meters":40000,"station_id":"ce4bgs12rcd13ifvqcag","pricing_plan_id":"cebpf4jnsgd1na2vs0mg"},{"bike_id":"02079676-c19e-41f4-9701-342266169723","system_id":"levelo_inurba_marseille","lat":43.29623,"lon":5.37172,"is_reserved":false,"is_disabled":false,"rental_uris":{"android":"levelo://app?vid=02079676-c19e-41f4-9701-342266169723","ios":"levelo://app?vid=02079676-c19e-41f4-9701-342266169723"},"vehicle_type_id":"4","last_reported":1726316084,"current_range_meters":21600,"station_id":"ce4bgnh2rcd13ifvqc0g","pricing_plan_id":"cebpf4jnsgd1na2vs0mg"},{"bike_id":"1433cc86-19c5-4d38-a0b5-c5c087739e0a","system_id":"levelo_inurba_marseille","lat":43.22928,"lon":5.3538,"is_reserved":false,"is_disabled":false,"rental_uris":{"android":"levelo://app?vid=1433cc86-19c5-4d38-a0b5-c5c087739e0a","ios":"levelo://app?vid=1433cc86-19c5-4d38-a0b5-c5c087739e0a"},"vehicle_type_id":"4","last_reported":1726316084,"current_range_meters":26000,"station_id":"cpo3532slgdg3j2ikp40","pricing_plan_id":"cebpf4jnsgd1na2vs0mg"},{"bike_id":"fa812e62-5a7a-4bc9-bad6-c22c286d9c5d","system_id":"levelo_inurba_marseille","lat":43.30466,"lon":5.37908,"is_reserved":false,"is_disabled":false,"rental_uris":{"android":"levelo://app?vid=fa812e62-5a7a-4bc9-bad6-c22c286d9c5d","ios":"levelo://app?vid=fa812e62-5a7a-4bc9-bad6-c22c286d9c5d"},"vehicle_type_id":"4","last_reported":1726316084,"current_range_meters":40000,"station_id":"ce4bgup2rcd13ifvqcn0","pricing_plan_id":"cebpf4jnsgd1na2vs0mg"},{"bike_id":"b9759ce6-42ab-4e88-8554-693ad6ecbfef","system_id":"levelo_inurba_marseille","lat":43.290894,"lon":5.381172,"is_reserved":false,"is_disabled":false,"rental_uris":{"android":"levelo://app?vid=b9759ce6-42ab-4e88-8554-693ad6ecbfef","ios":"levelo://app?vid=b9759ce6-42ab-4e88-8554-693ad6ecbfef"},"vehicle_type_id":"4","last_reported":1726316084,"current_range_meters":10800,"station_id":"ce4bh512rcd13ifvqe2g","pricing_plan_id":"cebpf4jnsgd1na2vs0mg"},{"bike_id":"083984dd-1abd-4a7d-84c6-e8ceb7b63abe","system_id":"levelo_inurba_marseille","lat":43.31094,"lon":5.37765,"is_reserved":false,"is_disabled":false,"rental_uris":{"android":"levelo://app?vid=083984dd-1abd-4a7d-84c6-e8ceb7b63abe","ios":"levelo://app?vid=083984dd-1abd-4a7d-84c6-e8ceb7b63abe"},"vehicle_type_id":"4","last_reported":1726316084,"current_range_meters":36400,"station_id":"ce4bgt92rcd13ifvqcg0","pricing_plan_id":"cebpf4jnsgd1na2vs0mg"},{"bike_id":"312c32aa-7767-4e9c-bdb0-d63bd304be96","system_id":"levelo_inurba_marseille","lat":43.3054,"lon":5.36535,"is_reserved":false,"is_disabled":false,"rental_uris":{"android":"levelo://app?vid=312c32aa-7767-4e9c-bdb0-d63bd304be96","ios":"levelo://app?vid=312c32aa-7767-4e9c-bdb0-d63bd304be96"},"vehicle_type_id":"4","last_reported":1726316084,"current_range_meters":24800,"station_id":"ce4bgs12rcd13ifvqcag","pricing_plan_id":"cebpf4jnsgd1na2vs0mg"},{"bike_id":"f2aab370-6e0a-414f-a9aa-b82870be9ba4","system_id":"levelo_inurba_marseille","lat":43.28609,"lon":5.35099,"is_reserved":false,"is_disabled":false,"rental_uris":{"android":"levelo://app?vid=f2aab370-6e0a-414f-a9aa-b82870be9ba4","ios":"levelo://app?vid=f2aab370-6e0a-414f-a9aa-b82870be9ba4"},"vehicle_type_id":"4","last_reported":1726316084,"current_range_meters":16800,"station_id":"ce4bhch2rcd13ifvqeug","pricing_plan_id":"cebpf4jnsgd1na2vs0mg"},{"bike_id":"656c27b4-466d-4156-9fb3-b9e329ecd7dd","system_id":"levelo_inurba_marseille","lat":43.26945,"lon":5.40253,"is_reserved":false,"is_disabled":false,"rental_uris":{"android":"levelo://app?vid=656c27b4-466d-4156-9fb3-b9e329ecd7dd","ios":"levelo://app?vid=656c27b4-466d-4156-9fb3-b9e329ecd7dd"},"vehicle_type_id":"4","last_reported":1726316084,"current_range_meters":17600,"station_id":"cjm6bp8fraef2m0cb0m0","pricing_plan_id":"cebpf4jnsgd1na2vs0mg"},{"bike_id":"5c947e24-d492-4295-83aa-086d1450597b","system_id":"levelo_inurba_marseille","lat":43.29795,"lon":5.37102,"is_reserved":false,"is_disabled":false,"rental_uris":{"android":"levelo://app?vid=5c947e24-d492-4295-83aa-086d1450597b","ios":"levelo://app?vid=5c947e24-d492-4295-83aa-086d1450597b"},"vehicle_type_id":"4","last_reported":1726316084,"current_range_meters":18800,"station_id":"ce4bgop2rcd13ifvqc1g","pricing_plan_id":"cebpf4jnsgd1na2vs0mg"},{"bike_id":"57078c0b-9beb-4ca6-9619-12066e4ed91f","system_id":"levelo_inurba_marseille","lat":43.31756,"lon":5.39018,"is_reserved":false,"is_disabled":false,"rental_uris":{"android":"levelo://app?vid=57078c0b-9beb-4ca6-9619-12066e4ed91f","ios":"levelo://app?vid=57078c0b-9beb-4ca6-9619-12066e4ed91f"},"vehicle_type_id":"4","last_reported":1726316084,"current_range_meters":39200,"station_id":"ce4bhqp2rcd13ifvqhng","pricing_plan_id":"cebpf4jnsgd1na2vs0mg"},{"bike_id":"a725e6bd-2610-4052-aad1-4708c94b8d10","system_id":"levelo_inurba_marseille","lat":43.28272,"lon":5.35062,"is_reserved":false,"is_disabled":false,"rental_uris":{"android":"levelo://app?vid=a725e6bd-2610-4052-aad1-4708c94b8d10","ios":"levelo://app?vid=a725e6bd-2610-4052-aad1-4708c94b8d10"},"vehicle_type_id":"4","last_reported":1726316084,"current_range_meters":22000,"station_id":"ce4bhbp2rcd13ifvqerg","pricing_plan_id":"cebpf4jnsgd1na2vs0mg"},{"bike_id":"e869eba8-35c0-4afa-b325-14f60c232467","system_id":"levelo_inurba_marseille","lat":43.280579,"lon":5.352663,"is_reserved":false,"is_disabled":false,"rental_uris":{"android":"levelo://app?vid=e869eba8-35c0-4afa-b325-14f60c232467","ios":"levelo://app?vid=e869eba8-35c0-4afa-b325-14f60c232467"},"vehicle_type_id":"4","last_reported":1726316084,"current_range_meters":23200,"station_id":"","pricing_plan_id":"cebpf4jnsgd1na2vs0mg"},{"bike_id":"0beefcad-ba62-4d25-8a02-f24591f5d81c","system_id":"levelo_inurba_marseille","lat":43.30185,"lon":5.36633,"is_reserved":false,"is_disabled":false,"rental_uris":{"android":"levelo://app?vid=0beefcad-ba62-4d25-8a02-f24591f5d81c","ios":"levelo://app?vid=0beefcad-ba62-4d25-8a02-f24591f5d81c"},"vehicle_type_id":"4","last_reported":1726316084,"current_range_meters":18000,"station_id":"ce4bgrh2rcd13ifvqc8g","pricing_plan_id":"cebpf4jnsgd1na2vs0mg"},{"bike_id":"b57d008e-cedc-4b84-9bf6-15384cb281cd","system_id":"levelo_inurba_marseille","lat":43.29852,"lon":5.36278,"is_reserved":false,"is_disabled":false,"rental_uris":{"android":"levelo://app?vid=b57d008e-cedc-4b84-9bf6-15384cb281cd","ios":"levelo://app?vid=b57d008e-cedc-4b84-9bf6-15384cb281cd"},"vehicle_type_id":"4","last_reported":1726316084,"current_range_meters":38800,"station_id":"ce4bgpp2rcd13ifvqc3g","pricing_plan_id":"cebpf4jnsgd1na2vs0mg"},{"bike_id":"13ec4916-f0ea-4897-8afc-596425b42c42","system_id":"levelo_inurba_marseille","lat":43.23187,"lon":5.3556,"is_reserved":false,"is_disabled":false,"rental_uris":{"android":"levelo://app?vid=13ec4916-f0ea-4897-8afc-596425b42c42","ios":"levelo://app?vid=13ec4916-f0ea-4897-8afc-596425b42c42"},"vehicle_type_id":"4","last_reported":1726316084,"current_range_meters":27200,"station_id":"ce4bhu92rcd13ifvqi70","pricing_plan_id":"cebpf4jnsgd1na2vs0mg"},{"bike_id":"5294d5cf-0188-4d15-bd26-9773ecbe5d0d","system_id":"levelo_inurba_marseille","lat":43.23967,"lon":5.36633,"is_reserved":false,"is_disabled":false,"rental_uris":{"android":"levelo://app?vid=5294d5cf-0188-4d15-bd26-9773ecbe5d0d","ios":"levelo://app?vid=5294d5cf-0188-4d15-bd26-9773ecbe5d0d"},"vehicle_type_id":"4","last_reported":1726316084,"current_range_meters":18800,"station_id":"ce4bhi12rcd13ifvqfp0","pricing_plan_id":"cebpf4jnsgd1na2vs0mg"},{"bike_id":"cb0eaffb-2812-4bc5-9ace-6454d6cac3eb","system_id":"levelo_inurba_marseille","lat":43.28617,"lon":5.35103,"is_reserved":false,"is_disabled":false,"rental_uris":{"android":"levelo://app?vid=cb0eaffb-2812-4bc5-9ace-6454d6cac3eb","ios":"levelo://app?vid=cb0eaffb-2812-4bc5-9ace-6454d6cac3eb"},"vehicle_type_id":"4","last_reported":1726316084,"current_range_meters":29600,"station_id":"ce4bhch2rcd13ifvqeug","pricing_plan_id":"cebpf4jnsgd1na2vs0mg"},{"bike_id":"a2360ee0-db48-4fec-8e3b-4fc7ef820ca3","system_id":"levelo_inurba_marseille","lat":43.2991,"lon":5.38145,"is_reserved":false,"is_disabled":false,"rental_uris":{"android":"levelo://app?vid=a2360ee0-db48-4fec-8e3b-4fc7ef820ca3","ios":"levelo://app?vid=a2360ee0-db48-4fec-8e3b-4fc7ef820ca3"},"vehicle_type_id":"4","last_reported":1726316084,"current_range_meters":31200,"station_id":"ce4bgj12rcd13ifvqbc0","pricing_plan_id":"cebpf4jnsgd1na2vs0mg"},{"bike_id":"3f1e932a-540c-4c5d-a4f8-ac49240977b8","system_id":"levelo_inurba_marseille","lat":43.24396,"lon":5.37052,"is_reserved":false,"is_disabled":false,"rental_uris":{"android":"levelo://app?vid=3f1e932a-540c-4c5d-a4f8-ac49240977b8","ios":"levelo://app?vid=3f1e932a-540c-4c5d-a4f8-ac49240977b8"},"vehicle_type_id":"4","last_reported":1726316084,"current_range_meters":39200,"station_id":"ce4bhhh2rcd13ifvqfk0","pricing_plan_id":"cebpf4jnsgd1na2vs0mg"},{"bike_id":"1b69e28d-b657-4802-b5dd-aa17fb5a768b","system_id":"levelo_inurba_marseille","lat":43.27135,"lon":5.42802,"is_reserved":false,"is_disabled":false,"rental_uris":{"android":"levelo://app?vid=1b69e28d-b657-4802-b5dd-aa17fb5a768b","ios":"levelo://app?vid=1b69e28d-b657-4802-b5dd-aa17fb5a768b"},"vehicle_type_id":"4","last_reported":1726316084,"current_range_meters":26800,"station_id":"","pricing_plan_id":"cebpf4jnsgd1na2vs0mg"},{"bike_id":"ed6ea6a8-7a12-489f-a3ff-5481318940c4","system_id":"levelo_inurba_marseille","lat":43.23183,"lon":5.39991,"is_reserved":false,"is_disabled":false,"rental_uris":{"android":"levelo://app?vid=ed6ea6a8-7a12-489f-a3ff-5481318940c4","ios":"levelo://app?vid=ed6ea6a8-7a12-489f-a3ff-5481318940c4"},"vehicle_type_id":"4","last_reported":1726316084,"current_range_meters":38800,"station_id":"ce4bhn12rcd13ifvqgqg","pricing_plan_id":"cebpf4jnsgd1na2vs0mg"},{"bike_id":"026a3fb4-5a7d-413d-850f-bdb6b382da7d","system_id":"levelo_inurba_marseille","lat":43.23193,"lon":5.35555,"is_reserved":false,"is_disabled":false,"rental_uris":{"android":"levelo://app?vid=026a3fb4-5a7d-413d-850f-bdb6b382da7d","ios":"levelo://app?vid=026a3fb4-5a7d-413d-850f-bdb6b382da7d"},"vehicle_type_id":"4","last_reported":1726316084,"current_range_meters":6800,"station_id":"ce4bhu92rcd13ifvqi70","pricing_plan_id":"cebpf4jnsgd1na2vs0mg"},{"bike_id":"9feab398-cf56-4b89-9b16-aeeeba7aded1","system_id":"levelo_inurba_marseille","lat":43.28035,"lon":5.36954,"is_reserved":false,"is_disabled":false,"rental_uris":{"android":"levelo://app?vid=9feab398-cf56-4b89-9b16-aeeeba7aded1","ios":"levelo://app?vid=9feab398-cf56-4b89-9b16-aeeeba7aded1"},"vehicle_type_id":"4","last_reported":1726316084,"current_range_meters":11200,"station_id":"ce4bha12rcd13ifvqef0","pricing_plan_id":"cebpf4jnsgd1na2vs0mg"},{"bike_id":"48d6cde3-172b-4adf-bd43-511b431bc5ad","system_id":"levelo_inurba_marseille","lat":43.28266,"lon":5.35064,"is_reserved":false,"is_disabled":false,"rental_uris":{"android":"levelo://app?vid=48d6cde3-172b-4adf-bd43-511b431bc5ad","ios":"levelo://app?vid=48d6cde3-172b-4adf-bd43-511b431bc5ad"},"vehicle_type_id":"4","last_reported":1726316084,"current_range_meters":3600,"station_id":"ce4bhbp2rcd13ifvqerg","pricing_plan_id":"cebpf4jnsgd1na2vs0mg"},{"bike_id":"995d3a7e-289e-4ebd-b785-9d2da426ad57","system_id":"levelo_inurba_marseille","lat":43.23193,"lon":5.35543,"is_reserved":false,"is_disabled":false,"rental_uris":{"android":"levelo://app?vid=995d3a7e-289e-4ebd-b785-9d2da426ad57","ios":"levelo://app?vid=995d3a7e-289e-4ebd-b785-9d2da426ad57"},"vehicle_type_id":"4","last_reported":1726316084,"current_range_meters":20400,"station_id":"ce4bhu92rcd13ifvqi70","pricing_plan_id":"cebpf4jnsgd1na2vs0mg"},{"bike_id":"74c67d55-8a5f-40c9-8066-d68354718f8c","system_id":"levelo_inurba_marseille","lat":43.23189,"lon":5.35555,"is_reserved":false,"is_disabled":false,"rental_uris":{"android":"levelo://app?vid=74c67d55-8a5f-40c9-8066-d68354718f8c","ios":"levelo://app?vid=74c67d55-8a5f-40c9-8066-d68354718f8c"},"vehicle_type_id":"4","last_reported":1726316084,"current_range_meters":25600,"station_id":"ce4bhu92rcd13ifvqi70","pricing_plan_id":"cebpf4jnsgd1na2vs0mg"},{"bike_id":"bbff06e8-e26c-4f4a-87c2-0dbc5a84f5ee","system_id":"levelo_inurba_marseille","lat":43.30559,"lon":5.36538,"is_reserved":false,"is_disabled":false,"rental_uris":{"android":"levelo://app?vid=bbff06e8-e26c-4f4a-87c2-0dbc5a84f5ee","ios":"levelo://app?vid=bbff06e8-e26c-4f4a-87c2-0dbc5a84f5ee"},"vehicle_type_id":"4","last_reported":1726316084,"current_range_meters":39200,"station_id":"ce4bgs12rcd13ifvqcag","pricing_plan_id":"cebpf4jnsgd1na2vs0mg"},{"bike_id":"39583510-a917-45eb-8e61-36315c287b4b","system_id":"levelo_inurba_marseille","lat":43.28266,"lon":5.3507,"is_reserved":false,"is_disabled":false,"rental_uris":{"android":"levelo://app?vid=39583510-a917-45eb-8e61-36315c287b4b","ios":"levelo://app?vid=39583510-a917-45eb-8e61-36315c287b4b"},"vehicle_type_id":"4","last_reported":1726316084,"current_range_meters":22000,"station_id":"ce4bhbp2rcd13ifvqerg","pricing_plan_id":"cebpf4jnsgd1na2vs0mg"},{"bike_id":"b175abe2-736e-4361-9631-47d775c167a0","system_id":"levelo_inurba_marseille","lat":43.24392,"lon":5.37067,"is_reserved":false,"is_disabled":false,"rental_uris":{"android":"levelo://app?vid=b175abe2-736e-4361-9631-47d775c167a0","ios":"levelo://app?vid=b175abe2-736e-4361-9631-47d775c167a0"},"vehicle_type_id":"4","last_reported":1726316084,"current_range_meters":20400,"station_id":"ce4bhhh2rcd13ifvqfk0","pricing_plan_id":"cebpf4jnsgd1na2vs0mg"},{"bike_id":"24674f4b-bcb6-4d3e-a74d-7d8a6acb125c","system_id":"levelo_inurba_marseille","lat":43.24997,"lon":5.38936,"is_reserved":false,"is_disabled":false,"rental_uris":{"android":"levelo://app?vid=24674f4b-bcb6-4d3e-a74d-7d8a6acb125c","ios":"levelo://app?vid=24674f4b-bcb6-4d3e-a74d-7d8a6acb125c"},"vehicle_type_id":"4","last_reported":1726316084,"current_range_meters":27200,"station_id":"ce4bhgp2rcd13ifvqfd0","pricing_plan_id":"cebpf4jnsgd1na2vs0mg"},{"bike_id":"c810d6b7-9e0b-4807-98d4-ce8673d16f3c","system_id":"levelo_inurba_marseille","lat":43.29749,"lon":5.37921,"is_reserved":false,"is_disabled":false,"rental_uris":{"android":"levelo://app?vid=c810d6b7-9e0b-4807-98d4-ce8673d16f3c","ios":"levelo://app?vid=c810d6b7-9e0b-4807-98d4-ce8673d16f3c"},"vehicle_type_id":"4","last_reported":1726316084,"current_range_meters":38800,"station_id":"","pricing_plan_id":"cebpf4jnsgd1na2vs0mg"},{"bike_id":"5d4d196a-dcd3-401c-bbda-3dae8babdc01","system_id":"levelo_inurba_marseille","lat":43.26209,"lon":5.37925,"is_reserved":false,"is_disabled":false,"rental_uris":{"android":"levelo://app?vid=5d4d196a-dcd3-401c-bbda-3dae8babdc01","ios":"levelo://app?vid=5d4d196a-dcd3-401c-bbda-3dae8babdc01"},"vehicle_type_id":"4","last_reported":1726316084,"current_range_meters":34800,"station_id":"ce4bhjp2rcd13ifvqg90","pricing_plan_id":"cebpf4jnsgd1na2vs0mg"},{"bike_id":"d132af03-7142-4804-b5c3-91fefdd4a854","system_id":"levelo_inurba_marseille","lat":43.28156,"lon":5.42641,"is_reserved":false,"is_disabled":false,"rental_uris":{"android":"levelo://app?vid=d132af03-7142-4804-b5c3-91fefdd4a854","ios":"levelo://app?vid=d132af03-7142-4804-b5c3-91fefdd4a854"},"vehicle_type_id":"4","last_reported":1726316084,"current_range_meters":28400,"station_id":"ce4bhnh2rcd13ifvqgug","pricing_plan_id":"cebpf4jnsgd1na2vs0mg"},{"bike_id":"8b085320-0367-48fd-9439-d5a2380ff618","system_id":"levelo_inurba_marseille","lat":43.27816,"lon":5.40716,"is_reserved":false,"is_disabled":false,"rental_uris":{"android":"levelo://app?vid=8b085320-0367-48fd-9439-d5a2380ff618","ios":"levelo://app?vid=8b085320-0367-48fd-9439-d5a2380ff618"},"vehicle_type_id":"4","last_reported":1726316084,"current_range_meters":22000,"station_id":"ce4bhnh2rcd13ifvqgtg","pricing_plan_id":"cebpf4jnsgd1na2vs0mg"},{"bike_id":"c00a267b-9f51-4707-9b6f-5420e973cb11","system_id":"levelo_inurba_marseille","lat":43.2573,"lon":5.41107,"is_reserved":false,"is_disabled":false,"rental_uris":{"android":"levelo://app?vid=c00a267b-9f51-4707-9b6f-5420e973cb11","ios":"levelo://app?vid=c00a267b-9f51-4707-9b6f-5420e973cb11"},"vehicle_type_id":"4","last_reported":1726316084,"current_range_meters":28800,"station_id":"ce4bhkp2rcd13ifvqgd0","pricing_plan_id":"cebpf4jnsgd1na2vs0mg"},{"bike_id":"e6bea8cd-bd1a-48c2-8a52-de5e2a98c0f4","system_id":"levelo_inurba_marseille","lat":43.25939,"lon":5.409,"is_reserved":false,"is_disabled":false,"rental_uris":{"android":"levelo://app?vid=e6bea8cd-bd1a-48c2-8a52-de5e2a98c0f4","ios":"levelo://app?vid=e6bea8cd-bd1a-48c2-8a52-de5e2a98c0f4"},"vehicle_type_id":"4","last_reported":1726316084,"current_range_meters":32400,"station_id":"ce4bhm92rcd13ifvqglg","pricing_plan_id":"cebpf4jnsgd1na2vs0mg"},{"bike_id":"9c28ec0f-4c95-4721-aa62-afca5f4a4fb7","system_id":"levelo_inurba_marseille","lat":43.30377,"lon":5.38024,"is_reserved":false,"is_disabled":false,"rental_uris":{"android":"levelo://app?vid=9c28ec0f-4c95-4721-aa62-afca5f4a4fb7","ios":"levelo://app?vid=9c28ec0f-4c95-4721-aa62-afca5f4a4fb7"},"vehicle_type_id":"4","last_reported":1726316084,"current_range_meters":9200,"station_id":"","pricing_plan_id":"cebpf4jnsgd1na2vs0mg"},{"bike_id":"25719f38-c078-495c-9328-7a625d03a8de","system_id":"levelo_inurba_marseille","lat":43.31691,"lon":5.40476,"is_reserved":false,"is_disabled":false,"rental_uris":{"android":"levelo://app?vid=25719f38-c078-495c-9328-7a625d03a8de","ios":"levelo://app?vid=25719f38-c078-495c-9328-7a625d03a8de"},"vehicle_type_id":"4","last_reported":1726316084,"current_range_meters":14800,"station_id":"ce4bh012rcd13ifvqd00","pricing_plan_id":"cebpf4jnsgd1na2vs0mg"},{"bike_id":"e29a8fc3-cb80-4d4b-9678-f0e8c69758a2","system_id":"levelo_inurba_marseille","lat":43.337444,"lon":5.374475,"is_reserved":false,"is_disabled":false,"rental_uris":{"android":"levelo://app?vid=e29a8fc3-cb80-4d4b-9678-f0e8c69758a2","ios":"levelo://app?vid=e29a8fc3-cb80-4d4b-9678-f0e8c69758a2"},"vehicle_type_id":"4","last_reported":1726316084,"current_range_meters":35600,"station_id":"","pricing_plan_id":"cebpf4jnsgd1na2vs0mg"},{"bike_id":"5aafe54a-7674-46d1-89a0-9d31fda0c841","system_id":"levelo_inurba_marseille","lat":43.2842,"lon":5.37513,"is_reserved":false,"is_disabled":false,"rental_uris":{"android":"levelo://app?vid=5aafe54a-7674-46d1-89a0-9d31fda0c841","ios":"levelo://app?vid=5aafe54a-7674-46d1-89a0-9d31fda0c841"},"vehicle_type_id":"4","last_reported":1726316084,"current_range_meters":38800,"station_id":"ce4bh412rcd13ifvqds0","pricing_plan_id":"cebpf4jnsgd1na2vs0mg"},{"bike_id":"6df5c4d3-301d-4715-9fb9-e2b5fd259435","system_id":"levelo_inurba_marseille","lat":43.298591,"lon":5.362979,"is_reserved":false,"is_disabled":false,"rental_uris":{"android":"levelo://app?vid=6df5c4d3-301d-4715-9fb9-e2b5fd259435","ios":"levelo://app?vid=6df5c4d3-301d-4715-9fb9-e2b5fd259435"},"vehicle_type_id":"4","last_reported":1726316084,"current_range_meters":16400,"station_id":"ce4bgpp2rcd13ifvqc3g","pricing_plan_id":"cebpf4jnsgd1na2vs0mg"},{"bike_id":"7e862e61-75da-4e7f-8e5f-793a48533c82","system_id":"levelo_inurba_marseille","lat":43.24805,"lon":5.37454,"is_reserved":false,"is_disabled":false,"rental_uris":{"android":"levelo://app?vid=7e862e61-75da-4e7f-8e5f-793a48533c82","ios":"levelo://app?vid=7e862e61-75da-4e7f-8e5f-793a48533c82"},"vehicle_type_id":"4","last_reported":1726316084,"current_range_meters":10800,"station_id":"ce4bhgh2rcd13ifvqfb0","pricing_plan_id":"cebpf4jnsgd1na2vs0mg"},{"bike_id":"34721204-9cc8-4128-8304-5b698c26b1e6","system_id":"levelo_inurba_marseille","lat":43.23189,"lon":5.39978,"is_reserved":false,"is_disabled":false,"rental_uris":{"android":"levelo://app?vid=34721204-9cc8-4128-8304-5b698c26b1e6","ios":"levelo://app?vid=34721204-9cc8-4128-8304-5b698c26b1e6"},"vehicle_type_id":"4","last_reported":1726316084,"current_range_meters":39200,"station_id":"ce4bhn12rcd13ifvqgqg","pricing_plan_id":"cebpf4jnsgd1na2vs0mg"},{"bike_id":"d97d40ef-a035-4cb5-be51-347dfbed25c1","system_id":"levelo_inurba_marseille","lat":43.26201,"lon":5.37936,"is_reserved":false,"is_disabled":false,"rental_uris":{"android":"levelo://app?vid=d97d40ef-a035-4cb5-be51-347dfbed25c1","ios":"levelo://app?vid=d97d40ef-a035-4cb5-be51-347dfbed25c1"},"vehicle_type_id":"4","last_reported":1726316084,"current_range_meters":37600,"station_id":"ce4bhjp2rcd13ifvqg90","pricing_plan_id":"cebpf4jnsgd1na2vs0mg"},{"bike_id":"ad723d0b-19fc-4bd0-8eec-a408c1d7f33b","system_id":"levelo_inurba_marseille","lat":43.25504,"lon":5.37657,"is_reserved":false,"is_disabled":false,"rental_uris":{"android":"levelo://app?vid=ad723d0b-19fc-4bd0-8eec-a408c1d7f33b","ios":"levelo://app?vid=ad723d0b-19fc-4bd0-8eec-a408c1d7f33b"},"vehicle_type_id":"4","last_reported":1726316084,"current_range_meters":32400,"station_id":"ce4bhh12rcd13ifvqff0","pricing_plan_id":"cebpf4jnsgd1na2vs0mg"},{"bike_id":"8beb4341-5f94-43e8-9c64-437441b869d0","system_id":"levelo_inurba_marseille","lat":43.29657,"lon":5.375243,"is_reserved":false,"is_disabled":false,"rental_uris":{"android":"levelo://app?vid=8beb4341-5f94-43e8-9c64-437441b869d0","ios":"levelo://app?vid=8beb4341-5f94-43e8-9c64-437441b869d0"},"vehicle_type_id":"4","last_reported":1726316084,"current_range_meters":38400,"station_id":"ce4bgh92rcd13ifvqb50","pricing_plan_id":"cebpf4jnsgd1na2vs0mg"},{"bike_id":"77b18c68-199d-47bb-8f81-4b70d2cf7fad","system_id":"levelo_inurba_marseille","lat":43.29268,"lon":5.36851,"is_reserved":false,"is_disabled":false,"rental_uris":{"android":"levelo://app?vid=77b18c68-199d-47bb-8f81-4b70d2cf7fad","ios":"levelo://app?vid=77b18c68-199d-47bb-8f81-4b70d2cf7fad"},"vehicle_type_id":"4","last_reported":1726316084,"current_range_meters":37600,"station_id":"ce4bhbp2rcd13ifvqesg","pricing_plan_id":"cebpf4jnsgd1na2vs0mg"},{"bike_id":"4537378f-d6c9-4baa-a653-6048ce9e324b","system_id":"levelo_inurba_marseille","lat":43.24822,"lon":5.37396,"is_reserved":false,"is_disabled":false,"rental_uris":{"android":"levelo://app?vid=4537378f-d6c9-4baa-a653-6048ce9e324b","ios":"levelo://app?vid=4537378f-d6c9-4baa-a653-6048ce9e324b"},"vehicle_type_id":"4","last_reported":1726316084,"current_range_meters":10800,"station_id":"ce4bhgh2rcd13ifvqfb0","pricing_plan_id":"cebpf4jnsgd1na2vs0mg"},{"bike_id":"acb494a8-05e7-4e4f-a36b-ef0765c0cdcd","system_id":"levelo_inurba_marseille","lat":43.29582,"lon":5.36742,"is_reserved":false,"is_disabled":false,"rental_uris":{"android":"levelo://app?vid=acb494a8-05e7-4e4f-a36b-ef0765c0cdcd","ios":"levelo://app?vid=acb494a8-05e7-4e4f-a36b-ef0765c0cdcd"},"vehicle_type_id":"4","last_reported":1726316084,"current_range_meters":34000,"station_id":"ce4bgph2rcd13ifvqc2g","pricing_plan_id":"cebpf4jnsgd1na2vs0mg"},{"bike_id":"36eabae4-b4a8-41c5-abec-e9e9e11a20e9","system_id":"levelo_inurba_marseille","lat":43.2738,"lon":5.36258,"is_reserved":false,"is_disabled":false,"rental_uris":{"android":"levelo://app?vid=36eabae4-b4a8-41c5-abec-e9e9e11a20e9","ios":"levelo://app?vid=36eabae4-b4a8-41c5-abec-e9e9e11a20e9"},"vehicle_type_id":"4","last_reported":1726316084,"current_range_meters":22400,"station_id":"ce4bhbh2rcd13ifvqeo0","pricing_plan_id":"cebpf4jnsgd1na2vs0mg"},{"bike_id":"6c5599b1-0440-41da-ac45-dfda77054232","system_id":"levelo_inurba_marseille","lat":43.26947,"lon":5.40251,"is_reserved":false,"is_disabled":false,"rental_uris":{"android":"levelo://app?vid=6c5599b1-0440-41da-ac45-dfda77054232","ios":"levelo://app?vid=6c5599b1-0440-41da-ac45-dfda77054232"},"vehicle_type_id":"4","last_reported":1726316084,"current_range_meters":16000,"station_id":"cjm6bp8fraef2m0cb0m0","pricing_plan_id":"cebpf4jnsgd1na2vs0mg"},{"bike_id":"3ff49cd6-2a38-448d-a324-90182f8f251b","system_id":"levelo_inurba_marseille","lat":43.30554,"lon":5.36546,"is_reserved":false,"is_disabled":false,"rental_uris":{"android":"levelo://app?vid=3ff49cd6-2a38-448d-a324-90182f8f251b","ios":"levelo://app?vid=3ff49cd6-2a38-448d-a324-90182f8f251b"},"vehicle_type_id":"4","last_reported":1726316084,"current_range_meters":26000,"station_id":"ce4bgs12rcd13ifvqcag","pricing_plan_id":"cebpf4jnsgd1na2vs0mg"},{"bike_id":"5e2bbf68-cab4-4116-9f80-5d0e95925c4a","system_id":"levelo_inurba_marseille","lat":43.23185,"lon":5.39996,"is_reserved":false,"is_disabled":false,"rental_uris":{"android":"levelo://app?vid=5e2bbf68-cab4-4116-9f80-5d0e95925c4a","ios":"levelo://app?vid=5e2bbf68-cab4-4116-9f80-5d0e95925c4a"},"vehicle_type_id":"4","last_reported":1726316084,"current_range_meters":39200,"station_id":"ce4bhn12rcd13ifvqgqg","pricing_plan_id":"cebpf4jnsgd1na2vs0mg"},{"bike_id":"c7cd44ca-6d1c-451d-af9c-201b5c076df5","system_id":"levelo_inurba_marseille","lat":43.29582,"lon":5.3674,"is_reserved":false,"is_disabled":false,"rental_uris":{"android":"levelo://app?vid=c7cd44ca-6d1c-451d-af9c-201b5c076df5","ios":"levelo://app?vid=c7cd44ca-6d1c-451d-af9c-201b5c076df5"},"vehicle_type_id":"4","last_reported":1726316084,"current_range_meters":24800,"station_id":"ce4bgph2rcd13ifvqc2g","pricing_plan_id":"cebpf4jnsgd1na2vs0mg"},{"bike_id":"eaf3218e-3b2a-4dde-9c15-99a6c4254e56","system_id":"levelo_inurba_marseille","lat":43.29893,"lon":5.43667,"is_reserved":false,"is_disabled":false,"rental_uris":{"android":"levelo://app?vid=eaf3218e-3b2a-4dde-9c15-99a6c4254e56","ios":"levelo://app?vid=eaf3218e-3b2a-4dde-9c15-99a6c4254e56"},"vehicle_type_id":"4","last_reported":1726316084,"current_range_meters":38800,"station_id":"ce4bhpp2rcd13ifvqhfg","pricing_plan_id":"cebpf4jnsgd1na2vs0mg"},{"bike_id":"9bb3f523-36ba-46f3-af30-415a75b32afc","system_id":"levelo_inurba_marseille","lat":43.29524,"lon":5.39043,"is_reserved":false,"is_disabled":false,"rental_uris":{"android":"levelo://app?vid=9bb3f523-36ba-46f3-af30-415a75b32afc","ios":"levelo://app?vid=9bb3f523-36ba-46f3-af30-415a75b32afc"},"vehicle_type_id":"4","last_reported":1726316084,"current_range_meters":19200,"station_id":"ce4bh3p2rcd13ifvqdp0","pricing_plan_id":"cebpf4jnsgd1na2vs0mg"},{"bike_id":"083f80f9-af32-4b4b-98d9-51e7c9548087","system_id":"levelo_inurba_marseille","lat":43.32366,"lon":5.38886,"is_reserved":false,"is_disabled":false,"rental_uris":{"android":"levelo://app?vid=083f80f9-af32-4b4b-98d9-51e7c9548087","ios":"levelo://app?vid=083f80f9-af32-4b4b-98d9-51e7c9548087"},"vehicle_type_id":"4","last_reported":1726316084,"current_range_meters":11200,"station_id":"ce4bhqp2rcd13ifvqhog","pricing_plan_id":"cebpf4jnsgd1na2vs0mg"},{"bike_id":"16ca6d91-7513-415c-9a61-5d33eb8ad677","system_id":"levelo_inurba_marseille","lat":43.22934,"lon":5.35374,"is_reserved":false,"is_disabled":false,"rental_uris":{"android":"levelo://app?vid=16ca6d91-7513-415c-9a61-5d33eb8ad677","ios":"levelo://app?vid=16ca6d91-7513-415c-9a61-5d33eb8ad677"},"vehicle_type_id":"4","last_reported":1726316084,"current_range_meters":22400,"station_id":"cpo3532slgdg3j2ikp40","pricing_plan_id":"cebpf4jnsgd1na2vs0mg"},{"bike_id":"692071dd-4085-4553-ae0d-2bb21b33a2d8","system_id":"levelo_inurba_marseille","lat":43.24811,"lon":5.37469,"is_reserved":false,"is_disabled":false,"rental_uris":{"android":"levelo://app?vid=692071dd-4085-4553-ae0d-2bb21b33a2d8","ios":"levelo://app?vid=692071dd-4085-4553-ae0d-2bb21b33a2d8"},"vehicle_type_id":"4","last_reported":1726316084,"current_range_meters":4800,"station_id":"ce4bhgh2rcd13ifvqfb0","pricing_plan_id":"cebpf4jnsgd1na2vs0mg"},{"bike_id":"10cedbb4-1c1f-4b0e-acdf-6f0391c23bdc","system_id":"levelo_inurba_marseille","lat":43.28036,"lon":5.36934,"is_reserved":false,"is_disabled":false,"rental_uris":{"android":"levelo://app?vid=10cedbb4-1c1f-4b0e-acdf-6f0391c23bdc","ios":"levelo://app?vid=10cedbb4-1c1f-4b0e-acdf-6f0391c23bdc"},"vehicle_type_id":"4","last_reported":1726316084,"current_range_meters":6400,"station_id":"ce4bha12rcd13ifvqef0","pricing_plan_id":"cebpf4jnsgd1na2vs0mg"},{"bike_id":"971ff03d-2a2d-41c0-ac36-02885eb856b5","system_id":"levelo_inurba_marseille","lat":43.23965,"lon":5.36629,"is_reserved":false,"is_disabled":false,"rental_uris":{"android":"levelo://app?vid=971ff03d-2a2d-41c0-ac36-02885eb856b5","ios":"levelo://app?vid=971ff03d-2a2d-41c0-ac36-02885eb856b5"},"vehicle_type_id":"4","last_reported":1726316084,"current_range_meters":32800,"station_id":"ce4bhi12rcd13ifvqfp0","pricing_plan_id":"cebpf4jnsgd1na2vs0mg"},{"bike_id":"d38a17d1-a3ef-44ea-8c84-8c3822e22edc","system_id":"levelo_inurba_marseille","lat":43.268219,"lon":5.393338,"is_reserved":false,"is_disabled":false,"rental_uris":{"android":"levelo://app?vid=d38a17d1-a3ef-44ea-8c84-8c3822e22edc","ios":"levelo://app?vid=d38a17d1-a3ef-44ea-8c84-8c3822e22edc"},"vehicle_type_id":"4","last_reported":1726316084,"current_range_meters":14800,"station_id":"ce4bhhp2rcd13ifvqfm0","pricing_plan_id":"cebpf4jnsgd1na2vs0mg"},{"bike_id":"f4c36463-ddf2-4e8a-90a8-c12391e72ce0","system_id":"levelo_inurba_marseille","lat":43.28285,"lon":5.35078,"is_reserved":false,"is_disabled":false,"rental_uris":{"android":"levelo://app?vid=f4c36463-ddf2-4e8a-90a8-c12391e72ce0","ios":"levelo://app?vid=f4c36463-ddf2-4e8a-90a8-c12391e72ce0"},"vehicle_type_id":"4","last_reported":1726316084,"current_range_meters":38800,"station_id":"ce4bhbp2rcd13ifvqerg","pricing_plan_id":"cebpf4jnsgd1na2vs0mg"},{"bike_id":"31f682e2-6ae1-4db5-aff5-ebbc04da64b2","system_id":"levelo_inurba_marseille","lat":43.299177,"lon":5.374718,"is_reserved":false,"is_disabled":false,"rental_uris":{"android":"levelo://app?vid=31f682e2-6ae1-4db5-aff5-ebbc04da64b2","ios":"levelo://app?vid=31f682e2-6ae1-4db5-aff5-ebbc04da64b2"},"vehicle_type_id":"4","last_reported":1726316084,"current_range_meters":32800,"station_id":"","pricing_plan_id":"cebpf4jnsgd1na2vs0mg"},{"bike_id":"ce45b02b-b167-4654-b305-eb82cd566863","system_id":"levelo_inurba_marseille","lat":43.23195,"lon":5.35549,"is_reserved":false,"is_disabled":false,"rental_uris":{"android":"levelo://app?vid=ce45b02b-b167-4654-b305-eb82cd566863","ios":"levelo://app?vid=ce45b02b-b167-4654-b305-eb82cd566863"},"vehicle_type_id":"4","last_reported":1726316084,"current_range_meters":26000,"station_id":"ce4bhu92rcd13ifvqi70","pricing_plan_id":"cebpf4jnsgd1na2vs0mg"},{"bike_id":"0a273631-f25d-4bd1-b516-a17e22b2529b","system_id":"levelo_inurba_marseille","lat":43.24392,"lon":5.37067,"is_reserved":false,"is_disabled":false,"rental_uris":{"android":"levelo://app?vid=0a273631-f25d-4bd1-b516-a17e22b2529b","ios":"levelo://app?vid=0a273631-f25d-4bd1-b516-a17e22b2529b"},"vehicle_type_id":"4","last_reported":1726316084,"current_range_meters":38000,"station_id":"ce4bhhh2rcd13ifvqfk0","pricing_plan_id":"cebpf4jnsgd1na2vs0mg"},{"bike_id":"fff8974a-74a3-4f70-810a-1bfbd6a3ba1d","system_id":"levelo_inurba_marseille","lat":43.27369,"lon":5.36264,"is_reserved":false,"is_disabled":false,"rental_uris":{"android":"levelo://app?vid=fff8974a-74a3-4f70-810a-1bfbd6a3ba1d","ios":"levelo://app?vid=fff8974a-74a3-4f70-810a-1bfbd6a3ba1d"},"vehicle_type_id":"4","last_reported":1726316084,"current_range_meters":30000,"station_id":"ce4bhbh2rcd13ifvqeo0","pricing_plan_id":"cebpf4jnsgd1na2vs0mg"},{"bike_id":"b2fa5f50-1837-498a-9029-bb5ef27ef9e9","system_id":"levelo_inurba_marseille","lat":43.26567,"lon":5.39019,"is_reserved":false,"is_disabled":false,"rental_uris":{"android":"levelo://app?vid=b2fa5f50-1837-498a-9029-bb5ef27ef9e9","ios":"levelo://app?vid=b2fa5f50-1837-498a-9029-bb5ef27ef9e9"},"vehicle_type_id":"4","last_reported":1726316084,"current_range_meters":38000,"station_id":"ce4bhe12rcd13ifvqf30","pricing_plan_id":"cebpf4jnsgd1na2vs0mg"},{"bike_id":"4dcd54ea-7be8-4a59-88d6-0c6dbde6b9b4","system_id":"levelo_inurba_marseille","lat":43.2293,"lon":5.35379,"is_reserved":false,"is_disabled":false,"rental_uris":{"android":"levelo://app?vid=4dcd54ea-7be8-4a59-88d6-0c6dbde6b9b4","ios":"levelo://app?vid=4dcd54ea-7be8-4a59-88d6-0c6dbde6b9b4"},"vehicle_type_id":"4","last_reported":1726316084,"current_range_meters":10000,"station_id":"cpo3532slgdg3j2ikp40","pricing_plan_id":"cebpf4jnsgd1na2vs0mg"},{"bike_id":"920ab188-b742-46ff-82da-fa33f8f84c2e","system_id":"levelo_inurba_marseille","lat":43.23067,"lon":5.35496,"is_reserved":false,"is_disabled":false,"rental_uris":{"android":"levelo://app?vid=920ab188-b742-46ff-82da-fa33f8f84c2e","ios":"levelo://app?vid=920ab188-b742-46ff-82da-fa33f8f84c2e"},"vehicle_type_id":"4","last_reported":1726316084,"current_range_meters":25200,"station_id":"cpo3342slgdg3j2ifvpg","pricing_plan_id":"cebpf4jnsgd1na2vs0mg"},{"bike_id":"0a9e734e-a0d9-4575-b20f-9df6e80a84d9","system_id":"levelo_inurba_marseille","lat":43.28265,"lon":5.35066,"is_reserved":false,"is_disabled":false,"rental_uris":{"android":"levelo://app?vid=0a9e734e-a0d9-4575-b20f-9df6e80a84d9","ios":"levelo://app?vid=0a9e734e-a0d9-4575-b20f-9df6e80a84d9"},"vehicle_type_id":"4","last_reported":1726316084,"current_range_meters":18000,"station_id":"ce4bhbp2rcd13ifvqerg","pricing_plan_id":"cebpf4jnsgd1na2vs0mg"},{"bike_id":"26db0265-0a91-4c66-8aa8-67a94f7eef0d","system_id":"levelo_inurba_marseille","lat":43.26934,"lon":5.40057,"is_reserved":false,"is_disabled":false,"rental_uris":{"android":"levelo://app?vid=26db0265-0a91-4c66-8aa8-67a94f7eef0d","ios":"levelo://app?vid=26db0265-0a91-4c66-8aa8-67a94f7eef0d"},"vehicle_type_id":"4","last_reported":1726316084,"current_range_meters":17200,"station_id":"","pricing_plan_id":"cebpf4jnsgd1na2vs0mg"},{"bike_id":"9b49fc06-69dc-4375-9bc8-2ab31283d424","system_id":"levelo_inurba_marseille","lat":43.29907,"lon":5.43673,"is_reserved":false,"is_disabled":false,"rental_uris":{"android":"levelo://app?vid=9b49fc06-69dc-4375-9bc8-2ab31283d424","ios":"levelo://app?vid=9b49fc06-69dc-4375-9bc8-2ab31283d424"},"vehicle_type_id":"4","last_reported":1726316084,"current_range_meters":32800,"station_id":"ce4bhpp2rcd13ifvqhfg","pricing_plan_id":"cebpf4jnsgd1na2vs0mg"},{"bike_id":"4d75d199-02f1-485e-aa16-89176ed2c212","system_id":"levelo_inurba_marseille","lat":43.31165,"lon":5.39351,"is_reserved":false,"is_disabled":false,"rental_uris":{"android":"levelo://app?vid=4d75d199-02f1-485e-aa16-89176ed2c212","ios":"levelo://app?vid=4d75d199-02f1-485e-aa16-89176ed2c212"},"vehicle_type_id":"4","last_reported":1726316084,"current_range_meters":27200,"station_id":"","pricing_plan_id":"cebpf4jnsgd1na2vs0mg"},{"bike_id":"062564aa-9c9a-4390-bb84-6ffb510280fb","system_id":"levelo_inurba_marseille","lat":43.29066,"lon":5.3717,"is_reserved":false,"is_disabled":false,"rental_uris":{"android":"levelo://app?vid=062564aa-9c9a-4390-bb84-6ffb510280fb","ios":"levelo://app?vid=062564aa-9c9a-4390-bb84-6ffb510280fb"},"vehicle_type_id":"4","last_reported":1726316084,"current_range_meters":23200,"station_id":"ce4bh5p2rcd13ifvqe4g","pricing_plan_id":"cebpf4jnsgd1na2vs0mg"},{"bike_id":"21812bd0-4707-493d-86ba-5cbdd62155b4","system_id":"levelo_inurba_marseille","lat":43.24391,"lon":5.37061,"is_reserved":false,"is_disabled":false,"rental_uris":{"android":"levelo://app?vid=21812bd0-4707-493d-86ba-5cbdd62155b4","ios":"levelo://app?vid=21812bd0-4707-493d-86ba-5cbdd62155b4"},"vehicle_type_id":"4","last_reported":1726316084,"current_range_meters":24800,"station_id":"ce4bhhh2rcd13ifvqfk0","pricing_plan_id":"cebpf4jnsgd1na2vs0mg"},{"bike_id":"c7cd67a6-2f65-43e6-9e58-1489cab32866","system_id":"levelo_inurba_marseille","lat":43.24166,"lon":5.36395,"is_reserved":false,"is_disabled":false,"rental_uris":{"android":"levelo://app?vid=c7cd67a6-2f65-43e6-9e58-1489cab32866","ios":"levelo://app?vid=c7cd67a6-2f65-43e6-9e58-1489cab32866"},"vehicle_type_id":"4","last_reported":1726316084,"current_range_meters":38800,"station_id":"cpo36qri1sfpv3e86is0","pricing_plan_id":"cebpf4jnsgd1na2vs0mg"},{"bike_id":"4745391a-6583-4b62-b9b5-bd23bf5d5f43","system_id":"levelo_inurba_marseille","lat":43.29681,"lon":5.3728,"is_reserved":false,"is_disabled":false,"rental_uris":{"android":"levelo://app?vid=4745391a-6583-4b62-b9b5-bd23bf5d5f43","ios":"levelo://app?vid=4745391a-6583-4b62-b9b5-bd23bf5d5f43"},"vehicle_type_id":"4","last_reported":1726316084,"current_range_meters":22800,"station_id":"ce4bgk12rcd13ifvqbj0","pricing_plan_id":"cebpf4jnsgd1na2vs0mg"},{"bike_id":"a3a9dae5-ec07-44c5-a17c-64dff4681462","system_id":"levelo_inurba_marseille","lat":43.25499,"lon":5.37651,"is_reserved":false,"is_disabled":false,"rental_uris":{"android":"levelo://app?vid=a3a9dae5-ec07-44c5-a17c-64dff4681462","ios":"levelo://app?vid=a3a9dae5-ec07-44c5-a17c-64dff4681462"},"vehicle_type_id":"4","last_reported":1726316084,"current_range_meters":35600,"station_id":"ce4bhh12rcd13ifvqff0","pricing_plan_id":"cebpf4jnsgd1na2vs0mg"},{"bike_id":"e00d038a-00c7-4258-ab4b-259bdb081cfd","system_id":"levelo_inurba_marseille","lat":43.23201,"lon":5.35547,"is_reserved":false,"is_disabled":false,"rental_uris":{"android":"levelo://app?vid=e00d038a-00c7-4258-ab4b-259bdb081cfd","ios":"levelo://app?vid=e00d038a-00c7-4258-ab4b-259bdb081cfd"},"vehicle_type_id":"4","last_reported":1726316084,"current_range_meters":36000,"station_id":"ce4bhu92rcd13ifvqi70","pricing_plan_id":"cebpf4jnsgd1na2vs0mg"},{"bike_id":"4f847161-8733-40c0-9d1a-924c211b3057","system_id":"levelo_inurba_marseille","lat":43.23194,"lon":5.35551,"is_reserved":false,"is_disabled":false,"rental_uris":{"android":"levelo://app?vid=4f847161-8733-40c0-9d1a-924c211b3057","ios":"levelo://app?vid=4f847161-8733-40c0-9d1a-924c211b3057"},"vehicle_type_id":"4","last_reported":1726316084,"current_range_meters":37600,"station_id":"ce4bhu92rcd13ifvqi70","pricing_plan_id":"cebpf4jnsgd1na2vs0mg"},{"bike_id":"6a0ba89f-d9cb-4b15-ad4d-931592dbcc7a","system_id":"levelo_inurba_marseille","lat":43.26945,"lon":5.40251,"is_reserved":false,"is_disabled":false,"rental_uris":{"android":"levelo://app?vid=6a0ba89f-d9cb-4b15-ad4d-931592dbcc7a","ios":"levelo://app?vid=6a0ba89f-d9cb-4b15-ad4d-931592dbcc7a"},"vehicle_type_id":"4","last_reported":1726316084,"current_range_meters":14400,"station_id":"cjm6bp8fraef2m0cb0m0","pricing_plan_id":"cebpf4jnsgd1na2vs0mg"},{"bike_id":"c8bcf91a-5827-41b8-81db-791cf371961e","system_id":"levelo_inurba_marseille","lat":43.26941,"lon":5.4025,"is_reserved":false,"is_disabled":false,"rental_uris":{"android":"levelo://app?vid=c8bcf91a-5827-41b8-81db-791cf371961e","ios":"levelo://app?vid=c8bcf91a-5827-41b8-81db-791cf371961e"},"vehicle_type_id":"4","last_reported":1726316084,"current_range_meters":38800,"station_id":"cjm6bp8fraef2m0cb0m0","pricing_plan_id":"cebpf4jnsgd1na2vs0mg"},{"bike_id":"8ce4abbe-aae7-434c-b92a-9bec98856472","system_id":"levelo_inurba_marseille","lat":43.25577,"lon":5.38234,"is_reserved":false,"is_disabled":false,"rental_uris":{"android":"levelo://app?vid=8ce4abbe-aae7-434c-b92a-9bec98856472","ios":"levelo://app?vid=8ce4abbe-aae7-434c-b92a-9bec98856472"},"vehicle_type_id":"4","last_reported":1726316084,"current_range_meters":19200,"station_id":"ce4bhih2rcd13ifvqfs0","pricing_plan_id":"cebpf4jnsgd1na2vs0mg"},{"bike_id":"e7276e5c-45cd-4191-a7de-81da6f454d72","system_id":"levelo_inurba_marseille","lat":43.31491,"lon":5.37307,"is_reserved":false,"is_disabled":false,"rental_uris":{"android":"levelo://app?vid=e7276e5c-45cd-4191-a7de-81da6f454d72","ios":"levelo://app?vid=e7276e5c-45cd-4191-a7de-81da6f454d72"},"vehicle_type_id":"4","last_reported":1726316084,"current_range_meters":24800,"station_id":"ce4bgt12rcd13ifvqcd0","pricing_plan_id":"cebpf4jnsgd1na2vs0mg"},{"bike_id":"8faadc36-e9dc-433e-9d11-080cc2f8a621","system_id":"levelo_inurba_marseille","lat":43.29531,"lon":5.38553,"is_reserved":false,"is_disabled":false,"rental_uris":{"android":"levelo://app?vid=8faadc36-e9dc-433e-9d11-080cc2f8a621","ios":"levelo://app?vid=8faadc36-e9dc-433e-9d11-080cc2f8a621"},"vehicle_type_id":"4","last_reported":1726316084,"current_range_meters":33600,"station_id":"ce4bgih2rcd13ifvqba0","pricing_plan_id":"cebpf4jnsgd1na2vs0mg"},{"bike_id":"8acc2489-6139-4244-afff-2e0a167a395a","system_id":"levelo_inurba_marseille","lat":43.30545,"lon":5.36539,"is_reserved":false,"is_disabled":false,"rental_uris":{"android":"levelo://app?vid=8acc2489-6139-4244-afff-2e0a167a395a","ios":"levelo://app?vid=8acc2489-6139-4244-afff-2e0a167a395a"},"vehicle_type_id":"4","last_reported":1726316084,"current_range_meters":24400,"station_id":"ce4bgs12rcd13ifvqcag","pricing_plan_id":"cebpf4jnsgd1na2vs0mg"},{"bike_id":"5fc29efb-577c-4cb7-86d7-a27de4f5b217","system_id":"levelo_inurba_marseille","lat":43.28471,"lon":5.38419,"is_reserved":false,"is_disabled":false,"rental_uris":{"android":"levelo://app?vid=5fc29efb-577c-4cb7-86d7-a27de4f5b217","ios":"levelo://app?vid=5fc29efb-577c-4cb7-86d7-a27de4f5b217"},"vehicle_type_id":"4","last_reported":1726316084,"current_range_meters":26000,"station_id":"ce4bh512rcd13ifvqe3g","pricing_plan_id":"cebpf4jnsgd1na2vs0mg"},{"bike_id":"07cff04d-b297-483b-b9a6-d041a27b1cd9","system_id":"levelo_inurba_marseille","lat":43.27999,"lon":5.41665,"is_reserved":false,"is_disabled":false,"rental_uris":{"android":"levelo://app?vid=07cff04d-b297-483b-b9a6-d041a27b1cd9","ios":"levelo://app?vid=07cff04d-b297-483b-b9a6-d041a27b1cd9"},"vehicle_type_id":"4","last_reported":1726316084,"current_range_meters":21600,"station_id":"ce4bho12rcd13ifvqh1g","pricing_plan_id":"cebpf4jnsgd1na2vs0mg"},{"bike_id":"9e6b05d9-5b9e-4e8c-a7ed-a6aa23fe9a42","system_id":"levelo_inurba_marseille","lat":43.28608,"lon":5.35104,"is_reserved":false,"is_disabled":false,"rental_uris":{"android":"levelo://app?vid=9e6b05d9-5b9e-4e8c-a7ed-a6aa23fe9a42","ios":"levelo://app?vid=9e6b05d9-5b9e-4e8c-a7ed-a6aa23fe9a42"},"vehicle_type_id":"4","last_reported":1726316084,"current_range_meters":27600,"station_id":"ce4bhch2rcd13ifvqeug","pricing_plan_id":"cebpf4jnsgd1na2vs0mg"},{"bike_id":"7832068e-cb42-4de0-b6b2-e8ebbbbcfb22","system_id":"levelo_inurba_marseille","lat":43.23968,"lon":5.36635,"is_reserved":false,"is_disabled":false,"rental_uris":{"android":"levelo://app?vid=7832068e-cb42-4de0-b6b2-e8ebbbbcfb22","ios":"levelo://app?vid=7832068e-cb42-4de0-b6b2-e8ebbbbcfb22"},"vehicle_type_id":"4","last_reported":1726316084,"current_range_meters":39200,"station_id":"ce4bhi12rcd13ifvqfp0","pricing_plan_id":"cebpf4jnsgd1na2vs0mg"},{"bike_id":"5f73522a-6d77-4158-aee6-8c14f8a47df1","system_id":"levelo_inurba_marseille","lat":43.25581,"lon":5.38244,"is_reserved":false,"is_disabled":false,"rental_uris":{"android":"levelo://app?vid=5f73522a-6d77-4158-aee6-8c14f8a47df1","ios":"levelo://app?vid=5f73522a-6d77-4158-aee6-8c14f8a47df1"},"vehicle_type_id":"4","last_reported":1726316084,"current_range_meters":23200,"station_id":"ce4bhih2rcd13ifvqfs0","pricing_plan_id":"cebpf4jnsgd1na2vs0mg"},{"bike_id":"e235331f-296a-4f9e-a895-d2116fa3ab9b","system_id":"levelo_inurba_marseille","lat":43.25579,"lon":5.38235,"is_reserved":false,"is_disabled":false,"rental_uris":{"android":"levelo://app?vid=e235331f-296a-4f9e-a895-d2116fa3ab9b","ios":"levelo://app?vid=e235331f-296a-4f9e-a895-d2116fa3ab9b"},"vehicle_type_id":"4","last_reported":1726316084,"current_range_meters":13600,"station_id":"ce4bhih2rcd13ifvqfs0","pricing_plan_id":"cebpf4jnsgd1na2vs0mg"},{"bike_id":"81457780-67a8-44d9-89b9-e84685e07141","system_id":"levelo_inurba_marseille","lat":43.310211,"lon":5.370074,"is_reserved":false,"is_disabled":false,"rental_uris":{"android":"levelo://app?vid=81457780-67a8-44d9-89b9-e84685e07141","ios":"levelo://app?vid=81457780-67a8-44d9-89b9-e84685e07141"},"vehicle_type_id":"4","last_reported":1726316084,"current_range_meters":34000,"station_id":"ce4bgl92rcd13ifvqbq0","pricing_plan_id":"cebpf4jnsgd1na2vs0mg"},{"bike_id":"51efaa28-be78-438d-9593-a5c65646c0fd","system_id":"levelo_inurba_marseille","lat":43.25932,"lon":5.40909,"is_reserved":false,"is_disabled":false,"rental_uris":{"android":"levelo://app?vid=51efaa28-be78-438d-9593-a5c65646c0fd","ios":"levelo://app?vid=51efaa28-be78-438d-9593-a5c65646c0fd"},"vehicle_type_id":"4","last_reported":1726316084,"current_range_meters":34000,"station_id":"ce4bhm92rcd13ifvqglg","pricing_plan_id":"cebpf4jnsgd1na2vs0mg"},{"bike_id":"93762bea-13b4-48bf-82dc-3341200dfeea","system_id":"levelo_inurba_marseille","lat":43.28454,"lon":5.35881,"is_reserved":false,"is_disabled":false,"rental_uris":{"android":"levelo://app?vid=93762bea-13b4-48bf-82dc-3341200dfeea","ios":"levelo://app?vid=93762bea-13b4-48bf-82dc-3341200dfeea"},"vehicle_type_id":"4","last_reported":1726316084,"current_range_meters":38800,"station_id":"ce4bhah2rcd13ifvqei0","pricing_plan_id":"cebpf4jnsgd1na2vs0mg"},{"bike_id":"e7319f13-5cca-433d-961a-9147ac063774","system_id":"levelo_inurba_marseille","lat":43.27051,"lon":5.40265,"is_reserved":false,"is_disabled":false,"rental_uris":{"android":"levelo://app?vid=e7319f13-5cca-433d-961a-9147ac063774","ios":"levelo://app?vid=e7319f13-5cca-433d-961a-9147ac063774"},"vehicle_type_id":"4","last_reported":1726316084,"current_range_meters":29600,"station_id":"ce4bhk92rcd13ifvqgc0","pricing_plan_id":"cebpf4jnsgd1na2vs0mg"},{"bike_id":"39088654-1493-49de-a50e-7af120c7f37c","system_id":"levelo_inurba_marseille","lat":43.2396,"lon":5.3663,"is_reserved":false,"is_disabled":false,"rental_uris":{"android":"levelo://app?vid=39088654-1493-49de-a50e-7af120c7f37c","ios":"levelo://app?vid=39088654-1493-49de-a50e-7af120c7f37c"},"vehicle_type_id":"4","last_reported":1726316084,"current_range_meters":38000,"station_id":"ce4bhi12rcd13ifvqfp0","pricing_plan_id":"cebpf4jnsgd1na2vs0mg"},{"bike_id":"72cbc3f8-bdf7-4c68-b81e-22355da403d3","system_id":"levelo_inurba_marseille","lat":43.287043,"lon":5.359768,"is_reserved":false,"is_disabled":false,"rental_uris":{"android":"levelo://app?vid=72cbc3f8-bdf7-4c68-b81e-22355da403d3","ios":"levelo://app?vid=72cbc3f8-bdf7-4c68-b81e-22355da403d3"},"vehicle_type_id":"4","last_reported":1726316084,"current_range_meters":18800,"station_id":"cki0cbj6b192h4jlfktg","pricing_plan_id":"cebpf4jnsgd1na2vs0mg"},{"bike_id":"486fb258-e430-4243-a710-d0d925b58ba5","system_id":"levelo_inurba_marseille","lat":43.30164,"lon":5.38084,"is_reserved":false,"is_disabled":false,"rental_uris":{"android":"levelo://app?vid=486fb258-e430-4243-a710-d0d925b58ba5","ios":"levelo://app?vid=486fb258-e430-4243-a710-d0d925b58ba5"},"vehicle_type_id":"4","last_reported":1726316084,"current_range_meters":11200,"station_id":"ce4bgjp2rcd13ifvqbh0","pricing_plan_id":"cebpf4jnsgd1na2vs0mg"},{"bike_id":"2b20e80f-d253-4406-9c32-f7720cc39fac","system_id":"levelo_inurba_marseille","lat":43.25938,"lon":5.40913,"is_reserved":false,"is_disabled":false,"rental_uris":{"android":"levelo://app?vid=2b20e80f-d253-4406-9c32-f7720cc39fac","ios":"levelo://app?vid=2b20e80f-d253-4406-9c32-f7720cc39fac"},"vehicle_type_id":"4","last_reported":1726316084,"current_range_meters":30000,"station_id":"ce4bhm92rcd13ifvqglg","pricing_plan_id":"cebpf4jnsgd1na2vs0mg"},{"bike_id":"eb53617c-6d10-4499-b162-720207b7d18c","system_id":"levelo_inurba_marseille","lat":43.24545,"lon":5.39524,"is_reserved":false,"is_disabled":false,"rental_uris":{"android":"levelo://app?vid=eb53617c-6d10-4499-b162-720207b7d18c","ios":"levelo://app?vid=eb53617c-6d10-4499-b162-720207b7d18c"},"vehicle_type_id":"4","last_reported":1726316084,"current_range_meters":38800,"station_id":"ce4bhlp2rcd13ifvqgjg","pricing_plan_id":"cebpf4jnsgd1na2vs0mg"},{"bike_id":"d2f05b20-4a13-44df-a581-6a139aa5b367","system_id":"levelo_inurba_marseille","lat":43.31225,"lon":5.36862,"is_reserved":false,"is_disabled":false,"rental_uris":{"android":"levelo://app?vid=d2f05b20-4a13-44df-a581-6a139aa5b367","ios":"levelo://app?vid=d2f05b20-4a13-44df-a581-6a139aa5b367"},"vehicle_type_id":"4","last_reported":1726316084,"current_range_meters":33200,"station_id":"ce4bgl92rcd13ifvqbq0","pricing_plan_id":"cebpf4jnsgd1na2vs0mg"},{"bike_id":"3b04105b-3d4a-4d6b-a0c7-58da2ab327f7","system_id":"levelo_inurba_marseille","lat":43.30165,"lon":5.38087,"is_reserved":false,"is_disabled":false,"rental_uris":{"android":"levelo://app?vid=3b04105b-3d4a-4d6b-a0c7-58da2ab327f7","ios":"levelo://app?vid=3b04105b-3d4a-4d6b-a0c7-58da2ab327f7"},"vehicle_type_id":"4","last_reported":1726316084,"current_range_meters":8400,"station_id":"ce4bgjp2rcd13ifvqbh0","pricing_plan_id":"cebpf4jnsgd1na2vs0mg"},{"bike_id":"6dca4450-ad2b-4e54-b899-97b8b05b15c7","system_id":"levelo_inurba_marseille","lat":43.26948,"lon":5.40251,"is_reserved":false,"is_disabled":false,"rental_uris":{"android":"levelo://app?vid=6dca4450-ad2b-4e54-b899-97b8b05b15c7","ios":"levelo://app?vid=6dca4450-ad2b-4e54-b899-97b8b05b15c7"},"vehicle_type_id":"4","last_reported":1726316084,"current_range_meters":10000,"station_id":"cjm6bp8fraef2m0cb0m0","pricing_plan_id":"cebpf4jnsgd1na2vs0mg"},{"bike_id":"75c35499-0de6-41a0-acf5-7c9b58381038","system_id":"levelo_inurba_marseille","lat":43.23176,"lon":5.39986,"is_reserved":false,"is_disabled":false,"rental_uris":{"android":"levelo://app?vid=75c35499-0de6-41a0-acf5-7c9b58381038","ios":"levelo://app?vid=75c35499-0de6-41a0-acf5-7c9b58381038"},"vehicle_type_id":"4","last_reported":1726316084,"current_range_meters":39200,"station_id":"ce4bhn12rcd13ifvqgqg","pricing_plan_id":"cebpf4jnsgd1na2vs0mg"},{"bike_id":"8210403a-8f87-430b-90ca-48b1d5d34cf3","system_id":"levelo_inurba_marseille","lat":43.29037,"lon":5.37567,"is_reserved":false,"is_disabled":false,"rental_uris":{"android":"levelo://app?vid=8210403a-8f87-430b-90ca-48b1d5d34cf3","ios":"levelo://app?vid=8210403a-8f87-430b-90ca-48b1d5d34cf3"},"vehicle_type_id":"4","last_reported":1726316084,"current_range_meters":38800,"station_id":"ce4bh692rcd13ifvqe90","pricing_plan_id":"cebpf4jnsgd1na2vs0mg"},{"bike_id":"dfc7e944-178a-43bd-85e8-0abf1cafc416","system_id":"levelo_inurba_marseille","lat":43.2293,"lon":5.3538,"is_reserved":false,"is_disabled":false,"rental_uris":{"android":"levelo://app?vid=dfc7e944-178a-43bd-85e8-0abf1cafc416","ios":"levelo://app?vid=dfc7e944-178a-43bd-85e8-0abf1cafc416"},"vehicle_type_id":"4","last_reported":1726316084,"current_range_meters":26000,"station_id":"cpo3532slgdg3j2ikp40","pricing_plan_id":"cebpf4jnsgd1na2vs0mg"},{"bike_id":"94121508-9f7b-42b3-9b0f-40d6b1bee8e9","system_id":"levelo_inurba_marseille","lat":43.31225,"lon":5.36876,"is_reserved":false,"is_disabled":false,"rental_uris":{"android":"levelo://app?vid=94121508-9f7b-42b3-9b0f-40d6b1bee8e9","ios":"levelo://app?vid=94121508-9f7b-42b3-9b0f-40d6b1bee8e9"},"vehicle_type_id":"4","last_reported":1726316084,"current_range_meters":14000,"station_id":"ce4bgl92rcd13ifvqbq0","pricing_plan_id":"cebpf4jnsgd1na2vs0mg"},{"bike_id":"e86d133f-b926-4696-a7ec-b68b8e7750db","system_id":"levelo_inurba_marseille","lat":43.33751,"lon":5.37441,"is_reserved":false,"is_disabled":false,"rental_uris":{"android":"levelo://app?vid=e86d133f-b926-4696-a7ec-b68b8e7750db","ios":"levelo://app?vid=e86d133f-b926-4696-a7ec-b68b8e7750db"},"vehicle_type_id":"4","last_reported":1726316084,"current_range_meters":18000,"station_id":"","pricing_plan_id":"cebpf4jnsgd1na2vs0mg"},{"bike_id":"b645ac77-0d58-4fa9-8ad3-947af8bdb1d9","system_id":"levelo_inurba_marseille","lat":43.29901,"lon":5.43671,"is_reserved":false,"is_disabled":false,"rental_uris":{"android":"levelo://app?vid=b645ac77-0d58-4fa9-8ad3-947af8bdb1d9","ios":"levelo://app?vid=b645ac77-0d58-4fa9-8ad3-947af8bdb1d9"},"vehicle_type_id":"4","last_reported":1726316084,"current_range_meters":38000,"station_id":"ce4bhpp2rcd13ifvqhfg","pricing_plan_id":"cebpf4jnsgd1na2vs0mg"},{"bike_id":"dd78c135-4ab2-4b73-9087-9acfb75c3a1b","system_id":"levelo_inurba_marseille","lat":43.27661,"lon":5.38904,"is_reserved":false,"is_disabled":false,"rental_uris":{"android":"levelo://app?vid=dd78c135-4ab2-4b73-9087-9acfb75c3a1b","ios":"levelo://app?vid=dd78c135-4ab2-4b73-9087-9acfb75c3a1b"},"vehicle_type_id":"4","last_reported":1726316084,"current_range_meters":24000,"station_id":"ce4bhi12rcd13ifvqfo0","pricing_plan_id":"cebpf4jnsgd1na2vs0mg"},{"bike_id":"91d155a1-0e95-42f4-9cf2-24e586735a13","system_id":"levelo_inurba_marseille","lat":43.33725,"lon":5.39178,"is_reserved":false,"is_disabled":false,"rental_uris":{"android":"levelo://app?vid=91d155a1-0e95-42f4-9cf2-24e586735a13","ios":"levelo://app?vid=91d155a1-0e95-42f4-9cf2-24e586735a13"},"vehicle_type_id":"4","last_reported":1726316084,"current_range_meters":39200,"station_id":"ce4bhr92rcd13ifvqhsg","pricing_plan_id":"cebpf4jnsgd1na2vs0mg"},{"bike_id":"8de3b875-690f-46d0-9fe5-f28c32f38298","system_id":"levelo_inurba_marseille","lat":43.27905,"lon":5.38015,"is_reserved":false,"is_disabled":false,"rental_uris":{"android":"levelo://app?vid=8de3b875-690f-46d0-9fe5-f28c32f38298","ios":"levelo://app?vid=8de3b875-690f-46d0-9fe5-f28c32f38298"},"vehicle_type_id":"4","last_reported":1726316084,"current_range_meters":12400,"station_id":"ce4bhf92rcd13ifvqf50","pricing_plan_id":"cebpf4jnsgd1na2vs0mg"},{"bike_id":"d9931328-279b-40b1-88f7-9438094b8986","system_id":"levelo_inurba_marseille","lat":43.25501,"lon":5.37655,"is_reserved":false,"is_disabled":false,"rental_uris":{"android":"levelo://app?vid=d9931328-279b-40b1-88f7-9438094b8986","ios":"levelo://app?vid=d9931328-279b-40b1-88f7-9438094b8986"},"vehicle_type_id":"4","last_reported":1726316084,"current_range_meters":40000,"station_id":"ce4bhh12rcd13ifvqff0","pricing_plan_id":"cebpf4jnsgd1na2vs0mg"},{"bike_id":"23a55eff-686e-4ee7-943c-5bb1cacd94d3","system_id":"levelo_inurba_marseille","lat":43.27374,"lon":5.36254,"is_reserved":false,"is_disabled":false,"rental_uris":{"android":"levelo://app?vid=23a55eff-686e-4ee7-943c-5bb1cacd94d3","ios":"levelo://app?vid=23a55eff-686e-4ee7-943c-5bb1cacd94d3"},"vehicle_type_id":"4","last_reported":1726316084,"current_range_meters":15200,"station_id":"ce4bhbh2rcd13ifvqeo0","pricing_plan_id":"cebpf4jnsgd1na2vs0mg"},{"bike_id":"c9d52442-f838-4134-8483-12ee65e8869e","system_id":"levelo_inurba_marseille","lat":43.31722,"lon":5.42396,"is_reserved":false,"is_disabled":false,"rental_uris":{"android":"levelo://app?vid=c9d52442-f838-4134-8483-12ee65e8869e","ios":"levelo://app?vid=c9d52442-f838-4134-8483-12ee65e8869e"},"vehicle_type_id":"4","last_reported":1726316084,"current_range_meters":33600,"station_id":"ce4bhp92rcd13ifvqhbg","pricing_plan_id":"cebpf4jnsgd1na2vs0mg"},{"bike_id":"204711fb-e15c-43c7-9d9c-bbc1d0d42d99","system_id":"levelo_inurba_marseille","lat":43.30474,"lon":5.37909,"is_reserved":false,"is_disabled":false,"rental_uris":{"android":"levelo://app?vid=204711fb-e15c-43c7-9d9c-bbc1d0d42d99","ios":"levelo://app?vid=204711fb-e15c-43c7-9d9c-bbc1d0d42d99"},"vehicle_type_id":"4","last_reported":1726316084,"current_range_meters":30800,"station_id":"ce4bgup2rcd13ifvqcn0","pricing_plan_id":"cebpf4jnsgd1na2vs0mg"},{"bike_id":"fb2cf161-593d-4be3-bfda-d3614174328f","system_id":"levelo_inurba_marseille","lat":43.29258,"lon":5.38454,"is_reserved":false,"is_disabled":false,"rental_uris":{"android":"levelo://app?vid=fb2cf161-593d-4be3-bfda-d3614174328f","ios":"levelo://app?vid=fb2cf161-593d-4be3-bfda-d3614174328f"},"vehicle_type_id":"4","last_reported":1726316084,"current_range_meters":10800,"station_id":"ce4bh692rcd13ifvqea0","pricing_plan_id":"cebpf4jnsgd1na2vs0mg"},{"bike_id":"0d9f035c-8e47-426d-8593-e2bc7f05f235","system_id":"levelo_inurba_marseille","lat":43.30456,"lon":5.36518,"is_reserved":false,"is_disabled":false,"rental_uris":{"android":"levelo://app?vid=0d9f035c-8e47-426d-8593-e2bc7f05f235","ios":"levelo://app?vid=0d9f035c-8e47-426d-8593-e2bc7f05f235"},"vehicle_type_id":"4","last_reported":1726316084,"current_range_meters":10800,"station_id":"","pricing_plan_id":"cebpf4jnsgd1na2vs0mg"},{"bike_id":"a700f7c0-23ab-4ba3-90d9-2f3ad37fa493","system_id":"levelo_inurba_marseille","lat":43.33025,"lon":5.39045,"is_reserved":false,"is_disabled":false,"rental_uris":{"android":"levelo://app?vid=a700f7c0-23ab-4ba3-90d9-2f3ad37fa493","ios":"levelo://app?vid=a700f7c0-23ab-4ba3-90d9-2f3ad37fa493"},"vehicle_type_id":"4","last_reported":1726316084,"current_range_meters":38000,"station_id":"ce4bhr92rcd13ifvqhrg","pricing_plan_id":"cebpf4jnsgd1na2vs0mg"},{"bike_id":"5521d4fb-4f0d-447e-bad3-4982404b7d44","system_id":"levelo_inurba_marseille","lat":43.29616,"lon":5.37715,"is_reserved":false,"is_disabled":false,"rental_uris":{"android":"levelo://app?vid=5521d4fb-4f0d-447e-bad3-4982404b7d44","ios":"levelo://app?vid=5521d4fb-4f0d-447e-bad3-4982404b7d44"},"vehicle_type_id":"4","last_reported":1726316084,"current_range_meters":22000,"station_id":"ce4bgi92rcd13ifvqb90","pricing_plan_id":"cebpf4jnsgd1na2vs0mg"},{"bike_id":"79d7aff9-ab8b-43d3-ba0f-d1ad19bfab9c","system_id":"levelo_inurba_marseille","lat":43.32296,"lon":5.38259,"is_reserved":false,"is_disabled":false,"rental_uris":{"android":"levelo://app?vid=79d7aff9-ab8b-43d3-ba0f-d1ad19bfab9c","ios":"levelo://app?vid=79d7aff9-ab8b-43d3-ba0f-d1ad19bfab9c"},"vehicle_type_id":"4","last_reported":1726316084,"current_range_meters":27200,"station_id":"ce4bhr12rcd13ifvqhqg","pricing_plan_id":"cebpf4jnsgd1na2vs0mg"},{"bike_id":"7740e5ef-e555-42a9-b370-43d6e38180e8","system_id":"levelo_inurba_marseille","lat":43.26686,"lon":5.38276,"is_reserved":false,"is_disabled":false,"rental_uris":{"android":"levelo://app?vid=7740e5ef-e555-42a9-b370-43d6e38180e8","ios":"levelo://app?vid=7740e5ef-e555-42a9-b370-43d6e38180e8"},"vehicle_type_id":"4","last_reported":1726316084,"current_range_meters":33600,"station_id":"ce4bhg92rcd13ifvqf90","pricing_plan_id":"cebpf4jnsgd1na2vs0mg"},{"bike_id":"10005c25-bdc9-4737-a161-1d7df8b95f68","system_id":"levelo_inurba_marseille","lat":43.30476,"lon":5.37905,"is_reserved":false,"is_disabled":false,"rental_uris":{"android":"levelo://app?vid=10005c25-bdc9-4737-a161-1d7df8b95f68","ios":"levelo://app?vid=10005c25-bdc9-4737-a161-1d7df8b95f68"},"vehicle_type_id":"4","last_reported":1726316084,"current_range_meters":12400,"station_id":"ce4bgup2rcd13ifvqcn0","pricing_plan_id":"cebpf4jnsgd1na2vs0mg"},{"bike_id":"18cb9b56-0445-40ca-8483-98c643d16760","system_id":"levelo_inurba_marseille","lat":43.27954,"lon":5.41052,"is_reserved":false,"is_disabled":false,"rental_uris":{"android":"levelo://app?vid=18cb9b56-0445-40ca-8483-98c643d16760","ios":"levelo://app?vid=18cb9b56-0445-40ca-8483-98c643d16760"},"vehicle_type_id":"4","last_reported":1726316084,"current_range_meters":24400,"station_id":"ce4bhnp2rcd13ifvqh0g","pricing_plan_id":"cebpf4jnsgd1na2vs0mg"},{"bike_id":"f81c9c0a-c2a9-4feb-9288-9725e8c2c56f","system_id":"levelo_inurba_marseille","lat":43.23151,"lon":5.43713,"is_reserved":false,"is_disabled":false,"rental_uris":{"android":"levelo://app?vid=f81c9c0a-c2a9-4feb-9288-9725e8c2c56f","ios":"levelo://app?vid=f81c9c0a-c2a9-4feb-9288-9725e8c2c56f"},"vehicle_type_id":"4","last_reported":1726316084,"current_range_meters":35600,"station_id":"ce4bhmp2rcd13ifvqgog","pricing_plan_id":"cebpf4jnsgd1na2vs0mg"},{"bike_id":"1cf47e59-3d02-4253-9b18-180a43e8c564","system_id":"levelo_inurba_marseille","lat":43.29616,"lon":5.37717,"is_reserved":false,"is_disabled":false,"rental_uris":{"android":"levelo://app?vid=1cf47e59-3d02-4253-9b18-180a43e8c564","ios":"levelo://app?vid=1cf47e59-3d02-4253-9b18-180a43e8c564"},"vehicle_type_id":"4","last_reported":1726316084,"current_range_meters":32800,"station_id":"ce4bgi92rcd13ifvqb90","pricing_plan_id":"cebpf4jnsgd1na2vs0mg"},{"bike_id":"f82b7809-0068-4a43-be6b-46ec85cbb6b9","system_id":"levelo_inurba_marseille","lat":43.30553,"lon":5.36537,"is_reserved":false,"is_disabled":false,"rental_uris":{"android":"levelo://app?vid=f82b7809-0068-4a43-be6b-46ec85cbb6b9","ios":"levelo://app?vid=f82b7809-0068-4a43-be6b-46ec85cbb6b9"},"vehicle_type_id":"4","last_reported":1726316084,"current_range_meters":38800,"station_id":"ce4bgs12rcd13ifvqcag","pricing_plan_id":"cebpf4jnsgd1na2vs0mg"},{"bike_id":"c62a9de4-bd0c-4b10-985a-9d0147115e74","system_id":"levelo_inurba_marseille","lat":43.2808,"lon":5.39667,"is_reserved":false,"is_disabled":false,"rental_uris":{"android":"levelo://app?vid=c62a9de4-bd0c-4b10-985a-9d0147115e74","ios":"levelo://app?vid=c62a9de4-bd0c-4b10-985a-9d0147115e74"},"vehicle_type_id":"4","last_reported":1726316084,"current_range_meters":30400,"station_id":"ce4bho12rcd13ifvqh2g","pricing_plan_id":"cebpf4jnsgd1na2vs0mg"},{"bike_id":"552ccea4-a0ab-4fa2-9015-1ea8da64cd61","system_id":"levelo_inurba_marseille","lat":43.25575,"lon":5.38233,"is_reserved":false,"is_disabled":false,"rental_uris":{"android":"levelo://app?vid=552ccea4-a0ab-4fa2-9015-1ea8da64cd61","ios":"levelo://app?vid=552ccea4-a0ab-4fa2-9015-1ea8da64cd61"},"vehicle_type_id":"4","last_reported":1726316084,"current_range_meters":5600,"station_id":"ce4bhih2rcd13ifvqfs0","pricing_plan_id":"cebpf4jnsgd1na2vs0mg"},{"bike_id":"45a3b1ba-dd08-4057-b94f-596867806e53","system_id":"levelo_inurba_marseille","lat":43.24392,"lon":5.37068,"is_reserved":false,"is_disabled":false,"rental_uris":{"android":"levelo://app?vid=45a3b1ba-dd08-4057-b94f-596867806e53","ios":"levelo://app?vid=45a3b1ba-dd08-4057-b94f-596867806e53"},"vehicle_type_id":"4","last_reported":1726316084,"current_range_meters":38000,"station_id":"ce4bhhh2rcd13ifvqfk0","pricing_plan_id":"cebpf4jnsgd1na2vs0mg"},{"bike_id":"15087914-88bf-452a-9f5b-637ffee92736","system_id":"levelo_inurba_marseille","lat":43.305378,"lon":5.365475,"is_reserved":false,"is_disabled":false,"rental_uris":{"android":"levelo://app?vid=15087914-88bf-452a-9f5b-637ffee92736","ios":"levelo://app?vid=15087914-88bf-452a-9f5b-637ffee92736"},"vehicle_type_id":"4","last_reported":1726316084,"current_range_meters":13600,"station_id":"ce4bh112rcd13ifvqda0","pricing_plan_id":"cebpf4jnsgd1na2vs0mg"},{"bike_id":"0e31d9e5-079b-48ca-8604-869cd81fb0af","system_id":"levelo_inurba_marseille","lat":43.24808,"lon":5.37452,"is_reserved":false,"is_disabled":false,"rental_uris":{"android":"levelo://app?vid=0e31d9e5-079b-48ca-8604-869cd81fb0af","ios":"levelo://app?vid=0e31d9e5-079b-48ca-8604-869cd81fb0af"},"vehicle_type_id":"4","last_reported":1726316084,"current_range_meters":36000,"station_id":"ce4bhgh2rcd13ifvqfb0","pricing_plan_id":"cebpf4jnsgd1na2vs0mg"},{"bike_id":"ce70a22a-06ed-4f56-a13f-4b01cff9a4e7","system_id":"levelo_inurba_marseille","lat":43.30801,"lon":5.43529,"is_reserved":false,"is_disabled":false,"rental_uris":{"android":"levelo://app?vid=ce70a22a-06ed-4f56-a13f-4b01cff9a4e7","ios":"levelo://app?vid=ce70a22a-06ed-4f56-a13f-4b01cff9a4e7"},"vehicle_type_id":"4","last_reported":1726316084,"current_range_meters":38800,"station_id":"ce4bhph2rcd13ifvqheg","pricing_plan_id":"cebpf4jnsgd1na2vs0mg"},{"bike_id":"3275e4b1-5584-4c59-b3d9-e163da6a34fe","system_id":"levelo_inurba_marseille","lat":43.24671,"lon":5.38163,"is_reserved":false,"is_disabled":false,"rental_uris":{"android":"levelo://app?vid=3275e4b1-5584-4c59-b3d9-e163da6a34fe","ios":"levelo://app?vid=3275e4b1-5584-4c59-b3d9-e163da6a34fe"},"vehicle_type_id":"4","last_reported":1726316084,"current_range_meters":38800,"station_id":"ce4bhih2rcd13ifvqfr0","pricing_plan_id":"cebpf4jnsgd1na2vs0mg"},{"bike_id":"73109423-065d-42c3-aba8-0ae1c5b4bb20","system_id":"levelo_inurba_marseille","lat":43.29947,"lon":5.36539,"is_reserved":false,"is_disabled":false,"rental_uris":{"android":"levelo://app?vid=73109423-065d-42c3-aba8-0ae1c5b4bb20","ios":"levelo://app?vid=73109423-065d-42c3-aba8-0ae1c5b4bb20"},"vehicle_type_id":"4","last_reported":1726316084,"current_range_meters":37600,"station_id":"ce4bgm92rcd13ifvqbr0","pricing_plan_id":"cebpf4jnsgd1na2vs0mg"},{"bike_id":"c2736fbb-13fc-4036-b2c6-8e050e5f6129","system_id":"levelo_inurba_marseille","lat":43.29531,"lon":5.39037,"is_reserved":false,"is_disabled":false,"rental_uris":{"android":"levelo://app?vid=c2736fbb-13fc-4036-b2c6-8e050e5f6129","ios":"levelo://app?vid=c2736fbb-13fc-4036-b2c6-8e050e5f6129"},"vehicle_type_id":"4","last_reported":1726316084,"current_range_meters":14400,"station_id":"ce4bh3p2rcd13ifvqdp0","pricing_plan_id":"cebpf4jnsgd1na2vs0mg"},{"bike_id":"58db1ee8-9e1e-440a-85d8-89f70b850be5","system_id":"levelo_inurba_marseille","lat":43.337444,"lon":5.374475,"is_reserved":false,"is_disabled":false,"rental_uris":{"android":"levelo://app?vid=58db1ee8-9e1e-440a-85d8-89f70b850be5","ios":"levelo://app?vid=58db1ee8-9e1e-440a-85d8-89f70b850be5"},"vehicle_type_id":"4","last_reported":1726316084,"current_range_meters":14800,"station_id":"","pricing_plan_id":"cebpf4jnsgd1na2vs0mg"},{"bike_id":"d85ab2af-d7ee-47c5-b97a-f55f599627be","system_id":"levelo_inurba_marseille","lat":43.24166,"lon":5.36392,"is_reserved":false,"is_disabled":false,"rental_uris":{"android":"levelo://app?vid=d85ab2af-d7ee-47c5-b97a-f55f599627be","ios":"levelo://app?vid=d85ab2af-d7ee-47c5-b97a-f55f599627be"},"vehicle_type_id":"4","last_reported":1726316084,"current_range_meters":36400,"station_id":"cpo36qri1sfpv3e86is0","pricing_plan_id":"cebpf4jnsgd1na2vs0mg"},{"bike_id":"53a2d874-293d-47cc-bdbd-a03b3468623b","system_id":"levelo_inurba_marseille","lat":43.29905,"lon":5.43685,"is_reserved":false,"is_disabled":false,"rental_uris":{"android":"levelo://app?vid=53a2d874-293d-47cc-bdbd-a03b3468623b","ios":"levelo://app?vid=53a2d874-293d-47cc-bdbd-a03b3468623b"},"vehicle_type_id":"4","last_reported":1726316084,"current_range_meters":9200,"station_id":"ce4bhpp2rcd13ifvqhfg","pricing_plan_id":"cebpf4jnsgd1na2vs0mg"},{"bike_id":"32aae29a-4a22-46f5-a8a5-378edbc33e4e","system_id":"levelo_inurba_marseille","lat":43.29617,"lon":5.3772,"is_reserved":false,"is_disabled":false,"rental_uris":{"android":"levelo://app?vid=32aae29a-4a22-46f5-a8a5-378edbc33e4e","ios":"levelo://app?vid=32aae29a-4a22-46f5-a8a5-378edbc33e4e"},"vehicle_type_id":"4","last_reported":1726316084,"current_range_meters":30800,"station_id":"ce4bgi92rcd13ifvqb90","pricing_plan_id":"cebpf4jnsgd1na2vs0mg"},{"bike_id":"efd434e6-1017-42dc-a03c-1c3d92ee3360","system_id":"levelo_inurba_marseille","lat":43.25499,"lon":5.37651,"is_reserved":false,"is_disabled":false,"rental_uris":{"android":"levelo://app?vid=efd434e6-1017-42dc-a03c-1c3d92ee3360","ios":"levelo://app?vid=efd434e6-1017-42dc-a03c-1c3d92ee3360"},"vehicle_type_id":"4","last_reported":1726316084,"current_range_meters":22400,"station_id":"ce4bhh12rcd13ifvqff0","pricing_plan_id":"cebpf4jnsgd1na2vs0mg"},{"bike_id":"d466ca20-2d21-4be8-96c2-1a877fbdc1cf","system_id":"levelo_inurba_marseille","lat":43.24081,"lon":5.37753,"is_reserved":false,"is_disabled":false,"rental_uris":{"android":"levelo://app?vid=d466ca20-2d21-4be8-96c2-1a877fbdc1cf","ios":"levelo://app?vid=d466ca20-2d21-4be8-96c2-1a877fbdc1cf"},"vehicle_type_id":"4","last_reported":1726316084,"current_range_meters":6800,"station_id":"ce4bhnp2rcd13ifvqgvg","pricing_plan_id":"cebpf4jnsgd1na2vs0mg"},{"bike_id":"bb7acf50-b6bc-4b2d-adf4-833abc23b24c","system_id":"levelo_inurba_marseille","lat":43.23194,"lon":5.35548,"is_reserved":false,"is_disabled":false,"rental_uris":{"android":"levelo://app?vid=bb7acf50-b6bc-4b2d-adf4-833abc23b24c","ios":"levelo://app?vid=bb7acf50-b6bc-4b2d-adf4-833abc23b24c"},"vehicle_type_id":"4","last_reported":1726316084,"current_range_meters":39200,"station_id":"ce4bhu92rcd13ifvqi70","pricing_plan_id":"cebpf4jnsgd1na2vs0mg"},{"bike_id":"f6de5503-3f64-4c45-a987-7e74ca5c7044","system_id":"levelo_inurba_marseille","lat":43.24168,"lon":5.36396,"is_reserved":false,"is_disabled":false,"rental_uris":{"android":"levelo://app?vid=f6de5503-3f64-4c45-a987-7e74ca5c7044","ios":"levelo://app?vid=f6de5503-3f64-4c45-a987-7e74ca5c7044"},"vehicle_type_id":"4","last_reported":1726316084,"current_range_meters":31200,"station_id":"cpo36qri1sfpv3e86is0","pricing_plan_id":"cebpf4jnsgd1na2vs0mg"},{"bike_id":"bc8be1fd-7bee-49c5-817c-184bdd69b536","system_id":"levelo_inurba_marseille","lat":43.27374,"lon":5.41942,"is_reserved":false,"is_disabled":false,"rental_uris":{"android":"levelo://app?vid=bc8be1fd-7bee-49c5-817c-184bdd69b536","ios":"levelo://app?vid=bc8be1fd-7bee-49c5-817c-184bdd69b536"},"vehicle_type_id":"4","last_reported":1726316084,"current_range_meters":30800,"station_id":"","pricing_plan_id":"cebpf4jnsgd1na2vs0mg"},{"bike_id":"c3c3c8bd-0f46-4034-990b-852a73c5680c","system_id":"levelo_inurba_marseille","lat":43.2894,"lon":5.36632,"is_reserved":false,"is_disabled":false,"rental_uris":{"android":"levelo://app?vid=c3c3c8bd-0f46-4034-990b-852a73c5680c","ios":"levelo://app?vid=c3c3c8bd-0f46-4034-990b-852a73c5680c"},"vehicle_type_id":"4","last_reported":1726316084,"current_range_meters":36400,"station_id":"ce4bhap2rcd13ifvqek0","pricing_plan_id":"cebpf4jnsgd1na2vs0mg"},{"bike_id":"77c083ce-bbf3-44a2-b49a-8006dca40341","system_id":"levelo_inurba_marseille","lat":43.29848,"lon":5.36274,"is_reserved":false,"is_disabled":false,"rental_uris":{"android":"levelo://app?vid=77c083ce-bbf3-44a2-b49a-8006dca40341","ios":"levelo://app?vid=77c083ce-bbf3-44a2-b49a-8006dca40341"},"vehicle_type_id":"4","last_reported":1726316084,"current_range_meters":16400,"station_id":"ce4bgpp2rcd13ifvqc3g","pricing_plan_id":"cebpf4jnsgd1na2vs0mg"},{"bike_id":"9b940083-1359-47df-8a89-b7de5a131c4f","system_id":"levelo_inurba_marseille","lat":43.229004,"lon":5.353679,"is_reserved":false,"is_disabled":false,"rental_uris":{"android":"levelo://app?vid=9b940083-1359-47df-8a89-b7de5a131c4f","ios":"levelo://app?vid=9b940083-1359-47df-8a89-b7de5a131c4f"},"vehicle_type_id":"4","last_reported":1726316084,"current_range_meters":31200,"station_id":"cpo3532slgdg3j2ikp40","pricing_plan_id":"cebpf4jnsgd1na2vs0mg"},{"bike_id":"d008cb99-abde-452f-827e-8789eee7795a","system_id":"levelo_inurba_marseille","lat":43.2718,"lon":5.4099,"is_reserved":false,"is_disabled":false,"rental_uris":{"android":"levelo://app?vid=d008cb99-abde-452f-827e-8789eee7795a","ios":"levelo://app?vid=d008cb99-abde-452f-827e-8789eee7795a"},"vehicle_type_id":"4","last_reported":1726316084,"current_range_meters":38800,"station_id":"ce4bhl12rcd13ifvqgf0","pricing_plan_id":"cebpf4jnsgd1na2vs0mg"},{"bike_id":"632de835-3430-40ed-ac94-819588647085","system_id":"levelo_inurba_marseille","lat":43.24816,"lon":5.37461,"is_reserved":false,"is_disabled":false,"rental_uris":{"android":"levelo://app?vid=632de835-3430-40ed-ac94-819588647085","ios":"levelo://app?vid=632de835-3430-40ed-ac94-819588647085"},"vehicle_type_id":"4","last_reported":1726316084,"current_range_meters":6800,"station_id":"ce4bhgh2rcd13ifvqfb0","pricing_plan_id":"cebpf4jnsgd1na2vs0mg"},{"bike_id":"5b8d0983-a39e-42ef-b930-2c3695850d77","system_id":"levelo_inurba_marseille","lat":43.30162,"lon":5.38084,"is_reserved":false,"is_disabled":false,"rental_uris":{"android":"levelo://app?vid=5b8d0983-a39e-42ef-b930-2c3695850d77","ios":"levelo://app?vid=5b8d0983-a39e-42ef-b930-2c3695850d77"},"vehicle_type_id":"4","last_reported":1726316084,"current_range_meters":27600,"station_id":"ce4bgjp2rcd13ifvqbh0","pricing_plan_id":"cebpf4jnsgd1na2vs0mg"},{"bike_id":"0f404e9e-dc2e-44cf-bedf-2b00c1a9d4a2","system_id":"levelo_inurba_marseille","lat":43.30553,"lon":5.36538,"is_reserved":false,"is_disabled":false,"rental_uris":{"android":"levelo://app?vid=0f404e9e-dc2e-44cf-bedf-2b00c1a9d4a2","ios":"levelo://app?vid=0f404e9e-dc2e-44cf-bedf-2b00c1a9d4a2"},"vehicle_type_id":"4","last_reported":1726316084,"current_range_meters":8000,"station_id":"ce4bgs12rcd13ifvqcag","pricing_plan_id":"cebpf4jnsgd1na2vs0mg"},{"bike_id":"b6a5802b-4786-42a9-9b22-5e0b280071e6","system_id":"levelo_inurba_marseille","lat":43.305,"lon":5.36812,"is_reserved":false,"is_disabled":false,"rental_uris":{"android":"levelo://app?vid=b6a5802b-4786-42a9-9b22-5e0b280071e6","ios":"levelo://app?vid=b6a5802b-4786-42a9-9b22-5e0b280071e6"},"vehicle_type_id":"4","last_reported":1726316084,"current_range_meters":20000,"station_id":"","pricing_plan_id":"cebpf4jnsgd1na2vs0mg"},{"bike_id":"2c2448de-2bd8-43b6-b7b7-b3e21de71516","system_id":"levelo_inurba_marseille","lat":43.33759,"lon":5.37458,"is_reserved":false,"is_disabled":false,"rental_uris":{"android":"levelo://app?vid=2c2448de-2bd8-43b6-b7b7-b3e21de71516","ios":"levelo://app?vid=2c2448de-2bd8-43b6-b7b7-b3e21de71516"},"vehicle_type_id":"4","last_reported":1726316084,"current_range_meters":36000,"station_id":"","pricing_plan_id":"cebpf4jnsgd1na2vs0mg"},{"bike_id":"aa37188e-6d02-447c-9bd7-7efc9e857b6f","system_id":"levelo_inurba_marseille","lat":43.2439,"lon":5.37061,"is_reserved":false,"is_disabled":false,"rental_uris":{"android":"levelo://app?vid=aa37188e-6d02-447c-9bd7-7efc9e857b6f","ios":"levelo://app?vid=aa37188e-6d02-447c-9bd7-7efc9e857b6f"},"vehicle_type_id":"4","last_reported":1726316084,"current_range_meters":11600,"station_id":"ce4bhhh2rcd13ifvqfk0","pricing_plan_id":"cebpf4jnsgd1na2vs0mg"},{"bike_id":"d4caf15a-012e-4c31-aed0-ab0180aaaa6e","system_id":"levelo_inurba_marseille","lat":43.29374,"lon":5.37854,"is_reserved":false,"is_disabled":false,"rental_uris":{"android":"levelo://app?vid=d4caf15a-012e-4c31-aed0-ab0180aaaa6e","ios":"levelo://app?vid=d4caf15a-012e-4c31-aed0-ab0180aaaa6e"},"vehicle_type_id":"4","last_reported":1726316084,"current_range_meters":40000,"station_id":"ce4bgjh2rcd13ifvqbf0","pricing_plan_id":"cebpf4jnsgd1na2vs0mg"},{"bike_id":"da5bae68-35a8-435f-8ae9-3e41a3489ac3","system_id":"levelo_inurba_marseille","lat":43.274867,"lon":5.389614,"is_reserved":false,"is_disabled":false,"rental_uris":{"android":"levelo://app?vid=da5bae68-35a8-435f-8ae9-3e41a3489ac3","ios":"levelo://app?vid=da5bae68-35a8-435f-8ae9-3e41a3489ac3"},"vehicle_type_id":"4","last_reported":1726316084,"current_range_meters":23200,"station_id":"","pricing_plan_id":"cebpf4jnsgd1na2vs0mg"},{"bike_id":"70b02208-2a14-4000-acd5-eb16f009cead","system_id":"levelo_inurba_marseille","lat":43.29589,"lon":5.36738,"is_reserved":false,"is_disabled":false,"rental_uris":{"android":"levelo://app?vid=70b02208-2a14-4000-acd5-eb16f009cead","ios":"levelo://app?vid=70b02208-2a14-4000-acd5-eb16f009cead"},"vehicle_type_id":"4","last_reported":1726316084,"current_range_meters":38800,"station_id":"ce4bgph2rcd13ifvqc2g","pricing_plan_id":"cebpf4jnsgd1na2vs0mg"},{"bike_id":"d63b08fd-7716-422a-94e4-8f1dfff5bb11","system_id":"levelo_inurba_marseille","lat":43.28616,"lon":5.35101,"is_reserved":false,"is_disabled":false,"rental_uris":{"android":"levelo://app?vid=d63b08fd-7716-422a-94e4-8f1dfff5bb11","ios":"levelo://app?vid=d63b08fd-7716-422a-94e4-8f1dfff5bb11"},"vehicle_type_id":"4","last_reported":1726316084,"current_range_meters":35600,"station_id":"ce4bhch2rcd13ifvqeug","pricing_plan_id":"cebpf4jnsgd1na2vs0mg"},{"bike_id":"c14b51b2-bf43-4357-aae5-c79ce5284397","system_id":"levelo_inurba_marseille","lat":43.29611,"lon":5.37727,"is_reserved":false,"is_disabled":false,"rental_uris":{"android":"levelo://app?vid=c14b51b2-bf43-4357-aae5-c79ce5284397","ios":"levelo://app?vid=c14b51b2-bf43-4357-aae5-c79ce5284397"},"vehicle_type_id":"4","last_reported":1726316084,"current_range_meters":24800,"station_id":"ce4bgi92rcd13ifvqb90","pricing_plan_id":"cebpf4jnsgd1na2vs0mg"},{"bike_id":"dbdd0cf1-9ac9-42ed-9e04-9369c829f327","system_id":"levelo_inurba_marseille","lat":43.26942,"lon":5.40255,"is_reserved":false,"is_disabled":false,"rental_uris":{"android":"levelo://app?vid=dbdd0cf1-9ac9-42ed-9e04-9369c829f327","ios":"levelo://app?vid=dbdd0cf1-9ac9-42ed-9e04-9369c829f327"},"vehicle_type_id":"4","last_reported":1726316084,"current_range_meters":22800,"station_id":"cjm6bp8fraef2m0cb0m0","pricing_plan_id":"cebpf4jnsgd1na2vs0mg"},{"bike_id":"026a8105-a313-4bd8-96fb-a8d6d1b140a9","system_id":"levelo_inurba_marseille","lat":43.23201,"lon":5.35551,"is_reserved":false,"is_disabled":false,"rental_uris":{"android":"levelo://app?vid=026a8105-a313-4bd8-96fb-a8d6d1b140a9","ios":"levelo://app?vid=026a8105-a313-4bd8-96fb-a8d6d1b140a9"},"vehicle_type_id":"4","last_reported":1726316084,"current_range_meters":38000,"station_id":"ce4bhu92rcd13ifvqi70","pricing_plan_id":"cebpf4jnsgd1na2vs0mg"},{"bike_id":"a2398dff-ff7b-4fde-b1d2-3e7c263e22d5","system_id":"levelo_inurba_marseille","lat":43.29971,"lon":5.38484,"is_reserved":false,"is_disabled":false,"rental_uris":{"android":"levelo://app?vid=a2398dff-ff7b-4fde-b1d2-3e7c263e22d5","ios":"levelo://app?vid=a2398dff-ff7b-4fde-b1d2-3e7c263e22d5"},"vehicle_type_id":"4","last_reported":1726316084,"current_range_meters":24400,"station_id":"ce4bgj92rcd13ifvqbd0","pricing_plan_id":"cebpf4jnsgd1na2vs0mg"},{"bike_id":"bcf3cc13-0ef0-4ea1-a1a2-7244e004f9cf","system_id":"levelo_inurba_marseille","lat":43.28038,"lon":5.36957,"is_reserved":false,"is_disabled":false,"rental_uris":{"android":"levelo://app?vid=bcf3cc13-0ef0-4ea1-a1a2-7244e004f9cf","ios":"levelo://app?vid=bcf3cc13-0ef0-4ea1-a1a2-7244e004f9cf"},"vehicle_type_id":"4","last_reported":1726316084,"current_range_meters":39200,"station_id":"ce4bha12rcd13ifvqef0","pricing_plan_id":"cebpf4jnsgd1na2vs0mg"},{"bike_id":"e4e3df29-7f90-47e5-a316-43ee0269de75","system_id":"levelo_inurba_marseille","lat":43.27073,"lon":5.42277,"is_reserved":false,"is_disabled":false,"rental_uris":{"android":"levelo://app?vid=e4e3df29-7f90-47e5-a316-43ee0269de75","ios":"levelo://app?vid=e4e3df29-7f90-47e5-a316-43ee0269de75"},"vehicle_type_id":"4","last_reported":1726316084,"current_range_meters":38800,"station_id":"ce4bhk92rcd13ifvqgb0","pricing_plan_id":"cebpf4jnsgd1na2vs0mg"},{"bike_id":"8e9d6258-ce6b-4df5-ab69-94aadea70db1","system_id":"levelo_inurba_marseille","lat":43.29419,"lon":5.38624,"is_reserved":false,"is_disabled":false,"rental_uris":{"android":"levelo://app?vid=8e9d6258-ce6b-4df5-ab69-94aadea70db1","ios":"levelo://app?vid=8e9d6258-ce6b-4df5-ab69-94aadea70db1"},"vehicle_type_id":"4","last_reported":1726316084,"current_range_meters":38800,"station_id":"ce4bh2h2rcd13ifvqdh0","pricing_plan_id":"cebpf4jnsgd1na2vs0mg"},{"bike_id":"9378e46c-90ff-48e5-9112-f5aafd156a5f","system_id":"levelo_inurba_marseille","lat":43.29555,"lon":5.42285,"is_reserved":false,"is_disabled":false,"rental_uris":{"android":"levelo://app?vid=9378e46c-90ff-48e5-9112-f5aafd156a5f","ios":"levelo://app?vid=9378e46c-90ff-48e5-9112-f5aafd156a5f"},"vehicle_type_id":"4","last_reported":1726316084,"current_range_meters":25200,"station_id":"ce4bhph2rcd13ifvqhdg","pricing_plan_id":"cebpf4jnsgd1na2vs0mg"},{"bike_id":"97d90c5d-4fc0-45f2-8853-2afdd4a98534","system_id":"levelo_inurba_marseille","lat":43.28409,"lon":5.37513,"is_reserved":false,"is_disabled":false,"rental_uris":{"android":"levelo://app?vid=97d90c5d-4fc0-45f2-8853-2afdd4a98534","ios":"levelo://app?vid=97d90c5d-4fc0-45f2-8853-2afdd4a98534"},"vehicle_type_id":"4","last_reported":1726316084,"current_range_meters":17200,"station_id":"ce4bh412rcd13ifvqds0","pricing_plan_id":"cebpf4jnsgd1na2vs0mg"},{"bike_id":"cb72976f-172f-44f6-8a55-4bbe72c5f072","system_id":"levelo_inurba_marseille","lat":43.3016,"lon":5.3809,"is_reserved":false,"is_disabled":false,"rental_uris":{"android":"levelo://app?vid=cb72976f-172f-44f6-8a55-4bbe72c5f072","ios":"levelo://app?vid=cb72976f-172f-44f6-8a55-4bbe72c5f072"},"vehicle_type_id":"4","last_reported":1726316084,"current_range_meters":38800,"station_id":"ce4bgjp2rcd13ifvqbh0","pricing_plan_id":"cebpf4jnsgd1na2vs0mg"},{"bike_id":"51b93f73-c647-4dd9-b993-0e72de9b0462","system_id":"levelo_inurba_marseille","lat":43.2829,"lon":5.39079,"is_reserved":false,"is_disabled":false,"rental_uris":{"android":"levelo://app?vid=51b93f73-c647-4dd9-b993-0e72de9b0462","ios":"levelo://app?vid=51b93f73-c647-4dd9-b993-0e72de9b0462"},"vehicle_type_id":"4","last_reported":1726316084,"current_range_meters":28800,"station_id":"","pricing_plan_id":"cebpf4jnsgd1na2vs0mg"},{"bike_id":"f68df17f-5733-4c2a-95c1-49b539707a08","system_id":"levelo_inurba_marseille","lat":43.24802,"lon":5.37452,"is_reserved":false,"is_disabled":false,"rental_uris":{"android":"levelo://app?vid=f68df17f-5733-4c2a-95c1-49b539707a08","ios":"levelo://app?vid=f68df17f-5733-4c2a-95c1-49b539707a08"},"vehicle_type_id":"4","last_reported":1726316084,"current_range_meters":23200,"station_id":"ce4bhgh2rcd13ifvqfb0","pricing_plan_id":"cebpf4jnsgd1na2vs0mg"},{"bike_id":"1a4afac7-4f04-413e-8457-62d98bd42198","system_id":"levelo_inurba_marseille","lat":43.2815,"lon":5.42643,"is_reserved":false,"is_disabled":false,"rental_uris":{"android":"levelo://app?vid=1a4afac7-4f04-413e-8457-62d98bd42198","ios":"levelo://app?vid=1a4afac7-4f04-413e-8457-62d98bd42198"},"vehicle_type_id":"4","last_reported":1726316084,"current_range_meters":10000,"station_id":"ce4bhnh2rcd13ifvqgug","pricing_plan_id":"cebpf4jnsgd1na2vs0mg"},{"bike_id":"15ea120c-5f6d-4243-ad32-289a124fc62f","system_id":"levelo_inurba_marseille","lat":43.27612,"lon":5.36095,"is_reserved":false,"is_disabled":false,"rental_uris":{"android":"levelo://app?vid=15ea120c-5f6d-4243-ad32-289a124fc62f","ios":"levelo://app?vid=15ea120c-5f6d-4243-ad32-289a124fc62f"},"vehicle_type_id":"4","last_reported":1726316084,"current_range_meters":20400,"station_id":"ce4bgj92rcd13ifvqbe0","pricing_plan_id":"cebpf4jnsgd1na2vs0mg"},{"bike_id":"3b441bdc-cc18-4301-bca1-4d7e1e1b705f","system_id":"levelo_inurba_marseille","lat":43.25501,"lon":5.3765,"is_reserved":false,"is_disabled":false,"rental_uris":{"android":"levelo://app?vid=3b441bdc-cc18-4301-bca1-4d7e1e1b705f","ios":"levelo://app?vid=3b441bdc-cc18-4301-bca1-4d7e1e1b705f"},"vehicle_type_id":"4","last_reported":1726316084,"current_range_meters":22000,"station_id":"ce4bhh12rcd13ifvqff0","pricing_plan_id":"cebpf4jnsgd1na2vs0mg"},{"bike_id":"e151c3c7-3b05-4fb5-9f00-1d01c9ecb3c7","system_id":"levelo_inurba_marseille","lat":43.2991,"lon":5.38153,"is_reserved":false,"is_disabled":false,"rental_uris":{"android":"levelo://app?vid=e151c3c7-3b05-4fb5-9f00-1d01c9ecb3c7","ios":"levelo://app?vid=e151c3c7-3b05-4fb5-9f00-1d01c9ecb3c7"},"vehicle_type_id":"4","last_reported":1726316084,"current_range_meters":38800,"station_id":"ce4bgj12rcd13ifvqbc0","pricing_plan_id":"cebpf4jnsgd1na2vs0mg"},{"bike_id":"64b995fc-1512-481d-8f54-d02e1771dffb","system_id":"levelo_inurba_marseille","lat":43.30145,"lon":5.3742,"is_reserved":false,"is_disabled":false,"rental_uris":{"android":"levelo://app?vid=64b995fc-1512-481d-8f54-d02e1771dffb","ios":"levelo://app?vid=64b995fc-1512-481d-8f54-d02e1771dffb"},"vehicle_type_id":"4","last_reported":1726316084,"current_range_meters":31200,"station_id":"ce4bgs92rcd13ifvqcc0","pricing_plan_id":"cebpf4jnsgd1na2vs0mg"},{"bike_id":"c4a48669-0dca-4829-afef-a2621639f240","system_id":"levelo_inurba_marseille","lat":43.2827,"lon":5.35069,"is_reserved":false,"is_disabled":false,"rental_uris":{"android":"levelo://app?vid=c4a48669-0dca-4829-afef-a2621639f240","ios":"levelo://app?vid=c4a48669-0dca-4829-afef-a2621639f240"},"vehicle_type_id":"4","last_reported":1726316084,"current_range_meters":38800,"station_id":"ce4bhbp2rcd13ifvqerg","pricing_plan_id":"cebpf4jnsgd1na2vs0mg"},{"bike_id":"d09aedb3-0212-456b-a0d7-0a019f75665d","system_id":"levelo_inurba_marseille","lat":43.23153,"lon":5.43707,"is_reserved":false,"is_disabled":false,"rental_uris":{"android":"levelo://app?vid=d09aedb3-0212-456b-a0d7-0a019f75665d","ios":"levelo://app?vid=d09aedb3-0212-456b-a0d7-0a019f75665d"},"vehicle_type_id":"4","last_reported":1726316084,"current_range_meters":39200,"station_id":"ce4bhmp2rcd13ifvqgog","pricing_plan_id":"cebpf4jnsgd1na2vs0mg"},{"bike_id":"b2e3c13f-e5d7-4801-ae89-c6a149b3cd8b","system_id":"levelo_inurba_marseille","lat":43.2409,"lon":5.37754,"is_reserved":false,"is_disabled":false,"rental_uris":{"android":"levelo://app?vid=b2e3c13f-e5d7-4801-ae89-c6a149b3cd8b","ios":"levelo://app?vid=b2e3c13f-e5d7-4801-ae89-c6a149b3cd8b"},"vehicle_type_id":"4","last_reported":1726316084,"current_range_meters":36000,"station_id":"ce4bhnp2rcd13ifvqgvg","pricing_plan_id":"cebpf4jnsgd1na2vs0mg"},{"bike_id":"2d3e57c7-5341-4035-aefe-25e4db442f36","system_id":"levelo_inurba_marseille","lat":43.29194,"lon":5.39313,"is_reserved":false,"is_disabled":false,"rental_uris":{"android":"levelo://app?vid=2d3e57c7-5341-4035-aefe-25e4db442f36","ios":"levelo://app?vid=2d3e57c7-5341-4035-aefe-25e4db442f36"},"vehicle_type_id":"4","last_reported":1726316084,"current_range_meters":9600,"station_id":"ce4bh192rcd13ifvqdd0","pricing_plan_id":"cebpf4jnsgd1na2vs0mg"},{"bike_id":"c24a1fdb-fb2a-4e3b-835d-ce0d09a255ce","system_id":"levelo_inurba_marseille","lat":43.29816,"lon":5.38089,"is_reserved":false,"is_disabled":false,"rental_uris":{"android":"levelo://app?vid=c24a1fdb-fb2a-4e3b-835d-ce0d09a255ce","ios":"levelo://app?vid=c24a1fdb-fb2a-4e3b-835d-ce0d09a255ce"},"vehicle_type_id":"4","last_reported":1726316084,"current_range_meters":39200,"station_id":"ce4bgip2rcd13ifvqbb0","pricing_plan_id":"cebpf4jnsgd1na2vs0mg"},{"bike_id":"82dec1e1-c024-4a59-b080-1ca526441f94","system_id":"levelo_inurba_marseille","lat":43.337612,"lon":5.374504,"is_reserved":false,"is_disabled":false,"rental_uris":{"android":"levelo://app?vid=82dec1e1-c024-4a59-b080-1ca526441f94","ios":"levelo://app?vid=82dec1e1-c024-4a59-b080-1ca526441f94"},"vehicle_type_id":"4","last_reported":1726316084,"current_range_meters":26000,"station_id":"","pricing_plan_id":"cebpf4jnsgd1na2vs0mg"},{"bike_id":"02269f0e-1758-473f-8a5c-764f1ddf9ddc","system_id":"levelo_inurba_marseille","lat":43.2318,"lon":5.39981,"is_reserved":false,"is_disabled":false,"rental_uris":{"android":"levelo://app?vid=02269f0e-1758-473f-8a5c-764f1ddf9ddc","ios":"levelo://app?vid=02269f0e-1758-473f-8a5c-764f1ddf9ddc"},"vehicle_type_id":"4","last_reported":1726316084,"current_range_meters":39200,"station_id":"ce4bhn12rcd13ifvqgqg","pricing_plan_id":"cebpf4jnsgd1na2vs0mg"},{"bike_id":"43412657-8f93-44d7-90fb-da7639962547","system_id":"levelo_inurba_marseille","lat":43.33732,"lon":5.39177,"is_reserved":false,"is_disabled":false,"rental_uris":{"android":"levelo://app?vid=43412657-8f93-44d7-90fb-da7639962547","ios":"levelo://app?vid=43412657-8f93-44d7-90fb-da7639962547"},"vehicle_type_id":"4","last_reported":1726316084,"current_range_meters":26000,"station_id":"ce4bhr92rcd13ifvqhsg","pricing_plan_id":"cebpf4jnsgd1na2vs0mg"},{"bike_id":"5a795a3f-4cfa-4b9e-8d5c-2a4aabbe0187","system_id":"levelo_inurba_marseille","lat":43.29577,"lon":5.36745,"is_reserved":false,"is_disabled":false,"rental_uris":{"android":"levelo://app?vid=5a795a3f-4cfa-4b9e-8d5c-2a4aabbe0187","ios":"levelo://app?vid=5a795a3f-4cfa-4b9e-8d5c-2a4aabbe0187"},"vehicle_type_id":"4","last_reported":1726316084,"current_range_meters":20000,"station_id":"ce4bgph2rcd13ifvqc2g","pricing_plan_id":"cebpf4jnsgd1na2vs0mg"},{"bike_id":"0ffb3305-b100-4ba7-b8fd-e716dd60d687","system_id":"levelo_inurba_marseille","lat":43.28456,"lon":5.35895,"is_reserved":false,"is_disabled":false,"rental_uris":{"android":"levelo://app?vid=0ffb3305-b100-4ba7-b8fd-e716dd60d687","ios":"levelo://app?vid=0ffb3305-b100-4ba7-b8fd-e716dd60d687"},"vehicle_type_id":"4","last_reported":1726316084,"current_range_meters":19600,"station_id":"ce4bhah2rcd13ifvqei0","pricing_plan_id":"cebpf4jnsgd1na2vs0mg"},{"bike_id":"8b339dd5-efdf-420e-ab17-1676be57cbdf","system_id":"levelo_inurba_marseille","lat":43.28986,"lon":5.37826,"is_reserved":false,"is_disabled":false,"rental_uris":{"android":"levelo://app?vid=8b339dd5-efdf-420e-ab17-1676be57cbdf","ios":"levelo://app?vid=8b339dd5-efdf-420e-ab17-1676be57cbdf"},"vehicle_type_id":"4","last_reported":1726316084,"current_range_meters":24400,"station_id":"ce4bh9p2rcd13ifvqed0","pricing_plan_id":"cebpf4jnsgd1na2vs0mg"},{"bike_id":"04352160-7c1d-41d9-b42f-eb5950269798","system_id":"levelo_inurba_marseille","lat":43.24388,"lon":5.3706,"is_reserved":false,"is_disabled":false,"rental_uris":{"android":"levelo://app?vid=04352160-7c1d-41d9-b42f-eb5950269798","ios":"levelo://app?vid=04352160-7c1d-41d9-b42f-eb5950269798"},"vehicle_type_id":"4","last_reported":1726316084,"current_range_meters":25200,"station_id":"ce4bhhh2rcd13ifvqfk0","pricing_plan_id":"cebpf4jnsgd1na2vs0mg"},{"bike_id":"6d746e73-7306-44c6-8b16-f8928e1ba6a0","system_id":"levelo_inurba_marseille","lat":43.29575,"lon":5.36735,"is_reserved":false,"is_disabled":false,"rental_uris":{"android":"levelo://app?vid=6d746e73-7306-44c6-8b16-f8928e1ba6a0","ios":"levelo://app?vid=6d746e73-7306-44c6-8b16-f8928e1ba6a0"},"vehicle_type_id":"4","last_reported":1726316084,"current_range_meters":37600,"station_id":"ce4bgph2rcd13ifvqc2g","pricing_plan_id":"cebpf4jnsgd1na2vs0mg"},{"bike_id":"61e00977-be43-400f-99ea-3c33330f7657","system_id":"levelo_inurba_marseille","lat":43.25009,"lon":5.38913,"is_reserved":false,"is_disabled":false,"rental_uris":{"android":"levelo://app?vid=61e00977-be43-400f-99ea-3c33330f7657","ios":"levelo://app?vid=61e00977-be43-400f-99ea-3c33330f7657"},"vehicle_type_id":"4","last_reported":1726316084,"current_range_meters":20000,"station_id":"ce4bhgp2rcd13ifvqfd0","pricing_plan_id":"cebpf4jnsgd1na2vs0mg"},{"bike_id":"d1f38fcd-be46-4877-a9ac-34b365272c30","system_id":"levelo_inurba_marseille","lat":43.27099,"lon":5.43316,"is_reserved":false,"is_disabled":false,"rental_uris":{"android":"levelo://app?vid=d1f38fcd-be46-4877-a9ac-34b365272c30","ios":"levelo://app?vid=d1f38fcd-be46-4877-a9ac-34b365272c30"},"vehicle_type_id":"4","last_reported":1726316084,"current_range_meters":32400,"station_id":"","pricing_plan_id":"cebpf4jnsgd1na2vs0mg"},{"bike_id":"488ff4df-48cc-4db2-abdd-7a65ccee4637","system_id":"levelo_inurba_marseille","lat":43.29581,"lon":5.36743,"is_reserved":false,"is_disabled":false,"rental_uris":{"android":"levelo://app?vid=488ff4df-48cc-4db2-abdd-7a65ccee4637","ios":"levelo://app?vid=488ff4df-48cc-4db2-abdd-7a65ccee4637"},"vehicle_type_id":"4","last_reported":1726316084,"current_range_meters":20000,"station_id":"ce4bgph2rcd13ifvqc2g","pricing_plan_id":"cebpf4jnsgd1na2vs0mg"},{"bike_id":"fa49e1f9-9c49-4db5-afed-72daedf5707d","system_id":"levelo_inurba_marseille","lat":43.29908,"lon":5.38144,"is_reserved":false,"is_disabled":false,"rental_uris":{"android":"levelo://app?vid=fa49e1f9-9c49-4db5-afed-72daedf5707d","ios":"levelo://app?vid=fa49e1f9-9c49-4db5-afed-72daedf5707d"},"vehicle_type_id":"4","last_reported":1726316084,"current_range_meters":37600,"station_id":"ce4bgj12rcd13ifvqbc0","pricing_plan_id":"cebpf4jnsgd1na2vs0mg"},{"bike_id":"f9076aec-56e7-4b2e-a7b1-575337aca9d5","system_id":"levelo_inurba_marseille","lat":43.24167,"lon":5.36406,"is_reserved":false,"is_disabled":false,"rental_uris":{"android":"levelo://app?vid=f9076aec-56e7-4b2e-a7b1-575337aca9d5","ios":"levelo://app?vid=f9076aec-56e7-4b2e-a7b1-575337aca9d5"},"vehicle_type_id":"4","last_reported":1726316084,"current_range_meters":33200,"station_id":"cpo36qri1sfpv3e86is0","pricing_plan_id":"cebpf4jnsgd1na2vs0mg"},{"bike_id":"44599d50-cd45-4fc9-a51b-c30b3bf4a636","system_id":"levelo_inurba_marseille","lat":43.30542,"lon":5.36547,"is_reserved":false,"is_disabled":false,"rental_uris":{"android":"levelo://app?vid=44599d50-cd45-4fc9-a51b-c30b3bf4a636","ios":"levelo://app?vid=44599d50-cd45-4fc9-a51b-c30b3bf4a636"},"vehicle_type_id":"4","last_reported":1726316084,"current_range_meters":14800,"station_id":"ce4bgs12rcd13ifvqcag","pricing_plan_id":"cebpf4jnsgd1na2vs0mg"},{"bike_id":"9da3cfc3-76e1-45aa-bd84-0cc476fb2e0c","system_id":"levelo_inurba_marseille","lat":43.22924,"lon":5.35379,"is_reserved":false,"is_disabled":false,"rental_uris":{"android":"levelo://app?vid=9da3cfc3-76e1-45aa-bd84-0cc476fb2e0c","ios":"levelo://app?vid=9da3cfc3-76e1-45aa-bd84-0cc476fb2e0c"},"vehicle_type_id":"4","last_reported":1726316084,"current_range_meters":32800,"station_id":"cpo3532slgdg3j2ikp40","pricing_plan_id":"cebpf4jnsgd1na2vs0mg"},{"bike_id":"ae3727e1-c675-4ca3-bb2a-d65a7419666e","system_id":"levelo_inurba_marseille","lat":43.2841,"lon":5.37524,"is_reserved":false,"is_disabled":false,"rental_uris":{"android":"levelo://app?vid=ae3727e1-c675-4ca3-bb2a-d65a7419666e","ios":"levelo://app?vid=ae3727e1-c675-4ca3-bb2a-d65a7419666e"},"vehicle_type_id":"4","last_reported":1726316084,"current_range_meters":38800,"station_id":"ce4bh412rcd13ifvqds0","pricing_plan_id":"cebpf4jnsgd1na2vs0mg"},{"bike_id":"ea2c9a21-7a34-4b77-8f98-d5d721bf64ec","system_id":"levelo_inurba_marseille","lat":43.25496,"lon":5.37649,"is_reserved":false,"is_disabled":false,"rental_uris":{"android":"levelo://app?vid=ea2c9a21-7a34-4b77-8f98-d5d721bf64ec","ios":"levelo://app?vid=ea2c9a21-7a34-4b77-8f98-d5d721bf64ec"},"vehicle_type_id":"4","last_reported":1726316084,"current_range_meters":38800,"station_id":"ce4bhh12rcd13ifvqff0","pricing_plan_id":"cebpf4jnsgd1na2vs0mg"},{"bike_id":"103cf9f9-2f0a-447b-a31f-dbd4bc9e6e95","system_id":"levelo_inurba_marseille","lat":43.29554,"lon":5.42282,"is_reserved":false,"is_disabled":false,"rental_uris":{"android":"levelo://app?vid=103cf9f9-2f0a-447b-a31f-dbd4bc9e6e95","ios":"levelo://app?vid=103cf9f9-2f0a-447b-a31f-dbd4bc9e6e95"},"vehicle_type_id":"4","last_reported":1726316084,"current_range_meters":27600,"station_id":"ce4bhph2rcd13ifvqhdg","pricing_plan_id":"cebpf4jnsgd1na2vs0mg"},{"bike_id":"7eeb41d7-ac04-4e0b-8a11-4910c8407457","system_id":"levelo_inurba_marseille","lat":43.23191,"lon":5.39993,"is_reserved":false,"is_disabled":false,"rental_uris":{"android":"levelo://app?vid=7eeb41d7-ac04-4e0b-8a11-4910c8407457","ios":"levelo://app?vid=7eeb41d7-ac04-4e0b-8a11-4910c8407457"},"vehicle_type_id":"4","last_reported":1726316084,"current_range_meters":12000,"station_id":"ce4bhn12rcd13ifvqgqg","pricing_plan_id":"cebpf4jnsgd1na2vs0mg"},{"bike_id":"45d54e99-817d-44f4-bdb2-cbabdd58de29","system_id":"levelo_inurba_marseille","lat":43.29371,"lon":5.37861,"is_reserved":false,"is_disabled":false,"rental_uris":{"android":"levelo://app?vid=45d54e99-817d-44f4-bdb2-cbabdd58de29","ios":"levelo://app?vid=45d54e99-817d-44f4-bdb2-cbabdd58de29"},"vehicle_type_id":"4","last_reported":1726316084,"current_range_meters":28800,"station_id":"ce4bgjh2rcd13ifvqbf0","pricing_plan_id":"cebpf4jnsgd1na2vs0mg"},{"bike_id":"15a9ed03-9c5f-4b5a-b3f4-c5c4f763871c","system_id":"levelo_inurba_marseille","lat":43.28265,"lon":5.3507,"is_reserved":false,"is_disabled":false,"rental_uris":{"android":"levelo://app?vid=15a9ed03-9c5f-4b5a-b3f4-c5c4f763871c","ios":"levelo://app?vid=15a9ed03-9c5f-4b5a-b3f4-c5c4f763871c"},"vehicle_type_id":"4","last_reported":1726316084,"current_range_meters":39200,"station_id":"ce4bhbp2rcd13ifvqerg","pricing_plan_id":"cebpf4jnsgd1na2vs0mg"},{"bike_id":"aa640b84-93c8-4662-8c2a-4d14230c8b84","system_id":"levelo_inurba_marseille","lat":43.29611,"lon":5.37711,"is_reserved":false,"is_disabled":false,"rental_uris":{"android":"levelo://app?vid=aa640b84-93c8-4662-8c2a-4d14230c8b84","ios":"levelo://app?vid=aa640b84-93c8-4662-8c2a-4d14230c8b84"},"vehicle_type_id":"4","last_reported":1726316084,"current_range_meters":28000,"station_id":"ce4bgi92rcd13ifvqb90","pricing_plan_id":"cebpf4jnsgd1na2vs0mg"},{"bike_id":"9c4c1ca5-c293-44ad-aa42-0f03bb7c7359","system_id":"levelo_inurba_marseille","lat":43.25501,"lon":5.37651,"is_reserved":false,"is_disabled":false,"rental_uris":{"android":"levelo://app?vid=9c4c1ca5-c293-44ad-aa42-0f03bb7c7359","ios":"levelo://app?vid=9c4c1ca5-c293-44ad-aa42-0f03bb7c7359"},"vehicle_type_id":"4","last_reported":1726316084,"current_range_meters":20000,"station_id":"ce4bhh12rcd13ifvqff0","pricing_plan_id":"cebpf4jnsgd1na2vs0mg"},{"bike_id":"cc594fa0-3dcf-4f27-ab19-ccf6c88034a1","system_id":"levelo_inurba_marseille","lat":43.2954,"lon":5.38546,"is_reserved":false,"is_disabled":false,"rental_uris":{"android":"levelo://app?vid=cc594fa0-3dcf-4f27-ab19-ccf6c88034a1","ios":"levelo://app?vid=cc594fa0-3dcf-4f27-ab19-ccf6c88034a1"},"vehicle_type_id":"4","last_reported":1726316084,"current_range_meters":37600,"station_id":"ce4bgih2rcd13ifvqba0","pricing_plan_id":"cebpf4jnsgd1na2vs0mg"},{"bike_id":"9e29d4b2-747c-4f3b-9f50-ffb1424c0569","system_id":"levelo_inurba_marseille","lat":43.29041,"lon":5.35912,"is_reserved":false,"is_disabled":false,"rental_uris":{"android":"levelo://app?vid=9e29d4b2-747c-4f3b-9f50-ffb1424c0569","ios":"levelo://app?vid=9e29d4b2-747c-4f3b-9f50-ffb1424c0569"},"vehicle_type_id":"4","last_reported":1726316084,"current_range_meters":30400,"station_id":"ce4bha92rcd13ifvqeg0","pricing_plan_id":"cebpf4jnsgd1na2vs0mg"},{"bike_id":"7b70e336-12de-4782-ac63-d8edf94e3884","system_id":"levelo_inurba_marseille","lat":43.25585,"lon":5.38237,"is_reserved":false,"is_disabled":false,"rental_uris":{"android":"levelo://app?vid=7b70e336-12de-4782-ac63-d8edf94e3884","ios":"levelo://app?vid=7b70e336-12de-4782-ac63-d8edf94e3884"},"vehicle_type_id":"4","last_reported":1726316084,"current_range_meters":39200,"station_id":"ce4bhih2rcd13ifvqfs0","pricing_plan_id":"cebpf4jnsgd1na2vs0mg"},{"bike_id":"ac2924dc-acd5-48f7-91b6-0db213b6f5a5","system_id":"levelo_inurba_marseille","lat":43.29617,"lon":5.37725,"is_reserved":false,"is_disabled":false,"rental_uris":{"android":"levelo://app?vid=ac2924dc-acd5-48f7-91b6-0db213b6f5a5","ios":"levelo://app?vid=ac2924dc-acd5-48f7-91b6-0db213b6f5a5"},"vehicle_type_id":"4","last_reported":1726316084,"current_range_meters":37600,"station_id":"ce4bgi92rcd13ifvqb90","pricing_plan_id":"cebpf4jnsgd1na2vs0mg"},{"bike_id":"a4da37eb-4821-44cd-922f-74db1b4b11be","system_id":"levelo_inurba_marseille","lat":43.30471,"lon":5.37904,"is_reserved":false,"is_disabled":false,"rental_uris":{"android":"levelo://app?vid=a4da37eb-4821-44cd-922f-74db1b4b11be","ios":"levelo://app?vid=a4da37eb-4821-44cd-922f-74db1b4b11be"},"vehicle_type_id":"4","last_reported":1726316084,"current_range_meters":28800,"station_id":"ce4bgup2rcd13ifvqcn0","pricing_plan_id":"cebpf4jnsgd1na2vs0mg"},{"bike_id":"00d5a27e-e3b8-4286-8633-a5f523a6d2d8","system_id":"levelo_inurba_marseille","lat":43.26566,"lon":5.39011,"is_reserved":false,"is_disabled":false,"rental_uris":{"android":"levelo://app?vid=00d5a27e-e3b8-4286-8633-a5f523a6d2d8","ios":"levelo://app?vid=00d5a27e-e3b8-4286-8633-a5f523a6d2d8"},"vehicle_type_id":"4","last_reported":1726316084,"current_range_meters":28800,"station_id":"ce4bhe12rcd13ifvqf30","pricing_plan_id":"cebpf4jnsgd1na2vs0mg"},{"bike_id":"c2ca1ec8-aa9b-4712-bcef-83a1af47a80e","system_id":"levelo_inurba_marseille","lat":43.29843,"lon":5.36274,"is_reserved":false,"is_disabled":false,"rental_uris":{"android":"levelo://app?vid=c2ca1ec8-aa9b-4712-bcef-83a1af47a80e","ios":"levelo://app?vid=c2ca1ec8-aa9b-4712-bcef-83a1af47a80e"},"vehicle_type_id":"4","last_reported":1726316084,"current_range_meters":32000,"station_id":"ce4bgpp2rcd13ifvqc3g","pricing_plan_id":"cebpf4jnsgd1na2vs0mg"},{"bike_id":"14290f35-956d-45c2-a0a4-feac7b7ec252","system_id":"levelo_inurba_marseille","lat":43.28619,"lon":5.35096,"is_reserved":false,"is_disabled":false,"rental_uris":{"android":"levelo://app?vid=14290f35-956d-45c2-a0a4-feac7b7ec252","ios":"levelo://app?vid=14290f35-956d-45c2-a0a4-feac7b7ec252"},"vehicle_type_id":"4","last_reported":1726316084,"current_range_meters":18000,"station_id":"ce4bhch2rcd13ifvqeug","pricing_plan_id":"cebpf4jnsgd1na2vs0mg"},{"bike_id":"3be9eee4-5800-4e4f-8362-3558ca1c5a31","system_id":"levelo_inurba_marseille","lat":43.29638,"lon":5.40597,"is_reserved":false,"is_disabled":false,"rental_uris":{"android":"levelo://app?vid=3be9eee4-5800-4e4f-8362-3558ca1c5a31","ios":"levelo://app?vid=3be9eee4-5800-4e4f-8362-3558ca1c5a31"},"vehicle_type_id":"4","last_reported":1726316084,"current_range_meters":28800,"station_id":"ce4bh0h2rcd13ifvqd60","pricing_plan_id":"cebpf4jnsgd1na2vs0mg"},{"bike_id":"af97313c-5eff-4f01-8281-7ae294759090","system_id":"levelo_inurba_marseille","lat":43.27317,"lon":5.39064,"is_reserved":false,"is_disabled":false,"rental_uris":{"android":"levelo://app?vid=af97313c-5eff-4f01-8281-7ae294759090","ios":"levelo://app?vid=af97313c-5eff-4f01-8281-7ae294759090"},"vehicle_type_id":"4","last_reported":1726316084,"current_range_meters":24000,"station_id":"ce4bhgp2rcd13ifvqfe0","pricing_plan_id":"cebpf4jnsgd1na2vs0mg"},