{"last_updated":1747069743,"ttl":60,"version":"2.2","data":{"bikes":[{"bike_id":"03eff399-d556-4e84-abae-32a11d3017a6","system_id":"levelo_inurba_marseille","lat":43.27622,"lon":5.3611,"is_reserved":false,"is_disabled":false,"rental_uris":{"android":"levelo://app?vid=03eff399-d556-4e84-abae-32a11d3017a6","ios":"levelo://app?vid=03eff399-d556-4e84-abae-32a11d3017a6"},"vehicle_type_id":"4","last_reported":1747069743,"current_range_meters":2800,"station_id":"ce4bgj92rcd13ifvqbe0","pricing_plan_id":"cebpf4jnsgd1na2vs0mg"},{"bike_id":"106eb206-51bf-43cb-a6c5-ca9ab95c5e14","system_id":"levelo_inurba_marseille","lat":43.31713,"lon":5.43714,"is_reserved":false,"is_disabled":false,"rental_uris":{"android":"levelo://app?vid=106eb206-51bf-43cb-a6c5-ca9ab95c5e14","ios":"levelo://app?vid=106eb206-51bf-43cb-a6c5-ca9ab95c5e14"},"vehicle_type_id":"4","last_reported":1747069743,"current_range_meters":2000,"station_id":"ce4bhp92rcd13ifvqhcg","pricing_plan_id":"cebpf4jnsgd1na2vs0mg"},{"bike_id":"85afe956-54f5-4074-bc2f-0c9bd2203a59","system_id":"levelo_inurba_marseille","lat":43.28861,"lon":5.35846,"is_reserved":false,"is_disabled":true,"rental_uris":{"android":"levelo://app?vid=85afe956-54f5-4074-bc2f-0c9bd2203a59","ios":"levelo://app?vid=85afe956-54f5-4074-bc2f-0c9bd2203a59"},"vehicle_type_id":"4","last_reported":1747069743,"current_range_meters":2800,"station_id":"ce4bhb12rcd13ifvqem0","pricing_plan_id":"cebpf4jnsgd1na2vs0mg"},{"bike_id":"fcc403e6-49a4-4de3-a330-24a4e4b68a42","system_id":"levelo_inurba_marseille","lat":43.2481,"lon":5.37458,"is_reserved":false,"is_disabled":false,"rental_uris":{"android":"levelo://app?vid=fcc403e6-49a4-4de3-a330-24a4e4b68a42","ios":"levelo://app?vid=fcc403e6-49a4-4de3-a330-24a4e4b68a42"},"vehicle_type_id":"4","last_reported":1747069743,"current_range_meters":2800,"station_id":"ce4bhgh2rcd13ifvqfb0","pricing_plan_id":"cebpf4jnsgd1na2vs0mg"},{"bike_id":"68297d9a-5f92-4bf4-9431-56591a5839ae","system_id":"levelo_inurba_marseille","lat":43.29963,"lon":5.38478,"is_reserved":false,"is_disabled":false,"rental_uris":{"android":"levelo://app?vid=68297d9a-5f92-4bf4-9431-56591a5839ae","ios":"levelo://app?vid=68297d9a-5f92-4bf4-9431-56591a5839ae"},"vehicle_type_id":"4","last_reported":1747069743,"current_range_meters":2800,"station_id":"ce4bgj92rcd13ifvqbd0","pricing_plan_id":"cebpf4jnsgd1na2vs0mg"},{"bike_id":"9f7042e8-6f7c-4808-83e9-c2bc42d4baac","system_id":"levelo_inurba_marseille","lat":43.29421,"lon":5.38629,"is_reserved":false,"is_disabled":false,"rental_uris":{"android":"levelo://app?vid=9f7042e8-6f7c-4808-83e9-c2bc42d4baac","ios":"levelo://app?vid=9f7042e8-6f7c-4808-83e9-c2bc42d4baac"},"vehicle_type_id":"4","last_reported":1747069743,"current_range_meters":2800,"station_id":"ce4bh2h2rcd13ifvqdh0","pricing_plan_id":"cebpf4jnsgd1na2vs0mg"},{"bike_id":"5ae320d3-a4b1-43aa-820a-fcfdc3254827","system_id":"levelo_inurba_marseille","lat":43.31219,"lon":5.36818,"is_reserved":false,"is_disabled":false,"rental_uris":{"android":"levelo://app?vid=5ae320d3-a4b1-43aa-820a-fcfdc3254827","ios":"levelo://app?vid=5ae320d3-a4b1-43aa-820a-fcfdc3254827"},"vehicle_type_id":"4","last_reported":1747069743,"current_range_meters":2800,"station_id":"ce4bgl92rcd13ifvqbq0","pricing_plan_id":"cebpf4jnsgd1na2vs0mg"},{"bike_id":"f66fe713-568a-465a-8d85-de5e8d578da8","system_id":"levelo_inurba_marseille","lat":43.2861,"lon":5.35103,"is_reserved":false,"is_disabled":true,"rental_uris":{"android":"levelo://app?vid=f66fe713-568a-465a-8d85-de5e8d578da8","ios":"levelo://app?vid=f66fe713-568a-465a-8d85-de5e8d578da8"},"vehicle_type_id":"4","last_reported":1747069743,"current_range_meters":2800,"station_id":"ce4bhch2rcd13ifvqeug","pricing_plan_id":"cebpf4jnsgd1na2vs0mg"},{"bike_id":"b263eef6-93ab-48e0-beea-40686443bed6","system_id":"levelo_inurba_marseille","lat":43.3013,"lon":5.39862,"is_reserved":false,"is_disabled":false,"rental_uris":{"android":"levelo://app?vid=b263eef6-93ab-48e0-beea-40686443bed6","ios":"levelo://app?vid=b263eef6-93ab-48e0-beea-40686443bed6"},"vehicle_type_id":"4","last_reported":1747069743,"current_range_meters":3200,"station_id":"ce4bh0h2rcd13ifvqd40","pricing_plan_id":"cebpf4jnsgd1na2vs0mg"},{"bike_id":"66701239-aa37-44e3-b56b-0e736959a960","system_id":"levelo_inurba_marseille","lat":43.30426,"lon":5.39748,"is_reserved":false,"is_disabled":false,"rental_uris":{"android":"levelo://app?vid=66701239-aa37-44e3-b56b-0e736959a960","ios":"levelo://app?vid=66701239-aa37-44e3-b56b-0e736959a960"},"vehicle_type_id":"4","last_reported":1747069743,"current_range_meters":3200,"station_id":"ce4bh092rcd13ifvqd20","pricing_plan_id":"cebpf4jnsgd1na2vs0mg"},{"bike_id":"cb1d7e82-553c-4ba9-9a20-ec5e12c15850","system_id":"levelo_inurba_marseille","lat":43.28464,"lon":5.35887,"is_reserved":false,"is_disabled":false,"rental_uris":{"android":"levelo://app?vid=cb1d7e82-553c-4ba9-9a20-ec5e12c15850","ios":"levelo://app?vid=cb1d7e82-553c-4ba9-9a20-ec5e12c15850"},"vehicle_type_id":"4","last_reported":1747069743,"current_range_meters":3200,"station_id":"ce4bhah2rcd13ifvqei0","pricing_plan_id":"cebpf4jnsgd1na2vs0mg"},{"bike_id":"fd1e7790-69ae-4706-b2e4-70b17a1f4f89","system_id":"levelo_inurba_marseille","lat":43.28615,"lon":5.3511,"is_reserved":false,"is_disabled":false,"rental_uris":{"android":"levelo://app?vid=fd1e7790-69ae-4706-b2e4-70b17a1f4f89","ios":"levelo://app?vid=fd1e7790-69ae-4706-b2e4-70b17a1f4f89"},"vehicle_type_id":"4","last_reported":1747069743,"current_range_meters":3200,"station_id":"ce4bhch2rcd13ifvqeug","pricing_plan_id":"cebpf4jnsgd1na2vs0mg"},{"bike_id":"62249664-1f6c-4c8f-a80c-b37e9c758fc6","system_id":"levelo_inurba_marseille","lat":43.2957,"lon":5.39963,"is_reserved":false,"is_disabled":false,"rental_uris":{"android":"levelo://app?vid=62249664-1f6c-4c8f-a80c-b37e9c758fc6","ios":"levelo://app?vid=62249664-1f6c-4c8f-a80c-b37e9c758fc6"},"vehicle_type_id":"4","last_reported":1747069743,"current_range_meters":3200,"station_id":"ce4bh312rcd13ifvqdj0","pricing_plan_id":"cebpf4jnsgd1na2vs0mg"},{"bike_id":"0ce7d06e-7b40-4fd5-bfaa-27c2b06257a1","system_id":"levelo_inurba_marseille","lat":43.23957,"lon":5.36639,"is_reserved":false,"is_disabled":false,"rental_uris":{"android":"levelo://app?vid=0ce7d06e-7b40-4fd5-bfaa-27c2b06257a1","ios":"levelo://app?vid=0ce7d06e-7b40-4fd5-bfaa-27c2b06257a1"},"vehicle_type_id":"4","last_reported":1747069743,"current_range_meters":3200,"station_id":"ce4bhi12rcd13ifvqfp0","pricing_plan_id":"cebpf4jnsgd1na2vs0mg"},{"bike_id":"a478c64b-7292-4296-a916-4371e1979791","system_id":"levelo_inurba_marseille","lat":43.2465,"lon":5.388955,"is_reserved":false,"is_disabled":false,"rental_uris":{"android":"levelo://app?vid=a478c64b-7292-4296-a916-4371e1979791","ios":"levelo://app?vid=a478c64b-7292-4296-a916-4371e1979791"},"vehicle_type_id":"4","last_reported":1747069743,"current_range_meters":3600,"station_id":"ce4bhg12rcd13ifvqf60","pricing_plan_id":"cebpf4jnsgd1na2vs0mg"},{"bike_id":"3b96778a-13a5-4f8c-acbd-3879b7e80f56","system_id":"levelo_inurba_marseille","lat":43.24387,"lon":5.37059,"is_reserved":false,"is_disabled":false,"rental_uris":{"android":"levelo://app?vid=3b96778a-13a5-4f8c-acbd-3879b7e80f56","ios":"levelo://app?vid=3b96778a-13a5-4f8c-acbd-3879b7e80f56"},"vehicle_type_id":"4","last_reported":1747069743,"current_range_meters":3600,"station_id":"ce4bhhh2rcd13ifvqfk0","pricing_plan_id":"cebpf4jnsgd1na2vs0mg"},{"bike_id":"ef7de467-7436-4f36-9287-e7ce1c19a444","system_id":"levelo_inurba_marseille","lat":43.27377,"lon":5.36259,"is_reserved":false,"is_disabled":false,"rental_uris":{"android":"levelo://app?vid=ef7de467-7436-4f36-9287-e7ce1c19a444","ios":"levelo://app?vid=ef7de467-7436-4f36-9287-e7ce1c19a444"},"vehicle_type_id":"4","last_reported":1747069743,"current_range_meters":4000,"station_id":"ce4bhbh2rcd13ifvqeo0","pricing_plan_id":"cebpf4jnsgd1na2vs0mg"},{"bike_id":"5c42c075-910a-44be-84ed-1d055e04a428","system_id":"levelo_inurba_marseille","lat":43.30326,"lon":5.40426,"is_reserved":false,"is_disabled":false,"rental_uris":{"android":"levelo://app?vid=5c42c075-910a-44be-84ed-1d055e04a428","ios":"levelo://app?vid=5c42c075-910a-44be-84ed-1d055e04a428"},"vehicle_type_id":"4","last_reported":1747069743,"current_range_meters":4000,"station_id":"ce4bh012rcd13ifvqd10","pricing_plan_id":"cebpf4jnsgd1na2vs0mg"},{"bike_id":"2183741b-ea64-4e86-9e13-c6cd9a410a9a","system_id":"levelo_inurba_marseille","lat":43.2886,"lon":5.35854,"is_reserved":false,"is_disabled":false,"rental_uris":{"android":"levelo://app?vid=2183741b-ea64-4e86-9e13-c6cd9a410a9a","ios":"levelo://app?vid=2183741b-ea64-4e86-9e13-c6cd9a410a9a"},"vehicle_type_id":"4","last_reported":1747069743,"current_range_meters":4000,"station_id":"ce4bhb12rcd13ifvqem0","pricing_plan_id":"cebpf4jnsgd1na2vs0mg"},{"bike_id":"0041870b-7fdb-4b81-913d-bf69896103c5","system_id":"levelo_inurba_marseille","lat":43.27818,"lon":5.40712,"is_reserved":false,"is_disabled":true,"rental_uris":{"android":"levelo://app?vid=0041870b-7fdb-4b81-913d-bf69896103c5","ios":"levelo://app?vid=0041870b-7fdb-4b81-913d-bf69896103c5"},"vehicle_type_id":"4","last_reported":1747069743,"current_range_meters":4000,"station_id":"ce4bhnh2rcd13ifvqgtg","pricing_plan_id":"cebpf4jnsgd1na2vs0mg"},{"bike_id":"8cad80b9-40f1-4238-b3c2-e7e97d51aeba","system_id":"levelo_inurba_marseille","lat":43.32359,"lon":5.38903,"is_reserved":false,"is_disabled":false,"rental_uris":{"android":"levelo://app?vid=8cad80b9-40f1-4238-b3c2-e7e97d51aeba","ios":"levelo://app?vid=8cad80b9-40f1-4238-b3c2-e7e97d51aeba"},"vehicle_type_id":"4","last_reported":1747069743,"current_range_meters":4000,"station_id":"ce4bhqp2rcd13ifvqhog","pricing_plan_id":"cebpf4jnsgd1na2vs0mg"},{"bike_id":"9d4d9c01-dc23-496f-b84b-3e7dd71c249f","system_id":"levelo_inurba_marseille","lat":43.26494,"lon":5.39547,"is_reserved":false,"is_disabled":false,"rental_uris":{"android":"levelo://app?vid=9d4d9c01-dc23-496f-b84b-3e7dd71c249f","ios":"levelo://app?vid=9d4d9c01-dc23-496f-b84b-3e7dd71c249f"},"vehicle_type_id":"4","last_reported":1747069743,"current_range_meters":4400,"station_id":"ce4bhi12rcd13ifvqfq0","pricing_plan_id":"cebpf4jnsgd1na2vs0mg"},{"bike_id":"816b1f6a-aa7b-416e-b569-2eee6d3a3a3c","system_id":"levelo_inurba_marseille","lat":43.28716,"lon":5.3794,"is_reserved":false,"is_disabled":false,"rental_uris":{"android":"levelo://app?vid=816b1f6a-aa7b-416e-b569-2eee6d3a3a3c","ios":"levelo://app?vid=816b1f6a-aa7b-416e-b569-2eee6d3a3a3c"},"vehicle_type_id":"4","last_reported":1747069743,"current_range_meters":4400,"station_id":"ce4bh9p2rcd13ifvqec0","pricing_plan_id":"cebpf4jnsgd1na2vs0mg"},{"bike_id":"29313660-3c78-4a34-9ca0-3a3218dffcc2","system_id":"levelo_inurba_marseille","lat":43.27811,"lon":5.40713,"is_reserved":false,"is_disabled":false,"rental_uris":{"android":"levelo://app?vid=29313660-3c78-4a34-9ca0-3a3218dffcc2","ios":"levelo://app?vid=29313660-3c78-4a34-9ca0-3a3218dffcc2"},"vehicle_type_id":"4","last_reported":1747069743,"current_range_meters":4400,"station_id":"ce4bhnh2rcd13ifvqgtg","pricing_plan_id":"cebpf4jnsgd1na2vs0mg"},{"bike_id":"d6f88921-2c04-43c7-9766-3eb5cbdbbd3d","system_id":"levelo_inurba_marseille","lat":43.24998,"lon":5.38936,"is_reserved":false,"is_disabled":false,"rental_uris":{"android":"levelo://app?vid=d6f88921-2c04-43c7-9766-3eb5cbdbbd3d","ios":"levelo://app?vid=d6f88921-2c04-43c7-9766-3eb5cbdbbd3d"},"vehicle_type_id":"4","last_reported":1747069743,"current_range_meters":4400,"station_id":"ce4bhgp2rcd13ifvqfd0","pricing_plan_id":"cebpf4jnsgd1na2vs0mg"},{"bike_id":"06492fe7-834c-4795-beec-20478ca1c11e","system_id":"levelo_inurba_marseille","lat":43.30442,"lon":5.3889,"is_reserved":false,"is_disabled":false,"rental_uris":{"android":"levelo://app?vid=06492fe7-834c-4795-beec-20478ca1c11e","ios":"levelo://app?vid=06492fe7-834c-4795-beec-20478ca1c11e"},"vehicle_type_id":"4","last_reported":1747069743,"current_range_meters":4400,"station_id":"ce4bgk12rcd13ifvqbi0","pricing_plan_id":"cebpf4jnsgd1na2vs0mg"},{"bike_id":"fc2577e7-1497-425b-9d4f-ab8d7dc843c6","system_id":"levelo_inurba_marseille","lat":43.33771,"lon":5.37485,"is_reserved":false,"is_disabled":false,"rental_uris":{"android":"levelo://app?vid=fc2577e7-1497-425b-9d4f-ab8d7dc843c6","ios":"levelo://app?vid=fc2577e7-1497-425b-9d4f-ab8d7dc843c6"},"vehicle_type_id":"4","last_reported":1747069743,"current_range_meters":4800,"station_id":"","pricing_plan_id":"cebpf4jnsgd1na2vs0mg"},{"bike_id":"848a60ac-f051-4a70-9b89-6c8bf9ea22ed","system_id":"levelo_inurba_marseille","lat":43.2958,"lon":5.36743,"is_reserved":false,"is_disabled":false,"rental_uris":{"android":"levelo://app?vid=848a60ac-f051-4a70-9b89-6c8bf9ea22ed","ios":"levelo://app?vid=848a60ac-f051-4a70-9b89-6c8bf9ea22ed"},"vehicle_type_id":"4","last_reported":1747069743,"current_range_meters":4800,"station_id":"ce4bgph2rcd13ifvqc2g","pricing_plan_id":"cebpf4jnsgd1na2vs0mg"},{"bike_id":"8bf65813-b1eb-4ab4-94c1-ddec1cff0971","system_id":"levelo_inurba_marseille","lat":43.292757,"lon":5.401162,"is_reserved":false,"is_disabled":false,"rental_uris":{"android":"levelo://app?vid=8bf65813-b1eb-4ab4-94c1-ddec1cff0971","ios":"levelo://app?vid=8bf65813-b1eb-4ab4-94c1-ddec1cff0971"},"vehicle_type_id":"4","last_reported":1747069743,"current_range_meters":3600,"station_id":"ce4bh312rcd13ifvqdk0","pricing_plan_id":"cebpf4jnsgd1na2vs0mg"},{"bike_id":"614d9df4-517f-497d-a571-ad32c4b1a7c8","system_id":"levelo_inurba_marseille","lat":43.28713,"lon":5.39995,"is_reserved":false,"is_disabled":true,"rental_uris":{"android":"levelo://app?vid=614d9df4-517f-497d-a571-ad32c4b1a7c8","ios":"levelo://app?vid=614d9df4-517f-497d-a571-ad32c4b1a7c8"},"vehicle_type_id":"4","last_reported":1747069743,"current_range_meters":4800,"station_id":"ce4bho92rcd13ifvqh3g","pricing_plan_id":"cebpf4jnsgd1na2vs0mg"},{"bike_id":"739c3252-ff1e-4429-96f2-1afe27d0df15","system_id":"levelo_inurba_marseille","lat":43.26567,"lon":5.37286,"is_reserved":false,"is_disabled":false,"rental_uris":{"android":"levelo://app?vid=739c3252-ff1e-4429-96f2-1afe27d0df15","ios":"levelo://app?vid=739c3252-ff1e-4429-96f2-1afe27d0df15"},"vehicle_type_id":"4","last_reported":1747069743,"current_range_meters":4800,"station_id":"ce4bhg12rcd13ifvqf70","pricing_plan_id":"cebpf4jnsgd1na2vs0mg"},{"bike_id":"b14b3264-9225-4d4a-ae48-381d2dc67724","system_id":"levelo_inurba_marseille","lat":43.29519,"lon":5.39057,"is_reserved":false,"is_disabled":false,"rental_uris":{"android":"levelo://app?vid=b14b3264-9225-4d4a-ae48-381d2dc67724","ios":"levelo://app?vid=b14b3264-9225-4d4a-ae48-381d2dc67724"},"vehicle_type_id":"4","last_reported":1747069743,"current_range_meters":4800,"station_id":"ce4bh3p2rcd13ifvqdp0","pricing_plan_id":"cebpf4jnsgd1na2vs0mg"},{"bike_id":"16c8b3f0-33d8-4225-80e7-2c7838c93fa1","system_id":"levelo_inurba_marseille","lat":43.28156,"lon":5.42645,"is_reserved":false,"is_disabled":false,"rental_uris":{"android":"levelo://app?vid=16c8b3f0-33d8-4225-80e7-2c7838c93fa1","ios":"levelo://app?vid=16c8b3f0-33d8-4225-80e7-2c7838c93fa1"},"vehicle_type_id":"4","last_reported":1747069743,"current_range_meters":4800,"station_id":"ce4bhnh2rcd13ifvqgug","pricing_plan_id":"cebpf4jnsgd1na2vs0mg"},{"bike_id":"f3f30ef5-78ef-4805-8fb2-cbd995947f93","system_id":"levelo_inurba_marseille","lat":43.281489,"lon":5.426484,"is_reserved":false,"is_disabled":false,"rental_uris":{"android":"levelo://app?vid=f3f30ef5-78ef-4805-8fb2-cbd995947f93","ios":"levelo://app?vid=f3f30ef5-78ef-4805-8fb2-cbd995947f93"},"vehicle_type_id":"4","last_reported":1747069743,"current_range_meters":5600,"station_id":"ce4bhnh2rcd13ifvqgug","pricing_plan_id":"cebpf4jnsgd1na2vs0mg"},{"bike_id":"eda392f9-e6c4-42db-9812-7cec467bac43","system_id":"levelo_inurba_marseille","lat":43.24548,"lon":5.39524,"is_reserved":false,"is_disabled":false,"rental_uris":{"android":"levelo://app?vid=eda392f9-e6c4-42db-9812-7cec467bac43","ios":"levelo://app?vid=eda392f9-e6c4-42db-9812-7cec467bac43"},"vehicle_type_id":"4","last_reported":1747069743,"current_range_meters":5600,"station_id":"ce4bhlp2rcd13ifvqgjg","pricing_plan_id":"cebpf4jnsgd1na2vs0mg"},{"bike_id":"d9f536cb-eb30-45e5-80a3-f52751e5a39d","system_id":"levelo_inurba_marseille","lat":43.28614,"lon":5.35102,"is_reserved":false,"is_disabled":false,"rental_uris":{"android":"levelo://app?vid=d9f536cb-eb30-45e5-80a3-f52751e5a39d","ios":"levelo://app?vid=d9f536cb-eb30-45e5-80a3-f52751e5a39d"},"vehicle_type_id":"4","last_reported":1747069743,"current_range_meters":5600,"station_id":"ce4bhch2rcd13ifvqeug","pricing_plan_id":"cebpf4jnsgd1na2vs0mg"},{"bike_id":"0bf3d4da-3472-403a-9788-ba01f9bd941a","system_id":"levelo_inurba_marseille","lat":43.26032,"lon":5.3755,"is_reserved":false,"is_disabled":false,"rental_uris":{"android":"levelo://app?vid=0bf3d4da-3472-403a-9788-ba01f9bd941a","ios":"levelo://app?vid=0bf3d4da-3472-403a-9788-ba01f9bd941a"},"vehicle_type_id":"4","last_reported":1747069743,"current_range_meters":4800,"station_id":"ce4bhgh2rcd13ifvqfa0","pricing_plan_id":"cebpf4jnsgd1na2vs0mg"},{"bike_id":"e6d0a96a-a5ae-48bd-ad20-397a5c71089b","system_id":"levelo_inurba_marseille","lat":43.23186,"lon":5.39973,"is_reserved":false,"is_disabled":false,"rental_uris":{"android":"levelo://app?vid=e6d0a96a-a5ae-48bd-ad20-397a5c71089b","ios":"levelo://app?vid=e6d0a96a-a5ae-48bd-ad20-397a5c71089b"},"vehicle_type_id":"4","last_reported":1747069743,"current_range_meters":5600,"station_id":"ce4bhn12rcd13ifvqgqg","pricing_plan_id":"cebpf4jnsgd1na2vs0mg"},{"bike_id":"7eaccfb5-e639-4093-870c-b28db357032b","system_id":"levelo_inurba_marseille","lat":43.25828,"lon":5.39432,"is_reserved":false,"is_disabled":false,"rental_uris":{"android":"levelo://app?vid=7eaccfb5-e639-4093-870c-b28db357032b","ios":"levelo://app?vid=7eaccfb5-e639-4093-870c-b28db357032b"},"vehicle_type_id":"4","last_reported":1747069743,"current_range_meters":6000,"station_id":"ce4bhip2rcd13ifvqft0","pricing_plan_id":"cebpf4jnsgd1na2vs0mg"},{"bike_id":"bacf0ff8-6716-48fe-b247-fb149738566e","system_id":"levelo_inurba_marseille","lat":43.29618,"lon":5.37154,"is_reserved":false,"is_disabled":false,"rental_uris":{"android":"levelo://app?vid=bacf0ff8-6716-48fe-b247-fb149738566e","ios":"levelo://app?vid=bacf0ff8-6716-48fe-b247-fb149738566e"},"vehicle_type_id":"4","last_reported":1747069743,"current_range_meters":6000,"station_id":"ce4bgnh2rcd13ifvqc0g","pricing_plan_id":"cebpf4jnsgd1na2vs0mg"},{"bike_id":"94a56d00-e51a-49fe-8515-81faf65d104f","system_id":"levelo_inurba_marseille","lat":43.28076,"lon":5.39661,"is_reserved":false,"is_disabled":false,"rental_uris":{"android":"levelo://app?vid=94a56d00-e51a-49fe-8515-81faf65d104f","ios":"levelo://app?vid=94a56d00-e51a-49fe-8515-81faf65d104f"},"vehicle_type_id":"4","last_reported":1747069743,"current_range_meters":6000,"station_id":"ce4bho12rcd13ifvqh2g","pricing_plan_id":"cebpf4jnsgd1na2vs0mg"},{"bike_id":"393498eb-aa3f-4539-8c9c-f0b00c4ed870","system_id":"levelo_inurba_marseille","lat":43.28949,"lon":5.36409,"is_reserved":false,"is_disabled":false,"rental_uris":{"android":"levelo://app?vid=393498eb-aa3f-4539-8c9c-f0b00c4ed870","ios":"levelo://app?vid=393498eb-aa3f-4539-8c9c-f0b00c4ed870"},"vehicle_type_id":"4","last_reported":1747069743,"current_range_meters":5600,"station_id":"ce4bhc92rcd13ifvqetg","pricing_plan_id":"cebpf4jnsgd1na2vs0mg"},{"bike_id":"95409b75-dceb-45e8-b1b5-a93ac1042dc9","system_id":"levelo_inurba_marseille","lat":43.28272,"lon":5.35067,"is_reserved":false,"is_disabled":false,"rental_uris":{"android":"levelo://app?vid=95409b75-dceb-45e8-b1b5-a93ac1042dc9","ios":"levelo://app?vid=95409b75-dceb-45e8-b1b5-a93ac1042dc9"},"vehicle_type_id":"4","last_reported":1747069743,"current_range_meters":6400,"station_id":"ce4bhbp2rcd13ifvqerg","pricing_plan_id":"cebpf4jnsgd1na2vs0mg"},{"bike_id":"990ee402-8778-4f06-8369-72a7d16e150a","system_id":"levelo_inurba_marseille","lat":43.28419,"lon":5.34978,"is_reserved":false,"is_disabled":false,"rental_uris":{"android":"levelo://app?vid=990ee402-8778-4f06-8369-72a7d16e150a","ios":"levelo://app?vid=990ee402-8778-4f06-8369-72a7d16e150a"},"vehicle_type_id":"4","last_reported":1747069743,"current_range_meters":6400,"station_id":"ce4bhbh2rcd13ifvqepg","pricing_plan_id":"cebpf4jnsgd1na2vs0mg"},{"bike_id":"cb4aa7f8-5e58-4103-827e-f5aa7f653469","system_id":"levelo_inurba_marseille","lat":43.23194,"lon":5.35548,"is_reserved":false,"is_disabled":false,"rental_uris":{"android":"levelo://app?vid=cb4aa7f8-5e58-4103-827e-f5aa7f653469","ios":"levelo://app?vid=cb4aa7f8-5e58-4103-827e-f5aa7f653469"},"vehicle_type_id":"4","last_reported":1747069743,"current_range_meters":6400,"station_id":"ce4bhu92rcd13ifvqi70","pricing_plan_id":"cebpf4jnsgd1na2vs0mg"},{"bike_id":"db69e414-d86d-4927-af0c-32e090a94293","system_id":"levelo_inurba_marseille","lat":43.29276,"lon":5.40121,"is_reserved":false,"is_disabled":false,"rental_uris":{"android":"levelo://app?vid=db69e414-d86d-4927-af0c-32e090a94293","ios":"levelo://app?vid=db69e414-d86d-4927-af0c-32e090a94293"},"vehicle_type_id":"4","last_reported":1747069743,"current_range_meters":6400,"station_id":"ce4bh312rcd13ifvqdk0","pricing_plan_id":"cebpf4jnsgd1na2vs0mg"},{"bike_id":"f6fd114e-1831-4860-bf0d-5857dffccab2","system_id":"levelo_inurba_marseille","lat":43.29198,"lon":5.35801,"is_reserved":false,"is_disabled":false,"rental_uris":{"android":"levelo://app?vid=f6fd114e-1831-4860-bf0d-5857dffccab2","ios":"levelo://app?vid=f6fd114e-1831-4860-bf0d-5857dffccab2"},"vehicle_type_id":"4","last_reported":1747069743,"current_range_meters":6400,"station_id":"ce4bhb12rcd13ifvqel0","pricing_plan_id":"cebpf4jnsgd1na2vs0mg"},{"bike_id":"a0920cd3-75e0-4245-895a-992ad88ad8a7","system_id":"levelo_inurba_marseille","lat":43.29618,"lon":5.37724,"is_reserved":false,"is_disabled":false,"rental_uris":{"android":"levelo://app?vid=a0920cd3-75e0-4245-895a-992ad88ad8a7","ios":"levelo://app?vid=a0920cd3-75e0-4245-895a-992ad88ad8a7"},"vehicle_type_id":"4","last_reported":1747069743,"current_range_meters":6400,"station_id":"ce4bgi92rcd13ifvqb90","pricing_plan_id":"cebpf4jnsgd1na2vs0mg"},{"bike_id":"d6b27cdc-6bb9-4a32-8d35-1941bb1f3e0d","system_id":"levelo_inurba_marseille","lat":43.29715,"lon":5.36604,"is_reserved":false,"is_disabled":false,"rental_uris":{"android":"levelo://app?vid=d6b27cdc-6bb9-4a32-8d35-1941bb1f3e0d","ios":"levelo://app?vid=d6b27cdc-6bb9-4a32-8d35-1941bb1f3e0d"},"vehicle_type_id":"4","last_reported":1747069743,"current_range_meters":6800,"station_id":"ce4bgn12rcd13ifvqbt0","pricing_plan_id":"cebpf4jnsgd1na2vs0mg"},{"bike_id":"32f607e3-86f4-4b83-a00e-3860ca594338","system_id":"levelo_inurba_marseille","lat":43.31716,"lon":5.42419,"is_reserved":false,"is_disabled":false,"rental_uris":{"android":"levelo://app?vid=32f607e3-86f4-4b83-a00e-3860ca594338","ios":"levelo://app?vid=32f607e3-86f4-4b83-a00e-3860ca594338"},"vehicle_type_id":"4","last_reported":1747069743,"current_range_meters":7200,"station_id":"ce4bhp92rcd13ifvqhbg","pricing_plan_id":"cebpf4jnsgd1na2vs0mg"},{"bike_id":"e22aa212-50c2-47e3-a0bd-f90cde7ece50","system_id":"levelo_inurba_marseille","lat":43.23065,"lon":5.35472,"is_reserved":false,"is_disabled":false,"rental_uris":{"android":"levelo://app?vid=e22aa212-50c2-47e3-a0bd-f90cde7ece50","ios":"levelo://app?vid=e22aa212-50c2-47e3-a0bd-f90cde7ece50"},"vehicle_type_id":"4","last_reported":1747069743,"current_range_meters":7200,"station_id":"cpo3342slgdg3j2ifvpg","pricing_plan_id":"cebpf4jnsgd1na2vs0mg"},{"bike_id":"730a1eb6-a927-47f6-b91f-a2d24a5eb680","system_id":"levelo_inurba_marseille","lat":43.24167,"lon":5.36394,"is_reserved":false,"is_disabled":false,"rental_uris":{"android":"levelo://app?vid=730a1eb6-a927-47f6-b91f-a2d24a5eb680","ios":"levelo://app?vid=730a1eb6-a927-47f6-b91f-a2d24a5eb680"},"vehicle_type_id":"4","last_reported":1747069743,"current_range_meters":7200,"station_id":"cpo36qri1sfpv3e86is0","pricing_plan_id":"cebpf4jnsgd1na2vs0mg"},{"bike_id":"38430ab8-b659-4ec7-9146-06ba2b93625b","system_id":"levelo_inurba_marseille","lat":43.28151,"lon":5.42666,"is_reserved":false,"is_disabled":false,"rental_uris":{"android":"levelo://app?vid=38430ab8-b659-4ec7-9146-06ba2b93625b","ios":"levelo://app?vid=38430ab8-b659-4ec7-9146-06ba2b93625b"},"vehicle_type_id":"4","last_reported":1747069743,"current_range_meters":7200,"station_id":"ce4bhnh2rcd13ifvqgug","pricing_plan_id":"cebpf4jnsgd1na2vs0mg"},{"bike_id":"5f9b62df-1db7-4452-8caf-5538e3287ca8","system_id":"levelo_inurba_marseille","lat":43.29355,"lon":5.42835,"is_reserved":false,"is_disabled":false,"rental_uris":{"android":"levelo://app?vid=5f9b62df-1db7-4452-8caf-5538e3287ca8","ios":"levelo://app?vid=5f9b62df-1db7-4452-8caf-5538e3287ca8"},"vehicle_type_id":"4","last_reported":1747069743,"current_range_meters":7200,"station_id":"","pricing_plan_id":"cebpf4jnsgd1na2vs0mg"},{"bike_id":"88caf35a-4c0d-4ef7-932c-5c462174ea3b","system_id":"levelo_inurba_marseille","lat":43.28704,"lon":5.39991,"is_reserved":false,"is_disabled":false,"rental_uris":{"android":"levelo://app?vid=88caf35a-4c0d-4ef7-932c-5c462174ea3b","ios":"levelo://app?vid=88caf35a-4c0d-4ef7-932c-5c462174ea3b"},"vehicle_type_id":"4","last_reported":1747069743,"current_range_meters":7200,"station_id":"ce4bho92rcd13ifvqh3g","pricing_plan_id":"cebpf4jnsgd1na2vs0mg"},{"bike_id":"074545cc-39c8-4852-bc40-79cf812156a7","system_id":"levelo_inurba_marseille","lat":43.28154,"lon":5.42648,"is_reserved":false,"is_disabled":false,"rental_uris":{"android":"levelo://app?vid=074545cc-39c8-4852-bc40-79cf812156a7","ios":"levelo://app?vid=074545cc-39c8-4852-bc40-79cf812156a7"},"vehicle_type_id":"4","last_reported":1747069743,"current_range_meters":7200,"station_id":"ce4bhnh2rcd13ifvqgug","pricing_plan_id":"cebpf4jnsgd1na2vs0mg"},{"bike_id":"65d412b2-161b-410b-9fa5-6889e24f4bed","system_id":"levelo_inurba_marseille","lat":43.26944,"lon":5.40256,"is_reserved":false,"is_disabled":false,"rental_uris":{"android":"levelo://app?vid=65d412b2-161b-410b-9fa5-6889e24f4bed","ios":"levelo://app?vid=65d412b2-161b-410b-9fa5-6889e24f4bed"},"vehicle_type_id":"4","last_reported":1747069743,"current_range_meters":7200,"station_id":"cjm6bp8fraef2m0cb0m0","pricing_plan_id":"cebpf4jnsgd1na2vs0mg"},{"bike_id":"2c2ccebb-4d25-46e4-9475-b9ef196fa14b","system_id":"levelo_inurba_marseille","lat":43.23158,"lon":5.43711,"is_reserved":false,"is_disabled":false,"rental_uris":{"android":"levelo://app?vid=2c2ccebb-4d25-46e4-9475-b9ef196fa14b","ios":"levelo://app?vid=2c2ccebb-4d25-46e4-9475-b9ef196fa14b"},"vehicle_type_id":"4","last_reported":1747069743,"current_range_meters":8000,"station_id":"ce4bhmp2rcd13ifvqgog","pricing_plan_id":"cebpf4jnsgd1na2vs0mg"},{"bike_id":"41d51ce1-a44e-487b-b0b0-dc989b528146","system_id":"levelo_inurba_marseille","lat":43.29018,"lon":5.38164,"is_reserved":false,"is_disabled":false,"rental_uris":{"android":"levelo://app?vid=41d51ce1-a44e-487b-b0b0-dc989b528146","ios":"levelo://app?vid=41d51ce1-a44e-487b-b0b0-dc989b528146"},"vehicle_type_id":"4","last_reported":1747069743,"current_range_meters":8000,"station_id":"ce4bho92rcd13ifvqh3g","pricing_plan_id":"cebpf4jnsgd1na2vs0mg"},{"bike_id":"e0372e11-e2d7-499e-bc01-d37180083c7d","system_id":"levelo_inurba_marseille","lat":43.3236,"lon":5.36763,"is_reserved":false,"is_disabled":false,"rental_uris":{"android":"levelo://app?vid=e0372e11-e2d7-499e-bc01-d37180083c7d","ios":"levelo://app?vid=e0372e11-e2d7-499e-bc01-d37180083c7d"},"vehicle_type_id":"4","last_reported":1747069743,"current_range_meters":8000,"station_id":"ce4bhsh2rcd13ifvqi2g","pricing_plan_id":"cebpf4jnsgd1na2vs0mg"},{"bike_id":"e58467a0-1d2f-4673-8f89-52c1eda7ea16","system_id":"levelo_inurba_marseille","lat":43.30554,"lon":5.36557,"is_reserved":false,"is_disabled":false,"rental_uris":{"android":"levelo://app?vid=e58467a0-1d2f-4673-8f89-52c1eda7ea16","ios":"levelo://app?vid=e58467a0-1d2f-4673-8f89-52c1eda7ea16"},"vehicle_type_id":"4","last_reported":1747069743,"current_range_meters":8000,"station_id":"ce4bgs12rcd13ifvqcag","pricing_plan_id":"cebpf4jnsgd1na2vs0mg"},{"bike_id":"3c5500d0-0a7c-417f-a50e-8a15fa51d03f","system_id":"levelo_inurba_marseille","lat":43.27202,"lon":5.39185,"is_reserved":false,"is_disabled":false,"rental_uris":{"android":"levelo://app?vid=3c5500d0-0a7c-417f-a50e-8a15fa51d03f","ios":"levelo://app?vid=3c5500d0-0a7c-417f-a50e-8a15fa51d03f"},"vehicle_type_id":"4","last_reported":1747069743,"current_range_meters":7200,"station_id":"ce4bhhp2rcd13ifvqfm0","pricing_plan_id":"cebpf4jnsgd1na2vs0mg"},{"bike_id":"2deb1013-2a4e-4281-83f4-5de1b133ca70","system_id":"levelo_inurba_marseille","lat":43.29907,"lon":5.43644,"is_reserved":false,"is_disabled":false,"rental_uris":{"android":"levelo://app?vid=2deb1013-2a4e-4281-83f4-5de1b133ca70","ios":"levelo://app?vid=2deb1013-2a4e-4281-83f4-5de1b133ca70"},"vehicle_type_id":"4","last_reported":1747069743,"current_range_meters":8000,"station_id":"ce4bhpp2rcd13ifvqhfg","pricing_plan_id":"cebpf4jnsgd1na2vs0mg"},{"bike_id":"c769eb33-0daa-442d-aa06-2a1f9f5df8c1","system_id":"levelo_inurba_marseille","lat":43.26546,"lon":5.37331,"is_reserved":false,"is_disabled":false,"rental_uris":{"android":"levelo://app?vid=c769eb33-0daa-442d-aa06-2a1f9f5df8c1","ios":"levelo://app?vid=c769eb33-0daa-442d-aa06-2a1f9f5df8c1"},"vehicle_type_id":"4","last_reported":1747069743,"current_range_meters":8400,"station_id":"ce4bhg12rcd13ifvqf70","pricing_plan_id":"cebpf4jnsgd1na2vs0mg"},{"bike_id":"d2d1f5bd-b850-4f9b-8214-9b371abb10ae","system_id":"levelo_inurba_marseille","lat":43.28611,"lon":5.35103,"is_reserved":false,"is_disabled":false,"rental_uris":{"android":"levelo://app?vid=d2d1f5bd-b850-4f9b-8214-9b371abb10ae","ios":"levelo://app?vid=d2d1f5bd-b850-4f9b-8214-9b371abb10ae"},"vehicle_type_id":"4","last_reported":1747069743,"current_range_meters":8400,"station_id":"ce4bhch2rcd13ifvqeug","pricing_plan_id":"cebpf4jnsgd1na2vs0mg"},{"bike_id":"350606be-8b14-4cdf-9ae8-1a14d7e9ae2b","system_id":"levelo_inurba_marseille","lat":43.2293,"lon":5.35389,"is_reserved":false,"is_disabled":false,"rental_uris":{"android":"levelo://app?vid=350606be-8b14-4cdf-9ae8-1a14d7e9ae2b","ios":"levelo://app?vid=350606be-8b14-4cdf-9ae8-1a14d7e9ae2b"},"vehicle_type_id":"4","last_reported":1747069743,"current_range_meters":8400,"station_id":"cpo3532slgdg3j2ikp40","pricing_plan_id":"cebpf4jnsgd1na2vs0mg"},{"bike_id":"d87715a0-713e-4248-a71b-b9ee43b283c7","system_id":"levelo_inurba_marseille","lat":43.231988,"lon":5.355478,"is_reserved":false,"is_disabled":false,"rental_uris":{"android":"levelo://app?vid=d87715a0-713e-4248-a71b-b9ee43b283c7","ios":"levelo://app?vid=d87715a0-713e-4248-a71b-b9ee43b283c7"},"vehicle_type_id":"4","last_reported":1747069743,"current_range_meters":8400,"station_id":"ce4bhu92rcd13ifvqi70","pricing_plan_id":"cebpf4jnsgd1na2vs0mg"},{"bike_id":"25d3f0fd-44d9-45b2-ac6a-d255b5e790f9","system_id":"levelo_inurba_marseille","lat":43.295008,"lon":5.386266,"is_reserved":false,"is_disabled":false,"rental_uris":{"android":"levelo://app?vid=25d3f0fd-44d9-45b2-ac6a-d255b5e790f9","ios":"levelo://app?vid=25d3f0fd-44d9-45b2-ac6a-d255b5e790f9"},"vehicle_type_id":"4","last_reported":1747069743,"current_range_meters":8400,"station_id":"ce4bh2h2rcd13ifvqdh0","pricing_plan_id":"cebpf4jnsgd1na2vs0mg"},{"bike_id":"be5909b4-a68b-41b0-b085-b062a734cfee","system_id":"levelo_inurba_marseille","lat":43.28431,"lon":5.392,"is_reserved":false,"is_disabled":false,"rental_uris":{"android":"levelo://app?vid=be5909b4-a68b-41b0-b085-b062a734cfee","ios":"levelo://app?vid=be5909b4-a68b-41b0-b085-b062a734cfee"},"vehicle_type_id":"4","last_reported":1747069743,"current_range_meters":8400,"station_id":"ce4bhoh2rcd13ifvqh5g","pricing_plan_id":"cebpf4jnsgd1na2vs0mg"},{"bike_id":"818157c7-da7c-4209-a445-8a2b3a8f277d","system_id":"levelo_inurba_marseille","lat":43.2789,"lon":5.38025,"is_reserved":false,"is_disabled":false,"rental_uris":{"android":"levelo://app?vid=818157c7-da7c-4209-a445-8a2b3a8f277d","ios":"levelo://app?vid=818157c7-da7c-4209-a445-8a2b3a8f277d"},"vehicle_type_id":"4","last_reported":1747069743,"current_range_meters":6000,"station_id":"ce4bhf92rcd13ifvqf50","pricing_plan_id":"cebpf4jnsgd1na2vs0mg"},{"bike_id":"4193b3ff-7911-46cf-aafe-21c4ebe7fd24","system_id":"levelo_inurba_marseille","lat":43.23206,"lon":5.39956,"is_reserved":false,"is_disabled":false,"rental_uris":{"android":"levelo://app?vid=4193b3ff-7911-46cf-aafe-21c4ebe7fd24","ios":"levelo://app?vid=4193b3ff-7911-46cf-aafe-21c4ebe7fd24"},"vehicle_type_id":"4","last_reported":1747069743,"current_range_meters":8400,"station_id":"ce4bhn12rcd13ifvqgqg","pricing_plan_id":"cebpf4jnsgd1na2vs0mg"},{"bike_id":"f09f24ed-e0a6-408c-962b-12a7c9678f67","system_id":"levelo_inurba_marseille","lat":43.25716,"lon":5.41122,"is_reserved":false,"is_disabled":false,"rental_uris":{"android":"levelo://app?vid=f09f24ed-e0a6-408c-962b-12a7c9678f67","ios":"levelo://app?vid=f09f24ed-e0a6-408c-962b-12a7c9678f67"},"vehicle_type_id":"4","last_reported":1747069743,"current_range_meters":8400,"station_id":"ce4bhkp2rcd13ifvqgd0","pricing_plan_id":"cebpf4jnsgd1na2vs0mg"},{"bike_id":"2651b551-e48d-4845-baa7-f43d7cae2a3d","system_id":"levelo_inurba_marseille","lat":43.28721,"lon":5.37943,"is_reserved":false,"is_disabled":false,"rental_uris":{"android":"levelo://app?vid=2651b551-e48d-4845-baa7-f43d7cae2a3d","ios":"levelo://app?vid=2651b551-e48d-4845-baa7-f43d7cae2a3d"},"vehicle_type_id":"4","last_reported":1747069743,"current_range_meters":8400,"station_id":"ce4bh9p2rcd13ifvqec0","pricing_plan_id":"cebpf4jnsgd1na2vs0mg"},{"bike_id":"84ce8235-da06-4776-9da8-1528be994d20","system_id":"levelo_inurba_marseille","lat":43.289307,"lon":5.36637,"is_reserved":false,"is_disabled":false,"rental_uris":{"android":"levelo://app?vid=84ce8235-da06-4776-9da8-1528be994d20","ios":"levelo://app?vid=84ce8235-da06-4776-9da8-1528be994d20"},"vehicle_type_id":"4","last_reported":1747069743,"current_range_meters":8800,"station_id":"ce4bhap2rcd13ifvqek0","pricing_plan_id":"cebpf4jnsgd1na2vs0mg"},{"bike_id":"a0475fdc-895a-45f0-9fca-d81882bb5cdd","system_id":"levelo_inurba_marseille","lat":43.27837,"lon":5.392,"is_reserved":false,"is_disabled":false,"rental_uris":{"android":"levelo://app?vid=a0475fdc-895a-45f0-9fca-d81882bb5cdd","ios":"levelo://app?vid=a0475fdc-895a-45f0-9fca-d81882bb5cdd"},"vehicle_type_id":"4","last_reported":1747069743,"current_range_meters":8800,"station_id":"ce4bhjp2rcd13ifvqga0","pricing_plan_id":"cebpf4jnsgd1na2vs0mg"},{"bike_id":"80815be7-7cd5-45d1-ac12-5c4483a095e4","system_id":"levelo_inurba_marseille","lat":43.27375,"lon":5.36269,"is_reserved":false,"is_disabled":false,"rental_uris":{"android":"levelo://app?vid=80815be7-7cd5-45d1-ac12-5c4483a095e4","ios":"levelo://app?vid=80815be7-7cd5-45d1-ac12-5c4483a095e4"},"vehicle_type_id":"4","last_reported":1747069743,"current_range_meters":8800,"station_id":"ce4bhbh2rcd13ifvqeo0","pricing_plan_id":"cebpf4jnsgd1na2vs0mg"},{"bike_id":"de4a530f-3b17-41b9-bd98-d22e64d46bdc","system_id":"levelo_inurba_marseille","lat":43.3213,"lon":5.36765,"is_reserved":false,"is_disabled":false,"rental_uris":{"android":"levelo://app?vid=de4a530f-3b17-41b9-bd98-d22e64d46bdc","ios":"levelo://app?vid=de4a530f-3b17-41b9-bd98-d22e64d46bdc"},"vehicle_type_id":"4","last_reported":1747069743,"current_range_meters":8800,"station_id":"ce4bhrh2rcd13ifvqhug","pricing_plan_id":"cebpf4jnsgd1na2vs0mg"},{"bike_id":"c39ffec0-bf54-4b94-892c-11b3ef277137","system_id":"levelo_inurba_marseille","lat":43.23185,"lon":5.39979,"is_reserved":false,"is_disabled":false,"rental_uris":{"android":"levelo://app?vid=c39ffec0-bf54-4b94-892c-11b3ef277137","ios":"levelo://app?vid=c39ffec0-bf54-4b94-892c-11b3ef277137"},"vehicle_type_id":"4","last_reported":1747069743,"current_range_meters":9200,"station_id":"ce4bhn12rcd13ifvqgqg","pricing_plan_id":"cebpf4jnsgd1na2vs0mg"},{"bike_id":"838311f4-53e5-40ff-975e-05a35df797b7","system_id":"levelo_inurba_marseille","lat":43.28415,"lon":5.349936,"is_reserved":false,"is_disabled":false,"rental_uris":{"android":"levelo://app?vid=838311f4-53e5-40ff-975e-05a35df797b7","ios":"levelo://app?vid=838311f4-53e5-40ff-975e-05a35df797b7"},"vehicle_type_id":"4","last_reported":1747069743,"current_range_meters":9200,"station_id":"ce4bhbh2rcd13ifvqepg","pricing_plan_id":"cebpf4jnsgd1na2vs0mg"},{"bike_id":"487ddcd3-6977-49be-84cb-d1c89a49dd82","system_id":"levelo_inurba_marseille","lat":43.28083,"lon":5.39661,"is_reserved":false,"is_disabled":false,"rental_uris":{"android":"levelo://app?vid=487ddcd3-6977-49be-84cb-d1c89a49dd82","ios":"levelo://app?vid=487ddcd3-6977-49be-84cb-d1c89a49dd82"},"vehicle_type_id":"4","last_reported":1747069743,"current_range_meters":9200,"station_id":"ce4bho12rcd13ifvqh2g","pricing_plan_id":"cebpf4jnsgd1na2vs0mg"},{"bike_id":"b6789d50-d1ec-43c3-8cf8-dae770ff6cd5","system_id":"levelo_inurba_marseille","lat":43.31575,"lon":5.38874,"is_reserved":false,"is_disabled":false,"rental_uris":{"android":"levelo://app?vid=b6789d50-d1ec-43c3-8cf8-dae770ff6cd5","ios":"levelo://app?vid=b6789d50-d1ec-43c3-8cf8-dae770ff6cd5"},"vehicle_type_id":"4","last_reported":1747069743,"current_range_meters":9200,"station_id":"","pricing_plan_id":"cebpf4jnsgd1na2vs0mg"},{"bike_id":"ea43783d-8b54-48fc-b7dc-9031385273ca","system_id":"levelo_inurba_marseille","lat":43.260687,"lon":5.39395,"is_reserved":false,"is_disabled":true,"rental_uris":{"android":"levelo://app?vid=ea43783d-8b54-48fc-b7dc-9031385273ca","ios":"levelo://app?vid=ea43783d-8b54-48fc-b7dc-9031385273ca"},"vehicle_type_id":"4","last_reported":1747069743,"current_range_meters":9200,"station_id":"ce4bhh92rcd13ifvqfj0","pricing_plan_id":"cebpf4jnsgd1na2vs0mg"},{"bike_id":"07d5a95d-6410-4c97-82b8-55722515e61b","system_id":"levelo_inurba_marseille","lat":43.27837,"lon":5.39208,"is_reserved":false,"is_disabled":false,"rental_uris":{"android":"levelo://app?vid=07d5a95d-6410-4c97-82b8-55722515e61b","ios":"levelo://app?vid=07d5a95d-6410-4c97-82b8-55722515e61b"},"vehicle_type_id":"4","last_reported":1747069743,"current_range_meters":9200,"station_id":"ce4bhjp2rcd13ifvqga0","pricing_plan_id":"cebpf4jnsgd1na2vs0mg"},{"bike_id":"73b1a855-e49e-450c-92c0-e14713e60a49","system_id":"levelo_inurba_marseille","lat":43.28697,"lon":5.37395,"is_reserved":false,"is_disabled":false,"rental_uris":{"android":"levelo://app?vid=73b1a855-e49e-450c-92c0-e14713e60a49","ios":"levelo://app?vid=73b1a855-e49e-450c-92c0-e14713e60a49"},"vehicle_type_id":"4","last_reported":1747069743,"current_range_meters":9600,"station_id":"ce4bh3p2rcd13ifvqdq0","pricing_plan_id":"cebpf4jnsgd1na2vs0mg"},{"bike_id":"00f00beb-c803-41b7-bebc-2e63217d234f","system_id":"levelo_inurba_marseille","lat":43.32336,"lon":5.40626,"is_reserved":false,"is_disabled":false,"rental_uris":{"android":"levelo://app?vid=00f00beb-c803-41b7-bebc-2e63217d234f","ios":"levelo://app?vid=00f00beb-c803-41b7-bebc-2e63217d234f"},"vehicle_type_id":"4","last_reported":1747069743,"current_range_meters":9600,"station_id":"ce4bhq92rcd13ifvqhjg","pricing_plan_id":"cebpf4jnsgd1na2vs0mg"},{"bike_id":"daf4e063-31f2-4b88-aa14-a8b6f4bed22c","system_id":"levelo_inurba_marseille","lat":43.30422,"lon":5.39746,"is_reserved":false,"is_disabled":true,"rental_uris":{"android":"levelo://app?vid=daf4e063-31f2-4b88-aa14-a8b6f4bed22c","ios":"levelo://app?vid=daf4e063-31f2-4b88-aa14-a8b6f4bed22c"},"vehicle_type_id":"4","last_reported":1747069743,"current_range_meters":10000,"station_id":"ce4bh092rcd13ifvqd20","pricing_plan_id":"cebpf4jnsgd1na2vs0mg"},{"bike_id":"4ab0f769-9e93-40fd-8b7a-5ef1943991cf","system_id":"levelo_inurba_marseille","lat":43.28158,"lon":5.42646,"is_reserved":false,"is_disabled":false,"rental_uris":{"android":"levelo://app?vid=4ab0f769-9e93-40fd-8b7a-5ef1943991cf","ios":"levelo://app?vid=4ab0f769-9e93-40fd-8b7a-5ef1943991cf"},"vehicle_type_id":"4","last_reported":1747069743,"current_range_meters":10000,"station_id":"ce4bhnh2rcd13ifvqgug","pricing_plan_id":"cebpf4jnsgd1na2vs0mg"},{"bike_id":"710fc034-b559-4ca5-bea6-fe206ffb23e5","system_id":"levelo_inurba_marseille","lat":43.27811,"lon":5.40714,"is_reserved":false,"is_disabled":false,"rental_uris":{"android":"levelo://app?vid=710fc034-b559-4ca5-bea6-fe206ffb23e5","ios":"levelo://app?vid=710fc034-b559-4ca5-bea6-fe206ffb23e5"},"vehicle_type_id":"4","last_reported":1747069743,"current_range_meters":10000,"station_id":"ce4bhnh2rcd13ifvqgtg","pricing_plan_id":"cebpf4jnsgd1na2vs0mg"},{"bike_id":"86a3703c-235d-4fc7-9cfd-8d76a7d53192","system_id":"levelo_inurba_marseille","lat":43.2293,"lon":5.35379,"is_reserved":false,"is_disabled":false,"rental_uris":{"android":"levelo://app?vid=86a3703c-235d-4fc7-9cfd-8d76a7d53192","ios":"levelo://app?vid=86a3703c-235d-4fc7-9cfd-8d76a7d53192"},"vehicle_type_id":"4","last_reported":1747069743,"current_range_meters":10000,"station_id":"cpo3532slgdg3j2ikp40","pricing_plan_id":"cebpf4jnsgd1na2vs0mg"},{"bike_id":"08cf1eea-2e51-4b03-b6f2-1bc272e1117c","system_id":"levelo_inurba_marseille","lat":43.29545,"lon":5.42308,"is_reserved":false,"is_disabled":false,"rental_uris":{"android":"levelo://app?vid=08cf1eea-2e51-4b03-b6f2-1bc272e1117c","ios":"levelo://app?vid=08cf1eea-2e51-4b03-b6f2-1bc272e1117c"},"vehicle_type_id":"4","last_reported":1747069743,"current_range_meters":10000,"station_id":"ce4bhph2rcd13ifvqhdg","pricing_plan_id":"cebpf4jnsgd1na2vs0mg"},{"bike_id":"e20c0ab0-90ea-460e-bcc0-e5fa98547380","system_id":"levelo_inurba_marseille","lat":43.31712,"lon":5.43709,"is_reserved":false,"is_disabled":false,"rental_uris":{"android":"levelo://app?vid=e20c0ab0-90ea-460e-bcc0-e5fa98547380","ios":"levelo://app?vid=e20c0ab0-90ea-460e-bcc0-e5fa98547380"},"vehicle_type_id":"4","last_reported":1747069743,"current_range_meters":10000,"station_id":"ce4bhp92rcd13ifvqhcg","pricing_plan_id":"cebpf4jnsgd1na2vs0mg"},{"bike_id":"2ee4d910-0ee1-4bc5-86c8-c77afad12b4f","system_id":"levelo_inurba_marseille","lat":43.32124,"lon":5.36756,"is_reserved":false,"is_disabled":false,"rental_uris":{"android":"levelo://app?vid=2ee4d910-0ee1-4bc5-86c8-c77afad12b4f","ios":"levelo://app?vid=2ee4d910-0ee1-4bc5-86c8-c77afad12b4f"},"vehicle_type_id":"4","last_reported":1747069743,"current_range_meters":10000,"station_id":"ce4bhrh2rcd13ifvqhug","pricing_plan_id":"cebpf4jnsgd1na2vs0mg"},{"bike_id":"58e45cd0-19e7-4c24-8730-ce69ea270cd3","system_id":"levelo_inurba_marseille","lat":43.23181,"lon":5.39983,"is_reserved":false,"is_disabled":false,"rental_uris":{"android":"levelo://app?vid=58e45cd0-19e7-4c24-8730-ce69ea270cd3","ios":"levelo://app?vid=58e45cd0-19e7-4c24-8730-ce69ea270cd3"},"vehicle_type_id":"4","last_reported":1747069743,"current_range_meters":10800,"station_id":"ce4bhn12rcd13ifvqgqg","pricing_plan_id":"cebpf4jnsgd1na2vs0mg"},{"bike_id":"ca1f5262-6d2d-4692-a775-ed1782c0798d","system_id":"levelo_inurba_marseille","lat":43.28986,"lon":5.37831,"is_reserved":false,"is_disabled":false,"rental_uris":{"android":"levelo://app?vid=ca1f5262-6d2d-4692-a775-ed1782c0798d","ios":"levelo://app?vid=ca1f5262-6d2d-4692-a775-ed1782c0798d"},"vehicle_type_id":"4","last_reported":1747069743,"current_range_meters":10800,"station_id":"ce4bh9p2rcd13ifvqed0","pricing_plan_id":"cebpf4jnsgd1na2vs0mg"},{"bike_id":"779f5c3b-06ef-48f1-897e-15c00ef24199","system_id":"levelo_inurba_marseille","lat":43.28076,"lon":5.39661,"is_reserved":false,"is_disabled":false,"rental_uris":{"android":"levelo://app?vid=779f5c3b-06ef-48f1-897e-15c00ef24199","ios":"levelo://app?vid=779f5c3b-06ef-48f1-897e-15c00ef24199"},"vehicle_type_id":"4","last_reported":1747069743,"current_range_meters":10800,"station_id":"ce4bho12rcd13ifvqh2g","pricing_plan_id":"cebpf4jnsgd1na2vs0mg"},{"bike_id":"cbc7eed1-f7c6-43f2-b64f-3b59b18e7401","system_id":"levelo_inurba_marseille","lat":43.22525,"lon":5.34765,"is_reserved":false,"is_disabled":true,"rental_uris":{"android":"levelo://app?vid=cbc7eed1-f7c6-43f2-b64f-3b59b18e7401","ios":"levelo://app?vid=cbc7eed1-f7c6-43f2-b64f-3b59b18e7401"},"vehicle_type_id":"4","last_reported":1747069743,"current_range_meters":10800,"station_id":"st_cvj5dfep6f1abm77gieg","pricing_plan_id":"cebpf4jnsgd1na2vs0mg"},{"bike_id":"608ed42e-ecf7-4f6c-89ab-87d59db18ca4","system_id":"levelo_inurba_marseille","lat":43.30356,"lon":5.41881,"is_reserved":false,"is_disabled":false,"rental_uris":{"android":"levelo://app?vid=608ed42e-ecf7-4f6c-89ab-87d59db18ca4","ios":"levelo://app?vid=608ed42e-ecf7-4f6c-89ab-87d59db18ca4"},"vehicle_type_id":"4","last_reported":1747069743,"current_range_meters":10800,"station_id":"ce4bhop2rcd13ifvqh7g","pricing_plan_id":"cebpf4jnsgd1na2vs0mg"},{"bike_id":"14974396-773a-4225-b2c9-f2fca04895a5","system_id":"levelo_inurba_marseille","lat":43.28465,"lon":5.35877,"is_reserved":false,"is_disabled":false,"rental_uris":{"android":"levelo://app?vid=14974396-773a-4225-b2c9-f2fca04895a5","ios":"levelo://app?vid=14974396-773a-4225-b2c9-f2fca04895a5"},"vehicle_type_id":"4","last_reported":1747069743,"current_range_meters":11200,"station_id":"ce4bhah2rcd13ifvqei0","pricing_plan_id":"cebpf4jnsgd1na2vs0mg"},{"bike_id":"800aed8c-c735-4be8-af72-73c8801461b7","system_id":"levelo_inurba_marseille","lat":43.30949,"lon":5.3903,"is_reserved":false,"is_disabled":false,"rental_uris":{"android":"levelo://app?vid=800aed8c-c735-4be8-af72-73c8801461b7","ios":"levelo://app?vid=800aed8c-c735-4be8-af72-73c8801461b7"},"vehicle_type_id":"4","last_reported":1747069743,"current_range_meters":11200,"station_id":"ce4bgup2rcd13ifvqco0","pricing_plan_id":"cebpf4jnsgd1na2vs0mg"},{"bike_id":"d0d57b1e-193c-4f21-9118-f46e78552955","system_id":"levelo_inurba_marseille","lat":43.33022,"lon":5.39044,"is_reserved":false,"is_disabled":false,"rental_uris":{"android":"levelo://app?vid=d0d57b1e-193c-4f21-9118-f46e78552955","ios":"levelo://app?vid=d0d57b1e-193c-4f21-9118-f46e78552955"},"vehicle_type_id":"4","last_reported":1747069743,"current_range_meters":11200,"station_id":"ce4bhr92rcd13ifvqhrg","pricing_plan_id":"cebpf4jnsgd1na2vs0mg"},{"bike_id":"57e09dc6-40ad-4250-936f-98a19f27bd31","system_id":"levelo_inurba_marseille","lat":43.24389,"lon":5.37061,"is_reserved":false,"is_disabled":false,"rental_uris":{"android":"levelo://app?vid=57e09dc6-40ad-4250-936f-98a19f27bd31","ios":"levelo://app?vid=57e09dc6-40ad-4250-936f-98a19f27bd31"},"vehicle_type_id":"4","last_reported":1747069743,"current_range_meters":11600,"station_id":"ce4bhhh2rcd13ifvqfk0","pricing_plan_id":"cebpf4jnsgd1na2vs0mg"},{"bike_id":"34e7b256-4dc1-4897-a6e0-d8d7d2b1de46","system_id":"levelo_inurba_marseille","lat":43.292295,"lon":5.360572,"is_reserved":false,"is_disabled":false,"rental_uris":{"android":"levelo://app?vid=34e7b256-4dc1-4897-a6e0-d8d7d2b1de46","ios":"levelo://app?vid=34e7b256-4dc1-4897-a6e0-d8d7d2b1de46"},"vehicle_type_id":"4","last_reported":1747069743,"current_range_meters":11600,"station_id":"ce4bhbh2rcd13ifvqeqg","pricing_plan_id":"cebpf4jnsgd1na2vs0mg"},{"bike_id":"8e46c005-a5e1-4fce-9706-44911d1c08a6","system_id":"levelo_inurba_marseille","lat":43.2319,"lon":5.3556,"is_reserved":false,"is_disabled":false,"rental_uris":{"android":"levelo://app?vid=8e46c005-a5e1-4fce-9706-44911d1c08a6","ios":"levelo://app?vid=8e46c005-a5e1-4fce-9706-44911d1c08a6"},"vehicle_type_id":"4","last_reported":1747069743,"current_range_meters":11600,"station_id":"ce4bhu92rcd13ifvqi70","pricing_plan_id":"cebpf4jnsgd1na2vs0mg"},{"bike_id":"0e89a721-196d-4572-b905-e39e1dafff7a","system_id":"levelo_inurba_marseille","lat":43.32111,"lon":5.36769,"is_reserved":false,"is_disabled":false,"rental_uris":{"android":"levelo://app?vid=0e89a721-196d-4572-b905-e39e1dafff7a","ios":"levelo://app?vid=0e89a721-196d-4572-b905-e39e1dafff7a"},"vehicle_type_id":"4","last_reported":1747069743,"current_range_meters":11600,"station_id":"ce4bhrh2rcd13ifvqhug","pricing_plan_id":"cebpf4jnsgd1na2vs0mg"},{"bike_id":"d7847aa5-68e3-478d-afba-2db6b3ead467","system_id":"levelo_inurba_marseille","lat":43.31765,"lon":5.39015,"is_reserved":false,"is_disabled":false,"rental_uris":{"android":"levelo://app?vid=d7847aa5-68e3-478d-afba-2db6b3ead467","ios":"levelo://app?vid=d7847aa5-68e3-478d-afba-2db6b3ead467"},"vehicle_type_id":"4","last_reported":1747069743,"current_range_meters":11600,"station_id":"ce4bhqp2rcd13ifvqhng","pricing_plan_id":"cebpf4jnsgd1na2vs0mg"},{"bike_id":"7335ab0a-93f8-4ae7-917e-8bbdc1bf01c7","system_id":"levelo_inurba_marseille","lat":43.24387,"lon":5.37063,"is_reserved":false,"is_disabled":false,"rental_uris":{"android":"levelo://app?vid=7335ab0a-93f8-4ae7-917e-8bbdc1bf01c7","ios":"levelo://app?vid=7335ab0a-93f8-4ae7-917e-8bbdc1bf01c7"},"vehicle_type_id":"4","last_reported":1747069743,"current_range_meters":11600,"station_id":"ce4bhhh2rcd13ifvqfk0","pricing_plan_id":"cebpf4jnsgd1na2vs0mg"},{"bike_id":"41da10f9-c4df-4a4d-81d7-007f46c00b73","system_id":"levelo_inurba_marseille","lat":43.2319,"lon":5.3998,"is_reserved":false,"is_disabled":false,"rental_uris":{"android":"levelo://app?vid=41da10f9-c4df-4a4d-81d7-007f46c00b73","ios":"levelo://app?vid=41da10f9-c4df-4a4d-81d7-007f46c00b73"},"vehicle_type_id":"4","last_reported":1747069743,"current_range_meters":11600,"station_id":"ce4bhn12rcd13ifvqgqg","pricing_plan_id":"cebpf4jnsgd1na2vs0mg"},{"bike_id":"9adb1fc9-313c-4afe-b723-95b1584113bb","system_id":"levelo_inurba_marseille","lat":43.2865,"lon":5.35083,"is_reserved":false,"is_disabled":false,"rental_uris":{"android":"levelo://app?vid=9adb1fc9-313c-4afe-b723-95b1584113bb","ios":"levelo://app?vid=9adb1fc9-313c-4afe-b723-95b1584113bb"},"vehicle_type_id":"4","last_reported":1747069743,"current_range_meters":12000,"station_id":"ce4bhch2rcd13ifvqeug","pricing_plan_id":"cebpf4jnsgd1na2vs0mg"},{"bike_id":"be5f7c53-8ceb-457b-8152-e6c4a4228c6a","system_id":"levelo_inurba_marseille","lat":43.24995,"lon":5.38938,"is_reserved":false,"is_disabled":false,"rental_uris":{"android":"levelo://app?vid=be5f7c53-8ceb-457b-8152-e6c4a4228c6a","ios":"levelo://app?vid=be5f7c53-8ceb-457b-8152-e6c4a4228c6a"},"vehicle_type_id":"4","last_reported":1747069743,"current_range_meters":12000,"station_id":"ce4bhgp2rcd13ifvqfd0","pricing_plan_id":"cebpf4jnsgd1na2vs0mg"},{"bike_id":"09667552-604c-472f-b05c-2be0e1fd2bf4","system_id":"levelo_inurba_marseille","lat":43.280338,"lon":5.36962,"is_reserved":false,"is_disabled":false,"rental_uris":{"android":"levelo://app?vid=09667552-604c-472f-b05c-2be0e1fd2bf4","ios":"levelo://app?vid=09667552-604c-472f-b05c-2be0e1fd2bf4"},"vehicle_type_id":"4","last_reported":1747069743,"current_range_meters":12000,"station_id":"ce4bha12rcd13ifvqef0","pricing_plan_id":"cebpf4jnsgd1na2vs0mg"},{"bike_id":"9de59b51-786e-40d7-bdaf-d8e3cefd2350","system_id":"levelo_inurba_marseille","lat":43.2953,"lon":5.38541,"is_reserved":false,"is_disabled":false,"rental_uris":{"android":"levelo://app?vid=9de59b51-786e-40d7-bdaf-d8e3cefd2350","ios":"levelo://app?vid=9de59b51-786e-40d7-bdaf-d8e3cefd2350"},"vehicle_type_id":"4","last_reported":1747069743,"current_range_meters":12400,"station_id":"ce4bgih2rcd13ifvqba0","pricing_plan_id":"cebpf4jnsgd1na2vs0mg"},{"bike_id":"79182b43-3249-4343-a3d2-03cd9e18f129","system_id":"levelo_inurba_marseille","lat":43.29054,"lon":5.35914,"is_reserved":false,"is_disabled":false,"rental_uris":{"android":"levelo://app?vid=79182b43-3249-4343-a3d2-03cd9e18f129","ios":"levelo://app?vid=79182b43-3249-4343-a3d2-03cd9e18f129"},"vehicle_type_id":"4","last_reported":1747069743,"current_range_meters":12400,"station_id":"ce4bha92rcd13ifvqeg0","pricing_plan_id":"cebpf4jnsgd1na2vs0mg"},{"bike_id":"2426c398-e9ff-4bc6-af2e-6b6e8459674c","system_id":"levelo_inurba_marseille","lat":43.28427,"lon":5.35008,"is_reserved":false,"is_disabled":false,"rental_uris":{"android":"levelo://app?vid=2426c398-e9ff-4bc6-af2e-6b6e8459674c","ios":"levelo://app?vid=2426c398-e9ff-4bc6-af2e-6b6e8459674c"},"vehicle_type_id":"4","last_reported":1747069743,"current_range_meters":12400,"station_id":"ce4bhbh2rcd13ifvqepg","pricing_plan_id":"cebpf4jnsgd1na2vs0mg"},{"bike_id":"0f14aaef-9bbe-435f-9e9c-f8c999f1e857","system_id":"levelo_inurba_marseille","lat":43.23189,"lon":5.35558,"is_reserved":false,"is_disabled":false,"rental_uris":{"android":"levelo://app?vid=0f14aaef-9bbe-435f-9e9c-f8c999f1e857","ios":"levelo://app?vid=0f14aaef-9bbe-435f-9e9c-f8c999f1e857"},"vehicle_type_id":"4","last_reported":1747069743,"current_range_meters":12800,"station_id":"ce4bhu92rcd13ifvqi70","pricing_plan_id":"cebpf4jnsgd1na2vs0mg"},{"bike_id":"685c5da7-1a64-47af-82f3-5cb0e6fa6824","system_id":"levelo_inurba_marseille","lat":43.28354,"lon":5.38111,"is_reserved":false,"is_disabled":false,"rental_uris":{"android":"levelo://app?vid=685c5da7-1a64-47af-82f3-5cb0e6fa6824","ios":"levelo://app?vid=685c5da7-1a64-47af-82f3-5cb0e6fa6824"},"vehicle_type_id":"4","last_reported":1747069743,"current_range_meters":12400,"station_id":"ce4bh412rcd13ifvqdr0","pricing_plan_id":"cebpf4jnsgd1na2vs0mg"},{"bike_id":"47d1412a-baaa-4068-91c4-e734560a4da3","system_id":"levelo_inurba_marseille","lat":43.28001,"lon":5.40014,"is_reserved":false,"is_disabled":false,"rental_uris":{"android":"levelo://app?vid=47d1412a-baaa-4068-91c4-e734560a4da3","ios":"levelo://app?vid=47d1412a-baaa-4068-91c4-e734560a4da3"},"vehicle_type_id":"4","last_reported":1747069743,"current_range_meters":12800,"station_id":"ce4bho92rcd13ifvqh4g","pricing_plan_id":"cebpf4jnsgd1na2vs0mg"},{"bike_id":"f4c02e6e-b14d-426f-bada-aea1f9bc2b7e","system_id":"levelo_inurba_marseille","lat":43.29709,"lon":5.37705,"is_reserved":false,"is_disabled":false,"rental_uris":{"android":"levelo://app?vid=f4c02e6e-b14d-426f-bada-aea1f9bc2b7e","ios":"levelo://app?vid=f4c02e6e-b14d-426f-bada-aea1f9bc2b7e"},"vehicle_type_id":"4","last_reported":1747069743,"current_range_meters":13600,"station_id":"ce4bgkh2rcd13ifvqbl0","pricing_plan_id":"cebpf4jnsgd1na2vs0mg"},{"bike_id":"89c550d1-b31b-49dc-bb41-cd52ba1ad9f2","system_id":"levelo_inurba_marseille","lat":43.241663,"lon":5.36425,"is_reserved":false,"is_disabled":false,"rental_uris":{"android":"levelo://app?vid=89c550d1-b31b-49dc-bb41-cd52ba1ad9f2","ios":"levelo://app?vid=89c550d1-b31b-49dc-bb41-cd52ba1ad9f2"},"vehicle_type_id":"4","last_reported":1747069743,"current_range_meters":13600,"station_id":"cpo36qri1sfpv3e86is0","pricing_plan_id":"cebpf4jnsgd1na2vs0mg"},{"bike_id":"82a2983a-aad6-4341-9119-63bff39dd4f7","system_id":"levelo_inurba_marseille","lat":43.2318,"lon":5.39987,"is_reserved":false,"is_disabled":false,"rental_uris":{"android":"levelo://app?vid=82a2983a-aad6-4341-9119-63bff39dd4f7","ios":"levelo://app?vid=82a2983a-aad6-4341-9119-63bff39dd4f7"},"vehicle_type_id":"4","last_reported":1747069743,"current_range_meters":14000,"station_id":"ce4bhn12rcd13ifvqgqg","pricing_plan_id":"cebpf4jnsgd1na2vs0mg"},{"bike_id":"42557dae-bbe0-42c6-8015-b1021735213b","system_id":"levelo_inurba_marseille","lat":43.28464,"lon":5.35889,"is_reserved":false,"is_disabled":true,"rental_uris":{"android":"levelo://app?vid=42557dae-bbe0-42c6-8015-b1021735213b","ios":"levelo://app?vid=42557dae-bbe0-42c6-8015-b1021735213b"},"vehicle_type_id":"4","last_reported":1747069743,"current_range_meters":14000,"station_id":"ce4bhah2rcd13ifvqei0","pricing_plan_id":"cebpf4jnsgd1na2vs0mg"},{"bike_id":"05bb2083-9444-4384-bbd6-0dd108c35d8e","system_id":"levelo_inurba_marseille","lat":43.34148,"lon":5.409,"is_reserved":false,"is_disabled":false,"rental_uris":{"android":"levelo://app?vid=05bb2083-9444-4384-bbd6-0dd108c35d8e","ios":"levelo://app?vid=05bb2083-9444-4384-bbd6-0dd108c35d8e"},"vehicle_type_id":"4","last_reported":1747069743,"current_range_meters":13600,"station_id":"ce4bhqh2rcd13ifvqhlg","pricing_plan_id":"cebpf4jnsgd1na2vs0mg"},{"bike_id":"38d93c17-35d5-435b-9b22-0b675f757146","system_id":"levelo_inurba_marseille","lat":43.28936,"lon":5.36641,"is_reserved":false,"is_disabled":false,"rental_uris":{"android":"levelo://app?vid=38d93c17-35d5-435b-9b22-0b675f757146","ios":"levelo://app?vid=38d93c17-35d5-435b-9b22-0b675f757146"},"vehicle_type_id":"4","last_reported":1747069743,"current_range_meters":14000,"station_id":"ce4bhap2rcd13ifvqek0","pricing_plan_id":"cebpf4jnsgd1na2vs0mg"},{"bike_id":"6ae3d809-9b4f-4d70-9397-da4d9caf4b32","system_id":"levelo_inurba_marseille","lat":43.28638,"lon":5.35475,"is_reserved":false,"is_disabled":false,"rental_uris":{"android":"levelo://app?vid=6ae3d809-9b4f-4d70-9397-da4d9caf4b32","ios":"levelo://app?vid=6ae3d809-9b4f-4d70-9397-da4d9caf4b32"},"vehicle_type_id":"4","last_reported":1747069743,"current_range_meters":14000,"station_id":"","pricing_plan_id":"cebpf4jnsgd1na2vs0mg"},{"bike_id":"2ccb50b4-8149-406e-b061-d9663f7945fd","system_id":"levelo_inurba_marseille","lat":43.31076,"lon":5.38352,"is_reserved":false,"is_disabled":false,"rental_uris":{"android":"levelo://app?vid=2ccb50b4-8149-406e-b061-d9663f7945fd","ios":"levelo://app?vid=2ccb50b4-8149-406e-b061-d9663f7945fd"},"vehicle_type_id":"4","last_reported":1747069743,"current_range_meters":14000,"station_id":"ce4bgv92rcd13ifvqcr0","pricing_plan_id":"cebpf4jnsgd1na2vs0mg"},{"bike_id":"d18dbd7f-eee0-4d47-809d-8371c6abd5e9","system_id":"levelo_inurba_marseille","lat":43.27814,"lon":5.40727,"is_reserved":false,"is_disabled":false,"rental_uris":{"android":"levelo://app?vid=d18dbd7f-eee0-4d47-809d-8371c6abd5e9","ios":"levelo://app?vid=d18dbd7f-eee0-4d47-809d-8371c6abd5e9"},"vehicle_type_id":"4","last_reported":1747069743,"current_range_meters":14000,"station_id":"ce4bhnh2rcd13ifvqgtg","pricing_plan_id":"cebpf4jnsgd1na2vs0mg"},{"bike_id":"5de1e8df-cec1-47cf-b554-41f6e726d337","system_id":"levelo_inurba_marseille","lat":43.274127,"lon":5.405963,"is_reserved":false,"is_disabled":false,"rental_uris":{"android":"levelo://app?vid=5de1e8df-cec1-47cf-b554-41f6e726d337","ios":"levelo://app?vid=5de1e8df-cec1-47cf-b554-41f6e726d337"},"vehicle_type_id":"4","last_reported":1747069743,"current_range_meters":14000,"station_id":"","pricing_plan_id":"cebpf4jnsgd1na2vs0mg"},{"bike_id":"c2b2d3c5-e5f6-41b1-b5ba-61c3aa197436","system_id":"levelo_inurba_marseille","lat":43.22932,"lon":5.35373,"is_reserved":false,"is_disabled":false,"rental_uris":{"android":"levelo://app?vid=c2b2d3c5-e5f6-41b1-b5ba-61c3aa197436","ios":"levelo://app?vid=c2b2d3c5-e5f6-41b1-b5ba-61c3aa197436"},"vehicle_type_id":"4","last_reported":1747069743,"current_range_meters":14000,"station_id":"cpo3532slgdg3j2ikp40","pricing_plan_id":"cebpf4jnsgd1na2vs0mg"},{"bike_id":"89bc804b-6a4f-4be5-a519-203cf29233b2","system_id":"levelo_inurba_marseille","lat":43.28158,"lon":5.42653,"is_reserved":false,"is_disabled":false,"rental_uris":{"android":"levelo://app?vid=89bc804b-6a4f-4be5-a519-203cf29233b2","ios":"levelo://app?vid=89bc804b-6a4f-4be5-a519-203cf29233b2"},"vehicle_type_id":"4","last_reported":1747069743,"current_range_meters":14400,"station_id":"ce4bhnh2rcd13ifvqgug","pricing_plan_id":"cebpf4jnsgd1na2vs0mg"},{"bike_id":"e267b3f7-0d6b-41ae-8551-70effd9f4cb8","system_id":"levelo_inurba_marseille","lat":43.27838,"lon":5.39205,"is_reserved":false,"is_disabled":false,"rental_uris":{"android":"levelo://app?vid=e267b3f7-0d6b-41ae-8551-70effd9f4cb8","ios":"levelo://app?vid=e267b3f7-0d6b-41ae-8551-70effd9f4cb8"},"vehicle_type_id":"4","last_reported":1747069743,"current_range_meters":14000,"station_id":"ce4bhjp2rcd13ifvqga0","pricing_plan_id":"cebpf4jnsgd1na2vs0mg"},{"bike_id":"b1b589ff-7838-4b9a-a83b-df95438c0cdc","system_id":"levelo_inurba_marseille","lat":43.23967,"lon":5.36636,"is_reserved":false,"is_disabled":false,"rental_uris":{"android":"levelo://app?vid=b1b589ff-7838-4b9a-a83b-df95438c0cdc","ios":"levelo://app?vid=b1b589ff-7838-4b9a-a83b-df95438c0cdc"},"vehicle_type_id":"4","last_reported":1747069743,"current_range_meters":14000,"station_id":"ce4bhi12rcd13ifvqfp0","pricing_plan_id":"cebpf4jnsgd1na2vs0mg"},{"bike_id":"f39d2f6f-a2de-420c-bfa0-40448373fb4c","system_id":"levelo_inurba_marseille","lat":43.3059,"lon":5.39362,"is_reserved":false,"is_disabled":false,"rental_uris":{"android":"levelo://app?vid=f39d2f6f-a2de-420c-bfa0-40448373fb4c","ios":"levelo://app?vid=f39d2f6f-a2de-420c-bfa0-40448373fb4c"},"vehicle_type_id":"4","last_reported":1747069743,"current_range_meters":14800,"station_id":"ce4bh0p2rcd13ifvqd80","pricing_plan_id":"cebpf4jnsgd1na2vs0mg"},{"bike_id":"3fb0e4d5-8211-4028-b48f-25690c778615","system_id":"levelo_inurba_marseille","lat":43.231536,"lon":5.43711,"is_reserved":false,"is_disabled":false,"rental_uris":{"android":"levelo://app?vid=3fb0e4d5-8211-4028-b48f-25690c778615","ios":"levelo://app?vid=3fb0e4d5-8211-4028-b48f-25690c778615"},"vehicle_type_id":"4","last_reported":1747069743,"current_range_meters":14800,"station_id":"ce4bhmp2rcd13ifvqgog","pricing_plan_id":"cebpf4jnsgd1na2vs0mg"},{"bike_id":"569c2b2d-6927-4325-babf-9cc74b8c42b3","system_id":"levelo_inurba_marseille","lat":43.27072,"lon":5.42275,"is_reserved":false,"is_disabled":false,"rental_uris":{"android":"levelo://app?vid=569c2b2d-6927-4325-babf-9cc74b8c42b3","ios":"levelo://app?vid=569c2b2d-6927-4325-babf-9cc74b8c42b3"},"vehicle_type_id":"4","last_reported":1747069743,"current_range_meters":14800,"station_id":"ce4bhk92rcd13ifvqgb0","pricing_plan_id":"cebpf4jnsgd1na2vs0mg"},{"bike_id":"704ddea4-888b-4d71-ac49-16a8e1d1e729","system_id":"levelo_inurba_marseille","lat":43.24651,"lon":5.38894,"is_reserved":false,"is_disabled":false,"rental_uris":{"android":"levelo://app?vid=704ddea4-888b-4d71-ac49-16a8e1d1e729","ios":"levelo://app?vid=704ddea4-888b-4d71-ac49-16a8e1d1e729"},"vehicle_type_id":"4","last_reported":1747069743,"current_range_meters":14800,"station_id":"ce4bhg12rcd13ifvqf60","pricing_plan_id":"cebpf4jnsgd1na2vs0mg"},{"bike_id":"7a583499-a6c8-4445-b123-77d1fdf0ec72","system_id":"levelo_inurba_marseille","lat":43.23184,"lon":5.39979,"is_reserved":false,"is_disabled":false,"rental_uris":{"android":"levelo://app?vid=7a583499-a6c8-4445-b123-77d1fdf0ec72","ios":"levelo://app?vid=7a583499-a6c8-4445-b123-77d1fdf0ec72"},"vehicle_type_id":"4","last_reported":1747069743,"current_range_meters":15200,"station_id":"ce4bhn12rcd13ifvqgqg","pricing_plan_id":"cebpf4jnsgd1na2vs0mg"},{"bike_id":"de892deb-6eb9-488a-a526-442ebec419fa","system_id":"levelo_inurba_marseille","lat":43.27376,"lon":5.36263,"is_reserved":false,"is_disabled":false,"rental_uris":{"android":"levelo://app?vid=de892deb-6eb9-488a-a526-442ebec419fa","ios":"levelo://app?vid=de892deb-6eb9-488a-a526-442ebec419fa"},"vehicle_type_id":"4","last_reported":1747069743,"current_range_meters":16000,"station_id":"ce4bhbh2rcd13ifvqeo0","pricing_plan_id":"cebpf4jnsgd1na2vs0mg"},{"bike_id":"29494ba9-0d04-44e7-ba02-30c5609ab377","system_id":"levelo_inurba_marseille","lat":43.292771,"lon":5.401133,"is_reserved":false,"is_disabled":false,"rental_uris":{"android":"levelo://app?vid=29494ba9-0d04-44e7-ba02-30c5609ab377","ios":"levelo://app?vid=29494ba9-0d04-44e7-ba02-30c5609ab377"},"vehicle_type_id":"4","last_reported":1747069743,"current_range_meters":16000,"station_id":"ce4bh012rcd13ifvqd00","pricing_plan_id":"cebpf4jnsgd1na2vs0mg"},{"bike_id":"a241557e-8130-4e74-aee4-12e38d0138c4","system_id":"levelo_inurba_marseille","lat":43.27208,"lon":5.39193,"is_reserved":false,"is_disabled":false,"rental_uris":{"android":"levelo://app?vid=a241557e-8130-4e74-aee4-12e38d0138c4","ios":"levelo://app?vid=a241557e-8130-4e74-aee4-12e38d0138c4"},"vehicle_type_id":"4","last_reported":1747069743,"current_range_meters":16000,"station_id":"ce4bhhp2rcd13ifvqfm0","pricing_plan_id":"cebpf4jnsgd1na2vs0mg"},{"bike_id":"8f6efa6c-d47f-4e8e-a628-454887459c5e","system_id":"levelo_inurba_marseille","lat":43.28706,"lon":5.39972,"is_reserved":false,"is_disabled":false,"rental_uris":{"android":"levelo://app?vid=8f6efa6c-d47f-4e8e-a628-454887459c5e","ios":"levelo://app?vid=8f6efa6c-d47f-4e8e-a628-454887459c5e"},"vehicle_type_id":"4","last_reported":1747069743,"current_range_meters":16400,"station_id":"ce4bho92rcd13ifvqh3g","pricing_plan_id":"cebpf4jnsgd1na2vs0mg"},{"bike_id":"9a3c0afb-9e04-435d-b9ef-3dcee769fdc7","system_id":"levelo_inurba_marseille","lat":43.29439,"lon":5.39755,"is_reserved":false,"is_disabled":false,"rental_uris":{"android":"levelo://app?vid=9a3c0afb-9e04-435d-b9ef-3dcee769fdc7","ios":"levelo://app?vid=9a3c0afb-9e04-435d-b9ef-3dcee769fdc7"},"vehicle_type_id":"4","last_reported":1747069743,"current_range_meters":16400,"station_id":"ce4bh3h2rcd13ifvqdo0","pricing_plan_id":"cebpf4jnsgd1na2vs0mg"},{"bike_id":"e6ad97f1-b73e-46fd-a80f-360ecb6587de","system_id":"levelo_inurba_marseille","lat":43.27996,"lon":5.40036,"is_reserved":false,"is_disabled":false,"rental_uris":{"android":"levelo://app?vid=e6ad97f1-b73e-46fd-a80f-360ecb6587de","ios":"levelo://app?vid=e6ad97f1-b73e-46fd-a80f-360ecb6587de"},"vehicle_type_id":"4","last_reported":1747069743,"current_range_meters":16400,"station_id":"ce4bho92rcd13ifvqh4g","pricing_plan_id":"cebpf4jnsgd1na2vs0mg"},{"bike_id":"134fb9f5-0ab9-42de-aaf9-ca2f76860f09","system_id":"levelo_inurba_marseille","lat":43.31076,"lon":5.42432,"is_reserved":false,"is_disabled":false,"rental_uris":{"android":"levelo://app?vid=134fb9f5-0ab9-42de-aaf9-ca2f76860f09","ios":"levelo://app?vid=134fb9f5-0ab9-42de-aaf9-ca2f76860f09"},"vehicle_type_id":"4","last_reported":1747069743,"current_range_meters":16800,"station_id":"ce4bhp92rcd13ifvqhag","pricing_plan_id":"cebpf4jnsgd1na2vs0mg"},{"bike_id":"78b80c36-2930-40d1-91d6-45c0f07fd78d","system_id":"levelo_inurba_marseille","lat":43.29981,"lon":5.38491,"is_reserved":false,"is_disabled":false,"rental_uris":{"android":"levelo://app?vid=78b80c36-2930-40d1-91d6-45c0f07fd78d","ios":"levelo://app?vid=78b80c36-2930-40d1-91d6-45c0f07fd78d"},"vehicle_type_id":"4","last_reported":1747069743,"current_range_meters":16800,"station_id":"ce4bgj92rcd13ifvqbd0","pricing_plan_id":"cebpf4jnsgd1na2vs0mg"},{"bike_id":"34ab5cfa-7609-4e61-8de7-1c34bb38f1fe","system_id":"levelo_inurba_marseille","lat":43.29278,"lon":5.36845,"is_reserved":false,"is_disabled":false,"rental_uris":{"android":"levelo://app?vid=34ab5cfa-7609-4e61-8de7-1c34bb38f1fe","ios":"levelo://app?vid=34ab5cfa-7609-4e61-8de7-1c34bb38f1fe"},"vehicle_type_id":"4","last_reported":1747069743,"current_range_meters":16800,"station_id":"ce4bhbp2rcd13ifvqesg","pricing_plan_id":"cebpf4jnsgd1na2vs0mg"},{"bike_id":"549347ed-5167-4bd7-baec-c9fd58d33b35","system_id":"levelo_inurba_marseille","lat":43.26567,"lon":5.39021,"is_reserved":false,"is_disabled":false,"rental_uris":{"android":"levelo://app?vid=549347ed-5167-4bd7-baec-c9fd58d33b35","ios":"levelo://app?vid=549347ed-5167-4bd7-baec-c9fd58d33b35"},"vehicle_type_id":"4","last_reported":1747069743,"current_range_meters":16800,"station_id":"ce4bhe12rcd13ifvqf30","pricing_plan_id":"cebpf4jnsgd1na2vs0mg"},{"bike_id":"556e7d69-5d47-4a34-9e72-f2f8167566e6","system_id":"levelo_inurba_marseille","lat":43.30142,"lon":5.38794,"is_reserved":false,"is_disabled":true,"rental_uris":{"android":"levelo://app?vid=556e7d69-5d47-4a34-9e72-f2f8167566e6","ios":"levelo://app?vid=556e7d69-5d47-4a34-9e72-f2f8167566e6"},"vehicle_type_id":"4","last_reported":1747069743,"current_range_meters":16800,"station_id":"ce4bghh2rcd13ifvqb60","pricing_plan_id":"cebpf4jnsgd1na2vs0mg"},{"bike_id":"54dd4b70-49db-41a9-9872-fd17b7d03d46","system_id":"levelo_inurba_marseille","lat":43.29031,"lon":5.38656,"is_reserved":false,"is_disabled":false,"rental_uris":{"android":"levelo://app?vid=54dd4b70-49db-41a9-9872-fd17b7d03d46","ios":"levelo://app?vid=54dd4b70-49db-41a9-9872-fd17b7d03d46"},"vehicle_type_id":"4","last_reported":1747069743,"current_range_meters":17200,"station_id":"ce4bh4p2rcd13ifvqe0g","pricing_plan_id":"cebpf4jnsgd1na2vs0mg"},{"bike_id":"84d1629a-3ce5-458c-be51-9f1fc277f37b","system_id":"levelo_inurba_marseille","lat":43.268262,"lon":5.393468,"is_reserved":false,"is_disabled":false,"rental_uris":{"android":"levelo://app?vid=84d1629a-3ce5-458c-be51-9f1fc277f37b","ios":"levelo://app?vid=84d1629a-3ce5-458c-be51-9f1fc277f37b"},"vehicle_type_id":"4","last_reported":1747069743,"current_range_meters":16800,"station_id":"ce4bhh12rcd13ifvqfg0","pricing_plan_id":"cebpf4jnsgd1na2vs0mg"},{"bike_id":"82257db8-e86a-40e2-b267-e506d18aed9e","system_id":"levelo_inurba_marseille","lat":43.245467,"lon":5.395275,"is_reserved":false,"is_disabled":false,"rental_uris":{"android":"levelo://app?vid=82257db8-e86a-40e2-b267-e506d18aed9e","ios":"levelo://app?vid=82257db8-e86a-40e2-b267-e506d18aed9e"},"vehicle_type_id":"4","last_reported":1747069743,"current_range_meters":17200,"station_id":"ce4bhlp2rcd13ifvqgjg","pricing_plan_id":"cebpf4jnsgd1na2vs0mg"},{"bike_id":"57ef3328-b1d6-4a73-a5ec-a74c8d0b3bff","system_id":"levelo_inurba_marseille","lat":43.29048,"lon":5.35919,"is_reserved":false,"is_disabled":false,"rental_uris":{"android":"levelo://app?vid=57ef3328-b1d6-4a73-a5ec-a74c8d0b3bff","ios":"levelo://app?vid=57ef3328-b1d6-4a73-a5ec-a74c8d0b3bff"},"vehicle_type_id":"4","last_reported":1747069743,"current_range_meters":17200,"station_id":"ce4bha92rcd13ifvqeg0","pricing_plan_id":"cebpf4jnsgd1na2vs0mg"},{"bike_id":"959f1d96-24e9-4e4d-be24-07be25b47143","system_id":"levelo_inurba_marseille","lat":43.231269,"lon":5.400581,"is_reserved":false,"is_disabled":false,"rental_uris":{"android":"levelo://app?vid=959f1d96-24e9-4e4d-be24-07be25b47143","ios":"levelo://app?vid=959f1d96-24e9-4e4d-be24-07be25b47143"},"vehicle_type_id":"4","last_reported":1747069743,"current_range_meters":17200,"station_id":"ce4bhn12rcd13ifvqgqg","pricing_plan_id":"cebpf4jnsgd1na2vs0mg"},{"bike_id":"3ae93e2e-db1a-41ec-bab5-a77e23615009","system_id":"levelo_inurba_marseille","lat":43.25492,"lon":5.37648,"is_reserved":false,"is_disabled":false,"rental_uris":{"android":"levelo://app?vid=3ae93e2e-db1a-41ec-bab5-a77e23615009","ios":"levelo://app?vid=3ae93e2e-db1a-41ec-bab5-a77e23615009"},"vehicle_type_id":"4","last_reported":1747069743,"current_range_meters":17200,"station_id":"ce4bhh12rcd13ifvqff0","pricing_plan_id":"cebpf4jnsgd1na2vs0mg"},{"bike_id":"abe527bb-77a0-48ad-a9f6-6d7bf7d5c1ff","system_id":"levelo_inurba_marseille","lat":43.29579,"lon":5.37518,"is_reserved":false,"is_disabled":true,"rental_uris":{"android":"levelo://app?vid=abe527bb-77a0-48ad-a9f6-6d7bf7d5c1ff","ios":"levelo://app?vid=abe527bb-77a0-48ad-a9f6-6d7bf7d5c1ff"},"vehicle_type_id":"4","last_reported":1747069743,"current_range_meters":17200,"station_id":"ce4bgh92rcd13ifvqb50","pricing_plan_id":"cebpf4jnsgd1na2vs0mg"},{"bike_id":"d9ced790-526f-4a4b-8046-76ed359a515a","system_id":"levelo_inurba_marseille","lat":43.2846,"lon":5.35015,"is_reserved":false,"is_disabled":false,"rental_uris":{"android":"levelo://app?vid=d9ced790-526f-4a4b-8046-76ed359a515a","ios":"levelo://app?vid=d9ced790-526f-4a4b-8046-76ed359a515a"},"vehicle_type_id":"4","last_reported":1747069743,"current_range_meters":17200,"station_id":"","pricing_plan_id":"cebpf4jnsgd1na2vs0mg"},{"bike_id":"0ced2eaa-f86b-4e49-b8a7-8068601e2830","system_id":"levelo_inurba_marseille","lat":43.31115,"lon":5.37765,"is_reserved":false,"is_disabled":false,"rental_uris":{"android":"levelo://app?vid=0ced2eaa-f86b-4e49-b8a7-8068601e2830","ios":"levelo://app?vid=0ced2eaa-f86b-4e49-b8a7-8068601e2830"},"vehicle_type_id":"4","last_reported":1747069743,"current_range_meters":17600,"station_id":"ce4bgt92rcd13ifvqcg0","pricing_plan_id":"cebpf4jnsgd1na2vs0mg"},{"bike_id":"78a336b2-7d28-4a19-a82c-6806dcf329c6","system_id":"levelo_inurba_marseille","lat":43.286155,"lon":5.351099,"is_reserved":false,"is_disabled":false,"rental_uris":{"android":"levelo://app?vid=78a336b2-7d28-4a19-a82c-6806dcf329c6","ios":"levelo://app?vid=78a336b2-7d28-4a19-a82c-6806dcf329c6"},"vehicle_type_id":"4","last_reported":1747069743,"current_range_meters":17600,"station_id":"ce4bhch2rcd13ifvqeug","pricing_plan_id":"cebpf4jnsgd1na2vs0mg"},{"bike_id":"0835ca8d-f648-4ff6-9988-8abf7ea65fce","system_id":"levelo_inurba_marseille","lat":43.31103,"lon":5.3696,"is_reserved":false,"is_disabled":false,"rental_uris":{"android":"levelo://app?vid=0835ca8d-f648-4ff6-9988-8abf7ea65fce","ios":"levelo://app?vid=0835ca8d-f648-4ff6-9988-8abf7ea65fce"},"vehicle_type_id":"4","last_reported":1747069743,"current_range_meters":17600,"station_id":"","pricing_plan_id":"cebpf4jnsgd1na2vs0mg"},{"bike_id":"a8d98450-92cc-44d0-b272-436af46aa0f9","system_id":"levelo_inurba_marseille","lat":43.29423,"lon":5.38608,"is_reserved":false,"is_disabled":true,"rental_uris":{"android":"levelo://app?vid=a8d98450-92cc-44d0-b272-436af46aa0f9","ios":"levelo://app?vid=a8d98450-92cc-44d0-b272-436af46aa0f9"},"vehicle_type_id":"4","last_reported":1747069743,"current_range_meters":17600,"station_id":"ce4bh2h2rcd13ifvqdh0","pricing_plan_id":"cebpf4jnsgd1na2vs0mg"},{"bike_id":"86689108-8b6c-425a-98ae-946b288cf2c2","system_id":"levelo_inurba_marseille","lat":43.28465,"lon":5.35896,"is_reserved":false,"is_disabled":false,"rental_uris":{"android":"levelo://app?vid=86689108-8b6c-425a-98ae-946b288cf2c2","ios":"levelo://app?vid=86689108-8b6c-425a-98ae-946b288cf2c2"},"vehicle_type_id":"4","last_reported":1747069743,"current_range_meters":17600,"station_id":"ce4bhah2rcd13ifvqei0","pricing_plan_id":"cebpf4jnsgd1na2vs0mg"},{"bike_id":"a7dca950-6488-4c3e-83fe-ec9826e25afc","system_id":"levelo_inurba_marseille","lat":43.27324,"lon":5.39079,"is_reserved":false,"is_disabled":false,"rental_uris":{"android":"levelo://app?vid=a7dca950-6488-4c3e-83fe-ec9826e25afc","ios":"levelo://app?vid=a7dca950-6488-4c3e-83fe-ec9826e25afc"},"vehicle_type_id":"4","last_reported":1747069743,"current_range_meters":17600,"station_id":"ce4bhgp2rcd13ifvqfe0","pricing_plan_id":"cebpf4jnsgd1na2vs0mg"},{"bike_id":"adc96c8b-e3b3-40b1-8aea-79f7e6f82dc5","system_id":"levelo_inurba_marseille","lat":43.24547,"lon":5.39534,"is_reserved":false,"is_disabled":false,"rental_uris":{"android":"levelo://app?vid=adc96c8b-e3b3-40b1-8aea-79f7e6f82dc5","ios":"levelo://app?vid=adc96c8b-e3b3-40b1-8aea-79f7e6f82dc5"},"vehicle_type_id":"4","last_reported":1747069743,"current_range_meters":18000,"station_id":"ce4bhlp2rcd13ifvqgjg","pricing_plan_id":"cebpf4jnsgd1na2vs0mg"},{"bike_id":"07a0f5fe-db6d-4ea1-9cca-c0d0a19e7861","system_id":"levelo_inurba_marseille","lat":43.29276,"lon":5.40114,"is_reserved":false,"is_disabled":false,"rental_uris":{"android":"levelo://app?vid=07a0f5fe-db6d-4ea1-9cca-c0d0a19e7861","ios":"levelo://app?vid=07a0f5fe-db6d-4ea1-9cca-c0d0a19e7861"},"vehicle_type_id":"4","last_reported":1747069743,"current_range_meters":18000,"station_id":"ce4bh312rcd13ifvqdk0","pricing_plan_id":"cebpf4jnsgd1na2vs0mg"},{"bike_id":"691ad911-b1d0-47fc-a77d-e5e3db08d382","system_id":"levelo_inurba_marseille","lat":43.217521,"lon":5.346006,"is_reserved":false,"is_disabled":false,"rental_uris":{"android":"levelo://app?vid=691ad911-b1d0-47fc-a77d-e5e3db08d382","ios":"levelo://app?vid=691ad911-b1d0-47fc-a77d-e5e3db08d382"},"vehicle_type_id":"4","last_reported":1747069743,"current_range_meters":18000,"station_id":"st_cvj6r9ubvosntc0bgbag","pricing_plan_id":"cebpf4jnsgd1na2vs0mg"},{"bike_id":"3ec115cc-2441-4e15-a356-7b19855e9178","system_id":"levelo_inurba_marseille","lat":43.28626,"lon":5.35087,"is_reserved":false,"is_disabled":false,"rental_uris":{"android":"levelo://app?vid=3ec115cc-2441-4e15-a356-7b19855e9178","ios":"levelo://app?vid=3ec115cc-2441-4e15-a356-7b19855e9178"},"vehicle_type_id":"4","last_reported":1747069743,"current_range_meters":18000,"station_id":"ce4bhch2rcd13ifvqeug","pricing_plan_id":"cebpf4jnsgd1na2vs0mg"},{"bike_id":"184dbd73-c801-49ea-bea2-ac96fae26b68","system_id":"levelo_inurba_marseille","lat":43.28373,"lon":5.38644,"is_reserved":false,"is_disabled":false,"rental_uris":{"android":"levelo://app?vid=184dbd73-c801-49ea-bea2-ac96fae26b68","ios":"levelo://app?vid=184dbd73-c801-49ea-bea2-ac96fae26b68"},"vehicle_type_id":"4","last_reported":1747069743,"current_range_meters":17600,"station_id":"ce4bh492rcd13ifvqdvg","pricing_plan_id":"cebpf4jnsgd1na2vs0mg"},{"bike_id":"589bbcb9-32f4-46f6-8115-7d13ffe3b612","system_id":"levelo_inurba_marseille","lat":43.27997,"lon":5.41668,"is_reserved":false,"is_disabled":false,"rental_uris":{"android":"levelo://app?vid=589bbcb9-32f4-46f6-8115-7d13ffe3b612","ios":"levelo://app?vid=589bbcb9-32f4-46f6-8115-7d13ffe3b612"},"vehicle_type_id":"4","last_reported":1747069743,"current_range_meters":17600,"station_id":"ce4bho12rcd13ifvqh1g","pricing_plan_id":"cebpf4jnsgd1na2vs0mg"},{"bike_id":"111998c6-70e8-4823-85aa-cbe0eb12546b","system_id":"levelo_inurba_marseille","lat":43.28425,"lon":5.3499,"is_reserved":false,"is_disabled":false,"rental_uris":{"android":"levelo://app?vid=111998c6-70e8-4823-85aa-cbe0eb12546b","ios":"levelo://app?vid=111998c6-70e8-4823-85aa-cbe0eb12546b"},"vehicle_type_id":"4","last_reported":1747069743,"current_range_meters":18000,"station_id":"ce4bhbh2rcd13ifvqepg","pricing_plan_id":"cebpf4jnsgd1na2vs0mg"},{"bike_id":"d099f47b-15e7-40eb-aff4-561a30b67c13","system_id":"levelo_inurba_marseille","lat":43.30275,"lon":5.37715,"is_reserved":false,"is_disabled":false,"rental_uris":{"android":"levelo://app?vid=d099f47b-15e7-40eb-aff4-561a30b67c13","ios":"levelo://app?vid=d099f47b-15e7-40eb-aff4-561a30b67c13"},"vehicle_type_id":"4","last_reported":1747069743,"current_range_meters":18000,"station_id":"ce4bguh2rcd13ifvqcj0","pricing_plan_id":"cebpf4jnsgd1na2vs0mg"},{"bike_id":"9e3c47f7-87ea-42bb-81e4-d17474e0efab","system_id":"levelo_inurba_marseille","lat":43.28085,"lon":5.396453,"is_reserved":false,"is_disabled":false,"rental_uris":{"android":"levelo://app?vid=9e3c47f7-87ea-42bb-81e4-d17474e0efab","ios":"levelo://app?vid=9e3c47f7-87ea-42bb-81e4-d17474e0efab"},"vehicle_type_id":"4","last_reported":1747069743,"current_range_meters":18000,"station_id":"ce4bho12rcd13ifvqh2g","pricing_plan_id":"cebpf4jnsgd1na2vs0mg"},{"bike_id":"8f898ea4-0b70-46db-b495-a08fd22223a4","system_id":"levelo_inurba_marseille","lat":43.22928,"lon":5.35385,"is_reserved":false,"is_disabled":false,"rental_uris":{"android":"levelo://app?vid=8f898ea4-0b70-46db-b495-a08fd22223a4","ios":"levelo://app?vid=8f898ea4-0b70-46db-b495-a08fd22223a4"},"vehicle_type_id":"4","last_reported":1747069743,"current_range_meters":18800,"station_id":"cpo3532slgdg3j2ikp40","pricing_plan_id":"cebpf4jnsgd1na2vs0mg"},{"bike_id":"b4861935-64f9-487a-bf90-bcb7fdd328e8","system_id":"levelo_inurba_marseille","lat":43.30926,"lon":5.4014,"is_reserved":false,"is_disabled":false,"rental_uris":{"android":"levelo://app?vid=b4861935-64f9-487a-bf90-bcb7fdd328e8","ios":"levelo://app?vid=b4861935-64f9-487a-bf90-bcb7fdd328e8"},"vehicle_type_id":"4","last_reported":1747069743,"current_range_meters":18800,"station_id":"ce4bgvp2rcd13ifvqct0","pricing_plan_id":"cebpf4jnsgd1na2vs0mg"},{"bike_id":"91e6febc-b2d9-491e-8ff9-81cb86456c5f","system_id":"levelo_inurba_marseille","lat":43.23193,"lon":5.35555,"is_reserved":false,"is_disabled":false,"rental_uris":{"android":"levelo://app?vid=91e6febc-b2d9-491e-8ff9-81cb86456c5f","ios":"levelo://app?vid=91e6febc-b2d9-491e-8ff9-81cb86456c5f"},"vehicle_type_id":"4","last_reported":1747069743,"current_range_meters":18800,"station_id":"ce4bhu92rcd13ifvqi70","pricing_plan_id":"cebpf4jnsgd1na2vs0mg"},{"bike_id":"0e123c4d-e8d0-4826-91b5-bc1bd261f062","system_id":"levelo_inurba_marseille","lat":43.29267,"lon":5.40129,"is_reserved":false,"is_disabled":true,"rental_uris":{"android":"levelo://app?vid=0e123c4d-e8d0-4826-91b5-bc1bd261f062","ios":"levelo://app?vid=0e123c4d-e8d0-4826-91b5-bc1bd261f062"},"vehicle_type_id":"4","last_reported":1747069743,"current_range_meters":18800,"station_id":"ce4bh312rcd13ifvqdk0","pricing_plan_id":"cebpf4jnsgd1na2vs0mg"},{"bike_id":"20492c73-ebbb-4d7d-bdda-b7348fc87ccb","system_id":"levelo_inurba_marseille","lat":43.2866,"lon":5.36341,"is_reserved":false,"is_disabled":false,"rental_uris":{"android":"levelo://app?vid=20492c73-ebbb-4d7d-bdda-b7348fc87ccb","ios":"levelo://app?vid=20492c73-ebbb-4d7d-bdda-b7348fc87ccb"},"vehicle_type_id":"4","last_reported":1747069743,"current_range_meters":19200,"station_id":"ce4bhah2rcd13ifvqej0","pricing_plan_id":"cebpf4jnsgd1na2vs0mg"},{"bike_id":"849551c5-240b-48cd-88b2-3e23f9d3b406","system_id":"levelo_inurba_marseille","lat":43.284785,"lon":5.374706,"is_reserved":false,"is_disabled":false,"rental_uris":{"android":"levelo://app?vid=849551c5-240b-48cd-88b2-3e23f9d3b406","ios":"levelo://app?vid=849551c5-240b-48cd-88b2-3e23f9d3b406"},"vehicle_type_id":"4","last_reported":1747069743,"current_range_meters":19200,"station_id":"","pricing_plan_id":"cebpf4jnsgd1na2vs0mg"},{"bike_id":"c8ecb9e8-276f-4b65-ac26-61fe938e27f0","system_id":"levelo_inurba_marseille","lat":43.25497,"lon":5.37653,"is_reserved":false,"is_disabled":false,"rental_uris":{"android":"levelo://app?vid=c8ecb9e8-276f-4b65-ac26-61fe938e27f0","ios":"levelo://app?vid=c8ecb9e8-276f-4b65-ac26-61fe938e27f0"},"vehicle_type_id":"4","last_reported":1747069743,"current_range_meters":19200,"station_id":"ce4bhh12rcd13ifvqff0","pricing_plan_id":"cebpf4jnsgd1na2vs0mg"},{"bike_id":"9d352004-7b2c-43e3-9328-20e4f737c9c4","system_id":"levelo_inurba_marseille","lat":43.262294,"lon":5.404539,"is_reserved":false,"is_disabled":true,"rental_uris":{"android":"levelo://app?vid=9d352004-7b2c-43e3-9328-20e4f737c9c4","ios":"levelo://app?vid=9d352004-7b2c-43e3-9328-20e4f737c9c4"},"vehicle_type_id":"4","last_reported":1747069743,"current_range_meters":19200,"station_id":"","pricing_plan_id":"cebpf4jnsgd1na2vs0mg"},{"bike_id":"8ef831d4-0dbc-4f70-892d-eef0645518c0","system_id":"levelo_inurba_marseille","lat":43.284587,"lon":5.358909,"is_reserved":false,"is_disabled":false,"rental_uris":{"android":"levelo://app?vid=8ef831d4-0dbc-4f70-892d-eef0645518c0","ios":"levelo://app?vid=8ef831d4-0dbc-4f70-892d-eef0645518c0"},"vehicle_type_id":"4","last_reported":1747069743,"current_range_meters":19200,"station_id":"ce4bhah2rcd13ifvqei0","pricing_plan_id":"cebpf4jnsgd1na2vs0mg"},{"bike_id":"34723325-e385-4ced-96a0-ef7700a8e18e","system_id":"levelo_inurba_marseille","lat":43.27623,"lon":5.36111,"is_reserved":false,"is_disabled":false,"rental_uris":{"android":"levelo://app?vid=34723325-e385-4ced-96a0-ef7700a8e18e","ios":"levelo://app?vid=34723325-e385-4ced-96a0-ef7700a8e18e"},"vehicle_type_id":"4","last_reported":1747069743,"current_range_meters":19200,"station_id":"ce4bgj92rcd13ifvqbe0","pricing_plan_id":"cebpf4jnsgd1na2vs0mg"},{"bike_id":"b716c534-ab9e-4c02-918c-1193c6594b9f","system_id":"levelo_inurba_marseille","lat":43.27916,"lon":5.39585,"is_reserved":false,"is_disabled":false,"rental_uris":{"android":"levelo://app?vid=b716c534-ab9e-4c02-918c-1193c6594b9f","ios":"levelo://app?vid=b716c534-ab9e-4c02-918c-1193c6594b9f"},"vehicle_type_id":"4","last_reported":1747069743,"current_range_meters":19200,"station_id":"ce4bhf92rcd13ifvqf40","pricing_plan_id":"cebpf4jnsgd1na2vs0mg"},{"bike_id":"100c94a2-15dd-423c-a3ed-5c56a971bd92","system_id":"levelo_inurba_marseille","lat":43.29602,"lon":5.38109,"is_reserved":false,"is_disabled":false,"rental_uris":{"android":"levelo://app?vid=100c94a2-15dd-423c-a3ed-5c56a971bd92","ios":"levelo://app?vid=100c94a2-15dd-423c-a3ed-5c56a971bd92"},"vehicle_type_id":"4","last_reported":1747069743,"current_range_meters":19200,"station_id":"ce4bgl12rcd13ifvqbo0","pricing_plan_id":"cebpf4jnsgd1na2vs0mg"},{"bike_id":"4b9e1978-161b-485e-b336-dcc7666ca4be","system_id":"levelo_inurba_marseille","lat":43.2439,"lon":5.37062,"is_reserved":false,"is_disabled":false,"rental_uris":{"android":"levelo://app?vid=4b9e1978-161b-485e-b336-dcc7666ca4be","ios":"levelo://app?vid=4b9e1978-161b-485e-b336-dcc7666ca4be"},"vehicle_type_id":"4","last_reported":1747069743,"current_range_meters":19200,"station_id":"ce4bhhh2rcd13ifvqfk0","pricing_plan_id":"cebpf4jnsgd1na2vs0mg"},{"bike_id":"d573424a-7e5e-4eb7-ac1b-b6657a78d40e","system_id":"levelo_inurba_marseille","lat":43.26027,"lon":5.37549,"is_reserved":false,"is_disabled":false,"rental_uris":{"android":"levelo://app?vid=d573424a-7e5e-4eb7-ac1b-b6657a78d40e","ios":"levelo://app?vid=d573424a-7e5e-4eb7-ac1b-b6657a78d40e"},"vehicle_type_id":"4","last_reported":1747069743,"current_range_meters":19200,"station_id":"ce4bhgh2rcd13ifvqfa0","pricing_plan_id":"cebpf4jnsgd1na2vs0mg"},{"bike_id":"5d180666-9867-4976-ac26-5e63cac1e791","system_id":"levelo_inurba_marseille","lat":43.273808,"lon":5.362468,"is_reserved":false,"is_disabled":false,"rental_uris":{"android":"levelo://app?vid=5d180666-9867-4976-ac26-5e63cac1e791","ios":"levelo://app?vid=5d180666-9867-4976-ac26-5e63cac1e791"},"vehicle_type_id":"4","last_reported":1747069743,"current_range_meters":19200,"station_id":"ce4bhbh2rcd13ifvqeo0","pricing_plan_id":"cebpf4jnsgd1na2vs0mg"},{"bike_id":"7812e4e3-8ccd-4f66-a476-845519a7eb14","system_id":"levelo_inurba_marseille","lat":43.26497,"lon":5.39541,"is_reserved":false,"is_disabled":false,"rental_uris":{"android":"levelo://app?vid=7812e4e3-8ccd-4f66-a476-845519a7eb14","ios":"levelo://app?vid=7812e4e3-8ccd-4f66-a476-845519a7eb14"},"vehicle_type_id":"4","last_reported":1747069743,"current_range_meters":19600,"station_id":"ce4bhi12rcd13ifvqfq0","pricing_plan_id":"cebpf4jnsgd1na2vs0mg"},{"bike_id":"6751c3af-2785-42de-bc81-f466abd046af","system_id":"levelo_inurba_marseille","lat":43.28414,"lon":5.34986,"is_reserved":false,"is_disabled":false,"rental_uris":{"android":"levelo://app?vid=6751c3af-2785-42de-bc81-f466abd046af","ios":"levelo://app?vid=6751c3af-2785-42de-bc81-f466abd046af"},"vehicle_type_id":"4","last_reported":1747069743,"current_range_meters":19600,"station_id":"ce4bhbh2rcd13ifvqepg","pricing_plan_id":"cebpf4jnsgd1na2vs0mg"},{"bike_id":"376c79f9-0121-4a19-be7d-982fa4ba3a93","system_id":"levelo_inurba_marseille","lat":43.29445,"lon":5.39741,"is_reserved":false,"is_disabled":false,"rental_uris":{"android":"levelo://app?vid=376c79f9-0121-4a19-be7d-982fa4ba3a93","ios":"levelo://app?vid=376c79f9-0121-4a19-be7d-982fa4ba3a93"},"vehicle_type_id":"4","last_reported":1747069743,"current_range_meters":20000,"station_id":"ce4bh3h2rcd13ifvqdo0","pricing_plan_id":"cebpf4jnsgd1na2vs0mg"},{"bike_id":"a06bfa24-0fe2-42eb-8d2c-c00e193d76f5","system_id":"levelo_inurba_marseille","lat":43.29043,"lon":5.39974,"is_reserved":false,"is_disabled":false,"rental_uris":{"android":"levelo://app?vid=a06bfa24-0fe2-42eb-8d2c-c00e193d76f5","ios":"levelo://app?vid=a06bfa24-0fe2-42eb-8d2c-c00e193d76f5"},"vehicle_type_id":"4","last_reported":1747069743,"current_range_meters":20000,"station_id":"ce4bh392rcd13ifvqdm0","pricing_plan_id":"cebpf4jnsgd1na2vs0mg"},{"bike_id":"b3695d1f-a405-4594-bd65-7454125e3234","system_id":"levelo_inurba_marseille","lat":43.27914,"lon":5.3961,"is_reserved":false,"is_disabled":false,"rental_uris":{"android":"levelo://app?vid=b3695d1f-a405-4594-bd65-7454125e3234","ios":"levelo://app?vid=b3695d1f-a405-4594-bd65-7454125e3234"},"vehicle_type_id":"4","last_reported":1747069743,"current_range_meters":20000,"station_id":"ce4bhf92rcd13ifvqf40","pricing_plan_id":"cebpf4jnsgd1na2vs0mg"},{"bike_id":"e4c6849f-425a-4330-b691-a02ccd840d09","system_id":"levelo_inurba_marseille","lat":43.3108,"lon":5.38353,"is_reserved":false,"is_disabled":false,"rental_uris":{"android":"levelo://app?vid=e4c6849f-425a-4330-b691-a02ccd840d09","ios":"levelo://app?vid=e4c6849f-425a-4330-b691-a02ccd840d09"},"vehicle_type_id":"4","last_reported":1747069743,"current_range_meters":20000,"station_id":"ce4bgv92rcd13ifvqcr0","pricing_plan_id":"cebpf4jnsgd1na2vs0mg"},{"bike_id":"479a2bc2-12a4-4273-a2ea-fb374ddee908","system_id":"levelo_inurba_marseille","lat":43.30652,"lon":5.40103,"is_reserved":false,"is_disabled":false,"rental_uris":{"android":"levelo://app?vid=479a2bc2-12a4-4273-a2ea-fb374ddee908","ios":"levelo://app?vid=479a2bc2-12a4-4273-a2ea-fb374ddee908"},"vehicle_type_id":"4","last_reported":1747069743,"current_range_meters":20000,"station_id":"ce4bh112rcd13ifvqda0","pricing_plan_id":"cebpf4jnsgd1na2vs0mg"},{"bike_id":"af82d067-af4f-4edf-af4e-fa59594316c5","system_id":"levelo_inurba_marseille","lat":43.29848,"lon":5.36288,"is_reserved":false,"is_disabled":false,"rental_uris":{"android":"levelo://app?vid=af82d067-af4f-4edf-af4e-fa59594316c5","ios":"levelo://app?vid=af82d067-af4f-4edf-af4e-fa59594316c5"},"vehicle_type_id":"4","last_reported":1747069743,"current_range_meters":20000,"station_id":"ce4bgpp2rcd13ifvqc3g","pricing_plan_id":"cebpf4jnsgd1na2vs0mg"},{"bike_id":"478567e8-0499-4b74-a6a5-518206de00bf","system_id":"levelo_inurba_marseille","lat":43.30096,"lon":5.39078,"is_reserved":false,"is_disabled":false,"rental_uris":{"android":"levelo://app?vid=478567e8-0499-4b74-a6a5-518206de00bf","ios":"levelo://app?vid=478567e8-0499-4b74-a6a5-518206de00bf"},"vehicle_type_id":"4","last_reported":1747069743,"current_range_meters":20400,"station_id":"ce4bh192rcd13ifvqdb0","pricing_plan_id":"cebpf4jnsgd1na2vs0mg"},{"bike_id":"a4cd779f-42d3-4004-ace7-bc70fe281327","system_id":"levelo_inurba_marseille","lat":43.31713,"lon":5.37767,"is_reserved":false,"is_disabled":false,"rental_uris":{"android":"levelo://app?vid=a4cd779f-42d3-4004-ace7-bc70fe281327","ios":"levelo://app?vid=a4cd779f-42d3-4004-ace7-bc70fe281327"},"vehicle_type_id":"4","last_reported":1747069743,"current_range_meters":20000,"station_id":"ce4bgth2rcd13ifvqch0","pricing_plan_id":"cebpf4jnsgd1na2vs0mg"},{"bike_id":"2fdc8039-2a91-416c-8148-d1e7c0df93ae","system_id":"levelo_inurba_marseille","lat":43.22916,"lon":5.354,"is_reserved":false,"is_disabled":true,"rental_uris":{"android":"levelo://app?vid=2fdc8039-2a91-416c-8148-d1e7c0df93ae","ios":"levelo://app?vid=2fdc8039-2a91-416c-8148-d1e7c0df93ae"},"vehicle_type_id":"4","last_reported":1747069743,"current_range_meters":20400,"station_id":"cpo3532slgdg3j2ikp40","pricing_plan_id":"cebpf4jnsgd1na2vs0mg"},{"bike_id":"26befc81-9294-443b-bf1a-ab250a6faeb5","system_id":"levelo_inurba_marseille","lat":43.28664,"lon":5.36351,"is_reserved":false,"is_disabled":false,"rental_uris":{"android":"levelo://app?vid=26befc81-9294-443b-bf1a-ab250a6faeb5","ios":"levelo://app?vid=26befc81-9294-443b-bf1a-ab250a6faeb5"},"vehicle_type_id":"4","last_reported":1747069743,"current_range_meters":20400,"station_id":"ce4bhah2rcd13ifvqej0","pricing_plan_id":"cebpf4jnsgd1na2vs0mg"},{"bike_id":"003292fd-04cc-4be5-82b6-5f0168a0ed5d","system_id":"levelo_inurba_marseille","lat":43.27991,"lon":5.400211,"is_reserved":false,"is_disabled":false,"rental_uris":{"android":"levelo://app?vid=003292fd-04cc-4be5-82b6-5f0168a0ed5d","ios":"levelo://app?vid=003292fd-04cc-4be5-82b6-5f0168a0ed5d"},"vehicle_type_id":"4","last_reported":1747069743,"current_range_meters":20800,"station_id":"ce4bho92rcd13ifvqh4g","pricing_plan_id":"cebpf4jnsgd1na2vs0mg"},{"bike_id":"24089a23-5e7c-4fe3-91a1-bdbaa64db2e7","system_id":"levelo_inurba_marseille","lat":43.244617,"lon":5.372535,"is_reserved":false,"is_disabled":false,"rental_uris":{"android":"levelo://app?vid=24089a23-5e7c-4fe3-91a1-bdbaa64db2e7","ios":"levelo://app?vid=24089a23-5e7c-4fe3-91a1-bdbaa64db2e7"},"vehicle_type_id":"4","last_reported":1747069743,"current_range_meters":20800,"station_id":"ce4bhhh2rcd13ifvqfk0","pricing_plan_id":"cebpf4jnsgd1na2vs0mg"},{"bike_id":"a4356a14-2403-48f1-93be-3961c7251c69","system_id":"levelo_inurba_marseille","lat":43.279945,"lon":5.400327,"is_reserved":false,"is_disabled":false,"rental_uris":{"android":"levelo://app?vid=a4356a14-2403-48f1-93be-3961c7251c69","ios":"levelo://app?vid=a4356a14-2403-48f1-93be-3961c7251c69"},"vehicle_type_id":"4","last_reported":1747069743,"current_range_meters":20400,"station_id":"ce4bho92rcd13ifvqh4g","pricing_plan_id":"cebpf4jnsgd1na2vs0mg"},{"bike_id":"33ee0545-3503-4faa-9aa1-9aeaa91dfb41","system_id":"levelo_inurba_marseille","lat":43.24382,"lon":5.37094,"is_reserved":false,"is_disabled":false,"rental_uris":{"android":"levelo://app?vid=33ee0545-3503-4faa-9aa1-9aeaa91dfb41","ios":"levelo://app?vid=33ee0545-3503-4faa-9aa1-9aeaa91dfb41"},"vehicle_type_id":"4","last_reported":1747069743,"current_range_meters":20800,"station_id":"ce4bhhh2rcd13ifvqfk0","pricing_plan_id":"cebpf4jnsgd1na2vs0mg"},{"bike_id":"d3fcd32d-41ef-4aee-a285-67b0eb4b678b","system_id":"levelo_inurba_marseille","lat":43.29629,"lon":5.406,"is_reserved":false,"is_disabled":false,"rental_uris":{"android":"levelo://app?vid=d3fcd32d-41ef-4aee-a285-67b0eb4b678b","ios":"levelo://app?vid=d3fcd32d-41ef-4aee-a285-67b0eb4b678b"},"vehicle_type_id":"4","last_reported":1747069743,"current_range_meters":20800,"station_id":"ce4bh0h2rcd13ifvqd60","pricing_plan_id":"cebpf4jnsgd1na2vs0mg"},{"bike_id":"c1234833-9229-4e89-b9fe-8e9717a034dd","system_id":"levelo_inurba_marseille","lat":43.32362,"lon":5.38866,"is_reserved":false,"is_disabled":false,"rental_uris":{"android":"levelo://app?vid=c1234833-9229-4e89-b9fe-8e9717a034dd","ios":"levelo://app?vid=c1234833-9229-4e89-b9fe-8e9717a034dd"},"vehicle_type_id":"4","last_reported":1747069743,"current_range_meters":21600,"station_id":"ce4bhqp2rcd13ifvqhog","pricing_plan_id":"cebpf4jnsgd1na2vs0mg"},{"bike_id":"075cf952-f4c3-4006-9094-2d6a226fedcf","system_id":"levelo_inurba_marseille","lat":43.29047,"lon":5.35923,"is_reserved":false,"is_disabled":false,"rental_uris":{"android":"levelo://app?vid=075cf952-f4c3-4006-9094-2d6a226fedcf","ios":"levelo://app?vid=075cf952-f4c3-4006-9094-2d6a226fedcf"},"vehicle_type_id":"4","last_reported":1747069743,"current_range_meters":20800,"station_id":"ce4bha92rcd13ifvqeg0","pricing_plan_id":"cebpf4jnsgd1na2vs0mg"},{"bike_id":"62398ff0-a56d-4a64-9100-f8ac11ea56dd","system_id":"levelo_inurba_marseille","lat":43.28416,"lon":5.34977,"is_reserved":false,"is_disabled":false,"rental_uris":{"android":"levelo://app?vid=62398ff0-a56d-4a64-9100-f8ac11ea56dd","ios":"levelo://app?vid=62398ff0-a56d-4a64-9100-f8ac11ea56dd"},"vehicle_type_id":"4","last_reported":1747069743,"current_range_meters":21600,"station_id":"ce4bhbh2rcd13ifvqepg","pricing_plan_id":"cebpf4jnsgd1na2vs0mg"},{"bike_id":"12f0ef94-a22c-4bab-bf74-34f4eac6da8e","system_id":"levelo_inurba_marseille","lat":43.29196,"lon":5.35809,"is_reserved":false,"is_disabled":false,"rental_uris":{"android":"levelo://app?vid=12f0ef94-a22c-4bab-bf74-34f4eac6da8e","ios":"levelo://app?vid=12f0ef94-a22c-4bab-bf74-34f4eac6da8e"},"vehicle_type_id":"4","last_reported":1747069743,"current_range_meters":21600,"station_id":"ce4bhb12rcd13ifvqel0","pricing_plan_id":"cebpf4jnsgd1na2vs0mg"},{"bike_id":"e1685e6f-1c82-4f20-b256-99fc36924c4c","system_id":"levelo_inurba_marseille","lat":43.31998,"lon":5.38131,"is_reserved":false,"is_disabled":true,"rental_uris":{"android":"levelo://app?vid=e1685e6f-1c82-4f20-b256-99fc36924c4c","ios":"levelo://app?vid=e1685e6f-1c82-4f20-b256-99fc36924c4c"},"vehicle_type_id":"4","last_reported":1747069743,"current_range_meters":21600,"station_id":"ce4bhr12rcd13ifvqhpg","pricing_plan_id":"cebpf4jnsgd1na2vs0mg"},{"bike_id":"d36e3d25-6cf8-44a0-a137-c5db9cb1a515","system_id":"levelo_inurba_marseille","lat":43.31496,"lon":5.37313,"is_reserved":false,"is_disabled":false,"rental_uris":{"android":"levelo://app?vid=d36e3d25-6cf8-44a0-a137-c5db9cb1a515","ios":"levelo://app?vid=d36e3d25-6cf8-44a0-a137-c5db9cb1a515"},"vehicle_type_id":"4","last_reported":1747069743,"current_range_meters":21600,"station_id":"ce4bgt12rcd13ifvqcd0","pricing_plan_id":"cebpf4jnsgd1na2vs0mg"},{"bike_id":"24b7fa64-41a8-4990-8c01-66e19c41547b","system_id":"levelo_inurba_marseille","lat":43.286601,"lon":5.386699,"is_reserved":false,"is_disabled":true,"rental_uris":{"android":"levelo://app?vid=24b7fa64-41a8-4990-8c01-66e19c41547b","ios":"levelo://app?vid=24b7fa64-41a8-4990-8c01-66e19c41547b"},"vehicle_type_id":"4","last_reported":1747069743,"current_range_meters":21600,"station_id":"","pricing_plan_id":"cebpf4jnsgd1na2vs0mg"},{"bike_id":"856570c1-c8a0-4b4c-83d9-4043adb4fa22","system_id":"levelo_inurba_marseille","lat":43.29029,"lon":5.38654,"is_reserved":false,"is_disabled":false,"rental_uris":{"android":"levelo://app?vid=856570c1-c8a0-4b4c-83d9-4043adb4fa22","ios":"levelo://app?vid=856570c1-c8a0-4b4c-83d9-4043adb4fa22"},"vehicle_type_id":"4","last_reported":1747069743,"current_range_meters":22000,"station_id":"ce4bh4p2rcd13ifvqe0g","pricing_plan_id":"cebpf4jnsgd1na2vs0mg"},{"bike_id":"6d9f02a1-f704-4c8a-a9bb-7b17f6a455fb","system_id":"levelo_inurba_marseille","lat":43.2809,"lon":5.39636,"is_reserved":false,"is_disabled":false,"rental_uris":{"android":"levelo://app?vid=6d9f02a1-f704-4c8a-a9bb-7b17f6a455fb","ios":"levelo://app?vid=6d9f02a1-f704-4c8a-a9bb-7b17f6a455fb"},"vehicle_type_id":"4","last_reported":1747069743,"current_range_meters":21600,"station_id":"ce4bho12rcd13ifvqh2g","pricing_plan_id":"cebpf4jnsgd1na2vs0mg"},{"bike_id":"1095b252-790e-4155-ab4e-86136a24d6fc","system_id":"levelo_inurba_marseille","lat":43.28462,"lon":5.35911,"is_reserved":false,"is_disabled":false,"rental_uris":{"android":"levelo://app?vid=1095b252-790e-4155-ab4e-86136a24d6fc","ios":"levelo://app?vid=1095b252-790e-4155-ab4e-86136a24d6fc"},"vehicle_type_id":"4","last_reported":1747069743,"current_range_meters":22000,"station_id":"ce4bhah2rcd13ifvqei0","pricing_plan_id":"cebpf4jnsgd1na2vs0mg"},{"bike_id":"a6613d3f-10bf-4275-a3fe-2d2c08b0abd0","system_id":"levelo_inurba_marseille","lat":43.24653,"lon":5.38902,"is_reserved":false,"is_disabled":false,"rental_uris":{"android":"levelo://app?vid=a6613d3f-10bf-4275-a3fe-2d2c08b0abd0","ios":"levelo://app?vid=a6613d3f-10bf-4275-a3fe-2d2c08b0abd0"},"vehicle_type_id":"4","last_reported":1747069743,"current_range_meters":22400,"station_id":"ce4bhg12rcd13ifvqf60","pricing_plan_id":"cebpf4jnsgd1na2vs0mg"},{"bike_id":"da6e51ee-1f71-4d45-bd31-887cc58a524a","system_id":"levelo_inurba_marseille","lat":43.29276,"lon":5.40114,"is_reserved":false,"is_disabled":false,"rental_uris":{"android":"levelo://app?vid=da6e51ee-1f71-4d45-bd31-887cc58a524a","ios":"levelo://app?vid=da6e51ee-1f71-4d45-bd31-887cc58a524a"},"vehicle_type_id":"4","last_reported":1747069743,"current_range_meters":22400,"station_id":"ce4bh312rcd13ifvqdk0","pricing_plan_id":"cebpf4jnsgd1na2vs0mg"},{"bike_id":"dc641743-b968-4496-812a-3b41120ce533","system_id":"levelo_inurba_marseille","lat":43.28416,"lon":5.35001,"is_reserved":false,"is_disabled":false,"rental_uris":{"android":"levelo://app?vid=dc641743-b968-4496-812a-3b41120ce533","ios":"levelo://app?vid=dc641743-b968-4496-812a-3b41120ce533"},"vehicle_type_id":"4","last_reported":1747069743,"current_range_meters":22400,"station_id":"ce4bhbh2rcd13ifvqepg","pricing_plan_id":"cebpf4jnsgd1na2vs0mg"},{"bike_id":"1e297e0e-a907-489c-9a22-1dfb89bfb64f","system_id":"levelo_inurba_marseille","lat":43.29216,"lon":5.36403,"is_reserved":false,"is_disabled":true,"rental_uris":{"android":"levelo://app?vid=1e297e0e-a907-489c-9a22-1dfb89bfb64f","ios":"levelo://app?vid=1e297e0e-a907-489c-9a22-1dfb89bfb64f"},"vehicle_type_id":"4","last_reported":1747069743,"current_range_meters":22400,"station_id":"","pricing_plan_id":"cebpf4jnsgd1na2vs0mg"},{"bike_id":"e83dcaca-181c-4b02-bf44-8d4da8809b5b","system_id":"levelo_inurba_marseille","lat":43.31696,"lon":5.43692,"is_reserved":false,"is_disabled":false,"rental_uris":{"android":"levelo://app?vid=e83dcaca-181c-4b02-bf44-8d4da8809b5b","ios":"levelo://app?vid=e83dcaca-181c-4b02-bf44-8d4da8809b5b"},"vehicle_type_id":"4","last_reported":1747069743,"current_range_meters":22400,"station_id":"ce4bhp92rcd13ifvqhcg","pricing_plan_id":"cebpf4jnsgd1na2vs0mg"},{"bike_id":"3161144a-408c-4586-b7ff-23edd431593d","system_id":"levelo_inurba_marseille","lat":43.28636,"lon":5.35085,"is_reserved":false,"is_disabled":true,"rental_uris":{"android":"levelo://app?vid=3161144a-408c-4586-b7ff-23edd431593d","ios":"levelo://app?vid=3161144a-408c-4586-b7ff-23edd431593d"},"vehicle_type_id":"4","last_reported":1747069743,"current_range_meters":22400,"station_id":"ce4bhch2rcd13ifvqeug","pricing_plan_id":"cebpf4jnsgd1na2vs0mg"},{"bike_id":"2265da67-9c2a-41ea-b470-7908073ecbfa","system_id":"levelo_inurba_marseille","lat":43.29417,"lon":5.38627,"is_reserved":false,"is_disabled":false,"rental_uris":{"android":"levelo://app?vid=2265da67-9c2a-41ea-b470-7908073ecbfa","ios":"levelo://app?vid=2265da67-9c2a-41ea-b470-7908073ecbfa"},"vehicle_type_id":"4","last_reported":1747069743,"current_range_meters":22400,"station_id":"ce4bh2h2rcd13ifvqdh0","pricing_plan_id":"cebpf4jnsgd1na2vs0mg"},{"bike_id":"ded21d3b-017a-431c-a119-0da980f4a122","system_id":"levelo_inurba_marseille","lat":43.28426,"lon":5.34988,"is_reserved":false,"is_disabled":false,"rental_uris":{"android":"levelo://app?vid=ded21d3b-017a-431c-a119-0da980f4a122","ios":"levelo://app?vid=ded21d3b-017a-431c-a119-0da980f4a122"},"vehicle_type_id":"4","last_reported":1747069743,"current_range_meters":22400,"station_id":"ce4bhbh2rcd13ifvqepg","pricing_plan_id":"cebpf4jnsgd1na2vs0mg"},