{"last_updated":1700924779,"ttl":30,"version":"2.2","data":{"bikes":[{"bike_id":"9405d022-4ae9-40f8-b33e-bcea9924e817","system_id":"levelo_inurba_marseille","lat":43.312239,"lon":5.368562,"is_reserved":false,"is_disabled":false,"rental_uris":{"android":"levelo://app?vid=9405d022-4ae9-40f8-b33e-bcea9924e817","ios":"levelo://app?vid=9405d022-4ae9-40f8-b33e-bcea9924e817"},"vehicle_type_id":"4","last_reported":1700924780,"current_range_meters":20000,"station_id":"ce4bgl92rcd13ifvqbq0","pricing_plan_id":"free"},{"bike_id":"9f719329-13b9-4dd0-b5af-194af30403b9","system_id":"levelo_inurba_marseille","lat":43.314811,"lon":5.373103,"is_reserved":false,"is_disabled":false,"rental_uris":{"android":"levelo://app?vid=9f719329-13b9-4dd0-b5af-194af30403b9","ios":"levelo://app?vid=9f719329-13b9-4dd0-b5af-194af30403b9"},"vehicle_type_id":"4","last_reported":1700924780,"current_range_meters":19200,"station_id":"ce4bgt12rcd13ifvqcd0","pricing_plan_id":"free"},{"bike_id":"a810cd71-538b-4ae3-8f42-656ac2cafd6e","system_id":"levelo_inurba_marseille","lat":43.314811,"lon":5.373103,"is_reserved":false,"is_disabled":false,"rental_uris":{"android":"levelo://app?vid=a810cd71-538b-4ae3-8f42-656ac2cafd6e","ios":"levelo://app?vid=a810cd71-538b-4ae3-8f42-656ac2cafd6e"},"vehicle_type_id":"4","last_reported":1700924780,"current_range_meters":6400,"station_id":"ce4bgt12rcd13ifvqcd0","pricing_plan_id":"free"},{"bike_id":"8520664a-9b5e-4ae0-91c9-ab2a9651212d","system_id":"levelo_inurba_marseille","lat":43.309039,"lon":5.371797,"is_reserved":false,"is_disabled":false,"rental_uris":{"android":"levelo://app?vid=8520664a-9b5e-4ae0-91c9-ab2a9651212d","ios":"levelo://app?vid=8520664a-9b5e-4ae0-91c9-ab2a9651212d"},"vehicle_type_id":"4","last_reported":1700924780,"current_range_meters":5200,"station_id":"ce4bguh2rcd13ifvqckg","pricing_plan_id":"free"},{"bike_id":"c28cfb57-bc9a-4d06-bcd4-1da03ab86f76","system_id":"levelo_inurba_marseille","lat":43.309039,"lon":5.371797,"is_reserved":false,"is_disabled":false,"rental_uris":{"android":"levelo://app?vid=c28cfb57-bc9a-4d06-bcd4-1da03ab86f76","ios":"levelo://app?vid=c28cfb57-bc9a-4d06-bcd4-1da03ab86f76"},"vehicle_type_id":"4","last_reported":1700924780,"current_range_meters":29200,"station_id":"ce4bguh2rcd13ifvqckg","pricing_plan_id":"free"},{"bike_id":"2c4e2ab4-2bc9-4e71-8e28-b7f9c78b7444","system_id":"levelo_inurba_marseille","lat":43.305714,"lon":5.365633,"is_reserved":false,"is_disabled":false,"rental_uris":{"android":"levelo://app?vid=2c4e2ab4-2bc9-4e71-8e28-b7f9c78b7444","ios":"levelo://app?vid=2c4e2ab4-2bc9-4e71-8e28-b7f9c78b7444"},"vehicle_type_id":"4","last_reported":1700924780,"current_range_meters":3600,"station_id":"ce4bgs12rcd13ifvqcag","pricing_plan_id":"free"},{"bike_id":"033d3d23-2a09-44c2-95ed-7ee870959043","system_id":"levelo_inurba_marseille","lat":43.305712,"lon":5.365641,"is_reserved":false,"is_disabled":false,"rental_uris":{"android":"levelo://app?vid=033d3d23-2a09-44c2-95ed-7ee870959043","ios":"levelo://app?vid=033d3d23-2a09-44c2-95ed-7ee870959043"},"vehicle_type_id":"4","last_reported":1700924780,"current_range_meters":12400,"station_id":"ce4bgs12rcd13ifvqcag","pricing_plan_id":"free"},{"bike_id":"e9f9db26-db34-44e6-bc6a-ca97aaf4791e","system_id":"levelo_inurba_marseille","lat":43.305712,"lon":5.365641,"is_reserved":false,"is_disabled":false,"rental_uris":{"android":"levelo://app?vid=e9f9db26-db34-44e6-bc6a-ca97aaf4791e","ios":"levelo://app?vid=e9f9db26-db34-44e6-bc6a-ca97aaf4791e"},"vehicle_type_id":"4","last_reported":1700924780,"current_range_meters":6400,"station_id":"ce4bgs12rcd13ifvqcag","pricing_plan_id":"free"},{"bike_id":"c0939ad5-9412-4987-bfa6-461f4b2146f5","system_id":"levelo_inurba_marseille","lat":43.305712,"lon":5.365641,"is_reserved":false,"is_disabled":false,"rental_uris":{"android":"levelo://app?vid=c0939ad5-9412-4987-bfa6-461f4b2146f5","ios":"levelo://app?vid=c0939ad5-9412-4987-bfa6-461f4b2146f5"},"vehicle_type_id":"4","last_reported":1700924780,"current_range_meters":30800,"station_id":"ce4bgs12rcd13ifvqcag","pricing_plan_id":"free"},{"bike_id":"0f06ab3c-39c7-4830-a426-d8dc5cf2ae47","system_id":"levelo_inurba_marseille","lat":43.305712,"lon":5.365641,"is_reserved":false,"is_disabled":false,"rental_uris":{"android":"levelo://app?vid=0f06ab3c-39c7-4830-a426-d8dc5cf2ae47","ios":"levelo://app?vid=0f06ab3c-39c7-4830-a426-d8dc5cf2ae47"},"vehicle_type_id":"4","last_reported":1700924780,"current_range_meters":10000,"station_id":"ce4bgs12rcd13ifvqcag","pricing_plan_id":"free"},{"bike_id":"717489af-e22d-45f6-bf04-178ea8488412","system_id":"levelo_inurba_marseille","lat":43.3054,"lon":5.36548,"is_reserved":false,"is_disabled":false,"rental_uris":{"android":"levelo://app?vid=717489af-e22d-45f6-bf04-178ea8488412","ios":"levelo://app?vid=717489af-e22d-45f6-bf04-178ea8488412"},"vehicle_type_id":"4","last_reported":1700924780,"current_range_meters":25200,"station_id":"ce4bgs12rcd13ifvqcag","pricing_plan_id":"free"},{"bike_id":"c701327b-50c6-4c72-8597-3caa9a493cce","system_id":"levelo_inurba_marseille","lat":43.30537,"lon":5.36551,"is_reserved":false,"is_disabled":false,"rental_uris":{"android":"levelo://app?vid=c701327b-50c6-4c72-8597-3caa9a493cce","ios":"levelo://app?vid=c701327b-50c6-4c72-8597-3caa9a493cce"},"vehicle_type_id":"4","last_reported":1700924780,"current_range_meters":21600,"station_id":"ce4bgs12rcd13ifvqcag","pricing_plan_id":"free"},{"bike_id":"f171c769-5659-4432-b763-8d65b510990a","system_id":"levelo_inurba_marseille","lat":43.30536,"lon":5.36553,"is_reserved":false,"is_disabled":false,"rental_uris":{"android":"levelo://app?vid=f171c769-5659-4432-b763-8d65b510990a","ios":"levelo://app?vid=f171c769-5659-4432-b763-8d65b510990a"},"vehicle_type_id":"4","last_reported":1700924780,"current_range_meters":0,"station_id":"ce4bgs12rcd13ifvqcag","pricing_plan_id":"free"},{"bike_id":"ecf3876e-7eb6-48bf-b2e8-ab27d8c15b5b","system_id":"levelo_inurba_marseille","lat":43.30529,"lon":5.36715,"is_reserved":false,"is_disabled":false,"rental_uris":{"android":"levelo://app?vid=ecf3876e-7eb6-48bf-b2e8-ab27d8c15b5b","ios":"levelo://app?vid=ecf3876e-7eb6-48bf-b2e8-ab27d8c15b5b"},"vehicle_type_id":"4","last_reported":1700924780,"current_range_meters":3200,"station_id":"ce4bgrp2rcd13ifvqc9g","pricing_plan_id":"free"},{"bike_id":"133910b2-1b78-4789-a703-8b36d86bce4e","system_id":"levelo_inurba_marseille","lat":43.30534,"lon":5.365477,"is_reserved":false,"is_disabled":false,"rental_uris":{"android":"levelo://app?vid=133910b2-1b78-4789-a703-8b36d86bce4e","ios":"levelo://app?vid=133910b2-1b78-4789-a703-8b36d86bce4e"},"vehicle_type_id":"4","last_reported":1700924780,"current_range_meters":4000,"station_id":"ce4bgs12rcd13ifvqcag","pricing_plan_id":"free"},{"bike_id":"a2d2e221-b046-4d96-8a9f-1be321795ed3","system_id":"levelo_inurba_marseille","lat":43.305368,"lon":5.367343,"is_reserved":false,"is_disabled":false,"rental_uris":{"android":"levelo://app?vid=a2d2e221-b046-4d96-8a9f-1be321795ed3","ios":"levelo://app?vid=a2d2e221-b046-4d96-8a9f-1be321795ed3"},"vehicle_type_id":"4","last_reported":1700924780,"current_range_meters":10000,"station_id":"ce4bgrp2rcd13ifvqc9g","pricing_plan_id":"free"},{"bike_id":"573a870a-b6c4-429d-8587-8103772b84bc","system_id":"levelo_inurba_marseille","lat":43.308169,"lon":5.376561,"is_reserved":false,"is_disabled":false,"rental_uris":{"android":"levelo://app?vid=573a870a-b6c4-429d-8587-8103772b84bc","ios":"levelo://app?vid=573a870a-b6c4-429d-8587-8103772b84bc"},"vehicle_type_id":"4","last_reported":1700924780,"current_range_meters":4800,"station_id":"ce4bgv92rcd13ifvqcq0","pricing_plan_id":"free"},{"bike_id":"f427a2c3-6e4a-446b-ae2f-9be8aa7f4122","system_id":"levelo_inurba_marseille","lat":43.31719,"lon":5.376813,"is_reserved":false,"is_disabled":false,"rental_uris":{"android":"levelo://app?vid=f427a2c3-6e4a-446b-ae2f-9be8aa7f4122","ios":"levelo://app?vid=f427a2c3-6e4a-446b-ae2f-9be8aa7f4122"},"vehicle_type_id":"4","last_reported":1700924780,"current_range_meters":24400,"station_id":"ce4bgth2rcd13ifvqch0","pricing_plan_id":"free"},{"bike_id":"b898b018-f57d-4901-bab2-fdd15d391de9","system_id":"levelo_inurba_marseille","lat":43.317168,"lon":5.376883,"is_reserved":false,"is_disabled":false,"rental_uris":{"android":"levelo://app?vid=b898b018-f57d-4901-bab2-fdd15d391de9","ios":"levelo://app?vid=b898b018-f57d-4901-bab2-fdd15d391de9"},"vehicle_type_id":"4","last_reported":1700924780,"current_range_meters":26800,"station_id":"ce4bgth2rcd13ifvqch0","pricing_plan_id":"free"},{"bike_id":"e15e1b5a-a7e6-4af4-bfe1-4ed1fa5ace45","system_id":"levelo_inurba_marseille","lat":43.317075,"lon":5.377367,"is_reserved":false,"is_disabled":false,"rental_uris":{"android":"levelo://app?vid=e15e1b5a-a7e6-4af4-bfe1-4ed1fa5ace45","ios":"levelo://app?vid=e15e1b5a-a7e6-4af4-bfe1-4ed1fa5ace45"},"vehicle_type_id":"4","last_reported":1700924780,"current_range_meters":27200,"station_id":"ce4bgth2rcd13ifvqch0","pricing_plan_id":"free"},{"bike_id":"9efdf5ac-6ace-44bc-8d78-0465b5818fe8","system_id":"levelo_inurba_marseille","lat":43.31531,"lon":5.38038,"is_reserved":false,"is_disabled":false,"rental_uris":{"android":"levelo://app?vid=9efdf5ac-6ace-44bc-8d78-0465b5818fe8","ios":"levelo://app?vid=9efdf5ac-6ace-44bc-8d78-0465b5818fe8"},"vehicle_type_id":"4","last_reported":1700924780,"current_range_meters":25600,"station_id":"ce4bhsp2rcd13ifvqi50","pricing_plan_id":"free"},{"bike_id":"dc729085-f9bd-43b0-a4ab-83dfc336aae2","system_id":"levelo_inurba_marseille","lat":43.301939,"lon":5.366286,"is_reserved":false,"is_disabled":false,"rental_uris":{"android":"levelo://app?vid=dc729085-f9bd-43b0-a4ab-83dfc336aae2","ios":"levelo://app?vid=dc729085-f9bd-43b0-a4ab-83dfc336aae2"},"vehicle_type_id":"4","last_reported":1700924780,"current_range_meters":28800,"station_id":"ce4bgrh2rcd13ifvqc8g","pricing_plan_id":"free"},{"bike_id":"c209c19f-bf8d-426a-81ba-b0f6a69b4c0f","system_id":"levelo_inurba_marseille","lat":43.301939,"lon":5.366286,"is_reserved":false,"is_disabled":false,"rental_uris":{"android":"levelo://app?vid=c209c19f-bf8d-426a-81ba-b0f6a69b4c0f","ios":"levelo://app?vid=c209c19f-bf8d-426a-81ba-b0f6a69b4c0f"},"vehicle_type_id":"4","last_reported":1700924780,"current_range_meters":1200,"station_id":"ce4bgrh2rcd13ifvqc8g","pricing_plan_id":"free"},{"bike_id":"910c6cef-54b2-4153-92eb-7ab869189ad0","system_id":"levelo_inurba_marseille","lat":43.301939,"lon":5.366286,"is_reserved":false,"is_disabled":false,"rental_uris":{"android":"levelo://app?vid=910c6cef-54b2-4153-92eb-7ab869189ad0","ios":"levelo://app?vid=910c6cef-54b2-4153-92eb-7ab869189ad0"},"vehicle_type_id":"4","last_reported":1700924780,"current_range_meters":11600,"station_id":"ce4bgrh2rcd13ifvqc8g","pricing_plan_id":"free"},{"bike_id":"82abdd55-be93-4de3-9845-d3c9387969d0","system_id":"levelo_inurba_marseille","lat":43.313571,"lon":5.384829,"is_reserved":false,"is_disabled":false,"rental_uris":{"android":"levelo://app?vid=82abdd55-be93-4de3-9845-d3c9387969d0","ios":"levelo://app?vid=82abdd55-be93-4de3-9845-d3c9387969d0"},"vehicle_type_id":"4","last_reported":1700924780,"current_range_meters":16800,"station_id":"ce4bgt92rcd13ifvqcf0","pricing_plan_id":"free"},{"bike_id":"8b9dc6c5-fa30-4f07-8a12-8896c0654b68","system_id":"levelo_inurba_marseille","lat":43.313571,"lon":5.384829,"is_reserved":false,"is_disabled":false,"rental_uris":{"android":"levelo://app?vid=8b9dc6c5-fa30-4f07-8a12-8896c0654b68","ios":"levelo://app?vid=8b9dc6c5-fa30-4f07-8a12-8896c0654b68"},"vehicle_type_id":"4","last_reported":1700924780,"current_range_meters":25600,"station_id":"ce4bgt92rcd13ifvqcf0","pricing_plan_id":"free"},{"bike_id":"7b759a63-9068-4a5d-80ce-dd8663842938","system_id":"levelo_inurba_marseille","lat":43.299724,"lon":5.371829,"is_reserved":false,"is_disabled":false,"rental_uris":{"android":"levelo://app?vid=7b759a63-9068-4a5d-80ce-dd8663842938","ios":"levelo://app?vid=7b759a63-9068-4a5d-80ce-dd8663842938"},"vehicle_type_id":"4","last_reported":1700924780,"current_range_meters":14400,"station_id":"ce4bgr92rcd13ifvqc7g","pricing_plan_id":"free"},{"bike_id":"36a5e744-a315-4f3f-881e-6977978827c3","system_id":"levelo_inurba_marseille","lat":43.298433,"lon":5.362774,"is_reserved":false,"is_disabled":false,"rental_uris":{"android":"levelo://app?vid=36a5e744-a315-4f3f-881e-6977978827c3","ios":"levelo://app?vid=36a5e744-a315-4f3f-881e-6977978827c3"},"vehicle_type_id":"4","last_reported":1700924780,"current_range_meters":28000,"station_id":"ce4bgpp2rcd13ifvqc3g","pricing_plan_id":"free"},{"bike_id":"79db08d7-c27f-497f-9bae-099123fafc3e","system_id":"levelo_inurba_marseille","lat":43.298433,"lon":5.362774,"is_reserved":false,"is_disabled":false,"rental_uris":{"android":"levelo://app?vid=79db08d7-c27f-497f-9bae-099123fafc3e","ios":"levelo://app?vid=79db08d7-c27f-497f-9bae-099123fafc3e"},"vehicle_type_id":"4","last_reported":1700924780,"current_range_meters":28000,"station_id":"ce4bgpp2rcd13ifvqc3g","pricing_plan_id":"free"},{"bike_id":"95825c38-6c59-4753-b43e-2f944bdb26b9","system_id":"levelo_inurba_marseille","lat":43.32822,"lon":5.36689,"is_reserved":false,"is_disabled":false,"rental_uris":{"android":"levelo://app?vid=95825c38-6c59-4753-b43e-2f944bdb26b9","ios":"levelo://app?vid=95825c38-6c59-4753-b43e-2f944bdb26b9"},"vehicle_type_id":"4","last_reported":1700924780,"current_range_meters":15600,"station_id":"ce4bhs92rcd13ifvqi0g","pricing_plan_id":"free"},{"bike_id":"a7156c28-1946-468b-9e64-3365962b5f30","system_id":"levelo_inurba_marseille","lat":43.32827,"lon":5.3668,"is_reserved":false,"is_disabled":false,"rental_uris":{"android":"levelo://app?vid=a7156c28-1946-468b-9e64-3365962b5f30","ios":"levelo://app?vid=a7156c28-1946-468b-9e64-3365962b5f30"},"vehicle_type_id":"4","last_reported":1700924780,"current_range_meters":12800,"station_id":"ce4bhs92rcd13ifvqi0g","pricing_plan_id":"free"},{"bike_id":"8791a58e-e3a0-43a8-b083-b15b0d3679b4","system_id":"levelo_inurba_marseille","lat":43.328371,"lon":5.366909,"is_reserved":false,"is_disabled":false,"rental_uris":{"android":"levelo://app?vid=8791a58e-e3a0-43a8-b083-b15b0d3679b4","ios":"levelo://app?vid=8791a58e-e3a0-43a8-b083-b15b0d3679b4"},"vehicle_type_id":"4","last_reported":1700924780,"current_range_meters":8400,"station_id":"ce4bhs92rcd13ifvqi0g","pricing_plan_id":"free"},{"bike_id":"f67ed7f6-6b2d-4c05-8943-cbd16257ad7d","system_id":"levelo_inurba_marseille","lat":43.328292,"lon":5.366788,"is_reserved":false,"is_disabled":false,"rental_uris":{"android":"levelo://app?vid=f67ed7f6-6b2d-4c05-8943-cbd16257ad7d","ios":"levelo://app?vid=f67ed7f6-6b2d-4c05-8943-cbd16257ad7d"},"vehicle_type_id":"4","last_reported":1700924780,"current_range_meters":12400,"station_id":"ce4bhs92rcd13ifvqi0g","pricing_plan_id":"free"},{"bike_id":"07a03e0e-e12b-474e-a940-8baf07c98432","system_id":"levelo_inurba_marseille","lat":43.328303,"lon":5.366787,"is_reserved":false,"is_disabled":false,"rental_uris":{"android":"levelo://app?vid=07a03e0e-e12b-474e-a940-8baf07c98432","ios":"levelo://app?vid=07a03e0e-e12b-474e-a940-8baf07c98432"},"vehicle_type_id":"4","last_reported":1700924780,"current_range_meters":15200,"station_id":"ce4bhs92rcd13ifvqi0g","pricing_plan_id":"free"},{"bike_id":"ba33f5b0-f737-47ff-aef0-f8bcad9ca065","system_id":"levelo_inurba_marseille","lat":43.297163,"lon":5.365866,"is_reserved":false,"is_disabled":false,"rental_uris":{"android":"levelo://app?vid=ba33f5b0-f737-47ff-aef0-f8bcad9ca065","ios":"levelo://app?vid=ba33f5b0-f737-47ff-aef0-f8bcad9ca065"},"vehicle_type_id":"4","last_reported":1700924780,"current_range_meters":22800,"station_id":"ce4bgn12rcd13ifvqbt0","pricing_plan_id":"free"},{"bike_id":"bdfe931a-32ad-4a98-ad22-bf4cab63d174","system_id":"levelo_inurba_marseille","lat":43.29573,"lon":5.367355,"is_reserved":false,"is_disabled":false,"rental_uris":{"android":"levelo://app?vid=bdfe931a-32ad-4a98-ad22-bf4cab63d174","ios":"levelo://app?vid=bdfe931a-32ad-4a98-ad22-bf4cab63d174"},"vehicle_type_id":"4","last_reported":1700924780,"current_range_meters":14800,"station_id":"ce4bgph2rcd13ifvqc2g","pricing_plan_id":"free"},{"bike_id":"f9c59f1a-8b7f-4f9b-a228-46716c2d0f2a","system_id":"levelo_inurba_marseille","lat":43.29573,"lon":5.367355,"is_reserved":false,"is_disabled":false,"rental_uris":{"android":"levelo://app?vid=f9c59f1a-8b7f-4f9b-a228-46716c2d0f2a","ios":"levelo://app?vid=f9c59f1a-8b7f-4f9b-a228-46716c2d0f2a"},"vehicle_type_id":"4","last_reported":1700924780,"current_range_meters":11600,"station_id":"ce4bgph2rcd13ifvqc2g","pricing_plan_id":"free"},{"bike_id":"be3fb145-f9cb-40ff-943a-2456c720a023","system_id":"levelo_inurba_marseille","lat":43.30948,"lon":5.39026,"is_reserved":false,"is_disabled":false,"rental_uris":{"android":"levelo://app?vid=be3fb145-f9cb-40ff-943a-2456c720a023","ios":"levelo://app?vid=be3fb145-f9cb-40ff-943a-2456c720a023"},"vehicle_type_id":"4","last_reported":1700924780,"current_range_meters":16000,"station_id":"ce4bgup2rcd13ifvqco0","pricing_plan_id":"free"},{"bike_id":"b12601aa-8d21-40d5-9170-600f71bc9c51","system_id":"levelo_inurba_marseille","lat":43.30953,"lon":5.39031,"is_reserved":false,"is_disabled":false,"rental_uris":{"android":"levelo://app?vid=b12601aa-8d21-40d5-9170-600f71bc9c51","ios":"levelo://app?vid=b12601aa-8d21-40d5-9170-600f71bc9c51"},"vehicle_type_id":"4","last_reported":1700924780,"current_range_meters":30000,"station_id":"ce4bgup2rcd13ifvqco0","pricing_plan_id":"free"},{"bike_id":"ad3fc72c-7354-47d7-aa98-76c3bd7cec66","system_id":"levelo_inurba_marseille","lat":43.30952,"lon":5.39031,"is_reserved":false,"is_disabled":false,"rental_uris":{"android":"levelo://app?vid=ad3fc72c-7354-47d7-aa98-76c3bd7cec66","ios":"levelo://app?vid=ad3fc72c-7354-47d7-aa98-76c3bd7cec66"},"vehicle_type_id":"4","last_reported":1700924780,"current_range_meters":11200,"station_id":"ce4bgup2rcd13ifvqco0","pricing_plan_id":"free"},{"bike_id":"a975bfb5-0b7d-4e0d-b11c-45d4322f8a1d","system_id":"levelo_inurba_marseille","lat":43.296935,"lon":5.376544,"is_reserved":false,"is_disabled":false,"rental_uris":{"android":"levelo://app?vid=a975bfb5-0b7d-4e0d-b11c-45d4322f8a1d","ios":"levelo://app?vid=a975bfb5-0b7d-4e0d-b11c-45d4322f8a1d"},"vehicle_type_id":"4","last_reported":1700924780,"current_range_meters":400,"station_id":"ce4bgkh2rcd13ifvqbl0","pricing_plan_id":"free"},{"bike_id":"6f2ce8c7-e2e6-4f73-b4d4-35766f4cf47c","system_id":"levelo_inurba_marseille","lat":43.296935,"lon":5.376544,"is_reserved":false,"is_disabled":false,"rental_uris":{"android":"levelo://app?vid=6f2ce8c7-e2e6-4f73-b4d4-35766f4cf47c","ios":"levelo://app?vid=6f2ce8c7-e2e6-4f73-b4d4-35766f4cf47c"},"vehicle_type_id":"4","last_reported":1700924780,"current_range_meters":10800,"station_id":"ce4bgkh2rcd13ifvqbl0","pricing_plan_id":"free"},{"bike_id":"a2da6cf3-636c-4616-8595-41a512e9071b","system_id":"levelo_inurba_marseille","lat":43.317557,"lon":5.390173,"is_reserved":false,"is_disabled":false,"rental_uris":{"android":"levelo://app?vid=a2da6cf3-636c-4616-8595-41a512e9071b","ios":"levelo://app?vid=a2da6cf3-636c-4616-8595-41a512e9071b"},"vehicle_type_id":"4","last_reported":1700924780,"current_range_meters":24800,"station_id":"ce4bhqp2rcd13ifvqhng","pricing_plan_id":"free"},{"bike_id":"11a41408-fd91-4c9c-abe9-42cea8315e7a","system_id":"levelo_inurba_marseille","lat":43.304274,"lon":5.388873,"is_reserved":false,"is_disabled":false,"rental_uris":{"android":"levelo://app?vid=11a41408-fd91-4c9c-abe9-42cea8315e7a","ios":"levelo://app?vid=11a41408-fd91-4c9c-abe9-42cea8315e7a"},"vehicle_type_id":"4","last_reported":1700924780,"current_range_meters":14800,"station_id":"ce4bgk12rcd13ifvqbi0","pricing_plan_id":"free"},{"bike_id":"74ff0985-794b-4942-ba6e-3e8ac031c716","system_id":"levelo_inurba_marseille","lat":43.295748,"lon":5.37522,"is_reserved":false,"is_disabled":false,"rental_uris":{"android":"levelo://app?vid=74ff0985-794b-4942-ba6e-3e8ac031c716","ios":"levelo://app?vid=74ff0985-794b-4942-ba6e-3e8ac031c716"},"vehicle_type_id":"4","last_reported":1700924780,"current_range_meters":11600,"station_id":"ce4bgh92rcd13ifvqb50","pricing_plan_id":"free"},{"bike_id":"4b4a8219-3f13-40b1-9097-7d3e26bd7db2","system_id":"levelo_inurba_marseille","lat":43.296296,"lon":5.377126,"is_reserved":false,"is_disabled":false,"rental_uris":{"android":"levelo://app?vid=4b4a8219-3f13-40b1-9097-7d3e26bd7db2","ios":"levelo://app?vid=4b4a8219-3f13-40b1-9097-7d3e26bd7db2"},"vehicle_type_id":"4","last_reported":1700924780,"current_range_meters":400,"station_id":"ce4bgi92rcd13ifvqb90","pricing_plan_id":"free"},{"bike_id":"9e05232d-d846-4354-9e3d-63064764c0ef","system_id":"levelo_inurba_marseille","lat":43.304274,"lon":5.388873,"is_reserved":false,"is_disabled":false,"rental_uris":{"android":"levelo://app?vid=9e05232d-d846-4354-9e3d-63064764c0ef","ios":"levelo://app?vid=9e05232d-d846-4354-9e3d-63064764c0ef"},"vehicle_type_id":"4","last_reported":1700924780,"current_range_meters":8000,"station_id":"ce4bgk12rcd13ifvqbi0","pricing_plan_id":"free"},{"bike_id":"c8810f13-fb6a-4eea-8c31-61fba3e2008d","system_id":"levelo_inurba_marseille","lat":43.304278,"lon":5.388868,"is_reserved":false,"is_disabled":false,"rental_uris":{"android":"levelo://app?vid=c8810f13-fb6a-4eea-8c31-61fba3e2008d","ios":"levelo://app?vid=c8810f13-fb6a-4eea-8c31-61fba3e2008d"},"vehicle_type_id":"4","last_reported":1700924780,"current_range_meters":25600,"station_id":"ce4bgk12rcd13ifvqbi0","pricing_plan_id":"free"},{"bike_id":"322ca296-6db3-415e-b1d5-e7f05ccd019c","system_id":"levelo_inurba_marseille","lat":43.299707,"lon":5.384859,"is_reserved":false,"is_disabled":false,"rental_uris":{"android":"levelo://app?vid=322ca296-6db3-415e-b1d5-e7f05ccd019c","ios":"levelo://app?vid=322ca296-6db3-415e-b1d5-e7f05ccd019c"},"vehicle_type_id":"4","last_reported":1700924780,"current_range_meters":6800,"station_id":"ce4bgj92rcd13ifvqbd0","pricing_plan_id":"free"},{"bike_id":"9c9bd7db-a71c-419c-ba42-83618cc977b4","system_id":"levelo_inurba_marseille","lat":43.29504,"lon":5.37422,"is_reserved":false,"is_disabled":false,"rental_uris":{"android":"levelo://app?vid=9c9bd7db-a71c-419c-ba42-83618cc977b4","ios":"levelo://app?vid=9c9bd7db-a71c-419c-ba42-83618cc977b4"},"vehicle_type_id":"4","last_reported":1700924780,"current_range_meters":9600,"station_id":"","pricing_plan_id":"free"},{"bike_id":"6b621983-5e9e-42f7-990d-ad5a093820d2","system_id":"levelo_inurba_marseille","lat":43.293801,"lon":5.363066,"is_reserved":false,"is_disabled":false,"rental_uris":{"android":"levelo://app?vid=6b621983-5e9e-42f7-990d-ad5a093820d2","ios":"levelo://app?vid=6b621983-5e9e-42f7-990d-ad5a093820d2"},"vehicle_type_id":"4","last_reported":1700924780,"current_range_meters":400,"station_id":"","pricing_plan_id":"free"},{"bike_id":"7150973b-2d32-4886-936d-8570b854ea65","system_id":"levelo_inurba_marseille","lat":43.29602,"lon":5.381084,"is_reserved":false,"is_disabled":false,"rental_uris":{"android":"levelo://app?vid=7150973b-2d32-4886-936d-8570b854ea65","ios":"levelo://app?vid=7150973b-2d32-4886-936d-8570b854ea65"},"vehicle_type_id":"4","last_reported":1700924780,"current_range_meters":3200,"station_id":"ce4bgl12rcd13ifvqbo0","pricing_plan_id":"free"},{"bike_id":"c08692de-893b-4842-ac6a-624a77fd78ec","system_id":"levelo_inurba_marseille","lat":43.32379,"lon":5.3897,"is_reserved":false,"is_disabled":false,"rental_uris":{"android":"levelo://app?vid=c08692de-893b-4842-ac6a-624a77fd78ec","ios":"levelo://app?vid=c08692de-893b-4842-ac6a-624a77fd78ec"},"vehicle_type_id":"4","last_reported":1700924780,"current_range_meters":3200,"station_id":"","pricing_plan_id":"free"},{"bike_id":"5d4c9896-f5ae-45a3-a79c-7c5aec40c81c","system_id":"levelo_inurba_marseille","lat":43.292749,"lon":5.368402,"is_reserved":false,"is_disabled":false,"rental_uris":{"android":"levelo://app?vid=5d4c9896-f5ae-45a3-a79c-7c5aec40c81c","ios":"levelo://app?vid=5d4c9896-f5ae-45a3-a79c-7c5aec40c81c"},"vehicle_type_id":"4","last_reported":1700924780,"current_range_meters":26800,"station_id":"ce4bhbp2rcd13ifvqesg","pricing_plan_id":"free"},{"bike_id":"014378ed-d5af-43f5-bac7-3179addba16f","system_id":"levelo_inurba_marseille","lat":43.292749,"lon":5.368402,"is_reserved":false,"is_disabled":false,"rental_uris":{"android":"levelo://app?vid=014378ed-d5af-43f5-bac7-3179addba16f","ios":"levelo://app?vid=014378ed-d5af-43f5-bac7-3179addba16f"},"vehicle_type_id":"4","last_reported":1700924780,"current_range_meters":6000,"station_id":"ce4bhbp2rcd13ifvqesg","pricing_plan_id":"free"},{"bike_id":"86f690e9-310b-4703-8d84-2c6e176936b5","system_id":"levelo_inurba_marseille","lat":43.305994,"lon":5.393687,"is_reserved":false,"is_disabled":false,"rental_uris":{"android":"levelo://app?vid=86f690e9-310b-4703-8d84-2c6e176936b5","ios":"levelo://app?vid=86f690e9-310b-4703-8d84-2c6e176936b5"},"vehicle_type_id":"4","last_reported":1700924780,"current_range_meters":0,"station_id":"ce4bh0p2rcd13ifvqd80","pricing_plan_id":"free"},{"bike_id":"5e9a4948-533b-4a8d-a9bc-3a43324f417d","system_id":"levelo_inurba_marseille","lat":43.30526,"lon":5.39344,"is_reserved":false,"is_disabled":false,"rental_uris":{"android":"levelo://app?vid=5e9a4948-533b-4a8d-a9bc-3a43324f417d","ios":"levelo://app?vid=5e9a4948-533b-4a8d-a9bc-3a43324f417d"},"vehicle_type_id":"4","last_reported":1700924780,"current_range_meters":13600,"station_id":"","pricing_plan_id":"free"},{"bike_id":"049928a6-b27f-4302-8f44-b42ae06e8882","system_id":"levelo_inurba_marseille","lat":43.29225,"lon":5.36206,"is_reserved":false,"is_disabled":false,"rental_uris":{"android":"levelo://app?vid=049928a6-b27f-4302-8f44-b42ae06e8882","ios":"levelo://app?vid=049928a6-b27f-4302-8f44-b42ae06e8882"},"vehicle_type_id":"4","last_reported":1700924780,"current_range_meters":18000,"station_id":"","pricing_plan_id":"free"},{"bike_id":"b114bcba-f8c3-43d8-a350-219bd03bf064","system_id":"levelo_inurba_marseille","lat":43.29224,"lon":5.36059,"is_reserved":false,"is_disabled":false,"rental_uris":{"android":"levelo://app?vid=b114bcba-f8c3-43d8-a350-219bd03bf064","ios":"levelo://app?vid=b114bcba-f8c3-43d8-a350-219bd03bf064"},"vehicle_type_id":"4","last_reported":1700924780,"current_range_meters":22800,"station_id":"ce4bhbh2rcd13ifvqeqg","pricing_plan_id":"free"},{"bike_id":"76e24616-7ff9-41a3-b0e0-51d979d5a869","system_id":"levelo_inurba_marseille","lat":43.298764,"lon":5.388973,"is_reserved":false,"is_disabled":false,"rental_uris":{"android":"levelo://app?vid=76e24616-7ff9-41a3-b0e0-51d979d5a869","ios":"levelo://app?vid=76e24616-7ff9-41a3-b0e0-51d979d5a869"},"vehicle_type_id":"4","last_reported":1700924780,"current_range_meters":18000,"station_id":"ce4bh392rcd13ifvqdl0","pricing_plan_id":"free"},{"bike_id":"8fdee7ad-0db3-4e99-8f30-f29923b9c589","system_id":"levelo_inurba_marseille","lat":43.298764,"lon":5.388973,"is_reserved":false,"is_disabled":false,"rental_uris":{"android":"levelo://app?vid=8fdee7ad-0db3-4e99-8f30-f29923b9c589","ios":"levelo://app?vid=8fdee7ad-0db3-4e99-8f30-f29923b9c589"},"vehicle_type_id":"4","last_reported":1700924780,"current_range_meters":17200,"station_id":"ce4bh392rcd13ifvqdl0","pricing_plan_id":"free"},{"bike_id":"3e52a742-9d2d-4df4-8cab-e67b4da0a219","system_id":"levelo_inurba_marseille","lat":43.298764,"lon":5.388973,"is_reserved":false,"is_disabled":false,"rental_uris":{"android":"levelo://app?vid=3e52a742-9d2d-4df4-8cab-e67b4da0a219","ios":"levelo://app?vid=3e52a742-9d2d-4df4-8cab-e67b4da0a219"},"vehicle_type_id":"4","last_reported":1700924780,"current_range_meters":26800,"station_id":"ce4bh392rcd13ifvqdl0","pricing_plan_id":"free"},{"bike_id":"6854304d-e137-47ec-bc93-6633816b7b57","system_id":"levelo_inurba_marseille","lat":43.291994,"lon":5.357886,"is_reserved":false,"is_disabled":false,"rental_uris":{"android":"levelo://app?vid=6854304d-e137-47ec-bc93-6633816b7b57","ios":"levelo://app?vid=6854304d-e137-47ec-bc93-6633816b7b57"},"vehicle_type_id":"4","last_reported":1700924780,"current_range_meters":10000,"station_id":"ce4bhb12rcd13ifvqel0","pricing_plan_id":"free"},{"bike_id":"0f14a2fc-0fac-4c2c-8d93-1f4368c66e2f","system_id":"levelo_inurba_marseille","lat":43.309038,"lon":5.396546,"is_reserved":false,"is_disabled":false,"rental_uris":{"android":"levelo://app?vid=0f14a2fc-0fac-4c2c-8d93-1f4368c66e2f","ios":"levelo://app?vid=0f14a2fc-0fac-4c2c-8d93-1f4368c66e2f"},"vehicle_type_id":"4","last_reported":1700924780,"current_range_meters":22400,"station_id":"ce4bh012rcd13ifvqcv0","pricing_plan_id":"free"},{"bike_id":"e4b965cb-ffbd-4028-bc38-475fe9562f3a","system_id":"levelo_inurba_marseille","lat":43.309047,"lon":5.396551,"is_reserved":false,"is_disabled":false,"rental_uris":{"android":"levelo://app?vid=e4b965cb-ffbd-4028-bc38-475fe9562f3a","ios":"levelo://app?vid=e4b965cb-ffbd-4028-bc38-475fe9562f3a"},"vehicle_type_id":"4","last_reported":1700924780,"current_range_meters":23600,"station_id":"ce4bh012rcd13ifvqcv0","pricing_plan_id":"free"},{"bike_id":"63534a55-3494-46b8-9937-475fafdebe44","system_id":"levelo_inurba_marseille","lat":43.309038,"lon":5.396546,"is_reserved":false,"is_disabled":false,"rental_uris":{"android":"levelo://app?vid=63534a55-3494-46b8-9937-475fafdebe44","ios":"levelo://app?vid=63534a55-3494-46b8-9937-475fafdebe44"},"vehicle_type_id":"4","last_reported":1700924780,"current_range_meters":23200,"station_id":"ce4bh012rcd13ifvqcv0","pricing_plan_id":"free"},{"bike_id":"c84dd5bd-6d6a-489d-bcf1-8c03a432ac7c","system_id":"levelo_inurba_marseille","lat":43.290779,"lon":5.371482,"is_reserved":false,"is_disabled":false,"rental_uris":{"android":"levelo://app?vid=c84dd5bd-6d6a-489d-bcf1-8c03a432ac7c","ios":"levelo://app?vid=c84dd5bd-6d6a-489d-bcf1-8c03a432ac7c"},"vehicle_type_id":"4","last_reported":1700924780,"current_range_meters":18000,"station_id":"ce4bh5p2rcd13ifvqe4g","pricing_plan_id":"free"},{"bike_id":"9ee53c5f-ec7a-4eaf-abb2-3e6eb85f1a04","system_id":"levelo_inurba_marseille","lat":43.302008,"lon":5.394694,"is_reserved":false,"is_disabled":false,"rental_uris":{"android":"levelo://app?vid=9ee53c5f-ec7a-4eaf-abb2-3e6eb85f1a04","ios":"levelo://app?vid=9ee53c5f-ec7a-4eaf-abb2-3e6eb85f1a04"},"vehicle_type_id":"4","last_reported":1700924780,"current_range_meters":5600,"station_id":"ce4bh0p2rcd13ifvqd70","pricing_plan_id":"free"},{"bike_id":"4eef5c47-3240-414e-9e4c-4cf4c6557060","system_id":"levelo_inurba_marseille","lat":43.290327,"lon":5.375711,"is_reserved":false,"is_disabled":false,"rental_uris":{"android":"levelo://app?vid=4eef5c47-3240-414e-9e4c-4cf4c6557060","ios":"levelo://app?vid=4eef5c47-3240-414e-9e4c-4cf4c6557060"},"vehicle_type_id":"4","last_reported":1700924780,"current_range_meters":23200,"station_id":"ce4bh692rcd13ifvqe90","pricing_plan_id":"free"},{"bike_id":"22d0b504-767d-4421-a531-72d16d8a57b9","system_id":"levelo_inurba_marseille","lat":43.289184,"lon":5.366408,"is_reserved":false,"is_disabled":false,"rental_uris":{"android":"levelo://app?vid=22d0b504-767d-4421-a531-72d16d8a57b9","ios":"levelo://app?vid=22d0b504-767d-4421-a531-72d16d8a57b9"},"vehicle_type_id":"4","last_reported":1700924780,"current_range_meters":21600,"station_id":"ce4bhap2rcd13ifvqek0","pricing_plan_id":"free"},{"bike_id":"70af9440-3c81-4644-ad33-c6a49726ba79","system_id":"levelo_inurba_marseille","lat":43.290104,"lon":5.356111,"is_reserved":false,"is_disabled":false,"rental_uris":{"android":"levelo://app?vid=70af9440-3c81-4644-ad33-c6a49726ba79","ios":"levelo://app?vid=70af9440-3c81-4644-ad33-c6a49726ba79"},"vehicle_type_id":"4","last_reported":1700924780,"current_range_meters":23200,"station_id":"ce4bhb92rcd13ifvqen0","pricing_plan_id":"free"},{"bike_id":"9cee1f84-5afd-4242-8b16-2943eacf4ac5","system_id":"levelo_inurba_marseille","lat":43.290103,"lon":5.356114,"is_reserved":false,"is_disabled":false,"rental_uris":{"android":"levelo://app?vid=9cee1f84-5afd-4242-8b16-2943eacf4ac5","ios":"levelo://app?vid=9cee1f84-5afd-4242-8b16-2943eacf4ac5"},"vehicle_type_id":"4","last_reported":1700924780,"current_range_meters":12800,"station_id":"ce4bhb92rcd13ifvqen0","pricing_plan_id":"free"},{"bike_id":"9250173b-f079-43c1-ab6b-e6389279d7b1","system_id":"levelo_inurba_marseille","lat":43.289743,"lon":5.378304,"is_reserved":false,"is_disabled":false,"rental_uris":{"android":"levelo://app?vid=9250173b-f079-43c1-ab6b-e6389279d7b1","ios":"levelo://app?vid=9250173b-f079-43c1-ab6b-e6389279d7b1"},"vehicle_type_id":"4","last_reported":1700924780,"current_range_meters":22800,"station_id":"ce4bh9p2rcd13ifvqed0","pricing_plan_id":"free"},{"bike_id":"47911bb2-8fef-490c-b11e-10f3249df080","system_id":"levelo_inurba_marseille","lat":43.295169,"lon":5.390426,"is_reserved":false,"is_disabled":false,"rental_uris":{"android":"levelo://app?vid=47911bb2-8fef-490c-b11e-10f3249df080","ios":"levelo://app?vid=47911bb2-8fef-490c-b11e-10f3249df080"},"vehicle_type_id":"4","last_reported":1700924780,"current_range_meters":12400,"station_id":"ce4bh3p2rcd13ifvqdp0","pricing_plan_id":"free"},{"bike_id":"5139a376-de01-4fa6-8404-d826feea3a02","system_id":"levelo_inurba_marseille","lat":43.28856,"lon":5.358371,"is_reserved":false,"is_disabled":false,"rental_uris":{"android":"levelo://app?vid=5139a376-de01-4fa6-8404-d826feea3a02","ios":"levelo://app?vid=5139a376-de01-4fa6-8404-d826feea3a02"},"vehicle_type_id":"4","last_reported":1700924780,"current_range_meters":0,"station_id":"ce4bhb12rcd13ifvqem0","pricing_plan_id":"free"},{"bike_id":"2b23f38a-1831-49fe-a943-86c9ec15f136","system_id":"levelo_inurba_marseille","lat":43.33743,"lon":5.37462,"is_reserved":false,"is_disabled":false,"rental_uris":{"android":"levelo://app?vid=2b23f38a-1831-49fe-a943-86c9ec15f136","ios":"levelo://app?vid=2b23f38a-1831-49fe-a943-86c9ec15f136"},"vehicle_type_id":"4","last_reported":1700924780,"current_range_meters":2000,"station_id":"","pricing_plan_id":"free"},{"bike_id":"ac285e26-46ab-4b23-8672-d078d8fed511","system_id":"levelo_inurba_marseille","lat":43.3375,"lon":5.37457,"is_reserved":false,"is_disabled":false,"rental_uris":{"android":"levelo://app?vid=ac285e26-46ab-4b23-8672-d078d8fed511","ios":"levelo://app?vid=ac285e26-46ab-4b23-8672-d078d8fed511"},"vehicle_type_id":"4","last_reported":1700924780,"current_range_meters":28400,"station_id":"","pricing_plan_id":"free"},{"bike_id":"2e2f4470-4d6d-4af7-88b1-6055cb5a5f2a","system_id":"levelo_inurba_marseille","lat":43.2875,"lon":5.373725,"is_reserved":false,"is_disabled":false,"rental_uris":{"android":"levelo://app?vid=2e2f4470-4d6d-4af7-88b1-6055cb5a5f2a","ios":"levelo://app?vid=2e2f4470-4d6d-4af7-88b1-6055cb5a5f2a"},"vehicle_type_id":"4","last_reported":1700924780,"current_range_meters":0,"station_id":"","pricing_plan_id":"free"},{"bike_id":"cb670189-c215-4449-b61d-1df1ff0a6020","system_id":"levelo_inurba_marseille","lat":43.28727,"lon":5.36078,"is_reserved":false,"is_disabled":false,"rental_uris":{"android":"levelo://app?vid=cb670189-c215-4449-b61d-1df1ff0a6020","ios":"levelo://app?vid=cb670189-c215-4449-b61d-1df1ff0a6020"},"vehicle_type_id":"4","last_reported":1700924780,"current_range_meters":15200,"station_id":"cki0cbj6b192h4jlfktg","pricing_plan_id":"free"},{"bike_id":"6fa05c17-361f-4105-9d0c-4206fc416fa6","system_id":"levelo_inurba_marseille","lat":43.298681,"lon":5.397225,"is_reserved":false,"is_disabled":false,"rental_uris":{"android":"levelo://app?vid=6fa05c17-361f-4105-9d0c-4206fc416fa6","ios":"levelo://app?vid=6fa05c17-361f-4105-9d0c-4206fc416fa6"},"vehicle_type_id":"4","last_reported":1700924780,"current_range_meters":22400,"station_id":"ce4bh0h2rcd13ifvqd50","pricing_plan_id":"free"},{"bike_id":"e435b1ea-cc4d-4f48-af16-53a7e3458ecd","system_id":"levelo_inurba_marseille","lat":43.286591,"lon":5.363346,"is_reserved":false,"is_disabled":false,"rental_uris":{"android":"levelo://app?vid=e435b1ea-cc4d-4f48-af16-53a7e3458ecd","ios":"levelo://app?vid=e435b1ea-cc4d-4f48-af16-53a7e3458ecd"},"vehicle_type_id":"4","last_reported":1700924780,"current_range_meters":20800,"station_id":"ce4bhah2rcd13ifvqej0","pricing_plan_id":"free"},{"bike_id":"66922ba6-2aa8-4e99-860e-70c28eef4f83","system_id":"levelo_inurba_marseille","lat":43.289307,"lon":5.38406,"is_reserved":false,"is_disabled":false,"rental_uris":{"android":"levelo://app?vid=66922ba6-2aa8-4e99-860e-70c28eef4f83","ios":"levelo://app?vid=66922ba6-2aa8-4e99-860e-70c28eef4f83"},"vehicle_type_id":"4","last_reported":1700924780,"current_range_meters":26800,"station_id":"ce4bh612rcd13ifvqe6g","pricing_plan_id":"free"},{"bike_id":"0bdba9d9-d0bb-4fca-8f63-9a9cf684d57c","system_id":"levelo_inurba_marseille","lat":43.286039,"lon":5.370679,"is_reserved":false,"is_disabled":false,"rental_uris":{"android":"levelo://app?vid=0bdba9d9-d0bb-4fca-8f63-9a9cf684d57c","ios":"levelo://app?vid=0bdba9d9-d0bb-4fca-8f63-9a9cf684d57c"},"vehicle_type_id":"4","last_reported":1700924780,"current_range_meters":24400,"station_id":"ce4bht12rcd13ifvqi60","pricing_plan_id":"free"},{"bike_id":"a114aae6-8ceb-4886-b20a-6780de28c969","system_id":"levelo_inurba_marseille","lat":43.286039,"lon":5.370679,"is_reserved":false,"is_disabled":false,"rental_uris":{"android":"levelo://app?vid=a114aae6-8ceb-4886-b20a-6780de28c969","ios":"levelo://app?vid=a114aae6-8ceb-4886-b20a-6780de28c969"},"vehicle_type_id":"4","last_reported":1700924780,"current_range_meters":31600,"station_id":"ce4bht12rcd13ifvqi60","pricing_plan_id":"free"},{"bike_id":"c7405175-a7bf-4736-84f1-15fd1a6a9766","system_id":"levelo_inurba_marseille","lat":43.286039,"lon":5.370679,"is_reserved":false,"is_disabled":false,"rental_uris":{"android":"levelo://app?vid=c7405175-a7bf-4736-84f1-15fd1a6a9766","ios":"levelo://app?vid=c7405175-a7bf-4736-84f1-15fd1a6a9766"},"vehicle_type_id":"4","last_reported":1700924780,"current_range_meters":22000,"station_id":"ce4bht12rcd13ifvqi60","pricing_plan_id":"free"},{"bike_id":"62aa3d1c-910d-48e4-a44a-28ae7a98878a","system_id":"levelo_inurba_marseille","lat":43.28608,"lon":5.37063,"is_reserved":false,"is_disabled":false,"rental_uris":{"android":"levelo://app?vid=62aa3d1c-910d-48e4-a44a-28ae7a98878a","ios":"levelo://app?vid=62aa3d1c-910d-48e4-a44a-28ae7a98878a"},"vehicle_type_id":"4","last_reported":1700924780,"current_range_meters":13200,"station_id":"ce4bht12rcd13ifvqi60","pricing_plan_id":"free"},{"bike_id":"93e000b0-4bfa-431b-826b-137a337cd99c","system_id":"levelo_inurba_marseille","lat":43.31648,"lon":5.40439,"is_reserved":false,"is_disabled":false,"rental_uris":{"android":"levelo://app?vid=93e000b0-4bfa-431b-826b-137a337cd99c","ios":"levelo://app?vid=93e000b0-4bfa-431b-826b-137a337cd99c"},"vehicle_type_id":"4","last_reported":1700924780,"current_range_meters":17200,"station_id":"ce4bh012rcd13ifvqd00","pricing_plan_id":"free"},{"bike_id":"65fdef84-cc2a-4ad3-93fd-62ed70aefb01","system_id":"levelo_inurba_marseille","lat":43.284538,"lon":5.358657,"is_reserved":false,"is_disabled":false,"rental_uris":{"android":"levelo://app?vid=65fdef84-cc2a-4ad3-93fd-62ed70aefb01","ios":"levelo://app?vid=65fdef84-cc2a-4ad3-93fd-62ed70aefb01"},"vehicle_type_id":"4","last_reported":1700924780,"current_range_meters":27200,"station_id":"ce4bhah2rcd13ifvqei0","pricing_plan_id":"free"},{"bike_id":"4a01703a-aeb6-49b9-86c7-68716835752a","system_id":"levelo_inurba_marseille","lat":43.284523,"lon":5.359003,"is_reserved":false,"is_disabled":false,"rental_uris":{"android":"levelo://app?vid=4a01703a-aeb6-49b9-86c7-68716835752a","ios":"levelo://app?vid=4a01703a-aeb6-49b9-86c7-68716835752a"},"vehicle_type_id":"4","last_reported":1700924780,"current_range_meters":26800,"station_id":"ce4bhah2rcd13ifvqei0","pricing_plan_id":"free"},{"bike_id":"c21a735b-574a-41dc-9ee8-6a8926d28dea","system_id":"levelo_inurba_marseille","lat":43.31894,"lon":5.4074,"is_reserved":false,"is_disabled":false,"rental_uris":{"android":"levelo://app?vid=c21a735b-574a-41dc-9ee8-6a8926d28dea","ios":"levelo://app?vid=c21a735b-574a-41dc-9ee8-6a8926d28dea"},"vehicle_type_id":"4","last_reported":1700924780,"current_range_meters":26800,"station_id":"ce4bhq12rcd13ifvqhig","pricing_plan_id":"free"},{"bike_id":"ff50f349-14b3-45a0-8c3e-da678147bfa4","system_id":"levelo_inurba_marseille","lat":43.31892,"lon":5.407453,"is_reserved":false,"is_disabled":false,"rental_uris":{"android":"levelo://app?vid=ff50f349-14b3-45a0-8c3e-da678147bfa4","ios":"levelo://app?vid=ff50f349-14b3-45a0-8c3e-da678147bfa4"},"vehicle_type_id":"4","last_reported":1700924780,"current_range_meters":17600,"station_id":"ce4bhq12rcd13ifvqhig","pricing_plan_id":"free"},{"bike_id":"e92e80e0-77de-4b89-9ee6-5fa7f46ce298","system_id":"levelo_inurba_marseille","lat":43.2834,"lon":5.38104,"is_reserved":false,"is_disabled":false,"rental_uris":{"android":"levelo://app?vid=e92e80e0-77de-4b89-9ee6-5fa7f46ce298","ios":"levelo://app?vid=e92e80e0-77de-4b89-9ee6-5fa7f46ce298"},"vehicle_type_id":"4","last_reported":1700924780,"current_range_meters":21600,"station_id":"ce4bh412rcd13ifvqdr0","pricing_plan_id":"free"},{"bike_id":"e2284003-4e46-4e0a-93e7-73d05c3666d9","system_id":"levelo_inurba_marseille","lat":43.33508,"lon":5.397755,"is_reserved":false,"is_disabled":false,"rental_uris":{"android":"levelo://app?vid=e2284003-4e46-4e0a-93e7-73d05c3666d9","ios":"levelo://app?vid=e2284003-4e46-4e0a-93e7-73d05c3666d9"},"vehicle_type_id":"4","last_reported":1700924780,"current_range_meters":22400,"station_id":"","pricing_plan_id":"free"},{"bike_id":"7b4dade0-f866-45fd-a5cd-18e58da8814d","system_id":"levelo_inurba_marseille","lat":43.2804,"lon":5.36936,"is_reserved":false,"is_disabled":false,"rental_uris":{"android":"levelo://app?vid=7b4dade0-f866-45fd-a5cd-18e58da8814d","ios":"levelo://app?vid=7b4dade0-f866-45fd-a5cd-18e58da8814d"},"vehicle_type_id":"4","last_reported":1700924780,"current_range_meters":13200,"station_id":"ce4bha12rcd13ifvqef0","pricing_plan_id":"free"},{"bike_id":"9b5c094e-5cb7-40f2-9192-81839deaf755","system_id":"levelo_inurba_marseille","lat":43.28036,"lon":5.36944,"is_reserved":false,"is_disabled":false,"rental_uris":{"android":"levelo://app?vid=9b5c094e-5cb7-40f2-9192-81839deaf755","ios":"levelo://app?vid=9b5c094e-5cb7-40f2-9192-81839deaf755"},"vehicle_type_id":"4","last_reported":1700924780,"current_range_meters":1600,"station_id":"ce4bha12rcd13ifvqef0","pricing_plan_id":"free"},{"bike_id":"1dfbd59b-31e6-4e08-84bd-70faa50150a3","system_id":"levelo_inurba_marseille","lat":43.280382,"lon":5.369291,"is_reserved":false,"is_disabled":false,"rental_uris":{"android":"levelo://app?vid=1dfbd59b-31e6-4e08-84bd-70faa50150a3","ios":"levelo://app?vid=1dfbd59b-31e6-4e08-84bd-70faa50150a3"},"vehicle_type_id":"4","last_reported":1700924780,"current_range_meters":19600,"station_id":"ce4bha12rcd13ifvqef0","pricing_plan_id":"free"},{"bike_id":"0282ac5f-e493-4a47-a073-3157cab60e3e","system_id":"levelo_inurba_marseille","lat":43.304188,"lon":5.412904,"is_reserved":false,"is_disabled":false,"rental_uris":{"android":"levelo://app?vid=0282ac5f-e493-4a47-a073-3157cab60e3e","ios":"levelo://app?vid=0282ac5f-e493-4a47-a073-3157cab60e3e"},"vehicle_type_id":"4","last_reported":1700924780,"current_range_meters":26400,"station_id":"ce4bhop2rcd13ifvqh8g","pricing_plan_id":"free"},{"bike_id":"0616da87-3bbd-4800-9878-6d5c45ace960","system_id":"levelo_inurba_marseille","lat":43.279087,"lon":5.380114,"is_reserved":false,"is_disabled":false,"rental_uris":{"android":"levelo://app?vid=0616da87-3bbd-4800-9878-6d5c45ace960","ios":"levelo://app?vid=0616da87-3bbd-4800-9878-6d5c45ace960"},"vehicle_type_id":"4","last_reported":1700924780,"current_range_meters":20000,"station_id":"ce4bhf92rcd13ifvqf50","pricing_plan_id":"free"},{"bike_id":"9fedd3dd-4e80-4824-ac2c-7d42bc0d2622","system_id":"levelo_inurba_marseille","lat":43.279087,"lon":5.380114,"is_reserved":false,"is_disabled":false,"rental_uris":{"android":"levelo://app?vid=9fedd3dd-4e80-4824-ac2c-7d42bc0d2622","ios":"levelo://app?vid=9fedd3dd-4e80-4824-ac2c-7d42bc0d2622"},"vehicle_type_id":"4","last_reported":1700924780,"current_range_meters":31200,"station_id":"ce4bhf92rcd13ifvqf50","pricing_plan_id":"free"},{"bike_id":"e5e38330-4348-40b9-ae7e-1a8083826ab1","system_id":"levelo_inurba_marseille","lat":43.287154,"lon":5.399979,"is_reserved":false,"is_disabled":false,"rental_uris":{"android":"levelo://app?vid=e5e38330-4348-40b9-ae7e-1a8083826ab1","ios":"levelo://app?vid=e5e38330-4348-40b9-ae7e-1a8083826ab1"},"vehicle_type_id":"4","last_reported":1700924780,"current_range_meters":27200,"station_id":"ce4bho92rcd13ifvqh3g","pricing_plan_id":"free"},{"bike_id":"c3f4cfbc-9ecd-4d92-8da2-48645c8111b5","system_id":"levelo_inurba_marseille","lat":43.287154,"lon":5.399979,"is_reserved":false,"is_disabled":false,"rental_uris":{"android":"levelo://app?vid=c3f4cfbc-9ecd-4d92-8da2-48645c8111b5","ios":"levelo://app?vid=c3f4cfbc-9ecd-4d92-8da2-48645c8111b5"},"vehicle_type_id":"4","last_reported":1700924780,"current_range_meters":20800,"station_id":"ce4bho92rcd13ifvqh3g","pricing_plan_id":"free"},{"bike_id":"d690f06d-3abc-41a6-ac72-cc5703f6353d","system_id":"levelo_inurba_marseille","lat":43.29959,"lon":5.41312,"is_reserved":false,"is_disabled":false,"rental_uris":{"android":"levelo://app?vid=d690f06d-3abc-41a6-ac72-cc5703f6353d","ios":"levelo://app?vid=d690f06d-3abc-41a6-ac72-cc5703f6353d"},"vehicle_type_id":"4","last_reported":1700924780,"current_range_meters":30400,"station_id":"ce4bhp12rcd13ifvqh9g","pricing_plan_id":"free"},{"bike_id":"0a00d757-9674-4c0b-b307-dbfbe9e7a2b2","system_id":"levelo_inurba_marseille","lat":43.320045,"lon":5.415046,"is_reserved":false,"is_disabled":false,"rental_uris":{"android":"levelo://app?vid=0a00d757-9674-4c0b-b307-dbfbe9e7a2b2","ios":"levelo://app?vid=0a00d757-9674-4c0b-b307-dbfbe9e7a2b2"},"vehicle_type_id":"4","last_reported":1700924780,"current_range_meters":30000,"station_id":"ce4bhq92rcd13ifvqhkg","pricing_plan_id":"free"},{"bike_id":"e9333e17-ea63-4942-a642-cb0a1ba22a55","system_id":"levelo_inurba_marseille","lat":43.325243,"lon":5.414326,"is_reserved":false,"is_disabled":false,"rental_uris":{"android":"levelo://app?vid=e9333e17-ea63-4942-a642-cb0a1ba22a55","ios":"levelo://app?vid=e9333e17-ea63-4942-a642-cb0a1ba22a55"},"vehicle_type_id":"4","last_reported":1700924780,"current_range_meters":6800,"station_id":"ce4bhq12rcd13ifvqhhg","pricing_plan_id":"free"},{"bike_id":"6508e4f7-6eb7-4970-ab91-3710449e731f","system_id":"levelo_inurba_marseille","lat":43.29257,"lon":5.40912,"is_reserved":false,"is_disabled":false,"rental_uris":{"android":"levelo://app?vid=6508e4f7-6eb7-4970-ab91-3710449e731f","ios":"levelo://app?vid=6508e4f7-6eb7-4970-ab91-3710449e731f"},"vehicle_type_id":"4","last_reported":1700924780,"current_range_meters":12800,"station_id":"ce4bh192rcd13ifvqdc0","pricing_plan_id":"free"},{"bike_id":"54cd5685-7875-428a-aac0-27b1fbac38e3","system_id":"levelo_inurba_marseille","lat":43.276158,"lon":5.361075,"is_reserved":false,"is_disabled":false,"rental_uris":{"android":"levelo://app?vid=54cd5685-7875-428a-aac0-27b1fbac38e3","ios":"levelo://app?vid=54cd5685-7875-428a-aac0-27b1fbac38e3"},"vehicle_type_id":"4","last_reported":1700924780,"current_range_meters":31200,"station_id":"ce4bgj92rcd13ifvqbe0","pricing_plan_id":"free"},{"bike_id":"b6bd24e6-943a-4566-9f51-569035dc9592","system_id":"levelo_inurba_marseille","lat":43.325243,"lon":5.414326,"is_reserved":false,"is_disabled":false,"rental_uris":{"android":"levelo://app?vid=b6bd24e6-943a-4566-9f51-569035dc9592","ios":"levelo://app?vid=b6bd24e6-943a-4566-9f51-569035dc9592"},"vehicle_type_id":"4","last_reported":1700924780,"current_range_meters":5200,"station_id":"ce4bhq12rcd13ifvqhhg","pricing_plan_id":"free"},{"bike_id":"c25ea147-e804-4786-9d25-91f61a8ed59a","system_id":"levelo_inurba_marseille","lat":43.293651,"lon":5.41268,"is_reserved":false,"is_disabled":false,"rental_uris":{"android":"levelo://app?vid=c25ea147-e804-4786-9d25-91f61a8ed59a","ios":"levelo://app?vid=c25ea147-e804-4786-9d25-91f61a8ed59a"},"vehicle_type_id":"4","last_reported":1700924780,"current_range_meters":0,"station_id":"","pricing_plan_id":"free"},{"bike_id":"c6d3e8e5-2b1d-4cd8-9846-dfa506afa25e","system_id":"levelo_inurba_marseille","lat":43.275625,"lon":5.384392,"is_reserved":false,"is_disabled":false,"rental_uris":{"android":"levelo://app?vid=c6d3e8e5-2b1d-4cd8-9846-dfa506afa25e","ios":"levelo://app?vid=c6d3e8e5-2b1d-4cd8-9846-dfa506afa25e"},"vehicle_type_id":"4","last_reported":1700924780,"current_range_meters":12400,"station_id":"ce4bhh92rcd13ifvqfi0","pricing_plan_id":"free"},{"bike_id":"187ad07c-ed6e-4a83-afdc-2d34d7e6865a","system_id":"levelo_inurba_marseille","lat":43.273613,"lon":5.362705,"is_reserved":false,"is_disabled":false,"rental_uris":{"android":"levelo://app?vid=187ad07c-ed6e-4a83-afdc-2d34d7e6865a","ios":"levelo://app?vid=187ad07c-ed6e-4a83-afdc-2d34d7e6865a"},"vehicle_type_id":"4","last_reported":1700924780,"current_range_meters":26000,"station_id":"ce4bhbh2rcd13ifvqeo0","pricing_plan_id":"free"},{"bike_id":"b98b488b-55ca-4805-850e-7b847428de61","system_id":"levelo_inurba_marseille","lat":43.273613,"lon":5.362705,"is_reserved":false,"is_disabled":false,"rental_uris":{"android":"levelo://app?vid=b98b488b-55ca-4805-850e-7b847428de61","ios":"levelo://app?vid=b98b488b-55ca-4805-850e-7b847428de61"},"vehicle_type_id":"4","last_reported":1700924780,"current_range_meters":12800,"station_id":"ce4bhbh2rcd13ifvqeo0","pricing_plan_id":"free"},{"bike_id":"83f1d865-dcea-4637-a6ac-c5d6e07da33f","system_id":"levelo_inurba_marseille","lat":43.273613,"lon":5.362705,"is_reserved":false,"is_disabled":false,"rental_uris":{"android":"levelo://app?vid=83f1d865-dcea-4637-a6ac-c5d6e07da33f","ios":"levelo://app?vid=83f1d865-dcea-4637-a6ac-c5d6e07da33f"},"vehicle_type_id":"4","last_reported":1700924780,"current_range_meters":18400,"station_id":"ce4bhbh2rcd13ifvqeo0","pricing_plan_id":"free"},{"bike_id":"635f9f21-f35a-44b7-b3ff-3dbf3f42e145","system_id":"levelo_inurba_marseille","lat":43.273613,"lon":5.362705,"is_reserved":false,"is_disabled":false,"rental_uris":{"android":"levelo://app?vid=635f9f21-f35a-44b7-b3ff-3dbf3f42e145","ios":"levelo://app?vid=635f9f21-f35a-44b7-b3ff-3dbf3f42e145"},"vehicle_type_id":"4","last_reported":1700924780,"current_range_meters":5200,"station_id":"ce4bhbh2rcd13ifvqeo0","pricing_plan_id":"free"},{"bike_id":"d200c2ec-508f-4e01-8a2d-92394bc0beb0","system_id":"levelo_inurba_marseille","lat":43.275625,"lon":5.384392,"is_reserved":false,"is_disabled":false,"rental_uris":{"android":"levelo://app?vid=d200c2ec-508f-4e01-8a2d-92394bc0beb0","ios":"levelo://app?vid=d200c2ec-508f-4e01-8a2d-92394bc0beb0"},"vehicle_type_id":"4","last_reported":1700924780,"current_range_meters":27200,"station_id":"ce4bhh92rcd13ifvqfi0","pricing_plan_id":"free"},{"bike_id":"5a5efdd6-6bd8-4276-ba71-296aa9e70631","system_id":"levelo_inurba_marseille","lat":43.33612,"lon":5.410321,"is_reserved":false,"is_disabled":false,"rental_uris":{"android":"levelo://app?vid=5a5efdd6-6bd8-4276-ba71-296aa9e70631","ios":"levelo://app?vid=5a5efdd6-6bd8-4276-ba71-296aa9e70631"},"vehicle_type_id":"4","last_reported":1700924780,"current_range_meters":28000,"station_id":"ce4bhqh2rcd13ifvqhmg","pricing_plan_id":"free"},{"bike_id":"b3e9d657-07d2-4b35-8cab-1cf77eafec1d","system_id":"levelo_inurba_marseille","lat":43.336148,"lon":5.410349,"is_reserved":false,"is_disabled":false,"rental_uris":{"android":"levelo://app?vid=b3e9d657-07d2-4b35-8cab-1cf77eafec1d","ios":"levelo://app?vid=b3e9d657-07d2-4b35-8cab-1cf77eafec1d"},"vehicle_type_id":"4","last_reported":1700924780,"current_range_meters":18800,"station_id":"ce4bhqh2rcd13ifvqhmg","pricing_plan_id":"free"},{"bike_id":"7d528001-e088-4b4a-9b30-80e24fb053e1","system_id":"levelo_inurba_marseille","lat":43.276769,"lon":5.388787,"is_reserved":false,"is_disabled":false,"rental_uris":{"android":"levelo://app?vid=7d528001-e088-4b4a-9b30-80e24fb053e1","ios":"levelo://app?vid=7d528001-e088-4b4a-9b30-80e24fb053e1"},"vehicle_type_id":"4","last_reported":1700924780,"current_range_meters":24400,"station_id":"ce4bhi12rcd13ifvqfo0","pricing_plan_id":"free"},{"bike_id":"0fbf5b58-7ce4-4115-b285-fee12726188f","system_id":"levelo_inurba_marseille","lat":43.336067,"lon":5.41037,"is_reserved":false,"is_disabled":false,"rental_uris":{"android":"levelo://app?vid=0fbf5b58-7ce4-4115-b285-fee12726188f","ios":"levelo://app?vid=0fbf5b58-7ce4-4115-b285-fee12726188f"},"vehicle_type_id":"4","last_reported":1700924780,"current_range_meters":13200,"station_id":"ce4bhqh2rcd13ifvqhmg","pricing_plan_id":"free"},{"bike_id":"1201e2bf-cc5d-4051-b452-6b21c8434b64","system_id":"levelo_inurba_marseille","lat":43.279952,"lon":5.400085,"is_reserved":false,"is_disabled":false,"rental_uris":{"android":"levelo://app?vid=1201e2bf-cc5d-4051-b452-6b21c8434b64","ios":"levelo://app?vid=1201e2bf-cc5d-4051-b452-6b21c8434b64"},"vehicle_type_id":"4","last_reported":1700924780,"current_range_meters":8400,"station_id":"ce4bho92rcd13ifvqh4g","pricing_plan_id":"free"},{"bike_id":"7fb40970-b4cb-4b6f-b51b-ff4f354575ae","system_id":"levelo_inurba_marseille","lat":43.279952,"lon":5.400085,"is_reserved":false,"is_disabled":false,"rental_uris":{"android":"levelo://app?vid=7fb40970-b4cb-4b6f-b51b-ff4f354575ae","ios":"levelo://app?vid=7fb40970-b4cb-4b6f-b51b-ff4f354575ae"},"vehicle_type_id":"4","last_reported":1700924780,"current_range_meters":17600,"station_id":"ce4bho92rcd13ifvqh4g","pricing_plan_id":"free"},{"bike_id":"0bdd442b-4f16-4277-88cc-be64a671c3ce","system_id":"levelo_inurba_marseille","lat":43.27999,"lon":5.40006,"is_reserved":false,"is_disabled":false,"rental_uris":{"android":"levelo://app?vid=0bdd442b-4f16-4277-88cc-be64a671c3ce","ios":"levelo://app?vid=0bdd442b-4f16-4277-88cc-be64a671c3ce"},"vehicle_type_id":"4","last_reported":1700924780,"current_range_meters":32000,"station_id":"ce4bho92rcd13ifvqh4g","pricing_plan_id":"free"},{"bike_id":"b13ed452-b20e-41ad-9c4a-25ac5c96fef3","system_id":"levelo_inurba_marseille","lat":43.279952,"lon":5.400085,"is_reserved":false,"is_disabled":false,"rental_uris":{"android":"levelo://app?vid=b13ed452-b20e-41ad-9c4a-25ac5c96fef3","ios":"levelo://app?vid=b13ed452-b20e-41ad-9c4a-25ac5c96fef3"},"vehicle_type_id":"4","last_reported":1700924780,"current_range_meters":31600,"station_id":"ce4bho92rcd13ifvqh4g","pricing_plan_id":"free"},{"bike_id":"e43adb03-57c4-45ac-a3da-a125f59bf6b4","system_id":"levelo_inurba_marseille","lat":43.27997,"lon":5.40009,"is_reserved":false,"is_disabled":false,"rental_uris":{"android":"levelo://app?vid=e43adb03-57c4-45ac-a3da-a125f59bf6b4","ios":"levelo://app?vid=e43adb03-57c4-45ac-a3da-a125f59bf6b4"},"vehicle_type_id":"4","last_reported":1700924780,"current_range_meters":22800,"station_id":"ce4bho92rcd13ifvqh4g","pricing_plan_id":"free"},{"bike_id":"de929e7e-c3f5-4b7a-9a3b-0c3037651d43","system_id":"levelo_inurba_marseille","lat":43.279952,"lon":5.400085,"is_reserved":false,"is_disabled":false,"rental_uris":{"android":"levelo://app?vid=de929e7e-c3f5-4b7a-9a3b-0c3037651d43","ios":"levelo://app?vid=de929e7e-c3f5-4b7a-9a3b-0c3037651d43"},"vehicle_type_id":"4","last_reported":1700924780,"current_range_meters":31600,"station_id":"ce4bho92rcd13ifvqh4g","pricing_plan_id":"free"},{"bike_id":"caecc40c-c3aa-4657-8ab6-da258dc2bd84","system_id":"levelo_inurba_marseille","lat":43.279952,"lon":5.400085,"is_reserved":false,"is_disabled":false,"rental_uris":{"android":"levelo://app?vid=caecc40c-c3aa-4657-8ab6-da258dc2bd84","ios":"levelo://app?vid=caecc40c-c3aa-4657-8ab6-da258dc2bd84"},"vehicle_type_id":"4","last_reported":1700924780,"current_range_meters":31600,"station_id":"ce4bho92rcd13ifvqh4g","pricing_plan_id":"free"},{"bike_id":"91215161-5014-45f6-a237-9df70268cba5","system_id":"levelo_inurba_marseille","lat":43.279982,"lon":5.400158,"is_reserved":false,"is_disabled":false,"rental_uris":{"android":"levelo://app?vid=91215161-5014-45f6-a237-9df70268cba5","ios":"levelo://app?vid=91215161-5014-45f6-a237-9df70268cba5"},"vehicle_type_id":"4","last_reported":1700924780,"current_range_meters":32000,"station_id":"ce4bho92rcd13ifvqh4g","pricing_plan_id":"free"},{"bike_id":"31a4ddc9-6a18-4dfe-b7dd-50c30c5d963b","system_id":"levelo_inurba_marseille","lat":43.27993,"lon":5.4002,"is_reserved":false,"is_disabled":false,"rental_uris":{"android":"levelo://app?vid=31a4ddc9-6a18-4dfe-b7dd-50c30c5d963b","ios":"levelo://app?vid=31a4ddc9-6a18-4dfe-b7dd-50c30c5d963b"},"vehicle_type_id":"4","last_reported":1700924780,"current_range_meters":31600,"station_id":"ce4bho92rcd13ifvqh4g","pricing_plan_id":"free"},{"bike_id":"561d56c0-616a-4955-bd15-b0e0ddd3d6ba","system_id":"levelo_inurba_marseille","lat":43.279952,"lon":5.400085,"is_reserved":false,"is_disabled":false,"rental_uris":{"android":"levelo://app?vid=561d56c0-616a-4955-bd15-b0e0ddd3d6ba","ios":"levelo://app?vid=561d56c0-616a-4955-bd15-b0e0ddd3d6ba"},"vehicle_type_id":"4","last_reported":1700924780,"current_range_meters":31200,"station_id":"ce4bho92rcd13ifvqh4g","pricing_plan_id":"free"},{"bike_id":"0d2fdf3b-3e3c-4c40-a998-3277124b880b","system_id":"levelo_inurba_marseille","lat":43.310785,"lon":5.424305,"is_reserved":false,"is_disabled":false,"rental_uris":{"android":"levelo://app?vid=0d2fdf3b-3e3c-4c40-a998-3277124b880b","ios":"levelo://app?vid=0d2fdf3b-3e3c-4c40-a998-3277124b880b"},"vehicle_type_id":"4","last_reported":1700924780,"current_range_meters":10000,"station_id":"ce4bhp92rcd13ifvqhag","pricing_plan_id":"free"},{"bike_id":"5129acc1-7977-4d29-8689-fece97171c5b","system_id":"levelo_inurba_marseille","lat":43.310785,"lon":5.424305,"is_reserved":false,"is_disabled":false,"rental_uris":{"android":"levelo://app?vid=5129acc1-7977-4d29-8689-fece97171c5b","ios":"levelo://app?vid=5129acc1-7977-4d29-8689-fece97171c5b"},"vehicle_type_id":"4","last_reported":1700924780,"current_range_meters":23600,"station_id":"ce4bhp92rcd13ifvqhag","pricing_plan_id":"free"},{"bike_id":"1052d100-bfed-4f3e-a202-ed9b2825b805","system_id":"levelo_inurba_marseille","lat":43.295523,"lon":5.422926,"is_reserved":false,"is_disabled":false,"rental_uris":{"android":"levelo://app?vid=1052d100-bfed-4f3e-a202-ed9b2825b805","ios":"levelo://app?vid=1052d100-bfed-4f3e-a202-ed9b2825b805"},"vehicle_type_id":"4","last_reported":1700924780,"current_range_meters":22000,"station_id":"ce4bhph2rcd13ifvqhdg","pricing_plan_id":"free"},{"bike_id":"d032f6fd-2fad-4d4b-840c-c4b36059bfc3","system_id":"levelo_inurba_marseille","lat":43.295523,"lon":5.422926,"is_reserved":false,"is_disabled":false,"rental_uris":{"android":"levelo://app?vid=d032f6fd-2fad-4d4b-840c-c4b36059bfc3","ios":"levelo://app?vid=d032f6fd-2fad-4d4b-840c-c4b36059bfc3"},"vehicle_type_id":"4","last_reported":1700924780,"current_range_meters":30000,"station_id":"ce4bhph2rcd13ifvqhdg","pricing_plan_id":"free"},{"bike_id":"58a74f2c-3205-4aed-bf2c-a4151057b68d","system_id":"levelo_inurba_marseille","lat":43.295523,"lon":5.422926,"is_reserved":false,"is_disabled":false,"rental_uris":{"android":"levelo://app?vid=58a74f2c-3205-4aed-bf2c-a4151057b68d","ios":"levelo://app?vid=58a74f2c-3205-4aed-bf2c-a4151057b68d"},"vehicle_type_id":"4","last_reported":1700924780,"current_range_meters":8400,"station_id":"ce4bhph2rcd13ifvqhdg","pricing_plan_id":"free"},{"bike_id":"6c8874ff-2a07-4bc0-9078-fb9e2c644b5f","system_id":"levelo_inurba_marseille","lat":43.272116,"lon":5.391747,"is_reserved":false,"is_disabled":false,"rental_uris":{"android":"levelo://app?vid=6c8874ff-2a07-4bc0-9078-fb9e2c644b5f","ios":"levelo://app?vid=6c8874ff-2a07-4bc0-9078-fb9e2c644b5f"},"vehicle_type_id":"4","last_reported":1700924780,"current_range_meters":15600,"station_id":"ce4bhhp2rcd13ifvqfm0","pricing_plan_id":"free"},{"bike_id":"4de0236b-3eba-456e-a730-01e948dcb78e","system_id":"levelo_inurba_marseille","lat":43.27814,"lon":5.4072,"is_reserved":false,"is_disabled":false,"rental_uris":{"android":"levelo://app?vid=4de0236b-3eba-456e-a730-01e948dcb78e","ios":"levelo://app?vid=4de0236b-3eba-456e-a730-01e948dcb78e"},"vehicle_type_id":"4","last_reported":1700924780,"current_range_meters":0,"station_id":"ce4bhnh2rcd13ifvqgtg","pricing_plan_id":"free"},{"bike_id":"43ed9665-e95e-419a-8247-de53590de4e3","system_id":"levelo_inurba_marseille","lat":43.27808,"lon":5.40723,"is_reserved":false,"is_disabled":false,"rental_uris":{"android":"levelo://app?vid=43ed9665-e95e-419a-8247-de53590de4e3","ios":"levelo://app?vid=43ed9665-e95e-419a-8247-de53590de4e3"},"vehicle_type_id":"4","last_reported":1700924780,"current_range_meters":28800,"station_id":"ce4bhnh2rcd13ifvqgtg","pricing_plan_id":"free"},{"bike_id":"429c22ab-619a-4428-bdb0-91744ea01b68","system_id":"levelo_inurba_marseille","lat":43.26943,"lon":5.38635,"is_reserved":false,"is_disabled":false,"rental_uris":{"android":"levelo://app?vid=429c22ab-619a-4428-bdb0-91744ea01b68","ios":"levelo://app?vid=429c22ab-619a-4428-bdb0-91744ea01b68"},"vehicle_type_id":"4","last_reported":1700924780,"current_range_meters":31200,"station_id":"ce4bhh92rcd13ifvqfh0","pricing_plan_id":"free"},{"bike_id":"0f5b91ba-dfd1-4517-aa97-019fd616d9eb","system_id":"levelo_inurba_marseille","lat":43.269467,"lon":5.386439,"is_reserved":false,"is_disabled":false,"rental_uris":{"android":"levelo://app?vid=0f5b91ba-dfd1-4517-aa97-019fd616d9eb","ios":"levelo://app?vid=0f5b91ba-dfd1-4517-aa97-019fd616d9eb"},"vehicle_type_id":"4","last_reported":1700924780,"current_range_meters":31200,"station_id":"ce4bhh92rcd13ifvqfh0","pricing_plan_id":"free"},{"bike_id":"f24afcf7-8504-49c6-bbaa-a8be8536c84a","system_id":"levelo_inurba_marseille","lat":43.26681,"lon":5.382694,"is_reserved":false,"is_disabled":false,"rental_uris":{"android":"levelo://app?vid=f24afcf7-8504-49c6-bbaa-a8be8536c84a","ios":"levelo://app?vid=f24afcf7-8504-49c6-bbaa-a8be8536c84a"},"vehicle_type_id":"4","last_reported":1700924780,"current_range_meters":27200,"station_id":"ce4bhg92rcd13ifvqf90","pricing_plan_id":"free"},{"bike_id":"8002a07e-ff24-4922-9d2c-c057e95ba94c","system_id":"levelo_inurba_marseille","lat":43.26681,"lon":5.382694,"is_reserved":false,"is_disabled":false,"rental_uris":{"android":"levelo://app?vid=8002a07e-ff24-4922-9d2c-c057e95ba94c","ios":"levelo://app?vid=8002a07e-ff24-4922-9d2c-c057e95ba94c"},"vehicle_type_id":"4","last_reported":1700924780,"current_range_meters":24000,"station_id":"ce4bhg92rcd13ifvqf90","pricing_plan_id":"free"},{"bike_id":"f23d8119-b478-4639-98c5-6883279f9f84","system_id":"levelo_inurba_marseille","lat":43.32592,"lon":5.43067,"is_reserved":false,"is_disabled":false,"rental_uris":{"android":"levelo://app?vid=f23d8119-b478-4639-98c5-6883279f9f84","ios":"levelo://app?vid=f23d8119-b478-4639-98c5-6883279f9f84"},"vehicle_type_id":"4","last_reported":1700924780,"current_range_meters":26400,"station_id":"","pricing_plan_id":"free"},{"bike_id":"e7b368e8-9edf-4ac8-acef-7e9558d427aa","system_id":"levelo_inurba_marseille","lat":43.32591,"lon":5.430713,"is_reserved":false,"is_disabled":false,"rental_uris":{"android":"levelo://app?vid=e7b368e8-9edf-4ac8-acef-7e9558d427aa","ios":"levelo://app?vid=e7b368e8-9edf-4ac8-acef-7e9558d427aa"},"vehicle_type_id":"4","last_reported":1700924780,"current_range_meters":0,"station_id":"","pricing_plan_id":"free"},{"bike_id":"ed30d6a1-b23a-49e5-9c83-5546be72a734","system_id":"levelo_inurba_marseille","lat":43.3259,"lon":5.43075,"is_reserved":false,"is_disabled":false,"rental_uris":{"android":"levelo://app?vid=ed30d6a1-b23a-49e5-9c83-5546be72a734","ios":"levelo://app?vid=ed30d6a1-b23a-49e5-9c83-5546be72a734"},"vehicle_type_id":"4","last_reported":1700924780,"current_range_meters":21200,"station_id":"","pricing_plan_id":"free"},{"bike_id":"d67469ee-5362-4610-a163-fe05ae3cf4f7","system_id":"levelo_inurba_marseille","lat":43.32604,"lon":5.430817,"is_reserved":false,"is_disabled":false,"rental_uris":{"android":"levelo://app?vid=d67469ee-5362-4610-a163-fe05ae3cf4f7","ios":"levelo://app?vid=d67469ee-5362-4610-a163-fe05ae3cf4f7"},"vehicle_type_id":"4","last_reported":1700924780,"current_range_meters":9600,"station_id":"","pricing_plan_id":"free"},{"bike_id":"6ecdd874-9944-4f0d-bbfd-be0fe6539c53","system_id":"levelo_inurba_marseille","lat":43.265714,"lon":5.372891,"is_reserved":false,"is_disabled":false,"rental_uris":{"android":"levelo://app?vid=6ecdd874-9944-4f0d-bbfd-be0fe6539c53","ios":"levelo://app?vid=6ecdd874-9944-4f0d-bbfd-be0fe6539c53"},"vehicle_type_id":"4","last_reported":1700924780,"current_range_meters":0,"station_id":"ce4bhg12rcd13ifvqf70","pricing_plan_id":"free"},{"bike_id":"2b5f0b27-ae58-4e9e-bd76-c585f78e8a73","system_id":"levelo_inurba_marseille","lat":43.26386,"lon":5.37454,"is_reserved":false,"is_disabled":false,"rental_uris":{"android":"levelo://app?vid=2b5f0b27-ae58-4e9e-bd76-c585f78e8a73","ios":"levelo://app?vid=2b5f0b27-ae58-4e9e-bd76-c585f78e8a73"},"vehicle_type_id":"4","last_reported":1700924780,"current_range_meters":10400,"station_id":"","pricing_plan_id":"free"},{"bike_id":"811ac078-90b0-4d75-baa5-41a5d7c5d43c","system_id":"levelo_inurba_marseille","lat":43.265714,"lon":5.372891,"is_reserved":false,"is_disabled":false,"rental_uris":{"android":"levelo://app?vid=811ac078-90b0-4d75-baa5-41a5d7c5d43c","ios":"levelo://app?vid=811ac078-90b0-4d75-baa5-41a5d7c5d43c"},"vehicle_type_id":"4","last_reported":1700924780,"current_range_meters":25200,"station_id":"ce4bhg12rcd13ifvqf70","pricing_plan_id":"free"},{"bike_id":"80f92b4e-0d73-4a76-b9da-355bcb5a9ac1","system_id":"levelo_inurba_marseille","lat":43.308051,"lon":5.43527,"is_reserved":false,"is_disabled":false,"rental_uris":{"android":"levelo://app?vid=80f92b4e-0d73-4a76-b9da-355bcb5a9ac1","ios":"levelo://app?vid=80f92b4e-0d73-4a76-b9da-355bcb5a9ac1"},"vehicle_type_id":"4","last_reported":1700924780,"current_range_meters":10000,"station_id":"ce4bhph2rcd13ifvqheg","pricing_plan_id":"free"},{"bike_id":"0f2b8a0b-2198-4d33-84b6-37090080c044","system_id":"levelo_inurba_marseille","lat":43.265569,"lon":5.390047,"is_reserved":false,"is_disabled":false,"rental_uris":{"android":"levelo://app?vid=0f2b8a0b-2198-4d33-84b6-37090080c044","ios":"levelo://app?vid=0f2b8a0b-2198-4d33-84b6-37090080c044"},"vehicle_type_id":"4","last_reported":1700924780,"current_range_meters":11200,"station_id":"ce4bhe12rcd13ifvqf30","pricing_plan_id":"free"},{"bike_id":"9e691c7c-de2a-416d-9f15-094160bf3de4","system_id":"levelo_inurba_marseille","lat":43.26566,"lon":5.39021,"is_reserved":false,"is_disabled":false,"rental_uris":{"android":"levelo://app?vid=9e691c7c-de2a-416d-9f15-094160bf3de4","ios":"levelo://app?vid=9e691c7c-de2a-416d-9f15-094160bf3de4"},"vehicle_type_id":"4","last_reported":1700924780,"current_range_meters":17600,"station_id":"ce4bhe12rcd13ifvqf30","pricing_plan_id":"free"},{"bike_id":"418cd097-e3aa-4dd7-b4d1-1afa56b4b28a","system_id":"levelo_inurba_marseille","lat":43.26564,"lon":5.39018,"is_reserved":false,"is_disabled":false,"rental_uris":{"android":"levelo://app?vid=418cd097-e3aa-4dd7-b4d1-1afa56b4b28a","ios":"levelo://app?vid=418cd097-e3aa-4dd7-b4d1-1afa56b4b28a"},"vehicle_type_id":"4","last_reported":1700924780,"current_range_meters":24800,"station_id":"ce4bhe12rcd13ifvqf30","pricing_plan_id":"free"},{"bike_id":"20b749f0-9636-40b2-bb6d-6ad36567699d","system_id":"levelo_inurba_marseille","lat":43.265569,"lon":5.390047,"is_reserved":false,"is_disabled":false,"rental_uris":{"android":"levelo://app?vid=20b749f0-9636-40b2-bb6d-6ad36567699d","ios":"levelo://app?vid=20b749f0-9636-40b2-bb6d-6ad36567699d"},"vehicle_type_id":"4","last_reported":1700924780,"current_range_meters":0,"station_id":"ce4bhe12rcd13ifvqf30","pricing_plan_id":"free"},{"bike_id":"7e069ca0-1860-42fd-a0ca-8e88d4c665ec","system_id":"levelo_inurba_marseille","lat":43.26949,"lon":5.40262,"is_reserved":false,"is_disabled":false,"rental_uris":{"android":"levelo://app?vid=7e069ca0-1860-42fd-a0ca-8e88d4c665ec","ios":"levelo://app?vid=7e069ca0-1860-42fd-a0ca-8e88d4c665ec"},"vehicle_type_id":"4","last_reported":1700924780,"current_range_meters":21600,"station_id":"cjm6bp8fraef2m0cb0m0","pricing_plan_id":"free"},{"bike_id":"1b98b7d3-c287-45d9-80ab-ed0171f3329e","system_id":"levelo_inurba_marseille","lat":43.317104,"lon":5.436818,"is_reserved":false,"is_disabled":false,"rental_uris":{"android":"levelo://app?vid=1b98b7d3-c287-45d9-80ab-ed0171f3329e","ios":"levelo://app?vid=1b98b7d3-c287-45d9-80ab-ed0171f3329e"},"vehicle_type_id":"4","last_reported":1700924780,"current_range_meters":31200,"station_id":"ce4bhp92rcd13ifvqhcg","pricing_plan_id":"free"},{"bike_id":"dbf62bfb-d43b-46dc-b301-0e9e00d707fe","system_id":"levelo_inurba_marseille","lat":43.261746,"lon":5.379018,"is_reserved":false,"is_disabled":false,"rental_uris":{"android":"levelo://app?vid=dbf62bfb-d43b-46dc-b301-0e9e00d707fe","ios":"levelo://app?vid=dbf62bfb-d43b-46dc-b301-0e9e00d707fe"},"vehicle_type_id":"4","last_reported":1700924780,"current_range_meters":28000,"station_id":"ce4bhjp2rcd13ifvqg90","pricing_plan_id":"free"},{"bike_id":"f0185995-5ea5-4188-8b2e-cb34dfece5eb","system_id":"levelo_inurba_marseille","lat":43.298768,"lon":5.43643,"is_reserved":false,"is_disabled":false,"rental_uris":{"android":"levelo://app?vid=f0185995-5ea5-4188-8b2e-cb34dfece5eb","ios":"levelo://app?vid=f0185995-5ea5-4188-8b2e-cb34dfece5eb"},"vehicle_type_id":"4","last_reported":1700924780,"current_range_meters":31600,"station_id":"ce4bhpp2rcd13ifvqhfg","pricing_plan_id":"free"},{"bike_id":"7c5a83ac-336c-4b91-a5ea-82b3c6d6127d","system_id":"levelo_inurba_marseille","lat":43.298768,"lon":5.43643,"is_reserved":false,"is_disabled":false,"rental_uris":{"android":"levelo://app?vid=7c5a83ac-336c-4b91-a5ea-82b3c6d6127d","ios":"levelo://app?vid=7c5a83ac-336c-4b91-a5ea-82b3c6d6127d"},"vehicle_type_id":"4","last_reported":1700924780,"current_range_meters":31600,"station_id":"ce4bhpp2rcd13ifvqhfg","pricing_plan_id":"free"},{"bike_id":"91794d0e-e2e6-4dd9-a1b6-ff7501e49342","system_id":"levelo_inurba_marseille","lat":43.29899,"lon":5.43671,"is_reserved":false,"is_disabled":false,"rental_uris":{"android":"levelo://app?vid=91794d0e-e2e6-4dd9-a1b6-ff7501e49342","ios":"levelo://app?vid=91794d0e-e2e6-4dd9-a1b6-ff7501e49342"},"vehicle_type_id":"4","last_reported":1700924780,"current_range_meters":30800,"station_id":"ce4bhpp2rcd13ifvqhfg","pricing_plan_id":"free"},{"bike_id":"8af0d2ed-93d1-485d-9803-40c71e52d0d9","system_id":"levelo_inurba_marseille","lat":43.29901,"lon":5.43672,"is_reserved":false,"is_disabled":false,"rental_uris":{"android":"levelo://app?vid=8af0d2ed-93d1-485d-9803-40c71e52d0d9","ios":"levelo://app?vid=8af0d2ed-93d1-485d-9803-40c71e52d0d9"},"vehicle_type_id":"4","last_reported":1700924780,"current_range_meters":13600,"station_id":"ce4bhpp2rcd13ifvqhfg","pricing_plan_id":"free"},{"bike_id":"009cb011-204e-4392-abca-c547ba380308","system_id":"levelo_inurba_marseille","lat":43.260225,"lon":5.375455,"is_reserved":false,"is_disabled":false,"rental_uris":{"android":"levelo://app?vid=009cb011-204e-4392-abca-c547ba380308","ios":"levelo://app?vid=009cb011-204e-4392-abca-c547ba380308"},"vehicle_type_id":"4","last_reported":1700924780,"current_range_meters":20800,"station_id":"ce4bhgh2rcd13ifvqfa0","pricing_plan_id":"free"},{"bike_id":"9766722c-3e9d-46e0-af74-79605b4d1c01","system_id":"levelo_inurba_marseille","lat":43.26029,"lon":5.37551,"is_reserved":false,"is_disabled":false,"rental_uris":{"android":"levelo://app?vid=9766722c-3e9d-46e0-af74-79605b4d1c01","ios":"levelo://app?vid=9766722c-3e9d-46e0-af74-79605b4d1c01"},"vehicle_type_id":"4","last_reported":1700924780,"current_range_meters":10800,"station_id":"ce4bhgh2rcd13ifvqfa0","pricing_plan_id":"free"},{"bike_id":"b7f5e9d7-8990-46f1-8eea-eafa7ac9a15a","system_id":"levelo_inurba_marseille","lat":43.260225,"lon":5.375455,"is_reserved":false,"is_disabled":false,"rental_uris":{"android":"levelo://app?vid=b7f5e9d7-8990-46f1-8eea-eafa7ac9a15a","ios":"levelo://app?vid=b7f5e9d7-8990-46f1-8eea-eafa7ac9a15a"},"vehicle_type_id":"4","last_reported":1700924780,"current_range_meters":16800,"station_id":"ce4bhgh2rcd13ifvqfa0","pricing_plan_id":"free"},{"bike_id":"2d12bed8-910e-423f-a988-00fe5ee72705","system_id":"levelo_inurba_marseille","lat":43.26025,"lon":5.37552,"is_reserved":false,"is_disabled":false,"rental_uris":{"android":"levelo://app?vid=2d12bed8-910e-423f-a988-00fe5ee72705","ios":"levelo://app?vid=2d12bed8-910e-423f-a988-00fe5ee72705"},"vehicle_type_id":"4","last_reported":1700924780,"current_range_meters":9200,"station_id":"ce4bhgh2rcd13ifvqfa0","pricing_plan_id":"free"},{"bike_id":"1860d913-9ad8-455c-a56e-a5a706db339a","system_id":"levelo_inurba_marseille","lat":43.26024,"lon":5.3755,"is_reserved":false,"is_disabled":false,"rental_uris":{"android":"levelo://app?vid=1860d913-9ad8-455c-a56e-a5a706db339a","ios":"levelo://app?vid=1860d913-9ad8-455c-a56e-a5a706db339a"},"vehicle_type_id":"4","last_reported":1700924780,"current_range_meters":0,"station_id":"ce4bhgh2rcd13ifvqfa0","pricing_plan_id":"free"},{"bike_id":"5ac38179-4d98-4b89-80f2-dc6cd474e479","system_id":"levelo_inurba_marseille","lat":43.28153,"lon":5.42638,"is_reserved":false,"is_disabled":false,"rental_uris":{"android":"levelo://app?vid=5ac38179-4d98-4b89-80f2-dc6cd474e479","ios":"levelo://app?vid=5ac38179-4d98-4b89-80f2-dc6cd474e479"},"vehicle_type_id":"4","last_reported":1700924780,"current_range_meters":16400,"station_id":"ce4bhnh2rcd13ifvqgug","pricing_plan_id":"free"},{"bike_id":"0cafb1e2-d186-45da-8bc2-c0bee2cee1bc","system_id":"levelo_inurba_marseille","lat":43.281548,"lon":5.42643,"is_reserved":false,"is_disabled":false,"rental_uris":{"android":"levelo://app?vid=0cafb1e2-d186-45da-8bc2-c0bee2cee1bc","ios":"levelo://app?vid=0cafb1e2-d186-45da-8bc2-c0bee2cee1bc"},"vehicle_type_id":"4","last_reported":1700924780,"current_range_meters":9600,"station_id":"ce4bhnh2rcd13ifvqgug","pricing_plan_id":"free"},{"bike_id":"5cc76595-4035-4213-b74e-41dabe622aaf","system_id":"levelo_inurba_marseille","lat":43.281489,"lon":5.426381,"is_reserved":false,"is_disabled":false,"rental_uris":{"android":"levelo://app?vid=5cc76595-4035-4213-b74e-41dabe622aaf","ios":"levelo://app?vid=5cc76595-4035-4213-b74e-41dabe622aaf"},"vehicle_type_id":"4","last_reported":1700924780,"current_range_meters":4000,"station_id":"ce4bhnh2rcd13ifvqgug","pricing_plan_id":"free"},{"bike_id":"cbcb8e36-613f-444f-aeb1-60a8d2e9aac0","system_id":"levelo_inurba_marseille","lat":43.281548,"lon":5.42643,"is_reserved":false,"is_disabled":false,"rental_uris":{"android":"levelo://app?vid=cbcb8e36-613f-444f-aeb1-60a8d2e9aac0","ios":"levelo://app?vid=cbcb8e36-613f-444f-aeb1-60a8d2e9aac0"},"vehicle_type_id":"4","last_reported":1700924780,"current_range_meters":28400,"station_id":"ce4bhnh2rcd13ifvqgug","pricing_plan_id":"free"},{"bike_id":"6181795c-d57f-4dce-a524-f46690bf06cb","system_id":"levelo_inurba_marseille","lat":43.2815,"lon":5.42651,"is_reserved":false,"is_disabled":false,"rental_uris":{"android":"levelo://app?vid=6181795c-d57f-4dce-a524-f46690bf06cb","ios":"levelo://app?vid=6181795c-d57f-4dce-a524-f46690bf06cb"},"vehicle_type_id":"4","last_reported":1700924780,"current_range_meters":24800,"station_id":"ce4bhnh2rcd13ifvqgug","pricing_plan_id":"free"},{"bike_id":"f03fbf30-45a3-4420-9e2e-c4a6e91aed1d","system_id":"levelo_inurba_marseille","lat":43.260909,"lon":5.397591,"is_reserved":false,"is_disabled":false,"rental_uris":{"android":"levelo://app?vid=f03fbf30-45a3-4420-9e2e-c4a6e91aed1d","ios":"levelo://app?vid=f03fbf30-45a3-4420-9e2e-c4a6e91aed1d"},"vehicle_type_id":"4","last_reported":1700924780,"current_range_meters":18000,"station_id":"ce4bhi12rcd13ifvqfq0","pricing_plan_id":"free"},{"bike_id":"c85f7616-3a9e-47a4-ae16-28a03e51ab4f","system_id":"levelo_inurba_marseille","lat":43.28933,"lon":5.43865,"is_reserved":false,"is_disabled":false,"rental_uris":{"android":"levelo://app?vid=c85f7616-3a9e-47a4-ae16-28a03e51ab4f","ios":"levelo://app?vid=c85f7616-3a9e-47a4-ae16-28a03e51ab4f"},"vehicle_type_id":"4","last_reported":1700924780,"current_range_meters":7200,"station_id":"","pricing_plan_id":"free"},{"bike_id":"b0d83ef5-738d-4954-9876-f660ecc1d32e","system_id":"levelo_inurba_marseille","lat":43.25578,"lon":5.38231,"is_reserved":false,"is_disabled":false,"rental_uris":{"android":"levelo://app?vid=b0d83ef5-738d-4954-9876-f660ecc1d32e","ios":"levelo://app?vid=b0d83ef5-738d-4954-9876-f660ecc1d32e"},"vehicle_type_id":"4","last_reported":1700924780,"current_range_meters":2800,"station_id":"ce4bhih2rcd13ifvqfs0","pricing_plan_id":"free"},{"bike_id":"23a683a6-9000-4913-9e97-f4bbe9684de3","system_id":"levelo_inurba_marseille","lat":43.254947,"lon":5.376454,"is_reserved":false,"is_disabled":false,"rental_uris":{"android":"levelo://app?vid=23a683a6-9000-4913-9e97-f4bbe9684de3","ios":"levelo://app?vid=23a683a6-9000-4913-9e97-f4bbe9684de3"},"vehicle_type_id":"4","last_reported":1700924780,"current_range_meters":22800,"station_id":"ce4bhh12rcd13ifvqff0","pricing_plan_id":"free"},{"bike_id":"859d16ca-4294-40a2-9478-9742c95d3963","system_id":"levelo_inurba_marseille","lat":43.254947,"lon":5.376454,"is_reserved":false,"is_disabled":false,"rental_uris":{"android":"levelo://app?vid=859d16ca-4294-40a2-9478-9742c95d3963","ios":"levelo://app?vid=859d16ca-4294-40a2-9478-9742c95d3963"},"vehicle_type_id":"4","last_reported":1700924780,"current_range_meters":24400,"station_id":"ce4bhh12rcd13ifvqff0","pricing_plan_id":"free"},{"bike_id":"d8474369-1a04-4104-9fc4-5457ce1a56ee","system_id":"levelo_inurba_marseille","lat":43.254945,"lon":5.376454,"is_reserved":false,"is_disabled":false,"rental_uris":{"android":"levelo://app?vid=d8474369-1a04-4104-9fc4-5457ce1a56ee","ios":"levelo://app?vid=d8474369-1a04-4104-9fc4-5457ce1a56ee"},"vehicle_type_id":"4","last_reported":1700924780,"current_range_meters":12800,"station_id":"ce4bhh12rcd13ifvqff0","pricing_plan_id":"free"},{"bike_id":"f1379d03-73a7-4d87-97f3-3b2eafa095d5","system_id":"levelo_inurba_marseille","lat":43.258658,"lon":5.398935,"is_reserved":false,"is_disabled":false,"rental_uris":{"android":"levelo://app?vid=f1379d03-73a7-4d87-97f3-3b2eafa095d5","ios":"levelo://app?vid=f1379d03-73a7-4d87-97f3-3b2eafa095d5"},"vehicle_type_id":"4","last_reported":1700924780,"current_range_meters":6000,"station_id":"ce4bhl92rcd13ifvqghg","pricing_plan_id":"free"},{"bike_id":"eb29f92b-40e2-42fd-b83c-1f8f6675a825","system_id":"levelo_inurba_marseille","lat":43.259013,"lon":5.409301,"is_reserved":false,"is_disabled":false,"rental_uris":{"android":"levelo://app?vid=eb29f92b-40e2-42fd-b83c-1f8f6675a825","ios":"levelo://app?vid=eb29f92b-40e2-42fd-b83c-1f8f6675a825"},"vehicle_type_id":"4","last_reported":1700924780,"current_range_meters":30400,"station_id":"ce4bhm92rcd13ifvqglg","pricing_plan_id":"free"},{"bike_id":"10c62fae-8a47-463b-8792-10f3343efd0c","system_id":"levelo_inurba_marseille","lat":43.2479,"lon":5.374457,"is_reserved":false,"is_disabled":false,"rental_uris":{"android":"levelo://app?vid=10c62fae-8a47-463b-8792-10f3343efd0c","ios":"levelo://app?vid=10c62fae-8a47-463b-8792-10f3343efd0c"},"vehicle_type_id":"4","last_reported":1700924780,"current_range_meters":24000,"station_id":"ce4bhgh2rcd13ifvqfb0","pricing_plan_id":"free"},{"bike_id":"3b7e7d1f-285d-4f99-adbd-962853e9dec0","system_id":"levelo_inurba_marseille","lat":43.2479,"lon":5.374457,"is_reserved":false,"is_disabled":false,"rental_uris":{"android":"levelo://app?vid=3b7e7d1f-285d-4f99-adbd-962853e9dec0","ios":"levelo://app?vid=3b7e7d1f-285d-4f99-adbd-962853e9dec0"},"vehicle_type_id":"4","last_reported":1700924780,"current_range_meters":26400,"station_id":"ce4bhgh2rcd13ifvqfb0","pricing_plan_id":"free"},{"bike_id":"9f25f169-67f2-47e3-af1e-d9938ed07875","system_id":"levelo_inurba_marseille","lat":43.2479,"lon":5.374457,"is_reserved":false,"is_disabled":false,"rental_uris":{"android":"levelo://app?vid=9f25f169-67f2-47e3-af1e-d9938ed07875","ios":"levelo://app?vid=9f25f169-67f2-47e3-af1e-d9938ed07875"},"vehicle_type_id":"4","last_reported":1700924780,"current_range_meters":31600,"station_id":"ce4bhgh2rcd13ifvqfb0","pricing_plan_id":"free"},{"bike_id":"90cbf5b9-c7c6-4e3f-889d-0e91396eaa9b","system_id":"levelo_inurba_marseille","lat":43.2479,"lon":5.374457,"is_reserved":false,"is_disabled":false,"rental_uris":{"android":"levelo://app?vid=90cbf5b9-c7c6-4e3f-889d-0e91396eaa9b","ios":"levelo://app?vid=90cbf5b9-c7c6-4e3f-889d-0e91396eaa9b"},"vehicle_type_id":"4","last_reported":1700924780,"current_range_meters":31600,"station_id":"ce4bhgh2rcd13ifvqfb0","pricing_plan_id":"free"},{"bike_id":"e9c6b7b1-65ef-4253-af13-f2feadfc71fd","system_id":"levelo_inurba_marseille","lat":43.250897,"lon":5.395161,"is_reserved":false,"is_disabled":false,"rental_uris":{"android":"levelo://app?vid=e9c6b7b1-65ef-4253-af13-f2feadfc71fd","ios":"levelo://app?vid=e9c6b7b1-65ef-4253-af13-f2feadfc71fd"},"vehicle_type_id":"4","last_reported":1700924780,"current_range_meters":27600,"station_id":"ce4bhm12rcd13ifvqgkg","pricing_plan_id":"free"},{"bike_id":"4e22f755-9fb8-454a-aed8-0ce31691dc80","system_id":"levelo_inurba_marseille","lat":43.2473,"lon":5.37395,"is_reserved":false,"is_disabled":false,"rental_uris":{"android":"levelo://app?vid=4e22f755-9fb8-454a-aed8-0ce31691dc80","ios":"levelo://app?vid=4e22f755-9fb8-454a-aed8-0ce31691dc80"},"vehicle_type_id":"4","last_reported":1700924780,"current_range_meters":18800,"station_id":"","pricing_plan_id":"free"},{"bike_id":"a8123fe9-ac5d-4188-9592-822f8f09d18c","system_id":"levelo_inurba_marseille","lat":43.24693,"lon":5.382096,"is_reserved":false,"is_disabled":false,"rental_uris":{"android":"levelo://app?vid=a8123fe9-ac5d-4188-9592-822f8f09d18c","ios":"levelo://app?vid=a8123fe9-ac5d-4188-9592-822f8f09d18c"},"vehicle_type_id":"4","last_reported":1700924780,"current_range_meters":30800,"station_id":"ce4bhih2rcd13ifvqfr0","pricing_plan_id":"free"},{"bike_id":"2b3837b8-8f70-41a7-9ab3-f0345e53423e","system_id":"levelo_inurba_marseille","lat":43.24693,"lon":5.382096,"is_reserved":false,"is_disabled":false,"rental_uris":{"android":"levelo://app?vid=2b3837b8-8f70-41a7-9ab3-f0345e53423e","ios":"levelo://app?vid=2b3837b8-8f70-41a7-9ab3-f0345e53423e"},"vehicle_type_id":"4","last_reported":1700924780,"current_range_meters":22000,"station_id":"ce4bhih2rcd13ifvqfr0","pricing_plan_id":"free"},{"bike_id":"3ab2f497-0219-42ba-b15d-49e2b0e7a5a2","system_id":"levelo_inurba_marseille","lat":43.246467,"lon":5.388984,"is_reserved":false,"is_disabled":false,"rental_uris":{"android":"levelo://app?vid=3ab2f497-0219-42ba-b15d-49e2b0e7a5a2","ios":"levelo://app?vid=3ab2f497-0219-42ba-b15d-49e2b0e7a5a2"},"vehicle_type_id":"4","last_reported":1700924780,"current_range_meters":25600,"station_id":"ce4bhg12rcd13ifvqf60","pricing_plan_id":"free"},{"bike_id":"16cbc471-e842-49b7-be91-1309994883e2","system_id":"levelo_inurba_marseille","lat":43.2464,"lon":5.38896,"is_reserved":false,"is_disabled":false,"rental_uris":{"android":"levelo://app?vid=16cbc471-e842-49b7-be91-1309994883e2","ios":"levelo://app?vid=16cbc471-e842-49b7-be91-1309994883e2"},"vehicle_type_id":"4","last_reported":1700924780,"current_range_meters":25600,"station_id":"ce4bhg12rcd13ifvqf60","pricing_plan_id":"free"},{"bike_id":"90604205-3676-4845-9812-e9f9728828ed","system_id":"levelo_inurba_marseille","lat":43.243884,"lon":5.370737,"is_reserved":false,"is_disabled":false,"rental_uris":{"android":"levelo://app?vid=90604205-3676-4845-9812-e9f9728828ed","ios":"levelo://app?vid=90604205-3676-4845-9812-e9f9728828ed"},"vehicle_type_id":"4","last_reported":1700924780,"current_range_meters":31200,"station_id":"ce4bhhh2rcd13ifvqfk0","pricing_plan_id":"free"},{"bike_id":"768424e9-ddf3-4733-903b-2d0e006982a0","system_id":"levelo_inurba_marseille","lat":43.243884,"lon":5.370736,"is_reserved":false,"is_disabled":false,"rental_uris":{"android":"levelo://app?vid=768424e9-ddf3-4733-903b-2d0e006982a0","ios":"levelo://app?vid=768424e9-ddf3-4733-903b-2d0e006982a0"},"vehicle_type_id":"4","last_reported":1700924780,"current_range_meters":20400,"station_id":"ce4bhhh2rcd13ifvqfk0","pricing_plan_id":"free"},{"bike_id":"8e617dac-5639-4b06-88a8-7d169b55a125","system_id":"levelo_inurba_marseille","lat":43.243866,"lon":5.370562,"is_reserved":false,"is_disabled":false,"rental_uris":{"android":"levelo://app?vid=8e617dac-5639-4b06-88a8-7d169b55a125","ios":"levelo://app?vid=8e617dac-5639-4b06-88a8-7d169b55a125"},"vehicle_type_id":"4","last_reported":1700924780,"current_range_meters":6800,"station_id":"","pricing_plan_id":"free"},{"bike_id":"e7fd7e31-c5a2-439b-a593-cc9cc5a9b36a","system_id":"levelo_inurba_marseille","lat":43.243884,"lon":5.370736,"is_reserved":false,"is_disabled":false,"rental_uris":{"android":"levelo://app?vid=e7fd7e31-c5a2-439b-a593-cc9cc5a9b36a","ios":"levelo://app?vid=e7fd7e31-c5a2-439b-a593-cc9cc5a9b36a"},"vehicle_type_id":"4","last_reported":1700924780,"current_range_meters":30000,"station_id":"ce4bhhh2rcd13ifvqfk0","pricing_plan_id":"free"},{"bike_id":"f208a7fe-6a06-4894-b966-a0fabce96d98","system_id":"levelo_inurba_marseille","lat":43.245581,"lon":5.395069,"is_reserved":false,"is_disabled":false,"rental_uris":{"android":"levelo://app?vid=f208a7fe-6a06-4894-b966-a0fabce96d98","ios":"levelo://app?vid=f208a7fe-6a06-4894-b966-a0fabce96d98"},"vehicle_type_id":"4","last_reported":1700924780,"current_range_meters":29600,"station_id":"ce4bhlp2rcd13ifvqgjg","pricing_plan_id":"free"},{"bike_id":"aacee138-95eb-4dc4-8c3b-28f2bee62089","system_id":"levelo_inurba_marseille","lat":43.24074,"lon":5.37758,"is_reserved":false,"is_disabled":false,"rental_uris":{"android":"levelo://app?vid=aacee138-95eb-4dc4-8c3b-28f2bee62089","ios":"levelo://app?vid=aacee138-95eb-4dc4-8c3b-28f2bee62089"},"vehicle_type_id":"4","last_reported":1700924780,"current_range_meters":17200,"station_id":"ce4bhnp2rcd13ifvqgvg","pricing_plan_id":"free"},{"bike_id":"1cb96f04-f422-460b-925f-998463caffcc","system_id":"levelo_inurba_marseille","lat":43.240699,"lon":5.377525,"is_reserved":false,"is_disabled":false,"rental_uris":{"android":"levelo://app?vid=1cb96f04-f422-460b-925f-998463caffcc","ios":"levelo://app?vid=1cb96f04-f422-460b-925f-998463caffcc"},"vehicle_type_id":"4","last_reported":1700924780,"current_range_meters":31200,"station_id":"ce4bhnp2rcd13ifvqgvg","pricing_plan_id":"free"},{"bike_id":"ff01dbe1-223f-43a9-b0c6-51a5a8d2ed05","system_id":"levelo_inurba_marseille","lat":43.239588,"lon":5.366238,"is_reserved":false,"is_disabled":false,"rental_uris":{"android":"levelo://app?vid=ff01dbe1-223f-43a9-b0c6-51a5a8d2ed05","ios":"levelo://app?vid=ff01dbe1-223f-43a9-b0c6-51a5a8d2ed05"},"vehicle_type_id":"4","last_reported":1700924780,"current_range_meters":31200,"station_id":"ce4bhi12rcd13ifvqfp0","pricing_plan_id":"free"},{"bike_id":"2928aec4-a092-4b20-8697-2fcf599c9821","system_id":"levelo_inurba_marseille","lat":43.239588,"lon":5.366238,"is_reserved":false,"is_disabled":false,"rental_uris":{"android":"levelo://app?vid=2928aec4-a092-4b20-8697-2fcf599c9821","ios":"levelo://app?vid=2928aec4-a092-4b20-8697-2fcf599c9821"},"vehicle_type_id":"4","last_reported":1700924780,"current_range_meters":25600,"station_id":"ce4bhi12rcd13ifvqfp0","pricing_plan_id":"free"},{"bike_id":"340ba89e-beb6-4edd-9f37-a6ad2b2c6a9c","system_id":"levelo_inurba_marseille","lat":43.239588,"lon":5.366238,"is_reserved":false,"is_disabled":false,"rental_uris":{"android":"levelo://app?vid=340ba89e-beb6-4edd-9f37-a6ad2b2c6a9c","ios":"levelo://app?vid=340ba89e-beb6-4edd-9f37-a6ad2b2c6a9c"},"vehicle_type_id":"4","last_reported":1700924780,"current_range_meters":14400,"station_id":"ce4bhi12rcd13ifvqfp0","pricing_plan_id":"free"},{"bike_id":"c8b0fc92-e06b-450c-b7d7-d6ab9ca59443","system_id":"levelo_inurba_marseille","lat":43.239588,"lon":5.366238,"is_reserved":false,"is_disabled":false,"rental_uris":{"android":"levelo://app?vid=c8b0fc92-e06b-450c-b7d7-d6ab9ca59443","ios":"levelo://app?vid=c8b0fc92-e06b-450c-b7d7-d6ab9ca59443"},"vehicle_type_id":"4","last_reported":1700924780,"current_range_meters":30400,"station_id":"ce4bhi12rcd13ifvqfp0","pricing_plan_id":"free"},{"bike_id":"5463f889-e9a8-41c6-b150-294b88a9f82e","system_id":"levelo_inurba_marseille","lat":43.239588,"lon":5.366238,"is_reserved":false,"is_disabled":false,"rental_uris":{"android":"levelo://app?vid=5463f889-e9a8-41c6-b150-294b88a9f82e","ios":"levelo://app?vid=5463f889-e9a8-41c6-b150-294b88a9f82e"},"vehicle_type_id":"4","last_reported":1700924780,"current_range_meters":30800,"station_id":"ce4bhi12rcd13ifvqfp0","pricing_plan_id":"free"},{"bike_id":"4da7c850-c01b-49e2-97e3-0a093981264d","system_id":"levelo_inurba_marseille","lat":43.239588,"lon":5.366238,"is_reserved":false,"is_disabled":false,"rental_uris":{"android":"levelo://app?vid=4da7c850-c01b-49e2-97e3-0a093981264d","ios":"levelo://app?vid=4da7c850-c01b-49e2-97e3-0a093981264d"},"vehicle_type_id":"4","last_reported":1700924780,"current_range_meters":30800,"station_id":"ce4bhi12rcd13ifvqfp0","pricing_plan_id":"free"},{"bike_id":"8ddc8e40-82e4-4cc6-90af-c119357648f0","system_id":"levelo_inurba_marseille","lat":43.239588,"lon":5.366238,"is_reserved":false,"is_disabled":false,"rental_uris":{"android":"levelo://app?vid=8ddc8e40-82e4-4cc6-90af-c119357648f0","ios":"levelo://app?vid=8ddc8e40-82e4-4cc6-90af-c119357648f0"},"vehicle_type_id":"4","last_reported":1700924780,"current_range_meters":25600,"station_id":"ce4bhi12rcd13ifvqfp0","pricing_plan_id":"free"},{"bike_id":"47e43998-06a7-44f6-a336-05874a757f9d","system_id":"levelo_inurba_marseille","lat":43.239588,"lon":5.366238,"is_reserved":false,"is_disabled":false,"rental_uris":{"android":"levelo://app?vid=47e43998-06a7-44f6-a336-05874a757f9d","ios":"levelo://app?vid=47e43998-06a7-44f6-a336-05874a757f9d"},"vehicle_type_id":"4","last_reported":1700924780,"current_range_meters":16000,"station_id":"ce4bhi12rcd13ifvqfp0","pricing_plan_id":"free"},{"bike_id":"a59a9f52-9d06-4b12-9392-cdd5f569c2ca","system_id":"levelo_inurba_marseille","lat":43.239588,"lon":5.366238,"is_reserved":false,"is_disabled":false,"rental_uris":{"android":"levelo://app?vid=a59a9f52-9d06-4b12-9392-cdd5f569c2ca","ios":"levelo://app?vid=a59a9f52-9d06-4b12-9392-cdd5f569c2ca"},"vehicle_type_id":"4","last_reported":1700924780,"current_range_meters":31200,"station_id":"ce4bhi12rcd13ifvqfp0","pricing_plan_id":"free"},{"bike_id":"fc6ccc5a-bc4d-4544-a669-27960c9fde66","system_id":"levelo_inurba_marseille","lat":43.239588,"lon":5.366238,"is_reserved":false,"is_disabled":false,"rental_uris":{"android":"levelo://app?vid=fc6ccc5a-bc4d-4544-a669-27960c9fde66","ios":"levelo://app?vid=fc6ccc5a-bc4d-4544-a669-27960c9fde66"},"vehicle_type_id":"4","last_reported":1700924780,"current_range_meters":19200,"station_id":"ce4bhi12rcd13ifvqfp0","pricing_plan_id":"free"},{"bike_id":"b3ffab4a-cf52-4b4f-9f0f-fcb873d0f038","system_id":"levelo_inurba_marseille","lat":43.23958,"lon":5.36625,"is_reserved":false,"is_disabled":false,"rental_uris":{"android":"levelo://app?vid=b3ffab4a-cf52-4b4f-9f0f-fcb873d0f038","ios":"levelo://app?vid=b3ffab4a-cf52-4b4f-9f0f-fcb873d0f038"},"vehicle_type_id":"4","last_reported":1700924780,"current_range_meters":30800,"station_id":"ce4bhi12rcd13ifvqfp0","pricing_plan_id":"free"},{"bike_id":"fb7be5a0-e980-436b-ac60-879a3e279215","system_id":"levelo_inurba_marseille","lat":43.239588,"lon":5.366238,"is_reserved":false,"is_disabled":false,"rental_uris":{"android":"levelo://app?vid=fb7be5a0-e980-436b-ac60-879a3e279215","ios":"levelo://app?vid=fb7be5a0-e980-436b-ac60-879a3e279215"},"vehicle_type_id":"4","last_reported":1700924780,"current_range_meters":24400,"station_id":"ce4bhi12rcd13ifvqfp0","pricing_plan_id":"free"},{"bike_id":"58a58866-eb62-4645-9cea-dfc48132ebca","system_id":"levelo_inurba_marseille","lat":43.239588,"lon":5.366238,"is_reserved":false,"is_disabled":false,"rental_uris":{"android":"levelo://app?vid=58a58866-eb62-4645-9cea-dfc48132ebca","ios":"levelo://app?vid=58a58866-eb62-4645-9cea-dfc48132ebca"},"vehicle_type_id":"4","last_reported":1700924780,"current_range_meters":16000,"station_id":"ce4bhi12rcd13ifvqfp0","pricing_plan_id":"free"},{"bike_id":"b85da1b8-0e22-4b8f-923e-8fc88aab7cb4","system_id":"levelo_inurba_marseille","lat":43.24176,"lon":5.39725,"is_reserved":false,"is_disabled":false,"rental_uris":{"android":"levelo://app?vid=b85da1b8-0e22-4b8f-923e-8fc88aab7cb4","ios":"levelo://app?vid=b85da1b8-0e22-4b8f-923e-8fc88aab7cb4"},"vehicle_type_id":"4","last_reported":1700924780,"current_range_meters":0,"station_id":"ce4bhn12rcd13ifvqgpg","pricing_plan_id":"free"},{"bike_id":"7136fe83-e669-4cf1-a166-53531a5f3b53","system_id":"levelo_inurba_marseille","lat":43.241782,"lon":5.397261,"is_reserved":false,"is_disabled":false,"rental_uris":{"android":"levelo://app?vid=7136fe83-e669-4cf1-a166-53531a5f3b53","ios":"levelo://app?vid=7136fe83-e669-4cf1-a166-53531a5f3b53"},"vehicle_type_id":"4","last_reported":1700924780,"current_range_meters":17600,"station_id":"ce4bhn12rcd13ifvqgpg","pricing_plan_id":"free"},{"bike_id":"2e445755-799d-4dcc-aee8-5de690fd670a","system_id":"levelo_inurba_marseille","lat":43.231923,"lon":5.355545,"is_reserved":false,"is_disabled":false,"rental_uris":{"android":"levelo://app?vid=2e445755-799d-4dcc-aee8-5de690fd670a","ios":"levelo://app?vid=2e445755-799d-4dcc-aee8-5de690fd670a"},"vehicle_type_id":"4","last_reported":1700924780,"current_range_meters":30400,"station_id":"ce4bhu92rcd13ifvqi70","pricing_plan_id":"free"},{"bike_id":"43681cb1-80b5-4457-bc0d-4145b1f41dfc","system_id":"levelo_inurba_marseille","lat":43.231923,"lon":5.355545,"is_reserved":false,"is_disabled":false,"rental_uris":{"android":"levelo://app?vid=43681cb1-80b5-4457-bc0d-4145b1f41dfc","ios":"levelo://app?vid=43681cb1-80b5-4457-bc0d-4145b1f41dfc"},"vehicle_type_id":"4","last_reported":1700924780,"current_range_meters":30400,"station_id":"ce4bhu92rcd13ifvqi70","pricing_plan_id":"free"},{"bike_id":"0a349838-8936-442e-8a55-c173dbb54834","system_id":"levelo_inurba_marseille","lat":43.23195,"lon":5.35562,"is_reserved":false,"is_disabled":false,"rental_uris":{"android":"levelo://app?vid=0a349838-8936-442e-8a55-c173dbb54834","ios":"levelo://app?vid=0a349838-8936-442e-8a55-c173dbb54834"},"vehicle_type_id":"4","last_reported":1700924780,"current_range_meters":25200,"station_id":"ce4bhu92rcd13ifvqi70","pricing_plan_id":"free"},{"bike_id":"74a04b58-c201-4e6e-9151-c18d98a0a674","system_id":"levelo_inurba_marseille","lat":43.231919,"lon":5.355532,"is_reserved":false,"is_disabled":false,"rental_uris":{"android":"levelo://app?vid=74a04b58-c201-4e6e-9151-c18d98a0a674","ios":"levelo://app?vid=74a04b58-c201-4e6e-9151-c18d98a0a674"},"vehicle_type_id":"4","last_reported":1700924780,"current_range_meters":14800,"station_id":"ce4bhu92rcd13ifvqi70","pricing_plan_id":"free"},{"bike_id":"14398214-31c7-4320-9dea-d2fd3248fb90","system_id":"levelo_inurba_marseille","lat":43.231947,"lon":5.355605,"is_reserved":false,"is_disabled":false,"rental_uris":{"android":"levelo://app?vid=14398214-31c7-4320-9dea-d2fd3248fb90","ios":"levelo://app?vid=14398214-31c7-4320-9dea-d2fd3248fb90"},"vehicle_type_id":"4","last_reported":1700924780,"current_range_meters":30800,"station_id":"ce4bhu92rcd13ifvqi70","pricing_plan_id":"free"},{"bike_id":"76da77ba-a8a2-45d9-bea0-75d9631bba15","system_id":"levelo_inurba_marseille","lat":43.231923,"lon":5.355545,"is_reserved":false,"is_disabled":false,"rental_uris":{"android":"levelo://app?vid=76da77ba-a8a2-45d9-bea0-75d9631bba15","ios":"levelo://app?vid=76da77ba-a8a2-45d9-bea0-75d9631bba15"},"vehicle_type_id":"4","last_reported":1700924780,"current_range_meters":30400,"station_id":"ce4bhu92rcd13ifvqi70","pricing_plan_id":"free"},{"bike_id":"dcc8f0d2-659c-44cb-9a1d-9d57ae623781","system_id":"levelo_inurba_marseille","lat":43.23194,"lon":5.35561,"is_reserved":false,"is_disabled":false,"rental_uris":{"android":"levelo://app?vid=dcc8f0d2-659c-44cb-9a1d-9d57ae623781","ios":"levelo://app?vid=dcc8f0d2-659c-44cb-9a1d-9d57ae623781"},"vehicle_type_id":"4","last_reported":1700924780,"current_range_meters":20800,"station_id":"ce4bhu92rcd13ifvqi70","pricing_plan_id":"free"},{"bike_id":"4bc9d58d-b702-4551-903e-bc6a241e0c70","system_id":"levelo_inurba_marseille","lat":43.23193,"lon":5.35557,"is_reserved":false,"is_disabled":false,"rental_uris":{"android":"levelo://app?vid=4bc9d58d-b702-4551-903e-bc6a241e0c70","ios":"levelo://app?vid=4bc9d58d-b702-4551-903e-bc6a241e0c70"},"vehicle_type_id":"4","last_reported":1700924780,"current_range_meters":15600,"station_id":"ce4bhu92rcd13ifvqi70","pricing_plan_id":"free"},{"bike_id":"48217564-eee6-47a9-ae01-f8f1659e40db","system_id":"levelo_inurba_marseille","lat":43.231923,"lon":5.355545,"is_reserved":false,"is_disabled":false,"rental_uris":{"android":"levelo://app?vid=48217564-eee6-47a9-ae01-f8f1659e40db","ios":"levelo://app?vid=48217564-eee6-47a9-ae01-f8f1659e40db"},"vehicle_type_id":"4","last_reported":1700924780,"current_range_meters":31600,"station_id":"ce4bhu92rcd13ifvqi70","pricing_plan_id":"free"},{"bike_id":"b6ad3896-d180-4d39-a4d6-8a7be3e8c6bd","system_id":"levelo_inurba_marseille","lat":43.231923,"lon":5.355545,"is_reserved":false,"is_disabled":false,"rental_uris":{"android":"levelo://app?vid=b6ad3896-d180-4d39-a4d6-8a7be3e8c6bd","ios":"levelo://app?vid=b6ad3896-d180-4d39-a4d6-8a7be3e8c6bd"},"vehicle_type_id":"4","last_reported":1700924780,"current_range_meters":30400,"station_id":"ce4bhu92rcd13ifvqi70","pricing_plan_id":"free"},{"bike_id":"2c965575-bc91-4e3f-b6d2-1df5b195e3bf","system_id":"levelo_inurba_marseille","lat":43.2319,"lon":5.35559,"is_reserved":false,"is_disabled":false,"rental_uris":{"android":"levelo://app?vid=2c965575-bc91-4e3f-b6d2-1df5b195e3bf","ios":"levelo://app?vid=2c965575-bc91-4e3f-b6d2-1df5b195e3bf"},"vehicle_type_id":"4","last_reported":1700924780,"current_range_meters":21200,"station_id":"ce4bhu92rcd13ifvqi70","pricing_plan_id":"free"},{"bike_id":"42b71bb2-3e67-452d-bdb5-18d18eec3243","system_id":"levelo_inurba_marseille","lat":43.231794,"lon":5.400052,"is_reserved":false,"is_disabled":false,"rental_uris":{"android":"levelo://app?vid=42b71bb2-3e67-452d-bdb5-18d18eec3243","ios":"levelo://app?vid=42b71bb2-3e67-452d-bdb5-18d18eec3243"},"vehicle_type_id":"4","last_reported":1700924780,"current_range_meters":31600,"station_id":"ce4bhn12rcd13ifvqgqg","pricing_plan_id":"free"},{"bike_id":"216d01e0-0894-4b88-9379-35377c1f196b","system_id":"levelo_inurba_marseille","lat":43.231794,"lon":5.400052,"is_reserved":false,"is_disabled":false,"rental_uris":{"android":"levelo://app?vid=216d01e0-0894-4b88-9379-35377c1f196b","ios":"levelo://app?vid=216d01e0-0894-4b88-9379-35377c1f196b"},"vehicle_type_id":"4","last_reported":1700924780,"current_range_meters":31600,"station_id":"ce4bhn12rcd13ifvqgqg","pricing_plan_id":"free"},{"bike_id":"b6bac1b1-f5dd-4b97-b15a-2e653e0aa6ef","system_id":"levelo_inurba_marseille","lat":43.231794,"lon":5.400052,"is_reserved":false,"is_disabled":false,"rental_uris":{"android":"levelo://app?vid=b6bac1b1-f5dd-4b97-b15a-2e653e0aa6ef","ios":"levelo://app?vid=b6bac1b1-f5dd-4b97-b15a-2e653e0aa6ef"},"vehicle_type_id":"4","last_reported":1700924780,"current_range_meters":30800,"station_id":"ce4bhn12rcd13ifvqgqg","pricing_plan_id":"free"},{"bike_id":"8761b89d-2c7f-45ff-9587-cd2b2d7d3bc0","system_id":"levelo_inurba_marseille","lat":43.231793,"lon":5.400044,"is_reserved":false,"is_disabled":false,"rental_uris":{"android":"levelo://app?vid=8761b89d-2c7f-45ff-9587-cd2b2d7d3bc0","ios":"levelo://app?vid=8761b89d-2c7f-45ff-9587-cd2b2d7d3bc0"},"vehicle_type_id":"4","last_reported":1700924780,"current_range_meters":10400,"station_id":"ce4bhn12rcd13ifvqgqg","pricing_plan_id":"free"},{"bike_id":"23a1829f-9a6c-49bf-9a74-ced5b141be40","system_id":"levelo_inurba_marseille","lat":43.23787,"lon":5.43222,"is_reserved":false,"is_disabled":false,"rental_uris":{"android":"levelo://app?vid=23a1829f-9a6c-49bf-9a74-ced5b141be40","ios":"levelo://app?vid=23a1829f-9a6c-49bf-9a74-ced5b141be40"},"vehicle_type_id":"4","last_reported":1700924780,"current_range_meters":2800,"station_id":"","pricing_plan_id":"free"},{"bike_id":"0508bfaa-dc89-4d6c-bd00-5fdfebdcd3d7","system_id":"levelo_inurba_marseille","lat":43.231562,"lon":5.436933,"is_reserved":false,"is_disabled":false,"rental_uris":{"android":"levelo://app?vid=0508bfaa-dc89-4d6c-bd00-5fdfebdcd3d7","ios":"levelo://app?vid=0508bfaa-dc89-4d6c-bd00-5fdfebdcd3d7"},"vehicle_type_id":"4","last_reported":1700924780,"current_range_meters":30400,"station_id":"ce4bhmp2rcd13ifvqgog","pricing_plan_id":"free"},{"bike_id":"9f5a8eea-995a-45d5-8a53-0f7fe9b11cc0","system_id":"levelo_inurba_marseille","lat":43.231562,"lon":5.436933,"is_reserved":false,"is_disabled":false,"rental_uris":{"android":"levelo://app?vid=9f5a8eea-995a-45d5-8a53-0f7fe9b11cc0","ios":"levelo://app?vid=9f5a8eea-995a-45d5-8a53-0f7fe9b11cc0"},