{"last_updated":1781538930,"ttl":60,"version":"2.2","data":{"bikes":[{"bike_id":"a01f69c1-4d52-4c5e-a7ec-e3322fdec9e3","system_id":"levelo_inurba_marseille","lat":43.337444,"lon":5.374475,"is_reserved":false,"is_disabled":false,"rental_uris":{"android":"levelo://app?vid=a01f69c1-4d52-4c5e-a7ec-e3322fdec9e3","ios":"levelo://app?vid=a01f69c1-4d52-4c5e-a7ec-e3322fdec9e3"},"vehicle_type_id":"4","last_reported":1781538931,"current_range_meters":0,"station_id":"","pricing_plan_id":"cebpf4jnsgd1na2vs0mg"},{"bike_id":"110554fd-d52e-4d6b-9b57-7d395db7f6d9","system_id":"levelo_inurba_marseille","lat":43.22563,"lon":5.41623,"is_reserved":false,"is_disabled":false,"rental_uris":{"android":"levelo://app?vid=110554fd-d52e-4d6b-9b57-7d395db7f6d9","ios":"levelo://app?vid=110554fd-d52e-4d6b-9b57-7d395db7f6d9"},"vehicle_type_id":"4","last_reported":1781538931,"current_range_meters":2800,"station_id":"st_d2o4gvlbi1j2169b742g","pricing_plan_id":"cebpf4jnsgd1na2vs0mg"},{"bike_id":"b795bfc9-a1ad-4f7f-9396-059d8cb4f2ca","system_id":"levelo_inurba_marseille","lat":43.290225,"lon":5.381184,"is_reserved":false,"is_disabled":false,"rental_uris":{"android":"levelo://app?vid=b795bfc9-a1ad-4f7f-9396-059d8cb4f2ca","ios":"levelo://app?vid=b795bfc9-a1ad-4f7f-9396-059d8cb4f2ca"},"vehicle_type_id":"4","last_reported":1781538931,"current_range_meters":2800,"station_id":"ce4bh4p2rcd13ifvqe1g","pricing_plan_id":"cebpf4jnsgd1na2vs0mg"},{"bike_id":"40a64e7d-e154-4a69-8de6-b2c67635e51a","system_id":"levelo_inurba_marseille","lat":43.29703,"lon":5.38084,"is_reserved":false,"is_disabled":false,"rental_uris":{"android":"levelo://app?vid=40a64e7d-e154-4a69-8de6-b2c67635e51a","ios":"levelo://app?vid=40a64e7d-e154-4a69-8de6-b2c67635e51a"},"vehicle_type_id":"4","last_reported":1781538931,"current_range_meters":2800,"station_id":"","pricing_plan_id":"cebpf4jnsgd1na2vs0mg"},{"bike_id":"3929d3c5-ebc0-4085-9601-55c6caf31f37","system_id":"levelo_inurba_marseille","lat":43.26012,"lon":5.37573,"is_reserved":false,"is_disabled":false,"rental_uris":{"android":"levelo://app?vid=3929d3c5-ebc0-4085-9601-55c6caf31f37","ios":"levelo://app?vid=3929d3c5-ebc0-4085-9601-55c6caf31f37"},"vehicle_type_id":"4","last_reported":1781538931,"current_range_meters":2800,"station_id":"ce4bhgh2rcd13ifvqfa0","pricing_plan_id":"cebpf4jnsgd1na2vs0mg"},{"bike_id":"8190a43a-5a7f-4c81-b8bb-2f98b191bbe2","system_id":"levelo_inurba_marseille","lat":43.28475,"lon":5.48398,"is_reserved":false,"is_disabled":false,"rental_uris":{"android":"levelo://app?vid=8190a43a-5a7f-4c81-b8bb-2f98b191bbe2","ios":"levelo://app?vid=8190a43a-5a7f-4c81-b8bb-2f98b191bbe2"},"vehicle_type_id":"4","last_reported":1781538931,"current_range_meters":2800,"station_id":"st_d3svhcjqgbts73a3dn0g","pricing_plan_id":"cebpf4jnsgd1na2vs0mg"},{"bike_id":"292d2436-682e-4442-9f7e-f789ccf74207","system_id":"levelo_inurba_marseille","lat":43.310414,"lon":5.371919,"is_reserved":false,"is_disabled":false,"rental_uris":{"android":"levelo://app?vid=292d2436-682e-4442-9f7e-f789ccf74207","ios":"levelo://app?vid=292d2436-682e-4442-9f7e-f789ccf74207"},"vehicle_type_id":"4","last_reported":1781538931,"current_range_meters":2800,"station_id":"st_d4kl2rp97mjs73e7tdfg","pricing_plan_id":"cebpf4jnsgd1na2vs0mg"},{"bike_id":"57a7cebd-4fd3-43c8-a90f-fa289a17b4de","system_id":"levelo_inurba_marseille","lat":43.23793,"lon":5.36623,"is_reserved":false,"is_disabled":false,"rental_uris":{"android":"levelo://app?vid=57a7cebd-4fd3-43c8-a90f-fa289a17b4de","ios":"levelo://app?vid=57a7cebd-4fd3-43c8-a90f-fa289a17b4de"},"vehicle_type_id":"4","last_reported":1781538931,"current_range_meters":2800,"station_id":"st_d3nk18o9ro0c73en2l3g","pricing_plan_id":"cebpf4jnsgd1na2vs0mg"},{"bike_id":"2bbb9c22-078e-4d34-b60a-87ec95d40c64","system_id":"levelo_inurba_marseille","lat":43.22535,"lon":5.34828,"is_reserved":false,"is_disabled":false,"rental_uris":{"android":"levelo://app?vid=2bbb9c22-078e-4d34-b60a-87ec95d40c64","ios":"levelo://app?vid=2bbb9c22-078e-4d34-b60a-87ec95d40c64"},"vehicle_type_id":"4","last_reported":1781538931,"current_range_meters":2800,"station_id":"st_cvj5dfep6f1abm77gieg","pricing_plan_id":"cebpf4jnsgd1na2vs0mg"},{"bike_id":"5e9e8b53-aa5f-404f-b651-3f2c16babdeb","system_id":"levelo_inurba_marseille","lat":43.25867,"lon":5.39903,"is_reserved":false,"is_disabled":false,"rental_uris":{"android":"levelo://app?vid=5e9e8b53-aa5f-404f-b651-3f2c16babdeb","ios":"levelo://app?vid=5e9e8b53-aa5f-404f-b651-3f2c16babdeb"},"vehicle_type_id":"4","last_reported":1781538931,"current_range_meters":2800,"station_id":"ce4bhl92rcd13ifvqghg","pricing_plan_id":"cebpf4jnsgd1na2vs0mg"},{"bike_id":"52aa703f-f425-4fee-adb8-206b3d2835d9","system_id":"levelo_inurba_marseille","lat":43.28612,"lon":5.37062,"is_reserved":false,"is_disabled":false,"rental_uris":{"android":"levelo://app?vid=52aa703f-f425-4fee-adb8-206b3d2835d9","ios":"levelo://app?vid=52aa703f-f425-4fee-adb8-206b3d2835d9"},"vehicle_type_id":"4","last_reported":1781538931,"current_range_meters":2800,"station_id":"ce4bht12rcd13ifvqi60","pricing_plan_id":"cebpf4jnsgd1na2vs0mg"},{"bike_id":"268950d4-fdc8-46e4-ab4e-ed71af411b21","system_id":"levelo_inurba_marseille","lat":43.28026,"lon":5.34847,"is_reserved":false,"is_disabled":false,"rental_uris":{"android":"levelo://app?vid=268950d4-fdc8-46e4-ab4e-ed71af411b21","ios":"levelo://app?vid=268950d4-fdc8-46e4-ab4e-ed71af411b21"},"vehicle_type_id":"4","last_reported":1781538931,"current_range_meters":2800,"station_id":"","pricing_plan_id":"cebpf4jnsgd1na2vs0mg"},{"bike_id":"21ffb014-4935-43d3-ac54-a0279be69d8d","system_id":"levelo_inurba_marseille","lat":43.22549,"lon":5.41634,"is_reserved":false,"is_disabled":false,"rental_uris":{"android":"levelo://app?vid=21ffb014-4935-43d3-ac54-a0279be69d8d","ios":"levelo://app?vid=21ffb014-4935-43d3-ac54-a0279be69d8d"},"vehicle_type_id":"4","last_reported":1781538931,"current_range_meters":2800,"station_id":"st_d2o4gvlbi1j2169b742g","pricing_plan_id":"cebpf4jnsgd1na2vs0mg"},{"bike_id":"5d20bd7e-746b-42fd-a7cb-7f02a59a0f71","system_id":"levelo_inurba_marseille","lat":43.31036,"lon":5.37164,"is_reserved":false,"is_disabled":false,"rental_uris":{"android":"levelo://app?vid=5d20bd7e-746b-42fd-a7cb-7f02a59a0f71","ios":"levelo://app?vid=5d20bd7e-746b-42fd-a7cb-7f02a59a0f71"},"vehicle_type_id":"4","last_reported":1781538931,"current_range_meters":2800,"station_id":"st_d4kl2rp97mjs73e7tdfg","pricing_plan_id":"cebpf4jnsgd1na2vs0mg"},{"bike_id":"33b997dc-b27e-49c4-b2c6-fa98986210cf","system_id":"levelo_inurba_marseille","lat":43.241707,"lon":5.364357,"is_reserved":false,"is_disabled":false,"rental_uris":{"android":"levelo://app?vid=33b997dc-b27e-49c4-b2c6-fa98986210cf","ios":"levelo://app?vid=33b997dc-b27e-49c4-b2c6-fa98986210cf"},"vehicle_type_id":"4","last_reported":1781538931,"current_range_meters":2800,"station_id":"cpo36qri1sfpv3e86is0","pricing_plan_id":"cebpf4jnsgd1na2vs0mg"},{"bike_id":"90f1d521-ed28-45c3-a3f2-4b6f5316aaa7","system_id":"levelo_inurba_marseille","lat":43.298671,"lon":5.397278,"is_reserved":false,"is_disabled":false,"rental_uris":{"android":"levelo://app?vid=90f1d521-ed28-45c3-a3f2-4b6f5316aaa7","ios":"levelo://app?vid=90f1d521-ed28-45c3-a3f2-4b6f5316aaa7"},"vehicle_type_id":"4","last_reported":1781538931,"current_range_meters":2800,"station_id":"ce4bh0h2rcd13ifvqd50","pricing_plan_id":"cebpf4jnsgd1na2vs0mg"},{"bike_id":"984fc14b-6d18-4d9c-8381-120d848e858d","system_id":"levelo_inurba_marseille","lat":43.23804,"lon":5.36645,"is_reserved":false,"is_disabled":false,"rental_uris":{"android":"levelo://app?vid=984fc14b-6d18-4d9c-8381-120d848e858d","ios":"levelo://app?vid=984fc14b-6d18-4d9c-8381-120d848e858d"},"vehicle_type_id":"4","last_reported":1781538931,"current_range_meters":3200,"station_id":"st_d3nk18o9ro0c73en2l3g","pricing_plan_id":"cebpf4jnsgd1na2vs0mg"},{"bike_id":"da0be67b-b8b1-4e87-aae7-77c540e2eb4c","system_id":"levelo_inurba_marseille","lat":43.255197,"lon":5.376572,"is_reserved":false,"is_disabled":false,"rental_uris":{"android":"levelo://app?vid=da0be67b-b8b1-4e87-aae7-77c540e2eb4c","ios":"levelo://app?vid=da0be67b-b8b1-4e87-aae7-77c540e2eb4c"},"vehicle_type_id":"4","last_reported":1781538931,"current_range_meters":3200,"station_id":"ce4bhh12rcd13ifvqff0","pricing_plan_id":"cebpf4jnsgd1na2vs0mg"},{"bike_id":"a9994688-9bd3-404d-9ed0-3757664b0064","system_id":"levelo_inurba_marseille","lat":43.28247,"lon":5.34772,"is_reserved":false,"is_disabled":false,"rental_uris":{"android":"levelo://app?vid=a9994688-9bd3-404d-9ed0-3757664b0064","ios":"levelo://app?vid=a9994688-9bd3-404d-9ed0-3757664b0064"},"vehicle_type_id":"4","last_reported":1781538931,"current_range_meters":3200,"station_id":"","pricing_plan_id":"cebpf4jnsgd1na2vs0mg"},{"bike_id":"29243ed7-1464-4447-96d8-241b73881dbf","system_id":"levelo_inurba_marseille","lat":43.28689,"lon":5.46706,"is_reserved":false,"is_disabled":false,"rental_uris":{"android":"levelo://app?vid=29243ed7-1464-4447-96d8-241b73881dbf","ios":"levelo://app?vid=29243ed7-1464-4447-96d8-241b73881dbf"},"vehicle_type_id":"4","last_reported":1781538931,"current_range_meters":3200,"station_id":"st_d6tc3vkotcvc738tfjhg","pricing_plan_id":"cebpf4jnsgd1na2vs0mg"},{"bike_id":"325767d5-0e81-43d6-9aae-0f585aea92ae","system_id":"levelo_inurba_marseille","lat":43.28417,"lon":5.3751,"is_reserved":false,"is_disabled":false,"rental_uris":{"android":"levelo://app?vid=325767d5-0e81-43d6-9aae-0f585aea92ae","ios":"levelo://app?vid=325767d5-0e81-43d6-9aae-0f585aea92ae"},"vehicle_type_id":"4","last_reported":1781538931,"current_range_meters":3200,"station_id":"ce4bh412rcd13ifvqds0","pricing_plan_id":"cebpf4jnsgd1na2vs0mg"},{"bike_id":"b02b2678-f071-4e71-b2dd-687342863d0e","system_id":"levelo_inurba_marseille","lat":43.24808,"lon":5.37456,"is_reserved":false,"is_disabled":false,"rental_uris":{"android":"levelo://app?vid=b02b2678-f071-4e71-b2dd-687342863d0e","ios":"levelo://app?vid=b02b2678-f071-4e71-b2dd-687342863d0e"},"vehicle_type_id":"4","last_reported":1781538931,"current_range_meters":3200,"station_id":"ce4bhgh2rcd13ifvqfb0","pricing_plan_id":"cebpf4jnsgd1na2vs0mg"},{"bike_id":"87035bcc-9dc2-4338-b531-704674ac8209","system_id":"levelo_inurba_marseille","lat":43.24717,"lon":5.393,"is_reserved":false,"is_disabled":false,"rental_uris":{"android":"levelo://app?vid=87035bcc-9dc2-4338-b531-704674ac8209","ios":"levelo://app?vid=87035bcc-9dc2-4338-b531-704674ac8209"},"vehicle_type_id":"4","last_reported":1781538931,"current_range_meters":3200,"station_id":"","pricing_plan_id":"cebpf4jnsgd1na2vs0mg"},{"bike_id":"05301206-aaf9-4d90-9f4e-9d0a3f245e2d","system_id":"levelo_inurba_marseille","lat":43.31485,"lon":5.37316,"is_reserved":false,"is_disabled":true,"rental_uris":{"android":"levelo://app?vid=05301206-aaf9-4d90-9f4e-9d0a3f245e2d","ios":"levelo://app?vid=05301206-aaf9-4d90-9f4e-9d0a3f245e2d"},"vehicle_type_id":"4","last_reported":1781538931,"current_range_meters":3200,"station_id":"ce4bgt12rcd13ifvqcd0","pricing_plan_id":"cebpf4jnsgd1na2vs0mg"},{"bike_id":"91b99227-08e1-45bd-b8b0-6fb56cf85217","system_id":"levelo_inurba_marseille","lat":43.295201,"lon":5.390488,"is_reserved":false,"is_disabled":false,"rental_uris":{"android":"levelo://app?vid=91b99227-08e1-45bd-b8b0-6fb56cf85217","ios":"levelo://app?vid=91b99227-08e1-45bd-b8b0-6fb56cf85217"},"vehicle_type_id":"4","last_reported":1781538931,"current_range_meters":3200,"station_id":"ce4bh3p2rcd13ifvqdp0","pricing_plan_id":"cebpf4jnsgd1na2vs0mg"},{"bike_id":"a33813cf-0b67-460e-b633-0b023c463c7e","system_id":"levelo_inurba_marseille","lat":43.2467,"lon":5.38154,"is_reserved":false,"is_disabled":false,"rental_uris":{"android":"levelo://app?vid=a33813cf-0b67-460e-b633-0b023c463c7e","ios":"levelo://app?vid=a33813cf-0b67-460e-b633-0b023c463c7e"},"vehicle_type_id":"4","last_reported":1781538931,"current_range_meters":3200,"station_id":"ce4bhih2rcd13ifvqfr0","pricing_plan_id":"cebpf4jnsgd1na2vs0mg"},{"bike_id":"c466c8b2-6c2a-49da-9758-ff6436a3d685","system_id":"levelo_inurba_marseille","lat":43.27471,"lon":5.43956,"is_reserved":false,"is_disabled":false,"rental_uris":{"android":"levelo://app?vid=c466c8b2-6c2a-49da-9758-ff6436a3d685","ios":"levelo://app?vid=c466c8b2-6c2a-49da-9758-ff6436a3d685"},"vehicle_type_id":"4","last_reported":1781538931,"current_range_meters":3200,"station_id":"","pricing_plan_id":"cebpf4jnsgd1na2vs0mg"},{"bike_id":"ca77b7bc-8402-476d-9675-ae2ae4b76db8","system_id":"levelo_inurba_marseille","lat":43.3354,"lon":5.37473,"is_reserved":false,"is_disabled":false,"rental_uris":{"android":"levelo://app?vid=ca77b7bc-8402-476d-9675-ae2ae4b76db8","ios":"levelo://app?vid=ca77b7bc-8402-476d-9675-ae2ae4b76db8"},"vehicle_type_id":"4","last_reported":1781538931,"current_range_meters":3200,"station_id":"st_d46tts09ee8s73dlu43g","pricing_plan_id":"cebpf4jnsgd1na2vs0mg"},{"bike_id":"1138f1c7-d1de-49ce-8076-93b98b551640","system_id":"levelo_inurba_marseille","lat":43.29759,"lon":5.42782,"is_reserved":false,"is_disabled":false,"rental_uris":{"android":"levelo://app?vid=1138f1c7-d1de-49ce-8076-93b98b551640","ios":"levelo://app?vid=1138f1c7-d1de-49ce-8076-93b98b551640"},"vehicle_type_id":"4","last_reported":1781538931,"current_range_meters":3200,"station_id":"st_d3md5207bmas73dh9klg","pricing_plan_id":"cebpf4jnsgd1na2vs0mg"},{"bike_id":"bd0fa992-7cb8-4120-96c7-3dfc189b4a45","system_id":"levelo_inurba_marseille","lat":43.30426,"lon":5.38876,"is_reserved":false,"is_disabled":false,"rental_uris":{"android":"levelo://app?vid=bd0fa992-7cb8-4120-96c7-3dfc189b4a45","ios":"levelo://app?vid=bd0fa992-7cb8-4120-96c7-3dfc189b4a45"},"vehicle_type_id":"4","last_reported":1781538931,"current_range_meters":3200,"station_id":"ce4bgk12rcd13ifvqbi0","pricing_plan_id":"cebpf4jnsgd1na2vs0mg"},{"bike_id":"82ad8253-468a-4fe1-b5d6-63c4e3eee14a","system_id":"levelo_inurba_marseille","lat":43.23169,"lon":5.39997,"is_reserved":false,"is_disabled":false,"rental_uris":{"android":"levelo://app?vid=82ad8253-468a-4fe1-b5d6-63c4e3eee14a","ios":"levelo://app?vid=82ad8253-468a-4fe1-b5d6-63c4e3eee14a"},"vehicle_type_id":"4","last_reported":1781538931,"current_range_meters":3200,"station_id":"ce4bhn12rcd13ifvqgqg","pricing_plan_id":"cebpf4jnsgd1na2vs0mg"},{"bike_id":"863d437d-25d5-4a0a-8171-5545b8100dc3","system_id":"levelo_inurba_marseille","lat":43.30124,"lon":5.39851,"is_reserved":false,"is_disabled":false,"rental_uris":{"android":"levelo://app?vid=863d437d-25d5-4a0a-8171-5545b8100dc3","ios":"levelo://app?vid=863d437d-25d5-4a0a-8171-5545b8100dc3"},"vehicle_type_id":"4","last_reported":1781538931,"current_range_meters":3600,"station_id":"ce4bh0h2rcd13ifvqd40","pricing_plan_id":"cebpf4jnsgd1na2vs0mg"},{"bike_id":"b8f10d9c-7a25-43d0-ac95-8e048eb9cf75","system_id":"levelo_inurba_marseille","lat":43.26241,"lon":5.38804,"is_reserved":false,"is_disabled":false,"rental_uris":{"android":"levelo://app?vid=b8f10d9c-7a25-43d0-ac95-8e048eb9cf75","ios":"levelo://app?vid=b8f10d9c-7a25-43d0-ac95-8e048eb9cf75"},"vehicle_type_id":"4","last_reported":1781538931,"current_range_meters":3600,"station_id":"st_d8gjfg747rts73coq3b0","pricing_plan_id":"cebpf4jnsgd1na2vs0mg"},{"bike_id":"7eeed1c9-3363-4427-9681-1b77313d9956","system_id":"levelo_inurba_marseille","lat":43.26983,"lon":5.39281,"is_reserved":false,"is_disabled":false,"rental_uris":{"android":"levelo://app?vid=7eeed1c9-3363-4427-9681-1b77313d9956","ios":"levelo://app?vid=7eeed1c9-3363-4427-9681-1b77313d9956"},"vehicle_type_id":"4","last_reported":1781538931,"current_range_meters":3600,"station_id":"","pricing_plan_id":"cebpf4jnsgd1na2vs0mg"},{"bike_id":"0fccb92d-b676-4b53-a47f-8113c6e8f6a2","system_id":"levelo_inurba_marseille","lat":43.22548,"lon":5.34825,"is_reserved":false,"is_disabled":false,"rental_uris":{"android":"levelo://app?vid=0fccb92d-b676-4b53-a47f-8113c6e8f6a2","ios":"levelo://app?vid=0fccb92d-b676-4b53-a47f-8113c6e8f6a2"},"vehicle_type_id":"4","last_reported":1781538931,"current_range_meters":3600,"station_id":"st_cvj5dfep6f1abm77gieg","pricing_plan_id":"cebpf4jnsgd1na2vs0mg"},{"bike_id":"42a93172-847b-4c57-905f-c92664f09ce8","system_id":"levelo_inurba_marseille","lat":43.2535,"lon":5.42171,"is_reserved":false,"is_disabled":true,"rental_uris":{"android":"levelo://app?vid=42a93172-847b-4c57-905f-c92664f09ce8","ios":"levelo://app?vid=42a93172-847b-4c57-905f-c92664f09ce8"},"vehicle_type_id":"4","last_reported":1781538931,"current_range_meters":3600,"station_id":"st_d2m65c5bi1j21697t3ng","pricing_plan_id":"cebpf4jnsgd1na2vs0mg"},{"bike_id":"2191068c-a77e-4f5a-87d4-adf4cffa222c","system_id":"levelo_inurba_marseille","lat":43.225322,"lon":5.348339,"is_reserved":false,"is_disabled":false,"rental_uris":{"android":"levelo://app?vid=2191068c-a77e-4f5a-87d4-adf4cffa222c","ios":"levelo://app?vid=2191068c-a77e-4f5a-87d4-adf4cffa222c"},"vehicle_type_id":"4","last_reported":1781538931,"current_range_meters":3600,"station_id":"st_cvj5dfep6f1abm77gieg","pricing_plan_id":"cebpf4jnsgd1na2vs0mg"},{"bike_id":"4987fdcc-ee89-445a-9372-ad14340ddb6c","system_id":"levelo_inurba_marseille","lat":43.22269,"lon":5.40493,"is_reserved":false,"is_disabled":false,"rental_uris":{"android":"levelo://app?vid=4987fdcc-ee89-445a-9372-ad14340ddb6c","ios":"levelo://app?vid=4987fdcc-ee89-445a-9372-ad14340ddb6c"},"vehicle_type_id":"4","last_reported":1781538931,"current_range_meters":3600,"station_id":"","pricing_plan_id":"cebpf4jnsgd1na2vs0mg"},{"bike_id":"5646ce55-852e-4445-8525-c11740b5c1e7","system_id":"levelo_inurba_marseille","lat":43.27175,"lon":5.409939,"is_reserved":false,"is_disabled":false,"rental_uris":{"android":"levelo://app?vid=5646ce55-852e-4445-8525-c11740b5c1e7","ios":"levelo://app?vid=5646ce55-852e-4445-8525-c11740b5c1e7"},"vehicle_type_id":"4","last_reported":1781538931,"current_range_meters":3600,"station_id":"ce4bhl12rcd13ifvqgf0","pricing_plan_id":"cebpf4jnsgd1na2vs0mg"},{"bike_id":"1dd4d99c-2fc3-44a6-a4b7-fcb7c5c7fdd1","system_id":"levelo_inurba_marseille","lat":43.2738,"lon":5.36245,"is_reserved":false,"is_disabled":false,"rental_uris":{"android":"levelo://app?vid=1dd4d99c-2fc3-44a6-a4b7-fcb7c5c7fdd1","ios":"levelo://app?vid=1dd4d99c-2fc3-44a6-a4b7-fcb7c5c7fdd1"},"vehicle_type_id":"4","last_reported":1781538931,"current_range_meters":3600,"station_id":"ce4bhbh2rcd13ifvqeo0","pricing_plan_id":"cebpf4jnsgd1na2vs0mg"},{"bike_id":"9dd627a6-7b34-42d6-941c-f11c82ce1437","system_id":"levelo_inurba_marseille","lat":43.24471,"lon":5.42529,"is_reserved":false,"is_disabled":false,"rental_uris":{"android":"levelo://app?vid=9dd627a6-7b34-42d6-941c-f11c82ce1437","ios":"levelo://app?vid=9dd627a6-7b34-42d6-941c-f11c82ce1437"},"vehicle_type_id":"4","last_reported":1781538931,"current_range_meters":3600,"station_id":"st_d4a3vfp97mjs738cd8kg","pricing_plan_id":"cebpf4jnsgd1na2vs0mg"},{"bike_id":"6a4c8fd6-60ee-49b6-8975-e839260444f5","system_id":"levelo_inurba_marseille","lat":43.29929,"lon":5.41012,"is_reserved":false,"is_disabled":false,"rental_uris":{"android":"levelo://app?vid=6a4c8fd6-60ee-49b6-8975-e839260444f5","ios":"levelo://app?vid=6a4c8fd6-60ee-49b6-8975-e839260444f5"},"vehicle_type_id":"4","last_reported":1781538931,"current_range_meters":3600,"station_id":"","pricing_plan_id":"cebpf4jnsgd1na2vs0mg"},{"bike_id":"878f9134-699e-467b-b3c9-22374bd49288","system_id":"levelo_inurba_marseille","lat":43.27173,"lon":5.40988,"is_reserved":false,"is_disabled":true,"rental_uris":{"android":"levelo://app?vid=878f9134-699e-467b-b3c9-22374bd49288","ios":"levelo://app?vid=878f9134-699e-467b-b3c9-22374bd49288"},"vehicle_type_id":"4","last_reported":1781538931,"current_range_meters":3600,"station_id":"ce4bhl12rcd13ifvqgf0","pricing_plan_id":"cebpf4jnsgd1na2vs0mg"},{"bike_id":"75afe9ee-5476-4190-928e-e4667ec60852","system_id":"levelo_inurba_marseille","lat":43.24159,"lon":5.36418,"is_reserved":false,"is_disabled":false,"rental_uris":{"android":"levelo://app?vid=75afe9ee-5476-4190-928e-e4667ec60852","ios":"levelo://app?vid=75afe9ee-5476-4190-928e-e4667ec60852"},"vehicle_type_id":"4","last_reported":1781538931,"current_range_meters":4000,"station_id":"cpo36qri1sfpv3e86is0","pricing_plan_id":"cebpf4jnsgd1na2vs0mg"},{"bike_id":"5f7da159-23f7-47a0-8199-03eaeb73472d","system_id":"levelo_inurba_marseille","lat":43.31051,"lon":5.37171,"is_reserved":false,"is_disabled":false,"rental_uris":{"android":"levelo://app?vid=5f7da159-23f7-47a0-8199-03eaeb73472d","ios":"levelo://app?vid=5f7da159-23f7-47a0-8199-03eaeb73472d"},"vehicle_type_id":"4","last_reported":1781538931,"current_range_meters":4000,"station_id":"st_d4kl2rp97mjs73e7tdfg","pricing_plan_id":"cebpf4jnsgd1na2vs0mg"},{"bike_id":"d21f0855-b7ae-404a-b583-30fa0106d28a","system_id":"levelo_inurba_marseille","lat":43.23959,"lon":5.36645,"is_reserved":false,"is_disabled":false,"rental_uris":{"android":"levelo://app?vid=d21f0855-b7ae-404a-b583-30fa0106d28a","ios":"levelo://app?vid=d21f0855-b7ae-404a-b583-30fa0106d28a"},"vehicle_type_id":"4","last_reported":1781538931,"current_range_meters":4000,"station_id":"ce4bhi12rcd13ifvqfp0","pricing_plan_id":"cebpf4jnsgd1na2vs0mg"},{"bike_id":"558a5184-0ea9-405a-97b7-8e331fcbdb8b","system_id":"levelo_inurba_marseille","lat":43.24545,"lon":5.41169,"is_reserved":false,"is_disabled":true,"rental_uris":{"android":"levelo://app?vid=558a5184-0ea9-405a-97b7-8e331fcbdb8b","ios":"levelo://app?vid=558a5184-0ea9-405a-97b7-8e331fcbdb8b"},"vehicle_type_id":"4","last_reported":1781538931,"current_range_meters":4000,"station_id":"","pricing_plan_id":"cebpf4jnsgd1na2vs0mg"},{"bike_id":"c799e829-076f-4182-b605-67222339dd23","system_id":"levelo_inurba_marseille","lat":43.29985,"lon":5.37569,"is_reserved":false,"is_disabled":false,"rental_uris":{"android":"levelo://app?vid=c799e829-076f-4182-b605-67222339dd23","ios":"levelo://app?vid=c799e829-076f-4182-b605-67222339dd23"},"vehicle_type_id":"4","last_reported":1781538931,"current_range_meters":4000,"station_id":"","pricing_plan_id":"cebpf4jnsgd1na2vs0mg"},{"bike_id":"9917296e-83ae-445a-ae98-2aaa77119bcb","system_id":"levelo_inurba_marseille","lat":43.26202,"lon":5.37917,"is_reserved":false,"is_disabled":false,"rental_uris":{"android":"levelo://app?vid=9917296e-83ae-445a-ae98-2aaa77119bcb","ios":"levelo://app?vid=9917296e-83ae-445a-ae98-2aaa77119bcb"},"vehicle_type_id":"4","last_reported":1781538931,"current_range_meters":4000,"station_id":"ce4bhjp2rcd13ifvqg90","pricing_plan_id":"cebpf4jnsgd1na2vs0mg"},{"bike_id":"97e3c9f5-7000-44dd-9d78-4e84f6d47393","system_id":"levelo_inurba_marseille","lat":43.23195,"lon":5.35552,"is_reserved":false,"is_disabled":false,"rental_uris":{"android":"levelo://app?vid=97e3c9f5-7000-44dd-9d78-4e84f6d47393","ios":"levelo://app?vid=97e3c9f5-7000-44dd-9d78-4e84f6d47393"},"vehicle_type_id":"4","last_reported":1781538931,"current_range_meters":4000,"station_id":"ce4bhu92rcd13ifvqi70","pricing_plan_id":"cebpf4jnsgd1na2vs0mg"},{"bike_id":"e6fb5538-8273-49c0-bade-b20b46a82e1a","system_id":"levelo_inurba_marseille","lat":43.2963,"lon":5.40621,"is_reserved":false,"is_disabled":false,"rental_uris":{"android":"levelo://app?vid=e6fb5538-8273-49c0-bade-b20b46a82e1a","ios":"levelo://app?vid=e6fb5538-8273-49c0-bade-b20b46a82e1a"},"vehicle_type_id":"4","last_reported":1781538931,"current_range_meters":4000,"station_id":"ce4bh0h2rcd13ifvqd60","pricing_plan_id":"cebpf4jnsgd1na2vs0mg"},{"bike_id":"251af06e-a343-43dc-86b0-44eaa2e6afe5","system_id":"levelo_inurba_marseille","lat":43.29309,"lon":5.37011,"is_reserved":false,"is_disabled":false,"rental_uris":{"android":"levelo://app?vid=251af06e-a343-43dc-86b0-44eaa2e6afe5","ios":"levelo://app?vid=251af06e-a343-43dc-86b0-44eaa2e6afe5"},"vehicle_type_id":"4","last_reported":1781538931,"current_range_meters":4000,"station_id":"","pricing_plan_id":"cebpf4jnsgd1na2vs0mg"},{"bike_id":"b9555f94-9fe0-46c6-9042-a090d7aecf7e","system_id":"levelo_inurba_marseille","lat":43.33718,"lon":5.3918,"is_reserved":false,"is_disabled":false,"rental_uris":{"android":"levelo://app?vid=b9555f94-9fe0-46c6-9042-a090d7aecf7e","ios":"levelo://app?vid=b9555f94-9fe0-46c6-9042-a090d7aecf7e"},"vehicle_type_id":"4","last_reported":1781538931,"current_range_meters":4000,"station_id":"ce4bhr92rcd13ifvqhsg","pricing_plan_id":"cebpf4jnsgd1na2vs0mg"},{"bike_id":"7bfbed69-bb19-484f-bb52-de005b347795","system_id":"levelo_inurba_marseille","lat":43.295125,"lon":5.394102,"is_reserved":false,"is_disabled":false,"rental_uris":{"android":"levelo://app?vid=7bfbed69-bb19-484f-bb52-de005b347795","ios":"levelo://app?vid=7bfbed69-bb19-484f-bb52-de005b347795"},"vehicle_type_id":"4","last_reported":1781538931,"current_range_meters":4000,"station_id":"ce4bh292rcd13ifvqdf0","pricing_plan_id":"cebpf4jnsgd1na2vs0mg"},{"bike_id":"bb598ac3-04c0-49fd-bf7c-4dde00440c2a","system_id":"levelo_inurba_marseille","lat":43.24164,"lon":5.36401,"is_reserved":false,"is_disabled":false,"rental_uris":{"android":"levelo://app?vid=bb598ac3-04c0-49fd-bf7c-4dde00440c2a","ios":"levelo://app?vid=bb598ac3-04c0-49fd-bf7c-4dde00440c2a"},"vehicle_type_id":"4","last_reported":1781538931,"current_range_meters":4000,"station_id":"cpo36qri1sfpv3e86is0","pricing_plan_id":"cebpf4jnsgd1na2vs0mg"},{"bike_id":"41658091-5881-461a-847d-49def7ff9444","system_id":"levelo_inurba_marseille","lat":43.29716,"lon":5.36606,"is_reserved":false,"is_disabled":true,"rental_uris":{"android":"levelo://app?vid=41658091-5881-461a-847d-49def7ff9444","ios":"levelo://app?vid=41658091-5881-461a-847d-49def7ff9444"},"vehicle_type_id":"4","last_reported":1781538931,"current_range_meters":4000,"station_id":"ce4bgn12rcd13ifvqbt0","pricing_plan_id":"cebpf4jnsgd1na2vs0mg"},{"bike_id":"da5d8d1c-8084-46da-b65d-4193194e5c0a","system_id":"levelo_inurba_marseille","lat":43.28486,"lon":5.48395,"is_reserved":false,"is_disabled":false,"rental_uris":{"android":"levelo://app?vid=da5d8d1c-8084-46da-b65d-4193194e5c0a","ios":"levelo://app?vid=da5d8d1c-8084-46da-b65d-4193194e5c0a"},"vehicle_type_id":"4","last_reported":1781538931,"current_range_meters":4400,"station_id":"st_d3svhcjqgbts73a3dn0g","pricing_plan_id":"cebpf4jnsgd1na2vs0mg"},{"bike_id":"db5b4dc6-f234-4c78-8938-77f4fa39fb6e","system_id":"levelo_inurba_marseille","lat":43.29269,"lon":5.38434,"is_reserved":false,"is_disabled":false,"rental_uris":{"android":"levelo://app?vid=db5b4dc6-f234-4c78-8938-77f4fa39fb6e","ios":"levelo://app?vid=db5b4dc6-f234-4c78-8938-77f4fa39fb6e"},"vehicle_type_id":"4","last_reported":1781538931,"current_range_meters":4400,"station_id":"ce4bh692rcd13ifvqea0","pricing_plan_id":"cebpf4jnsgd1na2vs0mg"},{"bike_id":"3bc43e88-8af4-48c8-97a6-95ad88852bd6","system_id":"levelo_inurba_marseille","lat":43.23221,"lon":5.35478,"is_reserved":false,"is_disabled":false,"rental_uris":{"android":"levelo://app?vid=3bc43e88-8af4-48c8-97a6-95ad88852bd6","ios":"levelo://app?vid=3bc43e88-8af4-48c8-97a6-95ad88852bd6"},"vehicle_type_id":"4","last_reported":1781538931,"current_range_meters":4400,"station_id":"","pricing_plan_id":"cebpf4jnsgd1na2vs0mg"},{"bike_id":"3b9ff78b-1f83-4a1c-9dfe-0145f725e760","system_id":"levelo_inurba_marseille","lat":43.30002,"lon":5.36538,"is_reserved":false,"is_disabled":false,"rental_uris":{"android":"levelo://app?vid=3b9ff78b-1f83-4a1c-9dfe-0145f725e760","ios":"levelo://app?vid=3b9ff78b-1f83-4a1c-9dfe-0145f725e760"},"vehicle_type_id":"4","last_reported":1781538931,"current_range_meters":4400,"station_id":"","pricing_plan_id":"cebpf4jnsgd1na2vs0mg"},{"bike_id":"5027ff90-395f-42e4-898e-e5662595b6cd","system_id":"levelo_inurba_marseille","lat":43.26029,"lon":5.37555,"is_reserved":false,"is_disabled":false,"rental_uris":{"android":"levelo://app?vid=5027ff90-395f-42e4-898e-e5662595b6cd","ios":"levelo://app?vid=5027ff90-395f-42e4-898e-e5662595b6cd"},"vehicle_type_id":"4","last_reported":1781538931,"current_range_meters":4400,"station_id":"ce4bhgh2rcd13ifvqfa0","pricing_plan_id":"cebpf4jnsgd1na2vs0mg"},{"bike_id":"9c236d5f-c034-4393-94d8-60b16a8cce62","system_id":"levelo_inurba_marseille","lat":43.28417,"lon":5.34976,"is_reserved":false,"is_disabled":false,"rental_uris":{"android":"levelo://app?vid=9c236d5f-c034-4393-94d8-60b16a8cce62","ios":"levelo://app?vid=9c236d5f-c034-4393-94d8-60b16a8cce62"},"vehicle_type_id":"4","last_reported":1781538931,"current_range_meters":4400,"station_id":"ce4bhbh2rcd13ifvqepg","pricing_plan_id":"cebpf4jnsgd1na2vs0mg"},{"bike_id":"64e0a3e8-a01a-4813-8815-6291247985e9","system_id":"levelo_inurba_marseille","lat":43.24183,"lon":5.39721,"is_reserved":false,"is_disabled":false,"rental_uris":{"android":"levelo://app?vid=64e0a3e8-a01a-4813-8815-6291247985e9","ios":"levelo://app?vid=64e0a3e8-a01a-4813-8815-6291247985e9"},"vehicle_type_id":"4","last_reported":1781538931,"current_range_meters":4400,"station_id":"ce4bhn12rcd13ifvqgpg","pricing_plan_id":"cebpf4jnsgd1na2vs0mg"},{"bike_id":"10038fea-a302-44e7-a217-77fdb79527e7","system_id":"levelo_inurba_marseille","lat":43.27918,"lon":5.39583,"is_reserved":false,"is_disabled":false,"rental_uris":{"android":"levelo://app?vid=10038fea-a302-44e7-a217-77fdb79527e7","ios":"levelo://app?vid=10038fea-a302-44e7-a217-77fdb79527e7"},"vehicle_type_id":"4","last_reported":1781538931,"current_range_meters":4400,"station_id":"ce4bhf92rcd13ifvqf40","pricing_plan_id":"cebpf4jnsgd1na2vs0mg"},{"bike_id":"a60dfc0f-b9f2-4a62-84b2-a659ed75a1ae","system_id":"levelo_inurba_marseille","lat":43.29628,"lon":5.39092,"is_reserved":false,"is_disabled":false,"rental_uris":{"android":"levelo://app?vid=a60dfc0f-b9f2-4a62-84b2-a659ed75a1ae","ios":"levelo://app?vid=a60dfc0f-b9f2-4a62-84b2-a659ed75a1ae"},"vehicle_type_id":"4","last_reported":1781538931,"current_range_meters":4400,"station_id":"","pricing_plan_id":"cebpf4jnsgd1na2vs0mg"},{"bike_id":"34cc3ca3-4d01-4e14-b299-929ea490d4a4","system_id":"levelo_inurba_marseille","lat":43.26645,"lon":5.38962,"is_reserved":false,"is_disabled":false,"rental_uris":{"android":"levelo://app?vid=34cc3ca3-4d01-4e14-b299-929ea490d4a4","ios":"levelo://app?vid=34cc3ca3-4d01-4e14-b299-929ea490d4a4"},"vehicle_type_id":"4","last_reported":1781538931,"current_range_meters":4400,"station_id":"","pricing_plan_id":"cebpf4jnsgd1na2vs0mg"},{"bike_id":"b2ea6d31-3125-4c8f-9bbf-89e8f92228e9","system_id":"levelo_inurba_marseille","lat":43.29931,"lon":5.38208,"is_reserved":false,"is_disabled":false,"rental_uris":{"android":"levelo://app?vid=b2ea6d31-3125-4c8f-9bbf-89e8f92228e9","ios":"levelo://app?vid=b2ea6d31-3125-4c8f-9bbf-89e8f92228e9"},"vehicle_type_id":"4","last_reported":1781538931,"current_range_meters":4400,"station_id":"","pricing_plan_id":"cebpf4jnsgd1na2vs0mg"},{"bike_id":"6e9e5797-9871-43e1-93b9-ea951b0b5874","system_id":"levelo_inurba_marseille","lat":43.2842,"lon":5.34973,"is_reserved":false,"is_disabled":false,"rental_uris":{"android":"levelo://app?vid=6e9e5797-9871-43e1-93b9-ea951b0b5874","ios":"levelo://app?vid=6e9e5797-9871-43e1-93b9-ea951b0b5874"},"vehicle_type_id":"4","last_reported":1781538931,"current_range_meters":4400,"station_id":"ce4bhbh2rcd13ifvqepg","pricing_plan_id":"cebpf4jnsgd1na2vs0mg"},{"bike_id":"afa77d6f-ce78-4eee-9727-eb59efef4334","system_id":"levelo_inurba_marseille","lat":43.22555,"lon":5.41638,"is_reserved":false,"is_disabled":false,"rental_uris":{"android":"levelo://app?vid=afa77d6f-ce78-4eee-9727-eb59efef4334","ios":"levelo://app?vid=afa77d6f-ce78-4eee-9727-eb59efef4334"},"vehicle_type_id":"4","last_reported":1781538931,"current_range_meters":4400,"station_id":"st_d2o4gvlbi1j2169b742g","pricing_plan_id":"cebpf4jnsgd1na2vs0mg"},{"bike_id":"8bbcd48e-8342-4a7e-85dc-1ebd147c41f1","system_id":"levelo_inurba_marseille","lat":43.22534,"lon":5.34832,"is_reserved":false,"is_disabled":false,"rental_uris":{"android":"levelo://app?vid=8bbcd48e-8342-4a7e-85dc-1ebd147c41f1","ios":"levelo://app?vid=8bbcd48e-8342-4a7e-85dc-1ebd147c41f1"},"vehicle_type_id":"4","last_reported":1781538931,"current_range_meters":4400,"station_id":"st_cvj5dfep6f1abm77gieg","pricing_plan_id":"cebpf4jnsgd1na2vs0mg"},{"bike_id":"f6615619-2d25-4189-bcb5-12ad464a7c08","system_id":"levelo_inurba_marseille","lat":43.3147,"lon":5.38581,"is_reserved":false,"is_disabled":false,"rental_uris":{"android":"levelo://app?vid=f6615619-2d25-4189-bcb5-12ad464a7c08","ios":"levelo://app?vid=f6615619-2d25-4189-bcb5-12ad464a7c08"},"vehicle_type_id":"4","last_reported":1781538931,"current_range_meters":4800,"station_id":"","pricing_plan_id":"cebpf4jnsgd1na2vs0mg"},{"bike_id":"85a26832-1e49-4880-b4f3-be24cd67779a","system_id":"levelo_inurba_marseille","lat":43.2972,"lon":5.40074,"is_reserved":false,"is_disabled":false,"rental_uris":{"android":"levelo://app?vid=85a26832-1e49-4880-b4f3-be24cd67779a","ios":"levelo://app?vid=85a26832-1e49-4880-b4f3-be24cd67779a"},"vehicle_type_id":"4","last_reported":1781538931,"current_range_meters":4800,"station_id":"","pricing_plan_id":"cebpf4jnsgd1na2vs0mg"},{"bike_id":"be970e78-d7b9-4c21-9cae-e19c7f5fd8fb","system_id":"levelo_inurba_marseille","lat":43.24165,"lon":5.36399,"is_reserved":false,"is_disabled":false,"rental_uris":{"android":"levelo://app?vid=be970e78-d7b9-4c21-9cae-e19c7f5fd8fb","ios":"levelo://app?vid=be970e78-d7b9-4c21-9cae-e19c7f5fd8fb"},"vehicle_type_id":"4","last_reported":1781538931,"current_range_meters":4800,"station_id":"cpo36qri1sfpv3e86is0","pricing_plan_id":"cebpf4jnsgd1na2vs0mg"},{"bike_id":"ad7d2f89-1f91-42fe-862d-d32629f4663b","system_id":"levelo_inurba_marseille","lat":43.24551,"lon":5.39517,"is_reserved":false,"is_disabled":false,"rental_uris":{"android":"levelo://app?vid=ad7d2f89-1f91-42fe-862d-d32629f4663b","ios":"levelo://app?vid=ad7d2f89-1f91-42fe-862d-d32629f4663b"},"vehicle_type_id":"4","last_reported":1781538931,"current_range_meters":4800,"station_id":"ce4bhlp2rcd13ifvqgjg","pricing_plan_id":"cebpf4jnsgd1na2vs0mg"},{"bike_id":"c1f68980-2c23-4bea-a5b7-10eab983fb1d","system_id":"levelo_inurba_marseille","lat":43.29214,"lon":5.36047,"is_reserved":false,"is_disabled":true,"rental_uris":{"android":"levelo://app?vid=c1f68980-2c23-4bea-a5b7-10eab983fb1d","ios":"levelo://app?vid=c1f68980-2c23-4bea-a5b7-10eab983fb1d"},"vehicle_type_id":"4","last_reported":1781538931,"current_range_meters":4800,"station_id":"ce4bhbh2rcd13ifvqeqg","pricing_plan_id":"cebpf4jnsgd1na2vs0mg"},{"bike_id":"d0e687e2-d20a-45a3-9426-b5631dc5dae4","system_id":"levelo_inurba_marseille","lat":43.31917,"lon":5.36803,"is_reserved":false,"is_disabled":false,"rental_uris":{"android":"levelo://app?vid=d0e687e2-d20a-45a3-9426-b5631dc5dae4","ios":"levelo://app?vid=d0e687e2-d20a-45a3-9426-b5631dc5dae4"},"vehicle_type_id":"4","last_reported":1781538931,"current_range_meters":4800,"station_id":"st_d6o2h0d0559c73evc1b0","pricing_plan_id":"cebpf4jnsgd1na2vs0mg"},{"bike_id":"cf6805a6-6f9c-4862-9067-853782c81024","system_id":"levelo_inurba_marseille","lat":43.3144,"lon":5.3739,"is_reserved":false,"is_disabled":false,"rental_uris":{"android":"levelo://app?vid=cf6805a6-6f9c-4862-9067-853782c81024","ios":"levelo://app?vid=cf6805a6-6f9c-4862-9067-853782c81024"},"vehicle_type_id":"4","last_reported":1781538931,"current_range_meters":4800,"station_id":"","pricing_plan_id":"cebpf4jnsgd1na2vs0mg"},{"bike_id":"c8e58851-15ad-437e-b43e-b49d43464443","system_id":"levelo_inurba_marseille","lat":43.28271,"lon":5.35052,"is_reserved":false,"is_disabled":false,"rental_uris":{"android":"levelo://app?vid=c8e58851-15ad-437e-b43e-b49d43464443","ios":"levelo://app?vid=c8e58851-15ad-437e-b43e-b49d43464443"},"vehicle_type_id":"4","last_reported":1781538931,"current_range_meters":4800,"station_id":"ce4bhbp2rcd13ifvqerg","pricing_plan_id":"cebpf4jnsgd1na2vs0mg"},{"bike_id":"99059cb2-2f71-49a5-aaad-40fc558439cd","system_id":"levelo_inurba_marseille","lat":43.31307,"lon":5.39706,"is_reserved":false,"is_disabled":false,"rental_uris":{"android":"levelo://app?vid=99059cb2-2f71-49a5-aaad-40fc558439cd","ios":"levelo://app?vid=99059cb2-2f71-49a5-aaad-40fc558439cd"},"vehicle_type_id":"4","last_reported":1781538931,"current_range_meters":4800,"station_id":"ce4bgvp2rcd13ifvqcu0","pricing_plan_id":"cebpf4jnsgd1na2vs0mg"},{"bike_id":"731979a3-bc68-4c96-92fd-1f561806c240","system_id":"levelo_inurba_marseille","lat":43.303128,"lon":5.369038,"is_reserved":false,"is_disabled":true,"rental_uris":{"android":"levelo://app?vid=731979a3-bc68-4c96-92fd-1f561806c240","ios":"levelo://app?vid=731979a3-bc68-4c96-92fd-1f561806c240"},"vehicle_type_id":"4","last_reported":1781538931,"current_range_meters":4800,"station_id":"ce4bhgh2rcd13ifvqfb0","pricing_plan_id":"cebpf4jnsgd1na2vs0mg"},{"bike_id":"21f9e864-eb59-4bb3-baec-10b6ff0270bc","system_id":"levelo_inurba_marseille","lat":43.29631,"lon":5.37736,"is_reserved":false,"is_disabled":false,"rental_uris":{"android":"levelo://app?vid=21f9e864-eb59-4bb3-baec-10b6ff0270bc","ios":"levelo://app?vid=21f9e864-eb59-4bb3-baec-10b6ff0270bc"},"vehicle_type_id":"4","last_reported":1781538931,"current_range_meters":4800,"station_id":"ce4bgi92rcd13ifvqb90","pricing_plan_id":"cebpf4jnsgd1na2vs0mg"},{"bike_id":"efe86296-843c-47d1-abf7-44fe56da5375","system_id":"levelo_inurba_marseille","lat":43.28638,"lon":5.35063,"is_reserved":false,"is_disabled":false,"rental_uris":{"android":"levelo://app?vid=efe86296-843c-47d1-abf7-44fe56da5375","ios":"levelo://app?vid=efe86296-843c-47d1-abf7-44fe56da5375"},"vehicle_type_id":"4","last_reported":1781538931,"current_range_meters":4800,"station_id":"ce4bhch2rcd13ifvqeug","pricing_plan_id":"cebpf4jnsgd1na2vs0mg"},{"bike_id":"f05d51fd-8168-40ef-bc57-ac3a67452135","system_id":"levelo_inurba_marseille","lat":43.280019,"lon":5.400126,"is_reserved":false,"is_disabled":false,"rental_uris":{"android":"levelo://app?vid=f05d51fd-8168-40ef-bc57-ac3a67452135","ios":"levelo://app?vid=f05d51fd-8168-40ef-bc57-ac3a67452135"},"vehicle_type_id":"4","last_reported":1781538931,"current_range_meters":4800,"station_id":"ce4bho92rcd13ifvqh4g","pricing_plan_id":"cebpf4jnsgd1na2vs0mg"},{"bike_id":"f12b692b-f1b2-43c8-8309-4b487cabc646","system_id":"levelo_inurba_marseille","lat":43.29162,"lon":5.38495,"is_reserved":false,"is_disabled":false,"rental_uris":{"android":"levelo://app?vid=f12b692b-f1b2-43c8-8309-4b487cabc646","ios":"levelo://app?vid=f12b692b-f1b2-43c8-8309-4b487cabc646"},"vehicle_type_id":"4","last_reported":1781538931,"current_range_meters":4800,"station_id":"","pricing_plan_id":"cebpf4jnsgd1na2vs0mg"},{"bike_id":"a3a65c73-de0b-4faa-936b-cab49239785e","system_id":"levelo_inurba_marseille","lat":43.23179,"lon":5.3997,"is_reserved":false,"is_disabled":false,"rental_uris":{"android":"levelo://app?vid=a3a65c73-de0b-4faa-936b-cab49239785e","ios":"levelo://app?vid=a3a65c73-de0b-4faa-936b-cab49239785e"},"vehicle_type_id":"4","last_reported":1781538931,"current_range_meters":4800,"station_id":"ce4bhn12rcd13ifvqgqg","pricing_plan_id":"cebpf4jnsgd1na2vs0mg"},{"bike_id":"9a1cc2c6-f125-4427-9576-1ea54006fd27","system_id":"levelo_inurba_marseille","lat":43.28319,"lon":5.38834,"is_reserved":false,"is_disabled":false,"rental_uris":{"android":"levelo://app?vid=9a1cc2c6-f125-4427-9576-1ea54006fd27","ios":"levelo://app?vid=9a1cc2c6-f125-4427-9576-1ea54006fd27"},"vehicle_type_id":"4","last_reported":1781538931,"current_range_meters":4800,"station_id":"","pricing_plan_id":"cebpf4jnsgd1na2vs0mg"},{"bike_id":"c3712d0e-5588-42eb-adb2-3bd16b3b91e4","system_id":"levelo_inurba_marseille","lat":43.292969,"lon":5.374586,"is_reserved":false,"is_disabled":false,"rental_uris":{"android":"levelo://app?vid=c3712d0e-5588-42eb-adb2-3bd16b3b91e4","ios":"levelo://app?vid=c3712d0e-5588-42eb-adb2-3bd16b3b91e4"},"vehicle_type_id":"4","last_reported":1781538931,"current_range_meters":4800,"station_id":"ce4bgi12rcd13ifvqb70","pricing_plan_id":"cebpf4jnsgd1na2vs0mg"},{"bike_id":"9499517d-ac7e-46ec-b737-693108100a2d","system_id":"levelo_inurba_marseille","lat":43.22537,"lon":5.34835,"is_reserved":false,"is_disabled":false,"rental_uris":{"android":"levelo://app?vid=9499517d-ac7e-46ec-b737-693108100a2d","ios":"levelo://app?vid=9499517d-ac7e-46ec-b737-693108100a2d"},"vehicle_type_id":"4","last_reported":1781538931,"current_range_meters":4800,"station_id":"st_cvj5dfep6f1abm77gieg","pricing_plan_id":"cebpf4jnsgd1na2vs0mg"},{"bike_id":"682deaad-1a2a-49b1-b72a-64a6457d1721","system_id":"levelo_inurba_marseille","lat":43.22533,"lon":5.348374,"is_reserved":false,"is_disabled":false,"rental_uris":{"android":"levelo://app?vid=682deaad-1a2a-49b1-b72a-64a6457d1721","ios":"levelo://app?vid=682deaad-1a2a-49b1-b72a-64a6457d1721"},"vehicle_type_id":"4","last_reported":1781538931,"current_range_meters":4800,"station_id":"st_cvj5dfep6f1abm77gieg","pricing_plan_id":"cebpf4jnsgd1na2vs0mg"},{"bike_id":"8ed01824-88a4-4d11-9491-91231461a64a","system_id":"levelo_inurba_marseille","lat":43.22536,"lon":5.3482,"is_reserved":false,"is_disabled":false,"rental_uris":{"android":"levelo://app?vid=8ed01824-88a4-4d11-9491-91231461a64a","ios":"levelo://app?vid=8ed01824-88a4-4d11-9491-91231461a64a"},"vehicle_type_id":"4","last_reported":1781538931,"current_range_meters":4800,"station_id":"st_cvj5dfep6f1abm77gieg","pricing_plan_id":"cebpf4jnsgd1na2vs0mg"},{"bike_id":"c19fb9c2-349c-48e3-8780-585b6749c07b","system_id":"levelo_inurba_marseille","lat":43.25185,"lon":5.37444,"is_reserved":false,"is_disabled":false,"rental_uris":{"android":"levelo://app?vid=c19fb9c2-349c-48e3-8780-585b6749c07b","ios":"levelo://app?vid=c19fb9c2-349c-48e3-8780-585b6749c07b"},"vehicle_type_id":"4","last_reported":1781538931,"current_range_meters":4800,"station_id":"","pricing_plan_id":"cebpf4jnsgd1na2vs0mg"},{"bike_id":"7e6681a1-9698-4cba-aa84-6d5f24e09659","system_id":"levelo_inurba_marseille","lat":43.29309,"lon":5.37451,"is_reserved":false,"is_disabled":false,"rental_uris":{"android":"levelo://app?vid=7e6681a1-9698-4cba-aa84-6d5f24e09659","ios":"levelo://app?vid=7e6681a1-9698-4cba-aa84-6d5f24e09659"},"vehicle_type_id":"4","last_reported":1781538931,"current_range_meters":4800,"station_id":"ce4bgi12rcd13ifvqb70","pricing_plan_id":"cebpf4jnsgd1na2vs0mg"},{"bike_id":"5023d706-2a76-4f18-adbc-09b16eee5684","system_id":"levelo_inurba_marseille","lat":43.28614,"lon":5.35104,"is_reserved":false,"is_disabled":false,"rental_uris":{"android":"levelo://app?vid=5023d706-2a76-4f18-adbc-09b16eee5684","ios":"levelo://app?vid=5023d706-2a76-4f18-adbc-09b16eee5684"},"vehicle_type_id":"4","last_reported":1781538931,"current_range_meters":4800,"station_id":"ce4bhch2rcd13ifvqeug","pricing_plan_id":"cebpf4jnsgd1na2vs0mg"},{"bike_id":"9b8180d1-5de8-4b06-a649-5b9887f66a0d","system_id":"levelo_inurba_marseille","lat":43.32589,"lon":5.38753,"is_reserved":false,"is_disabled":false,"rental_uris":{"android":"levelo://app?vid=9b8180d1-5de8-4b06-a649-5b9887f66a0d","ios":"levelo://app?vid=9b8180d1-5de8-4b06-a649-5b9887f66a0d"},"vehicle_type_id":"4","last_reported":1781538931,"current_range_meters":5600,"station_id":"","pricing_plan_id":"cebpf4jnsgd1na2vs0mg"},{"bike_id":"9e780a07-5609-4021-8fe1-465144d05c90","system_id":"levelo_inurba_marseille","lat":43.28694,"lon":5.37726,"is_reserved":false,"is_disabled":false,"rental_uris":{"android":"levelo://app?vid=9e780a07-5609-4021-8fe1-465144d05c90","ios":"levelo://app?vid=9e780a07-5609-4021-8fe1-465144d05c90"},"vehicle_type_id":"4","last_reported":1781538931,"current_range_meters":5600,"station_id":"","pricing_plan_id":"cebpf4jnsgd1na2vs0mg"},{"bike_id":"cc88ac88-6fa6-4664-9c80-b91e0849a824","system_id":"levelo_inurba_marseille","lat":43.23881,"lon":5.36532,"is_reserved":false,"is_disabled":false,"rental_uris":{"android":"levelo://app?vid=cc88ac88-6fa6-4664-9c80-b91e0849a824","ios":"levelo://app?vid=cc88ac88-6fa6-4664-9c80-b91e0849a824"},"vehicle_type_id":"4","last_reported":1781538931,"current_range_meters":5600,"station_id":"","pricing_plan_id":"cebpf4jnsgd1na2vs0mg"},{"bike_id":"ecb13e5f-b21f-43d0-b5cf-eebfab7c2616","system_id":"levelo_inurba_marseille","lat":43.25555,"lon":5.38238,"is_reserved":false,"is_disabled":false,"rental_uris":{"android":"levelo://app?vid=ecb13e5f-b21f-43d0-b5cf-eebfab7c2616","ios":"levelo://app?vid=ecb13e5f-b21f-43d0-b5cf-eebfab7c2616"},"vehicle_type_id":"4","last_reported":1781538931,"current_range_meters":5600,"station_id":"ce4bhih2rcd13ifvqfs0","pricing_plan_id":"cebpf4jnsgd1na2vs0mg"},{"bike_id":"3add0652-a243-4809-9a04-912b52cdce90","system_id":"levelo_inurba_marseille","lat":43.28678,"lon":5.36362,"is_reserved":false,"is_disabled":false,"rental_uris":{"android":"levelo://app?vid=3add0652-a243-4809-9a04-912b52cdce90","ios":"levelo://app?vid=3add0652-a243-4809-9a04-912b52cdce90"},"vehicle_type_id":"4","last_reported":1781538931,"current_range_meters":5600,"station_id":"ce4bhah2rcd13ifvqej0","pricing_plan_id":"cebpf4jnsgd1na2vs0mg"},{"bike_id":"928ddb80-8db9-42c3-9070-4ced6814c293","system_id":"levelo_inurba_marseille","lat":43.29558,"lon":5.42291,"is_reserved":false,"is_disabled":false,"rental_uris":{"android":"levelo://app?vid=928ddb80-8db9-42c3-9070-4ced6814c293","ios":"levelo://app?vid=928ddb80-8db9-42c3-9070-4ced6814c293"},"vehicle_type_id":"4","last_reported":1781538931,"current_range_meters":5600,"station_id":"ce4bhph2rcd13ifvqhdg","pricing_plan_id":"cebpf4jnsgd1na2vs0mg"},{"bike_id":"0abd87cb-fcb6-4ec2-9391-3b827f5addee","system_id":"levelo_inurba_marseille","lat":43.29282,"lon":5.40118,"is_reserved":false,"is_disabled":false,"rental_uris":{"android":"levelo://app?vid=0abd87cb-fcb6-4ec2-9391-3b827f5addee","ios":"levelo://app?vid=0abd87cb-fcb6-4ec2-9391-3b827f5addee"},"vehicle_type_id":"4","last_reported":1781538931,"current_range_meters":5600,"station_id":"ce4bh312rcd13ifvqdk0","pricing_plan_id":"cebpf4jnsgd1na2vs0mg"},{"bike_id":"aef4eac5-180d-42a8-8c41-c8b86678dac5","system_id":"levelo_inurba_marseille","lat":43.30418,"lon":5.4127,"is_reserved":false,"is_disabled":false,"rental_uris":{"android":"levelo://app?vid=aef4eac5-180d-42a8-8c41-c8b86678dac5","ios":"levelo://app?vid=aef4eac5-180d-42a8-8c41-c8b86678dac5"},"vehicle_type_id":"4","last_reported":1781538931,"current_range_meters":5600,"station_id":"ce4bhop2rcd13ifvqh8g","pricing_plan_id":"cebpf4jnsgd1na2vs0mg"},{"bike_id":"2f3ad772-8d8c-42a1-8875-892caab1f437","system_id":"levelo_inurba_marseille","lat":43.27172,"lon":5.40997,"is_reserved":false,"is_disabled":false,"rental_uris":{"android":"levelo://app?vid=2f3ad772-8d8c-42a1-8875-892caab1f437","ios":"levelo://app?vid=2f3ad772-8d8c-42a1-8875-892caab1f437"},"vehicle_type_id":"4","last_reported":1781538931,"current_range_meters":5600,"station_id":"ce4bhl12rcd13ifvqgf0","pricing_plan_id":"cebpf4jnsgd1na2vs0mg"},{"bike_id":"f77f62af-4e2f-4be0-b792-3c8e2ea50b20","system_id":"levelo_inurba_marseille","lat":43.28415,"lon":5.34986,"is_reserved":false,"is_disabled":false,"rental_uris":{"android":"levelo://app?vid=f77f62af-4e2f-4be0-b792-3c8e2ea50b20","ios":"levelo://app?vid=f77f62af-4e2f-4be0-b792-3c8e2ea50b20"},"vehicle_type_id":"4","last_reported":1781538931,"current_range_meters":5600,"station_id":"ce4bhbh2rcd13ifvqepg","pricing_plan_id":"cebpf4jnsgd1na2vs0mg"},{"bike_id":"af4bf2af-0f0b-42c9-843f-b79445a37cf0","system_id":"levelo_inurba_marseille","lat":43.29044,"lon":5.37555,"is_reserved":false,"is_disabled":false,"rental_uris":{"android":"levelo://app?vid=af4bf2af-0f0b-42c9-843f-b79445a37cf0","ios":"levelo://app?vid=af4bf2af-0f0b-42c9-843f-b79445a37cf0"},"vehicle_type_id":"4","last_reported":1781538931,"current_range_meters":5600,"station_id":"ce4bh692rcd13ifvqe90","pricing_plan_id":"cebpf4jnsgd1na2vs0mg"},{"bike_id":"5f4383ea-bc9e-4e49-8c8f-78987a51f6b5","system_id":"levelo_inurba_marseille","lat":43.25572,"lon":5.3823,"is_reserved":false,"is_disabled":false,"rental_uris":{"android":"levelo://app?vid=5f4383ea-bc9e-4e49-8c8f-78987a51f6b5","ios":"levelo://app?vid=5f4383ea-bc9e-4e49-8c8f-78987a51f6b5"},"vehicle_type_id":"4","last_reported":1781538931,"current_range_meters":5600,"station_id":"ce4bhih2rcd13ifvqfs0","pricing_plan_id":"cebpf4jnsgd1na2vs0mg"},{"bike_id":"db36a942-a2a7-4315-a95c-aedae23e4633","system_id":"levelo_inurba_marseille","lat":43.28606,"lon":5.35124,"is_reserved":false,"is_disabled":false,"rental_uris":{"android":"levelo://app?vid=db36a942-a2a7-4315-a95c-aedae23e4633","ios":"levelo://app?vid=db36a942-a2a7-4315-a95c-aedae23e4633"},"vehicle_type_id":"4","last_reported":1781538931,"current_range_meters":5600,"station_id":"ce4bhch2rcd13ifvqeug","pricing_plan_id":"cebpf4jnsgd1na2vs0mg"},{"bike_id":"5850d87a-5813-4b7d-bbd3-772a196aca35","system_id":"levelo_inurba_marseille","lat":43.31541,"lon":5.38029,"is_reserved":false,"is_disabled":false,"rental_uris":{"android":"levelo://app?vid=5850d87a-5813-4b7d-bbd3-772a196aca35","ios":"levelo://app?vid=5850d87a-5813-4b7d-bbd3-772a196aca35"},"vehicle_type_id":"4","last_reported":1781538931,"current_range_meters":5600,"station_id":"ce4bhsp2rcd13ifvqi50","pricing_plan_id":"cebpf4jnsgd1na2vs0mg"},{"bike_id":"aae1128c-de11-4114-8f67-ae5282eca02e","system_id":"levelo_inurba_marseille","lat":43.23764,"lon":5.37784,"is_reserved":false,"is_disabled":false,"rental_uris":{"android":"levelo://app?vid=aae1128c-de11-4114-8f67-ae5282eca02e","ios":"levelo://app?vid=aae1128c-de11-4114-8f67-ae5282eca02e"},"vehicle_type_id":"4","last_reported":1781538931,"current_range_meters":6000,"station_id":"","pricing_plan_id":"cebpf4jnsgd1na2vs0mg"},{"bike_id":"ac2c6246-0c6b-44f7-a60f-72bf78c514f0","system_id":"levelo_inurba_marseille","lat":43.3169,"lon":5.40475,"is_reserved":false,"is_disabled":false,"rental_uris":{"android":"levelo://app?vid=ac2c6246-0c6b-44f7-a60f-72bf78c514f0","ios":"levelo://app?vid=ac2c6246-0c6b-44f7-a60f-72bf78c514f0"},"vehicle_type_id":"4","last_reported":1781538931,"current_range_meters":6000,"station_id":"ce4bh012rcd13ifvqd00","pricing_plan_id":"cebpf4jnsgd1na2vs0mg"},{"bike_id":"898e24cd-99b5-473a-86d2-3c5d60a94605","system_id":"levelo_inurba_marseille","lat":43.296177,"lon":5.380267,"is_reserved":false,"is_disabled":false,"rental_uris":{"android":"levelo://app?vid=898e24cd-99b5-473a-86d2-3c5d60a94605","ios":"levelo://app?vid=898e24cd-99b5-473a-86d2-3c5d60a94605"},"vehicle_type_id":"4","last_reported":1781538931,"current_range_meters":6000,"station_id":"","pricing_plan_id":"cebpf4jnsgd1na2vs0mg"},{"bike_id":"5766ad62-d2d6-4325-a825-1796d7732601","system_id":"levelo_inurba_marseille","lat":43.28667,"lon":5.36352,"is_reserved":false,"is_disabled":false,"rental_uris":{"android":"levelo://app?vid=5766ad62-d2d6-4325-a825-1796d7732601","ios":"levelo://app?vid=5766ad62-d2d6-4325-a825-1796d7732601"},"vehicle_type_id":"4","last_reported":1781538931,"current_range_meters":6000,"station_id":"ce4bhah2rcd13ifvqej0","pricing_plan_id":"cebpf4jnsgd1na2vs0mg"},{"bike_id":"be8395ba-76eb-43f8-ba3e-a1cf68d9079a","system_id":"levelo_inurba_marseille","lat":43.32657,"lon":5.40996,"is_reserved":false,"is_disabled":false,"rental_uris":{"android":"levelo://app?vid=be8395ba-76eb-43f8-ba3e-a1cf68d9079a","ios":"levelo://app?vid=be8395ba-76eb-43f8-ba3e-a1cf68d9079a"},"vehicle_type_id":"4","last_reported":1781538931,"current_range_meters":6000,"station_id":"ce4bhpp2rcd13ifvqhgg","pricing_plan_id":"cebpf4jnsgd1na2vs0mg"},{"bike_id":"eb024924-297d-4cda-a3a6-6ccebef8827c","system_id":"levelo_inurba_marseille","lat":43.28409,"lon":5.3499,"is_reserved":false,"is_disabled":false,"rental_uris":{"android":"levelo://app?vid=eb024924-297d-4cda-a3a6-6ccebef8827c","ios":"levelo://app?vid=eb024924-297d-4cda-a3a6-6ccebef8827c"},"vehicle_type_id":"4","last_reported":1781538931,"current_range_meters":6000,"station_id":"ce4bhbh2rcd13ifvqepg","pricing_plan_id":"cebpf4jnsgd1na2vs0mg"},{"bike_id":"d687948e-ed06-40fd-ab0e-1aa0824c6ef3","system_id":"levelo_inurba_marseille","lat":43.24264,"lon":5.36783,"is_reserved":false,"is_disabled":false,"rental_uris":{"android":"levelo://app?vid=d687948e-ed06-40fd-ab0e-1aa0824c6ef3","ios":"levelo://app?vid=d687948e-ed06-40fd-ab0e-1aa0824c6ef3"},"vehicle_type_id":"4","last_reported":1781538931,"current_range_meters":6000,"station_id":"","pricing_plan_id":"cebpf4jnsgd1na2vs0mg"},{"bike_id":"35ab0fce-423c-4cda-a7ee-0a96cad10cc9","system_id":"levelo_inurba_marseille","lat":43.21748,"lon":5.34606,"is_reserved":false,"is_disabled":false,"rental_uris":{"android":"levelo://app?vid=35ab0fce-423c-4cda-a7ee-0a96cad10cc9","ios":"levelo://app?vid=35ab0fce-423c-4cda-a7ee-0a96cad10cc9"},"vehicle_type_id":"4","last_reported":1781538931,"current_range_meters":6000,"station_id":"st_cvj6r9ubvosntc0bgbag","pricing_plan_id":"cebpf4jnsgd1na2vs0mg"},{"bike_id":"dfe3018c-e950-444e-9e18-b21de88004b9","system_id":"levelo_inurba_marseille","lat":43.30418,"lon":5.3975,"is_reserved":false,"is_disabled":false,"rental_uris":{"android":"levelo://app?vid=dfe3018c-e950-444e-9e18-b21de88004b9","ios":"levelo://app?vid=dfe3018c-e950-444e-9e18-b21de88004b9"},"vehicle_type_id":"4","last_reported":1781538931,"current_range_meters":6000,"station_id":"ce4bh092rcd13ifvqd20","pricing_plan_id":"cebpf4jnsgd1na2vs0mg"},{"bike_id":"d192efc2-3d5a-427c-a379-4d976eb7fa8d","system_id":"levelo_inurba_marseille","lat":43.29167,"lon":5.3716,"is_reserved":false,"is_disabled":false,"rental_uris":{"android":"levelo://app?vid=d192efc2-3d5a-427c-a379-4d976eb7fa8d","ios":"levelo://app?vid=d192efc2-3d5a-427c-a379-4d976eb7fa8d"},"vehicle_type_id":"4","last_reported":1781538931,"current_range_meters":6000,"station_id":"ce4bha92rcd13ifvqeh0","pricing_plan_id":"cebpf4jnsgd1na2vs0mg"},{"bike_id":"a1a38277-f994-4bb1-afab-6b21b53b5c63","system_id":"levelo_inurba_marseille","lat":43.25093,"lon":5.39522,"is_reserved":false,"is_disabled":false,"rental_uris":{"android":"levelo://app?vid=a1a38277-f994-4bb1-afab-6b21b53b5c63","ios":"levelo://app?vid=a1a38277-f994-4bb1-afab-6b21b53b5c63"},"vehicle_type_id":"4","last_reported":1781538931,"current_range_meters":6000,"station_id":"ce4bhm12rcd13ifvqgkg","pricing_plan_id":"cebpf4jnsgd1na2vs0mg"},{"bike_id":"c338fb3c-f739-4373-87dd-b15e2acdd6e0","system_id":"levelo_inurba_marseille","lat":43.29971,"lon":5.38493,"is_reserved":false,"is_disabled":false,"rental_uris":{"android":"levelo://app?vid=c338fb3c-f739-4373-87dd-b15e2acdd6e0","ios":"levelo://app?vid=c338fb3c-f739-4373-87dd-b15e2acdd6e0"},"vehicle_type_id":"4","last_reported":1781538931,"current_range_meters":6000,"station_id":"ce4bgj92rcd13ifvqbd0","pricing_plan_id":"cebpf4jnsgd1na2vs0mg"},{"bike_id":"4115eb0c-08e4-4e8d-aadc-935e7aca0a80","system_id":"levelo_inurba_marseille","lat":43.2437,"lon":5.36928,"is_reserved":false,"is_disabled":false,"rental_uris":{"android":"levelo://app?vid=4115eb0c-08e4-4e8d-aadc-935e7aca0a80","ios":"levelo://app?vid=4115eb0c-08e4-4e8d-aadc-935e7aca0a80"},"vehicle_type_id":"4","last_reported":1781538931,"current_range_meters":6000,"station_id":"","pricing_plan_id":"cebpf4jnsgd1na2vs0mg"},{"bike_id":"31fe79b3-94e5-415b-bcbf-c71d92a85a62","system_id":"levelo_inurba_marseille","lat":43.31488,"lon":5.37298,"is_reserved":false,"is_disabled":false,"rental_uris":{"android":"levelo://app?vid=31fe79b3-94e5-415b-bcbf-c71d92a85a62","ios":"levelo://app?vid=31fe79b3-94e5-415b-bcbf-c71d92a85a62"},"vehicle_type_id":"4","last_reported":1781538931,"current_range_meters":6000,"station_id":"ce4bgt12rcd13ifvqcd0","pricing_plan_id":"cebpf4jnsgd1na2vs0mg"},{"bike_id":"25baf129-7bee-40b4-8dee-5b36cf5181d1","system_id":"levelo_inurba_marseille","lat":43.27449,"lon":5.39408,"is_reserved":false,"is_disabled":true,"rental_uris":{"android":"levelo://app?vid=25baf129-7bee-40b4-8dee-5b36cf5181d1","ios":"levelo://app?vid=25baf129-7bee-40b4-8dee-5b36cf5181d1"},"vehicle_type_id":"4","last_reported":1781538931,"current_range_meters":6400,"station_id":"ce4bhdp2rcd13ifvqf20","pricing_plan_id":"cebpf4jnsgd1na2vs0mg"},{"bike_id":"edbcf738-cc51-4877-aa19-e1b3cc203563","system_id":"levelo_inurba_marseille","lat":43.30783,"lon":5.37639,"is_reserved":false,"is_disabled":false,"rental_uris":{"android":"levelo://app?vid=edbcf738-cc51-4877-aa19-e1b3cc203563","ios":"levelo://app?vid=edbcf738-cc51-4877-aa19-e1b3cc203563"},"vehicle_type_id":"4","last_reported":1781538931,"current_range_meters":6400,"station_id":"ce4bgv92rcd13ifvqcq0","pricing_plan_id":"cebpf4jnsgd1na2vs0mg"},{"bike_id":"5b15569f-29ee-4137-9d5b-76fb77ec565f","system_id":"levelo_inurba_marseille","lat":43.27719,"lon":5.39607,"is_reserved":false,"is_disabled":false,"rental_uris":{"android":"levelo://app?vid=5b15569f-29ee-4137-9d5b-76fb77ec565f","ios":"levelo://app?vid=5b15569f-29ee-4137-9d5b-76fb77ec565f"},"vehicle_type_id":"4","last_reported":1781538931,"current_range_meters":6400,"station_id":"","pricing_plan_id":"cebpf4jnsgd1na2vs0mg"},{"bike_id":"86d3e13b-e744-40cf-914c-091c3931bc83","system_id":"levelo_inurba_marseille","lat":43.32347,"lon":5.36733,"is_reserved":false,"is_disabled":false,"rental_uris":{"android":"levelo://app?vid=86d3e13b-e744-40cf-914c-091c3931bc83","ios":"levelo://app?vid=86d3e13b-e744-40cf-914c-091c3931bc83"},"vehicle_type_id":"4","last_reported":1781538931,"current_range_meters":6400,"station_id":"ce4bhsh2rcd13ifvqi2g","pricing_plan_id":"cebpf4jnsgd1na2vs0mg"},{"bike_id":"f644860e-08b5-405a-a1f7-203c474f066e","system_id":"levelo_inurba_marseille","lat":43.3042,"lon":5.41275,"is_reserved":false,"is_disabled":false,"rental_uris":{"android":"levelo://app?vid=f644860e-08b5-405a-a1f7-203c474f066e","ios":"levelo://app?vid=f644860e-08b5-405a-a1f7-203c474f066e"},"vehicle_type_id":"4","last_reported":1781538931,"current_range_meters":6400,"station_id":"ce4bhop2rcd13ifvqh8g","pricing_plan_id":"cebpf4jnsgd1na2vs0mg"},{"bike_id":"425fd772-cd58-4358-9f8d-671e7767099f","system_id":"levelo_inurba_marseille","lat":43.28816,"lon":5.35247,"is_reserved":false,"is_disabled":false,"rental_uris":{"android":"levelo://app?vid=425fd772-cd58-4358-9f8d-671e7767099f","ios":"levelo://app?vid=425fd772-cd58-4358-9f8d-671e7767099f"},"vehicle_type_id":"4","last_reported":1781538931,"current_range_meters":6400,"station_id":"","pricing_plan_id":"cebpf4jnsgd1na2vs0mg"},{"bike_id":"797b4734-da11-456c-9197-beb465b0607b","system_id":"levelo_inurba_marseille","lat":43.27054,"lon":5.40259,"is_reserved":false,"is_disabled":false,"rental_uris":{"android":"levelo://app?vid=797b4734-da11-456c-9197-beb465b0607b","ios":"levelo://app?vid=797b4734-da11-456c-9197-beb465b0607b"},"vehicle_type_id":"4","last_reported":1781538931,"current_range_meters":6400,"station_id":"ce4bhk92rcd13ifvqgc0","pricing_plan_id":"cebpf4jnsgd1na2vs0mg"},{"bike_id":"d4fe8964-e566-4595-91e3-77ebf8c748b4","system_id":"levelo_inurba_marseille","lat":43.2762,"lon":5.36108,"is_reserved":false,"is_disabled":false,"rental_uris":{"android":"levelo://app?vid=d4fe8964-e566-4595-91e3-77ebf8c748b4","ios":"levelo://app?vid=d4fe8964-e566-4595-91e3-77ebf8c748b4"},"vehicle_type_id":"4","last_reported":1781538931,"current_range_meters":6400,"station_id":"ce4bgj92rcd13ifvqbe0","pricing_plan_id":"cebpf4jnsgd1na2vs0mg"},{"bike_id":"fc4dda04-7313-4525-af8e-84d6fdabe8ab","system_id":"levelo_inurba_marseille","lat":43.24466,"lon":5.4254,"is_reserved":false,"is_disabled":true,"rental_uris":{"android":"levelo://app?vid=fc4dda04-7313-4525-af8e-84d6fdabe8ab","ios":"levelo://app?vid=fc4dda04-7313-4525-af8e-84d6fdabe8ab"},"vehicle_type_id":"4","last_reported":1781538931,"current_range_meters":6400,"station_id":"st_d4a3vfp97mjs738cd8kg","pricing_plan_id":"cebpf4jnsgd1na2vs0mg"},{"bike_id":"57e0cdb7-800e-4839-a4dd-8be41a76a04e","system_id":"levelo_inurba_marseille","lat":43.21744,"lon":5.34608,"is_reserved":false,"is_disabled":true,"rental_uris":{"android":"levelo://app?vid=57e0cdb7-800e-4839-a4dd-8be41a76a04e","ios":"levelo://app?vid=57e0cdb7-800e-4839-a4dd-8be41a76a04e"},"vehicle_type_id":"4","last_reported":1781538931,"current_range_meters":6400,"station_id":"st_cvj6r9ubvosntc0bgbag","pricing_plan_id":"cebpf4jnsgd1na2vs0mg"},{"bike_id":"00b9e272-757b-4ad7-8d45-e1e6ab66a9e6","system_id":"levelo_inurba_marseille","lat":43.255167,"lon":5.37651,"is_reserved":false,"is_disabled":false,"rental_uris":{"android":"levelo://app?vid=00b9e272-757b-4ad7-8d45-e1e6ab66a9e6","ios":"levelo://app?vid=00b9e272-757b-4ad7-8d45-e1e6ab66a9e6"},"vehicle_type_id":"4","last_reported":1781538931,"current_range_meters":6400,"station_id":"ce4bhh12rcd13ifvqff0","pricing_plan_id":"cebpf4jnsgd1na2vs0mg"},{"bike_id":"8b708879-fbeb-4635-9e76-ae8a7a99631f","system_id":"levelo_inurba_marseille","lat":43.28344,"lon":5.38106,"is_reserved":false,"is_disabled":false,"rental_uris":{"android":"levelo://app?vid=8b708879-fbeb-4635-9e76-ae8a7a99631f","ios":"levelo://app?vid=8b708879-fbeb-4635-9e76-ae8a7a99631f"},"vehicle_type_id":"4","last_reported":1781538931,"current_range_meters":6400,"station_id":"ce4bh412rcd13ifvqdr0","pricing_plan_id":"cebpf4jnsgd1na2vs0mg"},{"bike_id":"18dd5a61-21c6-4084-b646-913ebd7479f2","system_id":"levelo_inurba_marseille","lat":43.29705,"lon":5.36601,"is_reserved":false,"is_disabled":true,"rental_uris":{"android":"levelo://app?vid=18dd5a61-21c6-4084-b646-913ebd7479f2","ios":"levelo://app?vid=18dd5a61-21c6-4084-b646-913ebd7479f2"},"vehicle_type_id":"4","last_reported":1781538931,"current_range_meters":6400,"station_id":"ce4bgn12rcd13ifvqbt0","pricing_plan_id":"cebpf4jnsgd1na2vs0mg"},{"bike_id":"19cfb4ec-75f8-4a48-a0f5-b26b62d0642e","system_id":"levelo_inurba_marseille","lat":43.30942,"lon":5.39064,"is_reserved":false,"is_disabled":false,"rental_uris":{"android":"levelo://app?vid=19cfb4ec-75f8-4a48-a0f5-b26b62d0642e","ios":"levelo://app?vid=19cfb4ec-75f8-4a48-a0f5-b26b62d0642e"},"vehicle_type_id":"4","last_reported":1781538931,"current_range_meters":6400,"station_id":"ce4bgup2rcd13ifvqco0","pricing_plan_id":"cebpf4jnsgd1na2vs0mg"},{"bike_id":"54f2d078-6439-4ce6-8725-248b8420e9cc","system_id":"levelo_inurba_marseille","lat":43.29355,"lon":5.37873,"is_reserved":false,"is_disabled":true,"rental_uris":{"android":"levelo://app?vid=54f2d078-6439-4ce6-8725-248b8420e9cc","ios":"levelo://app?vid=54f2d078-6439-4ce6-8725-248b8420e9cc"},"vehicle_type_id":"4","last_reported":1781538931,"current_range_meters":6400,"station_id":"ce4bgjh2rcd13ifvqbf0","pricing_plan_id":"cebpf4jnsgd1na2vs0mg"},{"bike_id":"651b7532-2536-4115-ae8f-34d748275a17","system_id":"levelo_inurba_marseille","lat":43.22535,"lon":5.34859,"is_reserved":false,"is_disabled":false,"rental_uris":{"android":"levelo://app?vid=651b7532-2536-4115-ae8f-34d748275a17","ios":"levelo://app?vid=651b7532-2536-4115-ae8f-34d748275a17"},"vehicle_type_id":"4","last_reported":1781538931,"current_range_meters":6400,"station_id":"st_cvj5dfep6f1abm77gieg","pricing_plan_id":"cebpf4jnsgd1na2vs0mg"},{"bike_id":"31cabd26-bffc-4c36-a22b-bbd6c77698ee","system_id":"levelo_inurba_marseille","lat":43.256526,"lon":5.385519,"is_reserved":false,"is_disabled":false,"rental_uris":{"android":"levelo://app?vid=31cabd26-bffc-4c36-a22b-bbd6c77698ee","ios":"levelo://app?vid=31cabd26-bffc-4c36-a22b-bbd6c77698ee"},"vehicle_type_id":"4","last_reported":1781538931,"current_range_meters":6400,"station_id":"","pricing_plan_id":"cebpf4jnsgd1na2vs0mg"},{"bike_id":"b74dc334-5990-444d-8112-2ae050a5f8b4","system_id":"levelo_inurba_marseille","lat":43.2417,"lon":5.36393,"is_reserved":false,"is_disabled":false,"rental_uris":{"android":"levelo://app?vid=b74dc334-5990-444d-8112-2ae050a5f8b4","ios":"levelo://app?vid=b74dc334-5990-444d-8112-2ae050a5f8b4"},"vehicle_type_id":"4","last_reported":1781538931,"current_range_meters":6400,"station_id":"cpo36qri1sfpv3e86is0","pricing_plan_id":"cebpf4jnsgd1na2vs0mg"},{"bike_id":"5c35d71a-ca25-4c82-91d8-783744c6fbea","system_id":"levelo_inurba_marseille","lat":43.29266,"lon":5.3801,"is_reserved":false,"is_disabled":false,"rental_uris":{"android":"levelo://app?vid=5c35d71a-ca25-4c82-91d8-783744c6fbea","ios":"levelo://app?vid=5c35d71a-ca25-4c82-91d8-783744c6fbea"},"vehicle_type_id":"4","last_reported":1781538931,"current_range_meters":6400,"station_id":"","pricing_plan_id":"cebpf4jnsgd1na2vs0mg"},{"bike_id":"785f8dfb-78e8-4ec1-ad82-5961039b02a7","system_id":"levelo_inurba_marseille","lat":43.26035,"lon":5.37544,"is_reserved":false,"is_disabled":false,"rental_uris":{"android":"levelo://app?vid=785f8dfb-78e8-4ec1-ad82-5961039b02a7","ios":"levelo://app?vid=785f8dfb-78e8-4ec1-ad82-5961039b02a7"},"vehicle_type_id":"4","last_reported":1781538931,"current_range_meters":6400,"station_id":"ce4bhgh2rcd13ifvqfa0","pricing_plan_id":"cebpf4jnsgd1na2vs0mg"},{"bike_id":"d1eca450-adbb-446f-937d-137a8ef08dcf","system_id":"levelo_inurba_marseille","lat":43.2462,"lon":5.43148,"is_reserved":false,"is_disabled":false,"rental_uris":{"android":"levelo://app?vid=d1eca450-adbb-446f-937d-137a8ef08dcf","ios":"levelo://app?vid=d1eca450-adbb-446f-937d-137a8ef08dcf"},"vehicle_type_id":"4","last_reported":1781538931,"current_range_meters":6800,"station_id":"st_d2m6c4gdas8pm72e190g","pricing_plan_id":"cebpf4jnsgd1na2vs0mg"},{"bike_id":"5ee65aeb-00a7-40df-bd11-389c2dbe6375","system_id":"levelo_inurba_marseille","lat":43.33171,"lon":5.37696,"is_reserved":false,"is_disabled":false,"rental_uris":{"android":"levelo://app?vid=5ee65aeb-00a7-40df-bd11-389c2dbe6375","ios":"levelo://app?vid=5ee65aeb-00a7-40df-bd11-389c2dbe6375"},"vehicle_type_id":"4","last_reported":1781538931,"current_range_meters":6800,"station_id":"st_d46cu089ee8s73dldbu0","pricing_plan_id":"cebpf4jnsgd1na2vs0mg"},{"bike_id":"8e63f2f2-eed5-4897-8257-9435c61690ed","system_id":"levelo_inurba_marseille","lat":43.30853,"lon":5.3829,"is_reserved":false,"is_disabled":false,"rental_uris":{"android":"levelo://app?vid=8e63f2f2-eed5-4897-8257-9435c61690ed","ios":"levelo://app?vid=8e63f2f2-eed5-4897-8257-9435c61690ed"},"vehicle_type_id":"4","last_reported":1781538931,"current_range_meters":6800,"station_id":"","pricing_plan_id":"cebpf4jnsgd1na2vs0mg"},{"bike_id":"48dbf500-308f-40c2-8884-0fd0ae77ebdc","system_id":"levelo_inurba_marseille","lat":43.22947,"lon":5.35347,"is_reserved":false,"is_disabled":false,"rental_uris":{"android":"levelo://app?vid=48dbf500-308f-40c2-8884-0fd0ae77ebdc","ios":"levelo://app?vid=48dbf500-308f-40c2-8884-0fd0ae77ebdc"},"vehicle_type_id":"4","last_reported":1781538931,"current_range_meters":6800,"station_id":"cpo3532slgdg3j2ikp40","pricing_plan_id":"cebpf4jnsgd1na2vs0mg"},{"bike_id":"b915dcf7-afdc-44ac-8933-b1781538d337","system_id":"levelo_inurba_marseille","lat":43.30213,"lon":5.41772,"is_reserved":false,"is_disabled":false,"rental_uris":{"android":"levelo://app?vid=b915dcf7-afdc-44ac-8933-b1781538d337","ios":"levelo://app?vid=b915dcf7-afdc-44ac-8933-b1781538d337"},"vehicle_type_id":"4","last_reported":1781538931,"current_range_meters":6800,"station_id":"","pricing_plan_id":"cebpf4jnsgd1na2vs0mg"},{"bike_id":"cc4e7722-97d5-4ede-8324-22be86868524","system_id":"levelo_inurba_marseille","lat":43.28265,"lon":5.35062,"is_reserved":false,"is_disabled":false,"rental_uris":{"android":"levelo://app?vid=cc4e7722-97d5-4ede-8324-22be86868524","ios":"levelo://app?vid=cc4e7722-97d5-4ede-8324-22be86868524"},"vehicle_type_id":"4","last_reported":1781538931,"current_range_meters":6800,"station_id":"ce4bhbp2rcd13ifvqerg","pricing_plan_id":"cebpf4jnsgd1na2vs0mg"},{"bike_id":"677c9fe2-f61f-42b4-883f-32f60c9455a1","system_id":"levelo_inurba_marseille","lat":43.27636,"lon":5.36078,"is_reserved":false,"is_disabled":false,"rental_uris":{"android":"levelo://app?vid=677c9fe2-f61f-42b4-883f-32f60c9455a1","ios":"levelo://app?vid=677c9fe2-f61f-42b4-883f-32f60c9455a1"},"vehicle_type_id":"4","last_reported":1781538931,"current_range_meters":6800,"station_id":"ce4bgj92rcd13ifvqbe0","pricing_plan_id":"cebpf4jnsgd1na2vs0mg"},{"bike_id":"dc314541-e11c-49f5-9523-bb17625b4a6f","system_id":"levelo_inurba_marseille","lat":43.301448,"lon":5.380776,"is_reserved":false,"is_disabled":false,"rental_uris":{"android":"levelo://app?vid=dc314541-e11c-49f5-9523-bb17625b4a6f","ios":"levelo://app?vid=dc314541-e11c-49f5-9523-bb17625b4a6f"},"vehicle_type_id":"4","last_reported":1781538931,"current_range_meters":6800,"station_id":"ce4bgjp2rcd13ifvqbh0","pricing_plan_id":"cebpf4jnsgd1na2vs0mg"},{"bike_id":"df5530a7-21fa-4b46-8240-706d85d915cf","system_id":"levelo_inurba_marseille","lat":43.29258,"lon":5.38218,"is_reserved":false,"is_disabled":false,"rental_uris":{"android":"levelo://app?vid=df5530a7-21fa-4b46-8240-706d85d915cf","ios":"levelo://app?vid=df5530a7-21fa-4b46-8240-706d85d915cf"},"vehicle_type_id":"4","last_reported":1781538931,"current_range_meters":6800,"station_id":"","pricing_plan_id":"cebpf4jnsgd1na2vs0mg"},{"bike_id":"52ad14f9-2cd2-403b-956e-bb5713f6d5cd","system_id":"levelo_inurba_marseille","lat":43.27984,"lon":5.38688,"is_reserved":false,"is_disabled":true,"rental_uris":{"android":"levelo://app?vid=52ad14f9-2cd2-403b-956e-bb5713f6d5cd","ios":"levelo://app?vid=52ad14f9-2cd2-403b-956e-bb5713f6d5cd"},"vehicle_type_id":"4","last_reported":1781538931,"current_range_meters":6800,"station_id":"ce4bhg12rcd13ifvqf80","pricing_plan_id":"cebpf4jnsgd1na2vs0mg"},{"bike_id":"f78c900c-397f-446c-bf5a-14f01e6bbf8e","system_id":"levelo_inurba_marseille","lat":43.23213,"lon":5.35552,"is_reserved":false,"is_disabled":false,"rental_uris":{"android":"levelo://app?vid=f78c900c-397f-446c-bf5a-14f01e6bbf8e","ios":"levelo://app?vid=f78c900c-397f-446c-bf5a-14f01e6bbf8e"},"vehicle_type_id":"4","last_reported":1781538931,"current_range_meters":6800,"station_id":"ce4bhu92rcd13ifvqi70","pricing_plan_id":"cebpf4jnsgd1na2vs0mg"},{"bike_id":"6accb6a8-fdf2-4b2c-ae33-7a7ff7593d6d","system_id":"levelo_inurba_marseille","lat":43.28698,"lon":5.46897,"is_reserved":false,"is_disabled":false,"rental_uris":{"android":"levelo://app?vid=6accb6a8-fdf2-4b2c-ae33-7a7ff7593d6d","ios":"levelo://app?vid=6accb6a8-fdf2-4b2c-ae33-7a7ff7593d6d"},"vehicle_type_id":"4","last_reported":1781538931,"current_range_meters":6800,"station_id":"","pricing_plan_id":"cebpf4jnsgd1na2vs0mg"},{"bike_id":"5a63f7d3-5d71-4ee7-9556-3a2928da16e7","system_id":"levelo_inurba_marseille","lat":43.28577,"lon":5.39863,"is_reserved":false,"is_disabled":true,"rental_uris":{"android":"levelo://app?vid=5a63f7d3-5d71-4ee7-9556-3a2928da16e7","ios":"levelo://app?vid=5a63f7d3-5d71-4ee7-9556-3a2928da16e7"},"vehicle_type_id":"4","last_reported":1781538931,"current_range_meters":6800,"station_id":"st_d4a7ka997mjs738ck50g","pricing_plan_id":"cebpf4jnsgd1na2vs0mg"},{"bike_id":"264256c6-f907-4b20-8b1b-1ec6a19ebc37","system_id":"levelo_inurba_marseille","lat":43.23356,"lon":5.43608,"is_reserved":false,"is_disabled":false,"rental_uris":{"android":"levelo://app?vid=264256c6-f907-4b20-8b1b-1ec6a19ebc37","ios":"levelo://app?vid=264256c6-f907-4b20-8b1b-1ec6a19ebc37"},"vehicle_type_id":"4","last_reported":1781538931,"current_range_meters":6800,"station_id":"","pricing_plan_id":"cebpf4jnsgd1na2vs0mg"},{"bike_id":"fdb5b8b6-5e5b-4247-a153-64f403e939b4","system_id":"levelo_inurba_marseille","lat":43.32178,"lon":5.4404,"is_reserved":false,"is_disabled":false,"rental_uris":{"android":"levelo://app?vid=fdb5b8b6-5e5b-4247-a153-64f403e939b4","ios":"levelo://app?vid=fdb5b8b6-5e5b-4247-a153-64f403e939b4"},"vehicle_type_id":"4","last_reported":1781538931,"current_range_meters":6800,"station_id":"","pricing_plan_id":"cebpf4jnsgd1na2vs0mg"},{"bike_id":"91e1501e-e8b1-4669-b8db-896969b7b9a8","system_id":"levelo_inurba_marseille","lat":43.24469,"lon":5.42535,"is_reserved":false,"is_disabled":false,"rental_uris":{"android":"levelo://app?vid=91e1501e-e8b1-4669-b8db-896969b7b9a8","ios":"levelo://app?vid=91e1501e-e8b1-4669-b8db-896969b7b9a8"},"vehicle_type_id":"4","last_reported":1781538931,"current_range_meters":6800,"station_id":"st_d4a3vfp97mjs738cd8kg","pricing_plan_id":"cebpf4jnsgd1na2vs0mg"},{"bike_id":"0a3e650c-2300-4565-8a60-6df8a9eea66e","system_id":"levelo_inurba_marseille","lat":43.28614,"lon":5.35107,"is_reserved":false,"is_disabled":false,"rental_uris":{"android":"levelo://app?vid=0a3e650c-2300-4565-8a60-6df8a9eea66e","ios":"levelo://app?vid=0a3e650c-2300-4565-8a60-6df8a9eea66e"},"vehicle_type_id":"4","last_reported":1781538931,"current_range_meters":6800,"station_id":"ce4bhch2rcd13ifvqeug","pricing_plan_id":"cebpf4jnsgd1na2vs0mg"},{"bike_id":"d87ec272-c582-43b0-911b-714245b0ba86","system_id":"levelo_inurba_marseille","lat":43.28406,"lon":5.37512,"is_reserved":false,"is_disabled":false,"rental_uris":{"android":"levelo://app?vid=d87ec272-c582-43b0-911b-714245b0ba86","ios":"levelo://app?vid=d87ec272-c582-43b0-911b-714245b0ba86"},"vehicle_type_id":"4","last_reported":1781538931,"current_range_meters":6800,"station_id":"ce4bh412rcd13ifvqds0","pricing_plan_id":"cebpf4jnsgd1na2vs0mg"},{"bike_id":"d9b79bb6-96f5-4c1e-884f-f35383075c50","system_id":"levelo_inurba_marseille","lat":43.27619,"lon":5.361,"is_reserved":false,"is_disabled":false,"rental_uris":{"android":"levelo://app?vid=d9b79bb6-96f5-4c1e-884f-f35383075c50","ios":"levelo://app?vid=d9b79bb6-96f5-4c1e-884f-f35383075c50"},"vehicle_type_id":"4","last_reported":1781538931,"current_range_meters":6800,"station_id":"ce4bgj92rcd13ifvqbe0","pricing_plan_id":"cebpf4jnsgd1na2vs0mg"},{"bike_id":"0ae515a4-152b-4613-bceb-744adefbb17b","system_id":"levelo_inurba_marseille","lat":43.28855,"lon":5.39305,"is_reserved":false,"is_disabled":true,"rental_uris":{"android":"levelo://app?vid=0ae515a4-152b-4613-bceb-744adefbb17b","ios":"levelo://app?vid=0ae515a4-152b-4613-bceb-744adefbb17b"},"vehicle_type_id":"4","last_reported":1781538931,"current_range_meters":6800,"station_id":"ce4bh2p2rcd13ifvqdi0","pricing_plan_id":"cebpf4jnsgd1na2vs0mg"},{"bike_id":"08c1038f-e698-4ff6-a3dd-a9cbeeb0d16f","system_id":"levelo_inurba_marseille","lat":43.26595,"lon":5.38983,"is_reserved":false,"is_disabled":false,"rental_uris":{"android":"levelo://app?vid=08c1038f-e698-4ff6-a3dd-a9cbeeb0d16f","ios":"levelo://app?vid=08c1038f-e698-4ff6-a3dd-a9cbeeb0d16f"},"vehicle_type_id":"4","last_reported":1781538931,"current_range_meters":7200,"station_id":"ce4bhe12rcd13ifvqf30","pricing_plan_id":"cebpf4jnsgd1na2vs0mg"},{"bike_id":"1053529e-5e7b-4f8c-b3c8-204c10fc3330","system_id":"levelo_inurba_marseille","lat":43.25588,"lon":5.38225,"is_reserved":false,"is_disabled":false,"rental_uris":{"android":"levelo://app?vid=1053529e-5e7b-4f8c-b3c8-204c10fc3330","ios":"levelo://app?vid=1053529e-5e7b-4f8c-b3c8-204c10fc3330"},"vehicle_type_id":"4","last_reported":1781538931,"current_range_meters":7200,"station_id":"ce4bhih2rcd13ifvqfs0","pricing_plan_id":"cebpf4jnsgd1na2vs0mg"},{"bike_id":"4028198a-9e81-483c-8ef9-7423981e50fe","system_id":"levelo_inurba_marseille","lat":43.296,"lon":5.38092,"is_reserved":false,"is_disabled":true,"rental_uris":{"android":"levelo://app?vid=4028198a-9e81-483c-8ef9-7423981e50fe","ios":"levelo://app?vid=4028198a-9e81-483c-8ef9-7423981e50fe"},"vehicle_type_id":"4","last_reported":1781538931,"current_range_meters":7200,"station_id":"ce4bgl12rcd13ifvqbo0","pricing_plan_id":"cebpf4jnsgd1na2vs0mg"},{"bike_id":"4469bc20-06c8-4eb7-bd1c-bed3289e0fcc","system_id":"levelo_inurba_marseille","lat":43.25399,"lon":5.42781,"is_reserved":false,"is_disabled":false,"rental_uris":{"android":"levelo://app?vid=4469bc20-06c8-4eb7-bd1c-bed3289e0fcc","ios":"levelo://app?vid=4469bc20-06c8-4eb7-bd1c-bed3289e0fcc"},"vehicle_type_id":"4","last_reported":1781538931,"current_range_meters":7200,"station_id":"","pricing_plan_id":"cebpf4jnsgd1na2vs0mg"},{"bike_id":"fffd48a5-ee48-4940-b365-edd09f9ad2bd","system_id":"levelo_inurba_marseille","lat":43.337533,"lon":5.374474,"is_reserved":false,"is_disabled":false,"rental_uris":{"android":"levelo://app?vid=fffd48a5-ee48-4940-b365-edd09f9ad2bd","ios":"levelo://app?vid=fffd48a5-ee48-4940-b365-edd09f9ad2bd"},"vehicle_type_id":"4","last_reported":1781538931,"current_range_meters":7200,"station_id":"","pricing_plan_id":"cebpf4jnsgd1na2vs0mg"},{"bike_id":"7abd115d-6f14-47f4-a162-46f5b59a8d97","system_id":"levelo_inurba_marseille","lat":43.25865,"lon":5.39914,"is_reserved":false,"is_disabled":false,"rental_uris":{"android":"levelo://app?vid=7abd115d-6f14-47f4-a162-46f5b59a8d97","ios":"levelo://app?vid=7abd115d-6f14-47f4-a162-46f5b59a8d97"},"vehicle_type_id":"4","last_reported":1781538931,"current_range_meters":7200,"station_id":"ce4bhl92rcd13ifvqghg","pricing_plan_id":"cebpf4jnsgd1na2vs0mg"},{"bike_id":"858abb55-2a6a-4e58-bd3d-78691e9cc543","system_id":"levelo_inurba_marseille","lat":43.2966,"lon":5.36294,"is_reserved":false,"is_disabled":false,"rental_uris":{"android":"levelo://app?vid=858abb55-2a6a-4e58-bd3d-78691e9cc543","ios":"levelo://app?vid=858abb55-2a6a-4e58-bd3d-78691e9cc543"},"vehicle_type_id":"4","last_reported":1781538931,"current_range_meters":7200,"station_id":"","pricing_plan_id":"cebpf4jnsgd1na2vs0mg"},{"bike_id":"c348c5c7-00b9-4bb5-ab51-2a5a4908764c","system_id":"levelo_inurba_marseille","lat":43.23954,"lon":5.36653,"is_reserved":false,"is_disabled":false,"rental_uris":{"android":"levelo://app?vid=c348c5c7-00b9-4bb5-ab51-2a5a4908764c","ios":"levelo://app?vid=c348c5c7-00b9-4bb5-ab51-2a5a4908764c"},"vehicle_type_id":"4","last_reported":1781538931,"current_range_meters":7200,"station_id":"ce4bhi12rcd13ifvqfp0","pricing_plan_id":"cebpf4jnsgd1na2vs0mg"},{"bike_id":"39732b60-e47e-4d4e-b685-395d5f2db983","system_id":"levelo_inurba_marseille","lat":43.24176,"lon":5.39723,"is_reserved":false,"is_disabled":false,"rental_uris":{"android":"levelo://app?vid=39732b60-e47e-4d4e-b685-395d5f2db983","ios":"levelo://app?vid=39732b60-e47e-4d4e-b685-395d5f2db983"},"vehicle_type_id":"4","last_reported":1781538931,"current_range_meters":7200,"station_id":"ce4bhn12rcd13ifvqgpg","pricing_plan_id":"cebpf4jnsgd1na2vs0mg"},{"bike_id":"514ad5a1-61ae-4009-b8a5-32c8e7c6f63e","system_id":"levelo_inurba_marseille","lat":43.28484,"lon":5.48393,"is_reserved":false,"is_disabled":false,"rental_uris":{"android":"levelo://app?vid=514ad5a1-61ae-4009-b8a5-32c8e7c6f63e","ios":"levelo://app?vid=514ad5a1-61ae-4009-b8a5-32c8e7c6f63e"},"vehicle_type_id":"4","last_reported":1781538931,"current_range_meters":7200,"station_id":"st_d3svhcjqgbts73a3dn0g","pricing_plan_id":"cebpf4jnsgd1na2vs0mg"},{"bike_id":"9b01f73c-21da-4ef4-8ec9-9599640630d0","system_id":"levelo_inurba_marseille","lat":43.26253,"lon":5.38771,"is_reserved":false,"is_disabled":false,"rental_uris":{"android":"levelo://app?vid=9b01f73c-21da-4ef4-8ec9-9599640630d0","ios":"levelo://app?vid=9b01f73c-21da-4ef4-8ec9-9599640630d0"},"vehicle_type_id":"4","last_reported":1781538931,"current_range_meters":7200,"station_id":"st_d8gjfg747rts73coq3b0","pricing_plan_id":"cebpf4jnsgd1na2vs0mg"},{"bike_id":"a8b1da20-8c09-45b1-86bd-2a0fcd1602bb","system_id":"levelo_inurba_marseille","lat":43.27996,"lon":5.41657,"is_reserved":false,"is_disabled":false,"rental_uris":{"android":"levelo://app?vid=a8b1da20-8c09-45b1-86bd-2a0fcd1602bb","ios":"levelo://app?vid=a8b1da20-8c09-45b1-86bd-2a0fcd1602bb"},"vehicle_type_id":"4","last_reported":1781538931,"current_range_meters":7200,"station_id":"ce4bho12rcd13ifvqh1g","pricing_plan_id":"cebpf4jnsgd1na2vs0mg"},{"bike_id":"03c1c7ad-ca54-4ddc-822b-fce926c89717","system_id":"levelo_inurba_marseille","lat":43.33096,"lon":5.43754,"is_reserved":false,"is_disabled":false,"rental_uris":{"android":"levelo://app?vid=03c1c7ad-ca54-4ddc-822b-fce926c89717","ios":"levelo://app?vid=03c1c7ad-ca54-4ddc-822b-fce926c89717"},"vehicle_type_id":"4","last_reported":1781538931,"current_range_meters":7200,"station_id":"","pricing_plan_id":"cebpf4jnsgd1na2vs0mg"},{"bike_id":"5673cc33-ef56-4446-9a25-7697c6486684","system_id":"levelo_inurba_marseille","lat":43.25495,"lon":5.37652,"is_reserved":false,"is_disabled":false,"rental_uris":{"android":"levelo://app?vid=5673cc33-ef56-4446-9a25-7697c6486684","ios":"levelo://app?vid=5673cc33-ef56-4446-9a25-7697c6486684"},"vehicle_type_id":"4","last_reported":1781538931,"current_range_meters":7200,"station_id":"ce4bhh12rcd13ifvqff0","pricing_plan_id":"cebpf4jnsgd1na2vs0mg"},{"bike_id":"331b27b4-b141-47bb-a224-a266a7e9ad69","system_id":"levelo_inurba_marseille","lat":43.269531,"lon":5.389697,"is_reserved":false,"is_disabled":false,"rental_uris":{"android":"levelo://app?vid=331b27b4-b141-47bb-a224-a266a7e9ad69","ios":"levelo://app?vid=331b27b4-b141-47bb-a224-a266a7e9ad69"},"vehicle_type_id":"4","last_reported":1781538931,"current_range_meters":7200,"station_id":"ce4bhhh2rcd13ifvqfl0","pricing_plan_id":"cebpf4jnsgd1na2vs0mg"},{"bike_id":"2e438fa0-b7bb-45a2-9d68-f52aabde5a0b","system_id":"levelo_inurba_marseille","lat":43.28854,"lon":5.42514,"is_reserved":false,"is_disabled":false,"rental_uris":{"android":"levelo://app?vid=2e438fa0-b7bb-45a2-9d68-f52aabde5a0b","ios":"levelo://app?vid=2e438fa0-b7bb-45a2-9d68-f52aabde5a0b"},"vehicle_type_id":"4","last_reported":1781538931,"current_range_meters":7200,"station_id":"st_d3b462108ojc7389ooeg","pricing_plan_id":"cebpf4jnsgd1na2vs0mg"},{"bike_id":"314ad89e-34f6-45f5-98c1-a7cdb29295be","system_id":"levelo_inurba_marseille","lat":43.30543,"lon":5.36534,"is_reserved":false,"is_disabled":false,"rental_uris":{"android":"levelo://app?vid=314ad89e-34f6-45f5-98c1-a7cdb29295be","ios":"levelo://app?vid=314ad89e-34f6-45f5-98c1-a7cdb29295be"},"vehicle_type_id":"4","last_reported":1781538931,"current_range_meters":7200,"station_id":"ce4bgs12rcd13ifvqcag","pricing_plan_id":"cebpf4jnsgd1na2vs0mg"},{"bike_id":"d34ae922-d7d3-4471-a834-c93efa1516d8","system_id":"levelo_inurba_marseille","lat":43.24473,"lon":5.4398,"is_reserved":false,"is_disabled":false,"rental_uris":{"android":"levelo://app?vid=d34ae922-d7d3-4471-a834-c93efa1516d8","ios":"levelo://app?vid=d34ae922-d7d3-4471-a834-c93efa1516d8"},"vehicle_type_id":"4","last_reported":1781538931,"current_range_meters":7200,"station_id":"","pricing_plan_id":"cebpf4jnsgd1na2vs0mg"},{"bike_id":"63bc1fb1-b7f9-4b2d-8c90-39b05e53e9ac","system_id":"levelo_inurba_marseille","lat":43.25828,"lon":5.39434,"is_reserved":false,"is_disabled":false,"rental_uris":{"android":"levelo://app?vid=63bc1fb1-b7f9-4b2d-8c90-39b05e53e9ac","ios":"levelo://app?vid=63bc1fb1-b7f9-4b2d-8c90-39b05e53e9ac"},"vehicle_type_id":"4","last_reported":1781538931,"current_range_meters":7200,"station_id":"ce4bhip2rcd13ifvqft0","pricing_plan_id":"cebpf4jnsgd1na2vs0mg"},{"bike_id":"840bee52-fdea-4b59-95fb-634eaa77d9ca","system_id":"levelo_inurba_marseille","lat":43.294904,"lon":5.43304,"is_reserved":false,"is_disabled":false,"rental_uris":{"android":"levelo://app?vid=840bee52-fdea-4b59-95fb-634eaa77d9ca","ios":"levelo://app?vid=840bee52-fdea-4b59-95fb-634eaa77d9ca"},"vehicle_type_id":"4","last_reported":1781538931,"current_range_meters":7200,"station_id":"st_d3j5ugp08ojc73fj9d10","pricing_plan_id":"cebpf4jnsgd1na2vs0mg"},{"bike_id":"c56a031f-85c4-401b-9e02-cd83c3e055fb","system_id":"levelo_inurba_marseille","lat":43.23077,"lon":5.35489,"is_reserved":false,"is_disabled":false,"rental_uris":{"android":"levelo://app?vid=c56a031f-85c4-401b-9e02-cd83c3e055fb","ios":"levelo://app?vid=c56a031f-85c4-401b-9e02-cd83c3e055fb"},"vehicle_type_id":"4","last_reported":1781538931,"current_range_meters":7200,"station_id":"cpo3342slgdg3j2ifvpg","pricing_plan_id":"cebpf4jnsgd1na2vs0mg"},{"bike_id":"f854f22f-9f77-48cb-8427-d4809c3d512e","system_id":"levelo_inurba_marseille","lat":43.28419,"lon":5.34975,"is_reserved":false,"is_disabled":false,"rental_uris":{"android":"levelo://app?vid=f854f22f-9f77-48cb-8427-d4809c3d512e","ios":"levelo://app?vid=f854f22f-9f77-48cb-8427-d4809c3d512e"},"vehicle_type_id":"4","last_reported":1781538931,"current_range_meters":7200,"station_id":"ce4bhbh2rcd13ifvqepg","pricing_plan_id":"cebpf4jnsgd1na2vs0mg"},{"bike_id":"7abce733-51e5-4857-85a3-3c384760651f","system_id":"levelo_inurba_marseille","lat":43.28399,"lon":5.45972,"is_reserved":false,"is_disabled":false,"rental_uris":{"android":"levelo://app?vid=7abce733-51e5-4857-85a3-3c384760651f","ios":"levelo://app?vid=7abce733-51e5-4857-85a3-3c384760651f"},"vehicle_type_id":"4","last_reported":1781538931,"current_range_meters":7200,"station_id":"","pricing_plan_id":"cebpf4jnsgd1na2vs0mg"},{"bike_id":"815f0c3b-3dde-4c3a-8672-2e3e5423f230","system_id":"levelo_inurba_marseille","lat":43.324871,"lon":5.365582,"is_reserved":false,"is_disabled":false,"rental_uris":{"android":"levelo://app?vid=815f0c3b-3dde-4c3a-8672-2e3e5423f230","ios":"levelo://app?vid=815f0c3b-3dde-4c3a-8672-2e3e5423f230"},"vehicle_type_id":"4","last_reported":1781538931,"current_range_meters":7200,"station_id":"ce4bhs12rcd13ifvqhvg","pricing_plan_id":"cebpf4jnsgd1na2vs0mg"},{"bike_id":"7f5cf6e2-9a0e-47db-b44a-328b79f3ac7d","system_id":"levelo_inurba_marseille","lat":43.31206,"lon":5.36886,"is_reserved":false,"is_disabled":true,"rental_uris":{"android":"levelo://app?vid=7f5cf6e2-9a0e-47db-b44a-328b79f3ac7d","ios":"levelo://app?vid=7f5cf6e2-9a0e-47db-b44a-328b79f3ac7d"},"vehicle_type_id":"4","last_reported":1781538931,"current_range_meters":7200,"station_id":"ce4bgl92rcd13ifvqbq0","pricing_plan_id":"cebpf4jnsgd1na2vs0mg"},{"bike_id":"d0ca3541-2406-4469-9fb1-54ad9239d57a","system_id":"levelo_inurba_marseille","lat":43.29601,"lon":5.38094,"is_reserved":false,"is_disabled":true,"rental_uris":{"android":"levelo://app?vid=d0ca3541-2406-4469-9fb1-54ad9239d57a","ios":"levelo://app?vid=d0ca3541-2406-4469-9fb1-54ad9239d57a"},"vehicle_type_id":"4","last_reported":1781538931,"current_range_meters":7200,"station_id":"ce4bgl12rcd13ifvqbo0","pricing_plan_id":"cebpf4jnsgd1na2vs0mg"},{"bike_id":"4e8123ae-1d3d-42e7-8c7b-8bece7519d53","system_id":"levelo_inurba_marseille","lat":43.28413,"lon":5.34989,"is_reserved":false,"is_disabled":false,"rental_uris":{"android":"levelo://app?vid=4e8123ae-1d3d-42e7-8c7b-8bece7519d53","ios":"levelo://app?vid=4e8123ae-1d3d-42e7-8c7b-8bece7519d53"},"vehicle_type_id":"4","last_reported":1781538931,"current_range_meters":8000,"station_id":"ce4bhbh2rcd13ifvqepg","pricing_plan_id":"cebpf4jnsgd1na2vs0mg"},{"bike_id":"1f8ab543-bce3-4f8f-8dda-6826829dda58","system_id":"levelo_inurba_marseille","lat":43.24173,"lon":5.36396,"is_reserved":false,"is_disabled":false,"rental_uris":{"android":"levelo://app?vid=1f8ab543-bce3-4f8f-8dda-6826829dda58","ios":"levelo://app?vid=1f8ab543-bce3-4f8f-8dda-6826829dda58"},"vehicle_type_id":"4","last_reported":1781538931,"current_range_meters":8000,"station_id":"cpo36qri1sfpv3e86is0","pricing_plan_id":"cebpf4jnsgd1na2vs0mg"},{"bike_id":"f1b747a3-008f-4682-939a-212878f748fe","system_id":"levelo_inurba_marseille","lat":43.24608,"lon":5.4315,"is_reserved":false,"is_disabled":false,"rental_uris":{"android":"levelo://app?vid=f1b747a3-008f-4682-939a-212878f748fe","ios":"levelo://app?vid=f1b747a3-008f-4682-939a-212878f748fe"},"vehicle_type_id":"4","last_reported":1781538931,"current_range_meters":8000,"station_id":"st_d2m6c4gdas8pm72e190g","pricing_plan_id":"cebpf4jnsgd1na2vs0mg"},{"bike_id":"7cb0c3fa-34a4-4af6-b055-18103afda2e8","system_id":"levelo_inurba_marseille","lat":43.24734,"lon":5.39495,"is_reserved":false,"is_disabled":false,"rental_uris":{"android":"levelo://app?vid=7cb0c3fa-34a4-4af6-b055-18103afda2e8","ios":"levelo://app?vid=7cb0c3fa-34a4-4af6-b055-18103afda2e8"},"vehicle_type_id":"4","last_reported":1781538931,"current_range_meters":8000,"station_id":"","pricing_plan_id":"cebpf4jnsgd1na2vs0mg"},{"bike_id":"eccd1f27-52db-47b0-a383-ef7f274a50ce","system_id":"levelo_inurba_marseille","lat":43.27209,"lon":5.39188,"is_reserved":false,"is_disabled":true,"rental_uris":{"android":"levelo://app?vid=eccd1f27-52db-47b0-a383-ef7f274a50ce","ios":"levelo://app?vid=eccd1f27-52db-47b0-a383-ef7f274a50ce"},"vehicle_type_id":"4","last_reported":1781538931,"current_range_meters":8000,"station_id":"ce4bhhp2rcd13ifvqfm0","pricing_plan_id":"cebpf4jnsgd1na2vs0mg"},{"bike_id":"ca9e1683-041c-4b5e-a201-84e159208528","system_id":"levelo_inurba_marseille","lat":43.33152,"lon":5.37706,"is_reserved":false,"is_disabled":false,"rental_uris":{"android":"levelo://app?vid=ca9e1683-041c-4b5e-a201-84e159208528","ios":"levelo://app?vid=ca9e1683-041c-4b5e-a201-84e159208528"},"vehicle_type_id":"4","last_reported":1781538931,"current_range_meters":8000,"station_id":"st_d46cu089ee8s73dldbu0","pricing_plan_id":"cebpf4jnsgd1na2vs0mg"},{"bike_id":"b4a75b15-d43b-48a4-945c-d168383561ad","system_id":"levelo_inurba_marseille","lat":43.29866,"lon":5.39741,"is_reserved":false,"is_disabled":false,"rental_uris":{"android":"levelo://app?vid=b4a75b15-d43b-48a4-945c-d168383561ad","ios":"levelo://app?vid=b4a75b15-d43b-48a4-945c-d168383561ad"},"vehicle_type_id":"4","last_reported":1781538931,"current_range_meters":8000,"station_id":"ce4bh0h2rcd13ifvqd50","pricing_plan_id":"cebpf4jnsgd1na2vs0mg"},{"bike_id":"fd11c40f-6e3c-41af-9de8-dc25f559ccde","system_id":"levelo_inurba_marseille","lat":43.29066,"lon":5.35909,"is_reserved":false,"is_disabled":false,"rental_uris":{"android":"levelo://app?vid=fd11c40f-6e3c-41af-9de8-dc25f559ccde","ios":"levelo://app?vid=fd11c40f-6e3c-41af-9de8-dc25f559ccde"},"vehicle_type_id":"4","last_reported":1781538931,"current_range_meters":8000,"station_id":"ce4bha92rcd13ifvqeg0","pricing_plan_id":"cebpf4jnsgd1na2vs0mg"},{"bike_id":"c6c13fa4-12c0-46a0-a33b-d653a3bf08db","system_id":"levelo_inurba_marseille","lat":43.29435,"lon":5.39763,"is_reserved":false,"is_disabled":false,"rental_uris":{"android":"levelo://app?vid=c6c13fa4-12c0-46a0-a33b-d653a3bf08db","ios":"levelo://app?vid=c6c13fa4-12c0-46a0-a33b-d653a3bf08db"},"vehicle_type_id":"4","last_reported":1781538931,"current_range_meters":8000,"station_id":"ce4bh3h2rcd13ifvqdo0","pricing_plan_id":"cebpf4jnsgd1na2vs0mg"},{"bike_id":"99c5440d-eaaa-41f5-8822-fe7a423c5f27","system_id":"levelo_inurba_marseille","lat":43.27588,"lon":5.43373,"is_reserved":false,"is_disabled":false,"rental_uris":{"android":"levelo://app?vid=99c5440d-eaaa-41f5-8822-fe7a423c5f27","ios":"levelo://app?vid=99c5440d-eaaa-41f5-8822-fe7a423c5f27"},"vehicle_type_id":"4","last_reported":1781538931,"current_range_meters":8000,"station_id":"","pricing_plan_id":"cebpf4jnsgd1na2vs0mg"},{"bike_id":"317f59d6-759f-412e-ab00-d2f7e2c3881f","system_id":"levelo_inurba_marseille","lat":43.2805,"lon":5.35336,"is_reserved":false,"is_disabled":true,"rental_uris":{"android":"levelo://app?vid=317f59d6-759f-412e-ab00-d2f7e2c3881f","ios":"levelo://app?vid=317f59d6-759f-412e-ab00-d2f7e2c3881f"},"vehicle_type_id":"4","last_reported":1781538931,"current_range_meters":8000,"station_id":"","pricing_plan_id":"cebpf4jnsgd1na2vs0mg"},{"bike_id":"3f0bffef-0622-4c9d-8209-acd6bfdcdc8d","system_id":"levelo_inurba_marseille","lat":43.26685,"lon":5.38248,"is_reserved":false,"is_disabled":false,"rental_uris":{"android":"levelo://app?vid=3f0bffef-0622-4c9d-8209-acd6bfdcdc8d","ios":"levelo://app?vid=3f0bffef-0622-4c9d-8209-acd6bfdcdc8d"},"vehicle_type_id":"4","last_reported":1781538931,"current_range_meters":8000,"station_id":"ce4bhg92rcd13ifvqf90","pricing_plan_id":"cebpf4jnsgd1na2vs0mg"},{"bike_id":"f8df55f8-4db2-404d-b864-f4552faa75ed","system_id":"levelo_inurba_marseille","lat":43.26501,"lon":5.40725,"is_reserved":false,"is_disabled":false,"rental_uris":{"android":"levelo://app?vid=f8df55f8-4db2-404d-b864-f4552faa75ed","ios":"levelo://app?vid=f8df55f8-4db2-404d-b864-f4552faa75ed"},"vehicle_type_id":"4","last_reported":1781538931,"current_range_meters":8000,"station_id":"","pricing_plan_id":"cebpf4jnsgd1na2vs0mg"},{"bike_id":"493ce22c-5d29-40c8-927d-233c76c13d78","system_id":"levelo_inurba_marseille","lat":43.32469,"lon":5.36603,"is_reserved":false,"is_disabled":false,"rental_uris":{"android":"levelo://app?vid=493ce22c-5d29-40c8-927d-233c76c13d78","ios":"levelo://app?vid=493ce22c-5d29-40c8-927d-233c76c13d78"},"vehicle_type_id":"4","last_reported":1781538931,"current_range_meters":8000,"station_id":"ce4bhs12rcd13ifvqhvg","pricing_plan_id":"cebpf4jnsgd1na2vs0mg"},{"bike_id":"7c82f322-fdfc-43e4-a595-856d864a602b","system_id":"levelo_inurba_marseille","lat":43.269285,"lon":5.389155,"is_reserved":false,"is_disabled":false,"rental_uris":{"android":"levelo://app?vid=7c82f322-fdfc-43e4-a595-856d864a602b","ios":"levelo://app?vid=7c82f322-fdfc-43e4-a595-856d864a602b"},"vehicle_type_id":"4","last_reported":1781538931,"current_range_meters":8000,"station_id":"ce4bhhh2rcd13ifvqfl0","pricing_plan_id":"cebpf4jnsgd1na2vs0mg"},{"bike_id":"d16797a9-fe2f-4ff7-b41c-f8edc916e4fa","system_id":"levelo_inurba_marseille","lat":43.28408,"lon":5.34977,"is_reserved":false,"is_disabled":false,"rental_uris":{"android":"levelo://app?vid=d16797a9-fe2f-4ff7-b41c-f8edc916e4fa","ios":"levelo://app?vid=d16797a9-fe2f-4ff7-b41c-f8edc916e4fa"},"vehicle_type_id":"4","last_reported":1781538931,"current_range_meters":8000,"station_id":"ce4bhbh2rcd13ifvqepg","pricing_plan_id":"cebpf4jnsgd1na2vs0mg"},{"bike_id":"2b51065a-6810-44df-8c22-8234cc52ba69","system_id":"levelo_inurba_marseille","lat":43.28671,"lon":5.38663,"is_reserved":false,"is_disabled":false,"rental_uris":{"android":"levelo://app?vid=2b51065a-6810-44df-8c22-8234cc52ba69","ios":"levelo://app?vid=2b51065a-6810-44df-8c22-8234cc52ba69"},"vehicle_type_id":"4","last_reported":1781538931,"current_range_meters":8000,"station_id":"ce4bh492rcd13ifvqdug","pricing_plan_id":"cebpf4jnsgd1na2vs0mg"},{"bike_id":"944f591b-f0ef-4a76-93ce-67e6c76d0ac4","system_id":"levelo_inurba_marseille","lat":43.25072,"lon":5.39505,"is_reserved":false,"is_disabled":false,"rental_uris":{"android":"levelo://app?vid=944f591b-f0ef-4a76-93ce-67e6c76d0ac4","ios":"levelo://app?vid=944f591b-f0ef-4a76-93ce-67e6c76d0ac4"},"vehicle_type_id":"4","last_reported":1781538931,"current_range_meters":8000,"station_id":"ce4bhm12rcd13ifvqgkg","pricing_plan_id":"cebpf4jnsgd1na2vs0mg"},{"bike_id":"169cc997-30a5-455e-990a-0267fd700a7d","system_id":"levelo_inurba_marseille","lat":43.23141,"lon":5.40504,"is_reserved":false,"is_disabled":false,"rental_uris":{"android":"levelo://app?vid=169cc997-30a5-455e-990a-0267fd700a7d","ios":"levelo://app?vid=169cc997-30a5-455e-990a-0267fd700a7d"},"vehicle_type_id":"4","last_reported":1781538931,"current_range_meters":8000,"station_id":"","pricing_plan_id":"cebpf4jnsgd1na2vs0mg"},{"bike_id":"b08260e3-6cf9-47c1-bdd6-b78587b988fb","system_id":"levelo_inurba_marseille","lat":43.27998,"lon":5.41653,"is_reserved":false,"is_disabled":false,"rental_uris":{"android":"levelo://app?vid=b08260e3-6cf9-47c1-bdd6-b78587b988fb","ios":"levelo://app?vid=b08260e3-6cf9-47c1-bdd6-b78587b988fb"},"vehicle_type_id":"4","last_reported":1781538931,"current_range_meters":8000,"station_id":"ce4bho12rcd13ifvqh1g","pricing_plan_id":"cebpf4jnsgd1na2vs0mg"},{"bike_id":"9cfff89f-4086-447a-afb8-e984db32b53a","system_id":"levelo_inurba_marseille","lat":43.225357,"lon":5.348306,"is_reserved":false,"is_disabled":true,"rental_uris":{"android":"levelo://app?vid=9cfff89f-4086-447a-afb8-e984db32b53a","ios":"levelo://app?vid=9cfff89f-4086-447a-afb8-e984db32b53a"},"vehicle_type_id":"4","last_reported":1781538931,"current_range_meters":8400,"station_id":"st_cvj5dfep6f1abm77gieg","pricing_plan_id":"cebpf4jnsgd1na2vs0mg"},{"bike_id":"495d5ae4-02af-4c80-be11-064eb1869418","system_id":"levelo_inurba_marseille","lat":43.27057,"lon":5.40228,"is_reserved":false,"is_disabled":false,"rental_uris":{"android":"levelo://app?vid=495d5ae4-02af-4c80-be11-064eb1869418","ios":"levelo://app?vid=495d5ae4-02af-4c80-be11-064eb1869418"},"vehicle_type_id":"4","last_reported":1781538931,"current_range_meters":8400,"station_id":"ce4bhk92rcd13ifvqgc0","pricing_plan_id":"cebpf4jnsgd1na2vs0mg"},{"bike_id":"78027dc8-9df3-4c93-a3c2-8b231691da13","system_id":"levelo_inurba_marseille","lat":43.31155,"lon":5.36903,"is_reserved":false,"is_disabled":false,"rental_uris":{"android":"levelo://app?vid=78027dc8-9df3-4c93-a3c2-8b231691da13","ios":"levelo://app?vid=78027dc8-9df3-4c93-a3c2-8b231691da13"},"vehicle_type_id":"4","last_reported":1781538931,"current_range_meters":8400,"station_id":"","pricing_plan_id":"cebpf4jnsgd1na2vs0mg"},{"bike_id":"054aec80-474a-4feb-a353-bd92f8259033","system_id":"levelo_inurba_marseille","lat":43.275745,"lon":5.384222,"is_reserved":false,"is_disabled":false,"rental_uris":{"android":"levelo://app?vid=054aec80-474a-4feb-a353-bd92f8259033","ios":"levelo://app?vid=054aec80-474a-4feb-a353-bd92f8259033"},"vehicle_type_id":"4","last_reported":1781538931,"current_range_meters":8400,"station_id":"ce4bhh92rcd13ifvqfi0","pricing_plan_id":"cebpf4jnsgd1na2vs0mg"},{"bike_id":"867cb103-7d99-4fa5-b98b-7ac16f5b59a9","system_id":"levelo_inurba_marseille","lat":43.316915,"lon":5.404741,"is_reserved":false,"is_disabled":false,"rental_uris":{"android":"levelo://app?vid=867cb103-7d99-4fa5-b98b-7ac16f5b59a9","ios":"levelo://app?vid=867cb103-7d99-4fa5-b98b-7ac16f5b59a9"},"vehicle_type_id":"4","last_reported":1781538931,"current_range_meters":8400,"station_id":"ce4bh012rcd13ifvqd00","pricing_plan_id":"cebpf4jnsgd1na2vs0mg"},{"bike_id":"ae4c351c-9c0d-4f23-89df-10839fd7ad8b","system_id":"levelo_inurba_marseille","lat":43.2439,"lon":5.37053,"is_reserved":false,"is_disabled":false,"rental_uris":{"android":"levelo://app?vid=ae4c351c-9c0d-4f23-89df-10839fd7ad8b","ios":"levelo://app?vid=ae4c351c-9c0d-4f23-89df-10839fd7ad8b"},"vehicle_type_id":"4","last_reported":1781538931,"current_range_meters":8400,"station_id":"ce4bhhh2rcd13ifvqfk0","pricing_plan_id":"cebpf4jnsgd1na2vs0mg"},{"bike_id":"7951a306-d225-4a7b-b5bf-86ea8cd3550d","system_id":"levelo_inurba_marseille","lat":43.29978,"lon":5.36515,"is_reserved":false,"is_disabled":false,"rental_uris":{"android":"levelo://app?vid=7951a306-d225-4a7b-b5bf-86ea8cd3550d","ios":"levelo://app?vid=7951a306-d225-4a7b-b5bf-86ea8cd3550d"},"vehicle_type_id":"4","last_reported":1781538931,"current_range_meters":8400,"station_id":"ce4bgm92rcd13ifvqbr0","pricing_plan_id":"cebpf4jnsgd1na2vs0mg"},{"bike_id":"0aeecc6e-2f2d-4254-833a-49b6e9ee10a4","system_id":"levelo_inurba_marseille","lat":43.28455,"lon":5.37193,"is_reserved":false,"is_disabled":true,"rental_uris":{"android":"levelo://app?vid=0aeecc6e-2f2d-4254-833a-49b6e9ee10a4","ios":"levelo://app?vid=0aeecc6e-2f2d-4254-833a-49b6e9ee10a4"},"vehicle_type_id":"4","last_reported":1781538931,"current_range_meters":8400,"station_id":"","pricing_plan_id":"cebpf4jnsgd1na2vs0mg"},{"bike_id":"9d969ee8-111a-42cd-a762-ed670d956529","system_id":"levelo_inurba_marseille","lat":43.27204,"lon":5.3918,"is_reserved":false,"is_disabled":false,"rental_uris":{"android":"levelo://app?vid=9d969ee8-111a-42cd-a762-ed670d956529","ios":"levelo://app?vid=9d969ee8-111a-42cd-a762-ed670d956529"},"vehicle_type_id":"4","last_reported":1781538931,"current_range_meters":8400,"station_id":"ce4bhhp2rcd13ifvqfm0","pricing_plan_id":"cebpf4jnsgd1na2vs0mg"},{"bike_id":"ecbd56fd-d934-4008-ad36-c0df5a5b00b3","system_id":"levelo_inurba_marseille","lat":43.22555,"lon":5.41644,"is_reserved":false,"is_disabled":false,"rental_uris":{"android":"levelo://app?vid=ecbd56fd-d934-4008-ad36-c0df5a5b00b3","ios":"levelo://app?vid=ecbd56fd-d934-4008-ad36-c0df5a5b00b3"},"vehicle_type_id":"4","last_reported":1781538931,"current_range_meters":8400,"station_id":"st_d2o4gvlbi1j2169b742g","pricing_plan_id":"cebpf4jnsgd1na2vs0mg"},{"bike_id":"742d5e5f-954d-48ac-857c-e9aa6927ddc9","system_id":"levelo_inurba_marseille","lat":43.3014,"lon":5.398525,"is_reserved":false,"is_disabled":false,"rental_uris":{"android":"levelo://app?vid=742d5e5f-954d-48ac-857c-e9aa6927ddc9","ios":"levelo://app?vid=742d5e5f-954d-48ac-857c-e9aa6927ddc9"},"vehicle_type_id":"4","last_reported":1781538931,"current_range_meters":8400,"station_id":"ce4bh0h2rcd13ifvqd40","pricing_plan_id":"cebpf4jnsgd1na2vs0mg"},{"bike_id":"ed9c0594-1e31-4eb1-b47a-ab7a62af008b","system_id":"levelo_inurba_marseille","lat":43.27192,"lon":5.40986,"is_reserved":false,"is_disabled":false,"rental_uris":{"android":"levelo://app?vid=ed9c0594-1e31-4eb1-b47a-ab7a62af008b","ios":"levelo://app?vid=ed9c0594-1e31-4eb1-b47a-ab7a62af008b"},"vehicle_type_id":"4","last_reported":1781538931,"current_range_meters":8400,"station_id":"ce4bhl12rcd13ifvqgf0","pricing_plan_id":"cebpf4jnsgd1na2vs0mg"},{"bike_id":"913c7f54-5d3a-4507-a617-a1e790023c2b","system_id":"levelo_inurba_marseille","lat":43.27706,"lon":5.35668,"is_reserved":false,"is_disabled":false,"rental_uris":{"android":"levelo://app?vid=913c7f54-5d3a-4507-a617-a1e790023c2b","ios":"levelo://app?vid=913c7f54-5d3a-4507-a617-a1e790023c2b"},"vehicle_type_id":"4","last_reported":1781538931,"current_range_meters":8400,"station_id":"","pricing_plan_id":"cebpf4jnsgd1na2vs0mg"},{"bike_id":"b60fc35f-5157-40f6-9a74-f3097bb2511c","system_id":"levelo_inurba_marseille","lat":43.28952,"lon":5.364,"is_reserved":false,"is_disabled":true,"rental_uris":{"android":"levelo://app?vid=b60fc35f-5157-40f6-9a74-f3097bb2511c","ios":"levelo://app?vid=b60fc35f-5157-40f6-9a74-f3097bb2511c"},"vehicle_type_id":"4","last_reported":1781538931,"current_range_meters":8400,"station_id":"ce4bhc92rcd13ifvqetg","pricing_plan_id":"cebpf4jnsgd1na2vs0mg"},