{"last_updated":1729105634,"ttl":60,"version":"2.2","data":{"bikes":[{"bike_id":"60882861-bf8c-4d22-964f-ecff7d884ae5","system_id":"levelo_inurba_marseille","lat":43.25008,"lon":5.38929,"is_reserved":false,"is_disabled":false,"rental_uris":{"android":"levelo://app?vid=60882861-bf8c-4d22-964f-ecff7d884ae5","ios":"levelo://app?vid=60882861-bf8c-4d22-964f-ecff7d884ae5"},"vehicle_type_id":"4","last_reported":1729105635,"current_range_meters":36000,"station_id":"ce4bhgp2rcd13ifvqfd0","pricing_plan_id":"cebpf4jnsgd1na2vs0mg"},{"bike_id":"0ec0b8ed-ccdb-4fb7-b46e-dcf3aa834f70","system_id":"levelo_inurba_marseille","lat":43.30302,"lon":5.36899,"is_reserved":false,"is_disabled":false,"rental_uris":{"android":"levelo://app?vid=0ec0b8ed-ccdb-4fb7-b46e-dcf3aa834f70","ios":"levelo://app?vid=0ec0b8ed-ccdb-4fb7-b46e-dcf3aa834f70"},"vehicle_type_id":"4","last_reported":1729105635,"current_range_meters":16800,"station_id":"ce4bgqh2rcd13ifvqc5g","pricing_plan_id":"cebpf4jnsgd1na2vs0mg"},{"bike_id":"84c81f7c-ce65-4b56-971d-bdc164e46752","system_id":"levelo_inurba_marseille","lat":43.299055,"lon":5.38631,"is_reserved":false,"is_disabled":false,"rental_uris":{"android":"levelo://app?vid=84c81f7c-ce65-4b56-971d-bdc164e46752","ios":"levelo://app?vid=84c81f7c-ce65-4b56-971d-bdc164e46752"},"vehicle_type_id":"4","last_reported":1729105635,"current_range_meters":3200,"station_id":"ce4bgjh2rcd13ifvqbf0","pricing_plan_id":"cebpf4jnsgd1na2vs0mg"},{"bike_id":"38af802b-0dd3-4001-8bdf-786db676d355","system_id":"levelo_inurba_marseille","lat":43.30551,"lon":5.37485,"is_reserved":false,"is_disabled":false,"rental_uris":{"android":"levelo://app?vid=38af802b-0dd3-4001-8bdf-786db676d355","ios":"levelo://app?vid=38af802b-0dd3-4001-8bdf-786db676d355"},"vehicle_type_id":"4","last_reported":1729105635,"current_range_meters":36400,"station_id":"","pricing_plan_id":"cebpf4jnsgd1na2vs0mg"},{"bike_id":"d1d51ecc-8b69-47f7-9c0d-e96d2700eb9e","system_id":"levelo_inurba_marseille","lat":43.281565,"lon":5.426499,"is_reserved":false,"is_disabled":false,"rental_uris":{"android":"levelo://app?vid=d1d51ecc-8b69-47f7-9c0d-e96d2700eb9e","ios":"levelo://app?vid=d1d51ecc-8b69-47f7-9c0d-e96d2700eb9e"},"vehicle_type_id":"4","last_reported":1729105635,"current_range_meters":32000,"station_id":"ce4bhnh2rcd13ifvqgug","pricing_plan_id":"cebpf4jnsgd1na2vs0mg"},{"bike_id":"676ec6c4-6b42-43e0-81fe-327782965da5","system_id":"levelo_inurba_marseille","lat":43.337444,"lon":5.374475,"is_reserved":false,"is_disabled":false,"rental_uris":{"android":"levelo://app?vid=676ec6c4-6b42-43e0-81fe-327782965da5","ios":"levelo://app?vid=676ec6c4-6b42-43e0-81fe-327782965da5"},"vehicle_type_id":"4","last_reported":1729105635,"current_range_meters":20000,"station_id":"","pricing_plan_id":"cebpf4jnsgd1na2vs0mg"},{"bike_id":"cce24ea3-63e3-4be6-a5d1-cfd8ac0bfc4a","system_id":"levelo_inurba_marseille","lat":43.306413,"lon":5.400883,"is_reserved":false,"is_disabled":false,"rental_uris":{"android":"levelo://app?vid=cce24ea3-63e3-4be6-a5d1-cfd8ac0bfc4a","ios":"levelo://app?vid=cce24ea3-63e3-4be6-a5d1-cfd8ac0bfc4a"},"vehicle_type_id":"4","last_reported":1729105635,"current_range_meters":9600,"station_id":"ce4bh112rcd13ifvqda0","pricing_plan_id":"cebpf4jnsgd1na2vs0mg"},{"bike_id":"a446924e-74b7-4a66-b88c-c37b20440896","system_id":"levelo_inurba_marseille","lat":43.2407,"lon":5.37765,"is_reserved":false,"is_disabled":false,"rental_uris":{"android":"levelo://app?vid=a446924e-74b7-4a66-b88c-c37b20440896","ios":"levelo://app?vid=a446924e-74b7-4a66-b88c-c37b20440896"},"vehicle_type_id":"4","last_reported":1729105635,"current_range_meters":22400,"station_id":"ce4bhnp2rcd13ifvqgvg","pricing_plan_id":"cebpf4jnsgd1na2vs0mg"},{"bike_id":"8da51807-1bda-49c8-8a8e-c38f67c41380","system_id":"levelo_inurba_marseille","lat":43.29536,"lon":5.38543,"is_reserved":false,"is_disabled":false,"rental_uris":{"android":"levelo://app?vid=8da51807-1bda-49c8-8a8e-c38f67c41380","ios":"levelo://app?vid=8da51807-1bda-49c8-8a8e-c38f67c41380"},"vehicle_type_id":"4","last_reported":1729105635,"current_range_meters":37600,"station_id":"ce4bgih2rcd13ifvqba0","pricing_plan_id":"cebpf4jnsgd1na2vs0mg"},{"bike_id":"c2c40948-abf0-4484-9fae-5ee1ee32ac48","system_id":"levelo_inurba_marseille","lat":43.26948,"lon":5.38656,"is_reserved":false,"is_disabled":false,"rental_uris":{"android":"levelo://app?vid=c2c40948-abf0-4484-9fae-5ee1ee32ac48","ios":"levelo://app?vid=c2c40948-abf0-4484-9fae-5ee1ee32ac48"},"vehicle_type_id":"4","last_reported":1729105635,"current_range_meters":13600,"station_id":"ce4bhh92rcd13ifvqfh0","pricing_plan_id":"cebpf4jnsgd1na2vs0mg"},{"bike_id":"9c9becd7-f095-4253-b081-e9c44c14ef29","system_id":"levelo_inurba_marseille","lat":43.29546,"lon":5.42287,"is_reserved":false,"is_disabled":false,"rental_uris":{"android":"levelo://app?vid=9c9becd7-f095-4253-b081-e9c44c14ef29","ios":"levelo://app?vid=9c9becd7-f095-4253-b081-e9c44c14ef29"},"vehicle_type_id":"4","last_reported":1729105635,"current_range_meters":34000,"station_id":"ce4bhph2rcd13ifvqhdg","pricing_plan_id":"cebpf4jnsgd1na2vs0mg"},{"bike_id":"f83a0960-764d-401e-8f85-af0f2486295e","system_id":"levelo_inurba_marseille","lat":43.25719,"lon":5.41116,"is_reserved":false,"is_disabled":false,"rental_uris":{"android":"levelo://app?vid=f83a0960-764d-401e-8f85-af0f2486295e","ios":"levelo://app?vid=f83a0960-764d-401e-8f85-af0f2486295e"},"vehicle_type_id":"4","last_reported":1729105635,"current_range_meters":27600,"station_id":"ce4bhkp2rcd13ifvqgd0","pricing_plan_id":"cebpf4jnsgd1na2vs0mg"},{"bike_id":"f883cfa2-9c75-4d93-9e83-a804c574fd24","system_id":"levelo_inurba_marseille","lat":43.33023,"lon":5.39047,"is_reserved":false,"is_disabled":false,"rental_uris":{"android":"levelo://app?vid=f883cfa2-9c75-4d93-9e83-a804c574fd24","ios":"levelo://app?vid=f883cfa2-9c75-4d93-9e83-a804c574fd24"},"vehicle_type_id":"4","last_reported":1729105635,"current_range_meters":25200,"station_id":"ce4bhr92rcd13ifvqhrg","pricing_plan_id":"cebpf4jnsgd1na2vs0mg"},{"bike_id":"6f397f1f-1468-45fd-9b40-a31e283da189","system_id":"levelo_inurba_marseille","lat":43.29417,"lon":5.38609,"is_reserved":false,"is_disabled":false,"rental_uris":{"android":"levelo://app?vid=6f397f1f-1468-45fd-9b40-a31e283da189","ios":"levelo://app?vid=6f397f1f-1468-45fd-9b40-a31e283da189"},"vehicle_type_id":"4","last_reported":1729105635,"current_range_meters":19600,"station_id":"ce4bh2h2rcd13ifvqdh0","pricing_plan_id":"cebpf4jnsgd1na2vs0mg"},{"bike_id":"8502c1f2-69fd-48a9-b68a-2e0b2281a283","system_id":"levelo_inurba_marseille","lat":43.29689,"lon":5.37288,"is_reserved":false,"is_disabled":false,"rental_uris":{"android":"levelo://app?vid=8502c1f2-69fd-48a9-b68a-2e0b2281a283","ios":"levelo://app?vid=8502c1f2-69fd-48a9-b68a-2e0b2281a283"},"vehicle_type_id":"4","last_reported":1729105635,"current_range_meters":28800,"station_id":"ce4bgk12rcd13ifvqbj0","pricing_plan_id":"cebpf4jnsgd1na2vs0mg"},{"bike_id":"042e5b40-9e97-45f4-843e-ff54af18e3a3","system_id":"levelo_inurba_marseille","lat":43.337444,"lon":5.374475,"is_reserved":false,"is_disabled":false,"rental_uris":{"android":"levelo://app?vid=042e5b40-9e97-45f4-843e-ff54af18e3a3","ios":"levelo://app?vid=042e5b40-9e97-45f4-843e-ff54af18e3a3"},"vehicle_type_id":"4","last_reported":1729105635,"current_range_meters":35200,"station_id":"","pricing_plan_id":"cebpf4jnsgd1na2vs0mg"},{"bike_id":"d25e3192-c141-44fa-83a9-f7ae7b4adfc7","system_id":"levelo_inurba_marseille","lat":43.23186,"lon":5.39984,"is_reserved":false,"is_disabled":false,"rental_uris":{"android":"levelo://app?vid=d25e3192-c141-44fa-83a9-f7ae7b4adfc7","ios":"levelo://app?vid=d25e3192-c141-44fa-83a9-f7ae7b4adfc7"},"vehicle_type_id":"4","last_reported":1729105635,"current_range_meters":38800,"station_id":"ce4bhn12rcd13ifvqgqg","pricing_plan_id":"cebpf4jnsgd1na2vs0mg"},{"bike_id":"80472a12-2083-43b7-b288-9df5b8106773","system_id":"levelo_inurba_marseille","lat":43.2509,"lon":5.39528,"is_reserved":false,"is_disabled":false,"rental_uris":{"android":"levelo://app?vid=80472a12-2083-43b7-b288-9df5b8106773","ios":"levelo://app?vid=80472a12-2083-43b7-b288-9df5b8106773"},"vehicle_type_id":"4","last_reported":1729105635,"current_range_meters":37600,"station_id":"ce4bhm12rcd13ifvqgkg","pricing_plan_id":"cebpf4jnsgd1na2vs0mg"},{"bike_id":"3c59fb88-5179-44f9-a953-832c4045a9c5","system_id":"levelo_inurba_marseille","lat":43.30936,"lon":5.40148,"is_reserved":false,"is_disabled":false,"rental_uris":{"android":"levelo://app?vid=3c59fb88-5179-44f9-a953-832c4045a9c5","ios":"levelo://app?vid=3c59fb88-5179-44f9-a953-832c4045a9c5"},"vehicle_type_id":"4","last_reported":1729105635,"current_range_meters":10000,"station_id":"ce4bgvp2rcd13ifvqct0","pricing_plan_id":"cebpf4jnsgd1na2vs0mg"},{"bike_id":"17d66874-6031-4fd3-90a9-10459aba7f64","system_id":"levelo_inurba_marseille","lat":43.33022,"lon":5.39048,"is_reserved":false,"is_disabled":false,"rental_uris":{"android":"levelo://app?vid=17d66874-6031-4fd3-90a9-10459aba7f64","ios":"levelo://app?vid=17d66874-6031-4fd3-90a9-10459aba7f64"},"vehicle_type_id":"4","last_reported":1729105635,"current_range_meters":33600,"station_id":"ce4bhr92rcd13ifvqhrg","pricing_plan_id":"cebpf4jnsgd1na2vs0mg"},{"bike_id":"b1b60781-1f61-4f02-bc26-c0542080d31e","system_id":"levelo_inurba_marseille","lat":43.30919,"lon":5.4014,"is_reserved":false,"is_disabled":false,"rental_uris":{"android":"levelo://app?vid=b1b60781-1f61-4f02-bc26-c0542080d31e","ios":"levelo://app?vid=b1b60781-1f61-4f02-bc26-c0542080d31e"},"vehicle_type_id":"4","last_reported":1729105635,"current_range_meters":38800,"station_id":"ce4bgvp2rcd13ifvqct0","pricing_plan_id":"cebpf4jnsgd1na2vs0mg"},{"bike_id":"e0ba7378-4139-4f45-a9e6-4d17e46e0da7","system_id":"levelo_inurba_marseille","lat":43.27987,"lon":5.40013,"is_reserved":false,"is_disabled":false,"rental_uris":{"android":"levelo://app?vid=e0ba7378-4139-4f45-a9e6-4d17e46e0da7","ios":"levelo://app?vid=e0ba7378-4139-4f45-a9e6-4d17e46e0da7"},"vehicle_type_id":"4","last_reported":1729105635,"current_range_meters":29600,"station_id":"ce4bho92rcd13ifvqh4g","pricing_plan_id":"cebpf4jnsgd1na2vs0mg"},{"bike_id":"53d2bb38-9103-4a7e-a947-e42e7bdcfb9a","system_id":"levelo_inurba_marseille","lat":43.31118,"lon":5.37778,"is_reserved":false,"is_disabled":false,"rental_uris":{"android":"levelo://app?vid=53d2bb38-9103-4a7e-a947-e42e7bdcfb9a","ios":"levelo://app?vid=53d2bb38-9103-4a7e-a947-e42e7bdcfb9a"},"vehicle_type_id":"4","last_reported":1729105635,"current_range_meters":18000,"station_id":"ce4bgt92rcd13ifvqcg0","pricing_plan_id":"cebpf4jnsgd1na2vs0mg"},{"bike_id":"f0c1ba47-6843-4ec3-81ed-0def77b7655d","system_id":"levelo_inurba_marseille","lat":43.29308,"lon":5.37167,"is_reserved":false,"is_disabled":false,"rental_uris":{"android":"levelo://app?vid=f0c1ba47-6843-4ec3-81ed-0def77b7655d","ios":"levelo://app?vid=f0c1ba47-6843-4ec3-81ed-0def77b7655d"},"vehicle_type_id":"4","last_reported":1729105635,"current_range_meters":23200,"station_id":"ce4bgh92rcd13ifvqb40","pricing_plan_id":"cebpf4jnsgd1na2vs0mg"},{"bike_id":"851bada0-f0f3-427a-91b9-2220a922230e","system_id":"levelo_inurba_marseille","lat":43.31522,"lon":5.38033,"is_reserved":false,"is_disabled":false,"rental_uris":{"android":"levelo://app?vid=851bada0-f0f3-427a-91b9-2220a922230e","ios":"levelo://app?vid=851bada0-f0f3-427a-91b9-2220a922230e"},"vehicle_type_id":"4","last_reported":1729105635,"current_range_meters":28800,"station_id":"ce4bhsp2rcd13ifvqi50","pricing_plan_id":"cebpf4jnsgd1na2vs0mg"},{"bike_id":"6cd899d8-1f88-459f-b491-3f17e4af5020","system_id":"levelo_inurba_marseille","lat":43.24066,"lon":5.37762,"is_reserved":false,"is_disabled":false,"rental_uris":{"android":"levelo://app?vid=6cd899d8-1f88-459f-b491-3f17e4af5020","ios":"levelo://app?vid=6cd899d8-1f88-459f-b491-3f17e4af5020"},"vehicle_type_id":"4","last_reported":1729105635,"current_range_meters":27200,"station_id":"ce4bhnp2rcd13ifvqgvg","pricing_plan_id":"cebpf4jnsgd1na2vs0mg"},{"bike_id":"93ced2c5-f9a7-481d-a711-6250592c9255","system_id":"levelo_inurba_marseille","lat":43.25087,"lon":5.39524,"is_reserved":false,"is_disabled":false,"rental_uris":{"android":"levelo://app?vid=93ced2c5-f9a7-481d-a711-6250592c9255","ios":"levelo://app?vid=93ced2c5-f9a7-481d-a711-6250592c9255"},"vehicle_type_id":"4","last_reported":1729105635,"current_range_meters":4400,"station_id":"ce4bhm12rcd13ifvqgkg","pricing_plan_id":"cebpf4jnsgd1na2vs0mg"},{"bike_id":"786307c4-e27e-45ca-9e78-15b721f519ac","system_id":"levelo_inurba_marseille","lat":43.30085,"lon":5.39089,"is_reserved":false,"is_disabled":false,"rental_uris":{"android":"levelo://app?vid=786307c4-e27e-45ca-9e78-15b721f519ac","ios":"levelo://app?vid=786307c4-e27e-45ca-9e78-15b721f519ac"},"vehicle_type_id":"4","last_reported":1729105635,"current_range_meters":38800,"station_id":"ce4bh192rcd13ifvqdb0","pricing_plan_id":"cebpf4jnsgd1na2vs0mg"},{"bike_id":"005c9ece-863d-47bf-8373-cf9b2f5bb19b","system_id":"levelo_inurba_marseille","lat":43.29608,"lon":5.37722,"is_reserved":false,"is_disabled":false,"rental_uris":{"android":"levelo://app?vid=005c9ece-863d-47bf-8373-cf9b2f5bb19b","ios":"levelo://app?vid=005c9ece-863d-47bf-8373-cf9b2f5bb19b"},"vehicle_type_id":"4","last_reported":1729105635,"current_range_meters":9600,"station_id":"ce4bgi92rcd13ifvqb90","pricing_plan_id":"cebpf4jnsgd1na2vs0mg"},{"bike_id":"12a0ce46-2b5b-482a-baf5-be50baa26765","system_id":"levelo_inurba_marseille","lat":43.281519,"lon":5.426488,"is_reserved":false,"is_disabled":false,"rental_uris":{"android":"levelo://app?vid=12a0ce46-2b5b-482a-baf5-be50baa26765","ios":"levelo://app?vid=12a0ce46-2b5b-482a-baf5-be50baa26765"},"vehicle_type_id":"4","last_reported":1729105635,"current_range_meters":33200,"station_id":"ce4bhnh2rcd13ifvqgug","pricing_plan_id":"cebpf4jnsgd1na2vs0mg"},{"bike_id":"90170627-4b65-4b31-b891-a2bb531c3ae8","system_id":"levelo_inurba_marseille","lat":43.293734,"lon":5.375948,"is_reserved":false,"is_disabled":false,"rental_uris":{"android":"levelo://app?vid=90170627-4b65-4b31-b891-a2bb531c3ae8","ios":"levelo://app?vid=90170627-4b65-4b31-b891-a2bb531c3ae8"},"vehicle_type_id":"4","last_reported":1729105635,"current_range_meters":28400,"station_id":"ce4bgi12rcd13ifvqb70","pricing_plan_id":"cebpf4jnsgd1na2vs0mg"},{"bike_id":"45ffc5eb-90ab-406f-a5cf-c6bda0ec636e","system_id":"levelo_inurba_marseille","lat":43.31708,"lon":5.37748,"is_reserved":false,"is_disabled":false,"rental_uris":{"android":"levelo://app?vid=45ffc5eb-90ab-406f-a5cf-c6bda0ec636e","ios":"levelo://app?vid=45ffc5eb-90ab-406f-a5cf-c6bda0ec636e"},"vehicle_type_id":"4","last_reported":1729105635,"current_range_meters":37600,"station_id":"ce4bgth2rcd13ifvqch0","pricing_plan_id":"cebpf4jnsgd1na2vs0mg"},{"bike_id":"b1d64002-26eb-4072-90da-6559d253294d","system_id":"levelo_inurba_marseille","lat":43.28658,"lon":5.36356,"is_reserved":false,"is_disabled":false,"rental_uris":{"android":"levelo://app?vid=b1d64002-26eb-4072-90da-6559d253294d","ios":"levelo://app?vid=b1d64002-26eb-4072-90da-6559d253294d"},"vehicle_type_id":"4","last_reported":1729105635,"current_range_meters":20400,"station_id":"ce4bhah2rcd13ifvqej0","pricing_plan_id":"cebpf4jnsgd1na2vs0mg"},{"bike_id":"05545084-0c06-4cb7-bb4b-6c510970601e","system_id":"levelo_inurba_marseille","lat":43.311174,"lon":5.37774,"is_reserved":false,"is_disabled":false,"rental_uris":{"android":"levelo://app?vid=05545084-0c06-4cb7-bb4b-6c510970601e","ios":"levelo://app?vid=05545084-0c06-4cb7-bb4b-6c510970601e"},"vehicle_type_id":"4","last_reported":1729105635,"current_range_meters":29600,"station_id":"ce4bgt92rcd13ifvqcg0","pricing_plan_id":"cebpf4jnsgd1na2vs0mg"},{"bike_id":"d3e02234-2473-432a-89ac-358e423cfef9","system_id":"levelo_inurba_marseille","lat":43.28663,"lon":5.36355,"is_reserved":false,"is_disabled":false,"rental_uris":{"android":"levelo://app?vid=d3e02234-2473-432a-89ac-358e423cfef9","ios":"levelo://app?vid=d3e02234-2473-432a-89ac-358e423cfef9"},"vehicle_type_id":"4","last_reported":1729105635,"current_range_meters":12800,"station_id":"ce4bhah2rcd13ifvqej0","pricing_plan_id":"cebpf4jnsgd1na2vs0mg"},{"bike_id":"de08adff-07df-40af-b57a-d9857f69d5a9","system_id":"levelo_inurba_marseille","lat":43.27979,"lon":5.38733,"is_reserved":false,"is_disabled":false,"rental_uris":{"android":"levelo://app?vid=de08adff-07df-40af-b57a-d9857f69d5a9","ios":"levelo://app?vid=de08adff-07df-40af-b57a-d9857f69d5a9"},"vehicle_type_id":"4","last_reported":1729105635,"current_range_meters":24800,"station_id":"ce4bhg12rcd13ifvqf80","pricing_plan_id":"cebpf4jnsgd1na2vs0mg"},{"bike_id":"afdb2217-37a1-4b7c-b176-e802fbad350b","system_id":"levelo_inurba_marseille","lat":43.31159,"lon":5.38723,"is_reserved":false,"is_disabled":false,"rental_uris":{"android":"levelo://app?vid=afdb2217-37a1-4b7c-b176-e802fbad350b","ios":"levelo://app?vid=afdb2217-37a1-4b7c-b176-e802fbad350b"},"vehicle_type_id":"4","last_reported":1729105635,"current_range_meters":4800,"station_id":"ce4bgv12rcd13ifvqcp0","pricing_plan_id":"cebpf4jnsgd1na2vs0mg"},{"bike_id":"bdb4f070-8bae-407b-bc70-9ee3db878f96","system_id":"levelo_inurba_marseille","lat":43.24667,"lon":5.38157,"is_reserved":false,"is_disabled":false,"rental_uris":{"android":"levelo://app?vid=bdb4f070-8bae-407b-bc70-9ee3db878f96","ios":"levelo://app?vid=bdb4f070-8bae-407b-bc70-9ee3db878f96"},"vehicle_type_id":"4","last_reported":1729105635,"current_range_meters":24000,"station_id":"ce4bhih2rcd13ifvqfr0","pricing_plan_id":"cebpf4jnsgd1na2vs0mg"},{"bike_id":"a6b4578e-3cab-4bcb-ae84-333753b03084","system_id":"levelo_inurba_marseille","lat":43.2318,"lon":5.39989,"is_reserved":false,"is_disabled":false,"rental_uris":{"android":"levelo://app?vid=a6b4578e-3cab-4bcb-ae84-333753b03084","ios":"levelo://app?vid=a6b4578e-3cab-4bcb-ae84-333753b03084"},"vehicle_type_id":"4","last_reported":1729105635,"current_range_meters":38400,"station_id":"ce4bhn12rcd13ifvqgqg","pricing_plan_id":"cebpf4jnsgd1na2vs0mg"},{"bike_id":"b40dd7aa-cda2-42b5-9199-e32b33562a0c","system_id":"levelo_inurba_marseille","lat":43.29957,"lon":5.4133,"is_reserved":false,"is_disabled":false,"rental_uris":{"android":"levelo://app?vid=b40dd7aa-cda2-42b5-9199-e32b33562a0c","ios":"levelo://app?vid=b40dd7aa-cda2-42b5-9199-e32b33562a0c"},"vehicle_type_id":"4","last_reported":1729105635,"current_range_meters":36400,"station_id":"ce4bhp12rcd13ifvqh9g","pricing_plan_id":"cebpf4jnsgd1na2vs0mg"},{"bike_id":"8b5d7414-2b08-4e30-b677-b339f42b4115","system_id":"levelo_inurba_marseille","lat":43.29211,"lon":5.36063,"is_reserved":false,"is_disabled":false,"rental_uris":{"android":"levelo://app?vid=8b5d7414-2b08-4e30-b677-b339f42b4115","ios":"levelo://app?vid=8b5d7414-2b08-4e30-b677-b339f42b4115"},"vehicle_type_id":"4","last_reported":1729105635,"current_range_meters":32000,"station_id":"ce4bhbh2rcd13ifvqeqg","pricing_plan_id":"cebpf4jnsgd1na2vs0mg"},{"bike_id":"8e8d46c3-6a96-480e-b7fd-bc578daaaec6","system_id":"levelo_inurba_marseille","lat":43.30919,"lon":5.40145,"is_reserved":false,"is_disabled":false,"rental_uris":{"android":"levelo://app?vid=8e8d46c3-6a96-480e-b7fd-bc578daaaec6","ios":"levelo://app?vid=8e8d46c3-6a96-480e-b7fd-bc578daaaec6"},"vehicle_type_id":"4","last_reported":1729105635,"current_range_meters":10000,"station_id":"ce4bgvp2rcd13ifvqct0","pricing_plan_id":"cebpf4jnsgd1na2vs0mg"},{"bike_id":"faafdf6c-f564-4ef6-b6e1-54989b90e65d","system_id":"levelo_inurba_marseille","lat":43.31165,"lon":5.38721,"is_reserved":false,"is_disabled":false,"rental_uris":{"android":"levelo://app?vid=faafdf6c-f564-4ef6-b6e1-54989b90e65d","ios":"levelo://app?vid=faafdf6c-f564-4ef6-b6e1-54989b90e65d"},"vehicle_type_id":"4","last_reported":1729105635,"current_range_meters":39200,"station_id":"ce4bgv12rcd13ifvqcp0","pricing_plan_id":"cebpf4jnsgd1na2vs0mg"},{"bike_id":"4fdcc6ab-0f33-4c06-a81e-f6458471be0f","system_id":"levelo_inurba_marseille","lat":43.2558,"lon":5.38232,"is_reserved":false,"is_disabled":false,"rental_uris":{"android":"levelo://app?vid=4fdcc6ab-0f33-4c06-a81e-f6458471be0f","ios":"levelo://app?vid=4fdcc6ab-0f33-4c06-a81e-f6458471be0f"},"vehicle_type_id":"4","last_reported":1729105635,"current_range_meters":8400,"station_id":"ce4bhih2rcd13ifvqfs0","pricing_plan_id":"cebpf4jnsgd1na2vs0mg"},{"bike_id":"af7f2d64-17dc-42fb-a98b-46080d1d96a1","system_id":"levelo_inurba_marseille","lat":43.25724,"lon":5.41107,"is_reserved":false,"is_disabled":false,"rental_uris":{"android":"levelo://app?vid=af7f2d64-17dc-42fb-a98b-46080d1d96a1","ios":"levelo://app?vid=af7f2d64-17dc-42fb-a98b-46080d1d96a1"},"vehicle_type_id":"4","last_reported":1729105635,"current_range_meters":22400,"station_id":"ce4bhkp2rcd13ifvqgd0","pricing_plan_id":"cebpf4jnsgd1na2vs0mg"},{"bike_id":"eb2975e6-751f-46f3-9f1c-bba14fd6b1d4","system_id":"levelo_inurba_marseille","lat":43.311605,"lon":5.3872,"is_reserved":false,"is_disabled":false,"rental_uris":{"android":"levelo://app?vid=eb2975e6-751f-46f3-9f1c-bba14fd6b1d4","ios":"levelo://app?vid=eb2975e6-751f-46f3-9f1c-bba14fd6b1d4"},"vehicle_type_id":"4","last_reported":1729105635,"current_range_meters":15200,"station_id":"ce4bgv12rcd13ifvqcp0","pricing_plan_id":"cebpf4jnsgd1na2vs0mg"},{"bike_id":"90263e99-d5aa-44b8-a4c8-0353aa3b308c","system_id":"levelo_inurba_marseille","lat":43.23066,"lon":5.35495,"is_reserved":false,"is_disabled":false,"rental_uris":{"android":"levelo://app?vid=90263e99-d5aa-44b8-a4c8-0353aa3b308c","ios":"levelo://app?vid=90263e99-d5aa-44b8-a4c8-0353aa3b308c"},"vehicle_type_id":"4","last_reported":1729105635,"current_range_meters":12800,"station_id":"cpo3342slgdg3j2ifvpg","pricing_plan_id":"cebpf4jnsgd1na2vs0mg"},{"bike_id":"b05047a5-3a5a-4920-911c-817bd8f1ea84","system_id":"levelo_inurba_marseille","lat":43.29554,"lon":5.42285,"is_reserved":false,"is_disabled":false,"rental_uris":{"android":"levelo://app?vid=b05047a5-3a5a-4920-911c-817bd8f1ea84","ios":"levelo://app?vid=b05047a5-3a5a-4920-911c-817bd8f1ea84"},"vehicle_type_id":"4","last_reported":1729105635,"current_range_meters":33200,"station_id":"ce4bhph2rcd13ifvqhdg","pricing_plan_id":"cebpf4jnsgd1na2vs0mg"},{"bike_id":"d3457713-0e8e-4bee-ae6b-c4b8b36e8262","system_id":"levelo_inurba_marseille","lat":43.31991,"lon":5.3816,"is_reserved":false,"is_disabled":false,"rental_uris":{"android":"levelo://app?vid=d3457713-0e8e-4bee-ae6b-c4b8b36e8262","ios":"levelo://app?vid=d3457713-0e8e-4bee-ae6b-c4b8b36e8262"},"vehicle_type_id":"4","last_reported":1729105635,"current_range_meters":39200,"station_id":"ce4bhr12rcd13ifvqhpg","pricing_plan_id":"cebpf4jnsgd1na2vs0mg"},{"bike_id":"f02abbd0-cc87-4277-bd16-1aca087f70c4","system_id":"levelo_inurba_marseille","lat":43.29247,"lon":5.40914,"is_reserved":false,"is_disabled":false,"rental_uris":{"android":"levelo://app?vid=f02abbd0-cc87-4277-bd16-1aca087f70c4","ios":"levelo://app?vid=f02abbd0-cc87-4277-bd16-1aca087f70c4"},"vehicle_type_id":"4","last_reported":1729105635,"current_range_meters":12400,"station_id":"ce4bh192rcd13ifvqdc0","pricing_plan_id":"cebpf4jnsgd1na2vs0mg"},{"bike_id":"7cd81bcb-dc97-4f72-bc96-9d5220b42a08","system_id":"levelo_inurba_marseille","lat":43.29209,"lon":5.39307,"is_reserved":false,"is_disabled":false,"rental_uris":{"android":"levelo://app?vid=7cd81bcb-dc97-4f72-bc96-9d5220b42a08","ios":"levelo://app?vid=7cd81bcb-dc97-4f72-bc96-9d5220b42a08"},"vehicle_type_id":"4","last_reported":1729105635,"current_range_meters":30000,"station_id":"ce4bh192rcd13ifvqdd0","pricing_plan_id":"cebpf4jnsgd1na2vs0mg"},{"bike_id":"a4e0a582-9a0c-41f1-aaa2-c92a061348a8","system_id":"levelo_inurba_marseille","lat":43.30551,"lon":5.38419,"is_reserved":false,"is_disabled":false,"rental_uris":{"android":"levelo://app?vid=a4e0a582-9a0c-41f1-aaa2-c92a061348a8","ios":"levelo://app?vid=a4e0a582-9a0c-41f1-aaa2-c92a061348a8"},"vehicle_type_id":"4","last_reported":1729105635,"current_range_meters":36000,"station_id":"ce4bgg92rcd13ifvqb30","pricing_plan_id":"cebpf4jnsgd1na2vs0mg"},{"bike_id":"5c2cfb13-edac-496c-adc8-94d8db43ca97","system_id":"levelo_inurba_marseille","lat":43.29033,"lon":5.35926,"is_reserved":false,"is_disabled":false,"rental_uris":{"android":"levelo://app?vid=5c2cfb13-edac-496c-adc8-94d8db43ca97","ios":"levelo://app?vid=5c2cfb13-edac-496c-adc8-94d8db43ca97"},"vehicle_type_id":"4","last_reported":1729105635,"current_range_meters":38800,"station_id":"ce4bha92rcd13ifvqeg0","pricing_plan_id":"cebpf4jnsgd1na2vs0mg"},{"bike_id":"ea7400e7-777b-4894-af88-e3656a697a2e","system_id":"levelo_inurba_marseille","lat":43.293026,"lon":5.374497,"is_reserved":false,"is_disabled":false,"rental_uris":{"android":"levelo://app?vid=ea7400e7-777b-4894-af88-e3656a697a2e","ios":"levelo://app?vid=ea7400e7-777b-4894-af88-e3656a697a2e"},"vehicle_type_id":"4","last_reported":1729105635,"current_range_meters":39200,"station_id":"ce4bgi12rcd13ifvqb70","pricing_plan_id":"cebpf4jnsgd1na2vs0mg"},{"bike_id":"1673285f-7e64-40ac-9ddf-ea3babe0032a","system_id":"levelo_inurba_marseille","lat":43.28615,"lon":5.35103,"is_reserved":false,"is_disabled":false,"rental_uris":{"android":"levelo://app?vid=1673285f-7e64-40ac-9ddf-ea3babe0032a","ios":"levelo://app?vid=1673285f-7e64-40ac-9ddf-ea3babe0032a"},"vehicle_type_id":"4","last_reported":1729105635,"current_range_meters":38800,"station_id":"ce4bhch2rcd13ifvqeug","pricing_plan_id":"cebpf4jnsgd1na2vs0mg"},{"bike_id":"4165e184-0af1-44ad-b80f-6d904b1e0af0","system_id":"levelo_inurba_marseille","lat":43.30899,"lon":5.36848,"is_reserved":false,"is_disabled":false,"rental_uris":{"android":"levelo://app?vid=4165e184-0af1-44ad-b80f-6d904b1e0af0","ios":"levelo://app?vid=4165e184-0af1-44ad-b80f-6d904b1e0af0"},"vehicle_type_id":"4","last_reported":1729105635,"current_range_meters":22400,"station_id":"ce4bgn92rcd13ifvqbvg","pricing_plan_id":"cebpf4jnsgd1na2vs0mg"},{"bike_id":"9a75696d-bbbc-4ed7-bfb5-a5c3ef664dd5","system_id":"levelo_inurba_marseille","lat":43.27813,"lon":5.4072,"is_reserved":false,"is_disabled":false,"rental_uris":{"android":"levelo://app?vid=9a75696d-bbbc-4ed7-bfb5-a5c3ef664dd5","ios":"levelo://app?vid=9a75696d-bbbc-4ed7-bfb5-a5c3ef664dd5"},"vehicle_type_id":"4","last_reported":1729105635,"current_range_meters":27600,"station_id":"ce4bhnh2rcd13ifvqgtg","pricing_plan_id":"cebpf4jnsgd1na2vs0mg"},{"bike_id":"b5b99623-414d-4eb1-b427-c0178ad49012","system_id":"levelo_inurba_marseille","lat":43.25717,"lon":5.41115,"is_reserved":false,"is_disabled":false,"rental_uris":{"android":"levelo://app?vid=b5b99623-414d-4eb1-b427-c0178ad49012","ios":"levelo://app?vid=b5b99623-414d-4eb1-b427-c0178ad49012"},"vehicle_type_id":"4","last_reported":1729105635,"current_range_meters":33600,"station_id":"ce4bhkp2rcd13ifvqgd0","pricing_plan_id":"cebpf4jnsgd1na2vs0mg"},{"bike_id":"8a2124ac-5422-4960-bd68-1bcb8591b5b6","system_id":"levelo_inurba_marseille","lat":43.24669,"lon":5.38172,"is_reserved":false,"is_disabled":false,"rental_uris":{"android":"levelo://app?vid=8a2124ac-5422-4960-bd68-1bcb8591b5b6","ios":"levelo://app?vid=8a2124ac-5422-4960-bd68-1bcb8591b5b6"},"vehicle_type_id":"4","last_reported":1729105635,"current_range_meters":31200,"station_id":"ce4bhih2rcd13ifvqfr0","pricing_plan_id":"cebpf4jnsgd1na2vs0mg"},{"bike_id":"fa7bbdc9-afbe-404d-8676-647037cc76a9","system_id":"levelo_inurba_marseille","lat":43.23192,"lon":5.35552,"is_reserved":false,"is_disabled":false,"rental_uris":{"android":"levelo://app?vid=fa7bbdc9-afbe-404d-8676-647037cc76a9","ios":"levelo://app?vid=fa7bbdc9-afbe-404d-8676-647037cc76a9"},"vehicle_type_id":"4","last_reported":1729105635,"current_range_meters":37600,"station_id":"ce4bhu92rcd13ifvqi70","pricing_plan_id":"cebpf4jnsgd1na2vs0mg"},{"bike_id":"48fb8944-826a-45fd-9010-4861ac3afb66","system_id":"levelo_inurba_marseille","lat":43.31716,"lon":5.37764,"is_reserved":false,"is_disabled":false,"rental_uris":{"android":"levelo://app?vid=48fb8944-826a-45fd-9010-4861ac3afb66","ios":"levelo://app?vid=48fb8944-826a-45fd-9010-4861ac3afb66"},"vehicle_type_id":"4","last_reported":1729105635,"current_range_meters":38800,"station_id":"ce4bgth2rcd13ifvqch0","pricing_plan_id":"cebpf4jnsgd1na2vs0mg"},{"bike_id":"931ad2f4-35ea-42b5-bc1a-1fdec477398a","system_id":"levelo_inurba_marseille","lat":43.337444,"lon":5.374475,"is_reserved":false,"is_disabled":false,"rental_uris":{"android":"levelo://app?vid=931ad2f4-35ea-42b5-bc1a-1fdec477398a","ios":"levelo://app?vid=931ad2f4-35ea-42b5-bc1a-1fdec477398a"},"vehicle_type_id":"4","last_reported":1729105635,"current_range_meters":36800,"station_id":"","pricing_plan_id":"cebpf4jnsgd1na2vs0mg"},{"bike_id":"90791e2b-4eb6-403e-8b60-6cfdc5994899","system_id":"levelo_inurba_marseille","lat":43.3117,"lon":5.38725,"is_reserved":false,"is_disabled":false,"rental_uris":{"android":"levelo://app?vid=90791e2b-4eb6-403e-8b60-6cfdc5994899","ios":"levelo://app?vid=90791e2b-4eb6-403e-8b60-6cfdc5994899"},"vehicle_type_id":"4","last_reported":1729105635,"current_range_meters":32000,"station_id":"ce4bgv12rcd13ifvqcp0","pricing_plan_id":"cebpf4jnsgd1na2vs0mg"},{"bike_id":"88c0e835-9fc8-4dba-b8e2-9ef7c90c5122","system_id":"levelo_inurba_marseille","lat":43.29964,"lon":5.41328,"is_reserved":false,"is_disabled":false,"rental_uris":{"android":"levelo://app?vid=88c0e835-9fc8-4dba-b8e2-9ef7c90c5122","ios":"levelo://app?vid=88c0e835-9fc8-4dba-b8e2-9ef7c90c5122"},"vehicle_type_id":"4","last_reported":1729105635,"current_range_meters":39200,"station_id":"ce4bhp12rcd13ifvqh9g","pricing_plan_id":"cebpf4jnsgd1na2vs0mg"},{"bike_id":"81e32d4e-df25-4349-90c7-1831752870c9","system_id":"levelo_inurba_marseille","lat":43.27936,"lon":5.41056,"is_reserved":false,"is_disabled":false,"rental_uris":{"android":"levelo://app?vid=81e32d4e-df25-4349-90c7-1831752870c9","ios":"levelo://app?vid=81e32d4e-df25-4349-90c7-1831752870c9"},"vehicle_type_id":"4","last_reported":1729105635,"current_range_meters":33600,"station_id":"ce4bhnp2rcd13ifvqh0g","pricing_plan_id":"cebpf4jnsgd1na2vs0mg"},{"bike_id":"8c1ec6cb-2291-4814-837b-be8625c706f3","system_id":"levelo_inurba_marseille","lat":43.23197,"lon":5.3555,"is_reserved":false,"is_disabled":false,"rental_uris":{"android":"levelo://app?vid=8c1ec6cb-2291-4814-837b-be8625c706f3","ios":"levelo://app?vid=8c1ec6cb-2291-4814-837b-be8625c706f3"},"vehicle_type_id":"4","last_reported":1729105635,"current_range_meters":38800,"station_id":"ce4bhu92rcd13ifvqi70","pricing_plan_id":"cebpf4jnsgd1na2vs0mg"},{"bike_id":"4ad9c847-27df-43e5-8d29-1f4dc9858178","system_id":"levelo_inurba_marseille","lat":43.28718,"lon":5.36089,"is_reserved":false,"is_disabled":false,"rental_uris":{"android":"levelo://app?vid=4ad9c847-27df-43e5-8d29-1f4dc9858178","ios":"levelo://app?vid=4ad9c847-27df-43e5-8d29-1f4dc9858178"},"vehicle_type_id":"4","last_reported":1729105635,"current_range_meters":8000,"station_id":"cki0cbj6b192h4jlfktg","pricing_plan_id":"cebpf4jnsgd1na2vs0mg"},{"bike_id":"8cd9a0be-5e98-4d55-a4ec-d164ab97f55f","system_id":"levelo_inurba_marseille","lat":43.3199,"lon":5.38149,"is_reserved":false,"is_disabled":false,"rental_uris":{"android":"levelo://app?vid=8cd9a0be-5e98-4d55-a4ec-d164ab97f55f","ios":"levelo://app?vid=8cd9a0be-5e98-4d55-a4ec-d164ab97f55f"},"vehicle_type_id":"4","last_reported":1729105635,"current_range_meters":16400,"station_id":"ce4bhr12rcd13ifvqhpg","pricing_plan_id":"cebpf4jnsgd1na2vs0mg"},{"bike_id":"7204236b-c558-4dc8-b624-7de20d9f5729","system_id":"levelo_inurba_marseille","lat":43.2799,"lon":5.40024,"is_reserved":false,"is_disabled":false,"rental_uris":{"android":"levelo://app?vid=7204236b-c558-4dc8-b624-7de20d9f5729","ios":"levelo://app?vid=7204236b-c558-4dc8-b624-7de20d9f5729"},"vehicle_type_id":"4","last_reported":1729105635,"current_range_meters":26800,"station_id":"ce4bho92rcd13ifvqh4g","pricing_plan_id":"cebpf4jnsgd1na2vs0mg"},{"bike_id":"db810d77-ca6d-4491-b176-96ce95bcc9bc","system_id":"levelo_inurba_marseille","lat":43.25727,"lon":5.41113,"is_reserved":false,"is_disabled":false,"rental_uris":{"android":"levelo://app?vid=db810d77-ca6d-4491-b176-96ce95bcc9bc","ios":"levelo://app?vid=db810d77-ca6d-4491-b176-96ce95bcc9bc"},"vehicle_type_id":"4","last_reported":1729105635,"current_range_meters":20800,"station_id":"ce4bhkp2rcd13ifvqgd0","pricing_plan_id":"cebpf4jnsgd1na2vs0mg"},{"bike_id":"f00c1ebe-7fbc-4e3b-8132-688affb0e0bd","system_id":"levelo_inurba_marseille","lat":43.27905,"lon":5.38019,"is_reserved":false,"is_disabled":false,"rental_uris":{"android":"levelo://app?vid=f00c1ebe-7fbc-4e3b-8132-688affb0e0bd","ios":"levelo://app?vid=f00c1ebe-7fbc-4e3b-8132-688affb0e0bd"},"vehicle_type_id":"4","last_reported":1729105635,"current_range_meters":37600,"station_id":"ce4bhf92rcd13ifvqf50","pricing_plan_id":"cebpf4jnsgd1na2vs0mg"},{"bike_id":"ff6d81a5-325e-42b0-9c04-3b3651b92d82","system_id":"levelo_inurba_marseille","lat":43.31489,"lon":5.37314,"is_reserved":false,"is_disabled":false,"rental_uris":{"android":"levelo://app?vid=ff6d81a5-325e-42b0-9c04-3b3651b92d82","ios":"levelo://app?vid=ff6d81a5-325e-42b0-9c04-3b3651b92d82"},"vehicle_type_id":"4","last_reported":1729105635,"current_range_meters":5600,"station_id":"ce4bgt12rcd13ifvqcd0","pricing_plan_id":"cebpf4jnsgd1na2vs0mg"},{"bike_id":"54592c28-c346-4ed8-ab36-72ad30656d79","system_id":"levelo_inurba_marseille","lat":43.29962,"lon":5.41325,"is_reserved":false,"is_disabled":false,"rental_uris":{"android":"levelo://app?vid=54592c28-c346-4ed8-ab36-72ad30656d79","ios":"levelo://app?vid=54592c28-c346-4ed8-ab36-72ad30656d79"},"vehicle_type_id":"4","last_reported":1729105635,"current_range_meters":2000,"station_id":"ce4bhp12rcd13ifvqh9g","pricing_plan_id":"cebpf4jnsgd1na2vs0mg"},{"bike_id":"975f8e12-a5b0-4590-9364-dcfa0f86d8fb","system_id":"levelo_inurba_marseille","lat":43.29256,"lon":5.40909,"is_reserved":false,"is_disabled":false,"rental_uris":{"android":"levelo://app?vid=975f8e12-a5b0-4590-9364-dcfa0f86d8fb","ios":"levelo://app?vid=975f8e12-a5b0-4590-9364-dcfa0f86d8fb"},"vehicle_type_id":"4","last_reported":1729105635,"current_range_meters":3200,"station_id":"ce4bh192rcd13ifvqdc0","pricing_plan_id":"cebpf4jnsgd1na2vs0mg"},{"bike_id":"87613cac-def9-4c36-acac-a61a131829dd","system_id":"levelo_inurba_marseille","lat":43.27836,"lon":5.39212,"is_reserved":false,"is_disabled":false,"rental_uris":{"android":"levelo://app?vid=87613cac-def9-4c36-acac-a61a131829dd","ios":"levelo://app?vid=87613cac-def9-4c36-acac-a61a131829dd"},"vehicle_type_id":"4","last_reported":1729105635,"current_range_meters":29600,"station_id":"ce4bhjp2rcd13ifvqga0","pricing_plan_id":"cebpf4jnsgd1na2vs0mg"},{"bike_id":"6d027e4d-5961-4cf4-8686-724ca97b9794","system_id":"levelo_inurba_marseille","lat":43.29418,"lon":5.38627,"is_reserved":false,"is_disabled":false,"rental_uris":{"android":"levelo://app?vid=6d027e4d-5961-4cf4-8686-724ca97b9794","ios":"levelo://app?vid=6d027e4d-5961-4cf4-8686-724ca97b9794"},"vehicle_type_id":"4","last_reported":1729105635,"current_range_meters":38400,"station_id":"ce4bh2h2rcd13ifvqdh0","pricing_plan_id":"cebpf4jnsgd1na2vs0mg"},{"bike_id":"0994d7f0-fa2e-480f-b967-2b1e1b476b78","system_id":"levelo_inurba_marseille","lat":43.23188,"lon":5.35555,"is_reserved":false,"is_disabled":false,"rental_uris":{"android":"levelo://app?vid=0994d7f0-fa2e-480f-b967-2b1e1b476b78","ios":"levelo://app?vid=0994d7f0-fa2e-480f-b967-2b1e1b476b78"},"vehicle_type_id":"4","last_reported":1729105635,"current_range_meters":19200,"station_id":"ce4bhu92rcd13ifvqi70","pricing_plan_id":"cebpf4jnsgd1na2vs0mg"},{"bike_id":"f6af6a6e-0c43-43ba-9e4a-2a70b3681fbb","system_id":"levelo_inurba_marseille","lat":43.31416,"lon":5.3938,"is_reserved":false,"is_disabled":false,"rental_uris":{"android":"levelo://app?vid=f6af6a6e-0c43-43ba-9e4a-2a70b3681fbb","ios":"levelo://app?vid=f6af6a6e-0c43-43ba-9e4a-2a70b3681fbb"},"vehicle_type_id":"4","last_reported":1729105635,"current_range_meters":21600,"station_id":"","pricing_plan_id":"cebpf4jnsgd1na2vs0mg"},{"bike_id":"08c87e9c-eacb-4e08-b623-bcc99c90de2d","system_id":"levelo_inurba_marseille","lat":43.2909,"lon":5.38145,"is_reserved":false,"is_disabled":false,"rental_uris":{"android":"levelo://app?vid=08c87e9c-eacb-4e08-b623-bcc99c90de2d","ios":"levelo://app?vid=08c87e9c-eacb-4e08-b623-bcc99c90de2d"},"vehicle_type_id":"4","last_reported":1729105635,"current_range_meters":8400,"station_id":"ce4bh512rcd13ifvqe2g","pricing_plan_id":"cebpf4jnsgd1na2vs0mg"},{"bike_id":"66ccc46d-618e-4760-b09c-27382152bdab","system_id":"levelo_inurba_marseille","lat":43.23193,"lon":5.35545,"is_reserved":false,"is_disabled":false,"rental_uris":{"android":"levelo://app?vid=66ccc46d-618e-4760-b09c-27382152bdab","ios":"levelo://app?vid=66ccc46d-618e-4760-b09c-27382152bdab"},"vehicle_type_id":"4","last_reported":1729105635,"current_range_meters":36800,"station_id":"ce4bhu92rcd13ifvqi70","pricing_plan_id":"cebpf4jnsgd1na2vs0mg"},{"bike_id":"3784cd1a-2b71-4213-ad71-e98d36c4be18","system_id":"levelo_inurba_marseille","lat":43.29419,"lon":5.38632,"is_reserved":false,"is_disabled":false,"rental_uris":{"android":"levelo://app?vid=3784cd1a-2b71-4213-ad71-e98d36c4be18","ios":"levelo://app?vid=3784cd1a-2b71-4213-ad71-e98d36c4be18"},"vehicle_type_id":"4","last_reported":1729105635,"current_range_meters":38800,"station_id":"ce4bh2h2rcd13ifvqdh0","pricing_plan_id":"cebpf4jnsgd1na2vs0mg"},{"bike_id":"389243fd-98b7-49f3-a517-5c68dc522e1b","system_id":"levelo_inurba_marseille","lat":43.31166,"lon":5.38725,"is_reserved":false,"is_disabled":false,"rental_uris":{"android":"levelo://app?vid=389243fd-98b7-49f3-a517-5c68dc522e1b","ios":"levelo://app?vid=389243fd-98b7-49f3-a517-5c68dc522e1b"},"vehicle_type_id":"4","last_reported":1729105635,"current_range_meters":6000,"station_id":"ce4bgv12rcd13ifvqcp0","pricing_plan_id":"cebpf4jnsgd1na2vs0mg"},{"bike_id":"a073cbb3-1627-43ef-923a-3c793e1abf15","system_id":"levelo_inurba_marseille","lat":43.30871,"lon":5.3964,"is_reserved":false,"is_disabled":false,"rental_uris":{"android":"levelo://app?vid=a073cbb3-1627-43ef-923a-3c793e1abf15","ios":"levelo://app?vid=a073cbb3-1627-43ef-923a-3c793e1abf15"},"vehicle_type_id":"4","last_reported":1729105635,"current_range_meters":16400,"station_id":"ce4bh012rcd13ifvqcv0","pricing_plan_id":"cebpf4jnsgd1na2vs0mg"},{"bike_id":"76485877-9bd3-404e-9c01-7276a5e03341","system_id":"levelo_inurba_marseille","lat":43.30929,"lon":5.40142,"is_reserved":false,"is_disabled":false,"rental_uris":{"android":"levelo://app?vid=76485877-9bd3-404e-9c01-7276a5e03341","ios":"levelo://app?vid=76485877-9bd3-404e-9c01-7276a5e03341"},"vehicle_type_id":"4","last_reported":1729105635,"current_range_meters":36800,"station_id":"ce4bgvp2rcd13ifvqct0","pricing_plan_id":"cebpf4jnsgd1na2vs0mg"},{"bike_id":"2ac3de95-6858-4aaa-8d68-2142b8840c7c","system_id":"levelo_inurba_marseille","lat":43.32361,"lon":5.38884,"is_reserved":false,"is_disabled":false,"rental_uris":{"android":"levelo://app?vid=2ac3de95-6858-4aaa-8d68-2142b8840c7c","ios":"levelo://app?vid=2ac3de95-6858-4aaa-8d68-2142b8840c7c"},"vehicle_type_id":"4","last_reported":1729105635,"current_range_meters":23200,"station_id":"ce4bhqp2rcd13ifvqhog","pricing_plan_id":"cebpf4jnsgd1na2vs0mg"},{"bike_id":"bf8d5caa-71a8-4ce7-8456-382ca8c258cb","system_id":"levelo_inurba_marseille","lat":43.30209,"lon":5.39467,"is_reserved":false,"is_disabled":false,"rental_uris":{"android":"levelo://app?vid=bf8d5caa-71a8-4ce7-8456-382ca8c258cb","ios":"levelo://app?vid=bf8d5caa-71a8-4ce7-8456-382ca8c258cb"},"vehicle_type_id":"4","last_reported":1729105635,"current_range_meters":29600,"station_id":"ce4bh0p2rcd13ifvqd70","pricing_plan_id":"cebpf4jnsgd1na2vs0mg"},{"bike_id":"6300df2c-b9fe-4275-916d-dd75e59140c9","system_id":"levelo_inurba_marseille","lat":43.23197,"lon":5.35551,"is_reserved":false,"is_disabled":false,"rental_uris":{"android":"levelo://app?vid=6300df2c-b9fe-4275-916d-dd75e59140c9","ios":"levelo://app?vid=6300df2c-b9fe-4275-916d-dd75e59140c9"},"vehicle_type_id":"4","last_reported":1729105635,"current_range_meters":36800,"station_id":"ce4bhu92rcd13ifvqi70","pricing_plan_id":"cebpf4jnsgd1na2vs0mg"},{"bike_id":"6d56330f-5e73-42d5-b4b2-2b0523e4e635","system_id":"levelo_inurba_marseille","lat":43.27922,"lon":5.41055,"is_reserved":false,"is_disabled":false,"rental_uris":{"android":"levelo://app?vid=6d56330f-5e73-42d5-b4b2-2b0523e4e635","ios":"levelo://app?vid=6d56330f-5e73-42d5-b4b2-2b0523e4e635"},"vehicle_type_id":"4","last_reported":1729105635,"current_range_meters":21600,"station_id":"ce4bhnp2rcd13ifvqh0g","pricing_plan_id":"cebpf4jnsgd1na2vs0mg"},{"bike_id":"cbcc0e5e-9800-49f7-8af1-bfcc0501d4b8","system_id":"levelo_inurba_marseille","lat":43.25079,"lon":5.39525,"is_reserved":false,"is_disabled":false,"rental_uris":{"android":"levelo://app?vid=cbcc0e5e-9800-49f7-8af1-bfcc0501d4b8","ios":"levelo://app?vid=cbcc0e5e-9800-49f7-8af1-bfcc0501d4b8"},"vehicle_type_id":"4","last_reported":1729105635,"current_range_meters":38800,"station_id":"ce4bhm12rcd13ifvqgkg","pricing_plan_id":"cebpf4jnsgd1na2vs0mg"},{"bike_id":"fb7b3456-5947-49b3-854f-9a0a6794560f","system_id":"levelo_inurba_marseille","lat":43.25004,"lon":5.38929,"is_reserved":false,"is_disabled":false,"rental_uris":{"android":"levelo://app?vid=fb7b3456-5947-49b3-854f-9a0a6794560f","ios":"levelo://app?vid=fb7b3456-5947-49b3-854f-9a0a6794560f"},"vehicle_type_id":"4","last_reported":1729105635,"current_range_meters":18800,"station_id":"ce4bhgp2rcd13ifvqfd0","pricing_plan_id":"cebpf4jnsgd1na2vs0mg"},{"bike_id":"652a36fa-ba19-4e10-9fce-e1bf50d2ad42","system_id":"levelo_inurba_marseille","lat":43.299598,"lon":5.38494,"is_reserved":false,"is_disabled":false,"rental_uris":{"android":"levelo://app?vid=652a36fa-ba19-4e10-9fce-e1bf50d2ad42","ios":"levelo://app?vid=652a36fa-ba19-4e10-9fce-e1bf50d2ad42"},"vehicle_type_id":"4","last_reported":1729105635,"current_range_meters":38800,"station_id":"ce4bh192rcd13ifvqdb0","pricing_plan_id":"cebpf4jnsgd1na2vs0mg"},{"bike_id":"3e30bdf1-995f-43a4-90e2-4e3531e05d69","system_id":"levelo_inurba_marseille","lat":43.2861,"lon":5.35107,"is_reserved":false,"is_disabled":false,"rental_uris":{"android":"levelo://app?vid=3e30bdf1-995f-43a4-90e2-4e3531e05d69","ios":"levelo://app?vid=3e30bdf1-995f-43a4-90e2-4e3531e05d69"},"vehicle_type_id":"4","last_reported":1729105635,"current_range_meters":18000,"station_id":"ce4bhch2rcd13ifvqeug","pricing_plan_id":"cebpf4jnsgd1na2vs0mg"},{"bike_id":"e750499d-86a7-48b8-a8e8-851782e26656","system_id":"levelo_inurba_marseille","lat":43.29275,"lon":5.36849,"is_reserved":false,"is_disabled":false,"rental_uris":{"android":"levelo://app?vid=e750499d-86a7-48b8-a8e8-851782e26656","ios":"levelo://app?vid=e750499d-86a7-48b8-a8e8-851782e26656"},"vehicle_type_id":"4","last_reported":1729105635,"current_range_meters":38800,"station_id":"ce4bhbp2rcd13ifvqesg","pricing_plan_id":"cebpf4jnsgd1na2vs0mg"},{"bike_id":"c77cb483-5349-4491-826f-bb378f2fdbd3","system_id":"levelo_inurba_marseille","lat":43.27933,"lon":5.41061,"is_reserved":false,"is_disabled":false,"rental_uris":{"android":"levelo://app?vid=c77cb483-5349-4491-826f-bb378f2fdbd3","ios":"levelo://app?vid=c77cb483-5349-4491-826f-bb378f2fdbd3"},"vehicle_type_id":"4","last_reported":1729105635,"current_range_meters":9600,"station_id":"ce4bhnp2rcd13ifvqh0g","pricing_plan_id":"cebpf4jnsgd1na2vs0mg"},{"bike_id":"f2bb8fa8-6c67-42bf-aae5-d772d1c19952","system_id":"levelo_inurba_marseille","lat":43.29868,"lon":5.36551,"is_reserved":false,"is_disabled":false,"rental_uris":{"android":"levelo://app?vid=f2bb8fa8-6c67-42bf-aae5-d772d1c19952","ios":"levelo://app?vid=f2bb8fa8-6c67-42bf-aae5-d772d1c19952"},"vehicle_type_id":"4","last_reported":1729105635,"current_range_meters":38000,"station_id":"ce4bgm92rcd13ifvqbr0","pricing_plan_id":"cebpf4jnsgd1na2vs0mg"},{"bike_id":"2140b6a3-5118-4150-823e-9225aeb56201","system_id":"levelo_inurba_marseille","lat":43.23193,"lon":5.35546,"is_reserved":false,"is_disabled":false,"rental_uris":{"android":"levelo://app?vid=2140b6a3-5118-4150-823e-9225aeb56201","ios":"levelo://app?vid=2140b6a3-5118-4150-823e-9225aeb56201"},"vehicle_type_id":"4","last_reported":1729105635,"current_range_meters":38800,"station_id":"ce4bhu92rcd13ifvqi70","pricing_plan_id":"cebpf4jnsgd1na2vs0mg"},{"bike_id":"2c281014-ce8a-4541-b2df-8336cdc68b4a","system_id":"levelo_inurba_marseille","lat":43.31485,"lon":5.37304,"is_reserved":false,"is_disabled":false,"rental_uris":{"android":"levelo://app?vid=2c281014-ce8a-4541-b2df-8336cdc68b4a","ios":"levelo://app?vid=2c281014-ce8a-4541-b2df-8336cdc68b4a"},"vehicle_type_id":"4","last_reported":1729105635,"current_range_meters":33600,"station_id":"ce4bgt12rcd13ifvqcd0","pricing_plan_id":"cebpf4jnsgd1na2vs0mg"},{"bike_id":"ea5e655f-17be-40c7-9228-17d3eab622b7","system_id":"levelo_inurba_marseille","lat":43.23178,"lon":5.4,"is_reserved":false,"is_disabled":false,"rental_uris":{"android":"levelo://app?vid=ea5e655f-17be-40c7-9228-17d3eab622b7","ios":"levelo://app?vid=ea5e655f-17be-40c7-9228-17d3eab622b7"},"vehicle_type_id":"4","last_reported":1729105635,"current_range_meters":38800,"station_id":"ce4bhn12rcd13ifvqgqg","pricing_plan_id":"cebpf4jnsgd1na2vs0mg"},{"bike_id":"58d35ee7-bf41-4cff-98d6-961b96486b61","system_id":"levelo_inurba_marseille","lat":43.26482,"lon":5.39547,"is_reserved":false,"is_disabled":false,"rental_uris":{"android":"levelo://app?vid=58d35ee7-bf41-4cff-98d6-961b96486b61","ios":"levelo://app?vid=58d35ee7-bf41-4cff-98d6-961b96486b61"},"vehicle_type_id":"4","last_reported":1729105635,"current_range_meters":38800,"station_id":"ce4bhi12rcd13ifvqfq0","pricing_plan_id":"cebpf4jnsgd1na2vs0mg"},{"bike_id":"80be08ff-304a-4329-b0df-46f6267d3ecd","system_id":"levelo_inurba_marseille","lat":43.32285,"lon":5.38276,"is_reserved":false,"is_disabled":false,"rental_uris":{"android":"levelo://app?vid=80be08ff-304a-4329-b0df-46f6267d3ecd","ios":"levelo://app?vid=80be08ff-304a-4329-b0df-46f6267d3ecd"},"vehicle_type_id":"4","last_reported":1729105635,"current_range_meters":27600,"station_id":"ce4bhr12rcd13ifvqhqg","pricing_plan_id":"cebpf4jnsgd1na2vs0mg"},{"bike_id":"80841a97-5a7a-481e-9f0f-7c29cd043ffc","system_id":"levelo_inurba_marseille","lat":43.29422,"lon":5.38615,"is_reserved":false,"is_disabled":false,"rental_uris":{"android":"levelo://app?vid=80841a97-5a7a-481e-9f0f-7c29cd043ffc","ios":"levelo://app?vid=80841a97-5a7a-481e-9f0f-7c29cd043ffc"},"vehicle_type_id":"4","last_reported":1729105635,"current_range_meters":33200,"station_id":"ce4bh2h2rcd13ifvqdh0","pricing_plan_id":"cebpf4jnsgd1na2vs0mg"},{"bike_id":"83bcafb6-7740-4133-8b56-4bf302222f17","system_id":"levelo_inurba_marseille","lat":43.2396,"lon":5.36644,"is_reserved":false,"is_disabled":false,"rental_uris":{"android":"levelo://app?vid=83bcafb6-7740-4133-8b56-4bf302222f17","ios":"levelo://app?vid=83bcafb6-7740-4133-8b56-4bf302222f17"},"vehicle_type_id":"4","last_reported":1729105635,"current_range_meters":8000,"station_id":"ce4bhi12rcd13ifvqfp0","pricing_plan_id":"cebpf4jnsgd1na2vs0mg"},{"bike_id":"fe785414-8f42-4bcb-ade6-848bbe1c4a39","system_id":"levelo_inurba_marseille","lat":43.28444,"lon":5.3919,"is_reserved":false,"is_disabled":false,"rental_uris":{"android":"levelo://app?vid=fe785414-8f42-4bcb-ade6-848bbe1c4a39","ios":"levelo://app?vid=fe785414-8f42-4bcb-ade6-848bbe1c4a39"},"vehicle_type_id":"4","last_reported":1729105635,"current_range_meters":38800,"station_id":"ce4bhoh2rcd13ifvqh5g","pricing_plan_id":"cebpf4jnsgd1na2vs0mg"},{"bike_id":"5e25ec2c-76a3-46ae-b675-78ab559b5e9e","system_id":"levelo_inurba_marseille","lat":43.25818,"lon":5.39437,"is_reserved":false,"is_disabled":false,"rental_uris":{"android":"levelo://app?vid=5e25ec2c-76a3-46ae-b675-78ab559b5e9e","ios":"levelo://app?vid=5e25ec2c-76a3-46ae-b675-78ab559b5e9e"},"vehicle_type_id":"4","last_reported":1729105635,"current_range_meters":20800,"station_id":"ce4bhip2rcd13ifvqft0","pricing_plan_id":"cebpf4jnsgd1na2vs0mg"},{"bike_id":"f8e7e3e1-d2ff-4f79-b293-1022ed951775","system_id":"levelo_inurba_marseille","lat":43.31072,"lon":5.38355,"is_reserved":false,"is_disabled":false,"rental_uris":{"android":"levelo://app?vid=f8e7e3e1-d2ff-4f79-b293-1022ed951775","ios":"levelo://app?vid=f8e7e3e1-d2ff-4f79-b293-1022ed951775"},"vehicle_type_id":"4","last_reported":1729105635,"current_range_meters":3200,"station_id":"","pricing_plan_id":"cebpf4jnsgd1na2vs0mg"},{"bike_id":"3213665e-989c-4d22-9f5a-31c8522597dd","system_id":"levelo_inurba_marseille","lat":43.296,"lon":5.36142,"is_reserved":false,"is_disabled":false,"rental_uris":{"android":"levelo://app?vid=3213665e-989c-4d22-9f5a-31c8522597dd","ios":"levelo://app?vid=3213665e-989c-4d22-9f5a-31c8522597dd"},"vehicle_type_id":"4","last_reported":1729105635,"current_range_meters":32000,"station_id":"","pricing_plan_id":"cebpf4jnsgd1na2vs0mg"},{"bike_id":"85a43556-7d17-45ce-b0ba-e030bdf7e83d","system_id":"levelo_inurba_marseille","lat":43.28034,"lon":5.36947,"is_reserved":false,"is_disabled":false,"rental_uris":{"android":"levelo://app?vid=85a43556-7d17-45ce-b0ba-e030bdf7e83d","ios":"levelo://app?vid=85a43556-7d17-45ce-b0ba-e030bdf7e83d"},"vehicle_type_id":"4","last_reported":1729105635,"current_range_meters":27200,"station_id":"ce4bha12rcd13ifvqef0","pricing_plan_id":"cebpf4jnsgd1na2vs0mg"},{"bike_id":"05a4c027-fe13-48c1-aaa0-422cf6933bc4","system_id":"levelo_inurba_marseille","lat":43.320038,"lon":5.380539,"is_reserved":false,"is_disabled":false,"rental_uris":{"android":"levelo://app?vid=05a4c027-fe13-48c1-aaa0-422cf6933bc4","ios":"levelo://app?vid=05a4c027-fe13-48c1-aaa0-422cf6933bc4"},"vehicle_type_id":"4","last_reported":1729105635,"current_range_meters":11200,"station_id":"ce4bhr12rcd13ifvqhpg","pricing_plan_id":"cebpf4jnsgd1na2vs0mg"},{"bike_id":"85f1439d-38bb-4f84-b89e-6167ed1a4af2","system_id":"levelo_inurba_marseille","lat":43.29261,"lon":5.36847,"is_reserved":false,"is_disabled":false,"rental_uris":{"android":"levelo://app?vid=85f1439d-38bb-4f84-b89e-6167ed1a4af2","ios":"levelo://app?vid=85f1439d-38bb-4f84-b89e-6167ed1a4af2"},"vehicle_type_id":"4","last_reported":1729105635,"current_range_meters":35200,"station_id":"ce4bhbp2rcd13ifvqesg","pricing_plan_id":"cebpf4jnsgd1na2vs0mg"},{"bike_id":"92745185-ca41-465a-8583-94399bd70e9c","system_id":"levelo_inurba_marseille","lat":43.31995,"lon":5.38156,"is_reserved":false,"is_disabled":false,"rental_uris":{"android":"levelo://app?vid=92745185-ca41-465a-8583-94399bd70e9c","ios":"levelo://app?vid=92745185-ca41-465a-8583-94399bd70e9c"},"vehicle_type_id":"4","last_reported":1729105635,"current_range_meters":29600,"station_id":"ce4bhr12rcd13ifvqhpg","pricing_plan_id":"cebpf4jnsgd1na2vs0mg"},{"bike_id":"1641b826-604a-4181-8231-dca386f637a6","system_id":"levelo_inurba_marseille","lat":43.2319,"lon":5.35556,"is_reserved":false,"is_disabled":false,"rental_uris":{"android":"levelo://app?vid=1641b826-604a-4181-8231-dca386f637a6","ios":"levelo://app?vid=1641b826-604a-4181-8231-dca386f637a6"},"vehicle_type_id":"4","last_reported":1729105635,"current_range_meters":36800,"station_id":"ce4bhu92rcd13ifvqi70","pricing_plan_id":"cebpf4jnsgd1na2vs0mg"},{"bike_id":"89211ee2-076f-4df3-92bd-cd8885f2e76d","system_id":"levelo_inurba_marseille","lat":43.23193,"lon":5.35556,"is_reserved":false,"is_disabled":false,"rental_uris":{"android":"levelo://app?vid=89211ee2-076f-4df3-92bd-cd8885f2e76d","ios":"levelo://app?vid=89211ee2-076f-4df3-92bd-cd8885f2e76d"},"vehicle_type_id":"4","last_reported":1729105635,"current_range_meters":36800,"station_id":"ce4bhu92rcd13ifvqi70","pricing_plan_id":"cebpf4jnsgd1na2vs0mg"},{"bike_id":"b636607a-4e2b-40a8-9467-f61655ac77f9","system_id":"levelo_inurba_marseille","lat":43.2781,"lon":5.40716,"is_reserved":false,"is_disabled":false,"rental_uris":{"android":"levelo://app?vid=b636607a-4e2b-40a8-9467-f61655ac77f9","ios":"levelo://app?vid=b636607a-4e2b-40a8-9467-f61655ac77f9"},"vehicle_type_id":"4","last_reported":1729105635,"current_range_meters":8000,"station_id":"ce4bhnh2rcd13ifvqgtg","pricing_plan_id":"cebpf4jnsgd1na2vs0mg"},{"bike_id":"b67fd924-8775-430e-a5ef-ef25139c6204","system_id":"levelo_inurba_marseille","lat":43.28727,"lon":5.36082,"is_reserved":false,"is_disabled":false,"rental_uris":{"android":"levelo://app?vid=b67fd924-8775-430e-a5ef-ef25139c6204","ios":"levelo://app?vid=b67fd924-8775-430e-a5ef-ef25139c6204"},"vehicle_type_id":"4","last_reported":1729105635,"current_range_meters":4400,"station_id":"cki0cbj6b192h4jlfktg","pricing_plan_id":"cebpf4jnsgd1na2vs0mg"},{"bike_id":"9c7f1d3a-3b06-421a-8326-3e7694189a7a","system_id":"levelo_inurba_marseille","lat":43.29021,"lon":5.38642,"is_reserved":false,"is_disabled":false,"rental_uris":{"android":"levelo://app?vid=9c7f1d3a-3b06-421a-8326-3e7694189a7a","ios":"levelo://app?vid=9c7f1d3a-3b06-421a-8326-3e7694189a7a"},"vehicle_type_id":"4","last_reported":1729105635,"current_range_meters":22800,"station_id":"ce4bh4p2rcd13ifvqe0g","pricing_plan_id":"cebpf4jnsgd1na2vs0mg"},{"bike_id":"d653d5cb-4ddb-47a9-8873-02f612a2c9f2","system_id":"levelo_inurba_marseille","lat":43.29417,"lon":5.38611,"is_reserved":false,"is_disabled":false,"rental_uris":{"android":"levelo://app?vid=d653d5cb-4ddb-47a9-8873-02f612a2c9f2","ios":"levelo://app?vid=d653d5cb-4ddb-47a9-8873-02f612a2c9f2"},"vehicle_type_id":"4","last_reported":1729105635,"current_range_meters":38000,"station_id":"ce4bh2h2rcd13ifvqdh0","pricing_plan_id":"cebpf4jnsgd1na2vs0mg"},{"bike_id":"02af67c6-7c68-4559-a056-7404a067af01","system_id":"levelo_inurba_marseille","lat":43.33017,"lon":5.3905,"is_reserved":false,"is_disabled":false,"rental_uris":{"android":"levelo://app?vid=02af67c6-7c68-4559-a056-7404a067af01","ios":"levelo://app?vid=02af67c6-7c68-4559-a056-7404a067af01"},"vehicle_type_id":"4","last_reported":1729105635,"current_range_meters":38800,"station_id":"ce4bhr92rcd13ifvqhrg","pricing_plan_id":"cebpf4jnsgd1na2vs0mg"},{"bike_id":"c578b0df-8e72-4cf3-b064-b97180609dff","system_id":"levelo_inurba_marseille","lat":43.23181,"lon":5.39994,"is_reserved":false,"is_disabled":false,"rental_uris":{"android":"levelo://app?vid=c578b0df-8e72-4cf3-b064-b97180609dff","ios":"levelo://app?vid=c578b0df-8e72-4cf3-b064-b97180609dff"},"vehicle_type_id":"4","last_reported":1729105635,"current_range_meters":9600,"station_id":"ce4bhn12rcd13ifvqgqg","pricing_plan_id":"cebpf4jnsgd1na2vs0mg"},{"bike_id":"efc0309f-431d-4158-afa3-be5f5d796e15","system_id":"levelo_inurba_marseille","lat":43.2866,"lon":5.36357,"is_reserved":false,"is_disabled":false,"rental_uris":{"android":"levelo://app?vid=efc0309f-431d-4158-afa3-be5f5d796e15","ios":"levelo://app?vid=efc0309f-431d-4158-afa3-be5f5d796e15"},"vehicle_type_id":"4","last_reported":1729105635,"current_range_meters":38000,"station_id":"ce4bhah2rcd13ifvqej0","pricing_plan_id":"cebpf4jnsgd1na2vs0mg"},{"bike_id":"882b3754-7cb6-4830-ba68-5bc4866246a4","system_id":"levelo_inurba_marseille","lat":43.296814,"lon":5.377442,"is_reserved":false,"is_disabled":false,"rental_uris":{"android":"levelo://app?vid=882b3754-7cb6-4830-ba68-5bc4866246a4","ios":"levelo://app?vid=882b3754-7cb6-4830-ba68-5bc4866246a4"},"vehicle_type_id":"4","last_reported":1729105635,"current_range_meters":12800,"station_id":"ce4bh4p2rcd13ifvqe1g","pricing_plan_id":"cebpf4jnsgd1na2vs0mg"},{"bike_id":"1b886871-998e-4ed1-868b-63cd4ea0c869","system_id":"levelo_inurba_marseille","lat":43.29024,"lon":5.3865,"is_reserved":false,"is_disabled":false,"rental_uris":{"android":"levelo://app?vid=1b886871-998e-4ed1-868b-63cd4ea0c869","ios":"levelo://app?vid=1b886871-998e-4ed1-868b-63cd4ea0c869"},"vehicle_type_id":"4","last_reported":1729105635,"current_range_meters":37600,"station_id":"ce4bh4p2rcd13ifvqe0g","pricing_plan_id":"cebpf4jnsgd1na2vs0mg"},{"bike_id":"7b5d439c-19e0-4a4e-9000-56a231442241","system_id":"levelo_inurba_marseille","lat":43.29518,"lon":5.39041,"is_reserved":false,"is_disabled":false,"rental_uris":{"android":"levelo://app?vid=7b5d439c-19e0-4a4e-9000-56a231442241","ios":"levelo://app?vid=7b5d439c-19e0-4a4e-9000-56a231442241"},"vehicle_type_id":"4","last_reported":1729105635,"current_range_meters":26000,"station_id":"ce4bh3p2rcd13ifvqdp0","pricing_plan_id":"cebpf4jnsgd1na2vs0mg"},{"bike_id":"24f85f72-dee6-41bb-bdb8-974ca7c83215","system_id":"levelo_inurba_marseille","lat":43.33021,"lon":5.39042,"is_reserved":false,"is_disabled":false,"rental_uris":{"android":"levelo://app?vid=24f85f72-dee6-41bb-bdb8-974ca7c83215","ios":"levelo://app?vid=24f85f72-dee6-41bb-bdb8-974ca7c83215"},"vehicle_type_id":"4","last_reported":1729105635,"current_range_meters":22800,"station_id":"ce4bhr92rcd13ifvqhrg","pricing_plan_id":"cebpf4jnsgd1na2vs0mg"},{"bike_id":"87440bd7-4730-412f-b52f-03b263c3d6ba","system_id":"levelo_inurba_marseille","lat":43.2319,"lon":5.35557,"is_reserved":false,"is_disabled":false,"rental_uris":{"android":"levelo://app?vid=87440bd7-4730-412f-b52f-03b263c3d6ba","ios":"levelo://app?vid=87440bd7-4730-412f-b52f-03b263c3d6ba"},"vehicle_type_id":"4","last_reported":1729105635,"current_range_meters":24000,"station_id":"ce4bhu92rcd13ifvqi70","pricing_plan_id":"cebpf4jnsgd1na2vs0mg"},{"bike_id":"7b98e5cd-0e82-4493-9779-29528e876c23","system_id":"levelo_inurba_marseille","lat":43.31166,"lon":5.3873,"is_reserved":false,"is_disabled":false,"rental_uris":{"android":"levelo://app?vid=7b98e5cd-0e82-4493-9779-29528e876c23","ios":"levelo://app?vid=7b98e5cd-0e82-4493-9779-29528e876c23"},"vehicle_type_id":"4","last_reported":1729105635,"current_range_meters":38800,"station_id":"ce4bgv12rcd13ifvqcp0","pricing_plan_id":"cebpf4jnsgd1na2vs0mg"},{"bike_id":"921b477e-15c8-4404-9f20-1758fb7015e9","system_id":"levelo_inurba_marseille","lat":43.24176,"lon":5.39731,"is_reserved":false,"is_disabled":false,"rental_uris":{"android":"levelo://app?vid=921b477e-15c8-4404-9f20-1758fb7015e9","ios":"levelo://app?vid=921b477e-15c8-4404-9f20-1758fb7015e9"},"vehicle_type_id":"4","last_reported":1729105635,"current_range_meters":24000,"station_id":"ce4bhn12rcd13ifvqgpg","pricing_plan_id":"cebpf4jnsgd1na2vs0mg"},{"bike_id":"60ba9db8-ca45-4868-a3d7-9cff63ddc3fc","system_id":"levelo_inurba_marseille","lat":43.27218,"lon":5.39186,"is_reserved":false,"is_disabled":false,"rental_uris":{"android":"levelo://app?vid=60ba9db8-ca45-4868-a3d7-9cff63ddc3fc","ios":"levelo://app?vid=60ba9db8-ca45-4868-a3d7-9cff63ddc3fc"},"vehicle_type_id":"4","last_reported":1729105635,"current_range_meters":4800,"station_id":"ce4bhhp2rcd13ifvqfm0","pricing_plan_id":"cebpf4jnsgd1na2vs0mg"},{"bike_id":"ff96eee3-1ac8-4888-9ae7-e4b6cc8154af","system_id":"levelo_inurba_marseille","lat":43.33739,"lon":5.3746,"is_reserved":false,"is_disabled":false,"rental_uris":{"android":"levelo://app?vid=ff96eee3-1ac8-4888-9ae7-e4b6cc8154af","ios":"levelo://app?vid=ff96eee3-1ac8-4888-9ae7-e4b6cc8154af"},"vehicle_type_id":"4","last_reported":1729105635,"current_range_meters":28000,"station_id":"","pricing_plan_id":"cebpf4jnsgd1na2vs0mg"},{"bike_id":"931b645d-d617-4e55-8051-a145051084e3","system_id":"levelo_inurba_marseille","lat":43.28255,"lon":5.35069,"is_reserved":false,"is_disabled":false,"rental_uris":{"android":"levelo://app?vid=931b645d-d617-4e55-8051-a145051084e3","ios":"levelo://app?vid=931b645d-d617-4e55-8051-a145051084e3"},"vehicle_type_id":"4","last_reported":1729105635,"current_range_meters":38800,"station_id":"ce4bhbp2rcd13ifvqerg","pricing_plan_id":"cebpf4jnsgd1na2vs0mg"},{"bike_id":"d84cbc31-09f9-402d-b3d5-f1cccc2b0821","system_id":"levelo_inurba_marseille","lat":43.24668,"lon":5.3816,"is_reserved":false,"is_disabled":false,"rental_uris":{"android":"levelo://app?vid=d84cbc31-09f9-402d-b3d5-f1cccc2b0821","ios":"levelo://app?vid=d84cbc31-09f9-402d-b3d5-f1cccc2b0821"},"vehicle_type_id":"4","last_reported":1729105635,"current_range_meters":24000,"station_id":"ce4bhih2rcd13ifvqfr0","pricing_plan_id":"cebpf4jnsgd1na2vs0mg"},{"bike_id":"777b159d-dc63-49c0-8d2f-9cfe408b6526","system_id":"levelo_inurba_marseille","lat":43.27823,"lon":5.3921,"is_reserved":false,"is_disabled":false,"rental_uris":{"android":"levelo://app?vid=777b159d-dc63-49c0-8d2f-9cfe408b6526","ios":"levelo://app?vid=777b159d-dc63-49c0-8d2f-9cfe408b6526"},"vehicle_type_id":"4","last_reported":1729105635,"current_range_meters":24000,"station_id":"ce4bhjp2rcd13ifvqga0","pricing_plan_id":"cebpf4jnsgd1na2vs0mg"},{"bike_id":"53c72850-ba9d-42ad-8b25-ee05f02f422f","system_id":"levelo_inurba_marseille","lat":43.2781,"lon":5.40711,"is_reserved":false,"is_disabled":false,"rental_uris":{"android":"levelo://app?vid=53c72850-ba9d-42ad-8b25-ee05f02f422f","ios":"levelo://app?vid=53c72850-ba9d-42ad-8b25-ee05f02f422f"},"vehicle_type_id":"4","last_reported":1729105635,"current_range_meters":18800,"station_id":"ce4bhnh2rcd13ifvqgtg","pricing_plan_id":"cebpf4jnsgd1na2vs0mg"},{"bike_id":"2c9394ef-7be1-41f3-be01-1cb7cf76db9e","system_id":"levelo_inurba_marseille","lat":43.308,"lon":5.38159,"is_reserved":false,"is_disabled":false,"rental_uris":{"android":"levelo://app?vid=2c9394ef-7be1-41f3-be01-1cb7cf76db9e","ios":"levelo://app?vid=2c9394ef-7be1-41f3-be01-1cb7cf76db9e"},"vehicle_type_id":"4","last_reported":1729105635,"current_range_meters":38800,"station_id":"ce4bgt12rcd13ifvqce0","pricing_plan_id":"cebpf4jnsgd1na2vs0mg"},{"bike_id":"3b922f0e-2823-4c39-9e27-d9836eb9e938","system_id":"levelo_inurba_marseille","lat":43.30597,"lon":5.39358,"is_reserved":false,"is_disabled":false,"rental_uris":{"android":"levelo://app?vid=3b922f0e-2823-4c39-9e27-d9836eb9e938","ios":"levelo://app?vid=3b922f0e-2823-4c39-9e27-d9836eb9e938"},"vehicle_type_id":"4","last_reported":1729105635,"current_range_meters":11600,"station_id":"ce4bh0p2rcd13ifvqd80","pricing_plan_id":"cebpf4jnsgd1na2vs0mg"},{"bike_id":"ec02d71b-9637-4ea4-b722-d1953dd48a17","system_id":"levelo_inurba_marseille","lat":43.30301,"lon":5.36893,"is_reserved":false,"is_disabled":false,"rental_uris":{"android":"levelo://app?vid=ec02d71b-9637-4ea4-b722-d1953dd48a17","ios":"levelo://app?vid=ec02d71b-9637-4ea4-b722-d1953dd48a17"},"vehicle_type_id":"4","last_reported":1729105635,"current_range_meters":17600,"station_id":"ce4bgqh2rcd13ifvqc5g","pricing_plan_id":"cebpf4jnsgd1na2vs0mg"},{"bike_id":"bde88b53-17d8-48d7-9e49-9feabd039b14","system_id":"levelo_inurba_marseille","lat":43.29532,"lon":5.3855,"is_reserved":false,"is_disabled":false,"rental_uris":{"android":"levelo://app?vid=bde88b53-17d8-48d7-9e49-9feabd039b14","ios":"levelo://app?vid=bde88b53-17d8-48d7-9e49-9feabd039b14"},"vehicle_type_id":"4","last_reported":1729105635,"current_range_meters":30400,"station_id":"ce4bgih2rcd13ifvqba0","pricing_plan_id":"cebpf4jnsgd1na2vs0mg"},{"bike_id":"bb8657de-8da3-416c-bef7-55bd6c4dfef3","system_id":"levelo_inurba_marseille","lat":43.2318,"lon":5.39993,"is_reserved":false,"is_disabled":false,"rental_uris":{"android":"levelo://app?vid=bb8657de-8da3-416c-bef7-55bd6c4dfef3","ios":"levelo://app?vid=bb8657de-8da3-416c-bef7-55bd6c4dfef3"},"vehicle_type_id":"4","last_reported":1729105635,"current_range_meters":10800,"station_id":"ce4bhn12rcd13ifvqgqg","pricing_plan_id":"cebpf4jnsgd1na2vs0mg"},{"bike_id":"c77dfa9d-b8c2-4453-aaf4-58116543f393","system_id":"levelo_inurba_marseille","lat":43.30545,"lon":5.38421,"is_reserved":false,"is_disabled":false,"rental_uris":{"android":"levelo://app?vid=c77dfa9d-b8c2-4453-aaf4-58116543f393","ios":"levelo://app?vid=c77dfa9d-b8c2-4453-aaf4-58116543f393"},"vehicle_type_id":"4","last_reported":1729105635,"current_range_meters":36800,"station_id":"ce4bgg92rcd13ifvqb30","pricing_plan_id":"cebpf4jnsgd1na2vs0mg"},{"bike_id":"292b9425-1372-40d4-bf0a-fe57aa779a41","system_id":"levelo_inurba_marseille","lat":43.23064,"lon":5.35495,"is_reserved":false,"is_disabled":false,"rental_uris":{"android":"levelo://app?vid=292b9425-1372-40d4-bf0a-fe57aa779a41","ios":"levelo://app?vid=292b9425-1372-40d4-bf0a-fe57aa779a41"},"vehicle_type_id":"4","last_reported":1729105635,"current_range_meters":27600,"station_id":"cpo3342slgdg3j2ifvpg","pricing_plan_id":"cebpf4jnsgd1na2vs0mg"},{"bike_id":"db12b58b-0ee0-4987-86d1-d82bb4ca5184","system_id":"levelo_inurba_marseille","lat":43.29413,"lon":5.38611,"is_reserved":false,"is_disabled":false,"rental_uris":{"android":"levelo://app?vid=db12b58b-0ee0-4987-86d1-d82bb4ca5184","ios":"levelo://app?vid=db12b58b-0ee0-4987-86d1-d82bb4ca5184"},"vehicle_type_id":"4","last_reported":1729105635,"current_range_meters":38800,"station_id":"ce4bh2h2rcd13ifvqdh0","pricing_plan_id":"cebpf4jnsgd1na2vs0mg"},{"bike_id":"8518d50a-def0-42c3-8f65-459244226eb7","system_id":"levelo_inurba_marseille","lat":43.30879,"lon":5.39646,"is_reserved":false,"is_disabled":false,"rental_uris":{"android":"levelo://app?vid=8518d50a-def0-42c3-8f65-459244226eb7","ios":"levelo://app?vid=8518d50a-def0-42c3-8f65-459244226eb7"},"vehicle_type_id":"4","last_reported":1729105635,"current_range_meters":9600,"station_id":"ce4bh012rcd13ifvqcv0","pricing_plan_id":"cebpf4jnsgd1na2vs0mg"},{"bike_id":"f9ec8e68-d9e1-4086-b7d3-3260c1c1b97e","system_id":"levelo_inurba_marseille","lat":43.29877,"lon":5.38912,"is_reserved":false,"is_disabled":false,"rental_uris":{"android":"levelo://app?vid=f9ec8e68-d9e1-4086-b7d3-3260c1c1b97e","ios":"levelo://app?vid=f9ec8e68-d9e1-4086-b7d3-3260c1c1b97e"},"vehicle_type_id":"4","last_reported":1729105635,"current_range_meters":30000,"station_id":"ce4bh392rcd13ifvqdl0","pricing_plan_id":"cebpf4jnsgd1na2vs0mg"},{"bike_id":"49b75a91-d34f-4cd0-a94c-376dd7b8cab3","system_id":"levelo_inurba_marseille","lat":43.27903,"lon":5.38002,"is_reserved":false,"is_disabled":false,"rental_uris":{"android":"levelo://app?vid=49b75a91-d34f-4cd0-a94c-376dd7b8cab3","ios":"levelo://app?vid=49b75a91-d34f-4cd0-a94c-376dd7b8cab3"},"vehicle_type_id":"4","last_reported":1729105635,"current_range_meters":18800,"station_id":"ce4bhf92rcd13ifvqf50","pricing_plan_id":"cebpf4jnsgd1na2vs0mg"},{"bike_id":"ffb8ccca-8546-42cb-a883-293f232d6486","system_id":"levelo_inurba_marseille","lat":43.30259,"lon":5.40081,"is_reserved":false,"is_disabled":false,"rental_uris":{"android":"levelo://app?vid=ffb8ccca-8546-42cb-a883-293f232d6486","ios":"levelo://app?vid=ffb8ccca-8546-42cb-a883-293f232d6486"},"vehicle_type_id":"4","last_reported":1729105635,"current_range_meters":30400,"station_id":"ce4bgvh2rcd13ifvqcs0","pricing_plan_id":"cebpf4jnsgd1na2vs0mg"},{"bike_id":"0c44847e-e4d2-4f5c-8ad6-f98fd3ad173c","system_id":"levelo_inurba_marseille","lat":43.29771,"lon":5.37101,"is_reserved":false,"is_disabled":false,"rental_uris":{"android":"levelo://app?vid=0c44847e-e4d2-4f5c-8ad6-f98fd3ad173c","ios":"levelo://app?vid=0c44847e-e4d2-4f5c-8ad6-f98fd3ad173c"},"vehicle_type_id":"4","last_reported":1729105635,"current_range_meters":37600,"station_id":"ce4bgop2rcd13ifvqc1g","pricing_plan_id":"cebpf4jnsgd1na2vs0mg"},{"bike_id":"a6b8e268-2d82-4d58-a182-8168812f4a35","system_id":"levelo_inurba_marseille","lat":43.24808,"lon":5.3746,"is_reserved":false,"is_disabled":false,"rental_uris":{"android":"levelo://app?vid=a6b8e268-2d82-4d58-a182-8168812f4a35","ios":"levelo://app?vid=a6b8e268-2d82-4d58-a182-8168812f4a35"},"vehicle_type_id":"4","last_reported":1729105635,"current_range_meters":14800,"station_id":"ce4bhgh2rcd13ifvqfb0","pricing_plan_id":"cebpf4jnsgd1na2vs0mg"},{"bike_id":"65406e49-8594-4cfa-8223-dde29203d51c","system_id":"levelo_inurba_marseille","lat":43.27383,"lon":5.36253,"is_reserved":false,"is_disabled":false,"rental_uris":{"android":"levelo://app?vid=65406e49-8594-4cfa-8223-dde29203d51c","ios":"levelo://app?vid=65406e49-8594-4cfa-8223-dde29203d51c"},"vehicle_type_id":"4","last_reported":1729105635,"current_range_meters":8400,"station_id":"ce4bhbh2rcd13ifvqeo0","pricing_plan_id":"cebpf4jnsgd1na2vs0mg"},{"bike_id":"6b736b14-344b-4ab9-a6f1-e5aa51c651a8","system_id":"levelo_inurba_marseille","lat":43.29418,"lon":5.38625,"is_reserved":false,"is_disabled":false,"rental_uris":{"android":"levelo://app?vid=6b736b14-344b-4ab9-a6f1-e5aa51c651a8","ios":"levelo://app?vid=6b736b14-344b-4ab9-a6f1-e5aa51c651a8"},"vehicle_type_id":"4","last_reported":1729105635,"current_range_meters":31200,"station_id":"ce4bh2h2rcd13ifvqdh0","pricing_plan_id":"cebpf4jnsgd1na2vs0mg"},{"bike_id":"03d69c18-f7b3-49e8-9edb-c7aca903069a","system_id":"levelo_inurba_marseille","lat":43.29411,"lon":5.38625,"is_reserved":false,"is_disabled":false,"rental_uris":{"android":"levelo://app?vid=03d69c18-f7b3-49e8-9edb-c7aca903069a","ios":"levelo://app?vid=03d69c18-f7b3-49e8-9edb-c7aca903069a"},"vehicle_type_id":"4","last_reported":1729105635,"current_range_meters":34000,"station_id":"ce4bh2h2rcd13ifvqdh0","pricing_plan_id":"cebpf4jnsgd1na2vs0mg"},{"bike_id":"7e022d50-fee0-48bd-8f68-64779ba65969","system_id":"levelo_inurba_marseille","lat":43.2572,"lon":5.41117,"is_reserved":false,"is_disabled":false,"rental_uris":{"android":"levelo://app?vid=7e022d50-fee0-48bd-8f68-64779ba65969","ios":"levelo://app?vid=7e022d50-fee0-48bd-8f68-64779ba65969"},"vehicle_type_id":"4","last_reported":1729105635,"current_range_meters":4800,"station_id":"ce4bhkp2rcd13ifvqgd0","pricing_plan_id":"cebpf4jnsgd1na2vs0mg"},{"bike_id":"866d1fb5-d9a9-48a8-bd9d-daf47a5818fd","system_id":"levelo_inurba_marseille","lat":43.31265,"lon":5.40171,"is_reserved":false,"is_disabled":false,"rental_uris":{"android":"levelo://app?vid=866d1fb5-d9a9-48a8-bd9d-daf47a5818fd","ios":"levelo://app?vid=866d1fb5-d9a9-48a8-bd9d-daf47a5818fd"},"vehicle_type_id":"4","last_reported":1729105635,"current_range_meters":36800,"station_id":"ce4bh092rcd13ifvqd30","pricing_plan_id":"cebpf4jnsgd1na2vs0mg"},{"bike_id":"4b39118f-bb62-406b-9203-0b8ddf9c99cc","system_id":"levelo_inurba_marseille","lat":43.22934,"lon":5.35378,"is_reserved":false,"is_disabled":false,"rental_uris":{"android":"levelo://app?vid=4b39118f-bb62-406b-9203-0b8ddf9c99cc","ios":"levelo://app?vid=4b39118f-bb62-406b-9203-0b8ddf9c99cc"},"vehicle_type_id":"4","last_reported":1729105635,"current_range_meters":16400,"station_id":"cpo3532slgdg3j2ikp40","pricing_plan_id":"cebpf4jnsgd1na2vs0mg"},{"bike_id":"044358a4-9556-4db7-8947-9b9dbe130c14","system_id":"levelo_inurba_marseille","lat":43.33019,"lon":5.39047,"is_reserved":false,"is_disabled":false,"rental_uris":{"android":"levelo://app?vid=044358a4-9556-4db7-8947-9b9dbe130c14","ios":"levelo://app?vid=044358a4-9556-4db7-8947-9b9dbe130c14"},"vehicle_type_id":"4","last_reported":1729105635,"current_range_meters":25200,"station_id":"ce4bhr92rcd13ifvqhrg","pricing_plan_id":"cebpf4jnsgd1na2vs0mg"},{"bike_id":"157147d4-ce81-422f-ba0d-d6cdd72c5814","system_id":"levelo_inurba_marseille","lat":43.30325,"lon":5.40441,"is_reserved":false,"is_disabled":false,"rental_uris":{"android":"levelo://app?vid=157147d4-ce81-422f-ba0d-d6cdd72c5814","ios":"levelo://app?vid=157147d4-ce81-422f-ba0d-d6cdd72c5814"},"vehicle_type_id":"4","last_reported":1729105635,"current_range_meters":22800,"station_id":"ce4bh012rcd13ifvqd10","pricing_plan_id":"cebpf4jnsgd1na2vs0mg"},{"bike_id":"15a0fb58-97fc-44a6-a470-84a4ce5fd498","system_id":"levelo_inurba_marseille","lat":43.306,"lon":5.39358,"is_reserved":false,"is_disabled":false,"rental_uris":{"android":"levelo://app?vid=15a0fb58-97fc-44a6-a470-84a4ce5fd498","ios":"levelo://app?vid=15a0fb58-97fc-44a6-a470-84a4ce5fd498"},"vehicle_type_id":"4","last_reported":1729105635,"current_range_meters":29600,"station_id":"ce4bh0p2rcd13ifvqd80","pricing_plan_id":"cebpf4jnsgd1na2vs0mg"},{"bike_id":"a9d80141-cb04-4f88-bcc5-9763572e3517","system_id":"levelo_inurba_marseille","lat":43.23194,"lon":5.35548,"is_reserved":false,"is_disabled":false,"rental_uris":{"android":"levelo://app?vid=a9d80141-cb04-4f88-bcc5-9763572e3517","ios":"levelo://app?vid=a9d80141-cb04-4f88-bcc5-9763572e3517"},"vehicle_type_id":"4","last_reported":1729105635,"current_range_meters":36800,"station_id":"ce4bhu92rcd13ifvqi70","pricing_plan_id":"cebpf4jnsgd1na2vs0mg"},{"bike_id":"2c6e294c-f13d-4321-8a92-e25b2a5b65ea","system_id":"levelo_inurba_marseille","lat":43.2846,"lon":5.35892,"is_reserved":false,"is_disabled":false,"rental_uris":{"android":"levelo://app?vid=2c6e294c-f13d-4321-8a92-e25b2a5b65ea","ios":"levelo://app?vid=2c6e294c-f13d-4321-8a92-e25b2a5b65ea"},"vehicle_type_id":"4","last_reported":1729105635,"current_range_meters":38800,"station_id":"ce4bhah2rcd13ifvqei0","pricing_plan_id":"cebpf4jnsgd1na2vs0mg"},{"bike_id":"f09d2f46-f729-48d6-a3d6-ac12acf34246","system_id":"levelo_inurba_marseille","lat":43.2861,"lon":5.35107,"is_reserved":false,"is_disabled":false,"rental_uris":{"android":"levelo://app?vid=f09d2f46-f729-48d6-a3d6-ac12acf34246","ios":"levelo://app?vid=f09d2f46-f729-48d6-a3d6-ac12acf34246"},"vehicle_type_id":"4","last_reported":1729105635,"current_range_meters":22400,"station_id":"ce4bhch2rcd13ifvqeug","pricing_plan_id":"cebpf4jnsgd1na2vs0mg"},{"bike_id":"58fc0300-f080-417b-95f8-1703c9f98f7e","system_id":"levelo_inurba_marseille","lat":43.29622,"lon":5.37481,"is_reserved":false,"is_disabled":false,"rental_uris":{"android":"levelo://app?vid=58fc0300-f080-417b-95f8-1703c9f98f7e","ios":"levelo://app?vid=58fc0300-f080-417b-95f8-1703c9f98f7e"},"vehicle_type_id":"4","last_reported":1729105635,"current_range_meters":17600,"station_id":"","pricing_plan_id":"cebpf4jnsgd1na2vs0mg"},{"bike_id":"8dd2e3cf-bd56-4995-8abf-09c0673583de","system_id":"levelo_inurba_marseille","lat":43.28459,"lon":5.35888,"is_reserved":false,"is_disabled":false,"rental_uris":{"android":"levelo://app?vid=8dd2e3cf-bd56-4995-8abf-09c0673583de","ios":"levelo://app?vid=8dd2e3cf-bd56-4995-8abf-09c0673583de"},"vehicle_type_id":"4","last_reported":1729105635,"current_range_meters":38800,"station_id":"ce4bhah2rcd13ifvqei0","pricing_plan_id":"cebpf4jnsgd1na2vs0mg"},{"bike_id":"4f00c2b5-5278-421c-be9b-8b7ab009d1bf","system_id":"levelo_inurba_marseille","lat":43.287933,"lon":5.378372,"is_reserved":false,"is_disabled":false,"rental_uris":{"android":"levelo://app?vid=4f00c2b5-5278-421c-be9b-8b7ab009d1bf","ios":"levelo://app?vid=4f00c2b5-5278-421c-be9b-8b7ab009d1bf"},"vehicle_type_id":"4","last_reported":1729105635,"current_range_meters":4000,"station_id":"","pricing_plan_id":"cebpf4jnsgd1na2vs0mg"},{"bike_id":"c834d31d-df46-4136-b00f-2788b617c81e","system_id":"levelo_inurba_marseille","lat":43.33724,"lon":5.39185,"is_reserved":false,"is_disabled":false,"rental_uris":{"android":"levelo://app?vid=c834d31d-df46-4136-b00f-2788b617c81e","ios":"levelo://app?vid=c834d31d-df46-4136-b00f-2788b617c81e"},"vehicle_type_id":"4","last_reported":1729105635,"current_range_meters":18000,"station_id":"ce4bhr92rcd13ifvqhsg","pricing_plan_id":"cebpf4jnsgd1na2vs0mg"},{"bike_id":"c12e10f3-ffba-448c-9ef2-25059b0d9c6f","system_id":"levelo_inurba_marseille","lat":43.290916,"lon":5.381161,"is_reserved":false,"is_disabled":false,"rental_uris":{"android":"levelo://app?vid=c12e10f3-ffba-448c-9ef2-25059b0d9c6f","ios":"levelo://app?vid=c12e10f3-ffba-448c-9ef2-25059b0d9c6f"},"vehicle_type_id":"4","last_reported":1729105635,"current_range_meters":30000,"station_id":"ce4bh392rcd13ifvqdl0","pricing_plan_id":"cebpf4jnsgd1na2vs0mg"},{"bike_id":"879aa9e1-dde4-4201-904a-3cf4645ee61a","system_id":"levelo_inurba_marseille","lat":43.29001,"lon":5.35615,"is_reserved":false,"is_disabled":false,"rental_uris":{"android":"levelo://app?vid=879aa9e1-dde4-4201-904a-3cf4645ee61a","ios":"levelo://app?vid=879aa9e1-dde4-4201-904a-3cf4645ee61a"},"vehicle_type_id":"4","last_reported":1729105635,"current_range_meters":37600,"station_id":"ce4bhb92rcd13ifvqen0","pricing_plan_id":"cebpf4jnsgd1na2vs0mg"},{"bike_id":"0ec05727-e2d2-42fb-a9cf-bb4e194ed6c5","system_id":"levelo_inurba_marseille","lat":43.27943,"lon":5.41057,"is_reserved":false,"is_disabled":false,"rental_uris":{"android":"levelo://app?vid=0ec05727-e2d2-42fb-a9cf-bb4e194ed6c5","ios":"levelo://app?vid=0ec05727-e2d2-42fb-a9cf-bb4e194ed6c5"},"vehicle_type_id":"4","last_reported":1729105635,"current_range_meters":36000,"station_id":"ce4bhnp2rcd13ifvqh0g","pricing_plan_id":"cebpf4jnsgd1na2vs0mg"},{"bike_id":"4d66338f-e28f-45c2-89bb-e61d7461d336","system_id":"levelo_inurba_marseille","lat":43.29274,"lon":5.36852,"is_reserved":false,"is_disabled":false,"rental_uris":{"android":"levelo://app?vid=4d66338f-e28f-45c2-89bb-e61d7461d336","ios":"levelo://app?vid=4d66338f-e28f-45c2-89bb-e61d7461d336"},"vehicle_type_id":"4","last_reported":1729105635,"current_range_meters":26000,"station_id":"ce4bhbp2rcd13ifvqesg","pricing_plan_id":"cebpf4jnsgd1na2vs0mg"},{"bike_id":"d41309ab-1a1f-4395-acaa-455483c3f8e1","system_id":"levelo_inurba_marseille","lat":43.23193,"lon":5.3556,"is_reserved":false,"is_disabled":false,"rental_uris":{"android":"levelo://app?vid=d41309ab-1a1f-4395-acaa-455483c3f8e1","ios":"levelo://app?vid=d41309ab-1a1f-4395-acaa-455483c3f8e1"},"vehicle_type_id":"4","last_reported":1729105635,"current_range_meters":38800,"station_id":"ce4bhu92rcd13ifvqi70","pricing_plan_id":"cebpf4jnsgd1na2vs0mg"},{"bike_id":"1356d4ef-9a94-4462-9c7a-c5993d9eaaa3","system_id":"levelo_inurba_marseille","lat":43.291809,"lon":5.37313,"is_reserved":false,"is_disabled":false,"rental_uris":{"android":"levelo://app?vid=1356d4ef-9a94-4462-9c7a-c5993d9eaaa3","ios":"levelo://app?vid=1356d4ef-9a94-4462-9c7a-c5993d9eaaa3"},"vehicle_type_id":"4","last_reported":1729105635,"current_range_meters":38800,"station_id":"ce4bha92rcd13ifvqeh0","pricing_plan_id":"cebpf4jnsgd1na2vs0mg"},{"bike_id":"94902fb1-a766-4d90-8978-e732725ca583","system_id":"levelo_inurba_marseille","lat":43.23183,"lon":5.39988,"is_reserved":false,"is_disabled":false,"rental_uris":{"android":"levelo://app?vid=94902fb1-a766-4d90-8978-e732725ca583","ios":"levelo://app?vid=94902fb1-a766-4d90-8978-e732725ca583"},"vehicle_type_id":"4","last_reported":1729105635,"current_range_meters":39200,"station_id":"ce4bhn12rcd13ifvqgqg","pricing_plan_id":"cebpf4jnsgd1na2vs0mg"},{"bike_id":"6ffa150a-0634-48e0-9f50-29af95400c07","system_id":"levelo_inurba_marseille","lat":43.28829,"lon":5.40014,"is_reserved":false,"is_disabled":false,"rental_uris":{"android":"levelo://app?vid=6ffa150a-0634-48e0-9f50-29af95400c07","ios":"levelo://app?vid=6ffa150a-0634-48e0-9f50-29af95400c07"},"vehicle_type_id":"4","last_reported":1729105635,"current_range_meters":31200,"station_id":"ce4bho92rcd13ifvqh3g","pricing_plan_id":"cebpf4jnsgd1na2vs0mg"},{"bike_id":"301a61c6-c8df-4cc1-a195-1d80b145d19f","system_id":"levelo_inurba_marseille","lat":43.2927,"lon":5.36849,"is_reserved":false,"is_disabled":false,"rental_uris":{"android":"levelo://app?vid=301a61c6-c8df-4cc1-a195-1d80b145d19f","ios":"levelo://app?vid=301a61c6-c8df-4cc1-a195-1d80b145d19f"},"vehicle_type_id":"4","last_reported":1729105635,"current_range_meters":34000,"station_id":"ce4bhbp2rcd13ifvqesg","pricing_plan_id":"cebpf4jnsgd1na2vs0mg"},{"bike_id":"a572217d-c1c6-46bc-95af-7cfb429a3976","system_id":"levelo_inurba_marseille","lat":43.28456,"lon":5.3589,"is_reserved":false,"is_disabled":false,"rental_uris":{"android":"levelo://app?vid=a572217d-c1c6-46bc-95af-7cfb429a3976","ios":"levelo://app?vid=a572217d-c1c6-46bc-95af-7cfb429a3976"},"vehicle_type_id":"4","last_reported":1729105635,"current_range_meters":9200,"station_id":"ce4bhah2rcd13ifvqei0","pricing_plan_id":"cebpf4jnsgd1na2vs0mg"},{"bike_id":"665c3f8e-8be5-4d80-a8dc-dbb11d59399c","system_id":"levelo_inurba_marseille","lat":43.33024,"lon":5.39041,"is_reserved":false,"is_disabled":false,"rental_uris":{"android":"levelo://app?vid=665c3f8e-8be5-4d80-a8dc-dbb11d59399c","ios":"levelo://app?vid=665c3f8e-8be5-4d80-a8dc-dbb11d59399c"},"vehicle_type_id":"4","last_reported":1729105635,"current_range_meters":38800,"station_id":"ce4bhr92rcd13ifvqhrg","pricing_plan_id":"cebpf4jnsgd1na2vs0mg"},{"bike_id":"f7efc1f9-fd76-4085-98fd-b2ad090be0b3","system_id":"levelo_inurba_marseille","lat":43.25586,"lon":5.38232,"is_reserved":false,"is_disabled":false,"rental_uris":{"android":"levelo://app?vid=f7efc1f9-fd76-4085-98fd-b2ad090be0b3","ios":"levelo://app?vid=f7efc1f9-fd76-4085-98fd-b2ad090be0b3"},"vehicle_type_id":"4","last_reported":1729105635,"current_range_meters":8000,"station_id":"ce4bhih2rcd13ifvqfs0","pricing_plan_id":"cebpf4jnsgd1na2vs0mg"},{"bike_id":"fde589b6-4f60-4203-b657-5124f277983e","system_id":"levelo_inurba_marseille","lat":43.27936,"lon":5.41056,"is_reserved":false,"is_disabled":false,"rental_uris":{"android":"levelo://app?vid=fde589b6-4f60-4203-b657-5124f277983e","ios":"levelo://app?vid=fde589b6-4f60-4203-b657-5124f277983e"},"vehicle_type_id":"4","last_reported":1729105635,"current_range_meters":30000,"station_id":"ce4bhnp2rcd13ifvqh0g","pricing_plan_id":"cebpf4jnsgd1na2vs0mg"},{"bike_id":"033a7f68-f273-426e-84a9-8a3b2c56f6f5","system_id":"levelo_inurba_marseille","lat":43.35096,"lon":5.36807,"is_reserved":false,"is_disabled":false,"rental_uris":{"android":"levelo://app?vid=033a7f68-f273-426e-84a9-8a3b2c56f6f5","ios":"levelo://app?vid=033a7f68-f273-426e-84a9-8a3b2c56f6f5"},"vehicle_type_id":"4","last_reported":1729105635,"current_range_meters":10000,"station_id":"","pricing_plan_id":"cebpf4jnsgd1na2vs0mg"},{"bike_id":"6bb88c52-56e4-44f1-86e1-c6b5dec01029","system_id":"levelo_inurba_marseille","lat":43.278076,"lon":5.407047,"is_reserved":false,"is_disabled":false,"rental_uris":{"android":"levelo://app?vid=6bb88c52-56e4-44f1-86e1-c6b5dec01029","ios":"levelo://app?vid=6bb88c52-56e4-44f1-86e1-c6b5dec01029"},"vehicle_type_id":"4","last_reported":1729105635,"current_range_meters":29600,"station_id":"ce4bhnh2rcd13ifvqgtg","pricing_plan_id":"cebpf4jnsgd1na2vs0mg"},{"bike_id":"fd71e227-7058-4c9f-b8b0-4ec97f1efd07","system_id":"levelo_inurba_marseille","lat":43.29716,"lon":5.36614,"is_reserved":false,"is_disabled":false,"rental_uris":{"android":"levelo://app?vid=fd71e227-7058-4c9f-b8b0-4ec97f1efd07","ios":"levelo://app?vid=fd71e227-7058-4c9f-b8b0-4ec97f1efd07"},"vehicle_type_id":"4","last_reported":1729105635,"current_range_meters":36000,"station_id":"ce4bgn12rcd13ifvqbt0","pricing_plan_id":"cebpf4jnsgd1na2vs0mg"},{"bike_id":"1af2813b-98a0-4b62-aaf8-89652b30f639","system_id":"levelo_inurba_marseille","lat":43.22932,"lon":5.35384,"is_reserved":false,"is_disabled":false,"rental_uris":{"android":"levelo://app?vid=1af2813b-98a0-4b62-aaf8-89652b30f639","ios":"levelo://app?vid=1af2813b-98a0-4b62-aaf8-89652b30f639"},"vehicle_type_id":"4","last_reported":1729105635,"current_range_meters":24400,"station_id":"cpo3532slgdg3j2ikp40","pricing_plan_id":"cebpf4jnsgd1na2vs0mg"},{"bike_id":"4bf135ce-5299-4a82-b25e-04ea3e35e457","system_id":"levelo_inurba_marseille","lat":43.29525,"lon":5.38544,"is_reserved":false,"is_disabled":false,"rental_uris":{"android":"levelo://app?vid=4bf135ce-5299-4a82-b25e-04ea3e35e457","ios":"levelo://app?vid=4bf135ce-5299-4a82-b25e-04ea3e35e457"},"vehicle_type_id":"4","last_reported":1729105635,"current_range_meters":3200,"station_id":"ce4bgih2rcd13ifvqba0","pricing_plan_id":"cebpf4jnsgd1na2vs0mg"},{"bike_id":"13418475-e235-4fb0-affc-e9e477a1b59e","system_id":"levelo_inurba_marseille","lat":43.29307,"lon":5.37181,"is_reserved":false,"is_disabled":false,"rental_uris":{"android":"levelo://app?vid=13418475-e235-4fb0-affc-e9e477a1b59e","ios":"levelo://app?vid=13418475-e235-4fb0-affc-e9e477a1b59e"},"vehicle_type_id":"4","last_reported":1729105635,"current_range_meters":38800,"station_id":"ce4bgh92rcd13ifvqb40","pricing_plan_id":"cebpf4jnsgd1na2vs0mg"},{"bike_id":"60c8484c-49ec-4147-a109-f395a2f2537f","system_id":"levelo_inurba_marseille","lat":43.308,"lon":5.38153,"is_reserved":false,"is_disabled":false,"rental_uris":{"android":"levelo://app?vid=60c8484c-49ec-4147-a109-f395a2f2537f","ios":"levelo://app?vid=60c8484c-49ec-4147-a109-f395a2f2537f"},"vehicle_type_id":"4","last_reported":1729105635,"current_range_meters":38800,"station_id":"ce4bgt12rcd13ifvqce0","pricing_plan_id":"cebpf4jnsgd1na2vs0mg"},{"bike_id":"f93454e1-a669-4c63-a4ca-b572042c7971","system_id":"levelo_inurba_marseille","lat":43.23195,"lon":5.35552,"is_reserved":false,"is_disabled":false,"rental_uris":{"android":"levelo://app?vid=f93454e1-a669-4c63-a4ca-b572042c7971","ios":"levelo://app?vid=f93454e1-a669-4c63-a4ca-b572042c7971"},"vehicle_type_id":"4","last_reported":1729105635,"current_range_meters":18800,"station_id":"ce4bhu92rcd13ifvqi70","pricing_plan_id":"cebpf4jnsgd1na2vs0mg"},{"bike_id":"5991a3d2-0cb9-494d-b3ed-321a28cd7251","system_id":"levelo_inurba_marseille","lat":43.22933,"lon":5.35383,"is_reserved":false,"is_disabled":false,"rental_uris":{"android":"levelo://app?vid=5991a3d2-0cb9-494d-b3ed-321a28cd7251","ios":"levelo://app?vid=5991a3d2-0cb9-494d-b3ed-321a28cd7251"},"vehicle_type_id":"4","last_reported":1729105635,"current_range_meters":39200,"station_id":"cpo3532slgdg3j2ikp40","pricing_plan_id":"cebpf4jnsgd1na2vs0mg"},{"bike_id":"6f3be5da-f7a0-4c86-a736-6233a9bcb90e","system_id":"levelo_inurba_marseille","lat":43.30646,"lon":5.40089,"is_reserved":false,"is_disabled":false,"rental_uris":{"android":"levelo://app?vid=6f3be5da-f7a0-4c86-a736-6233a9bcb90e","ios":"levelo://app?vid=6f3be5da-f7a0-4c86-a736-6233a9bcb90e"},"vehicle_type_id":"4","last_reported":1729105635,"current_range_meters":15200,"station_id":"ce4bh112rcd13ifvqda0","pricing_plan_id":"cebpf4jnsgd1na2vs0mg"},{"bike_id":"48fd16b0-43f8-45dc-8616-e99efe7704fa","system_id":"levelo_inurba_marseille","lat":43.284583,"lon":5.35885,"is_reserved":false,"is_disabled":false,"rental_uris":{"android":"levelo://app?vid=48fd16b0-43f8-45dc-8616-e99efe7704fa","ios":"levelo://app?vid=48fd16b0-43f8-45dc-8616-e99efe7704fa"},"vehicle_type_id":"4","last_reported":1729105635,"current_range_meters":38400,"station_id":"ce4bhap2rcd13ifvqek0","pricing_plan_id":"cebpf4jnsgd1na2vs0mg"},{"bike_id":"73420a3f-8524-4786-b0c2-e9f83dab27b5","system_id":"levelo_inurba_marseille","lat":43.292007,"lon":5.393145,"is_reserved":false,"is_disabled":false,"rental_uris":{"android":"levelo://app?vid=73420a3f-8524-4786-b0c2-e9f83dab27b5","ios":"levelo://app?vid=73420a3f-8524-4786-b0c2-e9f83dab27b5"},"vehicle_type_id":"4","last_reported":1729105635,"current_range_meters":8000,"station_id":"ce4bgqh2rcd13ifvqc5g","pricing_plan_id":"cebpf4jnsgd1na2vs0mg"},{"bike_id":"4cb0e1a9-7df1-4a4e-ac4a-f1d3ac701a5f","system_id":"levelo_inurba_marseille","lat":43.30756,"lon":5.39234,"is_reserved":false,"is_disabled":false,"rental_uris":{"android":"levelo://app?vid=4cb0e1a9-7df1-4a4e-ac4a-f1d3ac701a5f","ios":"levelo://app?vid=4cb0e1a9-7df1-4a4e-ac4a-f1d3ac701a5f"},"vehicle_type_id":"4","last_reported":1729105635,"current_range_meters":28800,"station_id":"","pricing_plan_id":"cebpf4jnsgd1na2vs0mg"},{"bike_id":"2c5a6665-6562-46bf-a5c8-cd831847a831","system_id":"levelo_inurba_marseille","lat":43.2952,"lon":5.39409,"is_reserved":false,"is_disabled":false,"rental_uris":{"android":"levelo://app?vid=2c5a6665-6562-46bf-a5c8-cd831847a831","ios":"levelo://app?vid=2c5a6665-6562-46bf-a5c8-cd831847a831"},"vehicle_type_id":"4","last_reported":1729105635,"current_range_meters":38800,"station_id":"ce4bh292rcd13ifvqdf0","pricing_plan_id":"cebpf4jnsgd1na2vs0mg"},{"bike_id":"d7e46f4f-9fe1-418e-a157-668d74189314","system_id":"levelo_inurba_marseille","lat":43.31885,"lon":5.40731,"is_reserved":false,"is_disabled":false,"rental_uris":{"android":"levelo://app?vid=d7e46f4f-9fe1-418e-a157-668d74189314","ios":"levelo://app?vid=d7e46f4f-9fe1-418e-a157-668d74189314"},"vehicle_type_id":"4","last_reported":1729105635,"current_range_meters":39200,"station_id":"ce4bhq12rcd13ifvqhig","pricing_plan_id":"cebpf4jnsgd1na2vs0mg"},{"bike_id":"cc85962f-2424-4de7-837e-cc311911c414","system_id":"levelo_inurba_marseille","lat":43.2465,"lon":5.38903,"is_reserved":false,"is_disabled":false,"rental_uris":{"android":"levelo://app?vid=cc85962f-2424-4de7-837e-cc311911c414","ios":"levelo://app?vid=cc85962f-2424-4de7-837e-cc311911c414"},"vehicle_type_id":"4","last_reported":1729105635,"current_range_meters":38000,"station_id":"ce4bhg12rcd13ifvqf60","pricing_plan_id":"cebpf4jnsgd1na2vs0mg"},{"bike_id":"e59b0d9a-aa4d-4ba6-8ae5-921076070700","system_id":"levelo_inurba_marseille","lat":43.22931,"lon":5.35377,"is_reserved":false,"is_disabled":false,"rental_uris":{"android":"levelo://app?vid=e59b0d9a-aa4d-4ba6-8ae5-921076070700","ios":"levelo://app?vid=e59b0d9a-aa4d-4ba6-8ae5-921076070700"},"vehicle_type_id":"4","last_reported":1729105635,"current_range_meters":10000,"station_id":"cpo3532slgdg3j2ikp40","pricing_plan_id":"cebpf4jnsgd1na2vs0mg"},{"bike_id":"72ac69b7-8c50-4dc3-bba8-d817e61175ea","system_id":"levelo_inurba_marseille","lat":43.25577,"lon":5.38241,"is_reserved":false,"is_disabled":false,"rental_uris":{"android":"levelo://app?vid=72ac69b7-8c50-4dc3-bba8-d817e61175ea","ios":"levelo://app?vid=72ac69b7-8c50-4dc3-bba8-d817e61175ea"},"vehicle_type_id":"4","last_reported":1729105635,"current_range_meters":8400,"station_id":"ce4bhih2rcd13ifvqfs0","pricing_plan_id":"cebpf4jnsgd1na2vs0mg"},{"bike_id":"c8f0b17c-c64d-45de-bb9e-c7c6ec61be77","system_id":"levelo_inurba_marseille","lat":43.28443,"lon":5.39202,"is_reserved":false,"is_disabled":false,"rental_uris":{"android":"levelo://app?vid=c8f0b17c-c64d-45de-bb9e-c7c6ec61be77","ios":"levelo://app?vid=c8f0b17c-c64d-45de-bb9e-c7c6ec61be77"},"vehicle_type_id":"4","last_reported":1729105635,"current_range_meters":17600,"station_id":"ce4bhoh2rcd13ifvqh5g","pricing_plan_id":"cebpf4jnsgd1na2vs0mg"},{"bike_id":"168d70a8-6977-4ba9-8955-97f3f4fcfa76","system_id":"levelo_inurba_marseille","lat":43.27955,"lon":5.4105,"is_reserved":false,"is_disabled":false,"rental_uris":{"android":"levelo://app?vid=168d70a8-6977-4ba9-8955-97f3f4fcfa76","ios":"levelo://app?vid=168d70a8-6977-4ba9-8955-97f3f4fcfa76"},"vehicle_type_id":"4","last_reported":1729105635,"current_range_meters":29600,"station_id":"ce4bhnp2rcd13ifvqh0g","pricing_plan_id":"cebpf4jnsgd1na2vs0mg"},{"bike_id":"eb36ce6d-4515-4f62-b64f-c03990fac0ee","system_id":"levelo_inurba_marseille","lat":43.29279,"lon":5.36844,"is_reserved":false,"is_disabled":false,"rental_uris":{"android":"levelo://app?vid=eb36ce6d-4515-4f62-b64f-c03990fac0ee","ios":"levelo://app?vid=eb36ce6d-4515-4f62-b64f-c03990fac0ee"},"vehicle_type_id":"4","last_reported":1729105635,"current_range_meters":38800,"station_id":"ce4bhbp2rcd13ifvqesg","pricing_plan_id":"cebpf4jnsgd1na2vs0mg"},{"bike_id":"20558bd5-b849-45d7-bb49-19822b69f191","system_id":"levelo_inurba_marseille","lat":43.3126,"lon":5.40163,"is_reserved":false,"is_disabled":false,"rental_uris":{"android":"levelo://app?vid=20558bd5-b849-45d7-bb49-19822b69f191","ios":"levelo://app?vid=20558bd5-b849-45d7-bb49-19822b69f191"},"vehicle_type_id":"4","last_reported":1729105635,"current_range_meters":23200,"station_id":"ce4bh092rcd13ifvqd30","pricing_plan_id":"cebpf4jnsgd1na2vs0mg"},{"bike_id":"6dda887d-13c7-4625-9daa-3b93c686e0b2","system_id":"levelo_inurba_marseille","lat":43.30886,"lon":5.39661,"is_reserved":false,"is_disabled":false,"rental_uris":{"android":"levelo://app?vid=6dda887d-13c7-4625-9daa-3b93c686e0b2","ios":"levelo://app?vid=6dda887d-13c7-4625-9daa-3b93c686e0b2"},"vehicle_type_id":"4","last_reported":1729105635,"current_range_meters":3200,"station_id":"ce4bh012rcd13ifvqcv0","pricing_plan_id":"cebpf4jnsgd1na2vs0mg"},{"bike_id":"ceaea5ee-dd41-48e4-814a-8b7b7ef4061a","system_id":"levelo_inurba_marseille","lat":43.32259,"lon":5.38728,"is_reserved":false,"is_disabled":false,"rental_uris":{"android":"levelo://app?vid=ceaea5ee-dd41-48e4-814a-8b7b7ef4061a","ios":"levelo://app?vid=ceaea5ee-dd41-48e4-814a-8b7b7ef4061a"},"vehicle_type_id":"4","last_reported":1729105635,"current_range_meters":17600,"station_id":"","pricing_plan_id":"cebpf4jnsgd1na2vs0mg"},{"bike_id":"34dd65b3-3034-43e3-ac77-d05a30c9f0be","system_id":"levelo_inurba_marseille","lat":43.29538,"lon":5.38536,"is_reserved":false,"is_disabled":false,"rental_uris":{"android":"levelo://app?vid=34dd65b3-3034-43e3-ac77-d05a30c9f0be","ios":"levelo://app?vid=34dd65b3-3034-43e3-ac77-d05a30c9f0be"},"vehicle_type_id":"4","last_reported":1729105635,"current_range_meters":38000,"station_id":"ce4bgih2rcd13ifvqba0","pricing_plan_id":"cebpf4jnsgd1na2vs0mg"},{"bike_id":"0b6e9ce1-91c2-46eb-8e6c-7845439f319c","system_id":"levelo_inurba_marseille","lat":43.29302,"lon":5.37177,"is_reserved":false,"is_disabled":false,"rental_uris":{"android":"levelo://app?vid=0b6e9ce1-91c2-46eb-8e6c-7845439f319c","ios":"levelo://app?vid=0b6e9ce1-91c2-46eb-8e6c-7845439f319c"},"vehicle_type_id":"4","last_reported":1729105635,"current_range_meters":35600,"station_id":"ce4bgh92rcd13ifvqb40","pricing_plan_id":"cebpf4jnsgd1na2vs0mg"},{"bike_id":"065b5f63-e570-46b1-8e4f-40a861944523","system_id":"levelo_inurba_marseille","lat":43.30123,"lon":5.39862,"is_reserved":false,"is_disabled":false,"rental_uris":{"android":"levelo://app?vid=065b5f63-e570-46b1-8e4f-40a861944523","ios":"levelo://app?vid=065b5f63-e570-46b1-8e4f-40a861944523"},"vehicle_type_id":"4","last_reported":1729105635,"current_range_meters":31200,"station_id":"ce4bh0h2rcd13ifvqd40","pricing_plan_id":"cebpf4jnsgd1na2vs0mg"},{"bike_id":"b0062d56-e28d-4655-8957-a8f0562ebe22","system_id":"levelo_inurba_marseille","lat":43.29528,"lon":5.39037,"is_reserved":false,"is_disabled":false,"rental_uris":{"android":"levelo://app?vid=b0062d56-e28d-4655-8957-a8f0562ebe22","ios":"levelo://app?vid=b0062d56-e28d-4655-8957-a8f0562ebe22"},"vehicle_type_id":"4","last_reported":1729105635,"current_range_meters":38800,"station_id":"ce4bh3p2rcd13ifvqdp0","pricing_plan_id":"cebpf4jnsgd1na2vs0mg"},{"bike_id":"655c4a8f-a8dd-49d7-9bca-5b3089d283e9","system_id":"levelo_inurba_marseille","lat":43.2558,"lon":5.38234,"is_reserved":false,"is_disabled":false,"rental_uris":{"android":"levelo://app?vid=655c4a8f-a8dd-49d7-9bca-5b3089d283e9","ios":"levelo://app?vid=655c4a8f-a8dd-49d7-9bca-5b3089d283e9"},"vehicle_type_id":"4","last_reported":1729105635,"current_range_meters":27200,"station_id":"ce4bhih2rcd13ifvqfs0","pricing_plan_id":"cebpf4jnsgd1na2vs0mg"},{"bike_id":"f94da947-b1a0-40ed-8143-ed5ebffc5c44","system_id":"levelo_inurba_marseille","lat":43.2795,"lon":5.41054,"is_reserved":false,"is_disabled":false,"rental_uris":{"android":"levelo://app?vid=f94da947-b1a0-40ed-8143-ed5ebffc5c44","ios":"levelo://app?vid=f94da947-b1a0-40ed-8143-ed5ebffc5c44"},"vehicle_type_id":"4","last_reported":1729105635,"current_range_meters":34000,"station_id":"ce4bhnp2rcd13ifvqh0g","pricing_plan_id":"cebpf4jnsgd1na2vs0mg"},{"bike_id":"aaeced60-ecc7-4d7f-855b-d5de5209c751","system_id":"levelo_inurba_marseille","lat":43.31754,"lon":5.39017,"is_reserved":false,"is_disabled":false,"rental_uris":{"android":"levelo://app?vid=aaeced60-ecc7-4d7f-855b-d5de5209c751","ios":"levelo://app?vid=aaeced60-ecc7-4d7f-855b-d5de5209c751"},"vehicle_type_id":"4","last_reported":1729105635,"current_range_meters":25200,"station_id":"ce4bhqp2rcd13ifvqhng","pricing_plan_id":"cebpf4jnsgd1na2vs0mg"},{"bike_id":"9a08c5a0-e868-4d5b-9079-3b512896a55e","system_id":"levelo_inurba_marseille","lat":43.29422,"lon":5.38633,"is_reserved":false,"is_disabled":false,"rental_uris":{"android":"levelo://app?vid=9a08c5a0-e868-4d5b-9079-3b512896a55e","ios":"levelo://app?vid=9a08c5a0-e868-4d5b-9079-3b512896a55e"},"vehicle_type_id":"4","last_reported":1729105635,"current_range_meters":4400,"station_id":"ce4bh2h2rcd13ifvqdh0","pricing_plan_id":"cebpf4jnsgd1na2vs0mg"},{"bike_id":"98b5fb22-baef-4ab2-9c0a-a862c029d371","system_id":"levelo_inurba_marseille","lat":43.29223,"lon":5.36055,"is_reserved":false,"is_disabled":false,"rental_uris":{"android":"levelo://app?vid=98b5fb22-baef-4ab2-9c0a-a862c029d371","ios":"levelo://app?vid=98b5fb22-baef-4ab2-9c0a-a862c029d371"},"vehicle_type_id":"4","last_reported":1729105635,"current_range_meters":36800,"station_id":"ce4bhbh2rcd13ifvqeqg","pricing_plan_id":"cebpf4jnsgd1na2vs0mg"},{"bike_id":"44a601c7-f8a6-43f6-b26e-4bedb67259af","system_id":"levelo_inurba_marseille","lat":43.3089,"lon":5.37192,"is_reserved":false,"is_disabled":false,"rental_uris":{"android":"levelo://app?vid=44a601c7-f8a6-43f6-b26e-4bedb67259af","ios":"levelo://app?vid=44a601c7-f8a6-43f6-b26e-4bedb67259af"},"vehicle_type_id":"4","last_reported":1729105635,"current_range_meters":38000,"station_id":"ce4bguh2rcd13ifvqckg","pricing_plan_id":"cebpf4jnsgd1na2vs0mg"},{"bike_id":"ecea5373-73aa-47a0-b41d-f69c32da8ec2","system_id":"levelo_inurba_marseille","lat":43.23058,"lon":5.35494,"is_reserved":false,"is_disabled":false,"rental_uris":{"android":"levelo://app?vid=ecea5373-73aa-47a0-b41d-f69c32da8ec2","ios":"levelo://app?vid=ecea5373-73aa-47a0-b41d-f69c32da8ec2"},"vehicle_type_id":"4","last_reported":1729105635,"current_range_meters":10000,"station_id":"cpo3342slgdg3j2ifvpg","pricing_plan_id":"cebpf4jnsgd1na2vs0mg"},{"bike_id":"95cf7d5e-c016-484e-968d-618ef24921cc","system_id":"levelo_inurba_marseille","lat":43.31084,"lon":5.42435,"is_reserved":false,"is_disabled":false,"rental_uris":{"android":"levelo://app?vid=95cf7d5e-c016-484e-968d-618ef24921cc","ios":"levelo://app?vid=95cf7d5e-c016-484e-968d-618ef24921cc"},"vehicle_type_id":"4","last_reported":1729105635,"current_range_meters":37600,"station_id":"ce4bhp92rcd13ifvqhag","pricing_plan_id":"cebpf4jnsgd1na2vs0mg"},{"bike_id":"16eb8f03-6bf5-4035-8a8e-f82979ebcb1a","system_id":"levelo_inurba_marseille","lat":43.284809,"lon":5.385582,"is_reserved":false,"is_disabled":false,"rental_uris":{"android":"levelo://app?vid=16eb8f03-6bf5-4035-8a8e-f82979ebcb1a","ios":"levelo://app?vid=16eb8f03-6bf5-4035-8a8e-f82979ebcb1a"},"vehicle_type_id":"4","last_reported":1729105635,"current_range_meters":30000,"station_id":"ce4bhhh2rcd13ifvqfl0","pricing_plan_id":"cebpf4jnsgd1na2vs0mg"},{"bike_id":"ea8bb7d9-2f30-4721-aecb-ae7af478640a","system_id":"levelo_inurba_marseille","lat":43.279394,"lon":5.410477,"is_reserved":false,"is_disabled":false,"rental_uris":{"android":"levelo://app?vid=ea8bb7d9-2f30-4721-aecb-ae7af478640a","ios":"levelo://app?vid=ea8bb7d9-2f30-4721-aecb-ae7af478640a"},"vehicle_type_id":"4","last_reported":1729105635,"current_range_meters":35200,"station_id":"ce4bhnp2rcd13ifvqh0g","pricing_plan_id":"cebpf4jnsgd1na2vs0mg"},{"bike_id":"b9969019-5c8f-4d38-8f55-7d93c3afba24","system_id":"levelo_inurba_marseille","lat":43.29417,"lon":5.38626,"is_reserved":false,"is_disabled":false,"rental_uris":{"android":"levelo://app?vid=b9969019-5c8f-4d38-8f55-7d93c3afba24","ios":"levelo://app?vid=b9969019-5c8f-4d38-8f55-7d93c3afba24"},"vehicle_type_id":"4","last_reported":1729105635,"current_range_meters":16400,"station_id":"ce4bh2h2rcd13ifvqdh0","pricing_plan_id":"cebpf4jnsgd1na2vs0mg"},{"bike_id":"7b1efa6f-70dc-43a9-b1b0-a94fb8dd1287","system_id":"levelo_inurba_marseille","lat":43.28945,"lon":5.36408,"is_reserved":false,"is_disabled":false,"rental_uris":{"android":"levelo://app?vid=7b1efa6f-70dc-43a9-b1b0-a94fb8dd1287","ios":"levelo://app?vid=7b1efa6f-70dc-43a9-b1b0-a94fb8dd1287"},"vehicle_type_id":"4","last_reported":1729105635,"current_range_meters":34800,"station_id":"ce4bhc92rcd13ifvqetg","pricing_plan_id":"cebpf4jnsgd1na2vs0mg"},{"bike_id":"f269126c-1b0b-4a1a-a1d6-f8c3716f5336","system_id":"levelo_inurba_marseille","lat":43.23193,"lon":5.35557,"is_reserved":false,"is_disabled":false,"rental_uris":{"android":"levelo://app?vid=f269126c-1b0b-4a1a-a1d6-f8c3716f5336","ios":"levelo://app?vid=f269126c-1b0b-4a1a-a1d6-f8c3716f5336"},"vehicle_type_id":"4","last_reported":1729105635,"current_range_meters":27200,"station_id":"ce4bhu92rcd13ifvqi70","pricing_plan_id":"cebpf4jnsgd1na2vs0mg"},{"bike_id":"89d67e7c-5814-4437-a0d8-24bf8d18a49d","system_id":"levelo_inurba_marseille","lat":43.29779,"lon":5.37104,"is_reserved":false,"is_disabled":false,"rental_uris":{"android":"levelo://app?vid=89d67e7c-5814-4437-a0d8-24bf8d18a49d","ios":"levelo://app?vid=89d67e7c-5814-4437-a0d8-24bf8d18a49d"},"vehicle_type_id":"4","last_reported":1729105635,"current_range_meters":38800,"station_id":"ce4bgop2rcd13ifvqc1g","pricing_plan_id":"cebpf4jnsgd1na2vs0mg"},{"bike_id":"4e6432e6-6db7-4a01-9999-7b694f482183","system_id":"levelo_inurba_marseille","lat":43.258259,"lon":5.394381,"is_reserved":false,"is_disabled":false,"rental_uris":{"android":"levelo://app?vid=4e6432e6-6db7-4a01-9999-7b694f482183","ios":"levelo://app?vid=4e6432e6-6db7-4a01-9999-7b694f482183"},"vehicle_type_id":"4","last_reported":1729105635,"current_range_meters":8000,"station_id":"ce4bhip2rcd13ifvqft0","pricing_plan_id":"cebpf4jnsgd1na2vs0mg"},{"bike_id":"f5ce1fad-c6d7-4050-abe7-c3a1f1895a9f","system_id":"levelo_inurba_marseille","lat":43.29189,"lon":5.3932,"is_reserved":false,"is_disabled":false,"rental_uris":{"android":"levelo://app?vid=f5ce1fad-c6d7-4050-abe7-c3a1f1895a9f","ios":"levelo://app?vid=f5ce1fad-c6d7-4050-abe7-c3a1f1895a9f"},"vehicle_type_id":"4","last_reported":1729105635,"current_range_meters":17200,"station_id":"ce4bh192rcd13ifvqdd0","pricing_plan_id":"cebpf4jnsgd1na2vs0mg"},