{"last_updated":1784818860,"ttl":60,"version":"2.2","data":{"bikes":[{"bike_id":"7ef36254-6bb3-448c-8d77-979d957d54b6","system_id":"levelo_inurba_marseille","lat":43.337444,"lon":5.374475,"is_reserved":false,"is_disabled":false,"rental_uris":{"android":"levelo://app?vid=7ef36254-6bb3-448c-8d77-979d957d54b6","ios":"levelo://app?vid=7ef36254-6bb3-448c-8d77-979d957d54b6"},"vehicle_type_id":"4","last_reported":1784818861,"current_range_meters":0,"station_id":"","pricing_plan_id":"cebpf4jnsgd1na2vs0mg"},{"bike_id":"21fe2e98-0432-4b40-a81f-10dd00b0f57d","system_id":"levelo_inurba_marseille","lat":43.337444,"lon":5.374475,"is_reserved":false,"is_disabled":false,"rental_uris":{"android":"levelo://app?vid=21fe2e98-0432-4b40-a81f-10dd00b0f57d","ios":"levelo://app?vid=21fe2e98-0432-4b40-a81f-10dd00b0f57d"},"vehicle_type_id":"4","last_reported":1784818861,"current_range_meters":0,"station_id":"","pricing_plan_id":"cebpf4jnsgd1na2vs0mg"},{"bike_id":"df7929a5-2b0c-4c4a-9607-4bd34960b2e8","system_id":"levelo_inurba_marseille","lat":43.21191,"lon":5.35076,"is_reserved":false,"is_disabled":false,"rental_uris":{"android":"levelo://app?vid=df7929a5-2b0c-4c4a-9607-4bd34960b2e8","ios":"levelo://app?vid=df7929a5-2b0c-4c4a-9607-4bd34960b2e8"},"vehicle_type_id":"4","last_reported":1784818861,"current_range_meters":8800,"station_id":"st_cvj6sg6p6f1abm77japg","pricing_plan_id":"cebpf4jnsgd1na2vs0mg"},{"bike_id":"7446e2dd-cf2a-448e-a013-708dd952d4de","system_id":"levelo_inurba_marseille","lat":43.29577,"lon":5.37506,"is_reserved":false,"is_disabled":false,"rental_uris":{"android":"levelo://app?vid=7446e2dd-cf2a-448e-a013-708dd952d4de","ios":"levelo://app?vid=7446e2dd-cf2a-448e-a013-708dd952d4de"},"vehicle_type_id":"4","last_reported":1784818861,"current_range_meters":30800,"station_id":"ce4bgh92rcd13ifvqb50","pricing_plan_id":"cebpf4jnsgd1na2vs0mg"},{"bike_id":"910edd9b-3f88-46ff-af53-0deba1c167b6","system_id":"levelo_inurba_marseille","lat":43.23963,"lon":5.36637,"is_reserved":false,"is_disabled":false,"rental_uris":{"android":"levelo://app?vid=910edd9b-3f88-46ff-af53-0deba1c167b6","ios":"levelo://app?vid=910edd9b-3f88-46ff-af53-0deba1c167b6"},"vehicle_type_id":"4","last_reported":1784818861,"current_range_meters":37600,"station_id":"ce4bhi12rcd13ifvqfp0","pricing_plan_id":"cebpf4jnsgd1na2vs0mg"},{"bike_id":"c57a86d2-c871-4d94-8bde-bb35f0352a0e","system_id":"levelo_inurba_marseille","lat":43.29783,"lon":5.3712,"is_reserved":false,"is_disabled":false,"rental_uris":{"android":"levelo://app?vid=c57a86d2-c871-4d94-8bde-bb35f0352a0e","ios":"levelo://app?vid=c57a86d2-c871-4d94-8bde-bb35f0352a0e"},"vehicle_type_id":"4","last_reported":1784818861,"current_range_meters":34000,"station_id":"ce4bgop2rcd13ifvqc1g","pricing_plan_id":"cebpf4jnsgd1na2vs0mg"},{"bike_id":"046310db-ae7c-4fab-981c-a0e5a293ec03","system_id":"levelo_inurba_marseille","lat":43.23193,"lon":5.3997,"is_reserved":false,"is_disabled":false,"rental_uris":{"android":"levelo://app?vid=046310db-ae7c-4fab-981c-a0e5a293ec03","ios":"levelo://app?vid=046310db-ae7c-4fab-981c-a0e5a293ec03"},"vehicle_type_id":"4","last_reported":1784818861,"current_range_meters":9600,"station_id":"ce4bhn12rcd13ifvqgqg","pricing_plan_id":"cebpf4jnsgd1na2vs0mg"},{"bike_id":"f2c26268-2002-48c9-a2f8-8f76ed8a8540","system_id":"levelo_inurba_marseille","lat":43.23899,"lon":5.37464,"is_reserved":false,"is_disabled":false,"rental_uris":{"android":"levelo://app?vid=f2c26268-2002-48c9-a2f8-8f76ed8a8540","ios":"levelo://app?vid=f2c26268-2002-48c9-a2f8-8f76ed8a8540"},"vehicle_type_id":"4","last_reported":1784818861,"current_range_meters":36800,"station_id":"st_d6sm7csbq4hs73f8fpjg","pricing_plan_id":"cebpf4jnsgd1na2vs0mg"},{"bike_id":"a03292a8-6d79-4deb-9de6-fcb91fd5f598","system_id":"levelo_inurba_marseille","lat":43.25582,"lon":5.38239,"is_reserved":false,"is_disabled":false,"rental_uris":{"android":"levelo://app?vid=a03292a8-6d79-4deb-9de6-fcb91fd5f598","ios":"levelo://app?vid=a03292a8-6d79-4deb-9de6-fcb91fd5f598"},"vehicle_type_id":"4","last_reported":1784818861,"current_range_meters":28800,"station_id":"ce4bhih2rcd13ifvqfs0","pricing_plan_id":"cebpf4jnsgd1na2vs0mg"},{"bike_id":"72706276-fb69-4388-946e-2b4fb06a5929","system_id":"levelo_inurba_marseille","lat":43.33034,"lon":5.3902,"is_reserved":false,"is_disabled":false,"rental_uris":{"android":"levelo://app?vid=72706276-fb69-4388-946e-2b4fb06a5929","ios":"levelo://app?vid=72706276-fb69-4388-946e-2b4fb06a5929"},"vehicle_type_id":"4","last_reported":1784818861,"current_range_meters":38400,"station_id":"ce4bhr92rcd13ifvqhrg","pricing_plan_id":"cebpf4jnsgd1na2vs0mg"},{"bike_id":"3275e5ca-225b-44f6-b554-2e84ebf36240","system_id":"levelo_inurba_marseille","lat":43.32356,"lon":5.36741,"is_reserved":false,"is_disabled":false,"rental_uris":{"android":"levelo://app?vid=3275e5ca-225b-44f6-b554-2e84ebf36240","ios":"levelo://app?vid=3275e5ca-225b-44f6-b554-2e84ebf36240"},"vehicle_type_id":"4","last_reported":1784818861,"current_range_meters":39200,"station_id":"ce4bhsh2rcd13ifvqi2g","pricing_plan_id":"cebpf4jnsgd1na2vs0mg"},{"bike_id":"55e357c5-19cd-4dd7-b99d-1157c5b3f2fe","system_id":"levelo_inurba_marseille","lat":43.26566,"lon":5.40322,"is_reserved":false,"is_disabled":false,"rental_uris":{"android":"levelo://app?vid=55e357c5-19cd-4dd7-b99d-1157c5b3f2fe","ios":"levelo://app?vid=55e357c5-19cd-4dd7-b99d-1157c5b3f2fe"},"vehicle_type_id":"4","last_reported":1784818861,"current_range_meters":38400,"station_id":"ce4bhmp2rcd13ifvqgng","pricing_plan_id":"cebpf4jnsgd1na2vs0mg"},{"bike_id":"d47a1671-ff7d-4b0f-8675-0148fcd6dee5","system_id":"levelo_inurba_marseille","lat":43.28415,"lon":5.37521,"is_reserved":false,"is_disabled":false,"rental_uris":{"android":"levelo://app?vid=d47a1671-ff7d-4b0f-8675-0148fcd6dee5","ios":"levelo://app?vid=d47a1671-ff7d-4b0f-8675-0148fcd6dee5"},"vehicle_type_id":"4","last_reported":1784818861,"current_range_meters":36800,"station_id":"ce4bh412rcd13ifvqds0","pricing_plan_id":"cebpf4jnsgd1na2vs0mg"},{"bike_id":"f07bdf89-05d6-499c-80dc-64b18cf2487e","system_id":"levelo_inurba_marseille","lat":43.26234,"lon":5.40447,"is_reserved":false,"is_disabled":false,"rental_uris":{"android":"levelo://app?vid=f07bdf89-05d6-499c-80dc-64b18cf2487e","ios":"levelo://app?vid=f07bdf89-05d6-499c-80dc-64b18cf2487e"},"vehicle_type_id":"4","last_reported":1784818861,"current_range_meters":12400,"station_id":"ce4bhmh2rcd13ifvqgmg","pricing_plan_id":"cebpf4jnsgd1na2vs0mg"},{"bike_id":"e40092d8-e809-444f-887b-ec2d97cdda0b","system_id":"levelo_inurba_marseille","lat":43.30306,"lon":5.3921,"is_reserved":false,"is_disabled":true,"rental_uris":{"android":"levelo://app?vid=e40092d8-e809-444f-887b-ec2d97cdda0b","ios":"levelo://app?vid=e40092d8-e809-444f-887b-ec2d97cdda0b"},"vehicle_type_id":"4","last_reported":1784818861,"current_range_meters":35600,"station_id":"ce4bgkh2rcd13ifvqbk0","pricing_plan_id":"cebpf4jnsgd1na2vs0mg"},{"bike_id":"cd5a00df-da64-4a0f-8575-682df166e1ba","system_id":"levelo_inurba_marseille","lat":43.30562,"lon":5.36518,"is_reserved":false,"is_disabled":false,"rental_uris":{"android":"levelo://app?vid=cd5a00df-da64-4a0f-8575-682df166e1ba","ios":"levelo://app?vid=cd5a00df-da64-4a0f-8575-682df166e1ba"},"vehicle_type_id":"4","last_reported":1784818861,"current_range_meters":30400,"station_id":"ce4bgs12rcd13ifvqcag","pricing_plan_id":"cebpf4jnsgd1na2vs0mg"},{"bike_id":"242213bb-864e-4d09-97c6-4a2d8732de8f","system_id":"levelo_inurba_marseille","lat":43.24173,"lon":5.36394,"is_reserved":false,"is_disabled":false,"rental_uris":{"android":"levelo://app?vid=242213bb-864e-4d09-97c6-4a2d8732de8f","ios":"levelo://app?vid=242213bb-864e-4d09-97c6-4a2d8732de8f"},"vehicle_type_id":"4","last_reported":1784818861,"current_range_meters":24800,"station_id":"cpo36qri1sfpv3e86is0","pricing_plan_id":"cebpf4jnsgd1na2vs0mg"},{"bike_id":"56b0a84b-a113-4330-9aae-9159d9fa876b","system_id":"levelo_inurba_marseille","lat":43.31189,"lon":5.36857,"is_reserved":false,"is_disabled":false,"rental_uris":{"android":"levelo://app?vid=56b0a84b-a113-4330-9aae-9159d9fa876b","ios":"levelo://app?vid=56b0a84b-a113-4330-9aae-9159d9fa876b"},"vehicle_type_id":"4","last_reported":1784818861,"current_range_meters":22800,"station_id":"ce4bgl92rcd13ifvqbq0","pricing_plan_id":"cebpf4jnsgd1na2vs0mg"},{"bike_id":"73b34397-b402-439a-a505-eea06097ebd2","system_id":"levelo_inurba_marseille","lat":43.24718,"lon":5.39319,"is_reserved":false,"is_disabled":false,"rental_uris":{"android":"levelo://app?vid=73b34397-b402-439a-a505-eea06097ebd2","ios":"levelo://app?vid=73b34397-b402-439a-a505-eea06097ebd2"},"vehicle_type_id":"4","last_reported":1784818861,"current_range_meters":34000,"station_id":"","pricing_plan_id":"cebpf4jnsgd1na2vs0mg"},{"bike_id":"8d89ea51-cea5-4f8c-967f-6521cae298dc","system_id":"levelo_inurba_marseille","lat":43.292747,"lon":5.36839,"is_reserved":false,"is_disabled":false,"rental_uris":{"android":"levelo://app?vid=8d89ea51-cea5-4f8c-967f-6521cae298dc","ios":"levelo://app?vid=8d89ea51-cea5-4f8c-967f-6521cae298dc"},"vehicle_type_id":"4","last_reported":1784818861,"current_range_meters":33600,"station_id":"ce4bhbp2rcd13ifvqesg","pricing_plan_id":"cebpf4jnsgd1na2vs0mg"},{"bike_id":"c0150634-9cb4-4d92-8e96-97d037b05258","system_id":"levelo_inurba_marseille","lat":43.24186,"lon":5.39731,"is_reserved":false,"is_disabled":false,"rental_uris":{"android":"levelo://app?vid=c0150634-9cb4-4d92-8e96-97d037b05258","ios":"levelo://app?vid=c0150634-9cb4-4d92-8e96-97d037b05258"},"vehicle_type_id":"4","last_reported":1784818861,"current_range_meters":31200,"station_id":"ce4bhn12rcd13ifvqgpg","pricing_plan_id":"cebpf4jnsgd1na2vs0mg"},{"bike_id":"9146b6cb-4d86-40b1-a0ae-b3b366653aed","system_id":"levelo_inurba_marseille","lat":43.2717,"lon":5.40994,"is_reserved":false,"is_disabled":false,"rental_uris":{"android":"levelo://app?vid=9146b6cb-4d86-40b1-a0ae-b3b366653aed","ios":"levelo://app?vid=9146b6cb-4d86-40b1-a0ae-b3b366653aed"},"vehicle_type_id":"4","last_reported":1784818861,"current_range_meters":39200,"station_id":"ce4bhl12rcd13ifvqgf0","pricing_plan_id":"cebpf4jnsgd1na2vs0mg"},{"bike_id":"ca07d06a-8153-40a3-9c27-aee92f5bb096","system_id":"levelo_inurba_marseille","lat":43.2923,"lon":5.36056,"is_reserved":false,"is_disabled":false,"rental_uris":{"android":"levelo://app?vid=ca07d06a-8153-40a3-9c27-aee92f5bb096","ios":"levelo://app?vid=ca07d06a-8153-40a3-9c27-aee92f5bb096"},"vehicle_type_id":"4","last_reported":1784818861,"current_range_meters":36000,"station_id":"","pricing_plan_id":"cebpf4jnsgd1na2vs0mg"},{"bike_id":"10733537-7c97-487a-8e20-28c3aaff2d16","system_id":"levelo_inurba_marseille","lat":43.274229,"lon":5.394203,"is_reserved":false,"is_disabled":false,"rental_uris":{"android":"levelo://app?vid=10733537-7c97-487a-8e20-28c3aaff2d16","ios":"levelo://app?vid=10733537-7c97-487a-8e20-28c3aaff2d16"},"vehicle_type_id":"4","last_reported":1784818861,"current_range_meters":19600,"station_id":"ce4bhdp2rcd13ifvqf20","pricing_plan_id":"cebpf4jnsgd1na2vs0mg"},{"bike_id":"4ae3c49f-b7c9-46b1-a2f0-96ddbddae8df","system_id":"levelo_inurba_marseille","lat":43.30561,"lon":5.38399,"is_reserved":false,"is_disabled":false,"rental_uris":{"android":"levelo://app?vid=4ae3c49f-b7c9-46b1-a2f0-96ddbddae8df","ios":"levelo://app?vid=4ae3c49f-b7c9-46b1-a2f0-96ddbddae8df"},"vehicle_type_id":"4","last_reported":1784818861,"current_range_meters":23200,"station_id":"ce4bgg92rcd13ifvqb30","pricing_plan_id":"cebpf4jnsgd1na2vs0mg"},{"bike_id":"9bf34726-bb15-461f-9e3e-80ad5e4e343b","system_id":"levelo_inurba_marseille","lat":43.31338,"lon":5.367,"is_reserved":false,"is_disabled":false,"rental_uris":{"android":"levelo://app?vid=9bf34726-bb15-461f-9e3e-80ad5e4e343b","ios":"levelo://app?vid=9bf34726-bb15-461f-9e3e-80ad5e4e343b"},"vehicle_type_id":"4","last_reported":1784818861,"current_range_meters":39200,"station_id":"ce4bgr92rcd13ifvqc6g","pricing_plan_id":"cebpf4jnsgd1na2vs0mg"},{"bike_id":"a338cea5-f797-4d31-b718-3121663ee29c","system_id":"levelo_inurba_marseille","lat":43.30329,"lon":5.37929,"is_reserved":false,"is_disabled":false,"rental_uris":{"android":"levelo://app?vid=a338cea5-f797-4d31-b718-3121663ee29c","ios":"levelo://app?vid=a338cea5-f797-4d31-b718-3121663ee29c"},"vehicle_type_id":"4","last_reported":1784818861,"current_range_meters":30000,"station_id":"","pricing_plan_id":"cebpf4jnsgd1na2vs0mg"},{"bike_id":"916606e6-b9e3-42d3-bd08-aa370fdfc06d","system_id":"levelo_inurba_marseille","lat":43.28618,"lon":5.35099,"is_reserved":false,"is_disabled":false,"rental_uris":{"android":"levelo://app?vid=916606e6-b9e3-42d3-bd08-aa370fdfc06d","ios":"levelo://app?vid=916606e6-b9e3-42d3-bd08-aa370fdfc06d"},"vehicle_type_id":"4","last_reported":1784818861,"current_range_meters":34800,"station_id":"ce4bhch2rcd13ifvqeug","pricing_plan_id":"cebpf4jnsgd1na2vs0mg"},{"bike_id":"a747d472-535e-4c95-ba0b-f3eb5b731d8d","system_id":"levelo_inurba_marseille","lat":43.27219,"lon":5.39196,"is_reserved":false,"is_disabled":false,"rental_uris":{"android":"levelo://app?vid=a747d472-535e-4c95-ba0b-f3eb5b731d8d","ios":"levelo://app?vid=a747d472-535e-4c95-ba0b-f3eb5b731d8d"},"vehicle_type_id":"4","last_reported":1784818861,"current_range_meters":39200,"station_id":"ce4bhhp2rcd13ifvqfm0","pricing_plan_id":"cebpf4jnsgd1na2vs0mg"},{"bike_id":"dd2d0a4a-1f67-4d16-96ef-1efd93129250","system_id":"levelo_inurba_marseille","lat":43.24385,"lon":5.37037,"is_reserved":false,"is_disabled":false,"rental_uris":{"android":"levelo://app?vid=dd2d0a4a-1f67-4d16-96ef-1efd93129250","ios":"levelo://app?vid=dd2d0a4a-1f67-4d16-96ef-1efd93129250"},"vehicle_type_id":"4","last_reported":1784818861,"current_range_meters":25200,"station_id":"ce4bhhh2rcd13ifvqfk0","pricing_plan_id":"cebpf4jnsgd1na2vs0mg"},{"bike_id":"a7c9489a-3c37-4218-bc38-92c335aa3a8a","system_id":"levelo_inurba_marseille","lat":43.28482,"lon":5.48386,"is_reserved":false,"is_disabled":false,"rental_uris":{"android":"levelo://app?vid=a7c9489a-3c37-4218-bc38-92c335aa3a8a","ios":"levelo://app?vid=a7c9489a-3c37-4218-bc38-92c335aa3a8a"},"vehicle_type_id":"4","last_reported":1784818861,"current_range_meters":39200,"station_id":"st_d3svhcjqgbts73a3dn0g","pricing_plan_id":"cebpf4jnsgd1na2vs0mg"},{"bike_id":"237e55ff-3761-490c-99e9-1266555381b2","system_id":"levelo_inurba_marseille","lat":43.24543,"lon":5.39527,"is_reserved":false,"is_disabled":false,"rental_uris":{"android":"levelo://app?vid=237e55ff-3761-490c-99e9-1266555381b2","ios":"levelo://app?vid=237e55ff-3761-490c-99e9-1266555381b2"},"vehicle_type_id":"4","last_reported":1784818861,"current_range_meters":39200,"station_id":"ce4bhlp2rcd13ifvqgjg","pricing_plan_id":"cebpf4jnsgd1na2vs0mg"},{"bike_id":"8c1def6b-0927-4158-8185-1819b5c69c82","system_id":"levelo_inurba_marseille","lat":43.25934,"lon":5.40905,"is_reserved":false,"is_disabled":false,"rental_uris":{"android":"levelo://app?vid=8c1def6b-0927-4158-8185-1819b5c69c82","ios":"levelo://app?vid=8c1def6b-0927-4158-8185-1819b5c69c82"},"vehicle_type_id":"4","last_reported":1784818861,"current_range_meters":37600,"station_id":"ce4bhm92rcd13ifvqglg","pricing_plan_id":"cebpf4jnsgd1na2vs0mg"},{"bike_id":"02bc1f6e-a93d-4c6f-8463-6b5ba3d4d3d8","system_id":"levelo_inurba_marseille","lat":43.25526,"lon":5.37636,"is_reserved":false,"is_disabled":false,"rental_uris":{"android":"levelo://app?vid=02bc1f6e-a93d-4c6f-8463-6b5ba3d4d3d8","ios":"levelo://app?vid=02bc1f6e-a93d-4c6f-8463-6b5ba3d4d3d8"},"vehicle_type_id":"4","last_reported":1784818861,"current_range_meters":39200,"station_id":"ce4bhh12rcd13ifvqff0","pricing_plan_id":"cebpf4jnsgd1na2vs0mg"},{"bike_id":"e029299e-69f6-43f3-9603-763b7ed1ed3e","system_id":"levelo_inurba_marseille","lat":43.29269,"lon":5.37454,"is_reserved":false,"is_disabled":false,"rental_uris":{"android":"levelo://app?vid=e029299e-69f6-43f3-9603-763b7ed1ed3e","ios":"levelo://app?vid=e029299e-69f6-43f3-9603-763b7ed1ed3e"},"vehicle_type_id":"4","last_reported":1784818861,"current_range_meters":16400,"station_id":"ce4bgi12rcd13ifvqb70","pricing_plan_id":"cebpf4jnsgd1na2vs0mg"},{"bike_id":"dcb52276-35bc-42b7-9a0d-fe3391fbd2fe","system_id":"levelo_inurba_marseille","lat":43.32479,"lon":5.36566,"is_reserved":false,"is_disabled":false,"rental_uris":{"android":"levelo://app?vid=dcb52276-35bc-42b7-9a0d-fe3391fbd2fe","ios":"levelo://app?vid=dcb52276-35bc-42b7-9a0d-fe3391fbd2fe"},"vehicle_type_id":"4","last_reported":1784818861,"current_range_meters":38400,"station_id":"ce4bhs12rcd13ifvqhvg","pricing_plan_id":"cebpf4jnsgd1na2vs0mg"},{"bike_id":"5aa3ca14-34f8-4cf6-bf98-84664ad40ed9","system_id":"levelo_inurba_marseille","lat":43.32337,"lon":5.38869,"is_reserved":false,"is_disabled":false,"rental_uris":{"android":"levelo://app?vid=5aa3ca14-34f8-4cf6-bf98-84664ad40ed9","ios":"levelo://app?vid=5aa3ca14-34f8-4cf6-bf98-84664ad40ed9"},"vehicle_type_id":"4","last_reported":1784818861,"current_range_meters":33200,"station_id":"ce4bhqp2rcd13ifvqhog","pricing_plan_id":"cebpf4jnsgd1na2vs0mg"},{"bike_id":"7aec742b-6a38-4c1d-bc58-ccf31c6069ea","system_id":"levelo_inurba_marseille","lat":43.30594,"lon":5.39357,"is_reserved":false,"is_disabled":false,"rental_uris":{"android":"levelo://app?vid=7aec742b-6a38-4c1d-bc58-ccf31c6069ea","ios":"levelo://app?vid=7aec742b-6a38-4c1d-bc58-ccf31c6069ea"},"vehicle_type_id":"4","last_reported":1784818861,"current_range_meters":6000,"station_id":"ce4bh0p2rcd13ifvqd80","pricing_plan_id":"cebpf4jnsgd1na2vs0mg"},{"bike_id":"8b48f329-937d-4f33-bc8e-cc3992c67190","system_id":"levelo_inurba_marseille","lat":43.29624,"lon":5.3712,"is_reserved":false,"is_disabled":true,"rental_uris":{"android":"levelo://app?vid=8b48f329-937d-4f33-bc8e-cc3992c67190","ios":"levelo://app?vid=8b48f329-937d-4f33-bc8e-cc3992c67190"},"vehicle_type_id":"4","last_reported":1784818861,"current_range_meters":32000,"station_id":"","pricing_plan_id":"cebpf4jnsgd1na2vs0mg"},{"bike_id":"8f0e7d8f-4628-4ae9-adf4-e14f8541deb9","system_id":"levelo_inurba_marseille","lat":43.27186,"lon":5.40992,"is_reserved":false,"is_disabled":false,"rental_uris":{"android":"levelo://app?vid=8f0e7d8f-4628-4ae9-adf4-e14f8541deb9","ios":"levelo://app?vid=8f0e7d8f-4628-4ae9-adf4-e14f8541deb9"},"vehicle_type_id":"4","last_reported":1784818861,"current_range_meters":17600,"station_id":"ce4bhl12rcd13ifvqgf0","pricing_plan_id":"cebpf4jnsgd1na2vs0mg"},{"bike_id":"39a36ad1-0b8e-49e6-9193-d176f70f2fb4","system_id":"levelo_inurba_marseille","lat":43.31735,"lon":5.4241,"is_reserved":false,"is_disabled":false,"rental_uris":{"android":"levelo://app?vid=39a36ad1-0b8e-49e6-9193-d176f70f2fb4","ios":"levelo://app?vid=39a36ad1-0b8e-49e6-9193-d176f70f2fb4"},"vehicle_type_id":"4","last_reported":1784818861,"current_range_meters":28000,"station_id":"ce4bhp92rcd13ifvqhbg","pricing_plan_id":"cebpf4jnsgd1na2vs0mg"},{"bike_id":"b62c6f43-d381-4900-8a07-23d79aaa3392","system_id":"levelo_inurba_marseille","lat":43.2956,"lon":5.42306,"is_reserved":false,"is_disabled":false,"rental_uris":{"android":"levelo://app?vid=b62c6f43-d381-4900-8a07-23d79aaa3392","ios":"levelo://app?vid=b62c6f43-d381-4900-8a07-23d79aaa3392"},"vehicle_type_id":"4","last_reported":1784818861,"current_range_meters":12000,"station_id":"ce4bhph2rcd13ifvqhdg","pricing_plan_id":"cebpf4jnsgd1na2vs0mg"},{"bike_id":"b4ac26d0-963a-4a25-bf7e-8083e1294ae5","system_id":"levelo_inurba_marseille","lat":43.23957,"lon":5.36638,"is_reserved":false,"is_disabled":false,"rental_uris":{"android":"levelo://app?vid=b4ac26d0-963a-4a25-bf7e-8083e1294ae5","ios":"levelo://app?vid=b4ac26d0-963a-4a25-bf7e-8083e1294ae5"},"vehicle_type_id":"4","last_reported":1784818861,"current_range_meters":32800,"station_id":"ce4bhi12rcd13ifvqfp0","pricing_plan_id":"cebpf4jnsgd1na2vs0mg"},{"bike_id":"6276f88d-57a9-4fd3-999f-05b09287fe7c","system_id":"levelo_inurba_marseille","lat":43.29002,"lon":5.35622,"is_reserved":false,"is_disabled":false,"rental_uris":{"android":"levelo://app?vid=6276f88d-57a9-4fd3-999f-05b09287fe7c","ios":"levelo://app?vid=6276f88d-57a9-4fd3-999f-05b09287fe7c"},"vehicle_type_id":"4","last_reported":1784818861,"current_range_meters":28400,"station_id":"ce4bhb92rcd13ifvqen0","pricing_plan_id":"cebpf4jnsgd1na2vs0mg"},{"bike_id":"3a295aff-6816-4af7-ac5a-87a5bd41c1cd","system_id":"levelo_inurba_marseille","lat":43.28475,"lon":5.48388,"is_reserved":false,"is_disabled":false,"rental_uris":{"android":"levelo://app?vid=3a295aff-6816-4af7-ac5a-87a5bd41c1cd","ios":"levelo://app?vid=3a295aff-6816-4af7-ac5a-87a5bd41c1cd"},"vehicle_type_id":"4","last_reported":1784818861,"current_range_meters":24000,"station_id":"st_d3svhcjqgbts73a3dn0g","pricing_plan_id":"cebpf4jnsgd1na2vs0mg"},{"bike_id":"7b1a34a9-9772-429a-ac81-dbcf3805788e","system_id":"levelo_inurba_marseille","lat":43.27949,"lon":5.35544,"is_reserved":false,"is_disabled":false,"rental_uris":{"android":"levelo://app?vid=7b1a34a9-9772-429a-ac81-dbcf3805788e","ios":"levelo://app?vid=7b1a34a9-9772-429a-ac81-dbcf3805788e"},"vehicle_type_id":"4","last_reported":1784818861,"current_range_meters":12800,"station_id":"","pricing_plan_id":"cebpf4jnsgd1na2vs0mg"},{"bike_id":"9c1bc4a1-d6d5-48a6-9ff0-5fc5d82d899e","system_id":"levelo_inurba_marseille","lat":43.28623,"lon":5.35104,"is_reserved":false,"is_disabled":false,"rental_uris":{"android":"levelo://app?vid=9c1bc4a1-d6d5-48a6-9ff0-5fc5d82d899e","ios":"levelo://app?vid=9c1bc4a1-d6d5-48a6-9ff0-5fc5d82d899e"},"vehicle_type_id":"4","last_reported":1784818861,"current_range_meters":12800,"station_id":"ce4bhch2rcd13ifvqeug","pricing_plan_id":"cebpf4jnsgd1na2vs0mg"},{"bike_id":"6cd0b9a2-a893-4d86-a077-a039a6b6a0f1","system_id":"levelo_inurba_marseille","lat":43.28431,"lon":5.34984,"is_reserved":false,"is_disabled":true,"rental_uris":{"android":"levelo://app?vid=6cd0b9a2-a893-4d86-a077-a039a6b6a0f1","ios":"levelo://app?vid=6cd0b9a2-a893-4d86-a077-a039a6b6a0f1"},"vehicle_type_id":"4","last_reported":1784818861,"current_range_meters":20000,"station_id":"ce4bhbh2rcd13ifvqepg","pricing_plan_id":"cebpf4jnsgd1na2vs0mg"},{"bike_id":"b3615f38-9ae4-47b3-be0f-27da959fb130","system_id":"levelo_inurba_marseille","lat":43.26534,"lon":5.39627,"is_reserved":false,"is_disabled":false,"rental_uris":{"android":"levelo://app?vid=b3615f38-9ae4-47b3-be0f-27da959fb130","ios":"levelo://app?vid=b3615f38-9ae4-47b3-be0f-27da959fb130"},"vehicle_type_id":"4","last_reported":1784818861,"current_range_meters":11200,"station_id":"","pricing_plan_id":"cebpf4jnsgd1na2vs0mg"},{"bike_id":"39d72ffc-1a33-41e1-9a17-be2281455bda","system_id":"levelo_inurba_marseille","lat":43.29692,"lon":5.37294,"is_reserved":false,"is_disabled":false,"rental_uris":{"android":"levelo://app?vid=39d72ffc-1a33-41e1-9a17-be2281455bda","ios":"levelo://app?vid=39d72ffc-1a33-41e1-9a17-be2281455bda"},"vehicle_type_id":"4","last_reported":1784818861,"current_range_meters":32800,"station_id":"ce4bgk12rcd13ifvqbj0","pricing_plan_id":"cebpf4jnsgd1na2vs0mg"},{"bike_id":"ae2109f7-2488-4f02-846d-14d58d83c7f1","system_id":"levelo_inurba_marseille","lat":43.29622,"lon":5.37725,"is_reserved":false,"is_disabled":false,"rental_uris":{"android":"levelo://app?vid=ae2109f7-2488-4f02-846d-14d58d83c7f1","ios":"levelo://app?vid=ae2109f7-2488-4f02-846d-14d58d83c7f1"},"vehicle_type_id":"4","last_reported":1784818861,"current_range_meters":35600,"station_id":"ce4bgi92rcd13ifvqb90","pricing_plan_id":"cebpf4jnsgd1na2vs0mg"},{"bike_id":"f95849e3-ecc4-4a70-8bc6-ebfb18113894","system_id":"levelo_inurba_marseille","lat":43.2795,"lon":5.41066,"is_reserved":false,"is_disabled":false,"rental_uris":{"android":"levelo://app?vid=f95849e3-ecc4-4a70-8bc6-ebfb18113894","ios":"levelo://app?vid=f95849e3-ecc4-4a70-8bc6-ebfb18113894"},"vehicle_type_id":"4","last_reported":1784818861,"current_range_meters":38400,"station_id":"ce4bhnp2rcd13ifvqh0g","pricing_plan_id":"cebpf4jnsgd1na2vs0mg"},{"bike_id":"01d9a676-01f3-4b98-beb9-e0a1a490c722","system_id":"levelo_inurba_marseille","lat":43.28149,"lon":5.42631,"is_reserved":false,"is_disabled":false,"rental_uris":{"android":"levelo://app?vid=01d9a676-01f3-4b98-beb9-e0a1a490c722","ios":"levelo://app?vid=01d9a676-01f3-4b98-beb9-e0a1a490c722"},"vehicle_type_id":"4","last_reported":1784818861,"current_range_meters":25200,"station_id":"ce4bhnh2rcd13ifvqgug","pricing_plan_id":"cebpf4jnsgd1na2vs0mg"},{"bike_id":"f765bc46-853b-4f5f-a0cf-13f9a2c85881","system_id":"levelo_inurba_marseille","lat":43.32104,"lon":5.36756,"is_reserved":false,"is_disabled":false,"rental_uris":{"android":"levelo://app?vid=f765bc46-853b-4f5f-a0cf-13f9a2c85881","ios":"levelo://app?vid=f765bc46-853b-4f5f-a0cf-13f9a2c85881"},"vehicle_type_id":"4","last_reported":1784818861,"current_range_meters":29600,"station_id":"ce4bhrh2rcd13ifvqhug","pricing_plan_id":"cebpf4jnsgd1na2vs0mg"},{"bike_id":"8aab8113-138a-4b2b-9846-e1d6b31477cb","system_id":"levelo_inurba_marseille","lat":43.31224,"lon":5.36831,"is_reserved":false,"is_disabled":false,"rental_uris":{"android":"levelo://app?vid=8aab8113-138a-4b2b-9846-e1d6b31477cb","ios":"levelo://app?vid=8aab8113-138a-4b2b-9846-e1d6b31477cb"},"vehicle_type_id":"4","last_reported":1784818861,"current_range_meters":32400,"station_id":"ce4bgl92rcd13ifvqbq0","pricing_plan_id":"cebpf4jnsgd1na2vs0mg"},{"bike_id":"c469d1f0-e1f3-4009-933d-1f7d58ff00a5","system_id":"levelo_inurba_marseille","lat":43.25856,"lon":5.39919,"is_reserved":false,"is_disabled":false,"rental_uris":{"android":"levelo://app?vid=c469d1f0-e1f3-4009-933d-1f7d58ff00a5","ios":"levelo://app?vid=c469d1f0-e1f3-4009-933d-1f7d58ff00a5"},"vehicle_type_id":"4","last_reported":1784818861,"current_range_meters":24000,"station_id":"ce4bhl92rcd13ifvqghg","pricing_plan_id":"cebpf4jnsgd1na2vs0mg"},{"bike_id":"a13e16e4-e177-431d-8bef-33b38f696e96","system_id":"levelo_inurba_marseille","lat":43.26759,"lon":5.3998,"is_reserved":false,"is_disabled":false,"rental_uris":{"android":"levelo://app?vid=a13e16e4-e177-431d-8bef-33b38f696e96","ios":"levelo://app?vid=a13e16e4-e177-431d-8bef-33b38f696e96"},"vehicle_type_id":"4","last_reported":1784818861,"current_range_meters":20800,"station_id":"","pricing_plan_id":"cebpf4jnsgd1na2vs0mg"},{"bike_id":"2d7109ad-46e8-47c3-91fe-8fafb72b67c5","system_id":"levelo_inurba_marseille","lat":43.31903,"lon":5.36807,"is_reserved":false,"is_disabled":false,"rental_uris":{"android":"levelo://app?vid=2d7109ad-46e8-47c3-91fe-8fafb72b67c5","ios":"levelo://app?vid=2d7109ad-46e8-47c3-91fe-8fafb72b67c5"},"vehicle_type_id":"4","last_reported":1784818861,"current_range_meters":3200,"station_id":"st_d6o2h0d0559c73evc1b0","pricing_plan_id":"cebpf4jnsgd1na2vs0mg"},{"bike_id":"95afa2c1-6059-411a-b01e-fbab5e71cd62","system_id":"levelo_inurba_marseille","lat":43.28427,"lon":5.35015,"is_reserved":false,"is_disabled":false,"rental_uris":{"android":"levelo://app?vid=95afa2c1-6059-411a-b01e-fbab5e71cd62","ios":"levelo://app?vid=95afa2c1-6059-411a-b01e-fbab5e71cd62"},"vehicle_type_id":"4","last_reported":1784818861,"current_range_meters":4000,"station_id":"ce4bhbh2rcd13ifvqepg","pricing_plan_id":"cebpf4jnsgd1na2vs0mg"},{"bike_id":"de84f93e-2efe-44dd-902e-99315be80f66","system_id":"levelo_inurba_marseille","lat":43.24707,"lon":5.40316,"is_reserved":false,"is_disabled":false,"rental_uris":{"android":"levelo://app?vid=de84f93e-2efe-44dd-902e-99315be80f66","ios":"levelo://app?vid=de84f93e-2efe-44dd-902e-99315be80f66"},"vehicle_type_id":"4","last_reported":1784818861,"current_range_meters":32800,"station_id":"","pricing_plan_id":"cebpf4jnsgd1na2vs0mg"},{"bike_id":"522b8aa6-8236-4f78-beb0-6379f95a165b","system_id":"levelo_inurba_marseille","lat":43.25502,"lon":5.37646,"is_reserved":false,"is_disabled":false,"rental_uris":{"android":"levelo://app?vid=522b8aa6-8236-4f78-beb0-6379f95a165b","ios":"levelo://app?vid=522b8aa6-8236-4f78-beb0-6379f95a165b"},"vehicle_type_id":"4","last_reported":1784818861,"current_range_meters":32400,"station_id":"ce4bhh12rcd13ifvqff0","pricing_plan_id":"cebpf4jnsgd1na2vs0mg"},{"bike_id":"9204c48f-8df7-43a3-b478-da259247ecd0","system_id":"levelo_inurba_marseille","lat":43.32493,"lon":5.36565,"is_reserved":false,"is_disabled":false,"rental_uris":{"android":"levelo://app?vid=9204c48f-8df7-43a3-b478-da259247ecd0","ios":"levelo://app?vid=9204c48f-8df7-43a3-b478-da259247ecd0"},"vehicle_type_id":"4","last_reported":1784818861,"current_range_meters":40000,"station_id":"ce4bhs12rcd13ifvqhvg","pricing_plan_id":"cebpf4jnsgd1na2vs0mg"},{"bike_id":"7d8a4efb-c8d5-4ff5-b142-546ee6ec50fd","system_id":"levelo_inurba_marseille","lat":43.30919,"lon":5.36852,"is_reserved":false,"is_disabled":false,"rental_uris":{"android":"levelo://app?vid=7d8a4efb-c8d5-4ff5-b142-546ee6ec50fd","ios":"levelo://app?vid=7d8a4efb-c8d5-4ff5-b142-546ee6ec50fd"},"vehicle_type_id":"4","last_reported":1784818861,"current_range_meters":38400,"station_id":"ce4bgn92rcd13ifvqbvg","pricing_plan_id":"cebpf4jnsgd1na2vs0mg"},{"bike_id":"0f7633b7-c64f-4c21-b6a4-ca9ddaf2e3d9","system_id":"levelo_inurba_marseille","lat":43.27986,"lon":5.38255,"is_reserved":false,"is_disabled":false,"rental_uris":{"android":"levelo://app?vid=0f7633b7-c64f-4c21-b6a4-ca9ddaf2e3d9","ios":"levelo://app?vid=0f7633b7-c64f-4c21-b6a4-ca9ddaf2e3d9"},"vehicle_type_id":"4","last_reported":1784818861,"current_range_meters":22800,"station_id":"","pricing_plan_id":"cebpf4jnsgd1na2vs0mg"},{"bike_id":"0cd505d4-fb3f-4b6f-b3c6-2bf8aadd7189","system_id":"levelo_inurba_marseille","lat":43.28992,"lon":5.35614,"is_reserved":false,"is_disabled":false,"rental_uris":{"android":"levelo://app?vid=0cd505d4-fb3f-4b6f-b3c6-2bf8aadd7189","ios":"levelo://app?vid=0cd505d4-fb3f-4b6f-b3c6-2bf8aadd7189"},"vehicle_type_id":"4","last_reported":1784818861,"current_range_meters":38400,"station_id":"ce4bhb92rcd13ifvqen0","pricing_plan_id":"cebpf4jnsgd1na2vs0mg"},{"bike_id":"211436c8-766b-4f01-a0a3-c0ce7d2281b6","system_id":"levelo_inurba_marseille","lat":43.28443,"lon":5.37519,"is_reserved":false,"is_disabled":false,"rental_uris":{"android":"levelo://app?vid=211436c8-766b-4f01-a0a3-c0ce7d2281b6","ios":"levelo://app?vid=211436c8-766b-4f01-a0a3-c0ce7d2281b6"},"vehicle_type_id":"4","last_reported":1784818861,"current_range_meters":22000,"station_id":"ce4bh412rcd13ifvqds0","pricing_plan_id":"cebpf4jnsgd1na2vs0mg"},{"bike_id":"134ed701-9182-4c12-bab7-2fd9709954d7","system_id":"levelo_inurba_marseille","lat":43.26531,"lon":5.39417,"is_reserved":false,"is_disabled":true,"rental_uris":{"android":"levelo://app?vid=134ed701-9182-4c12-bab7-2fd9709954d7","ios":"levelo://app?vid=134ed701-9182-4c12-bab7-2fd9709954d7"},"vehicle_type_id":"4","last_reported":1784818861,"current_range_meters":0,"station_id":"","pricing_plan_id":"cebpf4jnsgd1na2vs0mg"},{"bike_id":"c037fd15-1fb4-4aa0-a4c6-442b2b874fab","system_id":"levelo_inurba_marseille","lat":43.29015,"lon":5.40012,"is_reserved":false,"is_disabled":true,"rental_uris":{"android":"levelo://app?vid=c037fd15-1fb4-4aa0-a4c6-442b2b874fab","ios":"levelo://app?vid=c037fd15-1fb4-4aa0-a4c6-442b2b874fab"},"vehicle_type_id":"4","last_reported":1784818861,"current_range_meters":25600,"station_id":"ce4bh392rcd13ifvqdm0","pricing_plan_id":"cebpf4jnsgd1na2vs0mg"},{"bike_id":"965b6bd4-eb48-41e3-b3e8-0bcdc52f3759","system_id":"levelo_inurba_marseille","lat":43.28917,"lon":5.38371,"is_reserved":false,"is_disabled":true,"rental_uris":{"android":"levelo://app?vid=965b6bd4-eb48-41e3-b3e8-0bcdc52f3759","ios":"levelo://app?vid=965b6bd4-eb48-41e3-b3e8-0bcdc52f3759"},"vehicle_type_id":"4","last_reported":1784818861,"current_range_meters":37600,"station_id":"ce4bh612rcd13ifvqe6g","pricing_plan_id":"cebpf4jnsgd1na2vs0mg"},{"bike_id":"bbe718e6-fa16-44e8-87a1-2141703d3341","system_id":"levelo_inurba_marseille","lat":43.28153,"lon":5.42357,"is_reserved":false,"is_disabled":false,"rental_uris":{"android":"levelo://app?vid=bbe718e6-fa16-44e8-87a1-2141703d3341","ios":"levelo://app?vid=bbe718e6-fa16-44e8-87a1-2141703d3341"},"vehicle_type_id":"4","last_reported":1784818861,"current_range_meters":12400,"station_id":"","pricing_plan_id":"cebpf4jnsgd1na2vs0mg"},{"bike_id":"49396ed3-ec03-4e36-bd0f-d012491b79e4","system_id":"levelo_inurba_marseille","lat":43.27073,"lon":5.38306,"is_reserved":false,"is_disabled":false,"rental_uris":{"android":"levelo://app?vid=49396ed3-ec03-4e36-bd0f-d012491b79e4","ios":"levelo://app?vid=49396ed3-ec03-4e36-bd0f-d012491b79e4"},"vehicle_type_id":"4","last_reported":1784818861,"current_range_meters":39200,"station_id":"st_d3n2fo6cfp8s73cte1j0","pricing_plan_id":"cebpf4jnsgd1na2vs0mg"},{"bike_id":"7f48804d-6fa2-402a-abf0-847d1270dc9b","system_id":"levelo_inurba_marseille","lat":43.30602,"lon":5.39374,"is_reserved":false,"is_disabled":false,"rental_uris":{"android":"levelo://app?vid=7f48804d-6fa2-402a-abf0-847d1270dc9b","ios":"levelo://app?vid=7f48804d-6fa2-402a-abf0-847d1270dc9b"},"vehicle_type_id":"4","last_reported":1784818861,"current_range_meters":8400,"station_id":"ce4bh0p2rcd13ifvqd80","pricing_plan_id":"cebpf4jnsgd1na2vs0mg"},{"bike_id":"25e8ba8c-c62e-4d08-94db-1de18cf98281","system_id":"levelo_inurba_marseille","lat":43.31377,"lon":5.38492,"is_reserved":false,"is_disabled":false,"rental_uris":{"android":"levelo://app?vid=25e8ba8c-c62e-4d08-94db-1de18cf98281","ios":"levelo://app?vid=25e8ba8c-c62e-4d08-94db-1de18cf98281"},"vehicle_type_id":"4","last_reported":1784818861,"current_range_meters":33600,"station_id":"ce4bgt92rcd13ifvqcf0","pricing_plan_id":"cebpf4jnsgd1na2vs0mg"},{"bike_id":"f6f4bf30-3798-463e-9bf9-1ff8496ac935","system_id":"levelo_inurba_marseille","lat":43.27193,"lon":5.40988,"is_reserved":false,"is_disabled":false,"rental_uris":{"android":"levelo://app?vid=f6f4bf30-3798-463e-9bf9-1ff8496ac935","ios":"levelo://app?vid=f6f4bf30-3798-463e-9bf9-1ff8496ac935"},"vehicle_type_id":"4","last_reported":1784818861,"current_range_meters":38000,"station_id":"ce4bhl12rcd13ifvqgf0","pricing_plan_id":"cebpf4jnsgd1na2vs0mg"},{"bike_id":"f1288106-a8c3-4624-ad2a-44299213b3e2","system_id":"levelo_inurba_marseille","lat":43.29589,"lon":5.3675,"is_reserved":false,"is_disabled":true,"rental_uris":{"android":"levelo://app?vid=f1288106-a8c3-4624-ad2a-44299213b3e2","ios":"levelo://app?vid=f1288106-a8c3-4624-ad2a-44299213b3e2"},"vehicle_type_id":"4","last_reported":1784818861,"current_range_meters":38800,"station_id":"","pricing_plan_id":"cebpf4jnsgd1na2vs0mg"},{"bike_id":"ab907c16-2123-44c2-912f-95e0f2737c03","system_id":"levelo_inurba_marseille","lat":43.30378,"lon":5.42753,"is_reserved":false,"is_disabled":true,"rental_uris":{"android":"levelo://app?vid=ab907c16-2123-44c2-912f-95e0f2737c03","ios":"levelo://app?vid=ab907c16-2123-44c2-912f-95e0f2737c03"},"vehicle_type_id":"4","last_reported":1784818861,"current_range_meters":20000,"station_id":"","pricing_plan_id":"cebpf4jnsgd1na2vs0mg"},{"bike_id":"0f27047d-3cee-486f-bbfd-4e43b3a3a5db","system_id":"levelo_inurba_marseille","lat":43.32115,"lon":5.3675,"is_reserved":false,"is_disabled":false,"rental_uris":{"android":"levelo://app?vid=0f27047d-3cee-486f-bbfd-4e43b3a3a5db","ios":"levelo://app?vid=0f27047d-3cee-486f-bbfd-4e43b3a3a5db"},"vehicle_type_id":"4","last_reported":1784818861,"current_range_meters":30400,"station_id":"ce4bhrh2rcd13ifvqhug","pricing_plan_id":"cebpf4jnsgd1na2vs0mg"},{"bike_id":"6e527cff-443b-4d65-831b-45d71a3611b6","system_id":"levelo_inurba_marseille","lat":43.2417,"lon":5.36396,"is_reserved":false,"is_disabled":false,"rental_uris":{"android":"levelo://app?vid=6e527cff-443b-4d65-831b-45d71a3611b6","ios":"levelo://app?vid=6e527cff-443b-4d65-831b-45d71a3611b6"},"vehicle_type_id":"4","last_reported":1784818861,"current_range_meters":18800,"station_id":"cpo36qri1sfpv3e86is0","pricing_plan_id":"cebpf4jnsgd1na2vs0mg"},{"bike_id":"c520161e-c250-4161-a55a-6b287776d8da","system_id":"levelo_inurba_marseille","lat":43.28471,"lon":5.48385,"is_reserved":false,"is_disabled":false,"rental_uris":{"android":"levelo://app?vid=c520161e-c250-4161-a55a-6b287776d8da","ios":"levelo://app?vid=c520161e-c250-4161-a55a-6b287776d8da"},"vehicle_type_id":"4","last_reported":1784818861,"current_range_meters":25200,"station_id":"st_d3svhcjqgbts73a3dn0g","pricing_plan_id":"cebpf4jnsgd1na2vs0mg"},{"bike_id":"1be16c68-4af1-419d-93d4-773b2af07f2a","system_id":"levelo_inurba_marseille","lat":43.28544,"lon":5.44107,"is_reserved":false,"is_disabled":false,"rental_uris":{"android":"levelo://app?vid=1be16c68-4af1-419d-93d4-773b2af07f2a","ios":"levelo://app?vid=1be16c68-4af1-419d-93d4-773b2af07f2a"},"vehicle_type_id":"4","last_reported":1784818861,"current_range_meters":39200,"station_id":"st_d3j3df2ikq2c7380ej80","pricing_plan_id":"cebpf4jnsgd1na2vs0mg"},{"bike_id":"871b7acd-6bff-4f2c-9121-63b574d46de7","system_id":"levelo_inurba_marseille","lat":43.32552,"lon":5.41474,"is_reserved":false,"is_disabled":false,"rental_uris":{"android":"levelo://app?vid=871b7acd-6bff-4f2c-9121-63b574d46de7","ios":"levelo://app?vid=871b7acd-6bff-4f2c-9121-63b574d46de7"},"vehicle_type_id":"4","last_reported":1784818861,"current_range_meters":28000,"station_id":"ce4bhq12rcd13ifvqhhg","pricing_plan_id":"cebpf4jnsgd1na2vs0mg"},{"bike_id":"42a5d6f2-926a-4725-99ed-db0e59d1f27f","system_id":"levelo_inurba_marseille","lat":43.31491,"lon":5.37303,"is_reserved":false,"is_disabled":false,"rental_uris":{"android":"levelo://app?vid=42a5d6f2-926a-4725-99ed-db0e59d1f27f","ios":"levelo://app?vid=42a5d6f2-926a-4725-99ed-db0e59d1f27f"},"vehicle_type_id":"4","last_reported":1784818861,"current_range_meters":36400,"station_id":"ce4bgt12rcd13ifvqcd0","pricing_plan_id":"cebpf4jnsgd1na2vs0mg"},{"bike_id":"c4599c29-f86a-45dc-be51-4124fda90118","system_id":"levelo_inurba_marseille","lat":43.23147,"lon":5.43733,"is_reserved":false,"is_disabled":true,"rental_uris":{"android":"levelo://app?vid=c4599c29-f86a-45dc-be51-4124fda90118","ios":"levelo://app?vid=c4599c29-f86a-45dc-be51-4124fda90118"},"vehicle_type_id":"4","last_reported":1784818861,"current_range_meters":0,"station_id":"ce4bhmp2rcd13ifvqgog","pricing_plan_id":"cebpf4jnsgd1na2vs0mg"},{"bike_id":"1aa5a25d-6329-499b-a15c-43cf1a15c141","system_id":"levelo_inurba_marseille","lat":43.30519,"lon":5.36548,"is_reserved":false,"is_disabled":false,"rental_uris":{"android":"levelo://app?vid=1aa5a25d-6329-499b-a15c-43cf1a15c141","ios":"levelo://app?vid=1aa5a25d-6329-499b-a15c-43cf1a15c141"},"vehicle_type_id":"4","last_reported":1784818861,"current_range_meters":9200,"station_id":"ce4bgs12rcd13ifvqcag","pricing_plan_id":"cebpf4jnsgd1na2vs0mg"},{"bike_id":"901614b8-cb1a-4eba-8a22-d09119c99f5c","system_id":"levelo_inurba_marseille","lat":43.29006,"lon":5.35608,"is_reserved":false,"is_disabled":false,"rental_uris":{"android":"levelo://app?vid=901614b8-cb1a-4eba-8a22-d09119c99f5c","ios":"levelo://app?vid=901614b8-cb1a-4eba-8a22-d09119c99f5c"},"vehicle_type_id":"4","last_reported":1784818861,"current_range_meters":8400,"station_id":"ce4bhb92rcd13ifvqen0","pricing_plan_id":"cebpf4jnsgd1na2vs0mg"},{"bike_id":"e6690841-7fb8-49b3-b188-1fddfe76c349","system_id":"levelo_inurba_marseille","lat":43.2534,"lon":5.42173,"is_reserved":false,"is_disabled":false,"rental_uris":{"android":"levelo://app?vid=e6690841-7fb8-49b3-b188-1fddfe76c349","ios":"levelo://app?vid=e6690841-7fb8-49b3-b188-1fddfe76c349"},"vehicle_type_id":"4","last_reported":1784818861,"current_range_meters":8000,"station_id":"st_d2m65c5bi1j21697t3ng","pricing_plan_id":"cebpf4jnsgd1na2vs0mg"},{"bike_id":"8105a612-d5c9-4adc-bdae-2b4274d6a713","system_id":"levelo_inurba_marseille","lat":43.3029,"lon":5.37705,"is_reserved":false,"is_disabled":false,"rental_uris":{"android":"levelo://app?vid=8105a612-d5c9-4adc-bdae-2b4274d6a713","ios":"levelo://app?vid=8105a612-d5c9-4adc-bdae-2b4274d6a713"},"vehicle_type_id":"4","last_reported":1784818861,"current_range_meters":18000,"station_id":"ce4bguh2rcd13ifvqcj0","pricing_plan_id":"cebpf4jnsgd1na2vs0mg"},{"bike_id":"226c85e8-d2cf-4f03-a003-12c1f3227396","system_id":"levelo_inurba_marseille","lat":43.30205,"lon":5.39477,"is_reserved":false,"is_disabled":false,"rental_uris":{"android":"levelo://app?vid=226c85e8-d2cf-4f03-a003-12c1f3227396","ios":"levelo://app?vid=226c85e8-d2cf-4f03-a003-12c1f3227396"},"vehicle_type_id":"4","last_reported":1784818861,"current_range_meters":27600,"station_id":"ce4bh0p2rcd13ifvqd70","pricing_plan_id":"cebpf4jnsgd1na2vs0mg"},{"bike_id":"9ed82dcc-8694-4b66-8dd5-59f67c95e1d7","system_id":"levelo_inurba_marseille","lat":43.27616,"lon":5.36112,"is_reserved":false,"is_disabled":false,"rental_uris":{"android":"levelo://app?vid=9ed82dcc-8694-4b66-8dd5-59f67c95e1d7","ios":"levelo://app?vid=9ed82dcc-8694-4b66-8dd5-59f67c95e1d7"},"vehicle_type_id":"4","last_reported":1784818861,"current_range_meters":9200,"station_id":"ce4bgj92rcd13ifvqbe0","pricing_plan_id":"cebpf4jnsgd1na2vs0mg"},{"bike_id":"c31ea38b-cee9-41a1-93fb-85dd217b0cbd","system_id":"levelo_inurba_marseille","lat":43.33737,"lon":5.36708,"is_reserved":false,"is_disabled":false,"rental_uris":{"android":"levelo://app?vid=c31ea38b-cee9-41a1-93fb-85dd217b0cbd","ios":"levelo://app?vid=c31ea38b-cee9-41a1-93fb-85dd217b0cbd"},"vehicle_type_id":"4","last_reported":1784818861,"current_range_meters":28400,"station_id":"","pricing_plan_id":"cebpf4jnsgd1na2vs0mg"},{"bike_id":"0353fca3-fbdd-4286-a9eb-ebce376c25fa","system_id":"levelo_inurba_marseille","lat":43.23382,"lon":5.41249,"is_reserved":false,"is_disabled":false,"rental_uris":{"android":"levelo://app?vid=0353fca3-fbdd-4286-a9eb-ebce376c25fa","ios":"levelo://app?vid=0353fca3-fbdd-4286-a9eb-ebce376c25fa"},"vehicle_type_id":"4","last_reported":1784818861,"current_range_meters":36400,"station_id":"st_d75pvndhf9lc73cqq3eg","pricing_plan_id":"cebpf4jnsgd1na2vs0mg"},{"bike_id":"b8e43a89-3bb1-4279-9cee-f7b093c9b703","system_id":"levelo_inurba_marseille","lat":43.33718,"lon":5.37415,"is_reserved":false,"is_disabled":false,"rental_uris":{"android":"levelo://app?vid=b8e43a89-3bb1-4279-9cee-f7b093c9b703","ios":"levelo://app?vid=b8e43a89-3bb1-4279-9cee-f7b093c9b703"},"vehicle_type_id":"4","last_reported":1784818861,"current_range_meters":10000,"station_id":"","pricing_plan_id":"cebpf4jnsgd1na2vs0mg"},{"bike_id":"0e49b035-1599-4d70-8c3c-5ed7259fb51f","system_id":"levelo_inurba_marseille","lat":43.30421,"lon":5.39747,"is_reserved":false,"is_disabled":false,"rental_uris":{"android":"levelo://app?vid=0e49b035-1599-4d70-8c3c-5ed7259fb51f","ios":"levelo://app?vid=0e49b035-1599-4d70-8c3c-5ed7259fb51f"},"vehicle_type_id":"4","last_reported":1784818861,"current_range_meters":39200,"station_id":"ce4bh092rcd13ifvqd20","pricing_plan_id":"cebpf4jnsgd1na2vs0mg"},{"bike_id":"17ec69e9-f82e-42b7-8fd3-de92d2bea59d","system_id":"levelo_inurba_marseille","lat":43.25353,"lon":5.42171,"is_reserved":false,"is_disabled":false,"rental_uris":{"android":"levelo://app?vid=17ec69e9-f82e-42b7-8fd3-de92d2bea59d","ios":"levelo://app?vid=17ec69e9-f82e-42b7-8fd3-de92d2bea59d"},"vehicle_type_id":"4","last_reported":1784818861,"current_range_meters":19600,"station_id":"st_d2m65c5bi1j21697t3ng","pricing_plan_id":"cebpf4jnsgd1na2vs0mg"},{"bike_id":"17db08fa-3ff1-4223-90c8-7ee5991d42bc","system_id":"levelo_inurba_marseille","lat":43.28565,"lon":5.37772,"is_reserved":false,"is_disabled":false,"rental_uris":{"android":"levelo://app?vid=17db08fa-3ff1-4223-90c8-7ee5991d42bc","ios":"levelo://app?vid=17db08fa-3ff1-4223-90c8-7ee5991d42bc"},"vehicle_type_id":"4","last_reported":1784818861,"current_range_meters":33200,"station_id":"","pricing_plan_id":"cebpf4jnsgd1na2vs0mg"},{"bike_id":"84c003e3-96b9-4596-83d1-42a99db83581","system_id":"levelo_inurba_marseille","lat":43.2623,"lon":5.38768,"is_reserved":false,"is_disabled":false,"rental_uris":{"android":"levelo://app?vid=84c003e3-96b9-4596-83d1-42a99db83581","ios":"levelo://app?vid=84c003e3-96b9-4596-83d1-42a99db83581"},"vehicle_type_id":"4","last_reported":1784818861,"current_range_meters":38400,"station_id":"st_d8gjfg747rts73coq3b0","pricing_plan_id":"cebpf4jnsgd1na2vs0mg"},{"bike_id":"d1f1d233-15a6-474d-87e9-80abf51c7ae0","system_id":"levelo_inurba_marseille","lat":43.30205,"lon":5.39472,"is_reserved":false,"is_disabled":false,"rental_uris":{"android":"levelo://app?vid=d1f1d233-15a6-474d-87e9-80abf51c7ae0","ios":"levelo://app?vid=d1f1d233-15a6-474d-87e9-80abf51c7ae0"},"vehicle_type_id":"4","last_reported":1784818861,"current_range_meters":36000,"station_id":"ce4bh0p2rcd13ifvqd70","pricing_plan_id":"cebpf4jnsgd1na2vs0mg"},{"bike_id":"edef674e-d003-42f9-9dc8-7f095b9d6d5a","system_id":"levelo_inurba_marseille","lat":43.30926,"lon":5.36867,"is_reserved":false,"is_disabled":false,"rental_uris":{"android":"levelo://app?vid=edef674e-d003-42f9-9dc8-7f095b9d6d5a","ios":"levelo://app?vid=edef674e-d003-42f9-9dc8-7f095b9d6d5a"},"vehicle_type_id":"4","last_reported":1784818861,"current_range_meters":37600,"station_id":"ce4bgn92rcd13ifvqbvg","pricing_plan_id":"cebpf4jnsgd1na2vs0mg"},{"bike_id":"6772e332-26aa-4530-86da-d14c0f48009d","system_id":"levelo_inurba_marseille","lat":43.26201,"lon":5.37437,"is_reserved":false,"is_disabled":false,"rental_uris":{"android":"levelo://app?vid=6772e332-26aa-4530-86da-d14c0f48009d","ios":"levelo://app?vid=6772e332-26aa-4530-86da-d14c0f48009d"},"vehicle_type_id":"4","last_reported":1784818861,"current_range_meters":38400,"station_id":"ce4bhgp2rcd13ifvqfc0","pricing_plan_id":"cebpf4jnsgd1na2vs0mg"},{"bike_id":"93207308-8c4a-4102-b921-5d8c2b7b7195","system_id":"levelo_inurba_marseille","lat":43.26197,"lon":5.37448,"is_reserved":false,"is_disabled":false,"rental_uris":{"android":"levelo://app?vid=93207308-8c4a-4102-b921-5d8c2b7b7195","ios":"levelo://app?vid=93207308-8c4a-4102-b921-5d8c2b7b7195"},"vehicle_type_id":"4","last_reported":1784818861,"current_range_meters":35600,"station_id":"ce4bhgp2rcd13ifvqfc0","pricing_plan_id":"cebpf4jnsgd1na2vs0mg"},{"bike_id":"13bbfe3b-874b-44d7-9abb-922c8de23c11","system_id":"levelo_inurba_marseille","lat":43.23263,"lon":5.3539,"is_reserved":false,"is_disabled":false,"rental_uris":{"android":"levelo://app?vid=13bbfe3b-874b-44d7-9abb-922c8de23c11","ios":"levelo://app?vid=13bbfe3b-874b-44d7-9abb-922c8de23c11"},"vehicle_type_id":"4","last_reported":1784818861,"current_range_meters":18000,"station_id":"","pricing_plan_id":"cebpf4jnsgd1na2vs0mg"},{"bike_id":"a29fc34b-47f0-4e6c-a49d-ad840f4184cd","system_id":"levelo_inurba_marseille","lat":43.33131,"lon":5.37709,"is_reserved":false,"is_disabled":false,"rental_uris":{"android":"levelo://app?vid=a29fc34b-47f0-4e6c-a49d-ad840f4184cd","ios":"levelo://app?vid=a29fc34b-47f0-4e6c-a49d-ad840f4184cd"},"vehicle_type_id":"4","last_reported":1784818861,"current_range_meters":39200,"station_id":"st_d46cu089ee8s73dldbu0","pricing_plan_id":"cebpf4jnsgd1na2vs0mg"},{"bike_id":"8e21ee79-d57b-4419-b319-fe3572505524","system_id":"levelo_inurba_marseille","lat":43.284119,"lon":5.375101,"is_reserved":false,"is_disabled":true,"rental_uris":{"android":"levelo://app?vid=8e21ee79-d57b-4419-b319-fe3572505524","ios":"levelo://app?vid=8e21ee79-d57b-4419-b319-fe3572505524"},"vehicle_type_id":"4","last_reported":1784818861,"current_range_meters":0,"station_id":"","pricing_plan_id":"cebpf4jnsgd1na2vs0mg"},{"bike_id":"9a86c5d2-1372-44b0-9209-43c3e2bf6ce4","system_id":"levelo_inurba_marseille","lat":43.3133,"lon":5.36705,"is_reserved":false,"is_disabled":false,"rental_uris":{"android":"levelo://app?vid=9a86c5d2-1372-44b0-9209-43c3e2bf6ce4","ios":"levelo://app?vid=9a86c5d2-1372-44b0-9209-43c3e2bf6ce4"},"vehicle_type_id":"4","last_reported":1784818861,"current_range_meters":36400,"station_id":"ce4bgr92rcd13ifvqc6g","pricing_plan_id":"cebpf4jnsgd1na2vs0mg"},{"bike_id":"6ed5f8c3-6da8-4cec-bfad-13253a432d70","system_id":"levelo_inurba_marseille","lat":43.29413,"lon":5.38596,"is_reserved":false,"is_disabled":true,"rental_uris":{"android":"levelo://app?vid=6ed5f8c3-6da8-4cec-bfad-13253a432d70","ios":"levelo://app?vid=6ed5f8c3-6da8-4cec-bfad-13253a432d70"},"vehicle_type_id":"4","last_reported":1784818861,"current_range_meters":28800,"station_id":"","pricing_plan_id":"cebpf4jnsgd1na2vs0mg"},{"bike_id":"2abfcdfb-2eb0-4480-932d-1071dc8638d6","system_id":"levelo_inurba_marseille","lat":43.33542,"lon":5.37468,"is_reserved":false,"is_disabled":false,"rental_uris":{"android":"levelo://app?vid=2abfcdfb-2eb0-4480-932d-1071dc8638d6","ios":"levelo://app?vid=2abfcdfb-2eb0-4480-932d-1071dc8638d6"},"vehicle_type_id":"4","last_reported":1784818861,"current_range_meters":38000,"station_id":"st_d46tts09ee8s73dlu43g","pricing_plan_id":"cebpf4jnsgd1na2vs0mg"},{"bike_id":"0dee0085-d5a5-4c48-b3f1-a323bb744f3d","system_id":"levelo_inurba_marseille","lat":43.22561,"lon":5.41633,"is_reserved":false,"is_disabled":false,"rental_uris":{"android":"levelo://app?vid=0dee0085-d5a5-4c48-b3f1-a323bb744f3d","ios":"levelo://app?vid=0dee0085-d5a5-4c48-b3f1-a323bb744f3d"},"vehicle_type_id":"4","last_reported":1784818861,"current_range_meters":28000,"station_id":"st_d2o4gvlbi1j2169b742g","pricing_plan_id":"cebpf4jnsgd1na2vs0mg"},{"bike_id":"082a8540-8653-43a9-9ea9-5771a75d2e6d","system_id":"levelo_inurba_marseille","lat":43.32543,"lon":5.41453,"is_reserved":false,"is_disabled":false,"rental_uris":{"android":"levelo://app?vid=082a8540-8653-43a9-9ea9-5771a75d2e6d","ios":"levelo://app?vid=082a8540-8653-43a9-9ea9-5771a75d2e6d"},"vehicle_type_id":"4","last_reported":1784818861,"current_range_meters":22000,"station_id":"ce4bhq12rcd13ifvqhhg","pricing_plan_id":"cebpf4jnsgd1na2vs0mg"},{"bike_id":"717a125f-b47d-4aed-8e18-13104463fff3","system_id":"levelo_inurba_marseille","lat":43.31373,"lon":5.3671,"is_reserved":false,"is_disabled":false,"rental_uris":{"android":"levelo://app?vid=717a125f-b47d-4aed-8e18-13104463fff3","ios":"levelo://app?vid=717a125f-b47d-4aed-8e18-13104463fff3"},"vehicle_type_id":"4","last_reported":1784818861,"current_range_meters":27600,"station_id":"ce4bgr92rcd13ifvqc6g","pricing_plan_id":"cebpf4jnsgd1na2vs0mg"},{"bike_id":"0b2c45f2-fdaa-45fe-9511-e6426cab85f6","system_id":"levelo_inurba_marseille","lat":43.27482,"lon":5.42442,"is_reserved":false,"is_disabled":false,"rental_uris":{"android":"levelo://app?vid=0b2c45f2-fdaa-45fe-9511-e6426cab85f6","ios":"levelo://app?vid=0b2c45f2-fdaa-45fe-9511-e6426cab85f6"},"vehicle_type_id":"4","last_reported":1784818861,"current_range_meters":16400,"station_id":"ce4bhn92rcd13ifvqgrg","pricing_plan_id":"cebpf4jnsgd1na2vs0mg"},{"bike_id":"030b0f17-e3f1-4e2c-8db4-ad5520bf3461","system_id":"levelo_inurba_marseille","lat":43.2825,"lon":5.3506,"is_reserved":false,"is_disabled":false,"rental_uris":{"android":"levelo://app?vid=030b0f17-e3f1-4e2c-8db4-ad5520bf3461","ios":"levelo://app?vid=030b0f17-e3f1-4e2c-8db4-ad5520bf3461"},"vehicle_type_id":"4","last_reported":1784818861,"current_range_meters":8400,"station_id":"ce4bhbp2rcd13ifvqerg","pricing_plan_id":"cebpf4jnsgd1na2vs0mg"},{"bike_id":"117fe798-8468-412a-a32e-de4969549a57","system_id":"levelo_inurba_marseille","lat":43.23195,"lon":5.39979,"is_reserved":false,"is_disabled":false,"rental_uris":{"android":"levelo://app?vid=117fe798-8468-412a-a32e-de4969549a57","ios":"levelo://app?vid=117fe798-8468-412a-a32e-de4969549a57"},"vehicle_type_id":"4","last_reported":1784818861,"current_range_meters":38400,"station_id":"ce4bhn12rcd13ifvqgqg","pricing_plan_id":"cebpf4jnsgd1na2vs0mg"},{"bike_id":"dad5eff3-cb3a-4459-ba39-741abe4a6c6c","system_id":"levelo_inurba_marseille","lat":43.32103,"lon":5.36771,"is_reserved":false,"is_disabled":false,"rental_uris":{"android":"levelo://app?vid=dad5eff3-cb3a-4459-ba39-741abe4a6c6c","ios":"levelo://app?vid=dad5eff3-cb3a-4459-ba39-741abe4a6c6c"},"vehicle_type_id":"4","last_reported":1784818861,"current_range_meters":4400,"station_id":"ce4bhrh2rcd13ifvqhug","pricing_plan_id":"cebpf4jnsgd1na2vs0mg"},{"bike_id":"2589f088-96e1-489b-b926-f3c90ec97e64","system_id":"levelo_inurba_marseille","lat":43.27379,"lon":5.36249,"is_reserved":false,"is_disabled":false,"rental_uris":{"android":"levelo://app?vid=2589f088-96e1-489b-b926-f3c90ec97e64","ios":"levelo://app?vid=2589f088-96e1-489b-b926-f3c90ec97e64"},"vehicle_type_id":"4","last_reported":1784818861,"current_range_meters":39200,"station_id":"ce4bhbh2rcd13ifvqeo0","pricing_plan_id":"cebpf4jnsgd1na2vs0mg"},{"bike_id":"e5e6f536-665f-4eb6-8080-9ce38307ca64","system_id":"levelo_inurba_marseille","lat":43.27963,"lon":5.38739,"is_reserved":false,"is_disabled":false,"rental_uris":{"android":"levelo://app?vid=e5e6f536-665f-4eb6-8080-9ce38307ca64","ios":"levelo://app?vid=e5e6f536-665f-4eb6-8080-9ce38307ca64"},"vehicle_type_id":"4","last_reported":1784818861,"current_range_meters":38800,"station_id":"ce4bhg12rcd13ifvqf80","pricing_plan_id":"cebpf4jnsgd1na2vs0mg"},{"bike_id":"2acd2ae5-3829-4d5e-b56f-1bb617133f9d","system_id":"levelo_inurba_marseille","lat":43.23195,"lon":5.35561,"is_reserved":false,"is_disabled":false,"rental_uris":{"android":"levelo://app?vid=2acd2ae5-3829-4d5e-b56f-1bb617133f9d","ios":"levelo://app?vid=2acd2ae5-3829-4d5e-b56f-1bb617133f9d"},"vehicle_type_id":"4","last_reported":1784818861,"current_range_meters":28000,"station_id":"ce4bhu92rcd13ifvqi70","pricing_plan_id":"cebpf4jnsgd1na2vs0mg"},{"bike_id":"60287aa5-6d46-4db5-9afb-75f080b10d48","system_id":"levelo_inurba_marseille","lat":43.24965,"lon":5.40504,"is_reserved":false,"is_disabled":false,"rental_uris":{"android":"levelo://app?vid=60287aa5-6d46-4db5-9afb-75f080b10d48","ios":"levelo://app?vid=60287aa5-6d46-4db5-9afb-75f080b10d48"},"vehicle_type_id":"4","last_reported":1784818861,"current_range_meters":12000,"station_id":"st_d2ngiaodas8pm72gd1h0","pricing_plan_id":"cebpf4jnsgd1na2vs0mg"},{"bike_id":"8d8673aa-a69c-4d74-931d-06b8f35221f4","system_id":"levelo_inurba_marseille","lat":43.2669,"lon":5.42015,"is_reserved":false,"is_disabled":false,"rental_uris":{"android":"levelo://app?vid=8d8673aa-a69c-4d74-931d-06b8f35221f4","ios":"levelo://app?vid=8d8673aa-a69c-4d74-931d-06b8f35221f4"},"vehicle_type_id":"4","last_reported":1784818861,"current_range_meters":24000,"station_id":"","pricing_plan_id":"cebpf4jnsgd1na2vs0mg"},{"bike_id":"fafef446-91dd-4676-92a7-98ee5a6f2e38","system_id":"levelo_inurba_marseille","lat":43.299828,"lon":5.371924,"is_reserved":false,"is_disabled":false,"rental_uris":{"android":"levelo://app?vid=fafef446-91dd-4676-92a7-98ee5a6f2e38","ios":"levelo://app?vid=fafef446-91dd-4676-92a7-98ee5a6f2e38"},"vehicle_type_id":"4","last_reported":1784818861,"current_range_meters":31200,"station_id":"ce4bh4p2rcd13ifvqe1g","pricing_plan_id":"cebpf4jnsgd1na2vs0mg"},{"bike_id":"bb6c1d94-b8a1-4d7e-8e26-2628675f7e1d","system_id":"levelo_inurba_marseille","lat":43.29607,"lon":5.37714,"is_reserved":false,"is_disabled":false,"rental_uris":{"android":"levelo://app?vid=bb6c1d94-b8a1-4d7e-8e26-2628675f7e1d","ios":"levelo://app?vid=bb6c1d94-b8a1-4d7e-8e26-2628675f7e1d"},"vehicle_type_id":"4","last_reported":1784818861,"current_range_meters":17200,"station_id":"ce4bgi92rcd13ifvqb90","pricing_plan_id":"cebpf4jnsgd1na2vs0mg"},{"bike_id":"ad939227-d0d3-483f-850b-5caf96ca7940","system_id":"levelo_inurba_marseille","lat":43.30805,"lon":5.38146,"is_reserved":false,"is_disabled":false,"rental_uris":{"android":"levelo://app?vid=ad939227-d0d3-483f-850b-5caf96ca7940","ios":"levelo://app?vid=ad939227-d0d3-483f-850b-5caf96ca7940"},"vehicle_type_id":"4","last_reported":1784818861,"current_range_meters":2800,"station_id":"ce4bgt12rcd13ifvqce0","pricing_plan_id":"cebpf4jnsgd1na2vs0mg"},{"bike_id":"0e9b0cff-0052-49cb-95a6-a28acd2c4d00","system_id":"levelo_inurba_marseille","lat":43.28613,"lon":5.35112,"is_reserved":false,"is_disabled":false,"rental_uris":{"android":"levelo://app?vid=0e9b0cff-0052-49cb-95a6-a28acd2c4d00","ios":"levelo://app?vid=0e9b0cff-0052-49cb-95a6-a28acd2c4d00"},"vehicle_type_id":"4","last_reported":1784818861,"current_range_meters":16400,"station_id":"ce4bhch2rcd13ifvqeug","pricing_plan_id":"cebpf4jnsgd1na2vs0mg"},{"bike_id":"1fade11d-8e73-4748-8586-d9741ca55ced","system_id":"levelo_inurba_marseille","lat":43.317152,"lon":5.437034,"is_reserved":false,"is_disabled":false,"rental_uris":{"android":"levelo://app?vid=1fade11d-8e73-4748-8586-d9741ca55ced","ios":"levelo://app?vid=1fade11d-8e73-4748-8586-d9741ca55ced"},"vehicle_type_id":"4","last_reported":1784818861,"current_range_meters":26800,"station_id":"ce4bhp92rcd13ifvqhcg","pricing_plan_id":"cebpf4jnsgd1na2vs0mg"},{"bike_id":"3b4b694d-9947-462a-9190-dac84103608c","system_id":"levelo_inurba_marseille","lat":43.29622,"lon":5.37172,"is_reserved":false,"is_disabled":false,"rental_uris":{"android":"levelo://app?vid=3b4b694d-9947-462a-9190-dac84103608c","ios":"levelo://app?vid=3b4b694d-9947-462a-9190-dac84103608c"},"vehicle_type_id":"4","last_reported":1784818861,"current_range_meters":37600,"station_id":"","pricing_plan_id":"cebpf4jnsgd1na2vs0mg"},{"bike_id":"0e7a1ce1-f70c-4688-924f-84d8f70a6245","system_id":"levelo_inurba_marseille","lat":43.28984,"lon":5.37847,"is_reserved":false,"is_disabled":false,"rental_uris":{"android":"levelo://app?vid=0e7a1ce1-f70c-4688-924f-84d8f70a6245","ios":"levelo://app?vid=0e7a1ce1-f70c-4688-924f-84d8f70a6245"},"vehicle_type_id":"4","last_reported":1784818861,"current_range_meters":20800,"station_id":"ce4bh9p2rcd13ifvqed0","pricing_plan_id":"cebpf4jnsgd1na2vs0mg"},{"bike_id":"2b5becdf-f8e2-49e5-a55c-775afd13da26","system_id":"levelo_inurba_marseille","lat":43.21195,"lon":5.3507,"is_reserved":false,"is_disabled":false,"rental_uris":{"android":"levelo://app?vid=2b5becdf-f8e2-49e5-a55c-775afd13da26","ios":"levelo://app?vid=2b5becdf-f8e2-49e5-a55c-775afd13da26"},"vehicle_type_id":"4","last_reported":1784818861,"current_range_meters":6800,"station_id":"st_cvj6sg6p6f1abm77japg","pricing_plan_id":"cebpf4jnsgd1na2vs0mg"},{"bike_id":"4a918d6a-277e-4aa3-a3e6-947b72acd8d9","system_id":"levelo_inurba_marseille","lat":43.29008,"lon":5.35615,"is_reserved":false,"is_disabled":false,"rental_uris":{"android":"levelo://app?vid=4a918d6a-277e-4aa3-a3e6-947b72acd8d9","ios":"levelo://app?vid=4a918d6a-277e-4aa3-a3e6-947b72acd8d9"},"vehicle_type_id":"4","last_reported":1784818861,"current_range_meters":8400,"station_id":"ce4bhb92rcd13ifvqen0","pricing_plan_id":"cebpf4jnsgd1na2vs0mg"},{"bike_id":"dd06800e-604e-44b7-8b2e-2f49904e10e6","system_id":"levelo_inurba_marseille","lat":43.30595,"lon":5.393642,"is_reserved":false,"is_disabled":false,"rental_uris":{"android":"levelo://app?vid=dd06800e-604e-44b7-8b2e-2f49904e10e6","ios":"levelo://app?vid=dd06800e-604e-44b7-8b2e-2f49904e10e6"},"vehicle_type_id":"4","last_reported":1784818861,"current_range_meters":36800,"station_id":"ce4bgh92rcd13ifvqb50","pricing_plan_id":"cebpf4jnsgd1na2vs0mg"},{"bike_id":"75146afd-6944-4808-9153-760cee29f303","system_id":"levelo_inurba_marseille","lat":43.24715,"lon":5.37796,"is_reserved":false,"is_disabled":false,"rental_uris":{"android":"levelo://app?vid=75146afd-6944-4808-9153-760cee29f303","ios":"levelo://app?vid=75146afd-6944-4808-9153-760cee29f303"},"vehicle_type_id":"4","last_reported":1784818861,"current_range_meters":20800,"station_id":"","pricing_plan_id":"cebpf4jnsgd1na2vs0mg"},{"bike_id":"6ccdb80e-0c8a-4f17-a34c-33ff437bd75c","system_id":"levelo_inurba_marseille","lat":43.28425,"lon":5.35,"is_reserved":false,"is_disabled":false,"rental_uris":{"android":"levelo://app?vid=6ccdb80e-0c8a-4f17-a34c-33ff437bd75c","ios":"levelo://app?vid=6ccdb80e-0c8a-4f17-a34c-33ff437bd75c"},"vehicle_type_id":"4","last_reported":1784818861,"current_range_meters":37600,"station_id":"ce4bhbh2rcd13ifvqepg","pricing_plan_id":"cebpf4jnsgd1na2vs0mg"},{"bike_id":"cd3fe74b-3992-49f7-8e04-c4ec293f8de7","system_id":"levelo_inurba_marseille","lat":43.25949,"lon":5.40891,"is_reserved":false,"is_disabled":false,"rental_uris":{"android":"levelo://app?vid=cd3fe74b-3992-49f7-8e04-c4ec293f8de7","ios":"levelo://app?vid=cd3fe74b-3992-49f7-8e04-c4ec293f8de7"},"vehicle_type_id":"4","last_reported":1784818861,"current_range_meters":33600,"station_id":"ce4bhm92rcd13ifvqglg","pricing_plan_id":"cebpf4jnsgd1na2vs0mg"},{"bike_id":"27384048-d139-4f4f-80e7-49b1e71b3d7c","system_id":"levelo_inurba_marseille","lat":43.26188,"lon":5.3746,"is_reserved":false,"is_disabled":false,"rental_uris":{"android":"levelo://app?vid=27384048-d139-4f4f-80e7-49b1e71b3d7c","ios":"levelo://app?vid=27384048-d139-4f4f-80e7-49b1e71b3d7c"},"vehicle_type_id":"4","last_reported":1784818861,"current_range_meters":23200,"station_id":"ce4bhgp2rcd13ifvqfc0","pricing_plan_id":"cebpf4jnsgd1na2vs0mg"},{"bike_id":"0e2bcac4-09cf-40a3-852c-33333ad54630","system_id":"levelo_inurba_marseille","lat":43.26708,"lon":5.3829,"is_reserved":false,"is_disabled":false,"rental_uris":{"android":"levelo://app?vid=0e2bcac4-09cf-40a3-852c-33333ad54630","ios":"levelo://app?vid=0e2bcac4-09cf-40a3-852c-33333ad54630"},"vehicle_type_id":"4","last_reported":1784818861,"current_range_meters":10000,"station_id":"ce4bhg92rcd13ifvqf90","pricing_plan_id":"cebpf4jnsgd1na2vs0mg"},{"bike_id":"84d33cb9-a3ee-4eed-a665-0e80298be95f","system_id":"levelo_inurba_marseille","lat":43.27579,"lon":5.38427,"is_reserved":false,"is_disabled":false,"rental_uris":{"android":"levelo://app?vid=84d33cb9-a3ee-4eed-a665-0e80298be95f","ios":"levelo://app?vid=84d33cb9-a3ee-4eed-a665-0e80298be95f"},"vehicle_type_id":"4","last_reported":1784818861,"current_range_meters":38400,"station_id":"ce4bhh92rcd13ifvqfi0","pricing_plan_id":"cebpf4jnsgd1na2vs0mg"},{"bike_id":"acb6c310-64e8-4ffb-9d0e-3645b38213aa","system_id":"levelo_inurba_marseille","lat":43.22572,"lon":5.41628,"is_reserved":false,"is_disabled":false,"rental_uris":{"android":"levelo://app?vid=acb6c310-64e8-4ffb-9d0e-3645b38213aa","ios":"levelo://app?vid=acb6c310-64e8-4ffb-9d0e-3645b38213aa"},"vehicle_type_id":"4","last_reported":1784818861,"current_range_meters":38800,"station_id":"st_d2o4gvlbi1j2169b742g","pricing_plan_id":"cebpf4jnsgd1na2vs0mg"},{"bike_id":"53df9775-9d78-4cf3-869d-128c6212913f","system_id":"levelo_inurba_marseille","lat":43.23197,"lon":5.3556,"is_reserved":false,"is_disabled":false,"rental_uris":{"android":"levelo://app?vid=53df9775-9d78-4cf3-869d-128c6212913f","ios":"levelo://app?vid=53df9775-9d78-4cf3-869d-128c6212913f"},"vehicle_type_id":"4","last_reported":1784818861,"current_range_meters":38800,"station_id":"ce4bhu92rcd13ifvqi70","pricing_plan_id":"cebpf4jnsgd1na2vs0mg"},{"bike_id":"2b2d5806-a98a-4b6d-8666-219c96826a65","system_id":"levelo_inurba_marseille","lat":43.33027,"lon":5.39038,"is_reserved":false,"is_disabled":false,"rental_uris":{"android":"levelo://app?vid=2b2d5806-a98a-4b6d-8666-219c96826a65","ios":"levelo://app?vid=2b2d5806-a98a-4b6d-8666-219c96826a65"},"vehicle_type_id":"4","last_reported":1784818861,"current_range_meters":5600,"station_id":"ce4bhr92rcd13ifvqhrg","pricing_plan_id":"cebpf4jnsgd1na2vs0mg"},{"bike_id":"9d4b8430-c687-4ce9-b117-2b375d0afc9f","system_id":"levelo_inurba_marseille","lat":43.23123,"lon":5.43733,"is_reserved":false,"is_disabled":false,"rental_uris":{"android":"levelo://app?vid=9d4b8430-c687-4ce9-b117-2b375d0afc9f","ios":"levelo://app?vid=9d4b8430-c687-4ce9-b117-2b375d0afc9f"},"vehicle_type_id":"4","last_reported":1784818861,"current_range_meters":31200,"station_id":"ce4bhmp2rcd13ifvqgog","pricing_plan_id":"cebpf4jnsgd1na2vs0mg"},{"bike_id":"39803727-acc1-4fed-9576-2082925b69e1","system_id":"levelo_inurba_marseille","lat":43.31264,"lon":5.36824,"is_reserved":false,"is_disabled":false,"rental_uris":{"android":"levelo://app?vid=39803727-acc1-4fed-9576-2082925b69e1","ios":"levelo://app?vid=39803727-acc1-4fed-9576-2082925b69e1"},"vehicle_type_id":"4","last_reported":1784818861,"current_range_meters":15200,"station_id":"","pricing_plan_id":"cebpf4jnsgd1na2vs0mg"},{"bike_id":"6c48c6bb-9896-434b-ac7c-83595e22affd","system_id":"levelo_inurba_marseille","lat":43.27376,"lon":5.36264,"is_reserved":false,"is_disabled":false,"rental_uris":{"android":"levelo://app?vid=6c48c6bb-9896-434b-ac7c-83595e22affd","ios":"levelo://app?vid=6c48c6bb-9896-434b-ac7c-83595e22affd"},"vehicle_type_id":"4","last_reported":1784818861,"current_range_meters":22000,"station_id":"ce4bhbh2rcd13ifvqeo0","pricing_plan_id":"cebpf4jnsgd1na2vs0mg"},{"bike_id":"3f2bdf31-c203-4712-8db4-3dc592b3612b","system_id":"levelo_inurba_marseille","lat":43.25583,"lon":5.38232,"is_reserved":false,"is_disabled":false,"rental_uris":{"android":"levelo://app?vid=3f2bdf31-c203-4712-8db4-3dc592b3612b","ios":"levelo://app?vid=3f2bdf31-c203-4712-8db4-3dc592b3612b"},"vehicle_type_id":"4","last_reported":1784818861,"current_range_meters":8800,"station_id":"ce4bhih2rcd13ifvqfs0","pricing_plan_id":"cebpf4jnsgd1na2vs0mg"},{"bike_id":"a83f6dd4-a966-4c48-9c5e-40cd101889e5","system_id":"levelo_inurba_marseille","lat":43.28653,"lon":5.36357,"is_reserved":false,"is_disabled":false,"rental_uris":{"android":"levelo://app?vid=a83f6dd4-a966-4c48-9c5e-40cd101889e5","ios":"levelo://app?vid=a83f6dd4-a966-4c48-9c5e-40cd101889e5"},"vehicle_type_id":"4","last_reported":1784818861,"current_range_meters":24400,"station_id":"ce4bhah2rcd13ifvqej0","pricing_plan_id":"cebpf4jnsgd1na2vs0mg"},{"bike_id":"429123e4-dc43-429b-abc2-42a83c22e46e","system_id":"levelo_inurba_marseille","lat":43.23266,"lon":5.35547,"is_reserved":false,"is_disabled":false,"rental_uris":{"android":"levelo://app?vid=429123e4-dc43-429b-abc2-42a83c22e46e","ios":"levelo://app?vid=429123e4-dc43-429b-abc2-42a83c22e46e"},"vehicle_type_id":"4","last_reported":1784818861,"current_range_meters":28400,"station_id":"ce4bhu92rcd13ifvqi70","pricing_plan_id":"cebpf4jnsgd1na2vs0mg"},{"bike_id":"72a9e1c3-a2c5-4dcb-af32-aa981faab4f3","system_id":"levelo_inurba_marseille","lat":43.29571,"lon":5.37498,"is_reserved":false,"is_disabled":false,"rental_uris":{"android":"levelo://app?vid=72a9e1c3-a2c5-4dcb-af32-aa981faab4f3","ios":"levelo://app?vid=72a9e1c3-a2c5-4dcb-af32-aa981faab4f3"},"vehicle_type_id":"4","last_reported":1784818861,"current_range_meters":30800,"station_id":"ce4bgh92rcd13ifvqb50","pricing_plan_id":"cebpf4jnsgd1na2vs0mg"},{"bike_id":"a9500356-c19d-415e-81ed-a8d1baa0c959","system_id":"levelo_inurba_marseille","lat":43.30131,"lon":5.38789,"is_reserved":false,"is_disabled":true,"rental_uris":{"android":"levelo://app?vid=a9500356-c19d-415e-81ed-a8d1baa0c959","ios":"levelo://app?vid=a9500356-c19d-415e-81ed-a8d1baa0c959"},"vehicle_type_id":"4","last_reported":1784818861,"current_range_meters":27200,"station_id":"ce4bghh2rcd13ifvqb60","pricing_plan_id":"cebpf4jnsgd1na2vs0mg"},{"bike_id":"780d70f3-95c4-44fa-ba2a-f31e2ebd1bf6","system_id":"levelo_inurba_marseille","lat":43.29965,"lon":5.38507,"is_reserved":false,"is_disabled":true,"rental_uris":{"android":"levelo://app?vid=780d70f3-95c4-44fa-ba2a-f31e2ebd1bf6","ios":"levelo://app?vid=780d70f3-95c4-44fa-ba2a-f31e2ebd1bf6"},"vehicle_type_id":"4","last_reported":1784818861,"current_range_meters":28400,"station_id":"ce4bgj92rcd13ifvqbd0","pricing_plan_id":"cebpf4jnsgd1na2vs0mg"},{"bike_id":"bace381c-6258-4d80-80f1-070c343af026","system_id":"levelo_inurba_marseille","lat":43.33162,"lon":5.37695,"is_reserved":false,"is_disabled":false,"rental_uris":{"android":"levelo://app?vid=bace381c-6258-4d80-80f1-070c343af026","ios":"levelo://app?vid=bace381c-6258-4d80-80f1-070c343af026"},"vehicle_type_id":"4","last_reported":1784818861,"current_range_meters":6000,"station_id":"st_d46cu089ee8s73dldbu0","pricing_plan_id":"cebpf4jnsgd1na2vs0mg"},{"bike_id":"484e47bb-c244-4caf-825b-8db5ca56ab5f","system_id":"levelo_inurba_marseille","lat":43.24388,"lon":5.37062,"is_reserved":false,"is_disabled":false,"rental_uris":{"android":"levelo://app?vid=484e47bb-c244-4caf-825b-8db5ca56ab5f","ios":"levelo://app?vid=484e47bb-c244-4caf-825b-8db5ca56ab5f"},"vehicle_type_id":"4","last_reported":1784818861,"current_range_meters":38400,"station_id":"ce4bhhh2rcd13ifvqfk0","pricing_plan_id":"cebpf4jnsgd1na2vs0mg"},{"bike_id":"094c82ea-15e4-4be3-87e3-1dcfec8880f8","system_id":"levelo_inurba_marseille","lat":43.287377,"lon":5.361139,"is_reserved":false,"is_disabled":false,"rental_uris":{"android":"levelo://app?vid=094c82ea-15e4-4be3-87e3-1dcfec8880f8","ios":"levelo://app?vid=094c82ea-15e4-4be3-87e3-1dcfec8880f8"},"vehicle_type_id":"4","last_reported":1784818861,"current_range_meters":24800,"station_id":"","pricing_plan_id":"cebpf4jnsgd1na2vs0mg"},{"bike_id":"80edbe8c-a712-4c72-979e-17197baf2656","system_id":"levelo_inurba_marseille","lat":43.23056,"lon":5.3549,"is_reserved":false,"is_disabled":true,"rental_uris":{"android":"levelo://app?vid=80edbe8c-a712-4c72-979e-17197baf2656","ios":"levelo://app?vid=80edbe8c-a712-4c72-979e-17197baf2656"},"vehicle_type_id":"4","last_reported":1784818861,"current_range_meters":800,"station_id":"cpo3342slgdg3j2ifvpg","pricing_plan_id":"cebpf4jnsgd1na2vs0mg"},{"bike_id":"e9e543b0-8ca5-47a6-998c-4902ea53cdd4","system_id":"levelo_inurba_marseille","lat":43.25187,"lon":5.37316,"is_reserved":false,"is_disabled":true,"rental_uris":{"android":"levelo://app?vid=e9e543b0-8ca5-47a6-998c-4902ea53cdd4","ios":"levelo://app?vid=e9e543b0-8ca5-47a6-998c-4902ea53cdd4"},"vehicle_type_id":"4","last_reported":1784818861,"current_range_meters":8800,"station_id":"","pricing_plan_id":"cebpf4jnsgd1na2vs0mg"},{"bike_id":"2d2d2af5-a584-4e7e-a9e9-6119dd1e5b67","system_id":"levelo_inurba_marseille","lat":43.25946,"lon":5.4091,"is_reserved":false,"is_disabled":false,"rental_uris":{"android":"levelo://app?vid=2d2d2af5-a584-4e7e-a9e9-6119dd1e5b67","ios":"levelo://app?vid=2d2d2af5-a584-4e7e-a9e9-6119dd1e5b67"},"vehicle_type_id":"4","last_reported":1784818861,"current_range_meters":39200,"station_id":"ce4bhm92rcd13ifvqglg","pricing_plan_id":"cebpf4jnsgd1na2vs0mg"},{"bike_id":"74f75dec-8be0-4804-9118-bac5cfdccf76","system_id":"levelo_inurba_marseille","lat":43.27997,"lon":5.4001,"is_reserved":false,"is_disabled":false,"rental_uris":{"android":"levelo://app?vid=74f75dec-8be0-4804-9118-bac5cfdccf76","ios":"levelo://app?vid=74f75dec-8be0-4804-9118-bac5cfdccf76"},"vehicle_type_id":"4","last_reported":1784818861,"current_range_meters":16400,"station_id":"ce4bho92rcd13ifvqh4g","pricing_plan_id":"cebpf4jnsgd1na2vs0mg"},{"bike_id":"7f6e27b5-7fa3-4f3a-ae32-1c704f225d07","system_id":"levelo_inurba_marseille","lat":43.25498,"lon":5.37641,"is_reserved":false,"is_disabled":false,"rental_uris":{"android":"levelo://app?vid=7f6e27b5-7fa3-4f3a-ae32-1c704f225d07","ios":"levelo://app?vid=7f6e27b5-7fa3-4f3a-ae32-1c704f225d07"},"vehicle_type_id":"4","last_reported":1784818861,"current_range_meters":30400,"station_id":"ce4bhh12rcd13ifvqff0","pricing_plan_id":"cebpf4jnsgd1na2vs0mg"},{"bike_id":"8f31f3af-0aa6-4421-8e2c-a77a880bef79","system_id":"levelo_inurba_marseille","lat":43.273726,"lon":5.398294,"is_reserved":false,"is_disabled":true,"rental_uris":{"android":"levelo://app?vid=8f31f3af-0aa6-4421-8e2c-a77a880bef79","ios":"levelo://app?vid=8f31f3af-0aa6-4421-8e2c-a77a880bef79"},"vehicle_type_id":"4","last_reported":1784818861,"current_range_meters":2800,"station_id":"","pricing_plan_id":"cebpf4jnsgd1na2vs0mg"},{"bike_id":"693c14b8-dea8-4bd6-9209-8f095362b343","system_id":"levelo_inurba_marseille","lat":43.25872,"lon":5.40443,"is_reserved":false,"is_disabled":false,"rental_uris":{"android":"levelo://app?vid=693c14b8-dea8-4bd6-9209-8f095362b343","ios":"levelo://app?vid=693c14b8-dea8-4bd6-9209-8f095362b343"},"vehicle_type_id":"4","last_reported":1784818861,"current_range_meters":26800,"station_id":"","pricing_plan_id":"cebpf4jnsgd1na2vs0mg"},{"bike_id":"149efb2a-2ee3-461f-9a7f-5d421d0831ad","system_id":"levelo_inurba_marseille","lat":43.29615,"lon":5.37714,"is_reserved":false,"is_disabled":false,"rental_uris":{"android":"levelo://app?vid=149efb2a-2ee3-461f-9a7f-5d421d0831ad","ios":"levelo://app?vid=149efb2a-2ee3-461f-9a7f-5d421d0831ad"},"vehicle_type_id":"4","last_reported":1784818861,"current_range_meters":29600,"station_id":"ce4bgi92rcd13ifvqb90","pricing_plan_id":"cebpf4jnsgd1na2vs0mg"},{"bike_id":"be628a99-ea2e-46d6-b4ba-70afc469be32","system_id":"levelo_inurba_marseille","lat":43.28033,"lon":5.36942,"is_reserved":false,"is_disabled":false,"rental_uris":{"android":"levelo://app?vid=be628a99-ea2e-46d6-b4ba-70afc469be32","ios":"levelo://app?vid=be628a99-ea2e-46d6-b4ba-70afc469be32"},"vehicle_type_id":"4","last_reported":1784818861,"current_range_meters":22800,"station_id":"ce4bha12rcd13ifvqef0","pricing_plan_id":"cebpf4jnsgd1na2vs0mg"},{"bike_id":"a6e39fb0-f2e5-41d8-b4aa-b3071fa9ec56","system_id":"levelo_inurba_marseille","lat":43.23146,"lon":5.43715,"is_reserved":false,"is_disabled":false,"rental_uris":{"android":"levelo://app?vid=a6e39fb0-f2e5-41d8-b4aa-b3071fa9ec56","ios":"levelo://app?vid=a6e39fb0-f2e5-41d8-b4aa-b3071fa9ec56"},"vehicle_type_id":"4","last_reported":1784818861,"current_range_meters":22400,"station_id":"ce4bhmp2rcd13ifvqgog","pricing_plan_id":"cebpf4jnsgd1na2vs0mg"},{"bike_id":"476beb9f-d625-4af7-8570-9e552e55f6b8","system_id":"levelo_inurba_marseille","lat":43.27429,"lon":5.39406,"is_reserved":false,"is_disabled":false,"rental_uris":{"android":"levelo://app?vid=476beb9f-d625-4af7-8570-9e552e55f6b8","ios":"levelo://app?vid=476beb9f-d625-4af7-8570-9e552e55f6b8"},"vehicle_type_id":"4","last_reported":1784818861,"current_range_meters":39200,"station_id":"ce4bhdp2rcd13ifvqf20","pricing_plan_id":"cebpf4jnsgd1na2vs0mg"},{"bike_id":"a2c9fd6e-925c-4795-ba3f-b9c641931695","system_id":"levelo_inurba_marseille","lat":43.31464,"lon":5.37402,"is_reserved":false,"is_disabled":true,"rental_uris":{"android":"levelo://app?vid=a2c9fd6e-925c-4795-ba3f-b9c641931695","ios":"levelo://app?vid=a2c9fd6e-925c-4795-ba3f-b9c641931695"},"vehicle_type_id":"4","last_reported":1784818861,"current_range_meters":19600,"station_id":"","pricing_plan_id":"cebpf4jnsgd1na2vs0mg"},{"bike_id":"dc6e01e4-afd8-4ee4-9448-dc6f9fd0fadb","system_id":"levelo_inurba_marseille","lat":43.28426,"lon":5.35001,"is_reserved":false,"is_disabled":false,"rental_uris":{"android":"levelo://app?vid=dc6e01e4-afd8-4ee4-9448-dc6f9fd0fadb","ios":"levelo://app?vid=dc6e01e4-afd8-4ee4-9448-dc6f9fd0fadb"},"vehicle_type_id":"4","last_reported":1784818861,"current_range_meters":30400,"station_id":"ce4bhbh2rcd13ifvqepg","pricing_plan_id":"cebpf4jnsgd1na2vs0mg"},{"bike_id":"d5bacd06-8390-4630-8a26-b07308e80e9a","system_id":"levelo_inurba_marseille","lat":43.29582,"lon":5.3751,"is_reserved":false,"is_disabled":false,"rental_uris":{"android":"levelo://app?vid=d5bacd06-8390-4630-8a26-b07308e80e9a","ios":"levelo://app?vid=d5bacd06-8390-4630-8a26-b07308e80e9a"},"vehicle_type_id":"4","last_reported":1784818861,"current_range_meters":37600,"station_id":"ce4bgh92rcd13ifvqb50","pricing_plan_id":"cebpf4jnsgd1na2vs0mg"},{"bike_id":"7b7c350c-7fa0-4260-b6c2-812c00fe7727","system_id":"levelo_inurba_marseille","lat":43.321,"lon":5.3677,"is_reserved":false,"is_disabled":false,"rental_uris":{"android":"levelo://app?vid=7b7c350c-7fa0-4260-b6c2-812c00fe7727","ios":"levelo://app?vid=7b7c350c-7fa0-4260-b6c2-812c00fe7727"},"vehicle_type_id":"4","last_reported":1784818861,"current_range_meters":24800,"station_id":"ce4bhrh2rcd13ifvqhug","pricing_plan_id":"cebpf4jnsgd1na2vs0mg"},{"bike_id":"002b6de9-4906-4900-bd53-a26437451aab","system_id":"levelo_inurba_marseille","lat":43.33254,"lon":5.35894,"is_reserved":false,"is_disabled":false,"rental_uris":{"android":"levelo://app?vid=002b6de9-4906-4900-bd53-a26437451aab","ios":"levelo://app?vid=002b6de9-4906-4900-bd53-a26437451aab"},"vehicle_type_id":"4","last_reported":1784818861,"current_range_meters":10000,"station_id":"","pricing_plan_id":"cebpf4jnsgd1na2vs0mg"},{"bike_id":"12b6f1fd-fee1-4941-931a-df9867fb16ad","system_id":"levelo_inurba_marseille","lat":43.23213,"lon":5.35562,"is_reserved":false,"is_disabled":true,"rental_uris":{"android":"levelo://app?vid=12b6f1fd-fee1-4941-931a-df9867fb16ad","ios":"levelo://app?vid=12b6f1fd-fee1-4941-931a-df9867fb16ad"},"vehicle_type_id":"4","last_reported":1784818861,"current_range_meters":0,"station_id":"ce4bhu92rcd13ifvqi70","pricing_plan_id":"cebpf4jnsgd1na2vs0mg"},{"bike_id":"94f1b0ad-aaa9-4b51-806c-9eae39355e9b","system_id":"levelo_inurba_marseille","lat":43.27394,"lon":5.36256,"is_reserved":false,"is_disabled":false,"rental_uris":{"android":"levelo://app?vid=94f1b0ad-aaa9-4b51-806c-9eae39355e9b","ios":"levelo://app?vid=94f1b0ad-aaa9-4b51-806c-9eae39355e9b"},"vehicle_type_id":"4","last_reported":1784818861,"current_range_meters":39200,"station_id":"ce4bhbh2rcd13ifvqeo0","pricing_plan_id":"cebpf4jnsgd1na2vs0mg"},{"bike_id":"f8e0eda3-6b22-4ce8-9214-883019db78cd","system_id":"levelo_inurba_marseille","lat":43.25609,"lon":5.40497,"is_reserved":false,"is_disabled":false,"rental_uris":{"android":"levelo://app?vid=f8e0eda3-6b22-4ce8-9214-883019db78cd","ios":"levelo://app?vid=f8e0eda3-6b22-4ce8-9214-883019db78cd"},"vehicle_type_id":"4","last_reported":1784818861,"current_range_meters":38400,"station_id":"st_d9f0okuplk6c73bumsr0","pricing_plan_id":"cebpf4jnsgd1na2vs0mg"},{"bike_id":"ca0333c3-98b5-499f-8809-c3c338ba1956","system_id":"levelo_inurba_marseille","lat":43.30923,"lon":5.40141,"is_reserved":false,"is_disabled":false,"rental_uris":{"android":"levelo://app?vid=ca0333c3-98b5-499f-8809-c3c338ba1956","ios":"levelo://app?vid=ca0333c3-98b5-499f-8809-c3c338ba1956"},"vehicle_type_id":"4","last_reported":1784818861,"current_range_meters":3600,"station_id":"ce4bgvp2rcd13ifvqct0","pricing_plan_id":"cebpf4jnsgd1na2vs0mg"},{"bike_id":"88d6541c-41d0-4057-8601-7a3cfec04958","system_id":"levelo_inurba_marseille","lat":43.30431,"lon":5.3888,"is_reserved":false,"is_disabled":true,"rental_uris":{"android":"levelo://app?vid=88d6541c-41d0-4057-8601-7a3cfec04958","ios":"levelo://app?vid=88d6541c-41d0-4057-8601-7a3cfec04958"},"vehicle_type_id":"4","last_reported":1784818861,"current_range_meters":0,"station_id":"ce4bgk12rcd13ifvqbi0","pricing_plan_id":"cebpf4jnsgd1na2vs0mg"},{"bike_id":"22e66e8b-f008-4d04-b17c-751d019a7a36","system_id":"levelo_inurba_marseille","lat":43.29825,"lon":5.44068,"is_reserved":false,"is_disabled":false,"rental_uris":{"android":"levelo://app?vid=22e66e8b-f008-4d04-b17c-751d019a7a36","ios":"levelo://app?vid=22e66e8b-f008-4d04-b17c-751d019a7a36"},"vehicle_type_id":"4","last_reported":1784818861,"current_range_meters":37600,"station_id":"st_d3jp68qikq2c7381ktn0","pricing_plan_id":"cebpf4jnsgd1na2vs0mg"},{"bike_id":"1981d3ef-d7ae-460e-a247-e2f1120f8322","system_id":"levelo_inurba_marseille","lat":43.24593,"lon":5.41943,"is_reserved":false,"is_disabled":false,"rental_uris":{"android":"levelo://app?vid=1981d3ef-d7ae-460e-a247-e2f1120f8322","ios":"levelo://app?vid=1981d3ef-d7ae-460e-a247-e2f1120f8322"},"vehicle_type_id":"4","last_reported":1784818861,"current_range_meters":13600,"station_id":"","pricing_plan_id":"cebpf4jnsgd1na2vs0mg"},{"bike_id":"5399623f-3583-4de0-a7c7-2ff41ef8193a","system_id":"levelo_inurba_marseille","lat":43.23187,"lon":5.35563,"is_reserved":false,"is_disabled":false,"rental_uris":{"android":"levelo://app?vid=5399623f-3583-4de0-a7c7-2ff41ef8193a","ios":"levelo://app?vid=5399623f-3583-4de0-a7c7-2ff41ef8193a"},"vehicle_type_id":"4","last_reported":1784818861,"current_range_meters":26800,"station_id":"ce4bhu92rcd13ifvqi70","pricing_plan_id":"cebpf4jnsgd1na2vs0mg"},{"bike_id":"bbb6d84d-52b2-4523-b78b-60cb354411ef","system_id":"levelo_inurba_marseille","lat":43.32117,"lon":5.36753,"is_reserved":false,"is_disabled":false,"rental_uris":{"android":"levelo://app?vid=bbb6d84d-52b2-4523-b78b-60cb354411ef","ios":"levelo://app?vid=bbb6d84d-52b2-4523-b78b-60cb354411ef"},"vehicle_type_id":"4","last_reported":1784818861,"current_range_meters":32400,"station_id":"ce4bhrh2rcd13ifvqhug","pricing_plan_id":"cebpf4jnsgd1na2vs0mg"},{"bike_id":"19fee056-8438-4b7c-86c9-573f0591638a","system_id":"levelo_inurba_marseille","lat":43.30147,"lon":5.37429,"is_reserved":false,"is_disabled":false,"rental_uris":{"android":"levelo://app?vid=19fee056-8438-4b7c-86c9-573f0591638a","ios":"levelo://app?vid=19fee056-8438-4b7c-86c9-573f0591638a"},"vehicle_type_id":"4","last_reported":1784818861,"current_range_meters":39200,"station_id":"ce4bgs92rcd13ifvqcc0","pricing_plan_id":"cebpf4jnsgd1na2vs0mg"},{"bike_id":"0fb69e68-2442-4daa-851f-442099ce438b","system_id":"levelo_inurba_marseille","lat":43.30186,"lon":5.40168,"is_reserved":false,"is_disabled":false,"rental_uris":{"android":"levelo://app?vid=0fb69e68-2442-4daa-851f-442099ce438b","ios":"levelo://app?vid=0fb69e68-2442-4daa-851f-442099ce438b"},"vehicle_type_id":"4","last_reported":1784818861,"current_range_meters":6800,"station_id":"","pricing_plan_id":"cebpf4jnsgd1na2vs0mg"},{"bike_id":"7c215944-6de0-44b9-b267-ecfcdb73eb11","system_id":"levelo_inurba_marseille","lat":43.27819,"lon":5.40713,"is_reserved":false,"is_disabled":true,"rental_uris":{"android":"levelo://app?vid=7c215944-6de0-44b9-b267-ecfcdb73eb11","ios":"levelo://app?vid=7c215944-6de0-44b9-b267-ecfcdb73eb11"},"vehicle_type_id":"4","last_reported":1784818861,"current_range_meters":38400,"station_id":"ce4bhnh2rcd13ifvqgtg","pricing_plan_id":"cebpf4jnsgd1na2vs0mg"},{"bike_id":"a9863fcb-8ca0-4220-b083-cb27e96475fe","system_id":"levelo_inurba_marseille","lat":43.23203,"lon":5.35545,"is_reserved":false,"is_disabled":false,"rental_uris":{"android":"levelo://app?vid=a9863fcb-8ca0-4220-b083-cb27e96475fe","ios":"levelo://app?vid=a9863fcb-8ca0-4220-b083-cb27e96475fe"},"vehicle_type_id":"4","last_reported":1784818861,"current_range_meters":39200,"station_id":"ce4bhu92rcd13ifvqi70","pricing_plan_id":"cebpf4jnsgd1na2vs0mg"},{"bike_id":"64d6a1bb-9f40-4c2f-86db-a81e217c2827","system_id":"levelo_inurba_marseille","lat":43.24399,"lon":5.37046,"is_reserved":false,"is_disabled":false,"rental_uris":{"android":"levelo://app?vid=64d6a1bb-9f40-4c2f-86db-a81e217c2827","ios":"levelo://app?vid=64d6a1bb-9f40-4c2f-86db-a81e217c2827"},"vehicle_type_id":"4","last_reported":1784818861,"current_range_meters":9200,"station_id":"ce4bhhh2rcd13ifvqfk0","pricing_plan_id":"cebpf4jnsgd1na2vs0mg"},{"bike_id":"45fd5ca5-cd0c-4fbd-a63c-a17c2003973c","system_id":"levelo_inurba_marseille","lat":43.276153,"lon":5.361013,"is_reserved":false,"is_disabled":false,"rental_uris":{"android":"levelo://app?vid=45fd5ca5-cd0c-4fbd-a63c-a17c2003973c","ios":"levelo://app?vid=45fd5ca5-cd0c-4fbd-a63c-a17c2003973c"},"vehicle_type_id":"4","last_reported":1784818861,"current_range_meters":29600,"station_id":"ce4bgj92rcd13ifvqbe0","pricing_plan_id":"cebpf4jnsgd1na2vs0mg"},{"bike_id":"d325e769-2ee8-44ac-9428-60ffaee2c8d1","system_id":"levelo_inurba_marseille","lat":43.26218,"lon":5.40466,"is_reserved":false,"is_disabled":false,"rental_uris":{"android":"levelo://app?vid=d325e769-2ee8-44ac-9428-60ffaee2c8d1","ios":"levelo://app?vid=d325e769-2ee8-44ac-9428-60ffaee2c8d1"},"vehicle_type_id":"4","last_reported":1784818861,"current_range_meters":36400,"station_id":"ce4bhmh2rcd13ifvqgmg","pricing_plan_id":"cebpf4jnsgd1na2vs0mg"},{"bike_id":"6beb94b0-4283-4f7d-810d-b229619bc024","system_id":"levelo_inurba_marseille","lat":43.229591,"lon":5.444884,"is_reserved":false,"is_disabled":false,"rental_uris":{"android":"levelo://app?vid=6beb94b0-4283-4f7d-810d-b229619bc024","ios":"levelo://app?vid=6beb94b0-4283-4f7d-810d-b229619bc024"},"vehicle_type_id":"4","last_reported":1784818861,"current_range_meters":20400,"station_id":"","pricing_plan_id":"cebpf4jnsgd1na2vs0mg"},{"bike_id":"25d63c03-240b-4596-9842-ae7363543101","system_id":"levelo_inurba_marseille","lat":43.33158,"lon":5.37678,"is_reserved":false,"is_disabled":false,"rental_uris":{"android":"levelo://app?vid=25d63c03-240b-4596-9842-ae7363543101","ios":"levelo://app?vid=25d63c03-240b-4596-9842-ae7363543101"},"vehicle_type_id":"4","last_reported":1784818861,"current_range_meters":37600,"station_id":"st_d46cu089ee8s73dldbu0","pricing_plan_id":"cebpf4jnsgd1na2vs0mg"},{"bike_id":"d5ce1f70-45dd-47d5-a2a4-e8a19c2ad395","system_id":"levelo_inurba_marseille","lat":43.23786,"lon":5.36636,"is_reserved":false,"is_disabled":false,"rental_uris":{"android":"levelo://app?vid=d5ce1f70-45dd-47d5-a2a4-e8a19c2ad395","ios":"levelo://app?vid=d5ce1f70-45dd-47d5-a2a4-e8a19c2ad395"},"vehicle_type_id":"4","last_reported":1784818861,"current_range_meters":39200,"station_id":"st_d3nk18o9ro0c73en2l3g","pricing_plan_id":"cebpf4jnsgd1na2vs0mg"},{"bike_id":"db07d8a9-02d1-4be0-ae29-128fcd5f42c4","system_id":"levelo_inurba_marseille","lat":43.28276,"lon":5.35068,"is_reserved":false,"is_disabled":false,"rental_uris":{"android":"levelo://app?vid=db07d8a9-02d1-4be0-ae29-128fcd5f42c4","ios":"levelo://app?vid=db07d8a9-02d1-4be0-ae29-128fcd5f42c4"},"vehicle_type_id":"4","last_reported":1784818861,"current_range_meters":6000,"station_id":"ce4bhbp2rcd13ifvqerg","pricing_plan_id":"cebpf4jnsgd1na2vs0mg"},{"bike_id":"f8d90c4e-4908-4f03-845e-3c10c53cb1f4","system_id":"levelo_inurba_marseille","lat":43.30052,"lon":5.40949,"is_reserved":false,"is_disabled":false,"rental_uris":{"android":"levelo://app?vid=f8d90c4e-4908-4f03-845e-3c10c53cb1f4","ios":"levelo://app?vid=f8d90c4e-4908-4f03-845e-3c10c53cb1f4"},"vehicle_type_id":"4","last_reported":1784818861,"current_range_meters":18000,"station_id":"","pricing_plan_id":"cebpf4jnsgd1na2vs0mg"},{"bike_id":"fcb21ffd-21c0-4c39-84fb-c1a54fa2eb0d","system_id":"levelo_inurba_marseille","lat":43.29042,"lon":5.39967,"is_reserved":false,"is_disabled":true,"rental_uris":{"android":"levelo://app?vid=fcb21ffd-21c0-4c39-84fb-c1a54fa2eb0d","ios":"levelo://app?vid=fcb21ffd-21c0-4c39-84fb-c1a54fa2eb0d"},"vehicle_type_id":"4","last_reported":1784818861,"current_range_meters":2000,"station_id":"ce4bh392rcd13ifvqdm0","pricing_plan_id":"cebpf4jnsgd1na2vs0mg"},{"bike_id":"dc9a3bf8-b2fa-49da-9b2b-ff4852fe2ab1","system_id":"levelo_inurba_marseille","lat":43.31691,"lon":5.40471,"is_reserved":false,"is_disabled":false,"rental_uris":{"android":"levelo://app?vid=dc9a3bf8-b2fa-49da-9b2b-ff4852fe2ab1","ios":"levelo://app?vid=dc9a3bf8-b2fa-49da-9b2b-ff4852fe2ab1"},"vehicle_type_id":"4","last_reported":1784818861,"current_range_meters":10800,"station_id":"ce4bh012rcd13ifvqd00","pricing_plan_id":"cebpf4jnsgd1na2vs0mg"},{"bike_id":"60642e41-7846-4e52-970a-e341fc6335ee","system_id":"levelo_inurba_marseille","lat":43.2931,"lon":5.37382,"is_reserved":false,"is_disabled":false,"rental_uris":{"android":"levelo://app?vid=60642e41-7846-4e52-970a-e341fc6335ee","ios":"levelo://app?vid=60642e41-7846-4e52-970a-e341fc6335ee"},"vehicle_type_id":"4","last_reported":1784818861,"current_range_meters":19200,"station_id":"","pricing_plan_id":"cebpf4jnsgd1na2vs0mg"},{"bike_id":"27e1e4c5-a07c-4ba9-9e46-007cc925fb39","system_id":"levelo_inurba_marseille","lat":43.25436,"lon":5.41638,"is_reserved":false,"is_disabled":false,"rental_uris":{"android":"levelo://app?vid=27e1e4c5-a07c-4ba9-9e46-007cc925fb39","ios":"levelo://app?vid=27e1e4c5-a07c-4ba9-9e46-007cc925fb39"},"vehicle_type_id":"4","last_reported":1784818861,"current_range_meters":7200,"station_id":"","pricing_plan_id":"cebpf4jnsgd1na2vs0mg"},{"bike_id":"edf62b16-4006-4c81-9c57-20873a175b5a","system_id":"levelo_inurba_marseille","lat":43.25579,"lon":5.38232,"is_reserved":false,"is_disabled":false,"rental_uris":{"android":"levelo://app?vid=edf62b16-4006-4c81-9c57-20873a175b5a","ios":"levelo://app?vid=edf62b16-4006-4c81-9c57-20873a175b5a"},"vehicle_type_id":"4","last_reported":1784818861,"current_range_meters":35600,"station_id":"ce4bhih2rcd13ifvqfs0","pricing_plan_id":"cebpf4jnsgd1na2vs0mg"},{"bike_id":"033eab5e-4885-4e3e-a926-9530624df4e6","system_id":"levelo_inurba_marseille","lat":43.29303,"lon":5.37459,"is_reserved":false,"is_disabled":false,"rental_uris":{"android":"levelo://app?vid=033eab5e-4885-4e3e-a926-9530624df4e6","ios":"levelo://app?vid=033eab5e-4885-4e3e-a926-9530624df4e6"},"vehicle_type_id":"4","last_reported":1784818861,"current_range_meters":10800,"station_id":"ce4bgi12rcd13ifvqb70","pricing_plan_id":"cebpf4jnsgd1na2vs0mg"},{"bike_id":"cd288035-eddb-4f42-a73e-3fa03a084ed5","system_id":"levelo_inurba_marseille","lat":43.265732,"lon":5.390492,"is_reserved":false,"is_disabled":true,"rental_uris":{"android":"levelo://app?vid=cd288035-eddb-4f42-a73e-3fa03a084ed5","ios":"levelo://app?vid=cd288035-eddb-4f42-a73e-3fa03a084ed5"},"vehicle_type_id":"4","last_reported":1784818861,"current_range_meters":33600,"station_id":"cpo3532slgdg3j2ikp40","pricing_plan_id":"cebpf4jnsgd1na2vs0mg"},{"bike_id":"75430e3e-d4f2-4add-9a14-f39c1f8d6d60","system_id":"levelo_inurba_marseille","lat":43.28272,"lon":5.35066,"is_reserved":false,"is_disabled":false,"rental_uris":{"android":"levelo://app?vid=75430e3e-d4f2-4add-9a14-f39c1f8d6d60","ios":"levelo://app?vid=75430e3e-d4f2-4add-9a14-f39c1f8d6d60"},"vehicle_type_id":"4","last_reported":1784818861,"current_range_meters":29600,"station_id":"ce4bhbp2rcd13ifvqerg","pricing_plan_id":"cebpf4jnsgd1na2vs0mg"},{"bike_id":"2f3c08d1-4cdc-4610-bf4b-5e5ab3853cf7","system_id":"levelo_inurba_marseille","lat":43.31491,"lon":5.39634,"is_reserved":false,"is_disabled":false,"rental_uris":{"android":"levelo://app?vid=2f3c08d1-4cdc-4610-bf4b-5e5ab3853cf7","ios":"levelo://app?vid=2f3c08d1-4cdc-4610-bf4b-5e5ab3853cf7"},"vehicle_type_id":"4","last_reported":1784818861,"current_range_meters":17600,"station_id":"","pricing_plan_id":"cebpf4jnsgd1na2vs0mg"},{"bike_id":"34a1c55a-1102-48d3-a5dd-6f39d56079ab","system_id":"levelo_inurba_marseille","lat":43.21752,"lon":5.34579,"is_reserved":false,"is_disabled":false,"rental_uris":{"android":"levelo://app?vid=34a1c55a-1102-48d3-a5dd-6f39d56079ab","ios":"levelo://app?vid=34a1c55a-1102-48d3-a5dd-6f39d56079ab"},"vehicle_type_id":"4","last_reported":1784818861,"current_range_meters":6400,"station_id":"st_cvj6r9ubvosntc0bgbag","pricing_plan_id":"cebpf4jnsgd1na2vs0mg"},{"bike_id":"f3119707-383c-45d4-a3de-ac51b621be5c","system_id":"levelo_inurba_marseille","lat":43.27061,"lon":5.38308,"is_reserved":false,"is_disabled":false,"rental_uris":{"android":"levelo://app?vid=f3119707-383c-45d4-a3de-ac51b621be5c","ios":"levelo://app?vid=f3119707-383c-45d4-a3de-ac51b621be5c"},"vehicle_type_id":"4","last_reported":1784818861,"current_range_meters":22400,"station_id":"st_d3n2fo6cfp8s73cte1j0","pricing_plan_id":"cebpf4jnsgd1na2vs0mg"},{"bike_id":"aab91fbb-25df-40d4-83fd-1c88c5001c1a","system_id":"levelo_inurba_marseille","lat":43.30972,"lon":5.39033,"is_reserved":false,"is_disabled":false,"rental_uris":{"android":"levelo://app?vid=aab91fbb-25df-40d4-83fd-1c88c5001c1a","ios":"levelo://app?vid=aab91fbb-25df-40d4-83fd-1c88c5001c1a"},"vehicle_type_id":"4","last_reported":1784818861,"current_range_meters":24800,"station_id":"ce4bgup2rcd13ifvqco0","pricing_plan_id":"cebpf4jnsgd1na2vs0mg"},{"bike_id":"4871f915-bca7-49ea-9398-4e2a69e50f8c","system_id":"levelo_inurba_marseille","lat":43.28416,"lon":5.34994,"is_reserved":false,"is_disabled":false,"rental_uris":{"android":"levelo://app?vid=4871f915-bca7-49ea-9398-4e2a69e50f8c","ios":"levelo://app?vid=4871f915-bca7-49ea-9398-4e2a69e50f8c"},"vehicle_type_id":"4","last_reported":1784818861,"current_range_meters":38800,"station_id":"ce4bhbh2rcd13ifvqepg","pricing_plan_id":"cebpf4jnsgd1na2vs0mg"},{"bike_id":"d1b66825-c158-457e-a6ca-20015eb28f13","system_id":"levelo_inurba_marseille","lat":43.33761,"lon":5.37474,"is_reserved":false,"is_disabled":false,"rental_uris":{"android":"levelo://app?vid=d1b66825-c158-457e-a6ca-20015eb28f13","ios":"levelo://app?vid=d1b66825-c158-457e-a6ca-20015eb28f13"},"vehicle_type_id":"4","last_reported":1784818861,"current_range_meters":12000,"station_id":"","pricing_plan_id":"cebpf4jnsgd1na2vs0mg"},{"bike_id":"c5032ade-04c2-4ad9-acd6-0c757f219d04","system_id":"levelo_inurba_marseille","lat":43.31901,"lon":5.36801,"is_reserved":false,"is_disabled":false,"rental_uris":{"android":"levelo://app?vid=c5032ade-04c2-4ad9-acd6-0c757f219d04","ios":"levelo://app?vid=c5032ade-04c2-4ad9-acd6-0c757f219d04"},"vehicle_type_id":"4","last_reported":1784818861,"current_range_meters":8400,"station_id":"st_d6o2h0d0559c73evc1b0","pricing_plan_id":"cebpf4jnsgd1na2vs0mg"},{"bike_id":"479a25b1-c1db-4e38-9802-13b8f5b183f0","system_id":"levelo_inurba_marseille","lat":43.28477,"lon":5.48398,"is_reserved":false,"is_disabled":false,"rental_uris":{"android":"levelo://app?vid=479a25b1-c1db-4e38-9802-13b8f5b183f0","ios":"levelo://app?vid=479a25b1-c1db-4e38-9802-13b8f5b183f0"},"vehicle_type_id":"4","last_reported":1784818861,"current_range_meters":27200,"station_id":"st_d3svhcjqgbts73a3dn0g","pricing_plan_id":"cebpf4jnsgd1na2vs0mg"},{"bike_id":"5ba3de10-889b-4152-aef4-4bff1e010d26","system_id":"levelo_inurba_marseille","lat":43.32116,"lon":5.36764,"is_reserved":false,"is_disabled":false,"rental_uris":{"android":"levelo://app?vid=5ba3de10-889b-4152-aef4-4bff1e010d26","ios":"levelo://app?vid=5ba3de10-889b-4152-aef4-4bff1e010d26"},"vehicle_type_id":"4","last_reported":1784818861,"current_range_meters":9200,"station_id":"ce4bhrh2rcd13ifvqhug","pricing_plan_id":"cebpf4jnsgd1na2vs0mg"},{"bike_id":"4a44625a-98e7-4ffe-9d7a-43dbdd22c4d2","system_id":"levelo_inurba_marseille","lat":43.31448,"lon":5.37381,"is_reserved":false,"is_disabled":false,"rental_uris":{"android":"levelo://app?vid=4a44625a-98e7-4ffe-9d7a-43dbdd22c4d2","ios":"levelo://app?vid=4a44625a-98e7-4ffe-9d7a-43dbdd22c4d2"},"vehicle_type_id":"4","last_reported":1784818861,"current_range_meters":24800,"station_id":"","pricing_plan_id":"cebpf4jnsgd1na2vs0mg"},{"bike_id":"0efcef29-102d-4c99-9588-0091c6994253","system_id":"levelo_inurba_marseille","lat":43.26195,"lon":5.3745,"is_reserved":false,"is_disabled":false,"rental_uris":{"android":"levelo://app?vid=0efcef29-102d-4c99-9588-0091c6994253","ios":"levelo://app?vid=0efcef29-102d-4c99-9588-0091c6994253"},"vehicle_type_id":"4","last_reported":1784818861,"current_range_meters":33600,"station_id":"ce4bhgp2rcd13ifvqfc0","pricing_plan_id":"cebpf4jnsgd1na2vs0mg"},{"bike_id":"cac81241-7b79-4481-b4e0-b48d9a604aab","system_id":"levelo_inurba_marseille","lat":43.28947,"lon":5.36635,"is_reserved":false,"is_disabled":true,"rental_uris":{"android":"levelo://app?vid=cac81241-7b79-4481-b4e0-b48d9a604aab","ios":"levelo://app?vid=cac81241-7b79-4481-b4e0-b48d9a604aab"},"vehicle_type_id":"4","last_reported":1784818861,"current_range_meters":1200,"station_id":"ce4bhap2rcd13ifvqek0","pricing_plan_id":"cebpf4jnsgd1na2vs0mg"},{"bike_id":"5a9abbc8-0280-47d8-900a-029568d5f37c","system_id":"levelo_inurba_marseille","lat":43.32415,"lon":5.42705,"is_reserved":false,"is_disabled":false,"rental_uris":{"android":"levelo://app?vid=5a9abbc8-0280-47d8-900a-029568d5f37c","ios":"levelo://app?vid=5a9abbc8-0280-47d8-900a-029568d5f37c"},"vehicle_type_id":"4","last_reported":1784818861,"current_range_meters":16800,"station_id":"","pricing_plan_id":"cebpf4jnsgd1na2vs0mg"},{"bike_id":"b74198f4-1d24-4fc2-97fc-08e148c570e0","system_id":"levelo_inurba_marseille","lat":43.28988,"lon":5.35604,"is_reserved":false,"is_disabled":false,"rental_uris":{"android":"levelo://app?vid=b74198f4-1d24-4fc2-97fc-08e148c570e0","ios":"levelo://app?vid=b74198f4-1d24-4fc2-97fc-08e148c570e0"},"vehicle_type_id":"4","last_reported":1784818861,"current_range_meters":30400,"station_id":"ce4bhb92rcd13ifvqen0","pricing_plan_id":"cebpf4jnsgd1na2vs0mg"},{"bike_id":"cc8568ab-2679-4305-9add-20ef1e360289","system_id":"levelo_inurba_marseille","lat":43.33784,"lon":5.37518,"is_reserved":false,"is_disabled":false,"rental_uris":{"android":"levelo://app?vid=cc8568ab-2679-4305-9add-20ef1e360289","ios":"levelo://app?vid=cc8568ab-2679-4305-9add-20ef1e360289"},"vehicle_type_id":"4","last_reported":1784818861,"current_range_meters":30000,"station_id":"","pricing_plan_id":"cebpf4jnsgd1na2vs0mg"},{"bike_id":"581ff5ff-50de-4c90-83bd-3cb952512c0b","system_id":"levelo_inurba_marseille","lat":43.30553,"lon":5.36726,"is_reserved":false,"is_disabled":false,"rental_uris":{"android":"levelo://app?vid=581ff5ff-50de-4c90-83bd-3cb952512c0b","ios":"levelo://app?vid=581ff5ff-50de-4c90-83bd-3cb952512c0b"},"vehicle_type_id":"4","last_reported":1784818861,"current_range_meters":39200,"station_id":"ce4bgrp2rcd13ifvqc9g","pricing_plan_id":"cebpf4jnsgd1na2vs0mg"},{"bike_id":"80f2fcef-357e-49cd-aa72-dbf1de6d4695","system_id":"levelo_inurba_marseille","lat":43.31903,"lon":5.368,"is_reserved":false,"is_disabled":false,"rental_uris":{"android":"levelo://app?vid=80f2fcef-357e-49cd-aa72-dbf1de6d4695","ios":"levelo://app?vid=80f2fcef-357e-49cd-aa72-dbf1de6d4695"},"vehicle_type_id":"4","last_reported":1784818861,"current_range_meters":14800,"station_id":"st_d6o2h0d0559c73evc1b0","pricing_plan_id":"cebpf4jnsgd1na2vs0mg"},{"bike_id":"6a7ee0de-6b8a-46df-bd54-87158bd72b30","system_id":"levelo_inurba_marseille","lat":43.30567,"lon":5.36548,"is_reserved":false,"is_disabled":false,"rental_uris":{"android":"levelo://app?vid=6a7ee0de-6b8a-46df-bd54-87158bd72b30","ios":"levelo://app?vid=6a7ee0de-6b8a-46df-bd54-87158bd72b30"},"vehicle_type_id":"4","last_reported":1784818861,"current_range_meters":12800,"station_id":"ce4bgs12rcd13ifvqcag","pricing_plan_id":"cebpf4jnsgd1na2vs0mg"},{"bike_id":"f8243129-26e3-4009-a678-84f35758802d","system_id":"levelo_inurba_marseille","lat":43.26218,"lon":5.37433,"is_reserved":false,"is_disabled":false,"rental_uris":{"android":"levelo://app?vid=f8243129-26e3-4009-a678-84f35758802d","ios":"levelo://app?vid=f8243129-26e3-4009-a678-84f35758802d"},"vehicle_type_id":"4","last_reported":1784818861,"current_range_meters":17600,"station_id":"ce4bhgp2rcd13ifvqfc0","pricing_plan_id":"cebpf4jnsgd1na2vs0mg"},{"bike_id":"aec9aabb-6a78-4988-af6e-9b2a96256088","system_id":"levelo_inurba_marseille","lat":43.282314,"lon":5.390829,"is_reserved":false,"is_disabled":true,"rental_uris":{"android":"levelo://app?vid=aec9aabb-6a78-4988-af6e-9b2a96256088","ios":"levelo://app?vid=aec9aabb-6a78-4988-af6e-9b2a96256088"},"vehicle_type_id":"4","last_reported":1784818861,"current_range_meters":0,"station_id":"ce4bhn92rcd13ifvqgsg","pricing_plan_id":"cebpf4jnsgd1na2vs0mg"},{"bike_id":"fb707b3f-70f9-4d15-ad75-53d4224fa515","system_id":"levelo_inurba_marseille","lat":43.27433,"lon":5.3909,"is_reserved":false,"is_disabled":false,"rental_uris":{"android":"levelo://app?vid=fb707b3f-70f9-4d15-ad75-53d4224fa515","ios":"levelo://app?vid=fb707b3f-70f9-4d15-ad75-53d4224fa515"},"vehicle_type_id":"4","last_reported":1784818861,"current_range_meters":36800,"station_id":"","pricing_plan_id":"cebpf4jnsgd1na2vs0mg"},{"bike_id":"a8839053-2b32-40a0-97a0-123708f56612","system_id":"levelo_inurba_marseille","lat":43.29764,"lon":5.42781,"is_reserved":false,"is_disabled":false,"rental_uris":{"android":"levelo://app?vid=a8839053-2b32-40a0-97a0-123708f56612","ios":"levelo://app?vid=a8839053-2b32-40a0-97a0-123708f56612"},"vehicle_type_id":"4","last_reported":1784818861,"current_range_meters":6000,"station_id":"st_d3md5207bmas73dh9klg","pricing_plan_id":"cebpf4jnsgd1na2vs0mg"},{"bike_id":"24562537-d892-46b0-8d1f-b9806d00c57d","system_id":"levelo_inurba_marseille","lat":43.29628,"lon":5.37127,"is_reserved":false,"is_disabled":true,"rental_uris":{"android":"levelo://app?vid=24562537-d892-46b0-8d1f-b9806d00c57d","ios":"levelo://app?vid=24562537-d892-46b0-8d1f-b9806d00c57d"},"vehicle_type_id":"4","last_reported":1784818861,"current_range_meters":22000,"station_id":"","pricing_plan_id":"cebpf4jnsgd1na2vs0mg"},{"bike_id":"e015e5c9-ebed-4131-a7b0-2d4efe0168fe","system_id":"levelo_inurba_marseille","lat":43.30187,"lon":5.36605,"is_reserved":false,"is_disabled":false,"rental_uris":{"android":"levelo://app?vid=e015e5c9-ebed-4131-a7b0-2d4efe0168fe","ios":"levelo://app?vid=e015e5c9-ebed-4131-a7b0-2d4efe0168fe"},"vehicle_type_id":"4","last_reported":1784818861,"current_range_meters":39200,"station_id":"ce4bgrh2rcd13ifvqc8g","pricing_plan_id":"cebpf4jnsgd1na2vs0mg"},{"bike_id":"135f9956-166b-4a62-adb7-6f99e0b07d81","system_id":"levelo_inurba_marseille","lat":43.30968,"lon":5.39334,"is_reserved":false,"is_disabled":false,"rental_uris":{"android":"levelo://app?vid=135f9956-166b-4a62-adb7-6f99e0b07d81","ios":"levelo://app?vid=135f9956-166b-4a62-adb7-6f99e0b07d81"},"vehicle_type_id":"4","last_reported":1784818861,"current_range_meters":24800,"station_id":"","pricing_plan_id":"cebpf4jnsgd1na2vs0mg"},{"bike_id":"c6339b14-6408-4f1f-9334-32c118625fc1","system_id":"levelo_inurba_marseille","lat":43.29491,"lon":5.43292,"is_reserved":false,"is_disabled":false,"rental_uris":{"android":"levelo://app?vid=c6339b14-6408-4f1f-9334-32c118625fc1","ios":"levelo://app?vid=c6339b14-6408-4f1f-9334-32c118625fc1"},"vehicle_type_id":"4","last_reported":1784818861,"current_range_meters":16800,"station_id":"st_d3j5ugp08ojc73fj9d10","pricing_plan_id":"cebpf4jnsgd1na2vs0mg"},{"bike_id":"d38ebdde-0622-43e7-bed6-29e42a00bf22","system_id":"levelo_inurba_marseille","lat":43.33771,"lon":5.37488,"is_reserved":false,"is_disabled":false,"rental_uris":{"android":"levelo://app?vid=d38ebdde-0622-43e7-bed6-29e42a00bf22","ios":"levelo://app?vid=d38ebdde-0622-43e7-bed6-29e42a00bf22"},