{"last_updated":1712959563,"ttl":30,"version":"2.2","data":{"bikes":[{"bike_id":"babdc7bd-50ef-41ab-b073-151a457b3406","system_id":"levelo_inurba_marseille","lat":43.3135,"lon":5.36722,"is_reserved":false,"is_disabled":false,"rental_uris":{"android":"levelo://app?vid=babdc7bd-50ef-41ab-b073-151a457b3406","ios":"levelo://app?vid=babdc7bd-50ef-41ab-b073-151a457b3406"},"vehicle_type_id":"4","last_reported":1712959563,"current_range_meters":30000,"station_id":"ce4bgr92rcd13ifvqc6g","pricing_plan_id":"cebpf4jnsgd1na2vs0mg"},{"bike_id":"6f3a003d-1850-496f-8b9e-dca37e3c4a9b","system_id":"levelo_inurba_marseille","lat":43.312239,"lon":5.368562,"is_reserved":false,"is_disabled":false,"rental_uris":{"android":"levelo://app?vid=6f3a003d-1850-496f-8b9e-dca37e3c4a9b","ios":"levelo://app?vid=6f3a003d-1850-496f-8b9e-dca37e3c4a9b"},"vehicle_type_id":"4","last_reported":1712959563,"current_range_meters":16000,"station_id":"ce4bgl92rcd13ifvqbq0","pricing_plan_id":"cebpf4jnsgd1na2vs0mg"},{"bike_id":"4f2cb617-2eae-4bdc-9a66-53c201731508","system_id":"levelo_inurba_marseille","lat":43.312239,"lon":5.368562,"is_reserved":false,"is_disabled":false,"rental_uris":{"android":"levelo://app?vid=4f2cb617-2eae-4bdc-9a66-53c201731508","ios":"levelo://app?vid=4f2cb617-2eae-4bdc-9a66-53c201731508"},"vehicle_type_id":"4","last_reported":1712959563,"current_range_meters":5600,"station_id":"ce4bgl92rcd13ifvqbq0","pricing_plan_id":"cebpf4jnsgd1na2vs0mg"},{"bike_id":"91379bab-1df1-4cc1-b25d-7242bd44210b","system_id":"levelo_inurba_marseille","lat":43.30896,"lon":5.36852,"is_reserved":false,"is_disabled":false,"rental_uris":{"android":"levelo://app?vid=91379bab-1df1-4cc1-b25d-7242bd44210b","ios":"levelo://app?vid=91379bab-1df1-4cc1-b25d-7242bd44210b"},"vehicle_type_id":"4","last_reported":1712959563,"current_range_meters":24400,"station_id":"ce4bgn92rcd13ifvqbvg","pricing_plan_id":"cebpf4jnsgd1na2vs0mg"},{"bike_id":"04fc95c0-a701-4c07-975c-b178e3e22661","system_id":"levelo_inurba_marseille","lat":43.314811,"lon":5.373103,"is_reserved":false,"is_disabled":false,"rental_uris":{"android":"levelo://app?vid=04fc95c0-a701-4c07-975c-b178e3e22661","ios":"levelo://app?vid=04fc95c0-a701-4c07-975c-b178e3e22661"},"vehicle_type_id":"4","last_reported":1712959563,"current_range_meters":2800,"station_id":"ce4bgt12rcd13ifvqcd0","pricing_plan_id":"cebpf4jnsgd1na2vs0mg"},{"bike_id":"899920dc-48a6-4985-a629-42a8251c9d5e","system_id":"levelo_inurba_marseille","lat":43.314811,"lon":5.373104,"is_reserved":false,"is_disabled":false,"rental_uris":{"android":"levelo://app?vid=899920dc-48a6-4985-a629-42a8251c9d5e","ios":"levelo://app?vid=899920dc-48a6-4985-a629-42a8251c9d5e"},"vehicle_type_id":"4","last_reported":1712959563,"current_range_meters":9600,"station_id":"ce4bgt12rcd13ifvqcd0","pricing_plan_id":"cebpf4jnsgd1na2vs0mg"},{"bike_id":"fd723cf2-02d2-4acf-a6ad-ec589e1b36cb","system_id":"levelo_inurba_marseille","lat":43.314811,"lon":5.373103,"is_reserved":false,"is_disabled":false,"rental_uris":{"android":"levelo://app?vid=fd723cf2-02d2-4acf-a6ad-ec589e1b36cb","ios":"levelo://app?vid=fd723cf2-02d2-4acf-a6ad-ec589e1b36cb"},"vehicle_type_id":"4","last_reported":1712959563,"current_range_meters":20400,"station_id":"ce4bgt12rcd13ifvqcd0","pricing_plan_id":"cebpf4jnsgd1na2vs0mg"},{"bike_id":"f9488a60-9b71-4f49-b094-f1994feecbce","system_id":"levelo_inurba_marseille","lat":43.314811,"lon":5.373104,"is_reserved":false,"is_disabled":false,"rental_uris":{"android":"levelo://app?vid=f9488a60-9b71-4f49-b094-f1994feecbce","ios":"levelo://app?vid=f9488a60-9b71-4f49-b094-f1994feecbce"},"vehicle_type_id":"4","last_reported":1712959563,"current_range_meters":26000,"station_id":"ce4bgt12rcd13ifvqcd0","pricing_plan_id":"cebpf4jnsgd1na2vs0mg"},{"bike_id":"beec4b5c-fe85-4262-98e1-d73c91d66eda","system_id":"levelo_inurba_marseille","lat":43.295279,"lon":5.375048,"is_reserved":false,"is_disabled":false,"rental_uris":{"android":"levelo://app?vid=beec4b5c-fe85-4262-98e1-d73c91d66eda","ios":"levelo://app?vid=beec4b5c-fe85-4262-98e1-d73c91d66eda"},"vehicle_type_id":"4","last_reported":1712959563,"current_range_meters":18800,"station_id":"ce4bgkp2rcd13ifvqbmg","pricing_plan_id":"cebpf4jnsgd1na2vs0mg"},{"bike_id":"b9755523-3470-4ede-abf3-86d31535626e","system_id":"levelo_inurba_marseille","lat":43.309039,"lon":5.371797,"is_reserved":false,"is_disabled":false,"rental_uris":{"android":"levelo://app?vid=b9755523-3470-4ede-abf3-86d31535626e","ios":"levelo://app?vid=b9755523-3470-4ede-abf3-86d31535626e"},"vehicle_type_id":"4","last_reported":1712959563,"current_range_meters":20400,"station_id":"ce4bguh2rcd13ifvqckg","pricing_plan_id":"cebpf4jnsgd1na2vs0mg"},{"bike_id":"791520fc-0a3c-4c5f-9a7c-5c44b51f224c","system_id":"levelo_inurba_marseille","lat":43.305989,"lon":5.37225,"is_reserved":false,"is_disabled":false,"rental_uris":{"android":"levelo://app?vid=791520fc-0a3c-4c5f-9a7c-5c44b51f224c","ios":"levelo://app?vid=791520fc-0a3c-4c5f-9a7c-5c44b51f224c"},"vehicle_type_id":"4","last_reported":1712959563,"current_range_meters":19600,"station_id":"ce4bgqh2rcd13ifvqc4g","pricing_plan_id":"cebpf4jnsgd1na2vs0mg"},{"bike_id":"a8fd5182-cb55-490b-8c45-e4f748f599e1","system_id":"levelo_inurba_marseille","lat":43.305989,"lon":5.37225,"is_reserved":false,"is_disabled":false,"rental_uris":{"android":"levelo://app?vid=a8fd5182-cb55-490b-8c45-e4f748f599e1","ios":"levelo://app?vid=a8fd5182-cb55-490b-8c45-e4f748f599e1"},"vehicle_type_id":"4","last_reported":1712959563,"current_range_meters":25200,"station_id":"ce4bgqh2rcd13ifvqc4g","pricing_plan_id":"cebpf4jnsgd1na2vs0mg"},{"bike_id":"72a02248-bc02-4638-bec0-eb486aa8c3b3","system_id":"levelo_inurba_marseille","lat":43.305989,"lon":5.37225,"is_reserved":false,"is_disabled":false,"rental_uris":{"android":"levelo://app?vid=72a02248-bc02-4638-bec0-eb486aa8c3b3","ios":"levelo://app?vid=72a02248-bc02-4638-bec0-eb486aa8c3b3"},"vehicle_type_id":"4","last_reported":1712959563,"current_range_meters":18400,"station_id":"ce4bgqh2rcd13ifvqc4g","pricing_plan_id":"cebpf4jnsgd1na2vs0mg"},{"bike_id":"83bd4b76-ae7a-4d8f-a788-184c903b601b","system_id":"levelo_inurba_marseille","lat":43.3112,"lon":5.37751,"is_reserved":false,"is_disabled":false,"rental_uris":{"android":"levelo://app?vid=83bd4b76-ae7a-4d8f-a788-184c903b601b","ios":"levelo://app?vid=83bd4b76-ae7a-4d8f-a788-184c903b601b"},"vehicle_type_id":"4","last_reported":1712959563,"current_range_meters":0,"station_id":"ce4bgt92rcd13ifvqcg0","pricing_plan_id":"cebpf4jnsgd1na2vs0mg"},{"bike_id":"0f5431f2-108a-44aa-ab51-04c11fa2afe3","system_id":"levelo_inurba_marseille","lat":43.305989,"lon":5.37225,"is_reserved":false,"is_disabled":false,"rental_uris":{"android":"levelo://app?vid=0f5431f2-108a-44aa-ab51-04c11fa2afe3","ios":"levelo://app?vid=0f5431f2-108a-44aa-ab51-04c11fa2afe3"},"vehicle_type_id":"4","last_reported":1712959563,"current_range_meters":26400,"station_id":"ce4bgqh2rcd13ifvqc4g","pricing_plan_id":"cebpf4jnsgd1na2vs0mg"},{"bike_id":"e0018b7f-54f4-4dde-8c85-ad1a0b22d389","system_id":"levelo_inurba_marseille","lat":43.311125,"lon":5.377624,"is_reserved":false,"is_disabled":false,"rental_uris":{"android":"levelo://app?vid=e0018b7f-54f4-4dde-8c85-ad1a0b22d389","ios":"levelo://app?vid=e0018b7f-54f4-4dde-8c85-ad1a0b22d389"},"vehicle_type_id":"4","last_reported":1712959563,"current_range_meters":24000,"station_id":"ce4bgt92rcd13ifvqcg0","pricing_plan_id":"cebpf4jnsgd1na2vs0mg"},{"bike_id":"cef2a3c0-50d0-42ff-9db2-76846bc804bb","system_id":"levelo_inurba_marseille","lat":43.317075,"lon":5.377367,"is_reserved":false,"is_disabled":false,"rental_uris":{"android":"levelo://app?vid=cef2a3c0-50d0-42ff-9db2-76846bc804bb","ios":"levelo://app?vid=cef2a3c0-50d0-42ff-9db2-76846bc804bb"},"vehicle_type_id":"4","last_reported":1712959563,"current_range_meters":22800,"station_id":"ce4bgth2rcd13ifvqch0","pricing_plan_id":"cebpf4jnsgd1na2vs0mg"},{"bike_id":"2fb173af-21d6-4aa4-8408-170fd4a5fc6e","system_id":"levelo_inurba_marseille","lat":43.317075,"lon":5.377367,"is_reserved":false,"is_disabled":false,"rental_uris":{"android":"levelo://app?vid=2fb173af-21d6-4aa4-8408-170fd4a5fc6e","ios":"levelo://app?vid=2fb173af-21d6-4aa4-8408-170fd4a5fc6e"},"vehicle_type_id":"4","last_reported":1712959563,"current_range_meters":0,"station_id":"ce4bgth2rcd13ifvqch0","pricing_plan_id":"cebpf4jnsgd1na2vs0mg"},{"bike_id":"ab092707-6cdb-4e4e-b4a8-d9503144bb0e","system_id":"levelo_inurba_marseille","lat":43.303046,"lon":5.368981,"is_reserved":false,"is_disabled":false,"rental_uris":{"android":"levelo://app?vid=ab092707-6cdb-4e4e-b4a8-d9503144bb0e","ios":"levelo://app?vid=ab092707-6cdb-4e4e-b4a8-d9503144bb0e"},"vehicle_type_id":"4","last_reported":1712959563,"current_range_meters":10400,"station_id":"ce4bgqh2rcd13ifvqc5g","pricing_plan_id":"cebpf4jnsgd1na2vs0mg"},{"bike_id":"5c2c0f73-b33e-4a14-b954-291dad653009","system_id":"levelo_inurba_marseille","lat":43.303046,"lon":5.368981,"is_reserved":false,"is_disabled":false,"rental_uris":{"android":"levelo://app?vid=5c2c0f73-b33e-4a14-b954-291dad653009","ios":"levelo://app?vid=5c2c0f73-b33e-4a14-b954-291dad653009"},"vehicle_type_id":"4","last_reported":1712959563,"current_range_meters":6000,"station_id":"ce4bgqh2rcd13ifvqc5g","pricing_plan_id":"cebpf4jnsgd1na2vs0mg"},{"bike_id":"9257eeab-72e1-4bee-9fa8-a3bf20d1fb4f","system_id":"levelo_inurba_marseille","lat":43.303085,"lon":5.369075,"is_reserved":false,"is_disabled":false,"rental_uris":{"android":"levelo://app?vid=9257eeab-72e1-4bee-9fa8-a3bf20d1fb4f","ios":"levelo://app?vid=9257eeab-72e1-4bee-9fa8-a3bf20d1fb4f"},"vehicle_type_id":"4","last_reported":1712959563,"current_range_meters":0,"station_id":"ce4bgqh2rcd13ifvqc5g","pricing_plan_id":"cebpf4jnsgd1na2vs0mg"},{"bike_id":"f070d8aa-1508-4b8c-813c-a50fc1a652cd","system_id":"levelo_inurba_marseille","lat":43.303046,"lon":5.368981,"is_reserved":false,"is_disabled":false,"rental_uris":{"android":"levelo://app?vid=f070d8aa-1508-4b8c-813c-a50fc1a652cd","ios":"levelo://app?vid=f070d8aa-1508-4b8c-813c-a50fc1a652cd"},"vehicle_type_id":"4","last_reported":1712959563,"current_range_meters":800,"station_id":"ce4bgqh2rcd13ifvqc5g","pricing_plan_id":"cebpf4jnsgd1na2vs0mg"},{"bike_id":"1891bf6d-5c7b-4b2d-a248-2274907f203f","system_id":"levelo_inurba_marseille","lat":43.30304,"lon":5.368987,"is_reserved":false,"is_disabled":false,"rental_uris":{"android":"levelo://app?vid=1891bf6d-5c7b-4b2d-a248-2274907f203f","ios":"levelo://app?vid=1891bf6d-5c7b-4b2d-a248-2274907f203f"},"vehicle_type_id":"4","last_reported":1712959563,"current_range_meters":800,"station_id":"ce4bgqh2rcd13ifvqc5g","pricing_plan_id":"cebpf4jnsgd1na2vs0mg"},{"bike_id":"ee33f0e5-d53a-427e-a1e3-370af0cb7b5e","system_id":"levelo_inurba_marseille","lat":43.315289,"lon":5.380349,"is_reserved":false,"is_disabled":false,"rental_uris":{"android":"levelo://app?vid=ee33f0e5-d53a-427e-a1e3-370af0cb7b5e","ios":"levelo://app?vid=ee33f0e5-d53a-427e-a1e3-370af0cb7b5e"},"vehicle_type_id":"4","last_reported":1712959563,"current_range_meters":26000,"station_id":"ce4bhsp2rcd13ifvqi50","pricing_plan_id":"cebpf4jnsgd1na2vs0mg"},{"bike_id":"ee7d43e3-45f1-4b3f-a000-d09ea3d6050d","system_id":"levelo_inurba_marseille","lat":43.315293,"lon":5.380349,"is_reserved":false,"is_disabled":false,"rental_uris":{"android":"levelo://app?vid=ee7d43e3-45f1-4b3f-a000-d09ea3d6050d","ios":"levelo://app?vid=ee7d43e3-45f1-4b3f-a000-d09ea3d6050d"},"vehicle_type_id":"4","last_reported":1712959563,"current_range_meters":28800,"station_id":"ce4bhsp2rcd13ifvqi50","pricing_plan_id":"cebpf4jnsgd1na2vs0mg"},{"bike_id":"d6cdb64f-8c12-489b-bb97-8998b5f5a15e","system_id":"levelo_inurba_marseille","lat":43.315289,"lon":5.380349,"is_reserved":false,"is_disabled":false,"rental_uris":{"android":"levelo://app?vid=d6cdb64f-8c12-489b-bb97-8998b5f5a15e","ios":"levelo://app?vid=d6cdb64f-8c12-489b-bb97-8998b5f5a15e"},"vehicle_type_id":"4","last_reported":1712959563,"current_range_meters":22800,"station_id":"ce4bhsp2rcd13ifvqi50","pricing_plan_id":"cebpf4jnsgd1na2vs0mg"},{"bike_id":"e696077d-353f-4097-ba68-132fb342d4ab","system_id":"levelo_inurba_marseille","lat":43.315293,"lon":5.380349,"is_reserved":false,"is_disabled":false,"rental_uris":{"android":"levelo://app?vid=e696077d-353f-4097-ba68-132fb342d4ab","ios":"levelo://app?vid=e696077d-353f-4097-ba68-132fb342d4ab"},"vehicle_type_id":"4","last_reported":1712959563,"current_range_meters":22800,"station_id":"ce4bhsp2rcd13ifvqi50","pricing_plan_id":"cebpf4jnsgd1na2vs0mg"},{"bike_id":"c973c696-6cf3-4ef6-9922-20142626237f","system_id":"levelo_inurba_marseille","lat":43.30282,"lon":5.37259,"is_reserved":false,"is_disabled":false,"rental_uris":{"android":"levelo://app?vid=c973c696-6cf3-4ef6-9922-20142626237f","ios":"levelo://app?vid=c973c696-6cf3-4ef6-9922-20142626237f"},"vehicle_type_id":"4","last_reported":1712959563,"current_range_meters":17600,"station_id":"","pricing_plan_id":"cebpf4jnsgd1na2vs0mg"},{"bike_id":"55d280b3-3edf-424d-a072-33a765b43467","system_id":"levelo_inurba_marseille","lat":43.301939,"lon":5.366286,"is_reserved":false,"is_disabled":false,"rental_uris":{"android":"levelo://app?vid=55d280b3-3edf-424d-a072-33a765b43467","ios":"levelo://app?vid=55d280b3-3edf-424d-a072-33a765b43467"},"vehicle_type_id":"4","last_reported":1712959563,"current_range_meters":0,"station_id":"ce4bgrh2rcd13ifvqc8g","pricing_plan_id":"cebpf4jnsgd1na2vs0mg"},{"bike_id":"6d13ec11-e1e0-42b0-8f91-8cae06a30db1","system_id":"levelo_inurba_marseille","lat":43.308012,"lon":5.381511,"is_reserved":false,"is_disabled":false,"rental_uris":{"android":"levelo://app?vid=6d13ec11-e1e0-42b0-8f91-8cae06a30db1","ios":"levelo://app?vid=6d13ec11-e1e0-42b0-8f91-8cae06a30db1"},"vehicle_type_id":"4","last_reported":1712959563,"current_range_meters":21600,"station_id":"ce4bgt12rcd13ifvqce0","pricing_plan_id":"cebpf4jnsgd1na2vs0mg"},{"bike_id":"a6199b73-4eb8-4240-a822-557ad7a4dd13","system_id":"levelo_inurba_marseille","lat":43.308107,"lon":5.381535,"is_reserved":false,"is_disabled":false,"rental_uris":{"android":"levelo://app?vid=a6199b73-4eb8-4240-a822-557ad7a4dd13","ios":"levelo://app?vid=a6199b73-4eb8-4240-a822-557ad7a4dd13"},"vehicle_type_id":"4","last_reported":1712959563,"current_range_meters":0,"station_id":"ce4bgt12rcd13ifvqce0","pricing_plan_id":"cebpf4jnsgd1na2vs0mg"},{"bike_id":"046c142b-9895-44f6-9cf2-4a5af3bac296","system_id":"levelo_inurba_marseille","lat":43.30804,"lon":5.38157,"is_reserved":false,"is_disabled":false,"rental_uris":{"android":"levelo://app?vid=046c142b-9895-44f6-9cf2-4a5af3bac296","ios":"levelo://app?vid=046c142b-9895-44f6-9cf2-4a5af3bac296"},"vehicle_type_id":"4","last_reported":1712959563,"current_range_meters":21200,"station_id":"ce4bgt12rcd13ifvqce0","pricing_plan_id":"cebpf4jnsgd1na2vs0mg"},{"bike_id":"db9aa382-b08a-440a-9a3a-9984bf072423","system_id":"levelo_inurba_marseille","lat":43.30809,"lon":5.38162,"is_reserved":false,"is_disabled":false,"rental_uris":{"android":"levelo://app?vid=db9aa382-b08a-440a-9a3a-9984bf072423","ios":"levelo://app?vid=db9aa382-b08a-440a-9a3a-9984bf072423"},"vehicle_type_id":"4","last_reported":1712959563,"current_range_meters":800,"station_id":"ce4bgt12rcd13ifvqce0","pricing_plan_id":"cebpf4jnsgd1na2vs0mg"},{"bike_id":"1eb69a65-b0a8-4ce5-a14f-f8a08c966a6f","system_id":"levelo_inurba_marseille","lat":43.324771,"lon":5.36557,"is_reserved":false,"is_disabled":false,"rental_uris":{"android":"levelo://app?vid=1eb69a65-b0a8-4ce5-a14f-f8a08c966a6f","ios":"levelo://app?vid=1eb69a65-b0a8-4ce5-a14f-f8a08c966a6f"},"vehicle_type_id":"4","last_reported":1712959563,"current_range_meters":22000,"station_id":"ce4bhs12rcd13ifvqhvg","pricing_plan_id":"cebpf4jnsgd1na2vs0mg"},{"bike_id":"6fcac34d-4b8b-4ea1-8b39-2196ca6d95b7","system_id":"levelo_inurba_marseille","lat":43.324771,"lon":5.36557,"is_reserved":false,"is_disabled":false,"rental_uris":{"android":"levelo://app?vid=6fcac34d-4b8b-4ea1-8b39-2196ca6d95b7","ios":"levelo://app?vid=6fcac34d-4b8b-4ea1-8b39-2196ca6d95b7"},"vehicle_type_id":"4","last_reported":1712959563,"current_range_meters":5600,"station_id":"ce4bhs12rcd13ifvqhvg","pricing_plan_id":"cebpf4jnsgd1na2vs0mg"},{"bike_id":"307082cd-38ec-4e2f-958c-a7ba81ca511b","system_id":"levelo_inurba_marseille","lat":43.324771,"lon":5.36557,"is_reserved":false,"is_disabled":false,"rental_uris":{"android":"levelo://app?vid=307082cd-38ec-4e2f-958c-a7ba81ca511b","ios":"levelo://app?vid=307082cd-38ec-4e2f-958c-a7ba81ca511b"},"vehicle_type_id":"4","last_reported":1712959563,"current_range_meters":5200,"station_id":"ce4bhs12rcd13ifvqhvg","pricing_plan_id":"cebpf4jnsgd1na2vs0mg"},{"bike_id":"79dd9bb3-f3e0-4123-95b1-2c96af192671","system_id":"levelo_inurba_marseille","lat":43.324771,"lon":5.36557,"is_reserved":false,"is_disabled":false,"rental_uris":{"android":"levelo://app?vid=79dd9bb3-f3e0-4123-95b1-2c96af192671","ios":"levelo://app?vid=79dd9bb3-f3e0-4123-95b1-2c96af192671"},"vehicle_type_id":"4","last_reported":1712959563,"current_range_meters":15200,"station_id":"ce4bhs12rcd13ifvqhvg","pricing_plan_id":"cebpf4jnsgd1na2vs0mg"},{"bike_id":"aab8218e-5ae5-4259-8cfc-82eea594431c","system_id":"levelo_inurba_marseille","lat":43.324771,"lon":5.36557,"is_reserved":false,"is_disabled":false,"rental_uris":{"android":"levelo://app?vid=aab8218e-5ae5-4259-8cfc-82eea594431c","ios":"levelo://app?vid=aab8218e-5ae5-4259-8cfc-82eea594431c"},"vehicle_type_id":"4","last_reported":1712959563,"current_range_meters":11600,"station_id":"ce4bhs12rcd13ifvqhvg","pricing_plan_id":"cebpf4jnsgd1na2vs0mg"},{"bike_id":"406f8cf3-b998-4d87-940f-3c54279d6cff","system_id":"levelo_inurba_marseille","lat":43.310804,"lon":5.38359,"is_reserved":false,"is_disabled":false,"rental_uris":{"android":"levelo://app?vid=406f8cf3-b998-4d87-940f-3c54279d6cff","ios":"levelo://app?vid=406f8cf3-b998-4d87-940f-3c54279d6cff"},"vehicle_type_id":"4","last_reported":1712959563,"current_range_meters":9600,"station_id":"ce4bgv92rcd13ifvqcr0","pricing_plan_id":"cebpf4jnsgd1na2vs0mg"},{"bike_id":"342b1a87-efe3-4691-a702-219fd4edfacb","system_id":"levelo_inurba_marseille","lat":43.324771,"lon":5.36557,"is_reserved":false,"is_disabled":false,"rental_uris":{"android":"levelo://app?vid=342b1a87-efe3-4691-a702-219fd4edfacb","ios":"levelo://app?vid=342b1a87-efe3-4691-a702-219fd4edfacb"},"vehicle_type_id":"4","last_reported":1712959563,"current_range_meters":0,"station_id":"ce4bhs12rcd13ifvqhvg","pricing_plan_id":"cebpf4jnsgd1na2vs0mg"},{"bike_id":"8233e652-c11d-4da5-8d18-f06b3c5caa11","system_id":"levelo_inurba_marseille","lat":43.324771,"lon":5.36557,"is_reserved":false,"is_disabled":false,"rental_uris":{"android":"levelo://app?vid=8233e652-c11d-4da5-8d18-f06b3c5caa11","ios":"levelo://app?vid=8233e652-c11d-4da5-8d18-f06b3c5caa11"},"vehicle_type_id":"4","last_reported":1712959563,"current_range_meters":10400,"station_id":"ce4bhs12rcd13ifvqhvg","pricing_plan_id":"cebpf4jnsgd1na2vs0mg"},{"bike_id":"87dca84b-0cb4-478f-b488-590b97d2ee57","system_id":"levelo_inurba_marseille","lat":43.31069,"lon":5.3835,"is_reserved":false,"is_disabled":false,"rental_uris":{"android":"levelo://app?vid=87dca84b-0cb4-478f-b488-590b97d2ee57","ios":"levelo://app?vid=87dca84b-0cb4-478f-b488-590b97d2ee57"},"vehicle_type_id":"4","last_reported":1712959563,"current_range_meters":27200,"station_id":"ce4bgv92rcd13ifvqcr0","pricing_plan_id":"cebpf4jnsgd1na2vs0mg"},{"bike_id":"2a113697-1780-4128-94ad-5b4e9830689c","system_id":"levelo_inurba_marseille","lat":43.310675,"lon":5.383545,"is_reserved":false,"is_disabled":false,"rental_uris":{"android":"levelo://app?vid=2a113697-1780-4128-94ad-5b4e9830689c","ios":"levelo://app?vid=2a113697-1780-4128-94ad-5b4e9830689c"},"vehicle_type_id":"4","last_reported":1712959563,"current_range_meters":16800,"station_id":"ce4bgv92rcd13ifvqcr0","pricing_plan_id":"cebpf4jnsgd1na2vs0mg"},{"bike_id":"d6ab4ce5-10f5-447a-b384-f93b0d045482","system_id":"levelo_inurba_marseille","lat":43.310804,"lon":5.38359,"is_reserved":false,"is_disabled":false,"rental_uris":{"android":"levelo://app?vid=d6ab4ce5-10f5-447a-b384-f93b0d045482","ios":"levelo://app?vid=d6ab4ce5-10f5-447a-b384-f93b0d045482"},"vehicle_type_id":"4","last_reported":1712959563,"current_range_meters":10000,"station_id":"ce4bgv92rcd13ifvqcr0","pricing_plan_id":"cebpf4jnsgd1na2vs0mg"},{"bike_id":"c87f83ed-712a-45c7-9a7b-2b3813f1f46b","system_id":"levelo_inurba_marseille","lat":43.302784,"lon":5.377158,"is_reserved":false,"is_disabled":false,"rental_uris":{"android":"levelo://app?vid=c87f83ed-712a-45c7-9a7b-2b3813f1f46b","ios":"levelo://app?vid=c87f83ed-712a-45c7-9a7b-2b3813f1f46b"},"vehicle_type_id":"4","last_reported":1712959563,"current_range_meters":28800,"station_id":"ce4bguh2rcd13ifvqcj0","pricing_plan_id":"cebpf4jnsgd1na2vs0mg"},{"bike_id":"387b7c6f-c287-4395-823a-85058889ede8","system_id":"levelo_inurba_marseille","lat":43.319935,"lon":5.381699,"is_reserved":false,"is_disabled":false,"rental_uris":{"android":"levelo://app?vid=387b7c6f-c287-4395-823a-85058889ede8","ios":"levelo://app?vid=387b7c6f-c287-4395-823a-85058889ede8"},"vehicle_type_id":"4","last_reported":1712959563,"current_range_meters":0,"station_id":"ce4bhr12rcd13ifvqhpg","pricing_plan_id":"cebpf4jnsgd1na2vs0mg"},{"bike_id":"4e55ca64-fe78-48a2-9719-7902d95f15e6","system_id":"levelo_inurba_marseille","lat":43.319935,"lon":5.381699,"is_reserved":false,"is_disabled":false,"rental_uris":{"android":"levelo://app?vid=4e55ca64-fe78-48a2-9719-7902d95f15e6","ios":"levelo://app?vid=4e55ca64-fe78-48a2-9719-7902d95f15e6"},"vehicle_type_id":"4","last_reported":1712959563,"current_range_meters":2800,"station_id":"ce4bhr12rcd13ifvqhpg","pricing_plan_id":"cebpf4jnsgd1na2vs0mg"},{"bike_id":"a5c7d92a-31f4-40d7-8720-41d84efe8baf","system_id":"levelo_inurba_marseille","lat":43.319935,"lon":5.381699,"is_reserved":false,"is_disabled":false,"rental_uris":{"android":"levelo://app?vid=a5c7d92a-31f4-40d7-8720-41d84efe8baf","ios":"levelo://app?vid=a5c7d92a-31f4-40d7-8720-41d84efe8baf"},"vehicle_type_id":"4","last_reported":1712959563,"current_range_meters":7600,"station_id":"ce4bhr12rcd13ifvqhpg","pricing_plan_id":"cebpf4jnsgd1na2vs0mg"},{"bike_id":"31d436d2-22f4-444b-92ad-c36128c84b47","system_id":"levelo_inurba_marseille","lat":43.319935,"lon":5.381699,"is_reserved":false,"is_disabled":false,"rental_uris":{"android":"levelo://app?vid=31d436d2-22f4-444b-92ad-c36128c84b47","ios":"levelo://app?vid=31d436d2-22f4-444b-92ad-c36128c84b47"},"vehicle_type_id":"4","last_reported":1712959563,"current_range_meters":0,"station_id":"ce4bhr12rcd13ifvqhpg","pricing_plan_id":"cebpf4jnsgd1na2vs0mg"},{"bike_id":"040fe1e7-78d3-4d84-b369-f81c31655017","system_id":"levelo_inurba_marseille","lat":43.319935,"lon":5.381699,"is_reserved":false,"is_disabled":false,"rental_uris":{"android":"levelo://app?vid=040fe1e7-78d3-4d84-b369-f81c31655017","ios":"levelo://app?vid=040fe1e7-78d3-4d84-b369-f81c31655017"},"vehicle_type_id":"4","last_reported":1712959563,"current_range_meters":2000,"station_id":"ce4bhr12rcd13ifvqhpg","pricing_plan_id":"cebpf4jnsgd1na2vs0mg"},{"bike_id":"9165843a-1710-47f6-acc2-8ac6b465822d","system_id":"levelo_inurba_marseille","lat":43.319935,"lon":5.381699,"is_reserved":false,"is_disabled":false,"rental_uris":{"android":"levelo://app?vid=9165843a-1710-47f6-acc2-8ac6b465822d","ios":"levelo://app?vid=9165843a-1710-47f6-acc2-8ac6b465822d"},"vehicle_type_id":"4","last_reported":1712959563,"current_range_meters":0,"station_id":"ce4bhr12rcd13ifvqhpg","pricing_plan_id":"cebpf4jnsgd1na2vs0mg"},{"bike_id":"365ffdde-5dcc-4389-ae6e-5446925bfa81","system_id":"levelo_inurba_marseille","lat":43.319935,"lon":5.381699,"is_reserved":false,"is_disabled":false,"rental_uris":{"android":"levelo://app?vid=365ffdde-5dcc-4389-ae6e-5446925bfa81","ios":"levelo://app?vid=365ffdde-5dcc-4389-ae6e-5446925bfa81"},"vehicle_type_id":"4","last_reported":1712959563,"current_range_meters":9200,"station_id":"ce4bhr12rcd13ifvqhpg","pricing_plan_id":"cebpf4jnsgd1na2vs0mg"},{"bike_id":"afb78cb4-71b4-4594-a1f1-9ba7b02b5aee","system_id":"levelo_inurba_marseille","lat":43.319935,"lon":5.381699,"is_reserved":false,"is_disabled":false,"rental_uris":{"android":"levelo://app?vid=afb78cb4-71b4-4594-a1f1-9ba7b02b5aee","ios":"levelo://app?vid=afb78cb4-71b4-4594-a1f1-9ba7b02b5aee"},"vehicle_type_id":"4","last_reported":1712959563,"current_range_meters":3200,"station_id":"ce4bhr12rcd13ifvqhpg","pricing_plan_id":"cebpf4jnsgd1na2vs0mg"},{"bike_id":"c2df71dc-f20c-4a6a-80d9-4f42ef3bf709","system_id":"levelo_inurba_marseille","lat":43.319935,"lon":5.381699,"is_reserved":false,"is_disabled":false,"rental_uris":{"android":"levelo://app?vid=c2df71dc-f20c-4a6a-80d9-4f42ef3bf709","ios":"levelo://app?vid=c2df71dc-f20c-4a6a-80d9-4f42ef3bf709"},"vehicle_type_id":"4","last_reported":1712959563,"current_range_meters":20800,"station_id":"ce4bhr12rcd13ifvqhpg","pricing_plan_id":"cebpf4jnsgd1na2vs0mg"},{"bike_id":"06e2b00d-8932-4356-9214-2a9e57395088","system_id":"levelo_inurba_marseille","lat":43.319935,"lon":5.381699,"is_reserved":false,"is_disabled":false,"rental_uris":{"android":"levelo://app?vid=06e2b00d-8932-4356-9214-2a9e57395088","ios":"levelo://app?vid=06e2b00d-8932-4356-9214-2a9e57395088"},"vehicle_type_id":"4","last_reported":1712959563,"current_range_meters":18400,"station_id":"ce4bhr12rcd13ifvqhpg","pricing_plan_id":"cebpf4jnsgd1na2vs0mg"},{"bike_id":"e2468eed-aa0b-4865-9d54-79680762995a","system_id":"levelo_inurba_marseille","lat":43.319935,"lon":5.381699,"is_reserved":false,"is_disabled":false,"rental_uris":{"android":"levelo://app?vid=e2468eed-aa0b-4865-9d54-79680762995a","ios":"levelo://app?vid=e2468eed-aa0b-4865-9d54-79680762995a"},"vehicle_type_id":"4","last_reported":1712959563,"current_range_meters":0,"station_id":"ce4bhr12rcd13ifvqhpg","pricing_plan_id":"cebpf4jnsgd1na2vs0mg"},{"bike_id":"227c6e40-757d-4473-a226-5ace5928de0e","system_id":"levelo_inurba_marseille","lat":43.319935,"lon":5.381699,"is_reserved":false,"is_disabled":false,"rental_uris":{"android":"levelo://app?vid=227c6e40-757d-4473-a226-5ace5928de0e","ios":"levelo://app?vid=227c6e40-757d-4473-a226-5ace5928de0e"},"vehicle_type_id":"4","last_reported":1712959563,"current_range_meters":4800,"station_id":"ce4bhr12rcd13ifvqhpg","pricing_plan_id":"cebpf4jnsgd1na2vs0mg"},{"bike_id":"1afbaa79-8dce-49b3-86ba-6f2a9f381b25","system_id":"levelo_inurba_marseille","lat":43.319935,"lon":5.381699,"is_reserved":false,"is_disabled":false,"rental_uris":{"android":"levelo://app?vid=1afbaa79-8dce-49b3-86ba-6f2a9f381b25","ios":"levelo://app?vid=1afbaa79-8dce-49b3-86ba-6f2a9f381b25"},"vehicle_type_id":"4","last_reported":1712959563,"current_range_meters":0,"station_id":"ce4bhr12rcd13ifvqhpg","pricing_plan_id":"cebpf4jnsgd1na2vs0mg"},{"bike_id":"264f64a1-1098-431c-a7d8-43f1485a4139","system_id":"levelo_inurba_marseille","lat":43.319935,"lon":5.381699,"is_reserved":false,"is_disabled":false,"rental_uris":{"android":"levelo://app?vid=264f64a1-1098-431c-a7d8-43f1485a4139","ios":"levelo://app?vid=264f64a1-1098-431c-a7d8-43f1485a4139"},"vehicle_type_id":"4","last_reported":1712959563,"current_range_meters":10400,"station_id":"ce4bhr12rcd13ifvqhpg","pricing_plan_id":"cebpf4jnsgd1na2vs0mg"},{"bike_id":"7080089f-99ba-4669-82e6-e9459865be98","system_id":"levelo_inurba_marseille","lat":43.319935,"lon":5.381699,"is_reserved":false,"is_disabled":false,"rental_uris":{"android":"levelo://app?vid=7080089f-99ba-4669-82e6-e9459865be98","ios":"levelo://app?vid=7080089f-99ba-4669-82e6-e9459865be98"},"vehicle_type_id":"4","last_reported":1712959563,"current_range_meters":2400,"station_id":"ce4bhr12rcd13ifvqhpg","pricing_plan_id":"cebpf4jnsgd1na2vs0mg"},{"bike_id":"9595800c-a7bc-4c3d-963a-5172690235d1","system_id":"levelo_inurba_marseille","lat":43.31365,"lon":5.38486,"is_reserved":false,"is_disabled":false,"rental_uris":{"android":"levelo://app?vid=9595800c-a7bc-4c3d-963a-5172690235d1","ios":"levelo://app?vid=9595800c-a7bc-4c3d-963a-5172690235d1"},"vehicle_type_id":"4","last_reported":1712959563,"current_range_meters":16000,"station_id":"ce4bgt92rcd13ifvqcf0","pricing_plan_id":"cebpf4jnsgd1na2vs0mg"},{"bike_id":"6fbd2f3e-811c-4943-a320-ccf04bc37f50","system_id":"levelo_inurba_marseille","lat":43.313571,"lon":5.384829,"is_reserved":false,"is_disabled":false,"rental_uris":{"android":"levelo://app?vid=6fbd2f3e-811c-4943-a320-ccf04bc37f50","ios":"levelo://app?vid=6fbd2f3e-811c-4943-a320-ccf04bc37f50"},"vehicle_type_id":"4","last_reported":1712959563,"current_range_meters":11200,"station_id":"ce4bgt92rcd13ifvqcf0","pricing_plan_id":"cebpf4jnsgd1na2vs0mg"},{"bike_id":"e1af2788-98bc-4618-b1b6-381095b26e03","system_id":"levelo_inurba_marseille","lat":43.313571,"lon":5.384829,"is_reserved":false,"is_disabled":false,"rental_uris":{"android":"levelo://app?vid=e1af2788-98bc-4618-b1b6-381095b26e03","ios":"levelo://app?vid=e1af2788-98bc-4618-b1b6-381095b26e03"},"vehicle_type_id":"4","last_reported":1712959563,"current_range_meters":6000,"station_id":"ce4bgt92rcd13ifvqcf0","pricing_plan_id":"cebpf4jnsgd1na2vs0mg"},{"bike_id":"1f2c793a-16ea-4a83-b0ad-f0fcef9a1ee3","system_id":"levelo_inurba_marseille","lat":43.31367,"lon":5.38494,"is_reserved":false,"is_disabled":false,"rental_uris":{"android":"levelo://app?vid=1f2c793a-16ea-4a83-b0ad-f0fcef9a1ee3","ios":"levelo://app?vid=1f2c793a-16ea-4a83-b0ad-f0fcef9a1ee3"},"vehicle_type_id":"4","last_reported":1712959563,"current_range_meters":22400,"station_id":"ce4bgt92rcd13ifvqcf0","pricing_plan_id":"cebpf4jnsgd1na2vs0mg"},{"bike_id":"8cb3d3b3-4055-4e9c-9b50-f86e6cef6e16","system_id":"levelo_inurba_marseille","lat":43.313571,"lon":5.384829,"is_reserved":false,"is_disabled":false,"rental_uris":{"android":"levelo://app?vid=8cb3d3b3-4055-4e9c-9b50-f86e6cef6e16","ios":"levelo://app?vid=8cb3d3b3-4055-4e9c-9b50-f86e6cef6e16"},"vehicle_type_id":"4","last_reported":1712959563,"current_range_meters":0,"station_id":"ce4bgt92rcd13ifvqcf0","pricing_plan_id":"cebpf4jnsgd1na2vs0mg"},{"bike_id":"34cc3b8a-cf84-4b95-99ea-c75155fd776d","system_id":"levelo_inurba_marseille","lat":43.31356,"lon":5.38499,"is_reserved":false,"is_disabled":false,"rental_uris":{"android":"levelo://app?vid=34cc3b8a-cf84-4b95-99ea-c75155fd776d","ios":"levelo://app?vid=34cc3b8a-cf84-4b95-99ea-c75155fd776d"},"vehicle_type_id":"4","last_reported":1712959563,"current_range_meters":13200,"station_id":"ce4bgt92rcd13ifvqcf0","pricing_plan_id":"cebpf4jnsgd1na2vs0mg"},{"bike_id":"1ca4a438-6ee8-4fd7-9ef2-027869339288","system_id":"levelo_inurba_marseille","lat":43.31361,"lon":5.38499,"is_reserved":false,"is_disabled":false,"rental_uris":{"android":"levelo://app?vid=1ca4a438-6ee8-4fd7-9ef2-027869339288","ios":"levelo://app?vid=1ca4a438-6ee8-4fd7-9ef2-027869339288"},"vehicle_type_id":"4","last_reported":1712959563,"current_range_meters":400,"station_id":"ce4bgt92rcd13ifvqcf0","pricing_plan_id":"cebpf4jnsgd1na2vs0mg"},{"bike_id":"2d5dd2cc-2ffe-43ca-9589-41de1f8f1306","system_id":"levelo_inurba_marseille","lat":43.31378,"lon":5.38503,"is_reserved":false,"is_disabled":false,"rental_uris":{"android":"levelo://app?vid=2d5dd2cc-2ffe-43ca-9589-41de1f8f1306","ios":"levelo://app?vid=2d5dd2cc-2ffe-43ca-9589-41de1f8f1306"},"vehicle_type_id":"4","last_reported":1712959563,"current_range_meters":400,"station_id":"ce4bgt92rcd13ifvqcf0","pricing_plan_id":"cebpf4jnsgd1na2vs0mg"},{"bike_id":"95c3be9b-032e-42c9-a658-63a3e281c9a5","system_id":"levelo_inurba_marseille","lat":43.31375,"lon":5.38504,"is_reserved":false,"is_disabled":false,"rental_uris":{"android":"levelo://app?vid=95c3be9b-032e-42c9-a658-63a3e281c9a5","ios":"levelo://app?vid=95c3be9b-032e-42c9-a658-63a3e281c9a5"},"vehicle_type_id":"4","last_reported":1712959563,"current_range_meters":400,"station_id":"ce4bgt92rcd13ifvqcf0","pricing_plan_id":"cebpf4jnsgd1na2vs0mg"},{"bike_id":"12acaeb7-c93d-47ec-8fe2-269919ad591d","system_id":"levelo_inurba_marseille","lat":43.299222,"lon":5.365554,"is_reserved":false,"is_disabled":false,"rental_uris":{"android":"levelo://app?vid=12acaeb7-c93d-47ec-8fe2-269919ad591d","ios":"levelo://app?vid=12acaeb7-c93d-47ec-8fe2-269919ad591d"},"vehicle_type_id":"4","last_reported":1712959563,"current_range_meters":0,"station_id":"ce4bgm92rcd13ifvqbr0","pricing_plan_id":"cebpf4jnsgd1na2vs0mg"},{"bike_id":"f82b7263-d7ad-4835-9672-390dfa28ed85","system_id":"levelo_inurba_marseille","lat":43.299724,"lon":5.371829,"is_reserved":false,"is_disabled":false,"rental_uris":{"android":"levelo://app?vid=f82b7263-d7ad-4835-9672-390dfa28ed85","ios":"levelo://app?vid=f82b7263-d7ad-4835-9672-390dfa28ed85"},"vehicle_type_id":"4","last_reported":1712959563,"current_range_meters":12400,"station_id":"ce4bgr92rcd13ifvqc7g","pricing_plan_id":"cebpf4jnsgd1na2vs0mg"},{"bike_id":"96d664ae-4b4a-4c92-bff0-d5d54c14bb80","system_id":"levelo_inurba_marseille","lat":43.299724,"lon":5.371829,"is_reserved":false,"is_disabled":false,"rental_uris":{"android":"levelo://app?vid=96d664ae-4b4a-4c92-bff0-d5d54c14bb80","ios":"levelo://app?vid=96d664ae-4b4a-4c92-bff0-d5d54c14bb80"},"vehicle_type_id":"4","last_reported":1712959563,"current_range_meters":22400,"station_id":"ce4bgr92rcd13ifvqc7g","pricing_plan_id":"cebpf4jnsgd1na2vs0mg"},{"bike_id":"c2df1138-3644-489d-848a-331c3ff97091","system_id":"levelo_inurba_marseille","lat":43.279742,"lon":5.38744,"is_reserved":false,"is_disabled":false,"rental_uris":{"android":"levelo://app?vid=c2df1138-3644-489d-848a-331c3ff97091","ios":"levelo://app?vid=c2df1138-3644-489d-848a-331c3ff97091"},"vehicle_type_id":"4","last_reported":1712959563,"current_range_meters":0,"station_id":"ce4bhg12rcd13ifvqf80","pricing_plan_id":"cebpf4jnsgd1na2vs0mg"},{"bike_id":"22ba2199-f3ed-4de9-bc2d-36215e34573d","system_id":"levelo_inurba_marseille","lat":43.298433,"lon":5.362774,"is_reserved":false,"is_disabled":false,"rental_uris":{"android":"levelo://app?vid=22ba2199-f3ed-4de9-bc2d-36215e34573d","ios":"levelo://app?vid=22ba2199-f3ed-4de9-bc2d-36215e34573d"},"vehicle_type_id":"4","last_reported":1712959563,"current_range_meters":25600,"station_id":"ce4bgpp2rcd13ifvqc3g","pricing_plan_id":"cebpf4jnsgd1na2vs0mg"},{"bike_id":"9e844c4c-ea7b-41fb-b353-034480ae91cd","system_id":"levelo_inurba_marseille","lat":43.299243,"lon":5.37481,"is_reserved":false,"is_disabled":false,"rental_uris":{"android":"levelo://app?vid=9e844c4c-ea7b-41fb-b353-034480ae91cd","ios":"levelo://app?vid=9e844c4c-ea7b-41fb-b353-034480ae91cd"},"vehicle_type_id":"4","last_reported":1712959563,"current_range_meters":22000,"station_id":"ce4bgjh2rcd13ifvqbg0","pricing_plan_id":"cebpf4jnsgd1na2vs0mg"},{"bike_id":"6c91aeb1-c1ac-4b0b-927a-209ee6aedd6d","system_id":"levelo_inurba_marseille","lat":43.311817,"lon":5.387095,"is_reserved":false,"is_disabled":false,"rental_uris":{"android":"levelo://app?vid=6c91aeb1-c1ac-4b0b-927a-209ee6aedd6d","ios":"levelo://app?vid=6c91aeb1-c1ac-4b0b-927a-209ee6aedd6d"},"vehicle_type_id":"4","last_reported":1712959563,"current_range_meters":0,"station_id":"ce4bgv12rcd13ifvqcp0","pricing_plan_id":"cebpf4jnsgd1na2vs0mg"},{"bike_id":"261a1eeb-2746-4142-bfd7-2b075983d751","system_id":"levelo_inurba_marseille","lat":43.311722,"lon":5.387247,"is_reserved":false,"is_disabled":false,"rental_uris":{"android":"levelo://app?vid=261a1eeb-2746-4142-bfd7-2b075983d751","ios":"levelo://app?vid=261a1eeb-2746-4142-bfd7-2b075983d751"},"vehicle_type_id":"4","last_reported":1712959563,"current_range_meters":13600,"station_id":"ce4bgv12rcd13ifvqcp0","pricing_plan_id":"cebpf4jnsgd1na2vs0mg"},{"bike_id":"ff8fd808-f44c-40e3-afbc-ee61614d8e94","system_id":"levelo_inurba_marseille","lat":43.311722,"lon":5.387247,"is_reserved":false,"is_disabled":false,"rental_uris":{"android":"levelo://app?vid=ff8fd808-f44c-40e3-afbc-ee61614d8e94","ios":"levelo://app?vid=ff8fd808-f44c-40e3-afbc-ee61614d8e94"},"vehicle_type_id":"4","last_reported":1712959563,"current_range_meters":17600,"station_id":"ce4bgv12rcd13ifvqcp0","pricing_plan_id":"cebpf4jnsgd1na2vs0mg"},{"bike_id":"08e03e2b-c2ba-4b65-9109-21c546431714","system_id":"levelo_inurba_marseille","lat":43.311572,"lon":5.387184,"is_reserved":false,"is_disabled":false,"rental_uris":{"android":"levelo://app?vid=08e03e2b-c2ba-4b65-9109-21c546431714","ios":"levelo://app?vid=08e03e2b-c2ba-4b65-9109-21c546431714"},"vehicle_type_id":"4","last_reported":1712959563,"current_range_meters":0,"station_id":"ce4bgv12rcd13ifvqcp0","pricing_plan_id":"cebpf4jnsgd1na2vs0mg"},{"bike_id":"7f3aadd9-dc0b-4806-af3e-9a3a490ca4af","system_id":"levelo_inurba_marseille","lat":43.311722,"lon":5.387247,"is_reserved":false,"is_disabled":false,"rental_uris":{"android":"levelo://app?vid=7f3aadd9-dc0b-4806-af3e-9a3a490ca4af","ios":"levelo://app?vid=7f3aadd9-dc0b-4806-af3e-9a3a490ca4af"},"vehicle_type_id":"4","last_reported":1712959563,"current_range_meters":5200,"station_id":"ce4bgv12rcd13ifvqcp0","pricing_plan_id":"cebpf4jnsgd1na2vs0mg"},{"bike_id":"e2aad9c4-6f10-42cc-a55c-a390c41d6631","system_id":"levelo_inurba_marseille","lat":43.297774,"lon":5.370875,"is_reserved":false,"is_disabled":false,"rental_uris":{"android":"levelo://app?vid=e2aad9c4-6f10-42cc-a55c-a390c41d6631","ios":"levelo://app?vid=e2aad9c4-6f10-42cc-a55c-a390c41d6631"},"vehicle_type_id":"4","last_reported":1712959563,"current_range_meters":0,"station_id":"ce4bgop2rcd13ifvqc1g","pricing_plan_id":"cebpf4jnsgd1na2vs0mg"},{"bike_id":"e9575f6a-7c71-448f-ab59-80d8e8773a2f","system_id":"levelo_inurba_marseille","lat":43.322917,"lon":5.382668,"is_reserved":false,"is_disabled":false,"rental_uris":{"android":"levelo://app?vid=e9575f6a-7c71-448f-ab59-80d8e8773a2f","ios":"levelo://app?vid=e9575f6a-7c71-448f-ab59-80d8e8773a2f"},"vehicle_type_id":"4","last_reported":1712959563,"current_range_meters":26400,"station_id":"ce4bhr12rcd13ifvqhqg","pricing_plan_id":"cebpf4jnsgd1na2vs0mg"},{"bike_id":"471f6dc1-72d2-49b3-a8bb-13ca96ae22c1","system_id":"levelo_inurba_marseille","lat":43.322879,"lon":5.382783,"is_reserved":false,"is_disabled":false,"rental_uris":{"android":"levelo://app?vid=471f6dc1-72d2-49b3-a8bb-13ca96ae22c1","ios":"levelo://app?vid=471f6dc1-72d2-49b3-a8bb-13ca96ae22c1"},"vehicle_type_id":"4","last_reported":1712959563,"current_range_meters":4800,"station_id":"ce4bhr12rcd13ifvqhqg","pricing_plan_id":"cebpf4jnsgd1na2vs0mg"},{"bike_id":"62f70c15-673b-4b5f-8664-4716e8ac8804","system_id":"levelo_inurba_marseille","lat":43.322872,"lon":5.382756,"is_reserved":false,"is_disabled":false,"rental_uris":{"android":"levelo://app?vid=62f70c15-673b-4b5f-8664-4716e8ac8804","ios":"levelo://app?vid=62f70c15-673b-4b5f-8664-4716e8ac8804"},"vehicle_type_id":"4","last_reported":1712959563,"current_range_meters":28000,"station_id":"ce4bhr12rcd13ifvqhqg","pricing_plan_id":"cebpf4jnsgd1na2vs0mg"},{"bike_id":"c5592db4-86ec-473b-909f-9876cc4d65a1","system_id":"levelo_inurba_marseille","lat":43.283498,"lon":5.380948,"is_reserved":false,"is_disabled":false,"rental_uris":{"android":"levelo://app?vid=c5592db4-86ec-473b-909f-9876cc4d65a1","ios":"levelo://app?vid=c5592db4-86ec-473b-909f-9876cc4d65a1"},"vehicle_type_id":"4","last_reported":1712959563,"current_range_meters":1600,"station_id":"ce4bh412rcd13ifvqdr0","pricing_plan_id":"cebpf4jnsgd1na2vs0mg"},{"bike_id":"372c21aa-b7d4-446c-a4e2-c00058386246","system_id":"levelo_inurba_marseille","lat":43.297064,"lon":5.366123,"is_reserved":false,"is_disabled":false,"rental_uris":{"android":"levelo://app?vid=372c21aa-b7d4-446c-a4e2-c00058386246","ios":"levelo://app?vid=372c21aa-b7d4-446c-a4e2-c00058386246"},"vehicle_type_id":"4","last_reported":1712959563,"current_range_meters":0,"station_id":"ce4bgn12rcd13ifvqbt0","pricing_plan_id":"cebpf4jnsgd1na2vs0mg"},{"bike_id":"01c3422d-8d5c-41eb-a8b1-2c81fafcb1e7","system_id":"levelo_inurba_marseille","lat":43.29703,"lon":5.36598,"is_reserved":false,"is_disabled":false,"rental_uris":{"android":"levelo://app?vid=01c3422d-8d5c-41eb-a8b1-2c81fafcb1e7","ios":"levelo://app?vid=01c3422d-8d5c-41eb-a8b1-2c81fafcb1e7"},"vehicle_type_id":"4","last_reported":1712959563,"current_range_meters":16800,"station_id":"","pricing_plan_id":"cebpf4jnsgd1na2vs0mg"},{"bike_id":"4478723e-f7d9-46b9-b70c-5ef6f92efc3a","system_id":"levelo_inurba_marseille","lat":43.2968,"lon":5.37291,"is_reserved":false,"is_disabled":false,"rental_uris":{"android":"levelo://app?vid=4478723e-f7d9-46b9-b70c-5ef6f92efc3a","ios":"levelo://app?vid=4478723e-f7d9-46b9-b70c-5ef6f92efc3a"},"vehicle_type_id":"4","last_reported":1712959563,"current_range_meters":10800,"station_id":"ce4bgk12rcd13ifvqbj0","pricing_plan_id":"cebpf4jnsgd1na2vs0mg"},{"bike_id":"276bed6c-a046-4fa5-beab-99d6db4a80ae","system_id":"levelo_inurba_marseille","lat":43.296131,"lon":5.370791,"is_reserved":false,"is_disabled":false,"rental_uris":{"android":"levelo://app?vid=276bed6c-a046-4fa5-beab-99d6db4a80ae","ios":"levelo://app?vid=276bed6c-a046-4fa5-beab-99d6db4a80ae"},"vehicle_type_id":"4","last_reported":1712959563,"current_range_meters":0,"station_id":"ce4bgnh2rcd13ifvqc0g","pricing_plan_id":"cebpf4jnsgd1na2vs0mg"},{"bike_id":"058158d6-02d6-4582-83da-659768f83602","system_id":"levelo_inurba_marseille","lat":43.284534,"lon":5.358662,"is_reserved":false,"is_disabled":false,"rental_uris":{"android":"levelo://app?vid=058158d6-02d6-4582-83da-659768f83602","ios":"levelo://app?vid=058158d6-02d6-4582-83da-659768f83602"},"vehicle_type_id":"4","last_reported":1712959563,"current_range_meters":5200,"station_id":"ce4bhah2rcd13ifvqei0","pricing_plan_id":"cebpf4jnsgd1na2vs0mg"},{"bike_id":"bc88d8db-3228-4356-a4aa-6b57c4f839d1","system_id":"levelo_inurba_marseille","lat":43.29723,"lon":5.37685,"is_reserved":false,"is_disabled":false,"rental_uris":{"android":"levelo://app?vid=bc88d8db-3228-4356-a4aa-6b57c4f839d1","ios":"levelo://app?vid=bc88d8db-3228-4356-a4aa-6b57c4f839d1"},"vehicle_type_id":"4","last_reported":1712959563,"current_range_meters":0,"station_id":"ce4bgkh2rcd13ifvqbl0","pricing_plan_id":"cebpf4jnsgd1na2vs0mg"},{"bike_id":"82985da3-e7f5-4f55-93d6-a424b542a0dd","system_id":"levelo_inurba_marseille","lat":43.296935,"lon":5.376544,"is_reserved":false,"is_disabled":false,"rental_uris":{"android":"levelo://app?vid=82985da3-e7f5-4f55-93d6-a424b542a0dd","ios":"levelo://app?vid=82985da3-e7f5-4f55-93d6-a424b542a0dd"},"vehicle_type_id":"4","last_reported":1712959563,"current_range_meters":800,"station_id":"ce4bgkh2rcd13ifvqbl0","pricing_plan_id":"cebpf4jnsgd1na2vs0mg"},{"bike_id":"2e7f1539-af20-4875-b167-8134af6cd9ea","system_id":"levelo_inurba_marseille","lat":43.309589,"lon":5.390258,"is_reserved":false,"is_disabled":false,"rental_uris":{"android":"levelo://app?vid=2e7f1539-af20-4875-b167-8134af6cd9ea","ios":"levelo://app?vid=2e7f1539-af20-4875-b167-8134af6cd9ea"},"vehicle_type_id":"4","last_reported":1712959563,"current_range_meters":0,"station_id":"ce4bgup2rcd13ifvqco0","pricing_plan_id":"cebpf4jnsgd1na2vs0mg"},{"bike_id":"2998dd02-aca4-4435-82cc-41a8a33790b4","system_id":"levelo_inurba_marseille","lat":43.298996,"lon":5.381426,"is_reserved":false,"is_disabled":false,"rental_uris":{"android":"levelo://app?vid=2998dd02-aca4-4435-82cc-41a8a33790b4","ios":"levelo://app?vid=2998dd02-aca4-4435-82cc-41a8a33790b4"},"vehicle_type_id":"4","last_reported":1712959563,"current_range_meters":0,"station_id":"ce4bgj12rcd13ifvqbc0","pricing_plan_id":"cebpf4jnsgd1na2vs0mg"},{"bike_id":"6681b098-48fd-4e49-8880-62f96600668f","system_id":"levelo_inurba_marseille","lat":43.317557,"lon":5.390173,"is_reserved":false,"is_disabled":false,"rental_uris":{"android":"levelo://app?vid=6681b098-48fd-4e49-8880-62f96600668f","ios":"levelo://app?vid=6681b098-48fd-4e49-8880-62f96600668f"},"vehicle_type_id":"4","last_reported":1712959563,"current_range_meters":1200,"station_id":"ce4bhqp2rcd13ifvqhng","pricing_plan_id":"cebpf4jnsgd1na2vs0mg"},{"bike_id":"1353979a-a377-4553-ad62-b2c43b4732d1","system_id":"levelo_inurba_marseille","lat":43.317557,"lon":5.390173,"is_reserved":false,"is_disabled":false,"rental_uris":{"android":"levelo://app?vid=1353979a-a377-4553-ad62-b2c43b4732d1","ios":"levelo://app?vid=1353979a-a377-4553-ad62-b2c43b4732d1"},"vehicle_type_id":"4","last_reported":1712959563,"current_range_meters":2000,"station_id":"ce4bhqp2rcd13ifvqhng","pricing_plan_id":"cebpf4jnsgd1na2vs0mg"},{"bike_id":"266c296e-493f-4649-800c-f2b759f100f6","system_id":"levelo_inurba_marseille","lat":43.317557,"lon":5.390173,"is_reserved":false,"is_disabled":false,"rental_uris":{"android":"levelo://app?vid=266c296e-493f-4649-800c-f2b759f100f6","ios":"levelo://app?vid=266c296e-493f-4649-800c-f2b759f100f6"},"vehicle_type_id":"4","last_reported":1712959563,"current_range_meters":0,"station_id":"ce4bhqp2rcd13ifvqhng","pricing_plan_id":"cebpf4jnsgd1na2vs0mg"},{"bike_id":"67c7bf35-aab2-432d-90f9-a289e5ebafa0","system_id":"levelo_inurba_marseille","lat":43.29584,"lon":5.37501,"is_reserved":false,"is_disabled":false,"rental_uris":{"android":"levelo://app?vid=67c7bf35-aab2-432d-90f9-a289e5ebafa0","ios":"levelo://app?vid=67c7bf35-aab2-432d-90f9-a289e5ebafa0"},"vehicle_type_id":"4","last_reported":1712959563,"current_range_meters":0,"station_id":"ce4bgh92rcd13ifvqb50","pricing_plan_id":"cebpf4jnsgd1na2vs0mg"},{"bike_id":"bdf9e8cf-a11f-4ece-86cf-4d630e59b354","system_id":"levelo_inurba_marseille","lat":43.290336,"lon":5.386425,"is_reserved":false,"is_disabled":false,"rental_uris":{"android":"levelo://app?vid=bdf9e8cf-a11f-4ece-86cf-4d630e59b354","ios":"levelo://app?vid=bdf9e8cf-a11f-4ece-86cf-4d630e59b354"},"vehicle_type_id":"4","last_reported":1712959563,"current_range_meters":0,"station_id":"ce4bh4p2rcd13ifvqe0g","pricing_plan_id":"cebpf4jnsgd1na2vs0mg"},{"bike_id":"a6ad659c-00d5-496c-ab92-d8c1a9930c68","system_id":"levelo_inurba_marseille","lat":43.295767,"lon":5.374976,"is_reserved":false,"is_disabled":false,"rental_uris":{"android":"levelo://app?vid=a6ad659c-00d5-496c-ab92-d8c1a9930c68","ios":"levelo://app?vid=a6ad659c-00d5-496c-ab92-d8c1a9930c68"},"vehicle_type_id":"4","last_reported":1712959563,"current_range_meters":0,"station_id":"ce4bgh92rcd13ifvqb50","pricing_plan_id":"cebpf4jnsgd1na2vs0mg"},{"bike_id":"a62556e6-e223-45c5-b952-3029e326cfed","system_id":"levelo_inurba_marseille","lat":43.29578,"lon":5.37513,"is_reserved":false,"is_disabled":false,"rental_uris":{"android":"levelo://app?vid=a62556e6-e223-45c5-b952-3029e326cfed","ios":"levelo://app?vid=a62556e6-e223-45c5-b952-3029e326cfed"},"vehicle_type_id":"4","last_reported":1712959563,"current_range_meters":0,"station_id":"ce4bgh92rcd13ifvqb50","pricing_plan_id":"cebpf4jnsgd1na2vs0mg"},{"bike_id":"e93c2fcd-b52f-4d06-b009-8a0e119bcb8f","system_id":"levelo_inurba_marseille","lat":43.295748,"lon":5.37522,"is_reserved":false,"is_disabled":false,"rental_uris":{"android":"levelo://app?vid=e93c2fcd-b52f-4d06-b009-8a0e119bcb8f","ios":"levelo://app?vid=e93c2fcd-b52f-4d06-b009-8a0e119bcb8f"},"vehicle_type_id":"4","last_reported":1712959563,"current_range_meters":22400,"station_id":"ce4bgh92rcd13ifvqb50","pricing_plan_id":"cebpf4jnsgd1na2vs0mg"},{"bike_id":"3ca9dbe2-54a4-4376-a1e7-0fa7c4ac0592","system_id":"levelo_inurba_marseille","lat":43.298037,"lon":5.381066,"is_reserved":false,"is_disabled":false,"rental_uris":{"android":"levelo://app?vid=3ca9dbe2-54a4-4376-a1e7-0fa7c4ac0592","ios":"levelo://app?vid=3ca9dbe2-54a4-4376-a1e7-0fa7c4ac0592"},"vehicle_type_id":"4","last_reported":1712959563,"current_range_meters":5200,"station_id":"ce4bgip2rcd13ifvqbb0","pricing_plan_id":"cebpf4jnsgd1na2vs0mg"},{"bike_id":"30f2ae1b-3210-4b5b-a8e8-790293486fc1","system_id":"levelo_inurba_marseille","lat":43.304274,"lon":5.388873,"is_reserved":false,"is_disabled":false,"rental_uris":{"android":"levelo://app?vid=30f2ae1b-3210-4b5b-a8e8-790293486fc1","ios":"levelo://app?vid=30f2ae1b-3210-4b5b-a8e8-790293486fc1"},"vehicle_type_id":"4","last_reported":1712959563,"current_range_meters":6800,"station_id":"ce4bgk12rcd13ifvqbi0","pricing_plan_id":"cebpf4jnsgd1na2vs0mg"},{"bike_id":"87768a68-be65-4247-a158-926ad4417bfe","system_id":"levelo_inurba_marseille","lat":43.30443,"lon":5.3889,"is_reserved":false,"is_disabled":false,"rental_uris":{"android":"levelo://app?vid=87768a68-be65-4247-a158-926ad4417bfe","ios":"levelo://app?vid=87768a68-be65-4247-a158-926ad4417bfe"},"vehicle_type_id":"4","last_reported":1712959563,"current_range_meters":14400,"station_id":"ce4bgk12rcd13ifvqbi0","pricing_plan_id":"cebpf4jnsgd1na2vs0mg"},{"bike_id":"846269cb-cc22-4705-94e3-27da06b49a85","system_id":"levelo_inurba_marseille","lat":43.285742,"lon":5.395004,"is_reserved":false,"is_disabled":false,"rental_uris":{"android":"levelo://app?vid=846269cb-cc22-4705-94e3-27da06b49a85","ios":"levelo://app?vid=846269cb-cc22-4705-94e3-27da06b49a85"},"vehicle_type_id":"4","last_reported":1712959563,"current_range_meters":18400,"station_id":"ce4bh292rcd13ifvqdg0","pricing_plan_id":"cebpf4jnsgd1na2vs0mg"},{"bike_id":"52d3f9c3-ef2e-47d0-8102-444ce9ae15cd","system_id":"levelo_inurba_marseille","lat":43.283998,"lon":5.375062,"is_reserved":false,"is_disabled":false,"rental_uris":{"android":"levelo://app?vid=52d3f9c3-ef2e-47d0-8102-444ce9ae15cd","ios":"levelo://app?vid=52d3f9c3-ef2e-47d0-8102-444ce9ae15cd"},"vehicle_type_id":"4","last_reported":1712959563,"current_range_meters":0,"station_id":"ce4bh412rcd13ifvqds0","pricing_plan_id":"cebpf4jnsgd1na2vs0mg"},{"bike_id":"c736393f-7541-42c2-93af-284f3f891bd7","system_id":"levelo_inurba_marseille","lat":43.295748,"lon":5.37522,"is_reserved":false,"is_disabled":false,"rental_uris":{"android":"levelo://app?vid=c736393f-7541-42c2-93af-284f3f891bd7","ios":"levelo://app?vid=c736393f-7541-42c2-93af-284f3f891bd7"},"vehicle_type_id":"4","last_reported":1712959563,"current_range_meters":2400,"station_id":"ce4bgh92rcd13ifvqb50","pricing_plan_id":"cebpf4jnsgd1na2vs0mg"},{"bike_id":"578aa515-b0c1-406a-90f0-31b357152654","system_id":"levelo_inurba_marseille","lat":43.296277,"lon":5.377108,"is_reserved":false,"is_disabled":false,"rental_uris":{"android":"levelo://app?vid=578aa515-b0c1-406a-90f0-31b357152654","ios":"levelo://app?vid=578aa515-b0c1-406a-90f0-31b357152654"},"vehicle_type_id":"4","last_reported":1712959563,"current_range_meters":26000,"station_id":"ce4bgi92rcd13ifvqb90","pricing_plan_id":"cebpf4jnsgd1na2vs0mg"},{"bike_id":"3ddbaaa9-15f4-40e6-8946-0851b7f60a5b","system_id":"levelo_inurba_marseille","lat":43.304274,"lon":5.388873,"is_reserved":false,"is_disabled":false,"rental_uris":{"android":"levelo://app?vid=3ddbaaa9-15f4-40e6-8946-0851b7f60a5b","ios":"levelo://app?vid=3ddbaaa9-15f4-40e6-8946-0851b7f60a5b"},"vehicle_type_id":"4","last_reported":1712959563,"current_range_meters":17200,"station_id":"ce4bgk12rcd13ifvqbi0","pricing_plan_id":"cebpf4jnsgd1na2vs0mg"},{"bike_id":"181f9c77-29b0-4ce3-9632-4d08ac31eef3","system_id":"levelo_inurba_marseille","lat":43.304274,"lon":5.388873,"is_reserved":false,"is_disabled":false,"rental_uris":{"android":"levelo://app?vid=181f9c77-29b0-4ce3-9632-4d08ac31eef3","ios":"levelo://app?vid=181f9c77-29b0-4ce3-9632-4d08ac31eef3"},"vehicle_type_id":"4","last_reported":1712959563,"current_range_meters":19200,"station_id":"ce4bgk12rcd13ifvqbi0","pricing_plan_id":"cebpf4jnsgd1na2vs0mg"},{"bike_id":"01684889-bef2-4044-9ddc-ab29ab4f5653","system_id":"levelo_inurba_marseille","lat":43.295748,"lon":5.37522,"is_reserved":false,"is_disabled":false,"rental_uris":{"android":"levelo://app?vid=01684889-bef2-4044-9ddc-ab29ab4f5653","ios":"levelo://app?vid=01684889-bef2-4044-9ddc-ab29ab4f5653"},"vehicle_type_id":"4","last_reported":1712959563,"current_range_meters":12800,"station_id":"ce4bgh92rcd13ifvqb50","pricing_plan_id":"cebpf4jnsgd1na2vs0mg"},{"bike_id":"83df4d35-41d2-4012-a299-50f59fb9ae48","system_id":"levelo_inurba_marseille","lat":43.29619,"lon":5.37727,"is_reserved":false,"is_disabled":false,"rental_uris":{"android":"levelo://app?vid=83df4d35-41d2-4012-a299-50f59fb9ae48","ios":"levelo://app?vid=83df4d35-41d2-4012-a299-50f59fb9ae48"},"vehicle_type_id":"4","last_reported":1712959563,"current_range_meters":19600,"station_id":"ce4bgi92rcd13ifvqb90","pricing_plan_id":"cebpf4jnsgd1na2vs0mg"},{"bike_id":"61a8486b-1c5b-4143-b43b-70a81a77c72e","system_id":"levelo_inurba_marseille","lat":43.296277,"lon":5.377108,"is_reserved":false,"is_disabled":false,"rental_uris":{"android":"levelo://app?vid=61a8486b-1c5b-4143-b43b-70a81a77c72e","ios":"levelo://app?vid=61a8486b-1c5b-4143-b43b-70a81a77c72e"},"vehicle_type_id":"4","last_reported":1712959563,"current_range_meters":31200,"station_id":"ce4bgi92rcd13ifvqb90","pricing_plan_id":"cebpf4jnsgd1na2vs0mg"},{"bike_id":"4f3dd8c3-87aa-419f-83d1-252e05fbe056","system_id":"levelo_inurba_marseille","lat":43.294162,"lon":5.386292,"is_reserved":false,"is_disabled":false,"rental_uris":{"android":"levelo://app?vid=4f3dd8c3-87aa-419f-83d1-252e05fbe056","ios":"levelo://app?vid=4f3dd8c3-87aa-419f-83d1-252e05fbe056"},"vehicle_type_id":"4","last_reported":1712959563,"current_range_meters":0,"station_id":"ce4bh2h2rcd13ifvqdh0","pricing_plan_id":"cebpf4jnsgd1na2vs0mg"},{"bike_id":"6ab98599-da89-4417-9d79-4c6fb61b9c2e","system_id":"levelo_inurba_marseille","lat":43.296277,"lon":5.377108,"is_reserved":false,"is_disabled":false,"rental_uris":{"android":"levelo://app?vid=6ab98599-da89-4417-9d79-4c6fb61b9c2e","ios":"levelo://app?vid=6ab98599-da89-4417-9d79-4c6fb61b9c2e"},"vehicle_type_id":"4","last_reported":1712959563,"current_range_meters":24800,"station_id":"ce4bgi92rcd13ifvqb90","pricing_plan_id":"cebpf4jnsgd1na2vs0mg"},{"bike_id":"5acef4e4-f040-472e-83fc-a2b16409473d","system_id":"levelo_inurba_marseille","lat":43.296277,"lon":5.377108,"is_reserved":false,"is_disabled":false,"rental_uris":{"android":"levelo://app?vid=5acef4e4-f040-472e-83fc-a2b16409473d","ios":"levelo://app?vid=5acef4e4-f040-472e-83fc-a2b16409473d"},"vehicle_type_id":"4","last_reported":1712959563,"current_range_meters":0,"station_id":"ce4bgi92rcd13ifvqb90","pricing_plan_id":"cebpf4jnsgd1na2vs0mg"},{"bike_id":"89ec2518-e2aa-4a8e-9de4-a852d7af01ce","system_id":"levelo_inurba_marseille","lat":43.296277,"lon":5.377108,"is_reserved":false,"is_disabled":false,"rental_uris":{"android":"levelo://app?vid=89ec2518-e2aa-4a8e-9de4-a852d7af01ce","ios":"levelo://app?vid=89ec2518-e2aa-4a8e-9de4-a852d7af01ce"},"vehicle_type_id":"4","last_reported":1712959563,"current_range_meters":26000,"station_id":"ce4bgi92rcd13ifvqb90","pricing_plan_id":"cebpf4jnsgd1na2vs0mg"},{"bike_id":"9bd056b8-f64b-4d57-bd38-e311787a26d3","system_id":"levelo_inurba_marseille","lat":43.296263,"lon":5.377094,"is_reserved":false,"is_disabled":false,"rental_uris":{"android":"levelo://app?vid=9bd056b8-f64b-4d57-bd38-e311787a26d3","ios":"levelo://app?vid=9bd056b8-f64b-4d57-bd38-e311787a26d3"},"vehicle_type_id":"4","last_reported":1712959563,"current_range_meters":18400,"station_id":"ce4bgi92rcd13ifvqb90","pricing_plan_id":"cebpf4jnsgd1na2vs0mg"},{"bike_id":"1e43e3c0-dd17-4a35-8a50-d71dae553703","system_id":"levelo_inurba_marseille","lat":43.296277,"lon":5.377108,"is_reserved":false,"is_disabled":false,"rental_uris":{"android":"levelo://app?vid=1e43e3c0-dd17-4a35-8a50-d71dae553703","ios":"levelo://app?vid=1e43e3c0-dd17-4a35-8a50-d71dae553703"},"vehicle_type_id":"4","last_reported":1712959563,"current_range_meters":25200,"station_id":"ce4bgi92rcd13ifvqb90","pricing_plan_id":"cebpf4jnsgd1na2vs0mg"},{"bike_id":"4ff357d3-abe1-4464-94a4-e3eca0bd4a52","system_id":"levelo_inurba_marseille","lat":43.299707,"lon":5.384859,"is_reserved":false,"is_disabled":false,"rental_uris":{"android":"levelo://app?vid=4ff357d3-abe1-4464-94a4-e3eca0bd4a52","ios":"levelo://app?vid=4ff357d3-abe1-4464-94a4-e3eca0bd4a52"},"vehicle_type_id":"4","last_reported":1712959563,"current_range_meters":0,"station_id":"ce4bgj92rcd13ifvqbd0","pricing_plan_id":"cebpf4jnsgd1na2vs0mg"},{"bike_id":"a3462665-64e9-448d-84e7-c61e5a96ade9","system_id":"levelo_inurba_marseille","lat":43.296277,"lon":5.377108,"is_reserved":false,"is_disabled":false,"rental_uris":{"android":"levelo://app?vid=a3462665-64e9-448d-84e7-c61e5a96ade9","ios":"levelo://app?vid=a3462665-64e9-448d-84e7-c61e5a96ade9"},"vehicle_type_id":"4","last_reported":1712959563,"current_range_meters":26400,"station_id":"ce4bgi92rcd13ifvqb90","pricing_plan_id":"cebpf4jnsgd1na2vs0mg"},{"bike_id":"c9b920be-be5c-44bc-9f81-9763223c9a48","system_id":"levelo_inurba_marseille","lat":43.295279,"lon":5.375048,"is_reserved":false,"is_disabled":false,"rental_uris":{"android":"levelo://app?vid=c9b920be-be5c-44bc-9f81-9763223c9a48","ios":"levelo://app?vid=c9b920be-be5c-44bc-9f81-9763223c9a48"},"vehicle_type_id":"4","last_reported":1712959563,"current_range_meters":25200,"station_id":"ce4bgkp2rcd13ifvqbmg","pricing_plan_id":"cebpf4jnsgd1na2vs0mg"},{"bike_id":"9c71595d-cead-4e17-947d-2ace0d39e986","system_id":"levelo_inurba_marseille","lat":43.32367,"lon":5.388836,"is_reserved":false,"is_disabled":false,"rental_uris":{"android":"levelo://app?vid=9c71595d-cead-4e17-947d-2ace0d39e986","ios":"levelo://app?vid=9c71595d-cead-4e17-947d-2ace0d39e986"},"vehicle_type_id":"4","last_reported":1712959563,"current_range_meters":4000,"station_id":"ce4bhqp2rcd13ifvqhog","pricing_plan_id":"cebpf4jnsgd1na2vs0mg"},{"bike_id":"87a47446-1586-4275-a330-21ccd2663eec","system_id":"levelo_inurba_marseille","lat":43.32367,"lon":5.388836,"is_reserved":false,"is_disabled":false,"rental_uris":{"android":"levelo://app?vid=87a47446-1586-4275-a330-21ccd2663eec","ios":"levelo://app?vid=87a47446-1586-4275-a330-21ccd2663eec"},"vehicle_type_id":"4","last_reported":1712959563,"current_range_meters":2400,"station_id":"ce4bhqp2rcd13ifvqhog","pricing_plan_id":"cebpf4jnsgd1na2vs0mg"},{"bike_id":"f61562f9-3d2e-4bad-b4a2-f246cc318496","system_id":"levelo_inurba_marseille","lat":43.32367,"lon":5.388836,"is_reserved":false,"is_disabled":false,"rental_uris":{"android":"levelo://app?vid=f61562f9-3d2e-4bad-b4a2-f246cc318496","ios":"levelo://app?vid=f61562f9-3d2e-4bad-b4a2-f246cc318496"},"vehicle_type_id":"4","last_reported":1712959563,"current_range_meters":22000,"station_id":"ce4bhqp2rcd13ifvqhog","pricing_plan_id":"cebpf4jnsgd1na2vs0mg"},{"bike_id":"fe02a49c-c55e-40d0-a225-4ae35f043698","system_id":"levelo_inurba_marseille","lat":43.32367,"lon":5.388836,"is_reserved":false,"is_disabled":false,"rental_uris":{"android":"levelo://app?vid=fe02a49c-c55e-40d0-a225-4ae35f043698","ios":"levelo://app?vid=fe02a49c-c55e-40d0-a225-4ae35f043698"},"vehicle_type_id":"4","last_reported":1712959563,"current_range_meters":0,"station_id":"ce4bhqp2rcd13ifvqhog","pricing_plan_id":"cebpf4jnsgd1na2vs0mg"},{"bike_id":"f92879e8-6d15-46d6-a097-d8e8ae205312","system_id":"levelo_inurba_marseille","lat":43.32365,"lon":5.38888,"is_reserved":false,"is_disabled":false,"rental_uris":{"android":"levelo://app?vid=f92879e8-6d15-46d6-a097-d8e8ae205312","ios":"levelo://app?vid=f92879e8-6d15-46d6-a097-d8e8ae205312"},"vehicle_type_id":"4","last_reported":1712959563,"current_range_meters":3200,"station_id":"ce4bhqp2rcd13ifvqhog","pricing_plan_id":"cebpf4jnsgd1na2vs0mg"},{"bike_id":"505dc0ba-6b98-4990-a00b-e8d73d59d325","system_id":"levelo_inurba_marseille","lat":43.32367,"lon":5.388836,"is_reserved":false,"is_disabled":false,"rental_uris":{"android":"levelo://app?vid=505dc0ba-6b98-4990-a00b-e8d73d59d325","ios":"levelo://app?vid=505dc0ba-6b98-4990-a00b-e8d73d59d325"},"vehicle_type_id":"4","last_reported":1712959563,"current_range_meters":24400,"station_id":"ce4bhqp2rcd13ifvqhog","pricing_plan_id":"cebpf4jnsgd1na2vs0mg"},{"bike_id":"1e75c24d-18eb-46d9-9e6e-354c7c094e84","system_id":"levelo_inurba_marseille","lat":43.29602,"lon":5.380933,"is_reserved":false,"is_disabled":false,"rental_uris":{"android":"levelo://app?vid=1e75c24d-18eb-46d9-9e6e-354c7c094e84","ios":"levelo://app?vid=1e75c24d-18eb-46d9-9e6e-354c7c094e84"},"vehicle_type_id":"4","last_reported":1712959563,"current_range_meters":0,"station_id":"ce4bgl12rcd13ifvqbo0","pricing_plan_id":"cebpf4jnsgd1na2vs0mg"},{"bike_id":"60d23141-2580-491a-bbaf-b83a42ac2066","system_id":"levelo_inurba_marseille","lat":43.29607,"lon":5.38107,"is_reserved":false,"is_disabled":false,"rental_uris":{"android":"levelo://app?vid=60d23141-2580-491a-bbaf-b83a42ac2066","ios":"levelo://app?vid=60d23141-2580-491a-bbaf-b83a42ac2066"},"vehicle_type_id":"4","last_reported":1712959563,"current_range_meters":0,"station_id":"ce4bgl12rcd13ifvqbo0","pricing_plan_id":"cebpf4jnsgd1na2vs0mg"},{"bike_id":"8f3ea1b8-4336-45a7-94df-cd9899d795cc","system_id":"levelo_inurba_marseille","lat":43.29309,"lon":5.37169,"is_reserved":false,"is_disabled":false,"rental_uris":{"android":"levelo://app?vid=8f3ea1b8-4336-45a7-94df-cd9899d795cc","ios":"levelo://app?vid=8f3ea1b8-4336-45a7-94df-cd9899d795cc"},"vehicle_type_id":"4","last_reported":1712959563,"current_range_meters":0,"station_id":"ce4bgh92rcd13ifvqb40","pricing_plan_id":"cebpf4jnsgd1na2vs0mg"},{"bike_id":"43466ce4-d053-4fab-abf9-02b7b3face19","system_id":"levelo_inurba_marseille","lat":43.293259,"lon":5.371586,"is_reserved":false,"is_disabled":false,"rental_uris":{"android":"levelo://app?vid=43466ce4-d053-4fab-abf9-02b7b3face19","ios":"levelo://app?vid=43466ce4-d053-4fab-abf9-02b7b3face19"},"vehicle_type_id":"4","last_reported":1712959563,"current_range_meters":0,"station_id":"ce4bgh92rcd13ifvqb40","pricing_plan_id":"cebpf4jnsgd1na2vs0mg"},{"bike_id":"176b8a32-94f8-4dda-9c18-a1ffa5768069","system_id":"levelo_inurba_marseille","lat":43.285856,"lon":5.350771,"is_reserved":false,"is_disabled":false,"rental_uris":{"android":"levelo://app?vid=176b8a32-94f8-4dda-9c18-a1ffa5768069","ios":"levelo://app?vid=176b8a32-94f8-4dda-9c18-a1ffa5768069"},"vehicle_type_id":"4","last_reported":1712959563,"current_range_meters":10800,"station_id":"ce4bhch2rcd13ifvqeug","pricing_plan_id":"cebpf4jnsgd1na2vs0mg"},{"bike_id":"02faed84-84fb-46f1-af10-cfb54d9673c7","system_id":"levelo_inurba_marseille","lat":43.293259,"lon":5.371586,"is_reserved":false,"is_disabled":false,"rental_uris":{"android":"levelo://app?vid=02faed84-84fb-46f1-af10-cfb54d9673c7","ios":"levelo://app?vid=02faed84-84fb-46f1-af10-cfb54d9673c7"},"vehicle_type_id":"4","last_reported":1712959563,"current_range_meters":13200,"station_id":"ce4bgh92rcd13ifvqb40","pricing_plan_id":"cebpf4jnsgd1na2vs0mg"},{"bike_id":"2efde5e9-7ab8-410f-a43d-e6b868ebc32e","system_id":"levelo_inurba_marseille","lat":43.29278,"lon":5.36847,"is_reserved":false,"is_disabled":false,"rental_uris":{"android":"levelo://app?vid=2efde5e9-7ab8-410f-a43d-e6b868ebc32e","ios":"levelo://app?vid=2efde5e9-7ab8-410f-a43d-e6b868ebc32e"},"vehicle_type_id":"4","last_reported":1712959563,"current_range_meters":8000,"station_id":"ce4bhbp2rcd13ifvqesg","pricing_plan_id":"cebpf4jnsgd1na2vs0mg"},{"bike_id":"c1083f70-defd-4b1b-a00b-fb2ffc996dfa","system_id":"levelo_inurba_marseille","lat":43.29303,"lon":5.3717,"is_reserved":false,"is_disabled":false,"rental_uris":{"android":"levelo://app?vid=c1083f70-defd-4b1b-a00b-fb2ffc996dfa","ios":"levelo://app?vid=c1083f70-defd-4b1b-a00b-fb2ffc996dfa"},"vehicle_type_id":"4","last_reported":1712959563,"current_range_meters":2000,"station_id":"ce4bgh92rcd13ifvqb40","pricing_plan_id":"cebpf4jnsgd1na2vs0mg"},{"bike_id":"4e1bf405-44e0-462c-af32-bb20d8b99a41","system_id":"levelo_inurba_marseille","lat":43.293249,"lon":5.371578,"is_reserved":false,"is_disabled":false,"rental_uris":{"android":"levelo://app?vid=4e1bf405-44e0-462c-af32-bb20d8b99a41","ios":"levelo://app?vid=4e1bf405-44e0-462c-af32-bb20d8b99a41"},"vehicle_type_id":"4","last_reported":1712959563,"current_range_meters":0,"station_id":"ce4bgh92rcd13ifvqb40","pricing_plan_id":"cebpf4jnsgd1na2vs0mg"},{"bike_id":"678c5173-6f30-4fa6-83a1-3293dd342bcc","system_id":"levelo_inurba_marseille","lat":43.292749,"lon":5.368402,"is_reserved":false,"is_disabled":false,"rental_uris":{"android":"levelo://app?vid=678c5173-6f30-4fa6-83a1-3293dd342bcc","ios":"levelo://app?vid=678c5173-6f30-4fa6-83a1-3293dd342bcc"},"vehicle_type_id":"4","last_reported":1712959563,"current_range_meters":0,"station_id":"ce4bhbp2rcd13ifvqesg","pricing_plan_id":"cebpf4jnsgd1na2vs0mg"},{"bike_id":"b9536f79-2f97-47ed-9709-77496d949f5d","system_id":"levelo_inurba_marseille","lat":43.29306,"lon":5.37446,"is_reserved":false,"is_disabled":false,"rental_uris":{"android":"levelo://app?vid=b9536f79-2f97-47ed-9709-77496d949f5d","ios":"levelo://app?vid=b9536f79-2f97-47ed-9709-77496d949f5d"},"vehicle_type_id":"4","last_reported":1712959563,"current_range_meters":0,"station_id":"ce4bgi12rcd13ifvqb70","pricing_plan_id":"cebpf4jnsgd1na2vs0mg"},{"bike_id":"7afdad0e-812c-4da0-9222-9a931ddc744e","system_id":"levelo_inurba_marseille","lat":43.305994,"lon":5.393687,"is_reserved":false,"is_disabled":false,"rental_uris":{"android":"levelo://app?vid=7afdad0e-812c-4da0-9222-9a931ddc744e","ios":"levelo://app?vid=7afdad0e-812c-4da0-9222-9a931ddc744e"},"vehicle_type_id":"4","last_reported":1712959563,"current_range_meters":8800,"station_id":"ce4bh0p2rcd13ifvqd80","pricing_plan_id":"cebpf4jnsgd1na2vs0mg"},{"bike_id":"0da7e8ee-1524-4f37-b442-4eee87b5ccc9","system_id":"levelo_inurba_marseille","lat":43.29298,"lon":5.37465,"is_reserved":false,"is_disabled":false,"rental_uris":{"android":"levelo://app?vid=0da7e8ee-1524-4f37-b442-4eee87b5ccc9","ios":"levelo://app?vid=0da7e8ee-1524-4f37-b442-4eee87b5ccc9"},"vehicle_type_id":"4","last_reported":1712959563,"current_range_meters":0,"station_id":"ce4bgi12rcd13ifvqb70","pricing_plan_id":"cebpf4jnsgd1na2vs0mg"},{"bike_id":"5f813806-9963-4f12-86be-f82de358a04a","system_id":"levelo_inurba_marseille","lat":43.305994,"lon":5.393687,"is_reserved":false,"is_disabled":false,"rental_uris":{"android":"levelo://app?vid=5f813806-9963-4f12-86be-f82de358a04a","ios":"levelo://app?vid=5f813806-9963-4f12-86be-f82de358a04a"},"vehicle_type_id":"4","last_reported":1712959563,"current_range_meters":16000,"station_id":"ce4bh0p2rcd13ifvqd80","pricing_plan_id":"cebpf4jnsgd1na2vs0mg"},{"bike_id":"8db23a51-c831-4c11-a753-5c16e9330335","system_id":"levelo_inurba_marseille","lat":43.31529,"lon":5.39523,"is_reserved":false,"is_disabled":false,"rental_uris":{"android":"levelo://app?vid=8db23a51-c831-4c11-a753-5c16e9330335","ios":"levelo://app?vid=8db23a51-c831-4c11-a753-5c16e9330335"},"vehicle_type_id":"4","last_reported":1712959563,"current_range_meters":6400,"station_id":"","pricing_plan_id":"cebpf4jnsgd1na2vs0mg"},{"bike_id":"c92ce085-7380-41e6-a197-1a284f57eaae","system_id":"levelo_inurba_marseille","lat":43.303,"lon":5.39217,"is_reserved":false,"is_disabled":false,"rental_uris":{"android":"levelo://app?vid=c92ce085-7380-41e6-a197-1a284f57eaae","ios":"levelo://app?vid=c92ce085-7380-41e6-a197-1a284f57eaae"},"vehicle_type_id":"4","last_reported":1712959563,"current_range_meters":24000,"station_id":"ce4bgkh2rcd13ifvqbk0","pricing_plan_id":"cebpf4jnsgd1na2vs0mg"},{"bike_id":"9188750a-8179-4229-b11a-c7d30a99aa63","system_id":"levelo_inurba_marseille","lat":43.29369,"lon":5.37844,"is_reserved":false,"is_disabled":false,"rental_uris":{"android":"levelo://app?vid=9188750a-8179-4229-b11a-c7d30a99aa63","ios":"levelo://app?vid=9188750a-8179-4229-b11a-c7d30a99aa63"},"vehicle_type_id":"4","last_reported":1712959563,"current_range_meters":0,"station_id":"ce4bgjh2rcd13ifvqbf0","pricing_plan_id":"cebpf4jnsgd1na2vs0mg"},{"bike_id":"292ba0b2-0bf1-4096-8c16-ec97d3db5058","system_id":"levelo_inurba_marseille","lat":43.302992,"lon":5.392136,"is_reserved":false,"is_disabled":false,"rental_uris":{"android":"levelo://app?vid=292ba0b2-0bf1-4096-8c16-ec97d3db5058","ios":"levelo://app?vid=292ba0b2-0bf1-4096-8c16-ec97d3db5058"},"vehicle_type_id":"4","last_reported":1712959563,"current_range_meters":23200,"station_id":"ce4bgkh2rcd13ifvqbk0","pricing_plan_id":"cebpf4jnsgd1na2vs0mg"},{"bike_id":"b24e5d48-f984-4b47-97e4-4512e8ae5efc","system_id":"levelo_inurba_marseille","lat":43.303015,"lon":5.392315,"is_reserved":false,"is_disabled":false,"rental_uris":{"android":"levelo://app?vid=b24e5d48-f984-4b47-97e4-4512e8ae5efc","ios":"levelo://app?vid=b24e5d48-f984-4b47-97e4-4512e8ae5efc"},"vehicle_type_id":"4","last_reported":1712959563,"current_range_meters":0,"station_id":"ce4bgkh2rcd13ifvqbk0","pricing_plan_id":"cebpf4jnsgd1na2vs0mg"},{"bike_id":"2fff8e8c-05d4-49ab-a19c-35efda8dfa89","system_id":"levelo_inurba_marseille","lat":43.291675,"lon":5.371583,"is_reserved":false,"is_disabled":false,"rental_uris":{"android":"levelo://app?vid=2fff8e8c-05d4-49ab-a19c-35efda8dfa89","ios":"levelo://app?vid=2fff8e8c-05d4-49ab-a19c-35efda8dfa89"},"vehicle_type_id":"4","last_reported":1712959563,"current_range_meters":23600,"station_id":"ce4bha92rcd13ifvqeh0","pricing_plan_id":"cebpf4jnsgd1na2vs0mg"},{"bike_id":"60e21e4a-3ebb-4fb7-b06b-d1e2e055eb8b","system_id":"levelo_inurba_marseille","lat":43.298764,"lon":5.388973,"is_reserved":false,"is_disabled":false,"rental_uris":{"android":"levelo://app?vid=60e21e4a-3ebb-4fb7-b06b-d1e2e055eb8b","ios":"levelo://app?vid=60e21e4a-3ebb-4fb7-b06b-d1e2e055eb8b"},"vehicle_type_id":"4","last_reported":1712959563,"current_range_meters":0,"station_id":"ce4bh392rcd13ifvqdl0","pricing_plan_id":"cebpf4jnsgd1na2vs0mg"},{"bike_id":"cddbbff5-c3b2-4ba8-9b6a-d693fd33d9e7","system_id":"levelo_inurba_marseille","lat":43.292005,"lon":5.357875,"is_reserved":false,"is_disabled":false,"rental_uris":{"android":"levelo://app?vid=cddbbff5-c3b2-4ba8-9b6a-d693fd33d9e7","ios":"levelo://app?vid=cddbbff5-c3b2-4ba8-9b6a-d693fd33d9e7"},"vehicle_type_id":"4","last_reported":1712959563,"current_range_meters":10000,"station_id":"ce4bhb12rcd13ifvqel0","pricing_plan_id":"cebpf4jnsgd1na2vs0mg"},{"bike_id":"7386aa34-1339-4aed-a053-334bee4cfa06","system_id":"levelo_inurba_marseille","lat":43.313291,"lon":5.396838,"is_reserved":false,"is_disabled":false,"rental_uris":{"android":"levelo://app?vid=7386aa34-1339-4aed-a053-334bee4cfa06","ios":"levelo://app?vid=7386aa34-1339-4aed-a053-334bee4cfa06"},"vehicle_type_id":"4","last_reported":1712959563,"current_range_meters":3600,"station_id":"ce4bgvp2rcd13ifvqcu0","pricing_plan_id":"cebpf4jnsgd1na2vs0mg"},{"bike_id":"d3387c11-df87-4d87-89fd-aa125fe44f9f","system_id":"levelo_inurba_marseille","lat":43.30882,"lon":5.39636,"is_reserved":false,"is_disabled":false,"rental_uris":{"android":"levelo://app?vid=d3387c11-df87-4d87-89fd-aa125fe44f9f","ios":"levelo://app?vid=d3387c11-df87-4d87-89fd-aa125fe44f9f"},"vehicle_type_id":"4","last_reported":1712959563,"current_range_meters":0,"station_id":"ce4bh012rcd13ifvqcv0","pricing_plan_id":"cebpf4jnsgd1na2vs0mg"},{"bike_id":"2397688c-6d80-47d4-a6a7-cfda44fbc2b1","system_id":"levelo_inurba_marseille","lat":43.31331,"lon":5.39686,"is_reserved":false,"is_disabled":false,"rental_uris":{"android":"levelo://app?vid=2397688c-6d80-47d4-a6a7-cfda44fbc2b1","ios":"levelo://app?vid=2397688c-6d80-47d4-a6a7-cfda44fbc2b1"},"vehicle_type_id":"4","last_reported":1712959563,"current_range_meters":11200,"station_id":"ce4bgvp2rcd13ifvqcu0","pricing_plan_id":"cebpf4jnsgd1na2vs0mg"},{"bike_id":"5034db07-6e79-4069-9d84-736dc04487ff","system_id":"levelo_inurba_marseille","lat":43.291931,"lon":5.358037,"is_reserved":false,"is_disabled":false,"rental_uris":{"android":"levelo://app?vid=5034db07-6e79-4069-9d84-736dc04487ff","ios":"levelo://app?vid=5034db07-6e79-4069-9d84-736dc04487ff"},"vehicle_type_id":"4","last_reported":1712959563,"current_range_meters":0,"station_id":"ce4bhb12rcd13ifvqel0","pricing_plan_id":"cebpf4jnsgd1na2vs0mg"},{"bike_id":"243e8223-b01c-4587-bade-2a805e968ce6","system_id":"levelo_inurba_marseille","lat":43.313291,"lon":5.396838,"is_reserved":false,"is_disabled":false,"rental_uris":{"android":"levelo://app?vid=243e8223-b01c-4587-bade-2a805e968ce6","ios":"levelo://app?vid=243e8223-b01c-4587-bade-2a805e968ce6"},"vehicle_type_id":"4","last_reported":1712959563,"current_range_meters":14000,"station_id":"ce4bgvp2rcd13ifvqcu0","pricing_plan_id":"cebpf4jnsgd1na2vs0mg"},{"bike_id":"feac052d-246a-4e96-8c18-09370cc9ac9f","system_id":"levelo_inurba_marseille","lat":43.29196,"lon":5.35787,"is_reserved":false,"is_disabled":false,"rental_uris":{"android":"levelo://app?vid=feac052d-246a-4e96-8c18-09370cc9ac9f","ios":"levelo://app?vid=feac052d-246a-4e96-8c18-09370cc9ac9f"},"vehicle_type_id":"4","last_reported":1712959563,"current_range_meters":0,"station_id":"ce4bhb12rcd13ifvqel0","pricing_plan_id":"cebpf4jnsgd1na2vs0mg"},{"bike_id":"5ebe0251-3709-4060-b643-9a655be0fc36","system_id":"levelo_inurba_marseille","lat":43.29192,"lon":5.358,"is_reserved":false,"is_disabled":false,"rental_uris":{"android":"levelo://app?vid=5ebe0251-3709-4060-b643-9a655be0fc36","ios":"levelo://app?vid=5ebe0251-3709-4060-b643-9a655be0fc36"},"vehicle_type_id":"4","last_reported":1712959563,"current_range_meters":0,"station_id":"ce4bhb12rcd13ifvqel0","pricing_plan_id":"cebpf4jnsgd1na2vs0mg"},{"bike_id":"bf2ac444-58f0-4d19-b298-639a734eb717","system_id":"levelo_inurba_marseille","lat":43.313291,"lon":5.396838,"is_reserved":false,"is_disabled":false,"rental_uris":{"android":"levelo://app?vid=bf2ac444-58f0-4d19-b298-639a734eb717","ios":"levelo://app?vid=bf2ac444-58f0-4d19-b298-639a734eb717"},"vehicle_type_id":"4","last_reported":1712959563,"current_range_meters":400,"station_id":"ce4bgvp2rcd13ifvqcu0","pricing_plan_id":"cebpf4jnsgd1na2vs0mg"},{"bike_id":"8824a936-11e5-4a7c-8ae1-4d0b856fe432","system_id":"levelo_inurba_marseille","lat":43.313291,"lon":5.396838,"is_reserved":false,"is_disabled":false,"rental_uris":{"android":"levelo://app?vid=8824a936-11e5-4a7c-8ae1-4d0b856fe432","ios":"levelo://app?vid=8824a936-11e5-4a7c-8ae1-4d0b856fe432"},"vehicle_type_id":"4","last_reported":1712959563,"current_range_meters":12400,"station_id":"ce4bgvp2rcd13ifvqcu0","pricing_plan_id":"cebpf4jnsgd1na2vs0mg"},{"bike_id":"24d39aca-4679-4269-8ea6-b99646c03e80","system_id":"levelo_inurba_marseille","lat":43.313291,"lon":5.396838,"is_reserved":false,"is_disabled":false,"rental_uris":{"android":"levelo://app?vid=24d39aca-4679-4269-8ea6-b99646c03e80","ios":"levelo://app?vid=24d39aca-4679-4269-8ea6-b99646c03e80"},"vehicle_type_id":"4","last_reported":1712959563,"current_range_meters":22000,"station_id":"ce4bgvp2rcd13ifvqcu0","pricing_plan_id":"cebpf4jnsgd1na2vs0mg"},{"bike_id":"a51ea956-2d0f-43f9-b4f2-c4827c123280","system_id":"levelo_inurba_marseille","lat":43.313291,"lon":5.396838,"is_reserved":false,"is_disabled":false,"rental_uris":{"android":"levelo://app?vid=a51ea956-2d0f-43f9-b4f2-c4827c123280","ios":"levelo://app?vid=a51ea956-2d0f-43f9-b4f2-c4827c123280"},"vehicle_type_id":"4","last_reported":1712959563,"current_range_meters":8400,"station_id":"ce4bgvp2rcd13ifvqcu0","pricing_plan_id":"cebpf4jnsgd1na2vs0mg"},{"bike_id":"762c4e78-d23f-4e0a-85e8-b68009ce37f4","system_id":"levelo_inurba_marseille","lat":43.313291,"lon":5.396838,"is_reserved":false,"is_disabled":false,"rental_uris":{"android":"levelo://app?vid=762c4e78-d23f-4e0a-85e8-b68009ce37f4","ios":"levelo://app?vid=762c4e78-d23f-4e0a-85e8-b68009ce37f4"},"vehicle_type_id":"4","last_reported":1712959563,"current_range_meters":0,"station_id":"ce4bgvp2rcd13ifvqcu0","pricing_plan_id":"cebpf4jnsgd1na2vs0mg"},{"bike_id":"b2cb1e09-6632-486e-99f3-02b8501929ab","system_id":"levelo_inurba_marseille","lat":43.313291,"lon":5.396838,"is_reserved":false,"is_disabled":false,"rental_uris":{"android":"levelo://app?vid=b2cb1e09-6632-486e-99f3-02b8501929ab","ios":"levelo://app?vid=b2cb1e09-6632-486e-99f3-02b8501929ab"},"vehicle_type_id":"4","last_reported":1712959563,"current_range_meters":19600,"station_id":"ce4bgvp2rcd13ifvqcu0","pricing_plan_id":"cebpf4jnsgd1na2vs0mg"},{"bike_id":"6dcf9faf-c9e5-43ab-bfc5-1c3f6f300e72","system_id":"levelo_inurba_marseille","lat":43.309047,"lon":5.396551,"is_reserved":false,"is_disabled":false,"rental_uris":{"android":"levelo://app?vid=6dcf9faf-c9e5-43ab-bfc5-1c3f6f300e72","ios":"levelo://app?vid=6dcf9faf-c9e5-43ab-bfc5-1c3f6f300e72"},"vehicle_type_id":"4","last_reported":1712959563,"current_range_meters":8800,"station_id":"ce4bh012rcd13ifvqcv0","pricing_plan_id":"cebpf4jnsgd1na2vs0mg"},{"bike_id":"b3afa7ad-ec3c-47b8-a275-c8a6cd354115","system_id":"levelo_inurba_marseille","lat":43.291869,"lon":5.357876,"is_reserved":false,"is_disabled":false,"rental_uris":{"android":"levelo://app?vid=b3afa7ad-ec3c-47b8-a275-c8a6cd354115","ios":"levelo://app?vid=b3afa7ad-ec3c-47b8-a275-c8a6cd354115"},"vehicle_type_id":"4","last_reported":1712959563,"current_range_meters":0,"station_id":"ce4bhb12rcd13ifvqel0","pricing_plan_id":"cebpf4jnsgd1na2vs0mg"},{"bike_id":"745a5e9a-478d-45e8-a4df-b33f15f73280","system_id":"levelo_inurba_marseille","lat":43.313291,"lon":5.396838,"is_reserved":false,"is_disabled":false,"rental_uris":{"android":"levelo://app?vid=745a5e9a-478d-45e8-a4df-b33f15f73280","ios":"levelo://app?vid=745a5e9a-478d-45e8-a4df-b33f15f73280"},"vehicle_type_id":"4","last_reported":1712959563,"current_range_meters":0,"station_id":"ce4bgvp2rcd13ifvqcu0","pricing_plan_id":"cebpf4jnsgd1na2vs0mg"},{"bike_id":"70199b89-c1b8-412d-8911-6d2525af0ae1","system_id":"levelo_inurba_marseille","lat":43.309038,"lon":5.396546,"is_reserved":false,"is_disabled":false,"rental_uris":{"android":"levelo://app?vid=70199b89-c1b8-412d-8911-6d2525af0ae1","ios":"levelo://app?vid=70199b89-c1b8-412d-8911-6d2525af0ae1"},"vehicle_type_id":"4","last_reported":1712959563,"current_range_meters":28400,"station_id":"ce4bh012rcd13ifvqcv0","pricing_plan_id":"cebpf4jnsgd1na2vs0mg"},{"bike_id":"239df0f4-d2f3-4640-9ec4-18701c6410c0","system_id":"levelo_inurba_marseille","lat":43.309038,"lon":5.396546,"is_reserved":false,"is_disabled":false,"rental_uris":{"android":"levelo://app?vid=239df0f4-d2f3-4640-9ec4-18701c6410c0","ios":"levelo://app?vid=239df0f4-d2f3-4640-9ec4-18701c6410c0"},"vehicle_type_id":"4","last_reported":1712959563,"current_range_meters":3600,"station_id":"ce4bh012rcd13ifvqcv0","pricing_plan_id":"cebpf4jnsgd1na2vs0mg"},{"bike_id":"2de0583c-69c4-44be-80ca-36425c5a0868","system_id":"levelo_inurba_marseille","lat":43.320045,"lon":5.415046,"is_reserved":false,"is_disabled":false,"rental_uris":{"android":"levelo://app?vid=2de0583c-69c4-44be-80ca-36425c5a0868","ios":"levelo://app?vid=2de0583c-69c4-44be-80ca-36425c5a0868"},"vehicle_type_id":"4","last_reported":1712959563,"current_range_meters":12800,"station_id":"ce4bhq92rcd13ifvqhkg","pricing_plan_id":"cebpf4jnsgd1na2vs0mg"},{"bike_id":"e99e3155-12c3-40c9-b502-13b2ef09d653","system_id":"levelo_inurba_marseille","lat":43.29529,"lon":5.385581,"is_reserved":false,"is_disabled":false,"rental_uris":{"android":"levelo://app?vid=e99e3155-12c3-40c9-b502-13b2ef09d653","ios":"levelo://app?vid=e99e3155-12c3-40c9-b502-13b2ef09d653"},"vehicle_type_id":"4","last_reported":1712959563,"current_range_meters":0,"station_id":"ce4bgih2rcd13ifvqba0","pricing_plan_id":"cebpf4jnsgd1na2vs0mg"},{"bike_id":"43bcc4a8-e1b1-4ae2-bcc3-67e4af1aa28f","system_id":"levelo_inurba_marseille","lat":43.29179,"lon":5.35675,"is_reserved":false,"is_disabled":false,"rental_uris":{"android":"levelo://app?vid=43bcc4a8-e1b1-4ae2-bcc3-67e4af1aa28f","ios":"levelo://app?vid=43bcc4a8-e1b1-4ae2-bcc3-67e4af1aa28f"},"vehicle_type_id":"4","last_reported":1712959563,"current_range_meters":0,"station_id":"","pricing_plan_id":"cebpf4jnsgd1na2vs0mg"},{"bike_id":"47bb9374-df45-4a3d-a875-b4d474473e2a","system_id":"levelo_inurba_marseille","lat":43.29054,"lon":5.37158,"is_reserved":false,"is_disabled":false,"rental_uris":{"android":"levelo://app?vid=47bb9374-df45-4a3d-a875-b4d474473e2a","ios":"levelo://app?vid=47bb9374-df45-4a3d-a875-b4d474473e2a"},"vehicle_type_id":"4","last_reported":1712959563,"current_range_meters":0,"station_id":"ce4bh5p2rcd13ifvqe4g","pricing_plan_id":"cebpf4jnsgd1na2vs0mg"},{"bike_id":"7c16d5ab-a8ee-42d6-8662-b74c217018ae","system_id":"levelo_inurba_marseille","lat":43.290507,"lon":5.359239,"is_reserved":false,"is_disabled":false,"rental_uris":{"android":"levelo://app?vid=7c16d5ab-a8ee-42d6-8662-b74c217018ae","ios":"levelo://app?vid=7c16d5ab-a8ee-42d6-8662-b74c217018ae"},"vehicle_type_id":"4","last_reported":1712959563,"current_range_meters":15200,"station_id":"","pricing_plan_id":"cebpf4jnsgd1na2vs0mg"},{"bike_id":"b910bfa1-0f65-4294-9ee7-c9a86e8b7451","system_id":"levelo_inurba_marseille","lat":43.290631,"lon":5.359244,"is_reserved":false,"is_disabled":false,"rental_uris":{"android":"levelo://app?vid=b910bfa1-0f65-4294-9ee7-c9a86e8b7451","ios":"levelo://app?vid=b910bfa1-0f65-4294-9ee7-c9a86e8b7451"},"vehicle_type_id":"4","last_reported":1712959563,"current_range_meters":400,"station_id":"ce4bha92rcd13ifvqeg0","pricing_plan_id":"cebpf4jnsgd1na2vs0mg"},{"bike_id":"db6f312d-a790-4ccb-b192-ce4d5329be28","system_id":"levelo_inurba_marseille","lat":43.29418,"lon":5.38623,"is_reserved":false,"is_disabled":false,"rental_uris":{"android":"levelo://app?vid=db6f312d-a790-4ccb-b192-ce4d5329be28","ios":"levelo://app?vid=db6f312d-a790-4ccb-b192-ce4d5329be28"},"vehicle_type_id":"4","last_reported":1712959563,"current_range_meters":0,"station_id":"ce4bh2h2rcd13ifvqdh0","pricing_plan_id":"cebpf4jnsgd1na2vs0mg"},{"bike_id":"385307aa-aedc-43a8-92f5-08f9ba01a673","system_id":"levelo_inurba_marseille","lat":43.305994,"lon":5.393687,"is_reserved":false,"is_disabled":false,"rental_uris":{"android":"levelo://app?vid=385307aa-aedc-43a8-92f5-08f9ba01a673","ios":"levelo://app?vid=385307aa-aedc-43a8-92f5-08f9ba01a673"},"vehicle_type_id":"4","last_reported":1712959563,"current_range_meters":6000,"station_id":"ce4bh0p2rcd13ifvqd80","pricing_plan_id":"cebpf4jnsgd1na2vs0mg"},{"bike_id":"d75bd815-16bb-4d67-b924-1b46383133cc","system_id":"levelo_inurba_marseille","lat":43.28945,"lon":5.36637,"is_reserved":false,"is_disabled":false,"rental_uris":{"android":"levelo://app?vid=d75bd815-16bb-4d67-b924-1b46383133cc","ios":"levelo://app?vid=d75bd815-16bb-4d67-b924-1b46383133cc"},"vehicle_type_id":"4","last_reported":1712959563,"current_range_meters":2400,"station_id":"ce4bhap2rcd13ifvqek0","pricing_plan_id":"cebpf4jnsgd1na2vs0mg"},{"bike_id":"6a194b50-9b1e-4c9a-8519-c68381593c3a","system_id":"levelo_inurba_marseille","lat":43.28945,"lon":5.36637,"is_reserved":false,"is_disabled":false,"rental_uris":{"android":"levelo://app?vid=6a194b50-9b1e-4c9a-8519-c68381593c3a","ios":"levelo://app?vid=6a194b50-9b1e-4c9a-8519-c68381593c3a"},"vehicle_type_id":"4","last_reported":1712959563,"current_range_meters":30000,"station_id":"","pricing_plan_id":"cebpf4jnsgd1na2vs0mg"},{"bike_id":"8efeb73b-947f-431b-91ba-3b67b196741b","system_id":"levelo_inurba_marseille","lat":43.29417,"lon":5.38628,"is_reserved":false,"is_disabled":false,"rental_uris":{"android":"levelo://app?vid=8efeb73b-947f-431b-91ba-3b67b196741b","ios":"levelo://app?vid=8efeb73b-947f-431b-91ba-3b67b196741b"},"vehicle_type_id":"4","last_reported":1712959563,"current_range_meters":0,"station_id":"ce4bh2h2rcd13ifvqdh0","pricing_plan_id":"cebpf4jnsgd1na2vs0mg"},{"bike_id":"7d976dfa-9f6d-40cb-a24c-b7eb245fc2a6","system_id":"levelo_inurba_marseille","lat":43.28941,"lon":5.36631,"is_reserved":false,"is_disabled":false,"rental_uris":{"android":"levelo://app?vid=7d976dfa-9f6d-40cb-a24c-b7eb245fc2a6","ios":"levelo://app?vid=7d976dfa-9f6d-40cb-a24c-b7eb245fc2a6"},"vehicle_type_id":"4","last_reported":1712959563,"current_range_meters":31200,"station_id":"ce4bhap2rcd13ifvqek0","pricing_plan_id":"cebpf4jnsgd1na2vs0mg"},{"bike_id":"e6ce9407-952f-4aad-bc8e-17bffbcbcc1a","system_id":"levelo_inurba_marseille","lat":43.289388,"lon":5.366302,"is_reserved":false,"is_disabled":false,"rental_uris":{"android":"levelo://app?vid=e6ce9407-952f-4aad-bc8e-17bffbcbcc1a","ios":"levelo://app?vid=e6ce9407-952f-4aad-bc8e-17bffbcbcc1a"},"vehicle_type_id":"4","last_reported":1712959563,"current_range_meters":18400,"station_id":"ce4bhap2rcd13ifvqek0","pricing_plan_id":"cebpf4jnsgd1na2vs0mg"},{"bike_id":"c8f3e363-372e-42ba-808e-aa197eaefeb2","system_id":"levelo_inurba_marseille","lat":43.289184,"lon":5.366408,"is_reserved":false,"is_disabled":false,"rental_uris":{"android":"levelo://app?vid=c8f3e363-372e-42ba-808e-aa197eaefeb2","ios":"levelo://app?vid=c8f3e363-372e-42ba-808e-aa197eaefeb2"},"vehicle_type_id":"4","last_reported":1712959563,"current_range_meters":17200,"station_id":"ce4bhap2rcd13ifvqek0","pricing_plan_id":"cebpf4jnsgd1na2vs0mg"},{"bike_id":"a9e0cf09-8e8b-40a6-a616-b61fa4489801","system_id":"levelo_inurba_marseille","lat":43.289468,"lon":5.363719,"is_reserved":false,"is_disabled":false,"rental_uris":{"android":"levelo://app?vid=a9e0cf09-8e8b-40a6-a616-b61fa4489801","ios":"levelo://app?vid=a9e0cf09-8e8b-40a6-a616-b61fa4489801"},"vehicle_type_id":"4","last_reported":1712959563,"current_range_meters":0,"station_id":"ce4bhc92rcd13ifvqetg","pricing_plan_id":"cebpf4jnsgd1na2vs0mg"},{"bike_id":"498d7802-ed4a-4fbf-946b-0e52f4fd77da","system_id":"levelo_inurba_marseille","lat":43.289468,"lon":5.363719,"is_reserved":false,"is_disabled":false,"rental_uris":{"android":"levelo://app?vid=498d7802-ed4a-4fbf-946b-0e52f4fd77da","ios":"levelo://app?vid=498d7802-ed4a-4fbf-946b-0e52f4fd77da"},"vehicle_type_id":"4","last_reported":1712959563,"current_range_meters":20800,"station_id":"ce4bhc92rcd13ifvqetg","pricing_plan_id":"cebpf4jnsgd1na2vs0mg"},{"bike_id":"4501eb9d-7ca9-4049-a39f-c229364b209c","system_id":"levelo_inurba_marseille","lat":43.289468,"lon":5.363719,"is_reserved":false,"is_disabled":false,"rental_uris":{"android":"levelo://app?vid=4501eb9d-7ca9-4049-a39f-c229364b209c","ios":"levelo://app?vid=4501eb9d-7ca9-4049-a39f-c229364b209c"},"vehicle_type_id":"4","last_reported":1712959563,"current_range_meters":3600,"station_id":"ce4bhc92rcd13ifvqetg","pricing_plan_id":"cebpf4jnsgd1na2vs0mg"},{"bike_id":"fd894645-a48e-4131-afae-7435c2d74875","system_id":"levelo_inurba_marseille","lat":43.304274,"lon":5.397513,"is_reserved":false,"is_disabled":false,"rental_uris":{"android":"levelo://app?vid=fd894645-a48e-4131-afae-7435c2d74875","ios":"levelo://app?vid=fd894645-a48e-4131-afae-7435c2d74875"},"vehicle_type_id":"4","last_reported":1712959563,"current_range_meters":18800,"station_id":"ce4bh092rcd13ifvqd20","pricing_plan_id":"cebpf4jnsgd1na2vs0mg"},{"bike_id":"af1df5bb-f59d-48ed-ab34-fc05fae22bdc","system_id":"levelo_inurba_marseille","lat":43.292644,"lon":5.384257,"is_reserved":false,"is_disabled":false,"rental_uris":{"android":"levelo://app?vid=af1df5bb-f59d-48ed-ab34-fc05fae22bdc","ios":"levelo://app?vid=af1df5bb-f59d-48ed-ab34-fc05fae22bdc"},"vehicle_type_id":"4","last_reported":1712959563,"current_range_meters":11600,"station_id":"ce4bh692rcd13ifvqea0","pricing_plan_id":"cebpf4jnsgd1na2vs0mg"},{"bike_id":"e5dac0d1-4b77-4c13-bcad-7be4fe90ea6a","system_id":"levelo_inurba_marseille","lat":43.304296,"lon":5.397513,"is_reserved":false,"is_disabled":false,"rental_uris":{"android":"levelo://app?vid=e5dac0d1-4b77-4c13-bcad-7be4fe90ea6a","ios":"levelo://app?vid=e5dac0d1-4b77-4c13-bcad-7be4fe90ea6a"},"vehicle_type_id":"4","last_reported":1712959563,"current_range_meters":19200,"station_id":"ce4bh092rcd13ifvqd20","pricing_plan_id":"cebpf4jnsgd1na2vs0mg"},{"bike_id":"d5e0985f-dcf3-4e53-a2a0-5530aaf35979","system_id":"levelo_inurba_marseille","lat":43.283494,"lon":5.380945,"is_reserved":false,"is_disabled":false,"rental_uris":{"android":"levelo://app?vid=d5e0985f-dcf3-4e53-a2a0-5530aaf35979","ios":"levelo://app?vid=d5e0985f-dcf3-4e53-a2a0-5530aaf35979"},"vehicle_type_id":"4","last_reported":1712959563,"current_range_meters":2400,"station_id":"ce4bh412rcd13ifvqdr0","pricing_plan_id":"cebpf4jnsgd1na2vs0mg"},{"bike_id":"098c2bb8-6acc-4a07-9f44-a2a8a882e529","system_id":"levelo_inurba_marseille","lat":43.29257,"lon":5.38446,"is_reserved":false,"is_disabled":false,"rental_uris":{"android":"levelo://app?vid=098c2bb8-6acc-4a07-9f44-a2a8a882e529","ios":"levelo://app?vid=098c2bb8-6acc-4a07-9f44-a2a8a882e529"},"vehicle_type_id":"4","last_reported":1712959563,"current_range_meters":15200,"station_id":"","pricing_plan_id":"cebpf4jnsgd1na2vs0mg"},{"bike_id":"f39e6f5a-9807-424a-9fb8-0145ff35f78b","system_id":"levelo_inurba_marseille","lat":43.290104,"lon":5.356111,"is_reserved":false,"is_disabled":false,"rental_uris":{"android":"levelo://app?vid=f39e6f5a-9807-424a-9fb8-0145ff35f78b","ios":"levelo://app?vid=f39e6f5a-9807-424a-9fb8-0145ff35f78b"},"vehicle_type_id":"4","last_reported":1712959563,"current_range_meters":28400,"station_id":"ce4bhb92rcd13ifvqen0","pricing_plan_id":"cebpf4jnsgd1na2vs0mg"},{"bike_id":"844e4278-4033-407a-bfab-852060ec0580","system_id":"levelo_inurba_marseille","lat":43.290103,"lon":5.356114,"is_reserved":false,"is_disabled":false,"rental_uris":{"android":"levelo://app?vid=844e4278-4033-407a-bfab-852060ec0580","ios":"levelo://app?vid=844e4278-4033-407a-bfab-852060ec0580"},"vehicle_type_id":"4","last_reported":1712959563,"current_range_meters":1600,"station_id":"ce4bhb92rcd13ifvqen0","pricing_plan_id":"cebpf4jnsgd1na2vs0mg"},{"bike_id":"f9cd247d-0a2e-47e7-bbcd-d68888a219a0","system_id":"levelo_inurba_marseille","lat":43.290104,"lon":5.356111,"is_reserved":false,"is_disabled":false,"rental_uris":{"android":"levelo://app?vid=f9cd247d-0a2e-47e7-bbcd-d68888a219a0","ios":"levelo://app?vid=f9cd247d-0a2e-47e7-bbcd-d68888a219a0"},"vehicle_type_id":"4","last_reported":1712959563,"current_range_meters":23600,"station_id":"ce4bhb92rcd13ifvqen0","pricing_plan_id":"cebpf4jnsgd1na2vs0mg"},{"bike_id":"677f5076-bc9d-43e7-bf35-38250d6b5ffd","system_id":"levelo_inurba_marseille","lat":43.28856,"lon":5.358371,"is_reserved":false,"is_disabled":false,"rental_uris":{"android":"levelo://app?vid=677f5076-bc9d-43e7-bf35-38250d6b5ffd","ios":"levelo://app?vid=677f5076-bc9d-43e7-bf35-38250d6b5ffd"},"vehicle_type_id":"4","last_reported":1712959563,"current_range_meters":24000,"station_id":"ce4bhb12rcd13ifvqem0","pricing_plan_id":"cebpf4jnsgd1na2vs0mg"},{"bike_id":"08ef55ba-27d4-4854-9e5f-92bb997b631f","system_id":"levelo_inurba_marseille","lat":43.29097,"lon":5.38133,"is_reserved":false,"is_disabled":false,"rental_uris":{"android":"levelo://app?vid=08ef55ba-27d4-4854-9e5f-92bb997b631f","ios":"levelo://app?vid=08ef55ba-27d4-4854-9e5f-92bb997b631f"},"vehicle_type_id":"4","last_reported":1712959563,"current_range_meters":0,"station_id":"ce4bh512rcd13ifvqe2g","pricing_plan_id":"cebpf4jnsgd1na2vs0mg"},{"bike_id":"4d8b49c9-bfb8-4c9b-a49b-3cf24000529c","system_id":"levelo_inurba_marseille","lat":43.291,"lon":5.38146,"is_reserved":false,"is_disabled":false,"rental_uris":{"android":"levelo://app?vid=4d8b49c9-bfb8-4c9b-a49b-3cf24000529c","ios":"levelo://app?vid=4d8b49c9-bfb8-4c9b-a49b-3cf24000529c"},"vehicle_type_id":"4","last_reported":1712959563,"current_range_meters":0,"station_id":"ce4bh512rcd13ifvqe2g","pricing_plan_id":"cebpf4jnsgd1na2vs0mg"},{"bike_id":"bc7bd1d2-8ef2-403a-a6a7-1389e52f507f","system_id":"levelo_inurba_marseille","lat":43.29797,"lon":5.39342,"is_reserved":false,"is_disabled":false,"rental_uris":{"android":"levelo://app?vid=bc7bd1d2-8ef2-403a-a6a7-1389e52f507f","ios":"levelo://app?vid=bc7bd1d2-8ef2-403a-a6a7-1389e52f507f"},"vehicle_type_id":"4","last_reported":1712959563,"current_range_meters":1600,"station_id":"chh1huq6cuj3fo74tm60","pricing_plan_id":"cebpf4jnsgd1na2vs0mg"},{"bike_id":"4cd88ccf-a69b-4892-9cad-d601561e31e1","system_id":"levelo_inurba_marseille","lat":43.290624,"lon":5.359245,"is_reserved":false,"is_disabled":false,"rental_uris":{"android":"levelo://app?vid=4cd88ccf-a69b-4892-9cad-d601561e31e1","ios":"levelo://app?vid=4cd88ccf-a69b-4892-9cad-d601561e31e1"},"vehicle_type_id":"4","last_reported":1712959563,"current_range_meters":2000,"station_id":"ce4bha92rcd13ifvqeg0","pricing_plan_id":"cebpf4jnsgd1na2vs0mg"},{"bike_id":"488644af-d27e-4b3b-b365-130239bf50b7","system_id":"levelo_inurba_marseille","lat":43.297815,"lon":5.393548,"is_reserved":false,"is_disabled":false,"rental_uris":{"android":"levelo://app?vid=488644af-d27e-4b3b-b365-130239bf50b7","ios":"levelo://app?vid=488644af-d27e-4b3b-b365-130239bf50b7"},"vehicle_type_id":"4","last_reported":1712959563,"current_range_meters":22000,"station_id":"chh1huq6cuj3fo74tm60","pricing_plan_id":"cebpf4jnsgd1na2vs0mg"},{"bike_id":"c7149e6f-c500-40e7-a746-090626e50ec6","system_id":"levelo_inurba_marseille","lat":43.28988,"lon":5.37833,"is_reserved":false,"is_disabled":false,"rental_uris":{"android":"levelo://app?vid=c7149e6f-c500-40e7-a746-090626e50ec6","ios":"levelo://app?vid=c7149e6f-c500-40e7-a746-090626e50ec6"},"vehicle_type_id":"4","last_reported":1712959563,"current_range_meters":20000,"station_id":"ce4bhb12rcd13ifvqem0","pricing_plan_id":"cebpf4jnsgd1na2vs0mg"},{"bike_id":"4deafc2a-ffda-44f5-88f4-8f49812d2dc7","system_id":"levelo_inurba_marseille","lat":43.297815,"lon":5.393548,"is_reserved":false,"is_disabled":false,"rental_uris":{"android":"levelo://app?vid=4deafc2a-ffda-44f5-88f4-8f49812d2dc7","ios":"levelo://app?vid=4deafc2a-ffda-44f5-88f4-8f49812d2dc7"},"vehicle_type_id":"4","last_reported":1712959563,"current_range_meters":10000,"station_id":"chh1huq6cuj3fo74tm60","pricing_plan_id":"cebpf4jnsgd1na2vs0mg"},{"bike_id":"1afc4ed8-a24d-485c-a658-df9197d08ccd","system_id":"levelo_inurba_marseille","lat":43.29789,"lon":5.39343,"is_reserved":false,"is_disabled":false,"rental_uris":{"android":"levelo://app?vid=1afc4ed8-a24d-485c-a658-df9197d08ccd","ios":"levelo://app?vid=1afc4ed8-a24d-485c-a658-df9197d08ccd"},"vehicle_type_id":"4","last_reported":1712959563,"current_range_meters":0,"station_id":"chh1huq6cuj3fo74tm60","pricing_plan_id":"cebpf4jnsgd1na2vs0mg"},{"bike_id":"34c58062-f846-49ab-9eef-19231e3c0c4a","system_id":"levelo_inurba_marseille","lat":43.297814,"lon":5.393513,"is_reserved":false,"is_disabled":false,"rental_uris":{"android":"levelo://app?vid=34c58062-f846-49ab-9eef-19231e3c0c4a","ios":"levelo://app?vid=34c58062-f846-49ab-9eef-19231e3c0c4a"},"vehicle_type_id":"4","last_reported":1712959563,"current_range_meters":27600,"station_id":"chh1huq6cuj3fo74tm60","pricing_plan_id":"cebpf4jnsgd1na2vs0mg"},{"bike_id":"7f1310d8-bfd6-4bcb-bd16-afdf636513a6","system_id":"levelo_inurba_marseille","lat":43.295169,"lon":5.390426,"is_reserved":false,"is_disabled":false,"rental_uris":{"android":"levelo://app?vid=7f1310d8-bfd6-4bcb-bd16-afdf636513a6","ios":"levelo://app?vid=7f1310d8-bfd6-4bcb-bd16-afdf636513a6"},"vehicle_type_id":"4","last_reported":1712959563,"current_range_meters":0,"station_id":"ce4bh3p2rcd13ifvqdp0","pricing_plan_id":"cebpf4jnsgd1na2vs0mg"},{"bike_id":"544fd192-8c26-4a9f-824a-e4c1adab3827","system_id":"levelo_inurba_marseille","lat":43.330442,"lon":5.389148,"is_reserved":false,"is_disabled":false,"rental_uris":{"android":"levelo://app?vid=544fd192-8c26-4a9f-824a-e4c1adab3827","ios":"levelo://app?vid=544fd192-8c26-4a9f-824a-e4c1adab3827"},"vehicle_type_id":"4","last_reported":1712959563,"current_range_meters":20400,"station_id":"ce4bhr92rcd13ifvqhrg","pricing_plan_id":"cebpf4jnsgd1na2vs0mg"},{"bike_id":"59d1037b-ede4-4f64-b8b2-a71797352502","system_id":"levelo_inurba_marseille","lat":43.29521,"lon":5.3904,"is_reserved":false,"is_disabled":false,"rental_uris":{"android":"levelo://app?vid=59d1037b-ede4-4f64-b8b2-a71797352502","ios":"levelo://app?vid=59d1037b-ede4-4f64-b8b2-a71797352502"},"vehicle_type_id":"4","last_reported":1712959563,"current_range_meters":0,"station_id":"ce4bh3p2rcd13ifvqdp0","pricing_plan_id":"cebpf4jnsgd1na2vs0mg"},{"bike_id":"e6c2a6d3-83a4-4387-9656-3f4593963178","system_id":"levelo_inurba_marseille","lat":43.295169,"lon":5.390426,"is_reserved":false,"is_disabled":false,"rental_uris":{"android":"levelo://app?vid=e6c2a6d3-83a4-4387-9656-3f4593963178","ios":"levelo://app?vid=e6c2a6d3-83a4-4387-9656-3f4593963178"},"vehicle_type_id":"4","last_reported":1712959563,"current_range_meters":0,"station_id":"ce4bh3p2rcd13ifvqdp0","pricing_plan_id":"cebpf4jnsgd1na2vs0mg"},{"bike_id":"906378b0-4fb7-457c-96cf-f142620800b9","system_id":"levelo_inurba_marseille","lat":43.29516,"lon":5.39042,"is_reserved":false,"is_disabled":false,"rental_uris":{"android":"levelo://app?vid=906378b0-4fb7-457c-96cf-f142620800b9","ios":"levelo://app?vid=906378b0-4fb7-457c-96cf-f142620800b9"},"vehicle_type_id":"4","last_reported":1712959563,"current_range_meters":0,"station_id":"ce4bh3p2rcd13ifvqdp0","pricing_plan_id":"cebpf4jnsgd1na2vs0mg"},{"bike_id":"ac0303c5-f354-4b9c-a0ae-c17734f09d8c","system_id":"levelo_inurba_marseille","lat":43.2903,"lon":5.38143,"is_reserved":false,"is_disabled":false,"rental_uris":{"android":"levelo://app?vid=ac0303c5-f354-4b9c-a0ae-c17734f09d8c","ios":"levelo://app?vid=ac0303c5-f354-4b9c-a0ae-c17734f09d8c"},"vehicle_type_id":"4","last_reported":1712959563,"current_range_meters":0,"station_id":"ce4bh4p2rcd13ifvqe1g","pricing_plan_id":"cebpf4jnsgd1na2vs0mg"},{"bike_id":"0e6cd982-a50f-4e12-a615-19652f02a258","system_id":"levelo_inurba_marseille","lat":43.29031,"lon":5.38149,"is_reserved":false,"is_disabled":false,"rental_uris":{"android":"levelo://app?vid=0e6cd982-a50f-4e12-a615-19652f02a258","ios":"levelo://app?vid=0e6cd982-a50f-4e12-a615-19652f02a258"},"vehicle_type_id":"4","last_reported":1712959563,"current_range_meters":0,"station_id":"ce4bh4p2rcd13ifvqe1g","pricing_plan_id":"cebpf4jnsgd1na2vs0mg"},{"bike_id":"06ff70dd-3191-47b7-954d-349b0a028937","system_id":"levelo_inurba_marseille","lat":43.2901,"lon":5.381269,"is_reserved":false,"is_disabled":false,"rental_uris":{"android":"levelo://app?vid=06ff70dd-3191-47b7-954d-349b0a028937","ios":"levelo://app?vid=06ff70dd-3191-47b7-954d-349b0a028937"},"vehicle_type_id":"4","last_reported":1712959563,"current_range_meters":27200,"station_id":"ce4bh4p2rcd13ifvqe1g","pricing_plan_id":"cebpf4jnsgd1na2vs0mg"},{"bike_id":"61dc4012-c5fd-49a9-8b15-53135bdc29a4","system_id":"levelo_inurba_marseille","lat":43.28861,"lon":5.3586,"is_reserved":false,"is_disabled":false,"rental_uris":{"android":"levelo://app?vid=61dc4012-c5fd-49a9-8b15-53135bdc29a4","ios":"levelo://app?vid=61dc4012-c5fd-49a9-8b15-53135bdc29a4"},"vehicle_type_id":"4","last_reported":1712959563,"current_range_meters":26400,"station_id":"ce4bhb12rcd13ifvqem0","pricing_plan_id":"cebpf4jnsgd1na2vs0mg"},{"bike_id":"9b55a307-6bdf-4f44-8c3f-152cd663ec7c","system_id":"levelo_inurba_marseille","lat":43.28856,"lon":5.358371,"is_reserved":false,"is_disabled":false,"rental_uris":{"android":"levelo://app?vid=9b55a307-6bdf-4f44-8c3f-152cd663ec7c","ios":"levelo://app?vid=9b55a307-6bdf-4f44-8c3f-152cd663ec7c"},"vehicle_type_id":"4","last_reported":1712959563,"current_range_meters":30000,"station_id":"ce4bhb12rcd13ifvqem0","pricing_plan_id":"cebpf4jnsgd1na2vs0mg"},{"bike_id":"4000d6d8-bcbd-481e-a13b-16a46642931b","system_id":"levelo_inurba_marseille","lat":43.28848,"lon":5.35861,"is_reserved":false,"is_disabled":false,"rental_uris":{"android":"levelo://app?vid=4000d6d8-bcbd-481e-a13b-16a46642931b","ios":"levelo://app?vid=4000d6d8-bcbd-481e-a13b-16a46642931b"},"vehicle_type_id":"4","last_reported":1712959563,"current_range_meters":0,"station_id":"ce4bhb12rcd13ifvqem0","pricing_plan_id":"cebpf4jnsgd1na2vs0mg"},{"bike_id":"a8d0e7f2-8c6e-46c3-ab64-2395dc388cac","system_id":"levelo_inurba_marseille","lat":43.28856,"lon":5.358371,"is_reserved":false,"is_disabled":false,"rental_uris":{"android":"levelo://app?vid=a8d0e7f2-8c6e-46c3-ab64-2395dc388cac","ios":"levelo://app?vid=a8d0e7f2-8c6e-46c3-ab64-2395dc388cac"},"vehicle_type_id":"4","last_reported":1712959563,"current_range_meters":26400,"station_id":"ce4bhb12rcd13ifvqem0","pricing_plan_id":"cebpf4jnsgd1na2vs0mg"},{"bike_id":"9fad1ef1-3d84-465f-8cfa-ee3717dd6a51","system_id":"levelo_inurba_marseille","lat":43.28844,"lon":5.35844,"is_reserved":false,"is_disabled":false,"rental_uris":{"android":"levelo://app?vid=9fad1ef1-3d84-465f-8cfa-ee3717dd6a51","ios":"levelo://app?vid=9fad1ef1-3d84-465f-8cfa-ee3717dd6a51"},"vehicle_type_id":"4","last_reported":1712959563,"current_range_meters":0,"station_id":"ce4bhb12rcd13ifvqem0","pricing_plan_id":"cebpf4jnsgd1na2vs0mg"},{"bike_id":"97551275-dfbe-403e-aacb-4be4223f6313","system_id":"levelo_inurba_marseille","lat":43.309349,"lon":5.4014,"is_reserved":false,"is_disabled":false,"rental_uris":{"android":"levelo://app?vid=97551275-dfbe-403e-aacb-4be4223f6313","ios":"levelo://app?vid=97551275-dfbe-403e-aacb-4be4223f6313"},"vehicle_type_id":"4","last_reported":1712959563,"current_range_meters":0,"station_id":"","pricing_plan_id":"cebpf4jnsgd1na2vs0mg"},{"bike_id":"aadb0877-2785-4b88-bde2-77b604e124e5","system_id":"levelo_inurba_marseille","lat":43.30934,"lon":5.40143,"is_reserved":false,"is_disabled":false,"rental_uris":{"android":"levelo://app?vid=aadb0877-2785-4b88-bde2-77b604e124e5","ios":"levelo://app?vid=aadb0877-2785-4b88-bde2-77b604e124e5"},"vehicle_type_id":"4","last_reported":1712959563,"current_range_meters":26800,"station_id":"ce4bgvp2rcd13ifvqct0","pricing_plan_id":"cebpf4jnsgd1na2vs0mg"},