{"last_updated":1727460692,"ttl":60,"version":"2.2","data":{"bikes":[{"bike_id":"93df8700-17db-4727-a136-7f515c6e856f","system_id":"levelo_inurba_marseille","lat":43.29417,"lon":5.38635,"is_reserved":false,"is_disabled":false,"rental_uris":{"android":"levelo://app?vid=93df8700-17db-4727-a136-7f515c6e856f","ios":"levelo://app?vid=93df8700-17db-4727-a136-7f515c6e856f"},"vehicle_type_id":"4","last_reported":1727460693,"current_range_meters":36000,"station_id":"ce4bh2h2rcd13ifvqdh0","pricing_plan_id":"cebpf4jnsgd1na2vs0mg"},{"bike_id":"33fc2e21-6f42-467d-90c6-d07a75ccdf3f","system_id":"levelo_inurba_marseille","lat":43.33023,"lon":5.39044,"is_reserved":false,"is_disabled":false,"rental_uris":{"android":"levelo://app?vid=33fc2e21-6f42-467d-90c6-d07a75ccdf3f","ios":"levelo://app?vid=33fc2e21-6f42-467d-90c6-d07a75ccdf3f"},"vehicle_type_id":"4","last_reported":1727460693,"current_range_meters":10000,"station_id":"ce4bhr92rcd13ifvqhrg","pricing_plan_id":"cebpf4jnsgd1na2vs0mg"},{"bike_id":"6a9b5505-140e-4cf7-b1ff-7c9f87000ea2","system_id":"levelo_inurba_marseille","lat":43.29274,"lon":5.36843,"is_reserved":false,"is_disabled":false,"rental_uris":{"android":"levelo://app?vid=6a9b5505-140e-4cf7-b1ff-7c9f87000ea2","ios":"levelo://app?vid=6a9b5505-140e-4cf7-b1ff-7c9f87000ea2"},"vehicle_type_id":"4","last_reported":1727460693,"current_range_meters":29600,"station_id":"ce4bhbp2rcd13ifvqesg","pricing_plan_id":"cebpf4jnsgd1na2vs0mg"},{"bike_id":"b23a97df-09f7-4e11-902a-32e3fa2f54ff","system_id":"levelo_inurba_marseille","lat":43.24646,"lon":5.38887,"is_reserved":false,"is_disabled":false,"rental_uris":{"android":"levelo://app?vid=b23a97df-09f7-4e11-902a-32e3fa2f54ff","ios":"levelo://app?vid=b23a97df-09f7-4e11-902a-32e3fa2f54ff"},"vehicle_type_id":"4","last_reported":1727460693,"current_range_meters":9200,"station_id":"ce4bhg12rcd13ifvqf60","pricing_plan_id":"cebpf4jnsgd1na2vs0mg"},{"bike_id":"6fc0763e-e628-497e-a298-99c674ab8f51","system_id":"levelo_inurba_marseille","lat":43.29973,"lon":5.38513,"is_reserved":false,"is_disabled":false,"rental_uris":{"android":"levelo://app?vid=6fc0763e-e628-497e-a298-99c674ab8f51","ios":"levelo://app?vid=6fc0763e-e628-497e-a298-99c674ab8f51"},"vehicle_type_id":"4","last_reported":1727460693,"current_range_meters":39200,"station_id":"ce4bgj92rcd13ifvqbd0","pricing_plan_id":"cebpf4jnsgd1na2vs0mg"},{"bike_id":"b242646d-bbe9-4689-adc8-4eca636496a5","system_id":"levelo_inurba_marseille","lat":43.26943,"lon":5.40247,"is_reserved":false,"is_disabled":false,"rental_uris":{"android":"levelo://app?vid=b242646d-bbe9-4689-adc8-4eca636496a5","ios":"levelo://app?vid=b242646d-bbe9-4689-adc8-4eca636496a5"},"vehicle_type_id":"4","last_reported":1727460693,"current_range_meters":6800,"station_id":"cjm6bp8fraef2m0cb0m0","pricing_plan_id":"cebpf4jnsgd1na2vs0mg"},{"bike_id":"2e1c3eb9-b122-49be-a356-0bb8ad260b09","system_id":"levelo_inurba_marseille","lat":43.29791,"lon":5.37097,"is_reserved":false,"is_disabled":false,"rental_uris":{"android":"levelo://app?vid=2e1c3eb9-b122-49be-a356-0bb8ad260b09","ios":"levelo://app?vid=2e1c3eb9-b122-49be-a356-0bb8ad260b09"},"vehicle_type_id":"4","last_reported":1727460693,"current_range_meters":24000,"station_id":"ce4bgop2rcd13ifvqc1g","pricing_plan_id":"cebpf4jnsgd1na2vs0mg"},{"bike_id":"3343b2cf-b80c-4c9d-a872-91eddbaf1b36","system_id":"levelo_inurba_marseille","lat":43.2807,"lon":5.39653,"is_reserved":false,"is_disabled":false,"rental_uris":{"android":"levelo://app?vid=3343b2cf-b80c-4c9d-a872-91eddbaf1b36","ios":"levelo://app?vid=3343b2cf-b80c-4c9d-a872-91eddbaf1b36"},"vehicle_type_id":"4","last_reported":1727460693,"current_range_meters":8400,"station_id":"ce4bho12rcd13ifvqh2g","pricing_plan_id":"cebpf4jnsgd1na2vs0mg"},{"bike_id":"101f5e60-a7c7-4183-b88d-f444429400d0","system_id":"levelo_inurba_marseille","lat":43.291931,"lon":5.393253,"is_reserved":false,"is_disabled":false,"rental_uris":{"android":"levelo://app?vid=101f5e60-a7c7-4183-b88d-f444429400d0","ios":"levelo://app?vid=101f5e60-a7c7-4183-b88d-f444429400d0"},"vehicle_type_id":"4","last_reported":1727460693,"current_range_meters":12800,"station_id":"ce4bh192rcd13ifvqdd0","pricing_plan_id":"cebpf4jnsgd1na2vs0mg"},{"bike_id":"86c5afc8-78c3-41e2-adc8-27514cf16aa2","system_id":"levelo_inurba_marseille","lat":43.28037,"lon":5.36953,"is_reserved":false,"is_disabled":false,"rental_uris":{"android":"levelo://app?vid=86c5afc8-78c3-41e2-adc8-27514cf16aa2","ios":"levelo://app?vid=86c5afc8-78c3-41e2-adc8-27514cf16aa2"},"vehicle_type_id":"4","last_reported":1727460693,"current_range_meters":4400,"station_id":"ce4bha12rcd13ifvqef0","pricing_plan_id":"cebpf4jnsgd1na2vs0mg"},{"bike_id":"3ed6da31-f8cb-4ecb-b728-b0ca71a38115","system_id":"levelo_inurba_marseille","lat":43.24646,"lon":5.38904,"is_reserved":false,"is_disabled":false,"rental_uris":{"android":"levelo://app?vid=3ed6da31-f8cb-4ecb-b728-b0ca71a38115","ios":"levelo://app?vid=3ed6da31-f8cb-4ecb-b728-b0ca71a38115"},"vehicle_type_id":"4","last_reported":1727460693,"current_range_meters":10000,"station_id":"ce4bhg12rcd13ifvqf60","pricing_plan_id":"cebpf4jnsgd1na2vs0mg"},{"bike_id":"4d472db1-cbfc-4567-9658-076fbfefcf49","system_id":"levelo_inurba_marseille","lat":43.22925,"lon":5.3538,"is_reserved":false,"is_disabled":false,"rental_uris":{"android":"levelo://app?vid=4d472db1-cbfc-4567-9658-076fbfefcf49","ios":"levelo://app?vid=4d472db1-cbfc-4567-9658-076fbfefcf49"},"vehicle_type_id":"4","last_reported":1727460693,"current_range_meters":38800,"station_id":"cpo3532slgdg3j2ikp40","pricing_plan_id":"cebpf4jnsgd1na2vs0mg"},{"bike_id":"948a2b2e-fb68-42e4-9975-ed0b73370397","system_id":"levelo_inurba_marseille","lat":43.30147,"lon":5.39296,"is_reserved":false,"is_disabled":false,"rental_uris":{"android":"levelo://app?vid=948a2b2e-fb68-42e4-9975-ed0b73370397","ios":"levelo://app?vid=948a2b2e-fb68-42e4-9975-ed0b73370397"},"vehicle_type_id":"4","last_reported":1727460693,"current_range_meters":8000,"station_id":"","pricing_plan_id":"cebpf4jnsgd1na2vs0mg"},{"bike_id":"f39902b5-c62c-47cb-9493-7f7ffe06dda9","system_id":"levelo_inurba_marseille","lat":43.300854,"lon":5.390808,"is_reserved":false,"is_disabled":false,"rental_uris":{"android":"levelo://app?vid=f39902b5-c62c-47cb-9493-7f7ffe06dda9","ios":"levelo://app?vid=f39902b5-c62c-47cb-9493-7f7ffe06dda9"},"vehicle_type_id":"4","last_reported":1727460693,"current_range_meters":24000,"station_id":"ce4bh192rcd13ifvqdb0","pricing_plan_id":"cebpf4jnsgd1na2vs0mg"},{"bike_id":"2742751a-81a4-43fe-83f9-f6d9c8f17f37","system_id":"levelo_inurba_marseille","lat":43.29551,"lon":5.42301,"is_reserved":false,"is_disabled":false,"rental_uris":{"android":"levelo://app?vid=2742751a-81a4-43fe-83f9-f6d9c8f17f37","ios":"levelo://app?vid=2742751a-81a4-43fe-83f9-f6d9c8f17f37"},"vehicle_type_id":"4","last_reported":1727460693,"current_range_meters":16000,"station_id":"ce4bhph2rcd13ifvqhdg","pricing_plan_id":"cebpf4jnsgd1na2vs0mg"},{"bike_id":"a8fe56f3-245b-4fde-925e-2ee6fd2da888","system_id":"levelo_inurba_marseille","lat":43.27833,"lon":5.39221,"is_reserved":false,"is_disabled":false,"rental_uris":{"android":"levelo://app?vid=a8fe56f3-245b-4fde-925e-2ee6fd2da888","ios":"levelo://app?vid=a8fe56f3-245b-4fde-925e-2ee6fd2da888"},"vehicle_type_id":"4","last_reported":1727460693,"current_range_meters":31200,"station_id":"ce4bhjp2rcd13ifvqga0","pricing_plan_id":"cebpf4jnsgd1na2vs0mg"},{"bike_id":"93bba0ee-bb07-4f5a-acbf-2a3939a41bc7","system_id":"levelo_inurba_marseille","lat":43.30212,"lon":5.39462,"is_reserved":false,"is_disabled":false,"rental_uris":{"android":"levelo://app?vid=93bba0ee-bb07-4f5a-acbf-2a3939a41bc7","ios":"levelo://app?vid=93bba0ee-bb07-4f5a-acbf-2a3939a41bc7"},"vehicle_type_id":"4","last_reported":1727460693,"current_range_meters":24800,"station_id":"ce4bh0p2rcd13ifvqd70","pricing_plan_id":"cebpf4jnsgd1na2vs0mg"},{"bike_id":"81258c69-9bff-426e-8b07-65a0f631ebe8","system_id":"levelo_inurba_marseille","lat":43.30269,"lon":5.37724,"is_reserved":false,"is_disabled":false,"rental_uris":{"android":"levelo://app?vid=81258c69-9bff-426e-8b07-65a0f631ebe8","ios":"levelo://app?vid=81258c69-9bff-426e-8b07-65a0f631ebe8"},"vehicle_type_id":"4","last_reported":1727460693,"current_range_meters":12400,"station_id":"ce4bguh2rcd13ifvqcj0","pricing_plan_id":"cebpf4jnsgd1na2vs0mg"},{"bike_id":"faa6b25f-cc55-4088-86e1-f110b6301d9d","system_id":"levelo_inurba_marseille","lat":43.27919,"lon":5.39586,"is_reserved":false,"is_disabled":false,"rental_uris":{"android":"levelo://app?vid=faa6b25f-cc55-4088-86e1-f110b6301d9d","ios":"levelo://app?vid=faa6b25f-cc55-4088-86e1-f110b6301d9d"},"vehicle_type_id":"4","last_reported":1727460693,"current_range_meters":16800,"station_id":"ce4bhf92rcd13ifvqf40","pricing_plan_id":"cebpf4jnsgd1na2vs0mg"},{"bike_id":"b8bfcbe3-64f7-43f2-bd66-776e62010c64","system_id":"levelo_inurba_marseille","lat":43.29276,"lon":5.38448,"is_reserved":false,"is_disabled":false,"rental_uris":{"android":"levelo://app?vid=b8bfcbe3-64f7-43f2-bd66-776e62010c64","ios":"levelo://app?vid=b8bfcbe3-64f7-43f2-bd66-776e62010c64"},"vehicle_type_id":"4","last_reported":1727460693,"current_range_meters":17200,"station_id":"ce4bh692rcd13ifvqea0","pricing_plan_id":"cebpf4jnsgd1na2vs0mg"},{"bike_id":"80fe4a40-a502-4db0-b980-a485af7c8744","system_id":"levelo_inurba_marseille","lat":43.33752,"lon":5.37361,"is_reserved":false,"is_disabled":false,"rental_uris":{"android":"levelo://app?vid=80fe4a40-a502-4db0-b980-a485af7c8744","ios":"levelo://app?vid=80fe4a40-a502-4db0-b980-a485af7c8744"},"vehicle_type_id":"4","last_reported":1727460693,"current_range_meters":26000,"station_id":"","pricing_plan_id":"cebpf4jnsgd1na2vs0mg"},{"bike_id":"5f03db8a-f240-48b5-83bd-cad051fecef5","system_id":"levelo_inurba_marseille","lat":43.29548,"lon":5.42301,"is_reserved":false,"is_disabled":false,"rental_uris":{"android":"levelo://app?vid=5f03db8a-f240-48b5-83bd-cad051fecef5","ios":"levelo://app?vid=5f03db8a-f240-48b5-83bd-cad051fecef5"},"vehicle_type_id":"4","last_reported":1727460693,"current_range_meters":36000,"station_id":"ce4bhph2rcd13ifvqhdg","pricing_plan_id":"cebpf4jnsgd1na2vs0mg"},{"bike_id":"91a86839-161c-461c-be66-9b3c01d1f4f6","system_id":"levelo_inurba_marseille","lat":43.28356,"lon":5.38101,"is_reserved":false,"is_disabled":false,"rental_uris":{"android":"levelo://app?vid=91a86839-161c-461c-be66-9b3c01d1f4f6","ios":"levelo://app?vid=91a86839-161c-461c-be66-9b3c01d1f4f6"},"vehicle_type_id":"4","last_reported":1727460693,"current_range_meters":30800,"station_id":"ce4bh412rcd13ifvqdr0","pricing_plan_id":"cebpf4jnsgd1na2vs0mg"},{"bike_id":"c49ec0de-4371-4f14-927d-050fb8783c37","system_id":"levelo_inurba_marseille","lat":43.24387,"lon":5.37056,"is_reserved":false,"is_disabled":false,"rental_uris":{"android":"levelo://app?vid=c49ec0de-4371-4f14-927d-050fb8783c37","ios":"levelo://app?vid=c49ec0de-4371-4f14-927d-050fb8783c37"},"vehicle_type_id":"4","last_reported":1727460693,"current_range_meters":29600,"station_id":"ce4bhhh2rcd13ifvqfk0","pricing_plan_id":"cebpf4jnsgd1na2vs0mg"},{"bike_id":"f21983c5-3265-446d-b37f-836bdc7b0f78","system_id":"levelo_inurba_marseille","lat":43.337444,"lon":5.374475,"is_reserved":false,"is_disabled":false,"rental_uris":{"android":"levelo://app?vid=f21983c5-3265-446d-b37f-836bdc7b0f78","ios":"levelo://app?vid=f21983c5-3265-446d-b37f-836bdc7b0f78"},"vehicle_type_id":"4","last_reported":1727460693,"current_range_meters":15200,"station_id":"","pricing_plan_id":"cebpf4jnsgd1na2vs0mg"},{"bike_id":"7ef4f4aa-b37b-4a42-9b43-2cd1ff7700c5","system_id":"levelo_inurba_marseille","lat":43.2558,"lon":5.38235,"is_reserved":false,"is_disabled":false,"rental_uris":{"android":"levelo://app?vid=7ef4f4aa-b37b-4a42-9b43-2cd1ff7700c5","ios":"levelo://app?vid=7ef4f4aa-b37b-4a42-9b43-2cd1ff7700c5"},"vehicle_type_id":"4","last_reported":1727460693,"current_range_meters":20400,"station_id":"ce4bhih2rcd13ifvqfs0","pricing_plan_id":"cebpf4jnsgd1na2vs0mg"},{"bike_id":"c522eb91-cefa-4c0b-ab09-be02bdbae53f","system_id":"levelo_inurba_marseille","lat":43.29259,"lon":5.38448,"is_reserved":false,"is_disabled":false,"rental_uris":{"android":"levelo://app?vid=c522eb91-cefa-4c0b-ab09-be02bdbae53f","ios":"levelo://app?vid=c522eb91-cefa-4c0b-ab09-be02bdbae53f"},"vehicle_type_id":"4","last_reported":1727460693,"current_range_meters":36000,"station_id":"ce4bh692rcd13ifvqea0","pricing_plan_id":"cebpf4jnsgd1na2vs0mg"},{"bike_id":"21e8af0e-4742-456b-8251-9124e8f3a7e6","system_id":"levelo_inurba_marseille","lat":43.31993,"lon":5.38155,"is_reserved":false,"is_disabled":false,"rental_uris":{"android":"levelo://app?vid=21e8af0e-4742-456b-8251-9124e8f3a7e6","ios":"levelo://app?vid=21e8af0e-4742-456b-8251-9124e8f3a7e6"},"vehicle_type_id":"4","last_reported":1727460693,"current_range_meters":38800,"station_id":"ce4bhr12rcd13ifvqhpg","pricing_plan_id":"cebpf4jnsgd1na2vs0mg"},{"bike_id":"4fba6e72-f557-48a5-97ab-0a5a35554da0","system_id":"levelo_inurba_marseille","lat":43.29076,"lon":5.37176,"is_reserved":false,"is_disabled":false,"rental_uris":{"android":"levelo://app?vid=4fba6e72-f557-48a5-97ab-0a5a35554da0","ios":"levelo://app?vid=4fba6e72-f557-48a5-97ab-0a5a35554da0"},"vehicle_type_id":"4","last_reported":1727460693,"current_range_meters":38000,"station_id":"ce4bh5p2rcd13ifvqe4g","pricing_plan_id":"cebpf4jnsgd1na2vs0mg"},{"bike_id":"95fc35f5-02fd-42fb-9345-d553eb8f7d6b","system_id":"levelo_inurba_marseille","lat":43.27613,"lon":5.35861,"is_reserved":false,"is_disabled":false,"rental_uris":{"android":"levelo://app?vid=95fc35f5-02fd-42fb-9345-d553eb8f7d6b","ios":"levelo://app?vid=95fc35f5-02fd-42fb-9345-d553eb8f7d6b"},"vehicle_type_id":"4","last_reported":1727460693,"current_range_meters":11600,"station_id":"","pricing_plan_id":"cebpf4jnsgd1na2vs0mg"},{"bike_id":"73adf730-6040-4b5a-bf2d-e5f017bda94b","system_id":"levelo_inurba_marseille","lat":43.27372,"lon":5.36269,"is_reserved":false,"is_disabled":false,"rental_uris":{"android":"levelo://app?vid=73adf730-6040-4b5a-bf2d-e5f017bda94b","ios":"levelo://app?vid=73adf730-6040-4b5a-bf2d-e5f017bda94b"},"vehicle_type_id":"4","last_reported":1727460693,"current_range_meters":17200,"station_id":"ce4bhbh2rcd13ifvqeo0","pricing_plan_id":"cebpf4jnsgd1na2vs0mg"},{"bike_id":"c55dbd38-99cf-4913-ba44-7024cb8a0050","system_id":"levelo_inurba_marseille","lat":43.29416,"lon":5.3863,"is_reserved":false,"is_disabled":false,"rental_uris":{"android":"levelo://app?vid=c55dbd38-99cf-4913-ba44-7024cb8a0050","ios":"levelo://app?vid=c55dbd38-99cf-4913-ba44-7024cb8a0050"},"vehicle_type_id":"4","last_reported":1727460693,"current_range_meters":8800,"station_id":"ce4bh2h2rcd13ifvqdh0","pricing_plan_id":"cebpf4jnsgd1na2vs0mg"},{"bike_id":"98d202cd-701f-456c-a2c6-a46c4938bd7d","system_id":"levelo_inurba_marseille","lat":43.30431,"lon":5.3975,"is_reserved":false,"is_disabled":false,"rental_uris":{"android":"levelo://app?vid=98d202cd-701f-456c-a2c6-a46c4938bd7d","ios":"levelo://app?vid=98d202cd-701f-456c-a2c6-a46c4938bd7d"},"vehicle_type_id":"4","last_reported":1727460693,"current_range_meters":6800,"station_id":"ce4bh092rcd13ifvqd20","pricing_plan_id":"cebpf4jnsgd1na2vs0mg"},{"bike_id":"cfc82549-f4f8-416f-8073-fc3011115e45","system_id":"levelo_inurba_marseille","lat":43.31686,"lon":5.40478,"is_reserved":false,"is_disabled":false,"rental_uris":{"android":"levelo://app?vid=cfc82549-f4f8-416f-8073-fc3011115e45","ios":"levelo://app?vid=cfc82549-f4f8-416f-8073-fc3011115e45"},"vehicle_type_id":"4","last_reported":1727460693,"current_range_meters":38800,"station_id":"ce4bh012rcd13ifvqd00","pricing_plan_id":"cebpf4jnsgd1na2vs0mg"},{"bike_id":"e1792dfc-2b2a-453d-a8fa-6d36fcd903e3","system_id":"levelo_inurba_marseille","lat":43.2318,"lon":5.39993,"is_reserved":false,"is_disabled":false,"rental_uris":{"android":"levelo://app?vid=e1792dfc-2b2a-453d-a8fa-6d36fcd903e3","ios":"levelo://app?vid=e1792dfc-2b2a-453d-a8fa-6d36fcd903e3"},"vehicle_type_id":"4","last_reported":1727460693,"current_range_meters":25200,"station_id":"ce4bhn12rcd13ifvqgqg","pricing_plan_id":"cebpf4jnsgd1na2vs0mg"},{"bike_id":"edcb7316-0cc3-4d66-96ec-12d89d368ac1","system_id":"levelo_inurba_marseille","lat":43.29094,"lon":5.38118,"is_reserved":false,"is_disabled":false,"rental_uris":{"android":"levelo://app?vid=edcb7316-0cc3-4d66-96ec-12d89d368ac1","ios":"levelo://app?vid=edcb7316-0cc3-4d66-96ec-12d89d368ac1"},"vehicle_type_id":"4","last_reported":1727460693,"current_range_meters":35200,"station_id":"ce4bh512rcd13ifvqe2g","pricing_plan_id":"cebpf4jnsgd1na2vs0mg"},{"bike_id":"1093e10b-f7cd-487b-bb1c-100e0d05974e","system_id":"levelo_inurba_marseille","lat":43.23966,"lon":5.36637,"is_reserved":false,"is_disabled":false,"rental_uris":{"android":"levelo://app?vid=1093e10b-f7cd-487b-bb1c-100e0d05974e","ios":"levelo://app?vid=1093e10b-f7cd-487b-bb1c-100e0d05974e"},"vehicle_type_id":"4","last_reported":1727460693,"current_range_meters":15200,"station_id":"ce4bhi12rcd13ifvqfp0","pricing_plan_id":"cebpf4jnsgd1na2vs0mg"},{"bike_id":"cb718f79-8031-44a3-9d40-0fa7af3e797c","system_id":"levelo_inurba_marseille","lat":43.31322,"lon":5.39697,"is_reserved":false,"is_disabled":false,"rental_uris":{"android":"levelo://app?vid=cb718f79-8031-44a3-9d40-0fa7af3e797c","ios":"levelo://app?vid=cb718f79-8031-44a3-9d40-0fa7af3e797c"},"vehicle_type_id":"4","last_reported":1727460693,"current_range_meters":14800,"station_id":"ce4bgvp2rcd13ifvqcu0","pricing_plan_id":"cebpf4jnsgd1na2vs0mg"},{"bike_id":"6b618773-842d-41dc-ac61-37ba95cd2333","system_id":"levelo_inurba_marseille","lat":43.28614,"lon":5.35103,"is_reserved":false,"is_disabled":false,"rental_uris":{"android":"levelo://app?vid=6b618773-842d-41dc-ac61-37ba95cd2333","ios":"levelo://app?vid=6b618773-842d-41dc-ac61-37ba95cd2333"},"vehicle_type_id":"4","last_reported":1727460693,"current_range_meters":7200,"station_id":"ce4bhch2rcd13ifvqeug","pricing_plan_id":"cebpf4jnsgd1na2vs0mg"},{"bike_id":"8f9b4dbd-0621-4c88-878a-e8a71aab6b6b","system_id":"levelo_inurba_marseille","lat":43.29028,"lon":5.38656,"is_reserved":false,"is_disabled":false,"rental_uris":{"android":"levelo://app?vid=8f9b4dbd-0621-4c88-878a-e8a71aab6b6b","ios":"levelo://app?vid=8f9b4dbd-0621-4c88-878a-e8a71aab6b6b"},"vehicle_type_id":"4","last_reported":1727460693,"current_range_meters":8400,"station_id":"ce4bh4p2rcd13ifvqe0g","pricing_plan_id":"cebpf4jnsgd1na2vs0mg"},{"bike_id":"dc74da9c-f0ec-48af-800a-5b92fb95dd65","system_id":"levelo_inurba_marseille","lat":43.23181,"lon":5.39987,"is_reserved":false,"is_disabled":false,"rental_uris":{"android":"levelo://app?vid=dc74da9c-f0ec-48af-800a-5b92fb95dd65","ios":"levelo://app?vid=dc74da9c-f0ec-48af-800a-5b92fb95dd65"},"vehicle_type_id":"4","last_reported":1727460693,"current_range_meters":19200,"station_id":"ce4bhn12rcd13ifvqgqg","pricing_plan_id":"cebpf4jnsgd1na2vs0mg"},{"bike_id":"93f370fb-4743-4dac-9b60-8d92bfbe4497","system_id":"levelo_inurba_marseille","lat":43.29269,"lon":5.38441,"is_reserved":false,"is_disabled":false,"rental_uris":{"android":"levelo://app?vid=93f370fb-4743-4dac-9b60-8d92bfbe4497","ios":"levelo://app?vid=93f370fb-4743-4dac-9b60-8d92bfbe4497"},"vehicle_type_id":"4","last_reported":1727460693,"current_range_meters":38800,"station_id":"ce4bh692rcd13ifvqea0","pricing_plan_id":"cebpf4jnsgd1na2vs0mg"},{"bike_id":"d7885bbd-5020-4172-86c3-920efd8e6c37","system_id":"levelo_inurba_marseille","lat":43.2318,"lon":5.3999,"is_reserved":false,"is_disabled":false,"rental_uris":{"android":"levelo://app?vid=d7885bbd-5020-4172-86c3-920efd8e6c37","ios":"levelo://app?vid=d7885bbd-5020-4172-86c3-920efd8e6c37"},"vehicle_type_id":"4","last_reported":1727460693,"current_range_meters":6000,"station_id":"ce4bhn12rcd13ifvqgqg","pricing_plan_id":"cebpf4jnsgd1na2vs0mg"},{"bike_id":"bc01d1cc-538d-40ad-8449-b19ccdf99331","system_id":"levelo_inurba_marseille","lat":43.31754,"lon":5.39012,"is_reserved":false,"is_disabled":false,"rental_uris":{"android":"levelo://app?vid=bc01d1cc-538d-40ad-8449-b19ccdf99331","ios":"levelo://app?vid=bc01d1cc-538d-40ad-8449-b19ccdf99331"},"vehicle_type_id":"4","last_reported":1727460693,"current_range_meters":32800,"station_id":"ce4bhqp2rcd13ifvqhng","pricing_plan_id":"cebpf4jnsgd1na2vs0mg"},{"bike_id":"12069b10-29f7-4fc9-9e3c-a9445f2e7ca0","system_id":"levelo_inurba_marseille","lat":43.29028,"lon":5.38634,"is_reserved":false,"is_disabled":false,"rental_uris":{"android":"levelo://app?vid=12069b10-29f7-4fc9-9e3c-a9445f2e7ca0","ios":"levelo://app?vid=12069b10-29f7-4fc9-9e3c-a9445f2e7ca0"},"vehicle_type_id":"4","last_reported":1727460693,"current_range_meters":6400,"station_id":"ce4bh4p2rcd13ifvqe0g","pricing_plan_id":"cebpf4jnsgd1na2vs0mg"},{"bike_id":"ee1fa76c-fb0c-46a1-bdcb-c08ec785eaa0","system_id":"levelo_inurba_marseille","lat":43.29026,"lon":5.38653,"is_reserved":false,"is_disabled":false,"rental_uris":{"android":"levelo://app?vid=ee1fa76c-fb0c-46a1-bdcb-c08ec785eaa0","ios":"levelo://app?vid=ee1fa76c-fb0c-46a1-bdcb-c08ec785eaa0"},"vehicle_type_id":"4","last_reported":1727460693,"current_range_meters":12800,"station_id":"ce4bh4p2rcd13ifvqe0g","pricing_plan_id":"cebpf4jnsgd1na2vs0mg"},{"bike_id":"4c5926a7-abdb-4bb0-8100-d0d5ae39e46c","system_id":"levelo_inurba_marseille","lat":43.2927,"lon":5.3685,"is_reserved":false,"is_disabled":false,"rental_uris":{"android":"levelo://app?vid=4c5926a7-abdb-4bb0-8100-d0d5ae39e46c","ios":"levelo://app?vid=4c5926a7-abdb-4bb0-8100-d0d5ae39e46c"},"vehicle_type_id":"4","last_reported":1727460693,"current_range_meters":19200,"station_id":"ce4bhbp2rcd13ifvqesg","pricing_plan_id":"cebpf4jnsgd1na2vs0mg"},{"bike_id":"f5e862bd-fbc8-47a1-9335-b59bef578fe2","system_id":"levelo_inurba_marseille","lat":43.32335,"lon":5.40619,"is_reserved":false,"is_disabled":false,"rental_uris":{"android":"levelo://app?vid=f5e862bd-fbc8-47a1-9335-b59bef578fe2","ios":"levelo://app?vid=f5e862bd-fbc8-47a1-9335-b59bef578fe2"},"vehicle_type_id":"4","last_reported":1727460693,"current_range_meters":15200,"station_id":"ce4bhq92rcd13ifvqhjg","pricing_plan_id":"cebpf4jnsgd1na2vs0mg"},{"bike_id":"0b36ccd2-c4b3-45b3-a3a6-9085343d050b","system_id":"levelo_inurba_marseille","lat":43.29579,"lon":5.36735,"is_reserved":false,"is_disabled":false,"rental_uris":{"android":"levelo://app?vid=0b36ccd2-c4b3-45b3-a3a6-9085343d050b","ios":"levelo://app?vid=0b36ccd2-c4b3-45b3-a3a6-9085343d050b"},"vehicle_type_id":"4","last_reported":1727460693,"current_range_meters":32000,"station_id":"ce4bgph2rcd13ifvqc2g","pricing_plan_id":"cebpf4jnsgd1na2vs0mg"},{"bike_id":"726c52be-ac29-47f7-83a0-0e907614d78b","system_id":"levelo_inurba_marseille","lat":43.29582,"lon":5.36747,"is_reserved":false,"is_disabled":false,"rental_uris":{"android":"levelo://app?vid=726c52be-ac29-47f7-83a0-0e907614d78b","ios":"levelo://app?vid=726c52be-ac29-47f7-83a0-0e907614d78b"},"vehicle_type_id":"4","last_reported":1727460693,"current_range_meters":30000,"station_id":"ce4bgph2rcd13ifvqc2g","pricing_plan_id":"cebpf4jnsgd1na2vs0mg"},{"bike_id":"22234aec-3989-4f5b-9750-1c9b90cb5da6","system_id":"levelo_inurba_marseille","lat":43.31329,"lon":5.39695,"is_reserved":false,"is_disabled":false,"rental_uris":{"android":"levelo://app?vid=22234aec-3989-4f5b-9750-1c9b90cb5da6","ios":"levelo://app?vid=22234aec-3989-4f5b-9750-1c9b90cb5da6"},"vehicle_type_id":"4","last_reported":1727460693,"current_range_meters":33600,"station_id":"ce4bgvp2rcd13ifvqcu0","pricing_plan_id":"cebpf4jnsgd1na2vs0mg"},{"bike_id":"7b45a8d2-f7ad-404e-9526-c19632b7a5b7","system_id":"levelo_inurba_marseille","lat":43.2842,"lon":5.34978,"is_reserved":false,"is_disabled":false,"rental_uris":{"android":"levelo://app?vid=7b45a8d2-f7ad-404e-9526-c19632b7a5b7","ios":"levelo://app?vid=7b45a8d2-f7ad-404e-9526-c19632b7a5b7"},"vehicle_type_id":"4","last_reported":1727460693,"current_range_meters":16400,"station_id":"ce4bhbh2rcd13ifvqepg","pricing_plan_id":"cebpf4jnsgd1na2vs0mg"},{"bike_id":"d1bdffd0-db72-47ad-a26b-7d2fd19579b7","system_id":"levelo_inurba_marseille","lat":43.32659,"lon":5.41003,"is_reserved":false,"is_disabled":false,"rental_uris":{"android":"levelo://app?vid=d1bdffd0-db72-47ad-a26b-7d2fd19579b7","ios":"levelo://app?vid=d1bdffd0-db72-47ad-a26b-7d2fd19579b7"},"vehicle_type_id":"4","last_reported":1727460693,"current_range_meters":14800,"station_id":"ce4bhpp2rcd13ifvqhgg","pricing_plan_id":"cebpf4jnsgd1na2vs0mg"},{"bike_id":"eaff5abd-d4ea-46e6-86b8-478167451cb7","system_id":"levelo_inurba_marseille","lat":43.33739,"lon":5.37468,"is_reserved":false,"is_disabled":false,"rental_uris":{"android":"levelo://app?vid=eaff5abd-d4ea-46e6-86b8-478167451cb7","ios":"levelo://app?vid=eaff5abd-d4ea-46e6-86b8-478167451cb7"},"vehicle_type_id":"4","last_reported":1727460693,"current_range_meters":28400,"station_id":"","pricing_plan_id":"cebpf4jnsgd1na2vs0mg"},{"bike_id":"365ab31b-9253-4024-a0ce-63ac11fd8ed7","system_id":"levelo_inurba_marseille","lat":43.31715,"lon":5.42407,"is_reserved":false,"is_disabled":false,"rental_uris":{"android":"levelo://app?vid=365ab31b-9253-4024-a0ce-63ac11fd8ed7","ios":"levelo://app?vid=365ab31b-9253-4024-a0ce-63ac11fd8ed7"},"vehicle_type_id":"4","last_reported":1727460693,"current_range_meters":20000,"station_id":"ce4bhp92rcd13ifvqhbg","pricing_plan_id":"cebpf4jnsgd1na2vs0mg"},{"bike_id":"301a6a12-3418-41ed-b31c-f81063655dfb","system_id":"levelo_inurba_marseille","lat":43.29192,"lon":5.39303,"is_reserved":false,"is_disabled":false,"rental_uris":{"android":"levelo://app?vid=301a6a12-3418-41ed-b31c-f81063655dfb","ios":"levelo://app?vid=301a6a12-3418-41ed-b31c-f81063655dfb"},"vehicle_type_id":"4","last_reported":1727460693,"current_range_meters":13600,"station_id":"ce4bh192rcd13ifvqdd0","pricing_plan_id":"cebpf4jnsgd1na2vs0mg"},{"bike_id":"869c90df-bf23-46d3-b81f-9437ee82daf6","system_id":"levelo_inurba_marseille","lat":43.28929,"lon":5.38388,"is_reserved":false,"is_disabled":false,"rental_uris":{"android":"levelo://app?vid=869c90df-bf23-46d3-b81f-9437ee82daf6","ios":"levelo://app?vid=869c90df-bf23-46d3-b81f-9437ee82daf6"},"vehicle_type_id":"4","last_reported":1727460693,"current_range_meters":24400,"station_id":"ce4bh612rcd13ifvqe6g","pricing_plan_id":"cebpf4jnsgd1na2vs0mg"},{"bike_id":"8d625edf-99ab-40c3-ac13-4ff822f53a9a","system_id":"levelo_inurba_marseille","lat":43.301544,"lon":5.398318,"is_reserved":false,"is_disabled":false,"rental_uris":{"android":"levelo://app?vid=8d625edf-99ab-40c3-ac13-4ff822f53a9a","ios":"levelo://app?vid=8d625edf-99ab-40c3-ac13-4ff822f53a9a"},"vehicle_type_id":"4","last_reported":1727460693,"current_range_meters":6000,"station_id":"ce4bh0h2rcd13ifvqd40","pricing_plan_id":"cebpf4jnsgd1na2vs0mg"},{"bike_id":"1b8585f5-8fb0-42e3-aeb8-462c15d30517","system_id":"levelo_inurba_marseille","lat":43.29701,"lon":5.36616,"is_reserved":false,"is_disabled":false,"rental_uris":{"android":"levelo://app?vid=1b8585f5-8fb0-42e3-aeb8-462c15d30517","ios":"levelo://app?vid=1b8585f5-8fb0-42e3-aeb8-462c15d30517"},"vehicle_type_id":"4","last_reported":1727460693,"current_range_meters":36800,"station_id":"ce4bgn12rcd13ifvqbt0","pricing_plan_id":"cebpf4jnsgd1na2vs0mg"},{"bike_id":"18c2ccda-fb1d-42f5-a4f4-19d17fde2b7c","system_id":"levelo_inurba_marseille","lat":43.29542,"lon":5.39023,"is_reserved":false,"is_disabled":false,"rental_uris":{"android":"levelo://app?vid=18c2ccda-fb1d-42f5-a4f4-19d17fde2b7c","ios":"levelo://app?vid=18c2ccda-fb1d-42f5-a4f4-19d17fde2b7c"},"vehicle_type_id":"4","last_reported":1727460693,"current_range_meters":38400,"station_id":"ce4bh3p2rcd13ifvqdp0","pricing_plan_id":"cebpf4jnsgd1na2vs0mg"},{"bike_id":"878d6dc6-624a-4bf3-91a3-dc337c2f88c1","system_id":"levelo_inurba_marseille","lat":43.31271,"lon":5.40177,"is_reserved":false,"is_disabled":false,"rental_uris":{"android":"levelo://app?vid=878d6dc6-624a-4bf3-91a3-dc337c2f88c1","ios":"levelo://app?vid=878d6dc6-624a-4bf3-91a3-dc337c2f88c1"},"vehicle_type_id":"4","last_reported":1727460693,"current_range_meters":24800,"station_id":"ce4bh092rcd13ifvqd30","pricing_plan_id":"cebpf4jnsgd1na2vs0mg"},{"bike_id":"d0e7e5fb-6435-48ea-8691-fe43ea6f3c00","system_id":"levelo_inurba_marseille","lat":43.32659,"lon":5.40997,"is_reserved":false,"is_disabled":false,"rental_uris":{"android":"levelo://app?vid=d0e7e5fb-6435-48ea-8691-fe43ea6f3c00","ios":"levelo://app?vid=d0e7e5fb-6435-48ea-8691-fe43ea6f3c00"},"vehicle_type_id":"4","last_reported":1727460693,"current_range_meters":3600,"station_id":"ce4bhpp2rcd13ifvqhgg","pricing_plan_id":"cebpf4jnsgd1na2vs0mg"},{"bike_id":"08875659-cd10-4041-88c2-593619838e06","system_id":"levelo_inurba_marseille","lat":43.29788,"lon":5.3933,"is_reserved":false,"is_disabled":false,"rental_uris":{"android":"levelo://app?vid=08875659-cd10-4041-88c2-593619838e06","ios":"levelo://app?vid=08875659-cd10-4041-88c2-593619838e06"},"vehicle_type_id":"4","last_reported":1727460693,"current_range_meters":19200,"station_id":"chh1huq6cuj3fo74tm60","pricing_plan_id":"cebpf4jnsgd1na2vs0mg"},{"bike_id":"7bffc853-4684-4ec7-b42a-ee4bc6739b5d","system_id":"levelo_inurba_marseille","lat":43.29708,"lon":5.36613,"is_reserved":false,"is_disabled":false,"rental_uris":{"android":"levelo://app?vid=7bffc853-4684-4ec7-b42a-ee4bc6739b5d","ios":"levelo://app?vid=7bffc853-4684-4ec7-b42a-ee4bc6739b5d"},"vehicle_type_id":"4","last_reported":1727460693,"current_range_meters":38400,"station_id":"ce4bgn12rcd13ifvqbt0","pricing_plan_id":"cebpf4jnsgd1na2vs0mg"},{"bike_id":"11b71e9e-460f-4a61-9a3c-7ac96f53b338","system_id":"levelo_inurba_marseille","lat":43.27567,"lon":5.38423,"is_reserved":false,"is_disabled":false,"rental_uris":{"android":"levelo://app?vid=11b71e9e-460f-4a61-9a3c-7ac96f53b338","ios":"levelo://app?vid=11b71e9e-460f-4a61-9a3c-7ac96f53b338"},"vehicle_type_id":"4","last_reported":1727460693,"current_range_meters":14800,"station_id":"ce4bhh92rcd13ifvqfi0","pricing_plan_id":"cebpf4jnsgd1na2vs0mg"},{"bike_id":"a3456269-e793-4997-bab5-244d90090afd","system_id":"levelo_inurba_marseille","lat":43.31992,"lon":5.38155,"is_reserved":false,"is_disabled":false,"rental_uris":{"android":"levelo://app?vid=a3456269-e793-4997-bab5-244d90090afd","ios":"levelo://app?vid=a3456269-e793-4997-bab5-244d90090afd"},"vehicle_type_id":"4","last_reported":1727460693,"current_range_meters":39200,"station_id":"ce4bhr12rcd13ifvqhpg","pricing_plan_id":"cebpf4jnsgd1na2vs0mg"},{"bike_id":"cb14975b-b680-46a2-a1ed-487362e5532b","system_id":"levelo_inurba_marseille","lat":43.27209,"lon":5.39181,"is_reserved":false,"is_disabled":false,"rental_uris":{"android":"levelo://app?vid=cb14975b-b680-46a2-a1ed-487362e5532b","ios":"levelo://app?vid=cb14975b-b680-46a2-a1ed-487362e5532b"},"vehicle_type_id":"4","last_reported":1727460693,"current_range_meters":3600,"station_id":"ce4bhhp2rcd13ifvqfm0","pricing_plan_id":"cebpf4jnsgd1na2vs0mg"},{"bike_id":"b072e3e2-e78f-4a63-854c-6bd9583623ee","system_id":"levelo_inurba_marseille","lat":43.30609,"lon":5.37222,"is_reserved":false,"is_disabled":false,"rental_uris":{"android":"levelo://app?vid=b072e3e2-e78f-4a63-854c-6bd9583623ee","ios":"levelo://app?vid=b072e3e2-e78f-4a63-854c-6bd9583623ee"},"vehicle_type_id":"4","last_reported":1727460693,"current_range_meters":38000,"station_id":"ce4bgqh2rcd13ifvqc4g","pricing_plan_id":"cebpf4jnsgd1na2vs0mg"},{"bike_id":"202d0f96-9b89-45a2-b019-3507273a30d5","system_id":"levelo_inurba_marseille","lat":43.2319,"lon":5.39996,"is_reserved":false,"is_disabled":false,"rental_uris":{"android":"levelo://app?vid=202d0f96-9b89-45a2-b019-3507273a30d5","ios":"levelo://app?vid=202d0f96-9b89-45a2-b019-3507273a30d5"},"vehicle_type_id":"4","last_reported":1727460693,"current_range_meters":39200,"station_id":"ce4bhn12rcd13ifvqgqg","pricing_plan_id":"cebpf4jnsgd1na2vs0mg"},{"bike_id":"0f74509a-e1f5-4c86-8895-f5bac98b8509","system_id":"levelo_inurba_marseille","lat":43.25489,"lon":5.37651,"is_reserved":false,"is_disabled":false,"rental_uris":{"android":"levelo://app?vid=0f74509a-e1f5-4c86-8895-f5bac98b8509","ios":"levelo://app?vid=0f74509a-e1f5-4c86-8895-f5bac98b8509"},"vehicle_type_id":"4","last_reported":1727460693,"current_range_meters":6400,"station_id":"ce4bhh12rcd13ifvqff0","pricing_plan_id":"cebpf4jnsgd1na2vs0mg"},{"bike_id":"4d2b2e5a-f864-42f2-865e-f7b26541933a","system_id":"levelo_inurba_marseille","lat":43.29886,"lon":5.365213,"is_reserved":false,"is_disabled":false,"rental_uris":{"android":"levelo://app?vid=4d2b2e5a-f864-42f2-865e-f7b26541933a","ios":"levelo://app?vid=4d2b2e5a-f864-42f2-865e-f7b26541933a"},"vehicle_type_id":"4","last_reported":1727460693,"current_range_meters":24000,"station_id":"ce4bgm92rcd13ifvqbr0","pricing_plan_id":"cebpf4jnsgd1na2vs0mg"},{"bike_id":"000f5c0b-520a-4c34-bab1-17fcab09c2c9","system_id":"levelo_inurba_marseille","lat":43.3136,"lon":5.385,"is_reserved":false,"is_disabled":false,"rental_uris":{"android":"levelo://app?vid=000f5c0b-520a-4c34-bab1-17fcab09c2c9","ios":"levelo://app?vid=000f5c0b-520a-4c34-bab1-17fcab09c2c9"},"vehicle_type_id":"4","last_reported":1727460693,"current_range_meters":23200,"station_id":"ce4bgt92rcd13ifvqcf0","pricing_plan_id":"cebpf4jnsgd1na2vs0mg"},{"bike_id":"a5e4464a-0e0b-4cae-88b3-e36bf4aea090","system_id":"levelo_inurba_marseille","lat":43.22928,"lon":5.3538,"is_reserved":false,"is_disabled":false,"rental_uris":{"android":"levelo://app?vid=a5e4464a-0e0b-4cae-88b3-e36bf4aea090","ios":"levelo://app?vid=a5e4464a-0e0b-4cae-88b3-e36bf4aea090"},"vehicle_type_id":"4","last_reported":1727460693,"current_range_meters":9200,"station_id":"cpo3532slgdg3j2ikp40","pricing_plan_id":"cebpf4jnsgd1na2vs0mg"},{"bike_id":"951b2490-7c98-4d83-9ca5-d75db931db89","system_id":"levelo_inurba_marseille","lat":43.2997,"lon":5.38497,"is_reserved":false,"is_disabled":false,"rental_uris":{"android":"levelo://app?vid=951b2490-7c98-4d83-9ca5-d75db931db89","ios":"levelo://app?vid=951b2490-7c98-4d83-9ca5-d75db931db89"},"vehicle_type_id":"4","last_reported":1727460693,"current_range_meters":36800,"station_id":"ce4bgj92rcd13ifvqbd0","pricing_plan_id":"cebpf4jnsgd1na2vs0mg"},{"bike_id":"f985a739-1684-4331-ab8c-a28076902edb","system_id":"levelo_inurba_marseille","lat":43.29024,"lon":5.3865,"is_reserved":false,"is_disabled":false,"rental_uris":{"android":"levelo://app?vid=f985a739-1684-4331-ab8c-a28076902edb","ios":"levelo://app?vid=f985a739-1684-4331-ab8c-a28076902edb"},"vehicle_type_id":"4","last_reported":1727460693,"current_range_meters":38800,"station_id":"ce4bh4p2rcd13ifvqe0g","pricing_plan_id":"cebpf4jnsgd1na2vs0mg"},{"bike_id":"941aa7dc-e708-4f3e-accb-60c0c5c9d163","system_id":"levelo_inurba_marseille","lat":43.30794,"lon":5.43533,"is_reserved":false,"is_disabled":false,"rental_uris":{"android":"levelo://app?vid=941aa7dc-e708-4f3e-accb-60c0c5c9d163","ios":"levelo://app?vid=941aa7dc-e708-4f3e-accb-60c0c5c9d163"},"vehicle_type_id":"4","last_reported":1727460693,"current_range_meters":32400,"station_id":"ce4bhph2rcd13ifvqheg","pricing_plan_id":"cebpf4jnsgd1na2vs0mg"},{"bike_id":"32271db2-ab1c-45e6-ba48-9baa00ef35e4","system_id":"levelo_inurba_marseille","lat":43.30659,"lon":5.40114,"is_reserved":false,"is_disabled":false,"rental_uris":{"android":"levelo://app?vid=32271db2-ab1c-45e6-ba48-9baa00ef35e4","ios":"levelo://app?vid=32271db2-ab1c-45e6-ba48-9baa00ef35e4"},"vehicle_type_id":"4","last_reported":1727460693,"current_range_meters":7200,"station_id":"ce4bgkh2rcd13ifvqbl0","pricing_plan_id":"cebpf4jnsgd1na2vs0mg"},{"bike_id":"056b804d-305e-4328-9198-ef69dff2f31c","system_id":"levelo_inurba_marseille","lat":43.29569,"lon":5.39983,"is_reserved":false,"is_disabled":false,"rental_uris":{"android":"levelo://app?vid=056b804d-305e-4328-9198-ef69dff2f31c","ios":"levelo://app?vid=056b804d-305e-4328-9198-ef69dff2f31c"},"vehicle_type_id":"4","last_reported":1727460693,"current_range_meters":6000,"station_id":"ce4bh312rcd13ifvqdj0","pricing_plan_id":"cebpf4jnsgd1na2vs0mg"},{"bike_id":"021a9487-24e8-4de0-b487-2ecfce9ab278","system_id":"levelo_inurba_marseille","lat":43.31756,"lon":5.39018,"is_reserved":false,"is_disabled":false,"rental_uris":{"android":"levelo://app?vid=021a9487-24e8-4de0-b487-2ecfce9ab278","ios":"levelo://app?vid=021a9487-24e8-4de0-b487-2ecfce9ab278"},"vehicle_type_id":"4","last_reported":1727460693,"current_range_meters":38400,"station_id":"ce4bhqp2rcd13ifvqhng","pricing_plan_id":"cebpf4jnsgd1na2vs0mg"},{"bike_id":"7a52484b-c52b-4921-a472-a42eeda27738","system_id":"levelo_inurba_marseille","lat":43.29031,"lon":5.38655,"is_reserved":false,"is_disabled":false,"rental_uris":{"android":"levelo://app?vid=7a52484b-c52b-4921-a472-a42eeda27738","ios":"levelo://app?vid=7a52484b-c52b-4921-a472-a42eeda27738"},"vehicle_type_id":"4","last_reported":1727460693,"current_range_meters":30400,"station_id":"ce4bh4p2rcd13ifvqe0g","pricing_plan_id":"cebpf4jnsgd1na2vs0mg"},{"bike_id":"606a2540-fc60-4a7e-98d0-95dc8bdb56b6","system_id":"levelo_inurba_marseille","lat":43.28036,"lon":5.36951,"is_reserved":false,"is_disabled":false,"rental_uris":{"android":"levelo://app?vid=606a2540-fc60-4a7e-98d0-95dc8bdb56b6","ios":"levelo://app?vid=606a2540-fc60-4a7e-98d0-95dc8bdb56b6"},"vehicle_type_id":"4","last_reported":1727460693,"current_range_meters":14000,"station_id":"ce4bha12rcd13ifvqef0","pricing_plan_id":"cebpf4jnsgd1na2vs0mg"},{"bike_id":"738e7e6c-8c54-4726-b743-05a0b0cf6bde","system_id":"levelo_inurba_marseille","lat":43.28375,"lon":5.37301,"is_reserved":false,"is_disabled":false,"rental_uris":{"android":"levelo://app?vid=738e7e6c-8c54-4726-b743-05a0b0cf6bde","ios":"levelo://app?vid=738e7e6c-8c54-4726-b743-05a0b0cf6bde"},"vehicle_type_id":"4","last_reported":1727460693,"current_range_meters":20400,"station_id":"","pricing_plan_id":"cebpf4jnsgd1na2vs0mg"},{"bike_id":"ef63f9c5-1412-4c93-b5d3-44a39fc67cc7","system_id":"levelo_inurba_marseille","lat":43.27905,"lon":5.38001,"is_reserved":false,"is_disabled":false,"rental_uris":{"android":"levelo://app?vid=ef63f9c5-1412-4c93-b5d3-44a39fc67cc7","ios":"levelo://app?vid=ef63f9c5-1412-4c93-b5d3-44a39fc67cc7"},"vehicle_type_id":"4","last_reported":1727460693,"current_range_meters":34800,"station_id":"ce4bhf92rcd13ifvqf50","pricing_plan_id":"cebpf4jnsgd1na2vs0mg"},{"bike_id":"00e7ed7e-5689-4a46-b519-d942e38cc725","system_id":"levelo_inurba_marseille","lat":43.27941,"lon":5.42389,"is_reserved":false,"is_disabled":false,"rental_uris":{"android":"levelo://app?vid=00e7ed7e-5689-4a46-b519-d942e38cc725","ios":"levelo://app?vid=00e7ed7e-5689-4a46-b519-d942e38cc725"},"vehicle_type_id":"4","last_reported":1727460693,"current_range_meters":11600,"station_id":"","pricing_plan_id":"cebpf4jnsgd1na2vs0mg"},{"bike_id":"7df4defa-e90a-4820-ac06-9981801322d4","system_id":"levelo_inurba_marseille","lat":43.31083,"lon":5.40132,"is_reserved":false,"is_disabled":false,"rental_uris":{"android":"levelo://app?vid=7df4defa-e90a-4820-ac06-9981801322d4","ios":"levelo://app?vid=7df4defa-e90a-4820-ac06-9981801322d4"},"vehicle_type_id":"4","last_reported":1727460693,"current_range_meters":12000,"station_id":"","pricing_plan_id":"cebpf4jnsgd1na2vs0mg"},{"bike_id":"373a1afe-570c-400d-bfa0-27125254a50a","system_id":"levelo_inurba_marseille","lat":43.301361,"lon":5.398433,"is_reserved":false,"is_disabled":false,"rental_uris":{"android":"levelo://app?vid=373a1afe-570c-400d-bfa0-27125254a50a","ios":"levelo://app?vid=373a1afe-570c-400d-bfa0-27125254a50a"},"vehicle_type_id":"4","last_reported":1727460693,"current_range_meters":37600,"station_id":"ce4bh0p2rcd13ifvqd70","pricing_plan_id":"cebpf4jnsgd1na2vs0mg"},{"bike_id":"fab40815-dd0c-458f-82bf-e1cab793a502","system_id":"levelo_inurba_marseille","lat":43.28618,"lon":5.35104,"is_reserved":false,"is_disabled":false,"rental_uris":{"android":"levelo://app?vid=fab40815-dd0c-458f-82bf-e1cab793a502","ios":"levelo://app?vid=fab40815-dd0c-458f-82bf-e1cab793a502"},"vehicle_type_id":"4","last_reported":1727460693,"current_range_meters":8800,"station_id":"ce4bhch2rcd13ifvqeug","pricing_plan_id":"cebpf4jnsgd1na2vs0mg"},{"bike_id":"6027f490-2147-4133-a81f-2d232894f4c6","system_id":"levelo_inurba_marseille","lat":43.2984,"lon":5.36278,"is_reserved":false,"is_disabled":false,"rental_uris":{"android":"levelo://app?vid=6027f490-2147-4133-a81f-2d232894f4c6","ios":"levelo://app?vid=6027f490-2147-4133-a81f-2d232894f4c6"},"vehicle_type_id":"4","last_reported":1727460693,"current_range_meters":38000,"station_id":"ce4bgpp2rcd13ifvqc3g","pricing_plan_id":"cebpf4jnsgd1na2vs0mg"},{"bike_id":"a1a99c75-9be8-4309-b0dd-c36a2af60b9b","system_id":"levelo_inurba_marseille","lat":43.27897,"lon":5.3802,"is_reserved":false,"is_disabled":false,"rental_uris":{"android":"levelo://app?vid=a1a99c75-9be8-4309-b0dd-c36a2af60b9b","ios":"levelo://app?vid=a1a99c75-9be8-4309-b0dd-c36a2af60b9b"},"vehicle_type_id":"4","last_reported":1727460693,"current_range_meters":36400,"station_id":"ce4bhf92rcd13ifvqf50","pricing_plan_id":"cebpf4jnsgd1na2vs0mg"},{"bike_id":"a93ed487-121d-4ead-9d6e-de68e81f444f","system_id":"levelo_inurba_marseille","lat":43.3199,"lon":5.38149,"is_reserved":false,"is_disabled":false,"rental_uris":{"android":"levelo://app?vid=a93ed487-121d-4ead-9d6e-de68e81f444f","ios":"levelo://app?vid=a93ed487-121d-4ead-9d6e-de68e81f444f"},"vehicle_type_id":"4","last_reported":1727460693,"current_range_meters":26000,"station_id":"ce4bhr12rcd13ifvqhpg","pricing_plan_id":"cebpf4jnsgd1na2vs0mg"},{"bike_id":"8672df4b-8fd4-4b1a-8388-04e2a08e47f9","system_id":"levelo_inurba_marseille","lat":43.30947,"lon":5.39042,"is_reserved":false,"is_disabled":false,"rental_uris":{"android":"levelo://app?vid=8672df4b-8fd4-4b1a-8388-04e2a08e47f9","ios":"levelo://app?vid=8672df4b-8fd4-4b1a-8388-04e2a08e47f9"},"vehicle_type_id":"4","last_reported":1727460693,"current_range_meters":25600,"station_id":"ce4bgup2rcd13ifvqco0","pricing_plan_id":"cebpf4jnsgd1na2vs0mg"},{"bike_id":"c9656059-b28e-4b64-b742-b3daf1e4b552","system_id":"levelo_inurba_marseille","lat":43.2899,"lon":5.37589,"is_reserved":false,"is_disabled":false,"rental_uris":{"android":"levelo://app?vid=c9656059-b28e-4b64-b742-b3daf1e4b552","ios":"levelo://app?vid=c9656059-b28e-4b64-b742-b3daf1e4b552"},"vehicle_type_id":"4","last_reported":1727460693,"current_range_meters":32000,"station_id":"ce4bh692rcd13ifvqe90","pricing_plan_id":"cebpf4jnsgd1na2vs0mg"},{"bike_id":"5c42c617-54e2-49eb-a0bd-f42fb5c4b031","system_id":"levelo_inurba_marseille","lat":43.29024,"lon":5.38641,"is_reserved":false,"is_disabled":false,"rental_uris":{"android":"levelo://app?vid=5c42c617-54e2-49eb-a0bd-f42fb5c4b031","ios":"levelo://app?vid=5c42c617-54e2-49eb-a0bd-f42fb5c4b031"},"vehicle_type_id":"4","last_reported":1727460693,"current_range_meters":8000,"station_id":"ce4bh4p2rcd13ifvqe0g","pricing_plan_id":"cebpf4jnsgd1na2vs0mg"},{"bike_id":"f3de9394-c8f0-4ccd-852a-ed31d3548391","system_id":"levelo_inurba_marseille","lat":43.27373,"lon":5.36264,"is_reserved":false,"is_disabled":false,"rental_uris":{"android":"levelo://app?vid=f3de9394-c8f0-4ccd-852a-ed31d3548391","ios":"levelo://app?vid=f3de9394-c8f0-4ccd-852a-ed31d3548391"},"vehicle_type_id":"4","last_reported":1727460693,"current_range_meters":7200,"station_id":"ce4bhbh2rcd13ifvqeo0","pricing_plan_id":"cebpf4jnsgd1na2vs0mg"},{"bike_id":"b45730cb-2c2d-4fa4-a350-e7493e28fc53","system_id":"levelo_inurba_marseille","lat":43.2586,"lon":5.39901,"is_reserved":false,"is_disabled":false,"rental_uris":{"android":"levelo://app?vid=b45730cb-2c2d-4fa4-a350-e7493e28fc53","ios":"levelo://app?vid=b45730cb-2c2d-4fa4-a350-e7493e28fc53"},"vehicle_type_id":"4","last_reported":1727460693,"current_range_meters":8400,"station_id":"ce4bhl92rcd13ifvqghg","pricing_plan_id":"cebpf4jnsgd1na2vs0mg"},{"bike_id":"35df6dcc-5b40-4eae-9f88-d4f7ac824959","system_id":"levelo_inurba_marseille","lat":43.28855,"lon":5.39328,"is_reserved":false,"is_disabled":false,"rental_uris":{"android":"levelo://app?vid=35df6dcc-5b40-4eae-9f88-d4f7ac824959","ios":"levelo://app?vid=35df6dcc-5b40-4eae-9f88-d4f7ac824959"},"vehicle_type_id":"4","last_reported":1727460693,"current_range_meters":3200,"station_id":"ce4bh2p2rcd13ifvqdi0","pricing_plan_id":"cebpf4jnsgd1na2vs0mg"},{"bike_id":"aa710de6-9574-4d3a-a9ed-914829fa25ff","system_id":"levelo_inurba_marseille","lat":43.29023,"lon":5.38654,"is_reserved":false,"is_disabled":false,"rental_uris":{"android":"levelo://app?vid=aa710de6-9574-4d3a-a9ed-914829fa25ff","ios":"levelo://app?vid=aa710de6-9574-4d3a-a9ed-914829fa25ff"},"vehicle_type_id":"4","last_reported":1727460693,"current_range_meters":12000,"station_id":"ce4bh4p2rcd13ifvqe0g","pricing_plan_id":"cebpf4jnsgd1na2vs0mg"},{"bike_id":"2bf893a2-87e7-4d9b-8720-148babb4b46a","system_id":"levelo_inurba_marseille","lat":43.30356,"lon":5.41883,"is_reserved":false,"is_disabled":false,"rental_uris":{"android":"levelo://app?vid=2bf893a2-87e7-4d9b-8720-148babb4b46a","ios":"levelo://app?vid=2bf893a2-87e7-4d9b-8720-148babb4b46a"},"vehicle_type_id":"4","last_reported":1727460693,"current_range_meters":7200,"station_id":"ce4bhop2rcd13ifvqh7g","pricing_plan_id":"cebpf4jnsgd1na2vs0mg"},{"bike_id":"97f5d42a-4f2a-4650-8c1c-494e17084abd","system_id":"levelo_inurba_marseille","lat":43.25112,"lon":5.40324,"is_reserved":false,"is_disabled":false,"rental_uris":{"android":"levelo://app?vid=97f5d42a-4f2a-4650-8c1c-494e17084abd","ios":"levelo://app?vid=97f5d42a-4f2a-4650-8c1c-494e17084abd"},"vehicle_type_id":"4","last_reported":1727460693,"current_range_meters":38800,"station_id":"ce4bhlh2rcd13ifvqgig","pricing_plan_id":"cebpf4jnsgd1na2vs0mg"},{"bike_id":"80c393d3-044f-4a41-99ad-c17395bcadbf","system_id":"levelo_inurba_marseille","lat":43.25487,"lon":5.3765,"is_reserved":false,"is_disabled":false,"rental_uris":{"android":"levelo://app?vid=80c393d3-044f-4a41-99ad-c17395bcadbf","ios":"levelo://app?vid=80c393d3-044f-4a41-99ad-c17395bcadbf"},"vehicle_type_id":"4","last_reported":1727460693,"current_range_meters":34800,"station_id":"ce4bhh12rcd13ifvqff0","pricing_plan_id":"cebpf4jnsgd1na2vs0mg"},{"bike_id":"6c95a7bf-514b-4387-912b-4c941ec759ef","system_id":"levelo_inurba_marseille","lat":43.32169,"lon":5.39211,"is_reserved":false,"is_disabled":false,"rental_uris":{"android":"levelo://app?vid=6c95a7bf-514b-4387-912b-4c941ec759ef","ios":"levelo://app?vid=6c95a7bf-514b-4387-912b-4c941ec759ef"},"vehicle_type_id":"4","last_reported":1727460693,"current_range_meters":27600,"station_id":"","pricing_plan_id":"cebpf4jnsgd1na2vs0mg"},{"bike_id":"5ecb964a-0851-4b35-8b70-e5ce3e16a893","system_id":"levelo_inurba_marseille","lat":43.31701,"lon":5.43702,"is_reserved":false,"is_disabled":false,"rental_uris":{"android":"levelo://app?vid=5ecb964a-0851-4b35-8b70-e5ce3e16a893","ios":"levelo://app?vid=5ecb964a-0851-4b35-8b70-e5ce3e16a893"},"vehicle_type_id":"4","last_reported":1727460693,"current_range_meters":15200,"station_id":"ce4bhp92rcd13ifvqhcg","pricing_plan_id":"cebpf4jnsgd1na2vs0mg"},{"bike_id":"84e91030-21f6-4737-b5c1-37d05d2a9806","system_id":"levelo_inurba_marseille","lat":43.30863,"lon":5.3685,"is_reserved":false,"is_disabled":false,"rental_uris":{"android":"levelo://app?vid=84e91030-21f6-4737-b5c1-37d05d2a9806","ios":"levelo://app?vid=84e91030-21f6-4737-b5c1-37d05d2a9806"},"vehicle_type_id":"4","last_reported":1727460693,"current_range_meters":14800,"station_id":"ce4bgn92rcd13ifvqbvg","pricing_plan_id":"cebpf4jnsgd1na2vs0mg"},{"bike_id":"92f0f6d1-e9e9-48b2-957f-81056b3dcae6","system_id":"levelo_inurba_marseille","lat":43.29515,"lon":5.39053,"is_reserved":false,"is_disabled":false,"rental_uris":{"android":"levelo://app?vid=92f0f6d1-e9e9-48b2-957f-81056b3dcae6","ios":"levelo://app?vid=92f0f6d1-e9e9-48b2-957f-81056b3dcae6"},"vehicle_type_id":"4","last_reported":1727460693,"current_range_meters":3200,"station_id":"ce4bh3p2rcd13ifvqdp0","pricing_plan_id":"cebpf4jnsgd1na2vs0mg"},{"bike_id":"64511bca-5629-4266-951c-cd2f5dbe5a46","system_id":"levelo_inurba_marseille","lat":43.22933,"lon":5.35379,"is_reserved":false,"is_disabled":false,"rental_uris":{"android":"levelo://app?vid=64511bca-5629-4266-951c-cd2f5dbe5a46","ios":"levelo://app?vid=64511bca-5629-4266-951c-cd2f5dbe5a46"},"vehicle_type_id":"4","last_reported":1727460693,"current_range_meters":38000,"station_id":"cpo3532slgdg3j2ikp40","pricing_plan_id":"cebpf4jnsgd1na2vs0mg"},{"bike_id":"1ed41350-6375-45af-906b-fd5fe424aea4","system_id":"levelo_inurba_marseille","lat":43.28349,"lon":5.3866,"is_reserved":false,"is_disabled":false,"rental_uris":{"android":"levelo://app?vid=1ed41350-6375-45af-906b-fd5fe424aea4","ios":"levelo://app?vid=1ed41350-6375-45af-906b-fd5fe424aea4"},"vehicle_type_id":"4","last_reported":1727460693,"current_range_meters":19600,"station_id":"ce4bh492rcd13ifvqdvg","pricing_plan_id":"cebpf4jnsgd1na2vs0mg"},{"bike_id":"e0b299c2-22c5-4b83-9256-1389e87d7c4d","system_id":"levelo_inurba_marseille","lat":43.23183,"lon":5.39992,"is_reserved":false,"is_disabled":false,"rental_uris":{"android":"levelo://app?vid=e0b299c2-22c5-4b83-9256-1389e87d7c4d","ios":"levelo://app?vid=e0b299c2-22c5-4b83-9256-1389e87d7c4d"},"vehicle_type_id":"4","last_reported":1727460693,"current_range_meters":9600,"station_id":"ce4bhn12rcd13ifvqgqg","pricing_plan_id":"cebpf4jnsgd1na2vs0mg"},{"bike_id":"e4bd28f7-d379-48f3-921d-3aebb008df46","system_id":"levelo_inurba_marseille","lat":43.27313,"lon":5.39089,"is_reserved":false,"is_disabled":false,"rental_uris":{"android":"levelo://app?vid=e4bd28f7-d379-48f3-921d-3aebb008df46","ios":"levelo://app?vid=e4bd28f7-d379-48f3-921d-3aebb008df46"},"vehicle_type_id":"4","last_reported":1727460693,"current_range_meters":9200,"station_id":"ce4bhgp2rcd13ifvqfe0","pricing_plan_id":"cebpf4jnsgd1na2vs0mg"},{"bike_id":"43c0c15c-7c74-4c12-b23e-4393ebb911d0","system_id":"levelo_inurba_marseille","lat":43.32284,"lon":5.38278,"is_reserved":false,"is_disabled":false,"rental_uris":{"android":"levelo://app?vid=43c0c15c-7c74-4c12-b23e-4393ebb911d0","ios":"levelo://app?vid=43c0c15c-7c74-4c12-b23e-4393ebb911d0"},"vehicle_type_id":"4","last_reported":1727460693,"current_range_meters":39200,"station_id":"ce4bhr12rcd13ifvqhqg","pricing_plan_id":"cebpf4jnsgd1na2vs0mg"},{"bike_id":"68dbecf6-bf23-4f46-980f-587fda167984","system_id":"levelo_inurba_marseille","lat":43.29012,"lon":5.38143,"is_reserved":false,"is_disabled":false,"rental_uris":{"android":"levelo://app?vid=68dbecf6-bf23-4f46-980f-587fda167984","ios":"levelo://app?vid=68dbecf6-bf23-4f46-980f-587fda167984"},"vehicle_type_id":"4","last_reported":1727460693,"current_range_meters":10800,"station_id":"ce4bh4p2rcd13ifvqe1g","pricing_plan_id":"cebpf4jnsgd1na2vs0mg"},{"bike_id":"5703e954-48d0-4d7a-9d53-bc0010c05dd1","system_id":"levelo_inurba_marseille","lat":43.2558,"lon":5.38229,"is_reserved":false,"is_disabled":false,"rental_uris":{"android":"levelo://app?vid=5703e954-48d0-4d7a-9d53-bc0010c05dd1","ios":"levelo://app?vid=5703e954-48d0-4d7a-9d53-bc0010c05dd1"},"vehicle_type_id":"4","last_reported":1727460693,"current_range_meters":30800,"station_id":"ce4bhih2rcd13ifvqfs0","pricing_plan_id":"cebpf4jnsgd1na2vs0mg"},{"bike_id":"b579715c-20e2-4755-8fdf-8d2fd1b7b809","system_id":"levelo_inurba_marseille","lat":43.337444,"lon":5.374475,"is_reserved":false,"is_disabled":false,"rental_uris":{"android":"levelo://app?vid=b579715c-20e2-4755-8fdf-8d2fd1b7b809","ios":"levelo://app?vid=b579715c-20e2-4755-8fdf-8d2fd1b7b809"},"vehicle_type_id":"4","last_reported":1727460693,"current_range_meters":34000,"station_id":"","pricing_plan_id":"cebpf4jnsgd1na2vs0mg"},{"bike_id":"7d56de46-351c-4d42-aa14-562e88205e86","system_id":"levelo_inurba_marseille","lat":43.31223,"lon":5.36866,"is_reserved":false,"is_disabled":false,"rental_uris":{"android":"levelo://app?vid=7d56de46-351c-4d42-aa14-562e88205e86","ios":"levelo://app?vid=7d56de46-351c-4d42-aa14-562e88205e86"},"vehicle_type_id":"4","last_reported":1727460693,"current_range_meters":30400,"station_id":"ce4bgl92rcd13ifvqbq0","pricing_plan_id":"cebpf4jnsgd1na2vs0mg"},{"bike_id":"39e12d5b-f749-4b2d-80e9-9acb53836055","system_id":"levelo_inurba_marseille","lat":43.29267,"lon":5.38446,"is_reserved":false,"is_disabled":false,"rental_uris":{"android":"levelo://app?vid=39e12d5b-f749-4b2d-80e9-9acb53836055","ios":"levelo://app?vid=39e12d5b-f749-4b2d-80e9-9acb53836055"},"vehicle_type_id":"4","last_reported":1727460693,"current_range_meters":3200,"station_id":"","pricing_plan_id":"cebpf4jnsgd1na2vs0mg"},{"bike_id":"26417185-e4df-4039-a6a1-7ead33dbf3b1","system_id":"levelo_inurba_marseille","lat":43.29272,"lon":5.38431,"is_reserved":false,"is_disabled":false,"rental_uris":{"android":"levelo://app?vid=26417185-e4df-4039-a6a1-7ead33dbf3b1","ios":"levelo://app?vid=26417185-e4df-4039-a6a1-7ead33dbf3b1"},"vehicle_type_id":"4","last_reported":1727460693,"current_range_meters":9200,"station_id":"ce4bh692rcd13ifvqea0","pricing_plan_id":"cebpf4jnsgd1na2vs0mg"},{"bike_id":"ad1158c1-c5d5-4368-8b45-4f8e279ffa3e","system_id":"levelo_inurba_marseille","lat":43.29529,"lon":5.38538,"is_reserved":false,"is_disabled":false,"rental_uris":{"android":"levelo://app?vid=ad1158c1-c5d5-4368-8b45-4f8e279ffa3e","ios":"levelo://app?vid=ad1158c1-c5d5-4368-8b45-4f8e279ffa3e"},"vehicle_type_id":"4","last_reported":1727460693,"current_range_meters":8400,"station_id":"ce4bgih2rcd13ifvqba0","pricing_plan_id":"cebpf4jnsgd1na2vs0mg"},{"bike_id":"e633510b-d9f3-4999-baf3-8530fd5929c5","system_id":"levelo_inurba_marseille","lat":43.2439,"lon":5.37066,"is_reserved":false,"is_disabled":false,"rental_uris":{"android":"levelo://app?vid=e633510b-d9f3-4999-baf3-8530fd5929c5","ios":"levelo://app?vid=e633510b-d9f3-4999-baf3-8530fd5929c5"},"vehicle_type_id":"4","last_reported":1727460693,"current_range_meters":32800,"station_id":"ce4bhhh2rcd13ifvqfk0","pricing_plan_id":"cebpf4jnsgd1na2vs0mg"},{"bike_id":"a8ad96dc-e0f4-4a3f-9725-4f83b8c05346","system_id":"levelo_inurba_marseille","lat":43.23182,"lon":5.39988,"is_reserved":false,"is_disabled":false,"rental_uris":{"android":"levelo://app?vid=a8ad96dc-e0f4-4a3f-9725-4f83b8c05346","ios":"levelo://app?vid=a8ad96dc-e0f4-4a3f-9725-4f83b8c05346"},"vehicle_type_id":"4","last_reported":1727460693,"current_range_meters":39200,"station_id":"ce4bhn12rcd13ifvqgqg","pricing_plan_id":"cebpf4jnsgd1na2vs0mg"},{"bike_id":"fd6e197d-3ea4-491e-be63-35531aa72442","system_id":"levelo_inurba_marseille","lat":43.30573,"lon":5.37093,"is_reserved":false,"is_disabled":false,"rental_uris":{"android":"levelo://app?vid=fd6e197d-3ea4-491e-be63-35531aa72442","ios":"levelo://app?vid=fd6e197d-3ea4-491e-be63-35531aa72442"},"vehicle_type_id":"4","last_reported":1727460693,"current_range_meters":9200,"station_id":"","pricing_plan_id":"cebpf4jnsgd1na2vs0mg"},{"bike_id":"c34e91e4-9c5f-4e6c-833b-823275cbbd6c","system_id":"levelo_inurba_marseille","lat":43.29266,"lon":5.38442,"is_reserved":false,"is_disabled":false,"rental_uris":{"android":"levelo://app?vid=c34e91e4-9c5f-4e6c-833b-823275cbbd6c","ios":"levelo://app?vid=c34e91e4-9c5f-4e6c-833b-823275cbbd6c"},"vehicle_type_id":"4","last_reported":1727460693,"current_range_meters":28000,"station_id":"ce4bh692rcd13ifvqea0","pricing_plan_id":"cebpf4jnsgd1na2vs0mg"},{"bike_id":"f46a05dd-03d6-4c9a-b521-653fd6faadf2","system_id":"levelo_inurba_marseille","lat":43.27618,"lon":5.36119,"is_reserved":false,"is_disabled":false,"rental_uris":{"android":"levelo://app?vid=f46a05dd-03d6-4c9a-b521-653fd6faadf2","ios":"levelo://app?vid=f46a05dd-03d6-4c9a-b521-653fd6faadf2"},"vehicle_type_id":"4","last_reported":1727460693,"current_range_meters":34000,"station_id":"ce4bgj92rcd13ifvqbe0","pricing_plan_id":"cebpf4jnsgd1na2vs0mg"},{"bike_id":"c40f2b99-ce97-4b03-933a-e2ed32b4fcfc","system_id":"levelo_inurba_marseille","lat":43.31363,"lon":5.38493,"is_reserved":false,"is_disabled":false,"rental_uris":{"android":"levelo://app?vid=c40f2b99-ce97-4b03-933a-e2ed32b4fcfc","ios":"levelo://app?vid=c40f2b99-ce97-4b03-933a-e2ed32b4fcfc"},"vehicle_type_id":"4","last_reported":1727460693,"current_range_meters":36800,"station_id":"ce4bgt92rcd13ifvqcf0","pricing_plan_id":"cebpf4jnsgd1na2vs0mg"},{"bike_id":"9fc8ce58-5179-4ca8-b480-e9e09fd6071f","system_id":"levelo_inurba_marseille","lat":43.23184,"lon":5.35548,"is_reserved":false,"is_disabled":false,"rental_uris":{"android":"levelo://app?vid=9fc8ce58-5179-4ca8-b480-e9e09fd6071f","ios":"levelo://app?vid=9fc8ce58-5179-4ca8-b480-e9e09fd6071f"},"vehicle_type_id":"4","last_reported":1727460693,"current_range_meters":20800,"station_id":"","pricing_plan_id":"cebpf4jnsgd1na2vs0mg"},{"bike_id":"39a21b09-2fdc-4dc7-8c16-e12e191b2068","system_id":"levelo_inurba_marseille","lat":43.31087,"lon":5.42431,"is_reserved":false,"is_disabled":false,"rental_uris":{"android":"levelo://app?vid=39a21b09-2fdc-4dc7-8c16-e12e191b2068","ios":"levelo://app?vid=39a21b09-2fdc-4dc7-8c16-e12e191b2068"},"vehicle_type_id":"4","last_reported":1727460693,"current_range_meters":37600,"station_id":"ce4bhp92rcd13ifvqhag","pricing_plan_id":"cebpf4jnsgd1na2vs0mg"},{"bike_id":"4ea19298-4a1a-4bdb-96aa-f832512955a4","system_id":"levelo_inurba_marseille","lat":43.29264,"lon":5.38445,"is_reserved":false,"is_disabled":false,"rental_uris":{"android":"levelo://app?vid=4ea19298-4a1a-4bdb-96aa-f832512955a4","ios":"levelo://app?vid=4ea19298-4a1a-4bdb-96aa-f832512955a4"},"vehicle_type_id":"4","last_reported":1727460693,"current_range_meters":14800,"station_id":"ce4bh692rcd13ifvqea0","pricing_plan_id":"cebpf4jnsgd1na2vs0mg"},{"bike_id":"6a3b0993-a117-4fac-aa04-6eed21b339dc","system_id":"levelo_inurba_marseille","lat":43.29258,"lon":5.38455,"is_reserved":false,"is_disabled":false,"rental_uris":{"android":"levelo://app?vid=6a3b0993-a117-4fac-aa04-6eed21b339dc","ios":"levelo://app?vid=6a3b0993-a117-4fac-aa04-6eed21b339dc"},"vehicle_type_id":"4","last_reported":1727460693,"current_range_meters":4800,"station_id":"ce4bh692rcd13ifvqea0","pricing_plan_id":"cebpf4jnsgd1na2vs0mg"},{"bike_id":"e6944f33-199d-4236-8ad7-241285668cf5","system_id":"levelo_inurba_marseille","lat":43.31349,"lon":5.38512,"is_reserved":false,"is_disabled":false,"rental_uris":{"android":"levelo://app?vid=e6944f33-199d-4236-8ad7-241285668cf5","ios":"levelo://app?vid=e6944f33-199d-4236-8ad7-241285668cf5"},"vehicle_type_id":"4","last_reported":1727460693,"current_range_meters":28000,"station_id":"ce4bgt92rcd13ifvqcf0","pricing_plan_id":"cebpf4jnsgd1na2vs0mg"},{"bike_id":"5baa29d1-4fed-4f59-9710-61152c2ffbc0","system_id":"levelo_inurba_marseille","lat":43.295776,"lon":5.375206,"is_reserved":false,"is_disabled":false,"rental_uris":{"android":"levelo://app?vid=5baa29d1-4fed-4f59-9710-61152c2ffbc0","ios":"levelo://app?vid=5baa29d1-4fed-4f59-9710-61152c2ffbc0"},"vehicle_type_id":"4","last_reported":1727460693,"current_range_meters":38000,"station_id":"ce4bgh92rcd13ifvqb50","pricing_plan_id":"cebpf4jnsgd1na2vs0mg"},{"bike_id":"3c19afbd-bd81-48ca-a6a2-9d7abf181fdb","system_id":"levelo_inurba_marseille","lat":43.23184,"lon":5.39983,"is_reserved":false,"is_disabled":false,"rental_uris":{"android":"levelo://app?vid=3c19afbd-bd81-48ca-a6a2-9d7abf181fdb","ios":"levelo://app?vid=3c19afbd-bd81-48ca-a6a2-9d7abf181fdb"},"vehicle_type_id":"4","last_reported":1727460693,"current_range_meters":38800,"station_id":"ce4bhn12rcd13ifvqgqg","pricing_plan_id":"cebpf4jnsgd1na2vs0mg"},{"bike_id":"80f49d0f-5b7f-472a-ac88-1ab34a669cff","system_id":"levelo_inurba_marseille","lat":43.29261,"lon":5.38436,"is_reserved":false,"is_disabled":false,"rental_uris":{"android":"levelo://app?vid=80f49d0f-5b7f-472a-ac88-1ab34a669cff","ios":"levelo://app?vid=80f49d0f-5b7f-472a-ac88-1ab34a669cff"},"vehicle_type_id":"4","last_reported":1727460693,"current_range_meters":17600,"station_id":"ce4bh692rcd13ifvqea0","pricing_plan_id":"cebpf4jnsgd1na2vs0mg"},{"bike_id":"b2a384ac-62cd-4df9-b865-5196f4cde3be","system_id":"levelo_inurba_marseille","lat":43.26494,"lon":5.39549,"is_reserved":false,"is_disabled":false,"rental_uris":{"android":"levelo://app?vid=b2a384ac-62cd-4df9-b865-5196f4cde3be","ios":"levelo://app?vid=b2a384ac-62cd-4df9-b865-5196f4cde3be"},"vehicle_type_id":"4","last_reported":1727460693,"current_range_meters":3200,"station_id":"ce4bhi12rcd13ifvqfq0","pricing_plan_id":"cebpf4jnsgd1na2vs0mg"},{"bike_id":"3ab7080b-071f-4fcb-bded-f030f4a95fc1","system_id":"levelo_inurba_marseille","lat":43.30952,"lon":5.39041,"is_reserved":false,"is_disabled":false,"rental_uris":{"android":"levelo://app?vid=3ab7080b-071f-4fcb-bded-f030f4a95fc1","ios":"levelo://app?vid=3ab7080b-071f-4fcb-bded-f030f4a95fc1"},"vehicle_type_id":"4","last_reported":1727460693,"current_range_meters":6000,"station_id":"ce4bgup2rcd13ifvqco0","pricing_plan_id":"cebpf4jnsgd1na2vs0mg"},{"bike_id":"96075d8e-b29e-44f7-99df-17ddfe91294c","system_id":"levelo_inurba_marseille","lat":43.28356,"lon":5.38099,"is_reserved":false,"is_disabled":false,"rental_uris":{"android":"levelo://app?vid=96075d8e-b29e-44f7-99df-17ddfe91294c","ios":"levelo://app?vid=96075d8e-b29e-44f7-99df-17ddfe91294c"},"vehicle_type_id":"4","last_reported":1727460693,"current_range_meters":8000,"station_id":"ce4bh412rcd13ifvqdr0","pricing_plan_id":"cebpf4jnsgd1na2vs0mg"},{"bike_id":"aef499ec-7ddd-4b3c-a941-cace4da5c0cb","system_id":"levelo_inurba_marseille","lat":43.28351,"lon":5.3811,"is_reserved":false,"is_disabled":false,"rental_uris":{"android":"levelo://app?vid=aef499ec-7ddd-4b3c-a941-cace4da5c0cb","ios":"levelo://app?vid=aef499ec-7ddd-4b3c-a941-cace4da5c0cb"},"vehicle_type_id":"4","last_reported":1727460693,"current_range_meters":39200,"station_id":"ce4bh412rcd13ifvqdr0","pricing_plan_id":"cebpf4jnsgd1na2vs0mg"},{"bike_id":"9c2522c5-c0fa-4f53-b8c1-a4924ed5a647","system_id":"levelo_inurba_marseille","lat":43.31711,"lon":5.43704,"is_reserved":false,"is_disabled":false,"rental_uris":{"android":"levelo://app?vid=9c2522c5-c0fa-4f53-b8c1-a4924ed5a647","ios":"levelo://app?vid=9c2522c5-c0fa-4f53-b8c1-a4924ed5a647"},"vehicle_type_id":"4","last_reported":1727460693,"current_range_meters":4400,"station_id":"ce4bhp92rcd13ifvqhcg","pricing_plan_id":"cebpf4jnsgd1na2vs0mg"},{"bike_id":"79d4bfa0-2588-4b4d-9f0f-314363ea0d2a","system_id":"levelo_inurba_marseille","lat":43.29712,"lon":5.36612,"is_reserved":false,"is_disabled":false,"rental_uris":{"android":"levelo://app?vid=79d4bfa0-2588-4b4d-9f0f-314363ea0d2a","ios":"levelo://app?vid=79d4bfa0-2588-4b4d-9f0f-314363ea0d2a"},"vehicle_type_id":"4","last_reported":1727460693,"current_range_meters":18800,"station_id":"ce4bgn12rcd13ifvqbt0","pricing_plan_id":"cebpf4jnsgd1na2vs0mg"},{"bike_id":"cb07f0fe-09ef-4da3-b729-def49a7fb7f8","system_id":"levelo_inurba_marseille","lat":43.23177,"lon":5.39991,"is_reserved":false,"is_disabled":false,"rental_uris":{"android":"levelo://app?vid=cb07f0fe-09ef-4da3-b729-def49a7fb7f8","ios":"levelo://app?vid=cb07f0fe-09ef-4da3-b729-def49a7fb7f8"},"vehicle_type_id":"4","last_reported":1727460693,"current_range_meters":39200,"station_id":"ce4bhn12rcd13ifvqgqg","pricing_plan_id":"cebpf4jnsgd1na2vs0mg"},{"bike_id":"e78b6a25-86ef-4305-a8eb-88ff111ec270","system_id":"levelo_inurba_marseille","lat":43.27052,"lon":5.40265,"is_reserved":false,"is_disabled":false,"rental_uris":{"android":"levelo://app?vid=e78b6a25-86ef-4305-a8eb-88ff111ec270","ios":"levelo://app?vid=e78b6a25-86ef-4305-a8eb-88ff111ec270"},"vehicle_type_id":"4","last_reported":1727460693,"current_range_meters":4400,"station_id":"ce4bhk92rcd13ifvqgc0","pricing_plan_id":"cebpf4jnsgd1na2vs0mg"},{"bike_id":"72a190a7-8db0-4255-b745-fa85457d91da","system_id":"levelo_inurba_marseille","lat":43.2804,"lon":5.36945,"is_reserved":false,"is_disabled":false,"rental_uris":{"android":"levelo://app?vid=72a190a7-8db0-4255-b745-fa85457d91da","ios":"levelo://app?vid=72a190a7-8db0-4255-b745-fa85457d91da"},"vehicle_type_id":"4","last_reported":1727460693,"current_range_meters":11200,"station_id":"ce4bha12rcd13ifvqef0","pricing_plan_id":"cebpf4jnsgd1na2vs0mg"},{"bike_id":"ab673cbe-9f29-460d-94fb-92dc7304083f","system_id":"levelo_inurba_marseille","lat":43.30895,"lon":5.3719,"is_reserved":false,"is_disabled":false,"rental_uris":{"android":"levelo://app?vid=ab673cbe-9f29-460d-94fb-92dc7304083f","ios":"levelo://app?vid=ab673cbe-9f29-460d-94fb-92dc7304083f"},"vehicle_type_id":"4","last_reported":1727460693,"current_range_meters":19200,"station_id":"ce4bguh2rcd13ifvqckg","pricing_plan_id":"cebpf4jnsgd1na2vs0mg"},{"bike_id":"deab055e-d79d-4c85-bc6c-038a345305e9","system_id":"levelo_inurba_marseille","lat":43.22932,"lon":5.35382,"is_reserved":false,"is_disabled":false,"rental_uris":{"android":"levelo://app?vid=deab055e-d79d-4c85-bc6c-038a345305e9","ios":"levelo://app?vid=deab055e-d79d-4c85-bc6c-038a345305e9"},"vehicle_type_id":"4","last_reported":1727460693,"current_range_meters":38800,"station_id":"cpo3532slgdg3j2ikp40","pricing_plan_id":"cebpf4jnsgd1na2vs0mg"},{"bike_id":"e72a458e-3055-4c55-86eb-c1b3f18026bd","system_id":"levelo_inurba_marseille","lat":43.29844,"lon":5.36273,"is_reserved":false,"is_disabled":false,"rental_uris":{"android":"levelo://app?vid=e72a458e-3055-4c55-86eb-c1b3f18026bd","ios":"levelo://app?vid=e72a458e-3055-4c55-86eb-c1b3f18026bd"},"vehicle_type_id":"4","last_reported":1727460693,"current_range_meters":4800,"station_id":"ce4bgpp2rcd13ifvqc3g","pricing_plan_id":"cebpf4jnsgd1na2vs0mg"},{"bike_id":"da51996d-4010-4981-ab52-b1f0a604307a","system_id":"levelo_inurba_marseille","lat":43.28927,"lon":5.36389,"is_reserved":false,"is_disabled":false,"rental_uris":{"android":"levelo://app?vid=da51996d-4010-4981-ab52-b1f0a604307a","ios":"levelo://app?vid=da51996d-4010-4981-ab52-b1f0a604307a"},"vehicle_type_id":"4","last_reported":1727460693,"current_range_meters":39200,"station_id":"ce4bhc92rcd13ifvqetg","pricing_plan_id":"cebpf4jnsgd1na2vs0mg"},{"bike_id":"05ad49f9-8bea-420e-ab64-265249e0850a","system_id":"levelo_inurba_marseille","lat":43.29197,"lon":5.39323,"is_reserved":false,"is_disabled":false,"rental_uris":{"android":"levelo://app?vid=05ad49f9-8bea-420e-ab64-265249e0850a","ios":"levelo://app?vid=05ad49f9-8bea-420e-ab64-265249e0850a"},"vehicle_type_id":"4","last_reported":1727460693,"current_range_meters":24800,"station_id":"ce4bh192rcd13ifvqdd0","pricing_plan_id":"cebpf4jnsgd1na2vs0mg"},{"bike_id":"8ffa837a-1bc2-48f6-bdda-53dc6c2cb969","system_id":"levelo_inurba_marseille","lat":43.30097,"lon":5.39068,"is_reserved":false,"is_disabled":false,"rental_uris":{"android":"levelo://app?vid=8ffa837a-1bc2-48f6-bdda-53dc6c2cb969","ios":"levelo://app?vid=8ffa837a-1bc2-48f6-bdda-53dc6c2cb969"},"vehicle_type_id":"4","last_reported":1727460693,"current_range_meters":9600,"station_id":"ce4bh192rcd13ifvqdb0","pricing_plan_id":"cebpf4jnsgd1na2vs0mg"},{"bike_id":"e7e725c1-7992-41f8-a60a-7cfc3bb2735b","system_id":"levelo_inurba_marseille","lat":43.29367,"lon":5.37839,"is_reserved":false,"is_disabled":false,"rental_uris":{"android":"levelo://app?vid=e7e725c1-7992-41f8-a60a-7cfc3bb2735b","ios":"levelo://app?vid=e7e725c1-7992-41f8-a60a-7cfc3bb2735b"},"vehicle_type_id":"4","last_reported":1727460693,"current_range_meters":12800,"station_id":"ce4bgjh2rcd13ifvqbf0","pricing_plan_id":"cebpf4jnsgd1na2vs0mg"},{"bike_id":"468cbca9-7d68-46f5-9dc0-af0a837b909f","system_id":"levelo_inurba_marseille","lat":43.29266,"lon":5.38434,"is_reserved":false,"is_disabled":false,"rental_uris":{"android":"levelo://app?vid=468cbca9-7d68-46f5-9dc0-af0a837b909f","ios":"levelo://app?vid=468cbca9-7d68-46f5-9dc0-af0a837b909f"},"vehicle_type_id":"4","last_reported":1727460693,"current_range_meters":16400,"station_id":"ce4bh692rcd13ifvqea0","pricing_plan_id":"cebpf4jnsgd1na2vs0mg"},{"bike_id":"589bf101-03e3-485e-ad47-54bc5aa2aa27","system_id":"levelo_inurba_marseille","lat":43.31321,"lon":5.39703,"is_reserved":false,"is_disabled":false,"rental_uris":{"android":"levelo://app?vid=589bf101-03e3-485e-ad47-54bc5aa2aa27","ios":"levelo://app?vid=589bf101-03e3-485e-ad47-54bc5aa2aa27"},"vehicle_type_id":"4","last_reported":1727460693,"current_range_meters":34800,"station_id":"ce4bgvp2rcd13ifvqcu0","pricing_plan_id":"cebpf4jnsgd1na2vs0mg"},{"bike_id":"41b2a179-642b-4fee-ac3e-e7915562aa91","system_id":"levelo_inurba_marseille","lat":43.26802,"lon":5.40268,"is_reserved":false,"is_disabled":false,"rental_uris":{"android":"levelo://app?vid=41b2a179-642b-4fee-ac3e-e7915562aa91","ios":"levelo://app?vid=41b2a179-642b-4fee-ac3e-e7915562aa91"},"vehicle_type_id":"4","last_reported":1727460693,"current_range_meters":39200,"station_id":"ce501612rcd8frsf0b60","pricing_plan_id":"cebpf4jnsgd1na2vs0mg"},{"bike_id":"98333c05-f142-4542-b41b-c019e24729b6","system_id":"levelo_inurba_marseille","lat":43.25115,"lon":5.40325,"is_reserved":false,"is_disabled":false,"rental_uris":{"android":"levelo://app?vid=98333c05-f142-4542-b41b-c019e24729b6","ios":"levelo://app?vid=98333c05-f142-4542-b41b-c019e24729b6"},"vehicle_type_id":"4","last_reported":1727460693,"current_range_meters":6800,"station_id":"ce4bhlh2rcd13ifvqgig","pricing_plan_id":"cebpf4jnsgd1na2vs0mg"},{"bike_id":"d6308cfe-2111-4920-97a8-dba5cc67a813","system_id":"levelo_inurba_marseille","lat":43.2836,"lon":5.38642,"is_reserved":false,"is_disabled":false,"rental_uris":{"android":"levelo://app?vid=d6308cfe-2111-4920-97a8-dba5cc67a813","ios":"levelo://app?vid=d6308cfe-2111-4920-97a8-dba5cc67a813"},"vehicle_type_id":"4","last_reported":1727460693,"current_range_meters":39200,"station_id":"ce4bh492rcd13ifvqdvg","pricing_plan_id":"cebpf4jnsgd1na2vs0mg"},{"bike_id":"b9c4c2fd-7b7c-4fa7-a356-f65b0e931816","system_id":"levelo_inurba_marseille","lat":43.29799,"lon":5.3811,"is_reserved":false,"is_disabled":false,"rental_uris":{"android":"levelo://app?vid=b9c4c2fd-7b7c-4fa7-a356-f65b0e931816","ios":"levelo://app?vid=b9c4c2fd-7b7c-4fa7-a356-f65b0e931816"},"vehicle_type_id":"4","last_reported":1727460693,"current_range_meters":33600,"station_id":"ce4bgip2rcd13ifvqbb0","pricing_plan_id":"cebpf4jnsgd1na2vs0mg"},{"bike_id":"c48fb40f-13be-4ae6-9130-ce556eeb5aa8","system_id":"levelo_inurba_marseille","lat":43.32111,"lon":5.3678,"is_reserved":false,"is_disabled":false,"rental_uris":{"android":"levelo://app?vid=c48fb40f-13be-4ae6-9130-ce556eeb5aa8","ios":"levelo://app?vid=c48fb40f-13be-4ae6-9130-ce556eeb5aa8"},"vehicle_type_id":"4","last_reported":1727460693,"current_range_meters":33200,"station_id":"ce4bhrh2rcd13ifvqhug","pricing_plan_id":"cebpf4jnsgd1na2vs0mg"},{"bike_id":"92ed948a-9f9a-4968-accc-b2fe3b391b37","system_id":"levelo_inurba_marseille","lat":43.32662,"lon":5.40988,"is_reserved":false,"is_disabled":false,"rental_uris":{"android":"levelo://app?vid=92ed948a-9f9a-4968-accc-b2fe3b391b37","ios":"levelo://app?vid=92ed948a-9f9a-4968-accc-b2fe3b391b37"},"vehicle_type_id":"4","last_reported":1727460693,"current_range_meters":11200,"station_id":"ce4bhpp2rcd13ifvqhgg","pricing_plan_id":"cebpf4jnsgd1na2vs0mg"},{"bike_id":"987f7158-fb69-483a-997f-a9938523e5e4","system_id":"levelo_inurba_marseille","lat":43.28612,"lon":5.37062,"is_reserved":false,"is_disabled":false,"rental_uris":{"android":"levelo://app?vid=987f7158-fb69-483a-997f-a9938523e5e4","ios":"levelo://app?vid=987f7158-fb69-483a-997f-a9938523e5e4"},"vehicle_type_id":"4","last_reported":1727460693,"current_range_meters":18800,"station_id":"ce4bh3p2rcd13ifvqdp0","pricing_plan_id":"cebpf4jnsgd1na2vs0mg"},{"bike_id":"0ec4d074-35b9-48dd-9b90-3d3a72982ca2","system_id":"levelo_inurba_marseille","lat":43.26037,"lon":5.38204,"is_reserved":false,"is_disabled":false,"rental_uris":{"android":"levelo://app?vid=0ec4d074-35b9-48dd-9b90-3d3a72982ca2","ios":"levelo://app?vid=0ec4d074-35b9-48dd-9b90-3d3a72982ca2"},"vehicle_type_id":"4","last_reported":1727460693,"current_range_meters":31200,"station_id":"","pricing_plan_id":"cebpf4jnsgd1na2vs0mg"},{"bike_id":"acf8244a-f0a4-4d05-b0e0-5d5519c9446d","system_id":"levelo_inurba_marseille","lat":43.27562,"lon":5.38435,"is_reserved":false,"is_disabled":false,"rental_uris":{"android":"levelo://app?vid=acf8244a-f0a4-4d05-b0e0-5d5519c9446d","ios":"levelo://app?vid=acf8244a-f0a4-4d05-b0e0-5d5519c9446d"},"vehicle_type_id":"4","last_reported":1727460693,"current_range_meters":3600,"station_id":"ce4bhh92rcd13ifvqfi0","pricing_plan_id":"cebpf4jnsgd1na2vs0mg"},{"bike_id":"93700c27-b02c-4e8b-9f40-019de92866b8","system_id":"levelo_inurba_marseille","lat":43.29263,"lon":5.38442,"is_reserved":false,"is_disabled":false,"rental_uris":{"android":"levelo://app?vid=93700c27-b02c-4e8b-9f40-019de92866b8","ios":"levelo://app?vid=93700c27-b02c-4e8b-9f40-019de92866b8"},"vehicle_type_id":"4","last_reported":1727460693,"current_range_meters":16800,"station_id":"ce4bh692rcd13ifvqea0","pricing_plan_id":"cebpf4jnsgd1na2vs0mg"},{"bike_id":"c7aa4852-5841-4ab6-b733-e4168a4180b6","system_id":"levelo_inurba_marseille","lat":43.32287,"lon":5.38271,"is_reserved":false,"is_disabled":false,"rental_uris":{"android":"levelo://app?vid=c7aa4852-5841-4ab6-b733-e4168a4180b6","ios":"levelo://app?vid=c7aa4852-5841-4ab6-b733-e4168a4180b6"},"vehicle_type_id":"4","last_reported":1727460693,"current_range_meters":12000,"station_id":"ce4bhr12rcd13ifvqhqg","pricing_plan_id":"cebpf4jnsgd1na2vs0mg"},{"bike_id":"fc73c488-094a-4ac2-ad34-e5d6a2ffb8d2","system_id":"levelo_inurba_marseille","lat":43.33022,"lon":5.39044,"is_reserved":false,"is_disabled":false,"rental_uris":{"android":"levelo://app?vid=fc73c488-094a-4ac2-ad34-e5d6a2ffb8d2","ios":"levelo://app?vid=fc73c488-094a-4ac2-ad34-e5d6a2ffb8d2"},"vehicle_type_id":"4","last_reported":1727460693,"current_range_meters":7200,"station_id":"ce4bhr92rcd13ifvqhrg","pricing_plan_id":"cebpf4jnsgd1na2vs0mg"},{"bike_id":"e446d679-6687-4a31-8646-d36e985d76d9","system_id":"levelo_inurba_marseille","lat":43.292236,"lon":5.383174,"is_reserved":false,"is_disabled":false,"rental_uris":{"android":"levelo://app?vid=e446d679-6687-4a31-8646-d36e985d76d9","ios":"levelo://app?vid=e446d679-6687-4a31-8646-d36e985d76d9"},"vehicle_type_id":"4","last_reported":1727460693,"current_range_meters":8400,"station_id":"","pricing_plan_id":"cebpf4jnsgd1na2vs0mg"},{"bike_id":"516349b2-97f6-4fe0-ba8d-11a91c616765","system_id":"levelo_inurba_marseille","lat":43.279144,"lon":5.39577,"is_reserved":false,"is_disabled":false,"rental_uris":{"android":"levelo://app?vid=516349b2-97f6-4fe0-ba8d-11a91c616765","ios":"levelo://app?vid=516349b2-97f6-4fe0-ba8d-11a91c616765"},"vehicle_type_id":"4","last_reported":1727460693,"current_range_meters":4400,"station_id":"ce4bhf92rcd13ifvqf40","pricing_plan_id":"cebpf4jnsgd1na2vs0mg"},{"bike_id":"d483ef47-26ef-4fb1-a6c9-d31e847c75ba","system_id":"levelo_inurba_marseille","lat":43.28852,"lon":5.39325,"is_reserved":false,"is_disabled":false,"rental_uris":{"android":"levelo://app?vid=d483ef47-26ef-4fb1-a6c9-d31e847c75ba","ios":"levelo://app?vid=d483ef47-26ef-4fb1-a6c9-d31e847c75ba"},"vehicle_type_id":"4","last_reported":1727460693,"current_range_meters":38800,"station_id":"ce4bh2p2rcd13ifvqdi0","pricing_plan_id":"cebpf4jnsgd1na2vs0mg"},{"bike_id":"9a5665ee-8d4d-4448-9526-5f8fd10b1d36","system_id":"levelo_inurba_marseille","lat":43.3095,"lon":5.39031,"is_reserved":false,"is_disabled":false,"rental_uris":{"android":"levelo://app?vid=9a5665ee-8d4d-4448-9526-5f8fd10b1d36","ios":"levelo://app?vid=9a5665ee-8d4d-4448-9526-5f8fd10b1d36"},"vehicle_type_id":"4","last_reported":1727460693,"current_range_meters":25200,"station_id":"ce4bgup2rcd13ifvqco0","pricing_plan_id":"cebpf4jnsgd1na2vs0mg"},{"bike_id":"7d61414e-4f8d-4c29-8682-120e8b10b6b4","system_id":"levelo_inurba_marseille","lat":43.26491,"lon":5.39548,"is_reserved":false,"is_disabled":false,"rental_uris":{"android":"levelo://app?vid=7d61414e-4f8d-4c29-8682-120e8b10b6b4","ios":"levelo://app?vid=7d61414e-4f8d-4c29-8682-120e8b10b6b4"},"vehicle_type_id":"4","last_reported":1727460693,"current_range_meters":16000,"station_id":"ce4bhi12rcd13ifvqfq0","pricing_plan_id":"cebpf4jnsgd1na2vs0mg"},{"bike_id":"af40d1aa-13ac-49cc-b11e-601e4b6d70fe","system_id":"levelo_inurba_marseille","lat":43.28457,"lon":5.35883,"is_reserved":false,"is_disabled":false,"rental_uris":{"android":"levelo://app?vid=af40d1aa-13ac-49cc-b11e-601e4b6d70fe","ios":"levelo://app?vid=af40d1aa-13ac-49cc-b11e-601e4b6d70fe"},"vehicle_type_id":"4","last_reported":1727460693,"current_range_meters":12400,"station_id":"ce4bhah2rcd13ifvqei0","pricing_plan_id":"cebpf4jnsgd1na2vs0mg"},{"bike_id":"613129f8-2639-4f91-a258-3f64bf011efa","system_id":"levelo_inurba_marseille","lat":43.23176,"lon":5.39991,"is_reserved":false,"is_disabled":false,"rental_uris":{"android":"levelo://app?vid=613129f8-2639-4f91-a258-3f64bf011efa","ios":"levelo://app?vid=613129f8-2639-4f91-a258-3f64bf011efa"},"vehicle_type_id":"4","last_reported":1727460693,"current_range_meters":28800,"station_id":"ce4bhn12rcd13ifvqgqg","pricing_plan_id":"cebpf4jnsgd1na2vs0mg"},{"bike_id":"ecd2da13-3bff-4d86-87dc-d4e4c6efb032","system_id":"levelo_inurba_marseille","lat":43.29415,"lon":5.38632,"is_reserved":false,"is_disabled":false,"rental_uris":{"android":"levelo://app?vid=ecd2da13-3bff-4d86-87dc-d4e4c6efb032","ios":"levelo://app?vid=ecd2da13-3bff-4d86-87dc-d4e4c6efb032"},"vehicle_type_id":"4","last_reported":1727460693,"current_range_meters":7200,"station_id":"ce4bh2h2rcd13ifvqdh0","pricing_plan_id":"cebpf4jnsgd1na2vs0mg"},{"bike_id":"f07c3e2d-1c8a-4acc-a3e6-a70ac2609778","system_id":"levelo_inurba_marseille","lat":43.29258,"lon":5.40911,"is_reserved":false,"is_disabled":false,"rental_uris":{"android":"levelo://app?vid=f07c3e2d-1c8a-4acc-a3e6-a70ac2609778","ios":"levelo://app?vid=f07c3e2d-1c8a-4acc-a3e6-a70ac2609778"},"vehicle_type_id":"4","last_reported":1727460693,"current_range_meters":8400,"station_id":"ce4bh192rcd13ifvqdc0","pricing_plan_id":"cebpf4jnsgd1na2vs0mg"},{"bike_id":"e8937631-aec2-4226-80c8-fca58136745a","system_id":"levelo_inurba_marseille","lat":43.24649,"lon":5.38889,"is_reserved":false,"is_disabled":false,"rental_uris":{"android":"levelo://app?vid=e8937631-aec2-4226-80c8-fca58136745a","ios":"levelo://app?vid=e8937631-aec2-4226-80c8-fca58136745a"},"vehicle_type_id":"4","last_reported":1727460693,"current_range_meters":30000,"station_id":"ce4bhg12rcd13ifvqf60","pricing_plan_id":"cebpf4jnsgd1na2vs0mg"},{"bike_id":"bb548cd8-452c-4d5f-b215-46bff1666a38","system_id":"levelo_inurba_marseille","lat":43.2511,"lon":5.40326,"is_reserved":false,"is_disabled":false,"rental_uris":{"android":"levelo://app?vid=bb548cd8-452c-4d5f-b215-46bff1666a38","ios":"levelo://app?vid=bb548cd8-452c-4d5f-b215-46bff1666a38"},"vehicle_type_id":"4","last_reported":1727460693,"current_range_meters":16800,"station_id":"ce4bhlh2rcd13ifvqgig","pricing_plan_id":"cebpf4jnsgd1na2vs0mg"},{"bike_id":"ed4d38b5-605a-4c42-abb3-16ca0e13d2d0","system_id":"levelo_inurba_marseille","lat":43.27214,"lon":5.39179,"is_reserved":false,"is_disabled":false,"rental_uris":{"android":"levelo://app?vid=ed4d38b5-605a-4c42-abb3-16ca0e13d2d0","ios":"levelo://app?vid=ed4d38b5-605a-4c42-abb3-16ca0e13d2d0"},"vehicle_type_id":"4","last_reported":1727460693,"current_range_meters":6000,"station_id":"ce4bhhp2rcd13ifvqfm0","pricing_plan_id":"cebpf4jnsgd1na2vs0mg"},{"bike_id":"e5266551-e912-4b67-8133-8f4d89bf49f3","system_id":"levelo_inurba_marseille","lat":43.3171,"lon":5.43708,"is_reserved":false,"is_disabled":false,"rental_uris":{"android":"levelo://app?vid=e5266551-e912-4b67-8133-8f4d89bf49f3","ios":"levelo://app?vid=e5266551-e912-4b67-8133-8f4d89bf49f3"},"vehicle_type_id":"4","last_reported":1727460693,"current_range_meters":17200,"station_id":"ce4bhp92rcd13ifvqhcg","pricing_plan_id":"cebpf4jnsgd1na2vs0mg"},{"bike_id":"7569c9b7-90e1-43a7-93b4-a1574f0222ce","system_id":"levelo_inurba_marseille","lat":43.33023,"lon":5.39039,"is_reserved":false,"is_disabled":false,"rental_uris":{"android":"levelo://app?vid=7569c9b7-90e1-43a7-93b4-a1574f0222ce","ios":"levelo://app?vid=7569c9b7-90e1-43a7-93b4-a1574f0222ce"},"vehicle_type_id":"4","last_reported":1727460693,"current_range_meters":36400,"station_id":"ce4bhr92rcd13ifvqhrg","pricing_plan_id":"cebpf4jnsgd1na2vs0mg"},{"bike_id":"2c12228d-0caa-45db-98ac-5b7a6deeb5b0","system_id":"levelo_inurba_marseille","lat":43.31713,"lon":5.43708,"is_reserved":false,"is_disabled":false,"rental_uris":{"android":"levelo://app?vid=2c12228d-0caa-45db-98ac-5b7a6deeb5b0","ios":"levelo://app?vid=2c12228d-0caa-45db-98ac-5b7a6deeb5b0"},"vehicle_type_id":"4","last_reported":1727460693,"current_range_meters":14000,"station_id":"ce4bhp92rcd13ifvqhcg","pricing_plan_id":"cebpf4jnsgd1na2vs0mg"},{"bike_id":"e9efafaa-1779-4c53-b99c-7d85605fe6e9","system_id":"levelo_inurba_marseille","lat":43.24806,"lon":5.37468,"is_reserved":false,"is_disabled":false,"rental_uris":{"android":"levelo://app?vid=e9efafaa-1779-4c53-b99c-7d85605fe6e9","ios":"levelo://app?vid=e9efafaa-1779-4c53-b99c-7d85605fe6e9"},"vehicle_type_id":"4","last_reported":1727460693,"current_range_meters":6400,"station_id":"ce4bhgh2rcd13ifvqfb0","pricing_plan_id":"cebpf4jnsgd1na2vs0mg"},{"bike_id":"7b9f8371-1b86-4eec-ba02-e0a8bc3f0345","system_id":"levelo_inurba_marseille","lat":43.26824,"lon":5.4111,"is_reserved":false,"is_disabled":false,"rental_uris":{"android":"levelo://app?vid=7b9f8371-1b86-4eec-ba02-e0a8bc3f0345","ios":"levelo://app?vid=7b9f8371-1b86-4eec-ba02-e0a8bc3f0345"},"vehicle_type_id":"4","last_reported":1727460693,"current_range_meters":33600,"station_id":"","pricing_plan_id":"cebpf4jnsgd1na2vs0mg"},{"bike_id":"a67bb241-9130-41b3-ac97-c38d211799eb","system_id":"levelo_inurba_marseille","lat":43.31241,"lon":5.40113,"is_reserved":false,"is_disabled":false,"rental_uris":{"android":"levelo://app?vid=a67bb241-9130-41b3-ac97-c38d211799eb","ios":"levelo://app?vid=a67bb241-9130-41b3-ac97-c38d211799eb"},"vehicle_type_id":"4","last_reported":1727460693,"current_range_meters":21600,"station_id":"ce4bh092rcd13ifvqd30","pricing_plan_id":"cebpf4jnsgd1na2vs0mg"},{"bike_id":"c2400895-e64e-4fc1-9d07-66884a25f162","system_id":"levelo_inurba_marseille","lat":43.29262,"lon":5.38433,"is_reserved":false,"is_disabled":false,"rental_uris":{"android":"levelo://app?vid=c2400895-e64e-4fc1-9d07-66884a25f162","ios":"levelo://app?vid=c2400895-e64e-4fc1-9d07-66884a25f162"},"vehicle_type_id":"4","last_reported":1727460693,"current_range_meters":6800,"station_id":"ce4bh692rcd13ifvqea0","pricing_plan_id":"cebpf4jnsgd1na2vs0mg"},{"bike_id":"f2ed292a-32c5-4ecb-8069-681a30e0c16b","system_id":"levelo_inurba_marseille","lat":43.31327,"lon":5.3969,"is_reserved":false,"is_disabled":false,"rental_uris":{"android":"levelo://app?vid=f2ed292a-32c5-4ecb-8069-681a30e0c16b","ios":"levelo://app?vid=f2ed292a-32c5-4ecb-8069-681a30e0c16b"},"vehicle_type_id":"4","last_reported":1727460693,"current_range_meters":25600,"station_id":"ce4bgvp2rcd13ifvqcu0","pricing_plan_id":"cebpf4jnsgd1na2vs0mg"},{"bike_id":"5e6ae0fa-e82e-4924-ba08-83c9a2b4a699","system_id":"levelo_inurba_marseille","lat":43.25889,"lon":5.38592,"is_reserved":false,"is_disabled":false,"rental_uris":{"android":"levelo://app?vid=5e6ae0fa-e82e-4924-ba08-83c9a2b4a699","ios":"levelo://app?vid=5e6ae0fa-e82e-4924-ba08-83c9a2b4a699"},"vehicle_type_id":"4","last_reported":1727460693,"current_range_meters":30400,"station_id":"","pricing_plan_id":"cebpf4jnsgd1na2vs0mg"},{"bike_id":"7f0bfa97-8563-4caa-8fe1-de4bf16f8d01","system_id":"levelo_inurba_marseille","lat":43.24191,"lon":5.39721,"is_reserved":false,"is_disabled":false,"rental_uris":{"android":"levelo://app?vid=7f0bfa97-8563-4caa-8fe1-de4bf16f8d01","ios":"levelo://app?vid=7f0bfa97-8563-4caa-8fe1-de4bf16f8d01"},"vehicle_type_id":"4","last_reported":1727460693,"current_range_meters":37600,"station_id":"ce4bhn12rcd13ifvqgpg","pricing_plan_id":"cebpf4jnsgd1na2vs0mg"},{"bike_id":"93d0d015-02c4-4dc3-818c-a1bcd80a780b","system_id":"levelo_inurba_marseille","lat":43.27173,"lon":5.41002,"is_reserved":false,"is_disabled":false,"rental_uris":{"android":"levelo://app?vid=93d0d015-02c4-4dc3-818c-a1bcd80a780b","ios":"levelo://app?vid=93d0d015-02c4-4dc3-818c-a1bcd80a780b"},"vehicle_type_id":"4","last_reported":1727460693,"current_range_meters":24400,"station_id":"ce4bhl12rcd13ifvqgf0","pricing_plan_id":"cebpf4jnsgd1na2vs0mg"},{"bike_id":"8e7750d3-aaa8-40d9-b099-12278412b0f7","system_id":"levelo_inurba_marseille","lat":43.3013,"lon":5.38792,"is_reserved":false,"is_disabled":false,"rental_uris":{"android":"levelo://app?vid=8e7750d3-aaa8-40d9-b099-12278412b0f7","ios":"levelo://app?vid=8e7750d3-aaa8-40d9-b099-12278412b0f7"},"vehicle_type_id":"4","last_reported":1727460693,"current_range_meters":37600,"station_id":"ce4bghh2rcd13ifvqb60","pricing_plan_id":"cebpf4jnsgd1na2vs0mg"},{"bike_id":"4e08238c-5b15-41e0-bf7e-c56f400293e2","system_id":"levelo_inurba_marseille","lat":43.3133,"lon":5.39697,"is_reserved":false,"is_disabled":false,"rental_uris":{"android":"levelo://app?vid=4e08238c-5b15-41e0-bf7e-c56f400293e2","ios":"levelo://app?vid=4e08238c-5b15-41e0-bf7e-c56f400293e2"},"vehicle_type_id":"4","last_reported":1727460693,"current_range_meters":6400,"station_id":"ce4bgvp2rcd13ifvqcu0","pricing_plan_id":"cebpf4jnsgd1na2vs0mg"},{"bike_id":"a159eb57-fad4-486f-8d93-a41beaf5224b","system_id":"levelo_inurba_marseille","lat":43.233856,"lon":5.399359,"is_reserved":false,"is_disabled":false,"rental_uris":{"android":"levelo://app?vid=a159eb57-fad4-486f-8d93-a41beaf5224b","ios":"levelo://app?vid=a159eb57-fad4-486f-8d93-a41beaf5224b"},"vehicle_type_id":"4","last_reported":1727460693,"current_range_meters":32800,"station_id":"ce4bhih2rcd13ifvqfs0","pricing_plan_id":"cebpf4jnsgd1na2vs0mg"},{"bike_id":"9a8b9741-73b9-4a65-b4c0-9836e05596f5","system_id":"levelo_inurba_marseille","lat":43.291229,"lon":5.393293,"is_reserved":false,"is_disabled":false,"rental_uris":{"android":"levelo://app?vid=9a8b9741-73b9-4a65-b4c0-9836e05596f5","ios":"levelo://app?vid=9a8b9741-73b9-4a65-b4c0-9836e05596f5"},"vehicle_type_id":"4","last_reported":1727460693,"current_range_meters":14000,"station_id":"ce4bh192rcd13ifvqdd0","pricing_plan_id":"cebpf4jnsgd1na2vs0mg"},{"bike_id":"6add7614-05e8-41c2-a1a3-493b62dfe992","system_id":"levelo_inurba_marseille","lat":43.29776,"lon":5.37099,"is_reserved":false,"is_disabled":false,"rental_uris":{"android":"levelo://app?vid=6add7614-05e8-41c2-a1a3-493b62dfe992","ios":"levelo://app?vid=6add7614-05e8-41c2-a1a3-493b62dfe992"},"vehicle_type_id":"4","last_reported":1727460693,"current_range_meters":38800,"station_id":"ce4bgop2rcd13ifvqc1g","pricing_plan_id":"cebpf4jnsgd1na2vs0mg"},{"bike_id":"2ff57769-3f9c-48b1-9a99-191c5fd2df06","system_id":"levelo_inurba_marseille","lat":43.24178,"lon":5.39737,"is_reserved":false,"is_disabled":false,"rental_uris":{"android":"levelo://app?vid=2ff57769-3f9c-48b1-9a99-191c5fd2df06","ios":"levelo://app?vid=2ff57769-3f9c-48b1-9a99-191c5fd2df06"},"vehicle_type_id":"4","last_reported":1727460693,"current_range_meters":16400,"station_id":"ce4bhn12rcd13ifvqgpg","pricing_plan_id":"cebpf4jnsgd1na2vs0mg"},{"bike_id":"52298518-c474-4315-abcc-45610047bb3d","system_id":"levelo_inurba_marseille","lat":43.28268,"lon":5.37895,"is_reserved":false,"is_disabled":false,"rental_uris":{"android":"levelo://app?vid=52298518-c474-4315-abcc-45610047bb3d","ios":"levelo://app?vid=52298518-c474-4315-abcc-45610047bb3d"},"vehicle_type_id":"4","last_reported":1727460693,"current_range_meters":8400,"station_id":"ce4bha12rcd13ifvqee0","pricing_plan_id":"cebpf4jnsgd1na2vs0mg"},{"bike_id":"6f8317c5-c00f-469f-bad4-ca2a2b760298","system_id":"levelo_inurba_marseille","lat":43.29888,"lon":5.38907,"is_reserved":false,"is_disabled":false,"rental_uris":{"android":"levelo://app?vid=6f8317c5-c00f-469f-bad4-ca2a2b760298","ios":"levelo://app?vid=6f8317c5-c00f-469f-bad4-ca2a2b760298"},"vehicle_type_id":"4","last_reported":1727460693,"current_range_meters":4400,"station_id":"ce4bh392rcd13ifvqdl0","pricing_plan_id":"cebpf4jnsgd1na2vs0mg"},{"bike_id":"c7b2feae-de6d-49b6-affb-7900733b7cf8","system_id":"levelo_inurba_marseille","lat":43.301055,"lon":5.388072,"is_reserved":false,"is_disabled":false,"rental_uris":{"android":"levelo://app?vid=c7b2feae-de6d-49b6-affb-7900733b7cf8","ios":"levelo://app?vid=c7b2feae-de6d-49b6-affb-7900733b7cf8"},"vehicle_type_id":"4","last_reported":1727460693,"current_range_meters":36000,"station_id":"ce4bghh2rcd13ifvqb60","pricing_plan_id":"cebpf4jnsgd1na2vs0mg"},{"bike_id":"2549b034-75bf-4f76-ae82-0dfe6ab857f8","system_id":"levelo_inurba_marseille","lat":43.26781,"lon":5.39422,"is_reserved":false,"is_disabled":false,"rental_uris":{"android":"levelo://app?vid=2549b034-75bf-4f76-ae82-0dfe6ab857f8","ios":"levelo://app?vid=2549b034-75bf-4f76-ae82-0dfe6ab857f8"},"vehicle_type_id":"4","last_reported":1727460693,"current_range_meters":38000,"station_id":"ce4bhh12rcd13ifvqfg0","pricing_plan_id":"cebpf4jnsgd1na2vs0mg"},{"bike_id":"91df0689-7a10-46a0-8111-998385457ec6","system_id":"levelo_inurba_marseille","lat":43.3204,"lon":5.41541,"is_reserved":false,"is_disabled":false,"rental_uris":{"android":"levelo://app?vid=91df0689-7a10-46a0-8111-998385457ec6","ios":"levelo://app?vid=91df0689-7a10-46a0-8111-998385457ec6"},"vehicle_type_id":"4","last_reported":1727460693,"current_range_meters":11200,"station_id":"ce4bhq92rcd13ifvqhkg","pricing_plan_id":"cebpf4jnsgd1na2vs0mg"},{"bike_id":"f402bee5-7020-48e2-b0ab-2678a6003210","system_id":"levelo_inurba_marseille","lat":43.3211,"lon":5.3678,"is_reserved":false,"is_disabled":false,"rental_uris":{"android":"levelo://app?vid=f402bee5-7020-48e2-b0ab-2678a6003210","ios":"levelo://app?vid=f402bee5-7020-48e2-b0ab-2678a6003210"},"vehicle_type_id":"4","last_reported":1727460693,"current_range_meters":33600,"station_id":"ce4bhrh2rcd13ifvqhug","pricing_plan_id":"cebpf4jnsgd1na2vs0mg"},{"bike_id":"b2c4c0d4-2076-4a05-8c13-e2e7b57b0510","system_id":"levelo_inurba_marseille","lat":43.25582,"lon":5.38238,"is_reserved":false,"is_disabled":false,"rental_uris":{"android":"levelo://app?vid=b2c4c0d4-2076-4a05-8c13-e2e7b57b0510","ios":"levelo://app?vid=b2c4c0d4-2076-4a05-8c13-e2e7b57b0510"},"vehicle_type_id":"4","last_reported":1727460693,"current_range_meters":18800,"station_id":"ce4bhih2rcd13ifvqfs0","pricing_plan_id":"cebpf4jnsgd1na2vs0mg"},{"bike_id":"8dd26428-4f01-46b3-92a2-9f40979fd464","system_id":"levelo_inurba_marseille","lat":43.31265,"lon":5.40177,"is_reserved":false,"is_disabled":false,"rental_uris":{"android":"levelo://app?vid=8dd26428-4f01-46b3-92a2-9f40979fd464","ios":"levelo://app?vid=8dd26428-4f01-46b3-92a2-9f40979fd464"},"vehicle_type_id":"4","last_reported":1727460693,"current_range_meters":22800,"station_id":"ce4bh092rcd13ifvqd30","pricing_plan_id":"cebpf4jnsgd1na2vs0mg"},{"bike_id":"7c97c9d1-cdfa-4e0e-b11a-92d37b249995","system_id":"levelo_inurba_marseille","lat":43.24652,"lon":5.38895,"is_reserved":false,"is_disabled":false,"rental_uris":{"android":"levelo://app?vid=7c97c9d1-cdfa-4e0e-b11a-92d37b249995","ios":"levelo://app?vid=7c97c9d1-cdfa-4e0e-b11a-92d37b249995"},"vehicle_type_id":"4","last_reported":1727460693,"current_range_meters":10000,"station_id":"ce4bhg12rcd13ifvqf60","pricing_plan_id":"cebpf4jnsgd1na2vs0mg"},{"bike_id":"4c7cbc2f-5c7d-45c0-aa41-318994923ac7","system_id":"levelo_inurba_marseille","lat":43.266825,"lon":5.382743,"is_reserved":false,"is_disabled":false,"rental_uris":{"android":"levelo://app?vid=4c7cbc2f-5c7d-45c0-aa41-318994923ac7","ios":"levelo://app?vid=4c7cbc2f-5c7d-45c0-aa41-318994923ac7"},"vehicle_type_id":"4","last_reported":1727460693,"current_range_meters":30800,"station_id":"ce4bhg92rcd13ifvqf90","pricing_plan_id":"cebpf4jnsgd1na2vs0mg"},{"bike_id":"6b5c9dd8-0501-461c-a3b6-922a95d08479","system_id":"levelo_inurba_marseille","lat":43.22932,"lon":5.35383,"is_reserved":false,"is_disabled":false,"rental_uris":{"android":"levelo://app?vid=6b5c9dd8-0501-461c-a3b6-922a95d08479","ios":"levelo://app?vid=6b5c9dd8-0501-461c-a3b6-922a95d08479"},"vehicle_type_id":"4","last_reported":1727460693,"current_range_meters":12400,"station_id":"cpo3532slgdg3j2ikp40","pricing_plan_id":"cebpf4jnsgd1na2vs0mg"},{"bike_id":"fdea911c-4247-474a-9853-0ddd9f45ca4d","system_id":"levelo_inurba_marseille","lat":43.31122,"lon":5.38344,"is_reserved":false,"is_disabled":false,"rental_uris":{"android":"levelo://app?vid=fdea911c-4247-474a-9853-0ddd9f45ca4d","ios":"levelo://app?vid=fdea911c-4247-474a-9853-0ddd9f45ca4d"},"vehicle_type_id":"4","last_reported":1727460693,"current_range_meters":31200,"station_id":"ce4bgv92rcd13ifvqcr0","pricing_plan_id":"cebpf4jnsgd1na2vs0mg"},{"bike_id":"76f4c363-74ff-4f0b-94dc-18bb5443f8ab","system_id":"levelo_inurba_marseille","lat":43.27813,"lon":5.40718,"is_reserved":false,"is_disabled":false,"rental_uris":{"android":"levelo://app?vid=76f4c363-74ff-4f0b-94dc-18bb5443f8ab","ios":"levelo://app?vid=76f4c363-74ff-4f0b-94dc-18bb5443f8ab"},"vehicle_type_id":"4","last_reported":1727460693,"current_range_meters":6000,"station_id":"ce4bhnh2rcd13ifvqgtg","pricing_plan_id":"cebpf4jnsgd1na2vs0mg"},{"bike_id":"ea51f033-cf6a-4d4c-a042-a49f684686e4","system_id":"levelo_inurba_marseille","lat":43.25578,"lon":5.38243,"is_reserved":false,"is_disabled":false,"rental_uris":{"android":"levelo://app?vid=ea51f033-cf6a-4d4c-a042-a49f684686e4","ios":"levelo://app?vid=ea51f033-cf6a-4d4c-a042-a49f684686e4"},"vehicle_type_id":"4","last_reported":1727460693,"current_range_meters":23200,"station_id":"ce4bhih2rcd13ifvqfs0","pricing_plan_id":"cebpf4jnsgd1na2vs0mg"},{"bike_id":"1a239ca6-7727-4afd-b0f7-d8ef52653145","system_id":"levelo_inurba_marseille","lat":43.29287,"lon":5.37472,"is_reserved":false,"is_disabled":false,"rental_uris":{"android":"levelo://app?vid=1a239ca6-7727-4afd-b0f7-d8ef52653145","ios":"levelo://app?vid=1a239ca6-7727-4afd-b0f7-d8ef52653145"},"vehicle_type_id":"4","last_reported":1727460693,"current_range_meters":30400,"station_id":"ce4bgi12rcd13ifvqb70","pricing_plan_id":"cebpf4jnsgd1na2vs0mg"},{"bike_id":"10825212-1d74-49d5-a009-d7774377eba3","system_id":"levelo_inurba_marseille","lat":43.29278,"lon":5.40126,"is_reserved":false,"is_disabled":false,"rental_uris":{"android":"levelo://app?vid=10825212-1d74-49d5-a009-d7774377eba3","ios":"levelo://app?vid=10825212-1d74-49d5-a009-d7774377eba3"},"vehicle_type_id":"4","last_reported":1727460693,"current_range_meters":2000,"station_id":"ce4bh312rcd13ifvqdk0","pricing_plan_id":"cebpf4jnsgd1na2vs0mg"},{"bike_id":"aa05cdc4-8699-41a6-ad70-36b9cc155e37","system_id":"levelo_inurba_marseille","lat":43.32291,"lon":5.38279,"is_reserved":false,"is_disabled":false,"rental_uris":{"android":"levelo://app?vid=aa05cdc4-8699-41a6-ad70-36b9cc155e37","ios":"levelo://app?vid=aa05cdc4-8699-41a6-ad70-36b9cc155e37"},"vehicle_type_id":"4","last_reported":1727460693,"current_range_meters":27600,"station_id":"ce4bhr12rcd13ifvqhqg","pricing_plan_id":"cebpf4jnsgd1na2vs0mg"},{"bike_id":"69b18dc3-22b9-4b57-ab8f-e67ed8b5c525","system_id":"levelo_inurba_marseille","lat":43.28718,"lon":5.37928,"is_reserved":false,"is_disabled":false,"rental_uris":{"android":"levelo://app?vid=69b18dc3-22b9-4b57-ab8f-e67ed8b5c525","ios":"levelo://app?vid=69b18dc3-22b9-4b57-ab8f-e67ed8b5c525"},"vehicle_type_id":"4","last_reported":1727460693,"current_range_meters":9200,"station_id":"ce4bh9p2rcd13ifvqec0","pricing_plan_id":"cebpf4jnsgd1na2vs0mg"},{"bike_id":"0a2874a9-bdec-4668-b0e4-3408c647a187","system_id":"levelo_inurba_marseille","lat":43.30434,"lon":5.38889,"is_reserved":false,"is_disabled":false,"rental_uris":{"android":"levelo://app?vid=0a2874a9-bdec-4668-b0e4-3408c647a187","ios":"levelo://app?vid=0a2874a9-bdec-4668-b0e4-3408c647a187"},"vehicle_type_id":"4","last_reported":1727460693,"current_range_meters":20800,"station_id":"ce4bgk12rcd13ifvqbi0","pricing_plan_id":"cebpf4jnsgd1na2vs0mg"},{"bike_id":"e14f7cac-e818-43cf-abbf-021b28e096f5","system_id":"levelo_inurba_marseille","lat":43.29713,"lon":5.36598,"is_reserved":false,"is_disabled":false,"rental_uris":{"android":"levelo://app?vid=e14f7cac-e818-43cf-abbf-021b28e096f5","ios":"levelo://app?vid=e14f7cac-e818-43cf-abbf-021b28e096f5"},"vehicle_type_id":"4","last_reported":1727460693,"current_range_meters":38000,"station_id":"ce4bgn12rcd13ifvqbt0","pricing_plan_id":"cebpf4jnsgd1na2vs0mg"},{"bike_id":"555537cf-ac99-40de-8922-3f63cfa52bcb","system_id":"levelo_inurba_marseille","lat":43.30925,"lon":5.40151,"is_reserved":false,"is_disabled":false,"rental_uris":{"android":"levelo://app?vid=555537cf-ac99-40de-8922-3f63cfa52bcb","ios":"levelo://app?vid=555537cf-ac99-40de-8922-3f63cfa52bcb"},"vehicle_type_id":"4","last_reported":1727460693,"current_range_meters":8000,"station_id":"ce4bgvp2rcd13ifvqct0","pricing_plan_id":"cebpf4jnsgd1na2vs0mg"},{"bike_id":"4ec715f8-ec8f-48f5-b55e-6cbe824ffe6e","system_id":"levelo_inurba_marseille","lat":43.28428,"lon":5.37526,"is_reserved":false,"is_disabled":false,"rental_uris":{"android":"levelo://app?vid=4ec715f8-ec8f-48f5-b55e-6cbe824ffe6e","ios":"levelo://app?vid=4ec715f8-ec8f-48f5-b55e-6cbe824ffe6e"},"vehicle_type_id":"4","last_reported":1727460693,"current_range_meters":24400,"station_id":"ce4bh512rcd13ifvqe2g","pricing_plan_id":"cebpf4jnsgd1na2vs0mg"},{"bike_id":"dd12c3b9-8469-4eb1-96eb-8cbabd53f85e","system_id":"levelo_inurba_marseille","lat":43.23189,"lon":5.39986,"is_reserved":false,"is_disabled":false,"rental_uris":{"android":"levelo://app?vid=dd12c3b9-8469-4eb1-96eb-8cbabd53f85e","ios":"levelo://app?vid=dd12c3b9-8469-4eb1-96eb-8cbabd53f85e"},"vehicle_type_id":"4","last_reported":1727460693,"current_range_meters":38800,"station_id":"ce4bhn12rcd13ifvqgqg","pricing_plan_id":"cebpf4jnsgd1na2vs0mg"},{"bike_id":"9d81ef5b-d9d7-4060-b8b4-cff194a4d20e","system_id":"levelo_inurba_marseille","lat":43.28154,"lon":5.42648,"is_reserved":false,"is_disabled":false,"rental_uris":{"android":"levelo://app?vid=9d81ef5b-d9d7-4060-b8b4-cff194a4d20e","ios":"levelo://app?vid=9d81ef5b-d9d7-4060-b8b4-cff194a4d20e"},"vehicle_type_id":"4","last_reported":1727460693,"current_range_meters":6800,"station_id":"ce4bhnh2rcd13ifvqgug","pricing_plan_id":"cebpf4jnsgd1na2vs0mg"},{"bike_id":"133ed395-39c6-46d5-bc81-7bc2ce07411c","system_id":"levelo_inurba_marseille","lat":43.28037,"lon":5.36954,"is_reserved":false,"is_disabled":false,"rental_uris":{"android":"levelo://app?vid=133ed395-39c6-46d5-bc81-7bc2ce07411c","ios":"levelo://app?vid=133ed395-39c6-46d5-bc81-7bc2ce07411c"},"vehicle_type_id":"4","last_reported":1727460693,"current_range_meters":14000,"station_id":"ce4bha12rcd13ifvqef0","pricing_plan_id":"cebpf4jnsgd1na2vs0mg"},{"bike_id":"f05d27b3-09e5-4a25-87af-1b9986c86069","system_id":"levelo_inurba_marseille","lat":43.29418,"lon":5.38631,"is_reserved":false,"is_disabled":false,"rental_uris":{"android":"levelo://app?vid=f05d27b3-09e5-4a25-87af-1b9986c86069","ios":"levelo://app?vid=f05d27b3-09e5-4a25-87af-1b9986c86069"},"vehicle_type_id":"4","last_reported":1727460693,"current_range_meters":26800,"station_id":"ce4bh2h2rcd13ifvqdh0","pricing_plan_id":"cebpf4jnsgd1na2vs0mg"},{"bike_id":"b3f01f99-08ac-4dbd-afab-a1ad5cc30f42","system_id":"levelo_inurba_marseille","lat":43.29277,"lon":5.36846,"is_reserved":false,"is_disabled":false,"rental_uris":{"android":"levelo://app?vid=b3f01f99-08ac-4dbd-afab-a1ad5cc30f42","ios":"levelo://app?vid=b3f01f99-08ac-4dbd-afab-a1ad5cc30f42"},"vehicle_type_id":"4","last_reported":1727460693,"current_range_meters":16800,"station_id":"ce4bhbp2rcd13ifvqesg","pricing_plan_id":"cebpf4jnsgd1na2vs0mg"},{"bike_id":"1f691079-42d4-4bc2-98f8-3dc5119b4a33","system_id":"levelo_inurba_marseille","lat":43.2761,"lon":5.3612,"is_reserved":false,"is_disabled":false,"rental_uris":{"android":"levelo://app?vid=1f691079-42d4-4bc2-98f8-3dc5119b4a33","ios":"levelo://app?vid=1f691079-42d4-4bc2-98f8-3dc5119b4a33"},"vehicle_type_id":"4","last_reported":1727460693,"current_range_meters":39200,"station_id":"ce4bgj92rcd13ifvqbe0","pricing_plan_id":"cebpf4jnsgd1na2vs0mg"},{"bike_id":"7e34c13f-9cd3-48f3-a5b9-026c9356a32d","system_id":"levelo_inurba_marseille","lat":43.28647,"lon":5.38344,"is_reserved":false,"is_disabled":false,"rental_uris":{"android":"levelo://app?vid=7e34c13f-9cd3-48f3-a5b9-026c9356a32d","ios":"levelo://app?vid=7e34c13f-9cd3-48f3-a5b9-026c9356a32d"},"vehicle_type_id":"4","last_reported":1727460693,"current_range_meters":18000,"station_id":"","pricing_plan_id":"cebpf4jnsgd1na2vs0mg"},{"bike_id":"fd34649a-e12d-4cf5-b266-37245543b6f3","system_id":"levelo_inurba_marseille","lat":43.22927,"lon":5.35374,"is_reserved":false,"is_disabled":false,"rental_uris":{"android":"levelo://app?vid=fd34649a-e12d-4cf5-b266-37245543b6f3","ios":"levelo://app?vid=fd34649a-e12d-4cf5-b266-37245543b6f3"},"vehicle_type_id":"4","last_reported":1727460693,"current_range_meters":38800,"station_id":"cpo3532slgdg3j2ikp40","pricing_plan_id":"cebpf4jnsgd1na2vs0mg"},