{"last_updated":1775120096,"ttl":60,"version":"2.2","data":{"bikes":[{"bike_id":"8553374e-2630-4eb7-b40b-cde4aaf21694","system_id":"levelo_inurba_marseille","lat":43.23915,"lon":5.37454,"is_reserved":false,"is_disabled":false,"rental_uris":{"android":"levelo://app?vid=8553374e-2630-4eb7-b40b-cde4aaf21694","ios":"levelo://app?vid=8553374e-2630-4eb7-b40b-cde4aaf21694"},"vehicle_type_id":"4","last_reported":1775120096,"current_range_meters":2800,"station_id":"st_d6sm7csbq4hs73f8fpjg","pricing_plan_id":"cebpf4jnsgd1na2vs0mg"},{"bike_id":"f4860661-231a-492a-acdc-ce39d5d2f63a","system_id":"levelo_inurba_marseille","lat":43.28972,"lon":5.37127,"is_reserved":false,"is_disabled":false,"rental_uris":{"android":"levelo://app?vid=f4860661-231a-492a-acdc-ce39d5d2f63a","ios":"levelo://app?vid=f4860661-231a-492a-acdc-ce39d5d2f63a"},"vehicle_type_id":"4","last_reported":1775120096,"current_range_meters":2800,"station_id":"","pricing_plan_id":"cebpf4jnsgd1na2vs0mg"},{"bike_id":"e4956c66-fba0-45d5-a7d2-90ca01f34637","system_id":"levelo_inurba_marseille","lat":43.21758,"lon":5.34591,"is_reserved":false,"is_disabled":false,"rental_uris":{"android":"levelo://app?vid=e4956c66-fba0-45d5-a7d2-90ca01f34637","ios":"levelo://app?vid=e4956c66-fba0-45d5-a7d2-90ca01f34637"},"vehicle_type_id":"4","last_reported":1775120096,"current_range_meters":2800,"station_id":"st_cvj6r9ubvosntc0bgbag","pricing_plan_id":"cebpf4jnsgd1na2vs0mg"},{"bike_id":"a540ea64-7ac7-4720-b9ce-5ae2be0b47bc","system_id":"levelo_inurba_marseille","lat":43.30147,"lon":5.38077,"is_reserved":false,"is_disabled":false,"rental_uris":{"android":"levelo://app?vid=a540ea64-7ac7-4720-b9ce-5ae2be0b47bc","ios":"levelo://app?vid=a540ea64-7ac7-4720-b9ce-5ae2be0b47bc"},"vehicle_type_id":"4","last_reported":1775120096,"current_range_meters":2800,"station_id":"ce4bgjp2rcd13ifvqbh0","pricing_plan_id":"cebpf4jnsgd1na2vs0mg"},{"bike_id":"1b719c32-5038-4bc1-a7ba-e551cb70500d","system_id":"levelo_inurba_marseille","lat":43.32106,"lon":5.36774,"is_reserved":false,"is_disabled":false,"rental_uris":{"android":"levelo://app?vid=1b719c32-5038-4bc1-a7ba-e551cb70500d","ios":"levelo://app?vid=1b719c32-5038-4bc1-a7ba-e551cb70500d"},"vehicle_type_id":"4","last_reported":1775120096,"current_range_meters":2800,"station_id":"ce4bhrh2rcd13ifvqhug","pricing_plan_id":"cebpf4jnsgd1na2vs0mg"},{"bike_id":"4dc5e590-cebf-4591-86fa-2533cf011660","system_id":"levelo_inurba_marseille","lat":43.23967,"lon":5.36631,"is_reserved":false,"is_disabled":false,"rental_uris":{"android":"levelo://app?vid=4dc5e590-cebf-4591-86fa-2533cf011660","ios":"levelo://app?vid=4dc5e590-cebf-4591-86fa-2533cf011660"},"vehicle_type_id":"4","last_reported":1775120096,"current_range_meters":2800,"station_id":"ce4bhi12rcd13ifvqfp0","pricing_plan_id":"cebpf4jnsgd1na2vs0mg"},{"bike_id":"599274e6-5922-44eb-9531-05e370a85b3e","system_id":"levelo_inurba_marseille","lat":43.24803,"lon":5.37448,"is_reserved":false,"is_disabled":false,"rental_uris":{"android":"levelo://app?vid=599274e6-5922-44eb-9531-05e370a85b3e","ios":"levelo://app?vid=599274e6-5922-44eb-9531-05e370a85b3e"},"vehicle_type_id":"4","last_reported":1775120096,"current_range_meters":2800,"station_id":"ce4bhgh2rcd13ifvqfb0","pricing_plan_id":"cebpf4jnsgd1na2vs0mg"},{"bike_id":"e39075e1-ea5f-489b-92f7-81d5eb2a83fd","system_id":"levelo_inurba_marseille","lat":43.21751,"lon":5.34604,"is_reserved":false,"is_disabled":false,"rental_uris":{"android":"levelo://app?vid=e39075e1-ea5f-489b-92f7-81d5eb2a83fd","ios":"levelo://app?vid=e39075e1-ea5f-489b-92f7-81d5eb2a83fd"},"vehicle_type_id":"4","last_reported":1775120096,"current_range_meters":2800,"station_id":"st_cvj6r9ubvosntc0bgbag","pricing_plan_id":"cebpf4jnsgd1na2vs0mg"},{"bike_id":"29cdac5f-ab24-4680-bdbb-b9f9e11d744e","system_id":"levelo_inurba_marseille","lat":43.33164,"lon":5.37691,"is_reserved":false,"is_disabled":false,"rental_uris":{"android":"levelo://app?vid=29cdac5f-ab24-4680-bdbb-b9f9e11d744e","ios":"levelo://app?vid=29cdac5f-ab24-4680-bdbb-b9f9e11d744e"},"vehicle_type_id":"4","last_reported":1775120096,"current_range_meters":2800,"station_id":"st_d46cu089ee8s73dldbu0","pricing_plan_id":"cebpf4jnsgd1na2vs0mg"},{"bike_id":"5017ed3e-5ae8-4a2b-bc3b-d1157886d715","system_id":"levelo_inurba_marseille","lat":43.26547,"lon":5.37281,"is_reserved":false,"is_disabled":false,"rental_uris":{"android":"levelo://app?vid=5017ed3e-5ae8-4a2b-bc3b-d1157886d715","ios":"levelo://app?vid=5017ed3e-5ae8-4a2b-bc3b-d1157886d715"},"vehicle_type_id":"4","last_reported":1775120096,"current_range_meters":2800,"station_id":"ce4bhg12rcd13ifvqf70","pricing_plan_id":"cebpf4jnsgd1na2vs0mg"},{"bike_id":"786ca097-21da-420b-8e54-1ee9116311a7","system_id":"levelo_inurba_marseille","lat":43.33596,"lon":5.41003,"is_reserved":false,"is_disabled":false,"rental_uris":{"android":"levelo://app?vid=786ca097-21da-420b-8e54-1ee9116311a7","ios":"levelo://app?vid=786ca097-21da-420b-8e54-1ee9116311a7"},"vehicle_type_id":"4","last_reported":1775120096,"current_range_meters":2800,"station_id":"ce4bhqh2rcd13ifvqhmg","pricing_plan_id":"cebpf4jnsgd1na2vs0mg"},{"bike_id":"6ec1889d-c43d-42d7-9ebb-6d09626d1897","system_id":"levelo_inurba_marseille","lat":43.24645,"lon":5.38908,"is_reserved":false,"is_disabled":false,"rental_uris":{"android":"levelo://app?vid=6ec1889d-c43d-42d7-9ebb-6d09626d1897","ios":"levelo://app?vid=6ec1889d-c43d-42d7-9ebb-6d09626d1897"},"vehicle_type_id":"4","last_reported":1775120096,"current_range_meters":3200,"station_id":"ce4bhg12rcd13ifvqf60","pricing_plan_id":"cebpf4jnsgd1na2vs0mg"},{"bike_id":"8337cd2b-e42d-4600-be7c-1c2d8d3ca425","system_id":"levelo_inurba_marseille","lat":43.30171,"lon":5.3807,"is_reserved":false,"is_disabled":false,"rental_uris":{"android":"levelo://app?vid=8337cd2b-e42d-4600-be7c-1c2d8d3ca425","ios":"levelo://app?vid=8337cd2b-e42d-4600-be7c-1c2d8d3ca425"},"vehicle_type_id":"4","last_reported":1775120096,"current_range_meters":3200,"station_id":"ce4bgjp2rcd13ifvqbh0","pricing_plan_id":"cebpf4jnsgd1na2vs0mg"},{"bike_id":"e48449c9-7d13-4803-b2aa-7fb857c0a68c","system_id":"levelo_inurba_marseille","lat":43.24431,"lon":5.41587,"is_reserved":false,"is_disabled":false,"rental_uris":{"android":"levelo://app?vid=e48449c9-7d13-4803-b2aa-7fb857c0a68c","ios":"levelo://app?vid=e48449c9-7d13-4803-b2aa-7fb857c0a68c"},"vehicle_type_id":"4","last_reported":1775120096,"current_range_meters":3200,"station_id":"","pricing_plan_id":"cebpf4jnsgd1na2vs0mg"},{"bike_id":"51ee9063-27c6-4645-aab5-a8b07c3f4c5e","system_id":"levelo_inurba_marseille","lat":43.24171,"lon":5.36389,"is_reserved":false,"is_disabled":false,"rental_uris":{"android":"levelo://app?vid=51ee9063-27c6-4645-aab5-a8b07c3f4c5e","ios":"levelo://app?vid=51ee9063-27c6-4645-aab5-a8b07c3f4c5e"},"vehicle_type_id":"4","last_reported":1775120096,"current_range_meters":3200,"station_id":"cpo36qri1sfpv3e86is0","pricing_plan_id":"cebpf4jnsgd1na2vs0mg"},{"bike_id":"c6043a5e-6059-47d4-aca9-ce3cfe11791d","system_id":"levelo_inurba_marseille","lat":43.29555,"lon":5.37526,"is_reserved":false,"is_disabled":false,"rental_uris":{"android":"levelo://app?vid=c6043a5e-6059-47d4-aca9-ce3cfe11791d","ios":"levelo://app?vid=c6043a5e-6059-47d4-aca9-ce3cfe11791d"},"vehicle_type_id":"4","last_reported":1775120096,"current_range_meters":3200,"station_id":"ce4bgh92rcd13ifvqb50","pricing_plan_id":"cebpf4jnsgd1na2vs0mg"},{"bike_id":"4489e38d-b693-43ca-966f-464eb546dc84","system_id":"levelo_inurba_marseille","lat":43.24168,"lon":5.3639,"is_reserved":false,"is_disabled":false,"rental_uris":{"android":"levelo://app?vid=4489e38d-b693-43ca-966f-464eb546dc84","ios":"levelo://app?vid=4489e38d-b693-43ca-966f-464eb546dc84"},"vehicle_type_id":"4","last_reported":1775120096,"current_range_meters":3200,"station_id":"cpo36qri1sfpv3e86is0","pricing_plan_id":"cebpf4jnsgd1na2vs0mg"},{"bike_id":"86fb85ea-ad2d-4c83-a362-0b50e07270d9","system_id":"levelo_inurba_marseille","lat":43.29447,"lon":5.39744,"is_reserved":false,"is_disabled":false,"rental_uris":{"android":"levelo://app?vid=86fb85ea-ad2d-4c83-a362-0b50e07270d9","ios":"levelo://app?vid=86fb85ea-ad2d-4c83-a362-0b50e07270d9"},"vehicle_type_id":"4","last_reported":1775120096,"current_range_meters":3200,"station_id":"ce4bh3h2rcd13ifvqdo0","pricing_plan_id":"cebpf4jnsgd1na2vs0mg"},{"bike_id":"359192e3-5060-4e8d-99a4-60c8177a5557","system_id":"levelo_inurba_marseille","lat":43.29258,"lon":5.37601,"is_reserved":false,"is_disabled":false,"rental_uris":{"android":"levelo://app?vid=359192e3-5060-4e8d-99a4-60c8177a5557","ios":"levelo://app?vid=359192e3-5060-4e8d-99a4-60c8177a5557"},"vehicle_type_id":"4","last_reported":1775120096,"current_range_meters":3200,"station_id":"ce4bgi12rcd13ifvqb80","pricing_plan_id":"cebpf4jnsgd1na2vs0mg"},{"bike_id":"8fc970ee-a484-45a1-8680-8f7f28a23ddf","system_id":"levelo_inurba_marseille","lat":43.21749,"lon":5.346,"is_reserved":false,"is_disabled":false,"rental_uris":{"android":"levelo://app?vid=8fc970ee-a484-45a1-8680-8f7f28a23ddf","ios":"levelo://app?vid=8fc970ee-a484-45a1-8680-8f7f28a23ddf"},"vehicle_type_id":"4","last_reported":1775120096,"current_range_meters":3200,"station_id":"st_cvj6r9ubvosntc0bgbag","pricing_plan_id":"cebpf4jnsgd1na2vs0mg"},{"bike_id":"521fdd5c-22f2-444b-870e-16f0ca92be9e","system_id":"levelo_inurba_marseille","lat":43.29525,"lon":5.38653,"is_reserved":false,"is_disabled":false,"rental_uris":{"android":"levelo://app?vid=521fdd5c-22f2-444b-870e-16f0ca92be9e","ios":"levelo://app?vid=521fdd5c-22f2-444b-870e-16f0ca92be9e"},"vehicle_type_id":"4","last_reported":1775120096,"current_range_meters":3600,"station_id":"","pricing_plan_id":"cebpf4jnsgd1na2vs0mg"},{"bike_id":"977fc7c3-1ec4-4662-b6a1-5d26f21089e8","system_id":"levelo_inurba_marseille","lat":43.24168,"lon":5.36398,"is_reserved":false,"is_disabled":false,"rental_uris":{"android":"levelo://app?vid=977fc7c3-1ec4-4662-b6a1-5d26f21089e8","ios":"levelo://app?vid=977fc7c3-1ec4-4662-b6a1-5d26f21089e8"},"vehicle_type_id":"4","last_reported":1775120096,"current_range_meters":3600,"station_id":"cpo36qri1sfpv3e86is0","pricing_plan_id":"cebpf4jnsgd1na2vs0mg"},{"bike_id":"6f01236f-c1bf-4629-8f10-a082c24743f2","system_id":"levelo_inurba_marseille","lat":43.25891,"lon":5.39925,"is_reserved":false,"is_disabled":false,"rental_uris":{"android":"levelo://app?vid=6f01236f-c1bf-4629-8f10-a082c24743f2","ios":"levelo://app?vid=6f01236f-c1bf-4629-8f10-a082c24743f2"},"vehicle_type_id":"4","last_reported":1775120096,"current_range_meters":3600,"station_id":"","pricing_plan_id":"cebpf4jnsgd1na2vs0mg"},{"bike_id":"a12ced21-9765-4fca-9fbf-5660d7509d0d","system_id":"levelo_inurba_marseille","lat":43.28412,"lon":5.34977,"is_reserved":false,"is_disabled":false,"rental_uris":{"android":"levelo://app?vid=a12ced21-9765-4fca-9fbf-5660d7509d0d","ios":"levelo://app?vid=a12ced21-9765-4fca-9fbf-5660d7509d0d"},"vehicle_type_id":"4","last_reported":1775120096,"current_range_meters":3600,"station_id":"ce4bhbh2rcd13ifvqepg","pricing_plan_id":"cebpf4jnsgd1na2vs0mg"},{"bike_id":"5ff8da46-d50f-41b2-8eee-8fa1fd7c4ed1","system_id":"levelo_inurba_marseille","lat":43.25004,"lon":5.38938,"is_reserved":false,"is_disabled":false,"rental_uris":{"android":"levelo://app?vid=5ff8da46-d50f-41b2-8eee-8fa1fd7c4ed1","ios":"levelo://app?vid=5ff8da46-d50f-41b2-8eee-8fa1fd7c4ed1"},"vehicle_type_id":"4","last_reported":1775120096,"current_range_meters":3600,"station_id":"ce4bhgp2rcd13ifvqfd0","pricing_plan_id":"cebpf4jnsgd1na2vs0mg"},{"bike_id":"acc7b62a-d9bb-4113-95ac-ab78d8fba512","system_id":"levelo_inurba_marseille","lat":43.31702,"lon":5.40441,"is_reserved":false,"is_disabled":false,"rental_uris":{"android":"levelo://app?vid=acc7b62a-d9bb-4113-95ac-ab78d8fba512","ios":"levelo://app?vid=acc7b62a-d9bb-4113-95ac-ab78d8fba512"},"vehicle_type_id":"4","last_reported":1775120096,"current_range_meters":3600,"station_id":"ce4bh012rcd13ifvqd00","pricing_plan_id":"cebpf4jnsgd1na2vs0mg"},{"bike_id":"ddacb53e-55a3-4a67-a531-5d71504540ee","system_id":"levelo_inurba_marseille","lat":43.22554,"lon":5.4162,"is_reserved":false,"is_disabled":false,"rental_uris":{"android":"levelo://app?vid=ddacb53e-55a3-4a67-a531-5d71504540ee","ios":"levelo://app?vid=ddacb53e-55a3-4a67-a531-5d71504540ee"},"vehicle_type_id":"4","last_reported":1775120096,"current_range_meters":3600,"station_id":"st_d2o4gvlbi1j2169b742g","pricing_plan_id":"cebpf4jnsgd1na2vs0mg"},{"bike_id":"50236813-bf88-46a5-ace1-dd5e5784f3e0","system_id":"levelo_inurba_marseille","lat":43.33159,"lon":5.37699,"is_reserved":false,"is_disabled":false,"rental_uris":{"android":"levelo://app?vid=50236813-bf88-46a5-ace1-dd5e5784f3e0","ios":"levelo://app?vid=50236813-bf88-46a5-ace1-dd5e5784f3e0"},"vehicle_type_id":"4","last_reported":1775120096,"current_range_meters":3600,"station_id":"st_d46cu089ee8s73dldbu0","pricing_plan_id":"cebpf4jnsgd1na2vs0mg"},{"bike_id":"e41e3697-59e4-4346-81a5-c14ee6c184fd","system_id":"levelo_inurba_marseille","lat":43.22548,"lon":5.34828,"is_reserved":false,"is_disabled":false,"rental_uris":{"android":"levelo://app?vid=e41e3697-59e4-4346-81a5-c14ee6c184fd","ios":"levelo://app?vid=e41e3697-59e4-4346-81a5-c14ee6c184fd"},"vehicle_type_id":"4","last_reported":1775120096,"current_range_meters":3600,"station_id":"st_cvj5dfep6f1abm77gieg","pricing_plan_id":"cebpf4jnsgd1na2vs0mg"},{"bike_id":"b7a11399-83cc-4e4f-816c-5b7d4f419e86","system_id":"levelo_inurba_marseille","lat":43.29264,"lon":5.36063,"is_reserved":false,"is_disabled":false,"rental_uris":{"android":"levelo://app?vid=b7a11399-83cc-4e4f-816c-5b7d4f419e86","ios":"levelo://app?vid=b7a11399-83cc-4e4f-816c-5b7d4f419e86"},"vehicle_type_id":"4","last_reported":1775120096,"current_range_meters":3600,"station_id":"ce4bhbh2rcd13ifvqeqg","pricing_plan_id":"cebpf4jnsgd1na2vs0mg"},{"bike_id":"15e159ca-4e0f-43f8-982d-c16dab56bef0","system_id":"levelo_inurba_marseille","lat":43.23955,"lon":5.36626,"is_reserved":false,"is_disabled":false,"rental_uris":{"android":"levelo://app?vid=15e159ca-4e0f-43f8-982d-c16dab56bef0","ios":"levelo://app?vid=15e159ca-4e0f-43f8-982d-c16dab56bef0"},"vehicle_type_id":"4","last_reported":1775120096,"current_range_meters":3600,"station_id":"ce4bhi12rcd13ifvqfp0","pricing_plan_id":"cebpf4jnsgd1na2vs0mg"},{"bike_id":"f94a14ad-c6ac-48b3-b461-fdf4bedc3775","system_id":"levelo_inurba_marseille","lat":43.30315,"lon":5.36905,"is_reserved":false,"is_disabled":false,"rental_uris":{"android":"levelo://app?vid=f94a14ad-c6ac-48b3-b461-fdf4bedc3775","ios":"levelo://app?vid=f94a14ad-c6ac-48b3-b461-fdf4bedc3775"},"vehicle_type_id":"4","last_reported":1775120096,"current_range_meters":3600,"station_id":"ce4bgqh2rcd13ifvqc5g","pricing_plan_id":"cebpf4jnsgd1na2vs0mg"},{"bike_id":"7d221536-c309-4cb7-98fe-5bdf54751499","system_id":"levelo_inurba_marseille","lat":43.28475,"lon":5.484,"is_reserved":false,"is_disabled":false,"rental_uris":{"android":"levelo://app?vid=7d221536-c309-4cb7-98fe-5bdf54751499","ios":"levelo://app?vid=7d221536-c309-4cb7-98fe-5bdf54751499"},"vehicle_type_id":"4","last_reported":1775120096,"current_range_meters":3600,"station_id":"","pricing_plan_id":"cebpf4jnsgd1na2vs0mg"},{"bike_id":"45c050e8-a329-47f8-a86f-69826197952f","system_id":"levelo_inurba_marseille","lat":43.24171,"lon":5.36404,"is_reserved":false,"is_disabled":false,"rental_uris":{"android":"levelo://app?vid=45c050e8-a329-47f8-a86f-69826197952f","ios":"levelo://app?vid=45c050e8-a329-47f8-a86f-69826197952f"},"vehicle_type_id":"4","last_reported":1775120096,"current_range_meters":3600,"station_id":"cpo36qri1sfpv3e86is0","pricing_plan_id":"cebpf4jnsgd1na2vs0mg"},{"bike_id":"7e0705ad-407b-4cd0-a7d5-78a89411fe88","system_id":"levelo_inurba_marseille","lat":43.29778,"lon":5.38092,"is_reserved":false,"is_disabled":false,"rental_uris":{"android":"levelo://app?vid=7e0705ad-407b-4cd0-a7d5-78a89411fe88","ios":"levelo://app?vid=7e0705ad-407b-4cd0-a7d5-78a89411fe88"},"vehicle_type_id":"4","last_reported":1775120096,"current_range_meters":3600,"station_id":"ce4bgip2rcd13ifvqbb0","pricing_plan_id":"cebpf4jnsgd1na2vs0mg"},{"bike_id":"f286f832-09b2-42ca-90f0-edb883fadf6b","system_id":"levelo_inurba_marseille","lat":43.28481,"lon":5.38415,"is_reserved":false,"is_disabled":false,"rental_uris":{"android":"levelo://app?vid=f286f832-09b2-42ca-90f0-edb883fadf6b","ios":"levelo://app?vid=f286f832-09b2-42ca-90f0-edb883fadf6b"},"vehicle_type_id":"4","last_reported":1775120096,"current_range_meters":4000,"station_id":"ce4bh512rcd13ifvqe3g","pricing_plan_id":"cebpf4jnsgd1na2vs0mg"},{"bike_id":"a2eaa8fe-9ee3-4783-9910-a0708dc6938b","system_id":"levelo_inurba_marseille","lat":43.23053,"lon":5.35493,"is_reserved":false,"is_disabled":false,"rental_uris":{"android":"levelo://app?vid=a2eaa8fe-9ee3-4783-9910-a0708dc6938b","ios":"levelo://app?vid=a2eaa8fe-9ee3-4783-9910-a0708dc6938b"},"vehicle_type_id":"4","last_reported":1775120096,"current_range_meters":4000,"station_id":"cpo3342slgdg3j2ifvpg","pricing_plan_id":"cebpf4jnsgd1na2vs0mg"},{"bike_id":"a08ca64a-2abc-4872-bcd9-336ced89a23d","system_id":"levelo_inurba_marseille","lat":43.24467,"lon":5.4253,"is_reserved":false,"is_disabled":false,"rental_uris":{"android":"levelo://app?vid=a08ca64a-2abc-4872-bcd9-336ced89a23d","ios":"levelo://app?vid=a08ca64a-2abc-4872-bcd9-336ced89a23d"},"vehicle_type_id":"4","last_reported":1775120096,"current_range_meters":4000,"station_id":"st_d4a3vfp97mjs738cd8kg","pricing_plan_id":"cebpf4jnsgd1na2vs0mg"},{"bike_id":"982951ba-d1eb-42d4-bb65-5d98050aa6ef","system_id":"levelo_inurba_marseille","lat":43.28468,"lon":5.48374,"is_reserved":false,"is_disabled":false,"rental_uris":{"android":"levelo://app?vid=982951ba-d1eb-42d4-bb65-5d98050aa6ef","ios":"levelo://app?vid=982951ba-d1eb-42d4-bb65-5d98050aa6ef"},"vehicle_type_id":"4","last_reported":1775120096,"current_range_meters":4000,"station_id":"","pricing_plan_id":"cebpf4jnsgd1na2vs0mg"},{"bike_id":"ace8d92c-665e-46a4-858d-e12872c8b9f0","system_id":"levelo_inurba_marseille","lat":43.28481,"lon":5.48411,"is_reserved":false,"is_disabled":false,"rental_uris":{"android":"levelo://app?vid=ace8d92c-665e-46a4-858d-e12872c8b9f0","ios":"levelo://app?vid=ace8d92c-665e-46a4-858d-e12872c8b9f0"},"vehicle_type_id":"4","last_reported":1775120096,"current_range_meters":4000,"station_id":"","pricing_plan_id":"cebpf4jnsgd1na2vs0mg"},{"bike_id":"23a1f004-01c9-4416-9d3b-31e26d56c169","system_id":"levelo_inurba_marseille","lat":43.23998,"lon":5.37774,"is_reserved":false,"is_disabled":false,"rental_uris":{"android":"levelo://app?vid=23a1f004-01c9-4416-9d3b-31e26d56c169","ios":"levelo://app?vid=23a1f004-01c9-4416-9d3b-31e26d56c169"},"vehicle_type_id":"4","last_reported":1775120096,"current_range_meters":4000,"station_id":"","pricing_plan_id":"cebpf4jnsgd1na2vs0mg"},{"bike_id":"19d804f8-e022-4728-979b-c94761dfb083","system_id":"levelo_inurba_marseille","lat":43.23776,"lon":5.36622,"is_reserved":false,"is_disabled":false,"rental_uris":{"android":"levelo://app?vid=19d804f8-e022-4728-979b-c94761dfb083","ios":"levelo://app?vid=19d804f8-e022-4728-979b-c94761dfb083"},"vehicle_type_id":"4","last_reported":1775120096,"current_range_meters":4000,"station_id":"st_d3nk18o9ro0c73en2l3g","pricing_plan_id":"cebpf4jnsgd1na2vs0mg"},{"bike_id":"0d0c8f03-48a7-4e97-9825-e79885ed278e","system_id":"levelo_inurba_marseille","lat":43.23052,"lon":5.35483,"is_reserved":false,"is_disabled":false,"rental_uris":{"android":"levelo://app?vid=0d0c8f03-48a7-4e97-9825-e79885ed278e","ios":"levelo://app?vid=0d0c8f03-48a7-4e97-9825-e79885ed278e"},"vehicle_type_id":"4","last_reported":1775120096,"current_range_meters":4000,"station_id":"cpo3342slgdg3j2ifvpg","pricing_plan_id":"cebpf4jnsgd1na2vs0mg"},{"bike_id":"d41d5ff3-651c-4e70-8a12-e8a105b53c64","system_id":"levelo_inurba_marseille","lat":43.31569,"lon":5.4453,"is_reserved":false,"is_disabled":false,"rental_uris":{"android":"levelo://app?vid=d41d5ff3-651c-4e70-8a12-e8a105b53c64","ios":"levelo://app?vid=d41d5ff3-651c-4e70-8a12-e8a105b53c64"},"vehicle_type_id":"4","last_reported":1775120096,"current_range_meters":4000,"station_id":"","pricing_plan_id":"cebpf4jnsgd1na2vs0mg"},{"bike_id":"cb96e374-9253-493d-8ea1-d685a53dbd39","system_id":"levelo_inurba_marseille","lat":43.28526,"lon":5.44106,"is_reserved":false,"is_disabled":false,"rental_uris":{"android":"levelo://app?vid=cb96e374-9253-493d-8ea1-d685a53dbd39","ios":"levelo://app?vid=cb96e374-9253-493d-8ea1-d685a53dbd39"},"vehicle_type_id":"4","last_reported":1775120096,"current_range_meters":4000,"station_id":"st_d3j3df2ikq2c7380ej80","pricing_plan_id":"cebpf4jnsgd1na2vs0mg"},{"bike_id":"d5d3c35b-4420-4569-83eb-e2eef5fa6559","system_id":"levelo_inurba_marseille","lat":43.2256,"lon":5.41625,"is_reserved":false,"is_disabled":false,"rental_uris":{"android":"levelo://app?vid=d5d3c35b-4420-4569-83eb-e2eef5fa6559","ios":"levelo://app?vid=d5d3c35b-4420-4569-83eb-e2eef5fa6559"},"vehicle_type_id":"4","last_reported":1775120096,"current_range_meters":4000,"station_id":"st_d2o4gvlbi1j2169b742g","pricing_plan_id":"cebpf4jnsgd1na2vs0mg"},{"bike_id":"b91430e1-1d66-4d10-aed3-25a50a0a7a3c","system_id":"levelo_inurba_marseille","lat":43.23361,"lon":5.41239,"is_reserved":false,"is_disabled":false,"rental_uris":{"android":"levelo://app?vid=b91430e1-1d66-4d10-aed3-25a50a0a7a3c","ios":"levelo://app?vid=b91430e1-1d66-4d10-aed3-25a50a0a7a3c"},"vehicle_type_id":"4","last_reported":1775120096,"current_range_meters":4000,"station_id":"st_d75pvndhf9lc73cqq3eg","pricing_plan_id":"cebpf4jnsgd1na2vs0mg"},{"bike_id":"ac750519-69a1-4eac-846f-31128d535c20","system_id":"levelo_inurba_marseille","lat":43.24397,"lon":5.37071,"is_reserved":false,"is_disabled":false,"rental_uris":{"android":"levelo://app?vid=ac750519-69a1-4eac-846f-31128d535c20","ios":"levelo://app?vid=ac750519-69a1-4eac-846f-31128d535c20"},"vehicle_type_id":"4","last_reported":1775120096,"current_range_meters":4000,"station_id":"ce4bhhh2rcd13ifvqfk0","pricing_plan_id":"cebpf4jnsgd1na2vs0mg"},{"bike_id":"6c3b2188-ad26-44f1-97bc-4de5c5fe5d74","system_id":"levelo_inurba_marseille","lat":43.28485,"lon":5.48396,"is_reserved":false,"is_disabled":false,"rental_uris":{"android":"levelo://app?vid=6c3b2188-ad26-44f1-97bc-4de5c5fe5d74","ios":"levelo://app?vid=6c3b2188-ad26-44f1-97bc-4de5c5fe5d74"},"vehicle_type_id":"4","last_reported":1775120096,"current_range_meters":4000,"station_id":"","pricing_plan_id":"cebpf4jnsgd1na2vs0mg"},{"bike_id":"f08b3612-6b3d-4885-ab90-6ca5ea097d1b","system_id":"levelo_inurba_marseille","lat":43.29709,"lon":5.36615,"is_reserved":false,"is_disabled":false,"rental_uris":{"android":"levelo://app?vid=f08b3612-6b3d-4885-ab90-6ca5ea097d1b","ios":"levelo://app?vid=f08b3612-6b3d-4885-ab90-6ca5ea097d1b"},"vehicle_type_id":"4","last_reported":1775120096,"current_range_meters":4000,"station_id":"ce4bgn12rcd13ifvqbt0","pricing_plan_id":"cebpf4jnsgd1na2vs0mg"},{"bike_id":"ee39683d-f98a-4da0-b314-92f41090c4cf","system_id":"levelo_inurba_marseille","lat":43.2254,"lon":5.41597,"is_reserved":false,"is_disabled":false,"rental_uris":{"android":"levelo://app?vid=ee39683d-f98a-4da0-b314-92f41090c4cf","ios":"levelo://app?vid=ee39683d-f98a-4da0-b314-92f41090c4cf"},"vehicle_type_id":"4","last_reported":1775120096,"current_range_meters":4000,"station_id":"st_d2o4gvlbi1j2169b742g","pricing_plan_id":"cebpf4jnsgd1na2vs0mg"},{"bike_id":"4b468e67-5df8-40e9-a14b-f7dd9a354424","system_id":"levelo_inurba_marseille","lat":43.31066,"lon":5.37174,"is_reserved":false,"is_disabled":false,"rental_uris":{"android":"levelo://app?vid=4b468e67-5df8-40e9-a14b-f7dd9a354424","ios":"levelo://app?vid=4b468e67-5df8-40e9-a14b-f7dd9a354424"},"vehicle_type_id":"4","last_reported":1775120096,"current_range_meters":4000,"station_id":"st_d4kl2rp97mjs73e7tdfg","pricing_plan_id":"cebpf4jnsgd1na2vs0mg"},{"bike_id":"0be0f331-343d-4e35-84d1-0c2a496d1cfe","system_id":"levelo_inurba_marseille","lat":43.31891,"lon":5.36817,"is_reserved":false,"is_disabled":false,"rental_uris":{"android":"levelo://app?vid=0be0f331-343d-4e35-84d1-0c2a496d1cfe","ios":"levelo://app?vid=0be0f331-343d-4e35-84d1-0c2a496d1cfe"},"vehicle_type_id":"4","last_reported":1775120096,"current_range_meters":4000,"station_id":"st_d6o2h0d0559c73evc1b0","pricing_plan_id":"cebpf4jnsgd1na2vs0mg"},{"bike_id":"f6ced8d1-bf4c-433b-9ac4-01f185b043e1","system_id":"levelo_inurba_marseille","lat":43.24167,"lon":5.36397,"is_reserved":false,"is_disabled":false,"rental_uris":{"android":"levelo://app?vid=f6ced8d1-bf4c-433b-9ac4-01f185b043e1","ios":"levelo://app?vid=f6ced8d1-bf4c-433b-9ac4-01f185b043e1"},"vehicle_type_id":"4","last_reported":1775120096,"current_range_meters":4400,"station_id":"cpo36qri1sfpv3e86is0","pricing_plan_id":"cebpf4jnsgd1na2vs0mg"},{"bike_id":"0591e93c-6da7-411b-b708-bc9aaa04c6bd","system_id":"levelo_inurba_marseille","lat":43.292317,"lon":5.36062,"is_reserved":false,"is_disabled":false,"rental_uris":{"android":"levelo://app?vid=0591e93c-6da7-411b-b708-bc9aaa04c6bd","ios":"levelo://app?vid=0591e93c-6da7-411b-b708-bc9aaa04c6bd"},"vehicle_type_id":"4","last_reported":1775120096,"current_range_meters":4400,"station_id":"ce4bhbh2rcd13ifvqeqg","pricing_plan_id":"cebpf4jnsgd1na2vs0mg"},{"bike_id":"a9736a07-62b5-4205-a15e-a1ace1588bec","system_id":"levelo_inurba_marseille","lat":43.30588,"lon":5.39357,"is_reserved":false,"is_disabled":false,"rental_uris":{"android":"levelo://app?vid=a9736a07-62b5-4205-a15e-a1ace1588bec","ios":"levelo://app?vid=a9736a07-62b5-4205-a15e-a1ace1588bec"},"vehicle_type_id":"4","last_reported":1775120096,"current_range_meters":4400,"station_id":"ce4bh0p2rcd13ifvqd80","pricing_plan_id":"cebpf4jnsgd1na2vs0mg"},{"bike_id":"cb5b1ee0-fb07-4fe9-8d2d-7bd39e547d09","system_id":"levelo_inurba_marseille","lat":43.33632,"lon":5.41027,"is_reserved":false,"is_disabled":true,"rental_uris":{"android":"levelo://app?vid=cb5b1ee0-fb07-4fe9-8d2d-7bd39e547d09","ios":"levelo://app?vid=cb5b1ee0-fb07-4fe9-8d2d-7bd39e547d09"},"vehicle_type_id":"4","last_reported":1775120096,"current_range_meters":4400,"station_id":"ce4bhqh2rcd13ifvqhmg","pricing_plan_id":"cebpf4jnsgd1na2vs0mg"},{"bike_id":"febd890f-8091-48ad-815e-abf0b801ed37","system_id":"levelo_inurba_marseille","lat":43.24398,"lon":5.37066,"is_reserved":false,"is_disabled":false,"rental_uris":{"android":"levelo://app?vid=febd890f-8091-48ad-815e-abf0b801ed37","ios":"levelo://app?vid=febd890f-8091-48ad-815e-abf0b801ed37"},"vehicle_type_id":"4","last_reported":1775120096,"current_range_meters":4400,"station_id":"ce4bhhh2rcd13ifvqfk0","pricing_plan_id":"cebpf4jnsgd1na2vs0mg"},{"bike_id":"414e0a70-6dfc-4ae8-82b3-ec8ad75a8436","system_id":"levelo_inurba_marseille","lat":43.25576,"lon":5.38237,"is_reserved":false,"is_disabled":true,"rental_uris":{"android":"levelo://app?vid=414e0a70-6dfc-4ae8-82b3-ec8ad75a8436","ios":"levelo://app?vid=414e0a70-6dfc-4ae8-82b3-ec8ad75a8436"},"vehicle_type_id":"4","last_reported":1775120096,"current_range_meters":4400,"station_id":"ce4bhih2rcd13ifvqfs0","pricing_plan_id":"cebpf4jnsgd1na2vs0mg"},{"bike_id":"663f083f-00a2-4b8f-950e-3aa403228b3d","system_id":"levelo_inurba_marseille","lat":43.22564,"lon":5.41615,"is_reserved":false,"is_disabled":false,"rental_uris":{"android":"levelo://app?vid=663f083f-00a2-4b8f-950e-3aa403228b3d","ios":"levelo://app?vid=663f083f-00a2-4b8f-950e-3aa403228b3d"},"vehicle_type_id":"4","last_reported":1775120096,"current_range_meters":4400,"station_id":"st_d2o4gvlbi1j2169b742g","pricing_plan_id":"cebpf4jnsgd1na2vs0mg"},{"bike_id":"bed085cd-e643-4cf8-a83c-4e3f37218df7","system_id":"levelo_inurba_marseille","lat":43.23131,"lon":5.40175,"is_reserved":false,"is_disabled":false,"rental_uris":{"android":"levelo://app?vid=bed085cd-e643-4cf8-a83c-4e3f37218df7","ios":"levelo://app?vid=bed085cd-e643-4cf8-a83c-4e3f37218df7"},"vehicle_type_id":"4","last_reported":1775120096,"current_range_meters":4400,"station_id":"","pricing_plan_id":"cebpf4jnsgd1na2vs0mg"},{"bike_id":"6b30b689-0e8e-4a7c-bff0-3186003a6265","system_id":"levelo_inurba_marseille","lat":43.25004,"lon":5.38928,"is_reserved":false,"is_disabled":false,"rental_uris":{"android":"levelo://app?vid=6b30b689-0e8e-4a7c-bff0-3186003a6265","ios":"levelo://app?vid=6b30b689-0e8e-4a7c-bff0-3186003a6265"},"vehicle_type_id":"4","last_reported":1775120096,"current_range_meters":4400,"station_id":"ce4bhgp2rcd13ifvqfd0","pricing_plan_id":"cebpf4jnsgd1na2vs0mg"},{"bike_id":"2c78b9d7-6797-4c09-ad87-2e1c14443b34","system_id":"levelo_inurba_marseille","lat":43.28565,"lon":5.4292,"is_reserved":false,"is_disabled":false,"rental_uris":{"android":"levelo://app?vid=2c78b9d7-6797-4c09-ad87-2e1c14443b34","ios":"levelo://app?vid=2c78b9d7-6797-4c09-ad87-2e1c14443b34"},"vehicle_type_id":"4","last_reported":1775120096,"current_range_meters":4400,"station_id":"","pricing_plan_id":"cebpf4jnsgd1na2vs0mg"},{"bike_id":"dbafccf7-0909-44bd-86f0-abe7aa0ed694","system_id":"levelo_inurba_marseille","lat":43.29065,"lon":5.43634,"is_reserved":false,"is_disabled":false,"rental_uris":{"android":"levelo://app?vid=dbafccf7-0909-44bd-86f0-abe7aa0ed694","ios":"levelo://app?vid=dbafccf7-0909-44bd-86f0-abe7aa0ed694"},"vehicle_type_id":"4","last_reported":1775120096,"current_range_meters":4800,"station_id":"","pricing_plan_id":"cebpf4jnsgd1na2vs0mg"},{"bike_id":"044d0e04-4a13-414f-aa0d-6345aea274e6","system_id":"levelo_inurba_marseille","lat":43.29579,"lon":5.37499,"is_reserved":false,"is_disabled":true,"rental_uris":{"android":"levelo://app?vid=044d0e04-4a13-414f-aa0d-6345aea274e6","ios":"levelo://app?vid=044d0e04-4a13-414f-aa0d-6345aea274e6"},"vehicle_type_id":"4","last_reported":1775120096,"current_range_meters":4800,"station_id":"ce4bgh92rcd13ifvqb50","pricing_plan_id":"cebpf4jnsgd1na2vs0mg"},{"bike_id":"52dc2264-cce2-4d05-81cc-597b892a962a","system_id":"levelo_inurba_marseille","lat":43.28404,"lon":5.34987,"is_reserved":false,"is_disabled":false,"rental_uris":{"android":"levelo://app?vid=52dc2264-cce2-4d05-81cc-597b892a962a","ios":"levelo://app?vid=52dc2264-cce2-4d05-81cc-597b892a962a"},"vehicle_type_id":"4","last_reported":1775120096,"current_range_meters":4800,"station_id":"ce4bhbh2rcd13ifvqepg","pricing_plan_id":"cebpf4jnsgd1na2vs0mg"},{"bike_id":"62bf82c9-a7d6-485f-b660-bbbb2d4f54e9","system_id":"levelo_inurba_marseille","lat":43.24379,"lon":5.36976,"is_reserved":false,"is_disabled":false,"rental_uris":{"android":"levelo://app?vid=62bf82c9-a7d6-485f-b660-bbbb2d4f54e9","ios":"levelo://app?vid=62bf82c9-a7d6-485f-b660-bbbb2d4f54e9"},"vehicle_type_id":"4","last_reported":1775120096,"current_range_meters":4800,"station_id":"ce4bhhh2rcd13ifvqfk0","pricing_plan_id":"cebpf4jnsgd1na2vs0mg"},{"bike_id":"b9a2dc0a-a78c-4ec1-b214-1ebc47ea2ab0","system_id":"levelo_inurba_marseille","lat":43.22548,"lon":5.41646,"is_reserved":false,"is_disabled":false,"rental_uris":{"android":"levelo://app?vid=b9a2dc0a-a78c-4ec1-b214-1ebc47ea2ab0","ios":"levelo://app?vid=b9a2dc0a-a78c-4ec1-b214-1ebc47ea2ab0"},"vehicle_type_id":"4","last_reported":1775120096,"current_range_meters":4800,"station_id":"st_d2o4gvlbi1j2169b742g","pricing_plan_id":"cebpf4jnsgd1na2vs0mg"},{"bike_id":"49bf89f4-35c4-41a0-a0c6-04e0d316201a","system_id":"levelo_inurba_marseille","lat":43.31354,"lon":5.36698,"is_reserved":false,"is_disabled":false,"rental_uris":{"android":"levelo://app?vid=49bf89f4-35c4-41a0-a0c6-04e0d316201a","ios":"levelo://app?vid=49bf89f4-35c4-41a0-a0c6-04e0d316201a"},"vehicle_type_id":"4","last_reported":1775120096,"current_range_meters":4800,"station_id":"ce4bgr92rcd13ifvqc6g","pricing_plan_id":"cebpf4jnsgd1na2vs0mg"},{"bike_id":"9f379acd-775f-40aa-a2ad-0898810cd24c","system_id":"levelo_inurba_marseille","lat":43.244,"lon":5.3704,"is_reserved":false,"is_disabled":false,"rental_uris":{"android":"levelo://app?vid=9f379acd-775f-40aa-a2ad-0898810cd24c","ios":"levelo://app?vid=9f379acd-775f-40aa-a2ad-0898810cd24c"},"vehicle_type_id":"4","last_reported":1775120096,"current_range_meters":4800,"station_id":"ce4bhhh2rcd13ifvqfk0","pricing_plan_id":"cebpf4jnsgd1na2vs0mg"},{"bike_id":"04ed8c4e-0974-4f4c-a3b5-3ec8afa07ecb","system_id":"levelo_inurba_marseille","lat":43.26566,"lon":5.3727,"is_reserved":false,"is_disabled":false,"rental_uris":{"android":"levelo://app?vid=04ed8c4e-0974-4f4c-a3b5-3ec8afa07ecb","ios":"levelo://app?vid=04ed8c4e-0974-4f4c-a3b5-3ec8afa07ecb"},"vehicle_type_id":"4","last_reported":1775120096,"current_range_meters":4800,"station_id":"ce4bhg12rcd13ifvqf70","pricing_plan_id":"cebpf4jnsgd1na2vs0mg"},{"bike_id":"34b037d6-92df-42f0-8354-c532524ef954","system_id":"levelo_inurba_marseille","lat":43.28999,"lon":5.35602,"is_reserved":false,"is_disabled":false,"rental_uris":{"android":"levelo://app?vid=34b037d6-92df-42f0-8354-c532524ef954","ios":"levelo://app?vid=34b037d6-92df-42f0-8354-c532524ef954"},"vehicle_type_id":"4","last_reported":1775120096,"current_range_meters":4800,"station_id":"ce4bhb92rcd13ifvqen0","pricing_plan_id":"cebpf4jnsgd1na2vs0mg"},{"bike_id":"3b00fc1e-e36b-481b-a2bc-3dac3c178dbc","system_id":"levelo_inurba_marseille","lat":43.27807,"lon":5.40703,"is_reserved":false,"is_disabled":true,"rental_uris":{"android":"levelo://app?vid=3b00fc1e-e36b-481b-a2bc-3dac3c178dbc","ios":"levelo://app?vid=3b00fc1e-e36b-481b-a2bc-3dac3c178dbc"},"vehicle_type_id":"4","last_reported":1775120096,"current_range_meters":4800,"station_id":"ce4bhnh2rcd13ifvqgtg","pricing_plan_id":"cebpf4jnsgd1na2vs0mg"},{"bike_id":"ac9cfb47-6491-4537-bdd0-177ab07e5667","system_id":"levelo_inurba_marseille","lat":43.31328,"lon":5.36755,"is_reserved":false,"is_disabled":false,"rental_uris":{"android":"levelo://app?vid=ac9cfb47-6491-4537-bdd0-177ab07e5667","ios":"levelo://app?vid=ac9cfb47-6491-4537-bdd0-177ab07e5667"},"vehicle_type_id":"4","last_reported":1775120096,"current_range_meters":4800,"station_id":"ce4bgr92rcd13ifvqc6g","pricing_plan_id":"cebpf4jnsgd1na2vs0mg"},{"bike_id":"20be60e4-7b44-41ce-8475-7cfa7f9fa6a4","system_id":"levelo_inurba_marseille","lat":43.29196,"lon":5.35813,"is_reserved":false,"is_disabled":false,"rental_uris":{"android":"levelo://app?vid=20be60e4-7b44-41ce-8475-7cfa7f9fa6a4","ios":"levelo://app?vid=20be60e4-7b44-41ce-8475-7cfa7f9fa6a4"},"vehicle_type_id":"4","last_reported":1775120096,"current_range_meters":4800,"station_id":"ce4bhb12rcd13ifvqel0","pricing_plan_id":"cebpf4jnsgd1na2vs0mg"},{"bike_id":"7b9afc77-0e17-48ba-b360-a407675726ad","system_id":"levelo_inurba_marseille","lat":43.2886,"lon":5.42506,"is_reserved":false,"is_disabled":false,"rental_uris":{"android":"levelo://app?vid=7b9afc77-0e17-48ba-b360-a407675726ad","ios":"levelo://app?vid=7b9afc77-0e17-48ba-b360-a407675726ad"},"vehicle_type_id":"4","last_reported":1775120096,"current_range_meters":4800,"station_id":"st_d3b462108ojc7389ooeg","pricing_plan_id":"cebpf4jnsgd1na2vs0mg"},{"bike_id":"88fa2909-71d1-44f3-aae5-5d1397d4d90a","system_id":"levelo_inurba_marseille","lat":43.24667,"lon":5.38153,"is_reserved":false,"is_disabled":false,"rental_uris":{"android":"levelo://app?vid=88fa2909-71d1-44f3-aae5-5d1397d4d90a","ios":"levelo://app?vid=88fa2909-71d1-44f3-aae5-5d1397d4d90a"},"vehicle_type_id":"4","last_reported":1775120096,"current_range_meters":4800,"station_id":"ce4bhih2rcd13ifvqfr0","pricing_plan_id":"cebpf4jnsgd1na2vs0mg"},{"bike_id":"a17dbbf9-2919-4aa7-a6bc-4d101b9dc30c","system_id":"levelo_inurba_marseille","lat":43.27558,"lon":5.40938,"is_reserved":false,"is_disabled":false,"rental_uris":{"android":"levelo://app?vid=a17dbbf9-2919-4aa7-a6bc-4d101b9dc30c","ios":"levelo://app?vid=a17dbbf9-2919-4aa7-a6bc-4d101b9dc30c"},"vehicle_type_id":"4","last_reported":1775120096,"current_range_meters":4800,"station_id":"","pricing_plan_id":"cebpf4jnsgd1na2vs0mg"},{"bike_id":"5d2e4f54-0b2c-472f-bac0-ce26576d7912","system_id":"levelo_inurba_marseille","lat":43.28111,"lon":5.37834,"is_reserved":false,"is_disabled":false,"rental_uris":{"android":"levelo://app?vid=5d2e4f54-0b2c-472f-bac0-ce26576d7912","ios":"levelo://app?vid=5d2e4f54-0b2c-472f-bac0-ce26576d7912"},"vehicle_type_id":"4","last_reported":1775120096,"current_range_meters":4800,"station_id":"ce4bha12rcd13ifvqee0","pricing_plan_id":"cebpf4jnsgd1na2vs0mg"},{"bike_id":"c01d9e49-fff9-456c-8c86-45ce90e055c7","system_id":"levelo_inurba_marseille","lat":43.31197,"lon":5.36861,"is_reserved":false,"is_disabled":false,"rental_uris":{"android":"levelo://app?vid=c01d9e49-fff9-456c-8c86-45ce90e055c7","ios":"levelo://app?vid=c01d9e49-fff9-456c-8c86-45ce90e055c7"},"vehicle_type_id":"4","last_reported":1775120096,"current_range_meters":4800,"station_id":"ce4bgl92rcd13ifvqbq0","pricing_plan_id":"cebpf4jnsgd1na2vs0mg"},{"bike_id":"bd745af4-b1d4-4322-9723-4db0fa7083f7","system_id":"levelo_inurba_marseille","lat":43.30994,"lon":5.39038,"is_reserved":false,"is_disabled":false,"rental_uris":{"android":"levelo://app?vid=bd745af4-b1d4-4322-9723-4db0fa7083f7","ios":"levelo://app?vid=bd745af4-b1d4-4322-9723-4db0fa7083f7"},"vehicle_type_id":"4","last_reported":1775120096,"current_range_meters":4800,"station_id":"ce4bgup2rcd13ifvqco0","pricing_plan_id":"cebpf4jnsgd1na2vs0mg"},{"bike_id":"c267eaf3-200a-4a1c-8074-fa1f1a8154c6","system_id":"levelo_inurba_marseille","lat":43.21748,"lon":5.34573,"is_reserved":false,"is_disabled":false,"rental_uris":{"android":"levelo://app?vid=c267eaf3-200a-4a1c-8074-fa1f1a8154c6","ios":"levelo://app?vid=c267eaf3-200a-4a1c-8074-fa1f1a8154c6"},"vehicle_type_id":"4","last_reported":1775120096,"current_range_meters":4800,"station_id":"st_cvj6r9ubvosntc0bgbag","pricing_plan_id":"cebpf4jnsgd1na2vs0mg"},{"bike_id":"ffde6a95-5dec-426a-943f-3ce4b714e7dc","system_id":"levelo_inurba_marseille","lat":43.21755,"lon":5.34597,"is_reserved":false,"is_disabled":false,"rental_uris":{"android":"levelo://app?vid=ffde6a95-5dec-426a-943f-3ce4b714e7dc","ios":"levelo://app?vid=ffde6a95-5dec-426a-943f-3ce4b714e7dc"},"vehicle_type_id":"4","last_reported":1775120096,"current_range_meters":5600,"station_id":"st_cvj6r9ubvosntc0bgbag","pricing_plan_id":"cebpf4jnsgd1na2vs0mg"},{"bike_id":"d96f536b-6bad-4d13-a5d3-e044f89a9779","system_id":"levelo_inurba_marseille","lat":43.29022,"lon":5.38113,"is_reserved":false,"is_disabled":false,"rental_uris":{"android":"levelo://app?vid=d96f536b-6bad-4d13-a5d3-e044f89a9779","ios":"levelo://app?vid=d96f536b-6bad-4d13-a5d3-e044f89a9779"},"vehicle_type_id":"4","last_reported":1775120096,"current_range_meters":5600,"station_id":"ce4bh4p2rcd13ifvqe1g","pricing_plan_id":"cebpf4jnsgd1na2vs0mg"},{"bike_id":"68945dd7-fcc7-4d4c-a459-6c84a8a17358","system_id":"levelo_inurba_marseille","lat":43.23975,"lon":5.36632,"is_reserved":false,"is_disabled":false,"rental_uris":{"android":"levelo://app?vid=68945dd7-fcc7-4d4c-a459-6c84a8a17358","ios":"levelo://app?vid=68945dd7-fcc7-4d4c-a459-6c84a8a17358"},"vehicle_type_id":"4","last_reported":1775120096,"current_range_meters":5600,"station_id":"ce4bhi12rcd13ifvqfp0","pricing_plan_id":"cebpf4jnsgd1na2vs0mg"},{"bike_id":"6ee576b8-0d43-4935-b534-dcb1d51f05f8","system_id":"levelo_inurba_marseille","lat":43.26555,"lon":5.37263,"is_reserved":false,"is_disabled":false,"rental_uris":{"android":"levelo://app?vid=6ee576b8-0d43-4935-b534-dcb1d51f05f8","ios":"levelo://app?vid=6ee576b8-0d43-4935-b534-dcb1d51f05f8"},"vehicle_type_id":"4","last_reported":1775120096,"current_range_meters":5600,"station_id":"ce4bhg12rcd13ifvqf70","pricing_plan_id":"cebpf4jnsgd1na2vs0mg"},{"bike_id":"da46a4c6-14ff-4547-851e-67aeaa7cd5b0","system_id":"levelo_inurba_marseille","lat":43.24815,"lon":5.37441,"is_reserved":false,"is_disabled":false,"rental_uris":{"android":"levelo://app?vid=da46a4c6-14ff-4547-851e-67aeaa7cd5b0","ios":"levelo://app?vid=da46a4c6-14ff-4547-851e-67aeaa7cd5b0"},"vehicle_type_id":"4","last_reported":1775120096,"current_range_meters":5600,"station_id":"ce4bhgh2rcd13ifvqfb0","pricing_plan_id":"cebpf4jnsgd1na2vs0mg"},{"bike_id":"2b3df3f5-6389-48be-bda2-89314ab51367","system_id":"levelo_inurba_marseille","lat":43.26363,"lon":5.41065,"is_reserved":false,"is_disabled":false,"rental_uris":{"android":"levelo://app?vid=2b3df3f5-6389-48be-bda2-89314ab51367","ios":"levelo://app?vid=2b3df3f5-6389-48be-bda2-89314ab51367"},"vehicle_type_id":"4","last_reported":1775120096,"current_range_meters":5600,"station_id":"st_d4e5ca6na9uc73bfl5fg","pricing_plan_id":"cebpf4jnsgd1na2vs0mg"},{"bike_id":"32bbc785-7878-457c-9b63-c753cac045af","system_id":"levelo_inurba_marseille","lat":43.2174,"lon":5.34597,"is_reserved":false,"is_disabled":false,"rental_uris":{"android":"levelo://app?vid=32bbc785-7878-457c-9b63-c753cac045af","ios":"levelo://app?vid=32bbc785-7878-457c-9b63-c753cac045af"},"vehicle_type_id":"4","last_reported":1775120096,"current_range_meters":5600,"station_id":"st_cvj6r9ubvosntc0bgbag","pricing_plan_id":"cebpf4jnsgd1na2vs0mg"},{"bike_id":"4de7b28a-2ee1-4dd8-880c-371c7c96997d","system_id":"levelo_inurba_marseille","lat":43.22929,"lon":5.35371,"is_reserved":false,"is_disabled":false,"rental_uris":{"android":"levelo://app?vid=4de7b28a-2ee1-4dd8-880c-371c7c96997d","ios":"levelo://app?vid=4de7b28a-2ee1-4dd8-880c-371c7c96997d"},"vehicle_type_id":"4","last_reported":1775120096,"current_range_meters":5600,"station_id":"cpo3532slgdg3j2ikp40","pricing_plan_id":"cebpf4jnsgd1na2vs0mg"},{"bike_id":"7ddea560-5928-4366-b118-9b15ebc08656","system_id":"levelo_inurba_marseille","lat":43.29426,"lon":5.39786,"is_reserved":false,"is_disabled":false,"rental_uris":{"android":"levelo://app?vid=7ddea560-5928-4366-b118-9b15ebc08656","ios":"levelo://app?vid=7ddea560-5928-4366-b118-9b15ebc08656"},"vehicle_type_id":"4","last_reported":1775120096,"current_range_meters":5600,"station_id":"ce4bh3h2rcd13ifvqdo0","pricing_plan_id":"cebpf4jnsgd1na2vs0mg"},{"bike_id":"b97544d4-fc20-4746-a137-2d69f3584b87","system_id":"levelo_inurba_marseille","lat":43.22534,"lon":5.34827,"is_reserved":false,"is_disabled":false,"rental_uris":{"android":"levelo://app?vid=b97544d4-fc20-4746-a137-2d69f3584b87","ios":"levelo://app?vid=b97544d4-fc20-4746-a137-2d69f3584b87"},"vehicle_type_id":"4","last_reported":1775120096,"current_range_meters":6000,"station_id":"st_cvj5dfep6f1abm77gieg","pricing_plan_id":"cebpf4jnsgd1na2vs0mg"},{"bike_id":"28902c85-2ce9-4ec9-adfe-51cf4064fa09","system_id":"levelo_inurba_marseille","lat":43.28472,"lon":5.39195,"is_reserved":false,"is_disabled":true,"rental_uris":{"android":"levelo://app?vid=28902c85-2ce9-4ec9-adfe-51cf4064fa09","ios":"levelo://app?vid=28902c85-2ce9-4ec9-adfe-51cf4064fa09"},"vehicle_type_id":"4","last_reported":1775120096,"current_range_meters":6000,"station_id":"ce4bhoh2rcd13ifvqh5g","pricing_plan_id":"cebpf4jnsgd1na2vs0mg"},{"bike_id":"e9b3f906-3c96-41d2-bde3-70019147dd95","system_id":"levelo_inurba_marseille","lat":43.2256,"lon":5.41635,"is_reserved":false,"is_disabled":false,"rental_uris":{"android":"levelo://app?vid=e9b3f906-3c96-41d2-bde3-70019147dd95","ios":"levelo://app?vid=e9b3f906-3c96-41d2-bde3-70019147dd95"},"vehicle_type_id":"4","last_reported":1775120096,"current_range_meters":6000,"station_id":"st_d2o4gvlbi1j2169b742g","pricing_plan_id":"cebpf4jnsgd1na2vs0mg"},{"bike_id":"1bdbf982-d656-4173-91b1-d3055e78d6cd","system_id":"levelo_inurba_marseille","lat":43.22571,"lon":5.41625,"is_reserved":false,"is_disabled":false,"rental_uris":{"android":"levelo://app?vid=1bdbf982-d656-4173-91b1-d3055e78d6cd","ios":"levelo://app?vid=1bdbf982-d656-4173-91b1-d3055e78d6cd"},"vehicle_type_id":"4","last_reported":1775120096,"current_range_meters":6000,"station_id":"st_d2o4gvlbi1j2169b742g","pricing_plan_id":"cebpf4jnsgd1na2vs0mg"},{"bike_id":"052f68eb-b3d2-4c29-a99d-37f9d3e34be6","system_id":"levelo_inurba_marseille","lat":43.24863,"lon":5.42662,"is_reserved":false,"is_disabled":false,"rental_uris":{"android":"levelo://app?vid=052f68eb-b3d2-4c29-a99d-37f9d3e34be6","ios":"levelo://app?vid=052f68eb-b3d2-4c29-a99d-37f9d3e34be6"},"vehicle_type_id":"4","last_reported":1775120096,"current_range_meters":6000,"station_id":"","pricing_plan_id":"cebpf4jnsgd1na2vs0mg"},{"bike_id":"0b417d6b-01e3-4a7a-87a5-ad7ec5b3190a","system_id":"levelo_inurba_marseille","lat":43.23141,"lon":5.43719,"is_reserved":false,"is_disabled":false,"rental_uris":{"android":"levelo://app?vid=0b417d6b-01e3-4a7a-87a5-ad7ec5b3190a","ios":"levelo://app?vid=0b417d6b-01e3-4a7a-87a5-ad7ec5b3190a"},"vehicle_type_id":"4","last_reported":1775120096,"current_range_meters":6000,"station_id":"ce4bhmp2rcd13ifvqgog","pricing_plan_id":"cebpf4jnsgd1na2vs0mg"},{"bike_id":"e31ab437-1d6e-4c0c-81ba-042b1387df75","system_id":"levelo_inurba_marseille","lat":43.23163,"lon":5.437,"is_reserved":false,"is_disabled":false,"rental_uris":{"android":"levelo://app?vid=e31ab437-1d6e-4c0c-81ba-042b1387df75","ios":"levelo://app?vid=e31ab437-1d6e-4c0c-81ba-042b1387df75"},"vehicle_type_id":"4","last_reported":1775120096,"current_range_meters":6000,"station_id":"ce4bhmp2rcd13ifvqgog","pricing_plan_id":"cebpf4jnsgd1na2vs0mg"},{"bike_id":"ca14861f-9be7-4461-89bf-721db8ce564a","system_id":"levelo_inurba_marseille","lat":43.30262,"lon":5.40054,"is_reserved":false,"is_disabled":false,"rental_uris":{"android":"levelo://app?vid=ca14861f-9be7-4461-89bf-721db8ce564a","ios":"levelo://app?vid=ca14861f-9be7-4461-89bf-721db8ce564a"},"vehicle_type_id":"4","last_reported":1775120096,"current_range_meters":6000,"station_id":"ce4bgvh2rcd13ifvqcs0","pricing_plan_id":"cebpf4jnsgd1na2vs0mg"},{"bike_id":"465c3b97-fa3b-4987-a0da-c02fe6cfecbd","system_id":"levelo_inurba_marseille","lat":43.31061,"lon":5.37186,"is_reserved":false,"is_disabled":false,"rental_uris":{"android":"levelo://app?vid=465c3b97-fa3b-4987-a0da-c02fe6cfecbd","ios":"levelo://app?vid=465c3b97-fa3b-4987-a0da-c02fe6cfecbd"},"vehicle_type_id":"4","last_reported":1775120096,"current_range_meters":6400,"station_id":"st_d4kl2rp97mjs73e7tdfg","pricing_plan_id":"cebpf4jnsgd1na2vs0mg"},{"bike_id":"dade577c-f111-4297-9cc9-58c29c3da4e2","system_id":"levelo_inurba_marseille","lat":43.24819,"lon":5.37451,"is_reserved":false,"is_disabled":false,"rental_uris":{"android":"levelo://app?vid=dade577c-f111-4297-9cc9-58c29c3da4e2","ios":"levelo://app?vid=dade577c-f111-4297-9cc9-58c29c3da4e2"},"vehicle_type_id":"4","last_reported":1775120096,"current_range_meters":6400,"station_id":"ce4bhgh2rcd13ifvqfb0","pricing_plan_id":"cebpf4jnsgd1na2vs0mg"},{"bike_id":"fa52ce35-6ea9-4f46-bfd2-c8715437ce36","system_id":"levelo_inurba_marseille","lat":43.31067,"lon":5.37167,"is_reserved":false,"is_disabled":false,"rental_uris":{"android":"levelo://app?vid=fa52ce35-6ea9-4f46-bfd2-c8715437ce36","ios":"levelo://app?vid=fa52ce35-6ea9-4f46-bfd2-c8715437ce36"},"vehicle_type_id":"4","last_reported":1775120096,"current_range_meters":6400,"station_id":"st_d4kl2rp97mjs73e7tdfg","pricing_plan_id":"cebpf4jnsgd1na2vs0mg"},{"bike_id":"78151f0b-d096-4bc8-9d04-f28fec21246f","system_id":"levelo_inurba_marseille","lat":43.23185,"lon":5.39974,"is_reserved":false,"is_disabled":false,"rental_uris":{"android":"levelo://app?vid=78151f0b-d096-4bc8-9d04-f28fec21246f","ios":"levelo://app?vid=78151f0b-d096-4bc8-9d04-f28fec21246f"},"vehicle_type_id":"4","last_reported":1775120096,"current_range_meters":6400,"station_id":"ce4bhn12rcd13ifvqgqg","pricing_plan_id":"cebpf4jnsgd1na2vs0mg"},{"bike_id":"fd8a1152-1ce7-4d23-9abe-23b669815d8a","system_id":"levelo_inurba_marseille","lat":43.31215,"lon":5.36853,"is_reserved":false,"is_disabled":false,"rental_uris":{"android":"levelo://app?vid=fd8a1152-1ce7-4d23-9abe-23b669815d8a","ios":"levelo://app?vid=fd8a1152-1ce7-4d23-9abe-23b669815d8a"},"vehicle_type_id":"4","last_reported":1775120096,"current_range_meters":6400,"station_id":"ce4bgl92rcd13ifvqbq0","pricing_plan_id":"cebpf4jnsgd1na2vs0mg"},{"bike_id":"1b89f2e1-0726-4a0a-ba7f-f4397fe41860","system_id":"levelo_inurba_marseille","lat":43.28623,"lon":5.38343,"is_reserved":false,"is_disabled":false,"rental_uris":{"android":"levelo://app?vid=1b89f2e1-0726-4a0a-ba7f-f4397fe41860","ios":"levelo://app?vid=1b89f2e1-0726-4a0a-ba7f-f4397fe41860"},"vehicle_type_id":"4","last_reported":1775120096,"current_range_meters":6400,"station_id":"","pricing_plan_id":"cebpf4jnsgd1na2vs0mg"},{"bike_id":"6120e0bc-8ed4-4074-a049-382977543f08","system_id":"levelo_inurba_marseille","lat":43.3375,"lon":5.37475,"is_reserved":false,"is_disabled":false,"rental_uris":{"android":"levelo://app?vid=6120e0bc-8ed4-4074-a049-382977543f08","ios":"levelo://app?vid=6120e0bc-8ed4-4074-a049-382977543f08"},"vehicle_type_id":"4","last_reported":1775120096,"current_range_meters":6400,"station_id":"","pricing_plan_id":"cebpf4jnsgd1na2vs0mg"},{"bike_id":"b06b5d34-ff31-4a5e-a067-3e9bfc5c8b79","system_id":"levelo_inurba_marseille","lat":43.24805,"lon":5.37454,"is_reserved":false,"is_disabled":false,"rental_uris":{"android":"levelo://app?vid=b06b5d34-ff31-4a5e-a067-3e9bfc5c8b79","ios":"levelo://app?vid=b06b5d34-ff31-4a5e-a067-3e9bfc5c8b79"},"vehicle_type_id":"4","last_reported":1775120096,"current_range_meters":6400,"station_id":"ce4bhgh2rcd13ifvqfb0","pricing_plan_id":"cebpf4jnsgd1na2vs0mg"},{"bike_id":"2e6d6eb1-b9c4-442b-a422-3ee8e5570dac","system_id":"levelo_inurba_marseille","lat":43.23383,"lon":5.41253,"is_reserved":false,"is_disabled":false,"rental_uris":{"android":"levelo://app?vid=2e6d6eb1-b9c4-442b-a422-3ee8e5570dac","ios":"levelo://app?vid=2e6d6eb1-b9c4-442b-a422-3ee8e5570dac"},"vehicle_type_id":"4","last_reported":1775120096,"current_range_meters":6400,"station_id":"st_d75pvndhf9lc73cqq3eg","pricing_plan_id":"cebpf4jnsgd1na2vs0mg"},{"bike_id":"4b3c825a-c5e6-42c6-af30-700063fa913d","system_id":"levelo_inurba_marseille","lat":43.25981,"lon":5.37596,"is_reserved":false,"is_disabled":true,"rental_uris":{"android":"levelo://app?vid=4b3c825a-c5e6-42c6-af30-700063fa913d","ios":"levelo://app?vid=4b3c825a-c5e6-42c6-af30-700063fa913d"},"vehicle_type_id":"4","last_reported":1775120096,"current_range_meters":6400,"station_id":"","pricing_plan_id":"cebpf4jnsgd1na2vs0mg"},{"bike_id":"17b8fc26-3ba8-4cf9-a457-0b2cc0ec871e","system_id":"levelo_inurba_marseille","lat":43.2748,"lon":5.41655,"is_reserved":false,"is_disabled":false,"rental_uris":{"android":"levelo://app?vid=17b8fc26-3ba8-4cf9-a457-0b2cc0ec871e","ios":"levelo://app?vid=17b8fc26-3ba8-4cf9-a457-0b2cc0ec871e"},"vehicle_type_id":"4","last_reported":1775120096,"current_range_meters":6400,"station_id":"","pricing_plan_id":"cebpf4jnsgd1na2vs0mg"},{"bike_id":"2b176618-2114-4a94-bc43-fa6914887efb","system_id":"levelo_inurba_marseille","lat":43.33533,"lon":5.37459,"is_reserved":false,"is_disabled":false,"rental_uris":{"android":"levelo://app?vid=2b176618-2114-4a94-bc43-fa6914887efb","ios":"levelo://app?vid=2b176618-2114-4a94-bc43-fa6914887efb"},"vehicle_type_id":"4","last_reported":1775120096,"current_range_meters":6400,"station_id":"st_d46tts09ee8s73dlu43g","pricing_plan_id":"cebpf4jnsgd1na2vs0mg"},{"bike_id":"751823b1-fecf-476f-a14d-b22ea92d3e4c","system_id":"levelo_inurba_marseille","lat":43.29185,"lon":5.42677,"is_reserved":false,"is_disabled":false,"rental_uris":{"android":"levelo://app?vid=751823b1-fecf-476f-a14d-b22ea92d3e4c","ios":"levelo://app?vid=751823b1-fecf-476f-a14d-b22ea92d3e4c"},"vehicle_type_id":"4","last_reported":1775120096,"current_range_meters":6400,"station_id":"","pricing_plan_id":"cebpf4jnsgd1na2vs0mg"},{"bike_id":"45f9f1eb-8e22-4d9b-ba8a-012bfa826554","system_id":"levelo_inurba_marseille","lat":43.30493,"lon":5.36574,"is_reserved":false,"is_disabled":false,"rental_uris":{"android":"levelo://app?vid=45f9f1eb-8e22-4d9b-ba8a-012bfa826554","ios":"levelo://app?vid=45f9f1eb-8e22-4d9b-ba8a-012bfa826554"},"vehicle_type_id":"4","last_reported":1775120096,"current_range_meters":6400,"station_id":"ce4bgs12rcd13ifvqcag","pricing_plan_id":"cebpf4jnsgd1na2vs0mg"},{"bike_id":"cce71867-af00-4efb-acca-1ad994ce58c1","system_id":"levelo_inurba_marseille","lat":43.3315,"lon":5.37713,"is_reserved":false,"is_disabled":false,"rental_uris":{"android":"levelo://app?vid=cce71867-af00-4efb-acca-1ad994ce58c1","ios":"levelo://app?vid=cce71867-af00-4efb-acca-1ad994ce58c1"},"vehicle_type_id":"4","last_reported":1775120096,"current_range_meters":6400,"station_id":"st_d46cu089ee8s73dldbu0","pricing_plan_id":"cebpf4jnsgd1na2vs0mg"},{"bike_id":"4e48773f-30f8-41cd-9be2-e8fe81c25162","system_id":"levelo_inurba_marseille","lat":43.21206,"lon":5.35068,"is_reserved":false,"is_disabled":false,"rental_uris":{"android":"levelo://app?vid=4e48773f-30f8-41cd-9be2-e8fe81c25162","ios":"levelo://app?vid=4e48773f-30f8-41cd-9be2-e8fe81c25162"},"vehicle_type_id":"4","last_reported":1775120096,"current_range_meters":6800,"station_id":"st_cvj6sg6p6f1abm77japg","pricing_plan_id":"cebpf4jnsgd1na2vs0mg"},{"bike_id":"8429f855-c4a0-4803-9ce7-0d1fb93dbfe8","system_id":"levelo_inurba_marseille","lat":43.28556,"lon":5.48336,"is_reserved":false,"is_disabled":false,"rental_uris":{"android":"levelo://app?vid=8429f855-c4a0-4803-9ce7-0d1fb93dbfe8","ios":"levelo://app?vid=8429f855-c4a0-4803-9ce7-0d1fb93dbfe8"},"vehicle_type_id":"4","last_reported":1775120096,"current_range_meters":6800,"station_id":"","pricing_plan_id":"cebpf4jnsgd1na2vs0mg"},{"bike_id":"11d19dab-7798-472d-a3cd-c1ff1cf623a6","system_id":"levelo_inurba_marseille","lat":43.24992,"lon":5.38908,"is_reserved":false,"is_disabled":false,"rental_uris":{"android":"levelo://app?vid=11d19dab-7798-472d-a3cd-c1ff1cf623a6","ios":"levelo://app?vid=11d19dab-7798-472d-a3cd-c1ff1cf623a6"},"vehicle_type_id":"4","last_reported":1775120096,"current_range_meters":6800,"station_id":"ce4bhgp2rcd13ifvqfd0","pricing_plan_id":"cebpf4jnsgd1na2vs0mg"},{"bike_id":"a5ccb9c6-4f2b-438b-b0de-c6c999b11fec","system_id":"levelo_inurba_marseille","lat":43.28421,"lon":5.35,"is_reserved":false,"is_disabled":false,"rental_uris":{"android":"levelo://app?vid=a5ccb9c6-4f2b-438b-b0de-c6c999b11fec","ios":"levelo://app?vid=a5ccb9c6-4f2b-438b-b0de-c6c999b11fec"},"vehicle_type_id":"4","last_reported":1775120096,"current_range_meters":6800,"station_id":"ce4bhbh2rcd13ifvqepg","pricing_plan_id":"cebpf4jnsgd1na2vs0mg"},{"bike_id":"8d67b323-4095-4405-9704-9e7776fd3be7","system_id":"levelo_inurba_marseille","lat":43.21194,"lon":5.35071,"is_reserved":false,"is_disabled":false,"rental_uris":{"android":"levelo://app?vid=8d67b323-4095-4405-9704-9e7776fd3be7","ios":"levelo://app?vid=8d67b323-4095-4405-9704-9e7776fd3be7"},"vehicle_type_id":"4","last_reported":1775120096,"current_range_meters":6800,"station_id":"st_cvj6sg6p6f1abm77japg","pricing_plan_id":"cebpf4jnsgd1na2vs0mg"},{"bike_id":"7a44b039-836a-4b6a-b321-6853ea723941","system_id":"levelo_inurba_marseille","lat":43.24179,"lon":5.3637,"is_reserved":false,"is_disabled":false,"rental_uris":{"android":"levelo://app?vid=7a44b039-836a-4b6a-b321-6853ea723941","ios":"levelo://app?vid=7a44b039-836a-4b6a-b321-6853ea723941"},"vehicle_type_id":"4","last_reported":1775120096,"current_range_meters":6800,"station_id":"cpo36qri1sfpv3e86is0","pricing_plan_id":"cebpf4jnsgd1na2vs0mg"},{"bike_id":"7d8f3bc3-46ff-4802-82b9-2bf86ded1c15","system_id":"levelo_inurba_marseille","lat":43.33751,"lon":5.37472,"is_reserved":false,"is_disabled":true,"rental_uris":{"android":"levelo://app?vid=7d8f3bc3-46ff-4802-82b9-2bf86ded1c15","ios":"levelo://app?vid=7d8f3bc3-46ff-4802-82b9-2bf86ded1c15"},"vehicle_type_id":"4","last_reported":1775120096,"current_range_meters":6800,"station_id":"","pricing_plan_id":"cebpf4jnsgd1na2vs0mg"},{"bike_id":"b149b05d-17dc-4174-91fd-6a2d9bb13c8f","system_id":"levelo_inurba_marseille","lat":43.31666,"lon":5.3808,"is_reserved":false,"is_disabled":false,"rental_uris":{"android":"levelo://app?vid=b149b05d-17dc-4174-91fd-6a2d9bb13c8f","ios":"levelo://app?vid=b149b05d-17dc-4174-91fd-6a2d9bb13c8f"},"vehicle_type_id":"4","last_reported":1775120096,"current_range_meters":6800,"station_id":"","pricing_plan_id":"cebpf4jnsgd1na2vs0mg"},{"bike_id":"2be64f19-432b-4d07-98a7-6e9bfd23e981","system_id":"levelo_inurba_marseille","lat":43.29761,"lon":5.4277,"is_reserved":false,"is_disabled":false,"rental_uris":{"android":"levelo://app?vid=2be64f19-432b-4d07-98a7-6e9bfd23e981","ios":"levelo://app?vid=2be64f19-432b-4d07-98a7-6e9bfd23e981"},"vehicle_type_id":"4","last_reported":1775120096,"current_range_meters":6800,"station_id":"st_d3md5207bmas73dh9klg","pricing_plan_id":"cebpf4jnsgd1na2vs0mg"},{"bike_id":"05960a17-b70c-46e5-8745-045fee7c4424","system_id":"levelo_inurba_marseille","lat":43.24956,"lon":5.4049,"is_reserved":false,"is_disabled":false,"rental_uris":{"android":"levelo://app?vid=05960a17-b70c-46e5-8745-045fee7c4424","ios":"levelo://app?vid=05960a17-b70c-46e5-8745-045fee7c4424"},"vehicle_type_id":"4","last_reported":1775120096,"current_range_meters":6800,"station_id":"st_d2ngiaodas8pm72gd1h0","pricing_plan_id":"cebpf4jnsgd1na2vs0mg"},{"bike_id":"d79043de-c8e5-4bdb-aecd-cc4044485d69","system_id":"levelo_inurba_marseille","lat":43.33148,"lon":5.37696,"is_reserved":false,"is_disabled":false,"rental_uris":{"android":"levelo://app?vid=d79043de-c8e5-4bdb-aecd-cc4044485d69","ios":"levelo://app?vid=d79043de-c8e5-4bdb-aecd-cc4044485d69"},"vehicle_type_id":"4","last_reported":1775120096,"current_range_meters":6800,"station_id":"st_d46cu089ee8s73dldbu0","pricing_plan_id":"cebpf4jnsgd1na2vs0mg"},{"bike_id":"92bc439b-46bb-43da-958c-5a059175f2a1","system_id":"levelo_inurba_marseille","lat":43.23908,"lon":5.37535,"is_reserved":false,"is_disabled":false,"rental_uris":{"android":"levelo://app?vid=92bc439b-46bb-43da-958c-5a059175f2a1","ios":"levelo://app?vid=92bc439b-46bb-43da-958c-5a059175f2a1"},"vehicle_type_id":"4","last_reported":1775120096,"current_range_meters":6800,"station_id":"","pricing_plan_id":"cebpf4jnsgd1na2vs0mg"},{"bike_id":"d0111825-3017-4e03-aba5-c350420e66fe","system_id":"levelo_inurba_marseille","lat":43.21189,"lon":5.35078,"is_reserved":false,"is_disabled":false,"rental_uris":{"android":"levelo://app?vid=d0111825-3017-4e03-aba5-c350420e66fe","ios":"levelo://app?vid=d0111825-3017-4e03-aba5-c350420e66fe"},"vehicle_type_id":"4","last_reported":1775120096,"current_range_meters":7200,"station_id":"st_cvj6sg6p6f1abm77japg","pricing_plan_id":"cebpf4jnsgd1na2vs0mg"},{"bike_id":"8344b6e7-768e-41fe-a97d-43eae79c2892","system_id":"levelo_inurba_marseille","lat":43.25813,"lon":5.39437,"is_reserved":false,"is_disabled":false,"rental_uris":{"android":"levelo://app?vid=8344b6e7-768e-41fe-a97d-43eae79c2892","ios":"levelo://app?vid=8344b6e7-768e-41fe-a97d-43eae79c2892"},"vehicle_type_id":"4","last_reported":1775120096,"current_range_meters":7200,"station_id":"ce4bhip2rcd13ifvqft0","pricing_plan_id":"cebpf4jnsgd1na2vs0mg"},{"bike_id":"bd0ac768-7c9c-45a3-a37e-3f8f101dd4fa","system_id":"levelo_inurba_marseille","lat":43.22531,"lon":5.34827,"is_reserved":false,"is_disabled":false,"rental_uris":{"android":"levelo://app?vid=bd0ac768-7c9c-45a3-a37e-3f8f101dd4fa","ios":"levelo://app?vid=bd0ac768-7c9c-45a3-a37e-3f8f101dd4fa"},"vehicle_type_id":"4","last_reported":1775120096,"current_range_meters":7200,"station_id":"st_cvj5dfep6f1abm77gieg","pricing_plan_id":"cebpf4jnsgd1na2vs0mg"},{"bike_id":"58d91ae1-8063-4e7d-870c-f6392dad8fd9","system_id":"levelo_inurba_marseille","lat":43.28474,"lon":5.48402,"is_reserved":false,"is_disabled":false,"rental_uris":{"android":"levelo://app?vid=58d91ae1-8063-4e7d-870c-f6392dad8fd9","ios":"levelo://app?vid=58d91ae1-8063-4e7d-870c-f6392dad8fd9"},"vehicle_type_id":"4","last_reported":1775120096,"current_range_meters":7200,"station_id":"","pricing_plan_id":"cebpf4jnsgd1na2vs0mg"},{"bike_id":"ff5036de-6179-402b-88a2-84ed71bef80b","system_id":"levelo_inurba_marseille","lat":43.32057,"lon":5.41552,"is_reserved":false,"is_disabled":false,"rental_uris":{"android":"levelo://app?vid=ff5036de-6179-402b-88a2-84ed71bef80b","ios":"levelo://app?vid=ff5036de-6179-402b-88a2-84ed71bef80b"},"vehicle_type_id":"4","last_reported":1775120096,"current_range_meters":7200,"station_id":"ce4bhq92rcd13ifvqhkg","pricing_plan_id":"cebpf4jnsgd1na2vs0mg"},{"bike_id":"c21ba44d-1144-4d5b-86bf-96a8964765fb","system_id":"levelo_inurba_marseille","lat":43.24648,"lon":5.38181,"is_reserved":false,"is_disabled":false,"rental_uris":{"android":"levelo://app?vid=c21ba44d-1144-4d5b-86bf-96a8964765fb","ios":"levelo://app?vid=c21ba44d-1144-4d5b-86bf-96a8964765fb"},"vehicle_type_id":"4","last_reported":1775120096,"current_range_meters":7200,"station_id":"ce4bhih2rcd13ifvqfr0","pricing_plan_id":"cebpf4jnsgd1na2vs0mg"},{"bike_id":"7e59145b-92ba-4aa6-ab3d-5ada90b45541","system_id":"levelo_inurba_marseille","lat":43.24154,"lon":5.39697,"is_reserved":false,"is_disabled":false,"rental_uris":{"android":"levelo://app?vid=7e59145b-92ba-4aa6-ab3d-5ada90b45541","ios":"levelo://app?vid=7e59145b-92ba-4aa6-ab3d-5ada90b45541"},"vehicle_type_id":"4","last_reported":1775120096,"current_range_meters":7200,"station_id":"ce4bhn12rcd13ifvqgpg","pricing_plan_id":"cebpf4jnsgd1na2vs0mg"},{"bike_id":"0bccd438-ccc6-4db5-a746-92db398465e4","system_id":"levelo_inurba_marseille","lat":43.31545,"lon":5.37187,"is_reserved":false,"is_disabled":false,"rental_uris":{"android":"levelo://app?vid=0bccd438-ccc6-4db5-a746-92db398465e4","ios":"levelo://app?vid=0bccd438-ccc6-4db5-a746-92db398465e4"},"vehicle_type_id":"4","last_reported":1775120096,"current_range_meters":7200,"station_id":"","pricing_plan_id":"cebpf4jnsgd1na2vs0mg"},{"bike_id":"4d5384d3-8484-4fd4-ab3e-42cf8d8ddb2b","system_id":"levelo_inurba_marseille","lat":43.28862,"lon":5.42507,"is_reserved":false,"is_disabled":false,"rental_uris":{"android":"levelo://app?vid=4d5384d3-8484-4fd4-ab3e-42cf8d8ddb2b","ios":"levelo://app?vid=4d5384d3-8484-4fd4-ab3e-42cf8d8ddb2b"},"vehicle_type_id":"4","last_reported":1775120096,"current_range_meters":7200,"station_id":"st_d3b462108ojc7389ooeg","pricing_plan_id":"cebpf4jnsgd1na2vs0mg"},{"bike_id":"62210ce0-a99a-4686-acce-34a5c68d8cfd","system_id":"levelo_inurba_marseille","lat":43.24013,"lon":5.37736,"is_reserved":false,"is_disabled":false,"rental_uris":{"android":"levelo://app?vid=62210ce0-a99a-4686-acce-34a5c68d8cfd","ios":"levelo://app?vid=62210ce0-a99a-4686-acce-34a5c68d8cfd"},"vehicle_type_id":"4","last_reported":1775120096,"current_range_meters":7200,"station_id":"","pricing_plan_id":"cebpf4jnsgd1na2vs0mg"},{"bike_id":"b1cb2378-66e2-4e73-a135-28bf0dec66f1","system_id":"levelo_inurba_marseille","lat":43.31287,"lon":5.4408,"is_reserved":false,"is_disabled":false,"rental_uris":{"android":"levelo://app?vid=b1cb2378-66e2-4e73-a135-28bf0dec66f1","ios":"levelo://app?vid=b1cb2378-66e2-4e73-a135-28bf0dec66f1"},"vehicle_type_id":"4","last_reported":1775120096,"current_range_meters":7200,"station_id":"","pricing_plan_id":"cebpf4jnsgd1na2vs0mg"},{"bike_id":"e0bf30b4-c612-45cd-911d-45bcb25501e9","system_id":"levelo_inurba_marseille","lat":43.25524,"lon":5.3764,"is_reserved":false,"is_disabled":false,"rental_uris":{"android":"levelo://app?vid=e0bf30b4-c612-45cd-911d-45bcb25501e9","ios":"levelo://app?vid=e0bf30b4-c612-45cd-911d-45bcb25501e9"},"vehicle_type_id":"4","last_reported":1775120096,"current_range_meters":7200,"station_id":"ce4bhh12rcd13ifvqff0","pricing_plan_id":"cebpf4jnsgd1na2vs0mg"},{"bike_id":"289e5139-6a81-43f5-882c-a0d2a8b654c5","system_id":"levelo_inurba_marseille","lat":43.28717,"lon":5.38511,"is_reserved":false,"is_disabled":false,"rental_uris":{"android":"levelo://app?vid=289e5139-6a81-43f5-882c-a0d2a8b654c5","ios":"levelo://app?vid=289e5139-6a81-43f5-882c-a0d2a8b654c5"},"vehicle_type_id":"4","last_reported":1775120096,"current_range_meters":7200,"station_id":"","pricing_plan_id":"cebpf4jnsgd1na2vs0mg"},{"bike_id":"93b54f12-6027-40ee-aaaf-52c4a5342eb2","system_id":"levelo_inurba_marseille","lat":43.21192,"lon":5.35081,"is_reserved":false,"is_disabled":false,"rental_uris":{"android":"levelo://app?vid=93b54f12-6027-40ee-aaaf-52c4a5342eb2","ios":"levelo://app?vid=93b54f12-6027-40ee-aaaf-52c4a5342eb2"},"vehicle_type_id":"4","last_reported":1775120096,"current_range_meters":7200,"station_id":"st_cvj6sg6p6f1abm77japg","pricing_plan_id":"cebpf4jnsgd1na2vs0mg"},{"bike_id":"2e4c9b40-e6c0-4afa-aaa5-77cabac0f0de","system_id":"levelo_inurba_marseille","lat":43.23157,"lon":5.43721,"is_reserved":false,"is_disabled":false,"rental_uris":{"android":"levelo://app?vid=2e4c9b40-e6c0-4afa-aaa5-77cabac0f0de","ios":"levelo://app?vid=2e4c9b40-e6c0-4afa-aaa5-77cabac0f0de"},"vehicle_type_id":"4","last_reported":1775120096,"current_range_meters":7200,"station_id":"ce4bhmp2rcd13ifvqgog","pricing_plan_id":"cebpf4jnsgd1na2vs0mg"},{"bike_id":"d45ff07a-ed4a-466d-9b1c-0db7ab022cc1","system_id":"levelo_inurba_marseille","lat":43.33596,"lon":5.4096,"is_reserved":false,"is_disabled":false,"rental_uris":{"android":"levelo://app?vid=d45ff07a-ed4a-466d-9b1c-0db7ab022cc1","ios":"levelo://app?vid=d45ff07a-ed4a-466d-9b1c-0db7ab022cc1"},"vehicle_type_id":"4","last_reported":1775120096,"current_range_meters":7200,"station_id":"ce4bhqh2rcd13ifvqhmg","pricing_plan_id":"cebpf4jnsgd1na2vs0mg"},{"bike_id":"ab06f0c1-dd3c-4093-aae2-11693a90ca5c","system_id":"levelo_inurba_marseille","lat":43.2395,"lon":5.36628,"is_reserved":false,"is_disabled":false,"rental_uris":{"android":"levelo://app?vid=ab06f0c1-dd3c-4093-aae2-11693a90ca5c","ios":"levelo://app?vid=ab06f0c1-dd3c-4093-aae2-11693a90ca5c"},"vehicle_type_id":"4","last_reported":1775120096,"current_range_meters":7200,"station_id":"ce4bhi12rcd13ifvqfp0","pricing_plan_id":"cebpf4jnsgd1na2vs0mg"},{"bike_id":"d6349826-5510-4834-ae61-5f416883040f","system_id":"levelo_inurba_marseille","lat":43.21769,"lon":5.34593,"is_reserved":false,"is_disabled":false,"rental_uris":{"android":"levelo://app?vid=d6349826-5510-4834-ae61-5f416883040f","ios":"levelo://app?vid=d6349826-5510-4834-ae61-5f416883040f"},"vehicle_type_id":"4","last_reported":1775120096,"current_range_meters":7200,"station_id":"st_cvj6r9ubvosntc0bgbag","pricing_plan_id":"cebpf4jnsgd1na2vs0mg"},{"bike_id":"d6a624d6-57d5-4395-adc1-62320d3f6f32","system_id":"levelo_inurba_marseille","lat":43.27334,"lon":5.39059,"is_reserved":false,"is_disabled":false,"rental_uris":{"android":"levelo://app?vid=d6a624d6-57d5-4395-adc1-62320d3f6f32","ios":"levelo://app?vid=d6a624d6-57d5-4395-adc1-62320d3f6f32"},"vehicle_type_id":"4","last_reported":1775120096,"current_range_meters":7200,"station_id":"ce4bhgp2rcd13ifvqfe0","pricing_plan_id":"cebpf4jnsgd1na2vs0mg"},{"bike_id":"71195851-f126-43ec-a2a7-703a881ee3e3","system_id":"levelo_inurba_marseille","lat":43.27056,"lon":5.38284,"is_reserved":false,"is_disabled":false,"rental_uris":{"android":"levelo://app?vid=71195851-f126-43ec-a2a7-703a881ee3e3","ios":"levelo://app?vid=71195851-f126-43ec-a2a7-703a881ee3e3"},"vehicle_type_id":"4","last_reported":1775120096,"current_range_meters":7200,"station_id":"st_d3n2fo6cfp8s73cte1j0","pricing_plan_id":"cebpf4jnsgd1na2vs0mg"},{"bike_id":"793b472f-3246-4295-8dc2-cf0dac98a9ac","system_id":"levelo_inurba_marseille","lat":43.29555,"lon":5.39016,"is_reserved":false,"is_disabled":false,"rental_uris":{"android":"levelo://app?vid=793b472f-3246-4295-8dc2-cf0dac98a9ac","ios":"levelo://app?vid=793b472f-3246-4295-8dc2-cf0dac98a9ac"},"vehicle_type_id":"4","last_reported":1775120096,"current_range_meters":8000,"station_id":"ce4bh3p2rcd13ifvqdp0","pricing_plan_id":"cebpf4jnsgd1na2vs0mg"},{"bike_id":"1ddada69-e90e-42d5-84c6-ca6acdb9f7a2","system_id":"levelo_inurba_marseille","lat":43.30055,"lon":5.43892,"is_reserved":false,"is_disabled":false,"rental_uris":{"android":"levelo://app?vid=1ddada69-e90e-42d5-84c6-ca6acdb9f7a2","ios":"levelo://app?vid=1ddada69-e90e-42d5-84c6-ca6acdb9f7a2"},"vehicle_type_id":"4","last_reported":1775120096,"current_range_meters":8000,"station_id":"","pricing_plan_id":"cebpf4jnsgd1na2vs0mg"},{"bike_id":"38229089-2eba-460d-8fa7-69cd48d52f91","system_id":"levelo_inurba_marseille","lat":43.28863,"lon":5.42514,"is_reserved":false,"is_disabled":false,"rental_uris":{"android":"levelo://app?vid=38229089-2eba-460d-8fa7-69cd48d52f91","ios":"levelo://app?vid=38229089-2eba-460d-8fa7-69cd48d52f91"},"vehicle_type_id":"4","last_reported":1775120096,"current_range_meters":8000,"station_id":"st_d3b462108ojc7389ooeg","pricing_plan_id":"cebpf4jnsgd1na2vs0mg"},{"bike_id":"69537728-14f2-4432-8061-080aa135bc58","system_id":"levelo_inurba_marseille","lat":43.23151,"lon":5.43719,"is_reserved":false,"is_disabled":false,"rental_uris":{"android":"levelo://app?vid=69537728-14f2-4432-8061-080aa135bc58","ios":"levelo://app?vid=69537728-14f2-4432-8061-080aa135bc58"},"vehicle_type_id":"4","last_reported":1775120096,"current_range_meters":8000,"station_id":"ce4bhmp2rcd13ifvqgog","pricing_plan_id":"cebpf4jnsgd1na2vs0mg"},{"bike_id":"256bf514-eff1-4253-84d3-27da8186c437","system_id":"levelo_inurba_marseille","lat":43.29032,"lon":5.39944,"is_reserved":false,"is_disabled":false,"rental_uris":{"android":"levelo://app?vid=256bf514-eff1-4253-84d3-27da8186c437","ios":"levelo://app?vid=256bf514-eff1-4253-84d3-27da8186c437"},"vehicle_type_id":"4","last_reported":1775120096,"current_range_meters":8000,"station_id":"ce4bh392rcd13ifvqdm0","pricing_plan_id":"cebpf4jnsgd1na2vs0mg"},{"bike_id":"6535518c-804f-447b-a494-407b4e1dbc8e","system_id":"levelo_inurba_marseille","lat":43.31271,"lon":5.36851,"is_reserved":false,"is_disabled":false,"rental_uris":{"android":"levelo://app?vid=6535518c-804f-447b-a494-407b4e1dbc8e","ios":"levelo://app?vid=6535518c-804f-447b-a494-407b4e1dbc8e"},"vehicle_type_id":"4","last_reported":1775120096,"current_range_meters":8000,"station_id":"ce4bgl92rcd13ifvqbq0","pricing_plan_id":"cebpf4jnsgd1na2vs0mg"},{"bike_id":"b99da45f-b890-4b92-ad87-4c26ace5150b","system_id":"levelo_inurba_marseille","lat":43.26683,"lon":5.38263,"is_reserved":false,"is_disabled":false,"rental_uris":{"android":"levelo://app?vid=b99da45f-b890-4b92-ad87-4c26ace5150b","ios":"levelo://app?vid=b99da45f-b890-4b92-ad87-4c26ace5150b"},"vehicle_type_id":"4","last_reported":1775120096,"current_range_meters":8000,"station_id":"ce4bhg92rcd13ifvqf90","pricing_plan_id":"cebpf4jnsgd1na2vs0mg"},{"bike_id":"9b76a430-1715-4bdf-ba95-ccb004ee3579","system_id":"levelo_inurba_marseille","lat":43.27345,"lon":5.39091,"is_reserved":false,"is_disabled":false,"rental_uris":{"android":"levelo://app?vid=9b76a430-1715-4bdf-ba95-ccb004ee3579","ios":"levelo://app?vid=9b76a430-1715-4bdf-ba95-ccb004ee3579"},"vehicle_type_id":"4","last_reported":1775120096,"current_range_meters":8000,"station_id":"ce4bhgp2rcd13ifvqfe0","pricing_plan_id":"cebpf4jnsgd1na2vs0mg"},{"bike_id":"fc6395ad-d62f-4a87-ac5d-6a2edf2e75a8","system_id":"levelo_inurba_marseille","lat":43.31211,"lon":5.36883,"is_reserved":false,"is_disabled":false,"rental_uris":{"android":"levelo://app?vid=fc6395ad-d62f-4a87-ac5d-6a2edf2e75a8","ios":"levelo://app?vid=fc6395ad-d62f-4a87-ac5d-6a2edf2e75a8"},"vehicle_type_id":"4","last_reported":1775120096,"current_range_meters":8000,"station_id":"ce4bgl92rcd13ifvqbq0","pricing_plan_id":"cebpf4jnsgd1na2vs0mg"},{"bike_id":"1da3c032-1a9c-4f7f-b0ab-9507381d6344","system_id":"levelo_inurba_marseille","lat":43.30317,"lon":5.40432,"is_reserved":false,"is_disabled":false,"rental_uris":{"android":"levelo://app?vid=1da3c032-1a9c-4f7f-b0ab-9507381d6344","ios":"levelo://app?vid=1da3c032-1a9c-4f7f-b0ab-9507381d6344"},"vehicle_type_id":"4","last_reported":1775120096,"current_range_meters":8000,"station_id":"ce4bh012rcd13ifvqd10","pricing_plan_id":"cebpf4jnsgd1na2vs0mg"},{"bike_id":"b3973508-2430-44c7-81ef-caaebdce77df","system_id":"levelo_inurba_marseille","lat":43.24168,"lon":5.36382,"is_reserved":false,"is_disabled":false,"rental_uris":{"android":"levelo://app?vid=b3973508-2430-44c7-81ef-caaebdce77df","ios":"levelo://app?vid=b3973508-2430-44c7-81ef-caaebdce77df"},"vehicle_type_id":"4","last_reported":1775120096,"current_range_meters":8000,"station_id":"cpo36qri1sfpv3e86is0","pricing_plan_id":"cebpf4jnsgd1na2vs0mg"},{"bike_id":"69222b34-8546-401b-a1fa-4755dd4d424d","system_id":"levelo_inurba_marseille","lat":43.29847,"lon":5.36228,"is_reserved":false,"is_disabled":false,"rental_uris":{"android":"levelo://app?vid=69222b34-8546-401b-a1fa-4755dd4d424d","ios":"levelo://app?vid=69222b34-8546-401b-a1fa-4755dd4d424d"},"vehicle_type_id":"4","last_reported":1775120096,"current_range_meters":8000,"station_id":"ce4bgpp2rcd13ifvqc3g","pricing_plan_id":"cebpf4jnsgd1na2vs0mg"},{"bike_id":"91f6c6e4-3173-430a-922a-ed24dba3f564","system_id":"levelo_inurba_marseille","lat":43.31312,"lon":5.36737,"is_reserved":false,"is_disabled":false,"rental_uris":{"android":"levelo://app?vid=91f6c6e4-3173-430a-922a-ed24dba3f564","ios":"levelo://app?vid=91f6c6e4-3173-430a-922a-ed24dba3f564"},"vehicle_type_id":"4","last_reported":1775120096,"current_range_meters":8000,"station_id":"ce4bgr92rcd13ifvqc6g","pricing_plan_id":"cebpf4jnsgd1na2vs0mg"},{"bike_id":"b276c3c2-7b5b-4cdf-a8b7-da86be0ddfc7","system_id":"levelo_inurba_marseille","lat":43.23788,"lon":5.36633,"is_reserved":false,"is_disabled":false,"rental_uris":{"android":"levelo://app?vid=b276c3c2-7b5b-4cdf-a8b7-da86be0ddfc7","ios":"levelo://app?vid=b276c3c2-7b5b-4cdf-a8b7-da86be0ddfc7"},"vehicle_type_id":"4","last_reported":1775120096,"current_range_meters":8000,"station_id":"st_d3nk18o9ro0c73en2l3g","pricing_plan_id":"cebpf4jnsgd1na2vs0mg"},{"bike_id":"a3e023e2-d4d4-4709-b2ae-04a06b5ecc63","system_id":"levelo_inurba_marseille","lat":43.22552,"lon":5.41632,"is_reserved":false,"is_disabled":false,"rental_uris":{"android":"levelo://app?vid=a3e023e2-d4d4-4709-b2ae-04a06b5ecc63","ios":"levelo://app?vid=a3e023e2-d4d4-4709-b2ae-04a06b5ecc63"},"vehicle_type_id":"4","last_reported":1775120096,"current_range_meters":8000,"station_id":"st_d2o4gvlbi1j2169b742g","pricing_plan_id":"cebpf4jnsgd1na2vs0mg"},{"bike_id":"3927c982-43c0-4ecc-a701-3859dbd6ce9b","system_id":"levelo_inurba_marseille","lat":43.27358,"lon":5.42388,"is_reserved":false,"is_disabled":false,"rental_uris":{"android":"levelo://app?vid=3927c982-43c0-4ecc-a701-3859dbd6ce9b","ios":"levelo://app?vid=3927c982-43c0-4ecc-a701-3859dbd6ce9b"},"vehicle_type_id":"4","last_reported":1775120096,"current_range_meters":8000,"station_id":"","pricing_plan_id":"cebpf4jnsgd1na2vs0mg"},{"bike_id":"3e21d9ea-0dae-4671-8a47-57d552d516e2","system_id":"levelo_inurba_marseille","lat":43.26496,"lon":5.3954,"is_reserved":false,"is_disabled":false,"rental_uris":{"android":"levelo://app?vid=3e21d9ea-0dae-4671-8a47-57d552d516e2","ios":"levelo://app?vid=3e21d9ea-0dae-4671-8a47-57d552d516e2"},"vehicle_type_id":"4","last_reported":1775120096,"current_range_meters":8000,"station_id":"ce4bhi12rcd13ifvqfq0","pricing_plan_id":"cebpf4jnsgd1na2vs0mg"},{"bike_id":"b3fdb3c6-13b8-4611-957c-1ad249219f8c","system_id":"levelo_inurba_marseille","lat":43.24464,"lon":5.42531,"is_reserved":false,"is_disabled":false,"rental_uris":{"android":"levelo://app?vid=b3fdb3c6-13b8-4611-957c-1ad249219f8c","ios":"levelo://app?vid=b3fdb3c6-13b8-4611-957c-1ad249219f8c"},"vehicle_type_id":"4","last_reported":1775120096,"current_range_meters":8000,"station_id":"st_d4a3vfp97mjs738cd8kg","pricing_plan_id":"cebpf4jnsgd1na2vs0mg"},{"bike_id":"220b8287-6cd8-4214-a8c2-fdc39c8b7d43","system_id":"levelo_inurba_marseille","lat":43.25908,"lon":5.40865,"is_reserved":false,"is_disabled":false,"rental_uris":{"android":"levelo://app?vid=220b8287-6cd8-4214-a8c2-fdc39c8b7d43","ios":"levelo://app?vid=220b8287-6cd8-4214-a8c2-fdc39c8b7d43"},"vehicle_type_id":"4","last_reported":1775120096,"current_range_meters":8000,"station_id":"ce4bhm92rcd13ifvqglg","pricing_plan_id":"cebpf4jnsgd1na2vs0mg"},{"bike_id":"bf2c42ee-9952-4d50-a40a-94fc5a4258da","system_id":"levelo_inurba_marseille","lat":43.23367,"lon":5.41231,"is_reserved":false,"is_disabled":false,"rental_uris":{"android":"levelo://app?vid=bf2c42ee-9952-4d50-a40a-94fc5a4258da","ios":"levelo://app?vid=bf2c42ee-9952-4d50-a40a-94fc5a4258da"},"vehicle_type_id":"4","last_reported":1775120096,"current_range_meters":8000,"station_id":"st_d75pvndhf9lc73cqq3eg","pricing_plan_id":"cebpf4jnsgd1na2vs0mg"},{"bike_id":"ba33614c-a307-4e62-b0d9-643b797f7d62","system_id":"levelo_inurba_marseille","lat":43.30238,"lon":5.38559,"is_reserved":false,"is_disabled":false,"rental_uris":{"android":"levelo://app?vid=ba33614c-a307-4e62-b0d9-643b797f7d62","ios":"levelo://app?vid=ba33614c-a307-4e62-b0d9-643b797f7d62"},"vehicle_type_id":"4","last_reported":1775120096,"current_range_meters":8000,"station_id":"","pricing_plan_id":"cebpf4jnsgd1na2vs0mg"},{"bike_id":"bb435da3-856a-4144-9704-d052e66aeded","system_id":"levelo_inurba_marseille","lat":43.33154,"lon":5.3769,"is_reserved":false,"is_disabled":false,"rental_uris":{"android":"levelo://app?vid=bb435da3-856a-4144-9704-d052e66aeded","ios":"levelo://app?vid=bb435da3-856a-4144-9704-d052e66aeded"},"vehicle_type_id":"4","last_reported":1775120096,"current_range_meters":8000,"station_id":"st_d46cu089ee8s73dldbu0","pricing_plan_id":"cebpf4jnsgd1na2vs0mg"},{"bike_id":"c0244268-1300-41a7-9a33-8160575e0bc7","system_id":"levelo_inurba_marseille","lat":43.23209,"lon":5.35535,"is_reserved":false,"is_disabled":false,"rental_uris":{"android":"levelo://app?vid=c0244268-1300-41a7-9a33-8160575e0bc7","ios":"levelo://app?vid=c0244268-1300-41a7-9a33-8160575e0bc7"},"vehicle_type_id":"4","last_reported":1775120096,"current_range_meters":8000,"station_id":"ce4bhu92rcd13ifvqi70","pricing_plan_id":"cebpf4jnsgd1na2vs0mg"},{"bike_id":"fe8c21c1-5839-431f-a8e4-7a9e41c9eae0","system_id":"levelo_inurba_marseille","lat":43.32529,"lon":5.41438,"is_reserved":false,"is_disabled":false,"rental_uris":{"android":"levelo://app?vid=fe8c21c1-5839-431f-a8e4-7a9e41c9eae0","ios":"levelo://app?vid=fe8c21c1-5839-431f-a8e4-7a9e41c9eae0"},"vehicle_type_id":"4","last_reported":1775120096,"current_range_meters":8000,"station_id":"ce4bhq12rcd13ifvqhhg","pricing_plan_id":"cebpf4jnsgd1na2vs0mg"},{"bike_id":"9d8a9a7e-464b-4dd7-a621-d6c377a8f2ef","system_id":"levelo_inurba_marseille","lat":43.25926,"lon":5.40878,"is_reserved":false,"is_disabled":false,"rental_uris":{"android":"levelo://app?vid=9d8a9a7e-464b-4dd7-a621-d6c377a8f2ef","ios":"levelo://app?vid=9d8a9a7e-464b-4dd7-a621-d6c377a8f2ef"},"vehicle_type_id":"4","last_reported":1775120096,"current_range_meters":8000,"station_id":"ce4bhm92rcd13ifvqglg","pricing_plan_id":"cebpf4jnsgd1na2vs0mg"},{"bike_id":"094d9b13-1962-4687-a19b-a28fbe36c836","system_id":"levelo_inurba_marseille","lat":43.30269,"lon":5.3684,"is_reserved":false,"is_disabled":false,"rental_uris":{"android":"levelo://app?vid=094d9b13-1962-4687-a19b-a28fbe36c836","ios":"levelo://app?vid=094d9b13-1962-4687-a19b-a28fbe36c836"},"vehicle_type_id":"4","last_reported":1775120096,"current_range_meters":8400,"station_id":"","pricing_plan_id":"cebpf4jnsgd1na2vs0mg"},{"bike_id":"87e346fe-57ff-40e1-bc30-332765acdf33","system_id":"levelo_inurba_marseille","lat":43.22921,"lon":5.35348,"is_reserved":false,"is_disabled":false,"rental_uris":{"android":"levelo://app?vid=87e346fe-57ff-40e1-bc30-332765acdf33","ios":"levelo://app?vid=87e346fe-57ff-40e1-bc30-332765acdf33"},"vehicle_type_id":"4","last_reported":1775120096,"current_range_meters":8400,"station_id":"cpo3532slgdg3j2ikp40","pricing_plan_id":"cebpf4jnsgd1na2vs0mg"},{"bike_id":"905289e5-7113-4e8f-9100-1778260d107a","system_id":"levelo_inurba_marseille","lat":43.24408,"lon":5.3705,"is_reserved":false,"is_disabled":false,"rental_uris":{"android":"levelo://app?vid=905289e5-7113-4e8f-9100-1778260d107a","ios":"levelo://app?vid=905289e5-7113-4e8f-9100-1778260d107a"},"vehicle_type_id":"4","last_reported":1775120096,"current_range_meters":8400,"station_id":"ce4bhhh2rcd13ifvqfk0","pricing_plan_id":"cebpf4jnsgd1na2vs0mg"},{"bike_id":"a26e0612-5996-4080-8567-451a7c6785da","system_id":"levelo_inurba_marseille","lat":43.28479,"lon":5.48397,"is_reserved":false,"is_disabled":false,"rental_uris":{"android":"levelo://app?vid=a26e0612-5996-4080-8567-451a7c6785da","ios":"levelo://app?vid=a26e0612-5996-4080-8567-451a7c6785da"},"vehicle_type_id":"4","last_reported":1775120096,"current_range_meters":8400,"station_id":"","pricing_plan_id":"cebpf4jnsgd1na2vs0mg"},{"bike_id":"e2d4538e-989f-404e-b5fb-58cfe29ddc03","system_id":"levelo_inurba_marseille","lat":43.24473,"lon":5.42553,"is_reserved":false,"is_disabled":false,"rental_uris":{"android":"levelo://app?vid=e2d4538e-989f-404e-b5fb-58cfe29ddc03","ios":"levelo://app?vid=e2d4538e-989f-404e-b5fb-58cfe29ddc03"},"vehicle_type_id":"4","last_reported":1775120096,"current_range_meters":8400,"station_id":"st_d4a3vfp97mjs738cd8kg","pricing_plan_id":"cebpf4jnsgd1na2vs0mg"},{"bike_id":"993554b6-0de0-483c-81a8-74355d0900be","system_id":"levelo_inurba_marseille","lat":43.29637,"lon":5.38103,"is_reserved":false,"is_disabled":false,"rental_uris":{"android":"levelo://app?vid=993554b6-0de0-483c-81a8-74355d0900be","ios":"levelo://app?vid=993554b6-0de0-483c-81a8-74355d0900be"},"vehicle_type_id":"4","last_reported":1775120096,"current_range_meters":8400,"station_id":"ce4bgl12rcd13ifvqbo0","pricing_plan_id":"cebpf4jnsgd1na2vs0mg"},{"bike_id":"7454e20f-aeeb-429e-8370-29d207e4b480","system_id":"levelo_inurba_marseille","lat":43.25486,"lon":5.37659,"is_reserved":false,"is_disabled":false,"rental_uris":{"android":"levelo://app?vid=7454e20f-aeeb-429e-8370-29d207e4b480","ios":"levelo://app?vid=7454e20f-aeeb-429e-8370-29d207e4b480"},"vehicle_type_id":"4","last_reported":1775120096,"current_range_meters":8400,"station_id":"ce4bhh12rcd13ifvqff0","pricing_plan_id":"cebpf4jnsgd1na2vs0mg"},{"bike_id":"17e1349c-2875-4c80-8b7f-edefe8fdfd05","system_id":"levelo_inurba_marseille","lat":43.23162,"lon":5.43709,"is_reserved":false,"is_disabled":false,"rental_uris":{"android":"levelo://app?vid=17e1349c-2875-4c80-8b7f-edefe8fdfd05","ios":"levelo://app?vid=17e1349c-2875-4c80-8b7f-edefe8fdfd05"},"vehicle_type_id":"4","last_reported":1775120096,"current_range_meters":8400,"station_id":"ce4bhmp2rcd13ifvqgog","pricing_plan_id":"cebpf4jnsgd1na2vs0mg"},{"bike_id":"bc680e3f-5bf9-4b6b-b278-7640a68aaa9b","system_id":"levelo_inurba_marseille","lat":43.28421,"lon":5.34989,"is_reserved":false,"is_disabled":true,"rental_uris":{"android":"levelo://app?vid=bc680e3f-5bf9-4b6b-b278-7640a68aaa9b","ios":"levelo://app?vid=bc680e3f-5bf9-4b6b-b278-7640a68aaa9b"},"vehicle_type_id":"4","last_reported":1775120096,"current_range_meters":8400,"station_id":"ce4bhbh2rcd13ifvqepg","pricing_plan_id":"cebpf4jnsgd1na2vs0mg"},{"bike_id":"229f0e67-0671-4c17-8f2a-9394f3ccb1c5","system_id":"levelo_inurba_marseille","lat":43.24411,"lon":5.37022,"is_reserved":false,"is_disabled":false,"rental_uris":{"android":"levelo://app?vid=229f0e67-0671-4c17-8f2a-9394f3ccb1c5","ios":"levelo://app?vid=229f0e67-0671-4c17-8f2a-9394f3ccb1c5"},"vehicle_type_id":"4","last_reported":1775120096,"current_range_meters":8400,"station_id":"ce4bhhh2rcd13ifvqfk0","pricing_plan_id":"cebpf4jnsgd1na2vs0mg"},{"bike_id":"be0a2f51-4a1f-4d86-977a-210b03c4524c","system_id":"levelo_inurba_marseille","lat":43.24128,"lon":5.39634,"is_reserved":false,"is_disabled":false,"rental_uris":{"android":"levelo://app?vid=be0a2f51-4a1f-4d86-977a-210b03c4524c","ios":"levelo://app?vid=be0a2f51-4a1f-4d86-977a-210b03c4524c"},"vehicle_type_id":"4","last_reported":1775120096,"current_range_meters":8400,"station_id":"","pricing_plan_id":"cebpf4jnsgd1na2vs0mg"},{"bike_id":"ace76a94-ea86-4544-a0ad-b6082b39722f","system_id":"levelo_inurba_marseille","lat":43.2593,"lon":5.40862,"is_reserved":false,"is_disabled":false,"rental_uris":{"android":"levelo://app?vid=ace76a94-ea86-4544-a0ad-b6082b39722f","ios":"levelo://app?vid=ace76a94-ea86-4544-a0ad-b6082b39722f"},"vehicle_type_id":"4","last_reported":1775120096,"current_range_meters":8400,"station_id":"ce4bhm92rcd13ifvqglg","pricing_plan_id":"cebpf4jnsgd1na2vs0mg"},{"bike_id":"7b225159-cd54-494f-97e2-80124594a54c","system_id":"levelo_inurba_marseille","lat":43.301794,"lon":5.374184,"is_reserved":false,"is_disabled":false,"rental_uris":{"android":"levelo://app?vid=7b225159-cd54-494f-97e2-80124594a54c","ios":"levelo://app?vid=7b225159-cd54-494f-97e2-80124594a54c"},"vehicle_type_id":"4","last_reported":1775120096,"current_range_meters":8400,"station_id":"ce4bguh2rcd13ifvqckg","pricing_plan_id":"cebpf4jnsgd1na2vs0mg"},{"bike_id":"396b4933-6447-44ae-846f-3182cbfe6beb","system_id":"levelo_inurba_marseille","lat":43.30481,"lon":5.37894,"is_reserved":false,"is_disabled":false,"rental_uris":{"android":"levelo://app?vid=396b4933-6447-44ae-846f-3182cbfe6beb","ios":"levelo://app?vid=396b4933-6447-44ae-846f-3182cbfe6beb"},"vehicle_type_id":"4","last_reported":1775120096,"current_range_meters":8400,"station_id":"ce4bgup2rcd13ifvqcn0","pricing_plan_id":"cebpf4jnsgd1na2vs0mg"},{"bike_id":"0fa94896-dd54-446d-bc8b-217c16a94572","system_id":"levelo_inurba_marseille","lat":43.32481,"lon":5.36571,"is_reserved":false,"is_disabled":false,"rental_uris":{"android":"levelo://app?vid=0fa94896-dd54-446d-bc8b-217c16a94572","ios":"levelo://app?vid=0fa94896-dd54-446d-bc8b-217c16a94572"},"vehicle_type_id":"4","last_reported":1775120096,"current_range_meters":8400,"station_id":"ce4bhs12rcd13ifvqhvg","pricing_plan_id":"cebpf4jnsgd1na2vs0mg"},{"bike_id":"843ccc67-c31c-41dd-9c12-11a688eb1aa7","system_id":"levelo_inurba_marseille","lat":43.29194,"lon":5.37129,"is_reserved":false,"is_disabled":false,"rental_uris":{"android":"levelo://app?vid=843ccc67-c31c-41dd-9c12-11a688eb1aa7","ios":"levelo://app?vid=843ccc67-c31c-41dd-9c12-11a688eb1aa7"},"vehicle_type_id":"4","last_reported":1775120096,"current_range_meters":8400,"station_id":"ce4bha92rcd13ifvqeh0","pricing_plan_id":"cebpf4jnsgd1na2vs0mg"},{"bike_id":"0f66a6e7-a4eb-4749-a4ad-fc64315362e2","system_id":"levelo_inurba_marseille","lat":43.28549,"lon":5.39501,"is_reserved":false,"is_disabled":false,"rental_uris":{"android":"levelo://app?vid=0f66a6e7-a4eb-4749-a4ad-fc64315362e2","ios":"levelo://app?vid=0f66a6e7-a4eb-4749-a4ad-fc64315362e2"},"vehicle_type_id":"4","last_reported":1775120096,"current_range_meters":8400,"station_id":"ce4bh292rcd13ifvqdg0","pricing_plan_id":"cebpf4jnsgd1na2vs0mg"},{"bike_id":"e3ccc183-2d52-483d-b306-8ec417ed00fd","system_id":"levelo_inurba_marseille","lat":43.3104,"lon":5.37159,"is_reserved":false,"is_disabled":false,"rental_uris":{"android":"levelo://app?vid=e3ccc183-2d52-483d-b306-8ec417ed00fd","ios":"levelo://app?vid=e3ccc183-2d52-483d-b306-8ec417ed00fd"},"vehicle_type_id":"4","last_reported":1775120096,"current_range_meters":8400,"station_id":"st_d4kl2rp97mjs73e7tdfg","pricing_plan_id":"cebpf4jnsgd1na2vs0mg"},{"bike_id":"ec0ce348-2ff5-4e8c-8a8d-7f24350ab519","system_id":"levelo_inurba_marseille","lat":43.30469,"lon":5.37894,"is_reserved":false,"is_disabled":false,"rental_uris":{"android":"levelo://app?vid=ec0ce348-2ff5-4e8c-8a8d-7f24350ab519","ios":"levelo://app?vid=ec0ce348-2ff5-4e8c-8a8d-7f24350ab519"},"vehicle_type_id":"4","last_reported":1775120096,"current_range_meters":8400,"station_id":"ce4bgup2rcd13ifvqcn0","pricing_plan_id":"cebpf4jnsgd1na2vs0mg"},{"bike_id":"102c7519-e7e3-4de8-8a1e-2a86a3f7c287","system_id":"levelo_inurba_marseille","lat":43.31225,"lon":5.36832,"is_reserved":false,"is_disabled":false,"rental_uris":{"android":"levelo://app?vid=102c7519-e7e3-4de8-8a1e-2a86a3f7c287","ios":"levelo://app?vid=102c7519-e7e3-4de8-8a1e-2a86a3f7c287"},"vehicle_type_id":"4","last_reported":1775120096,"current_range_meters":8400,"station_id":"ce4bgl92rcd13ifvqbq0","pricing_plan_id":"cebpf4jnsgd1na2vs0mg"},{"bike_id":"88f7f654-5bc6-4878-b71f-6795b0b86405","system_id":"levelo_inurba_marseille","lat":43.29537,"lon":5.39412,"is_reserved":false,"is_disabled":false,"rental_uris":{"android":"levelo://app?vid=88f7f654-5bc6-4878-b71f-6795b0b86405","ios":"levelo://app?vid=88f7f654-5bc6-4878-b71f-6795b0b86405"},"vehicle_type_id":"4","last_reported":1775120096,"current_range_meters":8400,"station_id":"ce4bh292rcd13ifvqdf0","pricing_plan_id":"cebpf4jnsgd1na2vs0mg"},{"bike_id":"2b4d20da-f2c3-4f15-bd96-1a509712287c","system_id":"levelo_inurba_marseille","lat":43.24394,"lon":5.3706,"is_reserved":false,"is_disabled":false,"rental_uris":{"android":"levelo://app?vid=2b4d20da-f2c3-4f15-bd96-1a509712287c","ios":"levelo://app?vid=2b4d20da-f2c3-4f15-bd96-1a509712287c"},"vehicle_type_id":"4","last_reported":1775120096,"current_range_meters":8400,"station_id":"ce4bhhh2rcd13ifvqfk0","pricing_plan_id":"cebpf4jnsgd1na2vs0mg"},{"bike_id":"ec8b19fe-643e-4f00-8b29-5c9b3d9fb7d0","system_id":"levelo_inurba_marseille","lat":43.27236,"lon":5.39169,"is_reserved":false,"is_disabled":false,"rental_uris":{"android":"levelo://app?vid=ec8b19fe-643e-4f00-8b29-5c9b3d9fb7d0","ios":"levelo://app?vid=ec8b19fe-643e-4f00-8b29-5c9b3d9fb7d0"},"vehicle_type_id":"4","last_reported":1775120096,"current_range_meters":8400,"station_id":"ce4bhhp2rcd13ifvqfm0","pricing_plan_id":"cebpf4jnsgd1na2vs0mg"},{"bike_id":"ec73d10f-d000-4d7d-ab9a-4a1d96a7ccc2","system_id":"levelo_inurba_marseille","lat":43.3115,"lon":5.36885,"is_reserved":false,"is_disabled":false,"rental_uris":{"android":"levelo://app?vid=ec73d10f-d000-4d7d-ab9a-4a1d96a7ccc2","ios":"levelo://app?vid=ec73d10f-d000-4d7d-ab9a-4a1d96a7ccc2"},"vehicle_type_id":"4","last_reported":1775120096,"current_range_meters":8400,"station_id":"ce4bgl92rcd13ifvqbq0","pricing_plan_id":"cebpf4jnsgd1na2vs0mg"},{"bike_id":"b17c4f99-f264-4929-869c-2e7e7176ce13","system_id":"levelo_inurba_marseille","lat":43.28701,"lon":5.38661,"is_reserved":false,"is_disabled":true,"rental_uris":{"android":"levelo://app?vid=b17c4f99-f264-4929-869c-2e7e7176ce13","ios":"levelo://app?vid=b17c4f99-f264-4929-869c-2e7e7176ce13"},"vehicle_type_id":"4","last_reported":1775120096,"current_range_meters":8400,"station_id":"ce4bh492rcd13ifvqdug","pricing_plan_id":"cebpf4jnsgd1na2vs0mg"},{"bike_id":"2e0545ad-d824-454e-b745-a6d9a8bc929b","system_id":"levelo_inurba_marseille","lat":43.3235,"lon":5.36732,"is_reserved":false,"is_disabled":false,"rental_uris":{"android":"levelo://app?vid=2e0545ad-d824-454e-b745-a6d9a8bc929b","ios":"levelo://app?vid=2e0545ad-d824-454e-b745-a6d9a8bc929b"},"vehicle_type_id":"4","last_reported":1775120096,"current_range_meters":8800,"station_id":"ce4bhsh2rcd13ifvqi2g","pricing_plan_id":"cebpf4jnsgd1na2vs0mg"},{"bike_id":"63f54104-1358-46d5-b04e-dbd776a1d3a2","system_id":"levelo_inurba_marseille","lat":43.21762,"lon":5.34615,"is_reserved":false,"is_disabled":false,"rental_uris":{"android":"levelo://app?vid=63f54104-1358-46d5-b04e-dbd776a1d3a2","ios":"levelo://app?vid=63f54104-1358-46d5-b04e-dbd776a1d3a2"},"vehicle_type_id":"4","last_reported":1775120096,"current_range_meters":8800,"station_id":"st_cvj6r9ubvosntc0bgbag","pricing_plan_id":"cebpf4jnsgd1na2vs0mg"},{"bike_id":"8c8ca048-1b66-4480-9922-651206dfd11a","system_id":"levelo_inurba_marseille","lat":43.32657,"lon":5.40979,"is_reserved":false,"is_disabled":false,"rental_uris":{"android":"levelo://app?vid=8c8ca048-1b66-4480-9922-651206dfd11a","ios":"levelo://app?vid=8c8ca048-1b66-4480-9922-651206dfd11a"},"vehicle_type_id":"4","last_reported":1775120096,"current_range_meters":8800,"station_id":"ce4bhpp2rcd13ifvqhgg","pricing_plan_id":"cebpf4jnsgd1na2vs0mg"},{"bike_id":"57878702-959e-40cf-aff2-489e518fa03d","system_id":"levelo_inurba_marseille","lat":43.29541,"lon":5.37493,"is_reserved":false,"is_disabled":false,"rental_uris":{"android":"levelo://app?vid=57878702-959e-40cf-aff2-489e518fa03d","ios":"levelo://app?vid=57878702-959e-40cf-aff2-489e518fa03d"},"vehicle_type_id":"4","last_reported":1775120096,"current_range_meters":8800,"station_id":"ce4bgkp2rcd13ifvqbmg","pricing_plan_id":"cebpf4jnsgd1na2vs0mg"},{"bike_id":"3083a054-ad5b-40e9-b34b-8b3f3962f588","system_id":"levelo_inurba_marseille","lat":43.26072,"lon":5.39397,"is_reserved":false,"is_disabled":false,"rental_uris":{"android":"levelo://app?vid=3083a054-ad5b-40e9-b34b-8b3f3962f588","ios":"levelo://app?vid=3083a054-ad5b-40e9-b34b-8b3f3962f588"},"vehicle_type_id":"4","last_reported":1775120096,"current_range_meters":8800,"station_id":"ce4bhh92rcd13ifvqfj0","pricing_plan_id":"cebpf4jnsgd1na2vs0mg"},{"bike_id":"baaa819f-f621-4bbc-b8f6-009cbb2eb24c","system_id":"levelo_inurba_marseille","lat":43.23213,"lon":5.35553,"is_reserved":false,"is_disabled":false,"rental_uris":{"android":"levelo://app?vid=baaa819f-f621-4bbc-b8f6-009cbb2eb24c","ios":"levelo://app?vid=baaa819f-f621-4bbc-b8f6-009cbb2eb24c"},"vehicle_type_id":"4","last_reported":1775120096,"current_range_meters":8800,"station_id":"ce4bhu92rcd13ifvqi70","pricing_plan_id":"cebpf4jnsgd1na2vs0mg"},{"bike_id":"4662ce83-961a-43fe-b5d2-6ce767222e0c","system_id":"levelo_inurba_marseille","lat":43.28616,"lon":5.35102,"is_reserved":false,"is_disabled":false,"rental_uris":{"android":"levelo://app?vid=4662ce83-961a-43fe-b5d2-6ce767222e0c","ios":"levelo://app?vid=4662ce83-961a-43fe-b5d2-6ce767222e0c"},"vehicle_type_id":"4","last_reported":1775120096,"current_range_meters":8800,"station_id":"ce4bhch2rcd13ifvqeug","pricing_plan_id":"cebpf4jnsgd1na2vs0mg"},{"bike_id":"f9889cfc-1d44-4a74-b59e-2e0cc04a8762","system_id":"levelo_inurba_marseille","lat":43.21193,"lon":5.35073,"is_reserved":false,"is_disabled":false,"rental_uris":{"android":"levelo://app?vid=f9889cfc-1d44-4a74-b59e-2e0cc04a8762","ios":"levelo://app?vid=f9889cfc-1d44-4a74-b59e-2e0cc04a8762"},"vehicle_type_id":"4","last_reported":1775120096,"current_range_meters":8800,"station_id":"st_cvj6sg6p6f1abm77japg","pricing_plan_id":"cebpf4jnsgd1na2vs0mg"},{"bike_id":"e29e1953-b5e2-42ad-b863-e11d2fd568e7","system_id":"levelo_inurba_marseille","lat":43.33534,"lon":5.37527,"is_reserved":false,"is_disabled":false,"rental_uris":{"android":"levelo://app?vid=e29e1953-b5e2-42ad-b863-e11d2fd568e7","ios":"levelo://app?vid=e29e1953-b5e2-42ad-b863-e11d2fd568e7"},"vehicle_type_id":"4","last_reported":1775120096,"current_range_meters":8800,"station_id":"st_d46tts09ee8s73dlu43g","pricing_plan_id":"cebpf4jnsgd1na2vs0mg"},{"bike_id":"ebf8d41b-af9e-48cd-b4ac-c559138fc501","system_id":"levelo_inurba_marseille","lat":43.24168,"lon":5.36392,"is_reserved":false,"is_disabled":false,"rental_uris":{"android":"levelo://app?vid=ebf8d41b-af9e-48cd-b4ac-c559138fc501","ios":"levelo://app?vid=ebf8d41b-af9e-48cd-b4ac-c559138fc501"},"vehicle_type_id":"4","last_reported":1775120096,"current_range_meters":8800,"station_id":"cpo36qri1sfpv3e86is0","pricing_plan_id":"cebpf4jnsgd1na2vs0mg"},{"bike_id":"4e58bf43-42ef-4fe3-a97b-d60dd6dc77be","system_id":"levelo_inurba_marseille","lat":43.2447,"lon":5.42536,"is_reserved":false,"is_disabled":false,"rental_uris":{"android":"levelo://app?vid=4e58bf43-42ef-4fe3-a97b-d60dd6dc77be","ios":"levelo://app?vid=4e58bf43-42ef-4fe3-a97b-d60dd6dc77be"},"vehicle_type_id":"4","last_reported":1775120096,"current_range_meters":8800,"station_id":"st_d4a3vfp97mjs738cd8kg","pricing_plan_id":"cebpf4jnsgd1na2vs0mg"},{"bike_id":"fde0970f-eedf-4429-b7cc-67de9a539b1c","system_id":"levelo_inurba_marseille","lat":43.23779,"lon":5.36627,"is_reserved":false,"is_disabled":false,"rental_uris":{"android":"levelo://app?vid=fde0970f-eedf-4429-b7cc-67de9a539b1c","ios":"levelo://app?vid=fde0970f-eedf-4429-b7cc-67de9a539b1c"},"vehicle_type_id":"4","last_reported":1775120096,"current_range_meters":8800,"station_id":"st_d3nk18o9ro0c73en2l3g","pricing_plan_id":"cebpf4jnsgd1na2vs0mg"},{"bike_id":"42ef0725-9ce6-475e-bcb5-07b0be3c0a7c","system_id":"levelo_inurba_marseille","lat":43.30498,"lon":5.379,"is_reserved":false,"is_disabled":false,"rental_uris":{"android":"levelo://app?vid=42ef0725-9ce6-475e-bcb5-07b0be3c0a7c","ios":"levelo://app?vid=42ef0725-9ce6-475e-bcb5-07b0be3c0a7c"},"vehicle_type_id":"4","last_reported":1775120096,"current_range_meters":8800,"station_id":"ce4bgup2rcd13ifvqcn0","pricing_plan_id":"cebpf4jnsgd1na2vs0mg"},{"bike_id":"cdaf5c21-01f8-48a6-ac5a-655f303d788b","system_id":"levelo_inurba_marseille","lat":43.28036,"lon":5.36943,"is_reserved":false,"is_disabled":true,"rental_uris":{"android":"levelo://app?vid=cdaf5c21-01f8-48a6-ac5a-655f303d788b","ios":"levelo://app?vid=cdaf5c21-01f8-48a6-ac5a-655f303d788b"},"vehicle_type_id":"4","last_reported":1775120096,"current_range_meters":8800,"station_id":"ce4bha12rcd13ifvqef0","pricing_plan_id":"cebpf4jnsgd1na2vs0mg"},{"bike_id":"9fcf7efc-fc1a-4324-8ff4-a881c156388c","system_id":"levelo_inurba_marseille","lat":43.29904,"lon":5.37465,"is_reserved":false,"is_disabled":false,"rental_uris":{"android":"levelo://app?vid=9fcf7efc-fc1a-4324-8ff4-a881c156388c","ios":"levelo://app?vid=9fcf7efc-fc1a-4324-8ff4-a881c156388c"},"vehicle_type_id":"4","last_reported":1775120096,"current_range_meters":8800,"station_id":"ce4bgjh2rcd13ifvqbg0","pricing_plan_id":"cebpf4jnsgd1na2vs0mg"},{"bike_id":"aa1d76c6-fdd6-48cf-b275-3c7e0fed08e5","system_id":"levelo_inurba_marseille","lat":43.30532,"lon":5.36708,"is_reserved":false,"is_disabled":false,"rental_uris":{"android":"levelo://app?vid=aa1d76c6-fdd6-48cf-b275-3c7e0fed08e5","ios":"levelo://app?vid=aa1d76c6-fdd6-48cf-b275-3c7e0fed08e5"},"vehicle_type_id":"4","last_reported":1775120096,"current_range_meters":8800,"station_id":"ce4bgrp2rcd13ifvqc9g","pricing_plan_id":"cebpf4jnsgd1na2vs0mg"},{"bike_id":"0cfb8b93-62d3-455d-8ddc-2a098cd03197","system_id":"levelo_inurba_marseille","lat":43.32381,"lon":5.3678,"is_reserved":false,"is_disabled":false,"rental_uris":{"android":"levelo://app?vid=0cfb8b93-62d3-455d-8ddc-2a098cd03197","ios":"levelo://app?vid=0cfb8b93-62d3-455d-8ddc-2a098cd03197"},"vehicle_type_id":"4","last_reported":1775120096,"current_range_meters":8800,"station_id":"ce4bhsh2rcd13ifvqi2g","pricing_plan_id":"cebpf4jnsgd1na2vs0mg"},{"bike_id":"682d056a-873e-4671-b282-192c8570b532","system_id":"levelo_inurba_marseille","lat":43.30153,"lon":5.38067,"is_reserved":false,"is_disabled":false,"rental_uris":{"android":"levelo://app?vid=682d056a-873e-4671-b282-192c8570b532","ios":"levelo://app?vid=682d056a-873e-4671-b282-192c8570b532"},"vehicle_type_id":"4","last_reported":1775120096,"current_range_meters":8800,"station_id":"ce4bgjp2rcd13ifvqbh0","pricing_plan_id":"cebpf4jnsgd1na2vs0mg"},{"bike_id":"7f331a45-ab18-4a20-bb31-96c6e9325d41","system_id":"levelo_inurba_marseille","lat":43.29633,"lon":5.37163,"is_reserved":false,"is_disabled":false,"rental_uris":{"android":"levelo://app?vid=7f331a45-ab18-4a20-bb31-96c6e9325d41","ios":"levelo://app?vid=7f331a45-ab18-4a20-bb31-96c6e9325d41"},"vehicle_type_id":"4","last_reported":1775120096,"current_range_meters":8800,"station_id":"ce4bgnh2rcd13ifvqc0g","pricing_plan_id":"cebpf4jnsgd1na2vs0mg"},{"bike_id":"a0bbc992-87da-4583-a529-59d0980f5448","system_id":"levelo_inurba_marseille","lat":43.29809,"lon":5.44058,"is_reserved":false,"is_disabled":false,"rental_uris":{"android":"levelo://app?vid=a0bbc992-87da-4583-a529-59d0980f5448","ios":"levelo://app?vid=a0bbc992-87da-4583-a529-59d0980f5448"},"vehicle_type_id":"4","last_reported":1775120096,"current_range_meters":8800,"station_id":"st_d3jp68qikq2c7381ktn0","pricing_plan_id":"cebpf4jnsgd1na2vs0mg"},{"bike_id":"bd148697-0564-4945-ba6f-498c28c08e54","system_id":"levelo_inurba_marseille","lat":43.25249,"lon":5.40195,"is_reserved":false,"is_disabled":false,"rental_uris":{"android":"levelo://app?vid=bd148697-0564-4945-ba6f-498c28c08e54","ios":"levelo://app?vid=bd148697-0564-4945-ba6f-498c28c08e54"},"vehicle_type_id":"4","last_reported":1775120096,"current_range_meters":8800,"station_id":"","pricing_plan_id":"cebpf4jnsgd1na2vs0mg"},{"bike_id":"7e76070b-db38-429d-8668-6726a0f67ea4","system_id":"levelo_inurba_marseille","lat":43.32495,"lon":5.38289,"is_reserved":false,"is_disabled":false,"rental_uris":{"android":"levelo://app?vid=7e76070b-db38-429d-8668-6726a0f67ea4","ios":"levelo://app?vid=7e76070b-db38-429d-8668-6726a0f67ea4"},"vehicle_type_id":"4","last_reported":1775120096,"current_range_meters":8800,"station_id":"st_d4asgbiv49dc73anf9m0","pricing_plan_id":"cebpf4jnsgd1na2vs0mg"},{"bike_id":"778df578-6123-4128-bfc7-a9b6e8590d02","system_id":"levelo_inurba_marseille","lat":43.22941,"lon":5.35364,"is_reserved":false,"is_disabled":false,"rental_uris":{"android":"levelo://app?vid=778df578-6123-4128-bfc7-a9b6e8590d02","ios":"levelo://app?vid=778df578-6123-4128-bfc7-a9b6e8590d02"},"vehicle_type_id":"4","last_reported":1775120096,"current_range_meters":8800,"station_id":"cpo3532slgdg3j2ikp40","pricing_plan_id":"cebpf4jnsgd1na2vs0mg"},{"bike_id":"cc9dfb4b-a2a7-417b-9104-b896c029449e","system_id":"levelo_inurba_marseille","lat":43.31338,"lon":5.36731,"is_reserved":false,"is_disabled":false,"rental_uris":{"android":"levelo://app?vid=cc9dfb4b-a2a7-417b-9104-b896c029449e","ios":"levelo://app?vid=cc9dfb4b-a2a7-417b-9104-b896c029449e"},"vehicle_type_id":"4","last_reported":1775120096,"current_range_meters":8800,"station_id":"ce4bgr92rcd13ifvqc6g","pricing_plan_id":"cebpf4jnsgd1na2vs0mg"},