{"last_updated":1703102874,"ttl":30,"version":"2.2","data":{"bikes":[{"bike_id":"63e20fad-1285-4b66-bd8f-d3605b03361b","system_id":"levelo_inurba_marseille","lat":43.31341,"lon":5.367098,"is_reserved":false,"is_disabled":false,"rental_uris":{"android":"levelo://app?vid=63e20fad-1285-4b66-bd8f-d3605b03361b","ios":"levelo://app?vid=63e20fad-1285-4b66-bd8f-d3605b03361b"},"vehicle_type_id":"4","last_reported":1703102874,"current_range_meters":23200,"station_id":"ce4bgr92rcd13ifvqc6g","pricing_plan_id":"free"},{"bike_id":"65c909b4-31c9-4711-92ae-723d9308cae2","system_id":"levelo_inurba_marseille","lat":43.309076,"lon":5.368465,"is_reserved":false,"is_disabled":false,"rental_uris":{"android":"levelo://app?vid=65c909b4-31c9-4711-92ae-723d9308cae2","ios":"levelo://app?vid=65c909b4-31c9-4711-92ae-723d9308cae2"},"vehicle_type_id":"4","last_reported":1703102874,"current_range_meters":30800,"station_id":"ce4bgn92rcd13ifvqbvg","pricing_plan_id":"free"},{"bike_id":"bd346d15-2b55-42fd-b422-13bc61bc0b5b","system_id":"levelo_inurba_marseille","lat":43.314811,"lon":5.373103,"is_reserved":false,"is_disabled":false,"rental_uris":{"android":"levelo://app?vid=bd346d15-2b55-42fd-b422-13bc61bc0b5b","ios":"levelo://app?vid=bd346d15-2b55-42fd-b422-13bc61bc0b5b"},"vehicle_type_id":"4","last_reported":1703102874,"current_range_meters":22000,"station_id":"ce4bgt12rcd13ifvqcd0","pricing_plan_id":"free"},{"bike_id":"9aa03411-52de-4a11-b496-99716237d981","system_id":"levelo_inurba_marseille","lat":43.314811,"lon":5.373103,"is_reserved":false,"is_disabled":false,"rental_uris":{"android":"levelo://app?vid=9aa03411-52de-4a11-b496-99716237d981","ios":"levelo://app?vid=9aa03411-52de-4a11-b496-99716237d981"},"vehicle_type_id":"4","last_reported":1703102874,"current_range_meters":15200,"station_id":"ce4bgt12rcd13ifvqcd0","pricing_plan_id":"free"},{"bike_id":"a4fd1fe7-ffe5-45e4-a7a0-3474a68c91d2","system_id":"levelo_inurba_marseille","lat":43.314811,"lon":5.373103,"is_reserved":false,"is_disabled":false,"rental_uris":{"android":"levelo://app?vid=a4fd1fe7-ffe5-45e4-a7a0-3474a68c91d2","ios":"levelo://app?vid=a4fd1fe7-ffe5-45e4-a7a0-3474a68c91d2"},"vehicle_type_id":"4","last_reported":1703102874,"current_range_meters":13200,"station_id":"ce4bgt12rcd13ifvqcd0","pricing_plan_id":"free"},{"bike_id":"02cfb708-eb93-47ba-9300-f3c315a4ca3a","system_id":"levelo_inurba_marseille","lat":43.314811,"lon":5.373104,"is_reserved":false,"is_disabled":false,"rental_uris":{"android":"levelo://app?vid=02cfb708-eb93-47ba-9300-f3c315a4ca3a","ios":"levelo://app?vid=02cfb708-eb93-47ba-9300-f3c315a4ca3a"},"vehicle_type_id":"4","last_reported":1703102874,"current_range_meters":24400,"station_id":"ce4bgt12rcd13ifvqcd0","pricing_plan_id":"free"},{"bike_id":"455ccef8-e685-41e5-92f7-568ea26e059e","system_id":"levelo_inurba_marseille","lat":43.314811,"lon":5.373104,"is_reserved":false,"is_disabled":false,"rental_uris":{"android":"levelo://app?vid=455ccef8-e685-41e5-92f7-568ea26e059e","ios":"levelo://app?vid=455ccef8-e685-41e5-92f7-568ea26e059e"},"vehicle_type_id":"4","last_reported":1703102874,"current_range_meters":19600,"station_id":"ce4bgt12rcd13ifvqcd0","pricing_plan_id":"free"},{"bike_id":"3cf12d02-5c13-435d-8950-6f18202f760d","system_id":"levelo_inurba_marseille","lat":43.309039,"lon":5.371797,"is_reserved":false,"is_disabled":false,"rental_uris":{"android":"levelo://app?vid=3cf12d02-5c13-435d-8950-6f18202f760d","ios":"levelo://app?vid=3cf12d02-5c13-435d-8950-6f18202f760d"},"vehicle_type_id":"4","last_reported":1703102874,"current_range_meters":8000,"station_id":"ce4bguh2rcd13ifvqckg","pricing_plan_id":"free"},{"bike_id":"03a7e4d9-3e23-4a6b-bdc9-a3307d2e53b7","system_id":"levelo_inurba_marseille","lat":43.305989,"lon":5.37225,"is_reserved":false,"is_disabled":false,"rental_uris":{"android":"levelo://app?vid=03a7e4d9-3e23-4a6b-bdc9-a3307d2e53b7","ios":"levelo://app?vid=03a7e4d9-3e23-4a6b-bdc9-a3307d2e53b7"},"vehicle_type_id":"4","last_reported":1703102874,"current_range_meters":17600,"station_id":"ce4bgqh2rcd13ifvqc4g","pricing_plan_id":"free"},{"bike_id":"9309bdce-689d-4d75-bee7-87ce85461c78","system_id":"levelo_inurba_marseille","lat":43.30602,"lon":5.37216,"is_reserved":false,"is_disabled":false,"rental_uris":{"android":"levelo://app?vid=9309bdce-689d-4d75-bee7-87ce85461c78","ios":"levelo://app?vid=9309bdce-689d-4d75-bee7-87ce85461c78"},"vehicle_type_id":"4","last_reported":1703102874,"current_range_meters":0,"station_id":"ce4bgqh2rcd13ifvqc4g","pricing_plan_id":"free"},{"bike_id":"2e62151a-223f-4f2b-a611-f2776d6c1e22","system_id":"levelo_inurba_marseille","lat":43.31118,"lon":5.37759,"is_reserved":false,"is_disabled":false,"rental_uris":{"android":"levelo://app?vid=2e62151a-223f-4f2b-a611-f2776d6c1e22","ios":"levelo://app?vid=2e62151a-223f-4f2b-a611-f2776d6c1e22"},"vehicle_type_id":"4","last_reported":1703102874,"current_range_meters":31600,"station_id":"ce4bgt92rcd13ifvqcg0","pricing_plan_id":"free"},{"bike_id":"fd780473-fffd-4eed-bf82-cf3e5cb3ef23","system_id":"levelo_inurba_marseille","lat":43.311125,"lon":5.377624,"is_reserved":false,"is_disabled":false,"rental_uris":{"android":"levelo://app?vid=fd780473-fffd-4eed-bf82-cf3e5cb3ef23","ios":"levelo://app?vid=fd780473-fffd-4eed-bf82-cf3e5cb3ef23"},"vehicle_type_id":"4","last_reported":1703102874,"current_range_meters":11600,"station_id":"ce4bgt92rcd13ifvqcg0","pricing_plan_id":"free"},{"bike_id":"2b31283f-dc49-40eb-9032-b11b2c1daf8d","system_id":"levelo_inurba_marseille","lat":43.317075,"lon":5.377367,"is_reserved":false,"is_disabled":false,"rental_uris":{"android":"levelo://app?vid=2b31283f-dc49-40eb-9032-b11b2c1daf8d","ios":"levelo://app?vid=2b31283f-dc49-40eb-9032-b11b2c1daf8d"},"vehicle_type_id":"4","last_reported":1703102874,"current_range_meters":29200,"station_id":"ce4bgth2rcd13ifvqch0","pricing_plan_id":"free"},{"bike_id":"7a3322dd-31ac-457a-aaf0-8d2e8aa301a7","system_id":"levelo_inurba_marseille","lat":43.30304,"lon":5.368987,"is_reserved":false,"is_disabled":false,"rental_uris":{"android":"levelo://app?vid=7a3322dd-31ac-457a-aaf0-8d2e8aa301a7","ios":"levelo://app?vid=7a3322dd-31ac-457a-aaf0-8d2e8aa301a7"},"vehicle_type_id":"4","last_reported":1703102874,"current_range_meters":6000,"station_id":"ce4bgqh2rcd13ifvqc5g","pricing_plan_id":"free"},{"bike_id":"ce00cf47-310d-4762-9ee8-c20dcf4d5ee5","system_id":"levelo_inurba_marseille","lat":43.301939,"lon":5.366286,"is_reserved":false,"is_disabled":false,"rental_uris":{"android":"levelo://app?vid=ce00cf47-310d-4762-9ee8-c20dcf4d5ee5","ios":"levelo://app?vid=ce00cf47-310d-4762-9ee8-c20dcf4d5ee5"},"vehicle_type_id":"4","last_reported":1703102874,"current_range_meters":6400,"station_id":"ce4bgrh2rcd13ifvqc8g","pricing_plan_id":"free"},{"bike_id":"fc39e9a0-665a-4869-86ee-8885d48a8fe2","system_id":"levelo_inurba_marseille","lat":43.304606,"lon":5.379026,"is_reserved":false,"is_disabled":false,"rental_uris":{"android":"levelo://app?vid=fc39e9a0-665a-4869-86ee-8885d48a8fe2","ios":"levelo://app?vid=fc39e9a0-665a-4869-86ee-8885d48a8fe2"},"vehicle_type_id":"4","last_reported":1703102874,"current_range_meters":4400,"station_id":"ce4bgup2rcd13ifvqcn0","pricing_plan_id":"free"},{"bike_id":"b1778cfd-376f-4096-a269-023903a573e0","system_id":"levelo_inurba_marseille","lat":43.302784,"lon":5.377158,"is_reserved":false,"is_disabled":false,"rental_uris":{"android":"levelo://app?vid=b1778cfd-376f-4096-a269-023903a573e0","ios":"levelo://app?vid=b1778cfd-376f-4096-a269-023903a573e0"},"vehicle_type_id":"4","last_reported":1703102874,"current_range_meters":13600,"station_id":"ce4bguh2rcd13ifvqcj0","pricing_plan_id":"free"},{"bike_id":"6bd330e5-be91-4c6a-bd12-6b4c0748505e","system_id":"levelo_inurba_marseille","lat":43.319938,"lon":5.38149,"is_reserved":false,"is_disabled":false,"rental_uris":{"android":"levelo://app?vid=6bd330e5-be91-4c6a-bd12-6b4c0748505e","ios":"levelo://app?vid=6bd330e5-be91-4c6a-bd12-6b4c0748505e"},"vehicle_type_id":"4","last_reported":1703102874,"current_range_meters":11200,"station_id":"ce4bhr12rcd13ifvqhpg","pricing_plan_id":"free"},{"bike_id":"953d5feb-48a7-427e-a3e1-b62f811507e8","system_id":"levelo_inurba_marseille","lat":43.319935,"lon":5.381699,"is_reserved":false,"is_disabled":false,"rental_uris":{"android":"levelo://app?vid=953d5feb-48a7-427e-a3e1-b62f811507e8","ios":"levelo://app?vid=953d5feb-48a7-427e-a3e1-b62f811507e8"},"vehicle_type_id":"4","last_reported":1703102874,"current_range_meters":4400,"station_id":"ce4bhr12rcd13ifvqhpg","pricing_plan_id":"free"},{"bike_id":"257d7a13-be48-46e9-abf1-6513a04c2a98","system_id":"levelo_inurba_marseille","lat":43.313571,"lon":5.384829,"is_reserved":false,"is_disabled":false,"rental_uris":{"android":"levelo://app?vid=257d7a13-be48-46e9-abf1-6513a04c2a98","ios":"levelo://app?vid=257d7a13-be48-46e9-abf1-6513a04c2a98"},"vehicle_type_id":"4","last_reported":1703102874,"current_range_meters":12800,"station_id":"ce4bgt92rcd13ifvqcf0","pricing_plan_id":"free"},{"bike_id":"bc92480b-6e3e-468f-ad0a-e16b3723982f","system_id":"levelo_inurba_marseille","lat":43.299222,"lon":5.365554,"is_reserved":false,"is_disabled":false,"rental_uris":{"android":"levelo://app?vid=bc92480b-6e3e-468f-ad0a-e16b3723982f","ios":"levelo://app?vid=bc92480b-6e3e-468f-ad0a-e16b3723982f"},"vehicle_type_id":"4","last_reported":1703102874,"current_range_meters":20000,"station_id":"ce4bgm92rcd13ifvqbr0","pricing_plan_id":"free"},{"bike_id":"d07143b1-ddd7-4eb5-985c-faa1cb700ef8","system_id":"levelo_inurba_marseille","lat":43.299222,"lon":5.365554,"is_reserved":false,"is_disabled":false,"rental_uris":{"android":"levelo://app?vid=d07143b1-ddd7-4eb5-985c-faa1cb700ef8","ios":"levelo://app?vid=d07143b1-ddd7-4eb5-985c-faa1cb700ef8"},"vehicle_type_id":"4","last_reported":1703102874,"current_range_meters":7600,"station_id":"ce4bgm92rcd13ifvqbr0","pricing_plan_id":"free"},{"bike_id":"00f2924f-54c9-4c65-aacb-f84dbb9594fc","system_id":"levelo_inurba_marseille","lat":43.299222,"lon":5.365554,"is_reserved":false,"is_disabled":false,"rental_uris":{"android":"levelo://app?vid=00f2924f-54c9-4c65-aacb-f84dbb9594fc","ios":"levelo://app?vid=00f2924f-54c9-4c65-aacb-f84dbb9594fc"},"vehicle_type_id":"4","last_reported":1703102874,"current_range_meters":24800,"station_id":"ce4bgm92rcd13ifvqbr0","pricing_plan_id":"free"},{"bike_id":"2595dc13-9125-4ffb-a06b-de525786f682","system_id":"levelo_inurba_marseille","lat":43.299222,"lon":5.365554,"is_reserved":false,"is_disabled":false,"rental_uris":{"android":"levelo://app?vid=2595dc13-9125-4ffb-a06b-de525786f682","ios":"levelo://app?vid=2595dc13-9125-4ffb-a06b-de525786f682"},"vehicle_type_id":"4","last_reported":1703102874,"current_range_meters":4400,"station_id":"ce4bgm92rcd13ifvqbr0","pricing_plan_id":"free"},{"bike_id":"cc349733-9e3e-4d13-b27b-febaf8cb0f14","system_id":"levelo_inurba_marseille","lat":43.299724,"lon":5.371829,"is_reserved":false,"is_disabled":false,"rental_uris":{"android":"levelo://app?vid=cc349733-9e3e-4d13-b27b-febaf8cb0f14","ios":"levelo://app?vid=cc349733-9e3e-4d13-b27b-febaf8cb0f14"},"vehicle_type_id":"4","last_reported":1703102874,"current_range_meters":26800,"station_id":"ce4bgr92rcd13ifvqc7g","pricing_plan_id":"free"},{"bike_id":"1db9b9d0-0db7-4263-8806-29dc522f1cf0","system_id":"levelo_inurba_marseille","lat":43.299222,"lon":5.365554,"is_reserved":false,"is_disabled":false,"rental_uris":{"android":"levelo://app?vid=1db9b9d0-0db7-4263-8806-29dc522f1cf0","ios":"levelo://app?vid=1db9b9d0-0db7-4263-8806-29dc522f1cf0"},"vehicle_type_id":"4","last_reported":1703102874,"current_range_meters":30000,"station_id":"ce4bgm92rcd13ifvqbr0","pricing_plan_id":"free"},{"bike_id":"f1f0042a-0e0a-4a69-b7ee-26da2b50d186","system_id":"levelo_inurba_marseille","lat":43.299724,"lon":5.371829,"is_reserved":false,"is_disabled":false,"rental_uris":{"android":"levelo://app?vid=f1f0042a-0e0a-4a69-b7ee-26da2b50d186","ios":"levelo://app?vid=f1f0042a-0e0a-4a69-b7ee-26da2b50d186"},"vehicle_type_id":"4","last_reported":1703102874,"current_range_meters":25600,"station_id":"ce4bgr92rcd13ifvqc7g","pricing_plan_id":"free"},{"bike_id":"fe77a547-6306-47b0-8a63-2fc277c9d496","system_id":"levelo_inurba_marseille","lat":43.305364,"lon":5.384119,"is_reserved":false,"is_disabled":false,"rental_uris":{"android":"levelo://app?vid=fe77a547-6306-47b0-8a63-2fc277c9d496","ios":"levelo://app?vid=fe77a547-6306-47b0-8a63-2fc277c9d496"},"vehicle_type_id":"4","last_reported":1703102874,"current_range_meters":30400,"station_id":"ce4bgg92rcd13ifvqb30","pricing_plan_id":"free"},{"bike_id":"ed2f70b4-7307-4ae4-ae27-b819163354de","system_id":"levelo_inurba_marseille","lat":43.305364,"lon":5.384119,"is_reserved":false,"is_disabled":false,"rental_uris":{"android":"levelo://app?vid=ed2f70b4-7307-4ae4-ae27-b819163354de","ios":"levelo://app?vid=ed2f70b4-7307-4ae4-ae27-b819163354de"},"vehicle_type_id":"4","last_reported":1703102874,"current_range_meters":31200,"station_id":"ce4bgg92rcd13ifvqb30","pricing_plan_id":"free"},{"bike_id":"5536b8d8-8930-4e63-a363-5329e80e9a9f","system_id":"levelo_inurba_marseille","lat":43.298433,"lon":5.362774,"is_reserved":false,"is_disabled":false,"rental_uris":{"android":"levelo://app?vid=5536b8d8-8930-4e63-a363-5329e80e9a9f","ios":"levelo://app?vid=5536b8d8-8930-4e63-a363-5329e80e9a9f"},"vehicle_type_id":"4","last_reported":1703102874,"current_range_meters":28000,"station_id":"ce4bgpp2rcd13ifvqc3g","pricing_plan_id":"free"},{"bike_id":"e6af105f-3b2c-4d1f-8369-14c60597678b","system_id":"levelo_inurba_marseille","lat":43.30538,"lon":5.3844,"is_reserved":false,"is_disabled":false,"rental_uris":{"android":"levelo://app?vid=e6af105f-3b2c-4d1f-8369-14c60597678b","ios":"levelo://app?vid=e6af105f-3b2c-4d1f-8369-14c60597678b"},"vehicle_type_id":"4","last_reported":1703102874,"current_range_meters":7200,"station_id":"","pricing_plan_id":"free"},{"bike_id":"76644617-8f77-4f52-b47c-c67ec66e22f9","system_id":"levelo_inurba_marseille","lat":43.311722,"lon":5.387247,"is_reserved":false,"is_disabled":false,"rental_uris":{"android":"levelo://app?vid=76644617-8f77-4f52-b47c-c67ec66e22f9","ios":"levelo://app?vid=76644617-8f77-4f52-b47c-c67ec66e22f9"},"vehicle_type_id":"4","last_reported":1703102874,"current_range_meters":31200,"station_id":"ce4bgv12rcd13ifvqcp0","pricing_plan_id":"free"},{"bike_id":"59f78105-95b0-49b7-9ec6-adaeaf9784cb","system_id":"levelo_inurba_marseille","lat":43.311722,"lon":5.387247,"is_reserved":false,"is_disabled":false,"rental_uris":{"android":"levelo://app?vid=59f78105-95b0-49b7-9ec6-adaeaf9784cb","ios":"levelo://app?vid=59f78105-95b0-49b7-9ec6-adaeaf9784cb"},"vehicle_type_id":"4","last_reported":1703102874,"current_range_meters":18000,"station_id":"ce4bgv12rcd13ifvqcp0","pricing_plan_id":"free"},{"bike_id":"f75574c7-4b9f-4d54-bec2-4fe5197acad8","system_id":"levelo_inurba_marseille","lat":43.311722,"lon":5.387247,"is_reserved":false,"is_disabled":false,"rental_uris":{"android":"levelo://app?vid=f75574c7-4b9f-4d54-bec2-4fe5197acad8","ios":"levelo://app?vid=f75574c7-4b9f-4d54-bec2-4fe5197acad8"},"vehicle_type_id":"4","last_reported":1703102874,"current_range_meters":20800,"station_id":"ce4bgv12rcd13ifvqcp0","pricing_plan_id":"free"},{"bike_id":"1b77dd70-b491-4da0-8f7e-06bdc7d43dbf","system_id":"levelo_inurba_marseille","lat":43.311722,"lon":5.387247,"is_reserved":false,"is_disabled":false,"rental_uris":{"android":"levelo://app?vid=1b77dd70-b491-4da0-8f7e-06bdc7d43dbf","ios":"levelo://app?vid=1b77dd70-b491-4da0-8f7e-06bdc7d43dbf"},"vehicle_type_id":"4","last_reported":1703102874,"current_range_meters":32000,"station_id":"ce4bgv12rcd13ifvqcp0","pricing_plan_id":"free"},{"bike_id":"6e1a1d7a-48d9-46ce-beb8-d648a2cc5663","system_id":"levelo_inurba_marseille","lat":43.311722,"lon":5.387247,"is_reserved":false,"is_disabled":false,"rental_uris":{"android":"levelo://app?vid=6e1a1d7a-48d9-46ce-beb8-d648a2cc5663","ios":"levelo://app?vid=6e1a1d7a-48d9-46ce-beb8-d648a2cc5663"},"vehicle_type_id":"4","last_reported":1703102874,"current_range_meters":26800,"station_id":"ce4bgv12rcd13ifvqcp0","pricing_plan_id":"free"},{"bike_id":"4b2d9bb1-5fa8-4bdf-92e9-6c6338df3907","system_id":"levelo_inurba_marseille","lat":43.311722,"lon":5.387247,"is_reserved":false,"is_disabled":false,"rental_uris":{"android":"levelo://app?vid=4b2d9bb1-5fa8-4bdf-92e9-6c6338df3907","ios":"levelo://app?vid=4b2d9bb1-5fa8-4bdf-92e9-6c6338df3907"},"vehicle_type_id":"4","last_reported":1703102874,"current_range_meters":28000,"station_id":"ce4bgv12rcd13ifvqcp0","pricing_plan_id":"free"},{"bike_id":"01eeaa2a-525d-4b93-9362-ce2bbd166832","system_id":"levelo_inurba_marseille","lat":43.311722,"lon":5.387247,"is_reserved":false,"is_disabled":false,"rental_uris":{"android":"levelo://app?vid=01eeaa2a-525d-4b93-9362-ce2bbd166832","ios":"levelo://app?vid=01eeaa2a-525d-4b93-9362-ce2bbd166832"},"vehicle_type_id":"4","last_reported":1703102874,"current_range_meters":11200,"station_id":"ce4bgv12rcd13ifvqcp0","pricing_plan_id":"free"},{"bike_id":"e3a096a9-0e6e-4a62-bd9d-9bba124181e0","system_id":"levelo_inurba_marseille","lat":43.311722,"lon":5.387247,"is_reserved":false,"is_disabled":false,"rental_uris":{"android":"levelo://app?vid=e3a096a9-0e6e-4a62-bd9d-9bba124181e0","ios":"levelo://app?vid=e3a096a9-0e6e-4a62-bd9d-9bba124181e0"},"vehicle_type_id":"4","last_reported":1703102874,"current_range_meters":16000,"station_id":"ce4bgv12rcd13ifvqcp0","pricing_plan_id":"free"},{"bike_id":"891bce01-0e20-4522-b6f8-f2b06de0dc15","system_id":"levelo_inurba_marseille","lat":43.297774,"lon":5.370875,"is_reserved":false,"is_disabled":false,"rental_uris":{"android":"levelo://app?vid=891bce01-0e20-4522-b6f8-f2b06de0dc15","ios":"levelo://app?vid=891bce01-0e20-4522-b6f8-f2b06de0dc15"},"vehicle_type_id":"4","last_reported":1703102874,"current_range_meters":12400,"station_id":"ce4bgop2rcd13ifvqc1g","pricing_plan_id":"free"},{"bike_id":"88b68990-d78b-4af9-bf29-7cca5c3121f7","system_id":"levelo_inurba_marseille","lat":43.297774,"lon":5.370875,"is_reserved":false,"is_disabled":false,"rental_uris":{"android":"levelo://app?vid=88b68990-d78b-4af9-bf29-7cca5c3121f7","ios":"levelo://app?vid=88b68990-d78b-4af9-bf29-7cca5c3121f7"},"vehicle_type_id":"4","last_reported":1703102874,"current_range_meters":23600,"station_id":"ce4bgop2rcd13ifvqc1g","pricing_plan_id":"free"},{"bike_id":"b209b91e-f95c-4c8a-b85c-6c83d55c8c8c","system_id":"levelo_inurba_marseille","lat":43.322872,"lon":5.382756,"is_reserved":false,"is_disabled":false,"rental_uris":{"android":"levelo://app?vid=b209b91e-f95c-4c8a-b85c-6c83d55c8c8c","ios":"levelo://app?vid=b209b91e-f95c-4c8a-b85c-6c83d55c8c8c"},"vehicle_type_id":"4","last_reported":1703102874,"current_range_meters":4000,"station_id":"ce4bhr12rcd13ifvqhqg","pricing_plan_id":"free"},{"bike_id":"b2a7efdb-da82-4e44-b62e-3b38d89a8182","system_id":"levelo_inurba_marseille","lat":43.297774,"lon":5.370875,"is_reserved":false,"is_disabled":false,"rental_uris":{"android":"levelo://app?vid=b2a7efdb-da82-4e44-b62e-3b38d89a8182","ios":"levelo://app?vid=b2a7efdb-da82-4e44-b62e-3b38d89a8182"},"vehicle_type_id":"4","last_reported":1703102874,"current_range_meters":9600,"station_id":"ce4bgop2rcd13ifvqc1g","pricing_plan_id":"free"},{"bike_id":"b8d2d249-a3a6-4543-b1c7-6b3650de13c5","system_id":"levelo_inurba_marseille","lat":43.322872,"lon":5.382756,"is_reserved":false,"is_disabled":false,"rental_uris":{"android":"levelo://app?vid=b8d2d249-a3a6-4543-b1c7-6b3650de13c5","ios":"levelo://app?vid=b8d2d249-a3a6-4543-b1c7-6b3650de13c5"},"vehicle_type_id":"4","last_reported":1703102874,"current_range_meters":31600,"station_id":"ce4bhr12rcd13ifvqhqg","pricing_plan_id":"free"},{"bike_id":"c22e4b9f-ba20-4a7c-a7c8-fd0a73d903e0","system_id":"levelo_inurba_marseille","lat":43.328371,"lon":5.366909,"is_reserved":false,"is_disabled":false,"rental_uris":{"android":"levelo://app?vid=c22e4b9f-ba20-4a7c-a7c8-fd0a73d903e0","ios":"levelo://app?vid=c22e4b9f-ba20-4a7c-a7c8-fd0a73d903e0"},"vehicle_type_id":"4","last_reported":1703102874,"current_range_meters":22000,"station_id":"ce4bhs92rcd13ifvqi0g","pricing_plan_id":"free"},{"bike_id":"cb97846c-9508-4ec4-82fd-1a637ef7dd90","system_id":"levelo_inurba_marseille","lat":43.328371,"lon":5.366909,"is_reserved":false,"is_disabled":false,"rental_uris":{"android":"levelo://app?vid=cb97846c-9508-4ec4-82fd-1a637ef7dd90","ios":"levelo://app?vid=cb97846c-9508-4ec4-82fd-1a637ef7dd90"},"vehicle_type_id":"4","last_reported":1703102874,"current_range_meters":0,"station_id":"ce4bhs92rcd13ifvqi0g","pricing_plan_id":"free"},{"bike_id":"2a8a59a2-86cc-48a9-8714-ae0edcb4d489","system_id":"levelo_inurba_marseille","lat":43.328371,"lon":5.366909,"is_reserved":false,"is_disabled":false,"rental_uris":{"android":"levelo://app?vid=2a8a59a2-86cc-48a9-8714-ae0edcb4d489","ios":"levelo://app?vid=2a8a59a2-86cc-48a9-8714-ae0edcb4d489"},"vehicle_type_id":"4","last_reported":1703102874,"current_range_meters":1200,"station_id":"ce4bhs92rcd13ifvqi0g","pricing_plan_id":"free"},{"bike_id":"59581a9c-f177-4a96-aea6-b7baaa49a6a3","system_id":"levelo_inurba_marseille","lat":43.328371,"lon":5.366909,"is_reserved":false,"is_disabled":false,"rental_uris":{"android":"levelo://app?vid=59581a9c-f177-4a96-aea6-b7baaa49a6a3","ios":"levelo://app?vid=59581a9c-f177-4a96-aea6-b7baaa49a6a3"},"vehicle_type_id":"4","last_reported":1703102874,"current_range_meters":28800,"station_id":"ce4bhs92rcd13ifvqi0g","pricing_plan_id":"free"},{"bike_id":"c12df297-168e-4ca3-95d9-a300ff1ffbd9","system_id":"levelo_inurba_marseille","lat":43.328371,"lon":5.366909,"is_reserved":false,"is_disabled":false,"rental_uris":{"android":"levelo://app?vid=c12df297-168e-4ca3-95d9-a300ff1ffbd9","ios":"levelo://app?vid=c12df297-168e-4ca3-95d9-a300ff1ffbd9"},"vehicle_type_id":"4","last_reported":1703102874,"current_range_meters":28800,"station_id":"ce4bhs92rcd13ifvqi0g","pricing_plan_id":"free"},{"bike_id":"eb8ebe7d-6983-4780-997c-9447c3c0c6e2","system_id":"levelo_inurba_marseille","lat":43.328371,"lon":5.366909,"is_reserved":false,"is_disabled":false,"rental_uris":{"android":"levelo://app?vid=eb8ebe7d-6983-4780-997c-9447c3c0c6e2","ios":"levelo://app?vid=eb8ebe7d-6983-4780-997c-9447c3c0c6e2"},"vehicle_type_id":"4","last_reported":1703102874,"current_range_meters":27600,"station_id":"ce4bhs92rcd13ifvqi0g","pricing_plan_id":"free"},{"bike_id":"bc81749c-97ac-487a-bc93-76443e598803","system_id":"levelo_inurba_marseille","lat":43.328371,"lon":5.366909,"is_reserved":false,"is_disabled":false,"rental_uris":{"android":"levelo://app?vid=bc81749c-97ac-487a-bc93-76443e598803","ios":"levelo://app?vid=bc81749c-97ac-487a-bc93-76443e598803"},"vehicle_type_id":"4","last_reported":1703102874,"current_range_meters":4000,"station_id":"ce4bhs92rcd13ifvqi0g","pricing_plan_id":"free"},{"bike_id":"b1450534-e6e4-4db7-8974-e53098c3230a","system_id":"levelo_inurba_marseille","lat":43.299028,"lon":5.381509,"is_reserved":false,"is_disabled":false,"rental_uris":{"android":"levelo://app?vid=b1450534-e6e4-4db7-8974-e53098c3230a","ios":"levelo://app?vid=b1450534-e6e4-4db7-8974-e53098c3230a"},"vehicle_type_id":"4","last_reported":1703102874,"current_range_meters":2800,"station_id":"ce4bgj12rcd13ifvqbc0","pricing_plan_id":"free"},{"bike_id":"4f0ea722-be22-42a6-b429-482859122fa1","system_id":"levelo_inurba_marseille","lat":43.299028,"lon":5.381509,"is_reserved":false,"is_disabled":false,"rental_uris":{"android":"levelo://app?vid=4f0ea722-be22-42a6-b429-482859122fa1","ios":"levelo://app?vid=4f0ea722-be22-42a6-b429-482859122fa1"},"vehicle_type_id":"4","last_reported":1703102874,"current_range_meters":8800,"station_id":"ce4bgj12rcd13ifvqbc0","pricing_plan_id":"free"},{"bike_id":"342d9094-485e-4c26-b110-017fd803855a","system_id":"levelo_inurba_marseille","lat":43.296921,"lon":5.376579,"is_reserved":false,"is_disabled":false,"rental_uris":{"android":"levelo://app?vid=342d9094-485e-4c26-b110-017fd803855a","ios":"levelo://app?vid=342d9094-485e-4c26-b110-017fd803855a"},"vehicle_type_id":"4","last_reported":1703102874,"current_range_meters":4000,"station_id":"ce4bgkh2rcd13ifvqbl0","pricing_plan_id":"free"},{"bike_id":"cb7ed076-dd47-4eb3-8e54-84931d5fd772","system_id":"levelo_inurba_marseille","lat":43.309589,"lon":5.390258,"is_reserved":false,"is_disabled":false,"rental_uris":{"android":"levelo://app?vid=cb7ed076-dd47-4eb3-8e54-84931d5fd772","ios":"levelo://app?vid=cb7ed076-dd47-4eb3-8e54-84931d5fd772"},"vehicle_type_id":"4","last_reported":1703102874,"current_range_meters":0,"station_id":"ce4bgup2rcd13ifvqco0","pricing_plan_id":"free"},{"bike_id":"0b302c3a-0edd-4d80-b6a2-0e41892114c5","system_id":"levelo_inurba_marseille","lat":43.317557,"lon":5.390173,"is_reserved":false,"is_disabled":false,"rental_uris":{"android":"levelo://app?vid=0b302c3a-0edd-4d80-b6a2-0e41892114c5","ios":"levelo://app?vid=0b302c3a-0edd-4d80-b6a2-0e41892114c5"},"vehicle_type_id":"4","last_reported":1703102874,"current_range_meters":8400,"station_id":"ce4bhqp2rcd13ifvqhng","pricing_plan_id":"free"},{"bike_id":"c4c1f64a-485a-4c35-b278-a49cef644f05","system_id":"levelo_inurba_marseille","lat":43.317557,"lon":5.390173,"is_reserved":false,"is_disabled":false,"rental_uris":{"android":"levelo://app?vid=c4c1f64a-485a-4c35-b278-a49cef644f05","ios":"levelo://app?vid=c4c1f64a-485a-4c35-b278-a49cef644f05"},"vehicle_type_id":"4","last_reported":1703102874,"current_range_meters":12800,"station_id":"ce4bhqp2rcd13ifvqhng","pricing_plan_id":"free"},{"bike_id":"a3b5723f-773e-4907-9274-da75f1e24c14","system_id":"levelo_inurba_marseille","lat":43.317557,"lon":5.390173,"is_reserved":false,"is_disabled":false,"rental_uris":{"android":"levelo://app?vid=a3b5723f-773e-4907-9274-da75f1e24c14","ios":"levelo://app?vid=a3b5723f-773e-4907-9274-da75f1e24c14"},"vehicle_type_id":"4","last_reported":1703102874,"current_range_meters":29200,"station_id":"ce4bhqp2rcd13ifvqhng","pricing_plan_id":"free"},{"bike_id":"49fe7b74-60d1-408e-a267-ca8f89bc4f84","system_id":"levelo_inurba_marseille","lat":43.298037,"lon":5.381066,"is_reserved":false,"is_disabled":false,"rental_uris":{"android":"levelo://app?vid=49fe7b74-60d1-408e-a267-ca8f89bc4f84","ios":"levelo://app?vid=49fe7b74-60d1-408e-a267-ca8f89bc4f84"},"vehicle_type_id":"4","last_reported":1703102874,"current_range_meters":5600,"station_id":"ce4bgip2rcd13ifvqbb0","pricing_plan_id":"free"},{"bike_id":"48ad12d7-1b9b-4003-b7bf-bfa89a79b44f","system_id":"levelo_inurba_marseille","lat":43.304244,"lon":5.38889,"is_reserved":false,"is_disabled":false,"rental_uris":{"android":"levelo://app?vid=48ad12d7-1b9b-4003-b7bf-bfa89a79b44f","ios":"levelo://app?vid=48ad12d7-1b9b-4003-b7bf-bfa89a79b44f"},"vehicle_type_id":"4","last_reported":1703102874,"current_range_meters":20000,"station_id":"","pricing_plan_id":"free"},{"bike_id":"a8f7a5dd-07d3-4d83-b74f-ed61ce5345cd","system_id":"levelo_inurba_marseille","lat":43.304278,"lon":5.388868,"is_reserved":false,"is_disabled":false,"rental_uris":{"android":"levelo://app?vid=a8f7a5dd-07d3-4d83-b74f-ed61ce5345cd","ios":"levelo://app?vid=a8f7a5dd-07d3-4d83-b74f-ed61ce5345cd"},"vehicle_type_id":"4","last_reported":1703102874,"current_range_meters":2000,"station_id":"ce4bgk12rcd13ifvqbi0","pricing_plan_id":"free"},{"bike_id":"4c05e0f6-82c0-4d31-b75b-88108c8e882b","system_id":"levelo_inurba_marseille","lat":43.299707,"lon":5.384859,"is_reserved":false,"is_disabled":false,"rental_uris":{"android":"levelo://app?vid=4c05e0f6-82c0-4d31-b75b-88108c8e882b","ios":"levelo://app?vid=4c05e0f6-82c0-4d31-b75b-88108c8e882b"},"vehicle_type_id":"4","last_reported":1703102874,"current_range_meters":25200,"station_id":"ce4bgj92rcd13ifvqbd0","pricing_plan_id":"free"},{"bike_id":"6caaea5d-70d6-42f0-9cad-1c8e9cff194d","system_id":"levelo_inurba_marseille","lat":43.299724,"lon":5.384848,"is_reserved":false,"is_disabled":false,"rental_uris":{"android":"levelo://app?vid=6caaea5d-70d6-42f0-9cad-1c8e9cff194d","ios":"levelo://app?vid=6caaea5d-70d6-42f0-9cad-1c8e9cff194d"},"vehicle_type_id":"4","last_reported":1703102874,"current_range_meters":14000,"station_id":"ce4bgj92rcd13ifvqbd0","pricing_plan_id":"free"},{"bike_id":"34d24a16-a9a8-4580-a206-c43cfb8ef68b","system_id":"levelo_inurba_marseille","lat":43.299717,"lon":5.384845,"is_reserved":false,"is_disabled":false,"rental_uris":{"android":"levelo://app?vid=34d24a16-a9a8-4580-a206-c43cfb8ef68b","ios":"levelo://app?vid=34d24a16-a9a8-4580-a206-c43cfb8ef68b"},"vehicle_type_id":"4","last_reported":1703102874,"current_range_meters":10000,"station_id":"ce4bgj92rcd13ifvqbd0","pricing_plan_id":"free"},{"bike_id":"d89a6a0f-5ebb-492a-bb7f-450b4e71a42c","system_id":"levelo_inurba_marseille","lat":43.32367,"lon":5.388836,"is_reserved":false,"is_disabled":false,"rental_uris":{"android":"levelo://app?vid=d89a6a0f-5ebb-492a-bb7f-450b4e71a42c","ios":"levelo://app?vid=d89a6a0f-5ebb-492a-bb7f-450b4e71a42c"},"vehicle_type_id":"4","last_reported":1703102874,"current_range_meters":16800,"station_id":"ce4bhqp2rcd13ifvqhog","pricing_plan_id":"free"},{"bike_id":"39a5a7f1-613e-4ce9-85dc-bf406e7675c4","system_id":"levelo_inurba_marseille","lat":43.32367,"lon":5.388836,"is_reserved":false,"is_disabled":false,"rental_uris":{"android":"levelo://app?vid=39a5a7f1-613e-4ce9-85dc-bf406e7675c4","ios":"levelo://app?vid=39a5a7f1-613e-4ce9-85dc-bf406e7675c4"},"vehicle_type_id":"4","last_reported":1703102874,"current_range_meters":3200,"station_id":"ce4bhqp2rcd13ifvqhog","pricing_plan_id":"free"},{"bike_id":"f0a34e7b-f040-4d15-9631-83e172153a64","system_id":"levelo_inurba_marseille","lat":43.29601,"lon":5.381084,"is_reserved":false,"is_disabled":false,"rental_uris":{"android":"levelo://app?vid=f0a34e7b-f040-4d15-9631-83e172153a64","ios":"levelo://app?vid=f0a34e7b-f040-4d15-9631-83e172153a64"},"vehicle_type_id":"4","last_reported":1703102874,"current_range_meters":9600,"station_id":"ce4bgl12rcd13ifvqbo0","pricing_plan_id":"free"},{"bike_id":"0ba99bb7-7ca5-48e1-bca3-0771a2b36c1f","system_id":"levelo_inurba_marseille","lat":43.29601,"lon":5.381084,"is_reserved":false,"is_disabled":false,"rental_uris":{"android":"levelo://app?vid=0ba99bb7-7ca5-48e1-bca3-0771a2b36c1f","ios":"levelo://app?vid=0ba99bb7-7ca5-48e1-bca3-0771a2b36c1f"},"vehicle_type_id":"4","last_reported":1703102874,"current_range_meters":27200,"station_id":"ce4bgl12rcd13ifvqbo0","pricing_plan_id":"free"},{"bike_id":"2e503fb2-c6a6-43ed-b081-e51889f12a30","system_id":"levelo_inurba_marseille","lat":43.293259,"lon":5.371586,"is_reserved":false,"is_disabled":false,"rental_uris":{"android":"levelo://app?vid=2e503fb2-c6a6-43ed-b081-e51889f12a30","ios":"levelo://app?vid=2e503fb2-c6a6-43ed-b081-e51889f12a30"},"vehicle_type_id":"4","last_reported":1703102874,"current_range_meters":10000,"station_id":"ce4bgh92rcd13ifvqb40","pricing_plan_id":"free"},{"bike_id":"be05e9ca-3634-4156-b347-5b9055661675","system_id":"levelo_inurba_marseille","lat":43.293009,"lon":5.374584,"is_reserved":false,"is_disabled":false,"rental_uris":{"android":"levelo://app?vid=be05e9ca-3634-4156-b347-5b9055661675","ios":"levelo://app?vid=be05e9ca-3634-4156-b347-5b9055661675"},"vehicle_type_id":"4","last_reported":1703102874,"current_range_meters":12800,"station_id":"ce4bgi12rcd13ifvqb70","pricing_plan_id":"free"},{"bike_id":"a037ce8c-b71f-4518-9c71-db8f9a3f8d3a","system_id":"levelo_inurba_marseille","lat":43.29366,"lon":5.37853,"is_reserved":false,"is_disabled":false,"rental_uris":{"android":"levelo://app?vid=a037ce8c-b71f-4518-9c71-db8f9a3f8d3a","ios":"levelo://app?vid=a037ce8c-b71f-4518-9c71-db8f9a3f8d3a"},"vehicle_type_id":"4","last_reported":1703102874,"current_range_meters":7200,"station_id":"ce4bgjh2rcd13ifvqbf0","pricing_plan_id":"free"},{"bike_id":"7292012f-da9d-4ad7-9b4e-d7a0ddf2cd79","system_id":"levelo_inurba_marseille","lat":43.292311,"lon":5.360731,"is_reserved":false,"is_disabled":false,"rental_uris":{"android":"levelo://app?vid=7292012f-da9d-4ad7-9b4e-d7a0ddf2cd79","ios":"levelo://app?vid=7292012f-da9d-4ad7-9b4e-d7a0ddf2cd79"},"vehicle_type_id":"4","last_reported":1703102874,"current_range_meters":0,"station_id":"ce4bhbh2rcd13ifvqeqg","pricing_plan_id":"free"},{"bike_id":"67dbc710-e248-4701-92da-b94e6f063a32","system_id":"levelo_inurba_marseille","lat":43.32297,"lon":5.39239,"is_reserved":false,"is_disabled":false,"rental_uris":{"android":"levelo://app?vid=67dbc710-e248-4701-92da-b94e6f063a32","ios":"levelo://app?vid=67dbc710-e248-4701-92da-b94e6f063a32"},"vehicle_type_id":"4","last_reported":1703102874,"current_range_meters":3200,"station_id":"","pricing_plan_id":"free"},{"bike_id":"d827b38c-009e-43ac-9e3d-44f3c6773383","system_id":"levelo_inurba_marseille","lat":43.30085,"lon":5.390856,"is_reserved":false,"is_disabled":false,"rental_uris":{"android":"levelo://app?vid=d827b38c-009e-43ac-9e3d-44f3c6773383","ios":"levelo://app?vid=d827b38c-009e-43ac-9e3d-44f3c6773383"},"vehicle_type_id":"4","last_reported":1703102874,"current_range_meters":25200,"station_id":"ce4bh192rcd13ifvqdb0","pricing_plan_id":"free"},{"bike_id":"ca968f59-2f3f-4506-a064-280729eb7878","system_id":"levelo_inurba_marseille","lat":43.29879,"lon":5.38898,"is_reserved":false,"is_disabled":false,"rental_uris":{"android":"levelo://app?vid=ca968f59-2f3f-4506-a064-280729eb7878","ios":"levelo://app?vid=ca968f59-2f3f-4506-a064-280729eb7878"},"vehicle_type_id":"4","last_reported":1703102874,"current_range_meters":27200,"station_id":"","pricing_plan_id":"free"},{"bike_id":"d80aacb1-1de2-4c97-bfa7-d79fbffbe39f","system_id":"levelo_inurba_marseille","lat":43.29872,"lon":5.38896,"is_reserved":false,"is_disabled":false,"rental_uris":{"android":"levelo://app?vid=d80aacb1-1de2-4c97-bfa7-d79fbffbe39f","ios":"levelo://app?vid=d80aacb1-1de2-4c97-bfa7-d79fbffbe39f"},"vehicle_type_id":"4","last_reported":1703102874,"current_range_meters":16400,"station_id":"","pricing_plan_id":"free"},{"bike_id":"df478808-8bcb-44d9-b175-88738a5453c3","system_id":"levelo_inurba_marseille","lat":43.29868,"lon":5.38899,"is_reserved":false,"is_disabled":false,"rental_uris":{"android":"levelo://app?vid=df478808-8bcb-44d9-b175-88738a5453c3","ios":"levelo://app?vid=df478808-8bcb-44d9-b175-88738a5453c3"},"vehicle_type_id":"4","last_reported":1703102874,"current_range_meters":0,"station_id":"","pricing_plan_id":"free"},{"bike_id":"671f30a3-d202-4646-8d1a-7feb8b11dce5","system_id":"levelo_inurba_marseille","lat":43.29872,"lon":5.38904,"is_reserved":false,"is_disabled":false,"rental_uris":{"android":"levelo://app?vid=671f30a3-d202-4646-8d1a-7feb8b11dce5","ios":"levelo://app?vid=671f30a3-d202-4646-8d1a-7feb8b11dce5"},"vehicle_type_id":"4","last_reported":1703102874,"current_range_meters":0,"station_id":"","pricing_plan_id":"free"},{"bike_id":"9ca6ec7b-7491-4a7c-9380-3ff2b9e6d4a6","system_id":"levelo_inurba_marseille","lat":43.291675,"lon":5.371583,"is_reserved":false,"is_disabled":false,"rental_uris":{"android":"levelo://app?vid=9ca6ec7b-7491-4a7c-9380-3ff2b9e6d4a6","ios":"levelo://app?vid=9ca6ec7b-7491-4a7c-9380-3ff2b9e6d4a6"},"vehicle_type_id":"4","last_reported":1703102874,"current_range_meters":5200,"station_id":"ce4bha92rcd13ifvqeh0","pricing_plan_id":"free"},{"bike_id":"e5eca80e-f16a-41ee-b5ac-f2f5e49f023b","system_id":"levelo_inurba_marseille","lat":43.29871,"lon":5.38904,"is_reserved":false,"is_disabled":false,"rental_uris":{"android":"levelo://app?vid=e5eca80e-f16a-41ee-b5ac-f2f5e49f023b","ios":"levelo://app?vid=e5eca80e-f16a-41ee-b5ac-f2f5e49f023b"},"vehicle_type_id":"4","last_reported":1703102874,"current_range_meters":17600,"station_id":"","pricing_plan_id":"free"},{"bike_id":"4f128d1d-3e27-4cf1-871c-24e744ff4777","system_id":"levelo_inurba_marseille","lat":43.291671,"lon":5.371575,"is_reserved":false,"is_disabled":false,"rental_uris":{"android":"levelo://app?vid=4f128d1d-3e27-4cf1-871c-24e744ff4777","ios":"levelo://app?vid=4f128d1d-3e27-4cf1-871c-24e744ff4777"},"vehicle_type_id":"4","last_reported":1703102874,"current_range_meters":23200,"station_id":"ce4bha92rcd13ifvqeh0","pricing_plan_id":"free"},{"bike_id":"933b493f-cbf8-4ec3-a8af-115659f0d20e","system_id":"levelo_inurba_marseille","lat":43.291671,"lon":5.371575,"is_reserved":false,"is_disabled":false,"rental_uris":{"android":"levelo://app?vid=933b493f-cbf8-4ec3-a8af-115659f0d20e","ios":"levelo://app?vid=933b493f-cbf8-4ec3-a8af-115659f0d20e"},"vehicle_type_id":"4","last_reported":1703102874,"current_range_meters":25200,"station_id":"ce4bha92rcd13ifvqeh0","pricing_plan_id":"free"},{"bike_id":"9e6574c5-3bc3-4a8c-a0de-d8109c396578","system_id":"levelo_inurba_marseille","lat":43.291675,"lon":5.371583,"is_reserved":false,"is_disabled":false,"rental_uris":{"android":"levelo://app?vid=9e6574c5-3bc3-4a8c-a0de-d8109c396578","ios":"levelo://app?vid=9e6574c5-3bc3-4a8c-a0de-d8109c396578"},"vehicle_type_id":"4","last_reported":1703102874,"current_range_meters":7200,"station_id":"ce4bha92rcd13ifvqeh0","pricing_plan_id":"free"},{"bike_id":"93ef3bba-e74b-4954-965d-bb27c87b80df","system_id":"levelo_inurba_marseille","lat":43.309038,"lon":5.396546,"is_reserved":false,"is_disabled":false,"rental_uris":{"android":"levelo://app?vid=93ef3bba-e74b-4954-965d-bb27c87b80df","ios":"levelo://app?vid=93ef3bba-e74b-4954-965d-bb27c87b80df"},"vehicle_type_id":"4","last_reported":1703102874,"current_range_meters":21200,"station_id":"ce4bh012rcd13ifvqcv0","pricing_plan_id":"free"},{"bike_id":"dbe34c3d-36ef-49cb-b11f-cf7f97e7053f","system_id":"levelo_inurba_marseille","lat":43.313291,"lon":5.396838,"is_reserved":false,"is_disabled":false,"rental_uris":{"android":"levelo://app?vid=dbe34c3d-36ef-49cb-b11f-cf7f97e7053f","ios":"levelo://app?vid=dbe34c3d-36ef-49cb-b11f-cf7f97e7053f"},"vehicle_type_id":"4","last_reported":1703102874,"current_range_meters":23200,"station_id":"ce4bgvp2rcd13ifvqcu0","pricing_plan_id":"free"},{"bike_id":"2f9fa2a4-a0da-4386-a54c-2b6c8ff80cf3","system_id":"levelo_inurba_marseille","lat":43.313291,"lon":5.396838,"is_reserved":false,"is_disabled":false,"rental_uris":{"android":"levelo://app?vid=2f9fa2a4-a0da-4386-a54c-2b6c8ff80cf3","ios":"levelo://app?vid=2f9fa2a4-a0da-4386-a54c-2b6c8ff80cf3"},"vehicle_type_id":"4","last_reported":1703102874,"current_range_meters":8800,"station_id":"ce4bgvp2rcd13ifvqcu0","pricing_plan_id":"free"},{"bike_id":"2b7d92fb-a275-4c79-b06d-20ae4470ba42","system_id":"levelo_inurba_marseille","lat":43.313291,"lon":5.396838,"is_reserved":false,"is_disabled":false,"rental_uris":{"android":"levelo://app?vid=2b7d92fb-a275-4c79-b06d-20ae4470ba42","ios":"levelo://app?vid=2b7d92fb-a275-4c79-b06d-20ae4470ba42"},"vehicle_type_id":"4","last_reported":1703102874,"current_range_meters":29600,"station_id":"ce4bgvp2rcd13ifvqcu0","pricing_plan_id":"free"},{"bike_id":"30ff75dd-2b7b-43ad-b90f-c604db6aa4a1","system_id":"levelo_inurba_marseille","lat":43.309047,"lon":5.396551,"is_reserved":false,"is_disabled":false,"rental_uris":{"android":"levelo://app?vid=30ff75dd-2b7b-43ad-b90f-c604db6aa4a1","ios":"levelo://app?vid=30ff75dd-2b7b-43ad-b90f-c604db6aa4a1"},"vehicle_type_id":"4","last_reported":1703102874,"current_range_meters":24400,"station_id":"ce4bh012rcd13ifvqcv0","pricing_plan_id":"free"},{"bike_id":"ad293b0a-1786-4d2f-a84f-5d3c96e0c51b","system_id":"levelo_inurba_marseille","lat":43.309038,"lon":5.396546,"is_reserved":false,"is_disabled":false,"rental_uris":{"android":"levelo://app?vid=ad293b0a-1786-4d2f-a84f-5d3c96e0c51b","ios":"levelo://app?vid=ad293b0a-1786-4d2f-a84f-5d3c96e0c51b"},"vehicle_type_id":"4","last_reported":1703102874,"current_range_meters":10800,"station_id":"ce4bh012rcd13ifvqcv0","pricing_plan_id":"free"},{"bike_id":"2cf91594-8208-4a31-94ec-b2af8fe8cbf5","system_id":"levelo_inurba_marseille","lat":43.29529,"lon":5.385581,"is_reserved":false,"is_disabled":false,"rental_uris":{"android":"levelo://app?vid=2cf91594-8208-4a31-94ec-b2af8fe8cbf5","ios":"levelo://app?vid=2cf91594-8208-4a31-94ec-b2af8fe8cbf5"},"vehicle_type_id":"4","last_reported":1703102874,"current_range_meters":20400,"station_id":"ce4bgih2rcd13ifvqba0","pricing_plan_id":"free"},{"bike_id":"453e39a1-28bb-43f4-98c2-9c63c2721f28","system_id":"levelo_inurba_marseille","lat":43.29533,"lon":5.38545,"is_reserved":false,"is_disabled":false,"rental_uris":{"android":"levelo://app?vid=453e39a1-28bb-43f4-98c2-9c63c2721f28","ios":"levelo://app?vid=453e39a1-28bb-43f4-98c2-9c63c2721f28"},"vehicle_type_id":"4","last_reported":1703102874,"current_range_meters":0,"station_id":"ce4bgih2rcd13ifvqba0","pricing_plan_id":"free"},{"bike_id":"0fc0c073-39b9-4406-a3b2-86b160a34a0a","system_id":"levelo_inurba_marseille","lat":43.29529,"lon":5.385581,"is_reserved":false,"is_disabled":false,"rental_uris":{"android":"levelo://app?vid=0fc0c073-39b9-4406-a3b2-86b160a34a0a","ios":"levelo://app?vid=0fc0c073-39b9-4406-a3b2-86b160a34a0a"},"vehicle_type_id":"4","last_reported":1703102874,"current_range_meters":13200,"station_id":"ce4bgih2rcd13ifvqba0","pricing_plan_id":"free"},{"bike_id":"e5846db3-0404-41e6-ae4f-1d9985c34c30","system_id":"levelo_inurba_marseille","lat":43.29529,"lon":5.385581,"is_reserved":false,"is_disabled":false,"rental_uris":{"android":"levelo://app?vid=e5846db3-0404-41e6-ae4f-1d9985c34c30","ios":"levelo://app?vid=e5846db3-0404-41e6-ae4f-1d9985c34c30"},"vehicle_type_id":"4","last_reported":1703102874,"current_range_meters":13600,"station_id":"ce4bgih2rcd13ifvqba0","pricing_plan_id":"free"},{"bike_id":"ecf48454-b79e-480e-a155-de7e35fce2d0","system_id":"levelo_inurba_marseille","lat":43.29529,"lon":5.385581,"is_reserved":false,"is_disabled":false,"rental_uris":{"android":"levelo://app?vid=ecf48454-b79e-480e-a155-de7e35fce2d0","ios":"levelo://app?vid=ecf48454-b79e-480e-a155-de7e35fce2d0"},"vehicle_type_id":"4","last_reported":1703102874,"current_range_meters":12800,"station_id":"ce4bgih2rcd13ifvqba0","pricing_plan_id":"free"},{"bike_id":"e1dfbeb2-7b21-4443-b5b2-4c7ce530b3ce","system_id":"levelo_inurba_marseille","lat":43.290779,"lon":5.371482,"is_reserved":false,"is_disabled":false,"rental_uris":{"android":"levelo://app?vid=e1dfbeb2-7b21-4443-b5b2-4c7ce530b3ce","ios":"levelo://app?vid=e1dfbeb2-7b21-4443-b5b2-4c7ce530b3ce"},"vehicle_type_id":"4","last_reported":1703102874,"current_range_meters":13600,"station_id":"ce4bh5p2rcd13ifvqe4g","pricing_plan_id":"free"},{"bike_id":"3dc161c8-6b83-483a-a981-3f5a90a49d83","system_id":"levelo_inurba_marseille","lat":43.290624,"lon":5.359245,"is_reserved":false,"is_disabled":false,"rental_uris":{"android":"levelo://app?vid=3dc161c8-6b83-483a-a981-3f5a90a49d83","ios":"levelo://app?vid=3dc161c8-6b83-483a-a981-3f5a90a49d83"},"vehicle_type_id":"4","last_reported":1703102874,"current_range_meters":12800,"station_id":"ce4bha92rcd13ifvqeg0","pricing_plan_id":"free"},{"bike_id":"3aeb91f9-2751-4389-8c63-94e0a8bbe42a","system_id":"levelo_inurba_marseille","lat":43.290631,"lon":5.359244,"is_reserved":false,"is_disabled":false,"rental_uris":{"android":"levelo://app?vid=3aeb91f9-2751-4389-8c63-94e0a8bbe42a","ios":"levelo://app?vid=3aeb91f9-2751-4389-8c63-94e0a8bbe42a"},"vehicle_type_id":"4","last_reported":1703102874,"current_range_meters":17600,"station_id":"ce4bha92rcd13ifvqeg0","pricing_plan_id":"free"},{"bike_id":"8b6f940b-f9a4-4d3a-a1ef-005fd2b67483","system_id":"levelo_inurba_marseille","lat":43.294153,"lon":5.386305,"is_reserved":false,"is_disabled":false,"rental_uris":{"android":"levelo://app?vid=8b6f940b-f9a4-4d3a-a1ef-005fd2b67483","ios":"levelo://app?vid=8b6f940b-f9a4-4d3a-a1ef-005fd2b67483"},"vehicle_type_id":"4","last_reported":1703102874,"current_range_meters":28400,"station_id":"ce4bh2h2rcd13ifvqdh0","pricing_plan_id":"free"},{"bike_id":"696ee5f2-3b74-447a-95f3-ef9cc8702de8","system_id":"levelo_inurba_marseille","lat":43.294162,"lon":5.386292,"is_reserved":false,"is_disabled":false,"rental_uris":{"android":"levelo://app?vid=696ee5f2-3b74-447a-95f3-ef9cc8702de8","ios":"levelo://app?vid=696ee5f2-3b74-447a-95f3-ef9cc8702de8"},"vehicle_type_id":"4","last_reported":1703102874,"current_range_meters":0,"station_id":"ce4bh2h2rcd13ifvqdh0","pricing_plan_id":"free"},{"bike_id":"2af51aff-170c-4102-80e9-3d3b5b78e2e8","system_id":"levelo_inurba_marseille","lat":43.294162,"lon":5.386292,"is_reserved":false,"is_disabled":false,"rental_uris":{"android":"levelo://app?vid=2af51aff-170c-4102-80e9-3d3b5b78e2e8","ios":"levelo://app?vid=2af51aff-170c-4102-80e9-3d3b5b78e2e8"},"vehicle_type_id":"4","last_reported":1703102874,"current_range_meters":2000,"station_id":"ce4bh2h2rcd13ifvqdh0","pricing_plan_id":"free"},{"bike_id":"44e701a1-4ff6-4fa5-a95f-1210646b51ec","system_id":"levelo_inurba_marseille","lat":43.294153,"lon":5.386305,"is_reserved":false,"is_disabled":false,"rental_uris":{"android":"levelo://app?vid=44e701a1-4ff6-4fa5-a95f-1210646b51ec","ios":"levelo://app?vid=44e701a1-4ff6-4fa5-a95f-1210646b51ec"},"vehicle_type_id":"4","last_reported":1703102874,"current_range_meters":22400,"station_id":"ce4bh2h2rcd13ifvqdh0","pricing_plan_id":"free"},{"bike_id":"8c09a9f5-3c7d-4a8d-a29a-bfbf7b9b3333","system_id":"levelo_inurba_marseille","lat":43.294162,"lon":5.386292,"is_reserved":false,"is_disabled":false,"rental_uris":{"android":"levelo://app?vid=8c09a9f5-3c7d-4a8d-a29a-bfbf7b9b3333","ios":"levelo://app?vid=8c09a9f5-3c7d-4a8d-a29a-bfbf7b9b3333"},"vehicle_type_id":"4","last_reported":1703102874,"current_range_meters":31600,"station_id":"ce4bh2h2rcd13ifvqdh0","pricing_plan_id":"free"},{"bike_id":"15715753-d9fd-4bf2-854b-2269bffc9284","system_id":"levelo_inurba_marseille","lat":43.294153,"lon":5.386305,"is_reserved":false,"is_disabled":false,"rental_uris":{"android":"levelo://app?vid=15715753-d9fd-4bf2-854b-2269bffc9284","ios":"levelo://app?vid=15715753-d9fd-4bf2-854b-2269bffc9284"},"vehicle_type_id":"4","last_reported":1703102874,"current_range_meters":16400,"station_id":"ce4bh2h2rcd13ifvqdh0","pricing_plan_id":"free"},{"bike_id":"259b6592-9e63-48e3-8b7c-e054ace04796","system_id":"levelo_inurba_marseille","lat":43.294162,"lon":5.386292,"is_reserved":false,"is_disabled":false,"rental_uris":{"android":"levelo://app?vid=259b6592-9e63-48e3-8b7c-e054ace04796","ios":"levelo://app?vid=259b6592-9e63-48e3-8b7c-e054ace04796"},"vehicle_type_id":"4","last_reported":1703102874,"current_range_meters":16000,"station_id":"ce4bh2h2rcd13ifvqdh0","pricing_plan_id":"free"},{"bike_id":"730db7c0-96a7-42c4-8698-4b8a702b9888","system_id":"levelo_inurba_marseille","lat":43.294162,"lon":5.386292,"is_reserved":false,"is_disabled":false,"rental_uris":{"android":"levelo://app?vid=730db7c0-96a7-42c4-8698-4b8a702b9888","ios":"levelo://app?vid=730db7c0-96a7-42c4-8698-4b8a702b9888"},"vehicle_type_id":"4","last_reported":1703102874,"current_range_meters":10800,"station_id":"ce4bh2h2rcd13ifvqdh0","pricing_plan_id":"free"},{"bike_id":"84dba46b-fd1d-42fe-be42-919cc1794e41","system_id":"levelo_inurba_marseille","lat":43.294162,"lon":5.386292,"is_reserved":false,"is_disabled":false,"rental_uris":{"android":"levelo://app?vid=84dba46b-fd1d-42fe-be42-919cc1794e41","ios":"levelo://app?vid=84dba46b-fd1d-42fe-be42-919cc1794e41"},"vehicle_type_id":"4","last_reported":1703102874,"current_range_meters":6000,"station_id":"ce4bh2h2rcd13ifvqdh0","pricing_plan_id":"free"},{"bike_id":"c2423f1e-9694-4931-b6a4-1382a2ed1ee1","system_id":"levelo_inurba_marseille","lat":43.294153,"lon":5.386305,"is_reserved":false,"is_disabled":false,"rental_uris":{"android":"levelo://app?vid=c2423f1e-9694-4931-b6a4-1382a2ed1ee1","ios":"levelo://app?vid=c2423f1e-9694-4931-b6a4-1382a2ed1ee1"},"vehicle_type_id":"4","last_reported":1703102874,"current_range_meters":6800,"station_id":"ce4bh2h2rcd13ifvqdh0","pricing_plan_id":"free"},{"bike_id":"680b451e-896b-45cf-a594-de195bae5ee8","system_id":"levelo_inurba_marseille","lat":43.289184,"lon":5.366408,"is_reserved":false,"is_disabled":false,"rental_uris":{"android":"levelo://app?vid=680b451e-896b-45cf-a594-de195bae5ee8","ios":"levelo://app?vid=680b451e-896b-45cf-a594-de195bae5ee8"},"vehicle_type_id":"4","last_reported":1703102874,"current_range_meters":2000,"station_id":"ce4bhap2rcd13ifvqek0","pricing_plan_id":"free"},{"bike_id":"895f19be-3cc0-4999-bd75-311a0e582782","system_id":"levelo_inurba_marseille","lat":43.294162,"lon":5.386292,"is_reserved":false,"is_disabled":false,"rental_uris":{"android":"levelo://app?vid=895f19be-3cc0-4999-bd75-311a0e582782","ios":"levelo://app?vid=895f19be-3cc0-4999-bd75-311a0e582782"},"vehicle_type_id":"4","last_reported":1703102874,"current_range_meters":21600,"station_id":"ce4bh2h2rcd13ifvqdh0","pricing_plan_id":"free"},{"bike_id":"2f01e82a-b054-4efc-b00a-9551e23d9464","system_id":"levelo_inurba_marseille","lat":43.294162,"lon":5.386292,"is_reserved":false,"is_disabled":false,"rental_uris":{"android":"levelo://app?vid=2f01e82a-b054-4efc-b00a-9551e23d9464","ios":"levelo://app?vid=2f01e82a-b054-4efc-b00a-9551e23d9464"},"vehicle_type_id":"4","last_reported":1703102874,"current_range_meters":5600,"station_id":"ce4bh2h2rcd13ifvqdh0","pricing_plan_id":"free"},{"bike_id":"736be525-6e70-4af4-9106-598f786796a3","system_id":"levelo_inurba_marseille","lat":43.294153,"lon":5.386305,"is_reserved":false,"is_disabled":false,"rental_uris":{"android":"levelo://app?vid=736be525-6e70-4af4-9106-598f786796a3","ios":"levelo://app?vid=736be525-6e70-4af4-9106-598f786796a3"},"vehicle_type_id":"4","last_reported":1703102874,"current_range_meters":25600,"station_id":"ce4bh2h2rcd13ifvqdh0","pricing_plan_id":"free"},{"bike_id":"09dba9f2-9969-46b5-b085-b4aef8571e8f","system_id":"levelo_inurba_marseille","lat":43.289184,"lon":5.366408,"is_reserved":false,"is_disabled":false,"rental_uris":{"android":"levelo://app?vid=09dba9f2-9969-46b5-b085-b4aef8571e8f","ios":"levelo://app?vid=09dba9f2-9969-46b5-b085-b4aef8571e8f"},"vehicle_type_id":"4","last_reported":1703102874,"current_range_meters":16400,"station_id":"ce4bhap2rcd13ifvqek0","pricing_plan_id":"free"},{"bike_id":"70321904-6476-4994-982f-cfdc2a0d182a","system_id":"levelo_inurba_marseille","lat":43.289184,"lon":5.366408,"is_reserved":false,"is_disabled":false,"rental_uris":{"android":"levelo://app?vid=70321904-6476-4994-982f-cfdc2a0d182a","ios":"levelo://app?vid=70321904-6476-4994-982f-cfdc2a0d182a"},"vehicle_type_id":"4","last_reported":1703102874,"current_range_meters":22000,"station_id":"ce4bhap2rcd13ifvqek0","pricing_plan_id":"free"},{"bike_id":"fa279741-4769-495d-a769-9fa14238d4b5","system_id":"levelo_inurba_marseille","lat":43.289184,"lon":5.366408,"is_reserved":false,"is_disabled":false,"rental_uris":{"android":"levelo://app?vid=fa279741-4769-495d-a769-9fa14238d4b5","ios":"levelo://app?vid=fa279741-4769-495d-a769-9fa14238d4b5"},"vehicle_type_id":"4","last_reported":1703102874,"current_range_meters":13600,"station_id":"ce4bhap2rcd13ifvqek0","pricing_plan_id":"free"},{"bike_id":"ff70859f-32fa-478e-b2c4-55517ec6c093","system_id":"levelo_inurba_marseille","lat":43.289468,"lon":5.363719,"is_reserved":false,"is_disabled":false,"rental_uris":{"android":"levelo://app?vid=ff70859f-32fa-478e-b2c4-55517ec6c093","ios":"levelo://app?vid=ff70859f-32fa-478e-b2c4-55517ec6c093"},"vehicle_type_id":"4","last_reported":1703102874,"current_range_meters":28800,"station_id":"ce4bhc92rcd13ifvqetg","pricing_plan_id":"free"},{"bike_id":"6a1779af-b548-4528-ac92-d1f376636514","system_id":"levelo_inurba_marseille","lat":43.292644,"lon":5.384257,"is_reserved":false,"is_disabled":false,"rental_uris":{"android":"levelo://app?vid=6a1779af-b548-4528-ac92-d1f376636514","ios":"levelo://app?vid=6a1779af-b548-4528-ac92-d1f376636514"},"vehicle_type_id":"4","last_reported":1703102874,"current_range_meters":18800,"station_id":"ce4bh692rcd13ifvqea0","pricing_plan_id":"free"},{"bike_id":"72ad86ab-6037-4b0c-b815-c56d57114eba","system_id":"levelo_inurba_marseille","lat":43.304296,"lon":5.397513,"is_reserved":false,"is_disabled":false,"rental_uris":{"android":"levelo://app?vid=72ad86ab-6037-4b0c-b815-c56d57114eba","ios":"levelo://app?vid=72ad86ab-6037-4b0c-b815-c56d57114eba"},"vehicle_type_id":"4","last_reported":1703102874,"current_range_meters":10000,"station_id":"ce4bh092rcd13ifvqd20","pricing_plan_id":"free"},{"bike_id":"b010feb0-b0b5-43e1-a9d0-3f8d1c25d648","system_id":"levelo_inurba_marseille","lat":43.292644,"lon":5.384257,"is_reserved":false,"is_disabled":false,"rental_uris":{"android":"levelo://app?vid=b010feb0-b0b5-43e1-a9d0-3f8d1c25d648","ios":"levelo://app?vid=b010feb0-b0b5-43e1-a9d0-3f8d1c25d648"},"vehicle_type_id":"4","last_reported":1703102874,"current_range_meters":16400,"station_id":"ce4bh692rcd13ifvqea0","pricing_plan_id":"free"},{"bike_id":"928a882c-0b5e-459e-8be7-d497620f57db","system_id":"levelo_inurba_marseille","lat":43.304296,"lon":5.397513,"is_reserved":false,"is_disabled":false,"rental_uris":{"android":"levelo://app?vid=928a882c-0b5e-459e-8be7-d497620f57db","ios":"levelo://app?vid=928a882c-0b5e-459e-8be7-d497620f57db"},"vehicle_type_id":"4","last_reported":1703102874,"current_range_meters":20400,"station_id":"ce4bh092rcd13ifvqd20","pricing_plan_id":"free"},{"bike_id":"a443caa4-fbb4-4141-a6fa-faf2d355fe83","system_id":"levelo_inurba_marseille","lat":43.292642,"lon":5.384254,"is_reserved":false,"is_disabled":false,"rental_uris":{"android":"levelo://app?vid=a443caa4-fbb4-4141-a6fa-faf2d355fe83","ios":"levelo://app?vid=a443caa4-fbb4-4141-a6fa-faf2d355fe83"},"vehicle_type_id":"4","last_reported":1703102874,"current_range_meters":13600,"station_id":"ce4bh692rcd13ifvqea0","pricing_plan_id":"free"},{"bike_id":"f3937b4d-3ad7-4b46-92fa-46e55411fb21","system_id":"levelo_inurba_marseille","lat":43.33039,"lon":5.38916,"is_reserved":false,"is_disabled":false,"rental_uris":{"android":"levelo://app?vid=f3937b4d-3ad7-4b46-92fa-46e55411fb21","ios":"levelo://app?vid=f3937b4d-3ad7-4b46-92fa-46e55411fb21"},"vehicle_type_id":"4","last_reported":1703102874,"current_range_meters":9200,"station_id":"ce4bhr92rcd13ifvqhrg","pricing_plan_id":"free"},{"bike_id":"34c65641-4bc1-4197-b217-a76243cd6c9c","system_id":"levelo_inurba_marseille","lat":43.33042,"lon":5.3892,"is_reserved":false,"is_disabled":false,"rental_uris":{"android":"levelo://app?vid=34c65641-4bc1-4197-b217-a76243cd6c9c","ios":"levelo://app?vid=34c65641-4bc1-4197-b217-a76243cd6c9c"},"vehicle_type_id":"4","last_reported":1703102874,"current_range_meters":22800,"station_id":"ce4bhr92rcd13ifvqhrg","pricing_plan_id":"free"},{"bike_id":"03792874-86d9-468e-be10-3c6851108053","system_id":"levelo_inurba_marseille","lat":43.33041,"lon":5.38924,"is_reserved":false,"is_disabled":false,"rental_uris":{"android":"levelo://app?vid=03792874-86d9-468e-be10-3c6851108053","ios":"levelo://app?vid=03792874-86d9-468e-be10-3c6851108053"},"vehicle_type_id":"4","last_reported":1703102874,"current_range_meters":17200,"station_id":"ce4bhr92rcd13ifvqhrg","pricing_plan_id":"free"},{"bike_id":"a44c4c9a-083e-42e6-8e6d-8958a860af21","system_id":"levelo_inurba_marseille","lat":43.33042,"lon":5.38925,"is_reserved":false,"is_disabled":false,"rental_uris":{"android":"levelo://app?vid=a44c4c9a-083e-42e6-8e6d-8958a860af21","ios":"levelo://app?vid=a44c4c9a-083e-42e6-8e6d-8958a860af21"},"vehicle_type_id":"4","last_reported":1703102874,"current_range_meters":18400,"station_id":"ce4bhr92rcd13ifvqhrg","pricing_plan_id":"free"},{"bike_id":"90536312-f14b-4c7d-9b1a-bee06a58535e","system_id":"levelo_inurba_marseille","lat":43.290103,"lon":5.356114,"is_reserved":false,"is_disabled":false,"rental_uris":{"android":"levelo://app?vid=90536312-f14b-4c7d-9b1a-bee06a58535e","ios":"levelo://app?vid=90536312-f14b-4c7d-9b1a-bee06a58535e"},"vehicle_type_id":"4","last_reported":1703102874,"current_range_meters":31200,"station_id":"ce4bhb92rcd13ifvqen0","pricing_plan_id":"free"},{"bike_id":"1fd015e8-3d5a-47c0-b101-51952c952636","system_id":"levelo_inurba_marseille","lat":43.29787,"lon":5.39335,"is_reserved":false,"is_disabled":false,"rental_uris":{"android":"levelo://app?vid=1fd015e8-3d5a-47c0-b101-51952c952636","ios":"levelo://app?vid=1fd015e8-3d5a-47c0-b101-51952c952636"},"vehicle_type_id":"4","last_reported":1703102874,"current_range_meters":6400,"station_id":"chh1huq6cuj3fo74tm60","pricing_plan_id":"free"},{"bike_id":"239864d1-dc86-48aa-805c-795856fcca74","system_id":"levelo_inurba_marseille","lat":43.297815,"lon":5.393548,"is_reserved":false,"is_disabled":false,"rental_uris":{"android":"levelo://app?vid=239864d1-dc86-48aa-805c-795856fcca74","ios":"levelo://app?vid=239864d1-dc86-48aa-805c-795856fcca74"},"vehicle_type_id":"4","last_reported":1703102874,"current_range_meters":23200,"station_id":"chh1huq6cuj3fo74tm60","pricing_plan_id":"free"},{"bike_id":"11bf2d5c-d421-4254-961b-3727fda52c3b","system_id":"levelo_inurba_marseille","lat":43.290995,"lon":5.381361,"is_reserved":false,"is_disabled":false,"rental_uris":{"android":"levelo://app?vid=11bf2d5c-d421-4254-961b-3727fda52c3b","ios":"levelo://app?vid=11bf2d5c-d421-4254-961b-3727fda52c3b"},"vehicle_type_id":"4","last_reported":1703102874,"current_range_meters":19200,"station_id":"ce4bh512rcd13ifvqe2g","pricing_plan_id":"free"},{"bike_id":"dd2e649a-74e9-46d0-8f8e-7c7f8c74fa92","system_id":"levelo_inurba_marseille","lat":43.289741,"lon":5.378306,"is_reserved":false,"is_disabled":false,"rental_uris":{"android":"levelo://app?vid=dd2e649a-74e9-46d0-8f8e-7c7f8c74fa92","ios":"levelo://app?vid=dd2e649a-74e9-46d0-8f8e-7c7f8c74fa92"},"vehicle_type_id":"4","last_reported":1703102874,"current_range_meters":17200,"station_id":"ce4bh9p2rcd13ifvqed0","pricing_plan_id":"free"},{"bike_id":"9dcf3a1a-8210-449b-aa2b-a6489b1f1511","system_id":"levelo_inurba_marseille","lat":43.288528,"lon":5.358672,"is_reserved":false,"is_disabled":false,"rental_uris":{"android":"levelo://app?vid=9dcf3a1a-8210-449b-aa2b-a6489b1f1511","ios":"levelo://app?vid=9dcf3a1a-8210-449b-aa2b-a6489b1f1511"},"vehicle_type_id":"4","last_reported":1703102874,"current_range_meters":16000,"station_id":"","pricing_plan_id":"free"},{"bike_id":"22368dc9-8aba-46d7-8e95-31c17019d674","system_id":"levelo_inurba_marseille","lat":43.28853,"lon":5.35843,"is_reserved":false,"is_disabled":false,"rental_uris":{"android":"levelo://app?vid=22368dc9-8aba-46d7-8e95-31c17019d674","ios":"levelo://app?vid=22368dc9-8aba-46d7-8e95-31c17019d674"},"vehicle_type_id":"4","last_reported":1703102874,"current_range_meters":0,"station_id":"ce4bhb12rcd13ifvqem0","pricing_plan_id":"free"},{"bike_id":"85a87a12-1154-4629-bb3c-1f7d589e7667","system_id":"levelo_inurba_marseille","lat":43.28856,"lon":5.358371,"is_reserved":false,"is_disabled":false,"rental_uris":{"android":"levelo://app?vid=85a87a12-1154-4629-bb3c-1f7d589e7667","ios":"levelo://app?vid=85a87a12-1154-4629-bb3c-1f7d589e7667"},"vehicle_type_id":"4","last_reported":1703102874,"current_range_meters":0,"station_id":"ce4bhb12rcd13ifvqem0","pricing_plan_id":"free"},{"bike_id":"73e010c9-7b74-4f65-ae62-57318c15cb5e","system_id":"levelo_inurba_marseille","lat":43.312609,"lon":5.401662,"is_reserved":false,"is_disabled":false,"rental_uris":{"android":"levelo://app?vid=73e010c9-7b74-4f65-ae62-57318c15cb5e","ios":"levelo://app?vid=73e010c9-7b74-4f65-ae62-57318c15cb5e"},"vehicle_type_id":"4","last_reported":1703102874,"current_range_meters":400,"station_id":"ce4bh092rcd13ifvqd30","pricing_plan_id":"free"},{"bike_id":"efc8b483-666b-48da-afa0-0447382868fd","system_id":"levelo_inurba_marseille","lat":43.337448,"lon":5.374743,"is_reserved":false,"is_disabled":false,"rental_uris":{"android":"levelo://app?vid=efc8b483-666b-48da-afa0-0447382868fd","ios":"levelo://app?vid=efc8b483-666b-48da-afa0-0447382868fd"},"vehicle_type_id":"4","last_reported":1703102874,"current_range_meters":26000,"station_id":"","pricing_plan_id":"free"},{"bike_id":"044fb60b-41f1-4d45-ac78-a005f4ffd2d1","system_id":"levelo_inurba_marseille","lat":43.33755,"lon":5.3745,"is_reserved":false,"is_disabled":false,"rental_uris":{"android":"levelo://app?vid=044fb60b-41f1-4d45-ac78-a005f4ffd2d1","ios":"levelo://app?vid=044fb60b-41f1-4d45-ac78-a005f4ffd2d1"},"vehicle_type_id":"4","last_reported":1703102874,"current_range_meters":22400,"station_id":"","pricing_plan_id":"free"},{"bike_id":"49cd9255-05a6-472c-b1a4-a0d4ff1e81c9","system_id":"levelo_inurba_marseille","lat":43.28727,"lon":5.36078,"is_reserved":false,"is_disabled":false,"rental_uris":{"android":"levelo://app?vid=49cd9255-05a6-472c-b1a4-a0d4ff1e81c9","ios":"levelo://app?vid=49cd9255-05a6-472c-b1a4-a0d4ff1e81c9"},"vehicle_type_id":"4","last_reported":1703102874,"current_range_meters":11200,"station_id":"cki0cbj6b192h4jlfktg","pricing_plan_id":"free"},{"bike_id":"a809d7bb-9bc6-4f6b-9d33-03fe0bf36565","system_id":"levelo_inurba_marseille","lat":43.301117,"lon":5.398795,"is_reserved":false,"is_disabled":false,"rental_uris":{"android":"levelo://app?vid=a809d7bb-9bc6-4f6b-9d33-03fe0bf36565","ios":"levelo://app?vid=a809d7bb-9bc6-4f6b-9d33-03fe0bf36565"},"vehicle_type_id":"4","last_reported":1703102874,"current_range_meters":0,"station_id":"ce4bh0h2rcd13ifvqd40","pricing_plan_id":"free"},{"bike_id":"b44d00f5-284f-45ea-8d94-d8f22c00560e","system_id":"levelo_inurba_marseille","lat":43.28727,"lon":5.36078,"is_reserved":false,"is_disabled":false,"rental_uris":{"android":"levelo://app?vid=b44d00f5-284f-45ea-8d94-d8f22c00560e","ios":"levelo://app?vid=b44d00f5-284f-45ea-8d94-d8f22c00560e"},"vehicle_type_id":"4","last_reported":1703102874,"current_range_meters":27200,"station_id":"cki0cbj6b192h4jlfktg","pricing_plan_id":"free"},{"bike_id":"478682f9-5374-45db-a636-a72b07022bbc","system_id":"levelo_inurba_marseille","lat":43.28727,"lon":5.36078,"is_reserved":false,"is_disabled":false,"rental_uris":{"android":"levelo://app?vid=478682f9-5374-45db-a636-a72b07022bbc","ios":"levelo://app?vid=478682f9-5374-45db-a636-a72b07022bbc"},"vehicle_type_id":"4","last_reported":1703102874,"current_range_meters":22800,"station_id":"cki0cbj6b192h4jlfktg","pricing_plan_id":"free"},{"bike_id":"2adea18e-aae5-4c51-9c1f-a55438aaccc9","system_id":"levelo_inurba_marseille","lat":43.286591,"lon":5.363346,"is_reserved":false,"is_disabled":false,"rental_uris":{"android":"levelo://app?vid=2adea18e-aae5-4c51-9c1f-a55438aaccc9","ios":"levelo://app?vid=2adea18e-aae5-4c51-9c1f-a55438aaccc9"},"vehicle_type_id":"4","last_reported":1703102874,"current_range_meters":19200,"station_id":"ce4bhah2rcd13ifvqej0","pricing_plan_id":"free"},{"bike_id":"d05e487b-334e-461f-886f-c8c49fdd94bd","system_id":"levelo_inurba_marseille","lat":43.298681,"lon":5.397225,"is_reserved":false,"is_disabled":false,"rental_uris":{"android":"levelo://app?vid=d05e487b-334e-461f-886f-c8c49fdd94bd","ios":"levelo://app?vid=d05e487b-334e-461f-886f-c8c49fdd94bd"},"vehicle_type_id":"4","last_reported":1703102874,"current_range_meters":31200,"station_id":"ce4bh0h2rcd13ifvqd50","pricing_plan_id":"free"},{"bike_id":"d9c07ac7-408f-4f56-b698-7e839c120151","system_id":"levelo_inurba_marseille","lat":43.298681,"lon":5.397225,"is_reserved":false,"is_disabled":false,"rental_uris":{"android":"levelo://app?vid=d9c07ac7-408f-4f56-b698-7e839c120151","ios":"levelo://app?vid=d9c07ac7-408f-4f56-b698-7e839c120151"},"vehicle_type_id":"4","last_reported":1703102874,"current_range_meters":13600,"station_id":"ce4bh0h2rcd13ifvqd50","pricing_plan_id":"free"},{"bike_id":"048831e1-2815-4c7c-9dde-2e2d15b385d9","system_id":"levelo_inurba_marseille","lat":43.298681,"lon":5.397225,"is_reserved":false,"is_disabled":false,"rental_uris":{"android":"levelo://app?vid=048831e1-2815-4c7c-9dde-2e2d15b385d9","ios":"levelo://app?vid=048831e1-2815-4c7c-9dde-2e2d15b385d9"},"vehicle_type_id":"4","last_reported":1703102874,"current_range_meters":12400,"station_id":"ce4bh0h2rcd13ifvqd50","pricing_plan_id":"free"},{"bike_id":"c47614fe-c45f-4bf6-93b7-3a44bff82ea5","system_id":"levelo_inurba_marseille","lat":43.298681,"lon":5.397225,"is_reserved":false,"is_disabled":false,"rental_uris":{"android":"levelo://app?vid=c47614fe-c45f-4bf6-93b7-3a44bff82ea5","ios":"levelo://app?vid=c47614fe-c45f-4bf6-93b7-3a44bff82ea5"},"vehicle_type_id":"4","last_reported":1703102874,"current_range_meters":27200,"station_id":"ce4bh0h2rcd13ifvqd50","pricing_plan_id":"free"},{"bike_id":"4ff5873f-ae0a-4131-8e76-8cc1e4bf2479","system_id":"levelo_inurba_marseille","lat":43.29883,"lon":5.39748,"is_reserved":false,"is_disabled":false,"rental_uris":{"android":"levelo://app?vid=4ff5873f-ae0a-4131-8e76-8cc1e4bf2479","ios":"levelo://app?vid=4ff5873f-ae0a-4131-8e76-8cc1e4bf2479"},"vehicle_type_id":"4","last_reported":1703102874,"current_range_meters":31200,"station_id":"ce4bh0h2rcd13ifvqd50","pricing_plan_id":"free"},{"bike_id":"e3bbdbc8-628a-4f63-8fe7-848c56adde6d","system_id":"levelo_inurba_marseille","lat":43.286961,"lon":5.373785,"is_reserved":false,"is_disabled":false,"rental_uris":{"android":"levelo://app?vid=e3bbdbc8-628a-4f63-8fe7-848c56adde6d","ios":"levelo://app?vid=e3bbdbc8-628a-4f63-8fe7-848c56adde6d"},"vehicle_type_id":"4","last_reported":1703102874,"current_range_meters":14800,"station_id":"ce4bh3p2rcd13ifvqdq0","pricing_plan_id":"free"},{"bike_id":"97706363-2167-45c2-ba0c-c9aab733844b","system_id":"levelo_inurba_marseille","lat":43.295196,"lon":5.39397,"is_reserved":false,"is_disabled":false,"rental_uris":{"android":"levelo://app?vid=97706363-2167-45c2-ba0c-c9aab733844b","ios":"levelo://app?vid=97706363-2167-45c2-ba0c-c9aab733844b"},"vehicle_type_id":"4","last_reported":1703102874,"current_range_meters":18800,"station_id":"ce4bh292rcd13ifvqdf0","pricing_plan_id":"free"},{"bike_id":"5041b4ed-1d47-427a-acde-62682335f13d","system_id":"levelo_inurba_marseille","lat":43.291058,"lon":5.387578,"is_reserved":false,"is_disabled":false,"rental_uris":{"android":"levelo://app?vid=5041b4ed-1d47-427a-acde-62682335f13d","ios":"levelo://app?vid=5041b4ed-1d47-427a-acde-62682335f13d"},"vehicle_type_id":"4","last_reported":1703102874,"current_range_meters":0,"station_id":"","pricing_plan_id":"free"},{"bike_id":"48e29879-84c2-44f4-8e88-72c9b2c9b50d","system_id":"levelo_inurba_marseille","lat":43.278128,"lon":5.407195,"is_reserved":false,"is_disabled":false,"rental_uris":{"android":"levelo://app?vid=48e29879-84c2-44f4-8e88-72c9b2c9b50d","ios":"levelo://app?vid=48e29879-84c2-44f4-8e88-72c9b2c9b50d"},"vehicle_type_id":"4","last_reported":1703102874,"current_range_meters":7600,"station_id":"ce4bhnh2rcd13ifvqgtg","pricing_plan_id":"free"},{"bike_id":"af428e4d-86db-44c6-be7b-e3e5f284d608","system_id":"levelo_inurba_marseille","lat":43.302759,"lon":5.400793,"is_reserved":false,"is_disabled":false,"rental_uris":{"android":"levelo://app?vid=af428e4d-86db-44c6-be7b-e3e5f284d608","ios":"levelo://app?vid=af428e4d-86db-44c6-be7b-e3e5f284d608"},"vehicle_type_id":"4","last_reported":1703102874,"current_range_meters":22000,"station_id":"ce4bgvh2rcd13ifvqcs0","pricing_plan_id":"free"},{"bike_id":"39fe5672-b3d3-41ed-90ee-7a52b96b7398","system_id":"levelo_inurba_marseille","lat":43.289307,"lon":5.38406,"is_reserved":false,"is_disabled":false,"rental_uris":{"android":"levelo://app?vid=39fe5672-b3d3-41ed-90ee-7a52b96b7398","ios":"levelo://app?vid=39fe5672-b3d3-41ed-90ee-7a52b96b7398"},"vehicle_type_id":"4","last_reported":1703102874,"current_range_meters":13200,"station_id":"ce4bh612rcd13ifvqe6g","pricing_plan_id":"free"},{"bike_id":"60678b7a-95ca-4a72-b17b-b1f33ed989ec","system_id":"levelo_inurba_marseille","lat":43.316828,"lon":5.404723,"is_reserved":false,"is_disabled":false,"rental_uris":{"android":"levelo://app?vid=60678b7a-95ca-4a72-b17b-b1f33ed989ec","ios":"levelo://app?vid=60678b7a-95ca-4a72-b17b-b1f33ed989ec"},"vehicle_type_id":"4","last_reported":1703102874,"current_range_meters":1200,"station_id":"ce4bh012rcd13ifvqd00","pricing_plan_id":"free"},{"bike_id":"2d7d3016-f401-4d95-bb01-ff7ef0855aae","system_id":"levelo_inurba_marseille","lat":43.316821,"lon":5.404737,"is_reserved":false,"is_disabled":false,"rental_uris":{"android":"levelo://app?vid=2d7d3016-f401-4d95-bb01-ff7ef0855aae","ios":"levelo://app?vid=2d7d3016-f401-4d95-bb01-ff7ef0855aae"},"vehicle_type_id":"4","last_reported":1703102874,"current_range_meters":7200,"station_id":"ce4bh012rcd13ifvqd00","pricing_plan_id":"free"},{"bike_id":"752c2144-d907-4e3e-9794-542d2a6ea155","system_id":"levelo_inurba_marseille","lat":43.29199,"lon":5.39321,"is_reserved":false,"is_disabled":false,"rental_uris":{"android":"levelo://app?vid=752c2144-d907-4e3e-9794-542d2a6ea155","ios":"levelo://app?vid=752c2144-d907-4e3e-9794-542d2a6ea155"},"vehicle_type_id":"4","last_reported":1703102874,"current_range_meters":23200,"station_id":"ce4bh192rcd13ifvqdd0","pricing_plan_id":"free"},{"bike_id":"37ceb457-1c06-43cc-9ebc-e900afd05037","system_id":"levelo_inurba_marseille","lat":43.29189,"lon":5.39321,"is_reserved":false,"is_disabled":false,"rental_uris":{"android":"levelo://app?vid=37ceb457-1c06-43cc-9ebc-e900afd05037","ios":"levelo://app?vid=37ceb457-1c06-43cc-9ebc-e900afd05037"},"vehicle_type_id":"4","last_reported":1703102874,"current_range_meters":24800,"station_id":"ce4bh192rcd13ifvqdd0","pricing_plan_id":"free"},{"bike_id":"400e5b1a-306a-4672-8fba-8fbd5ee124e8","system_id":"levelo_inurba_marseille","lat":43.28465,"lon":5.35878,"is_reserved":false,"is_disabled":false,"rental_uris":{"android":"levelo://app?vid=400e5b1a-306a-4672-8fba-8fbd5ee124e8","ios":"levelo://app?vid=400e5b1a-306a-4672-8fba-8fbd5ee124e8"},"vehicle_type_id":"4","last_reported":1703102874,"current_range_meters":16400,"station_id":"ce4bhah2rcd13ifvqei0","pricing_plan_id":"free"},{"bike_id":"89216e79-3cbd-4003-990b-c120bbe8ba20","system_id":"levelo_inurba_marseille","lat":43.284619,"lon":5.358921,"is_reserved":false,"is_disabled":false,"rental_uris":{"android":"levelo://app?vid=89216e79-3cbd-4003-990b-c120bbe8ba20","ios":"levelo://app?vid=89216e79-3cbd-4003-990b-c120bbe8ba20"},"vehicle_type_id":"4","last_reported":1703102874,"current_range_meters":22400,"station_id":"ce4bhah2rcd13ifvqei0","pricing_plan_id":"free"},{"bike_id":"d3df26d2-b56b-43ab-962d-c5837af0f437","system_id":"levelo_inurba_marseille","lat":43.28462,"lon":5.35881,"is_reserved":false,"is_disabled":false,"rental_uris":{"android":"levelo://app?vid=d3df26d2-b56b-43ab-962d-c5837af0f437","ios":"levelo://app?vid=d3df26d2-b56b-43ab-962d-c5837af0f437"},"vehicle_type_id":"4","last_reported":1703102874,"current_range_meters":5200,"station_id":"ce4bhah2rcd13ifvqei0","pricing_plan_id":"free"},{"bike_id":"821ec46c-0d65-4c45-80b4-bad60b20c148","system_id":"levelo_inurba_marseille","lat":43.294314,"lon":5.397498,"is_reserved":false,"is_disabled":false,"rental_uris":{"android":"levelo://app?vid=821ec46c-0d65-4c45-80b4-bad60b20c148","ios":"levelo://app?vid=821ec46c-0d65-4c45-80b4-bad60b20c148"},"vehicle_type_id":"4","last_reported":1703102874,"current_range_meters":23600,"station_id":"ce4bh3h2rcd13ifvqdo0","pricing_plan_id":"free"},{"bike_id":"dd09a853-65c6-4925-8e1b-ae006bb957a5","system_id":"levelo_inurba_marseille","lat":43.284581,"lon":5.358956,"is_reserved":false,"is_disabled":false,"rental_uris":{"android":"levelo://app?vid=dd09a853-65c6-4925-8e1b-ae006bb957a5","ios":"levelo://app?vid=dd09a853-65c6-4925-8e1b-ae006bb957a5"},"vehicle_type_id":"4","last_reported":1703102874,"current_range_meters":400,"station_id":"ce4bhah2rcd13ifvqei0","pricing_plan_id":"free"},{"bike_id":"a9d595c3-6bdf-4999-88b4-7eeac5ab5e34","system_id":"levelo_inurba_marseille","lat":43.28456,"lon":5.35893,"is_reserved":false,"is_disabled":false,"rental_uris":{"android":"levelo://app?vid=a9d595c3-6bdf-4999-88b4-7eeac5ab5e34","ios":"levelo://app?vid=a9d595c3-6bdf-4999-88b4-7eeac5ab5e34"},"vehicle_type_id":"4","last_reported":1703102874,"current_range_meters":22400,"station_id":"ce4bhah2rcd13ifvqei0","pricing_plan_id":"free"},{"bike_id":"fdbee9af-65a2-415f-89d3-6325247869b3","system_id":"levelo_inurba_marseille","lat":43.284534,"lon":5.358662,"is_reserved":false,"is_disabled":false,"rental_uris":{"android":"levelo://app?vid=fdbee9af-65a2-415f-89d3-6325247869b3","ios":"levelo://app?vid=fdbee9af-65a2-415f-89d3-6325247869b3"},"vehicle_type_id":"4","last_reported":1703102874,"current_range_meters":11600,"station_id":"ce4bhah2rcd13ifvqei0","pricing_plan_id":"free"},{"bike_id":"deb03d56-a258-4061-ade4-4c6def17ebc6","system_id":"levelo_inurba_marseille","lat":43.28455,"lon":5.35887,"is_reserved":false,"is_disabled":false,"rental_uris":{"android":"levelo://app?vid=deb03d56-a258-4061-ade4-4c6def17ebc6","ios":"levelo://app?vid=deb03d56-a258-4061-ade4-4c6def17ebc6"},"vehicle_type_id":"4","last_reported":1703102874,"current_range_meters":22800,"station_id":"ce4bhah2rcd13ifvqei0","pricing_plan_id":"free"},{"bike_id":"e33eae2e-b972-42bb-a012-d2ae2e0cdb61","system_id":"levelo_inurba_marseille","lat":43.284534,"lon":5.358662,"is_reserved":false,"is_disabled":false,"rental_uris":{"android":"levelo://app?vid=e33eae2e-b972-42bb-a012-d2ae2e0cdb61","ios":"levelo://app?vid=e33eae2e-b972-42bb-a012-d2ae2e0cdb61"},"vehicle_type_id":"4","last_reported":1703102874,"current_range_meters":24800,"station_id":"ce4bhah2rcd13ifvqei0","pricing_plan_id":"free"},{"bike_id":"b9e4dfc5-a285-4606-ab8d-d7df58f00866","system_id":"levelo_inurba_marseille","lat":43.294314,"lon":5.397498,"is_reserved":false,"is_disabled":false,"rental_uris":{"android":"levelo://app?vid=b9e4dfc5-a285-4606-ab8d-d7df58f00866","ios":"levelo://app?vid=b9e4dfc5-a285-4606-ab8d-d7df58f00866"},"vehicle_type_id":"4","last_reported":1703102874,"current_range_meters":18000,"station_id":"ce4bh3h2rcd13ifvqdo0","pricing_plan_id":"free"},{"bike_id":"628ace3a-bb62-4e92-b44f-7fc1cc97ef49","system_id":"levelo_inurba_marseille","lat":43.28444,"lon":5.35889,"is_reserved":false,"is_disabled":false,"rental_uris":{"android":"levelo://app?vid=628ace3a-bb62-4e92-b44f-7fc1cc97ef49","ios":"levelo://app?vid=628ace3a-bb62-4e92-b44f-7fc1cc97ef49"},"vehicle_type_id":"4","last_reported":1703102874,"current_range_meters":5200,"station_id":"ce4bhah2rcd13ifvqei0","pricing_plan_id":"free"},{"bike_id":"cd0c99aa-0b49-422c-882e-cd7d21d05d95","system_id":"levelo_inurba_marseille","lat":43.285856,"lon":5.350771,"is_reserved":false,"is_disabled":false,"rental_uris":{"android":"levelo://app?vid=cd0c99aa-0b49-422c-882e-cd7d21d05d95","ios":"levelo://app?vid=cd0c99aa-0b49-422c-882e-cd7d21d05d95"},"vehicle_type_id":"4","last_reported":1703102874,"current_range_meters":12000,"station_id":"ce4bhch2rcd13ifvqeug","pricing_plan_id":"free"},{"bike_id":"4ea381ba-f5ca-4402-a8ad-56297ca58f6f","system_id":"levelo_inurba_marseille","lat":43.285856,"lon":5.350771,"is_reserved":false,"is_disabled":false,"rental_uris":{"android":"levelo://app?vid=4ea381ba-f5ca-4402-a8ad-56297ca58f6f","ios":"levelo://app?vid=4ea381ba-f5ca-4402-a8ad-56297ca58f6f"},"vehicle_type_id":"4","last_reported":1703102874,"current_range_meters":20800,"station_id":"ce4bhch2rcd13ifvqeug","pricing_plan_id":"free"},{"bike_id":"4005d67c-e580-47a4-893b-53bd0a817d88","system_id":"levelo_inurba_marseille","lat":43.285856,"lon":5.350771,"is_reserved":false,"is_disabled":false,"rental_uris":{"android":"levelo://app?vid=4005d67c-e580-47a4-893b-53bd0a817d88","ios":"levelo://app?vid=4005d67c-e580-47a4-893b-53bd0a817d88"},"vehicle_type_id":"4","last_reported":1703102874,"current_range_meters":12800,"station_id":"ce4bhch2rcd13ifvqeug","pricing_plan_id":"free"},{"bike_id":"f9d5365c-a48c-4167-aefc-e4eb02be3020","system_id":"levelo_inurba_marseille","lat":43.285848,"lon":5.350787,"is_reserved":false,"is_disabled":false,"rental_uris":{"android":"levelo://app?vid=f9d5365c-a48c-4167-aefc-e4eb02be3020","ios":"levelo://app?vid=f9d5365c-a48c-4167-aefc-e4eb02be3020"},"vehicle_type_id":"4","last_reported":1703102874,"current_range_meters":4400,"station_id":"ce4bhch2rcd13ifvqeug","pricing_plan_id":"free"},{"bike_id":"b1dab4de-0ade-4b74-94d9-fc33a4596fb1","system_id":"levelo_inurba_marseille","lat":43.285856,"lon":5.350771,"is_reserved":false,"is_disabled":false,"rental_uris":{"android":"levelo://app?vid=b1dab4de-0ade-4b74-94d9-fc33a4596fb1","ios":"levelo://app?vid=b1dab4de-0ade-4b74-94d9-fc33a4596fb1"},"vehicle_type_id":"4","last_reported":1703102874,"current_range_meters":19200,"station_id":"ce4bhch2rcd13ifvqeug","pricing_plan_id":"free"},{"bike_id":"70231a4e-5b03-48ec-ae49-1772c70a77b5","system_id":"levelo_inurba_marseille","lat":43.285856,"lon":5.350771,"is_reserved":false,"is_disabled":false,"rental_uris":{"android":"levelo://app?vid=70231a4e-5b03-48ec-ae49-1772c70a77b5","ios":"levelo://app?vid=70231a4e-5b03-48ec-ae49-1772c70a77b5"},"vehicle_type_id":"4","last_reported":1703102874,"current_range_meters":400,"station_id":"ce4bhch2rcd13ifvqeug","pricing_plan_id":"free"},{"bike_id":"93a2bf1c-a0a1-4459-960b-59c7c9951413","system_id":"levelo_inurba_marseille","lat":43.295713,"lon":5.399639,"is_reserved":false,"is_disabled":false,"rental_uris":{"android":"levelo://app?vid=93a2bf1c-a0a1-4459-960b-59c7c9951413","ios":"levelo://app?vid=93a2bf1c-a0a1-4459-960b-59c7c9951413"},"vehicle_type_id":"4","last_reported":1703102874,"current_range_meters":14000,"station_id":"ce4bh312rcd13ifvqdj0","pricing_plan_id":"free"},{"bike_id":"c7b92774-3b2d-4e0a-9266-35096a7b684e","system_id":"levelo_inurba_marseille","lat":43.295713,"lon":5.399639,"is_reserved":false,"is_disabled":false,"rental_uris":{"android":"levelo://app?vid=c7b92774-3b2d-4e0a-9266-35096a7b684e","ios":"levelo://app?vid=c7b92774-3b2d-4e0a-9266-35096a7b684e"},"vehicle_type_id":"4","last_reported":1703102874,"current_range_meters":4800,"station_id":"ce4bh312rcd13ifvqdj0","pricing_plan_id":"free"},{"bike_id":"8538e6dd-dbef-4a5a-a119-9a857fd021ad","system_id":"levelo_inurba_marseille","lat":43.33218,"lon":5.397067,"is_reserved":false,"is_disabled":false,"rental_uris":{"android":"levelo://app?vid=8538e6dd-dbef-4a5a-a119-9a857fd021ad","ios":"levelo://app?vid=8538e6dd-dbef-4a5a-a119-9a857fd021ad"},"vehicle_type_id":"4","last_reported":1703102874,"current_range_meters":0,"station_id":"","pricing_plan_id":"free"},{"bike_id":"fec70c02-b444-4510-87fc-21ea9e827fc1","system_id":"levelo_inurba_marseille","lat":43.295713,"lon":5.399639,"is_reserved":false,"is_disabled":false,"rental_uris":{"android":"levelo://app?vid=fec70c02-b444-4510-87fc-21ea9e827fc1","ios":"levelo://app?vid=fec70c02-b444-4510-87fc-21ea9e827fc1"},"vehicle_type_id":"4","last_reported":1703102874,"current_range_meters":0,"station_id":"ce4bh312rcd13ifvqdj0","pricing_plan_id":"free"},{"bike_id":"ded1ed82-5118-44bb-b4af-88bce3c0f564","system_id":"levelo_inurba_marseille","lat":43.295713,"lon":5.399639,"is_reserved":false,"is_disabled":false,"rental_uris":{"android":"levelo://app?vid=ded1ed82-5118-44bb-b4af-88bce3c0f564","ios":"levelo://app?vid=ded1ed82-5118-44bb-b4af-88bce3c0f564"},"vehicle_type_id":"4","last_reported":1703102874,"current_range_meters":15200,"station_id":"ce4bh312rcd13ifvqdj0","pricing_plan_id":"free"},{"bike_id":"d250216f-9caf-4b00-8312-4467cb215925","system_id":"levelo_inurba_marseille","lat":43.286595,"lon":5.386795,"is_reserved":false,"is_disabled":false,"rental_uris":{"android":"levelo://app?vid=d250216f-9caf-4b00-8312-4467cb215925","ios":"levelo://app?vid=d250216f-9caf-4b00-8312-4467cb215925"},"vehicle_type_id":"4","last_reported":1703102874,"current_range_meters":7200,"station_id":"ce4bh492rcd13ifvqdug","pricing_plan_id":"free"},{"bike_id":"dfb799e0-6b52-4b93-891e-f427333dec88","system_id":"levelo_inurba_marseille","lat":43.33717,"lon":5.391857,"is_reserved":false,"is_disabled":false,"rental_uris":{"android":"levelo://app?vid=dfb799e0-6b52-4b93-891e-f427333dec88","ios":"levelo://app?vid=dfb799e0-6b52-4b93-891e-f427333dec88"},"vehicle_type_id":"4","last_reported":1703102874,"current_range_meters":24800,"station_id":"ce4bhr92rcd13ifvqhsg","pricing_plan_id":"free"},{"bike_id":"0e6bbc92-cec6-497f-ad89-d75d7e889db3","system_id":"levelo_inurba_marseille","lat":43.33717,"lon":5.391857,"is_reserved":false,"is_disabled":false,"rental_uris":{"android":"levelo://app?vid=0e6bbc92-cec6-497f-ad89-d75d7e889db3","ios":"levelo://app?vid=0e6bbc92-cec6-497f-ad89-d75d7e889db3"},"vehicle_type_id":"4","last_reported":1703102874,"current_range_meters":31600,"station_id":"ce4bhr92rcd13ifvqhsg","pricing_plan_id":"free"},{"bike_id":"37118547-22d2-4fd1-a35b-dec6a56bc4a0","system_id":"levelo_inurba_marseille","lat":43.284793,"lon":5.384113,"is_reserved":false,"is_disabled":false,"rental_uris":{"android":"levelo://app?vid=37118547-22d2-4fd1-a35b-dec6a56bc4a0","ios":"levelo://app?vid=37118547-22d2-4fd1-a35b-dec6a56bc4a0"},"vehicle_type_id":"4","last_reported":1703102874,"current_range_meters":16400,"station_id":"ce4bh512rcd13ifvqe3g","pricing_plan_id":"free"},{"bike_id":"1404cd6a-7a9f-47b5-8df5-20e49b1a67df","system_id":"levelo_inurba_marseille","lat":43.288501,"lon":5.393087,"is_reserved":false,"is_disabled":false,"rental_uris":{"android":"levelo://app?vid=1404cd6a-7a9f-47b5-8df5-20e49b1a67df","ios":"levelo://app?vid=1404cd6a-7a9f-47b5-8df5-20e49b1a67df"},"vehicle_type_id":"4","last_reported":1703102874,"current_range_meters":12400,"station_id":"ce4bh2p2rcd13ifvqdi0","pricing_plan_id":"free"},{"bike_id":"b3ef2b86-2513-48f0-a6e6-82c57bb6a002","system_id":"levelo_inurba_marseille","lat":43.283494,"lon":5.380945,"is_reserved":false,"is_disabled":false,"rental_uris":{"android":"levelo://app?vid=b3ef2b86-2513-48f0-a6e6-82c57bb6a002","ios":"levelo://app?vid=b3ef2b86-2513-48f0-a6e6-82c57bb6a002"},"vehicle_type_id":"4","last_reported":1703102874,"current_range_meters":6000,"station_id":"ce4bh412rcd13ifvqdr0","pricing_plan_id":"free"},{"bike_id":"d6ceaf01-26b8-4886-ac1f-d274beda68aa","system_id":"levelo_inurba_marseille","lat":43.33342,"lon":5.398694,"is_reserved":false,"is_disabled":false,"rental_uris":{"android":"levelo://app?vid=d6ceaf01-26b8-4886-ac1f-d274beda68aa","ios":"levelo://app?vid=d6ceaf01-26b8-4886-ac1f-d274beda68aa"},"vehicle_type_id":"4","last_reported":1703102874,"current_range_meters":0,"station_id":"","pricing_plan_id":"free"},{"bike_id":"5e3666e1-86ec-4715-881e-97fbe8493bb9","system_id":"levelo_inurba_marseille","lat":43.284217,"lon":5.349697,"is_reserved":false,"is_disabled":false,"rental_uris":{"android":"levelo://app?vid=5e3666e1-86ec-4715-881e-97fbe8493bb9","ios":"levelo://app?vid=5e3666e1-86ec-4715-881e-97fbe8493bb9"},"vehicle_type_id":"4","last_reported":1703102874,"current_range_meters":30400,"station_id":"ce4bhbh2rcd13ifvqepg","pricing_plan_id":"free"},{"bike_id":"e68ad7a3-9f73-42da-8e90-59adcc6ccfbd","system_id":"levelo_inurba_marseille","lat":43.284219,"lon":5.3497,"is_reserved":false,"is_disabled":false,"rental_uris":{"android":"levelo://app?vid=e68ad7a3-9f73-42da-8e90-59adcc6ccfbd","ios":"levelo://app?vid=e68ad7a3-9f73-42da-8e90-59adcc6ccfbd"},"vehicle_type_id":"4","last_reported":1703102874,"current_range_meters":30800,"station_id":"ce4bhbh2rcd13ifvqepg","pricing_plan_id":"free"},{"bike_id":"25acf729-0c15-45f0-8053-2c35b0919b50","system_id":"levelo_inurba_marseille","lat":43.284219,"lon":5.3497,"is_reserved":false,"is_disabled":false,"rental_uris":{"android":"levelo://app?vid=25acf729-0c15-45f0-8053-2c35b0919b50","ios":"levelo://app?vid=25acf729-0c15-45f0-8053-2c35b0919b50"},"vehicle_type_id":"4","last_reported":1703102874,"current_range_meters":28800,"station_id":"ce4bhbh2rcd13ifvqepg","pricing_plan_id":"free"},{"bike_id":"b20f92a2-3c96-49ba-89c0-763dc511f158","system_id":"levelo_inurba_marseille","lat":43.284219,"lon":5.3497,"is_reserved":false,"is_disabled":false,"rental_uris":{"android":"levelo://app?vid=b20f92a2-3c96-49ba-89c0-763dc511f158","ios":"levelo://app?vid=b20f92a2-3c96-49ba-89c0-763dc511f158"},"vehicle_type_id":"4","last_reported":1703102874,"current_range_meters":25200,"station_id":"ce4bhbh2rcd13ifvqepg","pricing_plan_id":"free"},{"bike_id":"b85df6e5-946f-4ca9-b02b-bc3a9e578ef6","system_id":"levelo_inurba_marseille","lat":43.304188,"lon":5.412904,"is_reserved":false,"is_disabled":false,"rental_uris":{"android":"levelo://app?vid=b85df6e5-946f-4ca9-b02b-bc3a9e578ef6","ios":"levelo://app?vid=b85df6e5-946f-4ca9-b02b-bc3a9e578ef6"},"vehicle_type_id":"4","last_reported":1703102874,"current_range_meters":21600,"station_id":"ce4bhop2rcd13ifvqh8g","pricing_plan_id":"free"},{"bike_id":"99c0c118-61e8-4cea-80ff-9be3c4ac7cf7","system_id":"levelo_inurba_marseille","lat":43.284206,"lon":5.349842,"is_reserved":false,"is_disabled":false,"rental_uris":{"android":"levelo://app?vid=99c0c118-61e8-4cea-80ff-9be3c4ac7cf7","ios":"levelo://app?vid=99c0c118-61e8-4cea-80ff-9be3c4ac7cf7"},"vehicle_type_id":"4","last_reported":1703102874,"current_range_meters":2000,"station_id":"ce4bhbh2rcd13ifvqepg","pricing_plan_id":"free"},{"bike_id":"338c9ba4-b725-4a51-8cf5-7a87fdf968de","system_id":"levelo_inurba_marseille","lat":43.284214,"lon":5.349706,"is_reserved":false,"is_disabled":false,"rental_uris":{"android":"levelo://app?vid=338c9ba4-b725-4a51-8cf5-7a87fdf968de","ios":"levelo://app?vid=338c9ba4-b725-4a51-8cf5-7a87fdf968de"},"vehicle_type_id":"4","last_reported":1703102874,"current_range_meters":12800,"station_id":"ce4bhbh2rcd13ifvqepg","pricing_plan_id":"free"},{"bike_id":"30b41aed-b375-4cfa-b849-c47f4e650fc0","system_id":"levelo_inurba_marseille","lat":43.28209,"lon":5.35875,"is_reserved":false,"is_disabled":false,"rental_uris":{"android":"levelo://app?vid=30b41aed-b375-4cfa-b849-c47f4e650fc0","ios":"levelo://app?vid=30b41aed-b375-4cfa-b849-c47f4e650fc0"},"vehicle_type_id":"4","last_reported":1703102874,"current_range_meters":11200,"station_id":"","pricing_plan_id":"free"},{"bike_id":"43ed1563-c4c8-4494-9b69-db685ab1e69d","system_id":"levelo_inurba_marseille","lat":43.292724,"lon":5.401131,"is_reserved":false,"is_disabled":false,"rental_uris":{"android":"levelo://app?vid=43ed1563-c4c8-4494-9b69-db685ab1e69d","ios":"levelo://app?vid=43ed1563-c4c8-4494-9b69-db685ab1e69d"},"vehicle_type_id":"4","last_reported":1703102874,"current_range_meters":22800,"station_id":"ce4bh312rcd13ifvqdk0","pricing_plan_id":"free"},{"bike_id":"6dbebcfd-5cef-46d3-b6b1-24659f7d377a","system_id":"levelo_inurba_marseille","lat":43.285467,"lon":5.389713,"is_reserved":false,"is_disabled":false,"rental_uris":{"android":"levelo://app?vid=6dbebcfd-5cef-46d3-b6b1-24659f7d377a","ios":"levelo://app?vid=6dbebcfd-5cef-46d3-b6b1-24659f7d377a"},"vehicle_type_id":"4","last_reported":1703102874,"current_range_meters":0,"station_id":"","pricing_plan_id":"free"},{"bike_id":"d0822314-9e4e-492e-a3bc-9cd96a9a1d33","system_id":"levelo_inurba_marseille","lat":43.282744,"lon":5.350533,"is_reserved":false,"is_disabled":false,"rental_uris":{"android":"levelo://app?vid=d0822314-9e4e-492e-a3bc-9cd96a9a1d33","ios":"levelo://app?vid=d0822314-9e4e-492e-a3bc-9cd96a9a1d33"},"vehicle_type_id":"4","last_reported":1703102874,"current_range_meters":31200,"station_id":"ce4bhbp2rcd13ifvqerg","pricing_plan_id":"free"},{"bike_id":"93732530-ad4a-4828-a1b1-643ffa87eacc","system_id":"levelo_inurba_marseille","lat":43.280382,"lon":5.369291,"is_reserved":false,"is_disabled":false,"rental_uris":{"android":"levelo://app?vid=93732530-ad4a-4828-a1b1-643ffa87eacc","ios":"levelo://app?vid=93732530-ad4a-4828-a1b1-643ffa87eacc"},"vehicle_type_id":"4","last_reported":1703102874,"current_range_meters":16800,"station_id":"ce4bha12rcd13ifvqef0","pricing_plan_id":"free"},{"bike_id":"3af23133-0197-40c1-970e-55f36fe14c51","system_id":"levelo_inurba_marseille","lat":43.282754,"lon":5.350519,"is_reserved":false,"is_disabled":false,"rental_uris":{"android":"levelo://app?vid=3af23133-0197-40c1-970e-55f36fe14c51","ios":"levelo://app?vid=3af23133-0197-40c1-970e-55f36fe14c51"},"vehicle_type_id":"4","last_reported":1703102874,"current_range_meters":19600,"station_id":"ce4bhbp2rcd13ifvqerg","pricing_plan_id":"free"},{"bike_id":"65911451-d618-4117-9c6d-16e5727fc1ab","system_id":"levelo_inurba_marseille","lat":43.280382,"lon":5.369291,"is_reserved":false,"is_disabled":false,"rental_uris":{"android":"levelo://app?vid=65911451-d618-4117-9c6d-16e5727fc1ab","ios":"levelo://app?vid=65911451-d618-4117-9c6d-16e5727fc1ab"},"vehicle_type_id":"4","last_reported":1703102874,"current_range_meters":20400,"station_id":"ce4bha12rcd13ifvqef0","pricing_plan_id":"free"},{"bike_id":"a9ae82cb-2fa6-49ff-8db8-f09a68c18ccc","system_id":"levelo_inurba_marseille","lat":43.280382,"lon":5.369291,"is_reserved":false,"is_disabled":false,"rental_uris":{"android":"levelo://app?vid=a9ae82cb-2fa6-49ff-8db8-f09a68c18ccc","ios":"levelo://app?vid=a9ae82cb-2fa6-49ff-8db8-f09a68c18ccc"},"vehicle_type_id":"4","last_reported":1703102874,"current_range_meters":16000,"station_id":"ce4bha12rcd13ifvqef0","pricing_plan_id":"free"},{"bike_id":"3795016e-dbbe-4b2e-8cff-3a86559747ac","system_id":"levelo_inurba_marseille","lat":43.296325,"lon":5.405945,"is_reserved":false,"is_disabled":false,"rental_uris":{"android":"levelo://app?vid=3795016e-dbbe-4b2e-8cff-3a86559747ac","ios":"levelo://app?vid=3795016e-dbbe-4b2e-8cff-3a86559747ac"},"vehicle_type_id":"4","last_reported":1703102874,"current_range_meters":20000,"station_id":"ce4bh0h2rcd13ifvqd60","pricing_plan_id":"free"},{"bike_id":"223eb927-939c-4c01-905f-3665bda85439","system_id":"levelo_inurba_marseille","lat":43.296263,"lon":5.40601,"is_reserved":false,"is_disabled":false,"rental_uris":{"android":"levelo://app?vid=223eb927-939c-4c01-905f-3665bda85439","ios":"levelo://app?vid=223eb927-939c-4c01-905f-3665bda85439"},"vehicle_type_id":"4","last_reported":1703102874,"current_range_meters":17600,"station_id":"ce4bh0h2rcd13ifvqd60","pricing_plan_id":"free"},{"bike_id":"48788aa5-deec-43b7-9fd8-2a0beb59aa7f","system_id":"levelo_inurba_marseille","lat":43.285742,"lon":5.395004,"is_reserved":false,"is_disabled":false,"rental_uris":{"android":"levelo://app?vid=48788aa5-deec-43b7-9fd8-2a0beb59aa7f","ios":"levelo://app?vid=48788aa5-deec-43b7-9fd8-2a0beb59aa7f"},"vehicle_type_id":"4","last_reported":1703102874,"current_range_meters":31200,"station_id":"ce4bh292rcd13ifvqdg0","pricing_plan_id":"free"},{"bike_id":"a65bc548-b9cd-4a09-99de-6a7cf1b6ce3e","system_id":"levelo_inurba_marseille","lat":43.304188,"lon":5.412904,"is_reserved":false,"is_disabled":false,"rental_uris":{"android":"levelo://app?vid=a65bc548-b9cd-4a09-99de-6a7cf1b6ce3e","ios":"levelo://app?vid=a65bc548-b9cd-4a09-99de-6a7cf1b6ce3e"},"vehicle_type_id":"4","last_reported":1703102874,"current_range_meters":21200,"station_id":"ce4bhop2rcd13ifvqh8g","pricing_plan_id":"free"},{"bike_id":"1d1555b5-648a-49b4-90c5-eeac61d8c337","system_id":"levelo_inurba_marseille","lat":43.304188,"lon":5.412904,"is_reserved":false,"is_disabled":false,"rental_uris":{"android":"levelo://app?vid=1d1555b5-648a-49b4-90c5-eeac61d8c337","ios":"levelo://app?vid=1d1555b5-648a-49b4-90c5-eeac61d8c337"},"vehicle_type_id":"4","last_reported":1703102874,"current_range_meters":8000,"station_id":"ce4bhop2rcd13ifvqh8g","pricing_plan_id":"free"},{"bike_id":"c9ccc1b6-eff8-41ad-b5b1-88555cb07424","system_id":"levelo_inurba_marseille","lat":43.304188,"lon":5.412904,"is_reserved":false,"is_disabled":false,"rental_uris":{"android":"levelo://app?vid=c9ccc1b6-eff8-41ad-b5b1-88555cb07424","ios":"levelo://app?vid=c9ccc1b6-eff8-41ad-b5b1-88555cb07424"},"vehicle_type_id":"4","last_reported":1703102874,"current_range_meters":11200,"station_id":"ce4bhop2rcd13ifvqh8g","pricing_plan_id":"free"},{"bike_id":"78d71a73-30d7-46f8-822c-5fd320c9eb2d","system_id":"levelo_inurba_marseille","lat":43.279087,"lon":5.380114,"is_reserved":false,"is_disabled":false,"rental_uris":{"android":"levelo://app?vid=78d71a73-30d7-46f8-822c-5fd320c9eb2d","ios":"levelo://app?vid=78d71a73-30d7-46f8-822c-5fd320c9eb2d"},"vehicle_type_id":"4","last_reported":1703102874,"current_range_meters":29600,"station_id":"ce4bhf92rcd13ifvqf50","pricing_plan_id":"free"},{"bike_id":"cb0668d4-d46c-4efe-a7e0-185ebe495ab4","system_id":"levelo_inurba_marseille","lat":43.280579,"lon":5.389183,"is_reserved":false,"is_disabled":false,"rental_uris":{"android":"levelo://app?vid=cb0668d4-d46c-4efe-a7e0-185ebe495ab4","ios":"levelo://app?vid=cb0668d4-d46c-4efe-a7e0-185ebe495ab4"},"vehicle_type_id":"4","last_reported":1703102874,"current_range_meters":6400,"station_id":"","pricing_plan_id":"free"},{"bike_id":"8ae57d0f-b342-4d83-b635-28b0ebd6440f","system_id":"levelo_inurba_marseille","lat":43.279742,"lon":5.38744,"is_reserved":false,"is_disabled":false,"rental_uris":{"android":"levelo://app?vid=8ae57d0f-b342-4d83-b635-28b0ebd6440f","ios":"levelo://app?vid=8ae57d0f-b342-4d83-b635-28b0ebd6440f"},"vehicle_type_id":"4","last_reported":1703102874,"current_range_meters":22800,"station_id":"ce4bhg12rcd13ifvqf80","pricing_plan_id":"free"},{"bike_id":"5e93b6cd-4640-4605-a34a-e41d65661c54","system_id":"levelo_inurba_marseille","lat":43.279742,"lon":5.38744,"is_reserved":false,"is_disabled":false,"rental_uris":{"android":"levelo://app?vid=5e93b6cd-4640-4605-a34a-e41d65661c54","ios":"levelo://app?vid=5e93b6cd-4640-4605-a34a-e41d65661c54"},"vehicle_type_id":"4","last_reported":1703102874,"current_range_meters":19200,"station_id":"ce4bhg12rcd13ifvqf80","pricing_plan_id":"free"},{"bike_id":"f51d2f3b-143d-4f58-9b0d-b059ad550fa4","system_id":"levelo_inurba_marseille","lat":43.27618,"lon":5.361009,"is_reserved":false,"is_disabled":false,"rental_uris":{"android":"levelo://app?vid=f51d2f3b-143d-4f58-9b0d-b059ad550fa4","ios":"levelo://app?vid=f51d2f3b-143d-4f58-9b0d-b059ad550fa4"},"vehicle_type_id":"4","last_reported":1703102874,"current_range_meters":2400,"station_id":"ce4bgj92rcd13ifvqbe0","pricing_plan_id":"free"},{"bike_id":"971a975a-658f-43e1-a9c6-ae4fc764e296","system_id":"levelo_inurba_marseille","lat":43.325243,"lon":5.414326,"is_reserved":false,"is_disabled":false,"rental_uris":{"android":"levelo://app?vid=971a975a-658f-43e1-a9c6-ae4fc764e296","ios":"levelo://app?vid=971a975a-658f-43e1-a9c6-ae4fc764e296"},"vehicle_type_id":"4","last_reported":1703102874,"current_range_meters":27600,"station_id":"ce4bhq12rcd13ifvqhhg","pricing_plan_id":"free"},{"bike_id":"8620807d-e7d9-49bd-a224-36b8c79adb00","system_id":"levelo_inurba_marseille","lat":43.30357,"lon":5.41888,"is_reserved":false,"is_disabled":false,"rental_uris":{"android":"levelo://app?vid=8620807d-e7d9-49bd-a224-36b8c79adb00","ios":"levelo://app?vid=8620807d-e7d9-49bd-a224-36b8c79adb00"},"vehicle_type_id":"4","last_reported":1703102874,"current_range_meters":28800,"station_id":"ce4bhop2rcd13ifvqh7g","pricing_plan_id":"free"},{"bike_id":"78d8e874-438a-429a-90c4-55ff03e2a869","system_id":"levelo_inurba_marseille","lat":43.275625,"lon":5.384392,"is_reserved":false,"is_disabled":false,"rental_uris":{"android":"levelo://app?vid=78d8e874-438a-429a-90c4-55ff03e2a869","ios":"levelo://app?vid=78d8e874-438a-429a-90c4-55ff03e2a869"},"vehicle_type_id":"4","last_reported":1703102874,"current_range_meters":11600,"station_id":"ce4bhh92rcd13ifvqfi0","pricing_plan_id":"free"},{"bike_id":"4a0911b4-ebce-4462-b949-8a4ad3514d45","system_id":"levelo_inurba_marseille","lat":43.336134,"lon":5.410341,"is_reserved":false,"is_disabled":false,"rental_uris":{"android":"levelo://app?vid=4a0911b4-ebce-4462-b949-8a4ad3514d45","ios":"levelo://app?vid=4a0911b4-ebce-4462-b949-8a4ad3514d45"},"vehicle_type_id":"4","last_reported":1703102874,"current_range_meters":23600,"station_id":"ce4bhqh2rcd13ifvqhmg","pricing_plan_id":"free"},{"bike_id":"3ba60f78-a0a4-48f6-b46c-0fbb03471889","system_id":"levelo_inurba_marseille","lat":43.275625,"lon":5.384392,"is_reserved":false,"is_disabled":false,"rental_uris":{"android":"levelo://app?vid=3ba60f78-a0a4-48f6-b46c-0fbb03471889","ios":"levelo://app?vid=3ba60f78-a0a4-48f6-b46c-0fbb03471889"},"vehicle_type_id":"4","last_reported":1703102874,"current_range_meters":29200,"station_id":"ce4bhh92rcd13ifvqfi0","pricing_plan_id":"free"},{"bike_id":"5b8ae8f0-5b06-4176-b91d-9d590291850e","system_id":"levelo_inurba_marseille","lat":43.275625,"lon":5.384392,"is_reserved":false,"is_disabled":false,"rental_uris":{"android":"levelo://app?vid=5b8ae8f0-5b06-4176-b91d-9d590291850e","ios":"levelo://app?vid=5b8ae8f0-5b06-4176-b91d-9d590291850e"},"vehicle_type_id":"4","last_reported":1703102874,"current_range_meters":17600,"station_id":"ce4bhh92rcd13ifvqfi0","pricing_plan_id":"free"},{"bike_id":"21f4a169-6e35-4a8e-94ba-dad1b033815c","system_id":"levelo_inurba_marseille","lat":43.310785,"lon":5.424305,"is_reserved":false,"is_disabled":false,"rental_uris":{"android":"levelo://app?vid=21f4a169-6e35-4a8e-94ba-dad1b033815c","ios":"levelo://app?vid=21f4a169-6e35-4a8e-94ba-dad1b033815c"},"vehicle_type_id":"4","last_reported":1703102874,"current_range_meters":4800,"station_id":"ce4bhp92rcd13ifvqhag","pricing_plan_id":"free"},{"bike_id":"d04c46a2-68b4-4f99-b96a-186b6aa7a02e","system_id":"levelo_inurba_marseille","lat":43.317121,"lon":5.423936,"is_reserved":false,"is_disabled":false,"rental_uris":{"android":"levelo://app?vid=d04c46a2-68b4-4f99-b96a-186b6aa7a02e","ios":"levelo://app?vid=d04c46a2-68b4-4f99-b96a-186b6aa7a02e"},"vehicle_type_id":"4","last_reported":1703102874,"current_range_meters":26800,"station_id":"ce4bhp92rcd13ifvqhbg","pricing_plan_id":"free"},{"bike_id":"6e68da4c-e104-449b-b675-1a0f7da0547c","system_id":"levelo_inurba_marseille","lat":43.310785,"lon":5.424305,"is_reserved":false,"is_disabled":false,"rental_uris":{"android":"levelo://app?vid=6e68da4c-e104-449b-b675-1a0f7da0547c","ios":"levelo://app?vid=6e68da4c-e104-449b-b675-1a0f7da0547c"},"vehicle_type_id":"4","last_reported":1703102874,"current_range_meters":22000,"station_id":"ce4bhp92rcd13ifvqhag","pricing_plan_id":"free"},{"bike_id":"b1217991-eb34-4f8d-83d1-0f20b4ac1aa1","system_id":"levelo_inurba_marseille","lat":43.310785,"lon":5.424305,"is_reserved":false,"is_disabled":false,"rental_uris":{"android":"levelo://app?vid=b1217991-eb34-4f8d-83d1-0f20b4ac1aa1","ios":"levelo://app?vid=b1217991-eb34-4f8d-83d1-0f20b4ac1aa1"},"vehicle_type_id":"4","last_reported":1703102874,"current_range_meters":26400,"station_id":"ce4bhp92rcd13ifvqhag","pricing_plan_id":"free"},{"bike_id":"974dc7db-ff3c-4554-8964-132f9db52d9b","system_id":"levelo_inurba_marseille","lat":43.276092,"lon":5.395289,"is_reserved":false,"is_disabled":false,"rental_uris":{"android":"levelo://app?vid=974dc7db-ff3c-4554-8964-132f9db52d9b","ios":"levelo://app?vid=974dc7db-ff3c-4554-8964-132f9db52d9b"},"vehicle_type_id":"4","last_reported":1703102874,"current_range_meters":3200,"station_id":"","pricing_plan_id":"free"},{"bike_id":"974e770e-83d6-4baa-90bc-df6e9d3c34e0","system_id":"levelo_inurba_marseille","lat":43.273125,"lon":5.390731,"is_reserved":false,"is_disabled":false,"rental_uris":{"android":"levelo://app?vid=974e770e-83d6-4baa-90bc-df6e9d3c34e0","ios":"levelo://app?vid=974e770e-83d6-4baa-90bc-df6e9d3c34e0"},"vehicle_type_id":"4","last_reported":1703102874,"current_range_meters":14800,"station_id":"ce4bhgp2rcd13ifvqfe0","pricing_plan_id":"free"},{"bike_id":"eeab07b9-8349-4f24-9799-eca385be2f04","system_id":"levelo_inurba_marseille","lat":43.295523,"lon":5.422926,"is_reserved":false,"is_disabled":false,"rental_uris":{"android":"levelo://app?vid=eeab07b9-8349-4f24-9799-eca385be2f04","ios":"levelo://app?vid=eeab07b9-8349-4f24-9799-eca385be2f04"},"vehicle_type_id":"4","last_reported":1703102874,"current_range_meters":20000,"station_id":"ce4bhph2rcd13ifvqhdg","pricing_plan_id":"free"},{"bike_id":"98a340da-f753-4516-9884-ebd83f943ec7","system_id":"levelo_inurba_marseille","lat":43.295523,"lon":5.422926,"is_reserved":false,"is_disabled":false,"rental_uris":{"android":"levelo://app?vid=98a340da-f753-4516-9884-ebd83f943ec7","ios":"levelo://app?vid=98a340da-f753-4516-9884-ebd83f943ec7"},"vehicle_type_id":"4","last_reported":1703102874,"current_range_meters":27200,"station_id":"ce4bhph2rcd13ifvqhdg","pricing_plan_id":"free"},{"bike_id":"d0eda7a8-6590-4df2-9cf0-0465bef86fe9","system_id":"levelo_inurba_marseille","lat":43.278128,"lon":5.407195,"is_reserved":false,"is_disabled":false,"rental_uris":{"android":"levelo://app?vid=d0eda7a8-6590-4df2-9cf0-0465bef86fe9","ios":"levelo://app?vid=d0eda7a8-6590-4df2-9cf0-0465bef86fe9"},"vehicle_type_id":"4","last_reported":1703102874,"current_range_meters":7600,"station_id":"ce4bhnh2rcd13ifvqgtg","pricing_plan_id":"free"},{"bike_id":"21a34569-8594-42a0-8533-00e3a5db301d","system_id":"levelo_inurba_marseille","lat":43.278128,"lon":5.407195,"is_reserved":false,"is_disabled":false,"rental_uris":{"android":"levelo://app?vid=21a34569-8594-42a0-8533-00e3a5db301d","ios":"levelo://app?vid=21a34569-8594-42a0-8533-00e3a5db301d"},"vehicle_type_id":"4","last_reported":1703102874,"current_range_meters":0,"station_id":"ce4bhnh2rcd13ifvqgtg","pricing_plan_id":"free"},{"bike_id":"1cf29c8c-3aa7-45da-9151-6233028e2361","system_id":"levelo_inurba_marseille","lat":43.278128,"lon":5.407195,"is_reserved":false,"is_disabled":false,"rental_uris":{"android":"levelo://app?vid=1cf29c8c-3aa7-45da-9151-6233028e2361","ios":"levelo://app?vid=1cf29c8c-3aa7-45da-9151-6233028e2361"},