{"last_updated":1713301658,"ttl":30,"version":"2.2","data":{"bikes":[{"bike_id":"e19eebcb-ad13-4d74-bdd5-958708665d6a","system_id":"levelo_inurba_marseille","lat":43.314811,"lon":5.373104,"is_reserved":false,"is_disabled":false,"rental_uris":{"android":"levelo://app?vid=e19eebcb-ad13-4d74-bdd5-958708665d6a","ios":"levelo://app?vid=e19eebcb-ad13-4d74-bdd5-958708665d6a"},"vehicle_type_id":"4","last_reported":1713301658,"current_range_meters":4000,"station_id":"ce4bgt12rcd13ifvqcd0","pricing_plan_id":"cebpf4jnsgd1na2vs0mg"},{"bike_id":"73dd9a31-22a7-47d0-a7b5-c4667aa7d8dd","system_id":"levelo_inurba_marseille","lat":43.314811,"lon":5.373103,"is_reserved":false,"is_disabled":false,"rental_uris":{"android":"levelo://app?vid=73dd9a31-22a7-47d0-a7b5-c4667aa7d8dd","ios":"levelo://app?vid=73dd9a31-22a7-47d0-a7b5-c4667aa7d8dd"},"vehicle_type_id":"4","last_reported":1713301658,"current_range_meters":13200,"station_id":"ce4bgt12rcd13ifvqcd0","pricing_plan_id":"cebpf4jnsgd1na2vs0mg"},{"bike_id":"802189cc-82b8-4ff4-ac36-adc8a9cc0fb4","system_id":"levelo_inurba_marseille","lat":43.290412,"lon":5.399633,"is_reserved":false,"is_disabled":false,"rental_uris":{"android":"levelo://app?vid=802189cc-82b8-4ff4-ac36-adc8a9cc0fb4","ios":"levelo://app?vid=802189cc-82b8-4ff4-ac36-adc8a9cc0fb4"},"vehicle_type_id":"4","last_reported":1713301658,"current_range_meters":6400,"station_id":"ce4bh392rcd13ifvqdm0","pricing_plan_id":"cebpf4jnsgd1na2vs0mg"},{"bike_id":"b8769f70-c0d6-4693-8f21-0c651dc8a114","system_id":"levelo_inurba_marseille","lat":43.290412,"lon":5.399633,"is_reserved":false,"is_disabled":false,"rental_uris":{"android":"levelo://app?vid=b8769f70-c0d6-4693-8f21-0c651dc8a114","ios":"levelo://app?vid=b8769f70-c0d6-4693-8f21-0c651dc8a114"},"vehicle_type_id":"4","last_reported":1713301658,"current_range_meters":24400,"station_id":"ce4bh392rcd13ifvqdm0","pricing_plan_id":"cebpf4jnsgd1na2vs0mg"},{"bike_id":"0cb32614-d917-4989-8263-f91f6f319610","system_id":"levelo_inurba_marseille","lat":43.30557,"lon":5.36552,"is_reserved":false,"is_disabled":false,"rental_uris":{"android":"levelo://app?vid=0cb32614-d917-4989-8263-f91f6f319610","ios":"levelo://app?vid=0cb32614-d917-4989-8263-f91f6f319610"},"vehicle_type_id":"4","last_reported":1713301658,"current_range_meters":0,"station_id":"ce4bgs12rcd13ifvqcag","pricing_plan_id":"cebpf4jnsgd1na2vs0mg"},{"bike_id":"52f22b5a-486d-4c62-a4ac-137bfb2f235e","system_id":"levelo_inurba_marseille","lat":43.30554,"lon":5.36534,"is_reserved":false,"is_disabled":false,"rental_uris":{"android":"levelo://app?vid=52f22b5a-486d-4c62-a4ac-137bfb2f235e","ios":"levelo://app?vid=52f22b5a-486d-4c62-a4ac-137bfb2f235e"},"vehicle_type_id":"4","last_reported":1713301658,"current_range_meters":20000,"station_id":"","pricing_plan_id":"cebpf4jnsgd1na2vs0mg"},{"bike_id":"b0190c12-cda2-43c5-a3d5-1d5ce09fceff","system_id":"levelo_inurba_marseille","lat":43.299028,"lon":5.381509,"is_reserved":false,"is_disabled":false,"rental_uris":{"android":"levelo://app?vid=b0190c12-cda2-43c5-a3d5-1d5ce09fceff","ios":"levelo://app?vid=b0190c12-cda2-43c5-a3d5-1d5ce09fceff"},"vehicle_type_id":"4","last_reported":1713301658,"current_range_meters":3600,"station_id":"ce4bgj12rcd13ifvqbc0","pricing_plan_id":"cebpf4jnsgd1na2vs0mg"},{"bike_id":"ea1134b3-dd70-423c-ae0d-ac7634c40d00","system_id":"levelo_inurba_marseille","lat":43.30534,"lon":5.3671,"is_reserved":false,"is_disabled":false,"rental_uris":{"android":"levelo://app?vid=ea1134b3-dd70-423c-ae0d-ac7634c40d00","ios":"levelo://app?vid=ea1134b3-dd70-423c-ae0d-ac7634c40d00"},"vehicle_type_id":"4","last_reported":1713301658,"current_range_meters":0,"station_id":"ce4bgrp2rcd13ifvqc9g","pricing_plan_id":"cebpf4jnsgd1na2vs0mg"},{"bike_id":"a1070d04-2e51-4fef-95fc-85cf2f20978b","system_id":"levelo_inurba_marseille","lat":43.30598,"lon":5.3722,"is_reserved":false,"is_disabled":false,"rental_uris":{"android":"levelo://app?vid=a1070d04-2e51-4fef-95fc-85cf2f20978b","ios":"levelo://app?vid=a1070d04-2e51-4fef-95fc-85cf2f20978b"},"vehicle_type_id":"4","last_reported":1713301658,"current_range_meters":0,"station_id":"ce4bgqh2rcd13ifvqc4g","pricing_plan_id":"cebpf4jnsgd1na2vs0mg"},{"bike_id":"26145d70-9d97-4edc-9cba-cbbe8bd7bf53","system_id":"levelo_inurba_marseille","lat":43.305989,"lon":5.37225,"is_reserved":false,"is_disabled":false,"rental_uris":{"android":"levelo://app?vid=26145d70-9d97-4edc-9cba-cbbe8bd7bf53","ios":"levelo://app?vid=26145d70-9d97-4edc-9cba-cbbe8bd7bf53"},"vehicle_type_id":"4","last_reported":1713301658,"current_range_meters":15600,"station_id":"ce4bgqh2rcd13ifvqc4g","pricing_plan_id":"cebpf4jnsgd1na2vs0mg"},{"bike_id":"d487d454-c37f-45ac-99ec-37be6db76d63","system_id":"levelo_inurba_marseille","lat":43.311125,"lon":5.377624,"is_reserved":false,"is_disabled":false,"rental_uris":{"android":"levelo://app?vid=d487d454-c37f-45ac-99ec-37be6db76d63","ios":"levelo://app?vid=d487d454-c37f-45ac-99ec-37be6db76d63"},"vehicle_type_id":"4","last_reported":1713301658,"current_range_meters":22000,"station_id":"ce4bgt92rcd13ifvqcg0","pricing_plan_id":"cebpf4jnsgd1na2vs0mg"},{"bike_id":"fdd94f31-6c2f-4427-b1bf-22ed749ca859","system_id":"levelo_inurba_marseille","lat":43.311125,"lon":5.377624,"is_reserved":false,"is_disabled":false,"rental_uris":{"android":"levelo://app?vid=fdd94f31-6c2f-4427-b1bf-22ed749ca859","ios":"levelo://app?vid=fdd94f31-6c2f-4427-b1bf-22ed749ca859"},"vehicle_type_id":"4","last_reported":1713301658,"current_range_meters":400,"station_id":"ce4bgt92rcd13ifvqcg0","pricing_plan_id":"cebpf4jnsgd1na2vs0mg"},{"bike_id":"d40e2d51-55fd-4bb7-b25b-12d085ab9865","system_id":"levelo_inurba_marseille","lat":43.311172,"lon":5.37764,"is_reserved":false,"is_disabled":false,"rental_uris":{"android":"levelo://app?vid=d40e2d51-55fd-4bb7-b25b-12d085ab9865","ios":"levelo://app?vid=d40e2d51-55fd-4bb7-b25b-12d085ab9865"},"vehicle_type_id":"4","last_reported":1713301658,"current_range_meters":0,"station_id":"ce4bgt92rcd13ifvqcg0","pricing_plan_id":"cebpf4jnsgd1na2vs0mg"},{"bike_id":"662d0f15-bc14-4fba-8ffb-3e1ade9fe039","system_id":"levelo_inurba_marseille","lat":43.311125,"lon":5.377624,"is_reserved":false,"is_disabled":false,"rental_uris":{"android":"levelo://app?vid=662d0f15-bc14-4fba-8ffb-3e1ade9fe039","ios":"levelo://app?vid=662d0f15-bc14-4fba-8ffb-3e1ade9fe039"},"vehicle_type_id":"4","last_reported":1713301658,"current_range_meters":24400,"station_id":"ce4bgt92rcd13ifvqcg0","pricing_plan_id":"cebpf4jnsgd1na2vs0mg"},{"bike_id":"1519d763-2fbc-4ba2-8b3e-94e4a4224244","system_id":"levelo_inurba_marseille","lat":43.307945,"lon":5.376487,"is_reserved":false,"is_disabled":false,"rental_uris":{"android":"levelo://app?vid=1519d763-2fbc-4ba2-8b3e-94e4a4224244","ios":"levelo://app?vid=1519d763-2fbc-4ba2-8b3e-94e4a4224244"},"vehicle_type_id":"4","last_reported":1713301658,"current_range_meters":0,"station_id":"ce4bgv92rcd13ifvqcq0","pricing_plan_id":"cebpf4jnsgd1na2vs0mg"},{"bike_id":"69c23fa1-2fc4-4deb-a0a5-ae6da94a78c1","system_id":"levelo_inurba_marseille","lat":43.307945,"lon":5.376487,"is_reserved":false,"is_disabled":false,"rental_uris":{"android":"levelo://app?vid=69c23fa1-2fc4-4deb-a0a5-ae6da94a78c1","ios":"levelo://app?vid=69c23fa1-2fc4-4deb-a0a5-ae6da94a78c1"},"vehicle_type_id":"4","last_reported":1713301658,"current_range_meters":400,"station_id":"ce4bgv92rcd13ifvqcq0","pricing_plan_id":"cebpf4jnsgd1na2vs0mg"},{"bike_id":"ecdcae9d-59ab-4dee-8634-ce1ef12345f1","system_id":"levelo_inurba_marseille","lat":43.315289,"lon":5.380349,"is_reserved":false,"is_disabled":false,"rental_uris":{"android":"levelo://app?vid=ecdcae9d-59ab-4dee-8634-ce1ef12345f1","ios":"levelo://app?vid=ecdcae9d-59ab-4dee-8634-ce1ef12345f1"},"vehicle_type_id":"4","last_reported":1713301658,"current_range_meters":18800,"station_id":"ce4bhsp2rcd13ifvqi50","pricing_plan_id":"cebpf4jnsgd1na2vs0mg"},{"bike_id":"9401addd-3099-4098-948e-81f0aa3768bc","system_id":"levelo_inurba_marseille","lat":43.308012,"lon":5.381511,"is_reserved":false,"is_disabled":false,"rental_uris":{"android":"levelo://app?vid=9401addd-3099-4098-948e-81f0aa3768bc","ios":"levelo://app?vid=9401addd-3099-4098-948e-81f0aa3768bc"},"vehicle_type_id":"4","last_reported":1713301658,"current_range_meters":0,"station_id":"ce4bgt12rcd13ifvqce0","pricing_plan_id":"cebpf4jnsgd1na2vs0mg"},{"bike_id":"03de7c8e-13f6-4bde-a82e-e907e04fb193","system_id":"levelo_inurba_marseille","lat":43.30813,"lon":5.38159,"is_reserved":false,"is_disabled":false,"rental_uris":{"android":"levelo://app?vid=03de7c8e-13f6-4bde-a82e-e907e04fb193","ios":"levelo://app?vid=03de7c8e-13f6-4bde-a82e-e907e04fb193"},"vehicle_type_id":"4","last_reported":1713301658,"current_range_meters":800,"station_id":"ce4bgt12rcd13ifvqce0","pricing_plan_id":"cebpf4jnsgd1na2vs0mg"},{"bike_id":"e4ac2eeb-9126-4b0e-bfeb-cf8f6c1823c1","system_id":"levelo_inurba_marseille","lat":43.308012,"lon":5.381511,"is_reserved":false,"is_disabled":false,"rental_uris":{"android":"levelo://app?vid=e4ac2eeb-9126-4b0e-bfeb-cf8f6c1823c1","ios":"levelo://app?vid=e4ac2eeb-9126-4b0e-bfeb-cf8f6c1823c1"},"vehicle_type_id":"4","last_reported":1713301658,"current_range_meters":22400,"station_id":"ce4bgt12rcd13ifvqce0","pricing_plan_id":"cebpf4jnsgd1na2vs0mg"},{"bike_id":"544ac794-bc75-42e5-a023-d57e4f650986","system_id":"levelo_inurba_marseille","lat":43.308012,"lon":5.381511,"is_reserved":false,"is_disabled":false,"rental_uris":{"android":"levelo://app?vid=544ac794-bc75-42e5-a023-d57e4f650986","ios":"levelo://app?vid=544ac794-bc75-42e5-a023-d57e4f650986"},"vehicle_type_id":"4","last_reported":1713301658,"current_range_meters":0,"station_id":"ce4bgt12rcd13ifvqce0","pricing_plan_id":"cebpf4jnsgd1na2vs0mg"},{"bike_id":"92f4b063-325f-4195-95b4-1377e6f863b0","system_id":"levelo_inurba_marseille","lat":43.308012,"lon":5.381511,"is_reserved":false,"is_disabled":false,"rental_uris":{"android":"levelo://app?vid=92f4b063-325f-4195-95b4-1377e6f863b0","ios":"levelo://app?vid=92f4b063-325f-4195-95b4-1377e6f863b0"},"vehicle_type_id":"4","last_reported":1713301658,"current_range_meters":14000,"station_id":"ce4bgt12rcd13ifvqce0","pricing_plan_id":"cebpf4jnsgd1na2vs0mg"},{"bike_id":"4fbdf35f-8c67-4ab5-bc58-cc20efc8ed2d","system_id":"levelo_inurba_marseille","lat":43.308012,"lon":5.381511,"is_reserved":false,"is_disabled":false,"rental_uris":{"android":"levelo://app?vid=4fbdf35f-8c67-4ab5-bc58-cc20efc8ed2d","ios":"levelo://app?vid=4fbdf35f-8c67-4ab5-bc58-cc20efc8ed2d"},"vehicle_type_id":"4","last_reported":1713301658,"current_range_meters":4800,"station_id":"ce4bgt12rcd13ifvqce0","pricing_plan_id":"cebpf4jnsgd1na2vs0mg"},{"bike_id":"8e713035-050b-4ae4-95e2-b7aaaf5e16af","system_id":"levelo_inurba_marseille","lat":43.304606,"lon":5.379026,"is_reserved":false,"is_disabled":false,"rental_uris":{"android":"levelo://app?vid=8e713035-050b-4ae4-95e2-b7aaaf5e16af","ios":"levelo://app?vid=8e713035-050b-4ae4-95e2-b7aaaf5e16af"},"vehicle_type_id":"4","last_reported":1713301658,"current_range_meters":4800,"station_id":"ce4bgup2rcd13ifvqcn0","pricing_plan_id":"cebpf4jnsgd1na2vs0mg"},{"bike_id":"dbb94962-59e6-45b9-bfc9-5a27b699a504","system_id":"levelo_inurba_marseille","lat":43.324771,"lon":5.36557,"is_reserved":false,"is_disabled":false,"rental_uris":{"android":"levelo://app?vid=dbb94962-59e6-45b9-bfc9-5a27b699a504","ios":"levelo://app?vid=dbb94962-59e6-45b9-bfc9-5a27b699a504"},"vehicle_type_id":"4","last_reported":1713301658,"current_range_meters":12800,"station_id":"ce4bhs12rcd13ifvqhvg","pricing_plan_id":"cebpf4jnsgd1na2vs0mg"},{"bike_id":"732115dd-fc36-4cea-9cd6-0e4cc350a9d7","system_id":"levelo_inurba_marseille","lat":43.324771,"lon":5.36557,"is_reserved":false,"is_disabled":false,"rental_uris":{"android":"levelo://app?vid=732115dd-fc36-4cea-9cd6-0e4cc350a9d7","ios":"levelo://app?vid=732115dd-fc36-4cea-9cd6-0e4cc350a9d7"},"vehicle_type_id":"4","last_reported":1713301658,"current_range_meters":7200,"station_id":"ce4bhs12rcd13ifvqhvg","pricing_plan_id":"cebpf4jnsgd1na2vs0mg"},{"bike_id":"6850d3ac-6118-46b8-87a3-283cb8f13775","system_id":"levelo_inurba_marseille","lat":43.324771,"lon":5.36557,"is_reserved":false,"is_disabled":false,"rental_uris":{"android":"levelo://app?vid=6850d3ac-6118-46b8-87a3-283cb8f13775","ios":"levelo://app?vid=6850d3ac-6118-46b8-87a3-283cb8f13775"},"vehicle_type_id":"4","last_reported":1713301658,"current_range_meters":14400,"station_id":"ce4bhs12rcd13ifvqhvg","pricing_plan_id":"cebpf4jnsgd1na2vs0mg"},{"bike_id":"3bf0dbf7-1a46-4454-85d4-d6199fac68a8","system_id":"levelo_inurba_marseille","lat":43.324771,"lon":5.36557,"is_reserved":false,"is_disabled":false,"rental_uris":{"android":"levelo://app?vid=3bf0dbf7-1a46-4454-85d4-d6199fac68a8","ios":"levelo://app?vid=3bf0dbf7-1a46-4454-85d4-d6199fac68a8"},"vehicle_type_id":"4","last_reported":1713301658,"current_range_meters":8400,"station_id":"ce4bhs12rcd13ifvqhvg","pricing_plan_id":"cebpf4jnsgd1na2vs0mg"},{"bike_id":"e8b24879-9d3c-40ae-bed9-97af92151430","system_id":"levelo_inurba_marseille","lat":43.310804,"lon":5.38359,"is_reserved":false,"is_disabled":false,"rental_uris":{"android":"levelo://app?vid=e8b24879-9d3c-40ae-bed9-97af92151430","ios":"levelo://app?vid=e8b24879-9d3c-40ae-bed9-97af92151430"},"vehicle_type_id":"4","last_reported":1713301658,"current_range_meters":0,"station_id":"ce4bgv92rcd13ifvqcr0","pricing_plan_id":"cebpf4jnsgd1na2vs0mg"},{"bike_id":"fb961c54-d86e-4c51-9812-a80fd53cb14f","system_id":"levelo_inurba_marseille","lat":43.310728,"lon":5.383537,"is_reserved":false,"is_disabled":false,"rental_uris":{"android":"levelo://app?vid=fb961c54-d86e-4c51-9812-a80fd53cb14f","ios":"levelo://app?vid=fb961c54-d86e-4c51-9812-a80fd53cb14f"},"vehicle_type_id":"4","last_reported":1713301658,"current_range_meters":0,"station_id":"ce4bgv92rcd13ifvqcr0","pricing_plan_id":"cebpf4jnsgd1na2vs0mg"},{"bike_id":"06256dd7-e96b-4729-832f-a17fe2e3e1a8","system_id":"levelo_inurba_marseille","lat":43.310804,"lon":5.38359,"is_reserved":false,"is_disabled":false,"rental_uris":{"android":"levelo://app?vid=06256dd7-e96b-4729-832f-a17fe2e3e1a8","ios":"levelo://app?vid=06256dd7-e96b-4729-832f-a17fe2e3e1a8"},"vehicle_type_id":"4","last_reported":1713301658,"current_range_meters":24400,"station_id":"ce4bgv92rcd13ifvqcr0","pricing_plan_id":"cebpf4jnsgd1na2vs0mg"},{"bike_id":"e67152fe-28df-43ad-a7af-4d27057439ca","system_id":"levelo_inurba_marseille","lat":43.310804,"lon":5.38359,"is_reserved":false,"is_disabled":false,"rental_uris":{"android":"levelo://app?vid=e67152fe-28df-43ad-a7af-4d27057439ca","ios":"levelo://app?vid=e67152fe-28df-43ad-a7af-4d27057439ca"},"vehicle_type_id":"4","last_reported":1713301658,"current_range_meters":5600,"station_id":"ce4bgv92rcd13ifvqcr0","pricing_plan_id":"cebpf4jnsgd1na2vs0mg"},{"bike_id":"215fc47b-2eca-42c5-8431-b9309fadfbd5","system_id":"levelo_inurba_marseille","lat":43.310804,"lon":5.38359,"is_reserved":false,"is_disabled":false,"rental_uris":{"android":"levelo://app?vid=215fc47b-2eca-42c5-8431-b9309fadfbd5","ios":"levelo://app?vid=215fc47b-2eca-42c5-8431-b9309fadfbd5"},"vehicle_type_id":"4","last_reported":1713301658,"current_range_meters":3200,"station_id":"ce4bgv92rcd13ifvqcr0","pricing_plan_id":"cebpf4jnsgd1na2vs0mg"},{"bike_id":"2be588d5-b9ca-4c8d-ae84-5cd3edac54aa","system_id":"levelo_inurba_marseille","lat":43.310804,"lon":5.38359,"is_reserved":false,"is_disabled":false,"rental_uris":{"android":"levelo://app?vid=2be588d5-b9ca-4c8d-ae84-5cd3edac54aa","ios":"levelo://app?vid=2be588d5-b9ca-4c8d-ae84-5cd3edac54aa"},"vehicle_type_id":"4","last_reported":1713301658,"current_range_meters":14400,"station_id":"ce4bgv92rcd13ifvqcr0","pricing_plan_id":"cebpf4jnsgd1na2vs0mg"},{"bike_id":"0807926f-8c32-4f90-aa38-86a194a8cd36","system_id":"levelo_inurba_marseille","lat":43.302784,"lon":5.377158,"is_reserved":false,"is_disabled":false,"rental_uris":{"android":"levelo://app?vid=0807926f-8c32-4f90-aa38-86a194a8cd36","ios":"levelo://app?vid=0807926f-8c32-4f90-aa38-86a194a8cd36"},"vehicle_type_id":"4","last_reported":1713301658,"current_range_meters":10000,"station_id":"ce4bguh2rcd13ifvqcj0","pricing_plan_id":"cebpf4jnsgd1na2vs0mg"},{"bike_id":"e213c088-bfdf-4c40-953c-5d999a160f62","system_id":"levelo_inurba_marseille","lat":43.302784,"lon":5.377158,"is_reserved":false,"is_disabled":false,"rental_uris":{"android":"levelo://app?vid=e213c088-bfdf-4c40-953c-5d999a160f62","ios":"levelo://app?vid=e213c088-bfdf-4c40-953c-5d999a160f62"},"vehicle_type_id":"4","last_reported":1713301658,"current_range_meters":4000,"station_id":"ce4bguh2rcd13ifvqcj0","pricing_plan_id":"cebpf4jnsgd1na2vs0mg"},{"bike_id":"e36e8739-62e1-4d40-bb42-67097c74b27e","system_id":"levelo_inurba_marseille","lat":43.302784,"lon":5.377158,"is_reserved":false,"is_disabled":false,"rental_uris":{"android":"levelo://app?vid=e36e8739-62e1-4d40-bb42-67097c74b27e","ios":"levelo://app?vid=e36e8739-62e1-4d40-bb42-67097c74b27e"},"vehicle_type_id":"4","last_reported":1713301658,"current_range_meters":28800,"station_id":"ce4bguh2rcd13ifvqcj0","pricing_plan_id":"cebpf4jnsgd1na2vs0mg"},{"bike_id":"5e0422c4-4db2-4cd5-8ec6-f1a5f73617e2","system_id":"levelo_inurba_marseille","lat":43.305683,"lon":5.381346,"is_reserved":false,"is_disabled":false,"rental_uris":{"android":"levelo://app?vid=5e0422c4-4db2-4cd5-8ec6-f1a5f73617e2","ios":"levelo://app?vid=5e0422c4-4db2-4cd5-8ec6-f1a5f73617e2"},"vehicle_type_id":"4","last_reported":1713301658,"current_range_meters":22800,"station_id":"","pricing_plan_id":"cebpf4jnsgd1na2vs0mg"},{"bike_id":"252b1aad-2087-4bec-b4ef-898ffb9e27a1","system_id":"levelo_inurba_marseille","lat":43.319935,"lon":5.381699,"is_reserved":false,"is_disabled":false,"rental_uris":{"android":"levelo://app?vid=252b1aad-2087-4bec-b4ef-898ffb9e27a1","ios":"levelo://app?vid=252b1aad-2087-4bec-b4ef-898ffb9e27a1"},"vehicle_type_id":"4","last_reported":1713301658,"current_range_meters":10000,"station_id":"ce4bhr12rcd13ifvqhpg","pricing_plan_id":"cebpf4jnsgd1na2vs0mg"},{"bike_id":"d022893b-5ec7-430d-a3e4-e8108bbd57b3","system_id":"levelo_inurba_marseille","lat":43.31997,"lon":5.38146,"is_reserved":false,"is_disabled":false,"rental_uris":{"android":"levelo://app?vid=d022893b-5ec7-430d-a3e4-e8108bbd57b3","ios":"levelo://app?vid=d022893b-5ec7-430d-a3e4-e8108bbd57b3"},"vehicle_type_id":"4","last_reported":1713301658,"current_range_meters":2000,"station_id":"ce4bhr12rcd13ifvqhpg","pricing_plan_id":"cebpf4jnsgd1na2vs0mg"},{"bike_id":"c63dc825-06b9-402d-8174-3b17e34f8d5c","system_id":"levelo_inurba_marseille","lat":43.319935,"lon":5.381699,"is_reserved":false,"is_disabled":false,"rental_uris":{"android":"levelo://app?vid=c63dc825-06b9-402d-8174-3b17e34f8d5c","ios":"levelo://app?vid=c63dc825-06b9-402d-8174-3b17e34f8d5c"},"vehicle_type_id":"4","last_reported":1713301658,"current_range_meters":11200,"station_id":"ce4bhr12rcd13ifvqhpg","pricing_plan_id":"cebpf4jnsgd1na2vs0mg"},{"bike_id":"425f6628-b6f6-493e-90a9-d0a9dadab5d7","system_id":"levelo_inurba_marseille","lat":43.319935,"lon":5.381699,"is_reserved":false,"is_disabled":false,"rental_uris":{"android":"levelo://app?vid=425f6628-b6f6-493e-90a9-d0a9dadab5d7","ios":"levelo://app?vid=425f6628-b6f6-493e-90a9-d0a9dadab5d7"},"vehicle_type_id":"4","last_reported":1713301658,"current_range_meters":11600,"station_id":"ce4bhr12rcd13ifvqhpg","pricing_plan_id":"cebpf4jnsgd1na2vs0mg"},{"bike_id":"f00613ec-f56b-4110-b7f4-e096c4497746","system_id":"levelo_inurba_marseille","lat":43.319935,"lon":5.381699,"is_reserved":false,"is_disabled":false,"rental_uris":{"android":"levelo://app?vid=f00613ec-f56b-4110-b7f4-e096c4497746","ios":"levelo://app?vid=f00613ec-f56b-4110-b7f4-e096c4497746"},"vehicle_type_id":"4","last_reported":1713301658,"current_range_meters":26000,"station_id":"ce4bhr12rcd13ifvqhpg","pricing_plan_id":"cebpf4jnsgd1na2vs0mg"},{"bike_id":"d1928dcd-a1e5-4342-9479-8b973099efc0","system_id":"levelo_inurba_marseille","lat":43.319935,"lon":5.381699,"is_reserved":false,"is_disabled":false,"rental_uris":{"android":"levelo://app?vid=d1928dcd-a1e5-4342-9479-8b973099efc0","ios":"levelo://app?vid=d1928dcd-a1e5-4342-9479-8b973099efc0"},"vehicle_type_id":"4","last_reported":1713301658,"current_range_meters":1600,"station_id":"ce4bhr12rcd13ifvqhpg","pricing_plan_id":"cebpf4jnsgd1na2vs0mg"},{"bike_id":"334e3407-4f9b-4b57-a5ef-39033f25d948","system_id":"levelo_inurba_marseille","lat":43.319935,"lon":5.381699,"is_reserved":false,"is_disabled":false,"rental_uris":{"android":"levelo://app?vid=334e3407-4f9b-4b57-a5ef-39033f25d948","ios":"levelo://app?vid=334e3407-4f9b-4b57-a5ef-39033f25d948"},"vehicle_type_id":"4","last_reported":1713301658,"current_range_meters":0,"station_id":"ce4bhr12rcd13ifvqhpg","pricing_plan_id":"cebpf4jnsgd1na2vs0mg"},{"bike_id":"82cbbd9b-fccb-4f3a-afab-6019d13cedda","system_id":"levelo_inurba_marseille","lat":43.32002,"lon":5.38156,"is_reserved":false,"is_disabled":false,"rental_uris":{"android":"levelo://app?vid=82cbbd9b-fccb-4f3a-afab-6019d13cedda","ios":"levelo://app?vid=82cbbd9b-fccb-4f3a-afab-6019d13cedda"},"vehicle_type_id":"4","last_reported":1713301658,"current_range_meters":0,"station_id":"ce4bhr12rcd13ifvqhpg","pricing_plan_id":"cebpf4jnsgd1na2vs0mg"},{"bike_id":"421a1cfb-93e0-4e6b-9822-b334fc47623d","system_id":"levelo_inurba_marseille","lat":43.319999,"lon":5.381595,"is_reserved":false,"is_disabled":false,"rental_uris":{"android":"levelo://app?vid=421a1cfb-93e0-4e6b-9822-b334fc47623d","ios":"levelo://app?vid=421a1cfb-93e0-4e6b-9822-b334fc47623d"},"vehicle_type_id":"4","last_reported":1713301658,"current_range_meters":1200,"station_id":"ce4bhr12rcd13ifvqhpg","pricing_plan_id":"cebpf4jnsgd1na2vs0mg"},{"bike_id":"d83bb215-5636-4d15-9bb7-0e7a35087f67","system_id":"levelo_inurba_marseille","lat":43.313571,"lon":5.384829,"is_reserved":false,"is_disabled":false,"rental_uris":{"android":"levelo://app?vid=d83bb215-5636-4d15-9bb7-0e7a35087f67","ios":"levelo://app?vid=d83bb215-5636-4d15-9bb7-0e7a35087f67"},"vehicle_type_id":"4","last_reported":1713301658,"current_range_meters":23200,"station_id":"ce4bgt92rcd13ifvqcf0","pricing_plan_id":"cebpf4jnsgd1na2vs0mg"},{"bike_id":"0509c4dc-b23c-4bc7-a820-cefcbfc4ffff","system_id":"levelo_inurba_marseille","lat":43.313571,"lon":5.384829,"is_reserved":false,"is_disabled":false,"rental_uris":{"android":"levelo://app?vid=0509c4dc-b23c-4bc7-a820-cefcbfc4ffff","ios":"levelo://app?vid=0509c4dc-b23c-4bc7-a820-cefcbfc4ffff"},"vehicle_type_id":"4","last_reported":1713301658,"current_range_meters":22800,"station_id":"ce4bgt92rcd13ifvqcf0","pricing_plan_id":"cebpf4jnsgd1na2vs0mg"},{"bike_id":"7ee3d897-03ac-4ea2-9f37-61801fb1ead6","system_id":"levelo_inurba_marseille","lat":43.313571,"lon":5.384829,"is_reserved":false,"is_disabled":false,"rental_uris":{"android":"levelo://app?vid=7ee3d897-03ac-4ea2-9f37-61801fb1ead6","ios":"levelo://app?vid=7ee3d897-03ac-4ea2-9f37-61801fb1ead6"},"vehicle_type_id":"4","last_reported":1713301658,"current_range_meters":24800,"station_id":"ce4bgt92rcd13ifvqcf0","pricing_plan_id":"cebpf4jnsgd1na2vs0mg"},{"bike_id":"9812ec43-be9a-4240-8b97-ca166a88cfa7","system_id":"levelo_inurba_marseille","lat":43.313571,"lon":5.384829,"is_reserved":false,"is_disabled":false,"rental_uris":{"android":"levelo://app?vid=9812ec43-be9a-4240-8b97-ca166a88cfa7","ios":"levelo://app?vid=9812ec43-be9a-4240-8b97-ca166a88cfa7"},"vehicle_type_id":"4","last_reported":1713301658,"current_range_meters":16400,"station_id":"ce4bgt92rcd13ifvqcf0","pricing_plan_id":"cebpf4jnsgd1na2vs0mg"},{"bike_id":"23f536b2-fb58-4961-a4b4-90ef444ca78f","system_id":"levelo_inurba_marseille","lat":43.313571,"lon":5.384829,"is_reserved":false,"is_disabled":false,"rental_uris":{"android":"levelo://app?vid=23f536b2-fb58-4961-a4b4-90ef444ca78f","ios":"levelo://app?vid=23f536b2-fb58-4961-a4b4-90ef444ca78f"},"vehicle_type_id":"4","last_reported":1713301658,"current_range_meters":12800,"station_id":"ce4bgt92rcd13ifvqcf0","pricing_plan_id":"cebpf4jnsgd1na2vs0mg"},{"bike_id":"8e0d8bcd-7d53-471e-b101-b8bd0dce0d73","system_id":"levelo_inurba_marseille","lat":43.313571,"lon":5.384829,"is_reserved":false,"is_disabled":false,"rental_uris":{"android":"levelo://app?vid=8e0d8bcd-7d53-471e-b101-b8bd0dce0d73","ios":"levelo://app?vid=8e0d8bcd-7d53-471e-b101-b8bd0dce0d73"},"vehicle_type_id":"4","last_reported":1713301658,"current_range_meters":11600,"station_id":"ce4bgt92rcd13ifvqcf0","pricing_plan_id":"cebpf4jnsgd1na2vs0mg"},{"bike_id":"44f0c26d-e395-4464-9a0a-462e20738686","system_id":"levelo_inurba_marseille","lat":43.29939,"lon":5.36539,"is_reserved":false,"is_disabled":false,"rental_uris":{"android":"levelo://app?vid=44f0c26d-e395-4464-9a0a-462e20738686","ios":"levelo://app?vid=44f0c26d-e395-4464-9a0a-462e20738686"},"vehicle_type_id":"4","last_reported":1713301658,"current_range_meters":0,"station_id":"ce4bgm92rcd13ifvqbr0","pricing_plan_id":"cebpf4jnsgd1na2vs0mg"},{"bike_id":"096d89d8-af61-47aa-9d95-a42c82d47187","system_id":"levelo_inurba_marseille","lat":43.299222,"lon":5.365554,"is_reserved":false,"is_disabled":false,"rental_uris":{"android":"levelo://app?vid=096d89d8-af61-47aa-9d95-a42c82d47187","ios":"levelo://app?vid=096d89d8-af61-47aa-9d95-a42c82d47187"},"vehicle_type_id":"4","last_reported":1713301658,"current_range_meters":17600,"station_id":"ce4bgm92rcd13ifvqbr0","pricing_plan_id":"cebpf4jnsgd1na2vs0mg"},{"bike_id":"ed2d7f71-ed1f-4354-ba0c-19e42aed02b8","system_id":"levelo_inurba_marseille","lat":43.299222,"lon":5.365554,"is_reserved":false,"is_disabled":false,"rental_uris":{"android":"levelo://app?vid=ed2d7f71-ed1f-4354-ba0c-19e42aed02b8","ios":"levelo://app?vid=ed2d7f71-ed1f-4354-ba0c-19e42aed02b8"},"vehicle_type_id":"4","last_reported":1713301658,"current_range_meters":3200,"station_id":"ce4bgm92rcd13ifvqbr0","pricing_plan_id":"cebpf4jnsgd1na2vs0mg"},{"bike_id":"6d427520-a15e-4f25-88b0-6415d482c8cc","system_id":"levelo_inurba_marseille","lat":43.299222,"lon":5.365554,"is_reserved":false,"is_disabled":false,"rental_uris":{"android":"levelo://app?vid=6d427520-a15e-4f25-88b0-6415d482c8cc","ios":"levelo://app?vid=6d427520-a15e-4f25-88b0-6415d482c8cc"},"vehicle_type_id":"4","last_reported":1713301658,"current_range_meters":11600,"station_id":"ce4bgm92rcd13ifvqbr0","pricing_plan_id":"cebpf4jnsgd1na2vs0mg"},{"bike_id":"5aef1b8b-6cd3-4dba-a25c-3087e1ce0118","system_id":"levelo_inurba_marseille","lat":43.29975,"lon":5.371883,"is_reserved":false,"is_disabled":false,"rental_uris":{"android":"levelo://app?vid=5aef1b8b-6cd3-4dba-a25c-3087e1ce0118","ios":"levelo://app?vid=5aef1b8b-6cd3-4dba-a25c-3087e1ce0118"},"vehicle_type_id":"4","last_reported":1713301658,"current_range_meters":0,"station_id":"ce4bgr92rcd13ifvqc7g","pricing_plan_id":"cebpf4jnsgd1na2vs0mg"},{"bike_id":"9eecbfa3-b413-45b2-86e3-22a3bc187001","system_id":"levelo_inurba_marseille","lat":43.299222,"lon":5.365554,"is_reserved":false,"is_disabled":false,"rental_uris":{"android":"levelo://app?vid=9eecbfa3-b413-45b2-86e3-22a3bc187001","ios":"levelo://app?vid=9eecbfa3-b413-45b2-86e3-22a3bc187001"},"vehicle_type_id":"4","last_reported":1713301658,"current_range_meters":0,"station_id":"ce4bgm92rcd13ifvqbr0","pricing_plan_id":"cebpf4jnsgd1na2vs0mg"},{"bike_id":"79b1484c-7ca2-4a8d-b15b-2987062d3cb2","system_id":"levelo_inurba_marseille","lat":43.29998,"lon":5.37655,"is_reserved":false,"is_disabled":false,"rental_uris":{"android":"levelo://app?vid=79b1484c-7ca2-4a8d-b15b-2987062d3cb2","ios":"levelo://app?vid=79b1484c-7ca2-4a8d-b15b-2987062d3cb2"},"vehicle_type_id":"4","last_reported":1713301658,"current_range_meters":28400,"station_id":"","pricing_plan_id":"cebpf4jnsgd1na2vs0mg"},{"bike_id":"3c6cb9bf-f329-4e81-8501-c1ce6b0643c1","system_id":"levelo_inurba_marseille","lat":43.305364,"lon":5.384119,"is_reserved":false,"is_disabled":false,"rental_uris":{"android":"levelo://app?vid=3c6cb9bf-f329-4e81-8501-c1ce6b0643c1","ios":"levelo://app?vid=3c6cb9bf-f329-4e81-8501-c1ce6b0643c1"},"vehicle_type_id":"4","last_reported":1713301658,"current_range_meters":25600,"station_id":"ce4bgg92rcd13ifvqb30","pricing_plan_id":"cebpf4jnsgd1na2vs0mg"},{"bike_id":"04ce5ef0-b291-422e-86b6-633f5b1cca63","system_id":"levelo_inurba_marseille","lat":43.298433,"lon":5.362774,"is_reserved":false,"is_disabled":false,"rental_uris":{"android":"levelo://app?vid=04ce5ef0-b291-422e-86b6-633f5b1cca63","ios":"levelo://app?vid=04ce5ef0-b291-422e-86b6-633f5b1cca63"},"vehicle_type_id":"4","last_reported":1713301658,"current_range_meters":7600,"station_id":"ce4bgpp2rcd13ifvqc3g","pricing_plan_id":"cebpf4jnsgd1na2vs0mg"},{"bike_id":"36b5b520-13ec-4a71-b0e2-4053fd4c6d5d","system_id":"levelo_inurba_marseille","lat":43.3118,"lon":5.387057,"is_reserved":false,"is_disabled":false,"rental_uris":{"android":"levelo://app?vid=36b5b520-13ec-4a71-b0e2-4053fd4c6d5d","ios":"levelo://app?vid=36b5b520-13ec-4a71-b0e2-4053fd4c6d5d"},"vehicle_type_id":"4","last_reported":1713301658,"current_range_meters":0,"station_id":"ce4bgv12rcd13ifvqcp0","pricing_plan_id":"cebpf4jnsgd1na2vs0mg"},{"bike_id":"53332bc6-3e9c-4734-ab27-22e6d18009c3","system_id":"levelo_inurba_marseille","lat":43.311722,"lon":5.387247,"is_reserved":false,"is_disabled":false,"rental_uris":{"android":"levelo://app?vid=53332bc6-3e9c-4734-ab27-22e6d18009c3","ios":"levelo://app?vid=53332bc6-3e9c-4734-ab27-22e6d18009c3"},"vehicle_type_id":"4","last_reported":1713301658,"current_range_meters":3600,"station_id":"ce4bgv12rcd13ifvqcp0","pricing_plan_id":"cebpf4jnsgd1na2vs0mg"},{"bike_id":"d0c45ab7-37d7-416a-8de9-20440fd6fb35","system_id":"levelo_inurba_marseille","lat":43.299155,"lon":5.374835,"is_reserved":false,"is_disabled":false,"rental_uris":{"android":"levelo://app?vid=d0c45ab7-37d7-416a-8de9-20440fd6fb35","ios":"levelo://app?vid=d0c45ab7-37d7-416a-8de9-20440fd6fb35"},"vehicle_type_id":"4","last_reported":1713301658,"current_range_meters":9600,"station_id":"ce4bgjh2rcd13ifvqbg0","pricing_plan_id":"cebpf4jnsgd1na2vs0mg"},{"bike_id":"1d60b6ca-8026-4935-b072-3ac064af196c","system_id":"levelo_inurba_marseille","lat":43.311722,"lon":5.387247,"is_reserved":false,"is_disabled":false,"rental_uris":{"android":"levelo://app?vid=1d60b6ca-8026-4935-b072-3ac064af196c","ios":"levelo://app?vid=1d60b6ca-8026-4935-b072-3ac064af196c"},"vehicle_type_id":"4","last_reported":1713301658,"current_range_meters":12800,"station_id":"ce4bgv12rcd13ifvqcp0","pricing_plan_id":"cebpf4jnsgd1na2vs0mg"},{"bike_id":"2f66c199-ba48-4358-b392-f6600ea97a56","system_id":"levelo_inurba_marseille","lat":43.311722,"lon":5.387247,"is_reserved":false,"is_disabled":false,"rental_uris":{"android":"levelo://app?vid=2f66c199-ba48-4358-b392-f6600ea97a56","ios":"levelo://app?vid=2f66c199-ba48-4358-b392-f6600ea97a56"},"vehicle_type_id":"4","last_reported":1713301658,"current_range_meters":31200,"station_id":"ce4bgv12rcd13ifvqcp0","pricing_plan_id":"cebpf4jnsgd1na2vs0mg"},{"bike_id":"10e7c0ae-0d16-4327-82df-22ce17fac6ea","system_id":"levelo_inurba_marseille","lat":43.311722,"lon":5.387247,"is_reserved":false,"is_disabled":false,"rental_uris":{"android":"levelo://app?vid=10e7c0ae-0d16-4327-82df-22ce17fac6ea","ios":"levelo://app?vid=10e7c0ae-0d16-4327-82df-22ce17fac6ea"},"vehicle_type_id":"4","last_reported":1713301658,"current_range_meters":31200,"station_id":"ce4bgv12rcd13ifvqcp0","pricing_plan_id":"cebpf4jnsgd1na2vs0mg"},{"bike_id":"819793c9-b1ae-4c8c-84a6-36347bddf674","system_id":"levelo_inurba_marseille","lat":43.311722,"lon":5.387247,"is_reserved":false,"is_disabled":false,"rental_uris":{"android":"levelo://app?vid=819793c9-b1ae-4c8c-84a6-36347bddf674","ios":"levelo://app?vid=819793c9-b1ae-4c8c-84a6-36347bddf674"},"vehicle_type_id":"4","last_reported":1713301658,"current_range_meters":22400,"station_id":"ce4bgv12rcd13ifvqcp0","pricing_plan_id":"cebpf4jnsgd1na2vs0mg"},{"bike_id":"c2584501-b6d1-4af2-a46e-cadf777598ff","system_id":"levelo_inurba_marseille","lat":43.311722,"lon":5.387247,"is_reserved":false,"is_disabled":false,"rental_uris":{"android":"levelo://app?vid=c2584501-b6d1-4af2-a46e-cadf777598ff","ios":"levelo://app?vid=c2584501-b6d1-4af2-a46e-cadf777598ff"},"vehicle_type_id":"4","last_reported":1713301658,"current_range_meters":12800,"station_id":"ce4bgv12rcd13ifvqcp0","pricing_plan_id":"cebpf4jnsgd1na2vs0mg"},{"bike_id":"1e45cd76-aace-4eb6-81db-3c88211a4173","system_id":"levelo_inurba_marseille","lat":43.311722,"lon":5.387247,"is_reserved":false,"is_disabled":false,"rental_uris":{"android":"levelo://app?vid=1e45cd76-aace-4eb6-81db-3c88211a4173","ios":"levelo://app?vid=1e45cd76-aace-4eb6-81db-3c88211a4173"},"vehicle_type_id":"4","last_reported":1713301658,"current_range_meters":18800,"station_id":"ce4bgv12rcd13ifvqcp0","pricing_plan_id":"cebpf4jnsgd1na2vs0mg"},{"bike_id":"b1a3a71e-2f4f-48a3-a709-47344eb53b00","system_id":"levelo_inurba_marseille","lat":43.311722,"lon":5.387247,"is_reserved":false,"is_disabled":false,"rental_uris":{"android":"levelo://app?vid=b1a3a71e-2f4f-48a3-a709-47344eb53b00","ios":"levelo://app?vid=b1a3a71e-2f4f-48a3-a709-47344eb53b00"},"vehicle_type_id":"4","last_reported":1713301658,"current_range_meters":20400,"station_id":"ce4bgv12rcd13ifvqcp0","pricing_plan_id":"cebpf4jnsgd1na2vs0mg"},{"bike_id":"4fc868a1-d2ca-415b-8f36-db9a2c0944bd","system_id":"levelo_inurba_marseille","lat":43.32288,"lon":5.38266,"is_reserved":false,"is_disabled":false,"rental_uris":{"android":"levelo://app?vid=4fc868a1-d2ca-415b-8f36-db9a2c0944bd","ios":"levelo://app?vid=4fc868a1-d2ca-415b-8f36-db9a2c0944bd"},"vehicle_type_id":"4","last_reported":1713301658,"current_range_meters":0,"station_id":"ce4bhr12rcd13ifvqhqg","pricing_plan_id":"cebpf4jnsgd1na2vs0mg"},{"bike_id":"68d61b33-8e0d-45ae-a4ca-21d1e19dcd45","system_id":"levelo_inurba_marseille","lat":43.322872,"lon":5.382756,"is_reserved":false,"is_disabled":false,"rental_uris":{"android":"levelo://app?vid=68d61b33-8e0d-45ae-a4ca-21d1e19dcd45","ios":"levelo://app?vid=68d61b33-8e0d-45ae-a4ca-21d1e19dcd45"},"vehicle_type_id":"4","last_reported":1713301658,"current_range_meters":10000,"station_id":"ce4bhr12rcd13ifvqhqg","pricing_plan_id":"cebpf4jnsgd1na2vs0mg"},{"bike_id":"5442c3f7-4cf1-4b6e-99cd-8eef7dd431a2","system_id":"levelo_inurba_marseille","lat":43.322872,"lon":5.382756,"is_reserved":false,"is_disabled":false,"rental_uris":{"android":"levelo://app?vid=5442c3f7-4cf1-4b6e-99cd-8eef7dd431a2","ios":"levelo://app?vid=5442c3f7-4cf1-4b6e-99cd-8eef7dd431a2"},"vehicle_type_id":"4","last_reported":1713301658,"current_range_meters":27200,"station_id":"ce4bhr12rcd13ifvqhqg","pricing_plan_id":"cebpf4jnsgd1na2vs0mg"},{"bike_id":"7a054e44-3274-4d9b-9a73-b3b9cc88f113","system_id":"levelo_inurba_marseille","lat":43.297794,"lon":5.370888,"is_reserved":false,"is_disabled":false,"rental_uris":{"android":"levelo://app?vid=7a054e44-3274-4d9b-9a73-b3b9cc88f113","ios":"levelo://app?vid=7a054e44-3274-4d9b-9a73-b3b9cc88f113"},"vehicle_type_id":"4","last_reported":1713301658,"current_range_meters":19600,"station_id":"ce4bgop2rcd13ifvqc1g","pricing_plan_id":"cebpf4jnsgd1na2vs0mg"},{"bike_id":"ef255d38-5859-4d91-b98f-edc1282dd85c","system_id":"levelo_inurba_marseille","lat":43.322872,"lon":5.382756,"is_reserved":false,"is_disabled":false,"rental_uris":{"android":"levelo://app?vid=ef255d38-5859-4d91-b98f-edc1282dd85c","ios":"levelo://app?vid=ef255d38-5859-4d91-b98f-edc1282dd85c"},"vehicle_type_id":"4","last_reported":1713301658,"current_range_meters":28000,"station_id":"ce4bhr12rcd13ifvqhqg","pricing_plan_id":"cebpf4jnsgd1na2vs0mg"},{"bike_id":"d327421d-0b5b-4265-bf6e-10f3aae9537b","system_id":"levelo_inurba_marseille","lat":43.297163,"lon":5.365866,"is_reserved":false,"is_disabled":false,"rental_uris":{"android":"levelo://app?vid=d327421d-0b5b-4265-bf6e-10f3aae9537b","ios":"levelo://app?vid=d327421d-0b5b-4265-bf6e-10f3aae9537b"},"vehicle_type_id":"4","last_reported":1713301658,"current_range_meters":14800,"station_id":"ce4bgn12rcd13ifvqbt0","pricing_plan_id":"cebpf4jnsgd1na2vs0mg"},{"bike_id":"bfa13ddf-8ba7-402b-86b8-f80987482f16","system_id":"levelo_inurba_marseille","lat":43.297163,"lon":5.365866,"is_reserved":false,"is_disabled":false,"rental_uris":{"android":"levelo://app?vid=bfa13ddf-8ba7-402b-86b8-f80987482f16","ios":"levelo://app?vid=bfa13ddf-8ba7-402b-86b8-f80987482f16"},"vehicle_type_id":"4","last_reported":1713301658,"current_range_meters":6800,"station_id":"ce4bgn12rcd13ifvqbt0","pricing_plan_id":"cebpf4jnsgd1na2vs0mg"},{"bike_id":"479b5107-83ab-4a74-ab8d-15db4f12ab79","system_id":"levelo_inurba_marseille","lat":43.297163,"lon":5.365866,"is_reserved":false,"is_disabled":false,"rental_uris":{"android":"levelo://app?vid=479b5107-83ab-4a74-ab8d-15db4f12ab79","ios":"levelo://app?vid=479b5107-83ab-4a74-ab8d-15db4f12ab79"},"vehicle_type_id":"4","last_reported":1713301658,"current_range_meters":6400,"station_id":"ce4bgn12rcd13ifvqbt0","pricing_plan_id":"cebpf4jnsgd1na2vs0mg"},{"bike_id":"e55fda42-46da-4f9c-9e83-c63387550ce8","system_id":"levelo_inurba_marseille","lat":43.297163,"lon":5.365866,"is_reserved":false,"is_disabled":false,"rental_uris":{"android":"levelo://app?vid=e55fda42-46da-4f9c-9e83-c63387550ce8","ios":"levelo://app?vid=e55fda42-46da-4f9c-9e83-c63387550ce8"},"vehicle_type_id":"4","last_reported":1713301658,"current_range_meters":8800,"station_id":"ce4bgn12rcd13ifvqbt0","pricing_plan_id":"cebpf4jnsgd1na2vs0mg"},{"bike_id":"7fab1e62-b689-4420-9f28-d932b29908f2","system_id":"levelo_inurba_marseille","lat":43.297163,"lon":5.365866,"is_reserved":false,"is_disabled":false,"rental_uris":{"android":"levelo://app?vid=7fab1e62-b689-4420-9f28-d932b29908f2","ios":"levelo://app?vid=7fab1e62-b689-4420-9f28-d932b29908f2"},"vehicle_type_id":"4","last_reported":1713301658,"current_range_meters":1600,"station_id":"ce4bgn12rcd13ifvqbt0","pricing_plan_id":"cebpf4jnsgd1na2vs0mg"},{"bike_id":"3c1a1530-5ab9-4802-9e74-7a5817146419","system_id":"levelo_inurba_marseille","lat":43.297163,"lon":5.365866,"is_reserved":false,"is_disabled":false,"rental_uris":{"android":"levelo://app?vid=3c1a1530-5ab9-4802-9e74-7a5817146419","ios":"levelo://app?vid=3c1a1530-5ab9-4802-9e74-7a5817146419"},"vehicle_type_id":"4","last_reported":1713301658,"current_range_meters":14000,"station_id":"ce4bgn12rcd13ifvqbt0","pricing_plan_id":"cebpf4jnsgd1na2vs0mg"},{"bike_id":"d659c648-5884-431a-8080-b4d6a1eac715","system_id":"levelo_inurba_marseille","lat":43.297163,"lon":5.365866,"is_reserved":false,"is_disabled":false,"rental_uris":{"android":"levelo://app?vid=d659c648-5884-431a-8080-b4d6a1eac715","ios":"levelo://app?vid=d659c648-5884-431a-8080-b4d6a1eac715"},"vehicle_type_id":"4","last_reported":1713301658,"current_range_meters":19600,"station_id":"ce4bgn12rcd13ifvqbt0","pricing_plan_id":"cebpf4jnsgd1na2vs0mg"},{"bike_id":"4fc4dd2e-9b9b-4e8e-963a-96f555b94c48","system_id":"levelo_inurba_marseille","lat":43.297163,"lon":5.365866,"is_reserved":false,"is_disabled":false,"rental_uris":{"android":"levelo://app?vid=4fc4dd2e-9b9b-4e8e-963a-96f555b94c48","ios":"levelo://app?vid=4fc4dd2e-9b9b-4e8e-963a-96f555b94c48"},"vehicle_type_id":"4","last_reported":1713301658,"current_range_meters":21200,"station_id":"ce4bgn12rcd13ifvqbt0","pricing_plan_id":"cebpf4jnsgd1na2vs0mg"},{"bike_id":"26c06353-8d8f-4227-8408-4a41017321fd","system_id":"levelo_inurba_marseille","lat":43.297163,"lon":5.365866,"is_reserved":false,"is_disabled":false,"rental_uris":{"android":"levelo://app?vid=26c06353-8d8f-4227-8408-4a41017321fd","ios":"levelo://app?vid=26c06353-8d8f-4227-8408-4a41017321fd"},"vehicle_type_id":"4","last_reported":1713301658,"current_range_meters":1600,"station_id":"ce4bgn12rcd13ifvqbt0","pricing_plan_id":"cebpf4jnsgd1na2vs0mg"},{"bike_id":"edb43358-8118-4363-a73b-528eb80b41e2","system_id":"levelo_inurba_marseille","lat":43.295965,"lon":5.367375,"is_reserved":false,"is_disabled":false,"rental_uris":{"android":"levelo://app?vid=edb43358-8118-4363-a73b-528eb80b41e2","ios":"levelo://app?vid=edb43358-8118-4363-a73b-528eb80b41e2"},"vehicle_type_id":"4","last_reported":1713301658,"current_range_meters":0,"station_id":"ce4bgph2rcd13ifvqc2g","pricing_plan_id":"cebpf4jnsgd1na2vs0mg"},{"bike_id":"a85b95a5-c2f9-49e4-acf6-b603ef02494e","system_id":"levelo_inurba_marseille","lat":43.29573,"lon":5.367355,"is_reserved":false,"is_disabled":false,"rental_uris":{"android":"levelo://app?vid=a85b95a5-c2f9-49e4-acf6-b603ef02494e","ios":"levelo://app?vid=a85b95a5-c2f9-49e4-acf6-b603ef02494e"},"vehicle_type_id":"4","last_reported":1713301658,"current_range_meters":0,"station_id":"ce4bgph2rcd13ifvqc2g","pricing_plan_id":"cebpf4jnsgd1na2vs0mg"},{"bike_id":"70d6a832-6024-4f41-9ac4-458449e5b6c3","system_id":"levelo_inurba_marseille","lat":43.296921,"lon":5.376579,"is_reserved":false,"is_disabled":false,"rental_uris":{"android":"levelo://app?vid=70d6a832-6024-4f41-9ac4-458449e5b6c3","ios":"levelo://app?vid=70d6a832-6024-4f41-9ac4-458449e5b6c3"},"vehicle_type_id":"4","last_reported":1713301658,"current_range_meters":0,"station_id":"ce4bgkh2rcd13ifvqbl0","pricing_plan_id":"cebpf4jnsgd1na2vs0mg"},{"bike_id":"7bebcb04-07e1-47c4-9bad-4e337a7a3721","system_id":"levelo_inurba_marseille","lat":43.299028,"lon":5.381509,"is_reserved":false,"is_disabled":false,"rental_uris":{"android":"levelo://app?vid=7bebcb04-07e1-47c4-9bad-4e337a7a3721","ios":"levelo://app?vid=7bebcb04-07e1-47c4-9bad-4e337a7a3721"},"vehicle_type_id":"4","last_reported":1713301658,"current_range_meters":8000,"station_id":"ce4bgj12rcd13ifvqbc0","pricing_plan_id":"cebpf4jnsgd1na2vs0mg"},{"bike_id":"0b4ea251-7aac-4f83-b1c9-3da51fa6657f","system_id":"levelo_inurba_marseille","lat":43.299028,"lon":5.381509,"is_reserved":false,"is_disabled":false,"rental_uris":{"android":"levelo://app?vid=0b4ea251-7aac-4f83-b1c9-3da51fa6657f","ios":"levelo://app?vid=0b4ea251-7aac-4f83-b1c9-3da51fa6657f"},"vehicle_type_id":"4","last_reported":1713301658,"current_range_meters":0,"station_id":"ce4bgj12rcd13ifvqbc0","pricing_plan_id":"cebpf4jnsgd1na2vs0mg"},{"bike_id":"2b4902de-cdfd-4e51-900a-dff146b8fa4a","system_id":"levelo_inurba_marseille","lat":43.309589,"lon":5.390258,"is_reserved":false,"is_disabled":false,"rental_uris":{"android":"levelo://app?vid=2b4902de-cdfd-4e51-900a-dff146b8fa4a","ios":"levelo://app?vid=2b4902de-cdfd-4e51-900a-dff146b8fa4a"},"vehicle_type_id":"4","last_reported":1713301658,"current_range_meters":11600,"station_id":"ce4bgup2rcd13ifvqco0","pricing_plan_id":"cebpf4jnsgd1na2vs0mg"},{"bike_id":"ba9e2df5-d074-4fba-8cd4-139498954d51","system_id":"levelo_inurba_marseille","lat":43.309589,"lon":5.390258,"is_reserved":false,"is_disabled":false,"rental_uris":{"android":"levelo://app?vid=ba9e2df5-d074-4fba-8cd4-139498954d51","ios":"levelo://app?vid=ba9e2df5-d074-4fba-8cd4-139498954d51"},"vehicle_type_id":"4","last_reported":1713301658,"current_range_meters":4800,"station_id":"ce4bgup2rcd13ifvqco0","pricing_plan_id":"cebpf4jnsgd1na2vs0mg"},{"bike_id":"28e2ea5f-b7d2-4e78-8675-7dd0b5e34928","system_id":"levelo_inurba_marseille","lat":43.309589,"lon":5.390258,"is_reserved":false,"is_disabled":false,"rental_uris":{"android":"levelo://app?vid=28e2ea5f-b7d2-4e78-8675-7dd0b5e34928","ios":"levelo://app?vid=28e2ea5f-b7d2-4e78-8675-7dd0b5e34928"},"vehicle_type_id":"4","last_reported":1713301658,"current_range_meters":2000,"station_id":"ce4bgup2rcd13ifvqco0","pricing_plan_id":"cebpf4jnsgd1na2vs0mg"},{"bike_id":"0be653b8-c1d8-4fdc-8344-70e44b76290c","system_id":"levelo_inurba_marseille","lat":43.31754,"lon":5.3901,"is_reserved":false,"is_disabled":false,"rental_uris":{"android":"levelo://app?vid=0be653b8-c1d8-4fdc-8344-70e44b76290c","ios":"levelo://app?vid=0be653b8-c1d8-4fdc-8344-70e44b76290c"},"vehicle_type_id":"4","last_reported":1713301658,"current_range_meters":15200,"station_id":"ce4bhqp2rcd13ifvqhng","pricing_plan_id":"cebpf4jnsgd1na2vs0mg"},{"bike_id":"d700fe8c-f0ca-46cf-89ef-dc19397dd4b1","system_id":"levelo_inurba_marseille","lat":43.317606,"lon":5.390124,"is_reserved":false,"is_disabled":false,"rental_uris":{"android":"levelo://app?vid=d700fe8c-f0ca-46cf-89ef-dc19397dd4b1","ios":"levelo://app?vid=d700fe8c-f0ca-46cf-89ef-dc19397dd4b1"},"vehicle_type_id":"4","last_reported":1713301658,"current_range_meters":16800,"station_id":"ce4bhqp2rcd13ifvqhng","pricing_plan_id":"cebpf4jnsgd1na2vs0mg"},{"bike_id":"c1f9238c-c066-42fa-881a-71ff39872ee5","system_id":"levelo_inurba_marseille","lat":43.31755,"lon":5.39018,"is_reserved":false,"is_disabled":false,"rental_uris":{"android":"levelo://app?vid=c1f9238c-c066-42fa-881a-71ff39872ee5","ios":"levelo://app?vid=c1f9238c-c066-42fa-881a-71ff39872ee5"},"vehicle_type_id":"4","last_reported":1713301658,"current_range_meters":9200,"station_id":"ce4bhqp2rcd13ifvqhng","pricing_plan_id":"cebpf4jnsgd1na2vs0mg"},{"bike_id":"afd389c0-7a1f-4448-8f6a-70ecd567a42f","system_id":"levelo_inurba_marseille","lat":43.317614,"lon":5.390158,"is_reserved":false,"is_disabled":false,"rental_uris":{"android":"levelo://app?vid=afd389c0-7a1f-4448-8f6a-70ecd567a42f","ios":"levelo://app?vid=afd389c0-7a1f-4448-8f6a-70ecd567a42f"},"vehicle_type_id":"4","last_reported":1713301658,"current_range_meters":18400,"station_id":"ce4bhqp2rcd13ifvqhng","pricing_plan_id":"cebpf4jnsgd1na2vs0mg"},{"bike_id":"90f153bd-2190-4088-b137-9ad520e813ac","system_id":"levelo_inurba_marseille","lat":43.31757,"lon":5.39018,"is_reserved":false,"is_disabled":false,"rental_uris":{"android":"levelo://app?vid=90f153bd-2190-4088-b137-9ad520e813ac","ios":"levelo://app?vid=90f153bd-2190-4088-b137-9ad520e813ac"},"vehicle_type_id":"4","last_reported":1713301658,"current_range_meters":17200,"station_id":"ce4bhqp2rcd13ifvqhng","pricing_plan_id":"cebpf4jnsgd1na2vs0mg"},{"bike_id":"ed8d703c-c8f5-4e25-9e80-5e5a9265951c","system_id":"levelo_inurba_marseille","lat":43.31758,"lon":5.39018,"is_reserved":false,"is_disabled":false,"rental_uris":{"android":"levelo://app?vid=ed8d703c-c8f5-4e25-9e80-5e5a9265951c","ios":"levelo://app?vid=ed8d703c-c8f5-4e25-9e80-5e5a9265951c"},"vehicle_type_id":"4","last_reported":1713301658,"current_range_meters":21200,"station_id":"ce4bhqp2rcd13ifvqhng","pricing_plan_id":"cebpf4jnsgd1na2vs0mg"},{"bike_id":"78269ca7-602f-46d4-8d85-b94199ba6512","system_id":"levelo_inurba_marseille","lat":43.317568,"lon":5.390188,"is_reserved":false,"is_disabled":false,"rental_uris":{"android":"levelo://app?vid=78269ca7-602f-46d4-8d85-b94199ba6512","ios":"levelo://app?vid=78269ca7-602f-46d4-8d85-b94199ba6512"},"vehicle_type_id":"4","last_reported":1713301658,"current_range_meters":8000,"station_id":"ce4bhqp2rcd13ifvqhng","pricing_plan_id":"cebpf4jnsgd1na2vs0mg"},{"bike_id":"455dc1c8-9851-440a-8443-3c79108420c7","system_id":"levelo_inurba_marseille","lat":43.317551,"lon":5.390221,"is_reserved":false,"is_disabled":false,"rental_uris":{"android":"levelo://app?vid=455dc1c8-9851-440a-8443-3c79108420c7","ios":"levelo://app?vid=455dc1c8-9851-440a-8443-3c79108420c7"},"vehicle_type_id":"4","last_reported":1713301658,"current_range_meters":0,"station_id":"ce4bhqp2rcd13ifvqhng","pricing_plan_id":"cebpf4jnsgd1na2vs0mg"},{"bike_id":"64e79c7c-35ca-4ed5-b140-a7eb9aa5d972","system_id":"levelo_inurba_marseille","lat":43.31759,"lon":5.39022,"is_reserved":false,"is_disabled":false,"rental_uris":{"android":"levelo://app?vid=64e79c7c-35ca-4ed5-b140-a7eb9aa5d972","ios":"levelo://app?vid=64e79c7c-35ca-4ed5-b140-a7eb9aa5d972"},"vehicle_type_id":"4","last_reported":1713301658,"current_range_meters":2800,"station_id":"ce4bhqp2rcd13ifvqhng","pricing_plan_id":"cebpf4jnsgd1na2vs0mg"},{"bike_id":"ef3fb784-1dd5-4bd2-b279-308a01ddd37f","system_id":"levelo_inurba_marseille","lat":43.317557,"lon":5.390173,"is_reserved":false,"is_disabled":false,"rental_uris":{"android":"levelo://app?vid=ef3fb784-1dd5-4bd2-b279-308a01ddd37f","ios":"levelo://app?vid=ef3fb784-1dd5-4bd2-b279-308a01ddd37f"},"vehicle_type_id":"4","last_reported":1713301658,"current_range_meters":21600,"station_id":"ce4bhqp2rcd13ifvqhng","pricing_plan_id":"cebpf4jnsgd1na2vs0mg"},{"bike_id":"427afb0d-4139-4aeb-8ed2-57d22a6dc413","system_id":"levelo_inurba_marseille","lat":43.31755,"lon":5.39028,"is_reserved":false,"is_disabled":false,"rental_uris":{"android":"levelo://app?vid=427afb0d-4139-4aeb-8ed2-57d22a6dc413","ios":"levelo://app?vid=427afb0d-4139-4aeb-8ed2-57d22a6dc413"},"vehicle_type_id":"4","last_reported":1713301658,"current_range_meters":1200,"station_id":"ce4bhqp2rcd13ifvqhng","pricing_plan_id":"cebpf4jnsgd1na2vs0mg"},{"bike_id":"c1f73a24-8788-475f-97f8-a0920c069a92","system_id":"levelo_inurba_marseille","lat":43.304274,"lon":5.388873,"is_reserved":false,"is_disabled":false,"rental_uris":{"android":"levelo://app?vid=c1f73a24-8788-475f-97f8-a0920c069a92","ios":"levelo://app?vid=c1f73a24-8788-475f-97f8-a0920c069a92"},"vehicle_type_id":"4","last_reported":1713301658,"current_range_meters":25200,"station_id":"ce4bgk12rcd13ifvqbi0","pricing_plan_id":"cebpf4jnsgd1na2vs0mg"},{"bike_id":"4d752d24-92aa-4a17-b643-ceafc3060e10","system_id":"levelo_inurba_marseille","lat":43.298037,"lon":5.381066,"is_reserved":false,"is_disabled":false,"rental_uris":{"android":"levelo://app?vid=4d752d24-92aa-4a17-b643-ceafc3060e10","ios":"levelo://app?vid=4d752d24-92aa-4a17-b643-ceafc3060e10"},"vehicle_type_id":"4","last_reported":1713301658,"current_range_meters":11600,"station_id":"ce4bgip2rcd13ifvqbb0","pricing_plan_id":"cebpf4jnsgd1na2vs0mg"},{"bike_id":"d4f434e3-88f1-46db-a9d9-7a31151ebdd5","system_id":"levelo_inurba_marseille","lat":43.304274,"lon":5.388873,"is_reserved":false,"is_disabled":false,"rental_uris":{"android":"levelo://app?vid=d4f434e3-88f1-46db-a9d9-7a31151ebdd5","ios":"levelo://app?vid=d4f434e3-88f1-46db-a9d9-7a31151ebdd5"},"vehicle_type_id":"4","last_reported":1713301658,"current_range_meters":23600,"station_id":"ce4bgk12rcd13ifvqbi0","pricing_plan_id":"cebpf4jnsgd1na2vs0mg"},{"bike_id":"32ea885a-8f02-4301-b185-cdfd993e0dc3","system_id":"levelo_inurba_marseille","lat":43.304274,"lon":5.388873,"is_reserved":false,"is_disabled":false,"rental_uris":{"android":"levelo://app?vid=32ea885a-8f02-4301-b185-cdfd993e0dc3","ios":"levelo://app?vid=32ea885a-8f02-4301-b185-cdfd993e0dc3"},"vehicle_type_id":"4","last_reported":1713301658,"current_range_meters":400,"station_id":"ce4bgk12rcd13ifvqbi0","pricing_plan_id":"cebpf4jnsgd1na2vs0mg"},{"bike_id":"faf87db4-5e1a-4ff6-bf66-5fef82751d81","system_id":"levelo_inurba_marseille","lat":43.304278,"lon":5.388868,"is_reserved":false,"is_disabled":false,"rental_uris":{"android":"levelo://app?vid=faf87db4-5e1a-4ff6-bf66-5fef82751d81","ios":"levelo://app?vid=faf87db4-5e1a-4ff6-bf66-5fef82751d81"},"vehicle_type_id":"4","last_reported":1713301658,"current_range_meters":7600,"station_id":"ce4bgk12rcd13ifvqbi0","pricing_plan_id":"cebpf4jnsgd1na2vs0mg"},{"bike_id":"4837f368-c857-4aac-92c6-85aacb097591","system_id":"levelo_inurba_marseille","lat":43.304274,"lon":5.388873,"is_reserved":false,"is_disabled":false,"rental_uris":{"android":"levelo://app?vid=4837f368-c857-4aac-92c6-85aacb097591","ios":"levelo://app?vid=4837f368-c857-4aac-92c6-85aacb097591"},"vehicle_type_id":"4","last_reported":1713301658,"current_range_meters":16400,"station_id":"ce4bgk12rcd13ifvqbi0","pricing_plan_id":"cebpf4jnsgd1na2vs0mg"},{"bike_id":"b2045a61-de2c-46d1-820c-072b45134f1d","system_id":"levelo_inurba_marseille","lat":43.304274,"lon":5.388873,"is_reserved":false,"is_disabled":false,"rental_uris":{"android":"levelo://app?vid=b2045a61-de2c-46d1-820c-072b45134f1d","ios":"levelo://app?vid=b2045a61-de2c-46d1-820c-072b45134f1d"},"vehicle_type_id":"4","last_reported":1713301658,"current_range_meters":24400,"station_id":"ce4bgk12rcd13ifvqbi0","pricing_plan_id":"cebpf4jnsgd1na2vs0mg"},{"bike_id":"2d6cb6b2-df00-45fd-85f3-7fd4830e72e5","system_id":"levelo_inurba_marseille","lat":43.304274,"lon":5.388873,"is_reserved":false,"is_disabled":false,"rental_uris":{"android":"levelo://app?vid=2d6cb6b2-df00-45fd-85f3-7fd4830e72e5","ios":"levelo://app?vid=2d6cb6b2-df00-45fd-85f3-7fd4830e72e5"},"vehicle_type_id":"4","last_reported":1713301658,"current_range_meters":12000,"station_id":"ce4bgk12rcd13ifvqbi0","pricing_plan_id":"cebpf4jnsgd1na2vs0mg"},{"bike_id":"9a1c6045-8134-41e3-96b3-0a23f7a1b8d9","system_id":"levelo_inurba_marseille","lat":43.296263,"lon":5.377094,"is_reserved":false,"is_disabled":false,"rental_uris":{"android":"levelo://app?vid=9a1c6045-8134-41e3-96b3-0a23f7a1b8d9","ios":"levelo://app?vid=9a1c6045-8134-41e3-96b3-0a23f7a1b8d9"},"vehicle_type_id":"4","last_reported":1713301658,"current_range_meters":28400,"station_id":"ce4bgi92rcd13ifvqb90","pricing_plan_id":"cebpf4jnsgd1na2vs0mg"},{"bike_id":"b0793953-53b7-43d1-b309-44bd026535b4","system_id":"levelo_inurba_marseille","lat":43.304274,"lon":5.388873,"is_reserved":false,"is_disabled":false,"rental_uris":{"android":"levelo://app?vid=b0793953-53b7-43d1-b309-44bd026535b4","ios":"levelo://app?vid=b0793953-53b7-43d1-b309-44bd026535b4"},"vehicle_type_id":"4","last_reported":1713301658,"current_range_meters":10400,"station_id":"ce4bgk12rcd13ifvqbi0","pricing_plan_id":"cebpf4jnsgd1na2vs0mg"},{"bike_id":"316fc5de-5224-47af-aaf3-8437e60246c2","system_id":"levelo_inurba_marseille","lat":43.279087,"lon":5.380114,"is_reserved":false,"is_disabled":false,"rental_uris":{"android":"levelo://app?vid=316fc5de-5224-47af-aaf3-8437e60246c2","ios":"levelo://app?vid=316fc5de-5224-47af-aaf3-8437e60246c2"},"vehicle_type_id":"4","last_reported":1713301658,"current_range_meters":400,"station_id":"ce4bhf92rcd13ifvqf50","pricing_plan_id":"cebpf4jnsgd1na2vs0mg"},{"bike_id":"7ecc5270-337d-45ba-b0ee-c8d1f81a9a8c","system_id":"levelo_inurba_marseille","lat":43.30031,"lon":5.38591,"is_reserved":false,"is_disabled":false,"rental_uris":{"android":"levelo://app?vid=7ecc5270-337d-45ba-b0ee-c8d1f81a9a8c","ios":"levelo://app?vid=7ecc5270-337d-45ba-b0ee-c8d1f81a9a8c"},"vehicle_type_id":"4","last_reported":1713301658,"current_range_meters":0,"station_id":"","pricing_plan_id":"cebpf4jnsgd1na2vs0mg"},{"bike_id":"811ffd61-06db-49c1-9c98-e1de26fea33e","system_id":"levelo_inurba_marseille","lat":43.299707,"lon":5.384859,"is_reserved":false,"is_disabled":false,"rental_uris":{"android":"levelo://app?vid=811ffd61-06db-49c1-9c98-e1de26fea33e","ios":"levelo://app?vid=811ffd61-06db-49c1-9c98-e1de26fea33e"},"vehicle_type_id":"4","last_reported":1713301658,"current_range_meters":16000,"station_id":"ce4bgj92rcd13ifvqbd0","pricing_plan_id":"cebpf4jnsgd1na2vs0mg"},{"bike_id":"5b60a390-f65e-4ca0-b4d5-73705bdcca14","system_id":"levelo_inurba_marseille","lat":43.299707,"lon":5.384859,"is_reserved":false,"is_disabled":false,"rental_uris":{"android":"levelo://app?vid=5b60a390-f65e-4ca0-b4d5-73705bdcca14","ios":"levelo://app?vid=5b60a390-f65e-4ca0-b4d5-73705bdcca14"},"vehicle_type_id":"4","last_reported":1713301658,"current_range_meters":2000,"station_id":"ce4bgj92rcd13ifvqbd0","pricing_plan_id":"cebpf4jnsgd1na2vs0mg"},{"bike_id":"eccc45d1-4228-4d4f-b5b6-6d20197350c2","system_id":"levelo_inurba_marseille","lat":43.32367,"lon":5.388836,"is_reserved":false,"is_disabled":false,"rental_uris":{"android":"levelo://app?vid=eccc45d1-4228-4d4f-b5b6-6d20197350c2","ios":"levelo://app?vid=eccc45d1-4228-4d4f-b5b6-6d20197350c2"},"vehicle_type_id":"4","last_reported":1713301658,"current_range_meters":14400,"station_id":"ce4bhqp2rcd13ifvqhog","pricing_plan_id":"cebpf4jnsgd1na2vs0mg"},{"bike_id":"426c9628-f34b-41bc-8c6f-7f869f5292be","system_id":"levelo_inurba_marseille","lat":43.32372,"lon":5.38882,"is_reserved":false,"is_disabled":false,"rental_uris":{"android":"levelo://app?vid=426c9628-f34b-41bc-8c6f-7f869f5292be","ios":"levelo://app?vid=426c9628-f34b-41bc-8c6f-7f869f5292be"},"vehicle_type_id":"4","last_reported":1713301658,"current_range_meters":2400,"station_id":"ce4bhqp2rcd13ifvqhog","pricing_plan_id":"cebpf4jnsgd1na2vs0mg"},{"bike_id":"c2c80858-6471-44a7-a10e-6bab49267680","system_id":"levelo_inurba_marseille","lat":43.32367,"lon":5.388836,"is_reserved":false,"is_disabled":false,"rental_uris":{"android":"levelo://app?vid=c2c80858-6471-44a7-a10e-6bab49267680","ios":"levelo://app?vid=c2c80858-6471-44a7-a10e-6bab49267680"},"vehicle_type_id":"4","last_reported":1713301658,"current_range_meters":18800,"station_id":"ce4bhqp2rcd13ifvqhog","pricing_plan_id":"cebpf4jnsgd1na2vs0mg"},{"bike_id":"ce23a27f-7b8e-4c39-a78f-ae8f3857897f","system_id":"levelo_inurba_marseille","lat":43.32367,"lon":5.388836,"is_reserved":false,"is_disabled":false,"rental_uris":{"android":"levelo://app?vid=ce23a27f-7b8e-4c39-a78f-ae8f3857897f","ios":"levelo://app?vid=ce23a27f-7b8e-4c39-a78f-ae8f3857897f"},"vehicle_type_id":"4","last_reported":1713301658,"current_range_meters":0,"station_id":"ce4bhqp2rcd13ifvqhog","pricing_plan_id":"cebpf4jnsgd1na2vs0mg"},{"bike_id":"3c722733-05f4-4714-9cb1-3ed8b82e3eb7","system_id":"levelo_inurba_marseille","lat":43.323647,"lon":5.388917,"is_reserved":false,"is_disabled":false,"rental_uris":{"android":"levelo://app?vid=3c722733-05f4-4714-9cb1-3ed8b82e3eb7","ios":"levelo://app?vid=3c722733-05f4-4714-9cb1-3ed8b82e3eb7"},"vehicle_type_id":"4","last_reported":1713301658,"current_range_meters":5200,"station_id":"ce4bhqp2rcd13ifvqhog","pricing_plan_id":"cebpf4jnsgd1na2vs0mg"},{"bike_id":"b28dad6a-1e4b-458f-932a-d274310376e0","system_id":"levelo_inurba_marseille","lat":43.32367,"lon":5.388836,"is_reserved":false,"is_disabled":false,"rental_uris":{"android":"levelo://app?vid=b28dad6a-1e4b-458f-932a-d274310376e0","ios":"levelo://app?vid=b28dad6a-1e4b-458f-932a-d274310376e0"},"vehicle_type_id":"4","last_reported":1713301658,"current_range_meters":0,"station_id":"ce4bhqp2rcd13ifvqhog","pricing_plan_id":"cebpf4jnsgd1na2vs0mg"},{"bike_id":"47a0dc67-d91d-45c6-9d7b-b95c2bdf2283","system_id":"levelo_inurba_marseille","lat":43.32367,"lon":5.38895,"is_reserved":false,"is_disabled":false,"rental_uris":{"android":"levelo://app?vid=47a0dc67-d91d-45c6-9d7b-b95c2bdf2283","ios":"levelo://app?vid=47a0dc67-d91d-45c6-9d7b-b95c2bdf2283"},"vehicle_type_id":"4","last_reported":1713301658,"current_range_meters":4400,"station_id":"ce4bhqp2rcd13ifvqhog","pricing_plan_id":"cebpf4jnsgd1na2vs0mg"},{"bike_id":"f9e57575-7204-4888-8aac-a61f9350419e","system_id":"levelo_inurba_marseille","lat":43.29598,"lon":5.38087,"is_reserved":false,"is_disabled":false,"rental_uris":{"android":"levelo://app?vid=f9e57575-7204-4888-8aac-a61f9350419e","ios":"levelo://app?vid=f9e57575-7204-4888-8aac-a61f9350419e"},"vehicle_type_id":"4","last_reported":1713301658,"current_range_meters":0,"station_id":"ce4bgl12rcd13ifvqbo0","pricing_plan_id":"cebpf4jnsgd1na2vs0mg"},{"bike_id":"9bddc2f7-bede-4fa6-ae19-8b2e2658d938","system_id":"levelo_inurba_marseille","lat":43.29291,"lon":5.36881,"is_reserved":false,"is_disabled":false,"rental_uris":{"android":"levelo://app?vid=9bddc2f7-bede-4fa6-ae19-8b2e2658d938","ios":"levelo://app?vid=9bddc2f7-bede-4fa6-ae19-8b2e2658d938"},"vehicle_type_id":"4","last_reported":1713301658,"current_range_meters":0,"station_id":"ce4bhbp2rcd13ifvqesg","pricing_plan_id":"cebpf4jnsgd1na2vs0mg"},{"bike_id":"c709297a-02f3-4914-bcbc-0cccc30ef86b","system_id":"levelo_inurba_marseille","lat":43.32551,"lon":5.38796,"is_reserved":false,"is_disabled":false,"rental_uris":{"android":"levelo://app?vid=c709297a-02f3-4914-bcbc-0cccc30ef86b","ios":"levelo://app?vid=c709297a-02f3-4914-bcbc-0cccc30ef86b"},"vehicle_type_id":"4","last_reported":1713301658,"current_range_meters":7200,"station_id":"","pricing_plan_id":"cebpf4jnsgd1na2vs0mg"},{"bike_id":"efb633d9-63e7-46d4-aedd-adc5dd70b875","system_id":"levelo_inurba_marseille","lat":43.293249,"lon":5.371578,"is_reserved":false,"is_disabled":false,"rental_uris":{"android":"levelo://app?vid=efb633d9-63e7-46d4-aedd-adc5dd70b875","ios":"levelo://app?vid=efb633d9-63e7-46d4-aedd-adc5dd70b875"},"vehicle_type_id":"4","last_reported":1713301658,"current_range_meters":12000,"station_id":"ce4bgh92rcd13ifvqb40","pricing_plan_id":"cebpf4jnsgd1na2vs0mg"},{"bike_id":"7ad44c82-3e9d-46f6-9525-4c3bc793a951","system_id":"levelo_inurba_marseille","lat":43.301117,"lon":5.398795,"is_reserved":false,"is_disabled":false,"rental_uris":{"android":"levelo://app?vid=7ad44c82-3e9d-46f6-9525-4c3bc793a951","ios":"levelo://app?vid=7ad44c82-3e9d-46f6-9525-4c3bc793a951"},"vehicle_type_id":"4","last_reported":1713301658,"current_range_meters":21600,"station_id":"ce4bh0h2rcd13ifvqd40","pricing_plan_id":"cebpf4jnsgd1na2vs0mg"},{"bike_id":"5015e8c1-eae1-444a-b815-2494fe727fb2","system_id":"levelo_inurba_marseille","lat":43.30589,"lon":5.39351,"is_reserved":false,"is_disabled":false,"rental_uris":{"android":"levelo://app?vid=5015e8c1-eae1-444a-b815-2494fe727fb2","ios":"levelo://app?vid=5015e8c1-eae1-444a-b815-2494fe727fb2"},"vehicle_type_id":"4","last_reported":1713301658,"current_range_meters":0,"station_id":"ce4bh0p2rcd13ifvqd80","pricing_plan_id":"cebpf4jnsgd1na2vs0mg"},{"bike_id":"a8ccdf6e-f0d5-4771-a049-d80eff0cec97","system_id":"levelo_inurba_marseille","lat":43.305994,"lon":5.393687,"is_reserved":false,"is_disabled":false,"rental_uris":{"android":"levelo://app?vid=a8ccdf6e-f0d5-4771-a049-d80eff0cec97","ios":"levelo://app?vid=a8ccdf6e-f0d5-4771-a049-d80eff0cec97"},"vehicle_type_id":"4","last_reported":1713301658,"current_range_meters":0,"station_id":"ce4bh0p2rcd13ifvqd80","pricing_plan_id":"cebpf4jnsgd1na2vs0mg"},{"bike_id":"d03cbadb-ea1f-4cf9-a9a1-9d0a511b320d","system_id":"levelo_inurba_marseille","lat":43.302992,"lon":5.392136,"is_reserved":false,"is_disabled":false,"rental_uris":{"android":"levelo://app?vid=d03cbadb-ea1f-4cf9-a9a1-9d0a511b320d","ios":"levelo://app?vid=d03cbadb-ea1f-4cf9-a9a1-9d0a511b320d"},"vehicle_type_id":"4","last_reported":1713301658,"current_range_meters":11600,"station_id":"ce4bgkh2rcd13ifvqbk0","pricing_plan_id":"cebpf4jnsgd1na2vs0mg"},{"bike_id":"aac9df61-23f9-43ec-b241-54dca54e1412","system_id":"levelo_inurba_marseille","lat":43.303002,"lon":5.392142,"is_reserved":false,"is_disabled":false,"rental_uris":{"android":"levelo://app?vid=aac9df61-23f9-43ec-b241-54dca54e1412","ios":"levelo://app?vid=aac9df61-23f9-43ec-b241-54dca54e1412"},"vehicle_type_id":"4","last_reported":1713301658,"current_range_meters":9600,"station_id":"ce4bgkh2rcd13ifvqbk0","pricing_plan_id":"cebpf4jnsgd1na2vs0mg"},{"bike_id":"dafc026b-11bb-482b-914b-bdea567db816","system_id":"levelo_inurba_marseille","lat":43.30303,"lon":5.39211,"is_reserved":false,"is_disabled":false,"rental_uris":{"android":"levelo://app?vid=dafc026b-11bb-482b-914b-bdea567db816","ios":"levelo://app?vid=dafc026b-11bb-482b-914b-bdea567db816"},"vehicle_type_id":"4","last_reported":1713301658,"current_range_meters":10000,"station_id":"ce4bgkh2rcd13ifvqbk0","pricing_plan_id":"cebpf4jnsgd1na2vs0mg"},{"bike_id":"87a04f2d-65a7-4976-8fd5-c1cd3f8fd047","system_id":"levelo_inurba_marseille","lat":43.303002,"lon":5.392142,"is_reserved":false,"is_disabled":false,"rental_uris":{"android":"levelo://app?vid=87a04f2d-65a7-4976-8fd5-c1cd3f8fd047","ios":"levelo://app?vid=87a04f2d-65a7-4976-8fd5-c1cd3f8fd047"},"vehicle_type_id":"4","last_reported":1713301658,"current_range_meters":0,"station_id":"ce4bgkh2rcd13ifvqbk0","pricing_plan_id":"cebpf4jnsgd1na2vs0mg"},{"bike_id":"8fe5d32f-5789-4689-9357-c0add438c370","system_id":"levelo_inurba_marseille","lat":43.303002,"lon":5.392142,"is_reserved":false,"is_disabled":false,"rental_uris":{"android":"levelo://app?vid=8fe5d32f-5789-4689-9357-c0add438c370","ios":"levelo://app?vid=8fe5d32f-5789-4689-9357-c0add438c370"},"vehicle_type_id":"4","last_reported":1713301658,"current_range_meters":29600,"station_id":"ce4bgkh2rcd13ifvqbk0","pricing_plan_id":"cebpf4jnsgd1na2vs0mg"},{"bike_id":"b9a51437-2ff7-4fd4-a13d-e2fe1ebca1db","system_id":"levelo_inurba_marseille","lat":43.302989,"lon":5.392179,"is_reserved":false,"is_disabled":false,"rental_uris":{"android":"levelo://app?vid=b9a51437-2ff7-4fd4-a13d-e2fe1ebca1db","ios":"levelo://app?vid=b9a51437-2ff7-4fd4-a13d-e2fe1ebca1db"},"vehicle_type_id":"4","last_reported":1713301658,"current_range_meters":11600,"station_id":"ce4bgkh2rcd13ifvqbk0","pricing_plan_id":"cebpf4jnsgd1na2vs0mg"},{"bike_id":"a2179fdf-efa1-4a54-bbd4-9c7bacdf8e21","system_id":"levelo_inurba_marseille","lat":43.284534,"lon":5.358662,"is_reserved":false,"is_disabled":false,"rental_uris":{"android":"levelo://app?vid=a2179fdf-efa1-4a54-bbd4-9c7bacdf8e21","ios":"levelo://app?vid=a2179fdf-efa1-4a54-bbd4-9c7bacdf8e21"},"vehicle_type_id":"4","last_reported":1713301658,"current_range_meters":5600,"station_id":"ce4bhah2rcd13ifvqei0","pricing_plan_id":"cebpf4jnsgd1na2vs0mg"},{"bike_id":"06f0eca3-ccb9-46ad-a8a5-b671089a5942","system_id":"levelo_inurba_marseille","lat":43.302992,"lon":5.392136,"is_reserved":false,"is_disabled":false,"rental_uris":{"android":"levelo://app?vid=06f0eca3-ccb9-46ad-a8a5-b671089a5942","ios":"levelo://app?vid=06f0eca3-ccb9-46ad-a8a5-b671089a5942"},"vehicle_type_id":"4","last_reported":1713301658,"current_range_meters":2400,"station_id":"ce4bgkh2rcd13ifvqbk0","pricing_plan_id":"cebpf4jnsgd1na2vs0mg"},{"bike_id":"b38a58a3-99be-4f0c-aa35-7877d4525080","system_id":"levelo_inurba_marseille","lat":43.278399,"lon":5.392139,"is_reserved":false,"is_disabled":false,"rental_uris":{"android":"levelo://app?vid=b38a58a3-99be-4f0c-aa35-7877d4525080","ios":"levelo://app?vid=b38a58a3-99be-4f0c-aa35-7877d4525080"},"vehicle_type_id":"4","last_reported":1713301658,"current_range_meters":0,"station_id":"ce4bhjp2rcd13ifvqga0","pricing_plan_id":"cebpf4jnsgd1na2vs0mg"},{"bike_id":"ab6e5fe8-f79e-4112-90b2-179380b082b1","system_id":"levelo_inurba_marseille","lat":43.2936,"lon":5.37835,"is_reserved":false,"is_disabled":false,"rental_uris":{"android":"levelo://app?vid=ab6e5fe8-f79e-4112-90b2-179380b082b1","ios":"levelo://app?vid=ab6e5fe8-f79e-4112-90b2-179380b082b1"},"vehicle_type_id":"4","last_reported":1713301658,"current_range_meters":4800,"station_id":"ce4bgjh2rcd13ifvqbf0","pricing_plan_id":"cebpf4jnsgd1na2vs0mg"},{"bike_id":"c11910d0-83b2-4a86-821b-9605e7d69108","system_id":"levelo_inurba_marseille","lat":43.300852,"lon":5.390859,"is_reserved":false,"is_disabled":false,"rental_uris":{"android":"levelo://app?vid=c11910d0-83b2-4a86-821b-9605e7d69108","ios":"levelo://app?vid=c11910d0-83b2-4a86-821b-9605e7d69108"},"vehicle_type_id":"4","last_reported":1713301658,"current_range_meters":16800,"station_id":"ce4bh192rcd13ifvqdb0","pricing_plan_id":"cebpf4jnsgd1na2vs0mg"},{"bike_id":"5c136aa4-9346-4e47-905b-2d99afe07867","system_id":"levelo_inurba_marseille","lat":43.300852,"lon":5.390859,"is_reserved":false,"is_disabled":false,"rental_uris":{"android":"levelo://app?vid=5c136aa4-9346-4e47-905b-2d99afe07867","ios":"levelo://app?vid=5c136aa4-9346-4e47-905b-2d99afe07867"},"vehicle_type_id":"4","last_reported":1713301658,"current_range_meters":20800,"station_id":"ce4bh192rcd13ifvqdb0","pricing_plan_id":"cebpf4jnsgd1na2vs0mg"},{"bike_id":"4a2b7c83-c8d1-4c22-b2e9-ca782fdd2272","system_id":"levelo_inurba_marseille","lat":43.300852,"lon":5.390859,"is_reserved":false,"is_disabled":false,"rental_uris":{"android":"levelo://app?vid=4a2b7c83-c8d1-4c22-b2e9-ca782fdd2272","ios":"levelo://app?vid=4a2b7c83-c8d1-4c22-b2e9-ca782fdd2272"},"vehicle_type_id":"4","last_reported":1713301658,"current_range_meters":13200,"station_id":"ce4bh192rcd13ifvqdb0","pricing_plan_id":"cebpf4jnsgd1na2vs0mg"},{"bike_id":"4c516719-e02f-4fb6-9e2e-f99824743386","system_id":"levelo_inurba_marseille","lat":43.30085,"lon":5.390856,"is_reserved":false,"is_disabled":false,"rental_uris":{"android":"levelo://app?vid=4c516719-e02f-4fb6-9e2e-f99824743386","ios":"levelo://app?vid=4c516719-e02f-4fb6-9e2e-f99824743386"},"vehicle_type_id":"4","last_reported":1713301658,"current_range_meters":24400,"station_id":"ce4bh192rcd13ifvqdb0","pricing_plan_id":"cebpf4jnsgd1na2vs0mg"},{"bike_id":"95851863-04c4-4596-b126-03ea9b26b117","system_id":"levelo_inurba_marseille","lat":43.300852,"lon":5.390859,"is_reserved":false,"is_disabled":false,"rental_uris":{"android":"levelo://app?vid=95851863-04c4-4596-b126-03ea9b26b117","ios":"levelo://app?vid=95851863-04c4-4596-b126-03ea9b26b117"},"vehicle_type_id":"4","last_reported":1713301658,"current_range_meters":1600,"station_id":"ce4bh192rcd13ifvqdb0","pricing_plan_id":"cebpf4jnsgd1na2vs0mg"},{"bike_id":"138caa63-9ad8-4807-bd6a-3f4582dc1c5e","system_id":"levelo_inurba_marseille","lat":43.298764,"lon":5.388973,"is_reserved":false,"is_disabled":false,"rental_uris":{"android":"levelo://app?vid=138caa63-9ad8-4807-bd6a-3f4582dc1c5e","ios":"levelo://app?vid=138caa63-9ad8-4807-bd6a-3f4582dc1c5e"},"vehicle_type_id":"4","last_reported":1713301658,"current_range_meters":7600,"station_id":"ce4bh392rcd13ifvqdl0","pricing_plan_id":"cebpf4jnsgd1na2vs0mg"},{"bike_id":"0219833f-f7c2-41d1-af23-7294ef0bf8fa","system_id":"levelo_inurba_marseille","lat":43.298764,"lon":5.388973,"is_reserved":false,"is_disabled":false,"rental_uris":{"android":"levelo://app?vid=0219833f-f7c2-41d1-af23-7294ef0bf8fa","ios":"levelo://app?vid=0219833f-f7c2-41d1-af23-7294ef0bf8fa"},"vehicle_type_id":"4","last_reported":1713301658,"current_range_meters":19200,"station_id":"ce4bh392rcd13ifvqdl0","pricing_plan_id":"cebpf4jnsgd1na2vs0mg"},{"bike_id":"1c7b0bf3-2cdf-4733-9207-a78a2efc0f3f","system_id":"levelo_inurba_marseille","lat":43.29878,"lon":5.3891,"is_reserved":false,"is_disabled":false,"rental_uris":{"android":"levelo://app?vid=1c7b0bf3-2cdf-4733-9207-a78a2efc0f3f","ios":"levelo://app?vid=1c7b0bf3-2cdf-4733-9207-a78a2efc0f3f"},"vehicle_type_id":"4","last_reported":1713301658,"current_range_meters":25200,"station_id":"ce4bh392rcd13ifvqdl0","pricing_plan_id":"cebpf4jnsgd1na2vs0mg"},{"bike_id":"f55ddd19-516c-4e0a-b6c9-0fb6f1b24bdd","system_id":"levelo_inurba_marseille","lat":43.298764,"lon":5.388973,"is_reserved":false,"is_disabled":false,"rental_uris":{"android":"levelo://app?vid=f55ddd19-516c-4e0a-b6c9-0fb6f1b24bdd","ios":"levelo://app?vid=f55ddd19-516c-4e0a-b6c9-0fb6f1b24bdd"},"vehicle_type_id":"4","last_reported":1713301658,"current_range_meters":2000,"station_id":"ce4bh392rcd13ifvqdl0","pricing_plan_id":"cebpf4jnsgd1na2vs0mg"},{"bike_id":"526bd114-1afe-43fd-94d8-88378818bf4a","system_id":"levelo_inurba_marseille","lat":43.309047,"lon":5.396551,"is_reserved":false,"is_disabled":false,"rental_uris":{"android":"levelo://app?vid=526bd114-1afe-43fd-94d8-88378818bf4a","ios":"levelo://app?vid=526bd114-1afe-43fd-94d8-88378818bf4a"},"vehicle_type_id":"4","last_reported":1713301658,"current_range_meters":23200,"station_id":"ce4bh012rcd13ifvqcv0","pricing_plan_id":"cebpf4jnsgd1na2vs0mg"},{"bike_id":"cc8b728e-47b8-4d8d-8e5f-e55f4b1f7c57","system_id":"levelo_inurba_marseille","lat":43.309047,"lon":5.396551,"is_reserved":false,"is_disabled":false,"rental_uris":{"android":"levelo://app?vid=cc8b728e-47b8-4d8d-8e5f-e55f4b1f7c57","ios":"levelo://app?vid=cc8b728e-47b8-4d8d-8e5f-e55f4b1f7c57"},"vehicle_type_id":"4","last_reported":1713301658,"current_range_meters":0,"station_id":"ce4bh012rcd13ifvqcv0","pricing_plan_id":"cebpf4jnsgd1na2vs0mg"},{"bike_id":"21203241-0750-4d56-b01b-325793d5590e","system_id":"levelo_inurba_marseille","lat":43.309047,"lon":5.396551,"is_reserved":false,"is_disabled":false,"rental_uris":{"android":"levelo://app?vid=21203241-0750-4d56-b01b-325793d5590e","ios":"levelo://app?vid=21203241-0750-4d56-b01b-325793d5590e"},"vehicle_type_id":"4","last_reported":1713301658,"current_range_meters":2400,"station_id":"ce4bh012rcd13ifvqcv0","pricing_plan_id":"cebpf4jnsgd1na2vs0mg"},{"bike_id":"dd5f4cbd-42b5-476b-ad4b-ad91af22d4f2","system_id":"levelo_inurba_marseille","lat":43.291994,"lon":5.357886,"is_reserved":false,"is_disabled":false,"rental_uris":{"android":"levelo://app?vid=dd5f4cbd-42b5-476b-ad4b-ad91af22d4f2","ios":"levelo://app?vid=dd5f4cbd-42b5-476b-ad4b-ad91af22d4f2"},"vehicle_type_id":"4","last_reported":1713301658,"current_range_meters":6800,"station_id":"ce4bhb12rcd13ifvqel0","pricing_plan_id":"cebpf4jnsgd1na2vs0mg"},{"bike_id":"926b5fca-d41c-445d-99b2-ac44ab483bfc","system_id":"levelo_inurba_marseille","lat":43.309047,"lon":5.396551,"is_reserved":false,"is_disabled":false,"rental_uris":{"android":"levelo://app?vid=926b5fca-d41c-445d-99b2-ac44ab483bfc","ios":"levelo://app?vid=926b5fca-d41c-445d-99b2-ac44ab483bfc"},"vehicle_type_id":"4","last_reported":1713301658,"current_range_meters":27600,"station_id":"ce4bh012rcd13ifvqcv0","pricing_plan_id":"cebpf4jnsgd1na2vs0mg"},{"bike_id":"79ea102b-51c4-4ad9-8593-04068fc9f439","system_id":"levelo_inurba_marseille","lat":43.308834,"lon":5.39637,"is_reserved":false,"is_disabled":false,"rental_uris":{"android":"levelo://app?vid=79ea102b-51c4-4ad9-8593-04068fc9f439","ios":"levelo://app?vid=79ea102b-51c4-4ad9-8593-04068fc9f439"},"vehicle_type_id":"4","last_reported":1713301658,"current_range_meters":31200,"station_id":"ce4bh012rcd13ifvqcv0","pricing_plan_id":"cebpf4jnsgd1na2vs0mg"},{"bike_id":"a680442e-8028-4fc1-b687-e24fcbdc99fe","system_id":"levelo_inurba_marseille","lat":43.3088,"lon":5.39639,"is_reserved":false,"is_disabled":false,"rental_uris":{"android":"levelo://app?vid=a680442e-8028-4fc1-b687-e24fcbdc99fe","ios":"levelo://app?vid=a680442e-8028-4fc1-b687-e24fcbdc99fe"},"vehicle_type_id":"4","last_reported":1713301658,"current_range_meters":4000,"station_id":"ce4bh012rcd13ifvqcv0","pricing_plan_id":"cebpf4jnsgd1na2vs0mg"},{"bike_id":"588b4296-1c26-4c29-9621-0bd56a418966","system_id":"levelo_inurba_marseille","lat":43.313291,"lon":5.396838,"is_reserved":false,"is_disabled":false,"rental_uris":{"android":"levelo://app?vid=588b4296-1c26-4c29-9621-0bd56a418966","ios":"levelo://app?vid=588b4296-1c26-4c29-9621-0bd56a418966"},"vehicle_type_id":"4","last_reported":1713301658,"current_range_meters":12800,"station_id":"ce4bgvp2rcd13ifvqcu0","pricing_plan_id":"cebpf4jnsgd1na2vs0mg"},{"bike_id":"3480276b-cb29-483d-8361-c5f8967b17cd","system_id":"levelo_inurba_marseille","lat":43.30888,"lon":5.39642,"is_reserved":false,"is_disabled":false,"rental_uris":{"android":"levelo://app?vid=3480276b-cb29-483d-8361-c5f8967b17cd","ios":"levelo://app?vid=3480276b-cb29-483d-8361-c5f8967b17cd"},"vehicle_type_id":"4","last_reported":1713301658,"current_range_meters":22000,"station_id":"ce4bh012rcd13ifvqcv0","pricing_plan_id":"cebpf4jnsgd1na2vs0mg"},{"bike_id":"836b0e45-7d9f-43f2-8f7e-2ee5170cc957","system_id":"levelo_inurba_marseille","lat":43.309038,"lon":5.396546,"is_reserved":false,"is_disabled":false,"rental_uris":{"android":"levelo://app?vid=836b0e45-7d9f-43f2-8f7e-2ee5170cc957","ios":"levelo://app?vid=836b0e45-7d9f-43f2-8f7e-2ee5170cc957"},"vehicle_type_id":"4","last_reported":1713301658,"current_range_meters":30800,"station_id":"ce4bh012rcd13ifvqcv0","pricing_plan_id":"cebpf4jnsgd1na2vs0mg"},{"bike_id":"703c458b-7e66-4fa0-a317-e740b77ad2d8","system_id":"levelo_inurba_marseille","lat":43.308914,"lon":5.39646,"is_reserved":false,"is_disabled":false,"rental_uris":{"android":"levelo://app?vid=703c458b-7e66-4fa0-a317-e740b77ad2d8","ios":"levelo://app?vid=703c458b-7e66-4fa0-a317-e740b77ad2d8"},"vehicle_type_id":"4","last_reported":1713301658,"current_range_meters":9200,"station_id":"ce4bh012rcd13ifvqcv0","pricing_plan_id":"cebpf4jnsgd1na2vs0mg"},{"bike_id":"4335df12-a355-4cc5-9887-a15e53995467","system_id":"levelo_inurba_marseille","lat":43.31325,"lon":5.39692,"is_reserved":false,"is_disabled":false,"rental_uris":{"android":"levelo://app?vid=4335df12-a355-4cc5-9887-a15e53995467","ios":"levelo://app?vid=4335df12-a355-4cc5-9887-a15e53995467"},"vehicle_type_id":"4","last_reported":1713301658,"current_range_meters":5200,"station_id":"ce4bgvp2rcd13ifvqcu0","pricing_plan_id":"cebpf4jnsgd1na2vs0mg"},{"bike_id":"13883a3d-1734-43cf-a126-625db304a2e7","system_id":"levelo_inurba_marseille","lat":43.313291,"lon":5.396838,"is_reserved":false,"is_disabled":false,"rental_uris":{"android":"levelo://app?vid=13883a3d-1734-43cf-a126-625db304a2e7","ios":"levelo://app?vid=13883a3d-1734-43cf-a126-625db304a2e7"},"vehicle_type_id":"4","last_reported":1713301658,"current_range_meters":19600,"station_id":"ce4bgvp2rcd13ifvqcu0","pricing_plan_id":"cebpf4jnsgd1na2vs0mg"},{"bike_id":"d8c06d14-bb8d-46bb-b3f1-a0b9bf0f9fe2","system_id":"levelo_inurba_marseille","lat":43.313291,"lon":5.396838,"is_reserved":false,"is_disabled":false,"rental_uris":{"android":"levelo://app?vid=d8c06d14-bb8d-46bb-b3f1-a0b9bf0f9fe2","ios":"levelo://app?vid=d8c06d14-bb8d-46bb-b3f1-a0b9bf0f9fe2"},"vehicle_type_id":"4","last_reported":1713301658,"current_range_meters":16800,"station_id":"ce4bgvp2rcd13ifvqcu0","pricing_plan_id":"cebpf4jnsgd1na2vs0mg"},{"bike_id":"10de1db6-c334-4abb-85e8-1840a1d7f3ee","system_id":"levelo_inurba_marseille","lat":43.308768,"lon":5.396431,"is_reserved":false,"is_disabled":false,"rental_uris":{"android":"levelo://app?vid=10de1db6-c334-4abb-85e8-1840a1d7f3ee","ios":"levelo://app?vid=10de1db6-c334-4abb-85e8-1840a1d7f3ee"},"vehicle_type_id":"4","last_reported":1713301658,"current_range_meters":17200,"station_id":"ce4bh012rcd13ifvqcv0","pricing_plan_id":"cebpf4jnsgd1na2vs0mg"},{"bike_id":"f03a9a57-6e85-4131-8d64-321137bbaa9b","system_id":"levelo_inurba_marseille","lat":43.3133,"lon":5.39693,"is_reserved":false,"is_disabled":false,"rental_uris":{"android":"levelo://app?vid=f03a9a57-6e85-4131-8d64-321137bbaa9b","ios":"levelo://app?vid=f03a9a57-6e85-4131-8d64-321137bbaa9b"},"vehicle_type_id":"4","last_reported":1713301658,"current_range_meters":0,"station_id":"ce4bgvp2rcd13ifvqcu0","pricing_plan_id":"cebpf4jnsgd1na2vs0mg"},{"bike_id":"4a55112f-7f17-4bcb-97d5-1ec80d9de8ec","system_id":"levelo_inurba_marseille","lat":43.308898,"lon":5.396484,"is_reserved":false,"is_disabled":false,"rental_uris":{"android":"levelo://app?vid=4a55112f-7f17-4bcb-97d5-1ec80d9de8ec","ios":"levelo://app?vid=4a55112f-7f17-4bcb-97d5-1ec80d9de8ec"},"vehicle_type_id":"4","last_reported":1713301658,"current_range_meters":15200,"station_id":"ce4bh012rcd13ifvqcv0","pricing_plan_id":"cebpf4jnsgd1na2vs0mg"},{"bike_id":"82b2f9b4-2307-4a6e-b425-df72fed23079","system_id":"levelo_inurba_marseille","lat":43.309047,"lon":5.396551,"is_reserved":false,"is_disabled":false,"rental_uris":{"android":"levelo://app?vid=82b2f9b4-2307-4a6e-b425-df72fed23079","ios":"levelo://app?vid=82b2f9b4-2307-4a6e-b425-df72fed23079"},"vehicle_type_id":"4","last_reported":1713301658,"current_range_meters":31200,"station_id":"ce4bh012rcd13ifvqcv0","pricing_plan_id":"cebpf4jnsgd1na2vs0mg"},{"bike_id":"12a4047b-deb3-4847-9c91-b8fba96e60d6","system_id":"levelo_inurba_marseille","lat":43.313291,"lon":5.396838,"is_reserved":false,"is_disabled":false,"rental_uris":{"android":"levelo://app?vid=12a4047b-deb3-4847-9c91-b8fba96e60d6","ios":"levelo://app?vid=12a4047b-deb3-4847-9c91-b8fba96e60d6"},"vehicle_type_id":"4","last_reported":1713301658,"current_range_meters":3600,"station_id":"ce4bgvp2rcd13ifvqcu0","pricing_plan_id":"cebpf4jnsgd1na2vs0mg"},{"bike_id":"ebc70692-e3d3-40ce-ae56-74b246fd58ba","system_id":"levelo_inurba_marseille","lat":43.30881,"lon":5.39648,"is_reserved":false,"is_disabled":false,"rental_uris":{"android":"levelo://app?vid=ebc70692-e3d3-40ce-ae56-74b246fd58ba","ios":"levelo://app?vid=ebc70692-e3d3-40ce-ae56-74b246fd58ba"},"vehicle_type_id":"4","last_reported":1713301658,"current_range_meters":800,"station_id":"ce4bh012rcd13ifvqcv0","pricing_plan_id":"cebpf4jnsgd1na2vs0mg"},{"bike_id":"727eeda0-23c2-41be-a7a5-56ed63dd5ea4","system_id":"levelo_inurba_marseille","lat":43.291994,"lon":5.357886,"is_reserved":false,"is_disabled":false,"rental_uris":{"android":"levelo://app?vid=727eeda0-23c2-41be-a7a5-56ed63dd5ea4","ios":"levelo://app?vid=727eeda0-23c2-41be-a7a5-56ed63dd5ea4"},"vehicle_type_id":"4","last_reported":1713301658,"current_range_meters":19600,"station_id":"ce4bhb12rcd13ifvqel0","pricing_plan_id":"cebpf4jnsgd1na2vs0mg"},{"bike_id":"b89e57e0-d4e8-4593-b016-d6ddfbe91604","system_id":"levelo_inurba_marseille","lat":43.313291,"lon":5.396838,"is_reserved":false,"is_disabled":false,"rental_uris":{"android":"levelo://app?vid=b89e57e0-d4e8-4593-b016-d6ddfbe91604","ios":"levelo://app?vid=b89e57e0-d4e8-4593-b016-d6ddfbe91604"},"vehicle_type_id":"4","last_reported":1713301658,"current_range_meters":23600,"station_id":"ce4bgvp2rcd13ifvqcu0","pricing_plan_id":"cebpf4jnsgd1na2vs0mg"},{"bike_id":"53425ced-b14c-41a4-9f12-c9f57ef1a98e","system_id":"levelo_inurba_marseille","lat":43.313291,"lon":5.396838,"is_reserved":false,"is_disabled":false,"rental_uris":{"android":"levelo://app?vid=53425ced-b14c-41a4-9f12-c9f57ef1a98e","ios":"levelo://app?vid=53425ced-b14c-41a4-9f12-c9f57ef1a98e"},"vehicle_type_id":"4","last_reported":1713301658,"current_range_meters":1200,"station_id":"ce4bgvp2rcd13ifvqcu0","pricing_plan_id":"cebpf4jnsgd1na2vs0mg"},{"bike_id":"31174619-56d9-4ad5-ae86-df885e76f661","system_id":"levelo_inurba_marseille","lat":43.309047,"lon":5.396551,"is_reserved":false,"is_disabled":false,"rental_uris":{"android":"levelo://app?vid=31174619-56d9-4ad5-ae86-df885e76f661","ios":"levelo://app?vid=31174619-56d9-4ad5-ae86-df885e76f661"},"vehicle_type_id":"4","last_reported":1713301658,"current_range_meters":31200,"station_id":"ce4bh012rcd13ifvqcv0","pricing_plan_id":"cebpf4jnsgd1na2vs0mg"},{"bike_id":"82c9724f-5be6-430a-bed4-94d6d9c0cd1c","system_id":"levelo_inurba_marseille","lat":43.313291,"lon":5.396838,"is_reserved":false,"is_disabled":false,"rental_uris":{"android":"levelo://app?vid=82c9724f-5be6-430a-bed4-94d6d9c0cd1c","ios":"levelo://app?vid=82c9724f-5be6-430a-bed4-94d6d9c0cd1c"},"vehicle_type_id":"4","last_reported":1713301658,"current_range_meters":29600,"station_id":"ce4bgvp2rcd13ifvqcu0","pricing_plan_id":"cebpf4jnsgd1na2vs0mg"},{"bike_id":"0e094063-62c6-49a4-9d8f-35e044b3a48f","system_id":"levelo_inurba_marseille","lat":43.3133,"lon":5.39701,"is_reserved":false,"is_disabled":false,"rental_uris":{"android":"levelo://app?vid=0e094063-62c6-49a4-9d8f-35e044b3a48f","ios":"levelo://app?vid=0e094063-62c6-49a4-9d8f-35e044b3a48f"},"vehicle_type_id":"4","last_reported":1713301658,"current_range_meters":17600,"station_id":"ce4bgvp2rcd13ifvqcu0","pricing_plan_id":"cebpf4jnsgd1na2vs0mg"},{"bike_id":"c527a466-0f32-4e6b-8b1a-efcb1c1e807f","system_id":"levelo_inurba_marseille","lat":43.30893,"lon":5.39656,"is_reserved":false,"is_disabled":false,"rental_uris":{"android":"levelo://app?vid=c527a466-0f32-4e6b-8b1a-efcb1c1e807f","ios":"levelo://app?vid=c527a466-0f32-4e6b-8b1a-efcb1c1e807f"},"vehicle_type_id":"4","last_reported":1713301658,"current_range_meters":31200,"station_id":"ce4bh012rcd13ifvqcv0","pricing_plan_id":"cebpf4jnsgd1na2vs0mg"},{"bike_id":"866a9132-34b2-443c-bc62-26c80745cf1a","system_id":"levelo_inurba_marseille","lat":43.30884,"lon":5.39656,"is_reserved":false,"is_disabled":false,"rental_uris":{"android":"levelo://app?vid=866a9132-34b2-443c-bc62-26c80745cf1a","ios":"levelo://app?vid=866a9132-34b2-443c-bc62-26c80745cf1a"},"vehicle_type_id":"4","last_reported":1713301658,"current_range_meters":12800,"station_id":"ce4bh012rcd13ifvqcv0","pricing_plan_id":"cebpf4jnsgd1na2vs0mg"},{"bike_id":"7a9e99b8-8fbc-486f-9101-bb428699d0c5","system_id":"levelo_inurba_marseille","lat":43.309047,"lon":5.396551,"is_reserved":false,"is_disabled":false,"rental_uris":{"android":"levelo://app?vid=7a9e99b8-8fbc-486f-9101-bb428699d0c5","ios":"levelo://app?vid=7a9e99b8-8fbc-486f-9101-bb428699d0c5"},"vehicle_type_id":"4","last_reported":1713301658,"current_range_meters":31200,"station_id":"ce4bh012rcd13ifvqcv0","pricing_plan_id":"cebpf4jnsgd1na2vs0mg"},{"bike_id":"c491ee7e-8dc0-460b-beba-0594b547e041","system_id":"levelo_inurba_marseille","lat":43.309038,"lon":5.396546,"is_reserved":false,"is_disabled":false,"rental_uris":{"android":"levelo://app?vid=c491ee7e-8dc0-460b-beba-0594b547e041","ios":"levelo://app?vid=c491ee7e-8dc0-460b-beba-0594b547e041"},"vehicle_type_id":"4","last_reported":1713301658,"current_range_meters":7600,"station_id":"ce4bh012rcd13ifvqcv0","pricing_plan_id":"cebpf4jnsgd1na2vs0mg"},{"bike_id":"2e021c31-cee2-442e-bccc-7ca205e87a39","system_id":"levelo_inurba_marseille","lat":43.308847,"lon":5.396588,"is_reserved":false,"is_disabled":false,"rental_uris":{"android":"levelo://app?vid=2e021c31-cee2-442e-bccc-7ca205e87a39","ios":"levelo://app?vid=2e021c31-cee2-442e-bccc-7ca205e87a39"},"vehicle_type_id":"4","last_reported":1713301658,"current_range_meters":19200,"station_id":"ce4bh012rcd13ifvqcv0","pricing_plan_id":"cebpf4jnsgd1na2vs0mg"},{"bike_id":"66b691ad-e76b-4ce6-8b4c-d820b4f9ad3f","system_id":"levelo_inurba_marseille","lat":43.30888,"lon":5.3966,"is_reserved":false,"is_disabled":false,"rental_uris":{"android":"levelo://app?vid=66b691ad-e76b-4ce6-8b4c-d820b4f9ad3f","ios":"levelo://app?vid=66b691ad-e76b-4ce6-8b4c-d820b4f9ad3f"},"vehicle_type_id":"4","last_reported":1713301658,"current_range_meters":19600,"station_id":"ce4bh012rcd13ifvqcv0","pricing_plan_id":"cebpf4jnsgd1na2vs0mg"},{"bike_id":"ccac7258-4fa3-4583-bc3a-f7988b2c71eb","system_id":"levelo_inurba_marseille","lat":43.309047,"lon":5.396551,"is_reserved":false,"is_disabled":false,"rental_uris":{"android":"levelo://app?vid=ccac7258-4fa3-4583-bc3a-f7988b2c71eb","ios":"levelo://app?vid=ccac7258-4fa3-4583-bc3a-f7988b2c71eb"},"vehicle_type_id":"4","last_reported":1713301658,"current_range_meters":9200,"station_id":"ce4bh012rcd13ifvqcv0","pricing_plan_id":"cebpf4jnsgd1na2vs0mg"},{"bike_id":"30e6d694-e6fe-4703-b927-5c7a693e2151","system_id":"levelo_inurba_marseille","lat":43.308815,"lon":5.396595,"is_reserved":false,"is_disabled":false,"rental_uris":{"android":"levelo://app?vid=30e6d694-e6fe-4703-b927-5c7a693e2151","ios":"levelo://app?vid=30e6d694-e6fe-4703-b927-5c7a693e2151"},"vehicle_type_id":"4","last_reported":1713301658,"current_range_meters":12400,"station_id":"ce4bh012rcd13ifvqcv0","pricing_plan_id":"cebpf4jnsgd1na2vs0mg"},{"bike_id":"ce5ba622-9140-45bf-a74d-fe4017d204cb","system_id":"levelo_inurba_marseille","lat":43.301429,"lon":5.37413,"is_reserved":false,"is_disabled":false,"rental_uris":{"android":"levelo://app?vid=ce5ba622-9140-45bf-a74d-fe4017d204cb","ios":"levelo://app?vid=ce5ba622-9140-45bf-a74d-fe4017d204cb"},"vehicle_type_id":"4","last_reported":1713301658,"current_range_meters":26800,"station_id":"ce4bgs92rcd13ifvqcc0","pricing_plan_id":"cebpf4jnsgd1na2vs0mg"},{"bike_id":"4b1f78aa-7eb8-43cd-902e-9a1ce70b8fea","system_id":"levelo_inurba_marseille","lat":43.302008,"lon":5.394694,"is_reserved":false,"is_disabled":false,"rental_uris":{"android":"levelo://app?vid=4b1f78aa-7eb8-43cd-902e-9a1ce70b8fea","ios":"levelo://app?vid=4b1f78aa-7eb8-43cd-902e-9a1ce70b8fea"},"vehicle_type_id":"4","last_reported":1713301658,"current_range_meters":400,"station_id":"ce4bh0p2rcd13ifvqd70","pricing_plan_id":"cebpf4jnsgd1na2vs0mg"},{"bike_id":"67378943-fe24-4aa8-89f9-2563a6372b7f","system_id":"levelo_inurba_marseille","lat":43.302008,"lon":5.394694,"is_reserved":false,"is_disabled":false,"rental_uris":{"android":"levelo://app?vid=67378943-fe24-4aa8-89f9-2563a6372b7f","ios":"levelo://app?vid=67378943-fe24-4aa8-89f9-2563a6372b7f"},"vehicle_type_id":"4","last_reported":1713301658,"current_range_meters":30000,"station_id":"ce4bh0p2rcd13ifvqd70","pricing_plan_id":"cebpf4jnsgd1na2vs0mg"},{"bike_id":"ac13a357-e10f-402f-bec4-b4d565b1dba2","system_id":"levelo_inurba_marseille","lat":43.290624,"lon":5.359245,"is_reserved":false,"is_disabled":false,"rental_uris":{"android":"levelo://app?vid=ac13a357-e10f-402f-bec4-b4d565b1dba2","ios":"levelo://app?vid=ac13a357-e10f-402f-bec4-b4d565b1dba2"},"vehicle_type_id":"4","last_reported":1713301658,"current_range_meters":26000,"station_id":"ce4bha92rcd13ifvqeg0","pricing_plan_id":"cebpf4jnsgd1na2vs0mg"},{"bike_id":"c357e6b9-1898-49ac-bf88-430b5982d78a","system_id":"levelo_inurba_marseille","lat":43.302008,"lon":5.394694,"is_reserved":false,"is_disabled":false,"rental_uris":{"android":"levelo://app?vid=c357e6b9-1898-49ac-bf88-430b5982d78a","ios":"levelo://app?vid=c357e6b9-1898-49ac-bf88-430b5982d78a"},"vehicle_type_id":"4","last_reported":1713301658,"current_range_meters":31200,"station_id":"ce4bh0p2rcd13ifvqd70","pricing_plan_id":"cebpf4jnsgd1na2vs0mg"},{"bike_id":"f606aa12-384d-4a39-a65d-8fd7aff7a7af","system_id":"levelo_inurba_marseille","lat":43.290631,"lon":5.359244,"is_reserved":false,"is_disabled":false,"rental_uris":{"android":"levelo://app?vid=f606aa12-384d-4a39-a65d-8fd7aff7a7af","ios":"levelo://app?vid=f606aa12-384d-4a39-a65d-8fd7aff7a7af"},"vehicle_type_id":"4","last_reported":1713301658,"current_range_meters":21200,"station_id":"ce4bha92rcd13ifvqeg0","pricing_plan_id":"cebpf4jnsgd1na2vs0mg"},{"bike_id":"f6b9eda1-8ad6-4736-8f7e-1bd1b3ce13c4","system_id":"levelo_inurba_marseille","lat":43.309076,"lon":5.368465,"is_reserved":false,"is_disabled":false,"rental_uris":{"android":"levelo://app?vid=f6b9eda1-8ad6-4736-8f7e-1bd1b3ce13c4","ios":"levelo://app?vid=f6b9eda1-8ad6-4736-8f7e-1bd1b3ce13c4"},"vehicle_type_id":"4","last_reported":1713301658,"current_range_meters":0,"station_id":"ce4bgn92rcd13ifvqbvg","pricing_plan_id":"cebpf4jnsgd1na2vs0mg"},{"bike_id":"1f9ceb20-ae42-4c29-a362-fb8a15b40302","system_id":"levelo_inurba_marseille","lat":43.290624,"lon":5.359245,"is_reserved":false,"is_disabled":false,"rental_uris":{"android":"levelo://app?vid=1f9ceb20-ae42-4c29-a362-fb8a15b40302","ios":"levelo://app?vid=1f9ceb20-ae42-4c29-a362-fb8a15b40302"},"vehicle_type_id":"4","last_reported":1713301658,"current_range_meters":17600,"station_id":"ce4bha92rcd13ifvqeg0","pricing_plan_id":"cebpf4jnsgd1na2vs0mg"},{"bike_id":"ffa8784e-e112-4f70-934f-7bba88835648","system_id":"levelo_inurba_marseille","lat":43.28957,"lon":5.36636,"is_reserved":false,"is_disabled":false,"rental_uris":{"android":"levelo://app?vid=ffa8784e-e112-4f70-934f-7bba88835648","ios":"levelo://app?vid=ffa8784e-e112-4f70-934f-7bba88835648"},"vehicle_type_id":"4","last_reported":1713301658,"current_range_meters":15600,"station_id":"ce4bhap2rcd13ifvqek0","pricing_plan_id":"cebpf4jnsgd1na2vs0mg"},{"bike_id":"32c0fbbd-334d-4d55-a738-355b58fdaf8d","system_id":"levelo_inurba_marseille","lat":43.289184,"lon":5.366408,"is_reserved":false,"is_disabled":false,"rental_uris":{"android":"levelo://app?vid=32c0fbbd-334d-4d55-a738-355b58fdaf8d","ios":"levelo://app?vid=32c0fbbd-334d-4d55-a738-355b58fdaf8d"},"vehicle_type_id":"4","last_reported":1713301658,"current_range_meters":7600,"station_id":"ce4bhap2rcd13ifvqek0","pricing_plan_id":"cebpf4jnsgd1na2vs0mg"},{"bike_id":"09b143c7-708e-440a-bac9-8e7b0daae564","system_id":"levelo_inurba_marseille","lat":43.289468,"lon":5.363719,"is_reserved":false,"is_disabled":false,"rental_uris":{"android":"levelo://app?vid=09b143c7-708e-440a-bac9-8e7b0daae564","ios":"levelo://app?vid=09b143c7-708e-440a-bac9-8e7b0daae564"},"vehicle_type_id":"4","last_reported":1713301658,"current_range_meters":6000,"station_id":"ce4bhc92rcd13ifvqetg","pricing_plan_id":"cebpf4jnsgd1na2vs0mg"},{"bike_id":"59e88382-a52a-424d-a330-d6079d5cc260","system_id":"levelo_inurba_marseille","lat":43.298037,"lon":5.381066,"is_reserved":false,"is_disabled":false,"rental_uris":{"android":"levelo://app?vid=59e88382-a52a-424d-a330-d6079d5cc260","ios":"levelo://app?vid=59e88382-a52a-424d-a330-d6079d5cc260"},"vehicle_type_id":"4","last_reported":1713301658,"current_range_meters":3600,"station_id":"ce4bgip2rcd13ifvqbb0","pricing_plan_id":"cebpf4jnsgd1na2vs0mg"},{"bike_id":"c3234ff3-7475-4aeb-a960-1baa2654a440","system_id":"levelo_inurba_marseille","lat":43.289468,"lon":5.363719,"is_reserved":false,"is_disabled":false,"rental_uris":{"android":"levelo://app?vid=c3234ff3-7475-4aeb-a960-1baa2654a440","ios":"levelo://app?vid=c3234ff3-7475-4aeb-a960-1baa2654a440"},"vehicle_type_id":"4","last_reported":1713301658,"current_range_meters":2800,"station_id":"ce4bhc92rcd13ifvqetg","pricing_plan_id":"cebpf4jnsgd1na2vs0mg"},{"bike_id":"fa0b8869-5085-4f3e-83e0-a8fecc29bef6","system_id":"levelo_inurba_marseille","lat":43.289184,"lon":5.366408,"is_reserved":false,"is_disabled":false,"rental_uris":{"android":"levelo://app?vid=fa0b8869-5085-4f3e-83e0-a8fecc29bef6","ios":"levelo://app?vid=fa0b8869-5085-4f3e-83e0-a8fecc29bef6"},"vehicle_type_id":"4","last_reported":1713301658,"current_range_meters":8400,"station_id":"ce4bhap2rcd13ifvqek0","pricing_plan_id":"cebpf4jnsgd1na2vs0mg"},{"bike_id":"342a2e01-570f-4db8-8ce5-ce2ba37117d1","system_id":"levelo_inurba_marseille","lat":43.289184,"lon":5.366408,"is_reserved":false,"is_disabled":false,"rental_uris":{"android":"levelo://app?vid=342a2e01-570f-4db8-8ce5-ce2ba37117d1","ios":"levelo://app?vid=342a2e01-570f-4db8-8ce5-ce2ba37117d1"},"vehicle_type_id":"4","last_reported":1713301658,"current_range_meters":31200,"station_id":"ce4bhap2rcd13ifvqek0","pricing_plan_id":"cebpf4jnsgd1na2vs0mg"},{"bike_id":"6d6c3705-4513-4936-8177-a5d108f73af1","system_id":"levelo_inurba_marseille","lat":43.289184,"lon":5.366408,"is_reserved":false,"is_disabled":false,"rental_uris":{"android":"levelo://app?vid=6d6c3705-4513-4936-8177-a5d108f73af1","ios":"levelo://app?vid=6d6c3705-4513-4936-8177-a5d108f73af1"},"vehicle_type_id":"4","last_reported":1713301658,"current_range_meters":9600,"station_id":"ce4bhap2rcd13ifvqek0","pricing_plan_id":"cebpf4jnsgd1na2vs0mg"},{"bike_id":"8eae2969-2883-4b6a-b0fb-708daaf72f82","system_id":"levelo_inurba_marseille","lat":43.289184,"lon":5.366408,"is_reserved":false,"is_disabled":false,"rental_uris":{"android":"levelo://app?vid=8eae2969-2883-4b6a-b0fb-708daaf72f82","ios":"levelo://app?vid=8eae2969-2883-4b6a-b0fb-708daaf72f82"},"vehicle_type_id":"4","last_reported":1713301658,"current_range_meters":8400,"station_id":"ce4bhap2rcd13ifvqek0","pricing_plan_id":"cebpf4jnsgd1na2vs0mg"},{"bike_id":"2bd89d98-609c-4e06-b513-b6b58d2c7561","system_id":"levelo_inurba_marseille","lat":43.289365,"lon":5.36646,"is_reserved":false,"is_disabled":false,"rental_uris":{"android":"levelo://app?vid=2bd89d98-609c-4e06-b513-b6b58d2c7561","ios":"levelo://app?vid=2bd89d98-609c-4e06-b513-b6b58d2c7561"},"vehicle_type_id":"4","last_reported":1713301658,"current_range_meters":31200,"station_id":"ce4bhap2rcd13ifvqek0","pricing_plan_id":"cebpf4jnsgd1na2vs0mg"},{"bike_id":"ee9bae51-ed99-4743-ac22-1f75c1a51394","system_id":"levelo_inurba_marseille","lat":43.289468,"lon":5.363719,"is_reserved":false,"is_disabled":false,"rental_uris":{"android":"levelo://app?vid=ee9bae51-ed99-4743-ac22-1f75c1a51394","ios":"levelo://app?vid=ee9bae51-ed99-4743-ac22-1f75c1a51394"},"vehicle_type_id":"4","last_reported":1713301658,"current_range_meters":24800,"station_id":"ce4bhc92rcd13ifvqetg","pricing_plan_id":"cebpf4jnsgd1na2vs0mg"},{"bike_id":"8b3e9a1a-55fb-4719-ab46-c9811b902a45","system_id":"levelo_inurba_marseille","lat":43.28934,"lon":5.36633,"is_reserved":false,"is_disabled":false,"rental_uris":{"android":"levelo://app?vid=8b3e9a1a-55fb-4719-ab46-c9811b902a45","ios":"levelo://app?vid=8b3e9a1a-55fb-4719-ab46-c9811b902a45"},"vehicle_type_id":"4","last_reported":1713301658,"current_range_meters":30000,"station_id":"ce4bhap2rcd13ifvqek0","pricing_plan_id":"cebpf4jnsgd1na2vs0mg"},{"bike_id":"f1397ddc-f40f-4db3-8496-a1f897e27f27","system_id":"levelo_inurba_marseille","lat":43.289184,"lon":5.366408,"is_reserved":false,"is_disabled":false,"rental_uris":{"android":"levelo://app?vid=f1397ddc-f40f-4db3-8496-a1f897e27f27","ios":"levelo://app?vid=f1397ddc-f40f-4db3-8496-a1f897e27f27"},"vehicle_type_id":"4","last_reported":1713301658,"current_range_meters":28800,"station_id":"ce4bhap2rcd13ifvqek0","pricing_plan_id":"cebpf4jnsgd1na2vs0mg"},{"bike_id":"c5f165b7-eb90-4418-9769-a0bb60a4aad3","system_id":"levelo_inurba_marseille","lat":43.289468,"lon":5.363719,"is_reserved":false,"is_disabled":false,"rental_uris":{"android":"levelo://app?vid=c5f165b7-eb90-4418-9769-a0bb60a4aad3","ios":"levelo://app?vid=c5f165b7-eb90-4418-9769-a0bb60a4aad3"},"vehicle_type_id":"4","last_reported":1713301658,"current_range_meters":29200,"station_id":"ce4bhc92rcd13ifvqetg","pricing_plan_id":"cebpf4jnsgd1na2vs0mg"},{"bike_id":"0147c2f9-1aa4-4795-a433-f200e02c2927","system_id":"levelo_inurba_marseille","lat":43.289184,"lon":5.366408,"is_reserved":false,"is_disabled":false,"rental_uris":{"android":"levelo://app?vid=0147c2f9-1aa4-4795-a433-f200e02c2927","ios":"levelo://app?vid=0147c2f9-1aa4-4795-a433-f200e02c2927"},"vehicle_type_id":"4","last_reported":1713301658,"current_range_meters":31200,"station_id":"ce4bhap2rcd13ifvqek0","pricing_plan_id":"cebpf4jnsgd1na2vs0mg"},{"bike_id":"ff2eb203-129d-4323-92b2-a5de74f8e48d","system_id":"levelo_inurba_marseille","lat":43.289468,"lon":5.363719,"is_reserved":false,"is_disabled":false,"rental_uris":{"android":"levelo://app?vid=ff2eb203-129d-4323-92b2-a5de74f8e48d","ios":"levelo://app?vid=ff2eb203-129d-4323-92b2-a5de74f8e48d"},"vehicle_type_id":"4","last_reported":1713301658,"current_range_meters":11600,"station_id":"ce4bhc92rcd13ifvqetg","pricing_plan_id":"cebpf4jnsgd1na2vs0mg"},{"bike_id":"5ea0982d-0ae3-476e-81f1-f30b4e390b4e","system_id":"levelo_inurba_marseille","lat":43.304274,"lon":5.397513,"is_reserved":false,"is_disabled":false,"rental_uris":{"android":"levelo://app?vid=5ea0982d-0ae3-476e-81f1-f30b4e390b4e","ios":"levelo://app?vid=5ea0982d-0ae3-476e-81f1-f30b4e390b4e"},"vehicle_type_id":"4","last_reported":1713301658,"current_range_meters":12000,"station_id":"ce4bh092rcd13ifvqd20","pricing_plan_id":"cebpf4jnsgd1na2vs0mg"},{"bike_id":"4a38adb5-ad91-47da-ab58-c540c026e888","system_id":"levelo_inurba_marseille","lat":43.304296,"lon":5.397513,"is_reserved":false,"is_disabled":false,"rental_uris":{"android":"levelo://app?vid=4a38adb5-ad91-47da-ab58-c540c026e888","ios":"levelo://app?vid=4a38adb5-ad91-47da-ab58-c540c026e888"},"vehicle_type_id":"4","last_reported":1713301658,"current_range_meters":24000,"station_id":"ce4bh092rcd13ifvqd20","pricing_plan_id":"cebpf4jnsgd1na2vs0mg"},{"bike_id":"49a18de1-93c6-48da-b534-00811de1f0f8","system_id":"levelo_inurba_marseille","lat":43.304274,"lon":5.397513,"is_reserved":false,"is_disabled":false,"rental_uris":{"android":"levelo://app?vid=49a18de1-93c6-48da-b534-00811de1f0f8","ios":"levelo://app?vid=49a18de1-93c6-48da-b534-00811de1f0f8"},"vehicle_type_id":"4","last_reported":1713301658,"current_range_meters":21600,"station_id":"ce4bh092rcd13ifvqd20","pricing_plan_id":"cebpf4jnsgd1na2vs0mg"},{"bike_id":"4426ab50-9c45-49b1-aa65-284667d66d7f","system_id":"levelo_inurba_marseille","lat":43.304296,"lon":5.397513,"is_reserved":false,"is_disabled":false,"rental_uris":{"android":"levelo://app?vid=4426ab50-9c45-49b1-aa65-284667d66d7f","ios":"levelo://app?vid=4426ab50-9c45-49b1-aa65-284667d66d7f"},"vehicle_type_id":"4","last_reported":1713301658,"current_range_meters":0,"station_id":"ce4bh092rcd13ifvqd20","pricing_plan_id":"cebpf4jnsgd1na2vs0mg"},{"bike_id":"31939fbc-6f81-44f7-9c5f-15f2a6af8a3e","system_id":"levelo_inurba_marseille","lat":43.290103,"lon":5.356114,"is_reserved":false,"is_disabled":false,"rental_uris":{"android":"levelo://app?vid=31939fbc-6f81-44f7-9c5f-15f2a6af8a3e","ios":"levelo://app?vid=31939fbc-6f81-44f7-9c5f-15f2a6af8a3e"},"vehicle_type_id":"4","last_reported":1713301658,"current_range_meters":800,"station_id":"ce4bhb92rcd13ifvqen0","pricing_plan_id":"cebpf4jnsgd1na2vs0mg"},{"bike_id":"10c89a57-ee71-4c70-b3ff-8f0f8cc00096","system_id":"levelo_inurba_marseille","lat":43.297815,"lon":5.393548,"is_reserved":false,"is_disabled":false,"rental_uris":{"android":"levelo://app?vid=10c89a57-ee71-4c70-b3ff-8f0f8cc00096","ios":"levelo://app?vid=10c89a57-ee71-4c70-b3ff-8f0f8cc00096"},"vehicle_type_id":"4","last_reported":1713301658,"current_range_meters":30800,"station_id":"chh1huq6cuj3fo74tm60","pricing_plan_id":"cebpf4jnsgd1na2vs0mg"},{"bike_id":"6cb2a4a3-afb6-4c2a-8f9e-50efccaf360c","system_id":"levelo_inurba_marseille","lat":43.297815,"lon":5.393548,"is_reserved":false,"is_disabled":false,"rental_uris":{"android":"levelo://app?vid=6cb2a4a3-afb6-4c2a-8f9e-50efccaf360c","ios":"levelo://app?vid=6cb2a4a3-afb6-4c2a-8f9e-50efccaf360c"},"vehicle_type_id":"4","last_reported":1713301658,"current_range_meters":31600,"station_id":"chh1huq6cuj3fo74tm60","pricing_plan_id":"cebpf4jnsgd1na2vs0mg"},{"bike_id":"ae397bf1-ede1-4a80-8f68-e89a03090217","system_id":"levelo_inurba_marseille","lat":43.297915,"lon":5.393498,"is_reserved":false,"is_disabled":false,"rental_uris":{"android":"levelo://app?vid=ae397bf1-ede1-4a80-8f68-e89a03090217","ios":"levelo://app?vid=ae397bf1-ede1-4a80-8f68-e89a03090217"},"vehicle_type_id":"4","last_reported":1713301658,"current_range_meters":2000,"station_id":"chh1huq6cuj3fo74tm60","pricing_plan_id":"cebpf4jnsgd1na2vs0mg"},