{"last_updated":1701515105,"ttl":30,"version":"2.2","data":{"bikes":[{"bike_id":"08e39174-3b40-4bf4-b750-7bdcdab4e57a","system_id":"levelo_inurba_marseille","lat":43.313262,"lon":5.36729,"is_reserved":false,"is_disabled":false,"rental_uris":{"android":"levelo://app?vid=08e39174-3b40-4bf4-b750-7bdcdab4e57a","ios":"levelo://app?vid=08e39174-3b40-4bf4-b750-7bdcdab4e57a"},"vehicle_type_id":"4","last_reported":1701515105,"current_range_meters":0,"station_id":"ce4bgr92rcd13ifvqc6g","pricing_plan_id":"free"},{"bike_id":"18c4e5e5-8705-424a-b84b-7daa80399872","system_id":"levelo_inurba_marseille","lat":43.312239,"lon":5.368562,"is_reserved":false,"is_disabled":false,"rental_uris":{"android":"levelo://app?vid=18c4e5e5-8705-424a-b84b-7daa80399872","ios":"levelo://app?vid=18c4e5e5-8705-424a-b84b-7daa80399872"},"vehicle_type_id":"4","last_reported":1701515105,"current_range_meters":6400,"station_id":"ce4bgl92rcd13ifvqbq0","pricing_plan_id":"free"},{"bike_id":"ab1a45bc-5c86-4dc9-86c5-b3cdd9eb5b1a","system_id":"levelo_inurba_marseille","lat":43.31815,"lon":5.36882,"is_reserved":false,"is_disabled":false,"rental_uris":{"android":"levelo://app?vid=ab1a45bc-5c86-4dc9-86c5-b3cdd9eb5b1a","ios":"levelo://app?vid=ab1a45bc-5c86-4dc9-86c5-b3cdd9eb5b1a"},"vehicle_type_id":"4","last_reported":1701515105,"current_range_meters":0,"station_id":"","pricing_plan_id":"free"},{"bike_id":"df8ed9dd-5083-493f-bcd3-d33b6c6564b9","system_id":"levelo_inurba_marseille","lat":43.305712,"lon":5.365641,"is_reserved":false,"is_disabled":false,"rental_uris":{"android":"levelo://app?vid=df8ed9dd-5083-493f-bcd3-d33b6c6564b9","ios":"levelo://app?vid=df8ed9dd-5083-493f-bcd3-d33b6c6564b9"},"vehicle_type_id":"4","last_reported":1701515105,"current_range_meters":28400,"station_id":"ce4bgs12rcd13ifvqcag","pricing_plan_id":"free"},{"bike_id":"8e2b412b-aad9-42bf-ad73-a1e7f7ef83f0","system_id":"levelo_inurba_marseille","lat":43.305712,"lon":5.365641,"is_reserved":false,"is_disabled":false,"rental_uris":{"android":"levelo://app?vid=8e2b412b-aad9-42bf-ad73-a1e7f7ef83f0","ios":"levelo://app?vid=8e2b412b-aad9-42bf-ad73-a1e7f7ef83f0"},"vehicle_type_id":"4","last_reported":1701515105,"current_range_meters":26800,"station_id":"ce4bgs12rcd13ifvqcag","pricing_plan_id":"free"},{"bike_id":"7861355c-7e57-494b-aa47-577a1dd19de3","system_id":"levelo_inurba_marseille","lat":43.305706,"lon":5.365654,"is_reserved":false,"is_disabled":false,"rental_uris":{"android":"levelo://app?vid=7861355c-7e57-494b-aa47-577a1dd19de3","ios":"levelo://app?vid=7861355c-7e57-494b-aa47-577a1dd19de3"},"vehicle_type_id":"4","last_reported":1701515105,"current_range_meters":29200,"station_id":"ce4bgs12rcd13ifvqcag","pricing_plan_id":"free"},{"bike_id":"d0f3661c-aa9d-483e-ac45-d261c78f8c21","system_id":"levelo_inurba_marseille","lat":43.305714,"lon":5.365633,"is_reserved":false,"is_disabled":false,"rental_uris":{"android":"levelo://app?vid=d0f3661c-aa9d-483e-ac45-d261c78f8c21","ios":"levelo://app?vid=d0f3661c-aa9d-483e-ac45-d261c78f8c21"},"vehicle_type_id":"4","last_reported":1701515105,"current_range_meters":23200,"station_id":"ce4bgs12rcd13ifvqcag","pricing_plan_id":"free"},{"bike_id":"3956f250-55c9-43e4-b380-b14acf0b0031","system_id":"levelo_inurba_marseille","lat":43.305706,"lon":5.365654,"is_reserved":false,"is_disabled":false,"rental_uris":{"android":"levelo://app?vid=3956f250-55c9-43e4-b380-b14acf0b0031","ios":"levelo://app?vid=3956f250-55c9-43e4-b380-b14acf0b0031"},"vehicle_type_id":"4","last_reported":1701515105,"current_range_meters":22400,"station_id":"ce4bgs12rcd13ifvqcag","pricing_plan_id":"free"},{"bike_id":"4e6f5d1c-bd9e-419c-aabb-bb75f9aefa42","system_id":"levelo_inurba_marseille","lat":43.305714,"lon":5.365633,"is_reserved":false,"is_disabled":false,"rental_uris":{"android":"levelo://app?vid=4e6f5d1c-bd9e-419c-aabb-bb75f9aefa42","ios":"levelo://app?vid=4e6f5d1c-bd9e-419c-aabb-bb75f9aefa42"},"vehicle_type_id":"4","last_reported":1701515105,"current_range_meters":28800,"station_id":"ce4bgs12rcd13ifvqcag","pricing_plan_id":"free"},{"bike_id":"1e77f73a-4e68-4bed-bde8-3c07753704ec","system_id":"levelo_inurba_marseille","lat":43.305714,"lon":5.365633,"is_reserved":false,"is_disabled":false,"rental_uris":{"android":"levelo://app?vid=1e77f73a-4e68-4bed-bde8-3c07753704ec","ios":"levelo://app?vid=1e77f73a-4e68-4bed-bde8-3c07753704ec"},"vehicle_type_id":"4","last_reported":1701515105,"current_range_meters":31600,"station_id":"ce4bgs12rcd13ifvqcag","pricing_plan_id":"free"},{"bike_id":"5f6920cf-a217-4255-a435-4d7e9b1286fc","system_id":"levelo_inurba_marseille","lat":43.305706,"lon":5.365654,"is_reserved":false,"is_disabled":false,"rental_uris":{"android":"levelo://app?vid=5f6920cf-a217-4255-a435-4d7e9b1286fc","ios":"levelo://app?vid=5f6920cf-a217-4255-a435-4d7e9b1286fc"},"vehicle_type_id":"4","last_reported":1701515105,"current_range_meters":20400,"station_id":"ce4bgs12rcd13ifvqcag","pricing_plan_id":"free"},{"bike_id":"94f6c913-8bf4-4879-bafb-44767fcbc1a8","system_id":"levelo_inurba_marseille","lat":43.305706,"lon":5.365654,"is_reserved":false,"is_disabled":false,"rental_uris":{"android":"levelo://app?vid=94f6c913-8bf4-4879-bafb-44767fcbc1a8","ios":"levelo://app?vid=94f6c913-8bf4-4879-bafb-44767fcbc1a8"},"vehicle_type_id":"4","last_reported":1701515105,"current_range_meters":21600,"station_id":"ce4bgs12rcd13ifvqcag","pricing_plan_id":"free"},{"bike_id":"9736dc4e-dd28-4b59-aecb-181cb6b5279f","system_id":"levelo_inurba_marseille","lat":43.30539,"lon":5.36525,"is_reserved":false,"is_disabled":false,"rental_uris":{"android":"levelo://app?vid=9736dc4e-dd28-4b59-aecb-181cb6b5279f","ios":"levelo://app?vid=9736dc4e-dd28-4b59-aecb-181cb6b5279f"},"vehicle_type_id":"4","last_reported":1701515105,"current_range_meters":0,"station_id":"ce4bgs12rcd13ifvqcag","pricing_plan_id":"free"},{"bike_id":"f62b84be-11b6-423f-af76-cf1a18df68c7","system_id":"levelo_inurba_marseille","lat":43.305706,"lon":5.365654,"is_reserved":false,"is_disabled":false,"rental_uris":{"android":"levelo://app?vid=f62b84be-11b6-423f-af76-cf1a18df68c7","ios":"levelo://app?vid=f62b84be-11b6-423f-af76-cf1a18df68c7"},"vehicle_type_id":"4","last_reported":1701515105,"current_range_meters":23600,"station_id":"ce4bgs12rcd13ifvqcag","pricing_plan_id":"free"},{"bike_id":"e7bd8103-096e-4179-a87d-71e961ce1d7a","system_id":"levelo_inurba_marseille","lat":43.305706,"lon":5.365654,"is_reserved":false,"is_disabled":false,"rental_uris":{"android":"levelo://app?vid=e7bd8103-096e-4179-a87d-71e961ce1d7a","ios":"levelo://app?vid=e7bd8103-096e-4179-a87d-71e961ce1d7a"},"vehicle_type_id":"4","last_reported":1701515105,"current_range_meters":26000,"station_id":"ce4bgs12rcd13ifvqcag","pricing_plan_id":"free"},{"bike_id":"347eb81c-09d8-487c-a10f-4aeed7e4697e","system_id":"levelo_inurba_marseille","lat":43.305706,"lon":5.365654,"is_reserved":false,"is_disabled":false,"rental_uris":{"android":"levelo://app?vid=347eb81c-09d8-487c-a10f-4aeed7e4697e","ios":"levelo://app?vid=347eb81c-09d8-487c-a10f-4aeed7e4697e"},"vehicle_type_id":"4","last_reported":1701515105,"current_range_meters":31600,"station_id":"ce4bgs12rcd13ifvqcag","pricing_plan_id":"free"},{"bike_id":"f34792e7-0874-424f-a8ec-0a2cad4fc2b2","system_id":"levelo_inurba_marseille","lat":43.305989,"lon":5.37225,"is_reserved":false,"is_disabled":false,"rental_uris":{"android":"levelo://app?vid=f34792e7-0874-424f-a8ec-0a2cad4fc2b2","ios":"levelo://app?vid=f34792e7-0874-424f-a8ec-0a2cad4fc2b2"},"vehicle_type_id":"4","last_reported":1701515105,"current_range_meters":24000,"station_id":"ce4bgqh2rcd13ifvqc4g","pricing_plan_id":"free"},{"bike_id":"cfd3bb51-5657-4943-be4a-4ca2f802bb01","system_id":"levelo_inurba_marseille","lat":43.308154,"lon":5.376607,"is_reserved":false,"is_disabled":false,"rental_uris":{"android":"levelo://app?vid=cfd3bb51-5657-4943-be4a-4ca2f802bb01","ios":"levelo://app?vid=cfd3bb51-5657-4943-be4a-4ca2f802bb01"},"vehicle_type_id":"4","last_reported":1701515105,"current_range_meters":11600,"station_id":"ce4bgv92rcd13ifvqcq0","pricing_plan_id":"free"},{"bike_id":"f427a2c3-6e4a-446b-ae2f-9be8aa7f4122","system_id":"levelo_inurba_marseille","lat":43.31719,"lon":5.376813,"is_reserved":false,"is_disabled":false,"rental_uris":{"android":"levelo://app?vid=f427a2c3-6e4a-446b-ae2f-9be8aa7f4122","ios":"levelo://app?vid=f427a2c3-6e4a-446b-ae2f-9be8aa7f4122"},"vehicle_type_id":"4","last_reported":1701515105,"current_range_meters":0,"station_id":"","pricing_plan_id":"free"},{"bike_id":"e913f328-1e31-4c22-bd87-f809ea246de4","system_id":"levelo_inurba_marseille","lat":43.317168,"lon":5.376883,"is_reserved":false,"is_disabled":false,"rental_uris":{"android":"levelo://app?vid=e913f328-1e31-4c22-bd87-f809ea246de4","ios":"levelo://app?vid=e913f328-1e31-4c22-bd87-f809ea246de4"},"vehicle_type_id":"4","last_reported":1701515105,"current_range_meters":800,"station_id":"","pricing_plan_id":"free"},{"bike_id":"ebfd0ecf-3a58-42cb-80cb-416ed64acf60","system_id":"levelo_inurba_marseille","lat":43.317075,"lon":5.377367,"is_reserved":false,"is_disabled":false,"rental_uris":{"android":"levelo://app?vid=ebfd0ecf-3a58-42cb-80cb-416ed64acf60","ios":"levelo://app?vid=ebfd0ecf-3a58-42cb-80cb-416ed64acf60"},"vehicle_type_id":"4","last_reported":1701515105,"current_range_meters":8400,"station_id":"ce4bgth2rcd13ifvqch0","pricing_plan_id":"free"},{"bike_id":"fb6fd937-527b-4585-9058-0dfdc6436ac8","system_id":"levelo_inurba_marseille","lat":43.31351,"lon":5.37909,"is_reserved":false,"is_disabled":false,"rental_uris":{"android":"levelo://app?vid=fb6fd937-527b-4585-9058-0dfdc6436ac8","ios":"levelo://app?vid=fb6fd937-527b-4585-9058-0dfdc6436ac8"},"vehicle_type_id":"4","last_reported":1701515105,"current_range_meters":22000,"station_id":"","pricing_plan_id":"free"},{"bike_id":"92d8af04-b91c-4fe9-87f2-3d7cc202feb7","system_id":"levelo_inurba_marseille","lat":43.317075,"lon":5.377367,"is_reserved":false,"is_disabled":false,"rental_uris":{"android":"levelo://app?vid=92d8af04-b91c-4fe9-87f2-3d7cc202feb7","ios":"levelo://app?vid=92d8af04-b91c-4fe9-87f2-3d7cc202feb7"},"vehicle_type_id":"4","last_reported":1701515105,"current_range_meters":28400,"station_id":"ce4bgth2rcd13ifvqch0","pricing_plan_id":"free"},{"bike_id":"c65d31cd-1967-4352-a1f0-a1b7ae66d4f9","system_id":"levelo_inurba_marseille","lat":43.317075,"lon":5.377367,"is_reserved":false,"is_disabled":false,"rental_uris":{"android":"levelo://app?vid=c65d31cd-1967-4352-a1f0-a1b7ae66d4f9","ios":"levelo://app?vid=c65d31cd-1967-4352-a1f0-a1b7ae66d4f9"},"vehicle_type_id":"4","last_reported":1701515105,"current_range_meters":24800,"station_id":"ce4bgth2rcd13ifvqch0","pricing_plan_id":"free"},{"bike_id":"93ab3857-75bf-46f3-8f89-a1e82dd8d237","system_id":"levelo_inurba_marseille","lat":43.30304,"lon":5.368987,"is_reserved":false,"is_disabled":false,"rental_uris":{"android":"levelo://app?vid=93ab3857-75bf-46f3-8f89-a1e82dd8d237","ios":"levelo://app?vid=93ab3857-75bf-46f3-8f89-a1e82dd8d237"},"vehicle_type_id":"4","last_reported":1701515105,"current_range_meters":4400,"station_id":"ce4bgqh2rcd13ifvqc5g","pricing_plan_id":"free"},{"bike_id":"e56c4c03-d6ac-416d-8380-bbaf7fb49559","system_id":"levelo_inurba_marseille","lat":43.32483,"lon":5.36557,"is_reserved":false,"is_disabled":false,"rental_uris":{"android":"levelo://app?vid=e56c4c03-d6ac-416d-8380-bbaf7fb49559","ios":"levelo://app?vid=e56c4c03-d6ac-416d-8380-bbaf7fb49559"},"vehicle_type_id":"4","last_reported":1701515105,"current_range_meters":2800,"station_id":"ce4bhs12rcd13ifvqhvg","pricing_plan_id":"free"},{"bike_id":"bc8eac31-4b5b-48b3-aa99-5c3fdd18d82e","system_id":"levelo_inurba_marseille","lat":43.324771,"lon":5.36557,"is_reserved":false,"is_disabled":false,"rental_uris":{"android":"levelo://app?vid=bc8eac31-4b5b-48b3-aa99-5c3fdd18d82e","ios":"levelo://app?vid=bc8eac31-4b5b-48b3-aa99-5c3fdd18d82e"},"vehicle_type_id":"4","last_reported":1701515105,"current_range_meters":18800,"station_id":"ce4bhs12rcd13ifvqhvg","pricing_plan_id":"free"},{"bike_id":"02a419bb-fa53-4aa3-8767-cd48761b8d68","system_id":"levelo_inurba_marseille","lat":43.30143,"lon":5.37413,"is_reserved":false,"is_disabled":false,"rental_uris":{"android":"levelo://app?vid=02a419bb-fa53-4aa3-8767-cd48761b8d68","ios":"levelo://app?vid=02a419bb-fa53-4aa3-8767-cd48761b8d68"},"vehicle_type_id":"4","last_reported":1701515105,"current_range_meters":19200,"station_id":"ce4bgs92rcd13ifvqcc0","pricing_plan_id":"free"},{"bike_id":"e66e66da-27e7-4d62-9914-eb2d6e6c186b","system_id":"levelo_inurba_marseille","lat":43.30143,"lon":5.37413,"is_reserved":false,"is_disabled":false,"rental_uris":{"android":"levelo://app?vid=e66e66da-27e7-4d62-9914-eb2d6e6c186b","ios":"levelo://app?vid=e66e66da-27e7-4d62-9914-eb2d6e6c186b"},"vehicle_type_id":"4","last_reported":1701515105,"current_range_meters":25200,"station_id":"ce4bgs92rcd13ifvqcc0","pricing_plan_id":"free"},{"bike_id":"2275aca5-3158-4c2c-8022-ca5d2714bc86","system_id":"levelo_inurba_marseille","lat":43.319997,"lon":5.381594,"is_reserved":false,"is_disabled":false,"rental_uris":{"android":"levelo://app?vid=2275aca5-3158-4c2c-8022-ca5d2714bc86","ios":"levelo://app?vid=2275aca5-3158-4c2c-8022-ca5d2714bc86"},"vehicle_type_id":"4","last_reported":1701515105,"current_range_meters":15600,"station_id":"ce4bhr12rcd13ifvqhpg","pricing_plan_id":"free"},{"bike_id":"66b7fb1f-2db7-4140-99d3-501c920edda3","system_id":"levelo_inurba_marseille","lat":43.313571,"lon":5.384829,"is_reserved":false,"is_disabled":false,"rental_uris":{"android":"levelo://app?vid=66b7fb1f-2db7-4140-99d3-501c920edda3","ios":"levelo://app?vid=66b7fb1f-2db7-4140-99d3-501c920edda3"},"vehicle_type_id":"4","last_reported":1701515105,"current_range_meters":21600,"station_id":"ce4bgt92rcd13ifvqcf0","pricing_plan_id":"free"},{"bike_id":"9fdb7f97-586d-42d2-befd-15216ba2e422","system_id":"levelo_inurba_marseille","lat":43.31183,"lon":5.38523,"is_reserved":false,"is_disabled":false,"rental_uris":{"android":"levelo://app?vid=9fdb7f97-586d-42d2-befd-15216ba2e422","ios":"levelo://app?vid=9fdb7f97-586d-42d2-befd-15216ba2e422"},"vehicle_type_id":"4","last_reported":1701515105,"current_range_meters":1600,"station_id":"","pricing_plan_id":"free"},{"bike_id":"120b7e83-2b6c-4604-972e-d8c3923292c2","system_id":"levelo_inurba_marseille","lat":43.299222,"lon":5.365554,"is_reserved":false,"is_disabled":false,"rental_uris":{"android":"levelo://app?vid=120b7e83-2b6c-4604-972e-d8c3923292c2","ios":"levelo://app?vid=120b7e83-2b6c-4604-972e-d8c3923292c2"},"vehicle_type_id":"4","last_reported":1701515105,"current_range_meters":21600,"station_id":"ce4bgm92rcd13ifvqbr0","pricing_plan_id":"free"},{"bike_id":"748d12ab-8e09-4ecd-b2d2-cbe0ea9624f6","system_id":"levelo_inurba_marseille","lat":43.298529,"lon":5.36761,"is_reserved":false,"is_disabled":false,"rental_uris":{"android":"levelo://app?vid=748d12ab-8e09-4ecd-b2d2-cbe0ea9624f6","ios":"levelo://app?vid=748d12ab-8e09-4ecd-b2d2-cbe0ea9624f6"},"vehicle_type_id":"4","last_reported":1701515105,"current_range_meters":6800,"station_id":"","pricing_plan_id":"free"},{"bike_id":"170671fa-4f7d-4893-bb2e-6c23a84499e0","system_id":"levelo_inurba_marseille","lat":43.311722,"lon":5.387247,"is_reserved":false,"is_disabled":false,"rental_uris":{"android":"levelo://app?vid=170671fa-4f7d-4893-bb2e-6c23a84499e0","ios":"levelo://app?vid=170671fa-4f7d-4893-bb2e-6c23a84499e0"},"vehicle_type_id":"4","last_reported":1701515105,"current_range_meters":16000,"station_id":"ce4bgv12rcd13ifvqcp0","pricing_plan_id":"free"},{"bike_id":"3777795a-2897-43b3-ab74-b63c8b7aff54","system_id":"levelo_inurba_marseille","lat":43.297774,"lon":5.370875,"is_reserved":false,"is_disabled":false,"rental_uris":{"android":"levelo://app?vid=3777795a-2897-43b3-ab74-b63c8b7aff54","ios":"levelo://app?vid=3777795a-2897-43b3-ab74-b63c8b7aff54"},"vehicle_type_id":"4","last_reported":1701515105,"current_range_meters":19600,"station_id":"ce4bgop2rcd13ifvqc1g","pricing_plan_id":"free"},{"bike_id":"65073be3-64d5-4947-9113-fd11101b78dd","system_id":"levelo_inurba_marseille","lat":43.322872,"lon":5.382756,"is_reserved":false,"is_disabled":false,"rental_uris":{"android":"levelo://app?vid=65073be3-64d5-4947-9113-fd11101b78dd","ios":"levelo://app?vid=65073be3-64d5-4947-9113-fd11101b78dd"},"vehicle_type_id":"4","last_reported":1701515105,"current_range_meters":9200,"station_id":"ce4bhr12rcd13ifvqhqg","pricing_plan_id":"free"},{"bike_id":"ea037b6c-e8d6-4282-a1ee-9f7910e7f9ab","system_id":"levelo_inurba_marseille","lat":43.328371,"lon":5.366909,"is_reserved":false,"is_disabled":false,"rental_uris":{"android":"levelo://app?vid=ea037b6c-e8d6-4282-a1ee-9f7910e7f9ab","ios":"levelo://app?vid=ea037b6c-e8d6-4282-a1ee-9f7910e7f9ab"},"vehicle_type_id":"4","last_reported":1701515105,"current_range_meters":13600,"station_id":"ce4bhs92rcd13ifvqi0g","pricing_plan_id":"free"},{"bike_id":"863e68e6-f678-4404-9035-1f0c001016cb","system_id":"levelo_inurba_marseille","lat":43.328283,"lon":5.366805,"is_reserved":false,"is_disabled":false,"rental_uris":{"android":"levelo://app?vid=863e68e6-f678-4404-9035-1f0c001016cb","ios":"levelo://app?vid=863e68e6-f678-4404-9035-1f0c001016cb"},"vehicle_type_id":"4","last_reported":1701515105,"current_range_meters":17600,"station_id":"ce4bhs92rcd13ifvqi0g","pricing_plan_id":"free"},{"bike_id":"3c6eacad-63e8-42f7-9988-09cf64b64dd8","system_id":"levelo_inurba_marseille","lat":43.328371,"lon":5.366909,"is_reserved":false,"is_disabled":false,"rental_uris":{"android":"levelo://app?vid=3c6eacad-63e8-42f7-9988-09cf64b64dd8","ios":"levelo://app?vid=3c6eacad-63e8-42f7-9988-09cf64b64dd8"},"vehicle_type_id":"4","last_reported":1701515105,"current_range_meters":8800,"station_id":"ce4bhs92rcd13ifvqi0g","pricing_plan_id":"free"},{"bike_id":"c0284961-478e-4ccd-b43e-321d6e4c5580","system_id":"levelo_inurba_marseille","lat":43.328371,"lon":5.366909,"is_reserved":false,"is_disabled":false,"rental_uris":{"android":"levelo://app?vid=c0284961-478e-4ccd-b43e-321d6e4c5580","ios":"levelo://app?vid=c0284961-478e-4ccd-b43e-321d6e4c5580"},"vehicle_type_id":"4","last_reported":1701515105,"current_range_meters":4000,"station_id":"ce4bhs92rcd13ifvqi0g","pricing_plan_id":"free"},{"bike_id":"7adcd94b-08f9-46ef-9183-0420f8c39d35","system_id":"levelo_inurba_marseille","lat":43.328371,"lon":5.366909,"is_reserved":false,"is_disabled":false,"rental_uris":{"android":"levelo://app?vid=7adcd94b-08f9-46ef-9183-0420f8c39d35","ios":"levelo://app?vid=7adcd94b-08f9-46ef-9183-0420f8c39d35"},"vehicle_type_id":"4","last_reported":1701515105,"current_range_meters":26400,"station_id":"ce4bhs92rcd13ifvqi0g","pricing_plan_id":"free"},{"bike_id":"5c26bdfb-7b7c-43fb-8a01-250128a1a6f8","system_id":"levelo_inurba_marseille","lat":43.32833,"lon":5.36688,"is_reserved":false,"is_disabled":false,"rental_uris":{"android":"levelo://app?vid=5c26bdfb-7b7c-43fb-8a01-250128a1a6f8","ios":"levelo://app?vid=5c26bdfb-7b7c-43fb-8a01-250128a1a6f8"},"vehicle_type_id":"4","last_reported":1701515105,"current_range_meters":21600,"station_id":"ce4bhs92rcd13ifvqi0g","pricing_plan_id":"free"},{"bike_id":"a926f4bb-1e59-4822-80ea-1d5ff6f2a5c5","system_id":"levelo_inurba_marseille","lat":43.299032,"lon":5.378387,"is_reserved":false,"is_disabled":false,"rental_uris":{"android":"levelo://app?vid=a926f4bb-1e59-4822-80ea-1d5ff6f2a5c5","ios":"levelo://app?vid=a926f4bb-1e59-4822-80ea-1d5ff6f2a5c5"},"vehicle_type_id":"4","last_reported":1701515105,"current_range_meters":19600,"station_id":"ce4bhn12rcd13ifvqgqg","pricing_plan_id":"free"},{"bike_id":"1fbb4a93-90dd-4a75-8746-1878f4bfb9e2","system_id":"levelo_inurba_marseille","lat":43.296129,"lon":5.370777,"is_reserved":false,"is_disabled":false,"rental_uris":{"android":"levelo://app?vid=1fbb4a93-90dd-4a75-8746-1878f4bfb9e2","ios":"levelo://app?vid=1fbb4a93-90dd-4a75-8746-1878f4bfb9e2"},"vehicle_type_id":"4","last_reported":1701515105,"current_range_meters":20000,"station_id":"ce4bgnh2rcd13ifvqc0g","pricing_plan_id":"free"},{"bike_id":"dcef93d3-8a89-4f73-b220-ab73b499a5c4","system_id":"levelo_inurba_marseille","lat":43.296131,"lon":5.370773,"is_reserved":false,"is_disabled":false,"rental_uris":{"android":"levelo://app?vid=dcef93d3-8a89-4f73-b220-ab73b499a5c4","ios":"levelo://app?vid=dcef93d3-8a89-4f73-b220-ab73b499a5c4"},"vehicle_type_id":"4","last_reported":1701515105,"current_range_meters":26800,"station_id":"ce4bgnh2rcd13ifvqc0g","pricing_plan_id":"free"},{"bike_id":"eaa0e7e7-2390-47fa-909b-7b240952cbef","system_id":"levelo_inurba_marseille","lat":43.316443,"lon":5.389618,"is_reserved":false,"is_disabled":false,"rental_uris":{"android":"levelo://app?vid=eaa0e7e7-2390-47fa-909b-7b240952cbef","ios":"levelo://app?vid=eaa0e7e7-2390-47fa-909b-7b240952cbef"},"vehicle_type_id":"4","last_reported":1701515105,"current_range_meters":17600,"station_id":"","pricing_plan_id":"free"},{"bike_id":"cd06baf3-116e-464f-854f-c570b7feb791","system_id":"levelo_inurba_marseille","lat":43.309589,"lon":5.390258,"is_reserved":false,"is_disabled":false,"rental_uris":{"android":"levelo://app?vid=cd06baf3-116e-464f-854f-c570b7feb791","ios":"levelo://app?vid=cd06baf3-116e-464f-854f-c570b7feb791"},"vehicle_type_id":"4","last_reported":1701515105,"current_range_meters":17600,"station_id":"ce4bgup2rcd13ifvqco0","pricing_plan_id":"free"},{"bike_id":"793c094c-8ed4-4ae5-be83-615ec84d2c4e","system_id":"levelo_inurba_marseille","lat":43.298037,"lon":5.381066,"is_reserved":false,"is_disabled":false,"rental_uris":{"android":"levelo://app?vid=793c094c-8ed4-4ae5-be83-615ec84d2c4e","ios":"levelo://app?vid=793c094c-8ed4-4ae5-be83-615ec84d2c4e"},"vehicle_type_id":"4","last_reported":1701515105,"current_range_meters":10400,"station_id":"ce4bgip2rcd13ifvqbb0","pricing_plan_id":"free"},{"bike_id":"880245e5-019d-4d07-b112-36e336421030","system_id":"levelo_inurba_marseille","lat":43.298037,"lon":5.381066,"is_reserved":false,"is_disabled":false,"rental_uris":{"android":"levelo://app?vid=880245e5-019d-4d07-b112-36e336421030","ios":"levelo://app?vid=880245e5-019d-4d07-b112-36e336421030"},"vehicle_type_id":"4","last_reported":1701515105,"current_range_meters":6400,"station_id":"ce4bgip2rcd13ifvqbb0","pricing_plan_id":"free"},{"bike_id":"8fb130f7-6a66-430a-ba92-92ffbb6dff67","system_id":"levelo_inurba_marseille","lat":43.295748,"lon":5.37522,"is_reserved":false,"is_disabled":false,"rental_uris":{"android":"levelo://app?vid=8fb130f7-6a66-430a-ba92-92ffbb6dff67","ios":"levelo://app?vid=8fb130f7-6a66-430a-ba92-92ffbb6dff67"},"vehicle_type_id":"4","last_reported":1701515105,"current_range_meters":20400,"station_id":"ce4bgh92rcd13ifvqb50","pricing_plan_id":"free"},{"bike_id":"c5e04668-7e19-408d-908e-6795c1060628","system_id":"levelo_inurba_marseille","lat":43.29567,"lon":5.37514,"is_reserved":false,"is_disabled":false,"rental_uris":{"android":"levelo://app?vid=c5e04668-7e19-408d-908e-6795c1060628","ios":"levelo://app?vid=c5e04668-7e19-408d-908e-6795c1060628"},"vehicle_type_id":"4","last_reported":1701515105,"current_range_meters":27600,"station_id":"ce4bgh92rcd13ifvqb50","pricing_plan_id":"free"},{"bike_id":"13ca97e5-82b5-4e06-8d78-e9793b7e594e","system_id":"levelo_inurba_marseille","lat":43.297142,"lon":5.379705,"is_reserved":false,"is_disabled":false,"rental_uris":{"android":"levelo://app?vid=13ca97e5-82b5-4e06-8d78-e9793b7e594e","ios":"levelo://app?vid=13ca97e5-82b5-4e06-8d78-e9793b7e594e"},"vehicle_type_id":"4","last_reported":1701515105,"current_range_meters":19600,"station_id":"","pricing_plan_id":"free"},{"bike_id":"da1d3298-1161-42b1-b6e7-d8068cb5e1f6","system_id":"levelo_inurba_marseille","lat":43.309589,"lon":5.390258,"is_reserved":false,"is_disabled":false,"rental_uris":{"android":"levelo://app?vid=da1d3298-1161-42b1-b6e7-d8068cb5e1f6","ios":"levelo://app?vid=da1d3298-1161-42b1-b6e7-d8068cb5e1f6"},"vehicle_type_id":"4","last_reported":1701515105,"current_range_meters":30400,"station_id":"ce4bgup2rcd13ifvqco0","pricing_plan_id":"free"},{"bike_id":"0efd870a-0317-4fbd-9c65-aed4fee17a5e","system_id":"levelo_inurba_marseille","lat":43.299707,"lon":5.384859,"is_reserved":false,"is_disabled":false,"rental_uris":{"android":"levelo://app?vid=0efd870a-0317-4fbd-9c65-aed4fee17a5e","ios":"levelo://app?vid=0efd870a-0317-4fbd-9c65-aed4fee17a5e"},"vehicle_type_id":"4","last_reported":1701515105,"current_range_meters":25200,"station_id":"ce4bgj92rcd13ifvqbd0","pricing_plan_id":"free"},{"bike_id":"38e231c5-fea7-44f3-802c-3adfe6df4f13","system_id":"levelo_inurba_marseille","lat":43.299707,"lon":5.384859,"is_reserved":false,"is_disabled":false,"rental_uris":{"android":"levelo://app?vid=38e231c5-fea7-44f3-802c-3adfe6df4f13","ios":"levelo://app?vid=38e231c5-fea7-44f3-802c-3adfe6df4f13"},"vehicle_type_id":"4","last_reported":1701515105,"current_range_meters":25600,"station_id":"ce4bgj92rcd13ifvqbd0","pricing_plan_id":"free"},{"bike_id":"32f53bcc-9cbc-44c5-9ed8-ef46568dd119","system_id":"levelo_inurba_marseille","lat":43.295279,"lon":5.375048,"is_reserved":false,"is_disabled":false,"rental_uris":{"android":"levelo://app?vid=32f53bcc-9cbc-44c5-9ed8-ef46568dd119","ios":"levelo://app?vid=32f53bcc-9cbc-44c5-9ed8-ef46568dd119"},"vehicle_type_id":"4","last_reported":1701515105,"current_range_meters":30400,"station_id":"ce4bgkp2rcd13ifvqbmg","pricing_plan_id":"free"},{"bike_id":"f2a3157f-a36c-465c-b1e5-8d864185d0e2","system_id":"levelo_inurba_marseille","lat":43.293009,"lon":5.374584,"is_reserved":false,"is_disabled":false,"rental_uris":{"android":"levelo://app?vid=f2a3157f-a36c-465c-b1e5-8d864185d0e2","ios":"levelo://app?vid=f2a3157f-a36c-465c-b1e5-8d864185d0e2"},"vehicle_type_id":"4","last_reported":1701515105,"current_range_meters":23600,"station_id":"ce4bgi12rcd13ifvqb70","pricing_plan_id":"free"},{"bike_id":"04d43e34-cbaf-4c40-bb9a-444d2238b69b","system_id":"levelo_inurba_marseille","lat":43.293009,"lon":5.374584,"is_reserved":false,"is_disabled":false,"rental_uris":{"android":"levelo://app?vid=04d43e34-cbaf-4c40-bb9a-444d2238b69b","ios":"levelo://app?vid=04d43e34-cbaf-4c40-bb9a-444d2238b69b"},"vehicle_type_id":"4","last_reported":1701515105,"current_range_meters":10000,"station_id":"ce4bgi12rcd13ifvqb70","pricing_plan_id":"free"},{"bike_id":"d3d127f7-8501-4350-9d99-8dce6e9ccbcd","system_id":"levelo_inurba_marseille","lat":43.293009,"lon":5.374584,"is_reserved":false,"is_disabled":false,"rental_uris":{"android":"levelo://app?vid=d3d127f7-8501-4350-9d99-8dce6e9ccbcd","ios":"levelo://app?vid=d3d127f7-8501-4350-9d99-8dce6e9ccbcd"},"vehicle_type_id":"4","last_reported":1701515105,"current_range_meters":3600,"station_id":"ce4bgi12rcd13ifvqb70","pricing_plan_id":"free"},{"bike_id":"7220c375-8708-4986-ac33-a3e3339a68f2","system_id":"levelo_inurba_marseille","lat":43.303002,"lon":5.392142,"is_reserved":false,"is_disabled":false,"rental_uris":{"android":"levelo://app?vid=7220c375-8708-4986-ac33-a3e3339a68f2","ios":"levelo://app?vid=7220c375-8708-4986-ac33-a3e3339a68f2"},"vehicle_type_id":"4","last_reported":1701515105,"current_range_meters":4000,"station_id":"ce4bgkh2rcd13ifvqbk0","pricing_plan_id":"free"},{"bike_id":"460c72c6-c4f9-4e9e-87b8-44f389b236f7","system_id":"levelo_inurba_marseille","lat":43.293824,"lon":5.378559,"is_reserved":false,"is_disabled":false,"rental_uris":{"android":"levelo://app?vid=460c72c6-c4f9-4e9e-87b8-44f389b236f7","ios":"levelo://app?vid=460c72c6-c4f9-4e9e-87b8-44f389b236f7"},"vehicle_type_id":"4","last_reported":1701515105,"current_range_meters":30000,"station_id":"ce4bgjh2rcd13ifvqbf0","pricing_plan_id":"free"},{"bike_id":"7e3219c4-b106-4cef-86d9-03930f72ead5","system_id":"levelo_inurba_marseille","lat":43.30085,"lon":5.390856,"is_reserved":false,"is_disabled":false,"rental_uris":{"android":"levelo://app?vid=7e3219c4-b106-4cef-86d9-03930f72ead5","ios":"levelo://app?vid=7e3219c4-b106-4cef-86d9-03930f72ead5"},"vehicle_type_id":"4","last_reported":1701515105,"current_range_meters":29200,"station_id":"ce4bh192rcd13ifvqdb0","pricing_plan_id":"free"},{"bike_id":"2842af82-a673-49e8-9234-6c524dff2971","system_id":"levelo_inurba_marseille","lat":43.29162,"lon":5.37159,"is_reserved":false,"is_disabled":false,"rental_uris":{"android":"levelo://app?vid=2842af82-a673-49e8-9234-6c524dff2971","ios":"levelo://app?vid=2842af82-a673-49e8-9234-6c524dff2971"},"vehicle_type_id":"4","last_reported":1701515105,"current_range_meters":29200,"station_id":"ce4bha92rcd13ifvqeh0","pricing_plan_id":"free"},{"bike_id":"fb2dff79-4594-4b4f-b423-6b62e1b5f182","system_id":"levelo_inurba_marseille","lat":43.29529,"lon":5.385581,"is_reserved":false,"is_disabled":false,"rental_uris":{"android":"levelo://app?vid=fb2dff79-4594-4b4f-b423-6b62e1b5f182","ios":"levelo://app?vid=fb2dff79-4594-4b4f-b423-6b62e1b5f182"},"vehicle_type_id":"4","last_reported":1701515105,"current_range_meters":400,"station_id":"ce4bgih2rcd13ifvqba0","pricing_plan_id":"free"},{"bike_id":"aab28bf9-7114-432a-9cd3-b48d8c52d04f","system_id":"levelo_inurba_marseille","lat":43.29529,"lon":5.385581,"is_reserved":false,"is_disabled":false,"rental_uris":{"android":"levelo://app?vid=aab28bf9-7114-432a-9cd3-b48d8c52d04f","ios":"levelo://app?vid=aab28bf9-7114-432a-9cd3-b48d8c52d04f"},"vehicle_type_id":"4","last_reported":1701515105,"current_range_meters":10400,"station_id":"ce4bgih2rcd13ifvqba0","pricing_plan_id":"free"},{"bike_id":"d7d182ff-d7fb-4c49-90fe-feea5c4838c6","system_id":"levelo_inurba_marseille","lat":43.302008,"lon":5.394694,"is_reserved":false,"is_disabled":false,"rental_uris":{"android":"levelo://app?vid=d7d182ff-d7fb-4c49-90fe-feea5c4838c6","ios":"levelo://app?vid=d7d182ff-d7fb-4c49-90fe-feea5c4838c6"},"vehicle_type_id":"4","last_reported":1701515105,"current_range_meters":9200,"station_id":"ce4bh0p2rcd13ifvqd70","pricing_plan_id":"free"},{"bike_id":"5c3e530f-0e37-4fd6-ac73-37ac3061b7f8","system_id":"levelo_inurba_marseille","lat":43.289184,"lon":5.366408,"is_reserved":false,"is_disabled":false,"rental_uris":{"android":"levelo://app?vid=5c3e530f-0e37-4fd6-ac73-37ac3061b7f8","ios":"levelo://app?vid=5c3e530f-0e37-4fd6-ac73-37ac3061b7f8"},"vehicle_type_id":"4","last_reported":1701515105,"current_range_meters":31600,"station_id":"ce4bhap2rcd13ifvqek0","pricing_plan_id":"free"},{"bike_id":"9425bc29-9998-4132-8c3e-9d0fa8097019","system_id":"levelo_inurba_marseille","lat":43.289184,"lon":5.366408,"is_reserved":false,"is_disabled":false,"rental_uris":{"android":"levelo://app?vid=9425bc29-9998-4132-8c3e-9d0fa8097019","ios":"levelo://app?vid=9425bc29-9998-4132-8c3e-9d0fa8097019"},"vehicle_type_id":"4","last_reported":1701515105,"current_range_meters":20400,"station_id":"ce4bhap2rcd13ifvqek0","pricing_plan_id":"free"},{"bike_id":"53531221-3607-481c-b7be-35773c6d46ca","system_id":"levelo_inurba_marseille","lat":43.28941,"lon":5.36379,"is_reserved":false,"is_disabled":false,"rental_uris":{"android":"levelo://app?vid=53531221-3607-481c-b7be-35773c6d46ca","ios":"levelo://app?vid=53531221-3607-481c-b7be-35773c6d46ca"},"vehicle_type_id":"4","last_reported":1701515105,"current_range_meters":12000,"station_id":"ce4bhc92rcd13ifvqetg","pricing_plan_id":"free"},{"bike_id":"ea3d1f3d-2489-4be4-a4d0-f34eb79c94e1","system_id":"levelo_inurba_marseille","lat":43.292642,"lon":5.384254,"is_reserved":false,"is_disabled":false,"rental_uris":{"android":"levelo://app?vid=ea3d1f3d-2489-4be4-a4d0-f34eb79c94e1","ios":"levelo://app?vid=ea3d1f3d-2489-4be4-a4d0-f34eb79c94e1"},"vehicle_type_id":"4","last_reported":1701515105,"current_range_meters":18400,"station_id":"ce4bh692rcd13ifvqea0","pricing_plan_id":"free"},{"bike_id":"b38135b0-bb14-4c25-bf29-b49d406cc922","system_id":"levelo_inurba_marseille","lat":43.33043,"lon":5.38921,"is_reserved":false,"is_disabled":false,"rental_uris":{"android":"levelo://app?vid=b38135b0-bb14-4c25-bf29-b49d406cc922","ios":"levelo://app?vid=b38135b0-bb14-4c25-bf29-b49d406cc922"},"vehicle_type_id":"4","last_reported":1701515105,"current_range_meters":1200,"station_id":"ce4bhr92rcd13ifvqhrg","pricing_plan_id":"free"},{"bike_id":"a6468dd2-6632-46da-be39-0cc8552c84c7","system_id":"levelo_inurba_marseille","lat":43.33045,"lon":5.38925,"is_reserved":false,"is_disabled":false,"rental_uris":{"android":"levelo://app?vid=a6468dd2-6632-46da-be39-0cc8552c84c7","ios":"levelo://app?vid=a6468dd2-6632-46da-be39-0cc8552c84c7"},"vehicle_type_id":"4","last_reported":1701515105,"current_range_meters":29200,"station_id":"ce4bhr92rcd13ifvqhrg","pricing_plan_id":"free"},{"bike_id":"43ad3939-a7be-4e1e-910e-71c686324fb3","system_id":"levelo_inurba_marseille","lat":43.288809,"lon":5.358876,"is_reserved":false,"is_disabled":false,"rental_uris":{"android":"levelo://app?vid=43ad3939-a7be-4e1e-910e-71c686324fb3","ios":"levelo://app?vid=43ad3939-a7be-4e1e-910e-71c686324fb3"},"vehicle_type_id":"4","last_reported":1701515105,"current_range_meters":8000,"station_id":"ce4bhb12rcd13ifvqem0","pricing_plan_id":"free"},{"bike_id":"c44c2b74-0569-4d64-9bae-b7c25347b0dc","system_id":"levelo_inurba_marseille","lat":43.2901,"lon":5.381269,"is_reserved":false,"is_disabled":false,"rental_uris":{"android":"levelo://app?vid=c44c2b74-0569-4d64-9bae-b7c25347b0dc","ios":"levelo://app?vid=c44c2b74-0569-4d64-9bae-b7c25347b0dc"},"vehicle_type_id":"4","last_reported":1701515105,"current_range_meters":23600,"station_id":"ce4bh4p2rcd13ifvqe1g","pricing_plan_id":"free"},{"bike_id":"e449eb76-4ed8-407d-a4e6-814b77bf05f9","system_id":"levelo_inurba_marseille","lat":43.2901,"lon":5.381269,"is_reserved":false,"is_disabled":false,"rental_uris":{"android":"levelo://app?vid=e449eb76-4ed8-407d-a4e6-814b77bf05f9","ios":"levelo://app?vid=e449eb76-4ed8-407d-a4e6-814b77bf05f9"},"vehicle_type_id":"4","last_reported":1701515105,"current_range_meters":7200,"station_id":"ce4bh4p2rcd13ifvqe1g","pricing_plan_id":"free"},{"bike_id":"bf05db54-3ece-459e-b6a7-fec4a31ee411","system_id":"levelo_inurba_marseille","lat":43.290094,"lon":5.381264,"is_reserved":false,"is_disabled":false,"rental_uris":{"android":"levelo://app?vid=bf05db54-3ece-459e-b6a7-fec4a31ee411","ios":"levelo://app?vid=bf05db54-3ece-459e-b6a7-fec4a31ee411"},"vehicle_type_id":"4","last_reported":1701515105,"current_range_meters":30800,"station_id":"ce4bh4p2rcd13ifvqe1g","pricing_plan_id":"free"},{"bike_id":"5c282972-64a0-4fd1-8fdc-6a38e620fb8a","system_id":"levelo_inurba_marseille","lat":43.312609,"lon":5.401662,"is_reserved":false,"is_disabled":false,"rental_uris":{"android":"levelo://app?vid=5c282972-64a0-4fd1-8fdc-6a38e620fb8a","ios":"levelo://app?vid=5c282972-64a0-4fd1-8fdc-6a38e620fb8a"},"vehicle_type_id":"4","last_reported":1701515105,"current_range_meters":21200,"station_id":"ce4bh092rcd13ifvqd30","pricing_plan_id":"free"},{"bike_id":"475b9bb8-5294-42be-84d0-831304032cbf","system_id":"levelo_inurba_marseille","lat":43.306412,"lon":5.401035,"is_reserved":false,"is_disabled":false,"rental_uris":{"android":"levelo://app?vid=475b9bb8-5294-42be-84d0-831304032cbf","ios":"levelo://app?vid=475b9bb8-5294-42be-84d0-831304032cbf"},"vehicle_type_id":"4","last_reported":1701515105,"current_range_meters":15200,"station_id":"ce4bh112rcd13ifvqda0","pricing_plan_id":"free"},{"bike_id":"86ef6b4d-079f-4ce5-981d-d4a36f806ab2","system_id":"levelo_inurba_marseille","lat":43.306412,"lon":5.401035,"is_reserved":false,"is_disabled":false,"rental_uris":{"android":"levelo://app?vid=86ef6b4d-079f-4ce5-981d-d4a36f806ab2","ios":"levelo://app?vid=86ef6b4d-079f-4ce5-981d-d4a36f806ab2"},"vehicle_type_id":"4","last_reported":1701515105,"current_range_meters":23200,"station_id":"ce4bh112rcd13ifvqda0","pricing_plan_id":"free"},{"bike_id":"59f2d4fa-4081-4b37-9e39-4fdd8d6bd7cb","system_id":"levelo_inurba_marseille","lat":43.301117,"lon":5.398795,"is_reserved":false,"is_disabled":false,"rental_uris":{"android":"levelo://app?vid=59f2d4fa-4081-4b37-9e39-4fdd8d6bd7cb","ios":"levelo://app?vid=59f2d4fa-4081-4b37-9e39-4fdd8d6bd7cb"},"vehicle_type_id":"4","last_reported":1701515105,"current_range_meters":18000,"station_id":"ce4bh0h2rcd13ifvqd40","pricing_plan_id":"free"},{"bike_id":"b33baed7-f69e-40ed-8b72-f0de89078f86","system_id":"levelo_inurba_marseille","lat":43.286591,"lon":5.363346,"is_reserved":false,"is_disabled":false,"rental_uris":{"android":"levelo://app?vid=b33baed7-f69e-40ed-8b72-f0de89078f86","ios":"levelo://app?vid=b33baed7-f69e-40ed-8b72-f0de89078f86"},"vehicle_type_id":"4","last_reported":1701515105,"current_range_meters":30800,"station_id":"ce4bhah2rcd13ifvqej0","pricing_plan_id":"free"},{"bike_id":"1ef09340-7237-41e1-9cf7-33fe09b0ab78","system_id":"levelo_inurba_marseille","lat":43.29509,"lon":5.39402,"is_reserved":false,"is_disabled":false,"rental_uris":{"android":"levelo://app?vid=1ef09340-7237-41e1-9cf7-33fe09b0ab78","ios":"levelo://app?vid=1ef09340-7237-41e1-9cf7-33fe09b0ab78"},"vehicle_type_id":"4","last_reported":1701515105,"current_range_meters":0,"station_id":"ce4bh292rcd13ifvqdf0","pricing_plan_id":"free"},{"bike_id":"5204052b-9734-4746-960b-c736a4683e18","system_id":"levelo_inurba_marseille","lat":43.302759,"lon":5.400793,"is_reserved":false,"is_disabled":false,"rental_uris":{"android":"levelo://app?vid=5204052b-9734-4746-960b-c736a4683e18","ios":"levelo://app?vid=5204052b-9734-4746-960b-c736a4683e18"},"vehicle_type_id":"4","last_reported":1701515105,"current_range_meters":22800,"station_id":"ce4bgvh2rcd13ifvqcs0","pricing_plan_id":"free"},{"bike_id":"5ffc400f-750d-4d9b-b5a6-2cfaafcfe2c6","system_id":"levelo_inurba_marseille","lat":43.286039,"lon":5.370679,"is_reserved":false,"is_disabled":false,"rental_uris":{"android":"levelo://app?vid=5ffc400f-750d-4d9b-b5a6-2cfaafcfe2c6","ios":"levelo://app?vid=5ffc400f-750d-4d9b-b5a6-2cfaafcfe2c6"},"vehicle_type_id":"4","last_reported":1701515105,"current_range_meters":28800,"station_id":"ce4bht12rcd13ifvqi60","pricing_plan_id":"free"},{"bike_id":"7b62414f-0b2a-4538-aeb0-c32300be273e","system_id":"levelo_inurba_marseille","lat":43.289307,"lon":5.38406,"is_reserved":false,"is_disabled":false,"rental_uris":{"android":"levelo://app?vid=7b62414f-0b2a-4538-aeb0-c32300be273e","ios":"levelo://app?vid=7b62414f-0b2a-4538-aeb0-c32300be273e"},"vehicle_type_id":"4","last_reported":1701515105,"current_range_meters":18000,"station_id":"ce4bh612rcd13ifvqe6g","pricing_plan_id":"free"},{"bike_id":"abdf7621-70da-4425-b07a-0e4b2eaaefd9","system_id":"levelo_inurba_marseille","lat":43.28584,"lon":5.37034,"is_reserved":false,"is_disabled":false,"rental_uris":{"android":"levelo://app?vid=abdf7621-70da-4425-b07a-0e4b2eaaefd9","ios":"levelo://app?vid=abdf7621-70da-4425-b07a-0e4b2eaaefd9"},"vehicle_type_id":"4","last_reported":1701515105,"current_range_meters":4400,"station_id":"ce4bht12rcd13ifvqi60","pricing_plan_id":"free"},{"bike_id":"6fb30a8d-19aa-4d0e-acf1-4d8eff063fe9","system_id":"levelo_inurba_marseille","lat":43.287185,"lon":5.379373,"is_reserved":false,"is_disabled":false,"rental_uris":{"android":"levelo://app?vid=6fb30a8d-19aa-4d0e-acf1-4d8eff063fe9","ios":"levelo://app?vid=6fb30a8d-19aa-4d0e-acf1-4d8eff063fe9"},"vehicle_type_id":"4","last_reported":1701515105,"current_range_meters":16000,"station_id":"ce4bh9p2rcd13ifvqec0","pricing_plan_id":"free"},{"bike_id":"e5ff3180-42fc-444d-a2bf-0a71e68cb830","system_id":"levelo_inurba_marseille","lat":43.285848,"lon":5.350787,"is_reserved":false,"is_disabled":false,"rental_uris":{"android":"levelo://app?vid=e5ff3180-42fc-444d-a2bf-0a71e68cb830","ios":"levelo://app?vid=e5ff3180-42fc-444d-a2bf-0a71e68cb830"},"vehicle_type_id":"4","last_reported":1701515105,"current_range_meters":15200,"station_id":"ce4bhch2rcd13ifvqeug","pricing_plan_id":"free"},{"bike_id":"0d5d7ab8-9ae7-432f-9189-bf46aad59761","system_id":"levelo_inurba_marseille","lat":43.319179,"lon":5.407725,"is_reserved":false,"is_disabled":false,"rental_uris":{"android":"levelo://app?vid=0d5d7ab8-9ae7-432f-9189-bf46aad59761","ios":"levelo://app?vid=0d5d7ab8-9ae7-432f-9189-bf46aad59761"},"vehicle_type_id":"4","last_reported":1701515105,"current_range_meters":31600,"station_id":"ce4bhq12rcd13ifvqhig","pricing_plan_id":"free"},{"bike_id":"f99fc4d8-709b-4cee-a32c-2cdd6f1e8b1e","system_id":"levelo_inurba_marseille","lat":43.337168,"lon":5.391825,"is_reserved":false,"is_disabled":false,"rental_uris":{"android":"levelo://app?vid=f99fc4d8-709b-4cee-a32c-2cdd6f1e8b1e","ios":"levelo://app?vid=f99fc4d8-709b-4cee-a32c-2cdd6f1e8b1e"},"vehicle_type_id":"4","last_reported":1701515105,"current_range_meters":26800,"station_id":"ce4bhr92rcd13ifvqhsg","pricing_plan_id":"free"},{"bike_id":"4714f7cd-5ff4-41d0-870b-3e9261538b58","system_id":"levelo_inurba_marseille","lat":43.323464,"lon":5.406297,"is_reserved":false,"is_disabled":false,"rental_uris":{"android":"levelo://app?vid=4714f7cd-5ff4-41d0-870b-3e9261538b58","ios":"levelo://app?vid=4714f7cd-5ff4-41d0-870b-3e9261538b58"},"vehicle_type_id":"4","last_reported":1701515105,"current_range_meters":27200,"station_id":"ce4bhq92rcd13ifvqhjg","pricing_plan_id":"free"},{"bike_id":"4092b413-a8f0-49fd-8cc3-69bf3f509a40","system_id":"levelo_inurba_marseille","lat":43.32339,"lon":5.40634,"is_reserved":false,"is_disabled":false,"rental_uris":{"android":"levelo://app?vid=4092b413-a8f0-49fd-8cc3-69bf3f509a40","ios":"levelo://app?vid=4092b413-a8f0-49fd-8cc3-69bf3f509a40"},"vehicle_type_id":"4","last_reported":1701515105,"current_range_meters":10800,"station_id":"ce4bhq92rcd13ifvqhjg","pricing_plan_id":"free"},{"bike_id":"374ebd9b-d557-4058-ac3c-f516ff79809d","system_id":"levelo_inurba_marseille","lat":43.284217,"lon":5.349697,"is_reserved":false,"is_disabled":false,"rental_uris":{"android":"levelo://app?vid=374ebd9b-d557-4058-ac3c-f516ff79809d","ios":"levelo://app?vid=374ebd9b-d557-4058-ac3c-f516ff79809d"},"vehicle_type_id":"4","last_reported":1701515105,"current_range_meters":16800,"station_id":"ce4bhbh2rcd13ifvqepg","pricing_plan_id":"free"},{"bike_id":"002e85e2-02a7-4c9f-90ad-371af52d9f6e","system_id":"levelo_inurba_marseille","lat":43.289363,"lon":5.396322,"is_reserved":false,"is_disabled":false,"rental_uris":{"android":"levelo://app?vid=002e85e2-02a7-4c9f-90ad-371af52d9f6e","ios":"levelo://app?vid=002e85e2-02a7-4c9f-90ad-371af52d9f6e"},"vehicle_type_id":"4","last_reported":1701515105,"current_range_meters":24000,"station_id":"ce4bh3h2rcd13ifvqdn0","pricing_plan_id":"free"},{"bike_id":"e3b1fdea-439a-49b3-b813-bd4f6661a787","system_id":"levelo_inurba_marseille","lat":43.289363,"lon":5.396322,"is_reserved":false,"is_disabled":false,"rental_uris":{"android":"levelo://app?vid=e3b1fdea-439a-49b3-b813-bd4f6661a787","ios":"levelo://app?vid=e3b1fdea-439a-49b3-b813-bd4f6661a787"},"vehicle_type_id":"4","last_reported":1701515105,"current_range_meters":28800,"station_id":"ce4bh3h2rcd13ifvqdn0","pricing_plan_id":"free"},{"bike_id":"810da89c-313f-4537-9c62-e8eda877354d","system_id":"levelo_inurba_marseille","lat":43.28039,"lon":5.369297,"is_reserved":false,"is_disabled":false,"rental_uris":{"android":"levelo://app?vid=810da89c-313f-4537-9c62-e8eda877354d","ios":"levelo://app?vid=810da89c-313f-4537-9c62-e8eda877354d"},"vehicle_type_id":"4","last_reported":1701515105,"current_range_meters":28400,"station_id":"ce4bha12rcd13ifvqef0","pricing_plan_id":"free"},{"bike_id":"740665f6-b8c2-492d-aefb-d5b52d7d4a39","system_id":"levelo_inurba_marseille","lat":43.280382,"lon":5.369291,"is_reserved":false,"is_disabled":false,"rental_uris":{"android":"levelo://app?vid=740665f6-b8c2-492d-aefb-d5b52d7d4a39","ios":"levelo://app?vid=740665f6-b8c2-492d-aefb-d5b52d7d4a39"},"vehicle_type_id":"4","last_reported":1701515105,"current_range_meters":27200,"station_id":"ce4bha12rcd13ifvqef0","pricing_plan_id":"free"},{"bike_id":"59db8bfb-d01a-4bdc-ac0c-2cdd6af9656e","system_id":"levelo_inurba_marseille","lat":43.29032,"lon":5.39955,"is_reserved":false,"is_disabled":false,"rental_uris":{"android":"levelo://app?vid=59db8bfb-d01a-4bdc-ac0c-2cdd6af9656e","ios":"levelo://app?vid=59db8bfb-d01a-4bdc-ac0c-2cdd6af9656e"},"vehicle_type_id":"4","last_reported":1701515105,"current_range_meters":17600,"station_id":"ce4bh392rcd13ifvqdm0","pricing_plan_id":"free"},{"bike_id":"80e5c63e-77f9-4de8-90ef-09fb88cafc2a","system_id":"levelo_inurba_marseille","lat":43.304188,"lon":5.412904,"is_reserved":false,"is_disabled":false,"rental_uris":{"android":"levelo://app?vid=80e5c63e-77f9-4de8-90ef-09fb88cafc2a","ios":"levelo://app?vid=80e5c63e-77f9-4de8-90ef-09fb88cafc2a"},"vehicle_type_id":"4","last_reported":1701515105,"current_range_meters":26000,"station_id":"ce4bhop2rcd13ifvqh8g","pricing_plan_id":"free"},{"bike_id":"9f3cdfba-00bc-459d-9e35-baaae2677a79","system_id":"levelo_inurba_marseille","lat":43.28713,"lon":5.39994,"is_reserved":false,"is_disabled":false,"rental_uris":{"android":"levelo://app?vid=9f3cdfba-00bc-459d-9e35-baaae2677a79","ios":"levelo://app?vid=9f3cdfba-00bc-459d-9e35-baaae2677a79"},"vehicle_type_id":"4","last_reported":1701515105,"current_range_meters":30000,"station_id":"ce4bho92rcd13ifvqh3g","pricing_plan_id":"free"},{"bike_id":"2a48ec58-a18d-49d2-9fda-72b787fa06c4","system_id":"levelo_inurba_marseille","lat":43.28698,"lon":5.3998,"is_reserved":false,"is_disabled":false,"rental_uris":{"android":"levelo://app?vid=2a48ec58-a18d-49d2-9fda-72b787fa06c4","ios":"levelo://app?vid=2a48ec58-a18d-49d2-9fda-72b787fa06c4"},"vehicle_type_id":"4","last_reported":1701515105,"current_range_meters":0,"station_id":"","pricing_plan_id":"free"},{"bike_id":"97209419-73c6-4656-9c00-2d7ec198c9a2","system_id":"levelo_inurba_marseille","lat":43.320045,"lon":5.415046,"is_reserved":false,"is_disabled":false,"rental_uris":{"android":"levelo://app?vid=97209419-73c6-4656-9c00-2d7ec198c9a2","ios":"levelo://app?vid=97209419-73c6-4656-9c00-2d7ec198c9a2"},"vehicle_type_id":"4","last_reported":1701515105,"current_range_meters":26800,"station_id":"ce4bhq92rcd13ifvqhkg","pricing_plan_id":"free"},{"bike_id":"0604cd22-7351-4f0d-b36f-58921928b3e2","system_id":"levelo_inurba_marseille","lat":43.320045,"lon":5.415048,"is_reserved":false,"is_disabled":false,"rental_uris":{"android":"levelo://app?vid=0604cd22-7351-4f0d-b36f-58921928b3e2","ios":"levelo://app?vid=0604cd22-7351-4f0d-b36f-58921928b3e2"},"vehicle_type_id":"4","last_reported":1701515105,"current_range_meters":26400,"station_id":"ce4bhq92rcd13ifvqhkg","pricing_plan_id":"free"},{"bike_id":"54549465-6366-4fc2-b0f4-fa1ef73d7ecf","system_id":"levelo_inurba_marseille","lat":43.292571,"lon":5.409107,"is_reserved":false,"is_disabled":false,"rental_uris":{"android":"levelo://app?vid=54549465-6366-4fc2-b0f4-fa1ef73d7ecf","ios":"levelo://app?vid=54549465-6366-4fc2-b0f4-fa1ef73d7ecf"},"vehicle_type_id":"4","last_reported":1701515105,"current_range_meters":17600,"station_id":"ce4bh192rcd13ifvqdc0","pricing_plan_id":"free"},{"bike_id":"3168f798-276e-469f-9ca3-fa4793bfc3ce","system_id":"levelo_inurba_marseille","lat":43.292571,"lon":5.409107,"is_reserved":false,"is_disabled":false,"rental_uris":{"android":"levelo://app?vid=3168f798-276e-469f-9ca3-fa4793bfc3ce","ios":"levelo://app?vid=3168f798-276e-469f-9ca3-fa4793bfc3ce"},"vehicle_type_id":"4","last_reported":1701515105,"current_range_meters":27600,"station_id":"ce4bh192rcd13ifvqdc0","pricing_plan_id":"free"},{"bike_id":"84b9469e-662f-49ed-9119-09b74453ef70","system_id":"levelo_inurba_marseille","lat":43.292571,"lon":5.409107,"is_reserved":false,"is_disabled":false,"rental_uris":{"android":"levelo://app?vid=84b9469e-662f-49ed-9119-09b74453ef70","ios":"levelo://app?vid=84b9469e-662f-49ed-9119-09b74453ef70"},"vehicle_type_id":"4","last_reported":1701515105,"current_range_meters":13600,"station_id":"ce4bh192rcd13ifvqdc0","pricing_plan_id":"free"},{"bike_id":"662d7ac0-b60c-4589-b775-59c466096683","system_id":"levelo_inurba_marseille","lat":43.325233,"lon":5.414318,"is_reserved":false,"is_disabled":false,"rental_uris":{"android":"levelo://app?vid=662d7ac0-b60c-4589-b775-59c466096683","ios":"levelo://app?vid=662d7ac0-b60c-4589-b775-59c466096683"},"vehicle_type_id":"4","last_reported":1701515105,"current_range_meters":31600,"station_id":"ce4bhq12rcd13ifvqhhg","pricing_plan_id":"free"},{"bike_id":"0e213d99-3509-4b22-8ea3-187711179b82","system_id":"levelo_inurba_marseille","lat":43.325233,"lon":5.414318,"is_reserved":false,"is_disabled":false,"rental_uris":{"android":"levelo://app?vid=0e213d99-3509-4b22-8ea3-187711179b82","ios":"levelo://app?vid=0e213d99-3509-4b22-8ea3-187711179b82"},"vehicle_type_id":"4","last_reported":1701515105,"current_range_meters":14000,"station_id":"ce4bhq12rcd13ifvqhhg","pricing_plan_id":"free"},{"bike_id":"bcdb50df-13be-4393-adc8-1a79a4e56c43","system_id":"levelo_inurba_marseille","lat":43.28619,"lon":5.40406,"is_reserved":false,"is_disabled":false,"rental_uris":{"android":"levelo://app?vid=bcdb50df-13be-4393-adc8-1a79a4e56c43","ios":"levelo://app?vid=bcdb50df-13be-4393-adc8-1a79a4e56c43"},"vehicle_type_id":"4","last_reported":1701515105,"current_range_meters":0,"station_id":"","pricing_plan_id":"free"},{"bike_id":"a842af7e-ec51-4b4d-b82f-4cbea8a90c44","system_id":"levelo_inurba_marseille","lat":43.280784,"lon":5.396622,"is_reserved":false,"is_disabled":false,"rental_uris":{"android":"levelo://app?vid=a842af7e-ec51-4b4d-b82f-4cbea8a90c44","ios":"levelo://app?vid=a842af7e-ec51-4b4d-b82f-4cbea8a90c44"},"vehicle_type_id":"4","last_reported":1701515105,"current_range_meters":21600,"station_id":"ce4bho12rcd13ifvqh2g","pricing_plan_id":"free"},{"bike_id":"5cc6494a-7c11-48ad-92c1-104e232af1fc","system_id":"levelo_inurba_marseille","lat":43.280784,"lon":5.396622,"is_reserved":false,"is_disabled":false,"rental_uris":{"android":"levelo://app?vid=5cc6494a-7c11-48ad-92c1-104e232af1fc","ios":"levelo://app?vid=5cc6494a-7c11-48ad-92c1-104e232af1fc"},"vehicle_type_id":"4","last_reported":1701515105,"current_range_meters":30800,"station_id":"ce4bho12rcd13ifvqh2g","pricing_plan_id":"free"},{"bike_id":"89856529-2919-4dfc-8bb9-1d525b55eef5","system_id":"levelo_inurba_marseille","lat":43.278401,"lon":5.392152,"is_reserved":false,"is_disabled":false,"rental_uris":{"android":"levelo://app?vid=89856529-2919-4dfc-8bb9-1d525b55eef5","ios":"levelo://app?vid=89856529-2919-4dfc-8bb9-1d525b55eef5"},"vehicle_type_id":"4","last_reported":1701515105,"current_range_meters":14800,"station_id":"ce4bhjp2rcd13ifvqga0","pricing_plan_id":"free"},{"bike_id":"21eb0137-0645-4a50-bb9e-4c9f3821675a","system_id":"levelo_inurba_marseille","lat":43.278399,"lon":5.392139,"is_reserved":false,"is_disabled":false,"rental_uris":{"android":"levelo://app?vid=21eb0137-0645-4a50-bb9e-4c9f3821675a","ios":"levelo://app?vid=21eb0137-0645-4a50-bb9e-4c9f3821675a"},"vehicle_type_id":"4","last_reported":1701515105,"current_range_meters":20000,"station_id":"ce4bhjp2rcd13ifvqga0","pricing_plan_id":"free"},{"bike_id":"edf93a2c-ddd5-46a0-b01d-4e3d39c4b880","system_id":"levelo_inurba_marseille","lat":43.273609,"lon":5.362708,"is_reserved":false,"is_disabled":false,"rental_uris":{"android":"levelo://app?vid=edf93a2c-ddd5-46a0-b01d-4e3d39c4b880","ios":"levelo://app?vid=edf93a2c-ddd5-46a0-b01d-4e3d39c4b880"},"vehicle_type_id":"4","last_reported":1701515105,"current_range_meters":27600,"station_id":"ce4bhbh2rcd13ifvqeo0","pricing_plan_id":"free"},{"bike_id":"451e5711-912b-4e6f-ba92-14f20d0093e3","system_id":"levelo_inurba_marseille","lat":43.336152,"lon":5.41021,"is_reserved":false,"is_disabled":false,"rental_uris":{"android":"levelo://app?vid=451e5711-912b-4e6f-ba92-14f20d0093e3","ios":"levelo://app?vid=451e5711-912b-4e6f-ba92-14f20d0093e3"},"vehicle_type_id":"4","last_reported":1701515105,"current_range_meters":21200,"station_id":"ce4bhqh2rcd13ifvqhmg","pricing_plan_id":"free"},{"bike_id":"50415618-e0c7-4c83-af76-e7d428c4b51d","system_id":"levelo_inurba_marseille","lat":43.279952,"lon":5.400085,"is_reserved":false,"is_disabled":false,"rental_uris":{"android":"levelo://app?vid=50415618-e0c7-4c83-af76-e7d428c4b51d","ios":"levelo://app?vid=50415618-e0c7-4c83-af76-e7d428c4b51d"},"vehicle_type_id":"4","last_reported":1701515105,"current_range_meters":29600,"station_id":"ce4bho92rcd13ifvqh4g","pricing_plan_id":"free"},{"bike_id":"f4345453-fa17-43eb-914c-45016ea816b5","system_id":"levelo_inurba_marseille","lat":43.279952,"lon":5.400085,"is_reserved":false,"is_disabled":false,"rental_uris":{"android":"levelo://app?vid=f4345453-fa17-43eb-914c-45016ea816b5","ios":"levelo://app?vid=f4345453-fa17-43eb-914c-45016ea816b5"},"vehicle_type_id":"4","last_reported":1701515105,"current_range_meters":27200,"station_id":"ce4bho92rcd13ifvqh4g","pricing_plan_id":"free"},{"bike_id":"a921fcdd-6079-48a7-a974-927c4c91e867","system_id":"levelo_inurba_marseille","lat":43.276771,"lon":5.388799,"is_reserved":false,"is_disabled":false,"rental_uris":{"android":"levelo://app?vid=a921fcdd-6079-48a7-a974-927c4c91e867","ios":"levelo://app?vid=a921fcdd-6079-48a7-a974-927c4c91e867"},"vehicle_type_id":"4","last_reported":1701515105,"current_range_meters":28000,"station_id":"ce4bhi12rcd13ifvqfo0","pricing_plan_id":"free"},{"bike_id":"894f6494-585b-4b1b-a39f-39b137cf17d0","system_id":"levelo_inurba_marseille","lat":43.310785,"lon":5.424305,"is_reserved":false,"is_disabled":false,"rental_uris":{"android":"levelo://app?vid=894f6494-585b-4b1b-a39f-39b137cf17d0","ios":"levelo://app?vid=894f6494-585b-4b1b-a39f-39b137cf17d0"},"vehicle_type_id":"4","last_reported":1701515105,"current_range_meters":10000,"station_id":"ce4bhp92rcd13ifvqhag","pricing_plan_id":"free"},{"bike_id":"ec8cda27-8133-4ca8-abd6-6a978c40f976","system_id":"levelo_inurba_marseille","lat":43.34141,"lon":5.40898,"is_reserved":false,"is_disabled":false,"rental_uris":{"android":"levelo://app?vid=ec8cda27-8133-4ca8-abd6-6a978c40f976","ios":"levelo://app?vid=ec8cda27-8133-4ca8-abd6-6a978c40f976"},"vehicle_type_id":"4","last_reported":1701515105,"current_range_meters":31600,"station_id":"ce4bhqh2rcd13ifvqhlg","pricing_plan_id":"free"},{"bike_id":"7729778a-d587-4a31-9e2a-fc6f9d799c22","system_id":"levelo_inurba_marseille","lat":43.340804,"lon":5.410219,"is_reserved":false,"is_disabled":false,"rental_uris":{"android":"levelo://app?vid=7729778a-d587-4a31-9e2a-fc6f9d799c22","ios":"levelo://app?vid=7729778a-d587-4a31-9e2a-fc6f9d799c22"},"vehicle_type_id":"4","last_reported":1701515105,"current_range_meters":31600,"station_id":"ce4bhqh2rcd13ifvqhlg","pricing_plan_id":"free"},{"bike_id":"c84c523d-4354-4ec5-8acc-748b30d9aa68","system_id":"levelo_inurba_marseille","lat":43.340804,"lon":5.410219,"is_reserved":false,"is_disabled":false,"rental_uris":{"android":"levelo://app?vid=c84c523d-4354-4ec5-8acc-748b30d9aa68","ios":"levelo://app?vid=c84c523d-4354-4ec5-8acc-748b30d9aa68"},"vehicle_type_id":"4","last_reported":1701515105,"current_range_meters":27600,"station_id":"ce4bhqh2rcd13ifvqhlg","pricing_plan_id":"free"},{"bike_id":"c0c04cc4-a717-4722-a246-757fbde82c2e","system_id":"levelo_inurba_marseille","lat":43.273129,"lon":5.390725,"is_reserved":false,"is_disabled":false,"rental_uris":{"android":"levelo://app?vid=c0c04cc4-a717-4722-a246-757fbde82c2e","ios":"levelo://app?vid=c0c04cc4-a717-4722-a246-757fbde82c2e"},"vehicle_type_id":"4","last_reported":1701515105,"current_range_meters":29200,"station_id":"ce4bhgp2rcd13ifvqfe0","pricing_plan_id":"free"},{"bike_id":"a3527c32-1fa7-4ebe-9b65-a997c7b104de","system_id":"levelo_inurba_marseille","lat":43.30415,"lon":5.42538,"is_reserved":false,"is_disabled":false,"rental_uris":{"android":"levelo://app?vid=a3527c32-1fa7-4ebe-9b65-a997c7b104de","ios":"levelo://app?vid=a3527c32-1fa7-4ebe-9b65-a997c7b104de"},"vehicle_type_id":"4","last_reported":1701515105,"current_range_meters":14800,"station_id":"ce4bhoh2rcd13ifvqh6g","pricing_plan_id":"free"},{"bike_id":"af6c25f8-85f7-4c47-b8cf-f61e6d3e6e91","system_id":"levelo_inurba_marseille","lat":43.27211,"lon":5.39184,"is_reserved":false,"is_disabled":false,"rental_uris":{"android":"levelo://app?vid=af6c25f8-85f7-4c47-b8cf-f61e6d3e6e91","ios":"levelo://app?vid=af6c25f8-85f7-4c47-b8cf-f61e6d3e6e91"},"vehicle_type_id":"4","last_reported":1701515105,"current_range_meters":28000,"station_id":"ce4bhhp2rcd13ifvqfm0","pricing_plan_id":"free"},{"bike_id":"4d48130e-7f25-4d15-aa5c-838c9ad97d81","system_id":"levelo_inurba_marseille","lat":43.272116,"lon":5.391763,"is_reserved":false,"is_disabled":false,"rental_uris":{"android":"levelo://app?vid=4d48130e-7f25-4d15-aa5c-838c9ad97d81","ios":"levelo://app?vid=4d48130e-7f25-4d15-aa5c-838c9ad97d81"},"vehicle_type_id":"4","last_reported":1701515105,"current_range_meters":16800,"station_id":"ce4bhhp2rcd13ifvqfm0","pricing_plan_id":"free"},{"bike_id":"bffa7cae-5d1c-4b45-b526-7395c5bf646b","system_id":"levelo_inurba_marseille","lat":43.269467,"lon":5.386439,"is_reserved":false,"is_disabled":false,"rental_uris":{"android":"levelo://app?vid=bffa7cae-5d1c-4b45-b526-7395c5bf646b","ios":"levelo://app?vid=bffa7cae-5d1c-4b45-b526-7395c5bf646b"},"vehicle_type_id":"4","last_reported":1701515105,"current_range_meters":31600,"station_id":"ce4bhh92rcd13ifvqfh0","pricing_plan_id":"free"},{"bike_id":"03233595-0cf0-4f19-a04d-dd9c19aff75f","system_id":"levelo_inurba_marseille","lat":43.269467,"lon":5.386439,"is_reserved":false,"is_disabled":false,"rental_uris":{"android":"levelo://app?vid=03233595-0cf0-4f19-a04d-dd9c19aff75f","ios":"levelo://app?vid=03233595-0cf0-4f19-a04d-dd9c19aff75f"},"vehicle_type_id":"4","last_reported":1701515105,"current_range_meters":28400,"station_id":"ce4bhh92rcd13ifvqfh0","pricing_plan_id":"free"},{"bike_id":"01910e8e-991f-4805-a654-23241a5ed4b0","system_id":"levelo_inurba_marseille","lat":43.269467,"lon":5.386439,"is_reserved":false,"is_disabled":false,"rental_uris":{"android":"levelo://app?vid=01910e8e-991f-4805-a654-23241a5ed4b0","ios":"levelo://app?vid=01910e8e-991f-4805-a654-23241a5ed4b0"},"vehicle_type_id":"4","last_reported":1701515105,"current_range_meters":22000,"station_id":"ce4bhh92rcd13ifvqfh0","pricing_plan_id":"free"},{"bike_id":"947b15c5-4130-4a42-a669-ab3663753c16","system_id":"levelo_inurba_marseille","lat":43.269467,"lon":5.386439,"is_reserved":false,"is_disabled":false,"rental_uris":{"android":"levelo://app?vid=947b15c5-4130-4a42-a669-ab3663753c16","ios":"levelo://app?vid=947b15c5-4130-4a42-a669-ab3663753c16"},"vehicle_type_id":"4","last_reported":1701515105,"current_range_meters":28000,"station_id":"ce4bhh92rcd13ifvqfh0","pricing_plan_id":"free"},{"bike_id":"5bf020ad-6595-41e6-bd36-29a3f420324d","system_id":"levelo_inurba_marseille","lat":43.2794,"lon":5.41042,"is_reserved":false,"is_disabled":false,"rental_uris":{"android":"levelo://app?vid=5bf020ad-6595-41e6-bd36-29a3f420324d","ios":"levelo://app?vid=5bf020ad-6595-41e6-bd36-29a3f420324d"},"vehicle_type_id":"4","last_reported":1701515105,"current_range_meters":31200,"station_id":"ce4bhnp2rcd13ifvqh0g","pricing_plan_id":"free"},{"bike_id":"c8188919-84af-40fe-8b9b-0f09e92fabdf","system_id":"levelo_inurba_marseille","lat":43.279465,"lon":5.410561,"is_reserved":false,"is_disabled":false,"rental_uris":{"android":"levelo://app?vid=c8188919-84af-40fe-8b9b-0f09e92fabdf","ios":"levelo://app?vid=c8188919-84af-40fe-8b9b-0f09e92fabdf"},"vehicle_type_id":"4","last_reported":1701515105,"current_range_meters":18800,"station_id":"ce4bhnp2rcd13ifvqh0g","pricing_plan_id":"free"},{"bike_id":"50af1877-537a-4a9e-b024-7ee0b7611b53","system_id":"levelo_inurba_marseille","lat":43.27996,"lon":5.416624,"is_reserved":false,"is_disabled":false,"rental_uris":{"android":"levelo://app?vid=50af1877-537a-4a9e-b024-7ee0b7611b53","ios":"levelo://app?vid=50af1877-537a-4a9e-b024-7ee0b7611b53"},"vehicle_type_id":"4","last_reported":1701515105,"current_range_meters":25200,"station_id":"ce4bho12rcd13ifvqh1g","pricing_plan_id":"free"},{"bike_id":"e196aab9-bd17-4a6b-ae35-c6f3741b186e","system_id":"levelo_inurba_marseille","lat":43.27996,"lon":5.416624,"is_reserved":false,"is_disabled":false,"rental_uris":{"android":"levelo://app?vid=e196aab9-bd17-4a6b-ae35-c6f3741b186e","ios":"levelo://app?vid=e196aab9-bd17-4a6b-ae35-c6f3741b186e"},"vehicle_type_id":"4","last_reported":1701515105,"current_range_meters":16400,"station_id":"ce4bho12rcd13ifvqh1g","pricing_plan_id":"free"},{"bike_id":"f2aa8810-28d3-46a8-b514-21de193665bb","system_id":"levelo_inurba_marseille","lat":43.267966,"lon":5.393976,"is_reserved":false,"is_disabled":false,"rental_uris":{"android":"levelo://app?vid=f2aa8810-28d3-46a8-b514-21de193665bb","ios":"levelo://app?vid=f2aa8810-28d3-46a8-b514-21de193665bb"},"vehicle_type_id":"4","last_reported":1701515105,"current_range_meters":26400,"station_id":"ce4bhh12rcd13ifvqfg0","pricing_plan_id":"free"},{"bike_id":"9e98846c-bad8-4640-aac6-60c45698984e","system_id":"levelo_inurba_marseille","lat":43.267966,"lon":5.393976,"is_reserved":false,"is_disabled":false,"rental_uris":{"android":"levelo://app?vid=9e98846c-bad8-4640-aac6-60c45698984e","ios":"levelo://app?vid=9e98846c-bad8-4640-aac6-60c45698984e"},"vehicle_type_id":"4","last_reported":1701515105,"current_range_meters":24800,"station_id":"ce4bhh12rcd13ifvqfg0","pricing_plan_id":"free"},{"bike_id":"55b33a5c-1177-4dd9-b3a0-e993463bd4e2","system_id":"levelo_inurba_marseille","lat":43.308051,"lon":5.43527,"is_reserved":false,"is_disabled":false,"rental_uris":{"android":"levelo://app?vid=55b33a5c-1177-4dd9-b3a0-e993463bd4e2","ios":"levelo://app?vid=55b33a5c-1177-4dd9-b3a0-e993463bd4e2"},"vehicle_type_id":"4","last_reported":1701515105,"current_range_meters":31600,"station_id":"ce4bhph2rcd13ifvqheg","pricing_plan_id":"free"},{"bike_id":"9ab37219-bfe8-4cec-ad7e-887ff795cb11","system_id":"levelo_inurba_marseille","lat":43.272124,"lon":5.391768,"is_reserved":false,"is_disabled":false,"rental_uris":{"android":"levelo://app?vid=9ab37219-bfe8-4cec-ad7e-887ff795cb11","ios":"levelo://app?vid=9ab37219-bfe8-4cec-ad7e-887ff795cb11"},"vehicle_type_id":"4","last_reported":1701515105,"current_range_meters":22800,"station_id":"ce4bhhp2rcd13ifvqfm0","pricing_plan_id":"free"},{"bike_id":"87edf13c-9bae-4cdc-b4e9-4e1233a2839d","system_id":"levelo_inurba_marseille","lat":43.261782,"lon":5.374515,"is_reserved":false,"is_disabled":false,"rental_uris":{"android":"levelo://app?vid=87edf13c-9bae-4cdc-b4e9-4e1233a2839d","ios":"levelo://app?vid=87edf13c-9bae-4cdc-b4e9-4e1233a2839d"},"vehicle_type_id":"4","last_reported":1701515105,"current_range_meters":13200,"station_id":"ce4bhgp2rcd13ifvqfc0","pricing_plan_id":"free"},{"bike_id":"512f61de-88bc-4ffa-b02b-e5b819c6f633","system_id":"levelo_inurba_marseille","lat":43.261782,"lon":5.374515,"is_reserved":false,"is_disabled":false,"rental_uris":{"android":"levelo://app?vid=512f61de-88bc-4ffa-b02b-e5b819c6f633","ios":"levelo://app?vid=512f61de-88bc-4ffa-b02b-e5b819c6f633"},"vehicle_type_id":"4","last_reported":1701515105,"current_range_meters":5200,"station_id":"ce4bhgp2rcd13ifvqfc0","pricing_plan_id":"free"},{"bike_id":"67704ef3-ca54-4d3f-9715-4faeac5f986e","system_id":"levelo_inurba_marseille","lat":43.261782,"lon":5.374515,"is_reserved":false,"is_disabled":false,"rental_uris":{"android":"levelo://app?vid=67704ef3-ca54-4d3f-9715-4faeac5f986e","ios":"levelo://app?vid=67704ef3-ca54-4d3f-9715-4faeac5f986e"},"vehicle_type_id":"4","last_reported":1701515105,"current_range_meters":30400,"station_id":"ce4bhgp2rcd13ifvqfc0","pricing_plan_id":"free"},{"bike_id":"cd36a826-0164-45e2-b792-97dbfc0cd72f","system_id":"levelo_inurba_marseille","lat":43.317104,"lon":5.436818,"is_reserved":false,"is_disabled":false,"rental_uris":{"android":"levelo://app?vid=cd36a826-0164-45e2-b792-97dbfc0cd72f","ios":"levelo://app?vid=cd36a826-0164-45e2-b792-97dbfc0cd72f"},"vehicle_type_id":"4","last_reported":1701515105,"current_range_meters":30400,"station_id":"ce4bhp92rcd13ifvqhcg","pricing_plan_id":"free"},{"bike_id":"c71160fc-c7b7-4c0b-8b7c-da5014dcb825","system_id":"levelo_inurba_marseille","lat":43.317104,"lon":5.436818,"is_reserved":false,"is_disabled":false,"rental_uris":{"android":"levelo://app?vid=c71160fc-c7b7-4c0b-8b7c-da5014dcb825","ios":"levelo://app?vid=c71160fc-c7b7-4c0b-8b7c-da5014dcb825"},"vehicle_type_id":"4","last_reported":1701515105,"current_range_meters":31200,"station_id":"ce4bhp92rcd13ifvqhcg","pricing_plan_id":"free"},{"bike_id":"4a424826-37fa-481f-99fe-d79af52a495c","system_id":"levelo_inurba_marseille","lat":43.271388,"lon":5.409269,"is_reserved":false,"is_disabled":false,"rental_uris":{"android":"levelo://app?vid=4a424826-37fa-481f-99fe-d79af52a495c","ios":"levelo://app?vid=4a424826-37fa-481f-99fe-d79af52a495c"},"vehicle_type_id":"4","last_reported":1701515105,"current_range_meters":14000,"station_id":"ce4bhl12rcd13ifvqgf0","pricing_plan_id":"free"},{"bike_id":"630a4bd6-4e53-4063-a717-6d88bae2470a","system_id":"levelo_inurba_marseille","lat":43.267959,"lon":5.402685,"is_reserved":false,"is_disabled":false,"rental_uris":{"android":"levelo://app?vid=630a4bd6-4e53-4063-a717-6d88bae2470a","ios":"levelo://app?vid=630a4bd6-4e53-4063-a717-6d88bae2470a"},"vehicle_type_id":"4","last_reported":1701515105,"current_range_meters":27600,"station_id":"ce501612rcd8frsf0b60","pricing_plan_id":"free"},{"bike_id":"68a0340d-0f80-44d3-9a30-a22109500441","system_id":"levelo_inurba_marseille","lat":43.281548,"lon":5.42643,"is_reserved":false,"is_disabled":false,"rental_uris":{"android":"levelo://app?vid=68a0340d-0f80-44d3-9a30-a22109500441","ios":"levelo://app?vid=68a0340d-0f80-44d3-9a30-a22109500441"},"vehicle_type_id":"4","last_reported":1701515105,"current_range_meters":27600,"station_id":"ce4bhnh2rcd13ifvqgug","pricing_plan_id":"free"},{"bike_id":"3532a786-7312-4db1-88be-2e5e8a274941","system_id":"levelo_inurba_marseille","lat":43.281551,"lon":5.426531,"is_reserved":false,"is_disabled":false,"rental_uris":{"android":"levelo://app?vid=3532a786-7312-4db1-88be-2e5e8a274941","ios":"levelo://app?vid=3532a786-7312-4db1-88be-2e5e8a274941"},"vehicle_type_id":"4","last_reported":1701515105,"current_range_meters":24000,"station_id":"ce4bhnh2rcd13ifvqgug","pricing_plan_id":"free"},{"bike_id":"81f4f34a-8d36-4c09-961e-e42c57ef3483","system_id":"levelo_inurba_marseille","lat":43.2815,"lon":5.4265,"is_reserved":false,"is_disabled":false,"rental_uris":{"android":"levelo://app?vid=81f4f34a-8d36-4c09-961e-e42c57ef3483","ios":"levelo://app?vid=81f4f34a-8d36-4c09-961e-e42c57ef3483"},"vehicle_type_id":"4","last_reported":1701515105,"current_range_meters":0,"station_id":"ce4bhnh2rcd13ifvqgug","pricing_plan_id":"free"},{"bike_id":"888c3ff8-34c8-4001-a130-1dcf49bb0c14","system_id":"levelo_inurba_marseille","lat":43.281423,"lon":5.426662,"is_reserved":false,"is_disabled":false,"rental_uris":{"android":"levelo://app?vid=888c3ff8-34c8-4001-a130-1dcf49bb0c14","ios":"levelo://app?vid=888c3ff8-34c8-4001-a130-1dcf49bb0c14"},"vehicle_type_id":"4","last_reported":1701515105,"current_range_meters":28000,"station_id":"","pricing_plan_id":"free"},{"bike_id":"8e138e6b-375f-40c3-905e-ee01873acf5e","system_id":"levelo_inurba_marseille","lat":43.275028,"lon":5.424534,"is_reserved":false,"is_disabled":false,"rental_uris":{"android":"levelo://app?vid=8e138e6b-375f-40c3-905e-ee01873acf5e","ios":"levelo://app?vid=8e138e6b-375f-40c3-905e-ee01873acf5e"},"vehicle_type_id":"4","last_reported":1701515105,"current_range_meters":9200,"station_id":"ce4bhn92rcd13ifvqgrg","pricing_plan_id":"free"},{"bike_id":"bca0fa38-5660-402d-8eb6-c035f953ba94","system_id":"levelo_inurba_marseille","lat":43.2608,"lon":5.39768,"is_reserved":false,"is_disabled":false,"rental_uris":{"android":"levelo://app?vid=bca0fa38-5660-402d-8eb6-c035f953ba94","ios":"levelo://app?vid=bca0fa38-5660-402d-8eb6-c035f953ba94"},"vehicle_type_id":"4","last_reported":1701515105,"current_range_meters":11600,"station_id":"","pricing_plan_id":"free"},{"bike_id":"d86a6b67-0d0f-4a53-b1d7-d6e44d1d9b4b","system_id":"levelo_inurba_marseille","lat":43.25577,"lon":5.38226,"is_reserved":false,"is_disabled":false,"rental_uris":{"android":"levelo://app?vid=d86a6b67-0d0f-4a53-b1d7-d6e44d1d9b4b","ios":"levelo://app?vid=d86a6b67-0d0f-4a53-b1d7-d6e44d1d9b4b"},"vehicle_type_id":"4","last_reported":1701515105,"current_range_meters":20800,"station_id":"ce4bhih2rcd13ifvqfs0","pricing_plan_id":"free"},{"bike_id":"9674e8f8-f952-4f67-9e19-2055063310fa","system_id":"levelo_inurba_marseille","lat":43.258224,"lon":5.394369,"is_reserved":false,"is_disabled":false,"rental_uris":{"android":"levelo://app?vid=9674e8f8-f952-4f67-9e19-2055063310fa","ios":"levelo://app?vid=9674e8f8-f952-4f67-9e19-2055063310fa"},"vehicle_type_id":"4","last_reported":1701515105,"current_range_meters":7600,"station_id":"ce4bhip2rcd13ifvqft0","pricing_plan_id":"free"},{"bike_id":"962b74e7-03ef-4247-b9e1-285f2c85cf56","system_id":"levelo_inurba_marseille","lat":43.258224,"lon":5.394369,"is_reserved":false,"is_disabled":false,"rental_uris":{"android":"levelo://app?vid=962b74e7-03ef-4247-b9e1-285f2c85cf56","ios":"levelo://app?vid=962b74e7-03ef-4247-b9e1-285f2c85cf56"},"vehicle_type_id":"4","last_reported":1701515105,"current_range_meters":26800,"station_id":"ce4bhip2rcd13ifvqft0","pricing_plan_id":"free"},{"bike_id":"292a6f9a-7610-4701-bedc-5c382c13353c","system_id":"levelo_inurba_marseille","lat":43.27067,"lon":5.42272,"is_reserved":false,"is_disabled":false,"rental_uris":{"android":"levelo://app?vid=292a6f9a-7610-4701-bedc-5c382c13353c","ios":"levelo://app?vid=292a6f9a-7610-4701-bedc-5c382c13353c"},"vehicle_type_id":"4","last_reported":1701515105,"current_range_meters":18000,"station_id":"ce4bhk92rcd13ifvqgb0","pricing_plan_id":"free"},{"bike_id":"17e7339a-b3b6-432a-8fb3-b505eec10997","system_id":"levelo_inurba_marseille","lat":43.27073,"lon":5.42286,"is_reserved":false,"is_disabled":false,"rental_uris":{"android":"levelo://app?vid=17e7339a-b3b6-432a-8fb3-b505eec10997","ios":"levelo://app?vid=17e7339a-b3b6-432a-8fb3-b505eec10997"},"vehicle_type_id":"4","last_reported":1701515105,"current_range_meters":0,"station_id":"ce4bhk92rcd13ifvqgb0","pricing_plan_id":"free"},{"bike_id":"d66c0fdb-df4a-47e6-92d7-19705d3322ce","system_id":"levelo_inurba_marseille","lat":43.25869,"lon":5.39897,"is_reserved":false,"is_disabled":false,"rental_uris":{"android":"levelo://app?vid=d66c0fdb-df4a-47e6-92d7-19705d3322ce","ios":"levelo://app?vid=d66c0fdb-df4a-47e6-92d7-19705d3322ce"},"vehicle_type_id":"4","last_reported":1701515105,"current_range_meters":30400,"station_id":"ce4bhl92rcd13ifvqghg","pricing_plan_id":"free"},{"bike_id":"acce3b6b-c95f-46c6-b4b6-edf03f7be051","system_id":"levelo_inurba_marseille","lat":43.258658,"lon":5.398935,"is_reserved":false,"is_disabled":false,"rental_uris":{"android":"levelo://app?vid=acce3b6b-c95f-46c6-b4b6-edf03f7be051","ios":"levelo://app?vid=acce3b6b-c95f-46c6-b4b6-edf03f7be051"},"vehicle_type_id":"4","last_reported":1701515105,"current_range_meters":31600,"station_id":"ce4bhl92rcd13ifvqghg","pricing_plan_id":"free"},{"bike_id":"211692d4-373f-45e7-b85a-591e5b57fe0e","system_id":"levelo_inurba_marseille","lat":43.258658,"lon":5.398935,"is_reserved":false,"is_disabled":false,"rental_uris":{"android":"levelo://app?vid=211692d4-373f-45e7-b85a-591e5b57fe0e","ios":"levelo://app?vid=211692d4-373f-45e7-b85a-591e5b57fe0e"},"vehicle_type_id":"4","last_reported":1701515105,"current_range_meters":28400,"station_id":"ce4bhl92rcd13ifvqghg","pricing_plan_id":"free"},{"bike_id":"bdc72d7c-9d46-4016-8a92-851cd50823f9","system_id":"levelo_inurba_marseille","lat":43.259009,"lon":5.40929,"is_reserved":false,"is_disabled":false,"rental_uris":{"android":"levelo://app?vid=bdc72d7c-9d46-4016-8a92-851cd50823f9","ios":"levelo://app?vid=bdc72d7c-9d46-4016-8a92-851cd50823f9"},"vehicle_type_id":"4","last_reported":1701515105,"current_range_meters":30000,"station_id":"ce4bhm92rcd13ifvqglg","pricing_plan_id":"free"},{"bike_id":"d3da93f7-ba2e-4c49-b20f-ed910f1466e5","system_id":"levelo_inurba_marseille","lat":43.257079,"lon":5.411051,"is_reserved":false,"is_disabled":false,"rental_uris":{"android":"levelo://app?vid=d3da93f7-ba2e-4c49-b20f-ed910f1466e5","ios":"levelo://app?vid=d3da93f7-ba2e-4c49-b20f-ed910f1466e5"},"vehicle_type_id":"4","last_reported":1701515105,"current_range_meters":29200,"station_id":"ce4bhkp2rcd13ifvqgd0","pricing_plan_id":"free"},{"bike_id":"99ee76bf-253b-45b6-98c6-870f3c2c3282","system_id":"levelo_inurba_marseille","lat":43.257079,"lon":5.411051,"is_reserved":false,"is_disabled":false,"rental_uris":{"android":"levelo://app?vid=99ee76bf-253b-45b6-98c6-870f3c2c3282","ios":"levelo://app?vid=99ee76bf-253b-45b6-98c6-870f3c2c3282"},"vehicle_type_id":"4","last_reported":1701515105,"current_range_meters":27600,"station_id":"ce4bhkp2rcd13ifvqgd0","pricing_plan_id":"free"},{"bike_id":"85209143-86a1-4061-abf8-91e633e8e017","system_id":"levelo_inurba_marseille","lat":43.250009,"lon":5.389195,"is_reserved":false,"is_disabled":false,"rental_uris":{"android":"levelo://app?vid=85209143-86a1-4061-abf8-91e633e8e017","ios":"levelo://app?vid=85209143-86a1-4061-abf8-91e633e8e017"},"vehicle_type_id":"4","last_reported":1701515105,"current_range_meters":27200,"station_id":"ce4bhgp2rcd13ifvqfd0","pricing_plan_id":"free"},{"bike_id":"bdb730df-2155-4adc-a7b1-125fab4b2653","system_id":"levelo_inurba_marseille","lat":43.250009,"lon":5.389195,"is_reserved":false,"is_disabled":false,"rental_uris":{"android":"levelo://app?vid=bdb730df-2155-4adc-a7b1-125fab4b2653","ios":"levelo://app?vid=bdb730df-2155-4adc-a7b1-125fab4b2653"},"vehicle_type_id":"4","last_reported":1701515105,"current_range_meters":14800,"station_id":"ce4bhgp2rcd13ifvqfd0","pricing_plan_id":"free"},{"bike_id":"7ae9d20b-20b6-494e-b650-d8d4514463c2","system_id":"levelo_inurba_marseille","lat":43.250966,"lon":5.395186,"is_reserved":false,"is_disabled":false,"rental_uris":{"android":"levelo://app?vid=7ae9d20b-20b6-494e-b650-d8d4514463c2","ios":"levelo://app?vid=7ae9d20b-20b6-494e-b650-d8d4514463c2"},"vehicle_type_id":"4","last_reported":1701515105,"current_range_meters":25600,"station_id":"ce4bhm12rcd13ifvqgkg","pricing_plan_id":"free"},{"bike_id":"299a91cc-575e-4138-bd9a-ea3370e1ebf7","system_id":"levelo_inurba_marseille","lat":43.250966,"lon":5.395186,"is_reserved":false,"is_disabled":false,"rental_uris":{"android":"levelo://app?vid=299a91cc-575e-4138-bd9a-ea3370e1ebf7","ios":"levelo://app?vid=299a91cc-575e-4138-bd9a-ea3370e1ebf7"},"vehicle_type_id":"4","last_reported":1701515105,"current_range_meters":30000,"station_id":"ce4bhm12rcd13ifvqgkg","pricing_plan_id":"free"},{"bike_id":"16f6630a-262c-4a12-ae07-02f6fc817dfd","system_id":"levelo_inurba_marseille","lat":43.25102,"lon":5.403214,"is_reserved":false,"is_disabled":false,"rental_uris":{"android":"levelo://app?vid=16f6630a-262c-4a12-ae07-02f6fc817dfd","ios":"levelo://app?vid=16f6630a-262c-4a12-ae07-02f6fc817dfd"},"vehicle_type_id":"4","last_reported":1701515105,"current_range_meters":18400,"station_id":"ce4bhlh2rcd13ifvqgig","pricing_plan_id":"free"},{"bike_id":"bff08cdb-adb9-42f1-a1d8-d220c80d630b","system_id":"levelo_inurba_marseille","lat":43.243884,"lon":5.370736,"is_reserved":false,"is_disabled":false,"rental_uris":{"android":"levelo://app?vid=bff08cdb-adb9-42f1-a1d8-d220c80d630b","ios":"levelo://app?vid=bff08cdb-adb9-42f1-a1d8-d220c80d630b"},"vehicle_type_id":"4","last_reported":1701515105,"current_range_meters":17600,"station_id":"ce4bhhh2rcd13ifvqfk0","pricing_plan_id":"free"},{"bike_id":"69f1bff5-758b-4ced-b763-896e81f472be","system_id":"levelo_inurba_marseille","lat":43.243884,"lon":5.370736,"is_reserved":false,"is_disabled":false,"rental_uris":{"android":"levelo://app?vid=69f1bff5-758b-4ced-b763-896e81f472be","ios":"levelo://app?vid=69f1bff5-758b-4ced-b763-896e81f472be"},"vehicle_type_id":"4","last_reported":1701515105,"current_range_meters":30400,"station_id":"ce4bhhh2rcd13ifvqfk0","pricing_plan_id":"free"},{"bike_id":"0c00f1f7-91b0-4c50-948b-6ce70c0f8465","system_id":"levelo_inurba_marseille","lat":43.243884,"lon":5.370736,"is_reserved":false,"is_disabled":false,"rental_uris":{"android":"levelo://app?vid=0c00f1f7-91b0-4c50-948b-6ce70c0f8465","ios":"levelo://app?vid=0c00f1f7-91b0-4c50-948b-6ce70c0f8465"},"vehicle_type_id":"4","last_reported":1701515105,"current_range_meters":30400,"station_id":"ce4bhhh2rcd13ifvqfk0","pricing_plan_id":"free"},{"bike_id":"eb95a476-d790-40e8-952c-8d686addcdbd","system_id":"levelo_inurba_marseille","lat":43.243884,"lon":5.370736,"is_reserved":false,"is_disabled":false,"rental_uris":{"android":"levelo://app?vid=eb95a476-d790-40e8-952c-8d686addcdbd","ios":"levelo://app?vid=eb95a476-d790-40e8-952c-8d686addcdbd"},"vehicle_type_id":"4","last_reported":1701515105,"current_range_meters":28000,"station_id":"ce4bhhh2rcd13ifvqfk0","pricing_plan_id":"free"},{"bike_id":"e967ad71-484e-4d79-a53d-9d9bc7581d0a","system_id":"levelo_inurba_marseille","lat":43.2454,"lon":5.3952,"is_reserved":false,"is_disabled":false,"rental_uris":{"android":"levelo://app?vid=e967ad71-484e-4d79-a53d-9d9bc7581d0a","ios":"levelo://app?vid=e967ad71-484e-4d79-a53d-9d9bc7581d0a"},"vehicle_type_id":"4","last_reported":1701515105,"current_range_meters":31200,"station_id":"ce4bhlp2rcd13ifvqgjg","pricing_plan_id":"free"},{"bike_id":"a5b80185-335f-4a68-81e9-a2a2d538b03a","system_id":"levelo_inurba_marseille","lat":43.24539,"lon":5.3952,"is_reserved":false,"is_disabled":false,"rental_uris":{"android":"levelo://app?vid=a5b80185-335f-4a68-81e9-a2a2d538b03a","ios":"levelo://app?vid=a5b80185-335f-4a68-81e9-a2a2d538b03a"},"vehicle_type_id":"4","last_reported":1701515105,"current_range_meters":22800,"station_id":"ce4bhlp2rcd13ifvqgjg","pricing_plan_id":"free"},{"bike_id":"f093fa9a-f7aa-44d2-b5e3-a1f52283c98b","system_id":"levelo_inurba_marseille","lat":43.239588,"lon":5.366238,"is_reserved":false,"is_disabled":false,"rental_uris":{"android":"levelo://app?vid=f093fa9a-f7aa-44d2-b5e3-a1f52283c98b","ios":"levelo://app?vid=f093fa9a-f7aa-44d2-b5e3-a1f52283c98b"},"vehicle_type_id":"4","last_reported":1701515105,"current_range_meters":28400,"station_id":"ce4bhi12rcd13ifvqfp0","pricing_plan_id":"free"},{"bike_id":"c0197cd5-5a74-447c-ab71-94860d861299","system_id":"levelo_inurba_marseille","lat":43.239588,"lon":5.366238,"is_reserved":false,"is_disabled":false,"rental_uris":{"android":"levelo://app?vid=c0197cd5-5a74-447c-ab71-94860d861299","ios":"levelo://app?vid=c0197cd5-5a74-447c-ab71-94860d861299"},"vehicle_type_id":"4","last_reported":1701515105,"current_range_meters":31600,"station_id":"ce4bhi12rcd13ifvqfp0","pricing_plan_id":"free"},{"bike_id":"dfcfb16b-188c-4640-9387-e576512ba81f","system_id":"levelo_inurba_marseille","lat":43.23964,"lon":5.36624,"is_reserved":false,"is_disabled":false,"rental_uris":{"android":"levelo://app?vid=dfcfb16b-188c-4640-9387-e576512ba81f","ios":"levelo://app?vid=dfcfb16b-188c-4640-9387-e576512ba81f"},"vehicle_type_id":"4","last_reported":1701515105,"current_range_meters":1600,"station_id":"ce4bhi12rcd13ifvqfp0","pricing_plan_id":"free"},{"bike_id":"b9849de8-3287-44d6-9d9e-1e3fdd66ae3e","system_id":"levelo_inurba_marseille","lat":43.239588,"lon":5.366238,"is_reserved":false,"is_disabled":false,"rental_uris":{"android":"levelo://app?vid=b9849de8-3287-44d6-9d9e-1e3fdd66ae3e","ios":"levelo://app?vid=b9849de8-3287-44d6-9d9e-1e3fdd66ae3e"},"vehicle_type_id":"4","last_reported":1701515105,"current_range_meters":31600,"station_id":"ce4bhi12rcd13ifvqfp0","pricing_plan_id":"free"},{"bike_id":"b101f295-ac85-402a-8afe-c635c176f114","system_id":"levelo_inurba_marseille","lat":43.28525,"lon":5.460487,"is_reserved":false,"is_disabled":false,"rental_uris":{"android":"levelo://app?vid=b101f295-ac85-402a-8afe-c635c176f114","ios":"levelo://app?vid=b101f295-ac85-402a-8afe-c635c176f114"},"vehicle_type_id":"4","last_reported":1701515105,"current_range_meters":24000,"station_id":"","pricing_plan_id":"free"},{"bike_id":"6382809b-45d0-4ad2-8be7-697249f82077","system_id":"levelo_inurba_marseille","lat":43.231919,"lon":5.355532,"is_reserved":false,"is_disabled":false,"rental_uris":{"android":"levelo://app?vid=6382809b-45d0-4ad2-8be7-697249f82077","ios":"levelo://app?vid=6382809b-45d0-4ad2-8be7-697249f82077"},"vehicle_type_id":"4","last_reported":1701515105,"current_range_meters":31600,"station_id":"ce4bhu92rcd13ifvqi70","pricing_plan_id":"free"},{"bike_id":"c07b0be8-3ec1-4f51-b661-de25758a5a36","system_id":"levelo_inurba_marseille","lat":43.231919,"lon":5.355532,"is_reserved":false,"is_disabled":false,"rental_uris":{"android":"levelo://app?vid=c07b0be8-3ec1-4f51-b661-de25758a5a36","ios":"levelo://app?vid=c07b0be8-3ec1-4f51-b661-de25758a5a36"},"vehicle_type_id":"4","last_reported":1701515105,"current_range_meters":16000,"station_id":"ce4bhu92rcd13ifvqi70","pricing_plan_id":"free"},{"bike_id":"cf3102c4-88e0-4a41-86b7-69a76932d3e6","system_id":"levelo_inurba_marseille","lat":43.231923,"lon":5.355545,"is_reserved":false,"is_disabled":false,"rental_uris":{"android":"levelo://app?vid=cf3102c4-88e0-4a41-86b7-69a76932d3e6","ios":"levelo://app?vid=cf3102c4-88e0-4a41-86b7-69a76932d3e6"},"vehicle_type_id":"4","last_reported":1701515105,"current_range_meters":31600,"station_id":"ce4bhu92rcd13ifvqi70","pricing_plan_id":"free"},{"bike_id":"dc03c4db-7fa1-40b2-b6c4-6e2c35355c9e","system_id":"levelo_inurba_marseille","lat":43.231919,"lon":5.355532,"is_reserved":false,"is_disabled":false,"rental_uris":{"android":"levelo://app?vid=dc03c4db-7fa1-40b2-b6c4-6e2c35355c9e","ios":"levelo://app?vid=dc03c4db-7fa1-40b2-b6c4-6e2c35355c9e"},"vehicle_type_id":"4","last_reported":1701515105,"current_range_meters":20000,"station_id":"ce4bhu92rcd13ifvqi70","pricing_plan_id":"free"},{"bike_id":"b8f295a9-10f8-4746-b4a0-4491480d1fc4","system_id":"levelo_inurba_marseille","lat":43.231919,"lon":5.355532,"is_reserved":false,"is_disabled":false,"rental_uris":{"android":"levelo://app?vid=b8f295a9-10f8-4746-b4a0-4491480d1fc4","ios":"levelo://app?vid=b8f295a9-10f8-4746-b4a0-4491480d1fc4"},"vehicle_type_id":"4","last_reported":1701515105,"current_range_meters":25200,"station_id":"ce4bhu92rcd13ifvqi70","pricing_plan_id":"free"},{"bike_id":"6462fbc5-ceb8-47e3-b56d-fc1e69bef19f","system_id":"levelo_inurba_marseille","lat":43.231919,"lon":5.355532,"is_reserved":false,"is_disabled":false,"rental_uris":{"android":"levelo://app?vid=6462fbc5-ceb8-47e3-b56d-fc1e69bef19f","ios":"levelo://app?vid=6462fbc5-ceb8-47e3-b56d-fc1e69bef19f"},"vehicle_type_id":"4","last_reported":1701515105,"current_range_meters":30000,"station_id":"ce4bhu92rcd13ifvqi70","pricing_plan_id":"free"},{"bike_id":"8d32c52d-9c9c-458e-b295-d4c6432bf0b1","system_id":"levelo_inurba_marseille","lat":43.23192,"lon":5.35547,"is_reserved":false,"is_disabled":false,"rental_uris":{"android":"levelo://app?vid=8d32c52d-9c9c-458e-b295-d4c6432bf0b1","ios":"levelo://app?vid=8d32c52d-9c9c-458e-b295-d4c6432bf0b1"},"vehicle_type_id":"4","last_reported":1701515105,"current_range_meters":10400,"station_id":"ce4bhu92rcd13ifvqi70","pricing_plan_id":"free"},{"bike_id":"177a82e2-68da-4975-a68b-b32649f3d1f2","system_id":"levelo_inurba_marseille","lat":43.231923,"lon":5.355545,"is_reserved":false,"is_disabled":false,"rental_uris":{"android":"levelo://app?vid=177a82e2-68da-4975-a68b-b32649f3d1f2","ios":"levelo://app?vid=177a82e2-68da-4975-a68b-b32649f3d1f2"},"vehicle_type_id":"4","last_reported":1701515105,"current_range_meters":14800,"station_id":"ce4bhu92rcd13ifvqi70","pricing_plan_id":"free"},{"bike_id":"9dc97c96-8e15-4d34-bc42-2b10dd83e9f4","system_id":"levelo_inurba_marseille","lat":43.23185,"lon":5.35548,"is_reserved":false,"is_disabled":false,"rental_uris":{"android":"levelo://app?vid=9dc97c96-8e15-4d34-bc42-2b10dd83e9f4","ios":"levelo://app?vid=9dc97c96-8e15-4d34-bc42-2b10dd83e9f4"},"vehicle_type_id":"4","last_reported":1701515105,"current_range_meters":19600,"station_id":"ce4bhu92rcd13ifvqi70","pricing_plan_id":"free"},{"bike_id":"6bd9f065-50d9-4657-9ca0-a006f413d305","system_id":"levelo_inurba_marseille","lat":43.231794,"lon":5.400052,"is_reserved":false,"is_disabled":false,"rental_uris":{"android":"levelo://app?vid=6bd9f065-50d9-4657-9ca0-a006f413d305","ios":"levelo://app?vid=6bd9f065-50d9-4657-9ca0-a006f413d305"},"vehicle_type_id":"4","last_reported":1701515105,"current_range_meters":31600,"station_id":"ce4bhn12rcd13ifvqgqg","pricing_plan_id":"free"},{"bike_id":"22bd98e3-c33f-4c44-ae2b-f96729d36f4f","system_id":"levelo_inurba_marseille","lat":43.231793,"lon":5.400044,"is_reserved":false,"is_disabled":false,"rental_uris":{"android":"levelo://app?vid=22bd98e3-c33f-4c44-ae2b-f96729d36f4f","ios":"levelo://app?vid=22bd98e3-c33f-4c44-ae2b-f96729d36f4f"},"vehicle_type_id":"4","last_reported":1701515105,"current_range_meters":29200,"station_id":"ce4bhn12rcd13ifvqgqg","pricing_plan_id":"free"},{"bike_id":"c2189b33-a31e-4851-9831-001d4716dec5","system_id":"levelo_inurba_marseille","lat":43.231794,"lon":5.400052,"is_reserved":false,"is_disabled":false,"rental_uris":{"android":"levelo://app?vid=c2189b33-a31e-4851-9831-001d4716dec5","ios":"levelo://app?vid=c2189b33-a31e-4851-9831-001d4716dec5"},"vehicle_type_id":"4","last_reported":1701515105,"current_range_meters":14800,"station_id":"ce4bhn12rcd13ifvqgqg","pricing_plan_id":"free"},{"bike_id":"1eeab9a5-d341-4bc8-8d21-ee151ff9d9b2","system_id":"levelo_inurba_marseille","lat":43.23187,"lon":5.399889,"is_reserved":false,"is_disabled":false,"rental_uris":{"android":"levelo://app?vid=1eeab9a5-d341-4bc8-8d21-ee151ff9d9b2","ios":"levelo://app?vid=1eeab9a5-d341-4bc8-8d21-ee151ff9d9b2"},"vehicle_type_id":"4","last_reported":1701515105,"current_range_meters":16400,"station_id":"ce4bhn12rcd13ifvqgqg","pricing_plan_id":"free"},{"bike_id":"d0b35396-6769-42d4-8160-8b44cb829902","system_id":"levelo_inurba_marseille","lat":43.231793,"lon":5.400044,"is_reserved":false,"is_disabled":false,"rental_uris":{"android":"levelo://app?vid=d0b35396-6769-42d4-8160-8b44cb829902","ios":"levelo://app?vid=d0b35396-6769-42d4-8160-8b44cb829902"},"vehicle_type_id":"4","last_reported":1701515105,"current_range_meters":31600,"station_id":"ce4bhn12rcd13ifvqgqg","pricing_plan_id":"free"},{"bike_id":"457c552c-8af5-4b7b-9f6b-8c901265a623","system_id":"levelo_inurba_marseille","lat":43.231793,"lon":5.400044,"is_reserved":false,"is_disabled":false,"rental_uris":{"android":"levelo://app?vid=457c552c-8af5-4b7b-9f6b-8c901265a623","ios":"levelo://app?vid=457c552c-8af5-4b7b-9f6b-8c901265a623"},"vehicle_type_id":"4","last_reported":1701515105,"current_range_meters":31600,"station_id":"ce4bhn12rcd13ifvqgqg","pricing_plan_id":"free"}]}}