{"last_updated":1767028201,"ttl":60,"version":"2.2","data":{"bikes":[{"bike_id":"8526cb13-c70f-4134-9aed-80c4c9d31e4e","system_id":"levelo_inurba_marseille","lat":43.27895,"lon":5.39157,"is_reserved":false,"is_disabled":false,"rental_uris":{"android":"levelo://app?vid=8526cb13-c70f-4134-9aed-80c4c9d31e4e","ios":"levelo://app?vid=8526cb13-c70f-4134-9aed-80c4c9d31e4e"},"vehicle_type_id":"4","last_reported":1767028202,"current_range_meters":2800,"station_id":"","pricing_plan_id":"cebpf4jnsgd1na2vs0mg"},{"bike_id":"c08da696-3550-4cbd-9f09-e53cd993a8eb","system_id":"levelo_inurba_marseille","lat":43.287032,"lon":5.373763,"is_reserved":false,"is_disabled":false,"rental_uris":{"android":"levelo://app?vid=c08da696-3550-4cbd-9f09-e53cd993a8eb","ios":"levelo://app?vid=c08da696-3550-4cbd-9f09-e53cd993a8eb"},"vehicle_type_id":"4","last_reported":1767028202,"current_range_meters":2800,"station_id":"ce4bh3p2rcd13ifvqdq0","pricing_plan_id":"cebpf4jnsgd1na2vs0mg"},{"bike_id":"c7a60667-73f5-486d-af55-96676dd9e433","system_id":"levelo_inurba_marseille","lat":43.28427,"lon":5.34998,"is_reserved":false,"is_disabled":false,"rental_uris":{"android":"levelo://app?vid=c7a60667-73f5-486d-af55-96676dd9e433","ios":"levelo://app?vid=c7a60667-73f5-486d-af55-96676dd9e433"},"vehicle_type_id":"4","last_reported":1767028202,"current_range_meters":2800,"station_id":"ce4bhbh2rcd13ifvqepg","pricing_plan_id":"cebpf4jnsgd1na2vs0mg"},{"bike_id":"a94a2400-7300-4e4e-b0de-3286828ede75","system_id":"levelo_inurba_marseille","lat":43.29588,"lon":5.38075,"is_reserved":false,"is_disabled":false,"rental_uris":{"android":"levelo://app?vid=a94a2400-7300-4e4e-b0de-3286828ede75","ios":"levelo://app?vid=a94a2400-7300-4e4e-b0de-3286828ede75"},"vehicle_type_id":"4","last_reported":1767028202,"current_range_meters":3200,"station_id":"ce4bgl12rcd13ifvqbo0","pricing_plan_id":"cebpf4jnsgd1na2vs0mg"},{"bike_id":"d5157bc4-281e-4273-a854-3dd0ece413ba","system_id":"levelo_inurba_marseille","lat":43.307343,"lon":5.424365,"is_reserved":false,"is_disabled":false,"rental_uris":{"android":"levelo://app?vid=d5157bc4-281e-4273-a854-3dd0ece413ba","ios":"levelo://app?vid=d5157bc4-281e-4273-a854-3dd0ece413ba"},"vehicle_type_id":"4","last_reported":1767028202,"current_range_meters":3200,"station_id":"st_cvj6ca6bvosntc0bfgr0","pricing_plan_id":"cebpf4jnsgd1na2vs0mg"},{"bike_id":"4bb00a10-2e70-4787-adc6-bbecbde680b1","system_id":"levelo_inurba_marseille","lat":43.30457,"lon":5.38902,"is_reserved":false,"is_disabled":false,"rental_uris":{"android":"levelo://app?vid=4bb00a10-2e70-4787-adc6-bbecbde680b1","ios":"levelo://app?vid=4bb00a10-2e70-4787-adc6-bbecbde680b1"},"vehicle_type_id":"4","last_reported":1767028202,"current_range_meters":3200,"station_id":"ce4bgk12rcd13ifvqbi0","pricing_plan_id":"cebpf4jnsgd1na2vs0mg"},{"bike_id":"612b1e2f-ccb2-4532-bfbb-31ac5c9289e6","system_id":"levelo_inurba_marseille","lat":43.28154,"lon":5.42642,"is_reserved":false,"is_disabled":false,"rental_uris":{"android":"levelo://app?vid=612b1e2f-ccb2-4532-bfbb-31ac5c9289e6","ios":"levelo://app?vid=612b1e2f-ccb2-4532-bfbb-31ac5c9289e6"},"vehicle_type_id":"4","last_reported":1767028202,"current_range_meters":3200,"station_id":"ce4bhnh2rcd13ifvqgug","pricing_plan_id":"cebpf4jnsgd1na2vs0mg"},{"bike_id":"e84c9e5b-ac18-42dc-b1a0-a8e560bda7f4","system_id":"levelo_inurba_marseille","lat":43.30569,"lon":5.36534,"is_reserved":false,"is_disabled":false,"rental_uris":{"android":"levelo://app?vid=e84c9e5b-ac18-42dc-b1a0-a8e560bda7f4","ios":"levelo://app?vid=e84c9e5b-ac18-42dc-b1a0-a8e560bda7f4"},"vehicle_type_id":"4","last_reported":1767028202,"current_range_meters":3600,"station_id":"ce4bgs12rcd13ifvqcag","pricing_plan_id":"cebpf4jnsgd1na2vs0mg"},{"bike_id":"be335a62-2e28-4f33-9389-dcc8e9d5d690","system_id":"levelo_inurba_marseille","lat":43.26125,"lon":5.40271,"is_reserved":false,"is_disabled":false,"rental_uris":{"android":"levelo://app?vid=be335a62-2e28-4f33-9389-dcc8e9d5d690","ios":"levelo://app?vid=be335a62-2e28-4f33-9389-dcc8e9d5d690"},"vehicle_type_id":"4","last_reported":1767028202,"current_range_meters":4000,"station_id":"","pricing_plan_id":"cebpf4jnsgd1na2vs0mg"},{"bike_id":"77d8a50a-0bdf-413d-a01c-a22e64867fd0","system_id":"levelo_inurba_marseille","lat":43.26784,"lon":5.39407,"is_reserved":false,"is_disabled":false,"rental_uris":{"android":"levelo://app?vid=77d8a50a-0bdf-413d-a01c-a22e64867fd0","ios":"levelo://app?vid=77d8a50a-0bdf-413d-a01c-a22e64867fd0"},"vehicle_type_id":"4","last_reported":1767028202,"current_range_meters":4000,"station_id":"ce4bhh12rcd13ifvqfg0","pricing_plan_id":"cebpf4jnsgd1na2vs0mg"},{"bike_id":"820df2a7-5388-4ed8-839b-e3520a1e7d69","system_id":"levelo_inurba_marseille","lat":43.29104,"lon":5.38126,"is_reserved":false,"is_disabled":false,"rental_uris":{"android":"levelo://app?vid=820df2a7-5388-4ed8-839b-e3520a1e7d69","ios":"levelo://app?vid=820df2a7-5388-4ed8-839b-e3520a1e7d69"},"vehicle_type_id":"4","last_reported":1767028202,"current_range_meters":4000,"station_id":"ce4bh512rcd13ifvqe2g","pricing_plan_id":"cebpf4jnsgd1na2vs0mg"},{"bike_id":"dfab642e-938f-47fd-a9a9-e7e7830d907a","system_id":"levelo_inurba_marseille","lat":43.300393,"lon":5.380826,"is_reserved":false,"is_disabled":false,"rental_uris":{"android":"levelo://app?vid=dfab642e-938f-47fd-a9a9-e7e7830d907a","ios":"levelo://app?vid=dfab642e-938f-47fd-a9a9-e7e7830d907a"},"vehicle_type_id":"4","last_reported":1767028202,"current_range_meters":4400,"station_id":"ce4bgh92rcd13ifvqb40","pricing_plan_id":"cebpf4jnsgd1na2vs0mg"},{"bike_id":"e43603f8-aac9-49ab-adb5-4f98f7f31c88","system_id":"levelo_inurba_marseille","lat":43.25254,"lon":5.37808,"is_reserved":false,"is_disabled":false,"rental_uris":{"android":"levelo://app?vid=e43603f8-aac9-49ab-adb5-4f98f7f31c88","ios":"levelo://app?vid=e43603f8-aac9-49ab-adb5-4f98f7f31c88"},"vehicle_type_id":"4","last_reported":1767028202,"current_range_meters":4400,"station_id":"","pricing_plan_id":"cebpf4jnsgd1na2vs0mg"},{"bike_id":"00ba1c8b-d66b-4b71-bb0f-76f9ad8f50a1","system_id":"levelo_inurba_marseille","lat":43.24561,"lon":5.39518,"is_reserved":false,"is_disabled":false,"rental_uris":{"android":"levelo://app?vid=00ba1c8b-d66b-4b71-bb0f-76f9ad8f50a1","ios":"levelo://app?vid=00ba1c8b-d66b-4b71-bb0f-76f9ad8f50a1"},"vehicle_type_id":"4","last_reported":1767028202,"current_range_meters":4400,"station_id":"ce4bhlp2rcd13ifvqgjg","pricing_plan_id":"cebpf4jnsgd1na2vs0mg"},{"bike_id":"8280e7e2-969a-4eac-bf35-2069bb01e0ff","system_id":"levelo_inurba_marseille","lat":43.32347,"lon":5.36742,"is_reserved":false,"is_disabled":false,"rental_uris":{"android":"levelo://app?vid=8280e7e2-969a-4eac-bf35-2069bb01e0ff","ios":"levelo://app?vid=8280e7e2-969a-4eac-bf35-2069bb01e0ff"},"vehicle_type_id":"4","last_reported":1767028202,"current_range_meters":4400,"station_id":"ce4bhsh2rcd13ifvqi2g","pricing_plan_id":"cebpf4jnsgd1na2vs0mg"},{"bike_id":"5bdea731-5109-4dd1-a456-0a9f2e4c69dc","system_id":"levelo_inurba_marseille","lat":43.297943,"lon":5.381255,"is_reserved":false,"is_disabled":false,"rental_uris":{"android":"levelo://app?vid=5bdea731-5109-4dd1-a456-0a9f2e4c69dc","ios":"levelo://app?vid=5bdea731-5109-4dd1-a456-0a9f2e4c69dc"},"vehicle_type_id":"4","last_reported":1767028202,"current_range_meters":4800,"station_id":"ce4bgip2rcd13ifvqbb0","pricing_plan_id":"cebpf4jnsgd1na2vs0mg"},{"bike_id":"3239c13c-9547-4d40-80c9-b5cd2a78d63f","system_id":"levelo_inurba_marseille","lat":43.23194,"lon":5.35553,"is_reserved":false,"is_disabled":false,"rental_uris":{"android":"levelo://app?vid=3239c13c-9547-4d40-80c9-b5cd2a78d63f","ios":"levelo://app?vid=3239c13c-9547-4d40-80c9-b5cd2a78d63f"},"vehicle_type_id":"4","last_reported":1767028202,"current_range_meters":4800,"station_id":"ce4bhu92rcd13ifvqi70","pricing_plan_id":"cebpf4jnsgd1na2vs0mg"},{"bike_id":"26f97ad5-a923-4412-83f4-1670715f962e","system_id":"levelo_inurba_marseille","lat":43.266387,"lon":5.389867,"is_reserved":false,"is_disabled":false,"rental_uris":{"android":"levelo://app?vid=26f97ad5-a923-4412-83f4-1670715f962e","ios":"levelo://app?vid=26f97ad5-a923-4412-83f4-1670715f962e"},"vehicle_type_id":"4","last_reported":1767028202,"current_range_meters":4800,"station_id":"ce4bhh92rcd13ifvqfh0","pricing_plan_id":"cebpf4jnsgd1na2vs0mg"},{"bike_id":"cc2f2dd8-8f7b-402a-90b3-316df716bdc6","system_id":"levelo_inurba_marseille","lat":43.26941,"lon":5.3891,"is_reserved":false,"is_disabled":false,"rental_uris":{"android":"levelo://app?vid=cc2f2dd8-8f7b-402a-90b3-316df716bdc6","ios":"levelo://app?vid=cc2f2dd8-8f7b-402a-90b3-316df716bdc6"},"vehicle_type_id":"4","last_reported":1767028202,"current_range_meters":4800,"station_id":"ce4bhhh2rcd13ifvqfl0","pricing_plan_id":"cebpf4jnsgd1na2vs0mg"},{"bike_id":"1fed8433-782e-4610-9e4f-bfefe9e861b7","system_id":"levelo_inurba_marseille","lat":43.296,"lon":5.381036,"is_reserved":false,"is_disabled":false,"rental_uris":{"android":"levelo://app?vid=1fed8433-782e-4610-9e4f-bfefe9e861b7","ios":"levelo://app?vid=1fed8433-782e-4610-9e4f-bfefe9e861b7"},"vehicle_type_id":"4","last_reported":1767028202,"current_range_meters":4800,"station_id":"ce4bgl12rcd13ifvqbo0","pricing_plan_id":"cebpf4jnsgd1na2vs0mg"},{"bike_id":"b03b30f3-8010-43ee-a03f-8f6cad329432","system_id":"levelo_inurba_marseille","lat":43.29257,"lon":5.4012,"is_reserved":false,"is_disabled":false,"rental_uris":{"android":"levelo://app?vid=b03b30f3-8010-43ee-a03f-8f6cad329432","ios":"levelo://app?vid=b03b30f3-8010-43ee-a03f-8f6cad329432"},"vehicle_type_id":"4","last_reported":1767028202,"current_range_meters":5600,"station_id":"ce4bh312rcd13ifvqdk0","pricing_plan_id":"cebpf4jnsgd1na2vs0mg"},{"bike_id":"6273e0db-6d87-47eb-a9ee-316e5d99e40f","system_id":"levelo_inurba_marseille","lat":43.284817,"lon":5.384277,"is_reserved":false,"is_disabled":false,"rental_uris":{"android":"levelo://app?vid=6273e0db-6d87-47eb-a9ee-316e5d99e40f","ios":"levelo://app?vid=6273e0db-6d87-47eb-a9ee-316e5d99e40f"},"vehicle_type_id":"4","last_reported":1767028202,"current_range_meters":5600,"station_id":"ce4bh512rcd13ifvqe3g","pricing_plan_id":"cebpf4jnsgd1na2vs0mg"},{"bike_id":"d4e0cb5c-5c19-4bc4-9b02-e3d9f654a17a","system_id":"levelo_inurba_marseille","lat":43.21759,"lon":5.34602,"is_reserved":false,"is_disabled":false,"rental_uris":{"android":"levelo://app?vid=d4e0cb5c-5c19-4bc4-9b02-e3d9f654a17a","ios":"levelo://app?vid=d4e0cb5c-5c19-4bc4-9b02-e3d9f654a17a"},"vehicle_type_id":"4","last_reported":1767028202,"current_range_meters":5600,"station_id":"","pricing_plan_id":"cebpf4jnsgd1na2vs0mg"},{"bike_id":"37e8e599-2afa-464e-97f5-ae17fdfed4f7","system_id":"levelo_inurba_marseille","lat":43.27997,"lon":5.4164,"is_reserved":false,"is_disabled":false,"rental_uris":{"android":"levelo://app?vid=37e8e599-2afa-464e-97f5-ae17fdfed4f7","ios":"levelo://app?vid=37e8e599-2afa-464e-97f5-ae17fdfed4f7"},"vehicle_type_id":"4","last_reported":1767028202,"current_range_meters":5600,"station_id":"ce4bho12rcd13ifvqh1g","pricing_plan_id":"cebpf4jnsgd1na2vs0mg"},{"bike_id":"75d2842e-258b-42a2-834b-51121a4f0ad0","system_id":"levelo_inurba_marseille","lat":43.311664,"lon":5.396222,"is_reserved":false,"is_disabled":false,"rental_uris":{"android":"levelo://app?vid=75d2842e-258b-42a2-834b-51121a4f0ad0","ios":"levelo://app?vid=75d2842e-258b-42a2-834b-51121a4f0ad0"},"vehicle_type_id":"4","last_reported":1767028202,"current_range_meters":5600,"station_id":"ce4bgvp2rcd13ifvqcu0","pricing_plan_id":"cebpf4jnsgd1na2vs0mg"},{"bike_id":"ec3a3c86-9abd-43c8-b159-b95b9b1267ed","system_id":"levelo_inurba_marseille","lat":43.28826,"lon":5.35541,"is_reserved":false,"is_disabled":false,"rental_uris":{"android":"levelo://app?vid=ec3a3c86-9abd-43c8-b159-b95b9b1267ed","ios":"levelo://app?vid=ec3a3c86-9abd-43c8-b159-b95b9b1267ed"},"vehicle_type_id":"4","last_reported":1767028202,"current_range_meters":5600,"station_id":"","pricing_plan_id":"cebpf4jnsgd1na2vs0mg"},{"bike_id":"857a6c68-b117-4af5-840c-3f56310365fc","system_id":"levelo_inurba_marseille","lat":43.29193,"lon":5.35809,"is_reserved":false,"is_disabled":false,"rental_uris":{"android":"levelo://app?vid=857a6c68-b117-4af5-840c-3f56310365fc","ios":"levelo://app?vid=857a6c68-b117-4af5-840c-3f56310365fc"},"vehicle_type_id":"4","last_reported":1767028202,"current_range_meters":6000,"station_id":"ce4bhb12rcd13ifvqel0","pricing_plan_id":"cebpf4jnsgd1na2vs0mg"},{"bike_id":"2a8bb24d-2373-4ce8-88c2-886b10becb74","system_id":"levelo_inurba_marseille","lat":43.21749,"lon":5.34607,"is_reserved":false,"is_disabled":false,"rental_uris":{"android":"levelo://app?vid=2a8bb24d-2373-4ce8-88c2-886b10becb74","ios":"levelo://app?vid=2a8bb24d-2373-4ce8-88c2-886b10becb74"},"vehicle_type_id":"4","last_reported":1767028202,"current_range_meters":6000,"station_id":"","pricing_plan_id":"cebpf4jnsgd1na2vs0mg"},{"bike_id":"c93bbf3c-9650-44c3-9782-9bef181a9bed","system_id":"levelo_inurba_marseille","lat":43.24763,"lon":5.37564,"is_reserved":false,"is_disabled":false,"rental_uris":{"android":"levelo://app?vid=c93bbf3c-9650-44c3-9782-9bef181a9bed","ios":"levelo://app?vid=c93bbf3c-9650-44c3-9782-9bef181a9bed"},"vehicle_type_id":"4","last_reported":1767028202,"current_range_meters":6000,"station_id":"","pricing_plan_id":"cebpf4jnsgd1na2vs0mg"},{"bike_id":"ed6947c3-3f4b-4eb2-b406-979f0bce019f","system_id":"levelo_inurba_marseille","lat":43.31201,"lon":5.36849,"is_reserved":false,"is_disabled":false,"rental_uris":{"android":"levelo://app?vid=ed6947c3-3f4b-4eb2-b406-979f0bce019f","ios":"levelo://app?vid=ed6947c3-3f4b-4eb2-b406-979f0bce019f"},"vehicle_type_id":"4","last_reported":1767028202,"current_range_meters":6400,"station_id":"ce4bgl92rcd13ifvqbq0","pricing_plan_id":"cebpf4jnsgd1na2vs0mg"},{"bike_id":"7451e2f1-97cc-4a6a-824e-1c725c74e9d6","system_id":"levelo_inurba_marseille","lat":43.29416,"lon":5.38146,"is_reserved":false,"is_disabled":false,"rental_uris":{"android":"levelo://app?vid=7451e2f1-97cc-4a6a-824e-1c725c74e9d6","ios":"levelo://app?vid=7451e2f1-97cc-4a6a-824e-1c725c74e9d6"},"vehicle_type_id":"4","last_reported":1767028202,"current_range_meters":6400,"station_id":"","pricing_plan_id":"cebpf4jnsgd1na2vs0mg"},{"bike_id":"c903b61b-23ec-48f7-8f6d-5f83d416e6c2","system_id":"levelo_inurba_marseille","lat":43.29783,"lon":5.37102,"is_reserved":false,"is_disabled":false,"rental_uris":{"android":"levelo://app?vid=c903b61b-23ec-48f7-8f6d-5f83d416e6c2","ios":"levelo://app?vid=c903b61b-23ec-48f7-8f6d-5f83d416e6c2"},"vehicle_type_id":"4","last_reported":1767028202,"current_range_meters":6400,"station_id":"ce4bgop2rcd13ifvqc1g","pricing_plan_id":"cebpf4jnsgd1na2vs0mg"},{"bike_id":"d4f4a701-16e2-42c5-bf72-5ec7f82e0080","system_id":"levelo_inurba_marseille","lat":43.24656,"lon":5.38885,"is_reserved":false,"is_disabled":false,"rental_uris":{"android":"levelo://app?vid=d4f4a701-16e2-42c5-bf72-5ec7f82e0080","ios":"levelo://app?vid=d4f4a701-16e2-42c5-bf72-5ec7f82e0080"},"vehicle_type_id":"4","last_reported":1767028202,"current_range_meters":6400,"station_id":"ce4bhg12rcd13ifvqf60","pricing_plan_id":"cebpf4jnsgd1na2vs0mg"},{"bike_id":"b8359eb8-309f-4919-a9d8-14bc8a289068","system_id":"levelo_inurba_marseille","lat":43.29845,"lon":5.381046,"is_reserved":false,"is_disabled":false,"rental_uris":{"android":"levelo://app?vid=b8359eb8-309f-4919-a9d8-14bc8a289068","ios":"levelo://app?vid=b8359eb8-309f-4919-a9d8-14bc8a289068"},"vehicle_type_id":"4","last_reported":1767028202,"current_range_meters":6400,"station_id":"","pricing_plan_id":"cebpf4jnsgd1na2vs0mg"},{"bike_id":"94b65cfe-edaf-4322-865d-06eff46e3ede","system_id":"levelo_inurba_marseille","lat":43.30034,"lon":5.3737,"is_reserved":false,"is_disabled":false,"rental_uris":{"android":"levelo://app?vid=94b65cfe-edaf-4322-865d-06eff46e3ede","ios":"levelo://app?vid=94b65cfe-edaf-4322-865d-06eff46e3ede"},"vehicle_type_id":"4","last_reported":1767028202,"current_range_meters":6400,"station_id":"","pricing_plan_id":"cebpf4jnsgd1na2vs0mg"},{"bike_id":"17a49efb-d179-4b85-b20c-4afe87c0613f","system_id":"levelo_inurba_marseille","lat":43.31044,"lon":5.37174,"is_reserved":false,"is_disabled":true,"rental_uris":{"android":"levelo://app?vid=17a49efb-d179-4b85-b20c-4afe87c0613f","ios":"levelo://app?vid=17a49efb-d179-4b85-b20c-4afe87c0613f"},"vehicle_type_id":"4","last_reported":1767028202,"current_range_meters":6400,"station_id":"st_d4kl2rp97mjs73e7tdfg","pricing_plan_id":"cebpf4jnsgd1na2vs0mg"},{"bike_id":"b945da66-6a41-4cdf-aaf5-7263555ad24e","system_id":"levelo_inurba_marseille","lat":43.32489,"lon":5.36574,"is_reserved":false,"is_disabled":false,"rental_uris":{"android":"levelo://app?vid=b945da66-6a41-4cdf-aaf5-7263555ad24e","ios":"levelo://app?vid=b945da66-6a41-4cdf-aaf5-7263555ad24e"},"vehicle_type_id":"4","last_reported":1767028202,"current_range_meters":6400,"station_id":"ce4bhs12rcd13ifvqhvg","pricing_plan_id":"cebpf4jnsgd1na2vs0mg"},{"bike_id":"08f4624a-a23d-4738-b794-a8bd53bfd7e8","system_id":"levelo_inurba_marseille","lat":43.298458,"lon":5.376545,"is_reserved":false,"is_disabled":false,"rental_uris":{"android":"levelo://app?vid=08f4624a-a23d-4738-b794-a8bd53bfd7e8","ios":"levelo://app?vid=08f4624a-a23d-4738-b794-a8bd53bfd7e8"},"vehicle_type_id":"4","last_reported":1767028202,"current_range_meters":6800,"station_id":"","pricing_plan_id":"cebpf4jnsgd1na2vs0mg"},{"bike_id":"52776a1f-34dc-4368-8c38-2080f604c895","system_id":"levelo_inurba_marseille","lat":43.25818,"lon":5.39437,"is_reserved":false,"is_disabled":false,"rental_uris":{"android":"levelo://app?vid=52776a1f-34dc-4368-8c38-2080f604c895","ios":"levelo://app?vid=52776a1f-34dc-4368-8c38-2080f604c895"},"vehicle_type_id":"4","last_reported":1767028202,"current_range_meters":6800,"station_id":"ce4bhip2rcd13ifvqft0","pricing_plan_id":"cebpf4jnsgd1na2vs0mg"},{"bike_id":"36e3ab74-d85b-46de-9904-53928a1da310","system_id":"levelo_inurba_marseille","lat":43.25673,"lon":5.40018,"is_reserved":false,"is_disabled":false,"rental_uris":{"android":"levelo://app?vid=36e3ab74-d85b-46de-9904-53928a1da310","ios":"levelo://app?vid=36e3ab74-d85b-46de-9904-53928a1da310"},"vehicle_type_id":"4","last_reported":1767028202,"current_range_meters":6800,"station_id":"","pricing_plan_id":"cebpf4jnsgd1na2vs0mg"},{"bike_id":"80b2fe8c-f070-495e-8b30-8d348723b5c5","system_id":"levelo_inurba_marseille","lat":43.27994,"lon":5.40009,"is_reserved":false,"is_disabled":false,"rental_uris":{"android":"levelo://app?vid=80b2fe8c-f070-495e-8b30-8d348723b5c5","ios":"levelo://app?vid=80b2fe8c-f070-495e-8b30-8d348723b5c5"},"vehicle_type_id":"4","last_reported":1767028202,"current_range_meters":6800,"station_id":"ce4bho92rcd13ifvqh4g","pricing_plan_id":"cebpf4jnsgd1na2vs0mg"},{"bike_id":"d6a449d9-67ef-4444-ae17-bd1e29b48728","system_id":"levelo_inurba_marseille","lat":43.285767,"lon":5.429835,"is_reserved":false,"is_disabled":false,"rental_uris":{"android":"levelo://app?vid=d6a449d9-67ef-4444-ae17-bd1e29b48728","ios":"levelo://app?vid=d6a449d9-67ef-4444-ae17-bd1e29b48728"},"vehicle_type_id":"4","last_reported":1767028202,"current_range_meters":6800,"station_id":"","pricing_plan_id":"cebpf4jnsgd1na2vs0mg"},{"bike_id":"4bcf7794-f5d7-43b0-8d9c-dc5cb2dbd8e3","system_id":"levelo_inurba_marseille","lat":43.31259,"lon":5.40178,"is_reserved":false,"is_disabled":false,"rental_uris":{"android":"levelo://app?vid=4bcf7794-f5d7-43b0-8d9c-dc5cb2dbd8e3","ios":"levelo://app?vid=4bcf7794-f5d7-43b0-8d9c-dc5cb2dbd8e3"},"vehicle_type_id":"4","last_reported":1767028202,"current_range_meters":6800,"station_id":"ce4bh092rcd13ifvqd30","pricing_plan_id":"cebpf4jnsgd1na2vs0mg"},{"bike_id":"48b95d56-d335-426a-97d7-35ebb2e53461","system_id":"levelo_inurba_marseille","lat":43.24543,"lon":5.39526,"is_reserved":false,"is_disabled":false,"rental_uris":{"android":"levelo://app?vid=48b95d56-d335-426a-97d7-35ebb2e53461","ios":"levelo://app?vid=48b95d56-d335-426a-97d7-35ebb2e53461"},"vehicle_type_id":"4","last_reported":1767028202,"current_range_meters":6800,"station_id":"ce4bhlp2rcd13ifvqgjg","pricing_plan_id":"cebpf4jnsgd1na2vs0mg"},{"bike_id":"00a2c6ad-a711-4f2a-8e27-9524ad0f1faa","system_id":"levelo_inurba_marseille","lat":43.27065,"lon":5.40255,"is_reserved":false,"is_disabled":false,"rental_uris":{"android":"levelo://app?vid=00a2c6ad-a711-4f2a-8e27-9524ad0f1faa","ios":"levelo://app?vid=00a2c6ad-a711-4f2a-8e27-9524ad0f1faa"},"vehicle_type_id":"4","last_reported":1767028202,"current_range_meters":7200,"station_id":"ce4bhk92rcd13ifvqgc0","pricing_plan_id":"cebpf4jnsgd1na2vs0mg"},{"bike_id":"af08f3dd-fe70-4e0b-a2ed-c73bbbfd17f3","system_id":"levelo_inurba_marseille","lat":43.28576,"lon":5.39922,"is_reserved":false,"is_disabled":false,"rental_uris":{"android":"levelo://app?vid=af08f3dd-fe70-4e0b-a2ed-c73bbbfd17f3","ios":"levelo://app?vid=af08f3dd-fe70-4e0b-a2ed-c73bbbfd17f3"},"vehicle_type_id":"4","last_reported":1767028202,"current_range_meters":7200,"station_id":"st_d4a7ka997mjs738ck50g","pricing_plan_id":"cebpf4jnsgd1na2vs0mg"},{"bike_id":"6f43cfcd-5b7c-4880-b513-fb31e9502d04","system_id":"levelo_inurba_marseille","lat":43.28026,"lon":5.43992,"is_reserved":false,"is_disabled":false,"rental_uris":{"android":"levelo://app?vid=6f43cfcd-5b7c-4880-b513-fb31e9502d04","ios":"levelo://app?vid=6f43cfcd-5b7c-4880-b513-fb31e9502d04"},"vehicle_type_id":"4","last_reported":1767028202,"current_range_meters":7200,"station_id":"","pricing_plan_id":"cebpf4jnsgd1na2vs0mg"},{"bike_id":"ec2396e1-ed7c-45df-b3d7-10d36efd0da2","system_id":"levelo_inurba_marseille","lat":43.24068,"lon":5.37762,"is_reserved":false,"is_disabled":false,"rental_uris":{"android":"levelo://app?vid=ec2396e1-ed7c-45df-b3d7-10d36efd0da2","ios":"levelo://app?vid=ec2396e1-ed7c-45df-b3d7-10d36efd0da2"},"vehicle_type_id":"4","last_reported":1767028202,"current_range_meters":7200,"station_id":"ce4bhnp2rcd13ifvqgvg","pricing_plan_id":"cebpf4jnsgd1na2vs0mg"},{"bike_id":"673c59e9-55f2-4aa9-a3ad-f0515cef3af3","system_id":"levelo_inurba_marseille","lat":43.303328,"lon":5.404327,"is_reserved":false,"is_disabled":false,"rental_uris":{"android":"levelo://app?vid=673c59e9-55f2-4aa9-a3ad-f0515cef3af3","ios":"levelo://app?vid=673c59e9-55f2-4aa9-a3ad-f0515cef3af3"},"vehicle_type_id":"4","last_reported":1767028202,"current_range_meters":7200,"station_id":"ce4bh012rcd13ifvqd10","pricing_plan_id":"cebpf4jnsgd1na2vs0mg"},{"bike_id":"bcbf6881-9d90-4640-b723-14cf9bd10c0c","system_id":"levelo_inurba_marseille","lat":43.30081,"lon":5.39912,"is_reserved":false,"is_disabled":false,"rental_uris":{"android":"levelo://app?vid=bcbf6881-9d90-4640-b723-14cf9bd10c0c","ios":"levelo://app?vid=bcbf6881-9d90-4640-b723-14cf9bd10c0c"},"vehicle_type_id":"4","last_reported":1767028202,"current_range_meters":7200,"station_id":"","pricing_plan_id":"cebpf4jnsgd1na2vs0mg"},{"bike_id":"d6e88a96-e819-42ed-ba47-0ad831dd2b72","system_id":"levelo_inurba_marseille","lat":43.29574,"lon":5.37501,"is_reserved":false,"is_disabled":false,"rental_uris":{"android":"levelo://app?vid=d6e88a96-e819-42ed-ba47-0ad831dd2b72","ios":"levelo://app?vid=d6e88a96-e819-42ed-ba47-0ad831dd2b72"},"vehicle_type_id":"4","last_reported":1767028202,"current_range_meters":8000,"station_id":"ce4bgh92rcd13ifvqb50","pricing_plan_id":"cebpf4jnsgd1na2vs0mg"},{"bike_id":"54c8f443-d67f-4946-a776-419f325e3b53","system_id":"levelo_inurba_marseille","lat":43.285079,"lon":5.384155,"is_reserved":false,"is_disabled":false,"rental_uris":{"android":"levelo://app?vid=54c8f443-d67f-4946-a776-419f325e3b53","ios":"levelo://app?vid=54c8f443-d67f-4946-a776-419f325e3b53"},"vehicle_type_id":"4","last_reported":1767028202,"current_range_meters":8000,"station_id":"ce4bh512rcd13ifvqe3g","pricing_plan_id":"cebpf4jnsgd1na2vs0mg"},{"bike_id":"c9d5bed4-66b3-431d-bd8c-7fb9901b8cba","system_id":"levelo_inurba_marseille","lat":43.3289,"lon":5.39975,"is_reserved":false,"is_disabled":false,"rental_uris":{"android":"levelo://app?vid=c9d5bed4-66b3-431d-bd8c-7fb9901b8cba","ios":"levelo://app?vid=c9d5bed4-66b3-431d-bd8c-7fb9901b8cba"},"vehicle_type_id":"4","last_reported":1767028202,"current_range_meters":8000,"station_id":"","pricing_plan_id":"cebpf4jnsgd1na2vs0mg"},{"bike_id":"81062f73-91d6-4254-837a-3a79f2f3a1d9","system_id":"levelo_inurba_marseille","lat":43.28117,"lon":5.38923,"is_reserved":false,"is_disabled":false,"rental_uris":{"android":"levelo://app?vid=81062f73-91d6-4254-837a-3a79f2f3a1d9","ios":"levelo://app?vid=81062f73-91d6-4254-837a-3a79f2f3a1d9"},"vehicle_type_id":"4","last_reported":1767028202,"current_range_meters":8000,"station_id":"","pricing_plan_id":"cebpf4jnsgd1na2vs0mg"},{"bike_id":"2649f405-edeb-454b-ab19-5bf9f80dfd8d","system_id":"levelo_inurba_marseille","lat":43.23061,"lon":5.35493,"is_reserved":false,"is_disabled":false,"rental_uris":{"android":"levelo://app?vid=2649f405-edeb-454b-ab19-5bf9f80dfd8d","ios":"levelo://app?vid=2649f405-edeb-454b-ab19-5bf9f80dfd8d"},"vehicle_type_id":"4","last_reported":1767028202,"current_range_meters":8000,"station_id":"cpo3342slgdg3j2ifvpg","pricing_plan_id":"cebpf4jnsgd1na2vs0mg"},{"bike_id":"13fe7d34-8cd4-4100-a7c6-d278d7140658","system_id":"levelo_inurba_marseille","lat":43.26033,"lon":5.37554,"is_reserved":false,"is_disabled":false,"rental_uris":{"android":"levelo://app?vid=13fe7d34-8cd4-4100-a7c6-d278d7140658","ios":"levelo://app?vid=13fe7d34-8cd4-4100-a7c6-d278d7140658"},"vehicle_type_id":"4","last_reported":1767028202,"current_range_meters":8000,"station_id":"ce4bhgh2rcd13ifvqfa0","pricing_plan_id":"cebpf4jnsgd1na2vs0mg"},{"bike_id":"a00de8bd-01de-4dfa-912f-2a18de2a490a","system_id":"levelo_inurba_marseille","lat":43.27964,"lon":5.387277,"is_reserved":false,"is_disabled":false,"rental_uris":{"android":"levelo://app?vid=a00de8bd-01de-4dfa-912f-2a18de2a490a","ios":"levelo://app?vid=a00de8bd-01de-4dfa-912f-2a18de2a490a"},"vehicle_type_id":"4","last_reported":1767028202,"current_range_meters":8000,"station_id":"ce4bhg12rcd13ifvqf80","pricing_plan_id":"cebpf4jnsgd1na2vs0mg"},{"bike_id":"014ab249-fd43-45d3-a79e-0c2fca1af5ff","system_id":"levelo_inurba_marseille","lat":43.29601,"lon":5.38108,"is_reserved":false,"is_disabled":false,"rental_uris":{"android":"levelo://app?vid=014ab249-fd43-45d3-a79e-0c2fca1af5ff","ios":"levelo://app?vid=014ab249-fd43-45d3-a79e-0c2fca1af5ff"},"vehicle_type_id":"4","last_reported":1767028202,"current_range_meters":8000,"station_id":"ce4bgl12rcd13ifvqbo0","pricing_plan_id":"cebpf4jnsgd1na2vs0mg"},{"bike_id":"1c818977-717b-41f2-8fae-ce6b0c328c89","system_id":"levelo_inurba_marseille","lat":43.3118,"lon":5.36834,"is_reserved":false,"is_disabled":false,"rental_uris":{"android":"levelo://app?vid=1c818977-717b-41f2-8fae-ce6b0c328c89","ios":"levelo://app?vid=1c818977-717b-41f2-8fae-ce6b0c328c89"},"vehicle_type_id":"4","last_reported":1767028202,"current_range_meters":8000,"station_id":"ce4bgl92rcd13ifvqbq0","pricing_plan_id":"cebpf4jnsgd1na2vs0mg"},{"bike_id":"8f6df5c5-a0a2-4255-b4de-38fa00030af2","system_id":"levelo_inurba_marseille","lat":43.29263,"lon":5.40907,"is_reserved":false,"is_disabled":false,"rental_uris":{"android":"levelo://app?vid=8f6df5c5-a0a2-4255-b4de-38fa00030af2","ios":"levelo://app?vid=8f6df5c5-a0a2-4255-b4de-38fa00030af2"},"vehicle_type_id":"4","last_reported":1767028202,"current_range_meters":8400,"station_id":"ce4bh192rcd13ifvqdc0","pricing_plan_id":"cebpf4jnsgd1na2vs0mg"},{"bike_id":"b672c522-aca1-4885-98f6-4e99eceec109","system_id":"levelo_inurba_marseille","lat":43.30046,"lon":5.38713,"is_reserved":false,"is_disabled":false,"rental_uris":{"android":"levelo://app?vid=b672c522-aca1-4885-98f6-4e99eceec109","ios":"levelo://app?vid=b672c522-aca1-4885-98f6-4e99eceec109"},"vehicle_type_id":"4","last_reported":1767028202,"current_range_meters":8400,"station_id":"","pricing_plan_id":"cebpf4jnsgd1na2vs0mg"},{"bike_id":"8a30168c-dc2c-4c07-9b08-0674af8ac69f","system_id":"levelo_inurba_marseille","lat":43.30315,"lon":5.39214,"is_reserved":false,"is_disabled":false,"rental_uris":{"android":"levelo://app?vid=8a30168c-dc2c-4c07-9b08-0674af8ac69f","ios":"levelo://app?vid=8a30168c-dc2c-4c07-9b08-0674af8ac69f"},"vehicle_type_id":"4","last_reported":1767028202,"current_range_meters":8400,"station_id":"ce4bgkh2rcd13ifvqbk0","pricing_plan_id":"cebpf4jnsgd1na2vs0mg"},{"bike_id":"8417ac0b-8813-41ff-a7cb-7d48acfce6d4","system_id":"levelo_inurba_marseille","lat":43.29542,"lon":5.38529,"is_reserved":false,"is_disabled":false,"rental_uris":{"android":"levelo://app?vid=8417ac0b-8813-41ff-a7cb-7d48acfce6d4","ios":"levelo://app?vid=8417ac0b-8813-41ff-a7cb-7d48acfce6d4"},"vehicle_type_id":"4","last_reported":1767028202,"current_range_meters":8400,"station_id":"ce4bgih2rcd13ifvqba0","pricing_plan_id":"cebpf4jnsgd1na2vs0mg"},{"bike_id":"d07dc22c-a864-4104-81e7-c60339403064","system_id":"levelo_inurba_marseille","lat":43.29642,"lon":5.38135,"is_reserved":false,"is_disabled":false,"rental_uris":{"android":"levelo://app?vid=d07dc22c-a864-4104-81e7-c60339403064","ios":"levelo://app?vid=d07dc22c-a864-4104-81e7-c60339403064"},"vehicle_type_id":"4","last_reported":1767028202,"current_range_meters":8400,"station_id":"","pricing_plan_id":"cebpf4jnsgd1na2vs0mg"},{"bike_id":"fe3a039c-9a0b-4cbc-b534-5320162b5090","system_id":"levelo_inurba_marseille","lat":43.27572,"lon":5.3843,"is_reserved":false,"is_disabled":false,"rental_uris":{"android":"levelo://app?vid=fe3a039c-9a0b-4cbc-b534-5320162b5090","ios":"levelo://app?vid=fe3a039c-9a0b-4cbc-b534-5320162b5090"},"vehicle_type_id":"4","last_reported":1767028202,"current_range_meters":8400,"station_id":"ce4bhh92rcd13ifvqfi0","pricing_plan_id":"cebpf4jnsgd1na2vs0mg"},{"bike_id":"8bba8d40-aa25-4081-b344-b21d158dffa6","system_id":"levelo_inurba_marseille","lat":43.21192,"lon":5.35093,"is_reserved":false,"is_disabled":false,"rental_uris":{"android":"levelo://app?vid=8bba8d40-aa25-4081-b344-b21d158dffa6","ios":"levelo://app?vid=8bba8d40-aa25-4081-b344-b21d158dffa6"},"vehicle_type_id":"4","last_reported":1767028202,"current_range_meters":8400,"station_id":"st_cvj6sg6p6f1abm77japg","pricing_plan_id":"cebpf4jnsgd1na2vs0mg"},{"bike_id":"31de6c74-d062-4903-9d26-584dac9471e9","system_id":"levelo_inurba_marseille","lat":43.29269,"lon":5.36855,"is_reserved":false,"is_disabled":false,"rental_uris":{"android":"levelo://app?vid=31de6c74-d062-4903-9d26-584dac9471e9","ios":"levelo://app?vid=31de6c74-d062-4903-9d26-584dac9471e9"},"vehicle_type_id":"4","last_reported":1767028202,"current_range_meters":8800,"station_id":"ce4bhbp2rcd13ifvqesg","pricing_plan_id":"cebpf4jnsgd1na2vs0mg"},{"bike_id":"897d5a5f-29e3-45c8-92f0-c1f10b0115cf","system_id":"levelo_inurba_marseille","lat":43.29909,"lon":5.38294,"is_reserved":false,"is_disabled":false,"rental_uris":{"android":"levelo://app?vid=897d5a5f-29e3-45c8-92f0-c1f10b0115cf","ios":"levelo://app?vid=897d5a5f-29e3-45c8-92f0-c1f10b0115cf"},"vehicle_type_id":"4","last_reported":1767028202,"current_range_meters":8800,"station_id":"","pricing_plan_id":"cebpf4jnsgd1na2vs0mg"},{"bike_id":"c342fbd5-df63-43d2-911d-bfa0fcc44689","system_id":"levelo_inurba_marseille","lat":43.331,"lon":5.41037,"is_reserved":false,"is_disabled":false,"rental_uris":{"android":"levelo://app?vid=c342fbd5-df63-43d2-911d-bfa0fcc44689","ios":"levelo://app?vid=c342fbd5-df63-43d2-911d-bfa0fcc44689"},"vehicle_type_id":"4","last_reported":1767028202,"current_range_meters":8800,"station_id":"","pricing_plan_id":"cebpf4jnsgd1na2vs0mg"},{"bike_id":"5f26fd32-d57c-4a0b-a416-65f73ea2479e","system_id":"levelo_inurba_marseille","lat":43.32779,"lon":5.40654,"is_reserved":false,"is_disabled":false,"rental_uris":{"android":"levelo://app?vid=5f26fd32-d57c-4a0b-a416-65f73ea2479e","ios":"levelo://app?vid=5f26fd32-d57c-4a0b-a416-65f73ea2479e"},"vehicle_type_id":"4","last_reported":1767028202,"current_range_meters":8800,"station_id":"","pricing_plan_id":"cebpf4jnsgd1na2vs0mg"},{"bike_id":"31704bec-4f9a-49bc-bf97-b66633aba2e8","system_id":"levelo_inurba_marseille","lat":43.26034,"lon":5.41722,"is_reserved":false,"is_disabled":false,"rental_uris":{"android":"levelo://app?vid=31704bec-4f9a-49bc-bf97-b66633aba2e8","ios":"levelo://app?vid=31704bec-4f9a-49bc-bf97-b66633aba2e8"},"vehicle_type_id":"4","last_reported":1767028202,"current_range_meters":8800,"station_id":"","pricing_plan_id":"cebpf4jnsgd1na2vs0mg"},{"bike_id":"49166d3a-7d57-41ae-b5e6-9a6cbabce031","system_id":"levelo_inurba_marseille","lat":43.29686,"lon":5.36771,"is_reserved":false,"is_disabled":false,"rental_uris":{"android":"levelo://app?vid=49166d3a-7d57-41ae-b5e6-9a6cbabce031","ios":"levelo://app?vid=49166d3a-7d57-41ae-b5e6-9a6cbabce031"},"vehicle_type_id":"4","last_reported":1767028202,"current_range_meters":9200,"station_id":"","pricing_plan_id":"cebpf4jnsgd1na2vs0mg"},{"bike_id":"93238dbe-7e18-4ff9-acc5-cf08ef47ac5a","system_id":"levelo_inurba_marseille","lat":43.27426,"lon":5.41462,"is_reserved":false,"is_disabled":false,"rental_uris":{"android":"levelo://app?vid=93238dbe-7e18-4ff9-acc5-cf08ef47ac5a","ios":"levelo://app?vid=93238dbe-7e18-4ff9-acc5-cf08ef47ac5a"},"vehicle_type_id":"4","last_reported":1767028202,"current_range_meters":9200,"station_id":"","pricing_plan_id":"cebpf4jnsgd1na2vs0mg"},{"bike_id":"409f22f5-c320-45ca-851d-1966d2bb3619","system_id":"levelo_inurba_marseille","lat":43.3075,"lon":5.37,"is_reserved":false,"is_disabled":false,"rental_uris":{"android":"levelo://app?vid=409f22f5-c320-45ca-851d-1966d2bb3619","ios":"levelo://app?vid=409f22f5-c320-45ca-851d-1966d2bb3619"},"vehicle_type_id":"4","last_reported":1767028202,"current_range_meters":9200,"station_id":"","pricing_plan_id":"cebpf4jnsgd1na2vs0mg"},{"bike_id":"def611a0-c05f-40de-98a1-7e8cba57bd16","system_id":"levelo_inurba_marseille","lat":43.292,"lon":5.35805,"is_reserved":false,"is_disabled":false,"rental_uris":{"android":"levelo://app?vid=def611a0-c05f-40de-98a1-7e8cba57bd16","ios":"levelo://app?vid=def611a0-c05f-40de-98a1-7e8cba57bd16"},"vehicle_type_id":"4","last_reported":1767028202,"current_range_meters":9200,"station_id":"","pricing_plan_id":"cebpf4jnsgd1na2vs0mg"},{"bike_id":"917b698b-6d07-4dcf-be03-698c150ee9f0","system_id":"levelo_inurba_marseille","lat":43.29047,"lon":5.36983,"is_reserved":false,"is_disabled":false,"rental_uris":{"android":"levelo://app?vid=917b698b-6d07-4dcf-be03-698c150ee9f0","ios":"levelo://app?vid=917b698b-6d07-4dcf-be03-698c150ee9f0"},"vehicle_type_id":"4","last_reported":1767028202,"current_range_meters":9200,"station_id":"","pricing_plan_id":"cebpf4jnsgd1na2vs0mg"},{"bike_id":"959f4659-d365-4ff3-8e93-16417568f80d","system_id":"levelo_inurba_marseille","lat":43.296304,"lon":5.377895,"is_reserved":false,"is_disabled":false,"rental_uris":{"android":"levelo://app?vid=959f4659-d365-4ff3-8e93-16417568f80d","ios":"levelo://app?vid=959f4659-d365-4ff3-8e93-16417568f80d"},"vehicle_type_id":"4","last_reported":1767028202,"current_range_meters":9200,"station_id":"","pricing_plan_id":"cebpf4jnsgd1na2vs0mg"},{"bike_id":"b2958e0b-dcce-4b93-b93b-c1cae502cb6b","system_id":"levelo_inurba_marseille","lat":43.28857,"lon":5.35851,"is_reserved":false,"is_disabled":false,"rental_uris":{"android":"levelo://app?vid=b2958e0b-dcce-4b93-b93b-c1cae502cb6b","ios":"levelo://app?vid=b2958e0b-dcce-4b93-b93b-c1cae502cb6b"},"vehicle_type_id":"4","last_reported":1767028202,"current_range_meters":9200,"station_id":"ce4bhb12rcd13ifvqem0","pricing_plan_id":"cebpf4jnsgd1na2vs0mg"},{"bike_id":"8c27f8dd-49de-48cb-b4c0-2c146ce86148","system_id":"levelo_inurba_marseille","lat":43.29594,"lon":5.38153,"is_reserved":false,"is_disabled":false,"rental_uris":{"android":"levelo://app?vid=8c27f8dd-49de-48cb-b4c0-2c146ce86148","ios":"levelo://app?vid=8c27f8dd-49de-48cb-b4c0-2c146ce86148"},"vehicle_type_id":"4","last_reported":1767028202,"current_range_meters":9200,"station_id":"ce4bgl12rcd13ifvqbo0","pricing_plan_id":"cebpf4jnsgd1na2vs0mg"},{"bike_id":"f1e029ec-966a-4c18-90a6-6313298321ec","system_id":"levelo_inurba_marseille","lat":43.242316,"lon":5.393442,"is_reserved":false,"is_disabled":false,"rental_uris":{"android":"levelo://app?vid=f1e029ec-966a-4c18-90a6-6313298321ec","ios":"levelo://app?vid=f1e029ec-966a-4c18-90a6-6313298321ec"},"vehicle_type_id":"4","last_reported":1767028202,"current_range_meters":9200,"station_id":"","pricing_plan_id":"cebpf4jnsgd1na2vs0mg"},{"bike_id":"a5390c1b-8ddc-4e56-baf4-66b1fe2b384c","system_id":"levelo_inurba_marseille","lat":43.28868,"lon":5.42519,"is_reserved":false,"is_disabled":false,"rental_uris":{"android":"levelo://app?vid=a5390c1b-8ddc-4e56-baf4-66b1fe2b384c","ios":"levelo://app?vid=a5390c1b-8ddc-4e56-baf4-66b1fe2b384c"},"vehicle_type_id":"4","last_reported":1767028202,"current_range_meters":9600,"station_id":"st_d3b462108ojc7389ooeg","pricing_plan_id":"cebpf4jnsgd1na2vs0mg"},{"bike_id":"8edc1ab8-c82c-4ca3-afef-ae2ed37ce96b","system_id":"levelo_inurba_marseille","lat":43.31221,"lon":5.368624,"is_reserved":false,"is_disabled":false,"rental_uris":{"android":"levelo://app?vid=8edc1ab8-c82c-4ca3-afef-ae2ed37ce96b","ios":"levelo://app?vid=8edc1ab8-c82c-4ca3-afef-ae2ed37ce96b"},"vehicle_type_id":"4","last_reported":1767028202,"current_range_meters":9600,"station_id":"ce4bgl92rcd13ifvqbq0","pricing_plan_id":"cebpf4jnsgd1na2vs0mg"},{"bike_id":"8e408ba0-2118-43f7-a8ba-d277410a9103","system_id":"levelo_inurba_marseille","lat":43.31239,"lon":5.3807,"is_reserved":false,"is_disabled":false,"rental_uris":{"android":"levelo://app?vid=8e408ba0-2118-43f7-a8ba-d277410a9103","ios":"levelo://app?vid=8e408ba0-2118-43f7-a8ba-d277410a9103"},"vehicle_type_id":"4","last_reported":1767028202,"current_range_meters":9600,"station_id":"","pricing_plan_id":"cebpf4jnsgd1na2vs0mg"},{"bike_id":"108f9e54-1a6b-4b8e-98bf-46ffc09d1c52","system_id":"levelo_inurba_marseille","lat":43.24312,"lon":5.39224,"is_reserved":false,"is_disabled":false,"rental_uris":{"android":"levelo://app?vid=108f9e54-1a6b-4b8e-98bf-46ffc09d1c52","ios":"levelo://app?vid=108f9e54-1a6b-4b8e-98bf-46ffc09d1c52"},"vehicle_type_id":"4","last_reported":1767028202,"current_range_meters":9600,"station_id":"","pricing_plan_id":"cebpf4jnsgd1na2vs0mg"},{"bike_id":"8b74d236-64a6-4f6d-bd9f-c0a5315c0f26","system_id":"levelo_inurba_marseille","lat":43.312712,"lon":5.401731,"is_reserved":false,"is_disabled":false,"rental_uris":{"android":"levelo://app?vid=8b74d236-64a6-4f6d-bd9f-c0a5315c0f26","ios":"levelo://app?vid=8b74d236-64a6-4f6d-bd9f-c0a5315c0f26"},"vehicle_type_id":"4","last_reported":1767028202,"current_range_meters":9600,"station_id":"ce4bh092rcd13ifvqd30","pricing_plan_id":"cebpf4jnsgd1na2vs0mg"},{"bike_id":"293b1a03-b471-4057-8f13-11b74273e4e7","system_id":"levelo_inurba_marseille","lat":43.337444,"lon":5.374475,"is_reserved":false,"is_disabled":false,"rental_uris":{"android":"levelo://app?vid=293b1a03-b471-4057-8f13-11b74273e4e7","ios":"levelo://app?vid=293b1a03-b471-4057-8f13-11b74273e4e7"},"vehicle_type_id":"4","last_reported":1767028202,"current_range_meters":9600,"station_id":"","pricing_plan_id":"cebpf4jnsgd1na2vs0mg"},{"bike_id":"d92812f8-5b57-4c59-8c7f-259f28af8665","system_id":"levelo_inurba_marseille","lat":43.28287,"lon":5.43193,"is_reserved":false,"is_disabled":false,"rental_uris":{"android":"levelo://app?vid=d92812f8-5b57-4c59-8c7f-259f28af8665","ios":"levelo://app?vid=d92812f8-5b57-4c59-8c7f-259f28af8665"},"vehicle_type_id":"4","last_reported":1767028202,"current_range_meters":9600,"station_id":"","pricing_plan_id":"cebpf4jnsgd1na2vs0mg"},{"bike_id":"f58016ac-240b-43ab-acf6-7d4fc0f3d8d6","system_id":"levelo_inurba_marseille","lat":43.28078,"lon":5.39645,"is_reserved":false,"is_disabled":false,"rental_uris":{"android":"levelo://app?vid=f58016ac-240b-43ab-acf6-7d4fc0f3d8d6","ios":"levelo://app?vid=f58016ac-240b-43ab-acf6-7d4fc0f3d8d6"},"vehicle_type_id":"4","last_reported":1767028202,"current_range_meters":9600,"station_id":"ce4bho12rcd13ifvqh2g","pricing_plan_id":"cebpf4jnsgd1na2vs0mg"},{"bike_id":"b7465372-9062-4788-bd0d-d36bd948cc0f","system_id":"levelo_inurba_marseille","lat":43.24175,"lon":5.36384,"is_reserved":false,"is_disabled":false,"rental_uris":{"android":"levelo://app?vid=b7465372-9062-4788-bd0d-d36bd948cc0f","ios":"levelo://app?vid=b7465372-9062-4788-bd0d-d36bd948cc0f"},"vehicle_type_id":"4","last_reported":1767028202,"current_range_meters":9600,"station_id":"cpo36qri1sfpv3e86is0","pricing_plan_id":"cebpf4jnsgd1na2vs0mg"},{"bike_id":"5b9990f1-8102-4445-9e57-82facb4b4543","system_id":"levelo_inurba_marseille","lat":43.31233,"lon":5.3687,"is_reserved":false,"is_disabled":false,"rental_uris":{"android":"levelo://app?vid=5b9990f1-8102-4445-9e57-82facb4b4543","ios":"levelo://app?vid=5b9990f1-8102-4445-9e57-82facb4b4543"},"vehicle_type_id":"4","last_reported":1767028202,"current_range_meters":10000,"station_id":"ce4bgl92rcd13ifvqbq0","pricing_plan_id":"cebpf4jnsgd1na2vs0mg"},{"bike_id":"f73bf6d2-2ce8-41e5-8ab6-7da4fd3e899c","system_id":"levelo_inurba_marseille","lat":43.265432,"lon":5.372977,"is_reserved":false,"is_disabled":false,"rental_uris":{"android":"levelo://app?vid=f73bf6d2-2ce8-41e5-8ab6-7da4fd3e899c","ios":"levelo://app?vid=f73bf6d2-2ce8-41e5-8ab6-7da4fd3e899c"},"vehicle_type_id":"4","last_reported":1767028202,"current_range_meters":10000,"station_id":"ce4bhg12rcd13ifvqf70","pricing_plan_id":"cebpf4jnsgd1na2vs0mg"},{"bike_id":"596c9b3b-bd08-4237-a80d-9ed209e66871","system_id":"levelo_inurba_marseille","lat":43.28863,"lon":5.4251,"is_reserved":false,"is_disabled":false,"rental_uris":{"android":"levelo://app?vid=596c9b3b-bd08-4237-a80d-9ed209e66871","ios":"levelo://app?vid=596c9b3b-bd08-4237-a80d-9ed209e66871"},"vehicle_type_id":"4","last_reported":1767028202,"current_range_meters":10000,"station_id":"st_d3b462108ojc7389ooeg","pricing_plan_id":"cebpf4jnsgd1na2vs0mg"},{"bike_id":"b57c05c6-b481-41ea-9b0f-9a33a832b86d","system_id":"levelo_inurba_marseille","lat":43.29224,"lon":5.36076,"is_reserved":false,"is_disabled":false,"rental_uris":{"android":"levelo://app?vid=b57c05c6-b481-41ea-9b0f-9a33a832b86d","ios":"levelo://app?vid=b57c05c6-b481-41ea-9b0f-9a33a832b86d"},"vehicle_type_id":"4","last_reported":1767028202,"current_range_meters":10000,"station_id":"ce4bhbh2rcd13ifvqeqg","pricing_plan_id":"cebpf4jnsgd1na2vs0mg"},{"bike_id":"73548a29-1457-4d0f-b3b8-6224b00dfbb2","system_id":"levelo_inurba_marseille","lat":43.28474,"lon":5.38416,"is_reserved":false,"is_disabled":false,"rental_uris":{"android":"levelo://app?vid=73548a29-1457-4d0f-b3b8-6224b00dfbb2","ios":"levelo://app?vid=73548a29-1457-4d0f-b3b8-6224b00dfbb2"},"vehicle_type_id":"4","last_reported":1767028202,"current_range_meters":10000,"station_id":"ce4bh512rcd13ifvqe3g","pricing_plan_id":"cebpf4jnsgd1na2vs0mg"},{"bike_id":"5663c206-c4de-47ab-9767-8711dc76a6f9","system_id":"levelo_inurba_marseille","lat":43.30158,"lon":5.43097,"is_reserved":false,"is_disabled":false,"rental_uris":{"android":"levelo://app?vid=5663c206-c4de-47ab-9767-8711dc76a6f9","ios":"levelo://app?vid=5663c206-c4de-47ab-9767-8711dc76a6f9"},"vehicle_type_id":"4","last_reported":1767028202,"current_range_meters":10800,"station_id":"st_d3js3co5814s73ftftug","pricing_plan_id":"cebpf4jnsgd1na2vs0mg"},{"bike_id":"57f3e5b4-000e-48f5-9266-c54feb200405","system_id":"levelo_inurba_marseille","lat":43.30182,"lon":5.36608,"is_reserved":false,"is_disabled":false,"rental_uris":{"android":"levelo://app?vid=57f3e5b4-000e-48f5-9266-c54feb200405","ios":"levelo://app?vid=57f3e5b4-000e-48f5-9266-c54feb200405"},"vehicle_type_id":"4","last_reported":1767028202,"current_range_meters":10800,"station_id":"ce4bgrh2rcd13ifvqc8g","pricing_plan_id":"cebpf4jnsgd1na2vs0mg"},{"bike_id":"6bb47ab7-fd11-407a-8bef-e1c47ac7cd9d","system_id":"levelo_inurba_marseille","lat":43.29493,"lon":5.43308,"is_reserved":false,"is_disabled":false,"rental_uris":{"android":"levelo://app?vid=6bb47ab7-fd11-407a-8bef-e1c47ac7cd9d","ios":"levelo://app?vid=6bb47ab7-fd11-407a-8bef-e1c47ac7cd9d"},"vehicle_type_id":"4","last_reported":1767028202,"current_range_meters":10800,"station_id":"st_d3j5ugp08ojc73fj9d10","pricing_plan_id":"cebpf4jnsgd1na2vs0mg"},{"bike_id":"036cbba1-2eba-4d3a-bebd-070ee4e03e68","system_id":"levelo_inurba_marseille","lat":43.27421,"lon":5.39408,"is_reserved":false,"is_disabled":true,"rental_uris":{"android":"levelo://app?vid=036cbba1-2eba-4d3a-bebd-070ee4e03e68","ios":"levelo://app?vid=036cbba1-2eba-4d3a-bebd-070ee4e03e68"},"vehicle_type_id":"4","last_reported":1767028202,"current_range_meters":10800,"station_id":"ce4bhdp2rcd13ifvqf20","pricing_plan_id":"cebpf4jnsgd1na2vs0mg"},{"bike_id":"98ad4379-3689-4f58-9b00-a70fa641bf7d","system_id":"levelo_inurba_marseille","lat":43.30144,"lon":5.37424,"is_reserved":false,"is_disabled":false,"rental_uris":{"android":"levelo://app?vid=98ad4379-3689-4f58-9b00-a70fa641bf7d","ios":"levelo://app?vid=98ad4379-3689-4f58-9b00-a70fa641bf7d"},"vehicle_type_id":"4","last_reported":1767028202,"current_range_meters":10800,"station_id":"ce4bgs92rcd13ifvqcc0","pricing_plan_id":"cebpf4jnsgd1na2vs0mg"},{"bike_id":"5ec820fb-f47e-43b3-bc55-57a5ad8275a7","system_id":"levelo_inurba_marseille","lat":43.29222,"lon":5.36335,"is_reserved":false,"is_disabled":false,"rental_uris":{"android":"levelo://app?vid=5ec820fb-f47e-43b3-bc55-57a5ad8275a7","ios":"levelo://app?vid=5ec820fb-f47e-43b3-bc55-57a5ad8275a7"},"vehicle_type_id":"4","last_reported":1767028202,"current_range_meters":10800,"station_id":"","pricing_plan_id":"cebpf4jnsgd1na2vs0mg"},{"bike_id":"ef89324f-ec48-4e9f-b181-b06cdb33a73b","system_id":"levelo_inurba_marseille","lat":43.28211,"lon":5.39049,"is_reserved":false,"is_disabled":false,"rental_uris":{"android":"levelo://app?vid=ef89324f-ec48-4e9f-b181-b06cdb33a73b","ios":"levelo://app?vid=ef89324f-ec48-4e9f-b181-b06cdb33a73b"},"vehicle_type_id":"4","last_reported":1767028202,"current_range_meters":10800,"station_id":"ce4bhn92rcd13ifvqgsg","pricing_plan_id":"cebpf4jnsgd1na2vs0mg"},{"bike_id":"1b98c6d3-988a-40e8-a138-836b264a962b","system_id":"levelo_inurba_marseille","lat":43.32331,"lon":5.36678,"is_reserved":false,"is_disabled":false,"rental_uris":{"android":"levelo://app?vid=1b98c6d3-988a-40e8-a138-836b264a962b","ios":"levelo://app?vid=1b98c6d3-988a-40e8-a138-836b264a962b"},"vehicle_type_id":"4","last_reported":1767028202,"current_range_meters":10800,"station_id":"","pricing_plan_id":"cebpf4jnsgd1na2vs0mg"},{"bike_id":"0a62435e-a1a1-4faf-b848-03bd53df937d","system_id":"levelo_inurba_marseille","lat":43.29846,"lon":5.37889,"is_reserved":false,"is_disabled":false,"rental_uris":{"android":"levelo://app?vid=0a62435e-a1a1-4faf-b848-03bd53df937d","ios":"levelo://app?vid=0a62435e-a1a1-4faf-b848-03bd53df937d"},"vehicle_type_id":"4","last_reported":1767028202,"current_range_meters":10800,"station_id":"","pricing_plan_id":"cebpf4jnsgd1na2vs0mg"},{"bike_id":"1b935fe6-cda1-4f0c-a1c3-2e98cc659754","system_id":"levelo_inurba_marseille","lat":43.30543,"lon":5.36685,"is_reserved":false,"is_disabled":false,"rental_uris":{"android":"levelo://app?vid=1b935fe6-cda1-4f0c-a1c3-2e98cc659754","ios":"levelo://app?vid=1b935fe6-cda1-4f0c-a1c3-2e98cc659754"},"vehicle_type_id":"4","last_reported":1767028202,"current_range_meters":11200,"station_id":"ce4bgrp2rcd13ifvqc9g","pricing_plan_id":"cebpf4jnsgd1na2vs0mg"},{"bike_id":"0c8752f9-67a9-4eee-998d-0a21d8c8f9f0","system_id":"levelo_inurba_marseille","lat":43.32892,"lon":5.40523,"is_reserved":false,"is_disabled":false,"rental_uris":{"android":"levelo://app?vid=0c8752f9-67a9-4eee-998d-0a21d8c8f9f0","ios":"levelo://app?vid=0c8752f9-67a9-4eee-998d-0a21d8c8f9f0"},"vehicle_type_id":"4","last_reported":1767028202,"current_range_meters":11200,"station_id":"ce4bhq92rcd13ifvqhkg","pricing_plan_id":"cebpf4jnsgd1na2vs0mg"},{"bike_id":"3981849e-f312-451e-a7c6-49908a23c833","system_id":"levelo_inurba_marseille","lat":43.30125,"lon":5.40209,"is_reserved":false,"is_disabled":false,"rental_uris":{"android":"levelo://app?vid=3981849e-f312-451e-a7c6-49908a23c833","ios":"levelo://app?vid=3981849e-f312-451e-a7c6-49908a23c833"},"vehicle_type_id":"4","last_reported":1767028202,"current_range_meters":11200,"station_id":"","pricing_plan_id":"cebpf4jnsgd1na2vs0mg"},{"bike_id":"f4c01557-62cf-4b89-aaa2-7c63ad0ad51f","system_id":"levelo_inurba_marseille","lat":43.31111,"lon":5.37111,"is_reserved":false,"is_disabled":false,"rental_uris":{"android":"levelo://app?vid=f4c01557-62cf-4b89-aaa2-7c63ad0ad51f","ios":"levelo://app?vid=f4c01557-62cf-4b89-aaa2-7c63ad0ad51f"},"vehicle_type_id":"4","last_reported":1767028202,"current_range_meters":11200,"station_id":"","pricing_plan_id":"cebpf4jnsgd1na2vs0mg"},{"bike_id":"0d5ddc8d-f2c4-4737-b087-1361f53189ff","system_id":"levelo_inurba_marseille","lat":43.26954,"lon":5.38629,"is_reserved":false,"is_disabled":false,"rental_uris":{"android":"levelo://app?vid=0d5ddc8d-f2c4-4737-b087-1361f53189ff","ios":"levelo://app?vid=0d5ddc8d-f2c4-4737-b087-1361f53189ff"},"vehicle_type_id":"4","last_reported":1767028202,"current_range_meters":11200,"station_id":"ce4bhh92rcd13ifvqfh0","pricing_plan_id":"cebpf4jnsgd1na2vs0mg"},{"bike_id":"ab07ab4d-8c00-4184-a952-35d08d673f0e","system_id":"levelo_inurba_marseille","lat":43.30767,"lon":5.43714,"is_reserved":false,"is_disabled":false,"rental_uris":{"android":"levelo://app?vid=ab07ab4d-8c00-4184-a952-35d08d673f0e","ios":"levelo://app?vid=ab07ab4d-8c00-4184-a952-35d08d673f0e"},"vehicle_type_id":"4","last_reported":1767028202,"current_range_meters":11200,"station_id":"","pricing_plan_id":"cebpf4jnsgd1na2vs0mg"},{"bike_id":"b388443f-e6d4-4125-a04a-5dae673a45a3","system_id":"levelo_inurba_marseille","lat":43.28469,"lon":5.38434,"is_reserved":false,"is_disabled":false,"rental_uris":{"android":"levelo://app?vid=b388443f-e6d4-4125-a04a-5dae673a45a3","ios":"levelo://app?vid=b388443f-e6d4-4125-a04a-5dae673a45a3"},"vehicle_type_id":"4","last_reported":1767028202,"current_range_meters":11200,"station_id":"ce4bh512rcd13ifvqe3g","pricing_plan_id":"cebpf4jnsgd1na2vs0mg"},{"bike_id":"606de0d0-916b-4997-bebb-8876b7ad168e","system_id":"levelo_inurba_marseille","lat":43.27984,"lon":5.38753,"is_reserved":false,"is_disabled":false,"rental_uris":{"android":"levelo://app?vid=606de0d0-916b-4997-bebb-8876b7ad168e","ios":"levelo://app?vid=606de0d0-916b-4997-bebb-8876b7ad168e"},"vehicle_type_id":"4","last_reported":1767028202,"current_range_meters":11200,"station_id":"ce4bhg12rcd13ifvqf80","pricing_plan_id":"cebpf4jnsgd1na2vs0mg"},{"bike_id":"51f79da2-bde2-492e-a11c-85c3b1d14a13","system_id":"levelo_inurba_marseille","lat":43.2378,"lon":5.36631,"is_reserved":false,"is_disabled":false,"rental_uris":{"android":"levelo://app?vid=51f79da2-bde2-492e-a11c-85c3b1d14a13","ios":"levelo://app?vid=51f79da2-bde2-492e-a11c-85c3b1d14a13"},"vehicle_type_id":"4","last_reported":1767028202,"current_range_meters":11200,"station_id":"st_d3nk18o9ro0c73en2l3g","pricing_plan_id":"cebpf4jnsgd1na2vs0mg"},{"bike_id":"462b231b-f853-44d8-a627-b8b5b88623a5","system_id":"levelo_inurba_marseille","lat":43.31489,"lon":5.3731,"is_reserved":false,"is_disabled":false,"rental_uris":{"android":"levelo://app?vid=462b231b-f853-44d8-a627-b8b5b88623a5","ios":"levelo://app?vid=462b231b-f853-44d8-a627-b8b5b88623a5"},"vehicle_type_id":"4","last_reported":1767028202,"current_range_meters":11200,"station_id":"ce4bgt12rcd13ifvqcd0","pricing_plan_id":"cebpf4jnsgd1na2vs0mg"},{"bike_id":"febe362e-858e-44c5-b4bb-e4a7c6160c6f","system_id":"levelo_inurba_marseille","lat":43.323493,"lon":5.367254,"is_reserved":false,"is_disabled":false,"rental_uris":{"android":"levelo://app?vid=febe362e-858e-44c5-b4bb-e4a7c6160c6f","ios":"levelo://app?vid=febe362e-858e-44c5-b4bb-e4a7c6160c6f"},"vehicle_type_id":"4","last_reported":1767028202,"current_range_meters":11600,"station_id":"ce4bhsh2rcd13ifvqi2g","pricing_plan_id":"cebpf4jnsgd1na2vs0mg"},{"bike_id":"9f035e6d-4716-4f35-9777-425cc5769f01","system_id":"levelo_inurba_marseille","lat":43.313574,"lon":5.367228,"is_reserved":false,"is_disabled":false,"rental_uris":{"android":"levelo://app?vid=9f035e6d-4716-4f35-9777-425cc5769f01","ios":"levelo://app?vid=9f035e6d-4716-4f35-9777-425cc5769f01"},"vehicle_type_id":"4","last_reported":1767028202,"current_range_meters":11600,"station_id":"ce4bgr92rcd13ifvqc6g","pricing_plan_id":"cebpf4jnsgd1na2vs0mg"},{"bike_id":"6430d914-0a21-4065-b1bd-22ff590b6d10","system_id":"levelo_inurba_marseille","lat":43.288618,"lon":5.425205,"is_reserved":false,"is_disabled":false,"rental_uris":{"android":"levelo://app?vid=6430d914-0a21-4065-b1bd-22ff590b6d10","ios":"levelo://app?vid=6430d914-0a21-4065-b1bd-22ff590b6d10"},"vehicle_type_id":"4","last_reported":1767028202,"current_range_meters":11600,"station_id":"st_d3b462108ojc7389ooeg","pricing_plan_id":"cebpf4jnsgd1na2vs0mg"},{"bike_id":"fc3e7d1f-6888-4dd5-ac43-c60ab216465e","system_id":"levelo_inurba_marseille","lat":43.24818,"lon":5.37452,"is_reserved":false,"is_disabled":false,"rental_uris":{"android":"levelo://app?vid=fc3e7d1f-6888-4dd5-ac43-c60ab216465e","ios":"levelo://app?vid=fc3e7d1f-6888-4dd5-ac43-c60ab216465e"},"vehicle_type_id":"4","last_reported":1767028202,"current_range_meters":11600,"station_id":"ce4bhgh2rcd13ifvqfb0","pricing_plan_id":"cebpf4jnsgd1na2vs0mg"},{"bike_id":"a436fad5-b090-433b-8e6f-6c645a18cdfb","system_id":"levelo_inurba_marseille","lat":43.24386,"lon":5.37051,"is_reserved":false,"is_disabled":false,"rental_uris":{"android":"levelo://app?vid=a436fad5-b090-433b-8e6f-6c645a18cdfb","ios":"levelo://app?vid=a436fad5-b090-433b-8e6f-6c645a18cdfb"},"vehicle_type_id":"4","last_reported":1767028202,"current_range_meters":11600,"station_id":"","pricing_plan_id":"cebpf4jnsgd1na2vs0mg"},{"bike_id":"12c38b32-5974-4311-910a-572392b8079a","system_id":"levelo_inurba_marseille","lat":43.28043,"lon":5.3509,"is_reserved":false,"is_disabled":false,"rental_uris":{"android":"levelo://app?vid=12c38b32-5974-4311-910a-572392b8079a","ios":"levelo://app?vid=12c38b32-5974-4311-910a-572392b8079a"},"vehicle_type_id":"4","last_reported":1767028202,"current_range_meters":11600,"station_id":"","pricing_plan_id":"cebpf4jnsgd1na2vs0mg"},{"bike_id":"f1411068-b09b-4667-92c7-1f093aee39a9","system_id":"levelo_inurba_marseille","lat":43.2955,"lon":5.43273,"is_reserved":false,"is_disabled":true,"rental_uris":{"android":"levelo://app?vid=f1411068-b09b-4667-92c7-1f093aee39a9","ios":"levelo://app?vid=f1411068-b09b-4667-92c7-1f093aee39a9"},"vehicle_type_id":"4","last_reported":1767028202,"current_range_meters":11600,"station_id":"st_d3j5ugp08ojc73fj9d10","pricing_plan_id":"cebpf4jnsgd1na2vs0mg"},{"bike_id":"9a43a5e8-9dd0-4ba0-b8c7-f97f6613ab07","system_id":"levelo_inurba_marseille","lat":43.2916,"lon":5.37159,"is_reserved":false,"is_disabled":false,"rental_uris":{"android":"levelo://app?vid=9a43a5e8-9dd0-4ba0-b8c7-f97f6613ab07","ios":"levelo://app?vid=9a43a5e8-9dd0-4ba0-b8c7-f97f6613ab07"},"vehicle_type_id":"4","last_reported":1767028202,"current_range_meters":11600,"station_id":"ce4bha92rcd13ifvqeh0","pricing_plan_id":"cebpf4jnsgd1na2vs0mg"},{"bike_id":"ae1b9423-a5b0-4421-80f5-23134313aff2","system_id":"levelo_inurba_marseille","lat":43.25575,"lon":5.38241,"is_reserved":false,"is_disabled":false,"rental_uris":{"android":"levelo://app?vid=ae1b9423-a5b0-4421-80f5-23134313aff2","ios":"levelo://app?vid=ae1b9423-a5b0-4421-80f5-23134313aff2"},"vehicle_type_id":"4","last_reported":1767028202,"current_range_meters":11600,"station_id":"ce4bhih2rcd13ifvqfs0","pricing_plan_id":"cebpf4jnsgd1na2vs0mg"},{"bike_id":"85f80c36-b01d-4148-8a0f-5ed00798dda8","system_id":"levelo_inurba_marseille","lat":43.30104,"lon":5.36478,"is_reserved":false,"is_disabled":false,"rental_uris":{"android":"levelo://app?vid=85f80c36-b01d-4148-8a0f-5ed00798dda8","ios":"levelo://app?vid=85f80c36-b01d-4148-8a0f-5ed00798dda8"},"vehicle_type_id":"4","last_reported":1767028202,"current_range_meters":11600,"station_id":"","pricing_plan_id":"cebpf4jnsgd1na2vs0mg"},{"bike_id":"9c1b57e1-addf-4919-93ed-023a6be78e08","system_id":"levelo_inurba_marseille","lat":43.269562,"lon":5.386351,"is_reserved":false,"is_disabled":false,"rental_uris":{"android":"levelo://app?vid=9c1b57e1-addf-4919-93ed-023a6be78e08","ios":"levelo://app?vid=9c1b57e1-addf-4919-93ed-023a6be78e08"},"vehicle_type_id":"4","last_reported":1767028202,"current_range_meters":11600,"station_id":"ce4bhh92rcd13ifvqfh0","pricing_plan_id":"cebpf4jnsgd1na2vs0mg"},{"bike_id":"8ed0aaee-94a4-4a16-a923-e8b24a7704a6","system_id":"levelo_inurba_marseille","lat":43.2887,"lon":5.4252,"is_reserved":false,"is_disabled":false,"rental_uris":{"android":"levelo://app?vid=8ed0aaee-94a4-4a16-a923-e8b24a7704a6","ios":"levelo://app?vid=8ed0aaee-94a4-4a16-a923-e8b24a7704a6"},"vehicle_type_id":"4","last_reported":1767028202,"current_range_meters":11600,"station_id":"st_d3b462108ojc7389ooeg","pricing_plan_id":"cebpf4jnsgd1na2vs0mg"},{"bike_id":"f696103b-2b2b-4509-b475-28746835ce9f","system_id":"levelo_inurba_marseille","lat":43.32482,"lon":5.36573,"is_reserved":false,"is_disabled":false,"rental_uris":{"android":"levelo://app?vid=f696103b-2b2b-4509-b475-28746835ce9f","ios":"levelo://app?vid=f696103b-2b2b-4509-b475-28746835ce9f"},"vehicle_type_id":"4","last_reported":1767028202,"current_range_meters":12000,"station_id":"ce4bhs12rcd13ifvqhvg","pricing_plan_id":"cebpf4jnsgd1na2vs0mg"},{"bike_id":"a893a6bf-47b5-4f7e-ab47-9fd8c9bb694b","system_id":"levelo_inurba_marseille","lat":43.271287,"lon":5.409405,"is_reserved":false,"is_disabled":false,"rental_uris":{"android":"levelo://app?vid=a893a6bf-47b5-4f7e-ab47-9fd8c9bb694b","ios":"levelo://app?vid=a893a6bf-47b5-4f7e-ab47-9fd8c9bb694b"},"vehicle_type_id":"4","last_reported":1767028202,"current_range_meters":12000,"station_id":"ce4bhl12rcd13ifvqgf0","pricing_plan_id":"cebpf4jnsgd1na2vs0mg"},{"bike_id":"9e3ed633-b6e5-488c-85c4-b2776340cd44","system_id":"levelo_inurba_marseille","lat":43.24656,"lon":5.38886,"is_reserved":false,"is_disabled":false,"rental_uris":{"android":"levelo://app?vid=9e3ed633-b6e5-488c-85c4-b2776340cd44","ios":"levelo://app?vid=9e3ed633-b6e5-488c-85c4-b2776340cd44"},"vehicle_type_id":"4","last_reported":1767028202,"current_range_meters":12000,"station_id":"ce4bhg12rcd13ifvqf60","pricing_plan_id":"cebpf4jnsgd1na2vs0mg"},{"bike_id":"8d9c3d03-7a3b-492c-ae8f-9af907d8f0e7","system_id":"levelo_inurba_marseille","lat":43.288471,"lon":5.393084,"is_reserved":false,"is_disabled":false,"rental_uris":{"android":"levelo://app?vid=8d9c3d03-7a3b-492c-ae8f-9af907d8f0e7","ios":"levelo://app?vid=8d9c3d03-7a3b-492c-ae8f-9af907d8f0e7"},"vehicle_type_id":"4","last_reported":1767028202,"current_range_meters":12000,"station_id":"ce4bh2p2rcd13ifvqdi0","pricing_plan_id":"cebpf4jnsgd1na2vs0mg"},{"bike_id":"ab5ff283-3066-474c-83ac-a53818040859","system_id":"levelo_inurba_marseille","lat":43.29532,"lon":5.39385,"is_reserved":false,"is_disabled":false,"rental_uris":{"android":"levelo://app?vid=ab5ff283-3066-474c-83ac-a53818040859","ios":"levelo://app?vid=ab5ff283-3066-474c-83ac-a53818040859"},"vehicle_type_id":"4","last_reported":1767028202,"current_range_meters":12000,"station_id":"ce4bh292rcd13ifvqdf0","pricing_plan_id":"cebpf4jnsgd1na2vs0mg"},{"bike_id":"c2aca74a-5a4d-48c1-b536-c69226ed830f","system_id":"levelo_inurba_marseille","lat":43.30649,"lon":5.38333,"is_reserved":false,"is_disabled":false,"rental_uris":{"android":"levelo://app?vid=c2aca74a-5a4d-48c1-b536-c69226ed830f","ios":"levelo://app?vid=c2aca74a-5a4d-48c1-b536-c69226ed830f"},"vehicle_type_id":"4","last_reported":1767028202,"current_range_meters":12000,"station_id":"","pricing_plan_id":"cebpf4jnsgd1na2vs0mg"},{"bike_id":"2059b758-0b4a-46e4-91ff-a166d0193a47","system_id":"levelo_inurba_marseille","lat":43.31375,"lon":5.36697,"is_reserved":false,"is_disabled":false,"rental_uris":{"android":"levelo://app?vid=2059b758-0b4a-46e4-91ff-a166d0193a47","ios":"levelo://app?vid=2059b758-0b4a-46e4-91ff-a166d0193a47"},"vehicle_type_id":"4","last_reported":1767028202,"current_range_meters":12000,"station_id":"ce4bgr92rcd13ifvqc6g","pricing_plan_id":"cebpf4jnsgd1na2vs0mg"},{"bike_id":"b827d20d-caad-435d-904a-f21201c03c25","system_id":"levelo_inurba_marseille","lat":43.24629,"lon":5.43144,"is_reserved":false,"is_disabled":false,"rental_uris":{"android":"levelo://app?vid=b827d20d-caad-435d-904a-f21201c03c25","ios":"levelo://app?vid=b827d20d-caad-435d-904a-f21201c03c25"},"vehicle_type_id":"4","last_reported":1767028202,"current_range_meters":12000,"station_id":"st_d2m6c4gdas8pm72e190g","pricing_plan_id":"cebpf4jnsgd1na2vs0mg"},{"bike_id":"433621e1-12cd-4d0c-b747-14612e74827b","system_id":"levelo_inurba_marseille","lat":43.217503,"lon":5.346013,"is_reserved":false,"is_disabled":false,"rental_uris":{"android":"levelo://app?vid=433621e1-12cd-4d0c-b747-14612e74827b","ios":"levelo://app?vid=433621e1-12cd-4d0c-b747-14612e74827b"},"vehicle_type_id":"4","last_reported":1767028202,"current_range_meters":12400,"station_id":"st_cvj6r9ubvosntc0bgbag","pricing_plan_id":"cebpf4jnsgd1na2vs0mg"},{"bike_id":"647c60e8-e0c0-4a68-b1aa-4cb96225386c","system_id":"levelo_inurba_marseille","lat":43.28003,"lon":5.39993,"is_reserved":false,"is_disabled":false,"rental_uris":{"android":"levelo://app?vid=647c60e8-e0c0-4a68-b1aa-4cb96225386c","ios":"levelo://app?vid=647c60e8-e0c0-4a68-b1aa-4cb96225386c"},"vehicle_type_id":"4","last_reported":1767028202,"current_range_meters":12400,"station_id":"ce4bho92rcd13ifvqh4g","pricing_plan_id":"cebpf4jnsgd1na2vs0mg"},{"bike_id":"53d5e8c9-2653-43c3-af86-803b0eacfa38","system_id":"levelo_inurba_marseille","lat":43.3089,"lon":5.37212,"is_reserved":false,"is_disabled":false,"rental_uris":{"android":"levelo://app?vid=53d5e8c9-2653-43c3-af86-803b0eacfa38","ios":"levelo://app?vid=53d5e8c9-2653-43c3-af86-803b0eacfa38"},"vehicle_type_id":"4","last_reported":1767028202,"current_range_meters":12400,"station_id":"ce4bguh2rcd13ifvqckg","pricing_plan_id":"cebpf4jnsgd1na2vs0mg"},{"bike_id":"55ec7e8b-6b2a-4530-bad9-3cd7350b93b7","system_id":"levelo_inurba_marseille","lat":43.3215,"lon":5.38434,"is_reserved":false,"is_disabled":false,"rental_uris":{"android":"levelo://app?vid=55ec7e8b-6b2a-4530-bad9-3cd7350b93b7","ios":"levelo://app?vid=55ec7e8b-6b2a-4530-bad9-3cd7350b93b7"},"vehicle_type_id":"4","last_reported":1767028202,"current_range_meters":12400,"station_id":"","pricing_plan_id":"cebpf4jnsgd1na2vs0mg"},{"bike_id":"525a7ee9-25bc-420a-883c-744f047707a6","system_id":"levelo_inurba_marseille","lat":43.30305,"lon":5.39206,"is_reserved":false,"is_disabled":false,"rental_uris":{"android":"levelo://app?vid=525a7ee9-25bc-420a-883c-744f047707a6","ios":"levelo://app?vid=525a7ee9-25bc-420a-883c-744f047707a6"},"vehicle_type_id":"4","last_reported":1767028202,"current_range_meters":12400,"station_id":"ce4bgkh2rcd13ifvqbk0","pricing_plan_id":"cebpf4jnsgd1na2vs0mg"},{"bike_id":"8cd8286c-2dd8-41ad-b181-1afd615d6e0d","system_id":"levelo_inurba_marseille","lat":43.28533,"lon":5.38363,"is_reserved":false,"is_disabled":false,"rental_uris":{"android":"levelo://app?vid=8cd8286c-2dd8-41ad-b181-1afd615d6e0d","ios":"levelo://app?vid=8cd8286c-2dd8-41ad-b181-1afd615d6e0d"},"vehicle_type_id":"4","last_reported":1767028202,"current_range_meters":12800,"station_id":"","pricing_plan_id":"cebpf4jnsgd1na2vs0mg"},{"bike_id":"6ecd2bc8-2198-43a9-a7e6-37dd5d541656","system_id":"levelo_inurba_marseille","lat":43.331591,"lon":5.376969,"is_reserved":false,"is_disabled":false,"rental_uris":{"android":"levelo://app?vid=6ecd2bc8-2198-43a9-a7e6-37dd5d541656","ios":"levelo://app?vid=6ecd2bc8-2198-43a9-a7e6-37dd5d541656"},"vehicle_type_id":"4","last_reported":1767028202,"current_range_meters":12800,"station_id":"st_d46cu089ee8s73dldbu0","pricing_plan_id":"cebpf4jnsgd1na2vs0mg"},{"bike_id":"3745e737-5737-4541-ab05-7d881133f68f","system_id":"levelo_inurba_marseille","lat":43.27961,"lon":5.39954,"is_reserved":false,"is_disabled":false,"rental_uris":{"android":"levelo://app?vid=3745e737-5737-4541-ab05-7d881133f68f","ios":"levelo://app?vid=3745e737-5737-4541-ab05-7d881133f68f"},"vehicle_type_id":"4","last_reported":1767028202,"current_range_meters":12800,"station_id":"","pricing_plan_id":"cebpf4jnsgd1na2vs0mg"},{"bike_id":"928b015a-7167-4e24-8c0a-0c323d75b19b","system_id":"levelo_inurba_marseille","lat":43.284807,"lon":5.384467,"is_reserved":false,"is_disabled":false,"rental_uris":{"android":"levelo://app?vid=928b015a-7167-4e24-8c0a-0c323d75b19b","ios":"levelo://app?vid=928b015a-7167-4e24-8c0a-0c323d75b19b"},"vehicle_type_id":"4","last_reported":1767028202,"current_range_meters":12800,"station_id":"ce4bh512rcd13ifvqe3g","pricing_plan_id":"cebpf4jnsgd1na2vs0mg"},{"bike_id":"72959de9-92e6-4658-a570-672fd05f73d3","system_id":"levelo_inurba_marseille","lat":43.32384,"lon":5.36692,"is_reserved":false,"is_disabled":false,"rental_uris":{"android":"levelo://app?vid=72959de9-92e6-4658-a570-672fd05f73d3","ios":"levelo://app?vid=72959de9-92e6-4658-a570-672fd05f73d3"},"vehicle_type_id":"4","last_reported":1767028202,"current_range_meters":12800,"station_id":"","pricing_plan_id":"cebpf4jnsgd1na2vs0mg"},{"bike_id":"ef68c7b4-bf69-4575-8451-3aa7bbb169cc","system_id":"levelo_inurba_marseille","lat":43.29788,"lon":5.38092,"is_reserved":false,"is_disabled":false,"rental_uris":{"android":"levelo://app?vid=ef68c7b4-bf69-4575-8451-3aa7bbb169cc","ios":"levelo://app?vid=ef68c7b4-bf69-4575-8451-3aa7bbb169cc"},"vehicle_type_id":"4","last_reported":1767028202,"current_range_meters":12800,"station_id":"ce4bgip2rcd13ifvqbb0","pricing_plan_id":"cebpf4jnsgd1na2vs0mg"},{"bike_id":"dcfc1520-f522-433e-983e-1a0afb338473","system_id":"levelo_inurba_marseille","lat":43.32908,"lon":5.40016,"is_reserved":false,"is_disabled":false,"rental_uris":{"android":"levelo://app?vid=dcfc1520-f522-433e-983e-1a0afb338473","ios":"levelo://app?vid=dcfc1520-f522-433e-983e-1a0afb338473"},"vehicle_type_id":"4","last_reported":1767028202,"current_range_meters":12800,"station_id":"","pricing_plan_id":"cebpf4jnsgd1na2vs0mg"},{"bike_id":"d114c0ea-e911-4e32-951c-297f7234df83","system_id":"levelo_inurba_marseille","lat":43.312484,"lon":5.368285,"is_reserved":false,"is_disabled":false,"rental_uris":{"android":"levelo://app?vid=d114c0ea-e911-4e32-951c-297f7234df83","ios":"levelo://app?vid=d114c0ea-e911-4e32-951c-297f7234df83"},"vehicle_type_id":"4","last_reported":1767028202,"current_range_meters":12800,"station_id":"ce4bgl92rcd13ifvqbq0","pricing_plan_id":"cebpf4jnsgd1na2vs0mg"},{"bike_id":"a328230a-36ad-4de6-beec-cfa2771f0f29","system_id":"levelo_inurba_marseille","lat":43.28654,"lon":5.36352,"is_reserved":false,"is_disabled":false,"rental_uris":{"android":"levelo://app?vid=a328230a-36ad-4de6-beec-cfa2771f0f29","ios":"levelo://app?vid=a328230a-36ad-4de6-beec-cfa2771f0f29"},"vehicle_type_id":"4","last_reported":1767028202,"current_range_meters":12800,"station_id":"ce4bhah2rcd13ifvqej0","pricing_plan_id":"cebpf4jnsgd1na2vs0mg"},{"bike_id":"c9fdc383-a829-4246-be37-a41d66e9e351","system_id":"levelo_inurba_marseille","lat":43.31912,"lon":5.37352,"is_reserved":false,"is_disabled":false,"rental_uris":{"android":"levelo://app?vid=c9fdc383-a829-4246-be37-a41d66e9e351","ios":"levelo://app?vid=c9fdc383-a829-4246-be37-a41d66e9e351"},"vehicle_type_id":"4","last_reported":1767028202,"current_range_meters":12800,"station_id":"","pricing_plan_id":"cebpf4jnsgd1na2vs0mg"},{"bike_id":"8ca27a88-dc4c-4c28-abc9-3ec58d9128d4","system_id":"levelo_inurba_marseille","lat":43.285902,"lon":5.392791,"is_reserved":false,"is_disabled":false,"rental_uris":{"android":"levelo://app?vid=8ca27a88-dc4c-4c28-abc9-3ec58d9128d4","ios":"levelo://app?vid=8ca27a88-dc4c-4c28-abc9-3ec58d9128d4"},"vehicle_type_id":"4","last_reported":1767028202,"current_range_meters":12800,"station_id":"ce4bhoh2rcd13ifvqh5g","pricing_plan_id":"cebpf4jnsgd1na2vs0mg"},{"bike_id":"2ec787e6-1b50-46dc-af87-f3b796416fae","system_id":"levelo_inurba_marseille","lat":43.27971,"lon":5.38741,"is_reserved":false,"is_disabled":false,"rental_uris":{"android":"levelo://app?vid=2ec787e6-1b50-46dc-af87-f3b796416fae","ios":"levelo://app?vid=2ec787e6-1b50-46dc-af87-f3b796416fae"},"vehicle_type_id":"4","last_reported":1767028202,"current_range_meters":12800,"station_id":"ce4bhg12rcd13ifvqf80","pricing_plan_id":"cebpf4jnsgd1na2vs0mg"},{"bike_id":"bac2109d-15df-4d0e-bae2-d33bd1ac452e","system_id":"levelo_inurba_marseille","lat":43.29975,"lon":5.37168,"is_reserved":false,"is_disabled":false,"rental_uris":{"android":"levelo://app?vid=bac2109d-15df-4d0e-bae2-d33bd1ac452e","ios":"levelo://app?vid=bac2109d-15df-4d0e-bae2-d33bd1ac452e"},"vehicle_type_id":"4","last_reported":1767028202,"current_range_meters":13600,"station_id":"ce4bgr92rcd13ifvqc7g","pricing_plan_id":"cebpf4jnsgd1na2vs0mg"},{"bike_id":"dab86601-1d82-4518-931a-8a2c43c571b8","system_id":"levelo_inurba_marseille","lat":43.29605,"lon":5.37718,"is_reserved":false,"is_disabled":false,"rental_uris":{"android":"levelo://app?vid=dab86601-1d82-4518-931a-8a2c43c571b8","ios":"levelo://app?vid=dab86601-1d82-4518-931a-8a2c43c571b8"},"vehicle_type_id":"4","last_reported":1767028202,"current_range_meters":13600,"station_id":"ce4bgi92rcd13ifvqb90","pricing_plan_id":"cebpf4jnsgd1na2vs0mg"},{"bike_id":"df08bb70-73d1-4c47-bc2c-42752eed70dd","system_id":"levelo_inurba_marseille","lat":43.2919,"lon":5.39305,"is_reserved":false,"is_disabled":false,"rental_uris":{"android":"levelo://app?vid=df08bb70-73d1-4c47-bc2c-42752eed70dd","ios":"levelo://app?vid=df08bb70-73d1-4c47-bc2c-42752eed70dd"},"vehicle_type_id":"4","last_reported":1767028202,"current_range_meters":13600,"station_id":"ce4bh192rcd13ifvqdd0","pricing_plan_id":"cebpf4jnsgd1na2vs0mg"},{"bike_id":"c9919d2f-cba1-49ac-9835-b75223d0abd0","system_id":"levelo_inurba_marseille","lat":43.32037,"lon":5.41552,"is_reserved":false,"is_disabled":false,"rental_uris":{"android":"levelo://app?vid=c9919d2f-cba1-49ac-9835-b75223d0abd0","ios":"levelo://app?vid=c9919d2f-cba1-49ac-9835-b75223d0abd0"},"vehicle_type_id":"4","last_reported":1767028202,"current_range_meters":13600,"station_id":"ce4bhq92rcd13ifvqhkg","pricing_plan_id":"cebpf4jnsgd1na2vs0mg"},{"bike_id":"2c46c7a5-389f-47fc-8086-ed2504307f23","system_id":"levelo_inurba_marseille","lat":43.27953,"lon":5.4104,"is_reserved":false,"is_disabled":false,"rental_uris":{"android":"levelo://app?vid=2c46c7a5-389f-47fc-8086-ed2504307f23","ios":"levelo://app?vid=2c46c7a5-389f-47fc-8086-ed2504307f23"},"vehicle_type_id":"4","last_reported":1767028202,"current_range_meters":13600,"station_id":"ce4bhnp2rcd13ifvqh0g","pricing_plan_id":"cebpf4jnsgd1na2vs0mg"},{"bike_id":"1dd2c077-d7fa-43b2-a55d-f6335f7bc478","system_id":"levelo_inurba_marseille","lat":43.29671,"lon":5.37303,"is_reserved":false,"is_disabled":false,"rental_uris":{"android":"levelo://app?vid=1dd2c077-d7fa-43b2-a55d-f6335f7bc478","ios":"levelo://app?vid=1dd2c077-d7fa-43b2-a55d-f6335f7bc478"},"vehicle_type_id":"4","last_reported":1767028202,"current_range_meters":13600,"station_id":"ce4bgk12rcd13ifvqbj0","pricing_plan_id":"cebpf4jnsgd1na2vs0mg"},{"bike_id":"c229d242-44dd-423a-80bd-d6e731d6624d","system_id":"levelo_inurba_marseille","lat":43.29009,"lon":5.3761,"is_reserved":false,"is_disabled":false,"rental_uris":{"android":"levelo://app?vid=c229d242-44dd-423a-80bd-d6e731d6624d","ios":"levelo://app?vid=c229d242-44dd-423a-80bd-d6e731d6624d"},"vehicle_type_id":"4","last_reported":1767028202,"current_range_meters":13600,"station_id":"ce4bh692rcd13ifvqe90","pricing_plan_id":"cebpf4jnsgd1na2vs0mg"},{"bike_id":"b6645d2c-5f1c-4c53-921f-bbde10b6af88","system_id":"levelo_inurba_marseille","lat":43.298097,"lon":5.440647,"is_reserved":false,"is_disabled":false,"rental_uris":{"android":"levelo://app?vid=b6645d2c-5f1c-4c53-921f-bbde10b6af88","ios":"levelo://app?vid=b6645d2c-5f1c-4c53-921f-bbde10b6af88"},"vehicle_type_id":"4","last_reported":1767028202,"current_range_meters":13600,"station_id":"st_d3jp68qikq2c7381ktn0","pricing_plan_id":"cebpf4jnsgd1na2vs0mg"},{"bike_id":"1f986bde-e823-4547-a8eb-43be952db802","system_id":"levelo_inurba_marseille","lat":43.29442,"lon":5.37288,"is_reserved":false,"is_disabled":false,"rental_uris":{"android":"levelo://app?vid=1f986bde-e823-4547-a8eb-43be952db802","ios":"levelo://app?vid=1f986bde-e823-4547-a8eb-43be952db802"},"vehicle_type_id":"4","last_reported":1767028202,"current_range_meters":13600,"station_id":"","pricing_plan_id":"cebpf4jnsgd1na2vs0mg"},{"bike_id":"d074fc92-cad8-46a4-9c3a-60454fdaaf67","system_id":"levelo_inurba_marseille","lat":43.29702,"lon":5.37728,"is_reserved":false,"is_disabled":false,"rental_uris":{"android":"levelo://app?vid=d074fc92-cad8-46a4-9c3a-60454fdaaf67","ios":"levelo://app?vid=d074fc92-cad8-46a4-9c3a-60454fdaaf67"},"vehicle_type_id":"4","last_reported":1767028202,"current_range_meters":13600,"station_id":"ce4bgkh2rcd13ifvqbl0","pricing_plan_id":"cebpf4jnsgd1na2vs0mg"},{"bike_id":"d9f297ef-8bc9-4378-beac-d89daa3a39c7","system_id":"levelo_inurba_marseille","lat":43.265933,"lon":5.372734,"is_reserved":false,"is_disabled":false,"rental_uris":{"android":"levelo://app?vid=d9f297ef-8bc9-4378-beac-d89daa3a39c7","ios":"levelo://app?vid=d9f297ef-8bc9-4378-beac-d89daa3a39c7"},"vehicle_type_id":"4","last_reported":1767028202,"current_range_meters":13600,"station_id":"","pricing_plan_id":"cebpf4jnsgd1na2vs0mg"},{"bike_id":"301a723d-2238-4088-97aa-fd8abf463428","system_id":"levelo_inurba_marseille","lat":43.33544,"lon":5.37443,"is_reserved":false,"is_disabled":false,"rental_uris":{"android":"levelo://app?vid=301a723d-2238-4088-97aa-fd8abf463428","ios":"levelo://app?vid=301a723d-2238-4088-97aa-fd8abf463428"},"vehicle_type_id":"4","last_reported":1767028202,"current_range_meters":14000,"station_id":"st_d46tts09ee8s73dlu43g","pricing_plan_id":"cebpf4jnsgd1na2vs0mg"},{"bike_id":"b05640fc-cf78-4e6b-bafb-c8aa2abc6f80","system_id":"levelo_inurba_marseille","lat":43.273975,"lon":5.390468,"is_reserved":false,"is_disabled":false,"rental_uris":{"android":"levelo://app?vid=b05640fc-cf78-4e6b-bafb-c8aa2abc6f80","ios":"levelo://app?vid=b05640fc-cf78-4e6b-bafb-c8aa2abc6f80"},"vehicle_type_id":"4","last_reported":1767028202,"current_range_meters":14000,"station_id":"","pricing_plan_id":"cebpf4jnsgd1na2vs0mg"},{"bike_id":"fba1f137-050d-4191-be01-080eca4ccfdf","system_id":"levelo_inurba_marseille","lat":43.30912,"lon":5.396334,"is_reserved":false,"is_disabled":false,"rental_uris":{"android":"levelo://app?vid=fba1f137-050d-4191-be01-080eca4ccfdf","ios":"levelo://app?vid=fba1f137-050d-4191-be01-080eca4ccfdf"},"vehicle_type_id":"4","last_reported":1767028202,"current_range_meters":14000,"station_id":"ce4bh012rcd13ifvqcv0","pricing_plan_id":"cebpf4jnsgd1na2vs0mg"},{"bike_id":"248a03b6-5cb4-4aa2-8baa-dda3195e836a","system_id":"levelo_inurba_marseille","lat":43.26471,"lon":5.39548,"is_reserved":false,"is_disabled":false,"rental_uris":{"android":"levelo://app?vid=248a03b6-5cb4-4aa2-8baa-dda3195e836a","ios":"levelo://app?vid=248a03b6-5cb4-4aa2-8baa-dda3195e836a"},"vehicle_type_id":"4","last_reported":1767028202,"current_range_meters":14000,"station_id":"ce4bhi12rcd13ifvqfq0","pricing_plan_id":"cebpf4jnsgd1na2vs0mg"},{"bike_id":"e4aa6994-89a6-4c8e-a767-c9aeb68afc75","system_id":"levelo_inurba_marseille","lat":43.28727,"lon":5.36104,"is_reserved":false,"is_disabled":false,"rental_uris":{"android":"levelo://app?vid=e4aa6994-89a6-4c8e-a767-c9aeb68afc75","ios":"levelo://app?vid=e4aa6994-89a6-4c8e-a767-c9aeb68afc75"},"vehicle_type_id":"4","last_reported":1767028202,"current_range_meters":14000,"station_id":"cki0cbj6b192h4jlfktg","pricing_plan_id":"cebpf4jnsgd1na2vs0mg"},{"bike_id":"f9bf2b61-0b24-4018-a181-ecc22a139f07","system_id":"levelo_inurba_marseille","lat":43.30909,"lon":5.36837,"is_reserved":false,"is_disabled":false,"rental_uris":{"android":"levelo://app?vid=f9bf2b61-0b24-4018-a181-ecc22a139f07","ios":"levelo://app?vid=f9bf2b61-0b24-4018-a181-ecc22a139f07"},"vehicle_type_id":"4","last_reported":1767028202,"current_range_meters":14000,"station_id":"ce4bgn92rcd13ifvqbvg","pricing_plan_id":"cebpf4jnsgd1na2vs0mg"},{"bike_id":"a46d4916-8ea4-40d1-8b76-f9d1d82c66e3","system_id":"levelo_inurba_marseille","lat":43.29378,"lon":5.37839,"is_reserved":false,"is_disabled":false,"rental_uris":{"android":"levelo://app?vid=a46d4916-8ea4-40d1-8b76-f9d1d82c66e3","ios":"levelo://app?vid=a46d4916-8ea4-40d1-8b76-f9d1d82c66e3"},"vehicle_type_id":"4","last_reported":1767028202,"current_range_meters":14000,"station_id":"ce4bgvp2rcd13ifvqcu0","pricing_plan_id":"cebpf4jnsgd1na2vs0mg"},{"bike_id":"e54d4104-9e89-4bb8-b60e-d3755b992e4f","system_id":"levelo_inurba_marseille","lat":43.28524,"lon":5.44088,"is_reserved":false,"is_disabled":false,"rental_uris":{"android":"levelo://app?vid=e54d4104-9e89-4bb8-b60e-d3755b992e4f","ios":"levelo://app?vid=e54d4104-9e89-4bb8-b60e-d3755b992e4f"},"vehicle_type_id":"4","last_reported":1767028202,"current_range_meters":14000,"station_id":"st_d3j3df2ikq2c7380ej80","pricing_plan_id":"cebpf4jnsgd1na2vs0mg"},{"bike_id":"8e7f2144-ded3-4aa3-b98e-b9226760d292","system_id":"levelo_inurba_marseille","lat":43.2509,"lon":5.39519,"is_reserved":false,"is_disabled":false,"rental_uris":{"android":"levelo://app?vid=8e7f2144-ded3-4aa3-b98e-b9226760d292","ios":"levelo://app?vid=8e7f2144-ded3-4aa3-b98e-b9226760d292"},"vehicle_type_id":"4","last_reported":1767028202,"current_range_meters":14000,"station_id":"ce4bhm12rcd13ifvqgkg","pricing_plan_id":"cebpf4jnsgd1na2vs0mg"},{"bike_id":"6338b996-80b0-4dcb-9069-5e1cac42e071","system_id":"levelo_inurba_marseille","lat":43.30473,"lon":5.379,"is_reserved":false,"is_disabled":false,"rental_uris":{"android":"levelo://app?vid=6338b996-80b0-4dcb-9069-5e1cac42e071","ios":"levelo://app?vid=6338b996-80b0-4dcb-9069-5e1cac42e071"},"vehicle_type_id":"4","last_reported":1767028202,"current_range_meters":14400,"station_id":"ce4bgup2rcd13ifvqcn0","pricing_plan_id":"cebpf4jnsgd1na2vs0mg"},{"bike_id":"01cbb8d5-170b-46a8-8e8e-7d25f92ca46d","system_id":"levelo_inurba_marseille","lat":43.29291,"lon":5.37144,"is_reserved":false,"is_disabled":false,"rental_uris":{"android":"levelo://app?vid=01cbb8d5-170b-46a8-8e8e-7d25f92ca46d","ios":"levelo://app?vid=01cbb8d5-170b-46a8-8e8e-7d25f92ca46d"},"vehicle_type_id":"4","last_reported":1767028202,"current_range_meters":14400,"station_id":"ce4bgh92rcd13ifvqb40","pricing_plan_id":"cebpf4jnsgd1na2vs0mg"},{"bike_id":"1bf9af3e-5825-4028-b5fa-3733a35fec46","system_id":"levelo_inurba_marseille","lat":43.27055,"lon":5.38299,"is_reserved":false,"is_disabled":false,"rental_uris":{"android":"levelo://app?vid=1bf9af3e-5825-4028-b5fa-3733a35fec46","ios":"levelo://app?vid=1bf9af3e-5825-4028-b5fa-3733a35fec46"},"vehicle_type_id":"4","last_reported":1767028202,"current_range_meters":14400,"station_id":"st_d3n2fo6cfp8s73cte1j0","pricing_plan_id":"cebpf4jnsgd1na2vs0mg"},{"bike_id":"ea654126-b261-4e17-b27a-46816b405b40","system_id":"levelo_inurba_marseille","lat":43.26929,"lon":5.38914,"is_reserved":false,"is_disabled":false,"rental_uris":{"android":"levelo://app?vid=ea654126-b261-4e17-b27a-46816b405b40","ios":"levelo://app?vid=ea654126-b261-4e17-b27a-46816b405b40"},"vehicle_type_id":"4","last_reported":1767028202,"current_range_meters":14400,"station_id":"ce4bhhh2rcd13ifvqfl0","pricing_plan_id":"cebpf4jnsgd1na2vs0mg"},{"bike_id":"69a9232f-0c10-42f3-951d-98f9e1d93fde","system_id":"levelo_inurba_marseille","lat":43.29737,"lon":5.37685,"is_reserved":false,"is_disabled":false,"rental_uris":{"android":"levelo://app?vid=69a9232f-0c10-42f3-951d-98f9e1d93fde","ios":"levelo://app?vid=69a9232f-0c10-42f3-951d-98f9e1d93fde"},"vehicle_type_id":"4","last_reported":1767028202,"current_range_meters":14400,"station_id":"ce4bgkh2rcd13ifvqbl0","pricing_plan_id":"cebpf4jnsgd1na2vs0mg"},{"bike_id":"6dd6d7de-0746-4ddc-be8f-e1ab3378009e","system_id":"levelo_inurba_marseille","lat":43.2417,"lon":5.364002,"is_reserved":false,"is_disabled":true,"rental_uris":{"android":"levelo://app?vid=6dd6d7de-0746-4ddc-be8f-e1ab3378009e","ios":"levelo://app?vid=6dd6d7de-0746-4ddc-be8f-e1ab3378009e"},"vehicle_type_id":"4","last_reported":1767028202,"current_range_meters":14400,"station_id":"cpo36qri1sfpv3e86is0","pricing_plan_id":"cebpf4jnsgd1na2vs0mg"},{"bike_id":"cf3c81cf-aace-4f48-8df1-352bf02cf81f","system_id":"levelo_inurba_marseille","lat":43.27203,"lon":5.39199,"is_reserved":false,"is_disabled":false,"rental_uris":{"android":"levelo://app?vid=cf3c81cf-aace-4f48-8df1-352bf02cf81f","ios":"levelo://app?vid=cf3c81cf-aace-4f48-8df1-352bf02cf81f"},"vehicle_type_id":"4","last_reported":1767028202,"current_range_meters":14400,"station_id":"ce4bhhp2rcd13ifvqfm0","pricing_plan_id":"cebpf4jnsgd1na2vs0mg"},{"bike_id":"9cbafe5c-4c46-41e3-964f-df64637714a1","system_id":"levelo_inurba_marseille","lat":43.28461,"lon":5.35878,"is_reserved":false,"is_disabled":false,"rental_uris":{"android":"levelo://app?vid=9cbafe5c-4c46-41e3-964f-df64637714a1","ios":"levelo://app?vid=9cbafe5c-4c46-41e3-964f-df64637714a1"},"vehicle_type_id":"4","last_reported":1767028202,"current_range_meters":14400,"station_id":"ce4bhah2rcd13ifvqei0","pricing_plan_id":"cebpf4jnsgd1na2vs0mg"},{"bike_id":"ca3581d6-fee4-4214-9c28-b0f10b0129b5","system_id":"levelo_inurba_marseille","lat":43.22934,"lon":5.35376,"is_reserved":false,"is_disabled":false,"rental_uris":{"android":"levelo://app?vid=ca3581d6-fee4-4214-9c28-b0f10b0129b5","ios":"levelo://app?vid=ca3581d6-fee4-4214-9c28-b0f10b0129b5"},"vehicle_type_id":"4","last_reported":1767028202,"current_range_meters":14400,"station_id":"cpo3532slgdg3j2ikp40","pricing_plan_id":"cebpf4jnsgd1na2vs0mg"},{"bike_id":"59aab69d-aa14-4a71-8d9b-0aa143ba58f2","system_id":"levelo_inurba_marseille","lat":43.28525,"lon":5.44065,"is_reserved":false,"is_disabled":true,"rental_uris":{"android":"levelo://app?vid=59aab69d-aa14-4a71-8d9b-0aa143ba58f2","ios":"levelo://app?vid=59aab69d-aa14-4a71-8d9b-0aa143ba58f2"},"vehicle_type_id":"4","last_reported":1767028202,"current_range_meters":14400,"station_id":"st_d3j3df2ikq2c7380ej80","pricing_plan_id":"cebpf4jnsgd1na2vs0mg"},{"bike_id":"a05e7d78-2c9b-49e3-91e3-b64d93268a6f","system_id":"levelo_inurba_marseille","lat":43.29788,"lon":5.39348,"is_reserved":false,"is_disabled":false,"rental_uris":{"android":"levelo://app?vid=a05e7d78-2c9b-49e3-91e3-b64d93268a6f","ios":"levelo://app?vid=a05e7d78-2c9b-49e3-91e3-b64d93268a6f"},"vehicle_type_id":"4","last_reported":1767028202,"current_range_meters":14400,"station_id":"chh1huq6cuj3fo74tm60","pricing_plan_id":"cebpf4jnsgd1na2vs0mg"},{"bike_id":"26fcc9de-a3f4-4b18-a853-822b3fde5b4a","system_id":"levelo_inurba_marseille","lat":43.32722,"lon":5.39248,"is_reserved":false,"is_disabled":false,"rental_uris":{"android":"levelo://app?vid=26fcc9de-a3f4-4b18-a853-822b3fde5b4a","ios":"levelo://app?vid=26fcc9de-a3f4-4b18-a853-822b3fde5b4a"},"vehicle_type_id":"4","last_reported":1767028202,"current_range_meters":14400,"station_id":"","pricing_plan_id":"cebpf4jnsgd1na2vs0mg"},{"bike_id":"2703b803-944c-4f90-b5fc-f9ddd565456b","system_id":"levelo_inurba_marseille","lat":43.27935,"lon":5.39547,"is_reserved":false,"is_disabled":true,"rental_uris":{"android":"levelo://app?vid=2703b803-944c-4f90-b5fc-f9ddd565456b","ios":"levelo://app?vid=2703b803-944c-4f90-b5fc-f9ddd565456b"},"vehicle_type_id":"4","last_reported":1767028202,"current_range_meters":14800,"station_id":"ce4bhf92rcd13ifvqf40","pricing_plan_id":"cebpf4jnsgd1na2vs0mg"},{"bike_id":"5401de85-2150-40d3-a790-950b4a025395","system_id":"levelo_inurba_marseille","lat":43.33542,"lon":5.37447,"is_reserved":false,"is_disabled":false,"rental_uris":{"android":"levelo://app?vid=5401de85-2150-40d3-a790-950b4a025395","ios":"levelo://app?vid=5401de85-2150-40d3-a790-950b4a025395"},"vehicle_type_id":"4","last_reported":1767028202,"current_range_meters":14800,"station_id":"st_d46tts09ee8s73dlu43g","pricing_plan_id":"cebpf4jnsgd1na2vs0mg"},{"bike_id":"02e818d7-b252-45c2-ada4-86e500d8fb91","system_id":"levelo_inurba_marseille","lat":43.27958,"lon":5.41026,"is_reserved":false,"is_disabled":false,"rental_uris":{"android":"levelo://app?vid=02e818d7-b252-45c2-ada4-86e500d8fb91","ios":"levelo://app?vid=02e818d7-b252-45c2-ada4-86e500d8fb91"},"vehicle_type_id":"4","last_reported":1767028202,"current_range_meters":14800,"station_id":"ce4bhnp2rcd13ifvqh0g","pricing_plan_id":"cebpf4jnsgd1na2vs0mg"},{"bike_id":"15641c49-c5e3-4b36-ae17-88905d878885","system_id":"levelo_inurba_marseille","lat":43.24999,"lon":5.3893,"is_reserved":false,"is_disabled":false,"rental_uris":{"android":"levelo://app?vid=15641c49-c5e3-4b36-ae17-88905d878885","ios":"levelo://app?vid=15641c49-c5e3-4b36-ae17-88905d878885"},"vehicle_type_id":"4","last_reported":1767028202,"current_range_meters":14800,"station_id":"ce4bhgp2rcd13ifvqfd0","pricing_plan_id":"cebpf4jnsgd1na2vs0mg"},{"bike_id":"c51301be-aa87-4830-8cdc-99d533c9e895","system_id":"levelo_inurba_marseille","lat":43.28038,"lon":5.36944,"is_reserved":false,"is_disabled":false,"rental_uris":{"android":"levelo://app?vid=c51301be-aa87-4830-8cdc-99d533c9e895","ios":"levelo://app?vid=c51301be-aa87-4830-8cdc-99d533c9e895"},"vehicle_type_id":"4","last_reported":1767028202,"current_range_meters":14800,"station_id":"ce4bha12rcd13ifvqef0","pricing_plan_id":"cebpf4jnsgd1na2vs0mg"},{"bike_id":"b5778f45-e52c-41e9-a296-8d381c9a7cfc","system_id":"levelo_inurba_marseille","lat":43.29974,"lon":5.37176,"is_reserved":false,"is_disabled":false,"rental_uris":{"android":"levelo://app?vid=b5778f45-e52c-41e9-a296-8d381c9a7cfc","ios":"levelo://app?vid=b5778f45-e52c-41e9-a296-8d381c9a7cfc"},"vehicle_type_id":"4","last_reported":1767028202,"current_range_meters":14800,"station_id":"ce4bgr92rcd13ifvqc7g","pricing_plan_id":"cebpf4jnsgd1na2vs0mg"},{"bike_id":"1756bd8d-a2c4-41cd-85c6-586541aebd61","system_id":"levelo_inurba_marseille","lat":43.28418,"lon":5.39189,"is_reserved":false,"is_disabled":true,"rental_uris":{"android":"levelo://app?vid=1756bd8d-a2c4-41cd-85c6-586541aebd61","ios":"levelo://app?vid=1756bd8d-a2c4-41cd-85c6-586541aebd61"},"vehicle_type_id":"4","last_reported":1767028202,"current_range_meters":14800,"station_id":"ce4bhoh2rcd13ifvqh5g","pricing_plan_id":"cebpf4jnsgd1na2vs0mg"},{"bike_id":"fcba79f6-2cb4-496c-99a0-6adff6b0598a","system_id":"levelo_inurba_marseille","lat":43.293718,"lon":5.369727,"is_reserved":false,"is_disabled":false,"rental_uris":{"android":"levelo://app?vid=fcba79f6-2cb4-496c-99a0-6adff6b0598a","ios":"levelo://app?vid=fcba79f6-2cb4-496c-99a0-6adff6b0598a"},"vehicle_type_id":"4","last_reported":1767028202,"current_range_meters":14800,"station_id":"ce4bh3p2rcd13ifvqdq0","pricing_plan_id":"cebpf4jnsgd1na2vs0mg"},{"bike_id":"eb3800e0-9284-488e-87ce-997a8a8d0e54","system_id":"levelo_inurba_marseille","lat":43.32089,"lon":5.36798,"is_reserved":false,"is_disabled":false,"rental_uris":{"android":"levelo://app?vid=eb3800e0-9284-488e-87ce-997a8a8d0e54","ios":"levelo://app?vid=eb3800e0-9284-488e-87ce-997a8a8d0e54"},"vehicle_type_id":"4","last_reported":1767028202,"current_range_meters":14800,"station_id":"ce4bhrh2rcd13ifvqhug","pricing_plan_id":"cebpf4jnsgd1na2vs0mg"},{"bike_id":"c4ebcefb-1724-437b-b774-c8af95cba3ef","system_id":"levelo_inurba_marseille","lat":43.24807,"lon":5.37462,"is_reserved":false,"is_disabled":false,"rental_uris":{"android":"levelo://app?vid=c4ebcefb-1724-437b-b774-c8af95cba3ef","ios":"levelo://app?vid=c4ebcefb-1724-437b-b774-c8af95cba3ef"},"vehicle_type_id":"4","last_reported":1767028202,"current_range_meters":14800,"station_id":"ce4bhgh2rcd13ifvqfb0","pricing_plan_id":"cebpf4jnsgd1na2vs0mg"},{"bike_id":"ac22e188-d698-41a2-ab01-4c1844c8e7fd","system_id":"levelo_inurba_marseille","lat":43.32722,"lon":5.39243,"is_reserved":false,"is_disabled":false,"rental_uris":{"android":"levelo://app?vid=ac22e188-d698-41a2-ab01-4c1844c8e7fd","ios":"levelo://app?vid=ac22e188-d698-41a2-ab01-4c1844c8e7fd"},"vehicle_type_id":"4","last_reported":1767028202,"current_range_meters":14800,"station_id":"","pricing_plan_id":"cebpf4jnsgd1na2vs0mg"},{"bike_id":"2b062f89-833b-4703-97fb-d3392df9b3e2","system_id":"levelo_inurba_marseille","lat":43.24808,"lon":5.37451,"is_reserved":false,"is_disabled":false,"rental_uris":{"android":"levelo://app?vid=2b062f89-833b-4703-97fb-d3392df9b3e2","ios":"levelo://app?vid=2b062f89-833b-4703-97fb-d3392df9b3e2"},"vehicle_type_id":"4","last_reported":1767028202,"current_range_meters":14800,"station_id":"ce4bhgh2rcd13ifvqfb0","pricing_plan_id":"cebpf4jnsgd1na2vs0mg"},{"bike_id":"bf6369b9-a462-42a4-9878-d7395b7dd88e","system_id":"levelo_inurba_marseille","lat":43.29808,"lon":5.38066,"is_reserved":false,"is_disabled":false,"rental_uris":{"android":"levelo://app?vid=bf6369b9-a462-42a4-9878-d7395b7dd88e","ios":"levelo://app?vid=bf6369b9-a462-42a4-9878-d7395b7dd88e"},"vehicle_type_id":"4","last_reported":1767028202,"current_range_meters":15200,"station_id":"ce4bgip2rcd13ifvqbb0","pricing_plan_id":"cebpf4jnsgd1na2vs0mg"},{"bike_id":"cb481401-5fd8-4417-9c69-523c63da5ba8","system_id":"levelo_inurba_marseille","lat":43.29537,"lon":5.385515,"is_reserved":false,"is_disabled":false,"rental_uris":{"android":"levelo://app?vid=cb481401-5fd8-4417-9c69-523c63da5ba8","ios":"levelo://app?vid=cb481401-5fd8-4417-9c69-523c63da5ba8"},"vehicle_type_id":"4","last_reported":1767028202,"current_range_meters":15200,"station_id":"","pricing_plan_id":"cebpf4jnsgd1na2vs0mg"},{"bike_id":"35216096-d16e-4dc4-b635-fc1283f5b0c0","system_id":"levelo_inurba_marseille","lat":43.32112,"lon":5.36792,"is_reserved":false,"is_disabled":false,"rental_uris":{"android":"levelo://app?vid=35216096-d16e-4dc4-b635-fc1283f5b0c0","ios":"levelo://app?vid=35216096-d16e-4dc4-b635-fc1283f5b0c0"},"vehicle_type_id":"4","last_reported":1767028202,"current_range_meters":15200,"station_id":"ce4bhrh2rcd13ifvqhug","pricing_plan_id":"cebpf4jnsgd1na2vs0mg"},{"bike_id":"340a3ac6-dad2-42af-8a25-e2d4e06f50b3","system_id":"levelo_inurba_marseille","lat":43.303,"lon":5.392174,"is_reserved":false,"is_disabled":false,"rental_uris":{"android":"levelo://app?vid=340a3ac6-dad2-42af-8a25-e2d4e06f50b3","ios":"levelo://app?vid=340a3ac6-dad2-42af-8a25-e2d4e06f50b3"},"vehicle_type_id":"4","last_reported":1767028202,"current_range_meters":15200,"station_id":"ce4bgkh2rcd13ifvqbk0","pricing_plan_id":"cebpf4jnsgd1na2vs0mg"},{"bike_id":"256b0fae-cb64-466e-ae51-c270151a2991","system_id":"levelo_inurba_marseille","lat":43.28857,"lon":5.35838,"is_reserved":false,"is_disabled":false,"rental_uris":{"android":"levelo://app?vid=256b0fae-cb64-466e-ae51-c270151a2991","ios":"levelo://app?vid=256b0fae-cb64-466e-ae51-c270151a2991"},"vehicle_type_id":"4","last_reported":1767028202,"current_range_meters":15200,"station_id":"ce4bhb12rcd13ifvqem0","pricing_plan_id":"cebpf4jnsgd1na2vs0mg"},{"bike_id":"ec0e7985-1834-419d-8825-4d58bae0e7a4","system_id":"levelo_inurba_marseille","lat":43.32346,"lon":5.36742,"is_reserved":false,"is_disabled":false,"rental_uris":{"android":"levelo://app?vid=ec0e7985-1834-419d-8825-4d58bae0e7a4","ios":"levelo://app?vid=ec0e7985-1834-419d-8825-4d58bae0e7a4"},"vehicle_type_id":"4","last_reported":1767028202,"current_range_meters":15200,"station_id":"ce4bhsh2rcd13ifvqi2g","pricing_plan_id":"cebpf4jnsgd1na2vs0mg"},{"bike_id":"70d675d9-2d99-49ca-9ce7-e80837688684","system_id":"levelo_inurba_marseille","lat":43.28606,"lon":5.35109,"is_reserved":false,"is_disabled":false,"rental_uris":{"android":"levelo://app?vid=70d675d9-2d99-49ca-9ce7-e80837688684","ios":"levelo://app?vid=70d675d9-2d99-49ca-9ce7-e80837688684"},"vehicle_type_id":"4","last_reported":1767028202,"current_range_meters":15200,"station_id":"ce4bhch2rcd13ifvqeug","pricing_plan_id":"cebpf4jnsgd1na2vs0mg"},{"bike_id":"71181095-8ae7-4ee2-a01f-68a63325d460","system_id":"levelo_inurba_marseille","lat":43.29534,"lon":5.38543,"is_reserved":false,"is_disabled":false,"rental_uris":{"android":"levelo://app?vid=71181095-8ae7-4ee2-a01f-68a63325d460","ios":"levelo://app?vid=71181095-8ae7-4ee2-a01f-68a63325d460"},"vehicle_type_id":"4","last_reported":1767028202,"current_range_meters":15200,"station_id":"ce4bgih2rcd13ifvqba0","pricing_plan_id":"cebpf4jnsgd1na2vs0mg"},{"bike_id":"ed29a0e9-8b46-47c3-95bd-c44aa5efac03","system_id":"levelo_inurba_marseille","lat":43.26058,"lon":5.394,"is_reserved":false,"is_disabled":false,"rental_uris":{"android":"levelo://app?vid=ed29a0e9-8b46-47c3-95bd-c44aa5efac03","ios":"levelo://app?vid=ed29a0e9-8b46-47c3-95bd-c44aa5efac03"},"vehicle_type_id":"4","last_reported":1767028202,"current_range_meters":15200,"station_id":"ce4bhh92rcd13ifvqfj0","pricing_plan_id":"cebpf4jnsgd1na2vs0mg"},{"bike_id":"55c0b431-66fc-4a8d-830c-78f9a530f1ba","system_id":"levelo_inurba_marseille","lat":43.28846,"lon":5.39327,"is_reserved":false,"is_disabled":false,"rental_uris":{"android":"levelo://app?vid=55c0b431-66fc-4a8d-830c-78f9a530f1ba","ios":"levelo://app?vid=55c0b431-66fc-4a8d-830c-78f9a530f1ba"},"vehicle_type_id":"4","last_reported":1767028202,"current_range_meters":16000,"station_id":"ce4bh2p2rcd13ifvqdi0","pricing_plan_id":"cebpf4jnsgd1na2vs0mg"},{"bike_id":"b1fe7799-6a46-49a6-8b2f-2b105e3b71b6","system_id":"levelo_inurba_marseille","lat":43.2959,"lon":5.37518,"is_reserved":false,"is_disabled":false,"rental_uris":{"android":"levelo://app?vid=b1fe7799-6a46-49a6-8b2f-2b105e3b71b6","ios":"levelo://app?vid=b1fe7799-6a46-49a6-8b2f-2b105e3b71b6"},"vehicle_type_id":"4","last_reported":1767028202,"current_range_meters":16000,"station_id":"ce4bgh92rcd13ifvqb50","pricing_plan_id":"cebpf4jnsgd1na2vs0mg"},{"bike_id":"b5997051-9517-43db-a3fd-22957a07eea8","system_id":"levelo_inurba_marseille","lat":43.25495,"lon":5.37646,"is_reserved":false,"is_disabled":false,"rental_uris":{"android":"levelo://app?vid=b5997051-9517-43db-a3fd-22957a07eea8","ios":"levelo://app?vid=b5997051-9517-43db-a3fd-22957a07eea8"},"vehicle_type_id":"4","last_reported":1767028202,"current_range_meters":16000,"station_id":"ce4bhh12rcd13ifvqff0","pricing_plan_id":"cebpf4jnsgd1na2vs0mg"},{"bike_id":"dbe09716-f079-4c70-a408-7e3d3011c76c","system_id":"levelo_inurba_marseille","lat":43.27441,"lon":5.3941,"is_reserved":false,"is_disabled":true,"rental_uris":{"android":"levelo://app?vid=dbe09716-f079-4c70-a408-7e3d3011c76c","ios":"levelo://app?vid=dbe09716-f079-4c70-a408-7e3d3011c76c"},"vehicle_type_id":"4","last_reported":1767028202,"current_range_meters":16000,"station_id":"ce4bhdp2rcd13ifvqf20","pricing_plan_id":"cebpf4jnsgd1na2vs0mg"},{"bike_id":"23904288-d8db-496e-ac4f-fe2e23c85d61","system_id":"levelo_inurba_marseille","lat":43.29943,"lon":5.37599,"is_reserved":false,"is_disabled":false,"rental_uris":{"android":"levelo://app?vid=23904288-d8db-496e-ac4f-fe2e23c85d61","ios":"levelo://app?vid=23904288-d8db-496e-ac4f-fe2e23c85d61"},"vehicle_type_id":"4","last_reported":1767028202,"current_range_meters":16000,"station_id":"","pricing_plan_id":"cebpf4jnsgd1na2vs0mg"},{"bike_id":"d4c1c222-30db-41eb-a726-ef7d04987497","system_id":"levelo_inurba_marseille","lat":43.27963,"lon":5.38737,"is_reserved":false,"is_disabled":false,"rental_uris":{"android":"levelo://app?vid=d4c1c222-30db-41eb-a726-ef7d04987497","ios":"levelo://app?vid=d4c1c222-30db-41eb-a726-ef7d04987497"},"vehicle_type_id":"4","last_reported":1767028202,"current_range_meters":16000,"station_id":"ce4bhg12rcd13ifvqf80","pricing_plan_id":"cebpf4jnsgd1na2vs0mg"},{"bike_id":"9152dc23-aabb-4dc0-8225-d34b5a4f8b0e","system_id":"levelo_inurba_marseille","lat":43.24668,"lon":5.38875,"is_reserved":false,"is_disabled":false,"rental_uris":{"android":"levelo://app?vid=9152dc23-aabb-4dc0-8225-d34b5a4f8b0e","ios":"levelo://app?vid=9152dc23-aabb-4dc0-8225-d34b5a4f8b0e"},"vehicle_type_id":"4","last_reported":1767028202,"current_range_meters":16000,"station_id":"ce4bhg12rcd13ifvqf60","pricing_plan_id":"cebpf4jnsgd1na2vs0mg"},{"bike_id":"1afb4ac5-1a93-4918-85ae-8de1132030fb","system_id":"levelo_inurba_marseille","lat":43.29603,"lon":5.37731,"is_reserved":false,"is_disabled":false,"rental_uris":{"android":"levelo://app?vid=1afb4ac5-1a93-4918-85ae-8de1132030fb","ios":"levelo://app?vid=1afb4ac5-1a93-4918-85ae-8de1132030fb"},"vehicle_type_id":"4","last_reported":1767028202,"current_range_meters":16000,"station_id":"ce4bgi92rcd13ifvqb90","pricing_plan_id":"cebpf4jnsgd1na2vs0mg"},{"bike_id":"efb138af-8904-40f9-891d-553944fc5add","system_id":"levelo_inurba_marseille","lat":43.29743,"lon":5.3768,"is_reserved":false,"is_disabled":false,"rental_uris":{"android":"levelo://app?vid=efb138af-8904-40f9-891d-553944fc5add","ios":"levelo://app?vid=efb138af-8904-40f9-891d-553944fc5add"},"vehicle_type_id":"4","last_reported":1767028202,"current_range_meters":16000,"station_id":"ce4bgkh2rcd13ifvqbl0","pricing_plan_id":"cebpf4jnsgd1na2vs0mg"},{"bike_id":"31a077c9-45f8-44fe-be9c-50cf9d939c3d","system_id":"levelo_inurba_marseille","lat":43.29564,"lon":5.37498,"is_reserved":false,"is_disabled":false,"rental_uris":{"android":"levelo://app?vid=31a077c9-45f8-44fe-be9c-50cf9d939c3d","ios":"levelo://app?vid=31a077c9-45f8-44fe-be9c-50cf9d939c3d"},"vehicle_type_id":"4","last_reported":1767028202,"current_range_meters":16000,"station_id":"ce4bgh92rcd13ifvqb50","pricing_plan_id":"cebpf4jnsgd1na2vs0mg"},{"bike_id":"7a858a05-8d49-486e-8d0c-dcbeffc98352","system_id":"levelo_inurba_marseille","lat":43.33546,"lon":5.37468,"is_reserved":false,"is_disabled":false,"rental_uris":{"android":"levelo://app?vid=7a858a05-8d49-486e-8d0c-dcbeffc98352","ios":"levelo://app?vid=7a858a05-8d49-486e-8d0c-dcbeffc98352"},"vehicle_type_id":"4","last_reported":1767028202,"current_range_meters":16000,"station_id":"st_d46tts09ee8s73dlu43g","pricing_plan_id":"cebpf4jnsgd1na2vs0mg"},{"bike_id":"95291ff3-ea0e-4e93-84cb-9af91c4e0c4b","system_id":"levelo_inurba_marseille","lat":43.28855,"lon":5.39319,"is_reserved":false,"is_disabled":false,"rental_uris":{"android":"levelo://app?vid=95291ff3-ea0e-4e93-84cb-9af91c4e0c4b","ios":"levelo://app?vid=95291ff3-ea0e-4e93-84cb-9af91c4e0c4b"},"vehicle_type_id":"4","last_reported":1767028202,"current_range_meters":16000,"station_id":"ce4bh2p2rcd13ifvqdi0","pricing_plan_id":"cebpf4jnsgd1na2vs0mg"},{"bike_id":"1ef53504-7290-40b3-8fbc-4d2276df422a","system_id":"levelo_inurba_marseille","lat":43.28466,"lon":5.38422,"is_reserved":false,"is_disabled":false,"rental_uris":{"android":"levelo://app?vid=1ef53504-7290-40b3-8fbc-4d2276df422a","ios":"levelo://app?vid=1ef53504-7290-40b3-8fbc-4d2276df422a"},"vehicle_type_id":"4","last_reported":1767028202,"current_range_meters":16400,"station_id":"ce4bh512rcd13ifvqe3g","pricing_plan_id":"cebpf4jnsgd1na2vs0mg"},{"bike_id":"30d33cd0-02b4-4db5-897b-79ec2da25cd6","system_id":"levelo_inurba_marseille","lat":43.29886,"lon":5.38905,"is_reserved":false,"is_disabled":false,"rental_uris":{"android":"levelo://app?vid=30d33cd0-02b4-4db5-897b-79ec2da25cd6","ios":"levelo://app?vid=30d33cd0-02b4-4db5-897b-79ec2da25cd6"},"vehicle_type_id":"4","last_reported":1767028202,"current_range_meters":16400,"station_id":"ce4bh392rcd13ifvqdl0","pricing_plan_id":"cebpf4jnsgd1na2vs0mg"},{"bike_id":"833f4943-80a3-4386-a7a8-645bc9b306ca","system_id":"levelo_inurba_marseille","lat":43.27617,"lon":5.36101,"is_reserved":false,"is_disabled":false,"rental_uris":{"android":"levelo://app?vid=833f4943-80a3-4386-a7a8-645bc9b306ca","ios":"levelo://app?vid=833f4943-80a3-4386-a7a8-645bc9b306ca"},"vehicle_type_id":"4","last_reported":1767028202,"current_range_meters":16400,"station_id":"ce4bgj92rcd13ifvqbe0","pricing_plan_id":"cebpf4jnsgd1na2vs0mg"},{"bike_id":"0f0fc6ed-82de-439d-993e-666cb650fe34","system_id":"levelo_inurba_marseille","lat":43.2378,"lon":5.36628,"is_reserved":false,"is_disabled":false,"rental_uris":{"android":"levelo://app?vid=0f0fc6ed-82de-439d-993e-666cb650fe34","ios":"levelo://app?vid=0f0fc6ed-82de-439d-993e-666cb650fe34"},"vehicle_type_id":"4","last_reported":1767028202,"current_range_meters":16400,"station_id":"st_d3nk18o9ro0c73en2l3g","pricing_plan_id":"cebpf4jnsgd1na2vs0mg"},{"bike_id":"dce28840-1b59-4930-917a-12d88071d00f","system_id":"levelo_inurba_marseille","lat":43.285373,"lon":5.440989,"is_reserved":false,"is_disabled":false,"rental_uris":{"android":"levelo://app?vid=dce28840-1b59-4930-917a-12d88071d00f","ios":"levelo://app?vid=dce28840-1b59-4930-917a-12d88071d00f"},"vehicle_type_id":"4","last_reported":1767028202,"current_range_meters":16400,"station_id":"st_d3j3df2ikq2c7380ej80","pricing_plan_id":"cebpf4jnsgd1na2vs0mg"},{"bike_id":"8850eb8b-bbc8-4840-8264-aa6de23d2ea2","system_id":"levelo_inurba_marseille","lat":43.32472,"lon":5.36516,"is_reserved":false,"is_disabled":false,"rental_uris":{"android":"levelo://app?vid=8850eb8b-bbc8-4840-8264-aa6de23d2ea2","ios":"levelo://app?vid=8850eb8b-bbc8-4840-8264-aa6de23d2ea2"},"vehicle_type_id":"4","last_reported":1767028202,"current_range_meters":16400,"station_id":"ce4bhs12rcd13ifvqhvg","pricing_plan_id":"cebpf4jnsgd1na2vs0mg"},