{"last_updated":1736729405,"ttl":60,"version":"2.2","data":{"bikes":[{"bike_id":"550047c7-c749-4930-b0d9-6c1415e9edac","system_id":"levelo_inurba_marseille","lat":43.29562,"lon":5.42282,"is_reserved":false,"is_disabled":false,"rental_uris":{"android":"levelo://app?vid=550047c7-c749-4930-b0d9-6c1415e9edac","ios":"levelo://app?vid=550047c7-c749-4930-b0d9-6c1415e9edac"},"vehicle_type_id":"4","last_reported":1736729405,"current_range_meters":30400,"station_id":"ce4bhph2rcd13ifvqhdg","pricing_plan_id":"cebpf4jnsgd1na2vs0mg"},{"bike_id":"1d10c629-b7bc-467d-b666-544e6f205f2b","system_id":"levelo_inurba_marseille","lat":43.28937,"lon":5.36633,"is_reserved":false,"is_disabled":false,"rental_uris":{"android":"levelo://app?vid=1d10c629-b7bc-467d-b666-544e6f205f2b","ios":"levelo://app?vid=1d10c629-b7bc-467d-b666-544e6f205f2b"},"vehicle_type_id":"4","last_reported":1736729405,"current_range_meters":27200,"station_id":"ce4bhap2rcd13ifvqek0","pricing_plan_id":"cebpf4jnsgd1na2vs0mg"},{"bike_id":"bc37dd74-c92d-4c9e-aa7f-5c12df367800","system_id":"levelo_inurba_marseille","lat":43.28427,"lon":5.39168,"is_reserved":false,"is_disabled":false,"rental_uris":{"android":"levelo://app?vid=bc37dd74-c92d-4c9e-aa7f-5c12df367800","ios":"levelo://app?vid=bc37dd74-c92d-4c9e-aa7f-5c12df367800"},"vehicle_type_id":"4","last_reported":1736729405,"current_range_meters":38400,"station_id":"ce4bhoh2rcd13ifvqh5g","pricing_plan_id":"cebpf4jnsgd1na2vs0mg"},{"bike_id":"cb366934-7053-4fcc-afbf-a36479197bd4","system_id":"levelo_inurba_marseille","lat":43.28264,"lon":5.35079,"is_reserved":false,"is_disabled":false,"rental_uris":{"android":"levelo://app?vid=cb366934-7053-4fcc-afbf-a36479197bd4","ios":"levelo://app?vid=cb366934-7053-4fcc-afbf-a36479197bd4"},"vehicle_type_id":"4","last_reported":1736729405,"current_range_meters":38000,"station_id":"ce4bhbp2rcd13ifvqerg","pricing_plan_id":"cebpf4jnsgd1na2vs0mg"},{"bike_id":"ba58cf8d-dc65-402b-8539-a2ee664d654e","system_id":"levelo_inurba_marseille","lat":43.296309,"lon":5.405989,"is_reserved":false,"is_disabled":false,"rental_uris":{"android":"levelo://app?vid=ba58cf8d-dc65-402b-8539-a2ee664d654e","ios":"levelo://app?vid=ba58cf8d-dc65-402b-8539-a2ee664d654e"},"vehicle_type_id":"4","last_reported":1736729405,"current_range_meters":38800,"station_id":"ce4bh0h2rcd13ifvqd60","pricing_plan_id":"cebpf4jnsgd1na2vs0mg"},{"bike_id":"bf582a73-1ecf-4d59-8037-e49aa4c8ed83","system_id":"levelo_inurba_marseille","lat":43.25134,"lon":5.40333,"is_reserved":false,"is_disabled":false,"rental_uris":{"android":"levelo://app?vid=bf582a73-1ecf-4d59-8037-e49aa4c8ed83","ios":"levelo://app?vid=bf582a73-1ecf-4d59-8037-e49aa4c8ed83"},"vehicle_type_id":"4","last_reported":1736729405,"current_range_meters":38800,"station_id":"ce4bhlh2rcd13ifvqgig","pricing_plan_id":"cebpf4jnsgd1na2vs0mg"},{"bike_id":"3edcf1f9-6234-45fe-a176-b590e8580ebc","system_id":"levelo_inurba_marseille","lat":43.322855,"lon":5.382706,"is_reserved":false,"is_disabled":false,"rental_uris":{"android":"levelo://app?vid=3edcf1f9-6234-45fe-a176-b590e8580ebc","ios":"levelo://app?vid=3edcf1f9-6234-45fe-a176-b590e8580ebc"},"vehicle_type_id":"4","last_reported":1736729405,"current_range_meters":27600,"station_id":"ce4bhr12rcd13ifvqhqg","pricing_plan_id":"cebpf4jnsgd1na2vs0mg"},{"bike_id":"4e48955e-2d7c-4fc4-85f1-de44a9c42e69","system_id":"levelo_inurba_marseille","lat":43.281,"lon":5.37883,"is_reserved":false,"is_disabled":false,"rental_uris":{"android":"levelo://app?vid=4e48955e-2d7c-4fc4-85f1-de44a9c42e69","ios":"levelo://app?vid=4e48955e-2d7c-4fc4-85f1-de44a9c42e69"},"vehicle_type_id":"4","last_reported":1736729405,"current_range_meters":14800,"station_id":"ce4bha12rcd13ifvqee0","pricing_plan_id":"cebpf4jnsgd1na2vs0mg"},{"bike_id":"e8822eea-23ed-4bb6-8613-f2dc5f679272","system_id":"levelo_inurba_marseille","lat":43.30298,"lon":5.39208,"is_reserved":false,"is_disabled":false,"rental_uris":{"android":"levelo://app?vid=e8822eea-23ed-4bb6-8613-f2dc5f679272","ios":"levelo://app?vid=e8822eea-23ed-4bb6-8613-f2dc5f679272"},"vehicle_type_id":"4","last_reported":1736729405,"current_range_meters":37600,"station_id":"ce4bgkh2rcd13ifvqbk0","pricing_plan_id":"cebpf4jnsgd1na2vs0mg"},{"bike_id":"0ea60a2f-cda4-4308-83fa-1ed45460e073","system_id":"levelo_inurba_marseille","lat":43.3229,"lon":5.38284,"is_reserved":false,"is_disabled":false,"rental_uris":{"android":"levelo://app?vid=0ea60a2f-cda4-4308-83fa-1ed45460e073","ios":"levelo://app?vid=0ea60a2f-cda4-4308-83fa-1ed45460e073"},"vehicle_type_id":"4","last_reported":1736729405,"current_range_meters":36800,"station_id":"ce4bhr12rcd13ifvqhqg","pricing_plan_id":"cebpf4jnsgd1na2vs0mg"},{"bike_id":"00c30042-4a66-4113-8d33-7a2597299481","system_id":"levelo_inurba_marseille","lat":43.24392,"lon":5.37065,"is_reserved":false,"is_disabled":false,"rental_uris":{"android":"levelo://app?vid=00c30042-4a66-4113-8d33-7a2597299481","ios":"levelo://app?vid=00c30042-4a66-4113-8d33-7a2597299481"},"vehicle_type_id":"4","last_reported":1736729405,"current_range_meters":38000,"station_id":"ce4bhhh2rcd13ifvqfk0","pricing_plan_id":"cebpf4jnsgd1na2vs0mg"},{"bike_id":"63c0a98d-2054-463f-872b-46950ce187cb","system_id":"levelo_inurba_marseille","lat":43.25107,"lon":5.40318,"is_reserved":false,"is_disabled":false,"rental_uris":{"android":"levelo://app?vid=63c0a98d-2054-463f-872b-46950ce187cb","ios":"levelo://app?vid=63c0a98d-2054-463f-872b-46950ce187cb"},"vehicle_type_id":"4","last_reported":1736729405,"current_range_meters":38800,"station_id":"ce4bhlh2rcd13ifvqgig","pricing_plan_id":"cebpf4jnsgd1na2vs0mg"},{"bike_id":"6ba53d8a-7aed-4e82-aa8e-de48e43b55a1","system_id":"levelo_inurba_marseille","lat":43.26035,"lon":5.37547,"is_reserved":false,"is_disabled":false,"rental_uris":{"android":"levelo://app?vid=6ba53d8a-7aed-4e82-aa8e-de48e43b55a1","ios":"levelo://app?vid=6ba53d8a-7aed-4e82-aa8e-de48e43b55a1"},"vehicle_type_id":"4","last_reported":1736729405,"current_range_meters":38000,"station_id":"ce4bhgh2rcd13ifvqfa0","pricing_plan_id":"cebpf4jnsgd1na2vs0mg"},{"bike_id":"16a0ec8c-48c2-474f-a5c0-6c5a74010f79","system_id":"levelo_inurba_marseille","lat":43.24804,"lon":5.3746,"is_reserved":false,"is_disabled":false,"rental_uris":{"android":"levelo://app?vid=16a0ec8c-48c2-474f-a5c0-6c5a74010f79","ios":"levelo://app?vid=16a0ec8c-48c2-474f-a5c0-6c5a74010f79"},"vehicle_type_id":"4","last_reported":1736729405,"current_range_meters":20400,"station_id":"ce4bhgh2rcd13ifvqfb0","pricing_plan_id":"cebpf4jnsgd1na2vs0mg"},{"bike_id":"a0e18b66-d415-4717-b912-f32572b58b45","system_id":"levelo_inurba_marseille","lat":43.28034,"lon":5.36946,"is_reserved":false,"is_disabled":false,"rental_uris":{"android":"levelo://app?vid=a0e18b66-d415-4717-b912-f32572b58b45","ios":"levelo://app?vid=a0e18b66-d415-4717-b912-f32572b58b45"},"vehicle_type_id":"4","last_reported":1736729405,"current_range_meters":37600,"station_id":"ce4bha12rcd13ifvqef0","pricing_plan_id":"cebpf4jnsgd1na2vs0mg"},{"bike_id":"9e2cb889-1ce6-4b85-9167-634444565dfc","system_id":"levelo_inurba_marseille","lat":43.31274,"lon":5.40164,"is_reserved":false,"is_disabled":false,"rental_uris":{"android":"levelo://app?vid=9e2cb889-1ce6-4b85-9167-634444565dfc","ios":"levelo://app?vid=9e2cb889-1ce6-4b85-9167-634444565dfc"},"vehicle_type_id":"4","last_reported":1736729405,"current_range_meters":38800,"station_id":"ce4bh092rcd13ifvqd30","pricing_plan_id":"cebpf4jnsgd1na2vs0mg"},{"bike_id":"c2904927-ca0d-44f2-8fd7-d3be65556eb6","system_id":"levelo_inurba_marseille","lat":43.26574,"lon":5.37286,"is_reserved":false,"is_disabled":false,"rental_uris":{"android":"levelo://app?vid=c2904927-ca0d-44f2-8fd7-d3be65556eb6","ios":"levelo://app?vid=c2904927-ca0d-44f2-8fd7-d3be65556eb6"},"vehicle_type_id":"4","last_reported":1736729405,"current_range_meters":38800,"station_id":"ce4bhg12rcd13ifvqf70","pricing_plan_id":"cebpf4jnsgd1na2vs0mg"},{"bike_id":"74666761-885f-4e5e-9a63-43a5e4c6c268","system_id":"levelo_inurba_marseille","lat":43.28937,"lon":5.36628,"is_reserved":false,"is_disabled":false,"rental_uris":{"android":"levelo://app?vid=74666761-885f-4e5e-9a63-43a5e4c6c268","ios":"levelo://app?vid=74666761-885f-4e5e-9a63-43a5e4c6c268"},"vehicle_type_id":"4","last_reported":1736729405,"current_range_meters":32400,"station_id":"ce4bhap2rcd13ifvqek0","pricing_plan_id":"cebpf4jnsgd1na2vs0mg"},{"bike_id":"0017474d-584b-4825-9e46-e912ae7c406b","system_id":"levelo_inurba_marseille","lat":43.31326,"lon":5.39723,"is_reserved":false,"is_disabled":false,"rental_uris":{"android":"levelo://app?vid=0017474d-584b-4825-9e46-e912ae7c406b","ios":"levelo://app?vid=0017474d-584b-4825-9e46-e912ae7c406b"},"vehicle_type_id":"4","last_reported":1736729405,"current_range_meters":38000,"station_id":"ce4bgvp2rcd13ifvqcu0","pricing_plan_id":"cebpf4jnsgd1na2vs0mg"},{"bike_id":"3686c68a-4f6f-4ed4-9b40-010357ff3654","system_id":"levelo_inurba_marseille","lat":43.31719,"lon":5.424,"is_reserved":false,"is_disabled":false,"rental_uris":{"android":"levelo://app?vid=3686c68a-4f6f-4ed4-9b40-010357ff3654","ios":"levelo://app?vid=3686c68a-4f6f-4ed4-9b40-010357ff3654"},"vehicle_type_id":"4","last_reported":1736729405,"current_range_meters":26000,"station_id":"ce4bhp92rcd13ifvqhbg","pricing_plan_id":"cebpf4jnsgd1na2vs0mg"},{"bike_id":"25201559-3be6-490e-b049-639df5366fcd","system_id":"levelo_inurba_marseille","lat":43.29976,"lon":5.38479,"is_reserved":false,"is_disabled":true,"rental_uris":{"android":"levelo://app?vid=25201559-3be6-490e-b049-639df5366fcd","ios":"levelo://app?vid=25201559-3be6-490e-b049-639df5366fcd"},"vehicle_type_id":"4","last_reported":1736729405,"current_range_meters":8000,"station_id":"ce4bgj92rcd13ifvqbd0","pricing_plan_id":"cebpf4jnsgd1na2vs0mg"},{"bike_id":"2a327102-5607-4655-8719-faac72b933c2","system_id":"levelo_inurba_marseille","lat":43.29814,"lon":5.381,"is_reserved":false,"is_disabled":false,"rental_uris":{"android":"levelo://app?vid=2a327102-5607-4655-8719-faac72b933c2","ios":"levelo://app?vid=2a327102-5607-4655-8719-faac72b933c2"},"vehicle_type_id":"4","last_reported":1736729405,"current_range_meters":38000,"station_id":"ce4bgip2rcd13ifvqbb0","pricing_plan_id":"cebpf4jnsgd1na2vs0mg"},{"bike_id":"b0abe0fe-a759-4e38-8911-6c6ac9828654","system_id":"levelo_inurba_marseille","lat":43.30881,"lon":5.372,"is_reserved":false,"is_disabled":false,"rental_uris":{"android":"levelo://app?vid=b0abe0fe-a759-4e38-8911-6c6ac9828654","ios":"levelo://app?vid=b0abe0fe-a759-4e38-8911-6c6ac9828654"},"vehicle_type_id":"4","last_reported":1736729405,"current_range_meters":38400,"station_id":"ce4bguh2rcd13ifvqckg","pricing_plan_id":"cebpf4jnsgd1na2vs0mg"},{"bike_id":"92705c80-6cf5-4aa6-ad20-7bc1e3d1c4f4","system_id":"levelo_inurba_marseille","lat":43.31119,"lon":5.37765,"is_reserved":false,"is_disabled":false,"rental_uris":{"android":"levelo://app?vid=92705c80-6cf5-4aa6-ad20-7bc1e3d1c4f4","ios":"levelo://app?vid=92705c80-6cf5-4aa6-ad20-7bc1e3d1c4f4"},"vehicle_type_id":"4","last_reported":1736729405,"current_range_meters":38800,"station_id":"ce4bgt92rcd13ifvqcg0","pricing_plan_id":"cebpf4jnsgd1na2vs0mg"},{"bike_id":"004c2ac5-7f25-4e48-8a80-9a02537f6ba6","system_id":"levelo_inurba_marseille","lat":43.321113,"lon":5.367734,"is_reserved":false,"is_disabled":false,"rental_uris":{"android":"levelo://app?vid=004c2ac5-7f25-4e48-8a80-9a02537f6ba6","ios":"levelo://app?vid=004c2ac5-7f25-4e48-8a80-9a02537f6ba6"},"vehicle_type_id":"4","last_reported":1736729405,"current_range_meters":23200,"station_id":"ce4bhrh2rcd13ifvqhug","pricing_plan_id":"cebpf4jnsgd1na2vs0mg"},{"bike_id":"6a8dc65c-8c47-4239-8815-8efa2acdc338","system_id":"levelo_inurba_marseille","lat":43.27998,"lon":5.41649,"is_reserved":false,"is_disabled":true,"rental_uris":{"android":"levelo://app?vid=6a8dc65c-8c47-4239-8815-8efa2acdc338","ios":"levelo://app?vid=6a8dc65c-8c47-4239-8815-8efa2acdc338"},"vehicle_type_id":"4","last_reported":1736729405,"current_range_meters":6400,"station_id":"ce4bho12rcd13ifvqh1g","pricing_plan_id":"cebpf4jnsgd1na2vs0mg"},{"bike_id":"14a4de5f-9bd3-47db-a585-25c24971a15e","system_id":"levelo_inurba_marseille","lat":43.293303,"lon":5.391237,"is_reserved":false,"is_disabled":false,"rental_uris":{"android":"levelo://app?vid=14a4de5f-9bd3-47db-a585-25c24971a15e","ios":"levelo://app?vid=14a4de5f-9bd3-47db-a585-25c24971a15e"},"vehicle_type_id":"4","last_reported":1736729405,"current_range_meters":16400,"station_id":"","pricing_plan_id":"cebpf4jnsgd1na2vs0mg"},{"bike_id":"94d00723-79f7-443c-bc62-0c89ddbb1d1c","system_id":"levelo_inurba_marseille","lat":43.28149,"lon":5.42633,"is_reserved":false,"is_disabled":true,"rental_uris":{"android":"levelo://app?vid=94d00723-79f7-443c-bc62-0c89ddbb1d1c","ios":"levelo://app?vid=94d00723-79f7-443c-bc62-0c89ddbb1d1c"},"vehicle_type_id":"4","last_reported":1736729405,"current_range_meters":24000,"station_id":"ce4bhnh2rcd13ifvqgug","pricing_plan_id":"cebpf4jnsgd1na2vs0mg"},{"bike_id":"e8aa01a1-b078-4806-9030-f9edcabec4c1","system_id":"levelo_inurba_marseille","lat":43.29024,"lon":5.38618,"is_reserved":false,"is_disabled":false,"rental_uris":{"android":"levelo://app?vid=e8aa01a1-b078-4806-9030-f9edcabec4c1","ios":"levelo://app?vid=e8aa01a1-b078-4806-9030-f9edcabec4c1"},"vehicle_type_id":"4","last_reported":1736729405,"current_range_meters":16000,"station_id":"ce4bh4p2rcd13ifvqe0g","pricing_plan_id":"cebpf4jnsgd1na2vs0mg"},{"bike_id":"cb757ed5-7db8-4012-bb42-f608fe69c61e","system_id":"levelo_inurba_marseille","lat":43.270744,"lon":5.422842,"is_reserved":false,"is_disabled":false,"rental_uris":{"android":"levelo://app?vid=cb757ed5-7db8-4012-bb42-f608fe69c61e","ios":"levelo://app?vid=cb757ed5-7db8-4012-bb42-f608fe69c61e"},"vehicle_type_id":"4","last_reported":1736729405,"current_range_meters":26800,"station_id":"ce4bhk92rcd13ifvqgb0","pricing_plan_id":"cebpf4jnsgd1na2vs0mg"},{"bike_id":"1d5714a3-926f-469f-ac0b-59445a34b902","system_id":"levelo_inurba_marseille","lat":43.26689,"lon":5.38279,"is_reserved":false,"is_disabled":false,"rental_uris":{"android":"levelo://app?vid=1d5714a3-926f-469f-ac0b-59445a34b902","ios":"levelo://app?vid=1d5714a3-926f-469f-ac0b-59445a34b902"},"vehicle_type_id":"4","last_reported":1736729405,"current_range_meters":38800,"station_id":"ce4bhg92rcd13ifvqf90","pricing_plan_id":"cebpf4jnsgd1na2vs0mg"},{"bike_id":"e35d110b-0ca6-4c99-b711-04ba364d3860","system_id":"levelo_inurba_marseille","lat":43.24,"lon":5.3591,"is_reserved":false,"is_disabled":false,"rental_uris":{"android":"levelo://app?vid=e35d110b-0ca6-4c99-b711-04ba364d3860","ios":"levelo://app?vid=e35d110b-0ca6-4c99-b711-04ba364d3860"},"vehicle_type_id":"4","last_reported":1736729405,"current_range_meters":38800,"station_id":"ce4bhu92rcd13ifvqi70","pricing_plan_id":"cebpf4jnsgd1na2vs0mg"},{"bike_id":"c1dea8eb-dedb-48c3-82b9-ba4d059a0755","system_id":"levelo_inurba_marseille","lat":43.26544,"lon":5.37282,"is_reserved":false,"is_disabled":true,"rental_uris":{"android":"levelo://app?vid=c1dea8eb-dedb-48c3-82b9-ba4d059a0755","ios":"levelo://app?vid=c1dea8eb-dedb-48c3-82b9-ba4d059a0755"},"vehicle_type_id":"4","last_reported":1736729405,"current_range_meters":38000,"station_id":"ce4bhg12rcd13ifvqf70","pricing_plan_id":"cebpf4jnsgd1na2vs0mg"},{"bike_id":"909f66b3-47c7-41ae-baa4-392e55d1e228","system_id":"levelo_inurba_marseille","lat":43.30803,"lon":5.38178,"is_reserved":false,"is_disabled":false,"rental_uris":{"android":"levelo://app?vid=909f66b3-47c7-41ae-baa4-392e55d1e228","ios":"levelo://app?vid=909f66b3-47c7-41ae-baa4-392e55d1e228"},"vehicle_type_id":"4","last_reported":1736729405,"current_range_meters":17200,"station_id":"ce4bgt12rcd13ifvqce0","pricing_plan_id":"cebpf4jnsgd1na2vs0mg"},{"bike_id":"92a16257-c803-43e8-baae-6259f92b5ff5","system_id":"levelo_inurba_marseille","lat":43.29185,"lon":5.35796,"is_reserved":false,"is_disabled":true,"rental_uris":{"android":"levelo://app?vid=92a16257-c803-43e8-baae-6259f92b5ff5","ios":"levelo://app?vid=92a16257-c803-43e8-baae-6259f92b5ff5"},"vehicle_type_id":"4","last_reported":1736729405,"current_range_meters":4400,"station_id":"ce4bhb12rcd13ifvqel0","pricing_plan_id":"cebpf4jnsgd1na2vs0mg"},{"bike_id":"d5cb2050-1585-47e8-bcb5-b5ecbecd7058","system_id":"levelo_inurba_marseille","lat":43.25726,"lon":5.41083,"is_reserved":false,"is_disabled":false,"rental_uris":{"android":"levelo://app?vid=d5cb2050-1585-47e8-bcb5-b5ecbecd7058","ios":"levelo://app?vid=d5cb2050-1585-47e8-bcb5-b5ecbecd7058"},"vehicle_type_id":"4","last_reported":1736729405,"current_range_meters":18000,"station_id":"ce4bhkp2rcd13ifvqgd0","pricing_plan_id":"cebpf4jnsgd1na2vs0mg"},{"bike_id":"b71ea370-fcfa-4bf7-9a7e-62a13e6c22cc","system_id":"levelo_inurba_marseille","lat":43.2845,"lon":5.35897,"is_reserved":false,"is_disabled":false,"rental_uris":{"android":"levelo://app?vid=b71ea370-fcfa-4bf7-9a7e-62a13e6c22cc","ios":"levelo://app?vid=b71ea370-fcfa-4bf7-9a7e-62a13e6c22cc"},"vehicle_type_id":"4","last_reported":1736729405,"current_range_meters":20800,"station_id":"ce4bhah2rcd13ifvqei0","pricing_plan_id":"cebpf4jnsgd1na2vs0mg"},{"bike_id":"321acacf-fe17-4c04-843c-07685acbb4b3","system_id":"levelo_inurba_marseille","lat":43.31286,"lon":5.4016,"is_reserved":false,"is_disabled":false,"rental_uris":{"android":"levelo://app?vid=321acacf-fe17-4c04-843c-07685acbb4b3","ios":"levelo://app?vid=321acacf-fe17-4c04-843c-07685acbb4b3"},"vehicle_type_id":"4","last_reported":1736729405,"current_range_meters":38800,"station_id":"ce4bh092rcd13ifvqd30","pricing_plan_id":"cebpf4jnsgd1na2vs0mg"},{"bike_id":"c118b502-d63d-4f4b-81f2-3498747937eb","system_id":"levelo_inurba_marseille","lat":43.30607,"lon":5.37211,"is_reserved":false,"is_disabled":false,"rental_uris":{"android":"levelo://app?vid=c118b502-d63d-4f4b-81f2-3498747937eb","ios":"levelo://app?vid=c118b502-d63d-4f4b-81f2-3498747937eb"},"vehicle_type_id":"4","last_reported":1736729405,"current_range_meters":38400,"station_id":"ce4bgqh2rcd13ifvqc4g","pricing_plan_id":"cebpf4jnsgd1na2vs0mg"},{"bike_id":"4536007d-0cfb-4e9d-a914-9b715b46ce6f","system_id":"levelo_inurba_marseille","lat":43.27318,"lon":5.39099,"is_reserved":false,"is_disabled":true,"rental_uris":{"android":"levelo://app?vid=4536007d-0cfb-4e9d-a914-9b715b46ce6f","ios":"levelo://app?vid=4536007d-0cfb-4e9d-a914-9b715b46ce6f"},"vehicle_type_id":"4","last_reported":1736729405,"current_range_meters":20800,"station_id":"ce4bhgp2rcd13ifvqfe0","pricing_plan_id":"cebpf4jnsgd1na2vs0mg"},{"bike_id":"d9a2338c-fbdf-437e-8e6e-e4b91c7adb96","system_id":"levelo_inurba_marseille","lat":43.28019,"lon":5.36934,"is_reserved":false,"is_disabled":false,"rental_uris":{"android":"levelo://app?vid=d9a2338c-fbdf-437e-8e6e-e4b91c7adb96","ios":"levelo://app?vid=d9a2338c-fbdf-437e-8e6e-e4b91c7adb96"},"vehicle_type_id":"4","last_reported":1736729405,"current_range_meters":38800,"station_id":"ce4bha12rcd13ifvqef0","pricing_plan_id":"cebpf4jnsgd1na2vs0mg"},{"bike_id":"6b750947-fb43-40e2-9931-495446cc2b3f","system_id":"levelo_inurba_marseille","lat":43.22919,"lon":5.35376,"is_reserved":false,"is_disabled":false,"rental_uris":{"android":"levelo://app?vid=6b750947-fb43-40e2-9931-495446cc2b3f","ios":"levelo://app?vid=6b750947-fb43-40e2-9931-495446cc2b3f"},"vehicle_type_id":"4","last_reported":1736729405,"current_range_meters":31200,"station_id":"cpo3532slgdg3j2ikp40","pricing_plan_id":"cebpf4jnsgd1na2vs0mg"},{"bike_id":"c8e997c0-8580-4d0f-8d9f-0766596381e1","system_id":"levelo_inurba_marseille","lat":43.34027,"lon":5.37554,"is_reserved":false,"is_disabled":true,"rental_uris":{"android":"levelo://app?vid=c8e997c0-8580-4d0f-8d9f-0766596381e1","ios":"levelo://app?vid=c8e997c0-8580-4d0f-8d9f-0766596381e1"},"vehicle_type_id":"4","last_reported":1736729405,"current_range_meters":0,"station_id":"","pricing_plan_id":"cebpf4jnsgd1na2vs0mg"},{"bike_id":"9f93caf0-0908-4204-9e48-d71941f61a3a","system_id":"levelo_inurba_marseille","lat":43.28934,"lon":5.3663,"is_reserved":false,"is_disabled":false,"rental_uris":{"android":"levelo://app?vid=9f93caf0-0908-4204-9e48-d71941f61a3a","ios":"levelo://app?vid=9f93caf0-0908-4204-9e48-d71941f61a3a"},"vehicle_type_id":"4","last_reported":1736729405,"current_range_meters":31200,"station_id":"ce4bhap2rcd13ifvqek0","pricing_plan_id":"cebpf4jnsgd1na2vs0mg"},{"bike_id":"ba5df164-d25c-4a1c-8679-1bd1a1db0642","system_id":"levelo_inurba_marseille","lat":43.33722,"lon":5.39189,"is_reserved":false,"is_disabled":false,"rental_uris":{"android":"levelo://app?vid=ba5df164-d25c-4a1c-8679-1bd1a1db0642","ios":"levelo://app?vid=ba5df164-d25c-4a1c-8679-1bd1a1db0642"},"vehicle_type_id":"4","last_reported":1736729405,"current_range_meters":22400,"station_id":"ce4bhr92rcd13ifvqhsg","pricing_plan_id":"cebpf4jnsgd1na2vs0mg"},{"bike_id":"5108b6cf-4ded-4fbc-8c1c-5e566aa11fad","system_id":"levelo_inurba_marseille","lat":43.29893,"lon":5.4365,"is_reserved":false,"is_disabled":false,"rental_uris":{"android":"levelo://app?vid=5108b6cf-4ded-4fbc-8c1c-5e566aa11fad","ios":"levelo://app?vid=5108b6cf-4ded-4fbc-8c1c-5e566aa11fad"},"vehicle_type_id":"4","last_reported":1736729405,"current_range_meters":37600,"station_id":"ce4bhpp2rcd13ifvqhfg","pricing_plan_id":"cebpf4jnsgd1na2vs0mg"},{"bike_id":"e57d17b0-d3d8-41e4-b068-54d2fa99b620","system_id":"levelo_inurba_marseille","lat":43.28395,"lon":5.38663,"is_reserved":false,"is_disabled":false,"rental_uris":{"android":"levelo://app?vid=e57d17b0-d3d8-41e4-b068-54d2fa99b620","ios":"levelo://app?vid=e57d17b0-d3d8-41e4-b068-54d2fa99b620"},"vehicle_type_id":"4","last_reported":1736729405,"current_range_meters":38800,"station_id":"ce4bh492rcd13ifvqdvg","pricing_plan_id":"cebpf4jnsgd1na2vs0mg"},{"bike_id":"335df88b-5f34-4ca9-a903-3ac5b9737f79","system_id":"levelo_inurba_marseille","lat":43.29059,"lon":5.35928,"is_reserved":false,"is_disabled":false,"rental_uris":{"android":"levelo://app?vid=335df88b-5f34-4ca9-a903-3ac5b9737f79","ios":"levelo://app?vid=335df88b-5f34-4ca9-a903-3ac5b9737f79"},"vehicle_type_id":"4","last_reported":1736729405,"current_range_meters":38000,"station_id":"ce4bha92rcd13ifvqeg0","pricing_plan_id":"cebpf4jnsgd1na2vs0mg"},{"bike_id":"057ecb4c-c813-47f4-bd45-228ae869bbbc","system_id":"levelo_inurba_marseille","lat":43.280363,"lon":5.369511,"is_reserved":false,"is_disabled":false,"rental_uris":{"android":"levelo://app?vid=057ecb4c-c813-47f4-bd45-228ae869bbbc","ios":"levelo://app?vid=057ecb4c-c813-47f4-bd45-228ae869bbbc"},"vehicle_type_id":"4","last_reported":1736729405,"current_range_meters":34000,"station_id":"ce4bha12rcd13ifvqef0","pricing_plan_id":"cebpf4jnsgd1na2vs0mg"},{"bike_id":"7dd5dd5e-1d75-4c5b-b5b8-248a34302cca","system_id":"levelo_inurba_marseille","lat":43.30468,"lon":5.3788,"is_reserved":false,"is_disabled":true,"rental_uris":{"android":"levelo://app?vid=7dd5dd5e-1d75-4c5b-b5b8-248a34302cca","ios":"levelo://app?vid=7dd5dd5e-1d75-4c5b-b5b8-248a34302cca"},"vehicle_type_id":"4","last_reported":1736729405,"current_range_meters":28400,"station_id":"ce4bgup2rcd13ifvqcn0","pricing_plan_id":"cebpf4jnsgd1na2vs0mg"},{"bike_id":"d912dc3c-ecc3-4af2-8b7b-cb91a53c7e64","system_id":"levelo_inurba_marseille","lat":43.2603,"lon":5.37553,"is_reserved":false,"is_disabled":false,"rental_uris":{"android":"levelo://app?vid=d912dc3c-ecc3-4af2-8b7b-cb91a53c7e64","ios":"levelo://app?vid=d912dc3c-ecc3-4af2-8b7b-cb91a53c7e64"},"vehicle_type_id":"4","last_reported":1736729405,"current_range_meters":37600,"station_id":"ce4bhgh2rcd13ifvqfa0","pricing_plan_id":"cebpf4jnsgd1na2vs0mg"},{"bike_id":"87ccb34b-daa2-44da-8614-ae9242a2c3e3","system_id":"levelo_inurba_marseille","lat":43.31169,"lon":5.38725,"is_reserved":false,"is_disabled":false,"rental_uris":{"android":"levelo://app?vid=87ccb34b-daa2-44da-8614-ae9242a2c3e3","ios":"levelo://app?vid=87ccb34b-daa2-44da-8614-ae9242a2c3e3"},"vehicle_type_id":"4","last_reported":1736729405,"current_range_meters":28400,"station_id":"ce4bgv12rcd13ifvqcp0","pricing_plan_id":"cebpf4jnsgd1na2vs0mg"},{"bike_id":"d8327471-e10e-4e1d-a46b-c43156fc0620","system_id":"levelo_inurba_marseille","lat":43.26781,"lon":5.39418,"is_reserved":false,"is_disabled":true,"rental_uris":{"android":"levelo://app?vid=d8327471-e10e-4e1d-a46b-c43156fc0620","ios":"levelo://app?vid=d8327471-e10e-4e1d-a46b-c43156fc0620"},"vehicle_type_id":"4","last_reported":1736729405,"current_range_meters":0,"station_id":"ce4bhh12rcd13ifvqfg0","pricing_plan_id":"cebpf4jnsgd1na2vs0mg"},{"bike_id":"e85c2ebe-b11f-4128-a631-201393738b41","system_id":"levelo_inurba_marseille","lat":43.315331,"lon":5.380276,"is_reserved":false,"is_disabled":false,"rental_uris":{"android":"levelo://app?vid=e85c2ebe-b11f-4128-a631-201393738b41","ios":"levelo://app?vid=e85c2ebe-b11f-4128-a631-201393738b41"},"vehicle_type_id":"4","last_reported":1736729405,"current_range_meters":38800,"station_id":"ce4bhsp2rcd13ifvqi50","pricing_plan_id":"cebpf4jnsgd1na2vs0mg"},{"bike_id":"c5ff6db6-8de9-42d1-8f1a-7952d737cffb","system_id":"levelo_inurba_marseille","lat":43.32484,"lon":5.36572,"is_reserved":false,"is_disabled":false,"rental_uris":{"android":"levelo://app?vid=c5ff6db6-8de9-42d1-8f1a-7952d737cffb","ios":"levelo://app?vid=c5ff6db6-8de9-42d1-8f1a-7952d737cffb"},"vehicle_type_id":"4","last_reported":1736729405,"current_range_meters":34800,"station_id":"ce4bhs12rcd13ifvqhvg","pricing_plan_id":"cebpf4jnsgd1na2vs0mg"},{"bike_id":"7d959c37-4d60-4094-901d-194afd224ca0","system_id":"levelo_inurba_marseille","lat":43.28344,"lon":5.38634,"is_reserved":false,"is_disabled":true,"rental_uris":{"android":"levelo://app?vid=7d959c37-4d60-4094-901d-194afd224ca0","ios":"levelo://app?vid=7d959c37-4d60-4094-901d-194afd224ca0"},"vehicle_type_id":"4","last_reported":1736729405,"current_range_meters":8800,"station_id":"ce4bh492rcd13ifvqdvg","pricing_plan_id":"cebpf4jnsgd1na2vs0mg"},{"bike_id":"6c421ff1-6a8e-40c2-8d9d-a1645718eb9f","system_id":"levelo_inurba_marseille","lat":43.290007,"lon":5.355986,"is_reserved":false,"is_disabled":false,"rental_uris":{"android":"levelo://app?vid=6c421ff1-6a8e-40c2-8d9d-a1645718eb9f","ios":"levelo://app?vid=6c421ff1-6a8e-40c2-8d9d-a1645718eb9f"},"vehicle_type_id":"4","last_reported":1736729405,"current_range_meters":38000,"station_id":"ce4bhb92rcd13ifvqen0","pricing_plan_id":"cebpf4jnsgd1na2vs0mg"},{"bike_id":"4742796d-6201-4132-b59f-b3631229772b","system_id":"levelo_inurba_marseille","lat":43.28144,"lon":5.42634,"is_reserved":false,"is_disabled":false,"rental_uris":{"android":"levelo://app?vid=4742796d-6201-4132-b59f-b3631229772b","ios":"levelo://app?vid=4742796d-6201-4132-b59f-b3631229772b"},"vehicle_type_id":"4","last_reported":1736729405,"current_range_meters":38800,"station_id":"ce4bhnh2rcd13ifvqgug","pricing_plan_id":"cebpf4jnsgd1na2vs0mg"},{"bike_id":"8602f1cc-8333-4ad1-84b1-f0f3deafd565","system_id":"levelo_inurba_marseille","lat":43.28467,"lon":5.35932,"is_reserved":false,"is_disabled":false,"rental_uris":{"android":"levelo://app?vid=8602f1cc-8333-4ad1-84b1-f0f3deafd565","ios":"levelo://app?vid=8602f1cc-8333-4ad1-84b1-f0f3deafd565"},"vehicle_type_id":"4","last_reported":1736729405,"current_range_meters":36400,"station_id":"","pricing_plan_id":"cebpf4jnsgd1na2vs0mg"},{"bike_id":"426ee80e-06b0-4d0f-86a5-ea8ad64aaa11","system_id":"levelo_inurba_marseille","lat":43.28919,"lon":5.43757,"is_reserved":false,"is_disabled":false,"rental_uris":{"android":"levelo://app?vid=426ee80e-06b0-4d0f-86a5-ea8ad64aaa11","ios":"levelo://app?vid=426ee80e-06b0-4d0f-86a5-ea8ad64aaa11"},"vehicle_type_id":"4","last_reported":1736729405,"current_range_meters":10000,"station_id":"","pricing_plan_id":"cebpf4jnsgd1na2vs0mg"},{"bike_id":"0b147253-30fb-48ef-874e-8cb95fd144ba","system_id":"levelo_inurba_marseille","lat":43.28847,"lon":5.39315,"is_reserved":false,"is_disabled":false,"rental_uris":{"android":"levelo://app?vid=0b147253-30fb-48ef-874e-8cb95fd144ba","ios":"levelo://app?vid=0b147253-30fb-48ef-874e-8cb95fd144ba"},"vehicle_type_id":"4","last_reported":1736729405,"current_range_meters":37600,"station_id":"ce4bh2p2rcd13ifvqdi0","pricing_plan_id":"cebpf4jnsgd1na2vs0mg"},{"bike_id":"b29dca30-1f99-4556-8d02-1cd94cfb8ea1","system_id":"levelo_inurba_marseille","lat":43.32499,"lon":5.36567,"is_reserved":false,"is_disabled":false,"rental_uris":{"android":"levelo://app?vid=b29dca30-1f99-4556-8d02-1cd94cfb8ea1","ios":"levelo://app?vid=b29dca30-1f99-4556-8d02-1cd94cfb8ea1"},"vehicle_type_id":"4","last_reported":1736729405,"current_range_meters":11200,"station_id":"ce4bhs12rcd13ifvqhvg","pricing_plan_id":"cebpf4jnsgd1na2vs0mg"},{"bike_id":"982ecbca-a5f1-4927-8f97-c9b94d79b6ff","system_id":"levelo_inurba_marseille","lat":43.29709,"lon":5.36602,"is_reserved":false,"is_disabled":false,"rental_uris":{"android":"levelo://app?vid=982ecbca-a5f1-4927-8f97-c9b94d79b6ff","ios":"levelo://app?vid=982ecbca-a5f1-4927-8f97-c9b94d79b6ff"},"vehicle_type_id":"4","last_reported":1736729405,"current_range_meters":33600,"station_id":"ce4bgn12rcd13ifvqbt0","pricing_plan_id":"cebpf4jnsgd1na2vs0mg"},{"bike_id":"969e27ab-5a9e-459e-9526-3b57e6f57682","system_id":"levelo_inurba_marseille","lat":43.22922,"lon":5.35373,"is_reserved":false,"is_disabled":false,"rental_uris":{"android":"levelo://app?vid=969e27ab-5a9e-459e-9526-3b57e6f57682","ios":"levelo://app?vid=969e27ab-5a9e-459e-9526-3b57e6f57682"},"vehicle_type_id":"4","last_reported":1736729405,"current_range_meters":7200,"station_id":"cpo3532slgdg3j2ikp40","pricing_plan_id":"cebpf4jnsgd1na2vs0mg"},{"bike_id":"b40b0d13-568c-4b69-8f04-0f9704ad6133","system_id":"levelo_inurba_marseille","lat":43.29251,"lon":5.40912,"is_reserved":false,"is_disabled":false,"rental_uris":{"android":"levelo://app?vid=b40b0d13-568c-4b69-8f04-0f9704ad6133","ios":"levelo://app?vid=b40b0d13-568c-4b69-8f04-0f9704ad6133"},"vehicle_type_id":"4","last_reported":1736729405,"current_range_meters":38800,"station_id":"ce4bh192rcd13ifvqdc0","pricing_plan_id":"cebpf4jnsgd1na2vs0mg"},{"bike_id":"8fb8f674-c6af-4e1e-bc3c-f16a04fe6e1a","system_id":"levelo_inurba_marseille","lat":43.29057,"lon":5.35908,"is_reserved":false,"is_disabled":false,"rental_uris":{"android":"levelo://app?vid=8fb8f674-c6af-4e1e-bc3c-f16a04fe6e1a","ios":"levelo://app?vid=8fb8f674-c6af-4e1e-bc3c-f16a04fe6e1a"},"vehicle_type_id":"4","last_reported":1736729405,"current_range_meters":38000,"station_id":"ce4bha92rcd13ifvqeg0","pricing_plan_id":"cebpf4jnsgd1na2vs0mg"},{"bike_id":"b96313d8-2431-4ad9-8394-fe09b175b756","system_id":"levelo_inurba_marseille","lat":43.28031,"lon":5.36943,"is_reserved":false,"is_disabled":false,"rental_uris":{"android":"levelo://app?vid=b96313d8-2431-4ad9-8394-fe09b175b756","ios":"levelo://app?vid=b96313d8-2431-4ad9-8394-fe09b175b756"},"vehicle_type_id":"4","last_reported":1736729405,"current_range_meters":37600,"station_id":"ce4bha12rcd13ifvqef0","pricing_plan_id":"cebpf4jnsgd1na2vs0mg"},{"bike_id":"c57472a4-4d7d-4e98-a197-dfe0bfa4547f","system_id":"levelo_inurba_marseille","lat":43.28677,"lon":5.35198,"is_reserved":false,"is_disabled":false,"rental_uris":{"android":"levelo://app?vid=c57472a4-4d7d-4e98-a197-dfe0bfa4547f","ios":"levelo://app?vid=c57472a4-4d7d-4e98-a197-dfe0bfa4547f"},"vehicle_type_id":"4","last_reported":1736729405,"current_range_meters":29600,"station_id":"","pricing_plan_id":"cebpf4jnsgd1na2vs0mg"},{"bike_id":"0ccd9dc9-42fb-4722-abf3-9f54fe93ec90","system_id":"levelo_inurba_marseille","lat":43.308843,"lon":5.371916,"is_reserved":false,"is_disabled":false,"rental_uris":{"android":"levelo://app?vid=0ccd9dc9-42fb-4722-abf3-9f54fe93ec90","ios":"levelo://app?vid=0ccd9dc9-42fb-4722-abf3-9f54fe93ec90"},"vehicle_type_id":"4","last_reported":1736729405,"current_range_meters":28000,"station_id":"ce4bguh2rcd13ifvqckg","pricing_plan_id":"cebpf4jnsgd1na2vs0mg"},{"bike_id":"7fcb04d8-ebf0-4f63-a7a4-6b609716deb6","system_id":"levelo_inurba_marseille","lat":43.29195,"lon":5.39325,"is_reserved":false,"is_disabled":true,"rental_uris":{"android":"levelo://app?vid=7fcb04d8-ebf0-4f63-a7a4-6b609716deb6","ios":"levelo://app?vid=7fcb04d8-ebf0-4f63-a7a4-6b609716deb6"},"vehicle_type_id":"4","last_reported":1736729405,"current_range_meters":22000,"station_id":"ce4bh192rcd13ifvqdd0","pricing_plan_id":"cebpf4jnsgd1na2vs0mg"},{"bike_id":"f4dbc556-58b0-4dfd-be99-18a51c032520","system_id":"levelo_inurba_marseille","lat":43.24194,"lon":5.39718,"is_reserved":false,"is_disabled":true,"rental_uris":{"android":"levelo://app?vid=f4dbc556-58b0-4dfd-be99-18a51c032520","ios":"levelo://app?vid=f4dbc556-58b0-4dfd-be99-18a51c032520"},"vehicle_type_id":"4","last_reported":1736729405,"current_range_meters":33200,"station_id":"ce4bhn12rcd13ifvqgpg","pricing_plan_id":"cebpf4jnsgd1na2vs0mg"},{"bike_id":"9c62e164-6cf9-4292-996f-7c2ed5673e8e","system_id":"levelo_inurba_marseille","lat":43.23948,"lon":5.36639,"is_reserved":false,"is_disabled":false,"rental_uris":{"android":"levelo://app?vid=9c62e164-6cf9-4292-996f-7c2ed5673e8e","ios":"levelo://app?vid=9c62e164-6cf9-4292-996f-7c2ed5673e8e"},"vehicle_type_id":"4","last_reported":1736729405,"current_range_meters":25600,"station_id":"ce4bhi12rcd13ifvqfp0","pricing_plan_id":"cebpf4jnsgd1na2vs0mg"},{"bike_id":"2c8b9a91-d113-453c-9d2c-fe906339173f","system_id":"levelo_inurba_marseille","lat":43.337336,"lon":5.391813,"is_reserved":false,"is_disabled":false,"rental_uris":{"android":"levelo://app?vid=2c8b9a91-d113-453c-9d2c-fe906339173f","ios":"levelo://app?vid=2c8b9a91-d113-453c-9d2c-fe906339173f"},"vehicle_type_id":"4","last_reported":1736729405,"current_range_meters":37600,"station_id":"ce4bhr92rcd13ifvqhsg","pricing_plan_id":"cebpf4jnsgd1na2vs0mg"},{"bike_id":"b93cb14a-f38b-4b9b-b178-a60c8f45c1a4","system_id":"levelo_inurba_marseille","lat":43.25729,"lon":5.41106,"is_reserved":false,"is_disabled":false,"rental_uris":{"android":"levelo://app?vid=b93cb14a-f38b-4b9b-b178-a60c8f45c1a4","ios":"levelo://app?vid=b93cb14a-f38b-4b9b-b178-a60c8f45c1a4"},"vehicle_type_id":"4","last_reported":1736729405,"current_range_meters":38800,"station_id":"ce4bhkp2rcd13ifvqgd0","pricing_plan_id":"cebpf4jnsgd1na2vs0mg"},{"bike_id":"45636413-29bd-43b6-bd8b-1246eb3c7c1a","system_id":"levelo_inurba_marseille","lat":43.27115,"lon":5.38511,"is_reserved":false,"is_disabled":false,"rental_uris":{"android":"levelo://app?vid=45636413-29bd-43b6-bd8b-1246eb3c7c1a","ios":"levelo://app?vid=45636413-29bd-43b6-bd8b-1246eb3c7c1a"},"vehicle_type_id":"4","last_reported":1736729405,"current_range_meters":7200,"station_id":"","pricing_plan_id":"cebpf4jnsgd1na2vs0mg"},{"bike_id":"4cfd0365-8b1d-4e49-bb82-5f4c01d5fe09","system_id":"levelo_inurba_marseille","lat":43.28267,"lon":5.35067,"is_reserved":false,"is_disabled":false,"rental_uris":{"android":"levelo://app?vid=4cfd0365-8b1d-4e49-bb82-5f4c01d5fe09","ios":"levelo://app?vid=4cfd0365-8b1d-4e49-bb82-5f4c01d5fe09"},"vehicle_type_id":"4","last_reported":1736729405,"current_range_meters":38800,"station_id":"ce4bhbp2rcd13ifvqerg","pricing_plan_id":"cebpf4jnsgd1na2vs0mg"},{"bike_id":"14d6ea3c-5205-4ed3-89a2-8a340e43c2e0","system_id":"levelo_inurba_marseille","lat":43.28935,"lon":5.36623,"is_reserved":false,"is_disabled":false,"rental_uris":{"android":"levelo://app?vid=14d6ea3c-5205-4ed3-89a2-8a340e43c2e0","ios":"levelo://app?vid=14d6ea3c-5205-4ed3-89a2-8a340e43c2e0"},"vehicle_type_id":"4","last_reported":1736729405,"current_range_meters":25200,"station_id":"ce4bhap2rcd13ifvqek0","pricing_plan_id":"cebpf4jnsgd1na2vs0mg"},{"bike_id":"80609ff8-7d7d-4ae2-9159-aea837c7c52b","system_id":"levelo_inurba_marseille","lat":43.239559,"lon":5.366383,"is_reserved":false,"is_disabled":false,"rental_uris":{"android":"levelo://app?vid=80609ff8-7d7d-4ae2-9159-aea837c7c52b","ios":"levelo://app?vid=80609ff8-7d7d-4ae2-9159-aea837c7c52b"},"vehicle_type_id":"4","last_reported":1736729405,"current_range_meters":38800,"station_id":"ce4bhi12rcd13ifvqfp0","pricing_plan_id":"cebpf4jnsgd1na2vs0mg"},{"bike_id":"38a88ea6-a94b-4e4b-81db-6e3ebb97fafa","system_id":"levelo_inurba_marseille","lat":43.24077,"lon":5.37747,"is_reserved":false,"is_disabled":false,"rental_uris":{"android":"levelo://app?vid=38a88ea6-a94b-4e4b-81db-6e3ebb97fafa","ios":"levelo://app?vid=38a88ea6-a94b-4e4b-81db-6e3ebb97fafa"},"vehicle_type_id":"4","last_reported":1736729405,"current_range_meters":38400,"station_id":"ce4bhnp2rcd13ifvqgvg","pricing_plan_id":"cebpf4jnsgd1na2vs0mg"},{"bike_id":"c2b657e0-67fb-4721-a4d6-0ebb2fa0fcbe","system_id":"levelo_inurba_marseille","lat":43.28612,"lon":5.35125,"is_reserved":false,"is_disabled":false,"rental_uris":{"android":"levelo://app?vid=c2b657e0-67fb-4721-a4d6-0ebb2fa0fcbe","ios":"levelo://app?vid=c2b657e0-67fb-4721-a4d6-0ebb2fa0fcbe"},"vehicle_type_id":"4","last_reported":1736729405,"current_range_meters":36000,"station_id":"ce4bhch2rcd13ifvqeug","pricing_plan_id":"cebpf4jnsgd1na2vs0mg"},{"bike_id":"0457911c-0fb8-4df6-a57f-b7328df49140","system_id":"levelo_inurba_marseille","lat":43.25822,"lon":5.39439,"is_reserved":false,"is_disabled":false,"rental_uris":{"android":"levelo://app?vid=0457911c-0fb8-4df6-a57f-b7328df49140","ios":"levelo://app?vid=0457911c-0fb8-4df6-a57f-b7328df49140"},"vehicle_type_id":"4","last_reported":1736729405,"current_range_meters":16800,"station_id":"ce4bhip2rcd13ifvqft0","pricing_plan_id":"cebpf4jnsgd1na2vs0mg"},{"bike_id":"82af5156-3c9f-43ad-8e6c-facb65bb17d8","system_id":"levelo_inurba_marseille","lat":43.32481,"lon":5.36569,"is_reserved":false,"is_disabled":false,"rental_uris":{"android":"levelo://app?vid=82af5156-3c9f-43ad-8e6c-facb65bb17d8","ios":"levelo://app?vid=82af5156-3c9f-43ad-8e6c-facb65bb17d8"},"vehicle_type_id":"4","last_reported":1736729405,"current_range_meters":26800,"station_id":"ce4bhs12rcd13ifvqhvg","pricing_plan_id":"cebpf4jnsgd1na2vs0mg"},{"bike_id":"f0f94e09-5530-4900-8026-eecc2094d5d7","system_id":"levelo_inurba_marseille","lat":43.26505,"lon":5.39544,"is_reserved":false,"is_disabled":false,"rental_uris":{"android":"levelo://app?vid=f0f94e09-5530-4900-8026-eecc2094d5d7","ios":"levelo://app?vid=f0f94e09-5530-4900-8026-eecc2094d5d7"},"vehicle_type_id":"4","last_reported":1736729405,"current_range_meters":36800,"station_id":"ce4bhi12rcd13ifvqfq0","pricing_plan_id":"cebpf4jnsgd1na2vs0mg"},{"bike_id":"0a356036-1a61-4215-9149-8e2dc8e5c8d1","system_id":"levelo_inurba_marseille","lat":43.25578,"lon":5.38242,"is_reserved":false,"is_disabled":false,"rental_uris":{"android":"levelo://app?vid=0a356036-1a61-4215-9149-8e2dc8e5c8d1","ios":"levelo://app?vid=0a356036-1a61-4215-9149-8e2dc8e5c8d1"},"vehicle_type_id":"4","last_reported":1736729405,"current_range_meters":34000,"station_id":"ce4bhih2rcd13ifvqfs0","pricing_plan_id":"cebpf4jnsgd1na2vs0mg"},{"bike_id":"b301adbb-50e9-440c-adfc-34f8f31ba565","system_id":"levelo_inurba_marseille","lat":43.302,"lon":5.39456,"is_reserved":false,"is_disabled":false,"rental_uris":{"android":"levelo://app?vid=b301adbb-50e9-440c-adfc-34f8f31ba565","ios":"levelo://app?vid=b301adbb-50e9-440c-adfc-34f8f31ba565"},"vehicle_type_id":"4","last_reported":1736729405,"current_range_meters":38400,"station_id":"ce4bh0p2rcd13ifvqd70","pricing_plan_id":"cebpf4jnsgd1na2vs0mg"},{"bike_id":"33f772a9-3316-47c9-ba2c-b8bb5b0473dc","system_id":"levelo_inurba_marseille","lat":43.295901,"lon":5.367304,"is_reserved":false,"is_disabled":true,"rental_uris":{"android":"levelo://app?vid=33f772a9-3316-47c9-ba2c-b8bb5b0473dc","ios":"levelo://app?vid=33f772a9-3316-47c9-ba2c-b8bb5b0473dc"},"vehicle_type_id":"4","last_reported":1736729405,"current_range_meters":38800,"station_id":"ce4bgph2rcd13ifvqc2g","pricing_plan_id":"cebpf4jnsgd1na2vs0mg"},{"bike_id":"e6e7af23-a54b-4039-acd2-27946349d00e","system_id":"levelo_inurba_marseille","lat":43.279058,"lon":5.380068,"is_reserved":false,"is_disabled":false,"rental_uris":{"android":"levelo://app?vid=e6e7af23-a54b-4039-acd2-27946349d00e","ios":"levelo://app?vid=e6e7af23-a54b-4039-acd2-27946349d00e"},"vehicle_type_id":"4","last_reported":1736729405,"current_range_meters":38000,"station_id":"ce4bhf92rcd13ifvqf50","pricing_plan_id":"cebpf4jnsgd1na2vs0mg"},{"bike_id":"3f3fb9b9-64aa-4643-9556-77b3be0c0c4b","system_id":"levelo_inurba_marseille","lat":43.28927,"lon":5.36629,"is_reserved":false,"is_disabled":false,"rental_uris":{"android":"levelo://app?vid=3f3fb9b9-64aa-4643-9556-77b3be0c0c4b","ios":"levelo://app?vid=3f3fb9b9-64aa-4643-9556-77b3be0c0c4b"},"vehicle_type_id":"4","last_reported":1736729405,"current_range_meters":38800,"station_id":"ce4bhap2rcd13ifvqek0","pricing_plan_id":"cebpf4jnsgd1na2vs0mg"},{"bike_id":"9c8c0f19-6acd-4047-9b73-cd2d2daf7c61","system_id":"levelo_inurba_marseille","lat":43.32118,"lon":5.36791,"is_reserved":false,"is_disabled":false,"rental_uris":{"android":"levelo://app?vid=9c8c0f19-6acd-4047-9b73-cd2d2daf7c61","ios":"levelo://app?vid=9c8c0f19-6acd-4047-9b73-cd2d2daf7c61"},"vehicle_type_id":"4","last_reported":1736729405,"current_range_meters":20000,"station_id":"ce4bhrh2rcd13ifvqhug","pricing_plan_id":"cebpf4jnsgd1na2vs0mg"},{"bike_id":"8f52b658-e721-4ac1-9b5e-2b1ca9e5b89a","system_id":"levelo_inurba_marseille","lat":43.28929,"lon":5.36639,"is_reserved":false,"is_disabled":false,"rental_uris":{"android":"levelo://app?vid=8f52b658-e721-4ac1-9b5e-2b1ca9e5b89a","ios":"levelo://app?vid=8f52b658-e721-4ac1-9b5e-2b1ca9e5b89a"},"vehicle_type_id":"4","last_reported":1736729405,"current_range_meters":22800,"station_id":"ce4bhap2rcd13ifvqek0","pricing_plan_id":"cebpf4jnsgd1na2vs0mg"},{"bike_id":"55b973ea-e966-4b4c-8d25-5151af136086","system_id":"levelo_inurba_marseille","lat":43.27668,"lon":5.38933,"is_reserved":false,"is_disabled":false,"rental_uris":{"android":"levelo://app?vid=55b973ea-e966-4b4c-8d25-5151af136086","ios":"levelo://app?vid=55b973ea-e966-4b4c-8d25-5151af136086"},"vehicle_type_id":"4","last_reported":1736729405,"current_range_meters":37600,"station_id":"ce4bhi12rcd13ifvqfo0","pricing_plan_id":"cebpf4jnsgd1na2vs0mg"},{"bike_id":"0756869f-d496-490d-b5d4-ec25e039f4fb","system_id":"levelo_inurba_marseille","lat":43.289403,"lon":5.366231,"is_reserved":false,"is_disabled":true,"rental_uris":{"android":"levelo://app?vid=0756869f-d496-490d-b5d4-ec25e039f4fb","ios":"levelo://app?vid=0756869f-d496-490d-b5d4-ec25e039f4fb"},"vehicle_type_id":"4","last_reported":1736729405,"current_range_meters":7200,"station_id":"ce4bhap2rcd13ifvqek0","pricing_plan_id":"cebpf4jnsgd1na2vs0mg"},{"bike_id":"23fa248b-a29f-4809-83a2-8dfa8df2caa7","system_id":"levelo_inurba_marseille","lat":43.28617,"lon":5.35103,"is_reserved":false,"is_disabled":false,"rental_uris":{"android":"levelo://app?vid=23fa248b-a29f-4809-83a2-8dfa8df2caa7","ios":"levelo://app?vid=23fa248b-a29f-4809-83a2-8dfa8df2caa7"},"vehicle_type_id":"4","last_reported":1736729405,"current_range_meters":11200,"station_id":"ce4bhch2rcd13ifvqeug","pricing_plan_id":"cebpf4jnsgd1na2vs0mg"},{"bike_id":"1a2e9a5f-350d-4625-a0c2-b651b9dbe16c","system_id":"levelo_inurba_marseille","lat":43.28157,"lon":5.42644,"is_reserved":false,"is_disabled":false,"rental_uris":{"android":"levelo://app?vid=1a2e9a5f-350d-4625-a0c2-b651b9dbe16c","ios":"levelo://app?vid=1a2e9a5f-350d-4625-a0c2-b651b9dbe16c"},"vehicle_type_id":"4","last_reported":1736729405,"current_range_meters":38800,"station_id":"ce4bhnh2rcd13ifvqgug","pricing_plan_id":"cebpf4jnsgd1na2vs0mg"},{"bike_id":"066fc890-cce1-4b7e-a941-320c51e991c9","system_id":"levelo_inurba_marseille","lat":43.23962,"lon":5.36641,"is_reserved":false,"is_disabled":false,"rental_uris":{"android":"levelo://app?vid=066fc890-cce1-4b7e-a941-320c51e991c9","ios":"levelo://app?vid=066fc890-cce1-4b7e-a941-320c51e991c9"},"vehicle_type_id":"4","last_reported":1736729405,"current_range_meters":15200,"station_id":"ce4bhi12rcd13ifvqfp0","pricing_plan_id":"cebpf4jnsgd1na2vs0mg"},{"bike_id":"415cd49c-226b-4775-b563-42af67c9bd42","system_id":"levelo_inurba_marseille","lat":43.30805,"lon":5.37651,"is_reserved":false,"is_disabled":false,"rental_uris":{"android":"levelo://app?vid=415cd49c-226b-4775-b563-42af67c9bd42","ios":"levelo://app?vid=415cd49c-226b-4775-b563-42af67c9bd42"},"vehicle_type_id":"4","last_reported":1736729405,"current_range_meters":32400,"station_id":"ce4bgv92rcd13ifvqcq0","pricing_plan_id":"cebpf4jnsgd1na2vs0mg"},{"bike_id":"0fc074de-fef1-41e6-abbc-80d03e90afb6","system_id":"levelo_inurba_marseille","lat":43.24172,"lon":5.39719,"is_reserved":false,"is_disabled":false,"rental_uris":{"android":"levelo://app?vid=0fc074de-fef1-41e6-abbc-80d03e90afb6","ios":"levelo://app?vid=0fc074de-fef1-41e6-abbc-80d03e90afb6"},"vehicle_type_id":"4","last_reported":1736729405,"current_range_meters":27600,"station_id":"ce4bhn12rcd13ifvqgpg","pricing_plan_id":"cebpf4jnsgd1na2vs0mg"},{"bike_id":"869bb141-7007-4b1c-987d-7b78a1b94a69","system_id":"levelo_inurba_marseille","lat":43.28608,"lon":5.35093,"is_reserved":false,"is_disabled":false,"rental_uris":{"android":"levelo://app?vid=869bb141-7007-4b1c-987d-7b78a1b94a69","ios":"levelo://app?vid=869bb141-7007-4b1c-987d-7b78a1b94a69"},"vehicle_type_id":"4","last_reported":1736729405,"current_range_meters":26000,"station_id":"ce4bhch2rcd13ifvqeug","pricing_plan_id":"cebpf4jnsgd1na2vs0mg"},{"bike_id":"c4a9f4d8-3097-4c73-b16c-f476d0136944","system_id":"levelo_inurba_marseille","lat":43.250004,"lon":5.389311,"is_reserved":false,"is_disabled":false,"rental_uris":{"android":"levelo://app?vid=c4a9f4d8-3097-4c73-b16c-f476d0136944","ios":"levelo://app?vid=c4a9f4d8-3097-4c73-b16c-f476d0136944"},"vehicle_type_id":"4","last_reported":1736729405,"current_range_meters":16000,"station_id":"ce4bhgp2rcd13ifvqfd0","pricing_plan_id":"cebpf4jnsgd1na2vs0mg"},{"bike_id":"d86316ad-3575-4054-8b53-0ea542554b9e","system_id":"levelo_inurba_marseille","lat":43.303518,"lon":5.418736,"is_reserved":false,"is_disabled":false,"rental_uris":{"android":"levelo://app?vid=d86316ad-3575-4054-8b53-0ea542554b9e","ios":"levelo://app?vid=d86316ad-3575-4054-8b53-0ea542554b9e"},"vehicle_type_id":"4","last_reported":1736729405,"current_range_meters":38400,"station_id":"ce4bhop2rcd13ifvqh7g","pricing_plan_id":"cebpf4jnsgd1na2vs0mg"},{"bike_id":"51bb6953-dea8-4e82-96bf-52696267905f","system_id":"levelo_inurba_marseille","lat":43.230569,"lon":5.354905,"is_reserved":false,"is_disabled":true,"rental_uris":{"android":"levelo://app?vid=51bb6953-dea8-4e82-96bf-52696267905f","ios":"levelo://app?vid=51bb6953-dea8-4e82-96bf-52696267905f"},"vehicle_type_id":"4","last_reported":1736729405,"current_range_meters":16000,"station_id":"cpo3342slgdg3j2ifvpg","pricing_plan_id":"cebpf4jnsgd1na2vs0mg"},{"bike_id":"0a5cec8e-74f3-47b3-a082-b3315e813f59","system_id":"levelo_inurba_marseille","lat":43.23143,"lon":5.43721,"is_reserved":false,"is_disabled":false,"rental_uris":{"android":"levelo://app?vid=0a5cec8e-74f3-47b3-a082-b3315e813f59","ios":"levelo://app?vid=0a5cec8e-74f3-47b3-a082-b3315e813f59"},"vehicle_type_id":"4","last_reported":1736729405,"current_range_meters":18800,"station_id":"ce4bhmp2rcd13ifvqgog","pricing_plan_id":"cebpf4jnsgd1na2vs0mg"},{"bike_id":"8456e528-df8d-4a24-b1ff-bd96e9686306","system_id":"levelo_inurba_marseille","lat":43.28275,"lon":5.35081,"is_reserved":false,"is_disabled":false,"rental_uris":{"android":"levelo://app?vid=8456e528-df8d-4a24-b1ff-bd96e9686306","ios":"levelo://app?vid=8456e528-df8d-4a24-b1ff-bd96e9686306"},"vehicle_type_id":"4","last_reported":1736729405,"current_range_meters":24000,"station_id":"ce4bhbp2rcd13ifvqerg","pricing_plan_id":"cebpf4jnsgd1na2vs0mg"},{"bike_id":"dc388f0e-5ba4-4401-b2b7-3e59da087469","system_id":"levelo_inurba_marseille","lat":43.2862,"lon":5.35099,"is_reserved":false,"is_disabled":false,"rental_uris":{"android":"levelo://app?vid=dc388f0e-5ba4-4401-b2b7-3e59da087469","ios":"levelo://app?vid=dc388f0e-5ba4-4401-b2b7-3e59da087469"},"vehicle_type_id":"4","last_reported":1736729405,"current_range_meters":14800,"station_id":"ce4bhch2rcd13ifvqeug","pricing_plan_id":"cebpf4jnsgd1na2vs0mg"},{"bike_id":"96f0d2b4-e030-4d72-9ca1-16e79d81e73a","system_id":"levelo_inurba_marseille","lat":43.2719,"lon":5.40997,"is_reserved":false,"is_disabled":false,"rental_uris":{"android":"levelo://app?vid=96f0d2b4-e030-4d72-9ca1-16e79d81e73a","ios":"levelo://app?vid=96f0d2b4-e030-4d72-9ca1-16e79d81e73a"},"vehicle_type_id":"4","last_reported":1736729405,"current_range_meters":22000,"station_id":"ce4bhl12rcd13ifvqgf0","pricing_plan_id":"cebpf4jnsgd1na2vs0mg"},{"bike_id":"a2cf45d8-4ef3-4c3b-98d6-e733cf669766","system_id":"levelo_inurba_marseille","lat":43.2873,"lon":5.36085,"is_reserved":false,"is_disabled":false,"rental_uris":{"android":"levelo://app?vid=a2cf45d8-4ef3-4c3b-98d6-e733cf669766","ios":"levelo://app?vid=a2cf45d8-4ef3-4c3b-98d6-e733cf669766"},"vehicle_type_id":"4","last_reported":1736729405,"current_range_meters":38800,"station_id":"cki0cbj6b192h4jlfktg","pricing_plan_id":"cebpf4jnsgd1na2vs0mg"},{"bike_id":"62160565-b0d3-4232-a8a6-41ce656dda05","system_id":"levelo_inurba_marseille","lat":43.32285,"lon":5.38282,"is_reserved":false,"is_disabled":false,"rental_uris":{"android":"levelo://app?vid=62160565-b0d3-4232-a8a6-41ce656dda05","ios":"levelo://app?vid=62160565-b0d3-4232-a8a6-41ce656dda05"},"vehicle_type_id":"4","last_reported":1736729405,"current_range_meters":37600,"station_id":"ce4bhr12rcd13ifvqhqg","pricing_plan_id":"cebpf4jnsgd1na2vs0mg"},{"bike_id":"c84c60ce-c7f6-42eb-bb3c-f11a697bd396","system_id":"levelo_inurba_marseille","lat":43.29982,"lon":5.38504,"is_reserved":false,"is_disabled":true,"rental_uris":{"android":"levelo://app?vid=c84c60ce-c7f6-42eb-bb3c-f11a697bd396","ios":"levelo://app?vid=c84c60ce-c7f6-42eb-bb3c-f11a697bd396"},"vehicle_type_id":"4","last_reported":1736729405,"current_range_meters":2800,"station_id":"ce4bgj92rcd13ifvqbd0","pricing_plan_id":"cebpf4jnsgd1na2vs0mg"},{"bike_id":"2cb3366d-1a2d-42fc-96af-d32f2a24cffd","system_id":"levelo_inurba_marseille","lat":43.29559,"lon":5.39041,"is_reserved":false,"is_disabled":false,"rental_uris":{"android":"levelo://app?vid=2cb3366d-1a2d-42fc-96af-d32f2a24cffd","ios":"levelo://app?vid=2cb3366d-1a2d-42fc-96af-d32f2a24cffd"},"vehicle_type_id":"4","last_reported":1736729405,"current_range_meters":34000,"station_id":"ce4bh3p2rcd13ifvqdp0","pricing_plan_id":"cebpf4jnsgd1na2vs0mg"},{"bike_id":"139c6b3e-cefd-4de6-b959-befc5579d4ce","system_id":"levelo_inurba_marseille","lat":43.24834,"lon":5.37463,"is_reserved":false,"is_disabled":false,"rental_uris":{"android":"levelo://app?vid=139c6b3e-cefd-4de6-b959-befc5579d4ce","ios":"levelo://app?vid=139c6b3e-cefd-4de6-b959-befc5579d4ce"},"vehicle_type_id":"4","last_reported":1736729405,"current_range_meters":26000,"station_id":"","pricing_plan_id":"cebpf4jnsgd1na2vs0mg"},{"bike_id":"bb2c6734-3bde-49c2-b205-412e6ed0ca55","system_id":"levelo_inurba_marseille","lat":43.23958,"lon":5.36629,"is_reserved":false,"is_disabled":false,"rental_uris":{"android":"levelo://app?vid=bb2c6734-3bde-49c2-b205-412e6ed0ca55","ios":"levelo://app?vid=bb2c6734-3bde-49c2-b205-412e6ed0ca55"},"vehicle_type_id":"4","last_reported":1736729405,"current_range_meters":38000,"station_id":"ce4bhi12rcd13ifvqfp0","pricing_plan_id":"cebpf4jnsgd1na2vs0mg"},{"bike_id":"4f0f7639-bf2d-4ba3-ba00-24e7b217bba7","system_id":"levelo_inurba_marseille","lat":43.25132,"lon":5.40322,"is_reserved":false,"is_disabled":false,"rental_uris":{"android":"levelo://app?vid=4f0f7639-bf2d-4ba3-ba00-24e7b217bba7","ios":"levelo://app?vid=4f0f7639-bf2d-4ba3-ba00-24e7b217bba7"},"vehicle_type_id":"4","last_reported":1736729405,"current_range_meters":37600,"station_id":"ce4bhlh2rcd13ifvqgig","pricing_plan_id":"cebpf4jnsgd1na2vs0mg"},{"bike_id":"d4a1c371-336e-4a9f-bd59-f2cfc71fd153","system_id":"levelo_inurba_marseille","lat":43.24072,"lon":5.37748,"is_reserved":false,"is_disabled":false,"rental_uris":{"android":"levelo://app?vid=d4a1c371-336e-4a9f-bd59-f2cfc71fd153","ios":"levelo://app?vid=d4a1c371-336e-4a9f-bd59-f2cfc71fd153"},"vehicle_type_id":"4","last_reported":1736729405,"current_range_meters":24000,"station_id":"ce4bhnp2rcd13ifvqgvg","pricing_plan_id":"cebpf4jnsgd1na2vs0mg"},{"bike_id":"22fee87a-f898-46db-b391-62732cdcf6f3","system_id":"levelo_inurba_marseille","lat":43.31491,"lon":5.37289,"is_reserved":false,"is_disabled":false,"rental_uris":{"android":"levelo://app?vid=22fee87a-f898-46db-b391-62732cdcf6f3","ios":"levelo://app?vid=22fee87a-f898-46db-b391-62732cdcf6f3"},"vehicle_type_id":"4","last_reported":1736729405,"current_range_meters":38000,"station_id":"ce4bgt12rcd13ifvqcd0","pricing_plan_id":"cebpf4jnsgd1na2vs0mg"},{"bike_id":"c1c51f67-6348-4482-a3d4-31704cefaf37","system_id":"levelo_inurba_marseille","lat":43.28611,"lon":5.35088,"is_reserved":false,"is_disabled":false,"rental_uris":{"android":"levelo://app?vid=c1c51f67-6348-4482-a3d4-31704cefaf37","ios":"levelo://app?vid=c1c51f67-6348-4482-a3d4-31704cefaf37"},"vehicle_type_id":"4","last_reported":1736729405,"current_range_meters":36400,"station_id":"ce4bhch2rcd13ifvqeug","pricing_plan_id":"cebpf4jnsgd1na2vs0mg"},{"bike_id":"94c4d116-b224-45ba-a7f4-a1627f438c71","system_id":"levelo_inurba_marseille","lat":43.29177,"lon":5.37157,"is_reserved":false,"is_disabled":false,"rental_uris":{"android":"levelo://app?vid=94c4d116-b224-45ba-a7f4-a1627f438c71","ios":"levelo://app?vid=94c4d116-b224-45ba-a7f4-a1627f438c71"},"vehicle_type_id":"4","last_reported":1736729405,"current_range_meters":38000,"station_id":"ce4bha92rcd13ifvqeh0","pricing_plan_id":"cebpf4jnsgd1na2vs0mg"},{"bike_id":"b88fcfe2-e906-48dc-b10d-96b9ef58544e","system_id":"levelo_inurba_marseille","lat":43.31713,"lon":5.40468,"is_reserved":false,"is_disabled":false,"rental_uris":{"android":"levelo://app?vid=b88fcfe2-e906-48dc-b10d-96b9ef58544e","ios":"levelo://app?vid=b88fcfe2-e906-48dc-b10d-96b9ef58544e"},"vehicle_type_id":"4","last_reported":1736729405,"current_range_meters":25200,"station_id":"ce4bh012rcd13ifvqd00","pricing_plan_id":"cebpf4jnsgd1na2vs0mg"},{"bike_id":"a1f1f268-04ca-4934-a758-448d0aeedcd1","system_id":"levelo_inurba_marseille","lat":43.28714,"lon":5.39983,"is_reserved":false,"is_disabled":true,"rental_uris":{"android":"levelo://app?vid=a1f1f268-04ca-4934-a758-448d0aeedcd1","ios":"levelo://app?vid=a1f1f268-04ca-4934-a758-448d0aeedcd1"},"vehicle_type_id":"4","last_reported":1736729405,"current_range_meters":36000,"station_id":"ce4bho92rcd13ifvqh3g","pricing_plan_id":"cebpf4jnsgd1na2vs0mg"},{"bike_id":"f5af3afc-707a-47cb-9ea7-21ea8cbf39c3","system_id":"levelo_inurba_marseille","lat":43.23182,"lon":5.39983,"is_reserved":false,"is_disabled":false,"rental_uris":{"android":"levelo://app?vid=f5af3afc-707a-47cb-9ea7-21ea8cbf39c3","ios":"levelo://app?vid=f5af3afc-707a-47cb-9ea7-21ea8cbf39c3"},"vehicle_type_id":"4","last_reported":1736729405,"current_range_meters":38800,"station_id":"ce4bhn12rcd13ifvqgqg","pricing_plan_id":"cebpf4jnsgd1na2vs0mg"},{"bike_id":"691b5a61-4b08-45ed-a744-e5437a0deb46","system_id":"levelo_inurba_marseille","lat":43.2953,"lon":5.39037,"is_reserved":false,"is_disabled":false,"rental_uris":{"android":"levelo://app?vid=691b5a61-4b08-45ed-a744-e5437a0deb46","ios":"levelo://app?vid=691b5a61-4b08-45ed-a744-e5437a0deb46"},"vehicle_type_id":"4","last_reported":1736729405,"current_range_meters":35600,"station_id":"ce4bh3p2rcd13ifvqdp0","pricing_plan_id":"cebpf4jnsgd1na2vs0mg"},{"bike_id":"43d1392c-f8d8-4498-8ddc-43615aba88c5","system_id":"levelo_inurba_marseille","lat":43.27962,"lon":5.38697,"is_reserved":false,"is_disabled":false,"rental_uris":{"android":"levelo://app?vid=43d1392c-f8d8-4498-8ddc-43615aba88c5","ios":"levelo://app?vid=43d1392c-f8d8-4498-8ddc-43615aba88c5"},"vehicle_type_id":"4","last_reported":1736729405,"current_range_meters":8800,"station_id":"ce4bhg12rcd13ifvqf80","pricing_plan_id":"cebpf4jnsgd1na2vs0mg"},{"bike_id":"a754abf4-87cb-4915-a97f-0b4d0e8971f5","system_id":"levelo_inurba_marseille","lat":43.286185,"lon":5.351055,"is_reserved":false,"is_disabled":false,"rental_uris":{"android":"levelo://app?vid=a754abf4-87cb-4915-a97f-0b4d0e8971f5","ios":"levelo://app?vid=a754abf4-87cb-4915-a97f-0b4d0e8971f5"},"vehicle_type_id":"4","last_reported":1736729405,"current_range_meters":36000,"station_id":"ce4bhch2rcd13ifvqeug","pricing_plan_id":"cebpf4jnsgd1na2vs0mg"},{"bike_id":"b51b8509-c21e-40ac-802b-edd56e55cdd0","system_id":"levelo_inurba_marseille","lat":43.303694,"lon":5.418839,"is_reserved":false,"is_disabled":true,"rental_uris":{"android":"levelo://app?vid=b51b8509-c21e-40ac-802b-edd56e55cdd0","ios":"levelo://app?vid=b51b8509-c21e-40ac-802b-edd56e55cdd0"},"vehicle_type_id":"4","last_reported":1736729405,"current_range_meters":25200,"station_id":"ce4bhop2rcd13ifvqh7g","pricing_plan_id":"cebpf4jnsgd1na2vs0mg"},{"bike_id":"984325b0-34ed-4e66-aa38-ae384583f87e","system_id":"levelo_inurba_marseille","lat":43.33058,"lon":5.4082,"is_reserved":false,"is_disabled":false,"rental_uris":{"android":"levelo://app?vid=984325b0-34ed-4e66-aa38-ae384583f87e","ios":"levelo://app?vid=984325b0-34ed-4e66-aa38-ae384583f87e"},"vehicle_type_id":"4","last_reported":1736729405,"current_range_meters":24400,"station_id":"","pricing_plan_id":"cebpf4jnsgd1na2vs0mg"},{"bike_id":"78fc2529-851e-44ea-9e17-e5a76c9197b1","system_id":"levelo_inurba_marseille","lat":43.29743,"lon":5.37708,"is_reserved":false,"is_disabled":true,"rental_uris":{"android":"levelo://app?vid=78fc2529-851e-44ea-9e17-e5a76c9197b1","ios":"levelo://app?vid=78fc2529-851e-44ea-9e17-e5a76c9197b1"},"vehicle_type_id":"4","last_reported":1736729405,"current_range_meters":38800,"station_id":"ce4bgkh2rcd13ifvqbl0","pricing_plan_id":"cebpf4jnsgd1na2vs0mg"},{"bike_id":"6e0b7390-3f03-4896-850a-30b735b3a5fe","system_id":"levelo_inurba_marseille","lat":43.25492,"lon":5.37656,"is_reserved":false,"is_disabled":false,"rental_uris":{"android":"levelo://app?vid=6e0b7390-3f03-4896-850a-30b735b3a5fe","ios":"levelo://app?vid=6e0b7390-3f03-4896-850a-30b735b3a5fe"},"vehicle_type_id":"4","last_reported":1736729405,"current_range_meters":13600,"station_id":"ce4bhh12rcd13ifvqff0","pricing_plan_id":"cebpf4jnsgd1na2vs0mg"},{"bike_id":"759d91c5-2392-48f6-8f2b-fc1cfd9b9ecd","system_id":"levelo_inurba_marseille","lat":43.28273,"lon":5.35085,"is_reserved":false,"is_disabled":true,"rental_uris":{"android":"levelo://app?vid=759d91c5-2392-48f6-8f2b-fc1cfd9b9ecd","ios":"levelo://app?vid=759d91c5-2392-48f6-8f2b-fc1cfd9b9ecd"},"vehicle_type_id":"4","last_reported":1736729405,"current_range_meters":27200,"station_id":"ce4bhbp2rcd13ifvqerg","pricing_plan_id":"cebpf4jnsgd1na2vs0mg"},{"bike_id":"ebc55eb9-194f-4e99-8e23-b42fca6cc43d","system_id":"levelo_inurba_marseille","lat":43.27669,"lon":5.38909,"is_reserved":false,"is_disabled":true,"rental_uris":{"android":"levelo://app?vid=ebc55eb9-194f-4e99-8e23-b42fca6cc43d","ios":"levelo://app?vid=ebc55eb9-194f-4e99-8e23-b42fca6cc43d"},"vehicle_type_id":"4","last_reported":1736729405,"current_range_meters":35200,"station_id":"ce4bhi12rcd13ifvqfo0","pricing_plan_id":"cebpf4jnsgd1na2vs0mg"},{"bike_id":"4df89c5f-ad35-4858-8e73-2c663853f2e7","system_id":"levelo_inurba_marseille","lat":43.27493,"lon":5.42461,"is_reserved":false,"is_disabled":true,"rental_uris":{"android":"levelo://app?vid=4df89c5f-ad35-4858-8e73-2c663853f2e7","ios":"levelo://app?vid=4df89c5f-ad35-4858-8e73-2c663853f2e7"},"vehicle_type_id":"4","last_reported":1736729405,"current_range_meters":400,"station_id":"ce4bhn92rcd13ifvqgrg","pricing_plan_id":"cebpf4jnsgd1na2vs0mg"},{"bike_id":"5bec3609-8767-43d5-9ee5-df80b90ff61b","system_id":"levelo_inurba_marseille","lat":43.28725,"lon":5.36084,"is_reserved":false,"is_disabled":false,"rental_uris":{"android":"levelo://app?vid=5bec3609-8767-43d5-9ee5-df80b90ff61b","ios":"levelo://app?vid=5bec3609-8767-43d5-9ee5-df80b90ff61b"},"vehicle_type_id":"4","last_reported":1736729405,"current_range_meters":38800,"station_id":"cki0cbj6b192h4jlfktg","pricing_plan_id":"cebpf4jnsgd1na2vs0mg"},{"bike_id":"81894d57-6961-4ca9-8a73-3302ecbe940c","system_id":"levelo_inurba_marseille","lat":43.2481,"lon":5.37419,"is_reserved":false,"is_disabled":false,"rental_uris":{"android":"levelo://app?vid=81894d57-6961-4ca9-8a73-3302ecbe940c","ios":"levelo://app?vid=81894d57-6961-4ca9-8a73-3302ecbe940c"},"vehicle_type_id":"4","last_reported":1736729405,"current_range_meters":11200,"station_id":"ce4bhgh2rcd13ifvqfb0","pricing_plan_id":"cebpf4jnsgd1na2vs0mg"},{"bike_id":"d679e8ad-e35b-4604-a475-064f331d9c01","system_id":"levelo_inurba_marseille","lat":43.3153,"lon":5.38035,"is_reserved":false,"is_disabled":true,"rental_uris":{"android":"levelo://app?vid=d679e8ad-e35b-4604-a475-064f331d9c01","ios":"levelo://app?vid=d679e8ad-e35b-4604-a475-064f331d9c01"},"vehicle_type_id":"4","last_reported":1736729405,"current_range_meters":38400,"station_id":"ce4bhsp2rcd13ifvqi50","pricing_plan_id":"cebpf4jnsgd1na2vs0mg"},{"bike_id":"45324790-abcf-4a91-8b9e-6b7c17eae013","system_id":"levelo_inurba_marseille","lat":43.27369,"lon":5.36241,"is_reserved":false,"is_disabled":false,"rental_uris":{"android":"levelo://app?vid=45324790-abcf-4a91-8b9e-6b7c17eae013","ios":"levelo://app?vid=45324790-abcf-4a91-8b9e-6b7c17eae013"},"vehicle_type_id":"4","last_reported":1736729405,"current_range_meters":11200,"station_id":"ce4bhbh2rcd13ifvqeo0","pricing_plan_id":"cebpf4jnsgd1na2vs0mg"},{"bike_id":"52c761cd-b5c2-42e8-80aa-0a7951bb1047","system_id":"levelo_inurba_marseille","lat":43.30445,"lon":5.38905,"is_reserved":false,"is_disabled":false,"rental_uris":{"android":"levelo://app?vid=52c761cd-b5c2-42e8-80aa-0a7951bb1047","ios":"levelo://app?vid=52c761cd-b5c2-42e8-80aa-0a7951bb1047"},"vehicle_type_id":"4","last_reported":1736729405,"current_range_meters":12000,"station_id":"ce4bgk12rcd13ifvqbi0","pricing_plan_id":"cebpf4jnsgd1na2vs0mg"},{"bike_id":"d1621c58-2912-4b2e-8663-72b990f8f747","system_id":"levelo_inurba_marseille","lat":43.28932,"lon":5.39617,"is_reserved":false,"is_disabled":false,"rental_uris":{"android":"levelo://app?vid=d1621c58-2912-4b2e-8663-72b990f8f747","ios":"levelo://app?vid=d1621c58-2912-4b2e-8663-72b990f8f747"},"vehicle_type_id":"4","last_reported":1736729405,"current_range_meters":37600,"station_id":"ce4bh3h2rcd13ifvqdn0","pricing_plan_id":"cebpf4jnsgd1na2vs0mg"},{"bike_id":"13d77e31-974d-4a43-9955-3ba1ffe5a9ff","system_id":"levelo_inurba_marseille","lat":43.28693,"lon":5.37398,"is_reserved":false,"is_disabled":false,"rental_uris":{"android":"levelo://app?vid=13d77e31-974d-4a43-9955-3ba1ffe5a9ff","ios":"levelo://app?vid=13d77e31-974d-4a43-9955-3ba1ffe5a9ff"},"vehicle_type_id":"4","last_reported":1736729405,"current_range_meters":37600,"station_id":"ce4bh3p2rcd13ifvqdq0","pricing_plan_id":"cebpf4jnsgd1na2vs0mg"},{"bike_id":"f01beec4-400e-477c-983a-efc8993148d3","system_id":"levelo_inurba_marseille","lat":43.32368,"lon":5.38891,"is_reserved":false,"is_disabled":false,"rental_uris":{"android":"levelo://app?vid=f01beec4-400e-477c-983a-efc8993148d3","ios":"levelo://app?vid=f01beec4-400e-477c-983a-efc8993148d3"},"vehicle_type_id":"4","last_reported":1736729405,"current_range_meters":30000,"station_id":"ce4bhqp2rcd13ifvqhog","pricing_plan_id":"cebpf4jnsgd1na2vs0mg"},{"bike_id":"7abc0742-0d6a-40d7-8137-deb5e8e48177","system_id":"levelo_inurba_marseille","lat":43.25081,"lon":5.39497,"is_reserved":false,"is_disabled":false,"rental_uris":{"android":"levelo://app?vid=7abc0742-0d6a-40d7-8137-deb5e8e48177","ios":"levelo://app?vid=7abc0742-0d6a-40d7-8137-deb5e8e48177"},"vehicle_type_id":"4","last_reported":1736729405,"current_range_meters":38000,"station_id":"ce4bhm12rcd13ifvqgkg","pricing_plan_id":"cebpf4jnsgd1na2vs0mg"},{"bike_id":"d9edb216-ee47-40a8-8ccd-82ecd79a1993","system_id":"levelo_inurba_marseille","lat":43.29029,"lon":5.38175,"is_reserved":false,"is_disabled":true,"rental_uris":{"android":"levelo://app?vid=d9edb216-ee47-40a8-8ccd-82ecd79a1993","ios":"levelo://app?vid=d9edb216-ee47-40a8-8ccd-82ecd79a1993"},"vehicle_type_id":"4","last_reported":1736729405,"current_range_meters":38800,"station_id":"ce4bh4p2rcd13ifvqe1g","pricing_plan_id":"cebpf4jnsgd1na2vs0mg"},{"bike_id":"547645a1-aabc-46bb-a61e-a686908b5092","system_id":"levelo_inurba_marseille","lat":43.29881,"lon":5.39739,"is_reserved":false,"is_disabled":false,"rental_uris":{"android":"levelo://app?vid=547645a1-aabc-46bb-a61e-a686908b5092","ios":"levelo://app?vid=547645a1-aabc-46bb-a61e-a686908b5092"},"vehicle_type_id":"4","last_reported":1736729405,"current_range_meters":38800,"station_id":"ce4bh0h2rcd13ifvqd50","pricing_plan_id":"cebpf4jnsgd1na2vs0mg"},{"bike_id":"7190806d-6efc-4d5f-adc8-8e7c04344e9c","system_id":"levelo_inurba_marseille","lat":43.305428,"lon":5.365289,"is_reserved":false,"is_disabled":true,"rental_uris":{"android":"levelo://app?vid=7190806d-6efc-4d5f-adc8-8e7c04344e9c","ios":"levelo://app?vid=7190806d-6efc-4d5f-adc8-8e7c04344e9c"},"vehicle_type_id":"4","last_reported":1736729405,"current_range_meters":0,"station_id":"ce4bgs12rcd13ifvqcag","pricing_plan_id":"cebpf4jnsgd1na2vs0mg"},{"bike_id":"717c9b7d-e3d6-441e-a2b5-35caee37f8e8","system_id":"levelo_inurba_marseille","lat":43.28625,"lon":5.35061,"is_reserved":false,"is_disabled":false,"rental_uris":{"android":"levelo://app?vid=717c9b7d-e3d6-441e-a2b5-35caee37f8e8","ios":"levelo://app?vid=717c9b7d-e3d6-441e-a2b5-35caee37f8e8"},"vehicle_type_id":"4","last_reported":1736729405,"current_range_meters":35200,"station_id":"ce4bhch2rcd13ifvqeug","pricing_plan_id":"cebpf4jnsgd1na2vs0mg"},{"bike_id":"fed252d4-8a96-4918-8909-8c985d1de4fb","system_id":"levelo_inurba_marseille","lat":43.32472,"lon":5.36599,"is_reserved":false,"is_disabled":false,"rental_uris":{"android":"levelo://app?vid=fed252d4-8a96-4918-8909-8c985d1de4fb","ios":"levelo://app?vid=fed252d4-8a96-4918-8909-8c985d1de4fb"},"vehicle_type_id":"4","last_reported":1736729405,"current_range_meters":26000,"station_id":"ce4bhs12rcd13ifvqhvg","pricing_plan_id":"cebpf4jnsgd1na2vs0mg"},{"bike_id":"1ff4d6af-d168-4206-80a1-8f85ab0c0a00","system_id":"levelo_inurba_marseille","lat":43.25863,"lon":5.39918,"is_reserved":false,"is_disabled":true,"rental_uris":{"android":"levelo://app?vid=1ff4d6af-d168-4206-80a1-8f85ab0c0a00","ios":"levelo://app?vid=1ff4d6af-d168-4206-80a1-8f85ab0c0a00"},"vehicle_type_id":"4","last_reported":1736729405,"current_range_meters":9600,"station_id":"ce4bhl92rcd13ifvqghg","pricing_plan_id":"cebpf4jnsgd1na2vs0mg"},{"bike_id":"a16fd609-1fc6-4798-b9e0-3ea7526c402a","system_id":"levelo_inurba_marseille","lat":43.23555,"lon":5.37873,"is_reserved":false,"is_disabled":false,"rental_uris":{"android":"levelo://app?vid=a16fd609-1fc6-4798-b9e0-3ea7526c402a","ios":"levelo://app?vid=a16fd609-1fc6-4798-b9e0-3ea7526c402a"},"vehicle_type_id":"4","last_reported":1736729405,"current_range_meters":25600,"station_id":"","pricing_plan_id":"cebpf4jnsgd1na2vs0mg"},{"bike_id":"55e10a13-573c-4876-a3f3-1d7244726716","system_id":"levelo_inurba_marseille","lat":43.24809,"lon":5.37467,"is_reserved":false,"is_disabled":false,"rental_uris":{"android":"levelo://app?vid=55e10a13-573c-4876-a3f3-1d7244726716","ios":"levelo://app?vid=55e10a13-573c-4876-a3f3-1d7244726716"},"vehicle_type_id":"4","last_reported":1736729405,"current_range_meters":39200,"station_id":"ce4bhgh2rcd13ifvqfb0","pricing_plan_id":"cebpf4jnsgd1na2vs0mg"},{"bike_id":"86abeea7-c434-4e10-8df8-12c24097eeb0","system_id":"levelo_inurba_marseille","lat":43.30277,"lon":5.38938,"is_reserved":false,"is_disabled":true,"rental_uris":{"android":"levelo://app?vid=86abeea7-c434-4e10-8df8-12c24097eeb0","ios":"levelo://app?vid=86abeea7-c434-4e10-8df8-12c24097eeb0"},"vehicle_type_id":"4","last_reported":1736729405,"current_range_meters":16000,"station_id":"ce4bh092rcd13ifvqd20","pricing_plan_id":"cebpf4jnsgd1na2vs0mg"},{"bike_id":"9e4b700b-0bd2-4742-b6bd-c75a8782c39a","system_id":"levelo_inurba_marseille","lat":43.26945,"lon":5.3893,"is_reserved":false,"is_disabled":false,"rental_uris":{"android":"levelo://app?vid=9e4b700b-0bd2-4742-b6bd-c75a8782c39a","ios":"levelo://app?vid=9e4b700b-0bd2-4742-b6bd-c75a8782c39a"},"vehicle_type_id":"4","last_reported":1736729405,"current_range_meters":12400,"station_id":"ce4bhhh2rcd13ifvqfl0","pricing_plan_id":"cebpf4jnsgd1na2vs0mg"},{"bike_id":"51cbd015-955b-4051-8ad8-e68b8c256e5d","system_id":"levelo_inurba_marseille","lat":43.25093,"lon":5.39481,"is_reserved":false,"is_disabled":false,"rental_uris":{"android":"levelo://app?vid=51cbd015-955b-4051-8ad8-e68b8c256e5d","ios":"levelo://app?vid=51cbd015-955b-4051-8ad8-e68b8c256e5d"},"vehicle_type_id":"4","last_reported":1736729405,"current_range_meters":29600,"station_id":"ce4bhm12rcd13ifvqgkg","pricing_plan_id":"cebpf4jnsgd1na2vs0mg"},{"bike_id":"f68c5d47-7aa0-4ac3-aef6-631ee02c22af","system_id":"levelo_inurba_marseille","lat":43.308,"lon":5.37661,"is_reserved":false,"is_disabled":false,"rental_uris":{"android":"levelo://app?vid=f68c5d47-7aa0-4ac3-aef6-631ee02c22af","ios":"levelo://app?vid=f68c5d47-7aa0-4ac3-aef6-631ee02c22af"},"vehicle_type_id":"4","last_reported":1736729405,"current_range_meters":37600,"station_id":"ce4bgv92rcd13ifvqcq0","pricing_plan_id":"cebpf4jnsgd1na2vs0mg"},{"bike_id":"67490c1a-4c8d-4b21-b7b8-579ae1cb249a","system_id":"levelo_inurba_marseille","lat":43.279033,"lon":5.380061,"is_reserved":false,"is_disabled":false,"rental_uris":{"android":"levelo://app?vid=67490c1a-4c8d-4b21-b7b8-579ae1cb249a","ios":"levelo://app?vid=67490c1a-4c8d-4b21-b7b8-579ae1cb249a"},"vehicle_type_id":"4","last_reported":1736729405,"current_range_meters":38800,"station_id":"ce4bhf92rcd13ifvqf50","pricing_plan_id":"cebpf4jnsgd1na2vs0mg"},{"bike_id":"49d95079-84f0-4760-a442-2325f3134ecf","system_id":"levelo_inurba_marseille","lat":43.24808,"lon":5.37451,"is_reserved":false,"is_disabled":false,"rental_uris":{"android":"levelo://app?vid=49d95079-84f0-4760-a442-2325f3134ecf","ios":"levelo://app?vid=49d95079-84f0-4760-a442-2325f3134ecf"},"vehicle_type_id":"4","last_reported":1736729405,"current_range_meters":38800,"station_id":"ce4bhgh2rcd13ifvqfb0","pricing_plan_id":"cebpf4jnsgd1na2vs0mg"},{"bike_id":"c7a817d3-63e5-4652-8814-98e74bb31058","system_id":"levelo_inurba_marseille","lat":43.23958,"lon":5.36639,"is_reserved":false,"is_disabled":false,"rental_uris":{"android":"levelo://app?vid=c7a817d3-63e5-4652-8814-98e74bb31058","ios":"levelo://app?vid=c7a817d3-63e5-4652-8814-98e74bb31058"},"vehicle_type_id":"4","last_reported":1736729405,"current_range_meters":37600,"station_id":"ce4bhi12rcd13ifvqfp0","pricing_plan_id":"cebpf4jnsgd1na2vs0mg"},{"bike_id":"10f7d31a-ef8d-4e8a-acbf-8aa9a8c72143","system_id":"levelo_inurba_marseille","lat":43.24395,"lon":5.37056,"is_reserved":false,"is_disabled":false,"rental_uris":{"android":"levelo://app?vid=10f7d31a-ef8d-4e8a-acbf-8aa9a8c72143","ios":"levelo://app?vid=10f7d31a-ef8d-4e8a-acbf-8aa9a8c72143"},"vehicle_type_id":"4","last_reported":1736729405,"current_range_meters":9600,"station_id":"ce4bhhh2rcd13ifvqfk0","pricing_plan_id":"cebpf4jnsgd1na2vs0mg"},{"bike_id":"0c7815e5-63e2-4503-bec1-c463f8bd496d","system_id":"levelo_inurba_marseille","lat":43.26186,"lon":5.37459,"is_reserved":false,"is_disabled":false,"rental_uris":{"android":"levelo://app?vid=0c7815e5-63e2-4503-bec1-c463f8bd496d","ios":"levelo://app?vid=0c7815e5-63e2-4503-bec1-c463f8bd496d"},"vehicle_type_id":"4","last_reported":1736729405,"current_range_meters":17600,"station_id":"ce4bhgp2rcd13ifvqfc0","pricing_plan_id":"cebpf4jnsgd1na2vs0mg"},{"bike_id":"488e5d3f-7080-456a-8875-7f1a5dce4fa1","system_id":"levelo_inurba_marseille","lat":43.30132,"lon":5.38793,"is_reserved":false,"is_disabled":true,"rental_uris":{"android":"levelo://app?vid=488e5d3f-7080-456a-8875-7f1a5dce4fa1","ios":"levelo://app?vid=488e5d3f-7080-456a-8875-7f1a5dce4fa1"},"vehicle_type_id":"4","last_reported":1736729405,"current_range_meters":30000,"station_id":"ce4bghh2rcd13ifvqb60","pricing_plan_id":"cebpf4jnsgd1na2vs0mg"},{"bike_id":"5cb642f7-d3b4-4c50-8a34-b999cca9da0f","system_id":"levelo_inurba_marseille","lat":43.28725,"lon":5.36085,"is_reserved":false,"is_disabled":false,"rental_uris":{"android":"levelo://app?vid=5cb642f7-d3b4-4c50-8a34-b999cca9da0f","ios":"levelo://app?vid=5cb642f7-d3b4-4c50-8a34-b999cca9da0f"},"vehicle_type_id":"4","last_reported":1736729405,"current_range_meters":37600,"station_id":"cki0cbj6b192h4jlfktg","pricing_plan_id":"cebpf4jnsgd1na2vs0mg"},{"bike_id":"295bd26f-64bb-4f9a-b1ce-9227768f18ec","system_id":"levelo_inurba_marseille","lat":43.291614,"lon":5.371516,"is_reserved":false,"is_disabled":true,"rental_uris":{"android":"levelo://app?vid=295bd26f-64bb-4f9a-b1ce-9227768f18ec","ios":"levelo://app?vid=295bd26f-64bb-4f9a-b1ce-9227768f18ec"},"vehicle_type_id":"4","last_reported":1736729405,"current_range_meters":30800,"station_id":"ce4bha92rcd13ifvqeh0","pricing_plan_id":"cebpf4jnsgd1na2vs0mg"},{"bike_id":"2bf0bb49-ca0f-41e4-80b2-22b1e43ee293","system_id":"levelo_inurba_marseille","lat":43.25077,"lon":5.395,"is_reserved":false,"is_disabled":false,"rental_uris":{"android":"levelo://app?vid=2bf0bb49-ca0f-41e4-80b2-22b1e43ee293","ios":"levelo://app?vid=2bf0bb49-ca0f-41e4-80b2-22b1e43ee293"},"vehicle_type_id":"4","last_reported":1736729405,"current_range_meters":14400,"station_id":"ce4bhm12rcd13ifvqgkg","pricing_plan_id":"cebpf4jnsgd1na2vs0mg"},{"bike_id":"1bff2bac-4883-4019-adbe-2dc598af8aad","system_id":"levelo_inurba_marseille","lat":43.27424,"lon":5.39401,"is_reserved":false,"is_disabled":true,"rental_uris":{"android":"levelo://app?vid=1bff2bac-4883-4019-adbe-2dc598af8aad","ios":"levelo://app?vid=1bff2bac-4883-4019-adbe-2dc598af8aad"},"vehicle_type_id":"4","last_reported":1736729405,"current_range_meters":24000,"station_id":"ce4bhdp2rcd13ifvqf20","pricing_plan_id":"cebpf4jnsgd1na2vs0mg"},{"bike_id":"ae29e0de-7b5a-45d6-ace3-313c5e88010a","system_id":"levelo_inurba_marseille","lat":43.27989,"lon":5.41665,"is_reserved":false,"is_disabled":true,"rental_uris":{"android":"levelo://app?vid=ae29e0de-7b5a-45d6-ace3-313c5e88010a","ios":"levelo://app?vid=ae29e0de-7b5a-45d6-ace3-313c5e88010a"},"vehicle_type_id":"4","last_reported":1736729405,"current_range_meters":0,"station_id":"ce4bho12rcd13ifvqh1g","pricing_plan_id":"cebpf4jnsgd1na2vs0mg"},{"bike_id":"0bc3f5f5-60c2-41a0-a6ff-a38fba6be8aa","system_id":"levelo_inurba_marseille","lat":43.25488,"lon":5.37645,"is_reserved":false,"is_disabled":true,"rental_uris":{"android":"levelo://app?vid=0bc3f5f5-60c2-41a0-a6ff-a38fba6be8aa","ios":"levelo://app?vid=0bc3f5f5-60c2-41a0-a6ff-a38fba6be8aa"},"vehicle_type_id":"4","last_reported":1736729405,"current_range_meters":28000,"station_id":"ce4bhh12rcd13ifvqff0","pricing_plan_id":"cebpf4jnsgd1na2vs0mg"},{"bike_id":"572f0254-11cf-4ef2-b3f9-66737ed8298a","system_id":"levelo_inurba_marseille","lat":43.28418,"lon":5.35002,"is_reserved":false,"is_disabled":true,"rental_uris":{"android":"levelo://app?vid=572f0254-11cf-4ef2-b3f9-66737ed8298a","ios":"levelo://app?vid=572f0254-11cf-4ef2-b3f9-66737ed8298a"},"vehicle_type_id":"4","last_reported":1736729405,"current_range_meters":0,"station_id":"ce4bhbh2rcd13ifvqepg","pricing_plan_id":"cebpf4jnsgd1na2vs0mg"},{"bike_id":"85cafa9a-848b-4a11-86c4-b65b6d0bd22d","system_id":"levelo_inurba_marseille","lat":43.29629,"lon":5.36742,"is_reserved":false,"is_disabled":false,"rental_uris":{"android":"levelo://app?vid=85cafa9a-848b-4a11-86c4-b65b6d0bd22d","ios":"levelo://app?vid=85cafa9a-848b-4a11-86c4-b65b6d0bd22d"},"vehicle_type_id":"4","last_reported":1736729405,"current_range_meters":38000,"station_id":"ce4bhc92rcd13ifvqetg","pricing_plan_id":"cebpf4jnsgd1na2vs0mg"},{"bike_id":"1ef6b3c4-4b27-4675-a358-1719262d79cc","system_id":"levelo_inurba_marseille","lat":43.28856,"lon":5.35882,"is_reserved":false,"is_disabled":false,"rental_uris":{"android":"levelo://app?vid=1ef6b3c4-4b27-4675-a358-1719262d79cc","ios":"levelo://app?vid=1ef6b3c4-4b27-4675-a358-1719262d79cc"},"vehicle_type_id":"4","last_reported":1736729405,"current_range_meters":34000,"station_id":"ce4bhb12rcd13ifvqem0","pricing_plan_id":"cebpf4jnsgd1na2vs0mg"},{"bike_id":"75dfb7de-b85b-4a20-91bc-b13e741ad9a2","system_id":"levelo_inurba_marseille","lat":43.279005,"lon":5.380001,"is_reserved":false,"is_disabled":false,"rental_uris":{"android":"levelo://app?vid=75dfb7de-b85b-4a20-91bc-b13e741ad9a2","ios":"levelo://app?vid=75dfb7de-b85b-4a20-91bc-b13e741ad9a2"},"vehicle_type_id":"4","last_reported":1736729405,"current_range_meters":38800,"station_id":"ce4bhf92rcd13ifvqf50","pricing_plan_id":"cebpf4jnsgd1na2vs0mg"},{"bike_id":"136c61aa-a244-4f82-9113-620a348666ce","system_id":"levelo_inurba_marseille","lat":43.27562,"lon":5.38422,"is_reserved":false,"is_disabled":true,"rental_uris":{"android":"levelo://app?vid=136c61aa-a244-4f82-9113-620a348666ce","ios":"levelo://app?vid=136c61aa-a244-4f82-9113-620a348666ce"},"vehicle_type_id":"4","last_reported":1736729405,"current_range_meters":27600,"station_id":"ce4bhh92rcd13ifvqfi0","pricing_plan_id":"cebpf4jnsgd1na2vs0mg"},{"bike_id":"2ac7cbb6-f8f8-4c69-a82c-965057fd6847","system_id":"levelo_inurba_marseille","lat":43.31182,"lon":5.38717,"is_reserved":false,"is_disabled":false,"rental_uris":{"android":"levelo://app?vid=2ac7cbb6-f8f8-4c69-a82c-965057fd6847","ios":"levelo://app?vid=2ac7cbb6-f8f8-4c69-a82c-965057fd6847"},"vehicle_type_id":"4","last_reported":1736729405,"current_range_meters":36000,"station_id":"ce4bgv12rcd13ifvqcp0","pricing_plan_id":"cebpf4jnsgd1na2vs0mg"},{"bike_id":"42ecc464-da44-487e-b0da-d25d9d2043d6","system_id":"levelo_inurba_marseille","lat":43.25718,"lon":5.41107,"is_reserved":false,"is_disabled":false,"rental_uris":{"android":"levelo://app?vid=42ecc464-da44-487e-b0da-d25d9d2043d6","ios":"levelo://app?vid=42ecc464-da44-487e-b0da-d25d9d2043d6"},"vehicle_type_id":"4","last_reported":1736729405,"current_range_meters":38800,"station_id":"ce4bhkp2rcd13ifvqgd0","pricing_plan_id":"cebpf4jnsgd1na2vs0mg"},{"bike_id":"1f225056-776d-46f3-8174-db158c35feef","system_id":"levelo_inurba_marseille","lat":43.32,"lon":5.38151,"is_reserved":false,"is_disabled":false,"rental_uris":{"android":"levelo://app?vid=1f225056-776d-46f3-8174-db158c35feef","ios":"levelo://app?vid=1f225056-776d-46f3-8174-db158c35feef"},"vehicle_type_id":"4","last_reported":1736729405,"current_range_meters":37600,"station_id":"ce4bhr12rcd13ifvqhpg","pricing_plan_id":"cebpf4jnsgd1na2vs0mg"},{"bike_id":"1880c00a-fca8-4c2e-800a-d038e5f58931","system_id":"levelo_inurba_marseille","lat":43.31123,"lon":5.3781,"is_reserved":false,"is_disabled":false,"rental_uris":{"android":"levelo://app?vid=1880c00a-fca8-4c2e-800a-d038e5f58931","ios":"levelo://app?vid=1880c00a-fca8-4c2e-800a-d038e5f58931"},"vehicle_type_id":"4","last_reported":1736729405,"current_range_meters":14400,"station_id":"ce4bgt92rcd13ifvqcg0","pricing_plan_id":"cebpf4jnsgd1na2vs0mg"},{"bike_id":"65e8b99d-cb00-44f8-a57f-7740743f51e0","system_id":"levelo_inurba_marseille","lat":43.250083,"lon":5.389139,"is_reserved":false,"is_disabled":true,"rental_uris":{"android":"levelo://app?vid=65e8b99d-cb00-44f8-a57f-7740743f51e0","ios":"levelo://app?vid=65e8b99d-cb00-44f8-a57f-7740743f51e0"},"vehicle_type_id":"4","last_reported":1736729405,"current_range_meters":26000,"station_id":"ce4bhgp2rcd13ifvqfd0","pricing_plan_id":"cebpf4jnsgd1na2vs0mg"},{"bike_id":"e7bed24c-76b8-4bfe-8ea5-51efa81df6c2","system_id":"levelo_inurba_marseille","lat":43.27489,"lon":5.4246,"is_reserved":false,"is_disabled":true,"rental_uris":{"android":"levelo://app?vid=e7bed24c-76b8-4bfe-8ea5-51efa81df6c2","ios":"levelo://app?vid=e7bed24c-76b8-4bfe-8ea5-51efa81df6c2"},"vehicle_type_id":"4","last_reported":1736729405,"current_range_meters":0,"station_id":"ce4bhn92rcd13ifvqgrg","pricing_plan_id":"cebpf4jnsgd1na2vs0mg"},{"bike_id":"9037153e-6309-4ee8-ab59-4865435d42f1","system_id":"levelo_inurba_marseille","lat":43.31538,"lon":5.38036,"is_reserved":false,"is_disabled":false,"rental_uris":{"android":"levelo://app?vid=9037153e-6309-4ee8-ab59-4865435d42f1","ios":"levelo://app?vid=9037153e-6309-4ee8-ab59-4865435d42f1"},"vehicle_type_id":"4","last_reported":1736729405,"current_range_meters":33600,"station_id":"ce4bhsp2rcd13ifvqi50","pricing_plan_id":"cebpf4jnsgd1na2vs0mg"},{"bike_id":"3db2fa11-1dd9-4dc9-ae46-77da55522d93","system_id":"levelo_inurba_marseille","lat":43.25542,"lon":5.40064,"is_reserved":false,"is_disabled":true,"rental_uris":{"android":"levelo://app?vid=3db2fa11-1dd9-4dc9-ae46-77da55522d93","ios":"levelo://app?vid=3db2fa11-1dd9-4dc9-ae46-77da55522d93"},"vehicle_type_id":"4","last_reported":1736729405,"current_range_meters":0,"station_id":"","pricing_plan_id":"cebpf4jnsgd1na2vs0mg"},{"bike_id":"983e4027-7403-4cab-8db9-4b0d91df3b98","system_id":"levelo_inurba_marseille","lat":43.308832,"lon":5.371957,"is_reserved":false,"is_disabled":false,"rental_uris":{"android":"levelo://app?vid=983e4027-7403-4cab-8db9-4b0d91df3b98","ios":"levelo://app?vid=983e4027-7403-4cab-8db9-4b0d91df3b98"},"vehicle_type_id":"4","last_reported":1736729405,"current_range_meters":38000,"station_id":"ce4bguh2rcd13ifvqckg","pricing_plan_id":"cebpf4jnsgd1na2vs0mg"},{"bike_id":"e642b777-495e-414d-a940-760871b8802c","system_id":"levelo_inurba_marseille","lat":43.27991,"lon":5.40011,"is_reserved":false,"is_disabled":false,"rental_uris":{"android":"levelo://app?vid=e642b777-495e-414d-a940-760871b8802c","ios":"levelo://app?vid=e642b777-495e-414d-a940-760871b8802c"},"vehicle_type_id":"4","last_reported":1736729405,"current_range_meters":36800,"station_id":"ce4bho92rcd13ifvqh4g","pricing_plan_id":"cebpf4jnsgd1na2vs0mg"},{"bike_id":"b704bf42-2bc7-4506-b669-8ca7a3330fef","system_id":"levelo_inurba_marseille","lat":43.28164,"lon":5.42627,"is_reserved":false,"is_disabled":true,"rental_uris":{"android":"levelo://app?vid=b704bf42-2bc7-4506-b669-8ca7a3330fef","ios":"levelo://app?vid=b704bf42-2bc7-4506-b669-8ca7a3330fef"},"vehicle_type_id":"4","last_reported":1736729405,"current_range_meters":26800,"station_id":"ce4bhnh2rcd13ifvqgug","pricing_plan_id":"cebpf4jnsgd1na2vs0mg"},{"bike_id":"040cfb55-fc40-419d-84c5-4cddd102aa38","system_id":"levelo_inurba_marseille","lat":43.29807,"lon":5.403963,"is_reserved":false,"is_disabled":false,"rental_uris":{"android":"levelo://app?vid=040cfb55-fc40-419d-84c5-4cddd102aa38","ios":"levelo://app?vid=040cfb55-fc40-419d-84c5-4cddd102aa38"},"vehicle_type_id":"4","last_reported":1736729405,"current_range_meters":39200,"station_id":"ce4bh112rcd13ifvqd90","pricing_plan_id":"cebpf4jnsgd1na2vs0mg"},{"bike_id":"f474a8a5-81f2-48a0-afcf-8581661f4137","system_id":"levelo_inurba_marseille","lat":43.2656,"lon":5.39024,"is_reserved":false,"is_disabled":false,"rental_uris":{"android":"levelo://app?vid=f474a8a5-81f2-48a0-afcf-8581661f4137","ios":"levelo://app?vid=f474a8a5-81f2-48a0-afcf-8581661f4137"},"vehicle_type_id":"4","last_reported":1736729405,"current_range_meters":19200,"station_id":"ce4bhe12rcd13ifvqf30","pricing_plan_id":"cebpf4jnsgd1na2vs0mg"},{"bike_id":"e94bb459-ac42-49e0-bd20-7faa0fb6d49d","system_id":"levelo_inurba_marseille","lat":43.28018,"lon":5.36949,"is_reserved":false,"is_disabled":false,"rental_uris":{"android":"levelo://app?vid=e94bb459-ac42-49e0-bd20-7faa0fb6d49d","ios":"levelo://app?vid=e94bb459-ac42-49e0-bd20-7faa0fb6d49d"},"vehicle_type_id":"4","last_reported":1736729405,"current_range_meters":28000,"station_id":"ce4bha12rcd13ifvqef0","pricing_plan_id":"cebpf4jnsgd1na2vs0mg"},{"bike_id":"e4e06650-a28f-4fc0-acd1-41200e930ac0","system_id":"levelo_inurba_marseille","lat":43.28561,"lon":5.39493,"is_reserved":false,"is_disabled":false,"rental_uris":{"android":"levelo://app?vid=e4e06650-a28f-4fc0-acd1-41200e930ac0","ios":"levelo://app?vid=e4e06650-a28f-4fc0-acd1-41200e930ac0"},"vehicle_type_id":"4","last_reported":1736729405,"current_range_meters":26000,"station_id":"ce4bh292rcd13ifvqdg0","pricing_plan_id":"cebpf4jnsgd1na2vs0mg"},{"bike_id":"99992ce0-e13f-4dee-95af-06d78d23df51","system_id":"levelo_inurba_marseille","lat":43.25947,"lon":5.40913,"is_reserved":false,"is_disabled":false,"rental_uris":{"android":"levelo://app?vid=99992ce0-e13f-4dee-95af-06d78d23df51","ios":"levelo://app?vid=99992ce0-e13f-4dee-95af-06d78d23df51"},"vehicle_type_id":"4","last_reported":1736729405,"current_range_meters":16000,"station_id":"ce4bhm92rcd13ifvqglg","pricing_plan_id":"cebpf4jnsgd1na2vs0mg"},{"bike_id":"f62a7ed4-7c80-4ed8-9568-a4dea62069d1","system_id":"levelo_inurba_marseille","lat":43.28091,"lon":5.39646,"is_reserved":false,"is_disabled":true,"rental_uris":{"android":"levelo://app?vid=f62a7ed4-7c80-4ed8-9568-a4dea62069d1","ios":"levelo://app?vid=f62a7ed4-7c80-4ed8-9568-a4dea62069d1"},"vehicle_type_id":"4","last_reported":1736729405,"current_range_meters":30400,"station_id":"ce4bho12rcd13ifvqh2g","pricing_plan_id":"cebpf4jnsgd1na2vs0mg"},{"bike_id":"03b94243-127a-448d-8cdb-252c5ac30a68","system_id":"levelo_inurba_marseille","lat":43.28031,"lon":5.36953,"is_reserved":false,"is_disabled":false,"rental_uris":{"android":"levelo://app?vid=03b94243-127a-448d-8cdb-252c5ac30a68","ios":"levelo://app?vid=03b94243-127a-448d-8cdb-252c5ac30a68"},"vehicle_type_id":"4","last_reported":1736729405,"current_range_meters":18000,"station_id":"ce4bha12rcd13ifvqef0","pricing_plan_id":"cebpf4jnsgd1na2vs0mg"},{"bike_id":"1e7c742b-39ca-4ae0-91a9-818e36d7a2df","system_id":"levelo_inurba_marseille","lat":43.27623,"lon":5.36126,"is_reserved":false,"is_disabled":false,"rental_uris":{"android":"levelo://app?vid=1e7c742b-39ca-4ae0-91a9-818e36d7a2df","ios":"levelo://app?vid=1e7c742b-39ca-4ae0-91a9-818e36d7a2df"},"vehicle_type_id":"4","last_reported":1736729405,"current_range_meters":38000,"station_id":"ce4bgj92rcd13ifvqbe0","pricing_plan_id":"cebpf4jnsgd1na2vs0mg"},{"bike_id":"ce9c9727-7254-4134-9e19-677c09afb21f","system_id":"levelo_inurba_marseille","lat":43.28702,"lon":5.3999,"is_reserved":false,"is_disabled":false,"rental_uris":{"android":"levelo://app?vid=ce9c9727-7254-4134-9e19-677c09afb21f","ios":"levelo://app?vid=ce9c9727-7254-4134-9e19-677c09afb21f"},"vehicle_type_id":"4","last_reported":1736729405,"current_range_meters":19600,"station_id":"ce4bho92rcd13ifvqh3g","pricing_plan_id":"cebpf4jnsgd1na2vs0mg"},{"bike_id":"0e19202f-6922-49da-ae77-73894f707993","system_id":"levelo_inurba_marseille","lat":43.26953,"lon":5.38642,"is_reserved":false,"is_disabled":false,"rental_uris":{"android":"levelo://app?vid=0e19202f-6922-49da-ae77-73894f707993","ios":"levelo://app?vid=0e19202f-6922-49da-ae77-73894f707993"},"vehicle_type_id":"4","last_reported":1736729405,"current_range_meters":38400,"station_id":"ce4bhh92rcd13ifvqfh0","pricing_plan_id":"cebpf4jnsgd1na2vs0mg"},{"bike_id":"d42aab63-4108-4300-bb76-e14a653ba056","system_id":"levelo_inurba_marseille","lat":43.28002,"lon":5.40008,"is_reserved":false,"is_disabled":false,"rental_uris":{"android":"levelo://app?vid=d42aab63-4108-4300-bb76-e14a653ba056","ios":"levelo://app?vid=d42aab63-4108-4300-bb76-e14a653ba056"},"vehicle_type_id":"4","last_reported":1736729405,"current_range_meters":38000,"station_id":"","pricing_plan_id":"cebpf4jnsgd1na2vs0mg"},{"bike_id":"a600f163-9520-4043-bbca-7e042ce60e39","system_id":"levelo_inurba_marseille","lat":43.28612,"lon":5.35116,"is_reserved":false,"is_disabled":false,"rental_uris":{"android":"levelo://app?vid=a600f163-9520-4043-bbca-7e042ce60e39","ios":"levelo://app?vid=a600f163-9520-4043-bbca-7e042ce60e39"},"vehicle_type_id":"4","last_reported":1736729405,"current_range_meters":26000,"station_id":"ce4bhch2rcd13ifvqeug","pricing_plan_id":"cebpf4jnsgd1na2vs0mg"},{"bike_id":"c2e5882c-9534-45b1-aa11-5e0732057d5e","system_id":"levelo_inurba_marseille","lat":43.32335,"lon":5.40615,"is_reserved":false,"is_disabled":false,"rental_uris":{"android":"levelo://app?vid=c2e5882c-9534-45b1-aa11-5e0732057d5e","ios":"levelo://app?vid=c2e5882c-9534-45b1-aa11-5e0732057d5e"},"vehicle_type_id":"4","last_reported":1736729405,"current_range_meters":26800,"station_id":"ce4bhq92rcd13ifvqhjg","pricing_plan_id":"cebpf4jnsgd1na2vs0mg"},{"bike_id":"10dcc16b-d0f4-480b-b945-d6a41dd285d6","system_id":"levelo_inurba_marseille","lat":43.2808,"lon":5.39651,"is_reserved":false,"is_disabled":false,"rental_uris":{"android":"levelo://app?vid=10dcc16b-d0f4-480b-b945-d6a41dd285d6","ios":"levelo://app?vid=10dcc16b-d0f4-480b-b945-d6a41dd285d6"},"vehicle_type_id":"4","last_reported":1736729405,"current_range_meters":38800,"station_id":"ce4bho12rcd13ifvqh2g","pricing_plan_id":"cebpf4jnsgd1na2vs0mg"},{"bike_id":"31240ca4-9f64-4406-9c52-14b4354e548c","system_id":"levelo_inurba_marseille","lat":43.28618,"lon":5.35099,"is_reserved":false,"is_disabled":false,"rental_uris":{"android":"levelo://app?vid=31240ca4-9f64-4406-9c52-14b4354e548c","ios":"levelo://app?vid=31240ca4-9f64-4406-9c52-14b4354e548c"},"vehicle_type_id":"4","last_reported":1736729405,"current_range_meters":35600,"station_id":"ce4bhch2rcd13ifvqeug","pricing_plan_id":"cebpf4jnsgd1na2vs0mg"},{"bike_id":"089a04ef-15a2-4c09-98ee-41fc60bacc6d","system_id":"levelo_inurba_marseille","lat":43.32482,"lon":5.36599,"is_reserved":false,"is_disabled":false,"rental_uris":{"android":"levelo://app?vid=089a04ef-15a2-4c09-98ee-41fc60bacc6d","ios":"levelo://app?vid=089a04ef-15a2-4c09-98ee-41fc60bacc6d"},"vehicle_type_id":"4","last_reported":1736729405,"current_range_meters":38800,"station_id":"ce4bhs12rcd13ifvqhvg","pricing_plan_id":"cebpf4jnsgd1na2vs0mg"},{"bike_id":"d9b042e2-bbf3-47bf-851f-426caf4d0e01","system_id":"levelo_inurba_marseille","lat":43.24809,"lon":5.37459,"is_reserved":false,"is_disabled":false,"rental_uris":{"android":"levelo://app?vid=d9b042e2-bbf3-47bf-851f-426caf4d0e01","ios":"levelo://app?vid=d9b042e2-bbf3-47bf-851f-426caf4d0e01"},"vehicle_type_id":"4","last_reported":1736729405,"current_range_meters":36400,"station_id":"ce4bhgh2rcd13ifvqfb0","pricing_plan_id":"cebpf4jnsgd1na2vs0mg"},{"bike_id":"712fb1ac-a49b-4a1d-bf83-b2682dda137c","system_id":"levelo_inurba_marseille","lat":43.304552,"lon":5.369744,"is_reserved":false,"is_disabled":true,"rental_uris":{"android":"levelo://app?vid=712fb1ac-a49b-4a1d-bf83-b2682dda137c","ios":"levelo://app?vid=712fb1ac-a49b-4a1d-bf83-b2682dda137c"},"vehicle_type_id":"4","last_reported":1736729405,"current_range_meters":36800,"station_id":"","pricing_plan_id":"cebpf4jnsgd1na2vs0mg"},{"bike_id":"1e2223a2-c032-49e7-8dbf-982df86a0520","system_id":"levelo_inurba_marseille","lat":43.22945,"lon":5.35351,"is_reserved":false,"is_disabled":false,"rental_uris":{"android":"levelo://app?vid=1e2223a2-c032-49e7-8dbf-982df86a0520","ios":"levelo://app?vid=1e2223a2-c032-49e7-8dbf-982df86a0520"},"vehicle_type_id":"4","last_reported":1736729405,"current_range_meters":22800,"station_id":"cpo3532slgdg3j2ikp40","pricing_plan_id":"cebpf4jnsgd1na2vs0mg"},{"bike_id":"b6482fa2-5354-4c67-b31d-49029bea3ce2","system_id":"levelo_inurba_marseille","lat":43.27195,"lon":5.41164,"is_reserved":false,"is_disabled":false,"rental_uris":{"android":"levelo://app?vid=b6482fa2-5354-4c67-b31d-49029bea3ce2","ios":"levelo://app?vid=b6482fa2-5354-4c67-b31d-49029bea3ce2"},"vehicle_type_id":"4","last_reported":1736729405,"current_range_meters":36400,"station_id":"ce4bhl12rcd13ifvqgf0","pricing_plan_id":"cebpf4jnsgd1na2vs0mg"},{"bike_id":"36bd94b8-937d-4e79-941c-bfe63f2f5852","system_id":"levelo_inurba_marseille","lat":43.31058,"lon":5.38342,"is_reserved":false,"is_disabled":false,"rental_uris":{"android":"levelo://app?vid=36bd94b8-937d-4e79-941c-bfe63f2f5852","ios":"levelo://app?vid=36bd94b8-937d-4e79-941c-bfe63f2f5852"},"vehicle_type_id":"4","last_reported":1736729405,"current_range_meters":37600,"station_id":"ce4bgv92rcd13ifvqcr0","pricing_plan_id":"cebpf4jnsgd1na2vs0mg"},{"bike_id":"5f2cf356-122a-4d24-85ba-e38bc4612223","system_id":"levelo_inurba_marseille","lat":43.25576,"lon":5.38253,"is_reserved":false,"is_disabled":true,"rental_uris":{"android":"levelo://app?vid=5f2cf356-122a-4d24-85ba-e38bc4612223","ios":"levelo://app?vid=5f2cf356-122a-4d24-85ba-e38bc4612223"},"vehicle_type_id":"4","last_reported":1736729405,"current_range_meters":27200,"station_id":"ce4bhih2rcd13ifvqfs0","pricing_plan_id":"cebpf4jnsgd1na2vs0mg"},{"bike_id":"b8a97936-c691-4bee-8419-75296869be94","system_id":"levelo_inurba_marseille","lat":43.24632,"lon":5.38916,"is_reserved":false,"is_disabled":false,"rental_uris":{"android":"levelo://app?vid=b8a97936-c691-4bee-8419-75296869be94","ios":"levelo://app?vid=b8a97936-c691-4bee-8419-75296869be94"},"vehicle_type_id":"4","last_reported":1736729405,"current_range_meters":35600,"station_id":"ce4bhg12rcd13ifvqf60","pricing_plan_id":"cebpf4jnsgd1na2vs0mg"},{"bike_id":"2af36d15-83f7-4329-ae09-f12954c0a7ac","system_id":"levelo_inurba_marseille","lat":43.29282,"lon":5.40126,"is_reserved":false,"is_disabled":false,"rental_uris":{"android":"levelo://app?vid=2af36d15-83f7-4329-ae09-f12954c0a7ac","ios":"levelo://app?vid=2af36d15-83f7-4329-ae09-f12954c0a7ac"},"vehicle_type_id":"4","last_reported":1736729405,"current_range_meters":22800,"station_id":"ce4bh312rcd13ifvqdk0","pricing_plan_id":"cebpf4jnsgd1na2vs0mg"},{"bike_id":"3b0c7591-c1f3-412f-9181-cb82602a89ed","system_id":"levelo_inurba_marseille","lat":43.248147,"lon":5.374593,"is_reserved":false,"is_disabled":true,"rental_uris":{"android":"levelo://app?vid=3b0c7591-c1f3-412f-9181-cb82602a89ed","ios":"levelo://app?vid=3b0c7591-c1f3-412f-9181-cb82602a89ed"},"vehicle_type_id":"4","last_reported":1736729405,"current_range_meters":11600,"station_id":"ce4bhgh2rcd13ifvqfb0","pricing_plan_id":"cebpf4jnsgd1na2vs0mg"},{"bike_id":"39c3c4a5-d4ec-4fce-95db-3823db8f6b82","system_id":"levelo_inurba_marseille","lat":43.25716,"lon":5.41128,"is_reserved":false,"is_disabled":false,"rental_uris":{"android":"levelo://app?vid=39c3c4a5-d4ec-4fce-95db-3823db8f6b82","ios":"levelo://app?vid=39c3c4a5-d4ec-4fce-95db-3823db8f6b82"},"vehicle_type_id":"4","last_reported":1736729405,"current_range_meters":29600,"station_id":"ce4bhkp2rcd13ifvqgd0","pricing_plan_id":"cebpf4jnsgd1na2vs0mg"},{"bike_id":"09e93d9e-a4ef-4921-8513-13ce262e0a6e","system_id":"levelo_inurba_marseille","lat":43.28404,"lon":5.3752,"is_reserved":false,"is_disabled":false,"rental_uris":{"android":"levelo://app?vid=09e93d9e-a4ef-4921-8513-13ce262e0a6e","ios":"levelo://app?vid=09e93d9e-a4ef-4921-8513-13ce262e0a6e"},"vehicle_type_id":"4","last_reported":1736729405,"current_range_meters":16000,"station_id":"ce4bh412rcd13ifvqds0","pricing_plan_id":"cebpf4jnsgd1na2vs0mg"},{"bike_id":"31da96ca-e1e6-4732-a0d7-af1d318fe026","system_id":"levelo_inurba_marseille","lat":43.32117,"lon":5.36805,"is_reserved":false,"is_disabled":false,"rental_uris":{"android":"levelo://app?vid=31da96ca-e1e6-4732-a0d7-af1d318fe026","ios":"levelo://app?vid=31da96ca-e1e6-4732-a0d7-af1d318fe026"},"vehicle_type_id":"4","last_reported":1736729405,"current_range_meters":38800,"station_id":"ce4bhrh2rcd13ifvqhug","pricing_plan_id":"cebpf4jnsgd1na2vs0mg"},{"bike_id":"8242826e-ab20-43ea-95c1-e76b426a119e","system_id":"levelo_inurba_marseille","lat":43.33773,"lon":5.37431,"is_reserved":false,"is_disabled":false,"rental_uris":{"android":"levelo://app?vid=8242826e-ab20-43ea-95c1-e76b426a119e","ios":"levelo://app?vid=8242826e-ab20-43ea-95c1-e76b426a119e"},"vehicle_type_id":"4","last_reported":1736729405,"current_range_meters":14000,"station_id":"","pricing_plan_id":"cebpf4jnsgd1na2vs0mg"},{"bike_id":"57f5a8a9-f2e5-4673-966d-ca04b8d8c8e6","system_id":"levelo_inurba_marseille","lat":43.31135,"lon":5.37771,"is_reserved":false,"is_disabled":true,"rental_uris":{"android":"levelo://app?vid=57f5a8a9-f2e5-4673-966d-ca04b8d8c8e6","ios":"levelo://app?vid=57f5a8a9-f2e5-4673-966d-ca04b8d8c8e6"},"vehicle_type_id":"4","last_reported":1736729405,"current_range_meters":0,"station_id":"ce4bgt92rcd13ifvqcg0","pricing_plan_id":"cebpf4jnsgd1na2vs0mg"},{"bike_id":"41922604-c7b8-4e93-9da5-3903771d7233","system_id":"levelo_inurba_marseille","lat":43.24815,"lon":5.37469,"is_reserved":false,"is_disabled":false,"rental_uris":{"android":"levelo://app?vid=41922604-c7b8-4e93-9da5-3903771d7233","ios":"levelo://app?vid=41922604-c7b8-4e93-9da5-3903771d7233"},"vehicle_type_id":"4","last_reported":1736729405,"current_range_meters":28400,"station_id":"ce4bhgh2rcd13ifvqfb0","pricing_plan_id":"cebpf4jnsgd1na2vs0mg"},{"bike_id":"c327d484-c524-4142-9386-6268c4e1d223","system_id":"levelo_inurba_marseille","lat":43.25574,"lon":5.38217,"is_reserved":false,"is_disabled":false,"rental_uris":{"android":"levelo://app?vid=c327d484-c524-4142-9386-6268c4e1d223","ios":"levelo://app?vid=c327d484-c524-4142-9386-6268c4e1d223"},"vehicle_type_id":"4","last_reported":1736729405,"current_range_meters":22800,"station_id":"ce4bhih2rcd13ifvqfs0","pricing_plan_id":"cebpf4jnsgd1na2vs0mg"},{"bike_id":"9343157b-1c2d-4548-bf4c-6991e6c0cdde","system_id":"levelo_inurba_marseille","lat":43.29772,"lon":5.37108,"is_reserved":false,"is_disabled":true,"rental_uris":{"android":"levelo://app?vid=9343157b-1c2d-4548-bf4c-6991e6c0cdde","ios":"levelo://app?vid=9343157b-1c2d-4548-bf4c-6991e6c0cdde"},"vehicle_type_id":"4","last_reported":1736729405,"current_range_meters":24800,"station_id":"ce4bgop2rcd13ifvqc1g","pricing_plan_id":"cebpf4jnsgd1na2vs0mg"},{"bike_id":"aaf3f6b7-f236-4e99-bb71-a97dcb0f43c5","system_id":"levelo_inurba_marseille","lat":43.28935,"lon":5.36409,"is_reserved":false,"is_disabled":false,"rental_uris":{"android":"levelo://app?vid=aaf3f6b7-f236-4e99-bb71-a97dcb0f43c5","ios":"levelo://app?vid=aaf3f6b7-f236-4e99-bb71-a97dcb0f43c5"},"vehicle_type_id":"4","last_reported":1736729405,"current_range_meters":38000,"station_id":"ce4bhc92rcd13ifvqetg","pricing_plan_id":"cebpf4jnsgd1na2vs0mg"},{"bike_id":"fe2da4c7-76e8-47db-96f7-2156d364c015","system_id":"levelo_inurba_marseille","lat":43.28861,"lon":5.39328,"is_reserved":false,"is_disabled":false,"rental_uris":{"android":"levelo://app?vid=fe2da4c7-76e8-47db-96f7-2156d364c015","ios":"levelo://app?vid=fe2da4c7-76e8-47db-96f7-2156d364c015"},"vehicle_type_id":"4","last_reported":1736729405,"current_range_meters":39200,"station_id":"ce4bh2p2rcd13ifvqdi0","pricing_plan_id":"cebpf4jnsgd1na2vs0mg"},{"bike_id":"a47fa4fb-34f6-4348-bddb-b7c6dbec8d49","system_id":"levelo_inurba_marseille","lat":43.29619,"lon":5.37149,"is_reserved":false,"is_disabled":false,"rental_uris":{"android":"levelo://app?vid=a47fa4fb-34f6-4348-bddb-b7c6dbec8d49","ios":"levelo://app?vid=a47fa4fb-34f6-4348-bddb-b7c6dbec8d49"},"vehicle_type_id":"4","last_reported":1736729405,"current_range_meters":38000,"station_id":"ce4bgnh2rcd13ifvqc0g","pricing_plan_id":"cebpf4jnsgd1na2vs0mg"},{"bike_id":"6f8d5613-68e8-453b-9903-0b6c2da05e2d","system_id":"levelo_inurba_marseille","lat":43.2415,"lon":5.36416,"is_reserved":false,"is_disabled":false,"rental_uris":{"android":"levelo://app?vid=6f8d5613-68e8-453b-9903-0b6c2da05e2d","ios":"levelo://app?vid=6f8d5613-68e8-453b-9903-0b6c2da05e2d"},"vehicle_type_id":"4","last_reported":1736729405,"current_range_meters":34800,"station_id":"cpo36qri1sfpv3e86is0","pricing_plan_id":"cebpf4jnsgd1na2vs0mg"},{"bike_id":"04d788bf-6a1e-4994-a7a2-ad85dcb4ea1c","system_id":"levelo_inurba_marseille","lat":43.26686,"lon":5.38266,"is_reserved":false,"is_disabled":false,"rental_uris":{"android":"levelo://app?vid=04d788bf-6a1e-4994-a7a2-ad85dcb4ea1c","ios":"levelo://app?vid=04d788bf-6a1e-4994-a7a2-ad85dcb4ea1c"},"vehicle_type_id":"4","last_reported":1736729405,"current_range_meters":38800,"station_id":"ce4bhg92rcd13ifvqf90","pricing_plan_id":"cebpf4jnsgd1na2vs0mg"},{"bike_id":"cf11e11e-1e8b-42f7-a7ea-4ab24cbbde4c","system_id":"levelo_inurba_marseille","lat":43.28633,"lon":5.35117,"is_reserved":false,"is_disabled":false,"rental_uris":{"android":"levelo://app?vid=cf11e11e-1e8b-42f7-a7ea-4ab24cbbde4c","ios":"levelo://app?vid=cf11e11e-1e8b-42f7-a7ea-4ab24cbbde4c"},"vehicle_type_id":"4","last_reported":1736729405,"current_range_meters":31200,"station_id":"ce4bhch2rcd13ifvqeug","pricing_plan_id":"cebpf4jnsgd1na2vs0mg"},{"bike_id":"d89dd369-da4f-41a3-a2b6-b93d0873c964","system_id":"levelo_inurba_marseille","lat":43.27803,"lon":5.39204,"is_reserved":false,"is_disabled":false,"rental_uris":{"android":"levelo://app?vid=d89dd369-da4f-41a3-a2b6-b93d0873c964","ios":"levelo://app?vid=d89dd369-da4f-41a3-a2b6-b93d0873c964"},"vehicle_type_id":"4","last_reported":1736729405,"current_range_meters":38800,"station_id":"ce4bhjp2rcd13ifvqga0","pricing_plan_id":"cebpf4jnsgd1na2vs0mg"},{"bike_id":"bc730a90-a27e-47a2-9822-5f4b7a3e1682","system_id":"levelo_inurba_marseille","lat":43.31161,"lon":5.38686,"is_reserved":false,"is_disabled":false,"rental_uris":{"android":"levelo://app?vid=bc730a90-a27e-47a2-9822-5f4b7a3e1682","ios":"levelo://app?vid=bc730a90-a27e-47a2-9822-5f4b7a3e1682"},"vehicle_type_id":"4","last_reported":1736729405,"current_range_meters":36400,"station_id":"ce4bgv12rcd13ifvqcp0","pricing_plan_id":"cebpf4jnsgd1na2vs0mg"},