{"last_updated":1773934911,"ttl":60,"version":"2.2","data":{"bikes":[{"bike_id":"301aa731-6e58-4b9b-9b25-69fd0ab7a1ea","system_id":"levelo_inurba_marseille","lat":43.337444,"lon":5.374475,"is_reserved":false,"is_disabled":false,"rental_uris":{"android":"levelo://app?vid=301aa731-6e58-4b9b-9b25-69fd0ab7a1ea","ios":"levelo://app?vid=301aa731-6e58-4b9b-9b25-69fd0ab7a1ea"},"vehicle_type_id":"4","last_reported":1773934912,"current_range_meters":0,"station_id":"","pricing_plan_id":"cebpf4jnsgd1na2vs0mg"},{"bike_id":"a5432db3-860b-42eb-b5e1-c7e67f8a1f53","system_id":"levelo_inurba_marseille","lat":43.337444,"lon":5.374475,"is_reserved":false,"is_disabled":false,"rental_uris":{"android":"levelo://app?vid=a5432db3-860b-42eb-b5e1-c7e67f8a1f53","ios":"levelo://app?vid=a5432db3-860b-42eb-b5e1-c7e67f8a1f53"},"vehicle_type_id":"4","last_reported":1773934912,"current_range_meters":0,"station_id":"","pricing_plan_id":"cebpf4jnsgd1na2vs0mg"},{"bike_id":"861ae3e2-b37f-41c2-a8bb-7686003bf1aa","system_id":"levelo_inurba_marseille","lat":43.337444,"lon":5.374475,"is_reserved":false,"is_disabled":false,"rental_uris":{"android":"levelo://app?vid=861ae3e2-b37f-41c2-a8bb-7686003bf1aa","ios":"levelo://app?vid=861ae3e2-b37f-41c2-a8bb-7686003bf1aa"},"vehicle_type_id":"4","last_reported":1773934912,"current_range_meters":0,"station_id":"","pricing_plan_id":"cebpf4jnsgd1na2vs0mg"},{"bike_id":"2317ee81-ad40-49ba-aa20-1024f61aae75","system_id":"levelo_inurba_marseille","lat":43.337444,"lon":5.374475,"is_reserved":false,"is_disabled":false,"rental_uris":{"android":"levelo://app?vid=2317ee81-ad40-49ba-aa20-1024f61aae75","ios":"levelo://app?vid=2317ee81-ad40-49ba-aa20-1024f61aae75"},"vehicle_type_id":"4","last_reported":1773934912,"current_range_meters":0,"station_id":"","pricing_plan_id":"cebpf4jnsgd1na2vs0mg"},{"bike_id":"b38a6600-2584-439d-85d1-76ee58f8d898","system_id":"levelo_inurba_marseille","lat":43.337444,"lon":5.374475,"is_reserved":false,"is_disabled":false,"rental_uris":{"android":"levelo://app?vid=b38a6600-2584-439d-85d1-76ee58f8d898","ios":"levelo://app?vid=b38a6600-2584-439d-85d1-76ee58f8d898"},"vehicle_type_id":"4","last_reported":1773934912,"current_range_meters":0,"station_id":"","pricing_plan_id":"cebpf4jnsgd1na2vs0mg"},{"bike_id":"aafb6cde-6ee2-4dee-b54c-2e5673d99b08","system_id":"levelo_inurba_marseille","lat":43.337444,"lon":5.374475,"is_reserved":false,"is_disabled":false,"rental_uris":{"android":"levelo://app?vid=aafb6cde-6ee2-4dee-b54c-2e5673d99b08","ios":"levelo://app?vid=aafb6cde-6ee2-4dee-b54c-2e5673d99b08"},"vehicle_type_id":"4","last_reported":1773934912,"current_range_meters":0,"station_id":"","pricing_plan_id":"cebpf4jnsgd1na2vs0mg"},{"bike_id":"147849df-30a2-4dcb-94fa-f363a59176e5","system_id":"levelo_inurba_marseille","lat":43.337444,"lon":5.374475,"is_reserved":false,"is_disabled":false,"rental_uris":{"android":"levelo://app?vid=147849df-30a2-4dcb-94fa-f363a59176e5","ios":"levelo://app?vid=147849df-30a2-4dcb-94fa-f363a59176e5"},"vehicle_type_id":"4","last_reported":1773934912,"current_range_meters":0,"station_id":"","pricing_plan_id":"cebpf4jnsgd1na2vs0mg"},{"bike_id":"18080d52-97da-4885-8484-ebac37f7e1c2","system_id":"levelo_inurba_marseille","lat":43.337444,"lon":5.374475,"is_reserved":false,"is_disabled":false,"rental_uris":{"android":"levelo://app?vid=18080d52-97da-4885-8484-ebac37f7e1c2","ios":"levelo://app?vid=18080d52-97da-4885-8484-ebac37f7e1c2"},"vehicle_type_id":"4","last_reported":1773934912,"current_range_meters":0,"station_id":"","pricing_plan_id":"cebpf4jnsgd1na2vs0mg"},{"bike_id":"f504fd11-b7ad-40d0-b9e6-e8522f7a19a3","system_id":"levelo_inurba_marseille","lat":43.337444,"lon":5.374475,"is_reserved":false,"is_disabled":false,"rental_uris":{"android":"levelo://app?vid=f504fd11-b7ad-40d0-b9e6-e8522f7a19a3","ios":"levelo://app?vid=f504fd11-b7ad-40d0-b9e6-e8522f7a19a3"},"vehicle_type_id":"4","last_reported":1773934912,"current_range_meters":0,"station_id":"","pricing_plan_id":"cebpf4jnsgd1na2vs0mg"},{"bike_id":"b6a7afab-c336-4a53-982c-5df99137e223","system_id":"levelo_inurba_marseille","lat":43.337444,"lon":5.374475,"is_reserved":false,"is_disabled":false,"rental_uris":{"android":"levelo://app?vid=b6a7afab-c336-4a53-982c-5df99137e223","ios":"levelo://app?vid=b6a7afab-c336-4a53-982c-5df99137e223"},"vehicle_type_id":"4","last_reported":1773934912,"current_range_meters":0,"station_id":"","pricing_plan_id":"cebpf4jnsgd1na2vs0mg"},{"bike_id":"d980f251-36e5-40d3-817f-36e69efe2415","system_id":"levelo_inurba_marseille","lat":43.337444,"lon":5.374475,"is_reserved":false,"is_disabled":false,"rental_uris":{"android":"levelo://app?vid=d980f251-36e5-40d3-817f-36e69efe2415","ios":"levelo://app?vid=d980f251-36e5-40d3-817f-36e69efe2415"},"vehicle_type_id":"4","last_reported":1773934912,"current_range_meters":0,"station_id":"","pricing_plan_id":"cebpf4jnsgd1na2vs0mg"},{"bike_id":"fe93ebe0-ebc3-48a5-8424-302988fc9eaa","system_id":"levelo_inurba_marseille","lat":43.337444,"lon":5.374475,"is_reserved":false,"is_disabled":false,"rental_uris":{"android":"levelo://app?vid=fe93ebe0-ebc3-48a5-8424-302988fc9eaa","ios":"levelo://app?vid=fe93ebe0-ebc3-48a5-8424-302988fc9eaa"},"vehicle_type_id":"4","last_reported":1773934912,"current_range_meters":0,"station_id":"","pricing_plan_id":"cebpf4jnsgd1na2vs0mg"},{"bike_id":"1a8594a7-a123-4de6-a806-7d5b6535f553","system_id":"levelo_inurba_marseille","lat":43.337444,"lon":5.374475,"is_reserved":false,"is_disabled":false,"rental_uris":{"android":"levelo://app?vid=1a8594a7-a123-4de6-a806-7d5b6535f553","ios":"levelo://app?vid=1a8594a7-a123-4de6-a806-7d5b6535f553"},"vehicle_type_id":"4","last_reported":1773934912,"current_range_meters":0,"station_id":"","pricing_plan_id":"cebpf4jnsgd1na2vs0mg"},{"bike_id":"83618bbf-0f84-42db-9a99-c4c0cd82cc3a","system_id":"levelo_inurba_marseille","lat":43.337444,"lon":5.374475,"is_reserved":false,"is_disabled":false,"rental_uris":{"android":"levelo://app?vid=83618bbf-0f84-42db-9a99-c4c0cd82cc3a","ios":"levelo://app?vid=83618bbf-0f84-42db-9a99-c4c0cd82cc3a"},"vehicle_type_id":"4","last_reported":1773934912,"current_range_meters":0,"station_id":"","pricing_plan_id":"cebpf4jnsgd1na2vs0mg"},{"bike_id":"a2042633-7bb5-483a-b202-b40be8eacbdd","system_id":"levelo_inurba_marseille","lat":43.337444,"lon":5.374475,"is_reserved":false,"is_disabled":false,"rental_uris":{"android":"levelo://app?vid=a2042633-7bb5-483a-b202-b40be8eacbdd","ios":"levelo://app?vid=a2042633-7bb5-483a-b202-b40be8eacbdd"},"vehicle_type_id":"4","last_reported":1773934912,"current_range_meters":0,"station_id":"","pricing_plan_id":"cebpf4jnsgd1na2vs0mg"},{"bike_id":"0754c1ea-b194-4ce4-bd96-22a2fe852a02","system_id":"levelo_inurba_marseille","lat":43.337444,"lon":5.374475,"is_reserved":false,"is_disabled":false,"rental_uris":{"android":"levelo://app?vid=0754c1ea-b194-4ce4-bd96-22a2fe852a02","ios":"levelo://app?vid=0754c1ea-b194-4ce4-bd96-22a2fe852a02"},"vehicle_type_id":"4","last_reported":1773934912,"current_range_meters":0,"station_id":"","pricing_plan_id":"cebpf4jnsgd1na2vs0mg"},{"bike_id":"f8be8315-3f57-4505-aedf-63eec1c7a1f8","system_id":"levelo_inurba_marseille","lat":43.337444,"lon":5.374475,"is_reserved":false,"is_disabled":false,"rental_uris":{"android":"levelo://app?vid=f8be8315-3f57-4505-aedf-63eec1c7a1f8","ios":"levelo://app?vid=f8be8315-3f57-4505-aedf-63eec1c7a1f8"},"vehicle_type_id":"4","last_reported":1773934912,"current_range_meters":0,"station_id":"","pricing_plan_id":"cebpf4jnsgd1na2vs0mg"},{"bike_id":"3bd36dbf-48f0-4555-b1ab-f4c26bdacc37","system_id":"levelo_inurba_marseille","lat":43.337444,"lon":5.374475,"is_reserved":false,"is_disabled":false,"rental_uris":{"android":"levelo://app?vid=3bd36dbf-48f0-4555-b1ab-f4c26bdacc37","ios":"levelo://app?vid=3bd36dbf-48f0-4555-b1ab-f4c26bdacc37"},"vehicle_type_id":"4","last_reported":1773934912,"current_range_meters":0,"station_id":"","pricing_plan_id":"cebpf4jnsgd1na2vs0mg"},{"bike_id":"6b154a10-e3dd-47cd-97b0-acde4a123997","system_id":"levelo_inurba_marseille","lat":43.337444,"lon":5.374475,"is_reserved":false,"is_disabled":false,"rental_uris":{"android":"levelo://app?vid=6b154a10-e3dd-47cd-97b0-acde4a123997","ios":"levelo://app?vid=6b154a10-e3dd-47cd-97b0-acde4a123997"},"vehicle_type_id":"4","last_reported":1773934912,"current_range_meters":0,"station_id":"","pricing_plan_id":"cebpf4jnsgd1na2vs0mg"},{"bike_id":"ecc2e8f4-69cd-41d4-81e2-a3218e0898b8","system_id":"levelo_inurba_marseille","lat":43.337444,"lon":5.374475,"is_reserved":false,"is_disabled":false,"rental_uris":{"android":"levelo://app?vid=ecc2e8f4-69cd-41d4-81e2-a3218e0898b8","ios":"levelo://app?vid=ecc2e8f4-69cd-41d4-81e2-a3218e0898b8"},"vehicle_type_id":"4","last_reported":1773934912,"current_range_meters":0,"station_id":"","pricing_plan_id":"cebpf4jnsgd1na2vs0mg"},{"bike_id":"1f7ee275-692d-4ffa-9b5b-131aaec84b43","system_id":"levelo_inurba_marseille","lat":43.337444,"lon":5.374475,"is_reserved":false,"is_disabled":false,"rental_uris":{"android":"levelo://app?vid=1f7ee275-692d-4ffa-9b5b-131aaec84b43","ios":"levelo://app?vid=1f7ee275-692d-4ffa-9b5b-131aaec84b43"},"vehicle_type_id":"4","last_reported":1773934912,"current_range_meters":0,"station_id":"","pricing_plan_id":"cebpf4jnsgd1na2vs0mg"},{"bike_id":"6fb0f3a4-5e43-46e2-90fe-155c7d0682f3","system_id":"levelo_inurba_marseille","lat":43.337444,"lon":5.374475,"is_reserved":false,"is_disabled":false,"rental_uris":{"android":"levelo://app?vid=6fb0f3a4-5e43-46e2-90fe-155c7d0682f3","ios":"levelo://app?vid=6fb0f3a4-5e43-46e2-90fe-155c7d0682f3"},"vehicle_type_id":"4","last_reported":1773934912,"current_range_meters":0,"station_id":"","pricing_plan_id":"cebpf4jnsgd1na2vs0mg"},{"bike_id":"169bb09e-8a80-44ea-a4c1-9fdfe5a9fa89","system_id":"levelo_inurba_marseille","lat":43.337444,"lon":5.374475,"is_reserved":false,"is_disabled":false,"rental_uris":{"android":"levelo://app?vid=169bb09e-8a80-44ea-a4c1-9fdfe5a9fa89","ios":"levelo://app?vid=169bb09e-8a80-44ea-a4c1-9fdfe5a9fa89"},"vehicle_type_id":"4","last_reported":1773934912,"current_range_meters":0,"station_id":"","pricing_plan_id":"cebpf4jnsgd1na2vs0mg"},{"bike_id":"72a0ccce-dcca-4977-8814-a53536bac83c","system_id":"levelo_inurba_marseille","lat":43.337444,"lon":5.374475,"is_reserved":false,"is_disabled":false,"rental_uris":{"android":"levelo://app?vid=72a0ccce-dcca-4977-8814-a53536bac83c","ios":"levelo://app?vid=72a0ccce-dcca-4977-8814-a53536bac83c"},"vehicle_type_id":"4","last_reported":1773934912,"current_range_meters":0,"station_id":"","pricing_plan_id":"cebpf4jnsgd1na2vs0mg"},{"bike_id":"f7418b0f-34ba-4331-b5d9-6412f7980b74","system_id":"levelo_inurba_marseille","lat":43.337444,"lon":5.374475,"is_reserved":false,"is_disabled":false,"rental_uris":{"android":"levelo://app?vid=f7418b0f-34ba-4331-b5d9-6412f7980b74","ios":"levelo://app?vid=f7418b0f-34ba-4331-b5d9-6412f7980b74"},"vehicle_type_id":"4","last_reported":1773934912,"current_range_meters":0,"station_id":"","pricing_plan_id":"cebpf4jnsgd1na2vs0mg"},{"bike_id":"eba33cfe-eca2-4e40-81f2-989bd44825b1","system_id":"levelo_inurba_marseille","lat":43.337444,"lon":5.374475,"is_reserved":false,"is_disabled":false,"rental_uris":{"android":"levelo://app?vid=eba33cfe-eca2-4e40-81f2-989bd44825b1","ios":"levelo://app?vid=eba33cfe-eca2-4e40-81f2-989bd44825b1"},"vehicle_type_id":"4","last_reported":1773934912,"current_range_meters":0,"station_id":"","pricing_plan_id":"cebpf4jnsgd1na2vs0mg"},{"bike_id":"e75c0864-c3ed-4ade-9460-adb40b6f2c57","system_id":"levelo_inurba_marseille","lat":43.337444,"lon":5.374475,"is_reserved":false,"is_disabled":false,"rental_uris":{"android":"levelo://app?vid=e75c0864-c3ed-4ade-9460-adb40b6f2c57","ios":"levelo://app?vid=e75c0864-c3ed-4ade-9460-adb40b6f2c57"},"vehicle_type_id":"4","last_reported":1773934912,"current_range_meters":0,"station_id":"","pricing_plan_id":"cebpf4jnsgd1na2vs0mg"},{"bike_id":"c5f65900-1d9a-4bb3-a0d7-f79962ab18a7","system_id":"levelo_inurba_marseille","lat":43.337444,"lon":5.374475,"is_reserved":false,"is_disabled":false,"rental_uris":{"android":"levelo://app?vid=c5f65900-1d9a-4bb3-a0d7-f79962ab18a7","ios":"levelo://app?vid=c5f65900-1d9a-4bb3-a0d7-f79962ab18a7"},"vehicle_type_id":"4","last_reported":1773934912,"current_range_meters":0,"station_id":"","pricing_plan_id":"cebpf4jnsgd1na2vs0mg"},{"bike_id":"a2d3637f-59d5-4b19-96c3-b05b5fa7c936","system_id":"levelo_inurba_marseille","lat":43.337444,"lon":5.374475,"is_reserved":false,"is_disabled":false,"rental_uris":{"android":"levelo://app?vid=a2d3637f-59d5-4b19-96c3-b05b5fa7c936","ios":"levelo://app?vid=a2d3637f-59d5-4b19-96c3-b05b5fa7c936"},"vehicle_type_id":"4","last_reported":1773934912,"current_range_meters":0,"station_id":"","pricing_plan_id":"cebpf4jnsgd1na2vs0mg"},{"bike_id":"f580e77c-24da-427b-a99f-5b0826308fc2","system_id":"levelo_inurba_marseille","lat":43.337444,"lon":5.374475,"is_reserved":false,"is_disabled":false,"rental_uris":{"android":"levelo://app?vid=f580e77c-24da-427b-a99f-5b0826308fc2","ios":"levelo://app?vid=f580e77c-24da-427b-a99f-5b0826308fc2"},"vehicle_type_id":"4","last_reported":1773934912,"current_range_meters":0,"station_id":"","pricing_plan_id":"cebpf4jnsgd1na2vs0mg"},{"bike_id":"1dc46e0c-4d00-41c8-8221-47af3a51fbba","system_id":"levelo_inurba_marseille","lat":43.337444,"lon":5.374475,"is_reserved":false,"is_disabled":false,"rental_uris":{"android":"levelo://app?vid=1dc46e0c-4d00-41c8-8221-47af3a51fbba","ios":"levelo://app?vid=1dc46e0c-4d00-41c8-8221-47af3a51fbba"},"vehicle_type_id":"4","last_reported":1773934912,"current_range_meters":0,"station_id":"","pricing_plan_id":"cebpf4jnsgd1na2vs0mg"},{"bike_id":"6b74d3ca-af11-49a0-81b1-59cdaec80e5e","system_id":"levelo_inurba_marseille","lat":43.337444,"lon":5.374475,"is_reserved":false,"is_disabled":false,"rental_uris":{"android":"levelo://app?vid=6b74d3ca-af11-49a0-81b1-59cdaec80e5e","ios":"levelo://app?vid=6b74d3ca-af11-49a0-81b1-59cdaec80e5e"},"vehicle_type_id":"4","last_reported":1773934912,"current_range_meters":0,"station_id":"","pricing_plan_id":"cebpf4jnsgd1na2vs0mg"},{"bike_id":"8007774a-a200-4996-9773-5996c93180f1","system_id":"levelo_inurba_marseille","lat":43.337444,"lon":5.374475,"is_reserved":false,"is_disabled":false,"rental_uris":{"android":"levelo://app?vid=8007774a-a200-4996-9773-5996c93180f1","ios":"levelo://app?vid=8007774a-a200-4996-9773-5996c93180f1"},"vehicle_type_id":"4","last_reported":1773934912,"current_range_meters":0,"station_id":"","pricing_plan_id":"cebpf4jnsgd1na2vs0mg"},{"bike_id":"27ef42de-2af1-4a79-97c6-685f00794058","system_id":"levelo_inurba_marseille","lat":43.337444,"lon":5.374475,"is_reserved":false,"is_disabled":false,"rental_uris":{"android":"levelo://app?vid=27ef42de-2af1-4a79-97c6-685f00794058","ios":"levelo://app?vid=27ef42de-2af1-4a79-97c6-685f00794058"},"vehicle_type_id":"4","last_reported":1773934912,"current_range_meters":0,"station_id":"","pricing_plan_id":"cebpf4jnsgd1na2vs0mg"},{"bike_id":"d441993d-91ff-4ae7-b652-1f4e05cc8b57","system_id":"levelo_inurba_marseille","lat":43.337444,"lon":5.374475,"is_reserved":false,"is_disabled":false,"rental_uris":{"android":"levelo://app?vid=d441993d-91ff-4ae7-b652-1f4e05cc8b57","ios":"levelo://app?vid=d441993d-91ff-4ae7-b652-1f4e05cc8b57"},"vehicle_type_id":"4","last_reported":1773934912,"current_range_meters":0,"station_id":"","pricing_plan_id":"cebpf4jnsgd1na2vs0mg"},{"bike_id":"44f87e1b-af60-4761-9594-bd47f5210d8f","system_id":"levelo_inurba_marseille","lat":43.337444,"lon":5.374475,"is_reserved":false,"is_disabled":false,"rental_uris":{"android":"levelo://app?vid=44f87e1b-af60-4761-9594-bd47f5210d8f","ios":"levelo://app?vid=44f87e1b-af60-4761-9594-bd47f5210d8f"},"vehicle_type_id":"4","last_reported":1773934912,"current_range_meters":0,"station_id":"","pricing_plan_id":"cebpf4jnsgd1na2vs0mg"},{"bike_id":"e8748835-6a6e-449f-8e07-2c769624e60a","system_id":"levelo_inurba_marseille","lat":43.337444,"lon":5.374475,"is_reserved":false,"is_disabled":false,"rental_uris":{"android":"levelo://app?vid=e8748835-6a6e-449f-8e07-2c769624e60a","ios":"levelo://app?vid=e8748835-6a6e-449f-8e07-2c769624e60a"},"vehicle_type_id":"4","last_reported":1773934912,"current_range_meters":0,"station_id":"","pricing_plan_id":"cebpf4jnsgd1na2vs0mg"},{"bike_id":"37490f58-4a0c-4cd1-8389-8422dea05a53","system_id":"levelo_inurba_marseille","lat":43.337444,"lon":5.374475,"is_reserved":false,"is_disabled":false,"rental_uris":{"android":"levelo://app?vid=37490f58-4a0c-4cd1-8389-8422dea05a53","ios":"levelo://app?vid=37490f58-4a0c-4cd1-8389-8422dea05a53"},"vehicle_type_id":"4","last_reported":1773934912,"current_range_meters":0,"station_id":"","pricing_plan_id":"cebpf4jnsgd1na2vs0mg"},{"bike_id":"bf428475-b0bc-4285-95f6-9f4dc21999bc","system_id":"levelo_inurba_marseille","lat":43.337444,"lon":5.374475,"is_reserved":false,"is_disabled":false,"rental_uris":{"android":"levelo://app?vid=bf428475-b0bc-4285-95f6-9f4dc21999bc","ios":"levelo://app?vid=bf428475-b0bc-4285-95f6-9f4dc21999bc"},"vehicle_type_id":"4","last_reported":1773934912,"current_range_meters":0,"station_id":"","pricing_plan_id":"cebpf4jnsgd1na2vs0mg"},{"bike_id":"381c8866-9377-4efb-91c0-735a1c479191","system_id":"levelo_inurba_marseille","lat":43.337444,"lon":5.374475,"is_reserved":false,"is_disabled":false,"rental_uris":{"android":"levelo://app?vid=381c8866-9377-4efb-91c0-735a1c479191","ios":"levelo://app?vid=381c8866-9377-4efb-91c0-735a1c479191"},"vehicle_type_id":"4","last_reported":1773934912,"current_range_meters":0,"station_id":"","pricing_plan_id":"cebpf4jnsgd1na2vs0mg"},{"bike_id":"9c192bfa-9bc8-41ff-93de-05cf53c4dcf7","system_id":"levelo_inurba_marseille","lat":43.337444,"lon":5.374475,"is_reserved":false,"is_disabled":false,"rental_uris":{"android":"levelo://app?vid=9c192bfa-9bc8-41ff-93de-05cf53c4dcf7","ios":"levelo://app?vid=9c192bfa-9bc8-41ff-93de-05cf53c4dcf7"},"vehicle_type_id":"4","last_reported":1773934912,"current_range_meters":0,"station_id":"","pricing_plan_id":"cebpf4jnsgd1na2vs0mg"},{"bike_id":"31487bc4-0cff-45d6-8f95-df37b9ddd0a4","system_id":"levelo_inurba_marseille","lat":43.337444,"lon":5.374475,"is_reserved":false,"is_disabled":false,"rental_uris":{"android":"levelo://app?vid=31487bc4-0cff-45d6-8f95-df37b9ddd0a4","ios":"levelo://app?vid=31487bc4-0cff-45d6-8f95-df37b9ddd0a4"},"vehicle_type_id":"4","last_reported":1773934912,"current_range_meters":0,"station_id":"","pricing_plan_id":"cebpf4jnsgd1na2vs0mg"},{"bike_id":"97f6f9f9-2634-4243-83d7-cb210a096b1d","system_id":"levelo_inurba_marseille","lat":43.337444,"lon":5.374475,"is_reserved":false,"is_disabled":false,"rental_uris":{"android":"levelo://app?vid=97f6f9f9-2634-4243-83d7-cb210a096b1d","ios":"levelo://app?vid=97f6f9f9-2634-4243-83d7-cb210a096b1d"},"vehicle_type_id":"4","last_reported":1773934912,"current_range_meters":0,"station_id":"","pricing_plan_id":"cebpf4jnsgd1na2vs0mg"},{"bike_id":"0f52e6d2-7cd4-4cb4-b48d-d259474522e2","system_id":"levelo_inurba_marseille","lat":43.337444,"lon":5.374475,"is_reserved":false,"is_disabled":false,"rental_uris":{"android":"levelo://app?vid=0f52e6d2-7cd4-4cb4-b48d-d259474522e2","ios":"levelo://app?vid=0f52e6d2-7cd4-4cb4-b48d-d259474522e2"},"vehicle_type_id":"4","last_reported":1773934912,"current_range_meters":0,"station_id":"","pricing_plan_id":"cebpf4jnsgd1na2vs0mg"},{"bike_id":"5032ee4c-643b-4fa7-8a5c-8d5e764831f6","system_id":"levelo_inurba_marseille","lat":43.2175,"lon":5.34605,"is_reserved":false,"is_disabled":false,"rental_uris":{"android":"levelo://app?vid=5032ee4c-643b-4fa7-8a5c-8d5e764831f6","ios":"levelo://app?vid=5032ee4c-643b-4fa7-8a5c-8d5e764831f6"},"vehicle_type_id":"4","last_reported":1773934912,"current_range_meters":2800,"station_id":"st_cvj6r9ubvosntc0bgbag","pricing_plan_id":"cebpf4jnsgd1na2vs0mg"},{"bike_id":"8cc6aea2-9d99-4846-9795-29def49af57b","system_id":"levelo_inurba_marseille","lat":43.23391,"lon":5.4124,"is_reserved":false,"is_disabled":false,"rental_uris":{"android":"levelo://app?vid=8cc6aea2-9d99-4846-9795-29def49af57b","ios":"levelo://app?vid=8cc6aea2-9d99-4846-9795-29def49af57b"},"vehicle_type_id":"4","last_reported":1773934912,"current_range_meters":2800,"station_id":"","pricing_plan_id":"cebpf4jnsgd1na2vs0mg"},{"bike_id":"8a854e0a-3b9f-471d-80f2-bfadb0595e6b","system_id":"levelo_inurba_marseille","lat":43.31362,"lon":5.37483,"is_reserved":false,"is_disabled":false,"rental_uris":{"android":"levelo://app?vid=8a854e0a-3b9f-471d-80f2-bfadb0595e6b","ios":"levelo://app?vid=8a854e0a-3b9f-471d-80f2-bfadb0595e6b"},"vehicle_type_id":"4","last_reported":1773934912,"current_range_meters":2800,"station_id":"","pricing_plan_id":"cebpf4jnsgd1na2vs0mg"},{"bike_id":"cbc8599d-0f53-4276-b29f-85b323d36cb9","system_id":"levelo_inurba_marseille","lat":43.25481,"lon":5.37639,"is_reserved":false,"is_disabled":false,"rental_uris":{"android":"levelo://app?vid=cbc8599d-0f53-4276-b29f-85b323d36cb9","ios":"levelo://app?vid=cbc8599d-0f53-4276-b29f-85b323d36cb9"},"vehicle_type_id":"4","last_reported":1773934912,"current_range_meters":2800,"station_id":"ce4bhh12rcd13ifvqff0","pricing_plan_id":"cebpf4jnsgd1na2vs0mg"},{"bike_id":"5c10303c-e65b-4daf-9e4a-6666a3f1f0c1","system_id":"levelo_inurba_marseille","lat":43.29975,"lon":5.38492,"is_reserved":false,"is_disabled":false,"rental_uris":{"android":"levelo://app?vid=5c10303c-e65b-4daf-9e4a-6666a3f1f0c1","ios":"levelo://app?vid=5c10303c-e65b-4daf-9e4a-6666a3f1f0c1"},"vehicle_type_id":"4","last_reported":1773934912,"current_range_meters":2800,"station_id":"ce4bgj92rcd13ifvqbd0","pricing_plan_id":"cebpf4jnsgd1na2vs0mg"},{"bike_id":"8b976a20-d79f-42d3-a4a2-b8023b027ffd","system_id":"levelo_inurba_marseille","lat":43.29712,"lon":5.37692,"is_reserved":false,"is_disabled":false,"rental_uris":{"android":"levelo://app?vid=8b976a20-d79f-42d3-a4a2-b8023b027ffd","ios":"levelo://app?vid=8b976a20-d79f-42d3-a4a2-b8023b027ffd"},"vehicle_type_id":"4","last_reported":1773934912,"current_range_meters":2800,"station_id":"ce4bgkh2rcd13ifvqbl0","pricing_plan_id":"cebpf4jnsgd1na2vs0mg"},{"bike_id":"0e3df08e-bdc0-4f06-aad9-4610b78b8d0a","system_id":"levelo_inurba_marseille","lat":43.3095,"lon":5.3904,"is_reserved":false,"is_disabled":false,"rental_uris":{"android":"levelo://app?vid=0e3df08e-bdc0-4f06-aad9-4610b78b8d0a","ios":"levelo://app?vid=0e3df08e-bdc0-4f06-aad9-4610b78b8d0a"},"vehicle_type_id":"4","last_reported":1773934912,"current_range_meters":2800,"station_id":"ce4bgup2rcd13ifvqco0","pricing_plan_id":"cebpf4jnsgd1na2vs0mg"},{"bike_id":"fae92688-bb45-4387-acf3-e51d71da6d17","system_id":"levelo_inurba_marseille","lat":43.24397,"lon":5.37062,"is_reserved":false,"is_disabled":false,"rental_uris":{"android":"levelo://app?vid=fae92688-bb45-4387-acf3-e51d71da6d17","ios":"levelo://app?vid=fae92688-bb45-4387-acf3-e51d71da6d17"},"vehicle_type_id":"4","last_reported":1773934912,"current_range_meters":2800,"station_id":"ce4bhhh2rcd13ifvqfk0","pricing_plan_id":"cebpf4jnsgd1na2vs0mg"},{"bike_id":"6c9fede8-5a0f-49a5-a01d-89fdcfc587e3","system_id":"levelo_inurba_marseille","lat":43.31271,"lon":5.40162,"is_reserved":false,"is_disabled":false,"rental_uris":{"android":"levelo://app?vid=6c9fede8-5a0f-49a5-a01d-89fdcfc587e3","ios":"levelo://app?vid=6c9fede8-5a0f-49a5-a01d-89fdcfc587e3"},"vehicle_type_id":"4","last_reported":1773934912,"current_range_meters":2800,"station_id":"ce4bh092rcd13ifvqd30","pricing_plan_id":"cebpf4jnsgd1na2vs0mg"},{"bike_id":"3064287c-8ed3-41e8-93b5-31fa274eed05","system_id":"levelo_inurba_marseille","lat":43.29526,"lon":5.40104,"is_reserved":false,"is_disabled":true,"rental_uris":{"android":"levelo://app?vid=3064287c-8ed3-41e8-93b5-31fa274eed05","ios":"levelo://app?vid=3064287c-8ed3-41e8-93b5-31fa274eed05"},"vehicle_type_id":"4","last_reported":1773934912,"current_range_meters":2800,"station_id":"","pricing_plan_id":"cebpf4jnsgd1na2vs0mg"},{"bike_id":"82a0a048-45f9-491f-80ab-bef8e530448e","system_id":"levelo_inurba_marseille","lat":43.30959,"lon":5.39051,"is_reserved":false,"is_disabled":false,"rental_uris":{"android":"levelo://app?vid=82a0a048-45f9-491f-80ab-bef8e530448e","ios":"levelo://app?vid=82a0a048-45f9-491f-80ab-bef8e530448e"},"vehicle_type_id":"4","last_reported":1773934912,"current_range_meters":2800,"station_id":"ce4bgup2rcd13ifvqco0","pricing_plan_id":"cebpf4jnsgd1na2vs0mg"},{"bike_id":"3eff05fa-94a4-4cac-9939-00949190ded5","system_id":"levelo_inurba_marseille","lat":43.2981,"lon":5.38068,"is_reserved":false,"is_disabled":false,"rental_uris":{"android":"levelo://app?vid=3eff05fa-94a4-4cac-9939-00949190ded5","ios":"levelo://app?vid=3eff05fa-94a4-4cac-9939-00949190ded5"},"vehicle_type_id":"4","last_reported":1773934912,"current_range_meters":2800,"station_id":"ce4bgip2rcd13ifvqbb0","pricing_plan_id":"cebpf4jnsgd1na2vs0mg"},{"bike_id":"c9cfc67c-4e42-4833-b4ab-11ad690d27f6","system_id":"levelo_inurba_marseille","lat":43.33015,"lon":5.39374,"is_reserved":false,"is_disabled":false,"rental_uris":{"android":"levelo://app?vid=c9cfc67c-4e42-4833-b4ab-11ad690d27f6","ios":"levelo://app?vid=c9cfc67c-4e42-4833-b4ab-11ad690d27f6"},"vehicle_type_id":"4","last_reported":1773934912,"current_range_meters":2800,"station_id":"","pricing_plan_id":"cebpf4jnsgd1na2vs0mg"},{"bike_id":"a39c2269-c1be-4679-b7ec-7b13e4b25bad","system_id":"levelo_inurba_marseille","lat":43.3251,"lon":5.3875,"is_reserved":false,"is_disabled":true,"rental_uris":{"android":"levelo://app?vid=a39c2269-c1be-4679-b7ec-7b13e4b25bad","ios":"levelo://app?vid=a39c2269-c1be-4679-b7ec-7b13e4b25bad"},"vehicle_type_id":"4","last_reported":1773934912,"current_range_meters":2800,"station_id":"","pricing_plan_id":"cebpf4jnsgd1na2vs0mg"},{"bike_id":"0cbfc97d-a9fc-4b48-875f-3e2112182eb2","system_id":"levelo_inurba_marseille","lat":43.28946,"lon":5.36398,"is_reserved":false,"is_disabled":false,"rental_uris":{"android":"levelo://app?vid=0cbfc97d-a9fc-4b48-875f-3e2112182eb2","ios":"levelo://app?vid=0cbfc97d-a9fc-4b48-875f-3e2112182eb2"},"vehicle_type_id":"4","last_reported":1773934912,"current_range_meters":2800,"station_id":"ce4bhc92rcd13ifvqetg","pricing_plan_id":"cebpf4jnsgd1na2vs0mg"},{"bike_id":"9ef9fd3b-08e1-41bf-bbd1-087477917b48","system_id":"levelo_inurba_marseille","lat":43.31213,"lon":5.3684,"is_reserved":false,"is_disabled":false,"rental_uris":{"android":"levelo://app?vid=9ef9fd3b-08e1-41bf-bbd1-087477917b48","ios":"levelo://app?vid=9ef9fd3b-08e1-41bf-bbd1-087477917b48"},"vehicle_type_id":"4","last_reported":1773934912,"current_range_meters":3200,"station_id":"ce4bgl92rcd13ifvqbq0","pricing_plan_id":"cebpf4jnsgd1na2vs0mg"},{"bike_id":"ccf4cbaf-a48e-4a3a-bd43-50421be7ff22","system_id":"levelo_inurba_marseille","lat":43.273315,"lon":5.390669,"is_reserved":false,"is_disabled":true,"rental_uris":{"android":"levelo://app?vid=ccf4cbaf-a48e-4a3a-bd43-50421be7ff22","ios":"levelo://app?vid=ccf4cbaf-a48e-4a3a-bd43-50421be7ff22"},"vehicle_type_id":"4","last_reported":1773934912,"current_range_meters":3200,"station_id":"ce4bhgp2rcd13ifvqfe0","pricing_plan_id":"cebpf4jnsgd1na2vs0mg"},{"bike_id":"bef409de-f297-448f-82df-83bd478f9c2c","system_id":"levelo_inurba_marseille","lat":43.30638,"lon":5.40077,"is_reserved":false,"is_disabled":false,"rental_uris":{"android":"levelo://app?vid=bef409de-f297-448f-82df-83bd478f9c2c","ios":"levelo://app?vid=bef409de-f297-448f-82df-83bd478f9c2c"},"vehicle_type_id":"4","last_reported":1773934912,"current_range_meters":3200,"station_id":"ce4bh112rcd13ifvqda0","pricing_plan_id":"cebpf4jnsgd1na2vs0mg"},{"bike_id":"1b1c91ee-b819-425b-84ab-0a4ba95f3d7d","system_id":"levelo_inurba_marseille","lat":43.30549,"lon":5.36701,"is_reserved":false,"is_disabled":false,"rental_uris":{"android":"levelo://app?vid=1b1c91ee-b819-425b-84ab-0a4ba95f3d7d","ios":"levelo://app?vid=1b1c91ee-b819-425b-84ab-0a4ba95f3d7d"},"vehicle_type_id":"4","last_reported":1773934912,"current_range_meters":3200,"station_id":"ce4bgrp2rcd13ifvqc9g","pricing_plan_id":"cebpf4jnsgd1na2vs0mg"},{"bike_id":"2cc0d97c-5ca8-4112-8c8f-b37680534657","system_id":"levelo_inurba_marseille","lat":43.28161,"lon":5.4264,"is_reserved":false,"is_disabled":false,"rental_uris":{"android":"levelo://app?vid=2cc0d97c-5ca8-4112-8c8f-b37680534657","ios":"levelo://app?vid=2cc0d97c-5ca8-4112-8c8f-b37680534657"},"vehicle_type_id":"4","last_reported":1773934912,"current_range_meters":3200,"station_id":"ce4bhnh2rcd13ifvqgug","pricing_plan_id":"cebpf4jnsgd1na2vs0mg"},{"bike_id":"3e0a224d-952d-41df-ae10-ef56f0ec486a","system_id":"levelo_inurba_marseille","lat":43.27174,"lon":5.40989,"is_reserved":false,"is_disabled":false,"rental_uris":{"android":"levelo://app?vid=3e0a224d-952d-41df-ae10-ef56f0ec486a","ios":"levelo://app?vid=3e0a224d-952d-41df-ae10-ef56f0ec486a"},"vehicle_type_id":"4","last_reported":1773934912,"current_range_meters":3200,"station_id":"ce4bhl12rcd13ifvqgf0","pricing_plan_id":"cebpf4jnsgd1na2vs0mg"},{"bike_id":"ed68427a-9e3a-4118-ab3e-e346a9427d57","system_id":"levelo_inurba_marseille","lat":43.29892,"lon":5.38135,"is_reserved":false,"is_disabled":false,"rental_uris":{"android":"levelo://app?vid=ed68427a-9e3a-4118-ab3e-e346a9427d57","ios":"levelo://app?vid=ed68427a-9e3a-4118-ab3e-e346a9427d57"},"vehicle_type_id":"4","last_reported":1773934912,"current_range_meters":3200,"station_id":"ce4bgj12rcd13ifvqbc0","pricing_plan_id":"cebpf4jnsgd1na2vs0mg"},{"bike_id":"e107cb22-a13d-4c03-93ce-8114e06b9a0f","system_id":"levelo_inurba_marseille","lat":43.2844,"lon":5.48377,"is_reserved":false,"is_disabled":false,"rental_uris":{"android":"levelo://app?vid=e107cb22-a13d-4c03-93ce-8114e06b9a0f","ios":"levelo://app?vid=e107cb22-a13d-4c03-93ce-8114e06b9a0f"},"vehicle_type_id":"4","last_reported":1773934912,"current_range_meters":3200,"station_id":"","pricing_plan_id":"cebpf4jnsgd1na2vs0mg"},{"bike_id":"779b8a3c-1846-46b5-9cab-bf0ec2b1118f","system_id":"levelo_inurba_marseille","lat":43.28483,"lon":5.48384,"is_reserved":false,"is_disabled":false,"rental_uris":{"android":"levelo://app?vid=779b8a3c-1846-46b5-9cab-bf0ec2b1118f","ios":"levelo://app?vid=779b8a3c-1846-46b5-9cab-bf0ec2b1118f"},"vehicle_type_id":"4","last_reported":1773934912,"current_range_meters":3200,"station_id":"st_d3svhcjqgbts73a3dn0g","pricing_plan_id":"cebpf4jnsgd1na2vs0mg"},{"bike_id":"b5e19bf2-dbc7-4806-bbc0-08a12463d957","system_id":"levelo_inurba_marseille","lat":43.26693,"lon":5.38281,"is_reserved":false,"is_disabled":false,"rental_uris":{"android":"levelo://app?vid=b5e19bf2-dbc7-4806-bbc0-08a12463d957","ios":"levelo://app?vid=b5e19bf2-dbc7-4806-bbc0-08a12463d957"},"vehicle_type_id":"4","last_reported":1773934912,"current_range_meters":3600,"station_id":"ce4bhg92rcd13ifvqf90","pricing_plan_id":"cebpf4jnsgd1na2vs0mg"},{"bike_id":"1835d134-aa60-491b-98ba-9ebfed3004cb","system_id":"levelo_inurba_marseille","lat":43.27993,"lon":5.40041,"is_reserved":false,"is_disabled":false,"rental_uris":{"android":"levelo://app?vid=1835d134-aa60-491b-98ba-9ebfed3004cb","ios":"levelo://app?vid=1835d134-aa60-491b-98ba-9ebfed3004cb"},"vehicle_type_id":"4","last_reported":1773934912,"current_range_meters":3600,"station_id":"ce4bho92rcd13ifvqh4g","pricing_plan_id":"cebpf4jnsgd1na2vs0mg"},{"bike_id":"5b88c9ac-db4b-4870-aace-5582181ae13e","system_id":"levelo_inurba_marseille","lat":43.29562,"lon":5.42284,"is_reserved":false,"is_disabled":false,"rental_uris":{"android":"levelo://app?vid=5b88c9ac-db4b-4870-aace-5582181ae13e","ios":"levelo://app?vid=5b88c9ac-db4b-4870-aace-5582181ae13e"},"vehicle_type_id":"4","last_reported":1773934912,"current_range_meters":3600,"station_id":"ce4bhph2rcd13ifvqhdg","pricing_plan_id":"cebpf4jnsgd1na2vs0mg"},{"bike_id":"04e1c40d-b9ac-4fcf-9c42-8cad8c09f374","system_id":"levelo_inurba_marseille","lat":43.24173,"lon":5.3972,"is_reserved":false,"is_disabled":false,"rental_uris":{"android":"levelo://app?vid=04e1c40d-b9ac-4fcf-9c42-8cad8c09f374","ios":"levelo://app?vid=04e1c40d-b9ac-4fcf-9c42-8cad8c09f374"},"vehicle_type_id":"4","last_reported":1773934912,"current_range_meters":3600,"station_id":"ce4bhn12rcd13ifvqgpg","pricing_plan_id":"cebpf4jnsgd1na2vs0mg"},{"bike_id":"164188c7-2a3a-4663-a07a-371632a35370","system_id":"levelo_inurba_marseille","lat":43.28864,"lon":5.35845,"is_reserved":false,"is_disabled":false,"rental_uris":{"android":"levelo://app?vid=164188c7-2a3a-4663-a07a-371632a35370","ios":"levelo://app?vid=164188c7-2a3a-4663-a07a-371632a35370"},"vehicle_type_id":"4","last_reported":1773934912,"current_range_meters":3600,"station_id":"ce4bhb12rcd13ifvqem0","pricing_plan_id":"cebpf4jnsgd1na2vs0mg"},{"bike_id":"b0564327-0faf-4b50-853e-3b79f41650c6","system_id":"levelo_inurba_marseille","lat":43.30928,"lon":5.40122,"is_reserved":false,"is_disabled":false,"rental_uris":{"android":"levelo://app?vid=b0564327-0faf-4b50-853e-3b79f41650c6","ios":"levelo://app?vid=b0564327-0faf-4b50-853e-3b79f41650c6"},"vehicle_type_id":"4","last_reported":1773934912,"current_range_meters":3600,"station_id":"ce4bgvp2rcd13ifvqct0","pricing_plan_id":"cebpf4jnsgd1na2vs0mg"},{"bike_id":"a9d31829-7e0d-482f-af05-97ddd320ae16","system_id":"levelo_inurba_marseille","lat":43.29762,"lon":5.42769,"is_reserved":false,"is_disabled":true,"rental_uris":{"android":"levelo://app?vid=a9d31829-7e0d-482f-af05-97ddd320ae16","ios":"levelo://app?vid=a9d31829-7e0d-482f-af05-97ddd320ae16"},"vehicle_type_id":"4","last_reported":1773934912,"current_range_meters":3600,"station_id":"st_d3md5207bmas73dh9klg","pricing_plan_id":"cebpf4jnsgd1na2vs0mg"},{"bike_id":"47eaa9aa-e6da-4c47-a46d-2bfe557a155a","system_id":"levelo_inurba_marseille","lat":43.279992,"lon":5.400112,"is_reserved":false,"is_disabled":false,"rental_uris":{"android":"levelo://app?vid=47eaa9aa-e6da-4c47-a46d-2bfe557a155a","ios":"levelo://app?vid=47eaa9aa-e6da-4c47-a46d-2bfe557a155a"},"vehicle_type_id":"4","last_reported":1773934912,"current_range_meters":3600,"station_id":"ce4bho92rcd13ifvqh4g","pricing_plan_id":"cebpf4jnsgd1na2vs0mg"},{"bike_id":"ece5a9cc-5609-417b-85d0-5f16acf19959","system_id":"levelo_inurba_marseille","lat":43.29532,"lon":5.39032,"is_reserved":false,"is_disabled":false,"rental_uris":{"android":"levelo://app?vid=ece5a9cc-5609-417b-85d0-5f16acf19959","ios":"levelo://app?vid=ece5a9cc-5609-417b-85d0-5f16acf19959"},"vehicle_type_id":"4","last_reported":1773934912,"current_range_meters":3600,"station_id":"ce4bh3p2rcd13ifvqdp0","pricing_plan_id":"cebpf4jnsgd1na2vs0mg"},{"bike_id":"d7235985-dd06-4b51-a029-ca5f8d3f267d","system_id":"levelo_inurba_marseille","lat":43.28664,"lon":5.38662,"is_reserved":false,"is_disabled":false,"rental_uris":{"android":"levelo://app?vid=d7235985-dd06-4b51-a029-ca5f8d3f267d","ios":"levelo://app?vid=d7235985-dd06-4b51-a029-ca5f8d3f267d"},"vehicle_type_id":"4","last_reported":1773934912,"current_range_meters":3600,"station_id":"ce4bh492rcd13ifvqdug","pricing_plan_id":"cebpf4jnsgd1na2vs0mg"},{"bike_id":"5bd8abc7-3678-4a26-92ef-cd8e416f7a05","system_id":"levelo_inurba_marseille","lat":43.30537,"lon":5.36711,"is_reserved":false,"is_disabled":false,"rental_uris":{"android":"levelo://app?vid=5bd8abc7-3678-4a26-92ef-cd8e416f7a05","ios":"levelo://app?vid=5bd8abc7-3678-4a26-92ef-cd8e416f7a05"},"vehicle_type_id":"4","last_reported":1773934912,"current_range_meters":3600,"station_id":"ce4bgrp2rcd13ifvqc9g","pricing_plan_id":"cebpf4jnsgd1na2vs0mg"},{"bike_id":"187b42b0-dcdd-41c7-bbff-4ef39a3817bf","system_id":"levelo_inurba_marseille","lat":43.30956,"lon":5.39035,"is_reserved":false,"is_disabled":false,"rental_uris":{"android":"levelo://app?vid=187b42b0-dcdd-41c7-bbff-4ef39a3817bf","ios":"levelo://app?vid=187b42b0-dcdd-41c7-bbff-4ef39a3817bf"},"vehicle_type_id":"4","last_reported":1773934912,"current_range_meters":3600,"station_id":"ce4bgup2rcd13ifvqco0","pricing_plan_id":"cebpf4jnsgd1na2vs0mg"},{"bike_id":"af021088-135b-42e1-97a1-be2000f7a8e2","system_id":"levelo_inurba_marseille","lat":43.28412,"lon":5.34982,"is_reserved":false,"is_disabled":false,"rental_uris":{"android":"levelo://app?vid=af021088-135b-42e1-97a1-be2000f7a8e2","ios":"levelo://app?vid=af021088-135b-42e1-97a1-be2000f7a8e2"},"vehicle_type_id":"4","last_reported":1773934912,"current_range_meters":3600,"station_id":"ce4bhbh2rcd13ifvqepg","pricing_plan_id":"cebpf4jnsgd1na2vs0mg"},{"bike_id":"084697b5-723d-43e0-be94-a0a2b5ad077d","system_id":"levelo_inurba_marseille","lat":43.30142,"lon":5.37415,"is_reserved":false,"is_disabled":false,"rental_uris":{"android":"levelo://app?vid=084697b5-723d-43e0-be94-a0a2b5ad077d","ios":"levelo://app?vid=084697b5-723d-43e0-be94-a0a2b5ad077d"},"vehicle_type_id":"4","last_reported":1773934912,"current_range_meters":3600,"station_id":"ce4bgs92rcd13ifvqcc0","pricing_plan_id":"cebpf4jnsgd1na2vs0mg"},{"bike_id":"488022cf-ae8c-4b5a-bfe4-ba5db4a587f4","system_id":"levelo_inurba_marseille","lat":43.31885,"lon":5.368,"is_reserved":false,"is_disabled":false,"rental_uris":{"android":"levelo://app?vid=488022cf-ae8c-4b5a-bfe4-ba5db4a587f4","ios":"levelo://app?vid=488022cf-ae8c-4b5a-bfe4-ba5db4a587f4"},"vehicle_type_id":"4","last_reported":1773934912,"current_range_meters":3600,"station_id":"ce4bguh2rcd13ifvqcj0","pricing_plan_id":"cebpf4jnsgd1na2vs0mg"},{"bike_id":"23e260a8-60de-4fac-953a-3990f03f83c3","system_id":"levelo_inurba_marseille","lat":43.29073,"lon":5.37159,"is_reserved":false,"is_disabled":false,"rental_uris":{"android":"levelo://app?vid=23e260a8-60de-4fac-953a-3990f03f83c3","ios":"levelo://app?vid=23e260a8-60de-4fac-953a-3990f03f83c3"},"vehicle_type_id":"4","last_reported":1773934912,"current_range_meters":4000,"station_id":"ce4bh5p2rcd13ifvqe4g","pricing_plan_id":"cebpf4jnsgd1na2vs0mg"},{"bike_id":"2cd6d2c4-9839-4b08-8d75-805c4c2214dc","system_id":"levelo_inurba_marseille","lat":43.23047,"lon":5.35497,"is_reserved":false,"is_disabled":false,"rental_uris":{"android":"levelo://app?vid=2cd6d2c4-9839-4b08-8d75-805c4c2214dc","ios":"levelo://app?vid=2cd6d2c4-9839-4b08-8d75-805c4c2214dc"},"vehicle_type_id":"4","last_reported":1773934912,"current_range_meters":4000,"station_id":"cpo3342slgdg3j2ifvpg","pricing_plan_id":"cebpf4jnsgd1na2vs0mg"},{"bike_id":"69e03e51-9d4e-4f00-b84a-02076a5b118c","system_id":"levelo_inurba_marseille","lat":43.26366,"lon":5.41082,"is_reserved":false,"is_disabled":false,"rental_uris":{"android":"levelo://app?vid=69e03e51-9d4e-4f00-b84a-02076a5b118c","ios":"levelo://app?vid=69e03e51-9d4e-4f00-b84a-02076a5b118c"},"vehicle_type_id":"4","last_reported":1773934912,"current_range_meters":4000,"station_id":"st_d4e5ca6na9uc73bfl5fg","pricing_plan_id":"cebpf4jnsgd1na2vs0mg"},{"bike_id":"d0b1f448-6af4-4ef1-a755-e03baf4488aa","system_id":"levelo_inurba_marseille","lat":43.29248,"lon":5.35754,"is_reserved":false,"is_disabled":false,"rental_uris":{"android":"levelo://app?vid=d0b1f448-6af4-4ef1-a755-e03baf4488aa","ios":"levelo://app?vid=d0b1f448-6af4-4ef1-a755-e03baf4488aa"},"vehicle_type_id":"4","last_reported":1773934912,"current_range_meters":4000,"station_id":"","pricing_plan_id":"cebpf4jnsgd1na2vs0mg"},{"bike_id":"9740939d-62f0-4d95-b1cc-dff352f60200","system_id":"levelo_inurba_marseille","lat":43.23145,"lon":5.437,"is_reserved":false,"is_disabled":false,"rental_uris":{"android":"levelo://app?vid=9740939d-62f0-4d95-b1cc-dff352f60200","ios":"levelo://app?vid=9740939d-62f0-4d95-b1cc-dff352f60200"},"vehicle_type_id":"4","last_reported":1773934912,"current_range_meters":4000,"station_id":"ce4bhmp2rcd13ifvqgog","pricing_plan_id":"cebpf4jnsgd1na2vs0mg"},{"bike_id":"2b9d3d39-1405-49f9-97c0-4318c8a64ea3","system_id":"levelo_inurba_marseille","lat":43.22932,"lon":5.35366,"is_reserved":false,"is_disabled":false,"rental_uris":{"android":"levelo://app?vid=2b9d3d39-1405-49f9-97c0-4318c8a64ea3","ios":"levelo://app?vid=2b9d3d39-1405-49f9-97c0-4318c8a64ea3"},"vehicle_type_id":"4","last_reported":1773934912,"current_range_meters":4000,"station_id":"cpo3532slgdg3j2ikp40","pricing_plan_id":"cebpf4jnsgd1na2vs0mg"},{"bike_id":"fad8e96d-acb2-4874-9608-7180f6b034b8","system_id":"levelo_inurba_marseille","lat":43.29146,"lon":5.40799,"is_reserved":false,"is_disabled":false,"rental_uris":{"android":"levelo://app?vid=fad8e96d-acb2-4874-9608-7180f6b034b8","ios":"levelo://app?vid=fad8e96d-acb2-4874-9608-7180f6b034b8"},"vehicle_type_id":"4","last_reported":1773934912,"current_range_meters":4000,"station_id":"","pricing_plan_id":"cebpf4jnsgd1na2vs0mg"},{"bike_id":"260c70b9-684a-47f3-8ca4-690dcab55c60","system_id":"levelo_inurba_marseille","lat":43.28676,"lon":5.36341,"is_reserved":false,"is_disabled":false,"rental_uris":{"android":"levelo://app?vid=260c70b9-684a-47f3-8ca4-690dcab55c60","ios":"levelo://app?vid=260c70b9-684a-47f3-8ca4-690dcab55c60"},"vehicle_type_id":"4","last_reported":1773934912,"current_range_meters":4000,"station_id":"ce4bhah2rcd13ifvqej0","pricing_plan_id":"cebpf4jnsgd1na2vs0mg"},{"bike_id":"4b28b5fd-67bd-4175-bbec-a72474122f59","system_id":"levelo_inurba_marseille","lat":43.23187,"lon":5.39948,"is_reserved":false,"is_disabled":false,"rental_uris":{"android":"levelo://app?vid=4b28b5fd-67bd-4175-bbec-a72474122f59","ios":"levelo://app?vid=4b28b5fd-67bd-4175-bbec-a72474122f59"},"vehicle_type_id":"4","last_reported":1773934912,"current_range_meters":4000,"station_id":"ce4bhn12rcd13ifvqgqg","pricing_plan_id":"cebpf4jnsgd1na2vs0mg"},{"bike_id":"e193a20b-450a-4386-b80c-7f4426970f73","system_id":"levelo_inurba_marseille","lat":43.29601,"lon":5.36736,"is_reserved":false,"is_disabled":false,"rental_uris":{"android":"levelo://app?vid=e193a20b-450a-4386-b80c-7f4426970f73","ios":"levelo://app?vid=e193a20b-450a-4386-b80c-7f4426970f73"},"vehicle_type_id":"4","last_reported":1773934912,"current_range_meters":4000,"station_id":"ce4bgph2rcd13ifvqc2g","pricing_plan_id":"cebpf4jnsgd1na2vs0mg"},{"bike_id":"3903529a-97cf-43f8-9c3a-f35f9c9bbdf2","system_id":"levelo_inurba_marseille","lat":43.3136,"lon":5.36665,"is_reserved":false,"is_disabled":true,"rental_uris":{"android":"levelo://app?vid=3903529a-97cf-43f8-9c3a-f35f9c9bbdf2","ios":"levelo://app?vid=3903529a-97cf-43f8-9c3a-f35f9c9bbdf2"},"vehicle_type_id":"4","last_reported":1773934912,"current_range_meters":4400,"station_id":"ce4bgr92rcd13ifvqc6g","pricing_plan_id":"cebpf4jnsgd1na2vs0mg"},{"bike_id":"c8b2b9ac-4b94-4fca-a842-cf1ae4ece3ee","system_id":"levelo_inurba_marseille","lat":43.27377,"lon":5.3625,"is_reserved":false,"is_disabled":false,"rental_uris":{"android":"levelo://app?vid=c8b2b9ac-4b94-4fca-a842-cf1ae4ece3ee","ios":"levelo://app?vid=c8b2b9ac-4b94-4fca-a842-cf1ae4ece3ee"},"vehicle_type_id":"4","last_reported":1773934912,"current_range_meters":4400,"station_id":"ce4bhbh2rcd13ifvqeo0","pricing_plan_id":"cebpf4jnsgd1na2vs0mg"},{"bike_id":"29ca079b-50a3-46cc-b23f-205697515a10","system_id":"levelo_inurba_marseille","lat":43.25591,"lon":5.38231,"is_reserved":false,"is_disabled":false,"rental_uris":{"android":"levelo://app?vid=29ca079b-50a3-46cc-b23f-205697515a10","ios":"levelo://app?vid=29ca079b-50a3-46cc-b23f-205697515a10"},"vehicle_type_id":"4","last_reported":1773934912,"current_range_meters":4400,"station_id":"ce4bhih2rcd13ifvqfs0","pricing_plan_id":"cebpf4jnsgd1na2vs0mg"},{"bike_id":"447b11a1-21b5-4523-80dc-ebe593853403","system_id":"levelo_inurba_marseille","lat":43.29132,"lon":5.42614,"is_reserved":false,"is_disabled":false,"rental_uris":{"android":"levelo://app?vid=447b11a1-21b5-4523-80dc-ebe593853403","ios":"levelo://app?vid=447b11a1-21b5-4523-80dc-ebe593853403"},"vehicle_type_id":"4","last_reported":1773934912,"current_range_meters":4400,"station_id":"","pricing_plan_id":"cebpf4jnsgd1na2vs0mg"},{"bike_id":"d0421e68-4248-4b71-8378-80bd0098252d","system_id":"levelo_inurba_marseille","lat":43.24804,"lon":5.37458,"is_reserved":false,"is_disabled":false,"rental_uris":{"android":"levelo://app?vid=d0421e68-4248-4b71-8378-80bd0098252d","ios":"levelo://app?vid=d0421e68-4248-4b71-8378-80bd0098252d"},"vehicle_type_id":"4","last_reported":1773934912,"current_range_meters":4400,"station_id":"ce4bhgh2rcd13ifvqfb0","pricing_plan_id":"cebpf4jnsgd1na2vs0mg"},{"bike_id":"275b740e-bf1f-4dab-849a-e71cb710aa2d","system_id":"levelo_inurba_marseille","lat":43.24655,"lon":5.38162,"is_reserved":false,"is_disabled":false,"rental_uris":{"android":"levelo://app?vid=275b740e-bf1f-4dab-849a-e71cb710aa2d","ios":"levelo://app?vid=275b740e-bf1f-4dab-849a-e71cb710aa2d"},"vehicle_type_id":"4","last_reported":1773934912,"current_range_meters":4400,"station_id":"ce4bhih2rcd13ifvqfr0","pricing_plan_id":"cebpf4jnsgd1na2vs0mg"},{"bike_id":"b3ea6600-17f6-4ba4-b60a-f85d273689e7","system_id":"levelo_inurba_marseille","lat":43.30149,"lon":5.38079,"is_reserved":false,"is_disabled":false,"rental_uris":{"android":"levelo://app?vid=b3ea6600-17f6-4ba4-b60a-f85d273689e7","ios":"levelo://app?vid=b3ea6600-17f6-4ba4-b60a-f85d273689e7"},"vehicle_type_id":"4","last_reported":1773934912,"current_range_meters":4800,"station_id":"ce4bgjp2rcd13ifvqbh0","pricing_plan_id":"cebpf4jnsgd1na2vs0mg"},{"bike_id":"89390251-13d6-48a3-9f5a-85c6e8954d53","system_id":"levelo_inurba_marseille","lat":43.26213,"lon":5.37444,"is_reserved":false,"is_disabled":false,"rental_uris":{"android":"levelo://app?vid=89390251-13d6-48a3-9f5a-85c6e8954d53","ios":"levelo://app?vid=89390251-13d6-48a3-9f5a-85c6e8954d53"},"vehicle_type_id":"4","last_reported":1773934912,"current_range_meters":4800,"station_id":"ce4bhgp2rcd13ifvqfc0","pricing_plan_id":"cebpf4jnsgd1na2vs0mg"},{"bike_id":"1fdbd032-af28-4158-a02e-01bb107fd2a7","system_id":"levelo_inurba_marseille","lat":43.337444,"lon":5.374475,"is_reserved":false,"is_disabled":false,"rental_uris":{"android":"levelo://app?vid=1fdbd032-af28-4158-a02e-01bb107fd2a7","ios":"levelo://app?vid=1fdbd032-af28-4158-a02e-01bb107fd2a7"},"vehicle_type_id":"4","last_reported":1773934912,"current_range_meters":4800,"station_id":"","pricing_plan_id":"cebpf4jnsgd1na2vs0mg"},{"bike_id":"1c51670a-46e5-4a0c-9d9c-3c2806d077a8","system_id":"levelo_inurba_marseille","lat":43.2903,"lon":5.38121,"is_reserved":false,"is_disabled":true,"rental_uris":{"android":"levelo://app?vid=1c51670a-46e5-4a0c-9d9c-3c2806d077a8","ios":"levelo://app?vid=1c51670a-46e5-4a0c-9d9c-3c2806d077a8"},"vehicle_type_id":"4","last_reported":1773934912,"current_range_meters":4800,"station_id":"ce4bh4p2rcd13ifvqe1g","pricing_plan_id":"cebpf4jnsgd1na2vs0mg"},{"bike_id":"1daac07b-574e-4f85-bef3-58d0379da425","system_id":"levelo_inurba_marseille","lat":43.25512,"lon":5.3766,"is_reserved":false,"is_disabled":false,"rental_uris":{"android":"levelo://app?vid=1daac07b-574e-4f85-bef3-58d0379da425","ios":"levelo://app?vid=1daac07b-574e-4f85-bef3-58d0379da425"},"vehicle_type_id":"4","last_reported":1773934912,"current_range_meters":4800,"station_id":"ce4bhh12rcd13ifvqff0","pricing_plan_id":"cebpf4jnsgd1na2vs0mg"},{"bike_id":"13ad50bf-7f2f-4ad1-a82f-209db682ff58","system_id":"levelo_inurba_marseille","lat":43.26561,"lon":5.38967,"is_reserved":false,"is_disabled":true,"rental_uris":{"android":"levelo://app?vid=13ad50bf-7f2f-4ad1-a82f-209db682ff58","ios":"levelo://app?vid=13ad50bf-7f2f-4ad1-a82f-209db682ff58"},"vehicle_type_id":"4","last_reported":1773934912,"current_range_meters":4800,"station_id":"ce4bhe12rcd13ifvqf30","pricing_plan_id":"cebpf4jnsgd1na2vs0mg"},{"bike_id":"95d31319-d36d-403e-adf6-0b51cdaa5b1b","system_id":"levelo_inurba_marseille","lat":43.31424,"lon":5.39268,"is_reserved":false,"is_disabled":true,"rental_uris":{"android":"levelo://app?vid=95d31319-d36d-403e-adf6-0b51cdaa5b1b","ios":"levelo://app?vid=95d31319-d36d-403e-adf6-0b51cdaa5b1b"},"vehicle_type_id":"4","last_reported":1773934912,"current_range_meters":4800,"station_id":"","pricing_plan_id":"cebpf4jnsgd1na2vs0mg"},{"bike_id":"506661fa-d7d4-473c-8038-c16d45410fe8","system_id":"levelo_inurba_marseille","lat":43.28869,"lon":5.42515,"is_reserved":false,"is_disabled":false,"rental_uris":{"android":"levelo://app?vid=506661fa-d7d4-473c-8038-c16d45410fe8","ios":"levelo://app?vid=506661fa-d7d4-473c-8038-c16d45410fe8"},"vehicle_type_id":"4","last_reported":1773934912,"current_range_meters":4800,"station_id":"","pricing_plan_id":"cebpf4jnsgd1na2vs0mg"},{"bike_id":"e75bc122-a716-44f2-9919-2ba6686e9c22","system_id":"levelo_inurba_marseille","lat":43.29027,"lon":5.38634,"is_reserved":false,"is_disabled":false,"rental_uris":{"android":"levelo://app?vid=e75bc122-a716-44f2-9919-2ba6686e9c22","ios":"levelo://app?vid=e75bc122-a716-44f2-9919-2ba6686e9c22"},"vehicle_type_id":"4","last_reported":1773934912,"current_range_meters":4800,"station_id":"ce4bh4p2rcd13ifvqe0g","pricing_plan_id":"cebpf4jnsgd1na2vs0mg"},{"bike_id":"dd8390c9-eed9-4b5d-95df-1b40250bc11f","system_id":"levelo_inurba_marseille","lat":43.21604,"lon":5.34533,"is_reserved":false,"is_disabled":false,"rental_uris":{"android":"levelo://app?vid=dd8390c9-eed9-4b5d-95df-1b40250bc11f","ios":"levelo://app?vid=dd8390c9-eed9-4b5d-95df-1b40250bc11f"},"vehicle_type_id":"4","last_reported":1773934912,"current_range_meters":4800,"station_id":"","pricing_plan_id":"cebpf4jnsgd1na2vs0mg"},{"bike_id":"23346e5b-a525-4657-8404-be684b9e2520","system_id":"levelo_inurba_marseille","lat":43.29278,"lon":5.36848,"is_reserved":false,"is_disabled":false,"rental_uris":{"android":"levelo://app?vid=23346e5b-a525-4657-8404-be684b9e2520","ios":"levelo://app?vid=23346e5b-a525-4657-8404-be684b9e2520"},"vehicle_type_id":"4","last_reported":1773934912,"current_range_meters":4800,"station_id":"ce4bhbp2rcd13ifvqesg","pricing_plan_id":"cebpf4jnsgd1na2vs0mg"},{"bike_id":"18bc77a3-7087-4685-9803-eb347ac67f79","system_id":"levelo_inurba_marseille","lat":43.26031,"lon":5.37545,"is_reserved":false,"is_disabled":false,"rental_uris":{"android":"levelo://app?vid=18bc77a3-7087-4685-9803-eb347ac67f79","ios":"levelo://app?vid=18bc77a3-7087-4685-9803-eb347ac67f79"},"vehicle_type_id":"4","last_reported":1773934912,"current_range_meters":5600,"station_id":"ce4bhgh2rcd13ifvqfa0","pricing_plan_id":"cebpf4jnsgd1na2vs0mg"},{"bike_id":"44c8df88-de51-49b2-8ab0-a9e34286f417","system_id":"levelo_inurba_marseille","lat":43.30943,"lon":5.37258,"is_reserved":false,"is_disabled":false,"rental_uris":{"android":"levelo://app?vid=44c8df88-de51-49b2-8ab0-a9e34286f417","ios":"levelo://app?vid=44c8df88-de51-49b2-8ab0-a9e34286f417"},"vehicle_type_id":"4","last_reported":1773934912,"current_range_meters":5600,"station_id":"","pricing_plan_id":"cebpf4jnsgd1na2vs0mg"},{"bike_id":"1aff8517-7e68-4410-bc2a-243fc03b5f61","system_id":"levelo_inurba_marseille","lat":43.30959,"lon":5.39043,"is_reserved":false,"is_disabled":false,"rental_uris":{"android":"levelo://app?vid=1aff8517-7e68-4410-bc2a-243fc03b5f61","ios":"levelo://app?vid=1aff8517-7e68-4410-bc2a-243fc03b5f61"},"vehicle_type_id":"4","last_reported":1773934912,"current_range_meters":5600,"station_id":"ce4bgup2rcd13ifvqco0","pricing_plan_id":"cebpf4jnsgd1na2vs0mg"},{"bike_id":"0ee4ce16-829f-49ee-9a2a-4b4670dfbc6f","system_id":"levelo_inurba_marseille","lat":43.28479,"lon":5.48367,"is_reserved":false,"is_disabled":false,"rental_uris":{"android":"levelo://app?vid=0ee4ce16-829f-49ee-9a2a-4b4670dfbc6f","ios":"levelo://app?vid=0ee4ce16-829f-49ee-9a2a-4b4670dfbc6f"},"vehicle_type_id":"4","last_reported":1773934912,"current_range_meters":5600,"station_id":"st_d3svhcjqgbts73a3dn0g","pricing_plan_id":"cebpf4jnsgd1na2vs0mg"},{"bike_id":"caf5e45c-f3f2-43eb-99a6-b11ec33451e8","system_id":"levelo_inurba_marseille","lat":43.23969,"lon":5.36622,"is_reserved":false,"is_disabled":false,"rental_uris":{"android":"levelo://app?vid=caf5e45c-f3f2-43eb-99a6-b11ec33451e8","ios":"levelo://app?vid=caf5e45c-f3f2-43eb-99a6-b11ec33451e8"},"vehicle_type_id":"4","last_reported":1773934912,"current_range_meters":5600,"station_id":"ce4bhi12rcd13ifvqfp0","pricing_plan_id":"cebpf4jnsgd1na2vs0mg"},{"bike_id":"ca6410eb-b041-4835-9921-8848163a6e15","system_id":"levelo_inurba_marseille","lat":43.29638,"lon":5.4059,"is_reserved":false,"is_disabled":false,"rental_uris":{"android":"levelo://app?vid=ca6410eb-b041-4835-9921-8848163a6e15","ios":"levelo://app?vid=ca6410eb-b041-4835-9921-8848163a6e15"},"vehicle_type_id":"4","last_reported":1773934912,"current_range_meters":5600,"station_id":"ce4bh0h2rcd13ifvqd60","pricing_plan_id":"cebpf4jnsgd1na2vs0mg"},{"bike_id":"112d3088-1d65-494c-a03d-8fdc39cb7fe5","system_id":"levelo_inurba_marseille","lat":43.270723,"lon":5.422824,"is_reserved":false,"is_disabled":false,"rental_uris":{"android":"levelo://app?vid=112d3088-1d65-494c-a03d-8fdc39cb7fe5","ios":"levelo://app?vid=112d3088-1d65-494c-a03d-8fdc39cb7fe5"},"vehicle_type_id":"4","last_reported":1773934912,"current_range_meters":5600,"station_id":"ce4bhk92rcd13ifvqgb0","pricing_plan_id":"cebpf4jnsgd1na2vs0mg"},{"bike_id":"7016667c-0c68-4a9c-9b1c-7e7598e781b3","system_id":"levelo_inurba_marseille","lat":43.30544,"lon":5.36552,"is_reserved":false,"is_disabled":false,"rental_uris":{"android":"levelo://app?vid=7016667c-0c68-4a9c-9b1c-7e7598e781b3","ios":"levelo://app?vid=7016667c-0c68-4a9c-9b1c-7e7598e781b3"},"vehicle_type_id":"4","last_reported":1773934912,"current_range_meters":5600,"station_id":"ce4bgs12rcd13ifvqcag","pricing_plan_id":"cebpf4jnsgd1na2vs0mg"},{"bike_id":"3e44349d-4d67-428b-a1d0-2afa1bfae6c4","system_id":"levelo_inurba_marseille","lat":43.29312,"lon":5.37154,"is_reserved":false,"is_disabled":false,"rental_uris":{"android":"levelo://app?vid=3e44349d-4d67-428b-a1d0-2afa1bfae6c4","ios":"levelo://app?vid=3e44349d-4d67-428b-a1d0-2afa1bfae6c4"},"vehicle_type_id":"4","last_reported":1773934912,"current_range_meters":6000,"station_id":"ce4bgh92rcd13ifvqb40","pricing_plan_id":"cebpf4jnsgd1na2vs0mg"},{"bike_id":"0ce6e1a6-f72a-4d22-bd53-d5f27a7c0843","system_id":"levelo_inurba_marseille","lat":43.31171,"lon":5.3872,"is_reserved":false,"is_disabled":false,"rental_uris":{"android":"levelo://app?vid=0ce6e1a6-f72a-4d22-bd53-d5f27a7c0843","ios":"levelo://app?vid=0ce6e1a6-f72a-4d22-bd53-d5f27a7c0843"},"vehicle_type_id":"4","last_reported":1773934912,"current_range_meters":6000,"station_id":"ce4bgv12rcd13ifvqcp0","pricing_plan_id":"cebpf4jnsgd1na2vs0mg"},{"bike_id":"69eb8448-c0e0-496f-831c-8ada77fd31e2","system_id":"levelo_inurba_marseille","lat":43.2306,"lon":5.35487,"is_reserved":false,"is_disabled":false,"rental_uris":{"android":"levelo://app?vid=69eb8448-c0e0-496f-831c-8ada77fd31e2","ios":"levelo://app?vid=69eb8448-c0e0-496f-831c-8ada77fd31e2"},"vehicle_type_id":"4","last_reported":1773934912,"current_range_meters":6000,"station_id":"cpo3342slgdg3j2ifvpg","pricing_plan_id":"cebpf4jnsgd1na2vs0mg"},{"bike_id":"719e9861-af82-4022-a2ea-bd7d6f00ff5f","system_id":"levelo_inurba_marseille","lat":43.28732,"lon":5.42522,"is_reserved":false,"is_disabled":true,"rental_uris":{"android":"levelo://app?vid=719e9861-af82-4022-a2ea-bd7d6f00ff5f","ios":"levelo://app?vid=719e9861-af82-4022-a2ea-bd7d6f00ff5f"},"vehicle_type_id":"4","last_reported":1773934912,"current_range_meters":6000,"station_id":"","pricing_plan_id":"cebpf4jnsgd1na2vs0mg"},{"bike_id":"4e3195b9-dd9e-464c-a049-e82a7bc62b10","system_id":"levelo_inurba_marseille","lat":43.299,"lon":5.39756,"is_reserved":false,"is_disabled":false,"rental_uris":{"android":"levelo://app?vid=4e3195b9-dd9e-464c-a049-e82a7bc62b10","ios":"levelo://app?vid=4e3195b9-dd9e-464c-a049-e82a7bc62b10"},"vehicle_type_id":"4","last_reported":1773934912,"current_range_meters":6000,"station_id":"ce4bh0h2rcd13ifvqd50","pricing_plan_id":"cebpf4jnsgd1na2vs0mg"},{"bike_id":"5744fd61-ac40-4c35-b2bd-eeba4f608a2a","system_id":"levelo_inurba_marseille","lat":43.26789,"lon":5.39412,"is_reserved":false,"is_disabled":false,"rental_uris":{"android":"levelo://app?vid=5744fd61-ac40-4c35-b2bd-eeba4f608a2a","ios":"levelo://app?vid=5744fd61-ac40-4c35-b2bd-eeba4f608a2a"},"vehicle_type_id":"4","last_reported":1773934912,"current_range_meters":6000,"station_id":"ce4bhh12rcd13ifvqfg0","pricing_plan_id":"cebpf4jnsgd1na2vs0mg"},{"bike_id":"b61547ba-f43f-46e1-8e6c-3001dc7b76f9","system_id":"levelo_inurba_marseille","lat":43.30212,"lon":5.39461,"is_reserved":false,"is_disabled":false,"rental_uris":{"android":"levelo://app?vid=b61547ba-f43f-46e1-8e6c-3001dc7b76f9","ios":"levelo://app?vid=b61547ba-f43f-46e1-8e6c-3001dc7b76f9"},"vehicle_type_id":"4","last_reported":1773934912,"current_range_meters":6000,"station_id":"ce4bh0p2rcd13ifvqd70","pricing_plan_id":"cebpf4jnsgd1na2vs0mg"},{"bike_id":"760c7369-844d-4593-9e5b-6d60f678217f","system_id":"levelo_inurba_marseille","lat":43.24662,"lon":5.38898,"is_reserved":false,"is_disabled":false,"rental_uris":{"android":"levelo://app?vid=760c7369-844d-4593-9e5b-6d60f678217f","ios":"levelo://app?vid=760c7369-844d-4593-9e5b-6d60f678217f"},"vehicle_type_id":"4","last_reported":1773934912,"current_range_meters":6000,"station_id":"ce4bhg12rcd13ifvqf60","pricing_plan_id":"cebpf4jnsgd1na2vs0mg"},{"bike_id":"b2efcf36-2341-4a83-81cc-1d7e8e70135d","system_id":"levelo_inurba_marseille","lat":43.28854,"lon":5.35844,"is_reserved":false,"is_disabled":false,"rental_uris":{"android":"levelo://app?vid=b2efcf36-2341-4a83-81cc-1d7e8e70135d","ios":"levelo://app?vid=b2efcf36-2341-4a83-81cc-1d7e8e70135d"},"vehicle_type_id":"4","last_reported":1773934912,"current_range_meters":6000,"station_id":"ce4bhb12rcd13ifvqem0","pricing_plan_id":"cebpf4jnsgd1na2vs0mg"},{"bike_id":"518eb38a-9e2a-40b8-82e9-b2fc24dcaf57","system_id":"levelo_inurba_marseille","lat":43.28347,"lon":5.38103,"is_reserved":false,"is_disabled":false,"rental_uris":{"android":"levelo://app?vid=518eb38a-9e2a-40b8-82e9-b2fc24dcaf57","ios":"levelo://app?vid=518eb38a-9e2a-40b8-82e9-b2fc24dcaf57"},"vehicle_type_id":"4","last_reported":1773934912,"current_range_meters":6000,"station_id":"ce4bh412rcd13ifvqdr0","pricing_plan_id":"cebpf4jnsgd1na2vs0mg"},{"bike_id":"6f0da953-2adc-429d-bb7c-360d8a3447c9","system_id":"levelo_inurba_marseille","lat":43.27511,"lon":5.41611,"is_reserved":false,"is_disabled":false,"rental_uris":{"android":"levelo://app?vid=6f0da953-2adc-429d-bb7c-360d8a3447c9","ios":"levelo://app?vid=6f0da953-2adc-429d-bb7c-360d8a3447c9"},"vehicle_type_id":"4","last_reported":1773934912,"current_range_meters":6000,"station_id":"st_d6im8g6chgec73a5pndg","pricing_plan_id":"cebpf4jnsgd1na2vs0mg"},{"bike_id":"23443768-037c-445d-af93-6a24c16a8081","system_id":"levelo_inurba_marseille","lat":43.29,"lon":5.35607,"is_reserved":false,"is_disabled":false,"rental_uris":{"android":"levelo://app?vid=23443768-037c-445d-af93-6a24c16a8081","ios":"levelo://app?vid=23443768-037c-445d-af93-6a24c16a8081"},"vehicle_type_id":"4","last_reported":1773934912,"current_range_meters":6000,"station_id":"ce4bhb92rcd13ifvqen0","pricing_plan_id":"cebpf4jnsgd1na2vs0mg"},{"bike_id":"6cda15e7-fe2d-4eca-9a9a-008e31fbee7c","system_id":"levelo_inurba_marseille","lat":43.24665,"lon":5.38169,"is_reserved":false,"is_disabled":true,"rental_uris":{"android":"levelo://app?vid=6cda15e7-fe2d-4eca-9a9a-008e31fbee7c","ios":"levelo://app?vid=6cda15e7-fe2d-4eca-9a9a-008e31fbee7c"},"vehicle_type_id":"4","last_reported":1773934912,"current_range_meters":6000,"station_id":"ce4bhih2rcd13ifvqfr0","pricing_plan_id":"cebpf4jnsgd1na2vs0mg"},{"bike_id":"73e44213-1cd8-4593-a09e-a9c4a914a5d2","system_id":"levelo_inurba_marseille","lat":43.28476,"lon":5.48395,"is_reserved":false,"is_disabled":false,"rental_uris":{"android":"levelo://app?vid=73e44213-1cd8-4593-a09e-a9c4a914a5d2","ios":"levelo://app?vid=73e44213-1cd8-4593-a09e-a9c4a914a5d2"},"vehicle_type_id":"4","last_reported":1773934912,"current_range_meters":6000,"station_id":"","pricing_plan_id":"cebpf4jnsgd1na2vs0mg"},{"bike_id":"78c86868-a79f-4f2a-bb9a-961b0f22d36b","system_id":"levelo_inurba_marseille","lat":43.29982,"lon":5.38651,"is_reserved":false,"is_disabled":false,"rental_uris":{"android":"levelo://app?vid=78c86868-a79f-4f2a-bb9a-961b0f22d36b","ios":"levelo://app?vid=78c86868-a79f-4f2a-bb9a-961b0f22d36b"},"vehicle_type_id":"4","last_reported":1773934912,"current_range_meters":6000,"station_id":"","pricing_plan_id":"cebpf4jnsgd1na2vs0mg"},{"bike_id":"392edfdb-1b3d-46a3-a8c5-aeef102b6c26","system_id":"levelo_inurba_marseille","lat":43.29311,"lon":5.37172,"is_reserved":false,"is_disabled":false,"rental_uris":{"android":"levelo://app?vid=392edfdb-1b3d-46a3-a8c5-aeef102b6c26","ios":"levelo://app?vid=392edfdb-1b3d-46a3-a8c5-aeef102b6c26"},"vehicle_type_id":"4","last_reported":1773934912,"current_range_meters":6000,"station_id":"ce4bgh92rcd13ifvqb40","pricing_plan_id":"cebpf4jnsgd1na2vs0mg"},{"bike_id":"0c506fac-9822-4d55-93b9-ec283cf22639","system_id":"levelo_inurba_marseille","lat":43.2686,"lon":5.40468,"is_reserved":false,"is_disabled":false,"rental_uris":{"android":"levelo://app?vid=0c506fac-9822-4d55-93b9-ec283cf22639","ios":"levelo://app?vid=0c506fac-9822-4d55-93b9-ec283cf22639"},"vehicle_type_id":"4","last_reported":1773934912,"current_range_meters":6000,"station_id":"","pricing_plan_id":"cebpf4jnsgd1na2vs0mg"},{"bike_id":"2f0354fc-31aa-4398-9c3e-f0f50b7b2184","system_id":"levelo_inurba_marseille","lat":43.24143,"lon":5.39716,"is_reserved":false,"is_disabled":false,"rental_uris":{"android":"levelo://app?vid=2f0354fc-31aa-4398-9c3e-f0f50b7b2184","ios":"levelo://app?vid=2f0354fc-31aa-4398-9c3e-f0f50b7b2184"},"vehicle_type_id":"4","last_reported":1773934912,"current_range_meters":6400,"station_id":"ce4bhn12rcd13ifvqgpg","pricing_plan_id":"cebpf4jnsgd1na2vs0mg"},{"bike_id":"ec31915f-2074-4a61-b772-4650116bec9a","system_id":"levelo_inurba_marseille","lat":43.270599,"lon":5.402521,"is_reserved":false,"is_disabled":false,"rental_uris":{"android":"levelo://app?vid=ec31915f-2074-4a61-b772-4650116bec9a","ios":"levelo://app?vid=ec31915f-2074-4a61-b772-4650116bec9a"},"vehicle_type_id":"4","last_reported":1773934912,"current_range_meters":6400,"station_id":"ce4bhk92rcd13ifvqgc0","pricing_plan_id":"cebpf4jnsgd1na2vs0mg"},{"bike_id":"8c29270d-5d11-446e-a3f0-f5c56ae9c816","system_id":"levelo_inurba_marseille","lat":43.27563,"lon":5.43277,"is_reserved":false,"is_disabled":false,"rental_uris":{"android":"levelo://app?vid=8c29270d-5d11-446e-a3f0-f5c56ae9c816","ios":"levelo://app?vid=8c29270d-5d11-446e-a3f0-f5c56ae9c816"},"vehicle_type_id":"4","last_reported":1773934912,"current_range_meters":6400,"station_id":"","pricing_plan_id":"cebpf4jnsgd1na2vs0mg"},{"bike_id":"464664a2-434c-4f0d-b549-56419f56f9eb","system_id":"levelo_inurba_marseille","lat":43.24398,"lon":5.37065,"is_reserved":false,"is_disabled":false,"rental_uris":{"android":"levelo://app?vid=464664a2-434c-4f0d-b549-56419f56f9eb","ios":"levelo://app?vid=464664a2-434c-4f0d-b549-56419f56f9eb"},"vehicle_type_id":"4","last_reported":1773934912,"current_range_meters":6400,"station_id":"ce4bhhh2rcd13ifvqfk0","pricing_plan_id":"cebpf4jnsgd1na2vs0mg"},{"bike_id":"0f754aaf-2330-48f7-aedf-9920336c2fb9","system_id":"levelo_inurba_marseille","lat":43.28935,"lon":5.36386,"is_reserved":false,"is_disabled":false,"rental_uris":{"android":"levelo://app?vid=0f754aaf-2330-48f7-aedf-9920336c2fb9","ios":"levelo://app?vid=0f754aaf-2330-48f7-aedf-9920336c2fb9"},"vehicle_type_id":"4","last_reported":1773934912,"current_range_meters":6400,"station_id":"ce4bhc92rcd13ifvqetg","pricing_plan_id":"cebpf4jnsgd1na2vs0mg"},{"bike_id":"28025302-46d2-4169-9ce9-8e064c7a81fd","system_id":"levelo_inurba_marseille","lat":43.26413,"lon":5.41091,"is_reserved":false,"is_disabled":true,"rental_uris":{"android":"levelo://app?vid=28025302-46d2-4169-9ce9-8e064c7a81fd","ios":"levelo://app?vid=28025302-46d2-4169-9ce9-8e064c7a81fd"},"vehicle_type_id":"4","last_reported":1773934912,"current_range_meters":6400,"station_id":"","pricing_plan_id":"cebpf4jnsgd1na2vs0mg"},{"bike_id":"63eeb8cd-fd05-43b5-baed-0b25fc7f7510","system_id":"levelo_inurba_marseille","lat":43.23152,"lon":5.43711,"is_reserved":false,"is_disabled":false,"rental_uris":{"android":"levelo://app?vid=63eeb8cd-fd05-43b5-baed-0b25fc7f7510","ios":"levelo://app?vid=63eeb8cd-fd05-43b5-baed-0b25fc7f7510"},"vehicle_type_id":"4","last_reported":1773934912,"current_range_meters":6400,"station_id":"ce4bhmp2rcd13ifvqgog","pricing_plan_id":"cebpf4jnsgd1na2vs0mg"},{"bike_id":"f20f29b1-2f65-40df-8735-c90ce89758de","system_id":"levelo_inurba_marseille","lat":43.24805,"lon":5.37449,"is_reserved":false,"is_disabled":false,"rental_uris":{"android":"levelo://app?vid=f20f29b1-2f65-40df-8735-c90ce89758de","ios":"levelo://app?vid=f20f29b1-2f65-40df-8735-c90ce89758de"},"vehicle_type_id":"4","last_reported":1773934912,"current_range_meters":6400,"station_id":"ce4bhgh2rcd13ifvqfb0","pricing_plan_id":"cebpf4jnsgd1na2vs0mg"},{"bike_id":"61abe7b6-a1d5-4fb1-8e97-6efff73823a7","system_id":"levelo_inurba_marseille","lat":43.23773,"lon":5.36646,"is_reserved":false,"is_disabled":true,"rental_uris":{"android":"levelo://app?vid=61abe7b6-a1d5-4fb1-8e97-6efff73823a7","ios":"levelo://app?vid=61abe7b6-a1d5-4fb1-8e97-6efff73823a7"},"vehicle_type_id":"4","last_reported":1773934912,"current_range_meters":6800,"station_id":"st_d3nk18o9ro0c73en2l3g","pricing_plan_id":"cebpf4jnsgd1na2vs0mg"},{"bike_id":"f8002e32-7d40-48f8-99b3-a631b985eba5","system_id":"levelo_inurba_marseille","lat":43.337566,"lon":5.374557,"is_reserved":false,"is_disabled":false,"rental_uris":{"android":"levelo://app?vid=f8002e32-7d40-48f8-99b3-a631b985eba5","ios":"levelo://app?vid=f8002e32-7d40-48f8-99b3-a631b985eba5"},"vehicle_type_id":"4","last_reported":1773934912,"current_range_meters":6800,"station_id":"","pricing_plan_id":"cebpf4jnsgd1na2vs0mg"},{"bike_id":"24dc1ce5-2db6-421b-869a-69d6f082b300","system_id":"levelo_inurba_marseille","lat":43.29789,"lon":5.36242,"is_reserved":false,"is_disabled":false,"rental_uris":{"android":"levelo://app?vid=24dc1ce5-2db6-421b-869a-69d6f082b300","ios":"levelo://app?vid=24dc1ce5-2db6-421b-869a-69d6f082b300"},"vehicle_type_id":"4","last_reported":1773934912,"current_range_meters":6800,"station_id":"","pricing_plan_id":"cebpf4jnsgd1na2vs0mg"},{"bike_id":"f7e79517-161a-451a-8a95-bb710b1b4d21","system_id":"levelo_inurba_marseille","lat":43.29855,"lon":5.3789,"is_reserved":false,"is_disabled":false,"rental_uris":{"android":"levelo://app?vid=f7e79517-161a-451a-8a95-bb710b1b4d21","ios":"levelo://app?vid=f7e79517-161a-451a-8a95-bb710b1b4d21"},"vehicle_type_id":"4","last_reported":1773934912,"current_range_meters":6800,"station_id":"","pricing_plan_id":"cebpf4jnsgd1na2vs0mg"},{"bike_id":"bf6cc994-425c-483a-a108-287a7febd3e5","system_id":"levelo_inurba_marseille","lat":43.29015,"lon":5.38122,"is_reserved":false,"is_disabled":false,"rental_uris":{"android":"levelo://app?vid=bf6cc994-425c-483a-a108-287a7febd3e5","ios":"levelo://app?vid=bf6cc994-425c-483a-a108-287a7febd3e5"},"vehicle_type_id":"4","last_reported":1773934912,"current_range_meters":6800,"station_id":"ce4bh4p2rcd13ifvqe1g","pricing_plan_id":"cebpf4jnsgd1na2vs0mg"},{"bike_id":"8ba9e0bd-fefe-4b76-acd7-23f5d5eacadd","system_id":"levelo_inurba_marseille","lat":43.291565,"lon":5.386175,"is_reserved":false,"is_disabled":false,"rental_uris":{"android":"levelo://app?vid=8ba9e0bd-fefe-4b76-acd7-23f5d5eacadd","ios":"levelo://app?vid=8ba9e0bd-fefe-4b76-acd7-23f5d5eacadd"},"vehicle_type_id":"4","last_reported":1773934912,"current_range_meters":6800,"station_id":"ce4bh4p2rcd13ifvqe0g","pricing_plan_id":"cebpf4jnsgd1na2vs0mg"},{"bike_id":"081a0881-89b6-4aec-8d87-38fd39de8439","system_id":"levelo_inurba_marseille","lat":43.28537,"lon":5.44108,"is_reserved":false,"is_disabled":false,"rental_uris":{"android":"levelo://app?vid=081a0881-89b6-4aec-8d87-38fd39de8439","ios":"levelo://app?vid=081a0881-89b6-4aec-8d87-38fd39de8439"},"vehicle_type_id":"4","last_reported":1773934912,"current_range_meters":6800,"station_id":"st_d3j3df2ikq2c7380ej80","pricing_plan_id":"cebpf4jnsgd1na2vs0mg"},{"bike_id":"d03a2022-6922-4b85-aada-659333694e5e","system_id":"levelo_inurba_marseille","lat":43.31234,"lon":5.38722,"is_reserved":false,"is_disabled":true,"rental_uris":{"android":"levelo://app?vid=d03a2022-6922-4b85-aada-659333694e5e","ios":"levelo://app?vid=d03a2022-6922-4b85-aada-659333694e5e"},"vehicle_type_id":"4","last_reported":1773934912,"current_range_meters":6800,"station_id":"","pricing_plan_id":"cebpf4jnsgd1na2vs0mg"},{"bike_id":"cfe5fca0-05f8-4229-a9e3-72ed01a50836","system_id":"levelo_inurba_marseille","lat":43.28929,"lon":5.36379,"is_reserved":false,"is_disabled":false,"rental_uris":{"android":"levelo://app?vid=cfe5fca0-05f8-4229-a9e3-72ed01a50836","ios":"levelo://app?vid=cfe5fca0-05f8-4229-a9e3-72ed01a50836"},"vehicle_type_id":"4","last_reported":1773934912,"current_range_meters":6800,"station_id":"ce4bhc92rcd13ifvqetg","pricing_plan_id":"cebpf4jnsgd1na2vs0mg"},{"bike_id":"fa94ad90-c2bb-41f1-ae62-e5ffb7b9e737","system_id":"levelo_inurba_marseille","lat":43.27377,"lon":5.36241,"is_reserved":false,"is_disabled":false,"rental_uris":{"android":"levelo://app?vid=fa94ad90-c2bb-41f1-ae62-e5ffb7b9e737","ios":"levelo://app?vid=fa94ad90-c2bb-41f1-ae62-e5ffb7b9e737"},"vehicle_type_id":"4","last_reported":1773934912,"current_range_meters":6800,"station_id":"ce4bhbh2rcd13ifvqeo0","pricing_plan_id":"cebpf4jnsgd1na2vs0mg"},{"bike_id":"8cb04a48-8fc1-4c7d-a689-88c4d3208042","system_id":"levelo_inurba_marseille","lat":43.23167,"lon":5.4369,"is_reserved":false,"is_disabled":false,"rental_uris":{"android":"levelo://app?vid=8cb04a48-8fc1-4c7d-a689-88c4d3208042","ios":"levelo://app?vid=8cb04a48-8fc1-4c7d-a689-88c4d3208042"},"vehicle_type_id":"4","last_reported":1773934912,"current_range_meters":6800,"station_id":"ce4bhmp2rcd13ifvqgog","pricing_plan_id":"cebpf4jnsgd1na2vs0mg"},{"bike_id":"026e7bb5-3a4c-4034-a577-0f6b3848d16e","system_id":"levelo_inurba_marseille","lat":43.3045,"lon":5.38883,"is_reserved":false,"is_disabled":false,"rental_uris":{"android":"levelo://app?vid=026e7bb5-3a4c-4034-a577-0f6b3848d16e","ios":"levelo://app?vid=026e7bb5-3a4c-4034-a577-0f6b3848d16e"},"vehicle_type_id":"4","last_reported":1773934912,"current_range_meters":6800,"station_id":"ce4bgk12rcd13ifvqbi0","pricing_plan_id":"cebpf4jnsgd1na2vs0mg"},{"bike_id":"b7b46172-885b-483b-b4f6-e2aa5b0e2d13","system_id":"levelo_inurba_marseille","lat":43.23811,"lon":5.3664,"is_reserved":false,"is_disabled":false,"rental_uris":{"android":"levelo://app?vid=b7b46172-885b-483b-b4f6-e2aa5b0e2d13","ios":"levelo://app?vid=b7b46172-885b-483b-b4f6-e2aa5b0e2d13"},"vehicle_type_id":"4","last_reported":1773934912,"current_range_meters":6800,"station_id":"st_d3nk18o9ro0c73en2l3g","pricing_plan_id":"cebpf4jnsgd1na2vs0mg"},{"bike_id":"bbc38240-0034-43b7-8a01-ce94d59358d6","system_id":"levelo_inurba_marseille","lat":43.29764,"lon":5.4278,"is_reserved":false,"is_disabled":false,"rental_uris":{"android":"levelo://app?vid=bbc38240-0034-43b7-8a01-ce94d59358d6","ios":"levelo://app?vid=bbc38240-0034-43b7-8a01-ce94d59358d6"},"vehicle_type_id":"4","last_reported":1773934912,"current_range_meters":6800,"station_id":"st_d3md5207bmas73dh9klg","pricing_plan_id":"cebpf4jnsgd1na2vs0mg"},{"bike_id":"3cdb9282-92ea-46a0-a841-f2dd988ecc68","system_id":"levelo_inurba_marseille","lat":43.22933,"lon":5.35372,"is_reserved":false,"is_disabled":false,"rental_uris":{"android":"levelo://app?vid=3cdb9282-92ea-46a0-a841-f2dd988ecc68","ios":"levelo://app?vid=3cdb9282-92ea-46a0-a841-f2dd988ecc68"},"vehicle_type_id":"4","last_reported":1773934912,"current_range_meters":6800,"station_id":"cpo3532slgdg3j2ikp40","pricing_plan_id":"cebpf4jnsgd1na2vs0mg"},{"bike_id":"057ce636-b9f7-45ee-b5dc-321dcb39b69c","system_id":"levelo_inurba_marseille","lat":43.29638,"lon":5.40589,"is_reserved":false,"is_disabled":false,"rental_uris":{"android":"levelo://app?vid=057ce636-b9f7-45ee-b5dc-321dcb39b69c","ios":"levelo://app?vid=057ce636-b9f7-45ee-b5dc-321dcb39b69c"},"vehicle_type_id":"4","last_reported":1773934912,"current_range_meters":7200,"station_id":"ce4bh0h2rcd13ifvqd60","pricing_plan_id":"cebpf4jnsgd1na2vs0mg"},{"bike_id":"ae1ecaf5-b0e4-432e-a802-50656fa6e38f","system_id":"levelo_inurba_marseille","lat":43.25088,"lon":5.39525,"is_reserved":false,"is_disabled":false,"rental_uris":{"android":"levelo://app?vid=ae1ecaf5-b0e4-432e-a802-50656fa6e38f","ios":"levelo://app?vid=ae1ecaf5-b0e4-432e-a802-50656fa6e38f"},"vehicle_type_id":"4","last_reported":1773934912,"current_range_meters":7200,"station_id":"ce4bhm12rcd13ifvqgkg","pricing_plan_id":"cebpf4jnsgd1na2vs0mg"},{"bike_id":"864f588c-6c9a-47f2-bf8a-559a5ddb02ea","system_id":"levelo_inurba_marseille","lat":43.32102,"lon":5.36766,"is_reserved":false,"is_disabled":false,"rental_uris":{"android":"levelo://app?vid=864f588c-6c9a-47f2-bf8a-559a5ddb02ea","ios":"levelo://app?vid=864f588c-6c9a-47f2-bf8a-559a5ddb02ea"},"vehicle_type_id":"4","last_reported":1773934912,"current_range_meters":7200,"station_id":"ce4bhrh2rcd13ifvqhug","pricing_plan_id":"cebpf4jnsgd1na2vs0mg"},{"bike_id":"7603f9a5-a91f-4dd4-884d-ad1569e71bd2","system_id":"levelo_inurba_marseille","lat":43.31084,"lon":5.37205,"is_reserved":false,"is_disabled":false,"rental_uris":{"android":"levelo://app?vid=7603f9a5-a91f-4dd4-884d-ad1569e71bd2","ios":"levelo://app?vid=7603f9a5-a91f-4dd4-884d-ad1569e71bd2"},"vehicle_type_id":"4","last_reported":1773934912,"current_range_meters":7200,"station_id":"st_d4kl2rp97mjs73e7tdfg","pricing_plan_id":"cebpf4jnsgd1na2vs0mg"},{"bike_id":"6b218720-7d53-4c1e-b1c9-5dbfa513b086","system_id":"levelo_inurba_marseille","lat":43.23966,"lon":5.36613,"is_reserved":false,"is_disabled":false,"rental_uris":{"android":"levelo://app?vid=6b218720-7d53-4c1e-b1c9-5dbfa513b086","ios":"levelo://app?vid=6b218720-7d53-4c1e-b1c9-5dbfa513b086"},"vehicle_type_id":"4","last_reported":1773934912,"current_range_meters":7200,"station_id":"ce4bhi12rcd13ifvqfp0","pricing_plan_id":"cebpf4jnsgd1na2vs0mg"},{"bike_id":"b9194538-8a52-4700-8f60-4a224c19b356","system_id":"levelo_inurba_marseille","lat":43.29009,"lon":5.35612,"is_reserved":false,"is_disabled":false,"rental_uris":{"android":"levelo://app?vid=b9194538-8a52-4700-8f60-4a224c19b356","ios":"levelo://app?vid=b9194538-8a52-4700-8f60-4a224c19b356"},"vehicle_type_id":"4","last_reported":1773934912,"current_range_meters":7200,"station_id":"ce4bhb92rcd13ifvqen0","pricing_plan_id":"cebpf4jnsgd1na2vs0mg"},{"bike_id":"2b0b0433-580a-4bd9-b353-24ceca79e418","system_id":"levelo_inurba_marseille","lat":43.31135,"lon":5.37749,"is_reserved":false,"is_disabled":false,"rental_uris":{"android":"levelo://app?vid=2b0b0433-580a-4bd9-b353-24ceca79e418","ios":"levelo://app?vid=2b0b0433-580a-4bd9-b353-24ceca79e418"},"vehicle_type_id":"4","last_reported":1773934912,"current_range_meters":7200,"station_id":"ce4bgt92rcd13ifvqcg0","pricing_plan_id":"cebpf4jnsgd1na2vs0mg"},{"bike_id":"54f96d5d-4485-4b44-9a0d-a3a78696ce34","system_id":"levelo_inurba_marseille","lat":43.2378,"lon":5.36625,"is_reserved":false,"is_disabled":false,"rental_uris":{"android":"levelo://app?vid=54f96d5d-4485-4b44-9a0d-a3a78696ce34","ios":"levelo://app?vid=54f96d5d-4485-4b44-9a0d-a3a78696ce34"},"vehicle_type_id":"4","last_reported":1773934912,"current_range_meters":7200,"station_id":"st_d3nk18o9ro0c73en2l3g","pricing_plan_id":"cebpf4jnsgd1na2vs0mg"},{"bike_id":"f3c46cfd-8e49-43d4-829e-256d0e5d9fc4","system_id":"levelo_inurba_marseille","lat":43.29273,"lon":5.3685,"is_reserved":false,"is_disabled":false,"rental_uris":{"android":"levelo://app?vid=f3c46cfd-8e49-43d4-829e-256d0e5d9fc4","ios":"levelo://app?vid=f3c46cfd-8e49-43d4-829e-256d0e5d9fc4"},"vehicle_type_id":"4","last_reported":1773934912,"current_range_meters":7200,"station_id":"ce4bhbp2rcd13ifvqesg","pricing_plan_id":"cebpf4jnsgd1na2vs0mg"},{"bike_id":"ad69194d-c4bf-47fb-8126-b41e2cc3c0d5","system_id":"levelo_inurba_marseille","lat":43.29043,"lon":5.35908,"is_reserved":false,"is_disabled":false,"rental_uris":{"android":"levelo://app?vid=ad69194d-c4bf-47fb-8126-b41e2cc3c0d5","ios":"levelo://app?vid=ad69194d-c4bf-47fb-8126-b41e2cc3c0d5"},"vehicle_type_id":"4","last_reported":1773934912,"current_range_meters":7200,"station_id":"ce4bha92rcd13ifvqeg0","pricing_plan_id":"cebpf4jnsgd1na2vs0mg"},{"bike_id":"dd10efc5-28b9-436a-be78-8011941e89fc","system_id":"levelo_inurba_marseille","lat":43.2849,"lon":5.48413,"is_reserved":false,"is_disabled":false,"rental_uris":{"android":"levelo://app?vid=dd10efc5-28b9-436a-be78-8011941e89fc","ios":"levelo://app?vid=dd10efc5-28b9-436a-be78-8011941e89fc"},"vehicle_type_id":"4","last_reported":1773934912,"current_range_meters":7200,"station_id":"st_d3svhcjqgbts73a3dn0g","pricing_plan_id":"cebpf4jnsgd1na2vs0mg"},{"bike_id":"0effcb86-530f-422c-9f0e-4d242751570e","system_id":"levelo_inurba_marseille","lat":43.30538,"lon":5.36699,"is_reserved":false,"is_disabled":false,"rental_uris":{"android":"levelo://app?vid=0effcb86-530f-422c-9f0e-4d242751570e","ios":"levelo://app?vid=0effcb86-530f-422c-9f0e-4d242751570e"},"vehicle_type_id":"4","last_reported":1773934912,"current_range_meters":7200,"station_id":"ce4bgrp2rcd13ifvqc9g","pricing_plan_id":"cebpf4jnsgd1na2vs0mg"},{"bike_id":"a7589a93-7e92-46e3-9adb-33c382fc7b2d","system_id":"levelo_inurba_marseille","lat":43.23976,"lon":5.36611,"is_reserved":false,"is_disabled":false,"rental_uris":{"android":"levelo://app?vid=a7589a93-7e92-46e3-9adb-33c382fc7b2d","ios":"levelo://app?vid=a7589a93-7e92-46e3-9adb-33c382fc7b2d"},"vehicle_type_id":"4","last_reported":1773934912,"current_range_meters":7200,"station_id":"ce4bhi12rcd13ifvqfp0","pricing_plan_id":"cebpf4jnsgd1na2vs0mg"},{"bike_id":"e84409cd-ab11-47ab-92ac-0bad50daf5c3","system_id":"levelo_inurba_marseille","lat":43.31897,"lon":5.36813,"is_reserved":false,"is_disabled":false,"rental_uris":{"android":"levelo://app?vid=e84409cd-ab11-47ab-92ac-0bad50daf5c3","ios":"levelo://app?vid=e84409cd-ab11-47ab-92ac-0bad50daf5c3"},"vehicle_type_id":"4","last_reported":1773934912,"current_range_meters":7200,"station_id":"st_d6o2h0d0559c73evc1b0","pricing_plan_id":"cebpf4jnsgd1na2vs0mg"},{"bike_id":"70d23ae9-5706-4aea-882e-b70d618afd3d","system_id":"levelo_inurba_marseille","lat":43.28938,"lon":5.36624,"is_reserved":false,"is_disabled":false,"rental_uris":{"android":"levelo://app?vid=70d23ae9-5706-4aea-882e-b70d618afd3d","ios":"levelo://app?vid=70d23ae9-5706-4aea-882e-b70d618afd3d"},"vehicle_type_id":"4","last_reported":1773934912,"current_range_meters":7200,"station_id":"ce4bhap2rcd13ifvqek0","pricing_plan_id":"cebpf4jnsgd1na2vs0mg"},{"bike_id":"1a35434d-c9e2-448e-ab11-b763a506a6ff","system_id":"levelo_inurba_marseille","lat":43.29928,"lon":5.38091,"is_reserved":false,"is_disabled":true,"rental_uris":{"android":"levelo://app?vid=1a35434d-c9e2-448e-ab11-b763a506a6ff","ios":"levelo://app?vid=1a35434d-c9e2-448e-ab11-b763a506a6ff"},"vehicle_type_id":"4","last_reported":1773934912,"current_range_meters":7200,"station_id":"","pricing_plan_id":"cebpf4jnsgd1na2vs0mg"},{"bike_id":"1e7970cb-ca55-4107-9d10-c7aaa1c889bd","system_id":"levelo_inurba_marseille","lat":43.23968,"lon":5.36634,"is_reserved":false,"is_disabled":false,"rental_uris":{"android":"levelo://app?vid=1e7970cb-ca55-4107-9d10-c7aaa1c889bd","ios":"levelo://app?vid=1e7970cb-ca55-4107-9d10-c7aaa1c889bd"},"vehicle_type_id":"4","last_reported":1773934912,"current_range_meters":7200,"station_id":"ce4bhi12rcd13ifvqfp0","pricing_plan_id":"cebpf4jnsgd1na2vs0mg"},{"bike_id":"5ad761dd-c57c-4922-a667-36e420fa243a","system_id":"levelo_inurba_marseille","lat":43.30523,"lon":5.38407,"is_reserved":false,"is_disabled":false,"rental_uris":{"android":"levelo://app?vid=5ad761dd-c57c-4922-a667-36e420fa243a","ios":"levelo://app?vid=5ad761dd-c57c-4922-a667-36e420fa243a"},"vehicle_type_id":"4","last_reported":1773934912,"current_range_meters":7200,"station_id":"ce4bgg92rcd13ifvqb30","pricing_plan_id":"cebpf4jnsgd1na2vs0mg"},{"bike_id":"a11c8cfa-453a-4892-a974-6a22bafa8290","system_id":"levelo_inurba_marseille","lat":43.23199,"lon":5.3555,"is_reserved":false,"is_disabled":false,"rental_uris":{"android":"levelo://app?vid=a11c8cfa-453a-4892-a974-6a22bafa8290","ios":"levelo://app?vid=a11c8cfa-453a-4892-a974-6a22bafa8290"},"vehicle_type_id":"4","last_reported":1773934912,"current_range_meters":8000,"station_id":"ce4bhu92rcd13ifvqi70","pricing_plan_id":"cebpf4jnsgd1na2vs0mg"},{"bike_id":"13ece891-29b9-4ae9-a4c4-ae3da55ec954","system_id":"levelo_inurba_marseille","lat":43.232,"lon":5.35549,"is_reserved":false,"is_disabled":false,"rental_uris":{"android":"levelo://app?vid=13ece891-29b9-4ae9-a4c4-ae3da55ec954","ios":"levelo://app?vid=13ece891-29b9-4ae9-a4c4-ae3da55ec954"},"vehicle_type_id":"4","last_reported":1773934912,"current_range_meters":8000,"station_id":"ce4bhu92rcd13ifvqi70","pricing_plan_id":"cebpf4jnsgd1na2vs0mg"},{"bike_id":"1b012385-e2e4-4489-8f4c-79e9d74926b2","system_id":"levelo_inurba_marseille","lat":43.27061,"lon":5.42255,"is_reserved":false,"is_disabled":false,"rental_uris":{"android":"levelo://app?vid=1b012385-e2e4-4489-8f4c-79e9d74926b2","ios":"levelo://app?vid=1b012385-e2e4-4489-8f4c-79e9d74926b2"},"vehicle_type_id":"4","last_reported":1773934912,"current_range_meters":8000,"station_id":"ce4bhk92rcd13ifvqgb0","pricing_plan_id":"cebpf4jnsgd1na2vs0mg"},{"bike_id":"bd60a6ec-18d4-4476-ab1b-f354043c4b72","system_id":"levelo_inurba_marseille","lat":43.29791,"lon":5.42596,"is_reserved":false,"is_disabled":false,"rental_uris":{"android":"levelo://app?vid=bd60a6ec-18d4-4476-ab1b-f354043c4b72","ios":"levelo://app?vid=bd60a6ec-18d4-4476-ab1b-f354043c4b72"},"vehicle_type_id":"4","last_reported":1773934912,"current_range_meters":8000,"station_id":"","pricing_plan_id":"cebpf4jnsgd1na2vs0mg"},{"bike_id":"347a0133-45d3-4213-ae48-606f4453bbf3","system_id":"levelo_inurba_marseille","lat":43.23064,"lon":5.35476,"is_reserved":false,"is_disabled":false,"rental_uris":{"android":"levelo://app?vid=347a0133-45d3-4213-ae48-606f4453bbf3","ios":"levelo://app?vid=347a0133-45d3-4213-ae48-606f4453bbf3"},"vehicle_type_id":"4","last_reported":1773934912,"current_range_meters":8000,"station_id":"cpo3342slgdg3j2ifvpg","pricing_plan_id":"cebpf4jnsgd1na2vs0mg"},{"bike_id":"dd2f7881-755c-4593-bb3a-7ba359f1b823","system_id":"levelo_inurba_marseille","lat":43.29101,"lon":5.38202,"is_reserved":false,"is_disabled":true,"rental_uris":{"android":"levelo://app?vid=dd2f7881-755c-4593-bb3a-7ba359f1b823","ios":"levelo://app?vid=dd2f7881-755c-4593-bb3a-7ba359f1b823"},"vehicle_type_id":"4","last_reported":1773934912,"current_range_meters":8000,"station_id":"ce4bh512rcd13ifvqe2g","pricing_plan_id":"cebpf4jnsgd1na2vs0mg"},{"bike_id":"8c1bb7e1-fc52-410e-bc8b-57e5a8629823","system_id":"levelo_inurba_marseille","lat":43.29222,"lon":5.37692,"is_reserved":false,"is_disabled":false,"rental_uris":{"android":"levelo://app?vid=8c1bb7e1-fc52-410e-bc8b-57e5a8629823","ios":"levelo://app?vid=8c1bb7e1-fc52-410e-bc8b-57e5a8629823"},"vehicle_type_id":"4","last_reported":1773934912,"current_range_meters":8000,"station_id":"","pricing_plan_id":"cebpf4jnsgd1na2vs0mg"},{"bike_id":"47b958a5-a9e9-4494-8472-abb0f760256b","system_id":"levelo_inurba_marseille","lat":43.23776,"lon":5.36616,"is_reserved":false,"is_disabled":false,"rental_uris":{"android":"levelo://app?vid=47b958a5-a9e9-4494-8472-abb0f760256b","ios":"levelo://app?vid=47b958a5-a9e9-4494-8472-abb0f760256b"},"vehicle_type_id":"4","last_reported":1773934912,"current_range_meters":8000,"station_id":"st_d3nk18o9ro0c73en2l3g","pricing_plan_id":"cebpf4jnsgd1na2vs0mg"},{"bike_id":"fb863e48-23d0-4dff-af20-1eb4f561ee4f","system_id":"levelo_inurba_marseille","lat":43.27074,"lon":5.42277,"is_reserved":false,"is_disabled":false,"rental_uris":{"android":"levelo://app?vid=fb863e48-23d0-4dff-af20-1eb4f561ee4f","ios":"levelo://app?vid=fb863e48-23d0-4dff-af20-1eb4f561ee4f"},"vehicle_type_id":"4","last_reported":1773934912,"current_range_meters":8000,"station_id":"ce4bhk92rcd13ifvqgb0","pricing_plan_id":"cebpf4jnsgd1na2vs0mg"},{"bike_id":"d51fe815-5335-4e1f-8e42-efe91c7e85aa","system_id":"levelo_inurba_marseille","lat":43.22938,"lon":5.35368,"is_reserved":false,"is_disabled":false,"rental_uris":{"android":"levelo://app?vid=d51fe815-5335-4e1f-8e42-efe91c7e85aa","ios":"levelo://app?vid=d51fe815-5335-4e1f-8e42-efe91c7e85aa"},"vehicle_type_id":"4","last_reported":1773934912,"current_range_meters":8000,"station_id":"cpo3532slgdg3j2ikp40","pricing_plan_id":"cebpf4jnsgd1na2vs0mg"},{"bike_id":"600469f9-bda4-4951-a61e-12b2370882e2","system_id":"levelo_inurba_marseille","lat":43.2885,"lon":5.42527,"is_reserved":false,"is_disabled":false,"rental_uris":{"android":"levelo://app?vid=600469f9-bda4-4951-a61e-12b2370882e2","ios":"levelo://app?vid=600469f9-bda4-4951-a61e-12b2370882e2"},"vehicle_type_id":"4","last_reported":1773934912,"current_range_meters":8000,"station_id":"","pricing_plan_id":"cebpf4jnsgd1na2vs0mg"},{"bike_id":"bf9424c9-d0b6-498e-b90d-92a7bcb81361","system_id":"levelo_inurba_marseille","lat":43.26579,"lon":5.39024,"is_reserved":false,"is_disabled":false,"rental_uris":{"android":"levelo://app?vid=bf9424c9-d0b6-498e-b90d-92a7bcb81361","ios":"levelo://app?vid=bf9424c9-d0b6-498e-b90d-92a7bcb81361"},"vehicle_type_id":"4","last_reported":1773934912,"current_range_meters":8000,"station_id":"ce4bhe12rcd13ifvqf30","pricing_plan_id":"cebpf4jnsgd1na2vs0mg"},{"bike_id":"b7e87515-c3ea-478e-bf01-a70f86b2f092","system_id":"levelo_inurba_marseille","lat":43.24179,"lon":5.36389,"is_reserved":false,"is_disabled":false,"rental_uris":{"android":"levelo://app?vid=b7e87515-c3ea-478e-bf01-a70f86b2f092","ios":"levelo://app?vid=b7e87515-c3ea-478e-bf01-a70f86b2f092"},"vehicle_type_id":"4","last_reported":1773934912,"current_range_meters":8000,"station_id":"cpo36qri1sfpv3e86is0","pricing_plan_id":"cebpf4jnsgd1na2vs0mg"},{"bike_id":"591637eb-a256-445f-b11a-47e07652d095","system_id":"levelo_inurba_marseille","lat":43.28167,"lon":5.42634,"is_reserved":false,"is_disabled":false,"rental_uris":{"android":"levelo://app?vid=591637eb-a256-445f-b11a-47e07652d095","ios":"levelo://app?vid=591637eb-a256-445f-b11a-47e07652d095"},"vehicle_type_id":"4","last_reported":1773934912,"current_range_meters":8000,"station_id":"ce4bhnh2rcd13ifvqgug","pricing_plan_id":"cebpf4jnsgd1na2vs0mg"},{"bike_id":"883604b8-5ede-49c5-ba16-f1d0b133a353","system_id":"levelo_inurba_marseille","lat":43.28415,"lon":5.34977,"is_reserved":false,"is_disabled":false,"rental_uris":{"android":"levelo://app?vid=883604b8-5ede-49c5-ba16-f1d0b133a353","ios":"levelo://app?vid=883604b8-5ede-49c5-ba16-f1d0b133a353"},"vehicle_type_id":"4","last_reported":1773934912,"current_range_meters":8000,"station_id":"ce4bhbh2rcd13ifvqepg","pricing_plan_id":"cebpf4jnsgd1na2vs0mg"},{"bike_id":"e1fcda96-10f8-4416-a2de-b3c0381d6f12","system_id":"levelo_inurba_marseille","lat":43.27377,"lon":5.36246,"is_reserved":false,"is_disabled":true,"rental_uris":{"android":"levelo://app?vid=e1fcda96-10f8-4416-a2de-b3c0381d6f12","ios":"levelo://app?vid=e1fcda96-10f8-4416-a2de-b3c0381d6f12"},"vehicle_type_id":"4","last_reported":1773934912,"current_range_meters":8000,"station_id":"ce4bhbh2rcd13ifvqeo0","pricing_plan_id":"cebpf4jnsgd1na2vs0mg"},{"bike_id":"bea21c33-d04a-4338-9da1-264162e1bcd6","system_id":"levelo_inurba_marseille","lat":43.26367,"lon":5.41087,"is_reserved":false,"is_disabled":false,"rental_uris":{"android":"levelo://app?vid=bea21c33-d04a-4338-9da1-264162e1bcd6","ios":"levelo://app?vid=bea21c33-d04a-4338-9da1-264162e1bcd6"},"vehicle_type_id":"4","last_reported":1773934912,"current_range_meters":8000,"station_id":"st_d4e5ca6na9uc73bfl5fg","pricing_plan_id":"cebpf4jnsgd1na2vs0mg"},{"bike_id":"be523ae7-f0fc-4e2a-970b-30a3029fa717","system_id":"levelo_inurba_marseille","lat":43.28476,"lon":5.48387,"is_reserved":false,"is_disabled":false,"rental_uris":{"android":"levelo://app?vid=be523ae7-f0fc-4e2a-970b-30a3029fa717","ios":"levelo://app?vid=be523ae7-f0fc-4e2a-970b-30a3029fa717"},"vehicle_type_id":"4","last_reported":1773934912,"current_range_meters":8000,"station_id":"","pricing_plan_id":"cebpf4jnsgd1na2vs0mg"},{"bike_id":"53632de8-3a25-49fd-85f6-be8d61a04729","system_id":"levelo_inurba_marseille","lat":43.30305,"lon":5.39215,"is_reserved":false,"is_disabled":false,"rental_uris":{"android":"levelo://app?vid=53632de8-3a25-49fd-85f6-be8d61a04729","ios":"levelo://app?vid=53632de8-3a25-49fd-85f6-be8d61a04729"},"vehicle_type_id":"4","last_reported":1773934912,"current_range_meters":8000,"station_id":"ce4bgkh2rcd13ifvqbk0","pricing_plan_id":"cebpf4jnsgd1na2vs0mg"},{"bike_id":"ca0d1585-d083-4424-a50e-ee7b236ffbed","system_id":"levelo_inurba_marseille","lat":43.31539,"lon":5.38035,"is_reserved":false,"is_disabled":false,"rental_uris":{"android":"levelo://app?vid=ca0d1585-d083-4424-a50e-ee7b236ffbed","ios":"levelo://app?vid=ca0d1585-d083-4424-a50e-ee7b236ffbed"},"vehicle_type_id":"4","last_reported":1773934912,"current_range_meters":8400,"station_id":"ce4bhsp2rcd13ifvqi50","pricing_plan_id":"cebpf4jnsgd1na2vs0mg"},{"bike_id":"b0aae7c9-1bd6-4f1c-a33d-9d6ff662c2a9","system_id":"levelo_inurba_marseille","lat":43.2482,"lon":5.37452,"is_reserved":false,"is_disabled":false,"rental_uris":{"android":"levelo://app?vid=b0aae7c9-1bd6-4f1c-a33d-9d6ff662c2a9","ios":"levelo://app?vid=b0aae7c9-1bd6-4f1c-a33d-9d6ff662c2a9"},"vehicle_type_id":"4","last_reported":1773934912,"current_range_meters":8400,"station_id":"ce4bhgh2rcd13ifvqfb0","pricing_plan_id":"cebpf4jnsgd1na2vs0mg"},{"bike_id":"addd9e53-bfde-4c2f-8c89-4a891b6a7add","system_id":"levelo_inurba_marseille","lat":43.31358,"lon":5.37922,"is_reserved":false,"is_disabled":false,"rental_uris":{"android":"levelo://app?vid=addd9e53-bfde-4c2f-8c89-4a891b6a7add","ios":"levelo://app?vid=addd9e53-bfde-4c2f-8c89-4a891b6a7add"},"vehicle_type_id":"4","last_reported":1773934912,"current_range_meters":8400,"station_id":"","pricing_plan_id":"cebpf4jnsgd1na2vs0mg"},{"bike_id":"b56b26bd-81d0-48d5-b304-9896ba402c97","system_id":"levelo_inurba_marseille","lat":43.25153,"lon":5.40363,"is_reserved":false,"is_disabled":false,"rental_uris":{"android":"levelo://app?vid=b56b26bd-81d0-48d5-b304-9896ba402c97","ios":"levelo://app?vid=b56b26bd-81d0-48d5-b304-9896ba402c97"},"vehicle_type_id":"4","last_reported":1773934912,"current_range_meters":8400,"station_id":"","pricing_plan_id":"cebpf4jnsgd1na2vs0mg"},{"bike_id":"92c7fa43-4f38-4f78-8075-61a5a8a0edcf","system_id":"levelo_inurba_marseille","lat":43.31274,"lon":5.36846,"is_reserved":false,"is_disabled":false,"rental_uris":{"android":"levelo://app?vid=92c7fa43-4f38-4f78-8075-61a5a8a0edcf","ios":"levelo://app?vid=92c7fa43-4f38-4f78-8075-61a5a8a0edcf"},"vehicle_type_id":"4","last_reported":1773934912,"current_range_meters":8400,"station_id":"","pricing_plan_id":"cebpf4jnsgd1na2vs0mg"},{"bike_id":"52f6a6b9-7af9-4956-b458-baf5061e66bf","system_id":"levelo_inurba_marseille","lat":43.2334,"lon":5.44463,"is_reserved":false,"is_disabled":false,"rental_uris":{"android":"levelo://app?vid=52f6a6b9-7af9-4956-b458-baf5061e66bf","ios":"levelo://app?vid=52f6a6b9-7af9-4956-b458-baf5061e66bf"},"vehicle_type_id":"4","last_reported":1773934912,"current_range_meters":8400,"station_id":"","pricing_plan_id":"cebpf4jnsgd1na2vs0mg"},{"bike_id":"edf8ac2f-a3a4-4bf8-8233-9b0a68aec85d","system_id":"levelo_inurba_marseille","lat":43.32291,"lon":5.38253,"is_reserved":false,"is_disabled":false,"rental_uris":{"android":"levelo://app?vid=edf8ac2f-a3a4-4bf8-8233-9b0a68aec85d","ios":"levelo://app?vid=edf8ac2f-a3a4-4bf8-8233-9b0a68aec85d"},"vehicle_type_id":"4","last_reported":1773934912,"current_range_meters":8400,"station_id":"ce4bhr12rcd13ifvqhqg","pricing_plan_id":"cebpf4jnsgd1na2vs0mg"},{"bike_id":"e643138e-2c44-4c7e-819e-43d003371e1a","system_id":"levelo_inurba_marseille","lat":43.30141,"lon":5.3741,"is_reserved":false,"is_disabled":false,"rental_uris":{"android":"levelo://app?vid=e643138e-2c44-4c7e-819e-43d003371e1a","ios":"levelo://app?vid=e643138e-2c44-4c7e-819e-43d003371e1a"},"vehicle_type_id":"4","last_reported":1773934912,"current_range_meters":8400,"station_id":"ce4bgs92rcd13ifvqcc0","pricing_plan_id":"cebpf4jnsgd1na2vs0mg"},{"bike_id":"45a7eeba-191c-4d0b-87a5-08f3942ccff8","system_id":"levelo_inurba_marseille","lat":43.2706,"lon":5.38294,"is_reserved":false,"is_disabled":false,"rental_uris":{"android":"levelo://app?vid=45a7eeba-191c-4d0b-87a5-08f3942ccff8","ios":"levelo://app?vid=45a7eeba-191c-4d0b-87a5-08f3942ccff8"},"vehicle_type_id":"4","last_reported":1773934912,"current_range_meters":8400,"station_id":"st_d3n2fo6cfp8s73cte1j0","pricing_plan_id":"cebpf4jnsgd1na2vs0mg"},{"bike_id":"e86b0d6c-0c42-46e1-9e38-e8993a783bc4","system_id":"levelo_inurba_marseille","lat":43.28409,"lon":5.34991,"is_reserved":false,"is_disabled":false,"rental_uris":{"android":"levelo://app?vid=e86b0d6c-0c42-46e1-9e38-e8993a783bc4","ios":"levelo://app?vid=e86b0d6c-0c42-46e1-9e38-e8993a783bc4"},"vehicle_type_id":"4","last_reported":1773934912,"current_range_meters":8400,"station_id":"ce4bhbh2rcd13ifvqepg","pricing_plan_id":"cebpf4jnsgd1na2vs0mg"},{"bike_id":"282ae1f9-acb0-48cd-bf87-5a8e7dbec2e3","system_id":"levelo_inurba_marseille","lat":43.24795,"lon":5.3745,"is_reserved":false,"is_disabled":false,"rental_uris":{"android":"levelo://app?vid=282ae1f9-acb0-48cd-bf87-5a8e7dbec2e3","ios":"levelo://app?vid=282ae1f9-acb0-48cd-bf87-5a8e7dbec2e3"},"vehicle_type_id":"4","last_reported":1773934912,"current_range_meters":8400,"station_id":"ce4bhgh2rcd13ifvqfb0","pricing_plan_id":"cebpf4jnsgd1na2vs0mg"},{"bike_id":"1507e030-5125-4139-9831-82ccac9ec12a","system_id":"levelo_inurba_marseille","lat":43.29175,"lon":5.35797,"is_reserved":false,"is_disabled":false,"rental_uris":{"android":"levelo://app?vid=1507e030-5125-4139-9831-82ccac9ec12a","ios":"levelo://app?vid=1507e030-5125-4139-9831-82ccac9ec12a"},"vehicle_type_id":"4","last_reported":1773934912,"current_range_meters":8400,"station_id":"ce4bhb12rcd13ifvqel0","pricing_plan_id":"cebpf4jnsgd1na2vs0mg"},{"bike_id":"571fa9e3-6a28-4bae-8e6e-ffe5c0067253","system_id":"levelo_inurba_marseille","lat":43.24395,"lon":5.37065,"is_reserved":false,"is_disabled":false,"rental_uris":{"android":"levelo://app?vid=571fa9e3-6a28-4bae-8e6e-ffe5c0067253","ios":"levelo://app?vid=571fa9e3-6a28-4bae-8e6e-ffe5c0067253"},"vehicle_type_id":"4","last_reported":1773934912,"current_range_meters":8400,"station_id":"ce4bhhh2rcd13ifvqfk0","pricing_plan_id":"cebpf4jnsgd1na2vs0mg"},{"bike_id":"15750178-4f9b-426f-bafa-493e04eb7e36","system_id":"levelo_inurba_marseille","lat":43.30807,"lon":5.40678,"is_reserved":false,"is_disabled":false,"rental_uris":{"android":"levelo://app?vid=15750178-4f9b-426f-bafa-493e04eb7e36","ios":"levelo://app?vid=15750178-4f9b-426f-bafa-493e04eb7e36"},"vehicle_type_id":"4","last_reported":1773934912,"current_range_meters":8400,"station_id":"","pricing_plan_id":"cebpf4jnsgd1na2vs0mg"},{"bike_id":"7155279d-5434-41be-97f8-74d7709c700b","system_id":"levelo_inurba_marseille","lat":43.24679,"lon":5.38161,"is_reserved":false,"is_disabled":false,"rental_uris":{"android":"levelo://app?vid=7155279d-5434-41be-97f8-74d7709c700b","ios":"levelo://app?vid=7155279d-5434-41be-97f8-74d7709c700b"},"vehicle_type_id":"4","last_reported":1773934912,"current_range_meters":8400,"station_id":"ce4bhih2rcd13ifvqfr0","pricing_plan_id":"cebpf4jnsgd1na2vs0mg"},{"bike_id":"74279003-4c72-4b93-91ad-fd6728fb2ef9","system_id":"levelo_inurba_marseille","lat":43.29033,"lon":5.38637,"is_reserved":false,"is_disabled":false,"rental_uris":{"android":"levelo://app?vid=74279003-4c72-4b93-91ad-fd6728fb2ef9","ios":"levelo://app?vid=74279003-4c72-4b93-91ad-fd6728fb2ef9"},"vehicle_type_id":"4","last_reported":1773934912,"current_range_meters":8400,"station_id":"ce4bh4p2rcd13ifvqe0g","pricing_plan_id":"cebpf4jnsgd1na2vs0mg"},{"bike_id":"3bcd3f37-7909-4e8a-be03-a9562a2c0e45","system_id":"levelo_inurba_marseille","lat":43.28474,"lon":5.48389,"is_reserved":false,"is_disabled":false,"rental_uris":{"android":"levelo://app?vid=3bcd3f37-7909-4e8a-be03-a9562a2c0e45","ios":"levelo://app?vid=3bcd3f37-7909-4e8a-be03-a9562a2c0e45"},"vehicle_type_id":"4","last_reported":1773934912,"current_range_meters":8800,"station_id":"","pricing_plan_id":"cebpf4jnsgd1na2vs0mg"},{"bike_id":"6cfdd5cf-56f0-4a1a-b559-1824162ba75c","system_id":"levelo_inurba_marseille","lat":43.29014,"lon":5.35604,"is_reserved":false,"is_disabled":false,"rental_uris":{"android":"levelo://app?vid=6cfdd5cf-56f0-4a1a-b559-1824162ba75c","ios":"levelo://app?vid=6cfdd5cf-56f0-4a1a-b559-1824162ba75c"},"vehicle_type_id":"4","last_reported":1773934912,"current_range_meters":8800,"station_id":"ce4bhb92rcd13ifvqen0","pricing_plan_id":"cebpf4jnsgd1na2vs0mg"},{"bike_id":"b790cc6c-beda-4dcd-96dd-e541806c10fa","system_id":"levelo_inurba_marseille","lat":43.27508,"lon":5.41602,"is_reserved":false,"is_disabled":false,"rental_uris":{"android":"levelo://app?vid=b790cc6c-beda-4dcd-96dd-e541806c10fa","ios":"levelo://app?vid=b790cc6c-beda-4dcd-96dd-e541806c10fa"},"vehicle_type_id":"4","last_reported":1773934912,"current_range_meters":8800,"station_id":"st_d6im8g6chgec73a5pndg","pricing_plan_id":"cebpf4jnsgd1na2vs0mg"},{"bike_id":"6018d565-5c8a-4bab-ba5d-0061fbbaec08","system_id":"levelo_inurba_marseille","lat":43.2295,"lon":5.35379,"is_reserved":false,"is_disabled":false,"rental_uris":{"android":"levelo://app?vid=6018d565-5c8a-4bab-ba5d-0061fbbaec08","ios":"levelo://app?vid=6018d565-5c8a-4bab-ba5d-0061fbbaec08"},"vehicle_type_id":"4","last_reported":1773934912,"current_range_meters":8800,"station_id":"cpo3532slgdg3j2ikp40","pricing_plan_id":"cebpf4jnsgd1na2vs0mg"},{"bike_id":"69067704-4b9d-4067-8ddd-5b71f4ef1a8a","system_id":"levelo_inurba_marseille","lat":43.25938,"lon":5.40872,"is_reserved":false,"is_disabled":true,"rental_uris":{"android":"levelo://app?vid=69067704-4b9d-4067-8ddd-5b71f4ef1a8a","ios":"levelo://app?vid=69067704-4b9d-4067-8ddd-5b71f4ef1a8a"},"vehicle_type_id":"4","last_reported":1773934912,"current_range_meters":8800,"station_id":"ce4bhm92rcd13ifvqglg","pricing_plan_id":"cebpf4jnsgd1na2vs0mg"},{"bike_id":"b1c6c450-9c5a-4a2f-93a2-aa667c5fc2a6","system_id":"levelo_inurba_marseille","lat":43.30877,"lon":5.39643,"is_reserved":false,"is_disabled":false,"rental_uris":{"android":"levelo://app?vid=b1c6c450-9c5a-4a2f-93a2-aa667c5fc2a6","ios":"levelo://app?vid=b1c6c450-9c5a-4a2f-93a2-aa667c5fc2a6"},"vehicle_type_id":"4","last_reported":1773934912,"current_range_meters":8800,"station_id":"ce4bh012rcd13ifvqcv0","pricing_plan_id":"cebpf4jnsgd1na2vs0mg"},{"bike_id":"88f62a4c-1dd5-4d07-a59a-902271acdb70","system_id":"levelo_inurba_marseille","lat":43.28151,"lon":5.42638,"is_reserved":false,"is_disabled":false,"rental_uris":{"android":"levelo://app?vid=88f62a4c-1dd5-4d07-a59a-902271acdb70","ios":"levelo://app?vid=88f62a4c-1dd5-4d07-a59a-902271acdb70"},"vehicle_type_id":"4","last_reported":1773934912,"current_range_meters":8800,"station_id":"ce4bhnh2rcd13ifvqgug","pricing_plan_id":"cebpf4jnsgd1na2vs0mg"},{"bike_id":"91754ca3-cd5e-47a5-b17b-b94faa181426","system_id":"levelo_inurba_marseille","lat":43.3211,"lon":5.3676,"is_reserved":false,"is_disabled":false,"rental_uris":{"android":"levelo://app?vid=91754ca3-cd5e-47a5-b17b-b94faa181426","ios":"levelo://app?vid=91754ca3-cd5e-47a5-b17b-b94faa181426"},"vehicle_type_id":"4","last_reported":1773934912,"current_range_meters":8800,"station_id":"ce4bhrh2rcd13ifvqhug","pricing_plan_id":"cebpf4jnsgd1na2vs0mg"},{"bike_id":"f5224bed-ce0d-4ca7-877b-7e08321d9e8f","system_id":"levelo_inurba_marseille","lat":43.28716,"lon":5.37915,"is_reserved":false,"is_disabled":false,"rental_uris":{"android":"levelo://app?vid=f5224bed-ce0d-4ca7-877b-7e08321d9e8f","ios":"levelo://app?vid=f5224bed-ce0d-4ca7-877b-7e08321d9e8f"},"vehicle_type_id":"4","last_reported":1773934912,"current_range_meters":8800,"station_id":"ce4bh9p2rcd13ifvqec0","pricing_plan_id":"cebpf4jnsgd1na2vs0mg"},{"bike_id":"5b633a99-6e6c-40eb-b51a-c5e14db697a0","system_id":"levelo_inurba_marseille","lat":43.27062,"lon":5.42269,"is_reserved":false,"is_disabled":false,"rental_uris":{"android":"levelo://app?vid=5b633a99-6e6c-40eb-b51a-c5e14db697a0","ios":"levelo://app?vid=5b633a99-6e6c-40eb-b51a-c5e14db697a0"},"vehicle_type_id":"4","last_reported":1773934912,"current_range_meters":8800,"station_id":"ce4bhk92rcd13ifvqgb0","pricing_plan_id":"cebpf4jnsgd1na2vs0mg"},{"bike_id":"57d1ada9-1a9f-44a6-9752-b843732a3f40","system_id":"levelo_inurba_marseille","lat":43.2996,"lon":5.37157,"is_reserved":false,"is_disabled":false,"rental_uris":{"android":"levelo://app?vid=57d1ada9-1a9f-44a6-9752-b843732a3f40","ios":"levelo://app?vid=57d1ada9-1a9f-44a6-9752-b843732a3f40"},"vehicle_type_id":"4","last_reported":1773934912,"current_range_meters":8800,"station_id":"ce4bgr92rcd13ifvqc7g","pricing_plan_id":"cebpf4jnsgd1na2vs0mg"},{"bike_id":"902fbb44-ff62-4fba-b9d9-6892f8808cb4","system_id":"levelo_inurba_marseille","lat":43.30438,"lon":5.38889,"is_reserved":false,"is_disabled":false,"rental_uris":{"android":"levelo://app?vid=902fbb44-ff62-4fba-b9d9-6892f8808cb4","ios":"levelo://app?vid=902fbb44-ff62-4fba-b9d9-6892f8808cb4"},