{"last_updated":1747930376,"ttl":60,"version":"2.2","data":{"bikes":[{"bike_id":"c0b9fd4f-e181-46ce-b0bf-f5119973334f","system_id":"levelo_inurba_marseille","lat":43.33771,"lon":5.37424,"is_reserved":false,"is_disabled":true,"rental_uris":{"android":"levelo://app?vid=c0b9fd4f-e181-46ce-b0bf-f5119973334f","ios":"levelo://app?vid=c0b9fd4f-e181-46ce-b0bf-f5119973334f"},"vehicle_type_id":"4","last_reported":1747930376,"current_range_meters":0,"station_id":"","pricing_plan_id":"cebpf4jnsgd1na2vs0mg"},{"bike_id":"99f73d8c-ff21-451c-8082-80384eaeabfc","system_id":"levelo_inurba_marseille","lat":43.305721,"lon":5.401862,"is_reserved":false,"is_disabled":true,"rental_uris":{"android":"levelo://app?vid=99f73d8c-ff21-451c-8082-80384eaeabfc","ios":"levelo://app?vid=99f73d8c-ff21-451c-8082-80384eaeabfc"},"vehicle_type_id":"4","last_reported":1747930376,"current_range_meters":0,"station_id":"","pricing_plan_id":"cebpf4jnsgd1na2vs0mg"},{"bike_id":"c306fa7d-481e-4ae3-9585-ff4c1f5ddcb9","system_id":"levelo_inurba_marseille","lat":43.349549,"lon":5.379327,"is_reserved":false,"is_disabled":true,"rental_uris":{"android":"levelo://app?vid=c306fa7d-481e-4ae3-9585-ff4c1f5ddcb9","ios":"levelo://app?vid=c306fa7d-481e-4ae3-9585-ff4c1f5ddcb9"},"vehicle_type_id":"4","last_reported":1747930376,"current_range_meters":0,"station_id":"","pricing_plan_id":"cebpf4jnsgd1na2vs0mg"},{"bike_id":"c2b4a03e-0b64-4ca0-8ea3-612bc6668100","system_id":"levelo_inurba_marseille","lat":43.31407,"lon":5.37571,"is_reserved":false,"is_disabled":true,"rental_uris":{"android":"levelo://app?vid=c2b4a03e-0b64-4ca0-8ea3-612bc6668100","ios":"levelo://app?vid=c2b4a03e-0b64-4ca0-8ea3-612bc6668100"},"vehicle_type_id":"4","last_reported":1747930376,"current_range_meters":0,"station_id":"","pricing_plan_id":"cebpf4jnsgd1na2vs0mg"},{"bike_id":"8f0f531d-6a65-4647-8a6f-baa3d982f42f","system_id":"levelo_inurba_marseille","lat":43.28152,"lon":5.42546,"is_reserved":false,"is_disabled":true,"rental_uris":{"android":"levelo://app?vid=8f0f531d-6a65-4647-8a6f-baa3d982f42f","ios":"levelo://app?vid=8f0f531d-6a65-4647-8a6f-baa3d982f42f"},"vehicle_type_id":"4","last_reported":1747930376,"current_range_meters":0,"station_id":"","pricing_plan_id":"cebpf4jnsgd1na2vs0mg"},{"bike_id":"138e0a65-efcb-4c7f-a002-7ca5f532909d","system_id":"levelo_inurba_marseille","lat":43.30985,"lon":5.38483,"is_reserved":false,"is_disabled":true,"rental_uris":{"android":"levelo://app?vid=138e0a65-efcb-4c7f-a002-7ca5f532909d","ios":"levelo://app?vid=138e0a65-efcb-4c7f-a002-7ca5f532909d"},"vehicle_type_id":"4","last_reported":1747930376,"current_range_meters":0,"station_id":"","pricing_plan_id":"cebpf4jnsgd1na2vs0mg"},{"bike_id":"70c5c5ad-5e66-4a49-9450-c4d67d96b788","system_id":"levelo_inurba_marseille","lat":43.27121,"lon":5.427553,"is_reserved":false,"is_disabled":true,"rental_uris":{"android":"levelo://app?vid=70c5c5ad-5e66-4a49-9450-c4d67d96b788","ios":"levelo://app?vid=70c5c5ad-5e66-4a49-9450-c4d67d96b788"},"vehicle_type_id":"4","last_reported":1747930376,"current_range_meters":0,"station_id":"","pricing_plan_id":"cebpf4jnsgd1na2vs0mg"},{"bike_id":"9913adaa-d53d-44af-8cc0-e1c41d052752","system_id":"levelo_inurba_marseille","lat":43.27969,"lon":5.38622,"is_reserved":false,"is_disabled":true,"rental_uris":{"android":"levelo://app?vid=9913adaa-d53d-44af-8cc0-e1c41d052752","ios":"levelo://app?vid=9913adaa-d53d-44af-8cc0-e1c41d052752"},"vehicle_type_id":"4","last_reported":1747930376,"current_range_meters":0,"station_id":"","pricing_plan_id":"cebpf4jnsgd1na2vs0mg"},{"bike_id":"5281ff50-15a3-4882-a775-51088d6a98cc","system_id":"levelo_inurba_marseille","lat":43.3125,"lon":5.37813,"is_reserved":false,"is_disabled":true,"rental_uris":{"android":"levelo://app?vid=5281ff50-15a3-4882-a775-51088d6a98cc","ios":"levelo://app?vid=5281ff50-15a3-4882-a775-51088d6a98cc"},"vehicle_type_id":"4","last_reported":1747930376,"current_range_meters":0,"station_id":"","pricing_plan_id":"cebpf4jnsgd1na2vs0mg"},{"bike_id":"3a75b500-cf80-459c-8df1-4ddbe3578bda","system_id":"levelo_inurba_marseille","lat":43.30247,"lon":5.39185,"is_reserved":false,"is_disabled":true,"rental_uris":{"android":"levelo://app?vid=3a75b500-cf80-459c-8df1-4ddbe3578bda","ios":"levelo://app?vid=3a75b500-cf80-459c-8df1-4ddbe3578bda"},"vehicle_type_id":"4","last_reported":1747930376,"current_range_meters":0,"station_id":"","pricing_plan_id":"cebpf4jnsgd1na2vs0mg"},{"bike_id":"e9dd3aa4-b5e7-4480-926d-d7f537719bfa","system_id":"levelo_inurba_marseille","lat":43.230331,"lon":5.401847,"is_reserved":false,"is_disabled":true,"rental_uris":{"android":"levelo://app?vid=e9dd3aa4-b5e7-4480-926d-d7f537719bfa","ios":"levelo://app?vid=e9dd3aa4-b5e7-4480-926d-d7f537719bfa"},"vehicle_type_id":"4","last_reported":1747930376,"current_range_meters":0,"station_id":"","pricing_plan_id":"cebpf4jnsgd1na2vs0mg"},{"bike_id":"14603e41-b2dd-4757-a53c-2e366aa4f983","system_id":"levelo_inurba_marseille","lat":43.27006,"lon":5.42831,"is_reserved":false,"is_disabled":true,"rental_uris":{"android":"levelo://app?vid=14603e41-b2dd-4757-a53c-2e366aa4f983","ios":"levelo://app?vid=14603e41-b2dd-4757-a53c-2e366aa4f983"},"vehicle_type_id":"4","last_reported":1747930376,"current_range_meters":0,"station_id":"","pricing_plan_id":"cebpf4jnsgd1na2vs0mg"},{"bike_id":"04066281-a3b8-4a23-a637-ef3dca57e857","system_id":"levelo_inurba_marseille","lat":43.30552,"lon":5.36544,"is_reserved":false,"is_disabled":true,"rental_uris":{"android":"levelo://app?vid=04066281-a3b8-4a23-a637-ef3dca57e857","ios":"levelo://app?vid=04066281-a3b8-4a23-a637-ef3dca57e857"},"vehicle_type_id":"4","last_reported":1747930376,"current_range_meters":0,"station_id":"ce4bgs12rcd13ifvqcag","pricing_plan_id":"cebpf4jnsgd1na2vs0mg"},{"bike_id":"c2566722-4a95-4bc8-9608-cf1d194bfbb1","system_id":"levelo_inurba_marseille","lat":43.29032,"lon":5.37563,"is_reserved":false,"is_disabled":true,"rental_uris":{"android":"levelo://app?vid=c2566722-4a95-4bc8-9608-cf1d194bfbb1","ios":"levelo://app?vid=c2566722-4a95-4bc8-9608-cf1d194bfbb1"},"vehicle_type_id":"4","last_reported":1747930376,"current_range_meters":0,"station_id":"ce4bh692rcd13ifvqe90","pricing_plan_id":"cebpf4jnsgd1na2vs0mg"},{"bike_id":"28f5641c-3b88-45e6-8a4e-c4db2aff452a","system_id":"levelo_inurba_marseille","lat":43.28034,"lon":5.36936,"is_reserved":false,"is_disabled":true,"rental_uris":{"android":"levelo://app?vid=28f5641c-3b88-45e6-8a4e-c4db2aff452a","ios":"levelo://app?vid=28f5641c-3b88-45e6-8a4e-c4db2aff452a"},"vehicle_type_id":"4","last_reported":1747930376,"current_range_meters":0,"station_id":"ce4bha12rcd13ifvqef0","pricing_plan_id":"cebpf4jnsgd1na2vs0mg"},{"bike_id":"43c6fc20-41d8-4b35-b01f-8c10ad0ac4d6","system_id":"levelo_inurba_marseille","lat":43.28025,"lon":5.36946,"is_reserved":false,"is_disabled":true,"rental_uris":{"android":"levelo://app?vid=43c6fc20-41d8-4b35-b01f-8c10ad0ac4d6","ios":"levelo://app?vid=43c6fc20-41d8-4b35-b01f-8c10ad0ac4d6"},"vehicle_type_id":"4","last_reported":1747930376,"current_range_meters":0,"station_id":"ce4bha12rcd13ifvqef0","pricing_plan_id":"cebpf4jnsgd1na2vs0mg"},{"bike_id":"6bf0e2c3-31df-4eb8-b0b7-ba63d6ec4ffc","system_id":"levelo_inurba_marseille","lat":43.27379,"lon":5.36256,"is_reserved":false,"is_disabled":true,"rental_uris":{"android":"levelo://app?vid=6bf0e2c3-31df-4eb8-b0b7-ba63d6ec4ffc","ios":"levelo://app?vid=6bf0e2c3-31df-4eb8-b0b7-ba63d6ec4ffc"},"vehicle_type_id":"4","last_reported":1747930376,"current_range_meters":0,"station_id":"ce4bhbh2rcd13ifvqeo0","pricing_plan_id":"cebpf4jnsgd1na2vs0mg"},{"bike_id":"0d76c167-2801-4667-815b-55fca88adbf1","system_id":"levelo_inurba_marseille","lat":43.2862,"lon":5.35105,"is_reserved":false,"is_disabled":false,"rental_uris":{"android":"levelo://app?vid=0d76c167-2801-4667-815b-55fca88adbf1","ios":"levelo://app?vid=0d76c167-2801-4667-815b-55fca88adbf1"},"vehicle_type_id":"4","last_reported":1747930376,"current_range_meters":0,"station_id":"ce4bhch2rcd13ifvqeug","pricing_plan_id":"cebpf4jnsgd1na2vs0mg"},{"bike_id":"56ae3812-e361-4564-b157-4dc0683e3b6f","system_id":"levelo_inurba_marseille","lat":43.26542,"lon":5.39019,"is_reserved":false,"is_disabled":true,"rental_uris":{"android":"levelo://app?vid=56ae3812-e361-4564-b157-4dc0683e3b6f","ios":"levelo://app?vid=56ae3812-e361-4564-b157-4dc0683e3b6f"},"vehicle_type_id":"4","last_reported":1747930376,"current_range_meters":0,"station_id":"ce4bhe12rcd13ifvqf30","pricing_plan_id":"cebpf4jnsgd1na2vs0mg"},{"bike_id":"a9cacd26-db49-47da-9eb1-4a140de3e3ff","system_id":"levelo_inurba_marseille","lat":43.26955,"lon":5.38629,"is_reserved":false,"is_disabled":true,"rental_uris":{"android":"levelo://app?vid=a9cacd26-db49-47da-9eb1-4a140de3e3ff","ios":"levelo://app?vid=a9cacd26-db49-47da-9eb1-4a140de3e3ff"},"vehicle_type_id":"4","last_reported":1747930376,"current_range_meters":0,"station_id":"ce4bhh92rcd13ifvqfh0","pricing_plan_id":"cebpf4jnsgd1na2vs0mg"},{"bike_id":"ddea1036-6b99-4d66-853c-ddea54e4d5b4","system_id":"levelo_inurba_marseille","lat":43.27675,"lon":5.38906,"is_reserved":false,"is_disabled":true,"rental_uris":{"android":"levelo://app?vid=ddea1036-6b99-4d66-853c-ddea54e4d5b4","ios":"levelo://app?vid=ddea1036-6b99-4d66-853c-ddea54e4d5b4"},"vehicle_type_id":"4","last_reported":1747930376,"current_range_meters":0,"station_id":"ce4bhi12rcd13ifvqfo0","pricing_plan_id":"cebpf4jnsgd1na2vs0mg"},{"bike_id":"20a476e6-0c93-4a9e-820d-51a73f4cd511","system_id":"levelo_inurba_marseille","lat":43.278351,"lon":5.392079,"is_reserved":false,"is_disabled":true,"rental_uris":{"android":"levelo://app?vid=20a476e6-0c93-4a9e-820d-51a73f4cd511","ios":"levelo://app?vid=20a476e6-0c93-4a9e-820d-51a73f4cd511"},"vehicle_type_id":"4","last_reported":1747930376,"current_range_meters":0,"station_id":"ce4bhjp2rcd13ifvqga0","pricing_plan_id":"cebpf4jnsgd1na2vs0mg"},{"bike_id":"8edaf7ca-c6f9-4597-89d3-4891595aeec2","system_id":"levelo_inurba_marseille","lat":43.24179,"lon":5.39734,"is_reserved":false,"is_disabled":true,"rental_uris":{"android":"levelo://app?vid=8edaf7ca-c6f9-4597-89d3-4891595aeec2","ios":"levelo://app?vid=8edaf7ca-c6f9-4597-89d3-4891595aeec2"},"vehicle_type_id":"4","last_reported":1747930376,"current_range_meters":0,"station_id":"ce4bhn12rcd13ifvqgpg","pricing_plan_id":"cebpf4jnsgd1na2vs0mg"},{"bike_id":"42d9fab6-cbba-4123-93b7-153bf9b8243c","system_id":"levelo_inurba_marseille","lat":43.30352,"lon":5.41881,"is_reserved":false,"is_disabled":true,"rental_uris":{"android":"levelo://app?vid=42d9fab6-cbba-4123-93b7-153bf9b8243c","ios":"levelo://app?vid=42d9fab6-cbba-4123-93b7-153bf9b8243c"},"vehicle_type_id":"4","last_reported":1747930376,"current_range_meters":0,"station_id":"ce4bhop2rcd13ifvqh7g","pricing_plan_id":"cebpf4jnsgd1na2vs0mg"},{"bike_id":"1539c708-ed9b-4a02-811a-8a649ebdf968","system_id":"levelo_inurba_marseille","lat":43.303504,"lon":5.418924,"is_reserved":false,"is_disabled":true,"rental_uris":{"android":"levelo://app?vid=1539c708-ed9b-4a02-811a-8a649ebdf968","ios":"levelo://app?vid=1539c708-ed9b-4a02-811a-8a649ebdf968"},"vehicle_type_id":"4","last_reported":1747930376,"current_range_meters":0,"station_id":"ce4bhop2rcd13ifvqh7g","pricing_plan_id":"cebpf4jnsgd1na2vs0mg"},{"bike_id":"90da061c-61d4-42c0-abdf-9bc76325e056","system_id":"levelo_inurba_marseille","lat":43.2955,"lon":5.42295,"is_reserved":false,"is_disabled":true,"rental_uris":{"android":"levelo://app?vid=90da061c-61d4-42c0-abdf-9bc76325e056","ios":"levelo://app?vid=90da061c-61d4-42c0-abdf-9bc76325e056"},"vehicle_type_id":"4","last_reported":1747930376,"current_range_meters":0,"station_id":"ce4bhph2rcd13ifvqhdg","pricing_plan_id":"cebpf4jnsgd1na2vs0mg"},{"bike_id":"e6443527-757d-4b43-946e-ae12740f228a","system_id":"levelo_inurba_marseille","lat":43.29923,"lon":5.43666,"is_reserved":false,"is_disabled":true,"rental_uris":{"android":"levelo://app?vid=e6443527-757d-4b43-946e-ae12740f228a","ios":"levelo://app?vid=e6443527-757d-4b43-946e-ae12740f228a"},"vehicle_type_id":"4","last_reported":1747930376,"current_range_meters":0,"station_id":"ce4bhpp2rcd13ifvqhfg","pricing_plan_id":"cebpf4jnsgd1na2vs0mg"},{"bike_id":"f6e0a981-db2e-4695-a996-820453f5332a","system_id":"levelo_inurba_marseille","lat":43.32334,"lon":5.40618,"is_reserved":false,"is_disabled":true,"rental_uris":{"android":"levelo://app?vid=f6e0a981-db2e-4695-a996-820453f5332a","ios":"levelo://app?vid=f6e0a981-db2e-4695-a996-820453f5332a"},"vehicle_type_id":"4","last_reported":1747930376,"current_range_meters":0,"station_id":"ce4bhq92rcd13ifvqhjg","pricing_plan_id":"cebpf4jnsgd1na2vs0mg"},{"bike_id":"15dcdbbd-a41e-43eb-9ed6-26ec15ce7a50","system_id":"levelo_inurba_marseille","lat":43.21403,"lon":5.34145,"is_reserved":false,"is_disabled":true,"rental_uris":{"android":"levelo://app?vid=15dcdbbd-a41e-43eb-9ed6-26ec15ce7a50","ios":"levelo://app?vid=15dcdbbd-a41e-43eb-9ed6-26ec15ce7a50"},"vehicle_type_id":"4","last_reported":1747930376,"current_range_meters":400,"station_id":"","pricing_plan_id":"cebpf4jnsgd1na2vs0mg"},{"bike_id":"146e9369-51b1-4cac-9114-d0b6b7c3b02d","system_id":"levelo_inurba_marseille","lat":43.29965,"lon":5.38503,"is_reserved":false,"is_disabled":true,"rental_uris":{"android":"levelo://app?vid=146e9369-51b1-4cac-9114-d0b6b7c3b02d","ios":"levelo://app?vid=146e9369-51b1-4cac-9114-d0b6b7c3b02d"},"vehicle_type_id":"4","last_reported":1747930376,"current_range_meters":400,"station_id":"ce4bgj92rcd13ifvqbd0","pricing_plan_id":"cebpf4jnsgd1na2vs0mg"},{"bike_id":"767906d6-7b5f-406e-b8b5-9a40b9c81d9a","system_id":"levelo_inurba_marseille","lat":43.28105,"lon":5.37843,"is_reserved":false,"is_disabled":true,"rental_uris":{"android":"levelo://app?vid=767906d6-7b5f-406e-b8b5-9a40b9c81d9a","ios":"levelo://app?vid=767906d6-7b5f-406e-b8b5-9a40b9c81d9a"},"vehicle_type_id":"4","last_reported":1747930376,"current_range_meters":400,"station_id":"ce4bha12rcd13ifvqee0","pricing_plan_id":"cebpf4jnsgd1na2vs0mg"},{"bike_id":"a48257a4-35f8-4931-a769-62509faaba98","system_id":"levelo_inurba_marseille","lat":43.29277,"lon":5.36848,"is_reserved":false,"is_disabled":true,"rental_uris":{"android":"levelo://app?vid=a48257a4-35f8-4931-a769-62509faaba98","ios":"levelo://app?vid=a48257a4-35f8-4931-a769-62509faaba98"},"vehicle_type_id":"4","last_reported":1747930376,"current_range_meters":400,"station_id":"ce4bhbp2rcd13ifvqesg","pricing_plan_id":"cebpf4jnsgd1na2vs0mg"},{"bike_id":"540f862d-a422-4764-a44c-a093c6e74180","system_id":"levelo_inurba_marseille","lat":43.26556,"lon":5.37314,"is_reserved":false,"is_disabled":true,"rental_uris":{"android":"levelo://app?vid=540f862d-a422-4764-a44c-a093c6e74180","ios":"levelo://app?vid=540f862d-a422-4764-a44c-a093c6e74180"},"vehicle_type_id":"4","last_reported":1747930376,"current_range_meters":400,"station_id":"ce4bhg12rcd13ifvqf70","pricing_plan_id":"cebpf4jnsgd1na2vs0mg"},{"bike_id":"f74712f7-0ad0-4ebb-9540-0c60cadc2028","system_id":"levelo_inurba_marseille","lat":43.26933,"lon":5.38916,"is_reserved":false,"is_disabled":true,"rental_uris":{"android":"levelo://app?vid=f74712f7-0ad0-4ebb-9540-0c60cadc2028","ios":"levelo://app?vid=f74712f7-0ad0-4ebb-9540-0c60cadc2028"},"vehicle_type_id":"4","last_reported":1747930376,"current_range_meters":800,"station_id":"ce4bhhh2rcd13ifvqfl0","pricing_plan_id":"cebpf4jnsgd1na2vs0mg"},{"bike_id":"1a923fe3-9b61-4f75-993d-10058a181d6d","system_id":"levelo_inurba_marseille","lat":43.2175,"lon":5.34599,"is_reserved":false,"is_disabled":true,"rental_uris":{"android":"levelo://app?vid=1a923fe3-9b61-4f75-993d-10058a181d6d","ios":"levelo://app?vid=1a923fe3-9b61-4f75-993d-10058a181d6d"},"vehicle_type_id":"4","last_reported":1747930376,"current_range_meters":800,"station_id":"st_cvj6r9ubvosntc0bgbag","pricing_plan_id":"cebpf4jnsgd1na2vs0mg"},{"bike_id":"d8bc2224-be57-4968-9c83-9fa46f458984","system_id":"levelo_inurba_marseille","lat":43.282,"lon":5.3904,"is_reserved":false,"is_disabled":true,"rental_uris":{"android":"levelo://app?vid=d8bc2224-be57-4968-9c83-9fa46f458984","ios":"levelo://app?vid=d8bc2224-be57-4968-9c83-9fa46f458984"},"vehicle_type_id":"4","last_reported":1747930376,"current_range_meters":1200,"station_id":"","pricing_plan_id":"cebpf4jnsgd1na2vs0mg"},{"bike_id":"58c09d65-0bbc-4d55-9bab-935c66672103","system_id":"levelo_inurba_marseille","lat":43.27376,"lon":5.36256,"is_reserved":false,"is_disabled":true,"rental_uris":{"android":"levelo://app?vid=58c09d65-0bbc-4d55-9bab-935c66672103","ios":"levelo://app?vid=58c09d65-0bbc-4d55-9bab-935c66672103"},"vehicle_type_id":"4","last_reported":1747930376,"current_range_meters":1200,"station_id":"ce4bhbh2rcd13ifvqeo0","pricing_plan_id":"cebpf4jnsgd1na2vs0mg"},{"bike_id":"ea94c918-38e4-4d44-a71e-0a37ee781f00","system_id":"levelo_inurba_marseille","lat":43.29226,"lon":5.36062,"is_reserved":false,"is_disabled":true,"rental_uris":{"android":"levelo://app?vid=ea94c918-38e4-4d44-a71e-0a37ee781f00","ios":"levelo://app?vid=ea94c918-38e4-4d44-a71e-0a37ee781f00"},"vehicle_type_id":"4","last_reported":1747930376,"current_range_meters":1200,"station_id":"ce4bhbh2rcd13ifvqeqg","pricing_plan_id":"cebpf4jnsgd1na2vs0mg"},{"bike_id":"addacb63-eaa1-4b88-b2d5-f495030c26ce","system_id":"levelo_inurba_marseille","lat":43.23157,"lon":5.43728,"is_reserved":false,"is_disabled":true,"rental_uris":{"android":"levelo://app?vid=addacb63-eaa1-4b88-b2d5-f495030c26ce","ios":"levelo://app?vid=addacb63-eaa1-4b88-b2d5-f495030c26ce"},"vehicle_type_id":"4","last_reported":1747930376,"current_range_meters":1200,"station_id":"ce4bhmp2rcd13ifvqgog","pricing_plan_id":"cebpf4jnsgd1na2vs0mg"},{"bike_id":"ca1ef42c-a88e-4a5c-bdc1-61570156b583","system_id":"levelo_inurba_marseille","lat":43.23138,"lon":5.43728,"is_reserved":false,"is_disabled":true,"rental_uris":{"android":"levelo://app?vid=ca1ef42c-a88e-4a5c-bdc1-61570156b583","ios":"levelo://app?vid=ca1ef42c-a88e-4a5c-bdc1-61570156b583"},"vehicle_type_id":"4","last_reported":1747930376,"current_range_meters":1200,"station_id":"ce4bhmp2rcd13ifvqgog","pricing_plan_id":"cebpf4jnsgd1na2vs0mg"},{"bike_id":"634cd4eb-86da-4d1a-adbb-ae26e13bb077","system_id":"levelo_inurba_marseille","lat":43.23178,"lon":5.39993,"is_reserved":false,"is_disabled":true,"rental_uris":{"android":"levelo://app?vid=634cd4eb-86da-4d1a-adbb-ae26e13bb077","ios":"levelo://app?vid=634cd4eb-86da-4d1a-adbb-ae26e13bb077"},"vehicle_type_id":"4","last_reported":1747930376,"current_range_meters":1200,"station_id":"ce4bhn12rcd13ifvqgqg","pricing_plan_id":"cebpf4jnsgd1na2vs0mg"},{"bike_id":"d6d19a86-74c8-4d94-bcfc-2241de5038d3","system_id":"levelo_inurba_marseille","lat":43.27996,"lon":5.41666,"is_reserved":false,"is_disabled":true,"rental_uris":{"android":"levelo://app?vid=d6d19a86-74c8-4d94-bcfc-2241de5038d3","ios":"levelo://app?vid=d6d19a86-74c8-4d94-bcfc-2241de5038d3"},"vehicle_type_id":"4","last_reported":1747930376,"current_range_meters":1200,"station_id":"ce4bho12rcd13ifvqh1g","pricing_plan_id":"cebpf4jnsgd1na2vs0mg"},{"bike_id":"005f73d7-eef9-4171-9c05-5855f079a097","system_id":"levelo_inurba_marseille","lat":43.28153,"lon":5.42643,"is_reserved":false,"is_disabled":true,"rental_uris":{"android":"levelo://app?vid=005f73d7-eef9-4171-9c05-5855f079a097","ios":"levelo://app?vid=005f73d7-eef9-4171-9c05-5855f079a097"},"vehicle_type_id":"4","last_reported":1747930376,"current_range_meters":1600,"station_id":"","pricing_plan_id":"cebpf4jnsgd1na2vs0mg"},{"bike_id":"0c565384-7e42-4969-b93e-dfb8fa816a4c","system_id":"levelo_inurba_marseille","lat":43.29302,"lon":5.37178,"is_reserved":false,"is_disabled":true,"rental_uris":{"android":"levelo://app?vid=0c565384-7e42-4969-b93e-dfb8fa816a4c","ios":"levelo://app?vid=0c565384-7e42-4969-b93e-dfb8fa816a4c"},"vehicle_type_id":"4","last_reported":1747930376,"current_range_meters":1600,"station_id":"ce4bgh92rcd13ifvqb40","pricing_plan_id":"cebpf4jnsgd1na2vs0mg"},{"bike_id":"63d5785b-7d3d-4f28-b506-2424de0799d2","system_id":"levelo_inurba_marseille","lat":43.2743,"lon":5.39424,"is_reserved":false,"is_disabled":true,"rental_uris":{"android":"levelo://app?vid=63d5785b-7d3d-4f28-b506-2424de0799d2","ios":"levelo://app?vid=63d5785b-7d3d-4f28-b506-2424de0799d2"},"vehicle_type_id":"4","last_reported":1747930376,"current_range_meters":1600,"station_id":"ce4bhdp2rcd13ifvqf20","pricing_plan_id":"cebpf4jnsgd1na2vs0mg"},{"bike_id":"bada48d6-8349-4a14-ad07-9095a4c29448","system_id":"levelo_inurba_marseille","lat":43.26555,"lon":5.37283,"is_reserved":false,"is_disabled":true,"rental_uris":{"android":"levelo://app?vid=bada48d6-8349-4a14-ad07-9095a4c29448","ios":"levelo://app?vid=bada48d6-8349-4a14-ad07-9095a4c29448"},"vehicle_type_id":"4","last_reported":1747930376,"current_range_meters":1600,"station_id":"ce4bhg12rcd13ifvqf70","pricing_plan_id":"cebpf4jnsgd1na2vs0mg"},{"bike_id":"7c0c72e1-ce58-414f-8812-5aea89ecaa3b","system_id":"levelo_inurba_marseille","lat":43.27962,"lon":5.3875,"is_reserved":false,"is_disabled":true,"rental_uris":{"android":"levelo://app?vid=7c0c72e1-ce58-414f-8812-5aea89ecaa3b","ios":"levelo://app?vid=7c0c72e1-ce58-414f-8812-5aea89ecaa3b"},"vehicle_type_id":"4","last_reported":1747930376,"current_range_meters":1600,"station_id":"ce4bhg12rcd13ifvqf80","pricing_plan_id":"cebpf4jnsgd1na2vs0mg"},{"bike_id":"831094cf-aef6-4e1a-b4cf-28d622d8cc27","system_id":"levelo_inurba_marseille","lat":43.243872,"lon":5.370565,"is_reserved":false,"is_disabled":true,"rental_uris":{"android":"levelo://app?vid=831094cf-aef6-4e1a-b4cf-28d622d8cc27","ios":"levelo://app?vid=831094cf-aef6-4e1a-b4cf-28d622d8cc27"},"vehicle_type_id":"4","last_reported":1747930376,"current_range_meters":1600,"station_id":"ce4bhhh2rcd13ifvqfk0","pricing_plan_id":"cebpf4jnsgd1na2vs0mg"},{"bike_id":"7fd75abe-7700-4fcc-b557-a3d0c6f72784","system_id":"levelo_inurba_marseille","lat":43.30267,"lon":5.37709,"is_reserved":false,"is_disabled":false,"rental_uris":{"android":"levelo://app?vid=7fd75abe-7700-4fcc-b557-a3d0c6f72784","ios":"levelo://app?vid=7fd75abe-7700-4fcc-b557-a3d0c6f72784"},"vehicle_type_id":"4","last_reported":1747930376,"current_range_meters":2000,"station_id":"ce4bguh2rcd13ifvqcj0","pricing_plan_id":"cebpf4jnsgd1na2vs0mg"},{"bike_id":"27fcfb7f-fd7e-41b0-8939-c103136da582","system_id":"levelo_inurba_marseille","lat":43.30926,"lon":5.40161,"is_reserved":false,"is_disabled":true,"rental_uris":{"android":"levelo://app?vid=27fcfb7f-fd7e-41b0-8939-c103136da582","ios":"levelo://app?vid=27fcfb7f-fd7e-41b0-8939-c103136da582"},"vehicle_type_id":"4","last_reported":1747930376,"current_range_meters":2000,"station_id":"ce4bgvp2rcd13ifvqct0","pricing_plan_id":"cebpf4jnsgd1na2vs0mg"},{"bike_id":"894b4cbb-d9c5-489e-8d2e-a8fd9ca64a2c","system_id":"levelo_inurba_marseille","lat":43.292694,"lon":5.384296,"is_reserved":false,"is_disabled":true,"rental_uris":{"android":"levelo://app?vid=894b4cbb-d9c5-489e-8d2e-a8fd9ca64a2c","ios":"levelo://app?vid=894b4cbb-d9c5-489e-8d2e-a8fd9ca64a2c"},"vehicle_type_id":"4","last_reported":1747930376,"current_range_meters":2000,"station_id":"ce4bh692rcd13ifvqea0","pricing_plan_id":"cebpf4jnsgd1na2vs0mg"},{"bike_id":"7bf3196f-f0d8-47da-a407-f354396185ad","system_id":"levelo_inurba_marseille","lat":43.27405,"lon":5.39418,"is_reserved":false,"is_disabled":true,"rental_uris":{"android":"levelo://app?vid=7bf3196f-f0d8-47da-a407-f354396185ad","ios":"levelo://app?vid=7bf3196f-f0d8-47da-a407-f354396185ad"},"vehicle_type_id":"4","last_reported":1747930376,"current_range_meters":2000,"station_id":"ce4bhdp2rcd13ifvqf20","pricing_plan_id":"cebpf4jnsgd1na2vs0mg"},{"bike_id":"b0f46fae-26c0-41cc-8dbb-0cf493d87dc9","system_id":"levelo_inurba_marseille","lat":43.260216,"lon":5.375528,"is_reserved":false,"is_disabled":false,"rental_uris":{"android":"levelo://app?vid=b0f46fae-26c0-41cc-8dbb-0cf493d87dc9","ios":"levelo://app?vid=b0f46fae-26c0-41cc-8dbb-0cf493d87dc9"},"vehicle_type_id":"4","last_reported":1747930376,"current_range_meters":2000,"station_id":"ce4bhgh2rcd13ifvqfa0","pricing_plan_id":"cebpf4jnsgd1na2vs0mg"},{"bike_id":"b8b511c7-6f48-45be-97af-1e0036b54cc5","system_id":"levelo_inurba_marseille","lat":43.27367,"lon":5.42379,"is_reserved":false,"is_disabled":false,"rental_uris":{"android":"levelo://app?vid=b8b511c7-6f48-45be-97af-1e0036b54cc5","ios":"levelo://app?vid=b8b511c7-6f48-45be-97af-1e0036b54cc5"},"vehicle_type_id":"4","last_reported":1747930376,"current_range_meters":2800,"station_id":"","pricing_plan_id":"cebpf4jnsgd1na2vs0mg"},{"bike_id":"407151e9-0395-4036-8971-6d7b1f7f726c","system_id":"levelo_inurba_marseille","lat":43.31327,"lon":5.39701,"is_reserved":false,"is_disabled":false,"rental_uris":{"android":"levelo://app?vid=407151e9-0395-4036-8971-6d7b1f7f726c","ios":"levelo://app?vid=407151e9-0395-4036-8971-6d7b1f7f726c"},"vehicle_type_id":"4","last_reported":1747930376,"current_range_meters":2800,"station_id":"ce4bgvp2rcd13ifvqcu0","pricing_plan_id":"cebpf4jnsgd1na2vs0mg"},{"bike_id":"722c8e5d-e824-4ca3-94ed-a081e952d81b","system_id":"levelo_inurba_marseille","lat":43.28718,"lon":5.3795,"is_reserved":false,"is_disabled":false,"rental_uris":{"android":"levelo://app?vid=722c8e5d-e824-4ca3-94ed-a081e952d81b","ios":"levelo://app?vid=722c8e5d-e824-4ca3-94ed-a081e952d81b"},"vehicle_type_id":"4","last_reported":1747930376,"current_range_meters":2800,"station_id":"ce4bh9p2rcd13ifvqec0","pricing_plan_id":"cebpf4jnsgd1na2vs0mg"},{"bike_id":"3d1fd4c6-366c-4db3-9c5a-2e9aef585ab6","system_id":"levelo_inurba_marseille","lat":43.279616,"lon":5.387353,"is_reserved":false,"is_disabled":false,"rental_uris":{"android":"levelo://app?vid=3d1fd4c6-366c-4db3-9c5a-2e9aef585ab6","ios":"levelo://app?vid=3d1fd4c6-366c-4db3-9c5a-2e9aef585ab6"},"vehicle_type_id":"4","last_reported":1747930376,"current_range_meters":2800,"station_id":"ce4bhg12rcd13ifvqf80","pricing_plan_id":"cebpf4jnsgd1na2vs0mg"},{"bike_id":"cdb3928a-53be-4618-9fce-1e52c9fc3da2","system_id":"levelo_inurba_marseille","lat":43.26961,"lon":5.38625,"is_reserved":false,"is_disabled":false,"rental_uris":{"android":"levelo://app?vid=cdb3928a-53be-4618-9fce-1e52c9fc3da2","ios":"levelo://app?vid=cdb3928a-53be-4618-9fce-1e52c9fc3da2"},"vehicle_type_id":"4","last_reported":1747930376,"current_range_meters":2800,"station_id":"ce4bhh92rcd13ifvqfh0","pricing_plan_id":"cebpf4jnsgd1na2vs0mg"},{"bike_id":"bc5e3b0d-996d-451d-b0c4-a538371e80b6","system_id":"levelo_inurba_marseille","lat":43.26502,"lon":5.39545,"is_reserved":false,"is_disabled":false,"rental_uris":{"android":"levelo://app?vid=bc5e3b0d-996d-451d-b0c4-a538371e80b6","ios":"levelo://app?vid=bc5e3b0d-996d-451d-b0c4-a538371e80b6"},"vehicle_type_id":"4","last_reported":1747930376,"current_range_meters":2800,"station_id":"ce4bhi12rcd13ifvqfq0","pricing_plan_id":"cebpf4jnsgd1na2vs0mg"},{"bike_id":"e8162579-a5ad-485f-ad83-fec8a2ebe7e1","system_id":"levelo_inurba_marseille","lat":43.26826,"lon":5.39099,"is_reserved":false,"is_disabled":false,"rental_uris":{"android":"levelo://app?vid=e8162579-a5ad-485f-ad83-fec8a2ebe7e1","ios":"levelo://app?vid=e8162579-a5ad-485f-ad83-fec8a2ebe7e1"},"vehicle_type_id":"4","last_reported":1747930376,"current_range_meters":3200,"station_id":"","pricing_plan_id":"cebpf4jnsgd1na2vs0mg"},{"bike_id":"aadb4e87-007d-4a99-9b46-2f19781ad0c3","system_id":"levelo_inurba_marseille","lat":43.31118,"lon":5.37758,"is_reserved":false,"is_disabled":false,"rental_uris":{"android":"levelo://app?vid=aadb4e87-007d-4a99-9b46-2f19781ad0c3","ios":"levelo://app?vid=aadb4e87-007d-4a99-9b46-2f19781ad0c3"},"vehicle_type_id":"4","last_reported":1747930376,"current_range_meters":3200,"station_id":"ce4bgt92rcd13ifvqcg0","pricing_plan_id":"cebpf4jnsgd1na2vs0mg"},{"bike_id":"6e81fcce-f52d-4eb8-9751-0ec4817491ea","system_id":"levelo_inurba_marseille","lat":43.29415,"lon":5.38627,"is_reserved":false,"is_disabled":false,"rental_uris":{"android":"levelo://app?vid=6e81fcce-f52d-4eb8-9751-0ec4817491ea","ios":"levelo://app?vid=6e81fcce-f52d-4eb8-9751-0ec4817491ea"},"vehicle_type_id":"4","last_reported":1747930376,"current_range_meters":3200,"station_id":"ce4bh2h2rcd13ifvqdh0","pricing_plan_id":"cebpf4jnsgd1na2vs0mg"},{"bike_id":"16cd32cf-160e-46b7-bcd0-d77d1b8c08c9","system_id":"levelo_inurba_marseille","lat":43.28928,"lon":5.383957,"is_reserved":false,"is_disabled":false,"rental_uris":{"android":"levelo://app?vid=16cd32cf-160e-46b7-bcd0-d77d1b8c08c9","ios":"levelo://app?vid=16cd32cf-160e-46b7-bcd0-d77d1b8c08c9"},"vehicle_type_id":"4","last_reported":1747930376,"current_range_meters":3200,"station_id":"ce4bh612rcd13ifvqe6g","pricing_plan_id":"cebpf4jnsgd1na2vs0mg"},{"bike_id":"4aaa0c9a-06f9-4739-9a58-ee92848a6f4b","system_id":"levelo_inurba_marseille","lat":43.23193,"lon":5.35553,"is_reserved":false,"is_disabled":false,"rental_uris":{"android":"levelo://app?vid=4aaa0c9a-06f9-4739-9a58-ee92848a6f4b","ios":"levelo://app?vid=4aaa0c9a-06f9-4739-9a58-ee92848a6f4b"},"vehicle_type_id":"4","last_reported":1747930376,"current_range_meters":3200,"station_id":"ce4bhu92rcd13ifvqi70","pricing_plan_id":"cebpf4jnsgd1na2vs0mg"},{"bike_id":"1ff4dd87-bf56-4ab1-8365-aad71fcb827c","system_id":"levelo_inurba_marseille","lat":43.32564,"lon":5.42742,"is_reserved":false,"is_disabled":false,"rental_uris":{"android":"levelo://app?vid=1ff4dd87-bf56-4ab1-8365-aad71fcb827c","ios":"levelo://app?vid=1ff4dd87-bf56-4ab1-8365-aad71fcb827c"},"vehicle_type_id":"4","last_reported":1747930376,"current_range_meters":3600,"station_id":"","pricing_plan_id":"cebpf4jnsgd1na2vs0mg"},{"bike_id":"46567ea4-4077-4307-97f5-60921028002b","system_id":"levelo_inurba_marseille","lat":43.29567,"lon":5.39986,"is_reserved":false,"is_disabled":false,"rental_uris":{"android":"levelo://app?vid=46567ea4-4077-4307-97f5-60921028002b","ios":"levelo://app?vid=46567ea4-4077-4307-97f5-60921028002b"},"vehicle_type_id":"4","last_reported":1747930376,"current_range_meters":3600,"station_id":"ce4bh312rcd13ifvqdj0","pricing_plan_id":"cebpf4jnsgd1na2vs0mg"},{"bike_id":"93561830-52d9-47cd-84b3-5d792d9af7e5","system_id":"levelo_inurba_marseille","lat":43.29035,"lon":5.39968,"is_reserved":false,"is_disabled":false,"rental_uris":{"android":"levelo://app?vid=93561830-52d9-47cd-84b3-5d792d9af7e5","ios":"levelo://app?vid=93561830-52d9-47cd-84b3-5d792d9af7e5"},"vehicle_type_id":"4","last_reported":1747930376,"current_range_meters":3600,"station_id":"ce4bh392rcd13ifvqdm0","pricing_plan_id":"cebpf4jnsgd1na2vs0mg"},{"bike_id":"1a077ffc-1584-47af-946e-8e75520039b6","system_id":"levelo_inurba_marseille","lat":43.26213,"lon":5.37443,"is_reserved":false,"is_disabled":false,"rental_uris":{"android":"levelo://app?vid=1a077ffc-1584-47af-946e-8e75520039b6","ios":"levelo://app?vid=1a077ffc-1584-47af-946e-8e75520039b6"},"vehicle_type_id":"4","last_reported":1747930376,"current_range_meters":3600,"station_id":"ce4bhgp2rcd13ifvqfc0","pricing_plan_id":"cebpf4jnsgd1na2vs0mg"},{"bike_id":"9a333154-015d-4d33-a114-cde00e959eb3","system_id":"levelo_inurba_marseille","lat":43.27999,"lon":5.40022,"is_reserved":false,"is_disabled":false,"rental_uris":{"android":"levelo://app?vid=9a333154-015d-4d33-a114-cde00e959eb3","ios":"levelo://app?vid=9a333154-015d-4d33-a114-cde00e959eb3"},"vehicle_type_id":"4","last_reported":1747930376,"current_range_meters":3600,"station_id":"ce4bho92rcd13ifvqh4g","pricing_plan_id":"cebpf4jnsgd1na2vs0mg"},{"bike_id":"b973235b-f12b-411f-92e3-a5a8f38fa90c","system_id":"levelo_inurba_marseille","lat":43.29776,"lon":5.37093,"is_reserved":false,"is_disabled":false,"rental_uris":{"android":"levelo://app?vid=b973235b-f12b-411f-92e3-a5a8f38fa90c","ios":"levelo://app?vid=b973235b-f12b-411f-92e3-a5a8f38fa90c"},"vehicle_type_id":"4","last_reported":1747930376,"current_range_meters":4000,"station_id":"ce4bgop2rcd13ifvqc1g","pricing_plan_id":"cebpf4jnsgd1na2vs0mg"},{"bike_id":"8d288138-a90b-4406-838b-5f49aa0a906a","system_id":"levelo_inurba_marseille","lat":43.288814,"lon":5.358906,"is_reserved":false,"is_disabled":false,"rental_uris":{"android":"levelo://app?vid=8d288138-a90b-4406-838b-5f49aa0a906a","ios":"levelo://app?vid=8d288138-a90b-4406-838b-5f49aa0a906a"},"vehicle_type_id":"4","last_reported":1747930376,"current_range_meters":4000,"station_id":"ce4bhb12rcd13ifvqem0","pricing_plan_id":"cebpf4jnsgd1na2vs0mg"},{"bike_id":"8fd732c5-4ab3-47e9-ad3b-9981ffce7f2b","system_id":"levelo_inurba_marseille","lat":43.28618,"lon":5.35102,"is_reserved":false,"is_disabled":false,"rental_uris":{"android":"levelo://app?vid=8fd732c5-4ab3-47e9-ad3b-9981ffce7f2b","ios":"levelo://app?vid=8fd732c5-4ab3-47e9-ad3b-9981ffce7f2b"},"vehicle_type_id":"4","last_reported":1747930376,"current_range_meters":4000,"station_id":"ce4bhch2rcd13ifvqeug","pricing_plan_id":"cebpf4jnsgd1na2vs0mg"},{"bike_id":"3d0639ff-8b20-4d6a-b4b8-0398d02f574b","system_id":"levelo_inurba_marseille","lat":43.25866,"lon":5.39898,"is_reserved":false,"is_disabled":false,"rental_uris":{"android":"levelo://app?vid=3d0639ff-8b20-4d6a-b4b8-0398d02f574b","ios":"levelo://app?vid=3d0639ff-8b20-4d6a-b4b8-0398d02f574b"},"vehicle_type_id":"4","last_reported":1747930376,"current_range_meters":4000,"station_id":"ce4bhl92rcd13ifvqghg","pricing_plan_id":"cebpf4jnsgd1na2vs0mg"},{"bike_id":"76feef3d-928c-43ce-b835-9e9c72ab0039","system_id":"levelo_inurba_marseille","lat":43.2417,"lon":5.36403,"is_reserved":false,"is_disabled":false,"rental_uris":{"android":"levelo://app?vid=76feef3d-928c-43ce-b835-9e9c72ab0039","ios":"levelo://app?vid=76feef3d-928c-43ce-b835-9e9c72ab0039"},"vehicle_type_id":"4","last_reported":1747930376,"current_range_meters":4000,"station_id":"cpo36qri1sfpv3e86is0","pricing_plan_id":"cebpf4jnsgd1na2vs0mg"},{"bike_id":"f1defcfb-b7bd-4f03-904c-d952e32e223e","system_id":"levelo_inurba_marseille","lat":43.2944,"lon":5.385453,"is_reserved":false,"is_disabled":false,"rental_uris":{"android":"levelo://app?vid=f1defcfb-b7bd-4f03-904c-d952e32e223e","ios":"levelo://app?vid=f1defcfb-b7bd-4f03-904c-d952e32e223e"},"vehicle_type_id":"4","last_reported":1747930376,"current_range_meters":4400,"station_id":"ce4bh192rcd13ifvqdd0","pricing_plan_id":"cebpf4jnsgd1na2vs0mg"},{"bike_id":"ebc0b945-4138-439f-a1a3-b63dc36c82bb","system_id":"levelo_inurba_marseille","lat":43.28851,"lon":5.39297,"is_reserved":false,"is_disabled":false,"rental_uris":{"android":"levelo://app?vid=ebc0b945-4138-439f-a1a3-b63dc36c82bb","ios":"levelo://app?vid=ebc0b945-4138-439f-a1a3-b63dc36c82bb"},"vehicle_type_id":"4","last_reported":1747930376,"current_range_meters":4400,"station_id":"ce4bh2p2rcd13ifvqdi0","pricing_plan_id":"cebpf4jnsgd1na2vs0mg"},{"bike_id":"85b128aa-0699-42de-8ed8-6623b8021e13","system_id":"levelo_inurba_marseille","lat":43.26498,"lon":5.39543,"is_reserved":false,"is_disabled":false,"rental_uris":{"android":"levelo://app?vid=85b128aa-0699-42de-8ed8-6623b8021e13","ios":"levelo://app?vid=85b128aa-0699-42de-8ed8-6623b8021e13"},"vehicle_type_id":"4","last_reported":1747930376,"current_range_meters":4400,"station_id":"ce4bhi12rcd13ifvqfq0","pricing_plan_id":"cebpf4jnsgd1na2vs0mg"},{"bike_id":"55a016ad-3a11-4aa0-90b3-103ccef7a2fe","system_id":"levelo_inurba_marseille","lat":43.27799,"lon":5.3993,"is_reserved":false,"is_disabled":false,"rental_uris":{"android":"levelo://app?vid=55a016ad-3a11-4aa0-90b3-103ccef7a2fe","ios":"levelo://app?vid=55a016ad-3a11-4aa0-90b3-103ccef7a2fe"},"vehicle_type_id":"4","last_reported":1747930376,"current_range_meters":4400,"station_id":"ce4bho92rcd13ifvqh3g","pricing_plan_id":"cebpf4jnsgd1na2vs0mg"},{"bike_id":"6d32300c-e92c-4a92-a433-aa4c0fa327b1","system_id":"levelo_inurba_marseille","lat":43.30923,"lon":5.40149,"is_reserved":false,"is_disabled":false,"rental_uris":{"android":"levelo://app?vid=6d32300c-e92c-4a92-a433-aa4c0fa327b1","ios":"levelo://app?vid=6d32300c-e92c-4a92-a433-aa4c0fa327b1"},"vehicle_type_id":"4","last_reported":1747930376,"current_range_meters":4800,"station_id":"ce4bgvp2rcd13ifvqct0","pricing_plan_id":"cebpf4jnsgd1na2vs0mg"},{"bike_id":"56cdee76-9cba-4e05-a975-810110fbf0eb","system_id":"levelo_inurba_marseille","lat":43.24804,"lon":5.37453,"is_reserved":false,"is_disabled":false,"rental_uris":{"android":"levelo://app?vid=56cdee76-9cba-4e05-a975-810110fbf0eb","ios":"levelo://app?vid=56cdee76-9cba-4e05-a975-810110fbf0eb"},"vehicle_type_id":"4","last_reported":1747930376,"current_range_meters":4800,"station_id":"ce4bhgh2rcd13ifvqfb0","pricing_plan_id":"cebpf4jnsgd1na2vs0mg"},{"bike_id":"8564934d-c8d7-45be-9b5d-05f6920cdac9","system_id":"levelo_inurba_marseille","lat":43.26211,"lon":5.37443,"is_reserved":false,"is_disabled":false,"rental_uris":{"android":"levelo://app?vid=8564934d-c8d7-45be-9b5d-05f6920cdac9","ios":"levelo://app?vid=8564934d-c8d7-45be-9b5d-05f6920cdac9"},"vehicle_type_id":"4","last_reported":1747930376,"current_range_meters":4800,"station_id":"ce4bhgp2rcd13ifvqfc0","pricing_plan_id":"cebpf4jnsgd1na2vs0mg"},{"bike_id":"db518ad3-c649-4070-a3b5-af5575cbcb0e","system_id":"levelo_inurba_marseille","lat":43.30411,"lon":5.41288,"is_reserved":false,"is_disabled":false,"rental_uris":{"android":"levelo://app?vid=db518ad3-c649-4070-a3b5-af5575cbcb0e","ios":"levelo://app?vid=db518ad3-c649-4070-a3b5-af5575cbcb0e"},"vehicle_type_id":"4","last_reported":1747930376,"current_range_meters":4800,"station_id":"ce4bhop2rcd13ifvqh8g","pricing_plan_id":"cebpf4jnsgd1na2vs0mg"},{"bike_id":"c172b8b2-6068-4ecd-9788-1fbcc3584e8e","system_id":"levelo_inurba_marseille","lat":43.28208,"lon":5.39044,"is_reserved":false,"is_disabled":false,"rental_uris":{"android":"levelo://app?vid=c172b8b2-6068-4ecd-9788-1fbcc3584e8e","ios":"levelo://app?vid=c172b8b2-6068-4ecd-9788-1fbcc3584e8e"},"vehicle_type_id":"4","last_reported":1747930376,"current_range_meters":5600,"station_id":"","pricing_plan_id":"cebpf4jnsgd1na2vs0mg"},{"bike_id":"73d1a302-a35b-4c5c-9f76-d1783ae354a5","system_id":"levelo_inurba_marseille","lat":43.30125,"lon":5.39865,"is_reserved":false,"is_disabled":false,"rental_uris":{"android":"levelo://app?vid=73d1a302-a35b-4c5c-9f76-d1783ae354a5","ios":"levelo://app?vid=73d1a302-a35b-4c5c-9f76-d1783ae354a5"},"vehicle_type_id":"4","last_reported":1747930376,"current_range_meters":5600,"station_id":"ce4bh0h2rcd13ifvqd40","pricing_plan_id":"cebpf4jnsgd1na2vs0mg"},{"bike_id":"fc6b9cbf-c72a-4186-9a6d-4f967f54d1cd","system_id":"levelo_inurba_marseille","lat":43.29798,"lon":5.40399,"is_reserved":false,"is_disabled":false,"rental_uris":{"android":"levelo://app?vid=fc6b9cbf-c72a-4186-9a6d-4f967f54d1cd","ios":"levelo://app?vid=fc6b9cbf-c72a-4186-9a6d-4f967f54d1cd"},"vehicle_type_id":"4","last_reported":1747930376,"current_range_meters":5600,"station_id":"ce4bh112rcd13ifvqd90","pricing_plan_id":"cebpf4jnsgd1na2vs0mg"},{"bike_id":"a7f0a1a1-2767-4ae7-997e-b9ea76680e3c","system_id":"levelo_inurba_marseille","lat":43.28617,"lon":5.35107,"is_reserved":false,"is_disabled":false,"rental_uris":{"android":"levelo://app?vid=a7f0a1a1-2767-4ae7-997e-b9ea76680e3c","ios":"levelo://app?vid=a7f0a1a1-2767-4ae7-997e-b9ea76680e3c"},"vehicle_type_id":"4","last_reported":1747930376,"current_range_meters":5600,"station_id":"ce4bhch2rcd13ifvqeug","pricing_plan_id":"cebpf4jnsgd1na2vs0mg"},{"bike_id":"d0d7e5cc-cf56-402b-88c2-b2b6264e2701","system_id":"levelo_inurba_marseille","lat":43.24647,"lon":5.38138,"is_reserved":false,"is_disabled":false,"rental_uris":{"android":"levelo://app?vid=d0d7e5cc-cf56-402b-88c2-b2b6264e2701","ios":"levelo://app?vid=d0d7e5cc-cf56-402b-88c2-b2b6264e2701"},"vehicle_type_id":"4","last_reported":1747930376,"current_range_meters":5600,"station_id":"ce4bhih2rcd13ifvqfr0","pricing_plan_id":"cebpf4jnsgd1na2vs0mg"},{"bike_id":"4724448e-ff22-492a-ad57-05a55b2e23eb","system_id":"levelo_inurba_marseille","lat":43.32339,"lon":5.406197,"is_reserved":false,"is_disabled":false,"rental_uris":{"android":"levelo://app?vid=4724448e-ff22-492a-ad57-05a55b2e23eb","ios":"levelo://app?vid=4724448e-ff22-492a-ad57-05a55b2e23eb"},"vehicle_type_id":"4","last_reported":1747930376,"current_range_meters":5600,"station_id":"ce4bhq92rcd13ifvqhjg","pricing_plan_id":"cebpf4jnsgd1na2vs0mg"},{"bike_id":"178abdd7-6064-445f-939a-fca613ea6ed9","system_id":"levelo_inurba_marseille","lat":43.26946,"lon":5.40268,"is_reserved":false,"is_disabled":false,"rental_uris":{"android":"levelo://app?vid=178abdd7-6064-445f-939a-fca613ea6ed9","ios":"levelo://app?vid=178abdd7-6064-445f-939a-fca613ea6ed9"},"vehicle_type_id":"4","last_reported":1747930376,"current_range_meters":5600,"station_id":"cjm6bp8fraef2m0cb0m0","pricing_plan_id":"cebpf4jnsgd1na2vs0mg"},{"bike_id":"df106770-a124-4ecf-95cd-288da587773b","system_id":"levelo_inurba_marseille","lat":43.28664,"lon":5.38316,"is_reserved":false,"is_disabled":false,"rental_uris":{"android":"levelo://app?vid=df106770-a124-4ecf-95cd-288da587773b","ios":"levelo://app?vid=df106770-a124-4ecf-95cd-288da587773b"},"vehicle_type_id":"4","last_reported":1747930376,"current_range_meters":6000,"station_id":"","pricing_plan_id":"cebpf4jnsgd1na2vs0mg"},{"bike_id":"89d6c049-8c81-494d-b5d1-58d1c31b5284","system_id":"levelo_inurba_marseille","lat":43.299667,"lon":5.384896,"is_reserved":false,"is_disabled":false,"rental_uris":{"android":"levelo://app?vid=89d6c049-8c81-494d-b5d1-58d1c31b5284","ios":"levelo://app?vid=89d6c049-8c81-494d-b5d1-58d1c31b5284"},"vehicle_type_id":"4","last_reported":1747930376,"current_range_meters":6000,"station_id":"ce4bgj92rcd13ifvqbd0","pricing_plan_id":"cebpf4jnsgd1na2vs0mg"},{"bike_id":"0fcb0883-bd59-40ff-b3a2-c7bc9655de75","system_id":"levelo_inurba_marseille","lat":43.24804,"lon":5.37461,"is_reserved":false,"is_disabled":false,"rental_uris":{"android":"levelo://app?vid=0fcb0883-bd59-40ff-b3a2-c7bc9655de75","ios":"levelo://app?vid=0fcb0883-bd59-40ff-b3a2-c7bc9655de75"},"vehicle_type_id":"4","last_reported":1747930376,"current_range_meters":6000,"station_id":"ce4bhgh2rcd13ifvqfb0","pricing_plan_id":"cebpf4jnsgd1na2vs0mg"},{"bike_id":"bdc8dbb7-b2ee-46e3-96e1-0b3942cd3270","system_id":"levelo_inurba_marseille","lat":43.26952,"lon":5.38632,"is_reserved":false,"is_disabled":false,"rental_uris":{"android":"levelo://app?vid=bdc8dbb7-b2ee-46e3-96e1-0b3942cd3270","ios":"levelo://app?vid=bdc8dbb7-b2ee-46e3-96e1-0b3942cd3270"},"vehicle_type_id":"4","last_reported":1747930376,"current_range_meters":6000,"station_id":"ce4bhh92rcd13ifvqfh0","pricing_plan_id":"cebpf4jnsgd1na2vs0mg"},{"bike_id":"2f1741c1-97eb-4268-b9ad-f99a223a2229","system_id":"levelo_inurba_marseille","lat":43.25578,"lon":5.3823,"is_reserved":false,"is_disabled":false,"rental_uris":{"android":"levelo://app?vid=2f1741c1-97eb-4268-b9ad-f99a223a2229","ios":"levelo://app?vid=2f1741c1-97eb-4268-b9ad-f99a223a2229"},"vehicle_type_id":"4","last_reported":1747930376,"current_range_meters":6000,"station_id":"ce4bhih2rcd13ifvqfs0","pricing_plan_id":"cebpf4jnsgd1na2vs0mg"},{"bike_id":"a965f51f-aafb-4afe-bfe3-121b43346203","system_id":"levelo_inurba_marseille","lat":43.27997,"lon":5.40032,"is_reserved":false,"is_disabled":false,"rental_uris":{"android":"levelo://app?vid=a965f51f-aafb-4afe-bfe3-121b43346203","ios":"levelo://app?vid=a965f51f-aafb-4afe-bfe3-121b43346203"},"vehicle_type_id":"4","last_reported":1747930376,"current_range_meters":6000,"station_id":"ce4bho92rcd13ifvqh4g","pricing_plan_id":"cebpf4jnsgd1na2vs0mg"},{"bike_id":"0144666b-e006-4fd5-acae-91fa605ba406","system_id":"levelo_inurba_marseille","lat":43.28577,"lon":5.39501,"is_reserved":false,"is_disabled":false,"rental_uris":{"android":"levelo://app?vid=0144666b-e006-4fd5-acae-91fa605ba406","ios":"levelo://app?vid=0144666b-e006-4fd5-acae-91fa605ba406"},"vehicle_type_id":"4","last_reported":1747930376,"current_range_meters":6400,"station_id":"ce4bh292rcd13ifvqdg0","pricing_plan_id":"cebpf4jnsgd1na2vs0mg"},{"bike_id":"181efe8b-19de-45ca-8b9d-b3bb79f38077","system_id":"levelo_inurba_marseille","lat":43.283366,"lon":5.385047,"is_reserved":false,"is_disabled":false,"rental_uris":{"android":"levelo://app?vid=181efe8b-19de-45ca-8b9d-b3bb79f38077","ios":"levelo://app?vid=181efe8b-19de-45ca-8b9d-b3bb79f38077"},"vehicle_type_id":"4","last_reported":1747930376,"current_range_meters":6400,"station_id":"ce4bh412rcd13ifvqdr0","pricing_plan_id":"cebpf4jnsgd1na2vs0mg"},{"bike_id":"f2a3832c-33d2-457a-8dd9-ab599c2622bb","system_id":"levelo_inurba_marseille","lat":43.24389,"lon":5.37055,"is_reserved":false,"is_disabled":false,"rental_uris":{"android":"levelo://app?vid=f2a3832c-33d2-457a-8dd9-ab599c2622bb","ios":"levelo://app?vid=f2a3832c-33d2-457a-8dd9-ab599c2622bb"},"vehicle_type_id":"4","last_reported":1747930376,"current_range_meters":6400,"station_id":"ce4bhhh2rcd13ifvqfk0","pricing_plan_id":"cebpf4jnsgd1na2vs0mg"},{"bike_id":"0b8fab39-48a8-4218-9ce6-9ba727b7691e","system_id":"levelo_inurba_marseille","lat":43.23966,"lon":5.36628,"is_reserved":false,"is_disabled":false,"rental_uris":{"android":"levelo://app?vid=0b8fab39-48a8-4218-9ce6-9ba727b7691e","ios":"levelo://app?vid=0b8fab39-48a8-4218-9ce6-9ba727b7691e"},"vehicle_type_id":"4","last_reported":1747930376,"current_range_meters":6400,"station_id":"ce4bhi12rcd13ifvqfp0","pricing_plan_id":"cebpf4jnsgd1na2vs0mg"},{"bike_id":"fecc943e-5c8d-432f-91ba-13417f68d2f2","system_id":"levelo_inurba_marseille","lat":43.26496,"lon":5.39545,"is_reserved":false,"is_disabled":false,"rental_uris":{"android":"levelo://app?vid=fecc943e-5c8d-432f-91ba-13417f68d2f2","ios":"levelo://app?vid=fecc943e-5c8d-432f-91ba-13417f68d2f2"},"vehicle_type_id":"4","last_reported":1747930376,"current_range_meters":6400,"station_id":"ce4bhi12rcd13ifvqfq0","pricing_plan_id":"cebpf4jnsgd1na2vs0mg"},{"bike_id":"50170c98-e5dc-4924-8469-67ad32c60315","system_id":"levelo_inurba_marseille","lat":43.27185,"lon":5.40999,"is_reserved":false,"is_disabled":false,"rental_uris":{"android":"levelo://app?vid=50170c98-e5dc-4924-8469-67ad32c60315","ios":"levelo://app?vid=50170c98-e5dc-4924-8469-67ad32c60315"},"vehicle_type_id":"4","last_reported":1747930376,"current_range_meters":6400,"station_id":"ce4bhl12rcd13ifvqgf0","pricing_plan_id":"cebpf4jnsgd1na2vs0mg"},{"bike_id":"31907cb9-b067-459a-920f-da7df97f835b","system_id":"levelo_inurba_marseille","lat":43.25115,"lon":5.40319,"is_reserved":false,"is_disabled":false,"rental_uris":{"android":"levelo://app?vid=31907cb9-b067-459a-920f-da7df97f835b","ios":"levelo://app?vid=31907cb9-b067-459a-920f-da7df97f835b"},"vehicle_type_id":"4","last_reported":1747930376,"current_range_meters":6400,"station_id":"ce4bhlh2rcd13ifvqgig","pricing_plan_id":"cebpf4jnsgd1na2vs0mg"},{"bike_id":"c59660a7-f300-4b9b-a58b-f2bc724bb7a8","system_id":"levelo_inurba_marseille","lat":43.32109,"lon":5.36771,"is_reserved":false,"is_disabled":false,"rental_uris":{"android":"levelo://app?vid=c59660a7-f300-4b9b-a58b-f2bc724bb7a8","ios":"levelo://app?vid=c59660a7-f300-4b9b-a58b-f2bc724bb7a8"},"vehicle_type_id":"4","last_reported":1747930376,"current_range_meters":6400,"station_id":"ce4bhrh2rcd13ifvqhug","pricing_plan_id":"cebpf4jnsgd1na2vs0mg"},{"bike_id":"5af0c5a7-6cc1-48cd-b5c6-e2b41c3f32e7","system_id":"levelo_inurba_marseille","lat":43.30929,"lon":5.40145,"is_reserved":false,"is_disabled":false,"rental_uris":{"android":"levelo://app?vid=5af0c5a7-6cc1-48cd-b5c6-e2b41c3f32e7","ios":"levelo://app?vid=5af0c5a7-6cc1-48cd-b5c6-e2b41c3f32e7"},"vehicle_type_id":"4","last_reported":1747930376,"current_range_meters":6800,"station_id":"ce4bgvp2rcd13ifvqct0","pricing_plan_id":"cebpf4jnsgd1na2vs0mg"},{"bike_id":"b9bbcdd6-d30b-4814-8d8d-abbd4ee1f792","system_id":"levelo_inurba_marseille","lat":43.28484,"lon":5.38427,"is_reserved":false,"is_disabled":false,"rental_uris":{"android":"levelo://app?vid=b9bbcdd6-d30b-4814-8d8d-abbd4ee1f792","ios":"levelo://app?vid=b9bbcdd6-d30b-4814-8d8d-abbd4ee1f792"},"vehicle_type_id":"4","last_reported":1747930376,"current_range_meters":6800,"station_id":"ce4bh512rcd13ifvqe3g","pricing_plan_id":"cebpf4jnsgd1na2vs0mg"},{"bike_id":"0990be86-0e24-4df5-aa93-6c98929382b9","system_id":"levelo_inurba_marseille","lat":43.28464,"lon":5.35888,"is_reserved":false,"is_disabled":false,"rental_uris":{"android":"levelo://app?vid=0990be86-0e24-4df5-aa93-6c98929382b9","ios":"levelo://app?vid=0990be86-0e24-4df5-aa93-6c98929382b9"},"vehicle_type_id":"4","last_reported":1747930376,"current_range_meters":6800,"station_id":"ce4bhah2rcd13ifvqei0","pricing_plan_id":"cebpf4jnsgd1na2vs0mg"},{"bike_id":"7308a52f-c89a-4636-b37b-f86e0fcc67b6","system_id":"levelo_inurba_marseille","lat":43.2885,"lon":5.35836,"is_reserved":false,"is_disabled":false,"rental_uris":{"android":"levelo://app?vid=7308a52f-c89a-4636-b37b-f86e0fcc67b6","ios":"levelo://app?vid=7308a52f-c89a-4636-b37b-f86e0fcc67b6"},"vehicle_type_id":"4","last_reported":1747930376,"current_range_meters":6800,"station_id":"ce4bhb12rcd13ifvqem0","pricing_plan_id":"cebpf4jnsgd1na2vs0mg"},{"bike_id":"325a04d7-0c6c-4a4d-804e-27b29ba6514b","system_id":"levelo_inurba_marseille","lat":43.2396,"lon":5.3663,"is_reserved":false,"is_disabled":false,"rental_uris":{"android":"levelo://app?vid=325a04d7-0c6c-4a4d-804e-27b29ba6514b","ios":"levelo://app?vid=325a04d7-0c6c-4a4d-804e-27b29ba6514b"},"vehicle_type_id":"4","last_reported":1747930376,"current_range_meters":6800,"station_id":"ce4bhi12rcd13ifvqfp0","pricing_plan_id":"cebpf4jnsgd1na2vs0mg"},{"bike_id":"84de57e5-2da5-43ce-90cb-e2fec7be6e1c","system_id":"levelo_inurba_marseille","lat":43.27179,"lon":5.40974,"is_reserved":false,"is_disabled":false,"rental_uris":{"android":"levelo://app?vid=84de57e5-2da5-43ce-90cb-e2fec7be6e1c","ios":"levelo://app?vid=84de57e5-2da5-43ce-90cb-e2fec7be6e1c"},"vehicle_type_id":"4","last_reported":1747930376,"current_range_meters":6800,"station_id":"ce4bhl12rcd13ifvqgf0","pricing_plan_id":"cebpf4jnsgd1na2vs0mg"},{"bike_id":"2f0e7a76-34bd-4591-ba9a-bbedc686542c","system_id":"levelo_inurba_marseille","lat":43.31709,"lon":5.43701,"is_reserved":false,"is_disabled":false,"rental_uris":{"android":"levelo://app?vid=2f0e7a76-34bd-4591-ba9a-bbedc686542c","ios":"levelo://app?vid=2f0e7a76-34bd-4591-ba9a-bbedc686542c"},"vehicle_type_id":"4","last_reported":1747930376,"current_range_meters":6800,"station_id":"ce4bhp92rcd13ifvqhcg","pricing_plan_id":"cebpf4jnsgd1na2vs0mg"},{"bike_id":"b07a0361-1412-4673-b337-708f57f5f13e","system_id":"levelo_inurba_marseille","lat":43.26807,"lon":5.40271,"is_reserved":false,"is_disabled":false,"rental_uris":{"android":"levelo://app?vid=b07a0361-1412-4673-b337-708f57f5f13e","ios":"levelo://app?vid=b07a0361-1412-4673-b337-708f57f5f13e"},"vehicle_type_id":"4","last_reported":1747930376,"current_range_meters":6800,"station_id":"ce501612rcd8frsf0b60","pricing_plan_id":"cebpf4jnsgd1na2vs0mg"},{"bike_id":"76369ffe-2e32-4bb9-9e61-cbcd5b68afdc","system_id":"levelo_inurba_marseille","lat":43.30429,"lon":5.39745,"is_reserved":false,"is_disabled":false,"rental_uris":{"android":"levelo://app?vid=76369ffe-2e32-4bb9-9e61-cbcd5b68afdc","ios":"levelo://app?vid=76369ffe-2e32-4bb9-9e61-cbcd5b68afdc"},"vehicle_type_id":"4","last_reported":1747930376,"current_range_meters":7200,"station_id":"ce4bh092rcd13ifvqd20","pricing_plan_id":"cebpf4jnsgd1na2vs0mg"},{"bike_id":"5420200f-ce7d-418d-8426-dfc61ee3eb9d","system_id":"levelo_inurba_marseille","lat":43.29198,"lon":5.39317,"is_reserved":false,"is_disabled":false,"rental_uris":{"android":"levelo://app?vid=5420200f-ce7d-418d-8426-dfc61ee3eb9d","ios":"levelo://app?vid=5420200f-ce7d-418d-8426-dfc61ee3eb9d"},"vehicle_type_id":"4","last_reported":1747930376,"current_range_meters":7200,"station_id":"ce4bh192rcd13ifvqdd0","pricing_plan_id":"cebpf4jnsgd1na2vs0mg"},{"bike_id":"4fe40859-82c6-46a3-a1ef-e30e07b41a97","system_id":"levelo_inurba_marseille","lat":43.28669,"lon":5.38672,"is_reserved":false,"is_disabled":false,"rental_uris":{"android":"levelo://app?vid=4fe40859-82c6-46a3-a1ef-e30e07b41a97","ios":"levelo://app?vid=4fe40859-82c6-46a3-a1ef-e30e07b41a97"},"vehicle_type_id":"4","last_reported":1747930376,"current_range_meters":7200,"station_id":"ce4bh492rcd13ifvqdug","pricing_plan_id":"cebpf4jnsgd1na2vs0mg"},{"bike_id":"ccd46f57-d3b8-4f5e-9000-2670a315c881","system_id":"levelo_inurba_marseille","lat":43.29027,"lon":5.3865,"is_reserved":false,"is_disabled":false,"rental_uris":{"android":"levelo://app?vid=ccd46f57-d3b8-4f5e-9000-2670a315c881","ios":"levelo://app?vid=ccd46f57-d3b8-4f5e-9000-2670a315c881"},"vehicle_type_id":"4","last_reported":1747930376,"current_range_meters":7200,"station_id":"ce4bh4p2rcd13ifvqe0g","pricing_plan_id":"cebpf4jnsgd1na2vs0mg"},{"bike_id":"e8b8d26b-d4ca-479b-ad2b-2e320e7ae46d","system_id":"levelo_inurba_marseille","lat":43.292694,"lon":5.384266,"is_reserved":false,"is_disabled":false,"rental_uris":{"android":"levelo://app?vid=e8b8d26b-d4ca-479b-ad2b-2e320e7ae46d","ios":"levelo://app?vid=e8b8d26b-d4ca-479b-ad2b-2e320e7ae46d"},"vehicle_type_id":"4","last_reported":1747930376,"current_range_meters":7200,"station_id":"ce4bh692rcd13ifvqea0","pricing_plan_id":"cebpf4jnsgd1na2vs0mg"},{"bike_id":"b8f9f1bc-1ada-453e-aac6-70d3e5ebfe60","system_id":"levelo_inurba_marseille","lat":43.26057,"lon":5.394,"is_reserved":false,"is_disabled":false,"rental_uris":{"android":"levelo://app?vid=b8f9f1bc-1ada-453e-aac6-70d3e5ebfe60","ios":"levelo://app?vid=b8f9f1bc-1ada-453e-aac6-70d3e5ebfe60"},"vehicle_type_id":"4","last_reported":1747930376,"current_range_meters":7200,"station_id":"ce4bhh92rcd13ifvqfj0","pricing_plan_id":"cebpf4jnsgd1na2vs0mg"},{"bike_id":"7836676e-eb46-4962-a3a1-8851b071b8f1","system_id":"levelo_inurba_marseille","lat":43.264945,"lon":5.395442,"is_reserved":false,"is_disabled":false,"rental_uris":{"android":"levelo://app?vid=7836676e-eb46-4962-a3a1-8851b071b8f1","ios":"levelo://app?vid=7836676e-eb46-4962-a3a1-8851b071b8f1"},"vehicle_type_id":"4","last_reported":1747930376,"current_range_meters":7200,"station_id":"ce4bhi12rcd13ifvqfq0","pricing_plan_id":"cebpf4jnsgd1na2vs0mg"},{"bike_id":"eebfa399-9785-4fc2-b66a-eed62a9fa6a0","system_id":"levelo_inurba_marseille","lat":43.32317,"lon":5.40657,"is_reserved":false,"is_disabled":false,"rental_uris":{"android":"levelo://app?vid=eebfa399-9785-4fc2-b66a-eed62a9fa6a0","ios":"levelo://app?vid=eebfa399-9785-4fc2-b66a-eed62a9fa6a0"},"vehicle_type_id":"4","last_reported":1747930376,"current_range_meters":7200,"station_id":"ce4bhq92rcd13ifvqhjg","pricing_plan_id":"cebpf4jnsgd1na2vs0mg"},{"bike_id":"3fe3d6c4-138a-47df-b6b4-e6f19e8f7d46","system_id":"levelo_inurba_marseille","lat":43.21414,"lon":5.34125,"is_reserved":false,"is_disabled":false,"rental_uris":{"android":"levelo://app?vid=3fe3d6c4-138a-47df-b6b4-e6f19e8f7d46","ios":"levelo://app?vid=3fe3d6c4-138a-47df-b6b4-e6f19e8f7d46"},"vehicle_type_id":"4","last_reported":1747930376,"current_range_meters":8000,"station_id":"","pricing_plan_id":"cebpf4jnsgd1na2vs0mg"},{"bike_id":"67993b18-0ef6-4315-80a0-be9ed00f7b50","system_id":"levelo_inurba_marseille","lat":43.308992,"lon":5.368538,"is_reserved":false,"is_disabled":false,"rental_uris":{"android":"levelo://app?vid=67993b18-0ef6-4315-80a0-be9ed00f7b50","ios":"levelo://app?vid=67993b18-0ef6-4315-80a0-be9ed00f7b50"},"vehicle_type_id":"4","last_reported":1747930376,"current_range_meters":8000,"station_id":"ce4bgn92rcd13ifvqbvg","pricing_plan_id":"cebpf4jnsgd1na2vs0mg"},{"bike_id":"d17bac9f-bcd1-4d7f-867a-374707cd6a91","system_id":"levelo_inurba_marseille","lat":43.30553,"lon":5.3653,"is_reserved":false,"is_disabled":false,"rental_uris":{"android":"levelo://app?vid=d17bac9f-bcd1-4d7f-867a-374707cd6a91","ios":"levelo://app?vid=d17bac9f-bcd1-4d7f-867a-374707cd6a91"},"vehicle_type_id":"4","last_reported":1747930376,"current_range_meters":8000,"station_id":"ce4bgs12rcd13ifvqcag","pricing_plan_id":"cebpf4jnsgd1na2vs0mg"},{"bike_id":"bdd6159b-d937-4f3c-bbee-dfd8b5da1838","system_id":"levelo_inurba_marseille","lat":43.292,"lon":5.35804,"is_reserved":false,"is_disabled":false,"rental_uris":{"android":"levelo://app?vid=bdd6159b-d937-4f3c-bbee-dfd8b5da1838","ios":"levelo://app?vid=bdd6159b-d937-4f3c-bbee-dfd8b5da1838"},"vehicle_type_id":"4","last_reported":1747930376,"current_range_meters":8000,"station_id":"ce4bhb12rcd13ifvqel0","pricing_plan_id":"cebpf4jnsgd1na2vs0mg"},{"bike_id":"dfc877e4-10be-487a-90d7-b1a30f79138f","system_id":"levelo_inurba_marseille","lat":43.28609,"lon":5.35114,"is_reserved":false,"is_disabled":false,"rental_uris":{"android":"levelo://app?vid=dfc877e4-10be-487a-90d7-b1a30f79138f","ios":"levelo://app?vid=dfc877e4-10be-487a-90d7-b1a30f79138f"},"vehicle_type_id":"4","last_reported":1747930376,"current_range_meters":8000,"station_id":"ce4bhch2rcd13ifvqeug","pricing_plan_id":"cebpf4jnsgd1na2vs0mg"},{"bike_id":"7f374a0c-9ab4-412c-a8dd-1f59fe7a5317","system_id":"levelo_inurba_marseille","lat":43.25579,"lon":5.38282,"is_reserved":false,"is_disabled":false,"rental_uris":{"android":"levelo://app?vid=7f374a0c-9ab4-412c-a8dd-1f59fe7a5317","ios":"levelo://app?vid=7f374a0c-9ab4-412c-a8dd-1f59fe7a5317"},"vehicle_type_id":"4","last_reported":1747930376,"current_range_meters":8000,"station_id":"ce4bhih2rcd13ifvqfs0","pricing_plan_id":"cebpf4jnsgd1na2vs0mg"},{"bike_id":"d01873a6-e43f-4341-b9d5-e038cf8f2807","system_id":"levelo_inurba_marseille","lat":43.25121,"lon":5.40306,"is_reserved":false,"is_disabled":false,"rental_uris":{"android":"levelo://app?vid=d01873a6-e43f-4341-b9d5-e038cf8f2807","ios":"levelo://app?vid=d01873a6-e43f-4341-b9d5-e038cf8f2807"},"vehicle_type_id":"4","last_reported":1747930376,"current_range_meters":8000,"station_id":"ce4bhlh2rcd13ifvqgig","pricing_plan_id":"cebpf4jnsgd1na2vs0mg"},{"bike_id":"2f34c329-54fe-438b-a307-b47c6ac8481c","system_id":"levelo_inurba_marseille","lat":43.29887,"lon":5.4368,"is_reserved":false,"is_disabled":false,"rental_uris":{"android":"levelo://app?vid=2f34c329-54fe-438b-a307-b47c6ac8481c","ios":"levelo://app?vid=2f34c329-54fe-438b-a307-b47c6ac8481c"},"vehicle_type_id":"4","last_reported":1747930376,"current_range_meters":8000,"station_id":"ce4bhpp2rcd13ifvqhfg","pricing_plan_id":"cebpf4jnsgd1na2vs0mg"},{"bike_id":"078bd019-c754-4226-b93a-2091338c876e","system_id":"levelo_inurba_marseille","lat":43.23192,"lon":5.3556,"is_reserved":false,"is_disabled":false,"rental_uris":{"android":"levelo://app?vid=078bd019-c754-4226-b93a-2091338c876e","ios":"levelo://app?vid=078bd019-c754-4226-b93a-2091338c876e"},"vehicle_type_id":"4","last_reported":1747930376,"current_range_meters":8000,"station_id":"ce4bhu92rcd13ifvqi70","pricing_plan_id":"cebpf4jnsgd1na2vs0mg"},{"bike_id":"ada4b238-8a80-4476-878d-aa3d90c35be0","system_id":"levelo_inurba_marseille","lat":43.26805,"lon":5.40272,"is_reserved":false,"is_disabled":false,"rental_uris":{"android":"levelo://app?vid=ada4b238-8a80-4476-878d-aa3d90c35be0","ios":"levelo://app?vid=ada4b238-8a80-4476-878d-aa3d90c35be0"},"vehicle_type_id":"4","last_reported":1747930376,"current_range_meters":8000,"station_id":"ce501612rcd8frsf0b60","pricing_plan_id":"cebpf4jnsgd1na2vs0mg"},{"bike_id":"ad4d8099-03a6-43ca-966f-189fb83ff678","system_id":"levelo_inurba_marseille","lat":43.31277,"lon":5.37397,"is_reserved":false,"is_disabled":false,"rental_uris":{"android":"levelo://app?vid=ad4d8099-03a6-43ca-966f-189fb83ff678","ios":"levelo://app?vid=ad4d8099-03a6-43ca-966f-189fb83ff678"},"vehicle_type_id":"4","last_reported":1747930376,"current_range_meters":8400,"station_id":"","pricing_plan_id":"cebpf4jnsgd1na2vs0mg"},{"bike_id":"1e862efe-c069-440f-a1e8-a0b011f703bd","system_id":"levelo_inurba_marseille","lat":43.29298,"lon":5.37461,"is_reserved":false,"is_disabled":false,"rental_uris":{"android":"levelo://app?vid=1e862efe-c069-440f-a1e8-a0b011f703bd","ios":"levelo://app?vid=1e862efe-c069-440f-a1e8-a0b011f703bd"},"vehicle_type_id":"4","last_reported":1747930376,"current_range_meters":8400,"station_id":"ce4bgi12rcd13ifvqb70","pricing_plan_id":"cebpf4jnsgd1na2vs0mg"},{"bike_id":"89489af4-612a-4a92-8535-a1e3cd20690f","system_id":"levelo_inurba_marseille","lat":43.27618,"lon":5.36104,"is_reserved":false,"is_disabled":false,"rental_uris":{"android":"levelo://app?vid=89489af4-612a-4a92-8535-a1e3cd20690f","ios":"levelo://app?vid=89489af4-612a-4a92-8535-a1e3cd20690f"},"vehicle_type_id":"4","last_reported":1747930376,"current_range_meters":8400,"station_id":"ce4bgj92rcd13ifvqbe0","pricing_plan_id":"cebpf4jnsgd1na2vs0mg"},{"bike_id":"b98795f3-40f4-4113-af68-f093b8b2909d","system_id":"levelo_inurba_marseille","lat":43.30906,"lon":5.36839,"is_reserved":false,"is_disabled":false,"rental_uris":{"android":"levelo://app?vid=b98795f3-40f4-4113-af68-f093b8b2909d","ios":"levelo://app?vid=b98795f3-40f4-4113-af68-f093b8b2909d"},"vehicle_type_id":"4","last_reported":1747930376,"current_range_meters":8400,"station_id":"ce4bgn92rcd13ifvqbvg","pricing_plan_id":"cebpf4jnsgd1na2vs0mg"},{"bike_id":"8caecda0-73b9-410f-b5b4-b2b28e6b13a6","system_id":"levelo_inurba_marseille","lat":43.3093,"lon":5.40141,"is_reserved":false,"is_disabled":false,"rental_uris":{"android":"levelo://app?vid=8caecda0-73b9-410f-b5b4-b2b28e6b13a6","ios":"levelo://app?vid=8caecda0-73b9-410f-b5b4-b2b28e6b13a6"},"vehicle_type_id":"4","last_reported":1747930376,"current_range_meters":8400,"station_id":"ce4bgvp2rcd13ifvqct0","pricing_plan_id":"cebpf4jnsgd1na2vs0mg"},{"bike_id":"73a5e3c7-7e2a-4135-a958-81aa5efb3b06","system_id":"levelo_inurba_marseille","lat":43.30935,"lon":5.40149,"is_reserved":false,"is_disabled":false,"rental_uris":{"android":"levelo://app?vid=73a5e3c7-7e2a-4135-a958-81aa5efb3b06","ios":"levelo://app?vid=73a5e3c7-7e2a-4135-a958-81aa5efb3b06"},"vehicle_type_id":"4","last_reported":1747930376,"current_range_meters":8400,"station_id":"ce4bgvp2rcd13ifvqct0","pricing_plan_id":"cebpf4jnsgd1na2vs0mg"},{"bike_id":"c2bf9b7e-8755-40d9-a17d-2c0f5a7d061f","system_id":"levelo_inurba_marseille","lat":43.30084,"lon":5.39077,"is_reserved":false,"is_disabled":false,"rental_uris":{"android":"levelo://app?vid=c2bf9b7e-8755-40d9-a17d-2c0f5a7d061f","ios":"levelo://app?vid=c2bf9b7e-8755-40d9-a17d-2c0f5a7d061f"},"vehicle_type_id":"4","last_reported":1747930376,"current_range_meters":8400,"station_id":"ce4bh192rcd13ifvqdb0","pricing_plan_id":"cebpf4jnsgd1na2vs0mg"},{"bike_id":"f1333000-daa9-431e-a57f-3931b1578144","system_id":"levelo_inurba_marseille","lat":43.28348,"lon":5.38102,"is_reserved":false,"is_disabled":false,"rental_uris":{"android":"levelo://app?vid=f1333000-daa9-431e-a57f-3931b1578144","ios":"levelo://app?vid=f1333000-daa9-431e-a57f-3931b1578144"},"vehicle_type_id":"4","last_reported":1747930376,"current_range_meters":8400,"station_id":"ce4bh412rcd13ifvqdr0","pricing_plan_id":"cebpf4jnsgd1na2vs0mg"},{"bike_id":"730f6487-4702-406e-a300-620d835f2263","system_id":"levelo_inurba_marseille","lat":43.28421,"lon":5.37507,"is_reserved":false,"is_disabled":false,"rental_uris":{"android":"levelo://app?vid=730f6487-4702-406e-a300-620d835f2263","ios":"levelo://app?vid=730f6487-4702-406e-a300-620d835f2263"},"vehicle_type_id":"4","last_reported":1747930376,"current_range_meters":8400,"station_id":"ce4bh412rcd13ifvqds0","pricing_plan_id":"cebpf4jnsgd1na2vs0mg"},{"bike_id":"4f89f66a-d457-456b-8d36-b49dd68b63d4","system_id":"levelo_inurba_marseille","lat":43.26568,"lon":5.39012,"is_reserved":false,"is_disabled":false,"rental_uris":{"android":"levelo://app?vid=4f89f66a-d457-456b-8d36-b49dd68b63d4","ios":"levelo://app?vid=4f89f66a-d457-456b-8d36-b49dd68b63d4"},"vehicle_type_id":"4","last_reported":1747930376,"current_range_meters":8400,"station_id":"ce4bhe12rcd13ifvqf30","pricing_plan_id":"cebpf4jnsgd1na2vs0mg"},{"bike_id":"a5fb97c4-dca0-4d2f-99cb-7d0bd4d5c7fc","system_id":"levelo_inurba_marseille","lat":43.26558,"lon":5.37283,"is_reserved":false,"is_disabled":false,"rental_uris":{"android":"levelo://app?vid=a5fb97c4-dca0-4d2f-99cb-7d0bd4d5c7fc","ios":"levelo://app?vid=a5fb97c4-dca0-4d2f-99cb-7d0bd4d5c7fc"},"vehicle_type_id":"4","last_reported":1747930376,"current_range_meters":8400,"station_id":"ce4bhg12rcd13ifvqf70","pricing_plan_id":"cebpf4jnsgd1na2vs0mg"},{"bike_id":"b91980aa-60ff-467c-bd75-7d53cde9d475","system_id":"levelo_inurba_marseille","lat":43.25094,"lon":5.40352,"is_reserved":false,"is_disabled":false,"rental_uris":{"android":"levelo://app?vid=b91980aa-60ff-467c-bd75-7d53cde9d475","ios":"levelo://app?vid=b91980aa-60ff-467c-bd75-7d53cde9d475"},"vehicle_type_id":"4","last_reported":1747930376,"current_range_meters":8400,"station_id":"ce4bhlh2rcd13ifvqgig","pricing_plan_id":"cebpf4jnsgd1na2vs0mg"},{"bike_id":"3944f00c-e9fc-4706-a38a-ade0f43ef779","system_id":"levelo_inurba_marseille","lat":43.25103,"lon":5.40329,"is_reserved":false,"is_disabled":false,"rental_uris":{"android":"levelo://app?vid=3944f00c-e9fc-4706-a38a-ade0f43ef779","ios":"levelo://app?vid=3944f00c-e9fc-4706-a38a-ade0f43ef779"},"vehicle_type_id":"4","last_reported":1747930376,"current_range_meters":8400,"station_id":"ce4bhlh2rcd13ifvqgig","pricing_plan_id":"cebpf4jnsgd1na2vs0mg"},{"bike_id":"14feda73-7baf-4b64-8ae9-79f4fe7d4a5f","system_id":"levelo_inurba_marseille","lat":43.323575,"lon":5.367453,"is_reserved":false,"is_disabled":false,"rental_uris":{"android":"levelo://app?vid=14feda73-7baf-4b64-8ae9-79f4fe7d4a5f","ios":"levelo://app?vid=14feda73-7baf-4b64-8ae9-79f4fe7d4a5f"},"vehicle_type_id":"4","last_reported":1747930376,"current_range_meters":8400,"station_id":"ce4bhsh2rcd13ifvqi2g","pricing_plan_id":"cebpf4jnsgd1na2vs0mg"},{"bike_id":"4d220435-47a8-4d82-80db-a1284cf3e4c5","system_id":"levelo_inurba_marseille","lat":43.28666,"lon":5.38724,"is_reserved":false,"is_disabled":false,"rental_uris":{"android":"levelo://app?vid=4d220435-47a8-4d82-80db-a1284cf3e4c5","ios":"levelo://app?vid=4d220435-47a8-4d82-80db-a1284cf3e4c5"},"vehicle_type_id":"4","last_reported":1747930376,"current_range_meters":8800,"station_id":"ce4bh492rcd13ifvqdug","pricing_plan_id":"cebpf4jnsgd1na2vs0mg"},{"bike_id":"ab3b0072-2d97-42b8-bc77-2db1b6e4d1ef","system_id":"levelo_inurba_marseille","lat":43.27368,"lon":5.36257,"is_reserved":false,"is_disabled":false,"rental_uris":{"android":"levelo://app?vid=ab3b0072-2d97-42b8-bc77-2db1b6e4d1ef","ios":"levelo://app?vid=ab3b0072-2d97-42b8-bc77-2db1b6e4d1ef"},"vehicle_type_id":"4","last_reported":1747930376,"current_range_meters":8800,"station_id":"ce4bhbh2rcd13ifvqeo0","pricing_plan_id":"cebpf4jnsgd1na2vs0mg"},{"bike_id":"d72fddf1-6c9d-43af-b130-b1cbd1f5f91f","system_id":"levelo_inurba_marseille","lat":43.26557,"lon":5.37279,"is_reserved":false,"is_disabled":false,"rental_uris":{"android":"levelo://app?vid=d72fddf1-6c9d-43af-b130-b1cbd1f5f91f","ios":"levelo://app?vid=d72fddf1-6c9d-43af-b130-b1cbd1f5f91f"},"vehicle_type_id":"4","last_reported":1747930376,"current_range_meters":8800,"station_id":"ce4bhg12rcd13ifvqf70","pricing_plan_id":"cebpf4jnsgd1na2vs0mg"},{"bike_id":"bd905b12-e0d4-4f59-801e-ac770fc98618","system_id":"levelo_inurba_marseille","lat":43.25113,"lon":5.40323,"is_reserved":false,"is_disabled":false,"rental_uris":{"android":"levelo://app?vid=bd905b12-e0d4-4f59-801e-ac770fc98618","ios":"levelo://app?vid=bd905b12-e0d4-4f59-801e-ac770fc98618"},"vehicle_type_id":"4","last_reported":1747930376,"current_range_meters":8800,"station_id":"ce4bhlh2rcd13ifvqgig","pricing_plan_id":"cebpf4jnsgd1na2vs0mg"},{"bike_id":"fb1b05c5-68d7-4243-a4b9-1e154a7a78cf","system_id":"levelo_inurba_marseille","lat":43.30424,"lon":5.372,"is_reserved":false,"is_disabled":false,"rental_uris":{"android":"levelo://app?vid=fb1b05c5-68d7-4243-a4b9-1e154a7a78cf","ios":"levelo://app?vid=fb1b05c5-68d7-4243-a4b9-1e154a7a78cf"},"vehicle_type_id":"4","last_reported":1747930376,"current_range_meters":9200,"station_id":"","pricing_plan_id":"cebpf4jnsgd1na2vs0mg"},{"bike_id":"f9fb40c0-1fcd-48cb-8e26-3f2dc0fb2451","system_id":"levelo_inurba_marseille","lat":43.33751,"lon":5.37509,"is_reserved":false,"is_disabled":false,"rental_uris":{"android":"levelo://app?vid=f9fb40c0-1fcd-48cb-8e26-3f2dc0fb2451","ios":"levelo://app?vid=f9fb40c0-1fcd-48cb-8e26-3f2dc0fb2451"},"vehicle_type_id":"4","last_reported":1747930376,"current_range_meters":9200,"station_id":"","pricing_plan_id":"cebpf4jnsgd1na2vs0mg"},{"bike_id":"6762d84d-4278-4f6b-b35f-7fac5ef16d1f","system_id":"levelo_inurba_marseille","lat":43.28616,"lon":5.35107,"is_reserved":false,"is_disabled":false,"rental_uris":{"android":"levelo://app?vid=6762d84d-4278-4f6b-b35f-7fac5ef16d1f","ios":"levelo://app?vid=6762d84d-4278-4f6b-b35f-7fac5ef16d1f"},"vehicle_type_id":"4","last_reported":1747930376,"current_range_meters":9200,"station_id":"ce4bhch2rcd13ifvqeug","pricing_plan_id":"cebpf4jnsgd1na2vs0mg"},{"bike_id":"15093a99-a4b6-41bb-9952-363234a846b1","system_id":"levelo_inurba_marseille","lat":43.21746,"lon":5.346055,"is_reserved":false,"is_disabled":false,"rental_uris":{"android":"levelo://app?vid=15093a99-a4b6-41bb-9952-363234a846b1","ios":"levelo://app?vid=15093a99-a4b6-41bb-9952-363234a846b1"},"vehicle_type_id":"4","last_reported":1747930376,"current_range_meters":9200,"station_id":"st_cvj6r9ubvosntc0bgbag","pricing_plan_id":"cebpf4jnsgd1na2vs0mg"},{"bike_id":"971c8a5c-db56-48ea-b476-188519cb0562","system_id":"levelo_inurba_marseille","lat":43.3006,"lon":5.40508,"is_reserved":false,"is_disabled":false,"rental_uris":{"android":"levelo://app?vid=971c8a5c-db56-48ea-b476-188519cb0562","ios":"levelo://app?vid=971c8a5c-db56-48ea-b476-188519cb0562"},"vehicle_type_id":"4","last_reported":1747930376,"current_range_meters":9600,"station_id":"","pricing_plan_id":"cebpf4jnsgd1na2vs0mg"},{"bike_id":"27653dcd-dec9-4f13-b172-8968c20c1725","system_id":"levelo_inurba_marseille","lat":43.23846,"lon":5.43112,"is_reserved":false,"is_disabled":false,"rental_uris":{"android":"levelo://app?vid=27653dcd-dec9-4f13-b172-8968c20c1725","ios":"levelo://app?vid=27653dcd-dec9-4f13-b172-8968c20c1725"},"vehicle_type_id":"4","last_reported":1747930376,"current_range_meters":9600,"station_id":"","pricing_plan_id":"cebpf4jnsgd1na2vs0mg"},{"bike_id":"b9cb5961-d058-4a57-862f-2ddb7e8e7508","system_id":"levelo_inurba_marseille","lat":43.29785,"lon":5.37099,"is_reserved":false,"is_disabled":false,"rental_uris":{"android":"levelo://app?vid=b9cb5961-d058-4a57-862f-2ddb7e8e7508","ios":"levelo://app?vid=b9cb5961-d058-4a57-862f-2ddb7e8e7508"},"vehicle_type_id":"4","last_reported":1747930376,"current_range_meters":9600,"station_id":"ce4bgop2rcd13ifvqc1g","pricing_plan_id":"cebpf4jnsgd1na2vs0mg"},{"bike_id":"7a8e9a42-62ac-4968-a286-a9f76713e84f","system_id":"levelo_inurba_marseille","lat":43.31354,"lon":5.38499,"is_reserved":false,"is_disabled":false,"rental_uris":{"android":"levelo://app?vid=7a8e9a42-62ac-4968-a286-a9f76713e84f","ios":"levelo://app?vid=7a8e9a42-62ac-4968-a286-a9f76713e84f"},"vehicle_type_id":"4","last_reported":1747930376,"current_range_meters":9600,"station_id":"ce4bgt92rcd13ifvqcf0","pricing_plan_id":"cebpf4jnsgd1na2vs0mg"},{"bike_id":"f6fd0fde-e3ee-43bf-a869-4504589ec5d3","system_id":"levelo_inurba_marseille","lat":43.29267,"lon":5.38433,"is_reserved":false,"is_disabled":false,"rental_uris":{"android":"levelo://app?vid=f6fd0fde-e3ee-43bf-a869-4504589ec5d3","ios":"levelo://app?vid=f6fd0fde-e3ee-43bf-a869-4504589ec5d3"},"vehicle_type_id":"4","last_reported":1747930376,"current_range_meters":9600,"station_id":"ce4bh692rcd13ifvqea0","pricing_plan_id":"cebpf4jnsgd1na2vs0mg"},{"bike_id":"b9794aa3-59fa-434a-ac06-562a1b2e8688","system_id":"levelo_inurba_marseille","lat":43.28643,"lon":5.35101,"is_reserved":false,"is_disabled":false,"rental_uris":{"android":"levelo://app?vid=b9794aa3-59fa-434a-ac06-562a1b2e8688","ios":"levelo://app?vid=b9794aa3-59fa-434a-ac06-562a1b2e8688"},"vehicle_type_id":"4","last_reported":1747930376,"current_range_meters":9600,"station_id":"ce4bhch2rcd13ifvqeug","pricing_plan_id":"cebpf4jnsgd1na2vs0mg"},{"bike_id":"11b56f44-e498-4ec6-9584-589b8c912db5","system_id":"levelo_inurba_marseille","lat":43.25589,"lon":5.38243,"is_reserved":false,"is_disabled":false,"rental_uris":{"android":"levelo://app?vid=11b56f44-e498-4ec6-9584-589b8c912db5","ios":"levelo://app?vid=11b56f44-e498-4ec6-9584-589b8c912db5"},"vehicle_type_id":"4","last_reported":1747930376,"current_range_meters":9600,"station_id":"ce4bhih2rcd13ifvqfs0","pricing_plan_id":"cebpf4jnsgd1na2vs0mg"},{"bike_id":"5563212e-fea7-4ca3-b042-de56a8bc994b","system_id":"levelo_inurba_marseille","lat":43.25119,"lon":5.40328,"is_reserved":false,"is_disabled":false,"rental_uris":{"android":"levelo://app?vid=5563212e-fea7-4ca3-b042-de56a8bc994b","ios":"levelo://app?vid=5563212e-fea7-4ca3-b042-de56a8bc994b"},"vehicle_type_id":"4","last_reported":1747930376,"current_range_meters":9600,"station_id":"ce4bhlh2rcd13ifvqgig","pricing_plan_id":"cebpf4jnsgd1na2vs0mg"},{"bike_id":"6a85369f-636f-4448-91f6-e3994a0fb52b","system_id":"levelo_inurba_marseille","lat":43.27771,"lon":5.38731,"is_reserved":false,"is_disabled":false,"rental_uris":{"android":"levelo://app?vid=6a85369f-636f-4448-91f6-e3994a0fb52b","ios":"levelo://app?vid=6a85369f-636f-4448-91f6-e3994a0fb52b"},"vehicle_type_id":"4","last_reported":1747930376,"current_range_meters":10000,"station_id":"","pricing_plan_id":"cebpf4jnsgd1na2vs0mg"},{"bike_id":"360f4742-bdaa-4981-b0d8-41351b771740","system_id":"levelo_inurba_marseille","lat":43.2987,"lon":5.39733,"is_reserved":false,"is_disabled":false,"rental_uris":{"android":"levelo://app?vid=360f4742-bdaa-4981-b0d8-41351b771740","ios":"levelo://app?vid=360f4742-bdaa-4981-b0d8-41351b771740"},"vehicle_type_id":"4","last_reported":1747930376,"current_range_meters":10000,"station_id":"ce4bh0h2rcd13ifvqd50","pricing_plan_id":"cebpf4jnsgd1na2vs0mg"},{"bike_id":"98f223b6-e808-408e-a867-a015a7fa1ba3","system_id":"levelo_inurba_marseille","lat":43.28269,"lon":5.35088,"is_reserved":false,"is_disabled":false,"rental_uris":{"android":"levelo://app?vid=98f223b6-e808-408e-a867-a015a7fa1ba3","ios":"levelo://app?vid=98f223b6-e808-408e-a867-a015a7fa1ba3"},"vehicle_type_id":"4","last_reported":1747930376,"current_range_meters":10000,"station_id":"ce4bhbp2rcd13ifvqerg","pricing_plan_id":"cebpf4jnsgd1na2vs0mg"},{"bike_id":"d14de0a6-a4a5-44ca-ad96-389bc1f9863a","system_id":"levelo_inurba_marseille","lat":43.24384,"lon":5.37057,"is_reserved":false,"is_disabled":false,"rental_uris":{"android":"levelo://app?vid=d14de0a6-a4a5-44ca-ad96-389bc1f9863a","ios":"levelo://app?vid=d14de0a6-a4a5-44ca-ad96-389bc1f9863a"},"vehicle_type_id":"4","last_reported":1747930376,"current_range_meters":10000,"station_id":"ce4bhhh2rcd13ifvqfk0","pricing_plan_id":"cebpf4jnsgd1na2vs0mg"},{"bike_id":"1213172f-5a4b-4772-8b39-a6d19f33318a","system_id":"levelo_inurba_marseille","lat":43.28432,"lon":5.39216,"is_reserved":false,"is_disabled":false,"rental_uris":{"android":"levelo://app?vid=1213172f-5a4b-4772-8b39-a6d19f33318a","ios":"levelo://app?vid=1213172f-5a4b-4772-8b39-a6d19f33318a"},"vehicle_type_id":"4","last_reported":1747930376,"current_range_meters":10000,"station_id":"ce4bhoh2rcd13ifvqh5g","pricing_plan_id":"cebpf4jnsgd1na2vs0mg"},{"bike_id":"7dfdfdc8-9c79-46b6-9a4b-924773b53f29","system_id":"levelo_inurba_marseille","lat":43.26878,"lon":5.39168,"is_reserved":false,"is_disabled":false,"rental_uris":{"android":"levelo://app?vid=7dfdfdc8-9c79-46b6-9a4b-924773b53f29","ios":"levelo://app?vid=7dfdfdc8-9c79-46b6-9a4b-924773b53f29"},"vehicle_type_id":"4","last_reported":1747930376,"current_range_meters":10800,"station_id":"","pricing_plan_id":"cebpf4jnsgd1na2vs0mg"},{"bike_id":"4d3cecc4-e6e9-4daf-8348-a89dce6044a0","system_id":"levelo_inurba_marseille","lat":43.29531,"lon":5.38539,"is_reserved":false,"is_disabled":false,"rental_uris":{"android":"levelo://app?vid=4d3cecc4-e6e9-4daf-8348-a89dce6044a0","ios":"levelo://app?vid=4d3cecc4-e6e9-4daf-8348-a89dce6044a0"},"vehicle_type_id":"4","last_reported":1747930376,"current_range_meters":10800,"station_id":"ce4bgih2rcd13ifvqba0","pricing_plan_id":"cebpf4jnsgd1na2vs0mg"},{"bike_id":"7e3ce236-67fe-4700-b711-fc0967b7a45a","system_id":"levelo_inurba_marseille","lat":43.30881,"lon":5.37199,"is_reserved":false,"is_disabled":false,"rental_uris":{"android":"levelo://app?vid=7e3ce236-67fe-4700-b711-fc0967b7a45a","ios":"levelo://app?vid=7e3ce236-67fe-4700-b711-fc0967b7a45a"},"vehicle_type_id":"4","last_reported":1747930376,"current_range_meters":10800,"station_id":"ce4bguh2rcd13ifvqckg","pricing_plan_id":"cebpf4jnsgd1na2vs0mg"},{"bike_id":"602084cb-2aa3-4cbd-ae6c-cba51aca7440","system_id":"levelo_inurba_marseille","lat":43.28574,"lon":5.395,"is_reserved":false,"is_disabled":false,"rental_uris":{"android":"levelo://app?vid=602084cb-2aa3-4cbd-ae6c-cba51aca7440","ios":"levelo://app?vid=602084cb-2aa3-4cbd-ae6c-cba51aca7440"},"vehicle_type_id":"4","last_reported":1747930376,"current_range_meters":10800,"station_id":"ce4bh292rcd13ifvqdg0","pricing_plan_id":"cebpf4jnsgd1na2vs0mg"},{"bike_id":"1dcb61a1-7c42-4161-a97a-1a01d48881c7","system_id":"levelo_inurba_marseille","lat":43.28858,"lon":5.35837,"is_reserved":false,"is_disabled":false,"rental_uris":{"android":"levelo://app?vid=1dcb61a1-7c42-4161-a97a-1a01d48881c7","ios":"levelo://app?vid=1dcb61a1-7c42-4161-a97a-1a01d48881c7"},"vehicle_type_id":"4","last_reported":1747930376,"current_range_meters":10800,"station_id":"ce4bhb12rcd13ifvqem0","pricing_plan_id":"cebpf4jnsgd1na2vs0mg"},{"bike_id":"77d351e7-4031-43fb-a118-368e81529b6f","system_id":"levelo_inurba_marseille","lat":43.28616,"lon":5.35107,"is_reserved":false,"is_disabled":false,"rental_uris":{"android":"levelo://app?vid=77d351e7-4031-43fb-a118-368e81529b6f","ios":"levelo://app?vid=77d351e7-4031-43fb-a118-368e81529b6f"},"vehicle_type_id":"4","last_reported":1747930376,"current_range_meters":10800,"station_id":"ce4bhch2rcd13ifvqeug","pricing_plan_id":"cebpf4jnsgd1na2vs0mg"},{"bike_id":"daa1fa20-a4fc-4e4c-a5e0-a46c69fa4a94","system_id":"levelo_inurba_marseille","lat":43.25109,"lon":5.40303,"is_reserved":false,"is_disabled":false,"rental_uris":{"android":"levelo://app?vid=daa1fa20-a4fc-4e4c-a5e0-a46c69fa4a94","ios":"levelo://app?vid=daa1fa20-a4fc-4e4c-a5e0-a46c69fa4a94"},"vehicle_type_id":"4","last_reported":1747930376,"current_range_meters":10800,"station_id":"ce4bhlh2rcd13ifvqgig","pricing_plan_id":"cebpf4jnsgd1na2vs0mg"},{"bike_id":"98b4804c-04f7-45e7-acbf-b86914fdfedd","system_id":"levelo_inurba_marseille","lat":43.30409,"lon":5.41298,"is_reserved":false,"is_disabled":false,"rental_uris":{"android":"levelo://app?vid=98b4804c-04f7-45e7-acbf-b86914fdfedd","ios":"levelo://app?vid=98b4804c-04f7-45e7-acbf-b86914fdfedd"},"vehicle_type_id":"4","last_reported":1747930376,"current_range_meters":10800,"station_id":"ce4bhop2rcd13ifvqh8g","pricing_plan_id":"cebpf4jnsgd1na2vs0mg"},{"bike_id":"8a9416d3-2a37-4312-9622-494ce1845d80","system_id":"levelo_inurba_marseille","lat":43.32355,"lon":5.36765,"is_reserved":false,"is_disabled":false,"rental_uris":{"android":"levelo://app?vid=8a9416d3-2a37-4312-9622-494ce1845d80","ios":"levelo://app?vid=8a9416d3-2a37-4312-9622-494ce1845d80"},"vehicle_type_id":"4","last_reported":1747930376,"current_range_meters":10800,"station_id":"ce4bhsh2rcd13ifvqi2g","pricing_plan_id":"cebpf4jnsgd1na2vs0mg"},{"bike_id":"a2307220-7952-4280-ac37-ea4a77285331","system_id":"levelo_inurba_marseille","lat":43.26808,"lon":5.4027,"is_reserved":false,"is_disabled":false,"rental_uris":{"android":"levelo://app?vid=a2307220-7952-4280-ac37-ea4a77285331","ios":"levelo://app?vid=a2307220-7952-4280-ac37-ea4a77285331"},"vehicle_type_id":"4","last_reported":1747930376,"current_range_meters":10800,"station_id":"ce501612rcd8frsf0b60","pricing_plan_id":"cebpf4jnsgd1na2vs0mg"},{"bike_id":"14258cf7-042b-4a2e-ba89-ae2ab28352a2","system_id":"levelo_inurba_marseille","lat":43.26946,"lon":5.40265,"is_reserved":false,"is_disabled":false,"rental_uris":{"android":"levelo://app?vid=14258cf7-042b-4a2e-ba89-ae2ab28352a2","ios":"levelo://app?vid=14258cf7-042b-4a2e-ba89-ae2ab28352a2"},"vehicle_type_id":"4","last_reported":1747930376,"current_range_meters":10800,"station_id":"cjm6bp8fraef2m0cb0m0","pricing_plan_id":"cebpf4jnsgd1na2vs0mg"},{"bike_id":"2f55c777-cbc9-4506-ac49-3bc0669b4bcb","system_id":"levelo_inurba_marseille","lat":43.307325,"lon":5.424363,"is_reserved":false,"is_disabled":false,"rental_uris":{"android":"levelo://app?vid=2f55c777-cbc9-4506-ac49-3bc0669b4bcb","ios":"levelo://app?vid=2f55c777-cbc9-4506-ac49-3bc0669b4bcb"},"vehicle_type_id":"4","last_reported":1747930376,"current_range_meters":10800,"station_id":"st_cvj6ca6bvosntc0bfgr0","pricing_plan_id":"cebpf4jnsgd1na2vs0mg"},{"bike_id":"2323a342-e3f5-4541-b7a9-45d97b504146","system_id":"levelo_inurba_marseille","lat":43.24991,"lon":5.38966,"is_reserved":false,"is_disabled":false,"rental_uris":{"android":"levelo://app?vid=2323a342-e3f5-4541-b7a9-45d97b504146","ios":"levelo://app?vid=2323a342-e3f5-4541-b7a9-45d97b504146"},"vehicle_type_id":"4","last_reported":1747930376,"current_range_meters":11200,"station_id":"ce4bhgp2rcd13ifvqfd0","pricing_plan_id":"cebpf4jnsgd1na2vs0mg"},{"bike_id":"0d18ef5c-dc2b-426b-bf3c-0f3326975233","system_id":"levelo_inurba_marseille","lat":43.297298,"lon":5.365943,"is_reserved":false,"is_disabled":false,"rental_uris":{"android":"levelo://app?vid=0d18ef5c-dc2b-426b-bf3c-0f3326975233","ios":"levelo://app?vid=0d18ef5c-dc2b-426b-bf3c-0f3326975233"},"vehicle_type_id":"4","last_reported":1747930376,"current_range_meters":11600,"station_id":"ce4bgn12rcd13ifvqbt0","pricing_plan_id":"cebpf4jnsgd1na2vs0mg"},{"bike_id":"33b8ba2c-0253-4dd0-a6f3-87ae3d35d402","system_id":"levelo_inurba_marseille","lat":43.28031,"lon":5.36938,"is_reserved":false,"is_disabled":false,"rental_uris":{"android":"levelo://app?vid=33b8ba2c-0253-4dd0-a6f3-87ae3d35d402","ios":"levelo://app?vid=33b8ba2c-0253-4dd0-a6f3-87ae3d35d402"},"vehicle_type_id":"4","last_reported":1747930376,"current_range_meters":11600,"station_id":"ce4bha12rcd13ifvqef0","pricing_plan_id":"cebpf4jnsgd1na2vs0mg"},{"bike_id":"71bb6312-7119-4c3a-b9e0-260984c3be94","system_id":"levelo_inurba_marseille","lat":43.27378,"lon":5.36255,"is_reserved":false,"is_disabled":false,"rental_uris":{"android":"levelo://app?vid=71bb6312-7119-4c3a-b9e0-260984c3be94","ios":"levelo://app?vid=71bb6312-7119-4c3a-b9e0-260984c3be94"},"vehicle_type_id":"4","last_reported":1747930376,"current_range_meters":11600,"station_id":"ce4bhbh2rcd13ifvqeo0","pricing_plan_id":"cebpf4jnsgd1na2vs0mg"},{"bike_id":"6c27c9af-4791-4597-88bd-3122f77c2977","system_id":"levelo_inurba_marseille","lat":43.26567,"lon":5.39027,"is_reserved":false,"is_disabled":false,"rental_uris":{"android":"levelo://app?vid=6c27c9af-4791-4597-88bd-3122f77c2977","ios":"levelo://app?vid=6c27c9af-4791-4597-88bd-3122f77c2977"},"vehicle_type_id":"4","last_reported":1747930376,"current_range_meters":11600,"station_id":"ce4bhe12rcd13ifvqf30","pricing_plan_id":"cebpf4jnsgd1na2vs0mg"},{"bike_id":"4aa33abb-f8b1-4406-8249-c759069bc5ce","system_id":"levelo_inurba_marseille","lat":43.24652,"lon":5.38895,"is_reserved":false,"is_disabled":false,"rental_uris":{"android":"levelo://app?vid=4aa33abb-f8b1-4406-8249-c759069bc5ce","ios":"levelo://app?vid=4aa33abb-f8b1-4406-8249-c759069bc5ce"},"vehicle_type_id":"4","last_reported":1747930376,"current_range_meters":11600,"station_id":"ce4bhg12rcd13ifvqf60","pricing_plan_id":"cebpf4jnsgd1na2vs0mg"},{"bike_id":"de0fb914-815f-496e-b265-257c322a0437","system_id":"levelo_inurba_marseille","lat":43.2657,"lon":5.37331,"is_reserved":false,"is_disabled":false,"rental_uris":{"android":"levelo://app?vid=de0fb914-815f-496e-b265-257c322a0437","ios":"levelo://app?vid=de0fb914-815f-496e-b265-257c322a0437"},"vehicle_type_id":"4","last_reported":1747930376,"current_range_meters":11600,"station_id":"ce4bhg12rcd13ifvqf70","pricing_plan_id":"cebpf4jnsgd1na2vs0mg"},{"bike_id":"332574d3-de4c-4af7-9337-03ba18ed0438","system_id":"levelo_inurba_marseille","lat":43.26493,"lon":5.39553,"is_reserved":false,"is_disabled":false,"rental_uris":{"android":"levelo://app?vid=332574d3-de4c-4af7-9337-03ba18ed0438","ios":"levelo://app?vid=332574d3-de4c-4af7-9337-03ba18ed0438"},"vehicle_type_id":"4","last_reported":1747930376,"current_range_meters":11600,"station_id":"ce4bhi12rcd13ifvqfq0","pricing_plan_id":"cebpf4jnsgd1na2vs0mg"},{"bike_id":"97cefe16-8a9e-44aa-b4cb-d578d05e2968","system_id":"levelo_inurba_marseille","lat":43.268089,"lon":5.402645,"is_reserved":false,"is_disabled":false,"rental_uris":{"android":"levelo://app?vid=97cefe16-8a9e-44aa-b4cb-d578d05e2968","ios":"levelo://app?vid=97cefe16-8a9e-44aa-b4cb-d578d05e2968"},"vehicle_type_id":"4","last_reported":1747930376,"current_range_meters":11600,"station_id":"ce501612rcd8frsf0b60","pricing_plan_id":"cebpf4jnsgd1na2vs0mg"},{"bike_id":"43d694fa-c108-48a5-846e-22f166ac24d6","system_id":"levelo_inurba_marseille","lat":43.31696,"lon":5.37735,"is_reserved":false,"is_disabled":false,"rental_uris":{"android":"levelo://app?vid=43d694fa-c108-48a5-846e-22f166ac24d6","ios":"levelo://app?vid=43d694fa-c108-48a5-846e-22f166ac24d6"},"vehicle_type_id":"4","last_reported":1747930376,"current_range_meters":12400,"station_id":"ce4bgth2rcd13ifvqch0","pricing_plan_id":"cebpf4jnsgd1na2vs0mg"},{"bike_id":"92a18978-37bf-4d78-aac9-9fcbdd25dd7f","system_id":"levelo_inurba_marseille","lat":43.285733,"lon":5.394938,"is_reserved":false,"is_disabled":false,"rental_uris":{"android":"levelo://app?vid=92a18978-37bf-4d78-aac9-9fcbdd25dd7f","ios":"levelo://app?vid=92a18978-37bf-4d78-aac9-9fcbdd25dd7f"},"vehicle_type_id":"4","last_reported":1747930376,"current_range_meters":12400,"station_id":"ce4bh292rcd13ifvqdg0","pricing_plan_id":"cebpf4jnsgd1na2vs0mg"},{"bike_id":"7b19ae3d-375f-484a-ac22-3d52f30e632f","system_id":"levelo_inurba_marseille","lat":43.23183,"lon":5.3998,"is_reserved":false,"is_disabled":false,"rental_uris":{"android":"levelo://app?vid=7b19ae3d-375f-484a-ac22-3d52f30e632f","ios":"levelo://app?vid=7b19ae3d-375f-484a-ac22-3d52f30e632f"},"vehicle_type_id":"4","last_reported":1747930376,"current_range_meters":12400,"station_id":"ce4bhn12rcd13ifvqgqg","pricing_plan_id":"cebpf4jnsgd1na2vs0mg"},{"bike_id":"f9223343-51dd-4eb0-a255-7d7bd8e5d0ef","system_id":"levelo_inurba_marseille","lat":43.311857,"lon":5.401783,"is_reserved":false,"is_disabled":false,"rental_uris":{"android":"levelo://app?vid=f9223343-51dd-4eb0-a255-7d7bd8e5d0ef","ios":"levelo://app?vid=f9223343-51dd-4eb0-a255-7d7bd8e5d0ef"},"vehicle_type_id":"4","last_reported":1747930376,"current_range_meters":12800,"station_id":"","pricing_plan_id":"cebpf4jnsgd1na2vs0mg"},{"bike_id":"ac915c37-8b26-4197-b40c-f8cfdd6f9850","system_id":"levelo_inurba_marseille","lat":43.31162,"lon":5.38726,"is_reserved":false,"is_disabled":false,"rental_uris":{"android":"levelo://app?vid=ac915c37-8b26-4197-b40c-f8cfdd6f9850","ios":"levelo://app?vid=ac915c37-8b26-4197-b40c-f8cfdd6f9850"},"vehicle_type_id":"4","last_reported":1747930376,"current_range_meters":12800,"station_id":"ce4bgv12rcd13ifvqcp0","pricing_plan_id":"cebpf4jnsgd1na2vs0mg"},{"bike_id":"f79ace74-5d7b-41ec-b848-8c72c68f6019","system_id":"levelo_inurba_marseille","lat":43.3133,"lon":5.39706,"is_reserved":false,"is_disabled":false,"rental_uris":{"android":"levelo://app?vid=f79ace74-5d7b-41ec-b848-8c72c68f6019","ios":"levelo://app?vid=f79ace74-5d7b-41ec-b848-8c72c68f6019"},"vehicle_type_id":"4","last_reported":1747930376,"current_range_meters":12800,"station_id":"ce4bgvp2rcd13ifvqcu0","pricing_plan_id":"cebpf4jnsgd1na2vs0mg"},{"bike_id":"b28a31f6-31d4-41b1-a55c-4e042a084c03","system_id":"levelo_inurba_marseille","lat":43.24385,"lon":5.37062,"is_reserved":false,"is_disabled":false,"rental_uris":{"android":"levelo://app?vid=b28a31f6-31d4-41b1-a55c-4e042a084c03","ios":"levelo://app?vid=b28a31f6-31d4-41b1-a55c-4e042a084c03"},"vehicle_type_id":"4","last_reported":1747930376,"current_range_meters":12800,"station_id":"ce4bhhh2rcd13ifvqfk0","pricing_plan_id":"cebpf4jnsgd1na2vs0mg"},{"bike_id":"371623db-4c4b-411d-9448-dd20b78ea214","system_id":"levelo_inurba_marseille","lat":43.25814,"lon":5.39434,"is_reserved":false,"is_disabled":false,"rental_uris":{"android":"levelo://app?vid=371623db-4c4b-411d-9448-dd20b78ea214","ios":"levelo://app?vid=371623db-4c4b-411d-9448-dd20b78ea214"},"vehicle_type_id":"4","last_reported":1747930376,"current_range_meters":12800,"station_id":"ce4bhip2rcd13ifvqft0","pricing_plan_id":"cebpf4jnsgd1na2vs0mg"},{"bike_id":"e3eacefa-2ca6-4996-82e3-fd40437168db","system_id":"levelo_inurba_marseille","lat":43.27842,"lon":5.39214,"is_reserved":false,"is_disabled":false,"rental_uris":{"android":"levelo://app?vid=e3eacefa-2ca6-4996-82e3-fd40437168db","ios":"levelo://app?vid=e3eacefa-2ca6-4996-82e3-fd40437168db"},"vehicle_type_id":"4","last_reported":1747930376,"current_range_meters":12800,"station_id":"ce4bhjp2rcd13ifvqga0","pricing_plan_id":"cebpf4jnsgd1na2vs0mg"},{"bike_id":"b36e053c-f766-4ad1-9ca4-42816d9075b1","system_id":"levelo_inurba_marseille","lat":43.32475,"lon":5.36555,"is_reserved":false,"is_disabled":false,"rental_uris":{"android":"levelo://app?vid=b36e053c-f766-4ad1-9ca4-42816d9075b1","ios":"levelo://app?vid=b36e053c-f766-4ad1-9ca4-42816d9075b1"},"vehicle_type_id":"4","last_reported":1747930376,"current_range_meters":12800,"station_id":"ce4bhs12rcd13ifvqhvg","pricing_plan_id":"cebpf4jnsgd1na2vs0mg"},{"bike_id":"67f15b0d-ad1a-465d-ad41-632c651e52ca","system_id":"levelo_inurba_marseille","lat":43.2958,"lon":5.36749,"is_reserved":false,"is_disabled":false,"rental_uris":{"android":"levelo://app?vid=67f15b0d-ad1a-465d-ad41-632c651e52ca","ios":"levelo://app?vid=67f15b0d-ad1a-465d-ad41-632c651e52ca"},"vehicle_type_id":"4","last_reported":1747930376,"current_range_meters":13600,"station_id":"ce4bgph2rcd13ifvqc2g","pricing_plan_id":"cebpf4jnsgd1na2vs0mg"},{"bike_id":"3536e485-653f-43ec-9a1c-74edf4bc5ba3","system_id":"levelo_inurba_marseille","lat":43.290064,"lon":5.375968,"is_reserved":false,"is_disabled":false,"rental_uris":{"android":"levelo://app?vid=3536e485-653f-43ec-9a1c-74edf4bc5ba3","ios":"levelo://app?vid=3536e485-653f-43ec-9a1c-74edf4bc5ba3"},"vehicle_type_id":"4","last_reported":1747930376,"current_range_meters":13600,"station_id":"ce4bha12rcd13ifvqee0","pricing_plan_id":"cebpf4jnsgd1na2vs0mg"},{"bike_id":"e21f8b9c-098d-4ada-833f-4cdc39ecc425","system_id":"levelo_inurba_marseille","lat":43.27917,"lon":5.39578,"is_reserved":false,"is_disabled":false,"rental_uris":{"android":"levelo://app?vid=e21f8b9c-098d-4ada-833f-4cdc39ecc425","ios":"levelo://app?vid=e21f8b9c-098d-4ada-833f-4cdc39ecc425"},"vehicle_type_id":"4","last_reported":1747930376,"current_range_meters":13600,"station_id":"ce4bhf92rcd13ifvqf40","pricing_plan_id":"cebpf4jnsgd1na2vs0mg"},{"bike_id":"19296e05-b4f3-4e79-9227-4cf9379b2e97","system_id":"levelo_inurba_marseille","lat":43.25581,"lon":5.3822,"is_reserved":false,"is_disabled":false,"rental_uris":{"android":"levelo://app?vid=19296e05-b4f3-4e79-9227-4cf9379b2e97","ios":"levelo://app?vid=19296e05-b4f3-4e79-9227-4cf9379b2e97"},"vehicle_type_id":"4","last_reported":1747930376,"current_range_meters":13600,"station_id":"ce4bhih2rcd13ifvqfs0","pricing_plan_id":"cebpf4jnsgd1na2vs0mg"},{"bike_id":"494ae2a8-2094-40ad-a728-33736877b4c1","system_id":"levelo_inurba_marseille","lat":43.28441,"lon":5.39211,"is_reserved":false,"is_disabled":false,"rental_uris":{"android":"levelo://app?vid=494ae2a8-2094-40ad-a728-33736877b4c1","ios":"levelo://app?vid=494ae2a8-2094-40ad-a728-33736877b4c1"},"vehicle_type_id":"4","last_reported":1747930376,"current_range_meters":13600,"station_id":"ce4bhoh2rcd13ifvqh5g","pricing_plan_id":"cebpf4jnsgd1na2vs0mg"},{"bike_id":"1467a2d0-2268-47e3-a086-63c830ef105b","system_id":"levelo_inurba_marseille","lat":43.30424,"lon":5.412883,"is_reserved":false,"is_disabled":false,"rental_uris":{"android":"levelo://app?vid=1467a2d0-2268-47e3-a086-63c830ef105b","ios":"levelo://app?vid=1467a2d0-2268-47e3-a086-63c830ef105b"},"vehicle_type_id":"4","last_reported":1747930376,"current_range_meters":13600,"station_id":"ce4bhop2rcd13ifvqh8g","pricing_plan_id":"cebpf4jnsgd1na2vs0mg"},{"bike_id":"a539180e-6962-4342-86d9-a05a3be6bbdb","system_id":"levelo_inurba_marseille","lat":43.31727,"lon":5.42388,"is_reserved":false,"is_disabled":false,"rental_uris":{"android":"levelo://app?vid=a539180e-6962-4342-86d9-a05a3be6bbdb","ios":"levelo://app?vid=a539180e-6962-4342-86d9-a05a3be6bbdb"},"vehicle_type_id":"4","last_reported":1747930376,"current_range_meters":13600,"station_id":"ce4bhp92rcd13ifvqhbg","pricing_plan_id":"cebpf4jnsgd1na2vs0mg"},{"bike_id":"7da06f34-e019-4b18-921d-8f77e54cc2f1","system_id":"levelo_inurba_marseille","lat":43.24889,"lon":5.3938,"is_reserved":false,"is_disabled":false,"rental_uris":{"android":"levelo://app?vid=7da06f34-e019-4b18-921d-8f77e54cc2f1","ios":"levelo://app?vid=7da06f34-e019-4b18-921d-8f77e54cc2f1"},"vehicle_type_id":"4","last_reported":1747930376,"current_range_meters":14000,"station_id":"","pricing_plan_id":"cebpf4jnsgd1na2vs0mg"},{"bike_id":"1a312c37-bc2b-4765-a63e-4521df7f51c0","system_id":"levelo_inurba_marseille","lat":43.30197,"lon":5.3662,"is_reserved":false,"is_disabled":false,"rental_uris":{"android":"levelo://app?vid=1a312c37-bc2b-4765-a63e-4521df7f51c0","ios":"levelo://app?vid=1a312c37-bc2b-4765-a63e-4521df7f51c0"},"vehicle_type_id":"4","last_reported":1747930376,"current_range_meters":14000,"station_id":"ce4bgrh2rcd13ifvqc8g","pricing_plan_id":"cebpf4jnsgd1na2vs0mg"},{"bike_id":"1dfee687-a17b-465b-9805-ced3f96e1f7b","system_id":"levelo_inurba_marseille","lat":43.31122,"lon":5.377628,"is_reserved":false,"is_disabled":false,"rental_uris":{"android":"levelo://app?vid=1dfee687-a17b-465b-9805-ced3f96e1f7b","ios":"levelo://app?vid=1dfee687-a17b-465b-9805-ced3f96e1f7b"},"vehicle_type_id":"4","last_reported":1747930376,"current_range_meters":14000,"station_id":"ce4bgt92rcd13ifvqcg0","pricing_plan_id":"cebpf4jnsgd1na2vs0mg"},{"bike_id":"65709e04-dd2d-4829-ad4c-b8b87c733266","system_id":"levelo_inurba_marseille","lat":43.29264,"lon":5.38428,"is_reserved":false,"is_disabled":false,"rental_uris":{"android":"levelo://app?vid=65709e04-dd2d-4829-ad4c-b8b87c733266","ios":"levelo://app?vid=65709e04-dd2d-4829-ad4c-b8b87c733266"},"vehicle_type_id":"4","last_reported":1747930376,"current_range_meters":14000,"station_id":"ce4bh692rcd13ifvqea0","pricing_plan_id":"cebpf4jnsgd1na2vs0mg"},{"bike_id":"e96b8bee-7581-4f4d-bf62-dd0fb1ffa882","system_id":"levelo_inurba_marseille","lat":43.29008,"lon":5.35607,"is_reserved":false,"is_disabled":false,"rental_uris":{"android":"levelo://app?vid=e96b8bee-7581-4f4d-bf62-dd0fb1ffa882","ios":"levelo://app?vid=e96b8bee-7581-4f4d-bf62-dd0fb1ffa882"},"vehicle_type_id":"4","last_reported":1747930376,"current_range_meters":14000,"station_id":"ce4bhb92rcd13ifvqen0","pricing_plan_id":"cebpf4jnsgd1na2vs0mg"},{"bike_id":"e77b9d43-a803-4f5c-912a-7a91f5e7da59","system_id":"levelo_inurba_marseille","lat":43.2841,"lon":5.35003,"is_reserved":false,"is_disabled":false,"rental_uris":{"android":"levelo://app?vid=e77b9d43-a803-4f5c-912a-7a91f5e7da59","ios":"levelo://app?vid=e77b9d43-a803-4f5c-912a-7a91f5e7da59"},"vehicle_type_id":"4","last_reported":1747930376,"current_range_meters":14000,"station_id":"ce4bhbh2rcd13ifvqepg","pricing_plan_id":"cebpf4jnsgd1na2vs0mg"},{"bike_id":"682e8c54-3f77-4582-937b-7490f31456f6","system_id":"levelo_inurba_marseille","lat":43.25869,"lon":5.39899,"is_reserved":false,"is_disabled":false,"rental_uris":{"android":"levelo://app?vid=682e8c54-3f77-4582-937b-7490f31456f6","ios":"levelo://app?vid=682e8c54-3f77-4582-937b-7490f31456f6"},"vehicle_type_id":"4","last_reported":1747930376,"current_range_meters":14000,"station_id":"ce4bhl92rcd13ifvqghg","pricing_plan_id":"cebpf4jnsgd1na2vs0mg"},{"bike_id":"84f00b51-2429-41be-8a43-83978d7764de","system_id":"levelo_inurba_marseille","lat":43.28002,"lon":5.40044,"is_reserved":false,"is_disabled":false,"rental_uris":{"android":"levelo://app?vid=84f00b51-2429-41be-8a43-83978d7764de","ios":"levelo://app?vid=84f00b51-2429-41be-8a43-83978d7764de"},"vehicle_type_id":"4","last_reported":1747930376,"current_range_meters":14000,"station_id":"ce4bho92rcd13ifvqh4g","pricing_plan_id":"cebpf4jnsgd1na2vs0mg"},{"bike_id":"ed8f9a18-7bed-4190-acd3-2baf38c489d0","system_id":"levelo_inurba_marseille","lat":43.3042,"lon":5.41289,"is_reserved":false,"is_disabled":false,"rental_uris":{"android":"levelo://app?vid=ed8f9a18-7bed-4190-acd3-2baf38c489d0","ios":"levelo://app?vid=ed8f9a18-7bed-4190-acd3-2baf38c489d0"},"vehicle_type_id":"4","last_reported":1747930376,"current_range_meters":14000,"station_id":"ce4bhop2rcd13ifvqh8g","pricing_plan_id":"cebpf4jnsgd1na2vs0mg"},{"bike_id":"e3e19b90-9823-4b53-b8a7-4c599b3176c2","system_id":"levelo_inurba_marseille","lat":43.25125,"lon":5.4031,"is_reserved":false,"is_disabled":false,"rental_uris":{"android":"levelo://app?vid=e3e19b90-9823-4b53-b8a7-4c599b3176c2","ios":"levelo://app?vid=e3e19b90-9823-4b53-b8a7-4c599b3176c2"},"vehicle_type_id":"4","last_reported":1747930376,"current_range_meters":14400,"station_id":"ce4bhlh2rcd13ifvqgig","pricing_plan_id":"cebpf4jnsgd1na2vs0mg"},{"bike_id":"0185262e-3cbf-4be9-8338-d09174cdb6a1","system_id":"levelo_inurba_marseille","lat":43.28156,"lon":5.42646,"is_reserved":false,"is_disabled":false,"rental_uris":{"android":"levelo://app?vid=0185262e-3cbf-4be9-8338-d09174cdb6a1","ios":"levelo://app?vid=0185262e-3cbf-4be9-8338-d09174cdb6a1"},"vehicle_type_id":"4","last_reported":1747930376,"current_range_meters":14400,"station_id":"ce4bhnh2rcd13ifvqgug","pricing_plan_id":"cebpf4jnsgd1na2vs0mg"},{"bike_id":"536f126d-38f5-4ab2-b061-25e624f769a2","system_id":"levelo_inurba_marseille","lat":43.28571,"lon":5.39501,"is_reserved":false,"is_disabled":false,"rental_uris":{"android":"levelo://app?vid=536f126d-38f5-4ab2-b061-25e624f769a2","ios":"levelo://app?vid=536f126d-38f5-4ab2-b061-25e624f769a2"},"vehicle_type_id":"4","last_reported":1747930376,"current_range_meters":14800,"station_id":"ce4bh292rcd13ifvqdg0","pricing_plan_id":"cebpf4jnsgd1na2vs0mg"},{"bike_id":"2c87c810-7a38-4e57-b8f4-53b1ff151be1","system_id":"levelo_inurba_marseille","lat":43.28618,"lon":5.35107,"is_reserved":false,"is_disabled":false,"rental_uris":{"android":"levelo://app?vid=2c87c810-7a38-4e57-b8f4-53b1ff151be1","ios":"levelo://app?vid=2c87c810-7a38-4e57-b8f4-53b1ff151be1"},"vehicle_type_id":"4","last_reported":1747930376,"current_range_meters":14800,"station_id":"ce4bhch2rcd13ifvqeug","pricing_plan_id":"cebpf4jnsgd1na2vs0mg"},{"bike_id":"86d07fdc-037f-4ac6-827c-02f5f46ee61d","system_id":"levelo_inurba_marseille","lat":43.23965,"lon":5.36633,"is_reserved":false,"is_disabled":false,"rental_uris":{"android":"levelo://app?vid=86d07fdc-037f-4ac6-827c-02f5f46ee61d","ios":"levelo://app?vid=86d07fdc-037f-4ac6-827c-02f5f46ee61d"},"vehicle_type_id":"4","last_reported":1747930376,"current_range_meters":14800,"station_id":"ce4bhi12rcd13ifvqfp0","pricing_plan_id":"cebpf4jnsgd1na2vs0mg"},{"bike_id":"fbb6c698-864d-409b-a8b9-51139ef831bd","system_id":"levelo_inurba_marseille","lat":43.26197,"lon":5.37937,"is_reserved":false,"is_disabled":false,"rental_uris":{"android":"levelo://app?vid=fbb6c698-864d-409b-a8b9-51139ef831bd","ios":"levelo://app?vid=fbb6c698-864d-409b-a8b9-51139ef831bd"},"vehicle_type_id":"4","last_reported":1747930376,"current_range_meters":14800,"station_id":"ce4bhjp2rcd13ifvqg90","pricing_plan_id":"cebpf4jnsgd1na2vs0mg"},{"bike_id":"a30e9205-cc02-4dfc-aaaa-7ec0a8cd3df5","system_id":"levelo_inurba_marseille","lat":43.32334,"lon":5.40605,"is_reserved":false,"is_disabled":false,"rental_uris":{"android":"levelo://app?vid=a30e9205-cc02-4dfc-aaaa-7ec0a8cd3df5","ios":"levelo://app?vid=a30e9205-cc02-4dfc-aaaa-7ec0a8cd3df5"},"vehicle_type_id":"4","last_reported":1747930376,"current_range_meters":14800,"station_id":"ce4bhq92rcd13ifvqhjg","pricing_plan_id":"cebpf4jnsgd1na2vs0mg"},{"bike_id":"d7522794-e8a4-4d7e-b68a-4d8afe25790e","system_id":"levelo_inurba_marseille","lat":43.28399,"lon":5.37514,"is_reserved":false,"is_disabled":false,"rental_uris":{"android":"levelo://app?vid=d7522794-e8a4-4d7e-b68a-4d8afe25790e","ios":"levelo://app?vid=d7522794-e8a4-4d7e-b68a-4d8afe25790e"},"vehicle_type_id":"4","last_reported":1747930376,"current_range_meters":15200,"station_id":"ce4bh412rcd13ifvqds0","pricing_plan_id":"cebpf4jnsgd1na2vs0mg"},{"bike_id":"fe2bcf9d-31d4-4e1d-9ee0-245e9981459f","system_id":"levelo_inurba_marseille","lat":43.29416,"lon":5.381124,"is_reserved":false,"is_disabled":false,"rental_uris":{"android":"levelo://app?vid=fe2bcf9d-31d4-4e1d-9ee0-245e9981459f","ios":"levelo://app?vid=fe2bcf9d-31d4-4e1d-9ee0-245e9981459f"},"vehicle_type_id":"4","last_reported":1747930376,"current_range_meters":15200,"station_id":"ce4bh692rcd13ifvqea0","pricing_plan_id":"cebpf4jnsgd1na2vs0mg"},