{"last_updated":1725822385,"ttl":30,"version":"2.2","data":{"bikes":[{"bike_id":"3cad443b-6266-4f7c-9d49-d174a2a81372","system_id":"levelo_inurba_marseille","lat":43.313391,"lon":5.36706,"is_reserved":false,"is_disabled":false,"rental_uris":{"android":"levelo://app?vid=3cad443b-6266-4f7c-9d49-d174a2a81372","ios":"levelo://app?vid=3cad443b-6266-4f7c-9d49-d174a2a81372"},"vehicle_type_id":"4","last_reported":1725822385,"current_range_meters":27600,"station_id":"ce4bgr92rcd13ifvqc6g","pricing_plan_id":"cebpf4jnsgd1na2vs0mg"},{"bike_id":"87c9139e-c46b-4cad-8eff-62e08e26775e","system_id":"levelo_inurba_marseille","lat":43.309076,"lon":5.368465,"is_reserved":false,"is_disabled":false,"rental_uris":{"android":"levelo://app?vid=87c9139e-c46b-4cad-8eff-62e08e26775e","ios":"levelo://app?vid=87c9139e-c46b-4cad-8eff-62e08e26775e"},"vehicle_type_id":"4","last_reported":1725822385,"current_range_meters":30400,"station_id":"ce4bgn92rcd13ifvqbvg","pricing_plan_id":"cebpf4jnsgd1na2vs0mg"},{"bike_id":"c5e2ddb3-6d9f-4fdb-8b16-e04f2f1a5f19","system_id":"levelo_inurba_marseille","lat":43.31481,"lon":5.37303,"is_reserved":false,"is_disabled":false,"rental_uris":{"android":"levelo://app?vid=c5e2ddb3-6d9f-4fdb-8b16-e04f2f1a5f19","ios":"levelo://app?vid=c5e2ddb3-6d9f-4fdb-8b16-e04f2f1a5f19"},"vehicle_type_id":"4","last_reported":1725822385,"current_range_meters":28800,"station_id":"ce4bgt12rcd13ifvqcd0","pricing_plan_id":"cebpf4jnsgd1na2vs0mg"},{"bike_id":"ffcf6dc7-b434-49f0-992d-0393ba97d287","system_id":"levelo_inurba_marseille","lat":43.31478,"lon":5.37311,"is_reserved":false,"is_disabled":false,"rental_uris":{"android":"levelo://app?vid=ffcf6dc7-b434-49f0-992d-0393ba97d287","ios":"levelo://app?vid=ffcf6dc7-b434-49f0-992d-0393ba97d287"},"vehicle_type_id":"4","last_reported":1725822385,"current_range_meters":0,"station_id":"ce4bgt12rcd13ifvqcd0","pricing_plan_id":"cebpf4jnsgd1na2vs0mg"},{"bike_id":"d4b148ac-889c-41c3-be96-97f7674dc89f","system_id":"levelo_inurba_marseille","lat":43.317712,"lon":5.372296,"is_reserved":false,"is_disabled":false,"rental_uris":{"android":"levelo://app?vid=d4b148ac-889c-41c3-be96-97f7674dc89f","ios":"levelo://app?vid=d4b148ac-889c-41c3-be96-97f7674dc89f"},"vehicle_type_id":"4","last_reported":1725822385,"current_range_meters":19600,"station_id":"","pricing_plan_id":"cebpf4jnsgd1na2vs0mg"},{"bike_id":"abfa8884-3d1c-48eb-8283-9f4ccef59c84","system_id":"levelo_inurba_marseille","lat":43.305714,"lon":5.365633,"is_reserved":false,"is_disabled":false,"rental_uris":{"android":"levelo://app?vid=abfa8884-3d1c-48eb-8283-9f4ccef59c84","ios":"levelo://app?vid=abfa8884-3d1c-48eb-8283-9f4ccef59c84"},"vehicle_type_id":"4","last_reported":1725822385,"current_range_meters":0,"station_id":"ce4bgs12rcd13ifvqcag","pricing_plan_id":"cebpf4jnsgd1na2vs0mg"},{"bike_id":"d7c9339a-4632-4361-b1d7-57ae88c09111","system_id":"levelo_inurba_marseille","lat":43.305989,"lon":5.37225,"is_reserved":false,"is_disabled":false,"rental_uris":{"android":"levelo://app?vid=d7c9339a-4632-4361-b1d7-57ae88c09111","ios":"levelo://app?vid=d7c9339a-4632-4361-b1d7-57ae88c09111"},"vehicle_type_id":"4","last_reported":1725822385,"current_range_meters":20800,"station_id":"ce4bgqh2rcd13ifvqc4g","pricing_plan_id":"cebpf4jnsgd1na2vs0mg"},{"bike_id":"8ca24627-c214-45b3-90c5-2cb568d8e38b","system_id":"levelo_inurba_marseille","lat":43.305989,"lon":5.37225,"is_reserved":false,"is_disabled":false,"rental_uris":{"android":"levelo://app?vid=8ca24627-c214-45b3-90c5-2cb568d8e38b","ios":"levelo://app?vid=8ca24627-c214-45b3-90c5-2cb568d8e38b"},"vehicle_type_id":"4","last_reported":1725822385,"current_range_meters":22800,"station_id":"ce4bgqh2rcd13ifvqc4g","pricing_plan_id":"cebpf4jnsgd1na2vs0mg"},{"bike_id":"e967f640-d2f7-4aeb-a7c8-27033612fb9f","system_id":"levelo_inurba_marseille","lat":43.305977,"lon":5.372307,"is_reserved":false,"is_disabled":false,"rental_uris":{"android":"levelo://app?vid=e967f640-d2f7-4aeb-a7c8-27033612fb9f","ios":"levelo://app?vid=e967f640-d2f7-4aeb-a7c8-27033612fb9f"},"vehicle_type_id":"4","last_reported":1725822385,"current_range_meters":0,"station_id":"ce4bgqh2rcd13ifvqc4g","pricing_plan_id":"cebpf4jnsgd1na2vs0mg"},{"bike_id":"9e373504-5d36-4ec1-b2d3-50f5940cedb7","system_id":"levelo_inurba_marseille","lat":43.305989,"lon":5.37225,"is_reserved":false,"is_disabled":false,"rental_uris":{"android":"levelo://app?vid=9e373504-5d36-4ec1-b2d3-50f5940cedb7","ios":"levelo://app?vid=9e373504-5d36-4ec1-b2d3-50f5940cedb7"},"vehicle_type_id":"4","last_reported":1725822385,"current_range_meters":15600,"station_id":"ce4bgqh2rcd13ifvqc4g","pricing_plan_id":"cebpf4jnsgd1na2vs0mg"},{"bike_id":"b2271a95-235b-4292-a747-ff96c2ad1624","system_id":"levelo_inurba_marseille","lat":43.305969,"lon":5.372329,"is_reserved":false,"is_disabled":false,"rental_uris":{"android":"levelo://app?vid=b2271a95-235b-4292-a747-ff96c2ad1624","ios":"levelo://app?vid=b2271a95-235b-4292-a747-ff96c2ad1624"},"vehicle_type_id":"4","last_reported":1725822385,"current_range_meters":0,"station_id":"ce4bgqh2rcd13ifvqc4g","pricing_plan_id":"cebpf4jnsgd1na2vs0mg"},{"bike_id":"cbef1335-f692-43ce-88df-33668f2f85f5","system_id":"levelo_inurba_marseille","lat":43.305989,"lon":5.37225,"is_reserved":false,"is_disabled":false,"rental_uris":{"android":"levelo://app?vid=cbef1335-f692-43ce-88df-33668f2f85f5","ios":"levelo://app?vid=cbef1335-f692-43ce-88df-33668f2f85f5"},"vehicle_type_id":"4","last_reported":1725822385,"current_range_meters":22000,"station_id":"ce4bgqh2rcd13ifvqc4g","pricing_plan_id":"cebpf4jnsgd1na2vs0mg"},{"bike_id":"e9ec9f21-a384-4c73-9ce0-9d827b71d0e3","system_id":"levelo_inurba_marseille","lat":43.311131,"lon":5.377651,"is_reserved":false,"is_disabled":false,"rental_uris":{"android":"levelo://app?vid=e9ec9f21-a384-4c73-9ce0-9d827b71d0e3","ios":"levelo://app?vid=e9ec9f21-a384-4c73-9ce0-9d827b71d0e3"},"vehicle_type_id":"4","last_reported":1725822385,"current_range_meters":11200,"station_id":"ce4bgt92rcd13ifvqcg0","pricing_plan_id":"cebpf4jnsgd1na2vs0mg"},{"bike_id":"e494b9ad-d641-44e6-b563-845346840316","system_id":"levelo_inurba_marseille","lat":43.305368,"lon":5.367343,"is_reserved":false,"is_disabled":false,"rental_uris":{"android":"levelo://app?vid=e494b9ad-d641-44e6-b563-845346840316","ios":"levelo://app?vid=e494b9ad-d641-44e6-b563-845346840316"},"vehicle_type_id":"4","last_reported":1725822385,"current_range_meters":8800,"station_id":"ce4bgrp2rcd13ifvqc9g","pricing_plan_id":"cebpf4jnsgd1na2vs0mg"},{"bike_id":"0b80b672-ae03-4991-99ff-9c68e2c47d22","system_id":"levelo_inurba_marseille","lat":43.307945,"lon":5.376487,"is_reserved":false,"is_disabled":false,"rental_uris":{"android":"levelo://app?vid=0b80b672-ae03-4991-99ff-9c68e2c47d22","ios":"levelo://app?vid=0b80b672-ae03-4991-99ff-9c68e2c47d22"},"vehicle_type_id":"4","last_reported":1725822385,"current_range_meters":16800,"station_id":"ce4bgv92rcd13ifvqcq0","pricing_plan_id":"cebpf4jnsgd1na2vs0mg"},{"bike_id":"47d9c083-15b3-444b-860d-8b8d51c3d309","system_id":"levelo_inurba_marseille","lat":43.305706,"lon":5.365654,"is_reserved":false,"is_disabled":false,"rental_uris":{"android":"levelo://app?vid=47d9c083-15b3-444b-860d-8b8d51c3d309","ios":"levelo://app?vid=47d9c083-15b3-444b-860d-8b8d51c3d309"},"vehicle_type_id":"4","last_reported":1725822385,"current_range_meters":10800,"station_id":"ce4bgs12rcd13ifvqcag","pricing_plan_id":"cebpf4jnsgd1na2vs0mg"},{"bike_id":"e6240958-5766-4e43-be3c-5414d3e93fa9","system_id":"levelo_inurba_marseille","lat":43.31354,"lon":5.37918,"is_reserved":false,"is_disabled":false,"rental_uris":{"android":"levelo://app?vid=e6240958-5766-4e43-be3c-5414d3e93fa9","ios":"levelo://app?vid=e6240958-5766-4e43-be3c-5414d3e93fa9"},"vehicle_type_id":"4","last_reported":1725822385,"current_range_meters":18400,"station_id":"","pricing_plan_id":"cebpf4jnsgd1na2vs0mg"},{"bike_id":"de6856bc-9417-46ac-8cc6-f12df9fda1cf","system_id":"levelo_inurba_marseille","lat":43.303046,"lon":5.368981,"is_reserved":false,"is_disabled":false,"rental_uris":{"android":"levelo://app?vid=de6856bc-9417-46ac-8cc6-f12df9fda1cf","ios":"levelo://app?vid=de6856bc-9417-46ac-8cc6-f12df9fda1cf"},"vehicle_type_id":"4","last_reported":1725822385,"current_range_meters":0,"station_id":"ce4bgqh2rcd13ifvqc5g","pricing_plan_id":"cebpf4jnsgd1na2vs0mg"},{"bike_id":"394b4aed-0a67-4018-a5c4-8a0882a92ac7","system_id":"levelo_inurba_marseille","lat":43.303046,"lon":5.368981,"is_reserved":false,"is_disabled":false,"rental_uris":{"android":"levelo://app?vid=394b4aed-0a67-4018-a5c4-8a0882a92ac7","ios":"levelo://app?vid=394b4aed-0a67-4018-a5c4-8a0882a92ac7"},"vehicle_type_id":"4","last_reported":1725822385,"current_range_meters":29600,"station_id":"ce4bgqh2rcd13ifvqc5g","pricing_plan_id":"cebpf4jnsgd1na2vs0mg"},{"bike_id":"57edc214-dbba-4311-a597-320beaa7f80d","system_id":"levelo_inurba_marseille","lat":43.30304,"lon":5.368987,"is_reserved":false,"is_disabled":false,"rental_uris":{"android":"levelo://app?vid=57edc214-dbba-4311-a597-320beaa7f80d","ios":"levelo://app?vid=57edc214-dbba-4311-a597-320beaa7f80d"},"vehicle_type_id":"4","last_reported":1725822385,"current_range_meters":24800,"station_id":"ce4bgqh2rcd13ifvqc5g","pricing_plan_id":"cebpf4jnsgd1na2vs0mg"},{"bike_id":"f6a7e8f9-6a1d-4fc5-a285-f2afcb68ef7f","system_id":"levelo_inurba_marseille","lat":43.303046,"lon":5.368981,"is_reserved":false,"is_disabled":false,"rental_uris":{"android":"levelo://app?vid=f6a7e8f9-6a1d-4fc5-a285-f2afcb68ef7f","ios":"levelo://app?vid=f6a7e8f9-6a1d-4fc5-a285-f2afcb68ef7f"},"vehicle_type_id":"4","last_reported":1725822385,"current_range_meters":6000,"station_id":"ce4bgqh2rcd13ifvqc5g","pricing_plan_id":"cebpf4jnsgd1na2vs0mg"},{"bike_id":"95d6c8cb-f743-4eee-ae0d-c8cf11a41f02","system_id":"levelo_inurba_marseille","lat":43.315289,"lon":5.380349,"is_reserved":false,"is_disabled":false,"rental_uris":{"android":"levelo://app?vid=95d6c8cb-f743-4eee-ae0d-c8cf11a41f02","ios":"levelo://app?vid=95d6c8cb-f743-4eee-ae0d-c8cf11a41f02"},"vehicle_type_id":"4","last_reported":1725822385,"current_range_meters":27600,"station_id":"ce4bhsp2rcd13ifvqi50","pricing_plan_id":"cebpf4jnsgd1na2vs0mg"},{"bike_id":"8abc1be7-4a2e-4963-a93a-db5b2dd55e69","system_id":"levelo_inurba_marseille","lat":43.315289,"lon":5.380349,"is_reserved":false,"is_disabled":false,"rental_uris":{"android":"levelo://app?vid=8abc1be7-4a2e-4963-a93a-db5b2dd55e69","ios":"levelo://app?vid=8abc1be7-4a2e-4963-a93a-db5b2dd55e69"},"vehicle_type_id":"4","last_reported":1725822385,"current_range_meters":0,"station_id":"ce4bhsp2rcd13ifvqi50","pricing_plan_id":"cebpf4jnsgd1na2vs0mg"},{"bike_id":"71293c3b-6a6a-49d5-8e7e-88ec34f115c4","system_id":"levelo_inurba_marseille","lat":43.315289,"lon":5.380349,"is_reserved":false,"is_disabled":false,"rental_uris":{"android":"levelo://app?vid=71293c3b-6a6a-49d5-8e7e-88ec34f115c4","ios":"levelo://app?vid=71293c3b-6a6a-49d5-8e7e-88ec34f115c4"},"vehicle_type_id":"4","last_reported":1725822385,"current_range_meters":10000,"station_id":"ce4bhsp2rcd13ifvqi50","pricing_plan_id":"cebpf4jnsgd1na2vs0mg"},{"bike_id":"7c34bff3-0530-4ead-8407-4fc6d9f9510d","system_id":"levelo_inurba_marseille","lat":43.31062,"lon":5.38139,"is_reserved":false,"is_disabled":false,"rental_uris":{"android":"levelo://app?vid=7c34bff3-0530-4ead-8407-4fc6d9f9510d","ios":"levelo://app?vid=7c34bff3-0530-4ead-8407-4fc6d9f9510d"},"vehicle_type_id":"4","last_reported":1725822385,"current_range_meters":12400,"station_id":"","pricing_plan_id":"cebpf4jnsgd1na2vs0mg"},{"bike_id":"1b0ff3b5-f78d-4b85-9bfe-ff1d5285fe6a","system_id":"levelo_inurba_marseille","lat":43.301939,"lon":5.366286,"is_reserved":false,"is_disabled":false,"rental_uris":{"android":"levelo://app?vid=1b0ff3b5-f78d-4b85-9bfe-ff1d5285fe6a","ios":"levelo://app?vid=1b0ff3b5-f78d-4b85-9bfe-ff1d5285fe6a"},"vehicle_type_id":"4","last_reported":1725822385,"current_range_meters":26800,"station_id":"ce4bgrh2rcd13ifvqc8g","pricing_plan_id":"cebpf4jnsgd1na2vs0mg"},{"bike_id":"f1e4df4f-a5c7-419d-8984-4aff60f02134","system_id":"levelo_inurba_marseille","lat":43.301939,"lon":5.366286,"is_reserved":false,"is_disabled":false,"rental_uris":{"android":"levelo://app?vid=f1e4df4f-a5c7-419d-8984-4aff60f02134","ios":"levelo://app?vid=f1e4df4f-a5c7-419d-8984-4aff60f02134"},"vehicle_type_id":"4","last_reported":1725822385,"current_range_meters":12000,"station_id":"ce4bgrh2rcd13ifvqc8g","pricing_plan_id":"cebpf4jnsgd1na2vs0mg"},{"bike_id":"43826419-047b-4c0d-a55f-4d72a562d301","system_id":"levelo_inurba_marseille","lat":43.301939,"lon":5.366286,"is_reserved":false,"is_disabled":false,"rental_uris":{"android":"levelo://app?vid=43826419-047b-4c0d-a55f-4d72a562d301","ios":"levelo://app?vid=43826419-047b-4c0d-a55f-4d72a562d301"},"vehicle_type_id":"4","last_reported":1725822385,"current_range_meters":27600,"station_id":"ce4bgrh2rcd13ifvqc8g","pricing_plan_id":"cebpf4jnsgd1na2vs0mg"},{"bike_id":"ff824737-de51-4c08-93c4-a87335eadc84","system_id":"levelo_inurba_marseille","lat":43.307948,"lon":5.38159,"is_reserved":false,"is_disabled":false,"rental_uris":{"android":"levelo://app?vid=ff824737-de51-4c08-93c4-a87335eadc84","ios":"levelo://app?vid=ff824737-de51-4c08-93c4-a87335eadc84"},"vehicle_type_id":"4","last_reported":1725822385,"current_range_meters":0,"station_id":"ce4bgt12rcd13ifvqce0","pricing_plan_id":"cebpf4jnsgd1na2vs0mg"},{"bike_id":"7d5dc096-e09c-4f65-af17-7527aaf046f2","system_id":"levelo_inurba_marseille","lat":43.324771,"lon":5.36557,"is_reserved":false,"is_disabled":false,"rental_uris":{"android":"levelo://app?vid=7d5dc096-e09c-4f65-af17-7527aaf046f2","ios":"levelo://app?vid=7d5dc096-e09c-4f65-af17-7527aaf046f2"},"vehicle_type_id":"4","last_reported":1725822385,"current_range_meters":31600,"station_id":"ce4bhs12rcd13ifvqhvg","pricing_plan_id":"cebpf4jnsgd1na2vs0mg"},{"bike_id":"dacc5064-48d7-4477-80bf-85317b192990","system_id":"levelo_inurba_marseille","lat":43.324771,"lon":5.36557,"is_reserved":false,"is_disabled":false,"rental_uris":{"android":"levelo://app?vid=dacc5064-48d7-4477-80bf-85317b192990","ios":"levelo://app?vid=dacc5064-48d7-4477-80bf-85317b192990"},"vehicle_type_id":"4","last_reported":1725822385,"current_range_meters":8400,"station_id":"ce4bhs12rcd13ifvqhvg","pricing_plan_id":"cebpf4jnsgd1na2vs0mg"},{"bike_id":"f4cf2b14-0787-453d-b183-96238c9a5283","system_id":"levelo_inurba_marseille","lat":43.324771,"lon":5.36557,"is_reserved":false,"is_disabled":false,"rental_uris":{"android":"levelo://app?vid=f4cf2b14-0787-453d-b183-96238c9a5283","ios":"levelo://app?vid=f4cf2b14-0787-453d-b183-96238c9a5283"},"vehicle_type_id":"4","last_reported":1725822385,"current_range_meters":31200,"station_id":"ce4bhs12rcd13ifvqhvg","pricing_plan_id":"cebpf4jnsgd1na2vs0mg"},{"bike_id":"517c6418-f24b-410c-936b-da4943fd859c","system_id":"levelo_inurba_marseille","lat":43.324771,"lon":5.36557,"is_reserved":false,"is_disabled":false,"rental_uris":{"android":"levelo://app?vid=517c6418-f24b-410c-936b-da4943fd859c","ios":"levelo://app?vid=517c6418-f24b-410c-936b-da4943fd859c"},"vehicle_type_id":"4","last_reported":1725822385,"current_range_meters":26400,"station_id":"ce4bhs12rcd13ifvqhvg","pricing_plan_id":"cebpf4jnsgd1na2vs0mg"},{"bike_id":"a8095eba-0e77-4079-a940-8f7fe92fc0fa","system_id":"levelo_inurba_marseille","lat":43.324786,"lon":5.365762,"is_reserved":false,"is_disabled":false,"rental_uris":{"android":"levelo://app?vid=a8095eba-0e77-4079-a940-8f7fe92fc0fa","ios":"levelo://app?vid=a8095eba-0e77-4079-a940-8f7fe92fc0fa"},"vehicle_type_id":"4","last_reported":1725822385,"current_range_meters":24000,"station_id":"ce4bhs12rcd13ifvqhvg","pricing_plan_id":"cebpf4jnsgd1na2vs0mg"},{"bike_id":"15366ac0-6c82-4df6-bf9c-aefdeeffe81e","system_id":"levelo_inurba_marseille","lat":43.324771,"lon":5.36557,"is_reserved":false,"is_disabled":false,"rental_uris":{"android":"levelo://app?vid=15366ac0-6c82-4df6-bf9c-aefdeeffe81e","ios":"levelo://app?vid=15366ac0-6c82-4df6-bf9c-aefdeeffe81e"},"vehicle_type_id":"4","last_reported":1725822385,"current_range_meters":14800,"station_id":"ce4bhs12rcd13ifvqhvg","pricing_plan_id":"cebpf4jnsgd1na2vs0mg"},{"bike_id":"28443d07-e92e-41d0-a481-142627755f42","system_id":"levelo_inurba_marseille","lat":43.324771,"lon":5.36557,"is_reserved":false,"is_disabled":false,"rental_uris":{"android":"levelo://app?vid=28443d07-e92e-41d0-a481-142627755f42","ios":"levelo://app?vid=28443d07-e92e-41d0-a481-142627755f42"},"vehicle_type_id":"4","last_reported":1725822385,"current_range_meters":9200,"station_id":"ce4bhs12rcd13ifvqhvg","pricing_plan_id":"cebpf4jnsgd1na2vs0mg"},{"bike_id":"c8993479-49c1-4ea3-a09d-3fdbb0abb7a0","system_id":"levelo_inurba_marseille","lat":43.324771,"lon":5.36557,"is_reserved":false,"is_disabled":false,"rental_uris":{"android":"levelo://app?vid=c8993479-49c1-4ea3-a09d-3fdbb0abb7a0","ios":"levelo://app?vid=c8993479-49c1-4ea3-a09d-3fdbb0abb7a0"},"vehicle_type_id":"4","last_reported":1725822385,"current_range_meters":800,"station_id":"ce4bhs12rcd13ifvqhvg","pricing_plan_id":"cebpf4jnsgd1na2vs0mg"},{"bike_id":"8111d373-d8ce-46c3-8612-d016e1f13fb5","system_id":"levelo_inurba_marseille","lat":43.324771,"lon":5.36557,"is_reserved":false,"is_disabled":false,"rental_uris":{"android":"levelo://app?vid=8111d373-d8ce-46c3-8612-d016e1f13fb5","ios":"levelo://app?vid=8111d373-d8ce-46c3-8612-d016e1f13fb5"},"vehicle_type_id":"4","last_reported":1725822385,"current_range_meters":29200,"station_id":"ce4bhs12rcd13ifvqhvg","pricing_plan_id":"cebpf4jnsgd1na2vs0mg"},{"bike_id":"b592f802-cb83-4c10-ae27-f2b0a1fb47da","system_id":"levelo_inurba_marseille","lat":43.310804,"lon":5.38359,"is_reserved":false,"is_disabled":false,"rental_uris":{"android":"levelo://app?vid=b592f802-cb83-4c10-ae27-f2b0a1fb47da","ios":"levelo://app?vid=b592f802-cb83-4c10-ae27-f2b0a1fb47da"},"vehicle_type_id":"4","last_reported":1725822385,"current_range_meters":4400,"station_id":"ce4bgv92rcd13ifvqcr0","pricing_plan_id":"cebpf4jnsgd1na2vs0mg"},{"bike_id":"ab114a1c-13cd-4a2d-ad29-430eba7b63d6","system_id":"levelo_inurba_marseille","lat":43.310804,"lon":5.38359,"is_reserved":false,"is_disabled":false,"rental_uris":{"android":"levelo://app?vid=ab114a1c-13cd-4a2d-ad29-430eba7b63d6","ios":"levelo://app?vid=ab114a1c-13cd-4a2d-ad29-430eba7b63d6"},"vehicle_type_id":"4","last_reported":1725822385,"current_range_meters":16400,"station_id":"ce4bgv92rcd13ifvqcr0","pricing_plan_id":"cebpf4jnsgd1na2vs0mg"},{"bike_id":"5ee4d5d0-8daa-4a55-9bce-9f03383dc458","system_id":"levelo_inurba_marseille","lat":43.302784,"lon":5.377158,"is_reserved":false,"is_disabled":false,"rental_uris":{"android":"levelo://app?vid=5ee4d5d0-8daa-4a55-9bce-9f03383dc458","ios":"levelo://app?vid=5ee4d5d0-8daa-4a55-9bce-9f03383dc458"},"vehicle_type_id":"4","last_reported":1725822385,"current_range_meters":0,"station_id":"ce4bguh2rcd13ifvqcj0","pricing_plan_id":"cebpf4jnsgd1na2vs0mg"},{"bike_id":"54b59d79-2085-45b9-81b1-a2dd6945f302","system_id":"levelo_inurba_marseille","lat":43.301429,"lon":5.37413,"is_reserved":false,"is_disabled":false,"rental_uris":{"android":"levelo://app?vid=54b59d79-2085-45b9-81b1-a2dd6945f302","ios":"levelo://app?vid=54b59d79-2085-45b9-81b1-a2dd6945f302"},"vehicle_type_id":"4","last_reported":1725822385,"current_range_meters":4800,"station_id":"ce4bgs92rcd13ifvqcc0","pricing_plan_id":"cebpf4jnsgd1na2vs0mg"},{"bike_id":"3f1bbebc-8430-4966-af98-f90014826e19","system_id":"levelo_inurba_marseille","lat":43.319935,"lon":5.381699,"is_reserved":false,"is_disabled":false,"rental_uris":{"android":"levelo://app?vid=3f1bbebc-8430-4966-af98-f90014826e19","ios":"levelo://app?vid=3f1bbebc-8430-4966-af98-f90014826e19"},"vehicle_type_id":"4","last_reported":1725822385,"current_range_meters":20000,"station_id":"ce4bhr12rcd13ifvqhpg","pricing_plan_id":"cebpf4jnsgd1na2vs0mg"},{"bike_id":"67d4d8cb-6d39-4214-8161-d25f595a39a0","system_id":"levelo_inurba_marseille","lat":43.319948,"lon":5.38151,"is_reserved":false,"is_disabled":false,"rental_uris":{"android":"levelo://app?vid=67d4d8cb-6d39-4214-8161-d25f595a39a0","ios":"levelo://app?vid=67d4d8cb-6d39-4214-8161-d25f595a39a0"},"vehicle_type_id":"4","last_reported":1725822385,"current_range_meters":2800,"station_id":"ce4bhr12rcd13ifvqhpg","pricing_plan_id":"cebpf4jnsgd1na2vs0mg"},{"bike_id":"46639478-df40-4cc3-88ba-ba5c6ad87ceb","system_id":"levelo_inurba_marseille","lat":43.319935,"lon":5.381699,"is_reserved":false,"is_disabled":false,"rental_uris":{"android":"levelo://app?vid=46639478-df40-4cc3-88ba-ba5c6ad87ceb","ios":"levelo://app?vid=46639478-df40-4cc3-88ba-ba5c6ad87ceb"},"vehicle_type_id":"4","last_reported":1725822385,"current_range_meters":18400,"station_id":"ce4bhr12rcd13ifvqhpg","pricing_plan_id":"cebpf4jnsgd1na2vs0mg"},{"bike_id":"52d890f4-b096-4ffd-b107-6bfbca00875b","system_id":"levelo_inurba_marseille","lat":43.31989,"lon":5.38159,"is_reserved":false,"is_disabled":false,"rental_uris":{"android":"levelo://app?vid=52d890f4-b096-4ffd-b107-6bfbca00875b","ios":"levelo://app?vid=52d890f4-b096-4ffd-b107-6bfbca00875b"},"vehicle_type_id":"4","last_reported":1725822385,"current_range_meters":14800,"station_id":"ce4bhr12rcd13ifvqhpg","pricing_plan_id":"cebpf4jnsgd1na2vs0mg"},{"bike_id":"01a9b8e2-6a4c-4c48-b027-338541b2f87e","system_id":"levelo_inurba_marseille","lat":43.319935,"lon":5.381699,"is_reserved":false,"is_disabled":false,"rental_uris":{"android":"levelo://app?vid=01a9b8e2-6a4c-4c48-b027-338541b2f87e","ios":"levelo://app?vid=01a9b8e2-6a4c-4c48-b027-338541b2f87e"},"vehicle_type_id":"4","last_reported":1725822385,"current_range_meters":6000,"station_id":"ce4bhr12rcd13ifvqhpg","pricing_plan_id":"cebpf4jnsgd1na2vs0mg"},{"bike_id":"d60cdb4d-c076-41d1-8789-e2bc8f17ed68","system_id":"levelo_inurba_marseille","lat":43.319935,"lon":5.381699,"is_reserved":false,"is_disabled":false,"rental_uris":{"android":"levelo://app?vid=d60cdb4d-c076-41d1-8789-e2bc8f17ed68","ios":"levelo://app?vid=d60cdb4d-c076-41d1-8789-e2bc8f17ed68"},"vehicle_type_id":"4","last_reported":1725822385,"current_range_meters":23200,"station_id":"ce4bhr12rcd13ifvqhpg","pricing_plan_id":"cebpf4jnsgd1na2vs0mg"},{"bike_id":"a74f2f15-c272-4697-8dc9-e86e0e00cecd","system_id":"levelo_inurba_marseille","lat":43.319935,"lon":5.381699,"is_reserved":false,"is_disabled":false,"rental_uris":{"android":"levelo://app?vid=a74f2f15-c272-4697-8dc9-e86e0e00cecd","ios":"levelo://app?vid=a74f2f15-c272-4697-8dc9-e86e0e00cecd"},"vehicle_type_id":"4","last_reported":1725822385,"current_range_meters":9600,"station_id":"ce4bhr12rcd13ifvqhpg","pricing_plan_id":"cebpf4jnsgd1na2vs0mg"},{"bike_id":"5b319e82-5233-4e0c-b8ed-6512b699d516","system_id":"levelo_inurba_marseille","lat":43.313571,"lon":5.384829,"is_reserved":false,"is_disabled":false,"rental_uris":{"android":"levelo://app?vid=5b319e82-5233-4e0c-b8ed-6512b699d516","ios":"levelo://app?vid=5b319e82-5233-4e0c-b8ed-6512b699d516"},"vehicle_type_id":"4","last_reported":1725822385,"current_range_meters":400,"station_id":"ce4bgt92rcd13ifvqcf0","pricing_plan_id":"cebpf4jnsgd1na2vs0mg"},{"bike_id":"e33aafa8-7148-4508-b46e-26d54bc504f1","system_id":"levelo_inurba_marseille","lat":43.313571,"lon":5.384829,"is_reserved":false,"is_disabled":false,"rental_uris":{"android":"levelo://app?vid=e33aafa8-7148-4508-b46e-26d54bc504f1","ios":"levelo://app?vid=e33aafa8-7148-4508-b46e-26d54bc504f1"},"vehicle_type_id":"4","last_reported":1725822385,"current_range_meters":9200,"station_id":"ce4bgt92rcd13ifvqcf0","pricing_plan_id":"cebpf4jnsgd1na2vs0mg"},{"bike_id":"a61369b0-2989-46eb-af5b-8f0983614937","system_id":"levelo_inurba_marseille","lat":43.313571,"lon":5.384829,"is_reserved":false,"is_disabled":false,"rental_uris":{"android":"levelo://app?vid=a61369b0-2989-46eb-af5b-8f0983614937","ios":"levelo://app?vid=a61369b0-2989-46eb-af5b-8f0983614937"},"vehicle_type_id":"4","last_reported":1725822385,"current_range_meters":6000,"station_id":"ce4bgt92rcd13ifvqcf0","pricing_plan_id":"cebpf4jnsgd1na2vs0mg"},{"bike_id":"7266b505-67bc-40b7-bcc0-2aded0ac7fbd","system_id":"levelo_inurba_marseille","lat":43.313571,"lon":5.384829,"is_reserved":false,"is_disabled":false,"rental_uris":{"android":"levelo://app?vid=7266b505-67bc-40b7-bcc0-2aded0ac7fbd","ios":"levelo://app?vid=7266b505-67bc-40b7-bcc0-2aded0ac7fbd"},"vehicle_type_id":"4","last_reported":1725822385,"current_range_meters":0,"station_id":"ce4bgt92rcd13ifvqcf0","pricing_plan_id":"cebpf4jnsgd1na2vs0mg"},{"bike_id":"8ab18fdf-02fa-4ef4-8e66-4f9985fb3d68","system_id":"levelo_inurba_marseille","lat":43.313571,"lon":5.384829,"is_reserved":false,"is_disabled":false,"rental_uris":{"android":"levelo://app?vid=8ab18fdf-02fa-4ef4-8e66-4f9985fb3d68","ios":"levelo://app?vid=8ab18fdf-02fa-4ef4-8e66-4f9985fb3d68"},"vehicle_type_id":"4","last_reported":1725822385,"current_range_meters":20000,"station_id":"ce4bgt92rcd13ifvqcf0","pricing_plan_id":"cebpf4jnsgd1na2vs0mg"},{"bike_id":"579ef4d6-b842-4840-85f1-eaa0c44c9780","system_id":"levelo_inurba_marseille","lat":43.313571,"lon":5.384829,"is_reserved":false,"is_disabled":false,"rental_uris":{"android":"levelo://app?vid=579ef4d6-b842-4840-85f1-eaa0c44c9780","ios":"levelo://app?vid=579ef4d6-b842-4840-85f1-eaa0c44c9780"},"vehicle_type_id":"4","last_reported":1725822385,"current_range_meters":2400,"station_id":"ce4bgt92rcd13ifvqcf0","pricing_plan_id":"cebpf4jnsgd1na2vs0mg"},{"bike_id":"f0b9f65c-0585-4066-8079-cb07b124d33f","system_id":"levelo_inurba_marseille","lat":43.313571,"lon":5.384829,"is_reserved":false,"is_disabled":false,"rental_uris":{"android":"levelo://app?vid=f0b9f65c-0585-4066-8079-cb07b124d33f","ios":"levelo://app?vid=f0b9f65c-0585-4066-8079-cb07b124d33f"},"vehicle_type_id":"4","last_reported":1725822385,"current_range_meters":1200,"station_id":"ce4bgt92rcd13ifvqcf0","pricing_plan_id":"cebpf4jnsgd1na2vs0mg"},{"bike_id":"72049afd-56b8-491e-843c-727e391a4e08","system_id":"levelo_inurba_marseille","lat":43.299846,"lon":5.371733,"is_reserved":false,"is_disabled":false,"rental_uris":{"android":"levelo://app?vid=72049afd-56b8-491e-843c-727e391a4e08","ios":"levelo://app?vid=72049afd-56b8-491e-843c-727e391a4e08"},"vehicle_type_id":"4","last_reported":1725822385,"current_range_meters":27600,"station_id":"ce4bgr92rcd13ifvqc7g","pricing_plan_id":"cebpf4jnsgd1na2vs0mg"},{"bike_id":"6b52b2fd-1549-4aef-82f7-6b8b9c2a9ebb","system_id":"levelo_inurba_marseille","lat":43.30575,"lon":5.383623,"is_reserved":false,"is_disabled":false,"rental_uris":{"android":"levelo://app?vid=6b52b2fd-1549-4aef-82f7-6b8b9c2a9ebb","ios":"levelo://app?vid=6b52b2fd-1549-4aef-82f7-6b8b9c2a9ebb"},"vehicle_type_id":"4","last_reported":1725822385,"current_range_meters":0,"station_id":"","pricing_plan_id":"cebpf4jnsgd1na2vs0mg"},{"bike_id":"340cd993-59c4-4485-8652-9797b6ba9df3","system_id":"levelo_inurba_marseille","lat":43.305364,"lon":5.384119,"is_reserved":false,"is_disabled":false,"rental_uris":{"android":"levelo://app?vid=340cd993-59c4-4485-8652-9797b6ba9df3","ios":"levelo://app?vid=340cd993-59c4-4485-8652-9797b6ba9df3"},"vehicle_type_id":"4","last_reported":1725822385,"current_range_meters":18400,"station_id":"ce4bgg92rcd13ifvqb30","pricing_plan_id":"cebpf4jnsgd1na2vs0mg"},{"bike_id":"3147af59-936e-4b67-b68f-595ae056c5f3","system_id":"levelo_inurba_marseille","lat":43.299243,"lon":5.374807,"is_reserved":false,"is_disabled":false,"rental_uris":{"android":"levelo://app?vid=3147af59-936e-4b67-b68f-595ae056c5f3","ios":"levelo://app?vid=3147af59-936e-4b67-b68f-595ae056c5f3"},"vehicle_type_id":"4","last_reported":1725822385,"current_range_meters":30400,"station_id":"ce4bgjh2rcd13ifvqbg0","pricing_plan_id":"cebpf4jnsgd1na2vs0mg"},{"bike_id":"4ab337b9-b0d5-46d1-b297-15fb48da485b","system_id":"levelo_inurba_marseille","lat":43.311722,"lon":5.387247,"is_reserved":false,"is_disabled":false,"rental_uris":{"android":"levelo://app?vid=4ab337b9-b0d5-46d1-b297-15fb48da485b","ios":"levelo://app?vid=4ab337b9-b0d5-46d1-b297-15fb48da485b"},"vehicle_type_id":"4","last_reported":1725822385,"current_range_meters":14800,"station_id":"ce4bgv12rcd13ifvqcp0","pricing_plan_id":"cebpf4jnsgd1na2vs0mg"},{"bike_id":"555657bf-914c-4aad-8c86-603d82c6988f","system_id":"levelo_inurba_marseille","lat":43.311722,"lon":5.387247,"is_reserved":false,"is_disabled":false,"rental_uris":{"android":"levelo://app?vid=555657bf-914c-4aad-8c86-603d82c6988f","ios":"levelo://app?vid=555657bf-914c-4aad-8c86-603d82c6988f"},"vehicle_type_id":"4","last_reported":1725822385,"current_range_meters":1600,"station_id":"ce4bgv12rcd13ifvqcp0","pricing_plan_id":"cebpf4jnsgd1na2vs0mg"},{"bike_id":"62953769-bad5-49c0-81ed-44b4d9f5698f","system_id":"levelo_inurba_marseille","lat":43.297836,"lon":5.371093,"is_reserved":false,"is_disabled":false,"rental_uris":{"android":"levelo://app?vid=62953769-bad5-49c0-81ed-44b4d9f5698f","ios":"levelo://app?vid=62953769-bad5-49c0-81ed-44b4d9f5698f"},"vehicle_type_id":"4","last_reported":1725822385,"current_range_meters":24400,"station_id":"ce4bgop2rcd13ifvqc1g","pricing_plan_id":"cebpf4jnsgd1na2vs0mg"},{"bike_id":"c44588a4-f0c3-4e47-9551-12f24c76e247","system_id":"levelo_inurba_marseille","lat":43.32289,"lon":5.38271,"is_reserved":false,"is_disabled":false,"rental_uris":{"android":"levelo://app?vid=c44588a4-f0c3-4e47-9551-12f24c76e247","ios":"levelo://app?vid=c44588a4-f0c3-4e47-9551-12f24c76e247"},"vehicle_type_id":"4","last_reported":1725822385,"current_range_meters":28800,"station_id":"ce4bhr12rcd13ifvqhqg","pricing_plan_id":"cebpf4jnsgd1na2vs0mg"},{"bike_id":"61946a75-1e7c-4265-a3b6-5f15351838fb","system_id":"levelo_inurba_marseille","lat":43.322872,"lon":5.382756,"is_reserved":false,"is_disabled":false,"rental_uris":{"android":"levelo://app?vid=61946a75-1e7c-4265-a3b6-5f15351838fb","ios":"levelo://app?vid=61946a75-1e7c-4265-a3b6-5f15351838fb"},"vehicle_type_id":"4","last_reported":1725822385,"current_range_meters":15200,"station_id":"ce4bhr12rcd13ifvqhqg","pricing_plan_id":"cebpf4jnsgd1na2vs0mg"},{"bike_id":"e58de14d-48fa-49ff-9e42-30fa2b11e8dc","system_id":"levelo_inurba_marseille","lat":43.322872,"lon":5.382756,"is_reserved":false,"is_disabled":false,"rental_uris":{"android":"levelo://app?vid=e58de14d-48fa-49ff-9e42-30fa2b11e8dc","ios":"levelo://app?vid=e58de14d-48fa-49ff-9e42-30fa2b11e8dc"},"vehicle_type_id":"4","last_reported":1725822385,"current_range_meters":8400,"station_id":"ce4bhr12rcd13ifvqhqg","pricing_plan_id":"cebpf4jnsgd1na2vs0mg"},{"bike_id":"2e865a37-4525-4154-bfa5-2e253b800524","system_id":"levelo_inurba_marseille","lat":43.322872,"lon":5.382756,"is_reserved":false,"is_disabled":false,"rental_uris":{"android":"levelo://app?vid=2e865a37-4525-4154-bfa5-2e253b800524","ios":"levelo://app?vid=2e865a37-4525-4154-bfa5-2e253b800524"},"vehicle_type_id":"4","last_reported":1725822385,"current_range_meters":29600,"station_id":"ce4bhr12rcd13ifvqhqg","pricing_plan_id":"cebpf4jnsgd1na2vs0mg"},{"bike_id":"1a5f8300-291b-493d-ad5b-ec07f0eaf598","system_id":"levelo_inurba_marseille","lat":43.322872,"lon":5.382756,"is_reserved":false,"is_disabled":false,"rental_uris":{"android":"levelo://app?vid=1a5f8300-291b-493d-ad5b-ec07f0eaf598","ios":"levelo://app?vid=1a5f8300-291b-493d-ad5b-ec07f0eaf598"},"vehicle_type_id":"4","last_reported":1725822385,"current_range_meters":30800,"station_id":"ce4bhr12rcd13ifvqhqg","pricing_plan_id":"cebpf4jnsgd1na2vs0mg"},{"bike_id":"1f1e6004-3006-416a-9019-e77de74a8bd5","system_id":"levelo_inurba_marseille","lat":43.322872,"lon":5.382756,"is_reserved":false,"is_disabled":false,"rental_uris":{"android":"levelo://app?vid=1f1e6004-3006-416a-9019-e77de74a8bd5","ios":"levelo://app?vid=1f1e6004-3006-416a-9019-e77de74a8bd5"},"vehicle_type_id":"4","last_reported":1725822385,"current_range_meters":10800,"station_id":"ce4bhr12rcd13ifvqhqg","pricing_plan_id":"cebpf4jnsgd1na2vs0mg"},{"bike_id":"9d4d4ad3-9fa4-4394-8995-8a5887e80cc8","system_id":"levelo_inurba_marseille","lat":43.3229,"lon":5.38278,"is_reserved":false,"is_disabled":false,"rental_uris":{"android":"levelo://app?vid=9d4d4ad3-9fa4-4394-8995-8a5887e80cc8","ios":"levelo://app?vid=9d4d4ad3-9fa4-4394-8995-8a5887e80cc8"},"vehicle_type_id":"4","last_reported":1725822385,"current_range_meters":5200,"station_id":"ce4bhr12rcd13ifvqhqg","pricing_plan_id":"cebpf4jnsgd1na2vs0mg"},{"bike_id":"53fe9635-8afe-40f3-ad3e-c7147107a8a1","system_id":"levelo_inurba_marseille","lat":43.29724,"lon":5.36873,"is_reserved":false,"is_disabled":false,"rental_uris":{"android":"levelo://app?vid=53fe9635-8afe-40f3-ad3e-c7147107a8a1","ios":"levelo://app?vid=53fe9635-8afe-40f3-ad3e-c7147107a8a1"},"vehicle_type_id":"4","last_reported":1725822385,"current_range_meters":18800,"station_id":"","pricing_plan_id":"cebpf4jnsgd1na2vs0mg"},{"bike_id":"105bc4e8-c71e-4b5d-b34c-269838fe1e0e","system_id":"levelo_inurba_marseille","lat":43.31586,"lon":5.3887,"is_reserved":false,"is_disabled":false,"rental_uris":{"android":"levelo://app?vid=105bc4e8-c71e-4b5d-b34c-269838fe1e0e","ios":"levelo://app?vid=105bc4e8-c71e-4b5d-b34c-269838fe1e0e"},"vehicle_type_id":"4","last_reported":1725822385,"current_range_meters":9600,"station_id":"","pricing_plan_id":"cebpf4jnsgd1na2vs0mg"},{"bike_id":"8a8887de-5c7d-4b1c-91b2-78e9c920b48d","system_id":"levelo_inurba_marseille","lat":43.2968,"lon":5.37291,"is_reserved":false,"is_disabled":false,"rental_uris":{"android":"levelo://app?vid=8a8887de-5c7d-4b1c-91b2-78e9c920b48d","ios":"levelo://app?vid=8a8887de-5c7d-4b1c-91b2-78e9c920b48d"},"vehicle_type_id":"4","last_reported":1725822385,"current_range_meters":29600,"station_id":"ce4bgk12rcd13ifvqbj0","pricing_plan_id":"cebpf4jnsgd1na2vs0mg"},{"bike_id":"1af40115-97a4-4ef3-9520-052ed3a09308","system_id":"levelo_inurba_marseille","lat":43.29573,"lon":5.367355,"is_reserved":false,"is_disabled":false,"rental_uris":{"android":"levelo://app?vid=1af40115-97a4-4ef3-9520-052ed3a09308","ios":"levelo://app?vid=1af40115-97a4-4ef3-9520-052ed3a09308"},"vehicle_type_id":"4","last_reported":1725822385,"current_range_meters":28000,"station_id":"ce4bgph2rcd13ifvqc2g","pricing_plan_id":"cebpf4jnsgd1na2vs0mg"},{"bike_id":"945290d1-6fe4-40d6-bef5-f7c83cf10bd5","system_id":"levelo_inurba_marseille","lat":43.29575,"lon":5.36756,"is_reserved":false,"is_disabled":false,"rental_uris":{"android":"levelo://app?vid=945290d1-6fe4-40d6-bef5-f7c83cf10bd5","ios":"levelo://app?vid=945290d1-6fe4-40d6-bef5-f7c83cf10bd5"},"vehicle_type_id":"4","last_reported":1725822385,"current_range_meters":0,"station_id":"ce4bgph2rcd13ifvqc2g","pricing_plan_id":"cebpf4jnsgd1na2vs0mg"},{"bike_id":"c4241717-85e0-49ae-83ce-358d9c71bd5a","system_id":"levelo_inurba_marseille","lat":43.296921,"lon":5.376579,"is_reserved":false,"is_disabled":false,"rental_uris":{"android":"levelo://app?vid=c4241717-85e0-49ae-83ce-358d9c71bd5a","ios":"levelo://app?vid=c4241717-85e0-49ae-83ce-358d9c71bd5a"},"vehicle_type_id":"4","last_reported":1725822385,"current_range_meters":14400,"station_id":"ce4bgkh2rcd13ifvqbl0","pricing_plan_id":"cebpf4jnsgd1na2vs0mg"},{"bike_id":"e5f9572d-3085-4851-9e44-0fc9397d70aa","system_id":"levelo_inurba_marseille","lat":43.29714,"lon":5.3769,"is_reserved":false,"is_disabled":false,"rental_uris":{"android":"levelo://app?vid=e5f9572d-3085-4851-9e44-0fc9397d70aa","ios":"levelo://app?vid=e5f9572d-3085-4851-9e44-0fc9397d70aa"},"vehicle_type_id":"4","last_reported":1725822385,"current_range_meters":0,"station_id":"ce4bgkh2rcd13ifvqbl0","pricing_plan_id":"cebpf4jnsgd1na2vs0mg"},{"bike_id":"23e7dbb9-faa1-47b2-a5c4-feb121a434fc","system_id":"levelo_inurba_marseille","lat":43.299028,"lon":5.381509,"is_reserved":false,"is_disabled":false,"rental_uris":{"android":"levelo://app?vid=23e7dbb9-faa1-47b2-a5c4-feb121a434fc","ios":"levelo://app?vid=23e7dbb9-faa1-47b2-a5c4-feb121a434fc"},"vehicle_type_id":"4","last_reported":1725822385,"current_range_meters":19600,"station_id":"ce4bgj12rcd13ifvqbc0","pricing_plan_id":"cebpf4jnsgd1na2vs0mg"},{"bike_id":"0f624d33-a791-4dc9-a97d-17ab3efd9d7b","system_id":"levelo_inurba_marseille","lat":43.30949,"lon":5.39024,"is_reserved":false,"is_disabled":false,"rental_uris":{"android":"levelo://app?vid=0f624d33-a791-4dc9-a97d-17ab3efd9d7b","ios":"levelo://app?vid=0f624d33-a791-4dc9-a97d-17ab3efd9d7b"},"vehicle_type_id":"4","last_reported":1725822385,"current_range_meters":24400,"station_id":"","pricing_plan_id":"cebpf4jnsgd1na2vs0mg"},{"bike_id":"ce951157-5d0f-4bf9-a5f6-30a2b320049f","system_id":"levelo_inurba_marseille","lat":43.299028,"lon":5.381509,"is_reserved":false,"is_disabled":false,"rental_uris":{"android":"levelo://app?vid=ce951157-5d0f-4bf9-a5f6-30a2b320049f","ios":"levelo://app?vid=ce951157-5d0f-4bf9-a5f6-30a2b320049f"},"vehicle_type_id":"4","last_reported":1725822385,"current_range_meters":14800,"station_id":"ce4bgj12rcd13ifvqbc0","pricing_plan_id":"cebpf4jnsgd1na2vs0mg"},{"bike_id":"2e7b8ce8-fd66-4ee6-bad6-6b1220cf310c","system_id":"levelo_inurba_marseille","lat":43.299028,"lon":5.381509,"is_reserved":false,"is_disabled":false,"rental_uris":{"android":"levelo://app?vid=2e7b8ce8-fd66-4ee6-bad6-6b1220cf310c","ios":"levelo://app?vid=2e7b8ce8-fd66-4ee6-bad6-6b1220cf310c"},"vehicle_type_id":"4","last_reported":1725822385,"current_range_meters":24400,"station_id":"ce4bgj12rcd13ifvqbc0","pricing_plan_id":"cebpf4jnsgd1na2vs0mg"},{"bike_id":"363ce61a-b993-4cd7-8978-c8c0a13a78d9","system_id":"levelo_inurba_marseille","lat":43.299028,"lon":5.381509,"is_reserved":false,"is_disabled":false,"rental_uris":{"android":"levelo://app?vid=363ce61a-b993-4cd7-8978-c8c0a13a78d9","ios":"levelo://app?vid=363ce61a-b993-4cd7-8978-c8c0a13a78d9"},"vehicle_type_id":"4","last_reported":1725822385,"current_range_meters":8000,"station_id":"ce4bgj12rcd13ifvqbc0","pricing_plan_id":"cebpf4jnsgd1na2vs0mg"},{"bike_id":"1dacf37d-d525-481b-b3e9-ef52e8f7c08a","system_id":"levelo_inurba_marseille","lat":43.309589,"lon":5.390258,"is_reserved":false,"is_disabled":false,"rental_uris":{"android":"levelo://app?vid=1dacf37d-d525-481b-b3e9-ef52e8f7c08a","ios":"levelo://app?vid=1dacf37d-d525-481b-b3e9-ef52e8f7c08a"},"vehicle_type_id":"4","last_reported":1725822385,"current_range_meters":12000,"station_id":"ce4bgup2rcd13ifvqco0","pricing_plan_id":"cebpf4jnsgd1na2vs0mg"},{"bike_id":"10f69fe8-7773-460f-8cbc-84d5043d302b","system_id":"levelo_inurba_marseille","lat":43.32253,"lon":5.387034,"is_reserved":false,"is_disabled":false,"rental_uris":{"android":"levelo://app?vid=10f69fe8-7773-460f-8cbc-84d5043d302b","ios":"levelo://app?vid=10f69fe8-7773-460f-8cbc-84d5043d302b"},"vehicle_type_id":"4","last_reported":1725822385,"current_range_meters":18400,"station_id":"","pricing_plan_id":"cebpf4jnsgd1na2vs0mg"},{"bike_id":"827a1855-4480-4860-9ac2-6179c0d1e66d","system_id":"levelo_inurba_marseille","lat":43.317557,"lon":5.390173,"is_reserved":false,"is_disabled":false,"rental_uris":{"android":"levelo://app?vid=827a1855-4480-4860-9ac2-6179c0d1e66d","ios":"levelo://app?vid=827a1855-4480-4860-9ac2-6179c0d1e66d"},"vehicle_type_id":"4","last_reported":1725822385,"current_range_meters":0,"station_id":"ce4bhqp2rcd13ifvqhng","pricing_plan_id":"cebpf4jnsgd1na2vs0mg"},{"bike_id":"0a30a93c-d825-45cd-ae29-804bbbd5c55d","system_id":"levelo_inurba_marseille","lat":43.298037,"lon":5.381066,"is_reserved":false,"is_disabled":false,"rental_uris":{"android":"levelo://app?vid=0a30a93c-d825-45cd-ae29-804bbbd5c55d","ios":"levelo://app?vid=0a30a93c-d825-45cd-ae29-804bbbd5c55d"},"vehicle_type_id":"4","last_reported":1725822385,"current_range_meters":9200,"station_id":"ce4bgip2rcd13ifvqbb0","pricing_plan_id":"cebpf4jnsgd1na2vs0mg"},{"bike_id":"d767d728-cb0e-4a87-b64a-45d91b3972d9","system_id":"levelo_inurba_marseille","lat":43.29796,"lon":5.38087,"is_reserved":false,"is_disabled":false,"rental_uris":{"android":"levelo://app?vid=d767d728-cb0e-4a87-b64a-45d91b3972d9","ios":"levelo://app?vid=d767d728-cb0e-4a87-b64a-45d91b3972d9"},"vehicle_type_id":"4","last_reported":1725822385,"current_range_meters":8800,"station_id":"ce4bgip2rcd13ifvqbb0","pricing_plan_id":"cebpf4jnsgd1na2vs0mg"},{"bike_id":"097fdd53-1802-401b-ac08-e6895beed393","system_id":"levelo_inurba_marseille","lat":43.298037,"lon":5.381066,"is_reserved":false,"is_disabled":false,"rental_uris":{"android":"levelo://app?vid=097fdd53-1802-401b-ac08-e6895beed393","ios":"levelo://app?vid=097fdd53-1802-401b-ac08-e6895beed393"},"vehicle_type_id":"4","last_reported":1725822385,"current_range_meters":9200,"station_id":"ce4bgip2rcd13ifvqbb0","pricing_plan_id":"cebpf4jnsgd1na2vs0mg"},{"bike_id":"507d4b05-f329-4f60-8be0-d00484ff46cc","system_id":"levelo_inurba_marseille","lat":43.298037,"lon":5.381066,"is_reserved":false,"is_disabled":false,"rental_uris":{"android":"levelo://app?vid=507d4b05-f329-4f60-8be0-d00484ff46cc","ios":"levelo://app?vid=507d4b05-f329-4f60-8be0-d00484ff46cc"},"vehicle_type_id":"4","last_reported":1725822385,"current_range_meters":27200,"station_id":"ce4bgip2rcd13ifvqbb0","pricing_plan_id":"cebpf4jnsgd1na2vs0mg"},{"bike_id":"53e1d79c-619d-4f0a-9d1d-e473bfaece90","system_id":"levelo_inurba_marseille","lat":43.295701,"lon":5.375081,"is_reserved":false,"is_disabled":false,"rental_uris":{"android":"levelo://app?vid=53e1d79c-619d-4f0a-9d1d-e473bfaece90","ios":"levelo://app?vid=53e1d79c-619d-4f0a-9d1d-e473bfaece90"},"vehicle_type_id":"4","last_reported":1725822385,"current_range_meters":0,"station_id":"ce4bgh92rcd13ifvqb50","pricing_plan_id":"cebpf4jnsgd1na2vs0mg"},{"bike_id":"82dc5da9-7001-4cf7-9c03-6ee4a78ceb94","system_id":"levelo_inurba_marseille","lat":43.30431,"lon":5.38886,"is_reserved":false,"is_disabled":false,"rental_uris":{"android":"levelo://app?vid=82dc5da9-7001-4cf7-9c03-6ee4a78ceb94","ios":"levelo://app?vid=82dc5da9-7001-4cf7-9c03-6ee4a78ceb94"},"vehicle_type_id":"4","last_reported":1725822385,"current_range_meters":0,"station_id":"","pricing_plan_id":"cebpf4jnsgd1na2vs0mg"},{"bike_id":"bf91bf17-7162-4e52-9cbb-1513e9504f2f","system_id":"levelo_inurba_marseille","lat":43.304274,"lon":5.388873,"is_reserved":false,"is_disabled":false,"rental_uris":{"android":"levelo://app?vid=bf91bf17-7162-4e52-9cbb-1513e9504f2f","ios":"levelo://app?vid=bf91bf17-7162-4e52-9cbb-1513e9504f2f"},"vehicle_type_id":"4","last_reported":1725822385,"current_range_meters":11200,"station_id":"ce4bgk12rcd13ifvqbi0","pricing_plan_id":"cebpf4jnsgd1na2vs0mg"},{"bike_id":"0cbda6dd-faed-44d5-a3ef-f7d151a9c376","system_id":"levelo_inurba_marseille","lat":43.295748,"lon":5.37522,"is_reserved":false,"is_disabled":false,"rental_uris":{"android":"levelo://app?vid=0cbda6dd-faed-44d5-a3ef-f7d151a9c376","ios":"levelo://app?vid=0cbda6dd-faed-44d5-a3ef-f7d151a9c376"},"vehicle_type_id":"4","last_reported":1725822385,"current_range_meters":0,"station_id":"ce4bgh92rcd13ifvqb50","pricing_plan_id":"cebpf4jnsgd1na2vs0mg"},{"bike_id":"d0c16384-dc11-4173-b600-e5da07b0c45c","system_id":"levelo_inurba_marseille","lat":43.304278,"lon":5.388868,"is_reserved":false,"is_disabled":false,"rental_uris":{"android":"levelo://app?vid=d0c16384-dc11-4173-b600-e5da07b0c45c","ios":"levelo://app?vid=d0c16384-dc11-4173-b600-e5da07b0c45c"},"vehicle_type_id":"4","last_reported":1725822385,"current_range_meters":6800,"station_id":"ce4bgk12rcd13ifvqbi0","pricing_plan_id":"cebpf4jnsgd1na2vs0mg"},{"bike_id":"a8abbb3d-3a37-4675-9b3c-a45a17a783ff","system_id":"levelo_inurba_marseille","lat":43.304274,"lon":5.388873,"is_reserved":false,"is_disabled":false,"rental_uris":{"android":"levelo://app?vid=a8abbb3d-3a37-4675-9b3c-a45a17a783ff","ios":"levelo://app?vid=a8abbb3d-3a37-4675-9b3c-a45a17a783ff"},"vehicle_type_id":"4","last_reported":1725822385,"current_range_meters":6400,"station_id":"ce4bgk12rcd13ifvqbi0","pricing_plan_id":"cebpf4jnsgd1na2vs0mg"},{"bike_id":"8bdecaf6-69b8-44ff-9540-0c01da9b3b61","system_id":"levelo_inurba_marseille","lat":43.290631,"lon":5.359244,"is_reserved":false,"is_disabled":false,"rental_uris":{"android":"levelo://app?vid=8bdecaf6-69b8-44ff-9540-0c01da9b3b61","ios":"levelo://app?vid=8bdecaf6-69b8-44ff-9540-0c01da9b3b61"},"vehicle_type_id":"4","last_reported":1725822385,"current_range_meters":17600,"station_id":"ce4bha92rcd13ifvqeg0","pricing_plan_id":"cebpf4jnsgd1na2vs0mg"},{"bike_id":"c0c679c8-3f6e-4b60-b158-44f4a9e89814","system_id":"levelo_inurba_marseille","lat":43.29972,"lon":5.38485,"is_reserved":false,"is_disabled":false,"rental_uris":{"android":"levelo://app?vid=c0c679c8-3f6e-4b60-b158-44f4a9e89814","ios":"levelo://app?vid=c0c679c8-3f6e-4b60-b158-44f4a9e89814"},"vehicle_type_id":"4","last_reported":1725822385,"current_range_meters":0,"station_id":"ce4bgj92rcd13ifvqbd0","pricing_plan_id":"cebpf4jnsgd1na2vs0mg"},{"bike_id":"55d85fdd-bf80-4922-9853-dd2fc4567480","system_id":"levelo_inurba_marseille","lat":43.299707,"lon":5.384859,"is_reserved":false,"is_disabled":false,"rental_uris":{"android":"levelo://app?vid=55d85fdd-bf80-4922-9853-dd2fc4567480","ios":"levelo://app?vid=55d85fdd-bf80-4922-9853-dd2fc4567480"},"vehicle_type_id":"4","last_reported":1725822385,"current_range_meters":26400,"station_id":"ce4bgj92rcd13ifvqbd0","pricing_plan_id":"cebpf4jnsgd1na2vs0mg"},{"bike_id":"5b1a1d49-5405-428c-86b0-6b578f3acf57","system_id":"levelo_inurba_marseille","lat":43.299717,"lon":5.384845,"is_reserved":false,"is_disabled":false,"rental_uris":{"android":"levelo://app?vid=5b1a1d49-5405-428c-86b0-6b578f3acf57","ios":"levelo://app?vid=5b1a1d49-5405-428c-86b0-6b578f3acf57"},"vehicle_type_id":"4","last_reported":1725822385,"current_range_meters":0,"station_id":"ce4bgj92rcd13ifvqbd0","pricing_plan_id":"cebpf4jnsgd1na2vs0mg"},{"bike_id":"e832d8c5-d4ac-46ec-88c6-c87382c1d4b9","system_id":"levelo_inurba_marseille","lat":43.295279,"lon":5.375048,"is_reserved":false,"is_disabled":false,"rental_uris":{"android":"levelo://app?vid=e832d8c5-d4ac-46ec-88c6-c87382c1d4b9","ios":"levelo://app?vid=e832d8c5-d4ac-46ec-88c6-c87382c1d4b9"},"vehicle_type_id":"4","last_reported":1725822385,"current_range_meters":4000,"station_id":"ce4bgkp2rcd13ifvqbmg","pricing_plan_id":"cebpf4jnsgd1na2vs0mg"},{"bike_id":"7baa5113-de20-4046-9d97-4b2b8eccc997","system_id":"levelo_inurba_marseille","lat":43.29962,"lon":5.38496,"is_reserved":false,"is_disabled":false,"rental_uris":{"android":"levelo://app?vid=7baa5113-de20-4046-9d97-4b2b8eccc997","ios":"levelo://app?vid=7baa5113-de20-4046-9d97-4b2b8eccc997"},"vehicle_type_id":"4","last_reported":1725822385,"current_range_meters":0,"station_id":"ce4bgj92rcd13ifvqbd0","pricing_plan_id":"cebpf4jnsgd1na2vs0mg"},{"bike_id":"f51c0dfc-e22b-4853-a213-750fb0b196c4","system_id":"levelo_inurba_marseille","lat":43.299717,"lon":5.384845,"is_reserved":false,"is_disabled":false,"rental_uris":{"android":"levelo://app?vid=f51c0dfc-e22b-4853-a213-750fb0b196c4","ios":"levelo://app?vid=f51c0dfc-e22b-4853-a213-750fb0b196c4"},"vehicle_type_id":"4","last_reported":1725822385,"current_range_meters":1600,"station_id":"ce4bgj92rcd13ifvqbd0","pricing_plan_id":"cebpf4jnsgd1na2vs0mg"},{"bike_id":"ef17ac17-32d0-420f-badf-1bd6fdd47ca2","system_id":"levelo_inurba_marseille","lat":43.32662,"lon":5.38389,"is_reserved":false,"is_disabled":false,"rental_uris":{"android":"levelo://app?vid=ef17ac17-32d0-420f-badf-1bd6fdd47ca2","ios":"levelo://app?vid=ef17ac17-32d0-420f-badf-1bd6fdd47ca2"},"vehicle_type_id":"4","last_reported":1725822385,"current_range_meters":4400,"station_id":"","pricing_plan_id":"cebpf4jnsgd1na2vs0mg"},{"bike_id":"7f635688-13da-4a3d-814c-70faecb30bc0","system_id":"levelo_inurba_marseille","lat":43.29964,"lon":5.38503,"is_reserved":false,"is_disabled":false,"rental_uris":{"android":"levelo://app?vid=7f635688-13da-4a3d-814c-70faecb30bc0","ios":"levelo://app?vid=7f635688-13da-4a3d-814c-70faecb30bc0"},"vehicle_type_id":"4","last_reported":1725822385,"current_range_meters":19200,"station_id":"ce4bgj92rcd13ifvqbd0","pricing_plan_id":"cebpf4jnsgd1na2vs0mg"},{"bike_id":"534055d0-449f-4610-9fc3-f7f7080e54d1","system_id":"levelo_inurba_marseille","lat":43.30006,"lon":5.38608,"is_reserved":false,"is_disabled":false,"rental_uris":{"android":"levelo://app?vid=534055d0-449f-4610-9fc3-f7f7080e54d1","ios":"levelo://app?vid=534055d0-449f-4610-9fc3-f7f7080e54d1"},"vehicle_type_id":"4","last_reported":1725822385,"current_range_meters":14000,"station_id":"","pricing_plan_id":"cebpf4jnsgd1na2vs0mg"},{"bike_id":"3ff37f95-2968-4593-adc3-ef70f3bc0055","system_id":"levelo_inurba_marseille","lat":43.32367,"lon":5.388836,"is_reserved":false,"is_disabled":false,"rental_uris":{"android":"levelo://app?vid=3ff37f95-2968-4593-adc3-ef70f3bc0055","ios":"levelo://app?vid=3ff37f95-2968-4593-adc3-ef70f3bc0055"},"vehicle_type_id":"4","last_reported":1725822385,"current_range_meters":6000,"station_id":"ce4bhqp2rcd13ifvqhog","pricing_plan_id":"cebpf4jnsgd1na2vs0mg"},{"bike_id":"6e0f546d-1de9-4e56-aa39-eeaa7fa5f46b","system_id":"levelo_inurba_marseille","lat":43.32367,"lon":5.388836,"is_reserved":false,"is_disabled":false,"rental_uris":{"android":"levelo://app?vid=6e0f546d-1de9-4e56-aa39-eeaa7fa5f46b","ios":"levelo://app?vid=6e0f546d-1de9-4e56-aa39-eeaa7fa5f46b"},"vehicle_type_id":"4","last_reported":1725822385,"current_range_meters":7200,"station_id":"ce4bhqp2rcd13ifvqhog","pricing_plan_id":"cebpf4jnsgd1na2vs0mg"},{"bike_id":"f7a05193-2849-48d9-bef3-9f7408eafb02","system_id":"levelo_inurba_marseille","lat":43.29415,"lon":5.374907,"is_reserved":false,"is_disabled":false,"rental_uris":{"android":"levelo://app?vid=f7a05193-2849-48d9-bef3-9f7408eafb02","ios":"levelo://app?vid=f7a05193-2849-48d9-bef3-9f7408eafb02"},"vehicle_type_id":"4","last_reported":1725822385,"current_range_meters":0,"station_id":"","pricing_plan_id":"cebpf4jnsgd1na2vs0mg"},{"bike_id":"8fd2843d-a2d8-41e8-8195-f4d9ddcf7916","system_id":"levelo_inurba_marseille","lat":43.29602,"lon":5.381084,"is_reserved":false,"is_disabled":false,"rental_uris":{"android":"levelo://app?vid=8fd2843d-a2d8-41e8-8195-f4d9ddcf7916","ios":"levelo://app?vid=8fd2843d-a2d8-41e8-8195-f4d9ddcf7916"},"vehicle_type_id":"4","last_reported":1725822385,"current_range_meters":0,"station_id":"ce4bgl12rcd13ifvqbo0","pricing_plan_id":"cebpf4jnsgd1na2vs0mg"},{"bike_id":"1389f4a0-fe8c-45a8-89e1-761602337135","system_id":"levelo_inurba_marseille","lat":43.32367,"lon":5.38925,"is_reserved":false,"is_disabled":false,"rental_uris":{"android":"levelo://app?vid=1389f4a0-fe8c-45a8-89e1-761602337135","ios":"levelo://app?vid=1389f4a0-fe8c-45a8-89e1-761602337135"},"vehicle_type_id":"4","last_reported":1725822385,"current_range_meters":15200,"station_id":"ce4bhqp2rcd13ifvqhog","pricing_plan_id":"cebpf4jnsgd1na2vs0mg"},{"bike_id":"74c59e3d-56c9-4373-9efe-a345696f9a5c","system_id":"levelo_inurba_marseille","lat":43.3237,"lon":5.38926,"is_reserved":false,"is_disabled":false,"rental_uris":{"android":"levelo://app?vid=74c59e3d-56c9-4373-9efe-a345696f9a5c","ios":"levelo://app?vid=74c59e3d-56c9-4373-9efe-a345696f9a5c"},"vehicle_type_id":"4","last_reported":1725822385,"current_range_meters":20400,"station_id":"","pricing_plan_id":"cebpf4jnsgd1na2vs0mg"},{"bike_id":"41704600-e9e6-4869-aefd-a4a12996605b","system_id":"levelo_inurba_marseille","lat":43.3237,"lon":5.38926,"is_reserved":false,"is_disabled":false,"rental_uris":{"android":"levelo://app?vid=41704600-e9e6-4869-aefd-a4a12996605b","ios":"levelo://app?vid=41704600-e9e6-4869-aefd-a4a12996605b"},"vehicle_type_id":"4","last_reported":1725822385,"current_range_meters":8000,"station_id":"ce4bhqp2rcd13ifvqhog","pricing_plan_id":"cebpf4jnsgd1na2vs0mg"},{"bike_id":"8df1376f-33be-4917-9e73-9fe4f07dc296","system_id":"levelo_inurba_marseille","lat":43.29602,"lon":5.381084,"is_reserved":false,"is_disabled":false,"rental_uris":{"android":"levelo://app?vid=8df1376f-33be-4917-9e73-9fe4f07dc296","ios":"levelo://app?vid=8df1376f-33be-4917-9e73-9fe4f07dc296"},"vehicle_type_id":"4","last_reported":1725822385,"current_range_meters":21600,"station_id":"ce4bgl12rcd13ifvqbo0","pricing_plan_id":"cebpf4jnsgd1na2vs0mg"},{"bike_id":"0742844b-f50a-426b-8a22-8012baa0a9e4","system_id":"levelo_inurba_marseille","lat":43.296029,"lon":5.381047,"is_reserved":false,"is_disabled":false,"rental_uris":{"android":"levelo://app?vid=0742844b-f50a-426b-8a22-8012baa0a9e4","ios":"levelo://app?vid=0742844b-f50a-426b-8a22-8012baa0a9e4"},"vehicle_type_id":"4","last_reported":1725822385,"current_range_meters":27200,"station_id":"ce4bgl12rcd13ifvqbo0","pricing_plan_id":"cebpf4jnsgd1na2vs0mg"},{"bike_id":"c0ac401a-fdbe-4de3-9839-baf3ce33b5ed","system_id":"levelo_inurba_marseille","lat":43.29602,"lon":5.381084,"is_reserved":false,"is_disabled":false,"rental_uris":{"android":"levelo://app?vid=c0ac401a-fdbe-4de3-9839-baf3ce33b5ed","ios":"levelo://app?vid=c0ac401a-fdbe-4de3-9839-baf3ce33b5ed"},"vehicle_type_id":"4","last_reported":1725822385,"current_range_meters":24800,"station_id":"ce4bgl12rcd13ifvqbo0","pricing_plan_id":"cebpf4jnsgd1na2vs0mg"},{"bike_id":"363461c4-4456-4d16-a293-c8c026a6529b","system_id":"levelo_inurba_marseille","lat":43.29602,"lon":5.381084,"is_reserved":false,"is_disabled":false,"rental_uris":{"android":"levelo://app?vid=363461c4-4456-4d16-a293-c8c026a6529b","ios":"levelo://app?vid=363461c4-4456-4d16-a293-c8c026a6529b"},"vehicle_type_id":"4","last_reported":1725822385,"current_range_meters":5200,"station_id":"ce4bgl12rcd13ifvqbo0","pricing_plan_id":"cebpf4jnsgd1na2vs0mg"},{"bike_id":"6f37c59d-cd45-4a97-aadb-ecec4a0a2f6a","system_id":"levelo_inurba_marseille","lat":43.29327,"lon":5.37076,"is_reserved":false,"is_disabled":false,"rental_uris":{"android":"levelo://app?vid=6f37c59d-cd45-4a97-aadb-ecec4a0a2f6a","ios":"levelo://app?vid=6f37c59d-cd45-4a97-aadb-ecec4a0a2f6a"},"vehicle_type_id":"4","last_reported":1725822385,"current_range_meters":23200,"station_id":"","pricing_plan_id":"cebpf4jnsgd1na2vs0mg"},{"bike_id":"6cc32629-641a-41c7-b983-8dea0ba98128","system_id":"levelo_inurba_marseille","lat":43.29602,"lon":5.381084,"is_reserved":false,"is_disabled":false,"rental_uris":{"android":"levelo://app?vid=6cc32629-641a-41c7-b983-8dea0ba98128","ios":"levelo://app?vid=6cc32629-641a-41c7-b983-8dea0ba98128"},"vehicle_type_id":"4","last_reported":1725822385,"current_range_meters":23600,"station_id":"ce4bgl12rcd13ifvqbo0","pricing_plan_id":"cebpf4jnsgd1na2vs0mg"},{"bike_id":"8d068184-247e-4138-ae4c-3b747b6d40c7","system_id":"levelo_inurba_marseille","lat":43.29602,"lon":5.381084,"is_reserved":false,"is_disabled":false,"rental_uris":{"android":"levelo://app?vid=8d068184-247e-4138-ae4c-3b747b6d40c7","ios":"levelo://app?vid=8d068184-247e-4138-ae4c-3b747b6d40c7"},"vehicle_type_id":"4","last_reported":1725822385,"current_range_meters":14400,"station_id":"ce4bgl12rcd13ifvqbo0","pricing_plan_id":"cebpf4jnsgd1na2vs0mg"},{"bike_id":"3a386cdf-5df1-481f-b0c1-1e1b1303a00f","system_id":"levelo_inurba_marseille","lat":43.29602,"lon":5.381084,"is_reserved":false,"is_disabled":false,"rental_uris":{"android":"levelo://app?vid=3a386cdf-5df1-481f-b0c1-1e1b1303a00f","ios":"levelo://app?vid=3a386cdf-5df1-481f-b0c1-1e1b1303a00f"},"vehicle_type_id":"4","last_reported":1725822385,"current_range_meters":7600,"station_id":"ce4bgl12rcd13ifvqbo0","pricing_plan_id":"cebpf4jnsgd1na2vs0mg"},{"bike_id":"33a18126-65e8-4928-ae76-7111d2c451bd","system_id":"levelo_inurba_marseille","lat":43.29279,"lon":5.36842,"is_reserved":false,"is_disabled":false,"rental_uris":{"android":"levelo://app?vid=33a18126-65e8-4928-ae76-7111d2c451bd","ios":"levelo://app?vid=33a18126-65e8-4928-ae76-7111d2c451bd"},"vehicle_type_id":"4","last_reported":1725822385,"current_range_meters":0,"station_id":"ce4bhbp2rcd13ifvqesg","pricing_plan_id":"cebpf4jnsgd1na2vs0mg"},{"bike_id":"b6d8d35d-02a6-4325-9e1b-e226c9c1a42a","system_id":"levelo_inurba_marseille","lat":43.29303,"lon":5.37179,"is_reserved":false,"is_disabled":false,"rental_uris":{"android":"levelo://app?vid=b6d8d35d-02a6-4325-9e1b-e226c9c1a42a","ios":"levelo://app?vid=b6d8d35d-02a6-4325-9e1b-e226c9c1a42a"},"vehicle_type_id":"4","last_reported":1725822385,"current_range_meters":31200,"station_id":"ce4bgh92rcd13ifvqb40","pricing_plan_id":"cebpf4jnsgd1na2vs0mg"},{"bike_id":"3163eb09-3a0f-47bf-aa41-bba77f6e6a26","system_id":"levelo_inurba_marseille","lat":43.29268,"lon":5.36847,"is_reserved":false,"is_disabled":false,"rental_uris":{"android":"levelo://app?vid=3163eb09-3a0f-47bf-aa41-bba77f6e6a26","ios":"levelo://app?vid=3163eb09-3a0f-47bf-aa41-bba77f6e6a26"},"vehicle_type_id":"4","last_reported":1725822385,"current_range_meters":0,"station_id":"ce4bhbp2rcd13ifvqesg","pricing_plan_id":"cebpf4jnsgd1na2vs0mg"},{"bike_id":"edc6595a-936a-40fd-a40b-9cf2dbf09851","system_id":"levelo_inurba_marseille","lat":43.292995,"lon":5.374488,"is_reserved":false,"is_disabled":false,"rental_uris":{"android":"levelo://app?vid=edc6595a-936a-40fd-a40b-9cf2dbf09851","ios":"levelo://app?vid=edc6595a-936a-40fd-a40b-9cf2dbf09851"},"vehicle_type_id":"4","last_reported":1725822385,"current_range_meters":31200,"station_id":"ce4bgi12rcd13ifvqb70","pricing_plan_id":"cebpf4jnsgd1na2vs0mg"},{"bike_id":"7c96abfc-7d9d-4486-8fde-0d65fd156185","system_id":"levelo_inurba_marseille","lat":43.293009,"lon":5.374584,"is_reserved":false,"is_disabled":false,"rental_uris":{"android":"levelo://app?vid=7c96abfc-7d9d-4486-8fde-0d65fd156185","ios":"levelo://app?vid=7c96abfc-7d9d-4486-8fde-0d65fd156185"},"vehicle_type_id":"4","last_reported":1725822385,"current_range_meters":14400,"station_id":"ce4bgi12rcd13ifvqb70","pricing_plan_id":"cebpf4jnsgd1na2vs0mg"},{"bike_id":"93edd16f-6d4f-43e1-9525-901b2757b82a","system_id":"levelo_inurba_marseille","lat":43.293009,"lon":5.374584,"is_reserved":false,"is_disabled":false,"rental_uris":{"android":"levelo://app?vid=93edd16f-6d4f-43e1-9525-901b2757b82a","ios":"levelo://app?vid=93edd16f-6d4f-43e1-9525-901b2757b82a"},"vehicle_type_id":"4","last_reported":1725822385,"current_range_meters":19600,"station_id":"ce4bgi12rcd13ifvqb70","pricing_plan_id":"cebpf4jnsgd1na2vs0mg"},{"bike_id":"7be815ab-1862-4e51-bbb6-dd9e1e2bb6bb","system_id":"levelo_inurba_marseille","lat":43.293009,"lon":5.374584,"is_reserved":false,"is_disabled":false,"rental_uris":{"android":"levelo://app?vid=7be815ab-1862-4e51-bbb6-dd9e1e2bb6bb","ios":"levelo://app?vid=7be815ab-1862-4e51-bbb6-dd9e1e2bb6bb"},"vehicle_type_id":"4","last_reported":1725822385,"current_range_meters":27600,"station_id":"ce4bgi12rcd13ifvqb70","pricing_plan_id":"cebpf4jnsgd1na2vs0mg"},{"bike_id":"8c2d71b0-54b8-4f86-832d-9e548755d66d","system_id":"levelo_inurba_marseille","lat":43.305994,"lon":5.393687,"is_reserved":false,"is_disabled":false,"rental_uris":{"android":"levelo://app?vid=8c2d71b0-54b8-4f86-832d-9e548755d66d","ios":"levelo://app?vid=8c2d71b0-54b8-4f86-832d-9e548755d66d"},"vehicle_type_id":"4","last_reported":1725822385,"current_range_meters":14000,"station_id":"ce4bh0p2rcd13ifvqd80","pricing_plan_id":"cebpf4jnsgd1na2vs0mg"},{"bike_id":"7a851dc4-bceb-4e6c-9581-39d31f6ef251","system_id":"levelo_inurba_marseille","lat":43.305994,"lon":5.393687,"is_reserved":false,"is_disabled":false,"rental_uris":{"android":"levelo://app?vid=7a851dc4-bceb-4e6c-9581-39d31f6ef251","ios":"levelo://app?vid=7a851dc4-bceb-4e6c-9581-39d31f6ef251"},"vehicle_type_id":"4","last_reported":1725822385,"current_range_meters":16400,"station_id":"ce4bh0p2rcd13ifvqd80","pricing_plan_id":"cebpf4jnsgd1na2vs0mg"},{"bike_id":"0f817509-f867-49d9-9c1e-477eb7b19adf","system_id":"levelo_inurba_marseille","lat":43.303002,"lon":5.392142,"is_reserved":false,"is_disabled":false,"rental_uris":{"android":"levelo://app?vid=0f817509-f867-49d9-9c1e-477eb7b19adf","ios":"levelo://app?vid=0f817509-f867-49d9-9c1e-477eb7b19adf"},"vehicle_type_id":"4","last_reported":1725822385,"current_range_meters":8000,"station_id":"ce4bgkh2rcd13ifvqbk0","pricing_plan_id":"cebpf4jnsgd1na2vs0mg"},{"bike_id":"d57003d3-36ad-405f-9737-3bdaf2fcb37f","system_id":"levelo_inurba_marseille","lat":43.2936,"lon":5.37835,"is_reserved":false,"is_disabled":false,"rental_uris":{"android":"levelo://app?vid=d57003d3-36ad-405f-9737-3bdaf2fcb37f","ios":"levelo://app?vid=d57003d3-36ad-405f-9737-3bdaf2fcb37f"},"vehicle_type_id":"4","last_reported":1725822385,"current_range_meters":27600,"station_id":"ce4bgjh2rcd13ifvqbf0","pricing_plan_id":"cebpf4jnsgd1na2vs0mg"},{"bike_id":"fc0f4fff-bac2-4b71-b366-22e1c1cd812b","system_id":"levelo_inurba_marseille","lat":43.30085,"lon":5.390856,"is_reserved":false,"is_disabled":false,"rental_uris":{"android":"levelo://app?vid=fc0f4fff-bac2-4b71-b366-22e1c1cd812b","ios":"levelo://app?vid=fc0f4fff-bac2-4b71-b366-22e1c1cd812b"},"vehicle_type_id":"4","last_reported":1725822385,"current_range_meters":1200,"station_id":"ce4bh192rcd13ifvqdb0","pricing_plan_id":"cebpf4jnsgd1na2vs0mg"},{"bike_id":"2657c3ed-ea47-43f0-94ac-daa106161409","system_id":"levelo_inurba_marseille","lat":43.292311,"lon":5.360731,"is_reserved":false,"is_disabled":false,"rental_uris":{"android":"levelo://app?vid=2657c3ed-ea47-43f0-94ac-daa106161409","ios":"levelo://app?vid=2657c3ed-ea47-43f0-94ac-daa106161409"},"vehicle_type_id":"4","last_reported":1725822385,"current_range_meters":31200,"station_id":"ce4bhbh2rcd13ifvqeqg","pricing_plan_id":"cebpf4jnsgd1na2vs0mg"},{"bike_id":"32334e89-85e3-4035-bf9f-2b6dfee28aed","system_id":"levelo_inurba_marseille","lat":43.292204,"lon":5.36048,"is_reserved":false,"is_disabled":false,"rental_uris":{"android":"levelo://app?vid=32334e89-85e3-4035-bf9f-2b6dfee28aed","ios":"levelo://app?vid=32334e89-85e3-4035-bf9f-2b6dfee28aed"},"vehicle_type_id":"4","last_reported":1725822385,"current_range_meters":31200,"station_id":"ce4bhbh2rcd13ifvqeqg","pricing_plan_id":"cebpf4jnsgd1na2vs0mg"},{"bike_id":"75806c91-86ba-4876-961c-0397adcdc07a","system_id":"levelo_inurba_marseille","lat":43.29877,"lon":5.38905,"is_reserved":false,"is_disabled":false,"rental_uris":{"android":"levelo://app?vid=75806c91-86ba-4876-961c-0397adcdc07a","ios":"levelo://app?vid=75806c91-86ba-4876-961c-0397adcdc07a"},"vehicle_type_id":"4","last_reported":1725822385,"current_range_meters":0,"station_id":"ce4bh392rcd13ifvqdl0","pricing_plan_id":"cebpf4jnsgd1na2vs0mg"},{"bike_id":"6d8c35c1-947d-4d05-9a9b-0db2222e8fba","system_id":"levelo_inurba_marseille","lat":43.309038,"lon":5.396546,"is_reserved":false,"is_disabled":false,"rental_uris":{"android":"levelo://app?vid=6d8c35c1-947d-4d05-9a9b-0db2222e8fba","ios":"levelo://app?vid=6d8c35c1-947d-4d05-9a9b-0db2222e8fba"},"vehicle_type_id":"4","last_reported":1725822385,"current_range_meters":12800,"station_id":"ce4bh012rcd13ifvqcv0","pricing_plan_id":"cebpf4jnsgd1na2vs0mg"},{"bike_id":"cdeed97f-d2f9-4533-99ab-aecc38e8c1aa","system_id":"levelo_inurba_marseille","lat":43.313291,"lon":5.396838,"is_reserved":false,"is_disabled":false,"rental_uris":{"android":"levelo://app?vid=cdeed97f-d2f9-4533-99ab-aecc38e8c1aa","ios":"levelo://app?vid=cdeed97f-d2f9-4533-99ab-aecc38e8c1aa"},"vehicle_type_id":"4","last_reported":1725822385,"current_range_meters":27200,"station_id":"ce4bgvp2rcd13ifvqcu0","pricing_plan_id":"cebpf4jnsgd1na2vs0mg"},{"bike_id":"7e71c693-134b-4603-a1ee-efcd66e0895e","system_id":"levelo_inurba_marseille","lat":43.309047,"lon":5.396551,"is_reserved":false,"is_disabled":false,"rental_uris":{"android":"levelo://app?vid=7e71c693-134b-4603-a1ee-efcd66e0895e","ios":"levelo://app?vid=7e71c693-134b-4603-a1ee-efcd66e0895e"},"vehicle_type_id":"4","last_reported":1725822385,"current_range_meters":29200,"station_id":"ce4bh012rcd13ifvqcv0","pricing_plan_id":"cebpf4jnsgd1na2vs0mg"},{"bike_id":"586ad89b-1eb5-4a2b-91d6-66d72440c3eb","system_id":"levelo_inurba_marseille","lat":43.313291,"lon":5.396838,"is_reserved":false,"is_disabled":false,"rental_uris":{"android":"levelo://app?vid=586ad89b-1eb5-4a2b-91d6-66d72440c3eb","ios":"levelo://app?vid=586ad89b-1eb5-4a2b-91d6-66d72440c3eb"},"vehicle_type_id":"4","last_reported":1725822385,"current_range_meters":12000,"station_id":"ce4bgvp2rcd13ifvqcu0","pricing_plan_id":"cebpf4jnsgd1na2vs0mg"},{"bike_id":"cb3b9003-044b-4701-8a94-aeab2305a0e3","system_id":"levelo_inurba_marseille","lat":43.309038,"lon":5.396546,"is_reserved":false,"is_disabled":false,"rental_uris":{"android":"levelo://app?vid=cb3b9003-044b-4701-8a94-aeab2305a0e3","ios":"levelo://app?vid=cb3b9003-044b-4701-8a94-aeab2305a0e3"},"vehicle_type_id":"4","last_reported":1725822385,"current_range_meters":12000,"station_id":"ce4bh012rcd13ifvqcv0","pricing_plan_id":"cebpf4jnsgd1na2vs0mg"},{"bike_id":"2fc7b7ab-ec8a-439b-8e39-ea219e44c413","system_id":"levelo_inurba_marseille","lat":43.29529,"lon":5.385581,"is_reserved":false,"is_disabled":false,"rental_uris":{"android":"levelo://app?vid=2fc7b7ab-ec8a-439b-8e39-ea219e44c413","ios":"levelo://app?vid=2fc7b7ab-ec8a-439b-8e39-ea219e44c413"},"vehicle_type_id":"4","last_reported":1725822385,"current_range_meters":25200,"station_id":"ce4bgih2rcd13ifvqba0","pricing_plan_id":"cebpf4jnsgd1na2vs0mg"},{"bike_id":"6eeb6a1e-3ecf-42ee-a4ee-239db525aa47","system_id":"levelo_inurba_marseille","lat":43.29529,"lon":5.385581,"is_reserved":false,"is_disabled":false,"rental_uris":{"android":"levelo://app?vid=6eeb6a1e-3ecf-42ee-a4ee-239db525aa47","ios":"levelo://app?vid=6eeb6a1e-3ecf-42ee-a4ee-239db525aa47"},"vehicle_type_id":"4","last_reported":1725822385,"current_range_meters":27600,"station_id":"ce4bgih2rcd13ifvqba0","pricing_plan_id":"cebpf4jnsgd1na2vs0mg"},{"bike_id":"83878f38-7031-4a1a-a601-bc0ae9d02d79","system_id":"levelo_inurba_marseille","lat":43.2953,"lon":5.38543,"is_reserved":false,"is_disabled":false,"rental_uris":{"android":"levelo://app?vid=83878f38-7031-4a1a-a601-bc0ae9d02d79","ios":"levelo://app?vid=83878f38-7031-4a1a-a601-bc0ae9d02d79"},"vehicle_type_id":"4","last_reported":1725822385,"current_range_meters":0,"station_id":"ce4bgih2rcd13ifvqba0","pricing_plan_id":"cebpf4jnsgd1na2vs0mg"},{"bike_id":"c6632ab8-20f9-4ab8-b4b3-f1c336088595","system_id":"levelo_inurba_marseille","lat":43.29532,"lon":5.38549,"is_reserved":false,"is_disabled":false,"rental_uris":{"android":"levelo://app?vid=c6632ab8-20f9-4ab8-b4b3-f1c336088595","ios":"levelo://app?vid=c6632ab8-20f9-4ab8-b4b3-f1c336088595"},"vehicle_type_id":"4","last_reported":1725822385,"current_range_meters":0,"station_id":"ce4bgih2rcd13ifvqba0","pricing_plan_id":"cebpf4jnsgd1na2vs0mg"},{"bike_id":"badc5e93-0fd6-4cfd-8776-6f0382d46c48","system_id":"levelo_inurba_marseille","lat":43.290779,"lon":5.371482,"is_reserved":false,"is_disabled":false,"rental_uris":{"android":"levelo://app?vid=badc5e93-0fd6-4cfd-8776-6f0382d46c48","ios":"levelo://app?vid=badc5e93-0fd6-4cfd-8776-6f0382d46c48"},"vehicle_type_id":"4","last_reported":1725822385,"current_range_meters":30800,"station_id":"ce4bh5p2rcd13ifvqe4g","pricing_plan_id":"cebpf4jnsgd1na2vs0mg"},{"bike_id":"186dc71b-b82b-4ab6-af3a-8a23cdd62170","system_id":"levelo_inurba_marseille","lat":43.290779,"lon":5.371482,"is_reserved":false,"is_disabled":false,"rental_uris":{"android":"levelo://app?vid=186dc71b-b82b-4ab6-af3a-8a23cdd62170","ios":"levelo://app?vid=186dc71b-b82b-4ab6-af3a-8a23cdd62170"},"vehicle_type_id":"4","last_reported":1725822385,"current_range_meters":12000,"station_id":"ce4bh5p2rcd13ifvqe4g","pricing_plan_id":"cebpf4jnsgd1na2vs0mg"},{"bike_id":"8cc0830d-d067-4ec0-a6db-655195d7e3bb","system_id":"levelo_inurba_marseille","lat":43.290779,"lon":5.371482,"is_reserved":false,"is_disabled":false,"rental_uris":{"android":"levelo://app?vid=8cc0830d-d067-4ec0-a6db-655195d7e3bb","ios":"levelo://app?vid=8cc0830d-d067-4ec0-a6db-655195d7e3bb"},"vehicle_type_id":"4","last_reported":1725822385,"current_range_meters":14800,"station_id":"ce4bh5p2rcd13ifvqe4g","pricing_plan_id":"cebpf4jnsgd1na2vs0mg"},{"bike_id":"061cc26f-0193-48c5-bd2d-aa76a149db34","system_id":"levelo_inurba_marseille","lat":43.302008,"lon":5.394694,"is_reserved":false,"is_disabled":false,"rental_uris":{"android":"levelo://app?vid=061cc26f-0193-48c5-bd2d-aa76a149db34","ios":"levelo://app?vid=061cc26f-0193-48c5-bd2d-aa76a149db34"},"vehicle_type_id":"4","last_reported":1725822385,"current_range_meters":24800,"station_id":"ce4bh0p2rcd13ifvqd70","pricing_plan_id":"cebpf4jnsgd1na2vs0mg"},{"bike_id":"10a43f03-0db9-4b57-a21b-9593464f8822","system_id":"levelo_inurba_marseille","lat":43.29008,"lon":5.37257,"is_reserved":false,"is_disabled":false,"rental_uris":{"android":"levelo://app?vid=10a43f03-0db9-4b57-a21b-9593464f8822","ios":"levelo://app?vid=10a43f03-0db9-4b57-a21b-9593464f8822"},"vehicle_type_id":"4","last_reported":1725822385,"current_range_meters":0,"station_id":"","pricing_plan_id":"cebpf4jnsgd1na2vs0mg"},{"bike_id":"78a2fe44-be86-4b53-8ac9-f4df9d0506a8","system_id":"levelo_inurba_marseille","lat":43.29602,"lon":5.381084,"is_reserved":false,"is_disabled":false,"rental_uris":{"android":"levelo://app?vid=78a2fe44-be86-4b53-8ac9-f4df9d0506a8","ios":"levelo://app?vid=78a2fe44-be86-4b53-8ac9-f4df9d0506a8"},"vehicle_type_id":"4","last_reported":1725822385,"current_range_meters":26000,"station_id":"ce4bgl12rcd13ifvqbo0","pricing_plan_id":"cebpf4jnsgd1na2vs0mg"},{"bike_id":"8f6941b7-670e-4d17-ba86-68870780fe0e","system_id":"levelo_inurba_marseille","lat":43.294153,"lon":5.386305,"is_reserved":false,"is_disabled":false,"rental_uris":{"android":"levelo://app?vid=8f6941b7-670e-4d17-ba86-68870780fe0e","ios":"levelo://app?vid=8f6941b7-670e-4d17-ba86-68870780fe0e"},"vehicle_type_id":"4","last_reported":1725822385,"current_range_meters":25200,"station_id":"ce4bh2h2rcd13ifvqdh0","pricing_plan_id":"cebpf4jnsgd1na2vs0mg"},{"bike_id":"eb2056d1-748d-4b5f-8024-8a9c51a51fc5","system_id":"levelo_inurba_marseille","lat":43.290327,"lon":5.375711,"is_reserved":false,"is_disabled":false,"rental_uris":{"android":"levelo://app?vid=eb2056d1-748d-4b5f-8024-8a9c51a51fc5","ios":"levelo://app?vid=eb2056d1-748d-4b5f-8024-8a9c51a51fc5"},"vehicle_type_id":"4","last_reported":1725822385,"current_range_meters":3200,"station_id":"ce4bh692rcd13ifvqe90","pricing_plan_id":"cebpf4jnsgd1na2vs0mg"},{"bike_id":"3f248596-0848-4ef7-a989-fe8c6b31e7f9","system_id":"levelo_inurba_marseille","lat":43.290327,"lon":5.375711,"is_reserved":false,"is_disabled":false,"rental_uris":{"android":"levelo://app?vid=3f248596-0848-4ef7-a989-fe8c6b31e7f9","ios":"levelo://app?vid=3f248596-0848-4ef7-a989-fe8c6b31e7f9"},"vehicle_type_id":"4","last_reported":1725822385,"current_range_meters":2800,"station_id":"ce4bh692rcd13ifvqe90","pricing_plan_id":"cebpf4jnsgd1na2vs0mg"},{"bike_id":"6ae86a40-a308-4c82-9dc0-ad639f8a313d","system_id":"levelo_inurba_marseille","lat":43.289184,"lon":5.366408,"is_reserved":false,"is_disabled":false,"rental_uris":{"android":"levelo://app?vid=6ae86a40-a308-4c82-9dc0-ad639f8a313d","ios":"levelo://app?vid=6ae86a40-a308-4c82-9dc0-ad639f8a313d"},"vehicle_type_id":"4","last_reported":1725822385,"current_range_meters":22000,"station_id":"ce4bhap2rcd13ifvqek0","pricing_plan_id":"cebpf4jnsgd1na2vs0mg"},{"bike_id":"fc2fc686-19b9-4bc3-9b82-6addef7ebaae","system_id":"levelo_inurba_marseille","lat":43.294162,"lon":5.386292,"is_reserved":false,"is_disabled":false,"rental_uris":{"android":"levelo://app?vid=fc2fc686-19b9-4bc3-9b82-6addef7ebaae","ios":"levelo://app?vid=fc2fc686-19b9-4bc3-9b82-6addef7ebaae"},"vehicle_type_id":"4","last_reported":1725822385,"current_range_meters":6400,"station_id":"ce4bh2h2rcd13ifvqdh0","pricing_plan_id":"cebpf4jnsgd1na2vs0mg"},{"bike_id":"c67ed9e1-635a-4769-bb84-ba10ff278f73","system_id":"levelo_inurba_marseille","lat":43.294162,"lon":5.386292,"is_reserved":false,"is_disabled":false,"rental_uris":{"android":"levelo://app?vid=c67ed9e1-635a-4769-bb84-ba10ff278f73","ios":"levelo://app?vid=c67ed9e1-635a-4769-bb84-ba10ff278f73"},"vehicle_type_id":"4","last_reported":1725822385,"current_range_meters":23200,"station_id":"ce4bh2h2rcd13ifvqdh0","pricing_plan_id":"cebpf4jnsgd1na2vs0mg"},{"bike_id":"4106c324-baaf-46aa-8650-56f9f3f9a774","system_id":"levelo_inurba_marseille","lat":43.29415,"lon":5.38631,"is_reserved":false,"is_disabled":false,"rental_uris":{"android":"levelo://app?vid=4106c324-baaf-46aa-8650-56f9f3f9a774","ios":"levelo://app?vid=4106c324-baaf-46aa-8650-56f9f3f9a774"},"vehicle_type_id":"4","last_reported":1725822385,"current_range_meters":31200,"station_id":"ce4bh2h2rcd13ifvqdh0","pricing_plan_id":"cebpf4jnsgd1na2vs0mg"},{"bike_id":"4720f7e4-2376-4bef-8c2e-f2ae4e650a6f","system_id":"levelo_inurba_marseille","lat":43.29411,"lon":5.38627,"is_reserved":false,"is_disabled":false,"rental_uris":{"android":"levelo://app?vid=4720f7e4-2376-4bef-8c2e-f2ae4e650a6f","ios":"levelo://app?vid=4720f7e4-2376-4bef-8c2e-f2ae4e650a6f"},"vehicle_type_id":"4","last_reported":1725822385,"current_range_meters":30000,"station_id":"ce4bh2h2rcd13ifvqdh0","pricing_plan_id":"cebpf4jnsgd1na2vs0mg"},{"bike_id":"be47b0f5-2e26-48bc-a23d-e1c0c0f9529b","system_id":"levelo_inurba_marseille","lat":43.289184,"lon":5.366408,"is_reserved":false,"is_disabled":false,"rental_uris":{"android":"levelo://app?vid=be47b0f5-2e26-48bc-a23d-e1c0c0f9529b","ios":"levelo://app?vid=be47b0f5-2e26-48bc-a23d-e1c0c0f9529b"},"vehicle_type_id":"4","last_reported":1725822385,"current_range_meters":18800,"station_id":"ce4bhap2rcd13ifvqek0","pricing_plan_id":"cebpf4jnsgd1na2vs0mg"},{"bike_id":"d3da4eeb-37e3-40f9-8ee7-b4de66fa0422","system_id":"levelo_inurba_marseille","lat":43.289184,"lon":5.366408,"is_reserved":false,"is_disabled":false,"rental_uris":{"android":"levelo://app?vid=d3da4eeb-37e3-40f9-8ee7-b4de66fa0422","ios":"levelo://app?vid=d3da4eeb-37e3-40f9-8ee7-b4de66fa0422"},"vehicle_type_id":"4","last_reported":1725822385,"current_range_meters":11600,"station_id":"ce4bhap2rcd13ifvqek0","pricing_plan_id":"cebpf4jnsgd1na2vs0mg"},{"bike_id":"02ebef1f-7894-4d1b-bc1e-550988d6ae14","system_id":"levelo_inurba_marseille","lat":43.294162,"lon":5.386292,"is_reserved":false,"is_disabled":false,"rental_uris":{"android":"levelo://app?vid=02ebef1f-7894-4d1b-bc1e-550988d6ae14","ios":"levelo://app?vid=02ebef1f-7894-4d1b-bc1e-550988d6ae14"},"vehicle_type_id":"4","last_reported":1725822385,"current_range_meters":20800,"station_id":"ce4bh2h2rcd13ifvqdh0","pricing_plan_id":"cebpf4jnsgd1na2vs0mg"},{"bike_id":"f6c0b32d-e5b5-4951-a695-a991b8b6103c","system_id":"levelo_inurba_marseille","lat":43.289184,"lon":5.366408,"is_reserved":false,"is_disabled":false,"rental_uris":{"android":"levelo://app?vid=f6c0b32d-e5b5-4951-a695-a991b8b6103c","ios":"levelo://app?vid=f6c0b32d-e5b5-4951-a695-a991b8b6103c"},"vehicle_type_id":"4","last_reported":1725822385,"current_range_meters":31200,"station_id":"ce4bhap2rcd13ifvqek0","pricing_plan_id":"cebpf4jnsgd1na2vs0mg"},{"bike_id":"518138ad-69b7-4374-a247-c6bd5cefa220","system_id":"levelo_inurba_marseille","lat":43.289184,"lon":5.366408,"is_reserved":false,"is_disabled":false,"rental_uris":{"android":"levelo://app?vid=518138ad-69b7-4374-a247-c6bd5cefa220","ios":"levelo://app?vid=518138ad-69b7-4374-a247-c6bd5cefa220"},"vehicle_type_id":"4","last_reported":1725822385,"current_range_meters":24800,"station_id":"ce4bhap2rcd13ifvqek0","pricing_plan_id":"cebpf4jnsgd1na2vs0mg"},{"bike_id":"f8570897-c7db-424a-b6a1-6f67b8f56f4f","system_id":"levelo_inurba_marseille","lat":43.28933,"lon":5.36631,"is_reserved":false,"is_disabled":false,"rental_uris":{"android":"levelo://app?vid=f8570897-c7db-424a-b6a1-6f67b8f56f4f","ios":"levelo://app?vid=f8570897-c7db-424a-b6a1-6f67b8f56f4f"},"vehicle_type_id":"4","last_reported":1725822385,"current_range_meters":31200,"station_id":"ce4bhap2rcd13ifvqek0","pricing_plan_id":"cebpf4jnsgd1na2vs0mg"},{"bike_id":"18b132d1-b697-4d9c-82db-fdbd3b7f9dc2","system_id":"levelo_inurba_marseille","lat":43.289184,"lon":5.366408,"is_reserved":false,"is_disabled":false,"rental_uris":{"android":"levelo://app?vid=18b132d1-b697-4d9c-82db-fdbd3b7f9dc2","ios":"levelo://app?vid=18b132d1-b697-4d9c-82db-fdbd3b7f9dc2"},"vehicle_type_id":"4","last_reported":1725822385,"current_range_meters":22800,"station_id":"ce4bhap2rcd13ifvqek0","pricing_plan_id":"cebpf4jnsgd1na2vs0mg"},{"bike_id":"f13ffc76-71f2-4ffc-a3d0-6339cd5d4475","system_id":"levelo_inurba_marseille","lat":43.289184,"lon":5.366408,"is_reserved":false,"is_disabled":false,"rental_uris":{"android":"levelo://app?vid=f13ffc76-71f2-4ffc-a3d0-6339cd5d4475","ios":"levelo://app?vid=f13ffc76-71f2-4ffc-a3d0-6339cd5d4475"},"vehicle_type_id":"4","last_reported":1725822385,"current_range_meters":14400,"station_id":"ce4bhap2rcd13ifvqek0","pricing_plan_id":"cebpf4jnsgd1na2vs0mg"},{"bike_id":"2278b75f-b6b7-4ad2-8bdc-c50a9df26770","system_id":"levelo_inurba_marseille","lat":43.289468,"lon":5.363719,"is_reserved":false,"is_disabled":false,"rental_uris":{"android":"levelo://app?vid=2278b75f-b6b7-4ad2-8bdc-c50a9df26770","ios":"levelo://app?vid=2278b75f-b6b7-4ad2-8bdc-c50a9df26770"},"vehicle_type_id":"4","last_reported":1725822385,"current_range_meters":10400,"station_id":"ce4bhc92rcd13ifvqetg","pricing_plan_id":"cebpf4jnsgd1na2vs0mg"},{"bike_id":"4688d032-db0d-4cd8-8264-6f50f890868f","system_id":"levelo_inurba_marseille","lat":43.289468,"lon":5.363719,"is_reserved":false,"is_disabled":false,"rental_uris":{"android":"levelo://app?vid=4688d032-db0d-4cd8-8264-6f50f890868f","ios":"levelo://app?vid=4688d032-db0d-4cd8-8264-6f50f890868f"},"vehicle_type_id":"4","last_reported":1725822385,"current_range_meters":14400,"station_id":"ce4bhc92rcd13ifvqetg","pricing_plan_id":"cebpf4jnsgd1na2vs0mg"},{"bike_id":"d0afd2be-2476-45e8-9c4d-b2cc528fe59d","system_id":"levelo_inurba_marseille","lat":43.28938,"lon":5.36402,"is_reserved":false,"is_disabled":false,"rental_uris":{"android":"levelo://app?vid=d0afd2be-2476-45e8-9c4d-b2cc528fe59d","ios":"levelo://app?vid=d0afd2be-2476-45e8-9c4d-b2cc528fe59d"},"vehicle_type_id":"4","last_reported":1725822385,"current_range_meters":20000,"station_id":"ce4bhc92rcd13ifvqetg","pricing_plan_id":"cebpf4jnsgd1na2vs0mg"},{"bike_id":"74a61893-5682-4aa8-a887-0439d04d16cf","system_id":"levelo_inurba_marseille","lat":43.289184,"lon":5.366408,"is_reserved":false,"is_disabled":false,"rental_uris":{"android":"levelo://app?vid=74a61893-5682-4aa8-a887-0439d04d16cf","ios":"levelo://app?vid=74a61893-5682-4aa8-a887-0439d04d16cf"},"vehicle_type_id":"4","last_reported":1725822385,"current_range_meters":31200,"station_id":"ce4bhap2rcd13ifvqek0","pricing_plan_id":"cebpf4jnsgd1na2vs0mg"},{"bike_id":"d55692c1-852c-4847-a1e1-d30b8dd9605f","system_id":"levelo_inurba_marseille","lat":43.28929,"lon":5.36392,"is_reserved":false,"is_disabled":false,"rental_uris":{"android":"levelo://app?vid=d55692c1-852c-4847-a1e1-d30b8dd9605f","ios":"levelo://app?vid=d55692c1-852c-4847-a1e1-d30b8dd9605f"},"vehicle_type_id":"4","last_reported":1725822385,"current_range_meters":22800,"station_id":"ce4bhc92rcd13ifvqetg","pricing_plan_id":"cebpf4jnsgd1na2vs0mg"},{"bike_id":"6b1555f6-4c20-4fcf-839f-5542a18d1f7d","system_id":"levelo_inurba_marseille","lat":43.304296,"lon":5.397513,"is_reserved":false,"is_disabled":false,"rental_uris":{"android":"levelo://app?vid=6b1555f6-4c20-4fcf-839f-5542a18d1f7d","ios":"levelo://app?vid=6b1555f6-4c20-4fcf-839f-5542a18d1f7d"},"vehicle_type_id":"4","last_reported":1725822385,"current_range_meters":21200,"station_id":"ce4bh092rcd13ifvqd20","pricing_plan_id":"cebpf4jnsgd1na2vs0mg"},{"bike_id":"a9187a89-e99a-4392-96df-f81a1840e6f9","system_id":"levelo_inurba_marseille","lat":43.292644,"lon":5.384257,"is_reserved":false,"is_disabled":false,"rental_uris":{"android":"levelo://app?vid=a9187a89-e99a-4392-96df-f81a1840e6f9","ios":"levelo://app?vid=a9187a89-e99a-4392-96df-f81a1840e6f9"},"vehicle_type_id":"4","last_reported":1725822385,"current_range_meters":16400,"station_id":"ce4bh692rcd13ifvqea0","pricing_plan_id":"cebpf4jnsgd1na2vs0mg"},{"bike_id":"0e170757-1aa2-4587-9a47-0537d7aab38a","system_id":"levelo_inurba_marseille","lat":43.292642,"lon":5.384254,"is_reserved":false,"is_disabled":false,"rental_uris":{"android":"levelo://app?vid=0e170757-1aa2-4587-9a47-0537d7aab38a","ios":"levelo://app?vid=0e170757-1aa2-4587-9a47-0537d7aab38a"},"vehicle_type_id":"4","last_reported":1725822385,"current_range_meters":30800,"station_id":"ce4bh692rcd13ifvqea0","pricing_plan_id":"cebpf4jnsgd1na2vs0mg"},{"bike_id":"02f629d4-ff88-4fd3-8634-90f0b11451cf","system_id":"levelo_inurba_marseille","lat":43.29264,"lon":5.38445,"is_reserved":false,"is_disabled":false,"rental_uris":{"android":"levelo://app?vid=02f629d4-ff88-4fd3-8634-90f0b11451cf","ios":"levelo://app?vid=02f629d4-ff88-4fd3-8634-90f0b11451cf"},"vehicle_type_id":"4","last_reported":1725822385,"current_range_meters":9200,"station_id":"ce4bh692rcd13ifvqea0","pricing_plan_id":"cebpf4jnsgd1na2vs0mg"},{"bike_id":"c8bf2c44-deed-4cc2-bc18-73c3d9c1f92f","system_id":"levelo_inurba_marseille","lat":43.29264,"lon":5.38445,"is_reserved":false,"is_disabled":false,"rental_uris":{"android":"levelo://app?vid=c8bf2c44-deed-4cc2-bc18-73c3d9c1f92f","ios":"levelo://app?vid=c8bf2c44-deed-4cc2-bc18-73c3d9c1f92f"},"vehicle_type_id":"4","last_reported":1725822385,"current_range_meters":800,"station_id":"ce4bh692rcd13ifvqea0","pricing_plan_id":"cebpf4jnsgd1na2vs0mg"},{"bike_id":"cb21996b-69e3-483a-888e-8c83478be776","system_id":"levelo_inurba_marseille","lat":43.292644,"lon":5.384257,"is_reserved":false,"is_disabled":false,"rental_uris":{"android":"levelo://app?vid=cb21996b-69e3-483a-888e-8c83478be776","ios":"levelo://app?vid=cb21996b-69e3-483a-888e-8c83478be776"},"vehicle_type_id":"4","last_reported":1725822385,"current_range_meters":14400,"station_id":"ce4bh692rcd13ifvqea0","pricing_plan_id":"cebpf4jnsgd1na2vs0mg"},{"bike_id":"f138c29f-2c65-469a-9edd-b1086002703b","system_id":"levelo_inurba_marseille","lat":43.29262,"lon":5.38442,"is_reserved":false,"is_disabled":false,"rental_uris":{"android":"levelo://app?vid=f138c29f-2c65-469a-9edd-b1086002703b","ios":"levelo://app?vid=f138c29f-2c65-469a-9edd-b1086002703b"},"vehicle_type_id":"4","last_reported":1725822385,"current_range_meters":18000,"station_id":"ce4bh692rcd13ifvqea0","pricing_plan_id":"cebpf4jnsgd1na2vs0mg"},{"bike_id":"8d8ef9bb-581b-4c8b-b84f-0d5a57539aa5","system_id":"levelo_inurba_marseille","lat":43.292644,"lon":5.384257,"is_reserved":false,"is_disabled":false,"rental_uris":{"android":"levelo://app?vid=8d8ef9bb-581b-4c8b-b84f-0d5a57539aa5","ios":"levelo://app?vid=8d8ef9bb-581b-4c8b-b84f-0d5a57539aa5"},"vehicle_type_id":"4","last_reported":1725822385,"current_range_meters":27200,"station_id":"ce4bh692rcd13ifvqea0","pricing_plan_id":"cebpf4jnsgd1na2vs0mg"},{"bike_id":"41e0896f-9996-43bc-9df0-339c76e1a845","system_id":"levelo_inurba_marseille","lat":43.292642,"lon":5.384254,"is_reserved":false,"is_disabled":false,"rental_uris":{"android":"levelo://app?vid=41e0896f-9996-43bc-9df0-339c76e1a845","ios":"levelo://app?vid=41e0896f-9996-43bc-9df0-339c76e1a845"},"vehicle_type_id":"4","last_reported":1725822385,"current_range_meters":25600,"station_id":"ce4bh692rcd13ifvqea0","pricing_plan_id":"cebpf4jnsgd1na2vs0mg"},{"bike_id":"7f0d6859-f720-4463-a782-85de67f94d2d","system_id":"levelo_inurba_marseille","lat":43.292644,"lon":5.384257,"is_reserved":false,"is_disabled":false,"rental_uris":{"android":"levelo://app?vid=7f0d6859-f720-4463-a782-85de67f94d2d","ios":"levelo://app?vid=7f0d6859-f720-4463-a782-85de67f94d2d"},"vehicle_type_id":"4","last_reported":1725822385,"current_range_meters":31200,"station_id":"ce4bh692rcd13ifvqea0","pricing_plan_id":"cebpf4jnsgd1na2vs0mg"},{"bike_id":"cd9f2392-f792-448e-8980-51ec0ad8ac82","system_id":"levelo_inurba_marseille","lat":43.304274,"lon":5.397513,"is_reserved":false,"is_disabled":false,"rental_uris":{"android":"levelo://app?vid=cd9f2392-f792-448e-8980-51ec0ad8ac82","ios":"levelo://app?vid=cd9f2392-f792-448e-8980-51ec0ad8ac82"},"vehicle_type_id":"4","last_reported":1725822385,"current_range_meters":9200,"station_id":"ce4bh092rcd13ifvqd20","pricing_plan_id":"cebpf4jnsgd1na2vs0mg"},{"bike_id":"fa67ee9c-1289-4f5f-a32f-5c88dc087558","system_id":"levelo_inurba_marseille","lat":43.30418,"lon":5.3975,"is_reserved":false,"is_disabled":false,"rental_uris":{"android":"levelo://app?vid=fa67ee9c-1289-4f5f-a32f-5c88dc087558","ios":"levelo://app?vid=fa67ee9c-1289-4f5f-a32f-5c88dc087558"},"vehicle_type_id":"4","last_reported":1725822385,"current_range_meters":0,"station_id":"ce4bh092rcd13ifvqd20","pricing_plan_id":"cebpf4jnsgd1na2vs0mg"},{"bike_id":"13a5c0f6-9806-40ba-9416-c2030229fa30","system_id":"levelo_inurba_marseille","lat":43.292644,"lon":5.384257,"is_reserved":false,"is_disabled":false,"rental_uris":{"android":"levelo://app?vid=13a5c0f6-9806-40ba-9416-c2030229fa30","ios":"levelo://app?vid=13a5c0f6-9806-40ba-9416-c2030229fa30"},"vehicle_type_id":"4","last_reported":1725822385,"current_range_meters":31200,"station_id":"ce4bh692rcd13ifvqea0","pricing_plan_id":"cebpf4jnsgd1na2vs0mg"},{"bike_id":"402f7a76-cf80-49a5-bea4-9e15c0b61d09","system_id":"levelo_inurba_marseille","lat":43.30421,"lon":5.39755,"is_reserved":false,"is_disabled":false,"rental_uris":{"android":"levelo://app?vid=402f7a76-cf80-49a5-bea4-9e15c0b61d09","ios":"levelo://app?vid=402f7a76-cf80-49a5-bea4-9e15c0b61d09"},"vehicle_type_id":"4","last_reported":1725822385,"current_range_meters":16400,"station_id":"ce4bh092rcd13ifvqd20","pricing_plan_id":"cebpf4jnsgd1na2vs0mg"},{"bike_id":"5fa61732-3788-4d46-ae2b-7f4a782a1891","system_id":"levelo_inurba_marseille","lat":43.292644,"lon":5.384257,"is_reserved":false,"is_disabled":false,"rental_uris":{"android":"levelo://app?vid=5fa61732-3788-4d46-ae2b-7f4a782a1891","ios":"levelo://app?vid=5fa61732-3788-4d46-ae2b-7f4a782a1891"},"vehicle_type_id":"4","last_reported":1725822385,"current_range_meters":14000,"station_id":"ce4bh692rcd13ifvqea0","pricing_plan_id":"cebpf4jnsgd1na2vs0mg"},{"bike_id":"842bc473-5ba8-47dd-9c5d-58cb5ed5ea3a","system_id":"levelo_inurba_marseille","lat":43.304296,"lon":5.397513,"is_reserved":false,"is_disabled":false,"rental_uris":{"android":"levelo://app?vid=842bc473-5ba8-47dd-9c5d-58cb5ed5ea3a","ios":"levelo://app?vid=842bc473-5ba8-47dd-9c5d-58cb5ed5ea3a"},"vehicle_type_id":"4","last_reported":1725822385,"current_range_meters":28800,"station_id":"ce4bh092rcd13ifvqd20","pricing_plan_id":"cebpf4jnsgd1na2vs0mg"},{"bike_id":"888d4ed8-7b1f-4b34-80ff-1d0258e362bb","system_id":"levelo_inurba_marseille","lat":43.290995,"lon":5.381361,"is_reserved":false,"is_disabled":false,"rental_uris":{"android":"levelo://app?vid=888d4ed8-7b1f-4b34-80ff-1d0258e362bb","ios":"levelo://app?vid=888d4ed8-7b1f-4b34-80ff-1d0258e362bb"},"vehicle_type_id":"4","last_reported":1725822385,"current_range_meters":28800,"station_id":"ce4bh512rcd13ifvqe2g","pricing_plan_id":"cebpf4jnsgd1na2vs0mg"},{"bike_id":"cfc507d5-fe43-4b77-93a0-8f7528e49391","system_id":"levelo_inurba_marseille","lat":43.290995,"lon":5.381361,"is_reserved":false,"is_disabled":false,"rental_uris":{"android":"levelo://app?vid=cfc507d5-fe43-4b77-93a0-8f7528e49391","ios":"levelo://app?vid=cfc507d5-fe43-4b77-93a0-8f7528e49391"},"vehicle_type_id":"4","last_reported":1725822385,"current_range_meters":10000,"station_id":"ce4bh512rcd13ifvqe2g","pricing_plan_id":"cebpf4jnsgd1na2vs0mg"},{"bike_id":"c7a4cfdd-3192-4c99-8c98-9cc9854a9bc9","system_id":"levelo_inurba_marseille","lat":43.290995,"lon":5.381361,"is_reserved":false,"is_disabled":false,"rental_uris":{"android":"levelo://app?vid=c7a4cfdd-3192-4c99-8c98-9cc9854a9bc9","ios":"levelo://app?vid=c7a4cfdd-3192-4c99-8c98-9cc9854a9bc9"},"vehicle_type_id":"4","last_reported":1725822385,"current_range_meters":14800,"station_id":"ce4bh512rcd13ifvqe2g","pricing_plan_id":"cebpf4jnsgd1na2vs0mg"},{"bike_id":"e7b1e283-11ee-4b69-9813-4404078d8b43","system_id":"levelo_inurba_marseille","lat":43.290995,"lon":5.381361,"is_reserved":false,"is_disabled":false,"rental_uris":{"android":"levelo://app?vid=e7b1e283-11ee-4b69-9813-4404078d8b43","ios":"levelo://app?vid=e7b1e283-11ee-4b69-9813-4404078d8b43"},"vehicle_type_id":"4","last_reported":1725822385,"current_range_meters":20800,"station_id":"ce4bh512rcd13ifvqe2g","pricing_plan_id":"cebpf4jnsgd1na2vs0mg"},{"bike_id":"1909453e-b5fb-44a0-adcd-3bbf34489c4b","system_id":"levelo_inurba_marseille","lat":43.290995,"lon":5.381361,"is_reserved":false,"is_disabled":false,"rental_uris":{"android":"levelo://app?vid=1909453e-b5fb-44a0-adcd-3bbf34489c4b","ios":"levelo://app?vid=1909453e-b5fb-44a0-adcd-3bbf34489c4b"},"vehicle_type_id":"4","last_reported":1725822385,"current_range_meters":10000,"station_id":"ce4bh512rcd13ifvqe2g","pricing_plan_id":"cebpf4jnsgd1na2vs0mg"},{"bike_id":"996a3484-fba2-4ac3-92e4-c5972e000e92","system_id":"levelo_inurba_marseille","lat":43.30697,"lon":5.39949,"is_reserved":false,"is_disabled":false,"rental_uris":{"android":"levelo://app?vid=996a3484-fba2-4ac3-92e4-c5972e000e92","ios":"levelo://app?vid=996a3484-fba2-4ac3-92e4-c5972e000e92"},"vehicle_type_id":"4","last_reported":1725822385,"current_range_meters":4800,"station_id":"","pricing_plan_id":"cebpf4jnsgd1na2vs0mg"},{"bike_id":"5e265840-fc21-4e32-a313-f75d9ca40ac5","system_id":"levelo_inurba_marseille","lat":43.33022,"lon":5.39038,"is_reserved":false,"is_disabled":false,"rental_uris":{"android":"levelo://app?vid=5e265840-fc21-4e32-a313-f75d9ca40ac5","ios":"levelo://app?vid=5e265840-fc21-4e32-a313-f75d9ca40ac5"},"vehicle_type_id":"4","last_reported":1725822385,"current_range_meters":9600,"station_id":"ce4bhr92rcd13ifvqhrg","pricing_plan_id":"cebpf4jnsgd1na2vs0mg"},{"bike_id":"796c518e-a25c-409d-9c1b-08c9e0185ef2","system_id":"levelo_inurba_marseille","lat":43.330442,"lon":5.389148,"is_reserved":false,"is_disabled":false,"rental_uris":{"android":"levelo://app?vid=796c518e-a25c-409d-9c1b-08c9e0185ef2","ios":"levelo://app?vid=796c518e-a25c-409d-9c1b-08c9e0185ef2"},"vehicle_type_id":"4","last_reported":1725822385,"current_range_meters":31200,"station_id":"ce4bhr92rcd13ifvqhrg","pricing_plan_id":"cebpf4jnsgd1na2vs0mg"},{"bike_id":"f1f075fc-6eb8-4c47-9c4f-e4ba0522ea82","system_id":"levelo_inurba_marseille","lat":43.28976,"lon":5.37832,"is_reserved":false,"is_disabled":false,"rental_uris":{"android":"levelo://app?vid=f1f075fc-6eb8-4c47-9c4f-e4ba0522ea82","ios":"levelo://app?vid=f1f075fc-6eb8-4c47-9c4f-e4ba0522ea82"},"vehicle_type_id":"4","last_reported":1725822385,"current_range_meters":27200,"station_id":"ce4bh9p2rcd13ifvqed0","pricing_plan_id":"cebpf4jnsgd1na2vs0mg"},{"bike_id":"d696e2df-cae8-42f7-801a-90d7771f6694","system_id":"levelo_inurba_marseille","lat":43.33024,"lon":5.39036,"is_reserved":false,"is_disabled":false,"rental_uris":{"android":"levelo://app?vid=d696e2df-cae8-42f7-801a-90d7771f6694","ios":"levelo://app?vid=d696e2df-cae8-42f7-801a-90d7771f6694"},"vehicle_type_id":"4","last_reported":1725822385,"current_range_meters":30400,"station_id":"ce4bhr92rcd13ifvqhrg","pricing_plan_id":"cebpf4jnsgd1na2vs0mg"},{"bike_id":"dd77611c-3df8-46b4-b1e9-5b73f8baba8a","system_id":"levelo_inurba_marseille","lat":43.33025,"lon":5.39035,"is_reserved":false,"is_disabled":false,"rental_uris":{"android":"levelo://app?vid=dd77611c-3df8-46b4-b1e9-5b73f8baba8a","ios":"levelo://app?vid=dd77611c-3df8-46b4-b1e9-5b73f8baba8a"},"vehicle_type_id":"4","last_reported":1725822385,"current_range_meters":31200,"station_id":"ce4bhr92rcd13ifvqhrg","pricing_plan_id":"cebpf4jnsgd1na2vs0mg"},{"bike_id":"02ea2d79-2d0e-48ff-afe4-00ae44ade239","system_id":"levelo_inurba_marseille","lat":43.330442,"lon":5.389148,"is_reserved":false,"is_disabled":false,"rental_uris":{"android":"levelo://app?vid=02ea2d79-2d0e-48ff-afe4-00ae44ade239","ios":"levelo://app?vid=02ea2d79-2d0e-48ff-afe4-00ae44ade239"},"vehicle_type_id":"4","last_reported":1725822385,"current_range_meters":8800,"station_id":"ce4bhr92rcd13ifvqhrg","pricing_plan_id":"cebpf4jnsgd1na2vs0mg"},{"bike_id":"1b57b03f-fcc9-4161-89a8-c0db4ea97403","system_id":"levelo_inurba_marseille","lat":43.330442,"lon":5.389148,"is_reserved":false,"is_disabled":false,"rental_uris":{"android":"levelo://app?vid=1b57b03f-fcc9-4161-89a8-c0db4ea97403","ios":"levelo://app?vid=1b57b03f-fcc9-4161-89a8-c0db4ea97403"},"vehicle_type_id":"4","last_reported":1725822385,"current_range_meters":16000,"station_id":"ce4bhr92rcd13ifvqhrg","pricing_plan_id":"cebpf4jnsgd1na2vs0mg"},{"bike_id":"a096d293-dc5e-493c-a6ce-e2d3b6e86a8f","system_id":"levelo_inurba_marseille","lat":43.33025,"lon":5.3904,"is_reserved":false,"is_disabled":false,"rental_uris":{"android":"levelo://app?vid=a096d293-dc5e-493c-a6ce-e2d3b6e86a8f","ios":"levelo://app?vid=a096d293-dc5e-493c-a6ce-e2d3b6e86a8f"},"vehicle_type_id":"4","last_reported":1725822385,"current_range_meters":23600,"station_id":"ce4bhr92rcd13ifvqhrg","pricing_plan_id":"cebpf4jnsgd1na2vs0mg"},{"bike_id":"c6883866-4e07-46d8-9a35-3333b0c9e16a","system_id":"levelo_inurba_marseille","lat":43.330442,"lon":5.389148,"is_reserved":false,"is_disabled":false,"rental_uris":{"android":"levelo://app?vid=c6883866-4e07-46d8-9a35-3333b0c9e16a","ios":"levelo://app?vid=c6883866-4e07-46d8-9a35-3333b0c9e16a"},"vehicle_type_id":"4","last_reported":1725822385,"current_range_meters":27200,"station_id":"ce4bhr92rcd13ifvqhrg","pricing_plan_id":"cebpf4jnsgd1na2vs0mg"},{"bike_id":"b5679bef-3f92-449d-876f-76820b24a6d9","system_id":"levelo_inurba_marseille","lat":43.330442,"lon":5.389148,"is_reserved":false,"is_disabled":false,"rental_uris":{"android":"levelo://app?vid=b5679bef-3f92-449d-876f-76820b24a6d9","ios":"levelo://app?vid=b5679bef-3f92-449d-876f-76820b24a6d9"},"vehicle_type_id":"4","last_reported":1725822385,"current_range_meters":30800,"station_id":"ce4bhr92rcd13ifvqhrg","pricing_plan_id":"cebpf4jnsgd1na2vs0mg"},{"bike_id":"7afd20bf-1e9e-48a7-abc8-d7625820a895","system_id":"levelo_inurba_marseille","lat":43.295169,"lon":5.390426,"is_reserved":false,"is_disabled":false,"rental_uris":{"android":"levelo://app?vid=7afd20bf-1e9e-48a7-abc8-d7625820a895","ios":"levelo://app?vid=7afd20bf-1e9e-48a7-abc8-d7625820a895"},"vehicle_type_id":"4","last_reported":1725822385,"current_range_meters":30000,"station_id":"ce4bh3p2rcd13ifvqdp0","pricing_plan_id":"cebpf4jnsgd1na2vs0mg"},{"bike_id":"fcf79bb7-34ef-414d-b452-aafb06ab37a5","system_id":"levelo_inurba_marseille","lat":43.29523,"lon":5.39045,"is_reserved":false,"is_disabled":false,"rental_uris":{"android":"levelo://app?vid=fcf79bb7-34ef-414d-b452-aafb06ab37a5","ios":"levelo://app?vid=fcf79bb7-34ef-414d-b452-aafb06ab37a5"},"vehicle_type_id":"4","last_reported":1725822385,"current_range_meters":0,"station_id":"ce4bh3p2rcd13ifvqdp0","pricing_plan_id":"cebpf4jnsgd1na2vs0mg"},{"bike_id":"31938fe7-8dc6-49f0-971e-20e52cc41dac","system_id":"levelo_inurba_marseille","lat":43.330442,"lon":5.389148,"is_reserved":false,"is_disabled":false,"rental_uris":{"android":"levelo://app?vid=31938fe7-8dc6-49f0-971e-20e52cc41dac","ios":"levelo://app?vid=31938fe7-8dc6-49f0-971e-20e52cc41dac"},"vehicle_type_id":"4","last_reported":1725822385,"current_range_meters":28400,"station_id":"ce4bhr92rcd13ifvqhrg","pricing_plan_id":"cebpf4jnsgd1na2vs0mg"},{"bike_id":"6227054b-2148-4a62-aa09-6f7470e787ad","system_id":"levelo_inurba_marseille","lat":43.28855,"lon":5.37255,"is_reserved":false,"is_disabled":false,"rental_uris":{"android":"levelo://app?vid=6227054b-2148-4a62-aa09-6f7470e787ad","ios":"levelo://app?vid=6227054b-2148-4a62-aa09-6f7470e787ad"},"vehicle_type_id":"4","last_reported":1725822385,"current_range_meters":14800,"station_id":"","pricing_plan_id":"cebpf4jnsgd1na2vs0mg"},{"bike_id":"55cb0dbf-1229-4d47-b7db-ee448ce23597","system_id":"levelo_inurba_marseille","lat":43.330442,"lon":5.389148,"is_reserved":false,"is_disabled":false,"rental_uris":{"android":"levelo://app?vid=55cb0dbf-1229-4d47-b7db-ee448ce23597","ios":"levelo://app?vid=55cb0dbf-1229-4d47-b7db-ee448ce23597"},"vehicle_type_id":"4","last_reported":1725822385,"current_range_meters":20400,"station_id":"ce4bhr92rcd13ifvqhrg","pricing_plan_id":"cebpf4jnsgd1na2vs0mg"},{"bike_id":"33f13769-52e5-4dc9-9902-03a7cb68979a","system_id":"levelo_inurba_marseille","lat":43.289693,"lon":5.37964,"is_reserved":false,"is_disabled":false,"rental_uris":{"android":"levelo://app?vid=33f13769-52e5-4dc9-9902-03a7cb68979a","ios":"levelo://app?vid=33f13769-52e5-4dc9-9902-03a7cb68979a"},"vehicle_type_id":"4","last_reported":1725822385,"current_range_meters":26400,"station_id":"","pricing_plan_id":"cebpf4jnsgd1na2vs0mg"},{"bike_id":"55472948-ba33-417e-8c39-2efc706559d8","system_id":"levelo_inurba_marseille","lat":43.2901,"lon":5.381269,"is_reserved":false,"is_disabled":false,"rental_uris":{"android":"levelo://app?vid=55472948-ba33-417e-8c39-2efc706559d8","ios":"levelo://app?vid=55472948-ba33-417e-8c39-2efc706559d8"},"vehicle_type_id":"4","last_reported":1725822385,"current_range_meters":6800,"station_id":"ce4bh4p2rcd13ifvqe1g","pricing_plan_id":"cebpf4jnsgd1na2vs0mg"},{"bike_id":"84ba1a09-1d23-4a7f-a575-84446e11ba53","system_id":"levelo_inurba_marseille","lat":43.2901,"lon":5.381269,"is_reserved":false,"is_disabled":false,"rental_uris":{"android":"levelo://app?vid=84ba1a09-1d23-4a7f-a575-84446e11ba53","ios":"levelo://app?vid=84ba1a09-1d23-4a7f-a575-84446e11ba53"},"vehicle_type_id":"4","last_reported":1725822385,"current_range_meters":19600,"station_id":"ce4bh4p2rcd13ifvqe1g","pricing_plan_id":"cebpf4jnsgd1na2vs0mg"},{"bike_id":"847a72ff-84bf-4c4e-8d40-bbdd50a4f6bf","system_id":"levelo_inurba_marseille","lat":43.28856,"lon":5.358371,"is_reserved":false,"is_disabled":false,"rental_uris":{"android":"levelo://app?vid=847a72ff-84bf-4c4e-8d40-bbdd50a4f6bf","ios":"levelo://app?vid=847a72ff-84bf-4c4e-8d40-bbdd50a4f6bf"},"vehicle_type_id":"4","last_reported":1725822385,"current_range_meters":25200,"station_id":"ce4bhb12rcd13ifvqem0","pricing_plan_id":"cebpf4jnsgd1na2vs0mg"},{"bike_id":"435722a8-1754-4ee6-a455-9ebe26096570","system_id":"levelo_inurba_marseille","lat":43.28856,"lon":5.358371,"is_reserved":false,"is_disabled":false,"rental_uris":{"android":"levelo://app?vid=435722a8-1754-4ee6-a455-9ebe26096570","ios":"levelo://app?vid=435722a8-1754-4ee6-a455-9ebe26096570"},"vehicle_type_id":"4","last_reported":1725822385,"current_range_meters":31200,"station_id":"ce4bhb12rcd13ifvqem0","pricing_plan_id":"cebpf4jnsgd1na2vs0mg"},{"bike_id":"ba8a5af0-4917-4028-b9d1-cfff66941176","system_id":"levelo_inurba_marseille","lat":43.290094,"lon":5.381264,"is_reserved":false,"is_disabled":false,"rental_uris":{"android":"levelo://app?vid=ba8a5af0-4917-4028-b9d1-cfff66941176","ios":"levelo://app?vid=ba8a5af0-4917-4028-b9d1-cfff66941176"},"vehicle_type_id":"4","last_reported":1725822385,"current_range_meters":3600,"station_id":"ce4bh4p2rcd13ifvqe1g","pricing_plan_id":"cebpf4jnsgd1na2vs0mg"},{"bike_id":"b11d40c4-1663-4798-84d3-35510d46961c","system_id":"levelo_inurba_marseille","lat":43.2901,"lon":5.381269,"is_reserved":false,"is_disabled":false,"rental_uris":{"android":"levelo://app?vid=b11d40c4-1663-4798-84d3-35510d46961c","ios":"levelo://app?vid=b11d40c4-1663-4798-84d3-35510d46961c"},"vehicle_type_id":"4","last_reported":1725822385,"current_range_meters":19600,"station_id":"ce4bh4p2rcd13ifvqe1g","pricing_plan_id":"cebpf4jnsgd1na2vs0mg"},{"bike_id":"7cb11218-023d-49e7-b5df-e2ead2bba0d7","system_id":"levelo_inurba_marseille","lat":43.28856,"lon":5.358371,"is_reserved":false,"is_disabled":false,"rental_uris":{"android":"levelo://app?vid=7cb11218-023d-49e7-b5df-e2ead2bba0d7","ios":"levelo://app?vid=7cb11218-023d-49e7-b5df-e2ead2bba0d7"},"vehicle_type_id":"4","last_reported":1725822385,"current_range_meters":31200,"station_id":"ce4bhb12rcd13ifvqem0","pricing_plan_id":"cebpf4jnsgd1na2vs0mg"},{"bike_id":"f93efed2-9dc1-46c7-afe4-63f885c1fa1e","system_id":"levelo_inurba_marseille","lat":43.28856,"lon":5.358371,"is_reserved":false,"is_disabled":false,"rental_uris":{"android":"levelo://app?vid=f93efed2-9dc1-46c7-afe4-63f885c1fa1e","ios":"levelo://app?vid=f93efed2-9dc1-46c7-afe4-63f885c1fa1e"},"vehicle_type_id":"4","last_reported":1725822385,"current_range_meters":2800,"station_id":"ce4bhb12rcd13ifvqem0","pricing_plan_id":"cebpf4jnsgd1na2vs0mg"},{"bike_id":"40565d8c-4159-4883-b3f0-28e961f6be9e","system_id":"levelo_inurba_marseille","lat":43.33706,"lon":5.35776,"is_reserved":false,"is_disabled":false,"rental_uris":{"android":"levelo://app?vid=40565d8c-4159-4883-b3f0-28e961f6be9e","ios":"levelo://app?vid=40565d8c-4159-4883-b3f0-28e961f6be9e"},"vehicle_type_id":"4","last_reported":1725822385,"current_range_meters":10800,"station_id":"","pricing_plan_id":"cebpf4jnsgd1na2vs0mg"},{"bike_id":"ed84d39a-0fbc-4a20-94d5-3e5ea69d0a6d","system_id":"levelo_inurba_marseille","lat":43.28856,"lon":5.358371,"is_reserved":false,"is_disabled":false,"rental_uris":{"android":"levelo://app?vid=ed84d39a-0fbc-4a20-94d5-3e5ea69d0a6d","ios":"levelo://app?vid=ed84d39a-0fbc-4a20-94d5-3e5ea69d0a6d"},"vehicle_type_id":"4","last_reported":1725822385,"current_range_meters":0,"station_id":"ce4bhb12rcd13ifvqem0","pricing_plan_id":"cebpf4jnsgd1na2vs0mg"},