{"last_updated":1751908202,"ttl":60,"version":"2.2","data":{"bikes":[{"bike_id":"3da29fb8-fc97-44c6-b9ac-31dd456b2fd4","system_id":"levelo_inurba_marseille","lat":43.33771,"lon":5.37424,"is_reserved":false,"is_disabled":true,"rental_uris":{"android":"levelo://app?vid=3da29fb8-fc97-44c6-b9ac-31dd456b2fd4","ios":"levelo://app?vid=3da29fb8-fc97-44c6-b9ac-31dd456b2fd4"},"vehicle_type_id":"4","last_reported":1751908202,"current_range_meters":0,"station_id":"","pricing_plan_id":"cebpf4jnsgd1na2vs0mg"},{"bike_id":"01861ad8-a8d7-4be6-816e-651927c87584","system_id":"levelo_inurba_marseille","lat":43.33751,"lon":5.37456,"is_reserved":false,"is_disabled":true,"rental_uris":{"android":"levelo://app?vid=01861ad8-a8d7-4be6-816e-651927c87584","ios":"levelo://app?vid=01861ad8-a8d7-4be6-816e-651927c87584"},"vehicle_type_id":"4","last_reported":1751908202,"current_range_meters":0,"station_id":"","pricing_plan_id":"cebpf4jnsgd1na2vs0mg"},{"bike_id":"95c194a9-5cae-4867-bc56-f8781828dc70","system_id":"levelo_inurba_marseille","lat":43.337444,"lon":5.374475,"is_reserved":false,"is_disabled":true,"rental_uris":{"android":"levelo://app?vid=95c194a9-5cae-4867-bc56-f8781828dc70","ios":"levelo://app?vid=95c194a9-5cae-4867-bc56-f8781828dc70"},"vehicle_type_id":"4","last_reported":1751908202,"current_range_meters":0,"station_id":"","pricing_plan_id":"cebpf4jnsgd1na2vs0mg"},{"bike_id":"d606bf19-8d82-47cf-bc1d-c2b266204c48","system_id":"levelo_inurba_marseille","lat":43.275385,"lon":5.384547,"is_reserved":false,"is_disabled":true,"rental_uris":{"android":"levelo://app?vid=d606bf19-8d82-47cf-bc1d-c2b266204c48","ios":"levelo://app?vid=d606bf19-8d82-47cf-bc1d-c2b266204c48"},"vehicle_type_id":"4","last_reported":1751908202,"current_range_meters":0,"station_id":"","pricing_plan_id":"cebpf4jnsgd1na2vs0mg"},{"bike_id":"3043111c-2091-4848-a5c4-59de3e324db9","system_id":"levelo_inurba_marseille","lat":43.30804,"lon":5.3815,"is_reserved":false,"is_disabled":true,"rental_uris":{"android":"levelo://app?vid=3043111c-2091-4848-a5c4-59de3e324db9","ios":"levelo://app?vid=3043111c-2091-4848-a5c4-59de3e324db9"},"vehicle_type_id":"4","last_reported":1751908202,"current_range_meters":0,"station_id":"ce4bgt12rcd13ifvqce0","pricing_plan_id":"cebpf4jnsgd1na2vs0mg"},{"bike_id":"885d7ee3-1300-4f45-a36b-978c7aa5da6d","system_id":"levelo_inurba_marseille","lat":43.283532,"lon":5.381056,"is_reserved":false,"is_disabled":true,"rental_uris":{"android":"levelo://app?vid=885d7ee3-1300-4f45-a36b-978c7aa5da6d","ios":"levelo://app?vid=885d7ee3-1300-4f45-a36b-978c7aa5da6d"},"vehicle_type_id":"4","last_reported":1751908202,"current_range_meters":0,"station_id":"ce4bh412rcd13ifvqdr0","pricing_plan_id":"cebpf4jnsgd1na2vs0mg"},{"bike_id":"5a06daa3-90cc-41ef-a0bd-caead696d68d","system_id":"levelo_inurba_marseille","lat":43.284831,"lon":5.384214,"is_reserved":false,"is_disabled":true,"rental_uris":{"android":"levelo://app?vid=5a06daa3-90cc-41ef-a0bd-caead696d68d","ios":"levelo://app?vid=5a06daa3-90cc-41ef-a0bd-caead696d68d"},"vehicle_type_id":"4","last_reported":1751908202,"current_range_meters":0,"station_id":"ce4bh512rcd13ifvqe3g","pricing_plan_id":"cebpf4jnsgd1na2vs0mg"},{"bike_id":"f07aa97b-31ef-46c0-9028-052185250d22","system_id":"levelo_inurba_marseille","lat":43.28486,"lon":5.38419,"is_reserved":false,"is_disabled":true,"rental_uris":{"android":"levelo://app?vid=f07aa97b-31ef-46c0-9028-052185250d22","ios":"levelo://app?vid=f07aa97b-31ef-46c0-9028-052185250d22"},"vehicle_type_id":"4","last_reported":1751908202,"current_range_meters":0,"station_id":"ce4bh512rcd13ifvqe3g","pricing_plan_id":"cebpf4jnsgd1na2vs0mg"},{"bike_id":"57a46c90-1197-4598-8045-8ce1ea2510d4","system_id":"levelo_inurba_marseille","lat":43.27365,"lon":5.36253,"is_reserved":false,"is_disabled":true,"rental_uris":{"android":"levelo://app?vid=57a46c90-1197-4598-8045-8ce1ea2510d4","ios":"levelo://app?vid=57a46c90-1197-4598-8045-8ce1ea2510d4"},"vehicle_type_id":"4","last_reported":1751908202,"current_range_meters":0,"station_id":"ce4bhbh2rcd13ifvqeo0","pricing_plan_id":"cebpf4jnsgd1na2vs0mg"},{"bike_id":"2e6405ee-b548-40f2-b859-f8c3568b03d4","system_id":"levelo_inurba_marseille","lat":43.28263,"lon":5.35076,"is_reserved":false,"is_disabled":true,"rental_uris":{"android":"levelo://app?vid=2e6405ee-b548-40f2-b859-f8c3568b03d4","ios":"levelo://app?vid=2e6405ee-b548-40f2-b859-f8c3568b03d4"},"vehicle_type_id":"4","last_reported":1751908202,"current_range_meters":0,"station_id":"ce4bhbp2rcd13ifvqerg","pricing_plan_id":"cebpf4jnsgd1na2vs0mg"},{"bike_id":"fc11f1e3-fd7d-492a-8c42-2fb8faf16c6a","system_id":"levelo_inurba_marseille","lat":43.303704,"lon":5.424951,"is_reserved":false,"is_disabled":true,"rental_uris":{"android":"levelo://app?vid=fc11f1e3-fd7d-492a-8c42-2fb8faf16c6a","ios":"levelo://app?vid=fc11f1e3-fd7d-492a-8c42-2fb8faf16c6a"},"vehicle_type_id":"4","last_reported":1751908202,"current_range_meters":0,"station_id":"ce4bhoh2rcd13ifvqh6g","pricing_plan_id":"cebpf4jnsgd1na2vs0mg"},{"bike_id":"3d508917-55ee-42b6-894b-89c2a444dc06","system_id":"levelo_inurba_marseille","lat":43.22497,"lon":5.34775,"is_reserved":false,"is_disabled":true,"rental_uris":{"android":"levelo://app?vid=3d508917-55ee-42b6-894b-89c2a444dc06","ios":"levelo://app?vid=3d508917-55ee-42b6-894b-89c2a444dc06"},"vehicle_type_id":"4","last_reported":1751908202,"current_range_meters":0,"station_id":"st_cvj5dfep6f1abm77gieg","pricing_plan_id":"cebpf4jnsgd1na2vs0mg"},{"bike_id":"e86ba8c9-208d-482c-a826-4c100938472a","system_id":"levelo_inurba_marseille","lat":43.211904,"lon":5.350712,"is_reserved":false,"is_disabled":true,"rental_uris":{"android":"levelo://app?vid=e86ba8c9-208d-482c-a826-4c100938472a","ios":"levelo://app?vid=e86ba8c9-208d-482c-a826-4c100938472a"},"vehicle_type_id":"4","last_reported":1751908202,"current_range_meters":0,"station_id":"st_cvj6sg6p6f1abm77japg","pricing_plan_id":"cebpf4jnsgd1na2vs0mg"},{"bike_id":"f0a19a9e-f150-4c1e-bcc6-db3195370cac","system_id":"levelo_inurba_marseille","lat":43.32692,"lon":5.43123,"is_reserved":false,"is_disabled":true,"rental_uris":{"android":"levelo://app?vid=f0a19a9e-f150-4c1e-bcc6-db3195370cac","ios":"levelo://app?vid=f0a19a9e-f150-4c1e-bcc6-db3195370cac"},"vehicle_type_id":"4","last_reported":1751908202,"current_range_meters":400,"station_id":"","pricing_plan_id":"cebpf4jnsgd1na2vs0mg"},{"bike_id":"edda4ed8-0d83-4947-8cd5-09e8b6649f19","system_id":"levelo_inurba_marseille","lat":43.28693,"lon":5.39982,"is_reserved":false,"is_disabled":true,"rental_uris":{"android":"levelo://app?vid=edda4ed8-0d83-4947-8cd5-09e8b6649f19","ios":"levelo://app?vid=edda4ed8-0d83-4947-8cd5-09e8b6649f19"},"vehicle_type_id":"4","last_reported":1751908202,"current_range_meters":400,"station_id":"ce4bho92rcd13ifvqh3g","pricing_plan_id":"cebpf4jnsgd1na2vs0mg"},{"bike_id":"c766454a-40ab-42a0-9d4d-1b2b3b4a24a3","system_id":"levelo_inurba_marseille","lat":43.287277,"lon":5.360813,"is_reserved":false,"is_disabled":true,"rental_uris":{"android":"levelo://app?vid=c766454a-40ab-42a0-9d4d-1b2b3b4a24a3","ios":"levelo://app?vid=c766454a-40ab-42a0-9d4d-1b2b3b4a24a3"},"vehicle_type_id":"4","last_reported":1751908202,"current_range_meters":400,"station_id":"cki0cbj6b192h4jlfktg","pricing_plan_id":"cebpf4jnsgd1na2vs0mg"},{"bike_id":"76880cad-9abd-4a62-9439-60417e1557be","system_id":"levelo_inurba_marseille","lat":43.27373,"lon":5.36255,"is_reserved":false,"is_disabled":true,"rental_uris":{"android":"levelo://app?vid=76880cad-9abd-4a62-9439-60417e1557be","ios":"levelo://app?vid=76880cad-9abd-4a62-9439-60417e1557be"},"vehicle_type_id":"4","last_reported":1751908202,"current_range_meters":800,"station_id":"ce4bhbh2rcd13ifvqeo0","pricing_plan_id":"cebpf4jnsgd1na2vs0mg"},{"bike_id":"7fc85201-5517-435d-ac12-2132d43d9d9c","system_id":"levelo_inurba_marseille","lat":43.30952,"lon":5.39041,"is_reserved":false,"is_disabled":true,"rental_uris":{"android":"levelo://app?vid=7fc85201-5517-435d-ac12-2132d43d9d9c","ios":"levelo://app?vid=7fc85201-5517-435d-ac12-2132d43d9d9c"},"vehicle_type_id":"4","last_reported":1751908202,"current_range_meters":1200,"station_id":"ce4bgup2rcd13ifvqco0","pricing_plan_id":"cebpf4jnsgd1na2vs0mg"},{"bike_id":"564c16f1-9abf-4155-b81f-c4bb02296778","system_id":"levelo_inurba_marseille","lat":43.28048,"lon":5.36927,"is_reserved":false,"is_disabled":true,"rental_uris":{"android":"levelo://app?vid=564c16f1-9abf-4155-b81f-c4bb02296778","ios":"levelo://app?vid=564c16f1-9abf-4155-b81f-c4bb02296778"},"vehicle_type_id":"4","last_reported":1751908202,"current_range_meters":1200,"station_id":"ce4bha12rcd13ifvqef0","pricing_plan_id":"cebpf4jnsgd1na2vs0mg"},{"bike_id":"62bb1fe8-f1a3-46a0-89ca-f7d55433ad38","system_id":"levelo_inurba_marseille","lat":43.294957,"lon":5.386233,"is_reserved":false,"is_disabled":true,"rental_uris":{"android":"levelo://app?vid=62bb1fe8-f1a3-46a0-89ca-f7d55433ad38","ios":"levelo://app?vid=62bb1fe8-f1a3-46a0-89ca-f7d55433ad38"},"vehicle_type_id":"4","last_reported":1751908202,"current_range_meters":1600,"station_id":"ce4bgih2rcd13ifvqba0","pricing_plan_id":"cebpf4jnsgd1na2vs0mg"},{"bike_id":"c32a44ab-b078-4729-9be5-e0735978229d","system_id":"levelo_inurba_marseille","lat":43.21217,"lon":5.350555,"is_reserved":false,"is_disabled":true,"rental_uris":{"android":"levelo://app?vid=c32a44ab-b078-4729-9be5-e0735978229d","ios":"levelo://app?vid=c32a44ab-b078-4729-9be5-e0735978229d"},"vehicle_type_id":"4","last_reported":1751908202,"current_range_meters":1600,"station_id":"st_cvj6sg6p6f1abm77japg","pricing_plan_id":"cebpf4jnsgd1na2vs0mg"},{"bike_id":"8b0e60b9-ae5f-4dad-b6ed-65b8738b9b82","system_id":"levelo_inurba_marseille","lat":43.30424,"lon":5.39741,"is_reserved":false,"is_disabled":true,"rental_uris":{"android":"levelo://app?vid=8b0e60b9-ae5f-4dad-b6ed-65b8738b9b82","ios":"levelo://app?vid=8b0e60b9-ae5f-4dad-b6ed-65b8738b9b82"},"vehicle_type_id":"4","last_reported":1751908202,"current_range_meters":2000,"station_id":"ce4bh092rcd13ifvqd20","pricing_plan_id":"cebpf4jnsgd1na2vs0mg"},{"bike_id":"0ac1d6ed-ca18-4282-aedc-2b870678f586","system_id":"levelo_inurba_marseille","lat":43.301422,"lon":5.387738,"is_reserved":false,"is_disabled":false,"rental_uris":{"android":"levelo://app?vid=0ac1d6ed-ca18-4282-aedc-2b870678f586","ios":"levelo://app?vid=0ac1d6ed-ca18-4282-aedc-2b870678f586"},"vehicle_type_id":"4","last_reported":1751908202,"current_range_meters":2800,"station_id":"ce4bghh2rcd13ifvqb60","pricing_plan_id":"cebpf4jnsgd1na2vs0mg"},{"bike_id":"2bc30f59-484d-4aaa-9fa7-9a1c7dd7c847","system_id":"levelo_inurba_marseille","lat":43.31687,"lon":5.40477,"is_reserved":false,"is_disabled":false,"rental_uris":{"android":"levelo://app?vid=2bc30f59-484d-4aaa-9fa7-9a1c7dd7c847","ios":"levelo://app?vid=2bc30f59-484d-4aaa-9fa7-9a1c7dd7c847"},"vehicle_type_id":"4","last_reported":1751908202,"current_range_meters":2800,"station_id":"ce4bh012rcd13ifvqd00","pricing_plan_id":"cebpf4jnsgd1na2vs0mg"},{"bike_id":"80161ed2-5d60-4dcf-9c94-969eff8de983","system_id":"levelo_inurba_marseille","lat":43.28611,"lon":5.370685,"is_reserved":false,"is_disabled":false,"rental_uris":{"android":"levelo://app?vid=80161ed2-5d60-4dcf-9c94-969eff8de983","ios":"levelo://app?vid=80161ed2-5d60-4dcf-9c94-969eff8de983"},"vehicle_type_id":"4","last_reported":1751908202,"current_range_meters":2800,"station_id":"ce4bht12rcd13ifvqi60","pricing_plan_id":"cebpf4jnsgd1na2vs0mg"},{"bike_id":"6f47e718-1b9a-4ce7-8e5f-c63be20bd76b","system_id":"levelo_inurba_marseille","lat":43.31715,"lon":5.37732,"is_reserved":false,"is_disabled":false,"rental_uris":{"android":"levelo://app?vid=6f47e718-1b9a-4ce7-8e5f-c63be20bd76b","ios":"levelo://app?vid=6f47e718-1b9a-4ce7-8e5f-c63be20bd76b"},"vehicle_type_id":"4","last_reported":1751908202,"current_range_meters":3200,"station_id":"ce4bgth2rcd13ifvqch0","pricing_plan_id":"cebpf4jnsgd1na2vs0mg"},{"bike_id":"b7d07193-0d6c-429d-b7c7-aeb93ee227f7","system_id":"levelo_inurba_marseille","lat":43.29527,"lon":5.39404,"is_reserved":false,"is_disabled":false,"rental_uris":{"android":"levelo://app?vid=b7d07193-0d6c-429d-b7c7-aeb93ee227f7","ios":"levelo://app?vid=b7d07193-0d6c-429d-b7c7-aeb93ee227f7"},"vehicle_type_id":"4","last_reported":1751908202,"current_range_meters":3200,"station_id":"ce4bh292rcd13ifvqdf0","pricing_plan_id":"cebpf4jnsgd1na2vs0mg"},{"bike_id":"5695380e-bffd-448b-a495-4f180791521a","system_id":"levelo_inurba_marseille","lat":43.304281,"lon":5.4131,"is_reserved":false,"is_disabled":false,"rental_uris":{"android":"levelo://app?vid=5695380e-bffd-448b-a495-4f180791521a","ios":"levelo://app?vid=5695380e-bffd-448b-a495-4f180791521a"},"vehicle_type_id":"4","last_reported":1751908202,"current_range_meters":3200,"station_id":"ce4bhop2rcd13ifvqh8g","pricing_plan_id":"cebpf4jnsgd1na2vs0mg"},{"bike_id":"e4acfcde-157b-49c4-a299-1f2bb6944407","system_id":"levelo_inurba_marseille","lat":43.31278,"lon":5.40161,"is_reserved":false,"is_disabled":false,"rental_uris":{"android":"levelo://app?vid=e4acfcde-157b-49c4-a299-1f2bb6944407","ios":"levelo://app?vid=e4acfcde-157b-49c4-a299-1f2bb6944407"},"vehicle_type_id":"4","last_reported":1751908202,"current_range_meters":4400,"station_id":"ce4bh092rcd13ifvqd30","pricing_plan_id":"cebpf4jnsgd1na2vs0mg"},{"bike_id":"1380652f-ed07-42c3-b0a2-63175f884079","system_id":"levelo_inurba_marseille","lat":43.284682,"lon":5.384199,"is_reserved":false,"is_disabled":false,"rental_uris":{"android":"levelo://app?vid=1380652f-ed07-42c3-b0a2-63175f884079","ios":"levelo://app?vid=1380652f-ed07-42c3-b0a2-63175f884079"},"vehicle_type_id":"4","last_reported":1751908202,"current_range_meters":4400,"station_id":"ce4bh512rcd13ifvqe3g","pricing_plan_id":"cebpf4jnsgd1na2vs0mg"},{"bike_id":"83849357-5069-4823-9558-2589988366f3","system_id":"levelo_inurba_marseille","lat":43.231848,"lon":5.399881,"is_reserved":false,"is_disabled":false,"rental_uris":{"android":"levelo://app?vid=83849357-5069-4823-9558-2589988366f3","ios":"levelo://app?vid=83849357-5069-4823-9558-2589988366f3"},"vehicle_type_id":"4","last_reported":1751908202,"current_range_meters":4400,"station_id":"ce4bhn12rcd13ifvqgqg","pricing_plan_id":"cebpf4jnsgd1na2vs0mg"},{"bike_id":"2c929ca1-6645-46c0-9142-8b6de9214b10","system_id":"levelo_inurba_marseille","lat":43.28444,"lon":5.39191,"is_reserved":false,"is_disabled":false,"rental_uris":{"android":"levelo://app?vid=2c929ca1-6645-46c0-9142-8b6de9214b10","ios":"levelo://app?vid=2c929ca1-6645-46c0-9142-8b6de9214b10"},"vehicle_type_id":"4","last_reported":1751908202,"current_range_meters":4400,"station_id":"ce4bhoh2rcd13ifvqh5g","pricing_plan_id":"cebpf4jnsgd1na2vs0mg"},{"bike_id":"bb5a7e2c-9bc5-44e7-a4a9-cac2fb06d3d8","system_id":"levelo_inurba_marseille","lat":43.30354,"lon":5.41879,"is_reserved":false,"is_disabled":false,"rental_uris":{"android":"levelo://app?vid=bb5a7e2c-9bc5-44e7-a4a9-cac2fb06d3d8","ios":"levelo://app?vid=bb5a7e2c-9bc5-44e7-a4a9-cac2fb06d3d8"},"vehicle_type_id":"4","last_reported":1751908202,"current_range_meters":4400,"station_id":"ce4bhop2rcd13ifvqh7g","pricing_plan_id":"cebpf4jnsgd1na2vs0mg"},{"bike_id":"86c92dc1-b4da-49d9-acb8-ba390f939865","system_id":"levelo_inurba_marseille","lat":43.33043,"lon":5.39248,"is_reserved":false,"is_disabled":false,"rental_uris":{"android":"levelo://app?vid=86c92dc1-b4da-49d9-acb8-ba390f939865","ios":"levelo://app?vid=86c92dc1-b4da-49d9-acb8-ba390f939865"},"vehicle_type_id":"4","last_reported":1751908202,"current_range_meters":4800,"station_id":"","pricing_plan_id":"cebpf4jnsgd1na2vs0mg"},{"bike_id":"3459cd40-2fda-4890-b070-115b0f640f47","system_id":"levelo_inurba_marseille","lat":43.28729,"lon":5.37937,"is_reserved":false,"is_disabled":false,"rental_uris":{"android":"levelo://app?vid=3459cd40-2fda-4890-b070-115b0f640f47","ios":"levelo://app?vid=3459cd40-2fda-4890-b070-115b0f640f47"},"vehicle_type_id":"4","last_reported":1751908202,"current_range_meters":4800,"station_id":"ce4bh9p2rcd13ifvqec0","pricing_plan_id":"cebpf4jnsgd1na2vs0mg"},{"bike_id":"4d5743be-6cb5-43c6-9cf4-ecdee35564a2","system_id":"levelo_inurba_marseille","lat":43.28427,"lon":5.3498,"is_reserved":false,"is_disabled":false,"rental_uris":{"android":"levelo://app?vid=4d5743be-6cb5-43c6-9cf4-ecdee35564a2","ios":"levelo://app?vid=4d5743be-6cb5-43c6-9cf4-ecdee35564a2"},"vehicle_type_id":"4","last_reported":1751908202,"current_range_meters":4800,"station_id":"ce4bhbh2rcd13ifvqepg","pricing_plan_id":"cebpf4jnsgd1na2vs0mg"},{"bike_id":"a7658400-09e0-4ab6-9299-52fdbca20fa3","system_id":"levelo_inurba_marseille","lat":43.28284,"lon":5.35065,"is_reserved":false,"is_disabled":false,"rental_uris":{"android":"levelo://app?vid=a7658400-09e0-4ab6-9299-52fdbca20fa3","ios":"levelo://app?vid=a7658400-09e0-4ab6-9299-52fdbca20fa3"},"vehicle_type_id":"4","last_reported":1751908202,"current_range_meters":5600,"station_id":"ce4bhbp2rcd13ifvqerg","pricing_plan_id":"cebpf4jnsgd1na2vs0mg"},{"bike_id":"b4dcd770-cc6c-43a4-a81b-41608e372d04","system_id":"levelo_inurba_marseille","lat":43.31697,"lon":5.40466,"is_reserved":false,"is_disabled":false,"rental_uris":{"android":"levelo://app?vid=b4dcd770-cc6c-43a4-a81b-41608e372d04","ios":"levelo://app?vid=b4dcd770-cc6c-43a4-a81b-41608e372d04"},"vehicle_type_id":"4","last_reported":1751908202,"current_range_meters":6000,"station_id":"ce4bh012rcd13ifvqd00","pricing_plan_id":"cebpf4jnsgd1na2vs0mg"},{"bike_id":"85d91ebe-4f05-41a0-a215-9bd88ff54c0b","system_id":"levelo_inurba_marseille","lat":43.266865,"lon":5.37264,"is_reserved":false,"is_disabled":false,"rental_uris":{"android":"levelo://app?vid=85d91ebe-4f05-41a0-a215-9bd88ff54c0b","ios":"levelo://app?vid=85d91ebe-4f05-41a0-a215-9bd88ff54c0b"},"vehicle_type_id":"4","last_reported":1751908202,"current_range_meters":6400,"station_id":"","pricing_plan_id":"cebpf4jnsgd1na2vs0mg"},{"bike_id":"8c5c87e3-89fd-4726-8cdc-42ad520788b6","system_id":"levelo_inurba_marseille","lat":43.291677,"lon":5.371583,"is_reserved":false,"is_disabled":false,"rental_uris":{"android":"levelo://app?vid=8c5c87e3-89fd-4726-8cdc-42ad520788b6","ios":"levelo://app?vid=8c5c87e3-89fd-4726-8cdc-42ad520788b6"},"vehicle_type_id":"4","last_reported":1751908202,"current_range_meters":6400,"station_id":"ce4bha92rcd13ifvqeh0","pricing_plan_id":"cebpf4jnsgd1na2vs0mg"},{"bike_id":"ed290504-6948-4f69-8584-2e2b0286febf","system_id":"levelo_inurba_marseille","lat":43.21191,"lon":5.35084,"is_reserved":false,"is_disabled":false,"rental_uris":{"android":"levelo://app?vid=ed290504-6948-4f69-8584-2e2b0286febf","ios":"levelo://app?vid=ed290504-6948-4f69-8584-2e2b0286febf"},"vehicle_type_id":"4","last_reported":1751908202,"current_range_meters":6400,"station_id":"st_cvj6sg6p6f1abm77japg","pricing_plan_id":"cebpf4jnsgd1na2vs0mg"},{"bike_id":"11c00c4c-5693-44ae-9053-07b237fabf12","system_id":"levelo_inurba_marseille","lat":43.2762,"lon":5.36101,"is_reserved":false,"is_disabled":false,"rental_uris":{"android":"levelo://app?vid=11c00c4c-5693-44ae-9053-07b237fabf12","ios":"levelo://app?vid=11c00c4c-5693-44ae-9053-07b237fabf12"},"vehicle_type_id":"4","last_reported":1751908202,"current_range_meters":6800,"station_id":"ce4bgj92rcd13ifvqbe0","pricing_plan_id":"cebpf4jnsgd1na2vs0mg"},{"bike_id":"91088bd8-9c59-4988-a6a4-8c4e2928fd34","system_id":"levelo_inurba_marseille","lat":43.29857,"lon":5.36283,"is_reserved":false,"is_disabled":false,"rental_uris":{"android":"levelo://app?vid=91088bd8-9c59-4988-a6a4-8c4e2928fd34","ios":"levelo://app?vid=91088bd8-9c59-4988-a6a4-8c4e2928fd34"},"vehicle_type_id":"4","last_reported":1751908202,"current_range_meters":6800,"station_id":"ce4bgpp2rcd13ifvqc3g","pricing_plan_id":"cebpf4jnsgd1na2vs0mg"},{"bike_id":"e5d9815d-e253-4fbf-b402-d4e75f21db4e","system_id":"levelo_inurba_marseille","lat":43.28616,"lon":5.35099,"is_reserved":false,"is_disabled":false,"rental_uris":{"android":"levelo://app?vid=e5d9815d-e253-4fbf-b402-d4e75f21db4e","ios":"levelo://app?vid=e5d9815d-e253-4fbf-b402-d4e75f21db4e"},"vehicle_type_id":"4","last_reported":1751908202,"current_range_meters":6800,"station_id":"ce4bhch2rcd13ifvqeug","pricing_plan_id":"cebpf4jnsgd1na2vs0mg"},{"bike_id":"b1cccdb9-84e4-472b-b8cc-ccb81eb1fd53","system_id":"levelo_inurba_marseille","lat":43.29634,"lon":5.40599,"is_reserved":false,"is_disabled":false,"rental_uris":{"android":"levelo://app?vid=b1cccdb9-84e4-472b-b8cc-ccb81eb1fd53","ios":"levelo://app?vid=b1cccdb9-84e4-472b-b8cc-ccb81eb1fd53"},"vehicle_type_id":"4","last_reported":1751908202,"current_range_meters":7200,"station_id":"ce4bh0h2rcd13ifvqd60","pricing_plan_id":"cebpf4jnsgd1na2vs0mg"},{"bike_id":"80ece32c-8473-4197-8f79-22f2b1ea5b60","system_id":"levelo_inurba_marseille","lat":43.29195,"lon":5.39326,"is_reserved":false,"is_disabled":false,"rental_uris":{"android":"levelo://app?vid=80ece32c-8473-4197-8f79-22f2b1ea5b60","ios":"levelo://app?vid=80ece32c-8473-4197-8f79-22f2b1ea5b60"},"vehicle_type_id":"4","last_reported":1751908202,"current_range_meters":7200,"station_id":"ce4bh192rcd13ifvqdd0","pricing_plan_id":"cebpf4jnsgd1na2vs0mg"},{"bike_id":"9b587b0a-6c36-4f20-8087-de4e3916a24b","system_id":"levelo_inurba_marseille","lat":43.28462,"lon":5.35879,"is_reserved":false,"is_disabled":false,"rental_uris":{"android":"levelo://app?vid=9b587b0a-6c36-4f20-8087-de4e3916a24b","ios":"levelo://app?vid=9b587b0a-6c36-4f20-8087-de4e3916a24b"},"vehicle_type_id":"4","last_reported":1751908202,"current_range_meters":7200,"station_id":"ce4bhah2rcd13ifvqei0","pricing_plan_id":"cebpf4jnsgd1na2vs0mg"},{"bike_id":"627b2b06-da8a-466f-9608-3cef29636059","system_id":"levelo_inurba_marseille","lat":43.21749,"lon":5.34604,"is_reserved":false,"is_disabled":false,"rental_uris":{"android":"levelo://app?vid=627b2b06-da8a-466f-9608-3cef29636059","ios":"levelo://app?vid=627b2b06-da8a-466f-9608-3cef29636059"},"vehicle_type_id":"4","last_reported":1751908202,"current_range_meters":7200,"station_id":"st_cvj6r9ubvosntc0bgbag","pricing_plan_id":"cebpf4jnsgd1na2vs0mg"},{"bike_id":"0960a40d-6887-4872-8149-dba1026e4abb","system_id":"levelo_inurba_marseille","lat":43.2439,"lon":5.37066,"is_reserved":false,"is_disabled":false,"rental_uris":{"android":"levelo://app?vid=0960a40d-6887-4872-8149-dba1026e4abb","ios":"levelo://app?vid=0960a40d-6887-4872-8149-dba1026e4abb"},"vehicle_type_id":"4","last_reported":1751908202,"current_range_meters":8000,"station_id":"ce4bhhh2rcd13ifvqfk0","pricing_plan_id":"cebpf4jnsgd1na2vs0mg"},{"bike_id":"a98e25ba-cb51-4444-a018-775b87dfab96","system_id":"levelo_inurba_marseille","lat":43.259,"lon":5.385451,"is_reserved":false,"is_disabled":false,"rental_uris":{"android":"levelo://app?vid=a98e25ba-cb51-4444-a018-775b87dfab96","ios":"levelo://app?vid=a98e25ba-cb51-4444-a018-775b87dfab96"},"vehicle_type_id":"4","last_reported":1751908202,"current_range_meters":8000,"station_id":"ce4bhih2rcd13ifvqfs0","pricing_plan_id":"cebpf4jnsgd1na2vs0mg"},{"bike_id":"49680c17-8251-472e-b03c-0a027febbbc0","system_id":"levelo_inurba_marseille","lat":43.26215,"lon":5.37936,"is_reserved":false,"is_disabled":false,"rental_uris":{"android":"levelo://app?vid=49680c17-8251-472e-b03c-0a027febbbc0","ios":"levelo://app?vid=49680c17-8251-472e-b03c-0a027febbbc0"},"vehicle_type_id":"4","last_reported":1751908202,"current_range_meters":8000,"station_id":"ce4bhjp2rcd13ifvqg90","pricing_plan_id":"cebpf4jnsgd1na2vs0mg"},{"bike_id":"cf010122-1cfe-41ab-aec2-af161736570b","system_id":"levelo_inurba_marseille","lat":43.26201,"lon":5.37931,"is_reserved":false,"is_disabled":false,"rental_uris":{"android":"levelo://app?vid=cf010122-1cfe-41ab-aec2-af161736570b","ios":"levelo://app?vid=cf010122-1cfe-41ab-aec2-af161736570b"},"vehicle_type_id":"4","last_reported":1751908202,"current_range_meters":8400,"station_id":"ce4bhjp2rcd13ifvqg90","pricing_plan_id":"cebpf4jnsgd1na2vs0mg"},{"bike_id":"b5e64663-c617-4672-b09d-9da973fd4688","system_id":"levelo_inurba_marseille","lat":43.25728,"lon":5.41112,"is_reserved":false,"is_disabled":false,"rental_uris":{"android":"levelo://app?vid=b5e64663-c617-4672-b09d-9da973fd4688","ios":"levelo://app?vid=b5e64663-c617-4672-b09d-9da973fd4688"},"vehicle_type_id":"4","last_reported":1751908202,"current_range_meters":8400,"station_id":"ce4bhkp2rcd13ifvqgd0","pricing_plan_id":"cebpf4jnsgd1na2vs0mg"},{"bike_id":"24671023-520d-43d5-ac7b-e68d55008fe7","system_id":"levelo_inurba_marseille","lat":43.29959,"lon":5.41321,"is_reserved":false,"is_disabled":false,"rental_uris":{"android":"levelo://app?vid=24671023-520d-43d5-ac7b-e68d55008fe7","ios":"levelo://app?vid=24671023-520d-43d5-ac7b-e68d55008fe7"},"vehicle_type_id":"4","last_reported":1751908202,"current_range_meters":8400,"station_id":"ce4bhp12rcd13ifvqh9g","pricing_plan_id":"cebpf4jnsgd1na2vs0mg"},{"bike_id":"2c423baa-ecca-420a-87d7-ad0b7e0b9ebb","system_id":"levelo_inurba_marseille","lat":43.28035,"lon":5.35372,"is_reserved":false,"is_disabled":false,"rental_uris":{"android":"levelo://app?vid=2c423baa-ecca-420a-87d7-ad0b7e0b9ebb","ios":"levelo://app?vid=2c423baa-ecca-420a-87d7-ad0b7e0b9ebb"},"vehicle_type_id":"4","last_reported":1751908202,"current_range_meters":8800,"station_id":"","pricing_plan_id":"cebpf4jnsgd1na2vs0mg"},{"bike_id":"653697c4-c439-4a6d-869a-0ee928b604f9","system_id":"levelo_inurba_marseille","lat":43.26036,"lon":5.41753,"is_reserved":false,"is_disabled":false,"rental_uris":{"android":"levelo://app?vid=653697c4-c439-4a6d-869a-0ee928b604f9","ios":"levelo://app?vid=653697c4-c439-4a6d-869a-0ee928b604f9"},"vehicle_type_id":"4","last_reported":1751908202,"current_range_meters":8800,"station_id":"","pricing_plan_id":"cebpf4jnsgd1na2vs0mg"},{"bike_id":"d7fa7118-1f47-4ada-b486-c8d8853c1b37","system_id":"levelo_inurba_marseille","lat":43.29532,"lon":5.38538,"is_reserved":false,"is_disabled":false,"rental_uris":{"android":"levelo://app?vid=d7fa7118-1f47-4ada-b486-c8d8853c1b37","ios":"levelo://app?vid=d7fa7118-1f47-4ada-b486-c8d8853c1b37"},"vehicle_type_id":"4","last_reported":1751908202,"current_range_meters":8800,"station_id":"ce4bgih2rcd13ifvqba0","pricing_plan_id":"cebpf4jnsgd1na2vs0mg"},{"bike_id":"df7fd0a7-cc78-4908-aaea-ad146b1e7149","system_id":"levelo_inurba_marseille","lat":43.30333,"lon":5.40441,"is_reserved":false,"is_disabled":false,"rental_uris":{"android":"levelo://app?vid=df7fd0a7-cc78-4908-aaea-ad146b1e7149","ios":"levelo://app?vid=df7fd0a7-cc78-4908-aaea-ad146b1e7149"},"vehicle_type_id":"4","last_reported":1751908202,"current_range_meters":8800,"station_id":"ce4bh012rcd13ifvqd10","pricing_plan_id":"cebpf4jnsgd1na2vs0mg"},{"bike_id":"ff388814-a8a2-42a5-b620-76c9ad0f72a4","system_id":"levelo_inurba_marseille","lat":43.27381,"lon":5.36264,"is_reserved":false,"is_disabled":false,"rental_uris":{"android":"levelo://app?vid=ff388814-a8a2-42a5-b620-76c9ad0f72a4","ios":"levelo://app?vid=ff388814-a8a2-42a5-b620-76c9ad0f72a4"},"vehicle_type_id":"4","last_reported":1751908202,"current_range_meters":8800,"station_id":"ce4bhbh2rcd13ifvqeo0","pricing_plan_id":"cebpf4jnsgd1na2vs0mg"},{"bike_id":"4a3154ac-3048-463e-9c11-90185238f36f","system_id":"levelo_inurba_marseille","lat":43.30145,"lon":5.39885,"is_reserved":false,"is_disabled":false,"rental_uris":{"android":"levelo://app?vid=4a3154ac-3048-463e-9c11-90185238f36f","ios":"levelo://app?vid=4a3154ac-3048-463e-9c11-90185238f36f"},"vehicle_type_id":"4","last_reported":1751908202,"current_range_meters":9200,"station_id":"ce4bh0h2rcd13ifvqd40","pricing_plan_id":"cebpf4jnsgd1na2vs0mg"},{"bike_id":"8c152de4-5d68-42e3-ad08-a1f3669d59d0","system_id":"levelo_inurba_marseille","lat":43.28573,"lon":5.39483,"is_reserved":false,"is_disabled":false,"rental_uris":{"android":"levelo://app?vid=8c152de4-5d68-42e3-ad08-a1f3669d59d0","ios":"levelo://app?vid=8c152de4-5d68-42e3-ad08-a1f3669d59d0"},"vehicle_type_id":"4","last_reported":1751908202,"current_range_meters":9200,"station_id":"ce4bh292rcd13ifvqdg0","pricing_plan_id":"cebpf4jnsgd1na2vs0mg"},{"bike_id":"7b336d56-89a5-4b05-9db7-1f2e1f4077e9","system_id":"levelo_inurba_marseille","lat":43.28272,"lon":5.35059,"is_reserved":false,"is_disabled":false,"rental_uris":{"android":"levelo://app?vid=7b336d56-89a5-4b05-9db7-1f2e1f4077e9","ios":"levelo://app?vid=7b336d56-89a5-4b05-9db7-1f2e1f4077e9"},"vehicle_type_id":"4","last_reported":1751908202,"current_range_meters":9200,"station_id":"ce4bhbp2rcd13ifvqerg","pricing_plan_id":"cebpf4jnsgd1na2vs0mg"},{"bike_id":"d0f48bf1-c52c-4bf6-a2e2-6466bb76b6b7","system_id":"levelo_inurba_marseille","lat":43.26806,"lon":5.40267,"is_reserved":false,"is_disabled":false,"rental_uris":{"android":"levelo://app?vid=d0f48bf1-c52c-4bf6-a2e2-6466bb76b6b7","ios":"levelo://app?vid=d0f48bf1-c52c-4bf6-a2e2-6466bb76b6b7"},"vehicle_type_id":"4","last_reported":1751908202,"current_range_meters":9200,"station_id":"ce501612rcd8frsf0b60","pricing_plan_id":"cebpf4jnsgd1na2vs0mg"},{"bike_id":"7b527f00-f6ea-4963-b59d-8da04a2feedb","system_id":"levelo_inurba_marseille","lat":43.321,"lon":5.40097,"is_reserved":false,"is_disabled":false,"rental_uris":{"android":"levelo://app?vid=7b527f00-f6ea-4963-b59d-8da04a2feedb","ios":"levelo://app?vid=7b527f00-f6ea-4963-b59d-8da04a2feedb"},"vehicle_type_id":"4","last_reported":1751908202,"current_range_meters":9600,"station_id":"","pricing_plan_id":"cebpf4jnsgd1na2vs0mg"},{"bike_id":"94add758-2002-4c40-881c-d3fe45161db7","system_id":"levelo_inurba_marseille","lat":43.30543,"lon":5.36554,"is_reserved":false,"is_disabled":false,"rental_uris":{"android":"levelo://app?vid=94add758-2002-4c40-881c-d3fe45161db7","ios":"levelo://app?vid=94add758-2002-4c40-881c-d3fe45161db7"},"vehicle_type_id":"4","last_reported":1751908202,"current_range_meters":9600,"station_id":"ce4bgs12rcd13ifvqcag","pricing_plan_id":"cebpf4jnsgd1na2vs0mg"},{"bike_id":"b6d35595-9bbc-4f03-8a1a-a7124761a592","system_id":"levelo_inurba_marseille","lat":43.30245,"lon":5.40065,"is_reserved":false,"is_disabled":false,"rental_uris":{"android":"levelo://app?vid=b6d35595-9bbc-4f03-8a1a-a7124761a592","ios":"levelo://app?vid=b6d35595-9bbc-4f03-8a1a-a7124761a592"},"vehicle_type_id":"4","last_reported":1751908202,"current_range_meters":9600,"station_id":"ce4bgvh2rcd13ifvqcs0","pricing_plan_id":"cebpf4jnsgd1na2vs0mg"},{"bike_id":"a4fd096e-6eff-42f5-87bd-da5d198f51f0","system_id":"levelo_inurba_marseille","lat":43.30631,"lon":5.40093,"is_reserved":false,"is_disabled":false,"rental_uris":{"android":"levelo://app?vid=a4fd096e-6eff-42f5-87bd-da5d198f51f0","ios":"levelo://app?vid=a4fd096e-6eff-42f5-87bd-da5d198f51f0"},"vehicle_type_id":"4","last_reported":1751908202,"current_range_meters":9600,"station_id":"ce4bh112rcd13ifvqda0","pricing_plan_id":"cebpf4jnsgd1na2vs0mg"},{"bike_id":"b0e84ab5-96fa-4ba8-8cc8-59733b345a60","system_id":"levelo_inurba_marseille","lat":43.24662,"lon":5.38166,"is_reserved":false,"is_disabled":false,"rental_uris":{"android":"levelo://app?vid=b0e84ab5-96fa-4ba8-8cc8-59733b345a60","ios":"levelo://app?vid=b0e84ab5-96fa-4ba8-8cc8-59733b345a60"},"vehicle_type_id":"4","last_reported":1751908202,"current_range_meters":9600,"station_id":"ce4bhih2rcd13ifvqfr0","pricing_plan_id":"cebpf4jnsgd1na2vs0mg"},{"bike_id":"88ea42cb-cf0f-4e4a-8442-732645bc4ba5","system_id":"levelo_inurba_marseille","lat":43.31076,"lon":5.36693,"is_reserved":false,"is_disabled":false,"rental_uris":{"android":"levelo://app?vid=88ea42cb-cf0f-4e4a-8442-732645bc4ba5","ios":"levelo://app?vid=88ea42cb-cf0f-4e4a-8442-732645bc4ba5"},"vehicle_type_id":"4","last_reported":1751908202,"current_range_meters":10000,"station_id":"","pricing_plan_id":"cebpf4jnsgd1na2vs0mg"},{"bike_id":"c3227524-9243-479d-8ef7-2f566d38d65c","system_id":"levelo_inurba_marseille","lat":43.25116,"lon":5.40317,"is_reserved":false,"is_disabled":false,"rental_uris":{"android":"levelo://app?vid=c3227524-9243-479d-8ef7-2f566d38d65c","ios":"levelo://app?vid=c3227524-9243-479d-8ef7-2f566d38d65c"},"vehicle_type_id":"4","last_reported":1751908202,"current_range_meters":10000,"station_id":"ce4bhlh2rcd13ifvqgig","pricing_plan_id":"cebpf4jnsgd1na2vs0mg"},{"bike_id":"e0f915eb-8169-4970-9652-0c0922adfc7d","system_id":"levelo_inurba_marseille","lat":43.30379,"lon":5.42484,"is_reserved":false,"is_disabled":false,"rental_uris":{"android":"levelo://app?vid=e0f915eb-8169-4970-9652-0c0922adfc7d","ios":"levelo://app?vid=e0f915eb-8169-4970-9652-0c0922adfc7d"},"vehicle_type_id":"4","last_reported":1751908202,"current_range_meters":10000,"station_id":"ce4bhoh2rcd13ifvqh6g","pricing_plan_id":"cebpf4jnsgd1na2vs0mg"},{"bike_id":"80955d0f-8669-4c02-b90f-c6fe20790c37","system_id":"levelo_inurba_marseille","lat":43.23187,"lon":5.35048,"is_reserved":false,"is_disabled":false,"rental_uris":{"android":"levelo://app?vid=80955d0f-8669-4c02-b90f-c6fe20790c37","ios":"levelo://app?vid=80955d0f-8669-4c02-b90f-c6fe20790c37"},"vehicle_type_id":"4","last_reported":1751908202,"current_range_meters":10800,"station_id":"","pricing_plan_id":"cebpf4jnsgd1na2vs0mg"},{"bike_id":"5a117d06-8a3b-4b6b-98ac-5a29786417ec","system_id":"levelo_inurba_marseille","lat":43.29536,"lon":5.39401,"is_reserved":false,"is_disabled":false,"rental_uris":{"android":"levelo://app?vid=5a117d06-8a3b-4b6b-98ac-5a29786417ec","ios":"levelo://app?vid=5a117d06-8a3b-4b6b-98ac-5a29786417ec"},"vehicle_type_id":"4","last_reported":1751908202,"current_range_meters":10800,"station_id":"ce4bh292rcd13ifvqdf0","pricing_plan_id":"cebpf4jnsgd1na2vs0mg"},{"bike_id":"993f82dc-3081-4d99-806e-3db0effe948f","system_id":"levelo_inurba_marseille","lat":43.28939,"lon":5.36397,"is_reserved":false,"is_disabled":false,"rental_uris":{"android":"levelo://app?vid=993f82dc-3081-4d99-806e-3db0effe948f","ios":"levelo://app?vid=993f82dc-3081-4d99-806e-3db0effe948f"},"vehicle_type_id":"4","last_reported":1751908202,"current_range_meters":10800,"station_id":"ce4bhc92rcd13ifvqetg","pricing_plan_id":"cebpf4jnsgd1na2vs0mg"},{"bike_id":"3b22f952-d0bc-4c00-8fd3-7e27b88aea23","system_id":"levelo_inurba_marseille","lat":43.29659,"lon":5.36245,"is_reserved":false,"is_disabled":false,"rental_uris":{"android":"levelo://app?vid=3b22f952-d0bc-4c00-8fd3-7e27b88aea23","ios":"levelo://app?vid=3b22f952-d0bc-4c00-8fd3-7e27b88aea23"},"vehicle_type_id":"4","last_reported":1751908202,"current_range_meters":11200,"station_id":"","pricing_plan_id":"cebpf4jnsgd1na2vs0mg"},{"bike_id":"52ce0e92-1489-4538-b9de-cd5b1a9426f5","system_id":"levelo_inurba_marseille","lat":43.28271,"lon":5.35064,"is_reserved":false,"is_disabled":false,"rental_uris":{"android":"levelo://app?vid=52ce0e92-1489-4538-b9de-cd5b1a9426f5","ios":"levelo://app?vid=52ce0e92-1489-4538-b9de-cd5b1a9426f5"},"vehicle_type_id":"4","last_reported":1751908202,"current_range_meters":11200,"station_id":"ce4bhbp2rcd13ifvqerg","pricing_plan_id":"cebpf4jnsgd1na2vs0mg"},{"bike_id":"0a43f5b2-8e3e-4d25-8f38-90989a4aace7","system_id":"levelo_inurba_marseille","lat":43.28612,"lon":5.35108,"is_reserved":false,"is_disabled":false,"rental_uris":{"android":"levelo://app?vid=0a43f5b2-8e3e-4d25-8f38-90989a4aace7","ios":"levelo://app?vid=0a43f5b2-8e3e-4d25-8f38-90989a4aace7"},"vehicle_type_id":"4","last_reported":1751908202,"current_range_meters":11200,"station_id":"ce4bhch2rcd13ifvqeug","pricing_plan_id":"cebpf4jnsgd1na2vs0mg"},{"bike_id":"7bc47c46-f827-43ab-986e-291a63ca48dc","system_id":"levelo_inurba_marseille","lat":43.326237,"lon":5.423443,"is_reserved":false,"is_disabled":false,"rental_uris":{"android":"levelo://app?vid=7bc47c46-f827-43ab-986e-291a63ca48dc","ios":"levelo://app?vid=7bc47c46-f827-43ab-986e-291a63ca48dc"},"vehicle_type_id":"4","last_reported":1751908202,"current_range_meters":11600,"station_id":"","pricing_plan_id":"cebpf4jnsgd1na2vs0mg"},{"bike_id":"37f2becd-23f9-4f13-a711-38b8024eeec7","system_id":"levelo_inurba_marseille","lat":43.33768,"lon":5.37516,"is_reserved":false,"is_disabled":false,"rental_uris":{"android":"levelo://app?vid=37f2becd-23f9-4f13-a711-38b8024eeec7","ios":"levelo://app?vid=37f2becd-23f9-4f13-a711-38b8024eeec7"},"vehicle_type_id":"4","last_reported":1751908202,"current_range_meters":11600,"station_id":"","pricing_plan_id":"cebpf4jnsgd1na2vs0mg"},{"bike_id":"c097b657-da1e-418f-a76a-83dc69f31b2a","system_id":"levelo_inurba_marseille","lat":43.30269,"lon":5.37697,"is_reserved":false,"is_disabled":false,"rental_uris":{"android":"levelo://app?vid=c097b657-da1e-418f-a76a-83dc69f31b2a","ios":"levelo://app?vid=c097b657-da1e-418f-a76a-83dc69f31b2a"},"vehicle_type_id":"4","last_reported":1751908202,"current_range_meters":11600,"station_id":"ce4bguh2rcd13ifvqcj0","pricing_plan_id":"cebpf4jnsgd1na2vs0mg"},{"bike_id":"230cf24f-23b2-48dc-9bee-9d4bc63e68e3","system_id":"levelo_inurba_marseille","lat":43.31117,"lon":5.37759,"is_reserved":false,"is_disabled":false,"rental_uris":{"android":"levelo://app?vid=230cf24f-23b2-48dc-9bee-9d4bc63e68e3","ios":"levelo://app?vid=230cf24f-23b2-48dc-9bee-9d4bc63e68e3"},"vehicle_type_id":"4","last_reported":1751908202,"current_range_meters":12000,"station_id":"ce4bgt92rcd13ifvqcg0","pricing_plan_id":"cebpf4jnsgd1na2vs0mg"},{"bike_id":"744ac6e7-e15e-424d-9d04-5e03886595fb","system_id":"levelo_inurba_marseille","lat":43.28476,"lon":5.38414,"is_reserved":false,"is_disabled":false,"rental_uris":{"android":"levelo://app?vid=744ac6e7-e15e-424d-9d04-5e03886595fb","ios":"levelo://app?vid=744ac6e7-e15e-424d-9d04-5e03886595fb"},"vehicle_type_id":"4","last_reported":1751908202,"current_range_meters":12000,"station_id":"ce4bh512rcd13ifvqe3g","pricing_plan_id":"cebpf4jnsgd1na2vs0mg"},{"bike_id":"b7e763b6-2a3d-47d2-81d8-8fde60809cdd","system_id":"levelo_inurba_marseille","lat":43.29005,"lon":5.35614,"is_reserved":false,"is_disabled":false,"rental_uris":{"android":"levelo://app?vid=b7e763b6-2a3d-47d2-81d8-8fde60809cdd","ios":"levelo://app?vid=b7e763b6-2a3d-47d2-81d8-8fde60809cdd"},"vehicle_type_id":"4","last_reported":1751908202,"current_range_meters":12000,"station_id":"ce4bhb92rcd13ifvqen0","pricing_plan_id":"cebpf4jnsgd1na2vs0mg"},{"bike_id":"038d4244-06af-43cf-b47c-42775f1e60f5","system_id":"levelo_inurba_marseille","lat":43.27375,"lon":5.36253,"is_reserved":false,"is_disabled":false,"rental_uris":{"android":"levelo://app?vid=038d4244-06af-43cf-b47c-42775f1e60f5","ios":"levelo://app?vid=038d4244-06af-43cf-b47c-42775f1e60f5"},"vehicle_type_id":"4","last_reported":1751908202,"current_range_meters":12000,"station_id":"ce4bhbh2rcd13ifvqeo0","pricing_plan_id":"cebpf4jnsgd1na2vs0mg"},{"bike_id":"a31d7b1d-f875-4f27-b8f6-640a4ac62493","system_id":"levelo_inurba_marseille","lat":43.33737,"lon":5.391896,"is_reserved":false,"is_disabled":false,"rental_uris":{"android":"levelo://app?vid=a31d7b1d-f875-4f27-b8f6-640a4ac62493","ios":"levelo://app?vid=a31d7b1d-f875-4f27-b8f6-640a4ac62493"},"vehicle_type_id":"4","last_reported":1751908202,"current_range_meters":12000,"station_id":"ce4bhr92rcd13ifvqhsg","pricing_plan_id":"cebpf4jnsgd1na2vs0mg"},{"bike_id":"8d92521f-64de-4b84-ac6c-1923c26cf5a2","system_id":"levelo_inurba_marseille","lat":43.32485,"lon":5.36562,"is_reserved":false,"is_disabled":false,"rental_uris":{"android":"levelo://app?vid=8d92521f-64de-4b84-ac6c-1923c26cf5a2","ios":"levelo://app?vid=8d92521f-64de-4b84-ac6c-1923c26cf5a2"},"vehicle_type_id":"4","last_reported":1751908202,"current_range_meters":12000,"station_id":"ce4bhs12rcd13ifvqhvg","pricing_plan_id":"cebpf4jnsgd1na2vs0mg"},{"bike_id":"ccc29df5-1113-42b5-b8de-771b9f206409","system_id":"levelo_inurba_marseille","lat":43.26269,"lon":5.37408,"is_reserved":false,"is_disabled":false,"rental_uris":{"android":"levelo://app?vid=ccc29df5-1113-42b5-b8de-771b9f206409","ios":"levelo://app?vid=ccc29df5-1113-42b5-b8de-771b9f206409"},"vehicle_type_id":"4","last_reported":1751908202,"current_range_meters":12400,"station_id":"","pricing_plan_id":"cebpf4jnsgd1na2vs0mg"},{"bike_id":"461db842-d35e-4bac-ac0e-5084024bacb7","system_id":"levelo_inurba_marseille","lat":43.31083,"lon":5.38349,"is_reserved":false,"is_disabled":false,"rental_uris":{"android":"levelo://app?vid=461db842-d35e-4bac-ac0e-5084024bacb7","ios":"levelo://app?vid=461db842-d35e-4bac-ac0e-5084024bacb7"},"vehicle_type_id":"4","last_reported":1751908202,"current_range_meters":12400,"station_id":"ce4bgv92rcd13ifvqcr0","pricing_plan_id":"cebpf4jnsgd1na2vs0mg"},{"bike_id":"29102da4-02a2-4f9c-99ed-89cdef887179","system_id":"levelo_inurba_marseille","lat":43.22512,"lon":5.3478,"is_reserved":false,"is_disabled":false,"rental_uris":{"android":"levelo://app?vid=29102da4-02a2-4f9c-99ed-89cdef887179","ios":"levelo://app?vid=29102da4-02a2-4f9c-99ed-89cdef887179"},"vehicle_type_id":"4","last_reported":1751908202,"current_range_meters":12400,"station_id":"st_cvj5dfep6f1abm77gieg","pricing_plan_id":"cebpf4jnsgd1na2vs0mg"},{"bike_id":"78c65a7f-d308-40b5-accc-8e6897ac9f8a","system_id":"levelo_inurba_marseille","lat":43.30082,"lon":5.37784,"is_reserved":false,"is_disabled":false,"rental_uris":{"android":"levelo://app?vid=78c65a7f-d308-40b5-accc-8e6897ac9f8a","ios":"levelo://app?vid=78c65a7f-d308-40b5-accc-8e6897ac9f8a"},"vehicle_type_id":"4","last_reported":1751908202,"current_range_meters":12800,"station_id":"","pricing_plan_id":"cebpf4jnsgd1na2vs0mg"},{"bike_id":"caee0874-673e-4746-a68d-45d5abf49e95","system_id":"levelo_inurba_marseille","lat":43.25085,"lon":5.395411,"is_reserved":false,"is_disabled":false,"rental_uris":{"android":"levelo://app?vid=caee0874-673e-4746-a68d-45d5abf49e95","ios":"levelo://app?vid=caee0874-673e-4746-a68d-45d5abf49e95"},"vehicle_type_id":"4","last_reported":1751908202,"current_range_meters":12800,"station_id":"ce4bhh12rcd13ifvqff0","pricing_plan_id":"cebpf4jnsgd1na2vs0mg"},{"bike_id":"a70cfab5-f447-4d61-b80a-343a49825360","system_id":"levelo_inurba_marseille","lat":43.31502,"lon":5.39127,"is_reserved":false,"is_disabled":false,"rental_uris":{"android":"levelo://app?vid=a70cfab5-f447-4d61-b80a-343a49825360","ios":"levelo://app?vid=a70cfab5-f447-4d61-b80a-343a49825360"},"vehicle_type_id":"4","last_reported":1751908202,"current_range_meters":13600,"station_id":"","pricing_plan_id":"cebpf4jnsgd1na2vs0mg"},{"bike_id":"97cc88b2-10db-4640-beab-1195e8e7ab9a","system_id":"levelo_inurba_marseille","lat":43.30089,"lon":5.39079,"is_reserved":false,"is_disabled":false,"rental_uris":{"android":"levelo://app?vid=97cc88b2-10db-4640-beab-1195e8e7ab9a","ios":"levelo://app?vid=97cc88b2-10db-4640-beab-1195e8e7ab9a"},"vehicle_type_id":"4","last_reported":1751908202,"current_range_meters":13600,"station_id":"ce4bh192rcd13ifvqdb0","pricing_plan_id":"cebpf4jnsgd1na2vs0mg"},{"bike_id":"d91b6652-f798-468a-8450-e597d23bf71e","system_id":"levelo_inurba_marseille","lat":43.28357,"lon":5.38108,"is_reserved":false,"is_disabled":false,"rental_uris":{"android":"levelo://app?vid=d91b6652-f798-468a-8450-e597d23bf71e","ios":"levelo://app?vid=d91b6652-f798-468a-8450-e597d23bf71e"},"vehicle_type_id":"4","last_reported":1751908202,"current_range_meters":13600,"station_id":"ce4bh412rcd13ifvqdr0","pricing_plan_id":"cebpf4jnsgd1na2vs0mg"},{"bike_id":"d7988964-28c6-4fac-b7a3-c9a2ca519892","system_id":"levelo_inurba_marseille","lat":43.28626,"lon":5.35098,"is_reserved":false,"is_disabled":false,"rental_uris":{"android":"levelo://app?vid=d7988964-28c6-4fac-b7a3-c9a2ca519892","ios":"levelo://app?vid=d7988964-28c6-4fac-b7a3-c9a2ca519892"},"vehicle_type_id":"4","last_reported":1751908202,"current_range_meters":13600,"station_id":"ce4bhch2rcd13ifvqeug","pricing_plan_id":"cebpf4jnsgd1na2vs0mg"},{"bike_id":"20c0674d-b5fd-4e8e-88c4-fe181160a0e2","system_id":"levelo_inurba_marseille","lat":43.21764,"lon":5.34578,"is_reserved":false,"is_disabled":false,"rental_uris":{"android":"levelo://app?vid=20c0674d-b5fd-4e8e-88c4-fe181160a0e2","ios":"levelo://app?vid=20c0674d-b5fd-4e8e-88c4-fe181160a0e2"},"vehicle_type_id":"4","last_reported":1751908202,"current_range_meters":13600,"station_id":"st_cvj6r9ubvosntc0bgbag","pricing_plan_id":"cebpf4jnsgd1na2vs0mg"},{"bike_id":"31902e56-2e25-49fb-8d07-c36d509aa90a","system_id":"levelo_inurba_marseille","lat":43.293,"lon":5.37465,"is_reserved":false,"is_disabled":false,"rental_uris":{"android":"levelo://app?vid=31902e56-2e25-49fb-8d07-c36d509aa90a","ios":"levelo://app?vid=31902e56-2e25-49fb-8d07-c36d509aa90a"},"vehicle_type_id":"4","last_reported":1751908202,"current_range_meters":14000,"station_id":"ce4bgi12rcd13ifvqb70","pricing_plan_id":"cebpf4jnsgd1na2vs0mg"},{"bike_id":"aebe40ff-e84b-4093-9199-5df7043b3910","system_id":"levelo_inurba_marseille","lat":43.27625,"lon":5.36113,"is_reserved":false,"is_disabled":false,"rental_uris":{"android":"levelo://app?vid=aebe40ff-e84b-4093-9199-5df7043b3910","ios":"levelo://app?vid=aebe40ff-e84b-4093-9199-5df7043b3910"},"vehicle_type_id":"4","last_reported":1751908202,"current_range_meters":14000,"station_id":"ce4bgj92rcd13ifvqbe0","pricing_plan_id":"cebpf4jnsgd1na2vs0mg"},{"bike_id":"6738d357-e41b-41eb-9730-9ff94ed84491","system_id":"levelo_inurba_marseille","lat":43.29007,"lon":5.35604,"is_reserved":false,"is_disabled":false,"rental_uris":{"android":"levelo://app?vid=6738d357-e41b-41eb-9730-9ff94ed84491","ios":"levelo://app?vid=6738d357-e41b-41eb-9730-9ff94ed84491"},"vehicle_type_id":"4","last_reported":1751908202,"current_range_meters":14000,"station_id":"ce4bhb92rcd13ifvqen0","pricing_plan_id":"cebpf4jnsgd1na2vs0mg"},{"bike_id":"b64bd785-02dc-441a-b952-f373c461a537","system_id":"levelo_inurba_marseille","lat":43.290078,"lon":5.356117,"is_reserved":false,"is_disabled":false,"rental_uris":{"android":"levelo://app?vid=b64bd785-02dc-441a-b952-f373c461a537","ios":"levelo://app?vid=b64bd785-02dc-441a-b952-f373c461a537"},"vehicle_type_id":"4","last_reported":1751908202,"current_range_meters":14000,"station_id":"ce4bhb92rcd13ifvqen0","pricing_plan_id":"cebpf4jnsgd1na2vs0mg"},{"bike_id":"d744d957-1eb5-4a48-802d-91ff6691d26a","system_id":"levelo_inurba_marseille","lat":43.26783,"lon":5.39413,"is_reserved":false,"is_disabled":false,"rental_uris":{"android":"levelo://app?vid=d744d957-1eb5-4a48-802d-91ff6691d26a","ios":"levelo://app?vid=d744d957-1eb5-4a48-802d-91ff6691d26a"},"vehicle_type_id":"4","last_reported":1751908202,"current_range_meters":14000,"station_id":"ce4bhh12rcd13ifvqfg0","pricing_plan_id":"cebpf4jnsgd1na2vs0mg"},{"bike_id":"5ec4874c-03c6-4a0e-89ff-0413efb1d60d","system_id":"levelo_inurba_marseille","lat":43.31992,"lon":5.36752,"is_reserved":false,"is_disabled":false,"rental_uris":{"android":"levelo://app?vid=5ec4874c-03c6-4a0e-89ff-0413efb1d60d","ios":"levelo://app?vid=5ec4874c-03c6-4a0e-89ff-0413efb1d60d"},"vehicle_type_id":"4","last_reported":1751908202,"current_range_meters":14000,"station_id":"ce4bhrh2rcd13ifvqhug","pricing_plan_id":"cebpf4jnsgd1na2vs0mg"},{"bike_id":"9ff1c5a8-c15a-4e07-b16a-bacf08c4d5d6","system_id":"levelo_inurba_marseille","lat":43.28159,"lon":5.42642,"is_reserved":false,"is_disabled":false,"rental_uris":{"android":"levelo://app?vid=9ff1c5a8-c15a-4e07-b16a-bacf08c4d5d6","ios":"levelo://app?vid=9ff1c5a8-c15a-4e07-b16a-bacf08c4d5d6"},"vehicle_type_id":"4","last_reported":1751908202,"current_range_meters":14400,"station_id":"ce4bhnh2rcd13ifvqgug","pricing_plan_id":"cebpf4jnsgd1na2vs0mg"},{"bike_id":"2aca30cd-672a-4910-a92a-cf7a5e8e4ff5","system_id":"levelo_inurba_marseille","lat":43.24084,"lon":5.37766,"is_reserved":false,"is_disabled":false,"rental_uris":{"android":"levelo://app?vid=2aca30cd-672a-4910-a92a-cf7a5e8e4ff5","ios":"levelo://app?vid=2aca30cd-672a-4910-a92a-cf7a5e8e4ff5"},"vehicle_type_id":"4","last_reported":1751908202,"current_range_meters":14400,"station_id":"ce4bhnp2rcd13ifvqgvg","pricing_plan_id":"cebpf4jnsgd1na2vs0mg"},{"bike_id":"159f5355-2c7f-4d23-ad73-91ead83fedc2","system_id":"levelo_inurba_marseille","lat":43.279465,"lon":5.41047,"is_reserved":false,"is_disabled":false,"rental_uris":{"android":"levelo://app?vid=159f5355-2c7f-4d23-ad73-91ead83fedc2","ios":"levelo://app?vid=159f5355-2c7f-4d23-ad73-91ead83fedc2"},"vehicle_type_id":"4","last_reported":1751908202,"current_range_meters":14400,"station_id":"ce4bhnp2rcd13ifvqh0g","pricing_plan_id":"cebpf4jnsgd1na2vs0mg"},{"bike_id":"1cffac02-7005-4ed7-b9a1-eee8818e0408","system_id":"levelo_inurba_marseille","lat":43.29716,"lon":5.36605,"is_reserved":false,"is_disabled":false,"rental_uris":{"android":"levelo://app?vid=1cffac02-7005-4ed7-b9a1-eee8818e0408","ios":"levelo://app?vid=1cffac02-7005-4ed7-b9a1-eee8818e0408"},"vehicle_type_id":"4","last_reported":1751908202,"current_range_meters":14800,"station_id":"ce4bgn12rcd13ifvqbt0","pricing_plan_id":"cebpf4jnsgd1na2vs0mg"},{"bike_id":"9f6babcf-6126-41cb-af67-39d95d38e6ad","system_id":"levelo_inurba_marseille","lat":43.29198,"lon":5.35799,"is_reserved":false,"is_disabled":false,"rental_uris":{"android":"levelo://app?vid=9f6babcf-6126-41cb-af67-39d95d38e6ad","ios":"levelo://app?vid=9f6babcf-6126-41cb-af67-39d95d38e6ad"},"vehicle_type_id":"4","last_reported":1751908202,"current_range_meters":14800,"station_id":"ce4bhb12rcd13ifvqel0","pricing_plan_id":"cebpf4jnsgd1na2vs0mg"},{"bike_id":"643bf0ec-a742-46d8-b1b6-88cdec4fb98f","system_id":"levelo_inurba_marseille","lat":43.29009,"lon":5.3561,"is_reserved":false,"is_disabled":false,"rental_uris":{"android":"levelo://app?vid=643bf0ec-a742-46d8-b1b6-88cdec4fb98f","ios":"levelo://app?vid=643bf0ec-a742-46d8-b1b6-88cdec4fb98f"},"vehicle_type_id":"4","last_reported":1751908202,"current_range_meters":14800,"station_id":"ce4bhb92rcd13ifvqen0","pricing_plan_id":"cebpf4jnsgd1na2vs0mg"},{"bike_id":"ef4a8410-572b-4542-8fb3-ca7273caf3a7","system_id":"levelo_inurba_marseille","lat":43.25872,"lon":5.39893,"is_reserved":false,"is_disabled":false,"rental_uris":{"android":"levelo://app?vid=ef4a8410-572b-4542-8fb3-ca7273caf3a7","ios":"levelo://app?vid=ef4a8410-572b-4542-8fb3-ca7273caf3a7"},"vehicle_type_id":"4","last_reported":1751908202,"current_range_meters":14800,"station_id":"ce4bhl92rcd13ifvqghg","pricing_plan_id":"cebpf4jnsgd1na2vs0mg"},{"bike_id":"c5f83647-e0bc-4d1c-96d9-15bff83e5fe0","system_id":"levelo_inurba_marseille","lat":43.25081,"lon":5.3952,"is_reserved":false,"is_disabled":false,"rental_uris":{"android":"levelo://app?vid=c5f83647-e0bc-4d1c-96d9-15bff83e5fe0","ios":"levelo://app?vid=c5f83647-e0bc-4d1c-96d9-15bff83e5fe0"},"vehicle_type_id":"4","last_reported":1751908202,"current_range_meters":14800,"station_id":"ce4bhm12rcd13ifvqgkg","pricing_plan_id":"cebpf4jnsgd1na2vs0mg"},{"bike_id":"e79346c8-86fc-4daa-86ef-e1e68b65043e","system_id":"levelo_inurba_marseille","lat":43.24075,"lon":5.37759,"is_reserved":false,"is_disabled":false,"rental_uris":{"android":"levelo://app?vid=e79346c8-86fc-4daa-86ef-e1e68b65043e","ios":"levelo://app?vid=e79346c8-86fc-4daa-86ef-e1e68b65043e"},"vehicle_type_id":"4","last_reported":1751908202,"current_range_meters":14800,"station_id":"ce4bhnp2rcd13ifvqgvg","pricing_plan_id":"cebpf4jnsgd1na2vs0mg"},{"bike_id":"9b3a08e6-c477-4e76-96c0-4f7d47f544aa","system_id":"levelo_inurba_marseille","lat":43.30138,"lon":5.39884,"is_reserved":false,"is_disabled":false,"rental_uris":{"android":"levelo://app?vid=9b3a08e6-c477-4e76-96c0-4f7d47f544aa","ios":"levelo://app?vid=9b3a08e6-c477-4e76-96c0-4f7d47f544aa"},"vehicle_type_id":"4","last_reported":1751908202,"current_range_meters":15200,"station_id":"ce4bh0h2rcd13ifvqd40","pricing_plan_id":"cebpf4jnsgd1na2vs0mg"},{"bike_id":"0df2204d-7447-428f-8419-5962b642873b","system_id":"levelo_inurba_marseille","lat":43.267897,"lon":5.39408,"is_reserved":false,"is_disabled":false,"rental_uris":{"android":"levelo://app?vid=0df2204d-7447-428f-8419-5962b642873b","ios":"levelo://app?vid=0df2204d-7447-428f-8419-5962b642873b"},"vehicle_type_id":"4","last_reported":1751908202,"current_range_meters":15200,"station_id":"ce4bhh12rcd13ifvqfg0","pricing_plan_id":"cebpf4jnsgd1na2vs0mg"},{"bike_id":"82ec29fb-130b-4c48-8550-e169ac8071f6","system_id":"levelo_inurba_marseille","lat":43.32042,"lon":5.41573,"is_reserved":false,"is_disabled":false,"rental_uris":{"android":"levelo://app?vid=82ec29fb-130b-4c48-8550-e169ac8071f6","ios":"levelo://app?vid=82ec29fb-130b-4c48-8550-e169ac8071f6"},"vehicle_type_id":"4","last_reported":1751908202,"current_range_meters":15200,"station_id":"ce4bhq92rcd13ifvqhkg","pricing_plan_id":"cebpf4jnsgd1na2vs0mg"},{"bike_id":"f853937d-5cf0-4b15-b7c8-f6d7502b5f81","system_id":"levelo_inurba_marseille","lat":43.29883,"lon":5.36316,"is_reserved":false,"is_disabled":false,"rental_uris":{"android":"levelo://app?vid=f853937d-5cf0-4b15-b7c8-f6d7502b5f81","ios":"levelo://app?vid=f853937d-5cf0-4b15-b7c8-f6d7502b5f81"},"vehicle_type_id":"4","last_reported":1751908202,"current_range_meters":16000,"station_id":"","pricing_plan_id":"cebpf4jnsgd1na2vs0mg"},{"bike_id":"2a4d564b-8d8f-408b-b7e2-7d7e21563462","system_id":"levelo_inurba_marseille","lat":43.29531,"lon":5.3854,"is_reserved":false,"is_disabled":false,"rental_uris":{"android":"levelo://app?vid=2a4d564b-8d8f-408b-b7e2-7d7e21563462","ios":"levelo://app?vid=2a4d564b-8d8f-408b-b7e2-7d7e21563462"},"vehicle_type_id":"4","last_reported":1751908202,"current_range_meters":16000,"station_id":"ce4bgih2rcd13ifvqba0","pricing_plan_id":"cebpf4jnsgd1na2vs0mg"},{"bike_id":"55038c76-c321-4caf-8fd8-5757b3ebcb47","system_id":"levelo_inurba_marseille","lat":43.30434,"lon":5.38887,"is_reserved":false,"is_disabled":false,"rental_uris":{"android":"levelo://app?vid=55038c76-c321-4caf-8fd8-5757b3ebcb47","ios":"levelo://app?vid=55038c76-c321-4caf-8fd8-5757b3ebcb47"},"vehicle_type_id":"4","last_reported":1751908202,"current_range_meters":16000,"station_id":"ce4bgk12rcd13ifvqbi0","pricing_plan_id":"cebpf4jnsgd1na2vs0mg"},{"bike_id":"7a1a3177-be94-4c43-b1da-3f44281b20ce","system_id":"levelo_inurba_marseille","lat":43.30814,"lon":5.3816,"is_reserved":false,"is_disabled":false,"rental_uris":{"android":"levelo://app?vid=7a1a3177-be94-4c43-b1da-3f44281b20ce","ios":"levelo://app?vid=7a1a3177-be94-4c43-b1da-3f44281b20ce"},"vehicle_type_id":"4","last_reported":1751908202,"current_range_meters":16000,"station_id":"ce4bgt12rcd13ifvqce0","pricing_plan_id":"cebpf4jnsgd1na2vs0mg"},{"bike_id":"c459acbe-1030-4a3e-9084-774a714703ee","system_id":"levelo_inurba_marseille","lat":43.29418,"lon":5.38634,"is_reserved":false,"is_disabled":false,"rental_uris":{"android":"levelo://app?vid=c459acbe-1030-4a3e-9084-774a714703ee","ios":"levelo://app?vid=c459acbe-1030-4a3e-9084-774a714703ee"},"vehicle_type_id":"4","last_reported":1751908202,"current_range_meters":16000,"station_id":"ce4bh2h2rcd13ifvqdh0","pricing_plan_id":"cebpf4jnsgd1na2vs0mg"},{"bike_id":"623f3fcb-b945-43a7-a554-280bf5275165","system_id":"levelo_inurba_marseille","lat":43.29194,"lon":5.35798,"is_reserved":false,"is_disabled":false,"rental_uris":{"android":"levelo://app?vid=623f3fcb-b945-43a7-a554-280bf5275165","ios":"levelo://app?vid=623f3fcb-b945-43a7-a554-280bf5275165"},"vehicle_type_id":"4","last_reported":1751908202,"current_range_meters":16000,"station_id":"ce4bhb12rcd13ifvqel0","pricing_plan_id":"cebpf4jnsgd1na2vs0mg"},{"bike_id":"7f189570-d86b-4e22-b750-cde58fa14537","system_id":"levelo_inurba_marseille","lat":43.28409,"lon":5.3499,"is_reserved":false,"is_disabled":false,"rental_uris":{"android":"levelo://app?vid=7f189570-d86b-4e22-b750-cde58fa14537","ios":"levelo://app?vid=7f189570-d86b-4e22-b750-cde58fa14537"},"vehicle_type_id":"4","last_reported":1751908202,"current_range_meters":16000,"station_id":"ce4bhbh2rcd13ifvqepg","pricing_plan_id":"cebpf4jnsgd1na2vs0mg"},{"bike_id":"ee48f0e0-2efc-4007-86c7-16994a61d9e5","system_id":"levelo_inurba_marseille","lat":43.28614,"lon":5.35102,"is_reserved":false,"is_disabled":false,"rental_uris":{"android":"levelo://app?vid=ee48f0e0-2efc-4007-86c7-16994a61d9e5","ios":"levelo://app?vid=ee48f0e0-2efc-4007-86c7-16994a61d9e5"},"vehicle_type_id":"4","last_reported":1751908202,"current_range_meters":16000,"station_id":"ce4bhch2rcd13ifvqeug","pricing_plan_id":"cebpf4jnsgd1na2vs0mg"},{"bike_id":"942a983a-7094-47d3-97b7-ba4ab853d965","system_id":"levelo_inurba_marseille","lat":43.27082,"lon":5.42266,"is_reserved":false,"is_disabled":false,"rental_uris":{"android":"levelo://app?vid=942a983a-7094-47d3-97b7-ba4ab853d965","ios":"levelo://app?vid=942a983a-7094-47d3-97b7-ba4ab853d965"},"vehicle_type_id":"4","last_reported":1751908202,"current_range_meters":16000,"station_id":"ce4bhk92rcd13ifvqgb0","pricing_plan_id":"cebpf4jnsgd1na2vs0mg"},{"bike_id":"7237f235-b0e1-4f2b-923c-7ff79688805d","system_id":"levelo_inurba_marseille","lat":43.27947,"lon":5.41043,"is_reserved":false,"is_disabled":false,"rental_uris":{"android":"levelo://app?vid=7237f235-b0e1-4f2b-923c-7ff79688805d","ios":"levelo://app?vid=7237f235-b0e1-4f2b-923c-7ff79688805d"},"vehicle_type_id":"4","last_reported":1751908202,"current_range_meters":16000,"station_id":"ce4bhnp2rcd13ifvqh0g","pricing_plan_id":"cebpf4jnsgd1na2vs0mg"},{"bike_id":"c2ee7d66-374b-44cd-b9d7-9ad64301293b","system_id":"levelo_inurba_marseille","lat":43.22504,"lon":5.34785,"is_reserved":false,"is_disabled":false,"rental_uris":{"android":"levelo://app?vid=c2ee7d66-374b-44cd-b9d7-9ad64301293b","ios":"levelo://app?vid=c2ee7d66-374b-44cd-b9d7-9ad64301293b"},"vehicle_type_id":"4","last_reported":1751908202,"current_range_meters":16000,"station_id":"st_cvj5dfep6f1abm77gieg","pricing_plan_id":"cebpf4jnsgd1na2vs0mg"},{"bike_id":"47504bfd-399a-4889-acd8-b9a1331dcb3c","system_id":"levelo_inurba_marseille","lat":43.30731,"lon":5.42437,"is_reserved":false,"is_disabled":false,"rental_uris":{"android":"levelo://app?vid=47504bfd-399a-4889-acd8-b9a1331dcb3c","ios":"levelo://app?vid=47504bfd-399a-4889-acd8-b9a1331dcb3c"},"vehicle_type_id":"4","last_reported":1751908202,"current_range_meters":16000,"station_id":"st_cvj6ca6bvosntc0bfgr0","pricing_plan_id":"cebpf4jnsgd1na2vs0mg"},{"bike_id":"81a90470-bf95-4bc5-a63c-2d0ab5ab2760","system_id":"levelo_inurba_marseille","lat":43.298773,"lon":5.384005,"is_reserved":false,"is_disabled":false,"rental_uris":{"android":"levelo://app?vid=81a90470-bf95-4bc5-a63c-2d0ab5ab2760","ios":"levelo://app?vid=81a90470-bf95-4bc5-a63c-2d0ab5ab2760"},"vehicle_type_id":"4","last_reported":1751908202,"current_range_meters":16400,"station_id":"","pricing_plan_id":"cebpf4jnsgd1na2vs0mg"},{"bike_id":"f857691a-3250-4877-9df9-b82ddaf5a0a2","system_id":"levelo_inurba_marseille","lat":43.29977,"lon":5.38488,"is_reserved":false,"is_disabled":false,"rental_uris":{"android":"levelo://app?vid=f857691a-3250-4877-9df9-b82ddaf5a0a2","ios":"levelo://app?vid=f857691a-3250-4877-9df9-b82ddaf5a0a2"},"vehicle_type_id":"4","last_reported":1751908202,"current_range_meters":16400,"station_id":"ce4bgj92rcd13ifvqbd0","pricing_plan_id":"cebpf4jnsgd1na2vs0mg"},{"bike_id":"c3ada3f1-ddde-4bf5-8936-f4ee5b898c22","system_id":"levelo_inurba_marseille","lat":43.27624,"lon":5.36109,"is_reserved":false,"is_disabled":false,"rental_uris":{"android":"levelo://app?vid=c3ada3f1-ddde-4bf5-8936-f4ee5b898c22","ios":"levelo://app?vid=c3ada3f1-ddde-4bf5-8936-f4ee5b898c22"},"vehicle_type_id":"4","last_reported":1751908202,"current_range_meters":16400,"station_id":"ce4bgj92rcd13ifvqbe0","pricing_plan_id":"cebpf4jnsgd1na2vs0mg"},{"bike_id":"658c88de-1048-47ce-b164-2a7bd65bf864","system_id":"levelo_inurba_marseille","lat":43.31317,"lon":5.39699,"is_reserved":false,"is_disabled":false,"rental_uris":{"android":"levelo://app?vid=658c88de-1048-47ce-b164-2a7bd65bf864","ios":"levelo://app?vid=658c88de-1048-47ce-b164-2a7bd65bf864"},"vehicle_type_id":"4","last_reported":1751908202,"current_range_meters":16400,"station_id":"ce4bgvp2rcd13ifvqcu0","pricing_plan_id":"cebpf4jnsgd1na2vs0mg"},{"bike_id":"8f96ab62-0f77-4839-bdab-1f86d6f75cb6","system_id":"levelo_inurba_marseille","lat":43.31689,"lon":5.40475,"is_reserved":false,"is_disabled":false,"rental_uris":{"android":"levelo://app?vid=8f96ab62-0f77-4839-bdab-1f86d6f75cb6","ios":"levelo://app?vid=8f96ab62-0f77-4839-bdab-1f86d6f75cb6"},"vehicle_type_id":"4","last_reported":1751908202,"current_range_meters":16400,"station_id":"ce4bh012rcd13ifvqd00","pricing_plan_id":"cebpf4jnsgd1na2vs0mg"},{"bike_id":"9e65b1ea-81b3-42b9-8ea1-d9fe04316b1d","system_id":"levelo_inurba_marseille","lat":43.28936,"lon":5.38388,"is_reserved":false,"is_disabled":false,"rental_uris":{"android":"levelo://app?vid=9e65b1ea-81b3-42b9-8ea1-d9fe04316b1d","ios":"levelo://app?vid=9e65b1ea-81b3-42b9-8ea1-d9fe04316b1d"},"vehicle_type_id":"4","last_reported":1751908202,"current_range_meters":16400,"station_id":"ce4bh612rcd13ifvqe6g","pricing_plan_id":"cebpf4jnsgd1na2vs0mg"},{"bike_id":"de5c1bb2-488d-4dc9-9962-d457e339e29a","system_id":"levelo_inurba_marseille","lat":43.28464,"lon":5.3588,"is_reserved":false,"is_disabled":false,"rental_uris":{"android":"levelo://app?vid=de5c1bb2-488d-4dc9-9962-d457e339e29a","ios":"levelo://app?vid=de5c1bb2-488d-4dc9-9962-d457e339e29a"},"vehicle_type_id":"4","last_reported":1751908202,"current_range_meters":16400,"station_id":"ce4bhah2rcd13ifvqei0","pricing_plan_id":"cebpf4jnsgd1na2vs0mg"},{"bike_id":"81023cf2-cca4-49a6-904f-85efa8763265","system_id":"levelo_inurba_marseille","lat":43.28619,"lon":5.35107,"is_reserved":false,"is_disabled":false,"rental_uris":{"android":"levelo://app?vid=81023cf2-cca4-49a6-904f-85efa8763265","ios":"levelo://app?vid=81023cf2-cca4-49a6-904f-85efa8763265"},"vehicle_type_id":"4","last_reported":1751908202,"current_range_meters":16400,"station_id":"ce4bhch2rcd13ifvqeug","pricing_plan_id":"cebpf4jnsgd1na2vs0mg"},{"bike_id":"2090512e-543d-4a55-b888-2423e2f84234","system_id":"levelo_inurba_marseille","lat":43.24074,"lon":5.37738,"is_reserved":false,"is_disabled":false,"rental_uris":{"android":"levelo://app?vid=2090512e-543d-4a55-b888-2423e2f84234","ios":"levelo://app?vid=2090512e-543d-4a55-b888-2423e2f84234"},"vehicle_type_id":"4","last_reported":1751908202,"current_range_meters":16400,"station_id":"ce4bhnp2rcd13ifvqgvg","pricing_plan_id":"cebpf4jnsgd1na2vs0mg"},{"bike_id":"b74631e0-e4a8-4844-83aa-4f8076f442dc","system_id":"levelo_inurba_marseille","lat":43.29789,"lon":5.39335,"is_reserved":false,"is_disabled":false,"rental_uris":{"android":"levelo://app?vid=b74631e0-e4a8-4844-83aa-4f8076f442dc","ios":"levelo://app?vid=b74631e0-e4a8-4844-83aa-4f8076f442dc"},"vehicle_type_id":"4","last_reported":1751908202,"current_range_meters":16400,"station_id":"chh1huq6cuj3fo74tm60","pricing_plan_id":"cebpf4jnsgd1na2vs0mg"},{"bike_id":"9bfc7d3d-4e60-4f8a-9c32-ef3d0e77ec5b","system_id":"levelo_inurba_marseille","lat":43.21189,"lon":5.35074,"is_reserved":false,"is_disabled":false,"rental_uris":{"android":"levelo://app?vid=9bfc7d3d-4e60-4f8a-9c32-ef3d0e77ec5b","ios":"levelo://app?vid=9bfc7d3d-4e60-4f8a-9c32-ef3d0e77ec5b"},"vehicle_type_id":"4","last_reported":1751908202,"current_range_meters":16400,"station_id":"st_cvj6sg6p6f1abm77japg","pricing_plan_id":"cebpf4jnsgd1na2vs0mg"},{"bike_id":"6ffc31bf-be63-440b-8353-4ff83386083b","system_id":"levelo_inurba_marseille","lat":43.298488,"lon":5.364106,"is_reserved":false,"is_disabled":false,"rental_uris":{"android":"levelo://app?vid=6ffc31bf-be63-440b-8353-4ff83386083b","ios":"levelo://app?vid=6ffc31bf-be63-440b-8353-4ff83386083b"},"vehicle_type_id":"4","last_reported":1751908202,"current_range_meters":16800,"station_id":"","pricing_plan_id":"cebpf4jnsgd1na2vs0mg"},{"bike_id":"40ed3d21-724c-4b17-9987-157d7c8c643c","system_id":"levelo_inurba_marseille","lat":43.29229,"lon":5.3607,"is_reserved":false,"is_disabled":false,"rental_uris":{"android":"levelo://app?vid=40ed3d21-724c-4b17-9987-157d7c8c643c","ios":"levelo://app?vid=40ed3d21-724c-4b17-9987-157d7c8c643c"},"vehicle_type_id":"4","last_reported":1751908202,"current_range_meters":16800,"station_id":"ce4bhbh2rcd13ifvqeqg","pricing_plan_id":"cebpf4jnsgd1na2vs0mg"},{"bike_id":"2a83b236-043c-4051-83a8-5211df25a6b0","system_id":"levelo_inurba_marseille","lat":43.2808,"lon":5.39658,"is_reserved":false,"is_disabled":false,"rental_uris":{"android":"levelo://app?vid=2a83b236-043c-4051-83a8-5211df25a6b0","ios":"levelo://app?vid=2a83b236-043c-4051-83a8-5211df25a6b0"},"vehicle_type_id":"4","last_reported":1751908202,"current_range_meters":16800,"station_id":"ce4bho12rcd13ifvqh2g","pricing_plan_id":"cebpf4jnsgd1na2vs0mg"},{"bike_id":"43d0a216-171e-45fe-88be-8650fec68cf8","system_id":"levelo_inurba_marseille","lat":43.21195,"lon":5.35069,"is_reserved":false,"is_disabled":false,"rental_uris":{"android":"levelo://app?vid=43d0a216-171e-45fe-88be-8650fec68cf8","ios":"levelo://app?vid=43d0a216-171e-45fe-88be-8650fec68cf8"},"vehicle_type_id":"4","last_reported":1751908202,"current_range_meters":16800,"station_id":"st_cvj6sg6p6f1abm77japg","pricing_plan_id":"cebpf4jnsgd1na2vs0mg"},{"bike_id":"6a3a3e65-1839-43d5-b574-3a73e4e32dac","system_id":"levelo_inurba_marseille","lat":43.32321,"lon":5.3887,"is_reserved":false,"is_disabled":false,"rental_uris":{"android":"levelo://app?vid=6a3a3e65-1839-43d5-b574-3a73e4e32dac","ios":"levelo://app?vid=6a3a3e65-1839-43d5-b574-3a73e4e32dac"},"vehicle_type_id":"4","last_reported":1751908202,"current_range_meters":17200,"station_id":"","pricing_plan_id":"cebpf4jnsgd1na2vs0mg"},{"bike_id":"888522e3-39b6-4ff3-ad74-ff6c6f771157","system_id":"levelo_inurba_marseille","lat":43.294943,"lon":5.402741,"is_reserved":false,"is_disabled":false,"rental_uris":{"android":"levelo://app?vid=888522e3-39b6-4ff3-ad74-ff6c6f771157","ios":"levelo://app?vid=888522e3-39b6-4ff3-ad74-ff6c6f771157"},"vehicle_type_id":"4","last_reported":1751908202,"current_range_meters":17200,"station_id":"","pricing_plan_id":"cebpf4jnsgd1na2vs0mg"},{"bike_id":"53c20cf5-d553-427d-9ba3-11b23345c444","system_id":"levelo_inurba_marseille","lat":43.30142,"lon":5.38782,"is_reserved":false,"is_disabled":false,"rental_uris":{"android":"levelo://app?vid=53c20cf5-d553-427d-9ba3-11b23345c444","ios":"levelo://app?vid=53c20cf5-d553-427d-9ba3-11b23345c444"},"vehicle_type_id":"4","last_reported":1751908202,"current_range_meters":17200,"station_id":"ce4bghh2rcd13ifvqb60","pricing_plan_id":"cebpf4jnsgd1na2vs0mg"},{"bike_id":"94c1d5f7-3efc-4fac-8443-9b8ad8600dd4","system_id":"levelo_inurba_marseille","lat":43.29529,"lon":5.3855,"is_reserved":false,"is_disabled":false,"rental_uris":{"android":"levelo://app?vid=94c1d5f7-3efc-4fac-8443-9b8ad8600dd4","ios":"levelo://app?vid=94c1d5f7-3efc-4fac-8443-9b8ad8600dd4"},"vehicle_type_id":"4","last_reported":1751908202,"current_range_meters":17200,"station_id":"ce4bgih2rcd13ifvqba0","pricing_plan_id":"cebpf4jnsgd1na2vs0mg"},{"bike_id":"fe1273b3-060a-465c-a39c-dcd680edb1e7","system_id":"levelo_inurba_marseille","lat":43.27623,"lon":5.36114,"is_reserved":false,"is_disabled":false,"rental_uris":{"android":"levelo://app?vid=fe1273b3-060a-465c-a39c-dcd680edb1e7","ios":"levelo://app?vid=fe1273b3-060a-465c-a39c-dcd680edb1e7"},"vehicle_type_id":"4","last_reported":1751908202,"current_range_meters":17200,"station_id":"ce4bgj92rcd13ifvqbe0","pricing_plan_id":"cebpf4jnsgd1na2vs0mg"},{"bike_id":"b35030f9-4bac-4d1f-9470-f7a7705cfd41","system_id":"levelo_inurba_marseille","lat":43.30936,"lon":5.40145,"is_reserved":false,"is_disabled":false,"rental_uris":{"android":"levelo://app?vid=b35030f9-4bac-4d1f-9470-f7a7705cfd41","ios":"levelo://app?vid=b35030f9-4bac-4d1f-9470-f7a7705cfd41"},"vehicle_type_id":"4","last_reported":1751908202,"current_range_meters":17200,"station_id":"ce4bgvp2rcd13ifvqct0","pricing_plan_id":"cebpf4jnsgd1na2vs0mg"},{"bike_id":"f84d6176-b3bc-499b-947f-43a785187f96","system_id":"levelo_inurba_marseille","lat":43.29008,"lon":5.3561,"is_reserved":false,"is_disabled":false,"rental_uris":{"android":"levelo://app?vid=f84d6176-b3bc-499b-947f-43a785187f96","ios":"levelo://app?vid=f84d6176-b3bc-499b-947f-43a785187f96"},"vehicle_type_id":"4","last_reported":1751908202,"current_range_meters":17200,"station_id":"ce4bhb92rcd13ifvqen0","pricing_plan_id":"cebpf4jnsgd1na2vs0mg"},{"bike_id":"a19af955-9f5f-4ebf-9657-f7a0141cb78d","system_id":"levelo_inurba_marseille","lat":43.284192,"lon":5.349959,"is_reserved":false,"is_disabled":false,"rental_uris":{"android":"levelo://app?vid=a19af955-9f5f-4ebf-9657-f7a0141cb78d","ios":"levelo://app?vid=a19af955-9f5f-4ebf-9657-f7a0141cb78d"},"vehicle_type_id":"4","last_reported":1751908202,"current_range_meters":17200,"station_id":"ce4bhbh2rcd13ifvqepg","pricing_plan_id":"cebpf4jnsgd1na2vs0mg"},{"bike_id":"762784bc-76e0-4220-961c-3afad064fde2","system_id":"levelo_inurba_marseille","lat":43.321021,"lon":5.367593,"is_reserved":false,"is_disabled":false,"rental_uris":{"android":"levelo://app?vid=762784bc-76e0-4220-961c-3afad064fde2","ios":"levelo://app?vid=762784bc-76e0-4220-961c-3afad064fde2"},"vehicle_type_id":"4","last_reported":1751908202,"current_range_meters":17200,"station_id":"ce4bhrh2rcd13ifvqhug","pricing_plan_id":"cebpf4jnsgd1na2vs0mg"},{"bike_id":"0ab45fe1-1c3b-4925-bf70-9184c4d2849b","system_id":"levelo_inurba_marseille","lat":43.28609,"lon":5.37062,"is_reserved":false,"is_disabled":false,"rental_uris":{"android":"levelo://app?vid=0ab45fe1-1c3b-4925-bf70-9184c4d2849b","ios":"levelo://app?vid=0ab45fe1-1c3b-4925-bf70-9184c4d2849b"},"vehicle_type_id":"4","last_reported":1751908202,"current_range_meters":17200,"station_id":"ce4bht12rcd13ifvqi60","pricing_plan_id":"cebpf4jnsgd1na2vs0mg"},{"bike_id":"bfd8a722-c419-4db7-9a26-a31dc649146e","system_id":"levelo_inurba_marseille","lat":43.21195,"lon":5.35069,"is_reserved":false,"is_disabled":false,"rental_uris":{"android":"levelo://app?vid=bfd8a722-c419-4db7-9a26-a31dc649146e","ios":"levelo://app?vid=bfd8a722-c419-4db7-9a26-a31dc649146e"},"vehicle_type_id":"4","last_reported":1751908202,"current_range_meters":17200,"station_id":"st_cvj6sg6p6f1abm77japg","pricing_plan_id":"cebpf4jnsgd1na2vs0mg"},{"bike_id":"d5ef770d-9759-47e3-b3a5-7d2785ef76db","system_id":"levelo_inurba_marseille","lat":43.32929,"lon":5.39031,"is_reserved":false,"is_disabled":false,"rental_uris":{"android":"levelo://app?vid=d5ef770d-9759-47e3-b3a5-7d2785ef76db","ios":"levelo://app?vid=d5ef770d-9759-47e3-b3a5-7d2785ef76db"},"vehicle_type_id":"4","last_reported":1751908202,"current_range_meters":17600,"station_id":"","pricing_plan_id":"cebpf4jnsgd1na2vs0mg"},{"bike_id":"b7dbd5a9-e230-4a2d-a36c-873fdae6794c","system_id":"levelo_inurba_marseille","lat":43.29845,"lon":5.36275,"is_reserved":false,"is_disabled":false,"rental_uris":{"android":"levelo://app?vid=b7dbd5a9-e230-4a2d-a36c-873fdae6794c","ios":"levelo://app?vid=b7dbd5a9-e230-4a2d-a36c-873fdae6794c"},"vehicle_type_id":"4","last_reported":1751908202,"current_range_meters":17600,"station_id":"ce4bgpp2rcd13ifvqc3g","pricing_plan_id":"cebpf4jnsgd1na2vs0mg"},{"bike_id":"a35755ed-d386-4979-925d-822a6b27391a","system_id":"levelo_inurba_marseille","lat":43.2899,"lon":5.35603,"is_reserved":false,"is_disabled":false,"rental_uris":{"android":"levelo://app?vid=a35755ed-d386-4979-925d-822a6b27391a","ios":"levelo://app?vid=a35755ed-d386-4979-925d-822a6b27391a"},"vehicle_type_id":"4","last_reported":1751908202,"current_range_meters":17600,"station_id":"ce4bhb92rcd13ifvqen0","pricing_plan_id":"cebpf4jnsgd1na2vs0mg"},{"bike_id":"5f663f1f-def5-40cc-9abe-924bd04570e3","system_id":"levelo_inurba_marseille","lat":43.28429,"lon":5.34991,"is_reserved":false,"is_disabled":false,"rental_uris":{"android":"levelo://app?vid=5f663f1f-def5-40cc-9abe-924bd04570e3","ios":"levelo://app?vid=5f663f1f-def5-40cc-9abe-924bd04570e3"},"vehicle_type_id":"4","last_reported":1751908202,"current_range_meters":17600,"station_id":"ce4bhbh2rcd13ifvqepg","pricing_plan_id":"cebpf4jnsgd1na2vs0mg"},{"bike_id":"86a1300d-a610-4541-92ef-48f124fb320d","system_id":"levelo_inurba_marseille","lat":43.26576,"lon":5.39023,"is_reserved":false,"is_disabled":false,"rental_uris":{"android":"levelo://app?vid=86a1300d-a610-4541-92ef-48f124fb320d","ios":"levelo://app?vid=86a1300d-a610-4541-92ef-48f124fb320d"},"vehicle_type_id":"4","last_reported":1751908202,"current_range_meters":17600,"station_id":"ce4bhe12rcd13ifvqf30","pricing_plan_id":"cebpf4jnsgd1na2vs0mg"},{"bike_id":"afd2c671-b274-4716-95f7-9abfdfc6dc55","system_id":"levelo_inurba_marseille","lat":43.31464,"lon":5.37387,"is_reserved":false,"is_disabled":false,"rental_uris":{"android":"levelo://app?vid=afd2c671-b274-4716-95f7-9abfdfc6dc55","ios":"levelo://app?vid=afd2c671-b274-4716-95f7-9abfdfc6dc55"},"vehicle_type_id":"4","last_reported":1751908202,"current_range_meters":18000,"station_id":"","pricing_plan_id":"cebpf4jnsgd1na2vs0mg"},{"bike_id":"9db15efa-62b5-43dc-beab-14a16c0840b9","system_id":"levelo_inurba_marseille","lat":43.304524,"lon":5.415534,"is_reserved":false,"is_disabled":false,"rental_uris":{"android":"levelo://app?vid=9db15efa-62b5-43dc-beab-14a16c0840b9","ios":"levelo://app?vid=9db15efa-62b5-43dc-beab-14a16c0840b9"},"vehicle_type_id":"4","last_reported":1751908202,"current_range_meters":18000,"station_id":"","pricing_plan_id":"cebpf4jnsgd1na2vs0mg"},{"bike_id":"a9b7f314-1c79-4bd7-a7cc-59607eee668b","system_id":"levelo_inurba_marseille","lat":43.290405,"lon":5.375721,"is_reserved":false,"is_disabled":false,"rental_uris":{"android":"levelo://app?vid=a9b7f314-1c79-4bd7-a7cc-59607eee668b","ios":"levelo://app?vid=a9b7f314-1c79-4bd7-a7cc-59607eee668b"},"vehicle_type_id":"4","last_reported":1751908202,"current_range_meters":18000,"station_id":"ce4bh692rcd13ifvqe90","pricing_plan_id":"cebpf4jnsgd1na2vs0mg"},{"bike_id":"7114268f-d8c7-4c45-877c-f7723a354a3d","system_id":"levelo_inurba_marseille","lat":43.28153,"lon":5.42639,"is_reserved":false,"is_disabled":false,"rental_uris":{"android":"levelo://app?vid=7114268f-d8c7-4c45-877c-f7723a354a3d","ios":"levelo://app?vid=7114268f-d8c7-4c45-877c-f7723a354a3d"},"vehicle_type_id":"4","last_reported":1751908202,"current_range_meters":18000,"station_id":"ce4bhnh2rcd13ifvqgug","pricing_plan_id":"cebpf4jnsgd1na2vs0mg"},{"bike_id":"61890ca5-e3a7-4367-be8b-10c873215b90","system_id":"levelo_inurba_marseille","lat":43.21743,"lon":5.34606,"is_reserved":false,"is_disabled":false,"rental_uris":{"android":"levelo://app?vid=61890ca5-e3a7-4367-be8b-10c873215b90","ios":"levelo://app?vid=61890ca5-e3a7-4367-be8b-10c873215b90"},"vehicle_type_id":"4","last_reported":1751908202,"current_range_meters":18000,"station_id":"st_cvj6r9ubvosntc0bgbag","pricing_plan_id":"cebpf4jnsgd1na2vs0mg"},{"bike_id":"51890362-46b0-4ee7-9f02-afbf036d064e","system_id":"levelo_inurba_marseille","lat":43.211964,"lon":5.350858,"is_reserved":false,"is_disabled":false,"rental_uris":{"android":"levelo://app?vid=51890362-46b0-4ee7-9f02-afbf036d064e","ios":"levelo://app?vid=51890362-46b0-4ee7-9f02-afbf036d064e"},"vehicle_type_id":"4","last_reported":1751908202,"current_range_meters":18000,"station_id":"st_cvj6sg6p6f1abm77japg","pricing_plan_id":"cebpf4jnsgd1na2vs0mg"},{"bike_id":"084f14d4-0bc9-446c-902e-a4f3b90135fe","system_id":"levelo_inurba_marseille","lat":43.32419,"lon":5.42911,"is_reserved":false,"is_disabled":false,"rental_uris":{"android":"levelo://app?vid=084f14d4-0bc9-446c-902e-a4f3b90135fe","ios":"levelo://app?vid=084f14d4-0bc9-446c-902e-a4f3b90135fe"},"vehicle_type_id":"4","last_reported":1751908202,"current_range_meters":18800,"station_id":"","pricing_plan_id":"cebpf4jnsgd1na2vs0mg"},{"bike_id":"87c2d236-4978-4760-be77-27d7f5a212e4","system_id":"levelo_inurba_marseille","lat":43.29644,"lon":5.36205,"is_reserved":false,"is_disabled":false,"rental_uris":{"android":"levelo://app?vid=87c2d236-4978-4760-be77-27d7f5a212e4","ios":"levelo://app?vid=87c2d236-4978-4760-be77-27d7f5a212e4"},"vehicle_type_id":"4","last_reported":1751908202,"current_range_meters":18800,"station_id":"","pricing_plan_id":"cebpf4jnsgd1na2vs0mg"},{"bike_id":"3c35c1cb-c3a7-4f8d-81dc-c78b3d7ef6f7","system_id":"levelo_inurba_marseille","lat":43.31216,"lon":5.37168,"is_reserved":false,"is_disabled":false,"rental_uris":{"android":"levelo://app?vid=3c35c1cb-c3a7-4f8d-81dc-c78b3d7ef6f7","ios":"levelo://app?vid=3c35c1cb-c3a7-4f8d-81dc-c78b3d7ef6f7"},"vehicle_type_id":"4","last_reported":1751908202,"current_range_meters":18800,"station_id":"","pricing_plan_id":"cebpf4jnsgd1na2vs0mg"},{"bike_id":"4107b949-f369-4373-b111-7138bf778a26","system_id":"levelo_inurba_marseille","lat":43.2931,"lon":5.37463,"is_reserved":false,"is_disabled":false,"rental_uris":{"android":"levelo://app?vid=4107b949-f369-4373-b111-7138bf778a26","ios":"levelo://app?vid=4107b949-f369-4373-b111-7138bf778a26"},"vehicle_type_id":"4","last_reported":1751908202,"current_range_meters":18800,"station_id":"ce4bgi12rcd13ifvqb70","pricing_plan_id":"cebpf4jnsgd1na2vs0mg"},{"bike_id":"b3f1439e-3429-4208-93e4-367b4313834b","system_id":"levelo_inurba_marseille","lat":43.29783,"lon":5.381,"is_reserved":false,"is_disabled":false,"rental_uris":{"android":"levelo://app?vid=b3f1439e-3429-4208-93e4-367b4313834b","ios":"levelo://app?vid=b3f1439e-3429-4208-93e4-367b4313834b"},"vehicle_type_id":"4","last_reported":1751908202,"current_range_meters":18800,"station_id":"ce4bgip2rcd13ifvqbb0","pricing_plan_id":"cebpf4jnsgd1na2vs0mg"},{"bike_id":"57da349d-aaf7-4983-9887-ffeb89cdd04d","system_id":"levelo_inurba_marseille","lat":43.28424,"lon":5.37529,"is_reserved":false,"is_disabled":false,"rental_uris":{"android":"levelo://app?vid=57da349d-aaf7-4983-9887-ffeb89cdd04d","ios":"levelo://app?vid=57da349d-aaf7-4983-9887-ffeb89cdd04d"},"vehicle_type_id":"4","last_reported":1751908202,"current_range_meters":18800,"station_id":"ce4bh412rcd13ifvqds0","pricing_plan_id":"cebpf4jnsgd1na2vs0mg"},{"bike_id":"ad0e522c-dfcf-42ae-888c-ddc8555ac87a","system_id":"levelo_inurba_marseille","lat":43.28039,"lon":5.36943,"is_reserved":false,"is_disabled":false,"rental_uris":{"android":"levelo://app?vid=ad0e522c-dfcf-42ae-888c-ddc8555ac87a","ios":"levelo://app?vid=ad0e522c-dfcf-42ae-888c-ddc8555ac87a"},"vehicle_type_id":"4","last_reported":1751908202,"current_range_meters":18800,"station_id":"ce4bha12rcd13ifvqef0","pricing_plan_id":"cebpf4jnsgd1na2vs0mg"},{"bike_id":"67ce5d5a-5cb5-439d-990c-84064602c71b","system_id":"levelo_inurba_marseille","lat":43.298844,"lon":5.385271,"is_reserved":false,"is_disabled":false,"rental_uris":{"android":"levelo://app?vid=67ce5d5a-5cb5-439d-990c-84064602c71b","ios":"levelo://app?vid=67ce5d5a-5cb5-439d-990c-84064602c71b"},"vehicle_type_id":"4","last_reported":1751908202,"current_range_meters":19200,"station_id":"ce4bgj92rcd13ifvqbd0","pricing_plan_id":"cebpf4jnsgd1na2vs0mg"},{"bike_id":"b918273d-a2e1-4de6-90cc-055c57632e7e","system_id":"levelo_inurba_marseille","lat":43.30311,"lon":5.3922,"is_reserved":false,"is_disabled":false,"rental_uris":{"android":"levelo://app?vid=b918273d-a2e1-4de6-90cc-055c57632e7e","ios":"levelo://app?vid=b918273d-a2e1-4de6-90cc-055c57632e7e"},"vehicle_type_id":"4","last_reported":1751908202,"current_range_meters":19200,"station_id":"ce4bgkh2rcd13ifvqbk0","pricing_plan_id":"cebpf4jnsgd1na2vs0mg"},{"bike_id":"8fdb9511-5068-45c4-be5a-a5c15530b2da","system_id":"levelo_inurba_marseille","lat":43.30428,"lon":5.39743,"is_reserved":false,"is_disabled":false,"rental_uris":{"android":"levelo://app?vid=8fdb9511-5068-45c4-be5a-a5c15530b2da","ios":"levelo://app?vid=8fdb9511-5068-45c4-be5a-a5c15530b2da"},"vehicle_type_id":"4","last_reported":1751908202,"current_range_meters":19200,"station_id":"ce4bh092rcd13ifvqd20","pricing_plan_id":"cebpf4jnsgd1na2vs0mg"},{"bike_id":"7cad6380-346f-435c-bfcd-1bd6f3af9367","system_id":"levelo_inurba_marseille","lat":43.30131,"lon":5.39845,"is_reserved":false,"is_disabled":false,"rental_uris":{"android":"levelo://app?vid=7cad6380-346f-435c-bfcd-1bd6f3af9367","ios":"levelo://app?vid=7cad6380-346f-435c-bfcd-1bd6f3af9367"},"vehicle_type_id":"4","last_reported":1751908202,"current_range_meters":19200,"station_id":"ce4bh0h2rcd13ifvqd40","pricing_plan_id":"cebpf4jnsgd1na2vs0mg"},{"bike_id":"8f79dc00-a15d-4197-9ff0-cceb654c0ae7","system_id":"levelo_inurba_marseille","lat":43.29437,"lon":5.38664,"is_reserved":false,"is_disabled":false,"rental_uris":{"android":"levelo://app?vid=8f79dc00-a15d-4197-9ff0-cceb654c0ae7","ios":"levelo://app?vid=8f79dc00-a15d-4197-9ff0-cceb654c0ae7"},"vehicle_type_id":"4","last_reported":1751908202,"current_range_meters":19200,"station_id":"ce4bh2h2rcd13ifvqdh0","pricing_plan_id":"cebpf4jnsgd1na2vs0mg"},{"bike_id":"dac07dea-cbdd-4414-a9ff-d266deb24dce","system_id":"levelo_inurba_marseille","lat":43.29033,"lon":5.38641,"is_reserved":false,"is_disabled":false,"rental_uris":{"android":"levelo://app?vid=dac07dea-cbdd-4414-a9ff-d266deb24dce","ios":"levelo://app?vid=dac07dea-cbdd-4414-a9ff-d266deb24dce"},"vehicle_type_id":"4","last_reported":1751908202,"current_range_meters":19200,"station_id":"ce4bh4p2rcd13ifvqe0g","pricing_plan_id":"cebpf4jnsgd1na2vs0mg"},{"bike_id":"1b54444b-d9a8-41f2-8966-4ef01649ff94","system_id":"levelo_inurba_marseille","lat":43.28937,"lon":5.38385,"is_reserved":false,"is_disabled":false,"rental_uris":{"android":"levelo://app?vid=1b54444b-d9a8-41f2-8966-4ef01649ff94","ios":"levelo://app?vid=1b54444b-d9a8-41f2-8966-4ef01649ff94"},"vehicle_type_id":"4","last_reported":1751908202,"current_range_meters":19200,"station_id":"ce4bh612rcd13ifvqe6g","pricing_plan_id":"cebpf4jnsgd1na2vs0mg"},{"bike_id":"e626c4ba-93e4-4ffd-bb77-973e569383ad","system_id":"levelo_inurba_marseille","lat":43.28103,"lon":5.37842,"is_reserved":false,"is_disabled":false,"rental_uris":{"android":"levelo://app?vid=e626c4ba-93e4-4ffd-bb77-973e569383ad","ios":"levelo://app?vid=e626c4ba-93e4-4ffd-bb77-973e569383ad"},"vehicle_type_id":"4","last_reported":1751908202,"current_range_meters":19200,"station_id":"ce4bha12rcd13ifvqee0","pricing_plan_id":"cebpf4jnsgd1na2vs0mg"},{"bike_id":"ec031d6c-12db-4c34-9130-63f92e0ca6dd","system_id":"levelo_inurba_marseille","lat":43.30422,"lon":5.41284,"is_reserved":false,"is_disabled":false,"rental_uris":{"android":"levelo://app?vid=ec031d6c-12db-4c34-9130-63f92e0ca6dd","ios":"levelo://app?vid=ec031d6c-12db-4c34-9130-63f92e0ca6dd"},"vehicle_type_id":"4","last_reported":1751908202,"current_range_meters":19200,"station_id":"ce4bhop2rcd13ifvqh8g","pricing_plan_id":"cebpf4jnsgd1na2vs0mg"},{"bike_id":"9e555447-bc4b-4551-8312-b095933eb62f","system_id":"levelo_inurba_marseille","lat":43.29055,"lon":5.38702,"is_reserved":false,"is_disabled":false,"rental_uris":{"android":"levelo://app?vid=9e555447-bc4b-4551-8312-b095933eb62f","ios":"levelo://app?vid=9e555447-bc4b-4551-8312-b095933eb62f"},"vehicle_type_id":"4","last_reported":1751908202,"current_range_meters":19600,"station_id":"","pricing_plan_id":"cebpf4jnsgd1na2vs0mg"},{"bike_id":"d2101abd-972e-4da5-ad6f-3bc1c7fcdbcc","system_id":"levelo_inurba_marseille","lat":43.30138,"lon":5.3742,"is_reserved":false,"is_disabled":false,"rental_uris":{"android":"levelo://app?vid=d2101abd-972e-4da5-ad6f-3bc1c7fcdbcc","ios":"levelo://app?vid=d2101abd-972e-4da5-ad6f-3bc1c7fcdbcc"},"vehicle_type_id":"4","last_reported":1751908202,"current_range_meters":19600,"station_id":"ce4bgs92rcd13ifvqcc0","pricing_plan_id":"cebpf4jnsgd1na2vs0mg"},{"bike_id":"68f3e027-e616-47eb-b027-8e58472fb3f5","system_id":"levelo_inurba_marseille","lat":43.28629,"lon":5.35106,"is_reserved":false,"is_disabled":false,"rental_uris":{"android":"levelo://app?vid=68f3e027-e616-47eb-b027-8e58472fb3f5","ios":"levelo://app?vid=68f3e027-e616-47eb-b027-8e58472fb3f5"},"vehicle_type_id":"4","last_reported":1751908202,"current_range_meters":19600,"station_id":"ce4bhch2rcd13ifvqeug","pricing_plan_id":"cebpf4jnsgd1na2vs0mg"},{"bike_id":"745c181a-c5a4-4bda-9834-bec17c8f390e","system_id":"levelo_inurba_marseille","lat":43.25002,"lon":5.38923,"is_reserved":false,"is_disabled":false,"rental_uris":{"android":"levelo://app?vid=745c181a-c5a4-4bda-9834-bec17c8f390e","ios":"levelo://app?vid=745c181a-c5a4-4bda-9834-bec17c8f390e"},"vehicle_type_id":"4","last_reported":1751908202,"current_range_meters":19600,"station_id":"ce4bhgp2rcd13ifvqfd0","pricing_plan_id":"cebpf4jnsgd1na2vs0mg"},{"bike_id":"52688825-f4d7-4e9a-827f-efecf9584e95","system_id":"levelo_inurba_marseille","lat":43.23966,"lon":5.36632,"is_reserved":false,"is_disabled":false,"rental_uris":{"android":"levelo://app?vid=52688825-f4d7-4e9a-827f-efecf9584e95","ios":"levelo://app?vid=52688825-f4d7-4e9a-827f-efecf9584e95"},"vehicle_type_id":"4","last_reported":1751908202,"current_range_meters":19600,"station_id":"ce4bhi12rcd13ifvqfp0","pricing_plan_id":"cebpf4jnsgd1na2vs0mg"},{"bike_id":"7b71480f-6daa-4b93-8bbc-277e0f6c0b9a","system_id":"levelo_inurba_marseille","lat":43.24079,"lon":5.37756,"is_reserved":false,"is_disabled":false,"rental_uris":{"android":"levelo://app?vid=7b71480f-6daa-4b93-8bbc-277e0f6c0b9a","ios":"levelo://app?vid=7b71480f-6daa-4b93-8bbc-277e0f6c0b9a"},"vehicle_type_id":"4","last_reported":1751908202,"current_range_meters":19600,"station_id":"ce4bhnp2rcd13ifvqgvg","pricing_plan_id":"cebpf4jnsgd1na2vs0mg"},{"bike_id":"7ef49d30-a19d-4b70-9c3b-22a0be37b541","system_id":"levelo_inurba_marseille","lat":43.29788,"lon":5.37096,"is_reserved":false,"is_disabled":false,"rental_uris":{"android":"levelo://app?vid=7ef49d30-a19d-4b70-9c3b-22a0be37b541","ios":"levelo://app?vid=7ef49d30-a19d-4b70-9c3b-22a0be37b541"},"vehicle_type_id":"4","last_reported":1751908202,"current_range_meters":20000,"station_id":"ce4bgop2rcd13ifvqc1g","pricing_plan_id":"cebpf4jnsgd1na2vs0mg"},{"bike_id":"7b9d722d-926d-47de-aa26-2a0fabc090f9","system_id":"levelo_inurba_marseille","lat":43.2901,"lon":5.356027,"is_reserved":false,"is_disabled":false,"rental_uris":{"android":"levelo://app?vid=7b9d722d-926d-47de-aa26-2a0fabc090f9","ios":"levelo://app?vid=7b9d722d-926d-47de-aa26-2a0fabc090f9"},"vehicle_type_id":"4","last_reported":1751908202,"current_range_meters":20000,"station_id":"ce4bhb92rcd13ifvqen0","pricing_plan_id":"cebpf4jnsgd1na2vs0mg"},{"bike_id":"a1740642-34d8-497b-a2b9-cce3f06b90c6","system_id":"levelo_inurba_marseille","lat":43.290047,"lon":5.356131,"is_reserved":false,"is_disabled":false,"rental_uris":{"android":"levelo://app?vid=a1740642-34d8-497b-a2b9-cce3f06b90c6","ios":"levelo://app?vid=a1740642-34d8-497b-a2b9-cce3f06b90c6"},"vehicle_type_id":"4","last_reported":1751908202,"current_range_meters":20000,"station_id":"ce4bhb92rcd13ifvqen0","pricing_plan_id":"cebpf4jnsgd1na2vs0mg"},{"bike_id":"cb71984d-67d0-4c3f-8749-68fa222858a3","system_id":"levelo_inurba_marseille","lat":43.24648,"lon":5.38888,"is_reserved":false,"is_disabled":false,"rental_uris":{"android":"levelo://app?vid=cb71984d-67d0-4c3f-8749-68fa222858a3","ios":"levelo://app?vid=cb71984d-67d0-4c3f-8749-68fa222858a3"},"vehicle_type_id":"4","last_reported":1751908202,"current_range_meters":20000,"station_id":"ce4bhg12rcd13ifvqf60","pricing_plan_id":"cebpf4jnsgd1na2vs0mg"},{"bike_id":"9ffa76b6-2a7b-497d-8f4f-6bc926dd165c","system_id":"levelo_inurba_marseille","lat":43.24387,"lon":5.37061,"is_reserved":false,"is_disabled":false,"rental_uris":{"android":"levelo://app?vid=9ffa76b6-2a7b-497d-8f4f-6bc926dd165c","ios":"levelo://app?vid=9ffa76b6-2a7b-497d-8f4f-6bc926dd165c"},"vehicle_type_id":"4","last_reported":1751908202,"current_range_meters":20000,"station_id":"ce4bhhh2rcd13ifvqfk0","pricing_plan_id":"cebpf4jnsgd1na2vs0mg"},{"bike_id":"35d41f41-e942-42c5-97f1-40ccdd96f7a4","system_id":"levelo_inurba_marseille","lat":43.21197,"lon":5.3507,"is_reserved":false,"is_disabled":false,"rental_uris":{"android":"levelo://app?vid=35d41f41-e942-42c5-97f1-40ccdd96f7a4","ios":"levelo://app?vid=35d41f41-e942-42c5-97f1-40ccdd96f7a4"},"vehicle_type_id":"4","last_reported":1751908202,"current_range_meters":20000,"station_id":"st_cvj6sg6p6f1abm77japg","pricing_plan_id":"cebpf4jnsgd1na2vs0mg"},{"bike_id":"ea7df389-5dc0-4c58-88fe-80a5af035925","system_id":"levelo_inurba_marseille","lat":43.29838,"lon":5.36426,"is_reserved":false,"is_disabled":false,"rental_uris":{"android":"levelo://app?vid=ea7df389-5dc0-4c58-88fe-80a5af035925","ios":"levelo://app?vid=ea7df389-5dc0-4c58-88fe-80a5af035925"},"vehicle_type_id":"4","last_reported":1751908202,"current_range_meters":20400,"station_id":"","pricing_plan_id":"cebpf4jnsgd1na2vs0mg"},{"bike_id":"88fc59a5-e816-4369-ac84-09b3d060e17d","system_id":"levelo_inurba_marseille","lat":43.30428,"lon":5.38894,"is_reserved":false,"is_disabled":false,"rental_uris":{"android":"levelo://app?vid=88fc59a5-e816-4369-ac84-09b3d060e17d","ios":"levelo://app?vid=88fc59a5-e816-4369-ac84-09b3d060e17d"},"vehicle_type_id":"4","last_reported":1751908202,"current_range_meters":20400,"station_id":"ce4bgk12rcd13ifvqbi0","pricing_plan_id":"cebpf4jnsgd1na2vs0mg"},{"bike_id":"bc4ef644-6b2d-4702-9775-72f43d778ab9","system_id":"levelo_inurba_marseille","lat":43.28032,"lon":5.36942,"is_reserved":false,"is_disabled":false,"rental_uris":{"android":"levelo://app?vid=bc4ef644-6b2d-4702-9775-72f43d778ab9","ios":"levelo://app?vid=bc4ef644-6b2d-4702-9775-72f43d778ab9"},"vehicle_type_id":"4","last_reported":1751908202,"current_range_meters":20400,"station_id":"ce4bha12rcd13ifvqef0","pricing_plan_id":"cebpf4jnsgd1na2vs0mg"},{"bike_id":"87b46f9d-0d89-48e6-866d-12eb9ae69e76","system_id":"levelo_inurba_marseille","lat":43.28415,"lon":5.349757,"is_reserved":false,"is_disabled":false,"rental_uris":{"android":"levelo://app?vid=87b46f9d-0d89-48e6-866d-12eb9ae69e76","ios":"levelo://app?vid=87b46f9d-0d89-48e6-866d-12eb9ae69e76"},"vehicle_type_id":"4","last_reported":1751908202,"current_range_meters":20400,"station_id":"ce4bhbh2rcd13ifvqepg","pricing_plan_id":"cebpf4jnsgd1na2vs0mg"},{"bike_id":"582dde94-116f-4917-92c7-3dd1031f1e1d","system_id":"levelo_inurba_marseille","lat":43.2468,"lon":5.38141,"is_reserved":false,"is_disabled":false,"rental_uris":{"android":"levelo://app?vid=582dde94-116f-4917-92c7-3dd1031f1e1d","ios":"levelo://app?vid=582dde94-116f-4917-92c7-3dd1031f1e1d"},"vehicle_type_id":"4","last_reported":1751908202,"current_range_meters":20400,"station_id":"ce4bhih2rcd13ifvqfr0","pricing_plan_id":"cebpf4jnsgd1na2vs0mg"},{"bike_id":"a56a84d0-4828-4a32-bd70-bf4d3ca10bf2","system_id":"levelo_inurba_marseille","lat":43.30217,"lon":5.39472,"is_reserved":false,"is_disabled":false,"rental_uris":{"android":"levelo://app?vid=a56a84d0-4828-4a32-bd70-bf4d3ca10bf2","ios":"levelo://app?vid=a56a84d0-4828-4a32-bd70-bf4d3ca10bf2"},"vehicle_type_id":"4","last_reported":1751908202,"current_range_meters":20800,"station_id":"ce4bh0p2rcd13ifvqd70","pricing_plan_id":"cebpf4jnsgd1na2vs0mg"},{"bike_id":"da3c16a7-1722-44ec-a60c-bdcaac1fbdad","system_id":"levelo_inurba_marseille","lat":43.28629,"lon":5.35094,"is_reserved":false,"is_disabled":false,"rental_uris":{"android":"levelo://app?vid=da3c16a7-1722-44ec-a60c-bdcaac1fbdad","ios":"levelo://app?vid=da3c16a7-1722-44ec-a60c-bdcaac1fbdad"},"vehicle_type_id":"4","last_reported":1751908202,"current_range_meters":20800,"station_id":"ce4bhch2rcd13ifvqeug","pricing_plan_id":"cebpf4jnsgd1na2vs0mg"},{"bike_id":"bb5d857e-c0cf-4d23-a219-3efd5902cfaf","system_id":"levelo_inurba_marseille","lat":43.24389,"lon":5.37059,"is_reserved":false,"is_disabled":false,"rental_uris":{"android":"levelo://app?vid=bb5d857e-c0cf-4d23-a219-3efd5902cfaf","ios":"levelo://app?vid=bb5d857e-c0cf-4d23-a219-3efd5902cfaf"},"vehicle_type_id":"4","last_reported":1751908202,"current_range_meters":20800,"station_id":"ce4bhhh2rcd13ifvqfk0","pricing_plan_id":"cebpf4jnsgd1na2vs0mg"},{"bike_id":"92c6a9d9-2b7f-4402-84f4-471caf5ebfd6","system_id":"levelo_inurba_marseille","lat":43.24674,"lon":5.38148,"is_reserved":false,"is_disabled":false,"rental_uris":{"android":"levelo://app?vid=92c6a9d9-2b7f-4402-84f4-471caf5ebfd6","ios":"levelo://app?vid=92c6a9d9-2b7f-4402-84f4-471caf5ebfd6"},"vehicle_type_id":"4","last_reported":1751908202,"current_range_meters":20800,"station_id":"ce4bhih2rcd13ifvqfr0","pricing_plan_id":"cebpf4jnsgd1na2vs0mg"},{"bike_id":"21752ad4-e42d-4d30-bed1-66673057ebc6","system_id":"levelo_inurba_marseille","lat":43.28453,"lon":5.39206,"is_reserved":false,"is_disabled":false,"rental_uris":{"android":"levelo://app?vid=21752ad4-e42d-4d30-bed1-66673057ebc6","ios":"levelo://app?vid=21752ad4-e42d-4d30-bed1-66673057ebc6"},"vehicle_type_id":"4","last_reported":1751908202,"current_range_meters":20800,"station_id":"ce4bhoh2rcd13ifvqh5g","pricing_plan_id":"cebpf4jnsgd1na2vs0mg"},{"bike_id":"649560a2-49db-4c09-a8c4-ec5286a7512a","system_id":"levelo_inurba_marseille","lat":43.31728,"lon":5.42393,"is_reserved":false,"is_disabled":false,"rental_uris":{"android":"levelo://app?vid=649560a2-49db-4c09-a8c4-ec5286a7512a","ios":"levelo://app?vid=649560a2-49db-4c09-a8c4-ec5286a7512a"},"vehicle_type_id":"4","last_reported":1751908202,"current_range_meters":20800,"station_id":"ce4bhp92rcd13ifvqhbg","pricing_plan_id":"cebpf4jnsgd1na2vs0mg"},{"bike_id":"b287377f-3d0b-47ac-86fe-9e0dfc1563de","system_id":"levelo_inurba_marseille","lat":43.22509,"lon":5.34764,"is_reserved":false,"is_disabled":false,"rental_uris":{"android":"levelo://app?vid=b287377f-3d0b-47ac-86fe-9e0dfc1563de","ios":"levelo://app?vid=b287377f-3d0b-47ac-86fe-9e0dfc1563de"},"vehicle_type_id":"4","last_reported":1751908202,"current_range_meters":20800,"station_id":"st_cvj5dfep6f1abm77gieg","pricing_plan_id":"cebpf4jnsgd1na2vs0mg"},{"bike_id":"effb8fbd-b3f7-47f8-8b26-1772fc889eaa","system_id":"levelo_inurba_marseille","lat":43.2953,"lon":5.38539,"is_reserved":false,"is_disabled":false,"rental_uris":{"android":"levelo://app?vid=effb8fbd-b3f7-47f8-8b26-1772fc889eaa","ios":"levelo://app?vid=effb8fbd-b3f7-47f8-8b26-1772fc889eaa"},"vehicle_type_id":"4","last_reported":1751908202,"current_range_meters":21600,"station_id":"ce4bgih2rcd13ifvqba0","pricing_plan_id":"cebpf4jnsgd1na2vs0mg"},{"bike_id":"b66578e7-7f02-4f1f-95c3-75034bd2ee4e","system_id":"levelo_inurba_marseille","lat":43.30802,"lon":5.38145,"is_reserved":false,"is_disabled":false,"rental_uris":{"android":"levelo://app?vid=b66578e7-7f02-4f1f-95c3-75034bd2ee4e","ios":"levelo://app?vid=b66578e7-7f02-4f1f-95c3-75034bd2ee4e"},"vehicle_type_id":"4","last_reported":1751908202,"current_range_meters":21600,"station_id":"ce4bgt12rcd13ifvqce0","pricing_plan_id":"cebpf4jnsgd1na2vs0mg"},{"bike_id":"16211bbb-e668-4f11-b516-57eb585fcda1","system_id":"levelo_inurba_marseille","lat":43.28934,"lon":5.384,"is_reserved":false,"is_disabled":false,"rental_uris":{"android":"levelo://app?vid=16211bbb-e668-4f11-b516-57eb585fcda1","ios":"levelo://app?vid=16211bbb-e668-4f11-b516-57eb585fcda1"},"vehicle_type_id":"4","last_reported":1751908202,"current_range_meters":21600,"station_id":"ce4bh612rcd13ifvqe6g","pricing_plan_id":"cebpf4jnsgd1na2vs0mg"},{"bike_id":"71ef9e22-926c-45c5-aa7b-f94a2c08343f","system_id":"levelo_inurba_marseille","lat":43.28943,"lon":5.36647,"is_reserved":false,"is_disabled":false,"rental_uris":{"android":"levelo://app?vid=71ef9e22-926c-45c5-aa7b-f94a2c08343f","ios":"levelo://app?vid=71ef9e22-926c-45c5-aa7b-f94a2c08343f"},"vehicle_type_id":"4","last_reported":1751908202,"current_range_meters":21600,"station_id":"ce4bhap2rcd13ifvqek0","pricing_plan_id":"cebpf4jnsgd1na2vs0mg"},{"bike_id":"fa9e1f65-b8a7-432c-9684-c4e825d2de8a","system_id":"levelo_inurba_marseille","lat":43.28857,"lon":5.35845,"is_reserved":false,"is_disabled":false,"rental_uris":{"android":"levelo://app?vid=fa9e1f65-b8a7-432c-9684-c4e825d2de8a","ios":"levelo://app?vid=fa9e1f65-b8a7-432c-9684-c4e825d2de8a"},"vehicle_type_id":"4","last_reported":1751908202,"current_range_meters":21600,"station_id":"ce4bhb12rcd13ifvqem0","pricing_plan_id":"cebpf4jnsgd1na2vs0mg"},{"bike_id":"cba94633-bc4b-4cb3-a162-821e8f15da0d","system_id":"levelo_inurba_marseille","lat":43.29008,"lon":5.35613,"is_reserved":false,"is_disabled":false,"rental_uris":{"android":"levelo://app?vid=cba94633-bc4b-4cb3-a162-821e8f15da0d","ios":"levelo://app?vid=cba94633-bc4b-4cb3-a162-821e8f15da0d"},"vehicle_type_id":"4","last_reported":1751908202,"current_range_meters":21600,"station_id":"ce4bhb92rcd13ifvqen0","pricing_plan_id":"cebpf4jnsgd1na2vs0mg"},{"bike_id":"299ce3df-48bf-4b43-be2e-324550348a35","system_id":"levelo_inurba_marseille","lat":43.29092,"lon":5.35582,"is_reserved":false,"is_disabled":false,"rental_uris":{"android":"levelo://app?vid=299ce3df-48bf-4b43-be2e-324550348a35","ios":"levelo://app?vid=299ce3df-48bf-4b43-be2e-324550348a35"},"vehicle_type_id":"4","last_reported":1751908202,"current_range_meters":21600,"station_id":"ce4bhb92rcd13ifvqen0","pricing_plan_id":"cebpf4jnsgd1na2vs0mg"},{"bike_id":"4ab29c1c-ad6b-4267-9bfe-fd0c31b58b09","system_id":"levelo_inurba_marseille","lat":43.26209,"lon":5.3744,"is_reserved":false,"is_disabled":false,"rental_uris":{"android":"levelo://app?vid=4ab29c1c-ad6b-4267-9bfe-fd0c31b58b09","ios":"levelo://app?vid=4ab29c1c-ad6b-4267-9bfe-fd0c31b58b09"},"vehicle_type_id":"4","last_reported":1751908202,"current_range_meters":21600,"station_id":"ce4bhgp2rcd13ifvqfc0","pricing_plan_id":"cebpf4jnsgd1na2vs0mg"},{"bike_id":"36fc43ff-930e-421b-9c9a-ac8fb9d1625b","system_id":"levelo_inurba_marseille","lat":43.29596,"lon":5.39783,"is_reserved":false,"is_disabled":false,"rental_uris":{"android":"levelo://app?vid=36fc43ff-930e-421b-9c9a-ac8fb9d1625b","ios":"levelo://app?vid=36fc43ff-930e-421b-9c9a-ac8fb9d1625b"},"vehicle_type_id":"4","last_reported":1751908202,"current_range_meters":22000,"station_id":"","pricing_plan_id":"cebpf4jnsgd1na2vs0mg"},{"bike_id":"db999712-0d49-4ff7-9042-05953f8c67e2","system_id":"levelo_inurba_marseille","lat":43.30803,"lon":5.38163,"is_reserved":false,"is_disabled":false,"rental_uris":{"android":"levelo://app?vid=db999712-0d49-4ff7-9042-05953f8c67e2","ios":"levelo://app?vid=db999712-0d49-4ff7-9042-05953f8c67e2"},"vehicle_type_id":"4","last_reported":1751908202,"current_range_meters":22000,"station_id":"ce4bgt12rcd13ifvqce0","pricing_plan_id":"cebpf4jnsgd1na2vs0mg"},{"bike_id":"ceb17def-0477-4478-8d7a-cbdc0ee6cc9f","system_id":"levelo_inurba_marseille","lat":43.2481,"lon":5.37454,"is_reserved":false,"is_disabled":false,"rental_uris":{"android":"levelo://app?vid=ceb17def-0477-4478-8d7a-cbdc0ee6cc9f","ios":"levelo://app?vid=ceb17def-0477-4478-8d7a-cbdc0ee6cc9f"},"vehicle_type_id":"4","last_reported":1751908202,"current_range_meters":22000,"station_id":"ce4bhgh2rcd13ifvqfb0","pricing_plan_id":"cebpf4jnsgd1na2vs0mg"},{"bike_id":"b1f196a6-2eae-4322-9e2f-519f3fbf480d","system_id":"levelo_inurba_marseille","lat":43.30378,"lon":5.42486,"is_reserved":false,"is_disabled":false,"rental_uris":{"android":"levelo://app?vid=b1f196a6-2eae-4322-9e2f-519f3fbf480d","ios":"levelo://app?vid=b1f196a6-2eae-4322-9e2f-519f3fbf480d"},"vehicle_type_id":"4","last_reported":1751908202,"current_range_meters":22000,"station_id":"ce4bhoh2rcd13ifvqh6g","pricing_plan_id":"cebpf4jnsgd1na2vs0mg"},{"bike_id":"f5c16f07-bc6f-4121-91a7-5ad90eec4f34","system_id":"levelo_inurba_marseille","lat":43.31206,"lon":5.3732,"is_reserved":false,"is_disabled":false,"rental_uris":{"android":"levelo://app?vid=f5c16f07-bc6f-4121-91a7-5ad90eec4f34","ios":"levelo://app?vid=f5c16f07-bc6f-4121-91a7-5ad90eec4f34"},"vehicle_type_id":"4","last_reported":1751908202,"current_range_meters":22400,"station_id":"","pricing_plan_id":"cebpf4jnsgd1na2vs0mg"},{"bike_id":"2f4cddfb-e9fa-4020-b1eb-6aaa1eef7dcd","system_id":"levelo_inurba_marseille","lat":43.30857,"lon":5.37071,"is_reserved":false,"is_disabled":false,"rental_uris":{"android":"levelo://app?vid=2f4cddfb-e9fa-4020-b1eb-6aaa1eef7dcd","ios":"levelo://app?vid=2f4cddfb-e9fa-4020-b1eb-6aaa1eef7dcd"},"vehicle_type_id":"4","last_reported":1751908202,"current_range_meters":22400,"station_id":"","pricing_plan_id":"cebpf4jnsgd1na2vs0mg"},{"bike_id":"7015746f-8a93-48ab-8aa1-d523582db967","system_id":"levelo_inurba_marseille","lat":43.28571,"lon":5.39488,"is_reserved":false,"is_disabled":false,"rental_uris":{"android":"levelo://app?vid=7015746f-8a93-48ab-8aa1-d523582db967","ios":"levelo://app?vid=7015746f-8a93-48ab-8aa1-d523582db967"},"vehicle_type_id":"4","last_reported":1751908202,"current_range_meters":22400,"station_id":"ce4bh292rcd13ifvqdg0","pricing_plan_id":"cebpf4jnsgd1na2vs0mg"},{"bike_id":"9faf75e8-d2bc-4217-b29d-fb3589e4d685","system_id":"levelo_inurba_marseille","lat":43.28109,"lon":5.37831,"is_reserved":false,"is_disabled":false,"rental_uris":{"android":"levelo://app?vid=9faf75e8-d2bc-4217-b29d-fb3589e4d685","ios":"levelo://app?vid=9faf75e8-d2bc-4217-b29d-fb3589e4d685"},"vehicle_type_id":"4","last_reported":1751908202,"current_range_meters":22400,"station_id":"ce4bha12rcd13ifvqee0","pricing_plan_id":"cebpf4jnsgd1na2vs0mg"},{"bike_id":"d562a5a3-a8c4-4755-935a-1f799a966dc4","system_id":"levelo_inurba_marseille","lat":43.27366,"lon":5.3625,"is_reserved":false,"is_disabled":false,"rental_uris":{"android":"levelo://app?vid=d562a5a3-a8c4-4755-935a-1f799a966dc4","ios":"levelo://app?vid=d562a5a3-a8c4-4755-935a-1f799a966dc4"},"vehicle_type_id":"4","last_reported":1751908202,"current_range_meters":22400,"station_id":"ce4bhbh2rcd13ifvqeo0","pricing_plan_id":"cebpf4jnsgd1na2vs0mg"},