{"last_updated":1718053701,"ttl":30,"version":"2.2","data":{"bikes":[{"bike_id":"1ac15613-7ba0-418f-9046-76d1694c6e36","system_id":"levelo_inurba_marseille","lat":43.31341,"lon":5.367098,"is_reserved":false,"is_disabled":false,"rental_uris":{"android":"levelo://app?vid=1ac15613-7ba0-418f-9046-76d1694c6e36","ios":"levelo://app?vid=1ac15613-7ba0-418f-9046-76d1694c6e36"},"vehicle_type_id":"4","last_reported":1718053701,"current_range_meters":11200,"station_id":"ce4bgr92rcd13ifvqc6g","pricing_plan_id":"cebpf4jnsgd1na2vs0mg"},{"bike_id":"2148f8c4-27cd-4f60-9cc2-07ebfbd7ba08","system_id":"levelo_inurba_marseille","lat":43.312235,"lon":5.367104,"is_reserved":false,"is_disabled":false,"rental_uris":{"android":"levelo://app?vid=2148f8c4-27cd-4f60-9cc2-07ebfbd7ba08","ios":"levelo://app?vid=2148f8c4-27cd-4f60-9cc2-07ebfbd7ba08"},"vehicle_type_id":"4","last_reported":1718053701,"current_range_meters":25600,"station_id":"","pricing_plan_id":"cebpf4jnsgd1na2vs0mg"},{"bike_id":"52770ec8-d92e-427e-a98a-b5a85da1c231","system_id":"levelo_inurba_marseille","lat":43.312239,"lon":5.368562,"is_reserved":false,"is_disabled":false,"rental_uris":{"android":"levelo://app?vid=52770ec8-d92e-427e-a98a-b5a85da1c231","ios":"levelo://app?vid=52770ec8-d92e-427e-a98a-b5a85da1c231"},"vehicle_type_id":"4","last_reported":1718053701,"current_range_meters":13600,"station_id":"ce4bgl92rcd13ifvqbq0","pricing_plan_id":"cebpf4jnsgd1na2vs0mg"},{"bike_id":"6201296d-c27a-4d98-b467-e503af43dba7","system_id":"levelo_inurba_marseille","lat":43.30914,"lon":5.36846,"is_reserved":false,"is_disabled":false,"rental_uris":{"android":"levelo://app?vid=6201296d-c27a-4d98-b467-e503af43dba7","ios":"levelo://app?vid=6201296d-c27a-4d98-b467-e503af43dba7"},"vehicle_type_id":"4","last_reported":1718053701,"current_range_meters":0,"station_id":"ce4bgn92rcd13ifvqbvg","pricing_plan_id":"cebpf4jnsgd1na2vs0mg"},{"bike_id":"311fcf5c-5cd6-4205-b0ae-4e36778e3be2","system_id":"levelo_inurba_marseille","lat":43.309076,"lon":5.368465,"is_reserved":false,"is_disabled":false,"rental_uris":{"android":"levelo://app?vid=311fcf5c-5cd6-4205-b0ae-4e36778e3be2","ios":"levelo://app?vid=311fcf5c-5cd6-4205-b0ae-4e36778e3be2"},"vehicle_type_id":"4","last_reported":1718053701,"current_range_meters":15600,"station_id":"ce4bgn92rcd13ifvqbvg","pricing_plan_id":"cebpf4jnsgd1na2vs0mg"},{"bike_id":"13e6200d-69b9-45c2-a782-0d572d7c59f1","system_id":"levelo_inurba_marseille","lat":43.314811,"lon":5.373103,"is_reserved":false,"is_disabled":false,"rental_uris":{"android":"levelo://app?vid=13e6200d-69b9-45c2-a782-0d572d7c59f1","ios":"levelo://app?vid=13e6200d-69b9-45c2-a782-0d572d7c59f1"},"vehicle_type_id":"4","last_reported":1718053701,"current_range_meters":13600,"station_id":"ce4bgt12rcd13ifvqcd0","pricing_plan_id":"cebpf4jnsgd1na2vs0mg"},{"bike_id":"8654093d-ecda-4829-a0d9-36164a130159","system_id":"levelo_inurba_marseille","lat":43.314811,"lon":5.373103,"is_reserved":false,"is_disabled":false,"rental_uris":{"android":"levelo://app?vid=8654093d-ecda-4829-a0d9-36164a130159","ios":"levelo://app?vid=8654093d-ecda-4829-a0d9-36164a130159"},"vehicle_type_id":"4","last_reported":1718053701,"current_range_meters":15600,"station_id":"ce4bgt12rcd13ifvqcd0","pricing_plan_id":"cebpf4jnsgd1na2vs0mg"},{"bike_id":"eb0a8418-6d4d-415a-b753-4ce8264d6c28","system_id":"levelo_inurba_marseille","lat":43.314811,"lon":5.373104,"is_reserved":false,"is_disabled":false,"rental_uris":{"android":"levelo://app?vid=eb0a8418-6d4d-415a-b753-4ce8264d6c28","ios":"levelo://app?vid=eb0a8418-6d4d-415a-b753-4ce8264d6c28"},"vehicle_type_id":"4","last_reported":1718053701,"current_range_meters":1600,"station_id":"ce4bgt12rcd13ifvqcd0","pricing_plan_id":"cebpf4jnsgd1na2vs0mg"},{"bike_id":"7b6fa3d6-60b8-4d07-a162-13a9221df272","system_id":"levelo_inurba_marseille","lat":43.314811,"lon":5.373104,"is_reserved":false,"is_disabled":false,"rental_uris":{"android":"levelo://app?vid=7b6fa3d6-60b8-4d07-a162-13a9221df272","ios":"levelo://app?vid=7b6fa3d6-60b8-4d07-a162-13a9221df272"},"vehicle_type_id":"4","last_reported":1718053701,"current_range_meters":14800,"station_id":"ce4bgt12rcd13ifvqcd0","pricing_plan_id":"cebpf4jnsgd1na2vs0mg"},{"bike_id":"b7a9fc93-e5a5-47a6-8bcb-27908129b050","system_id":"levelo_inurba_marseille","lat":43.309039,"lon":5.371797,"is_reserved":false,"is_disabled":false,"rental_uris":{"android":"levelo://app?vid=b7a9fc93-e5a5-47a6-8bcb-27908129b050","ios":"levelo://app?vid=b7a9fc93-e5a5-47a6-8bcb-27908129b050"},"vehicle_type_id":"4","last_reported":1718053701,"current_range_meters":9600,"station_id":"ce4bguh2rcd13ifvqckg","pricing_plan_id":"cebpf4jnsgd1na2vs0mg"},{"bike_id":"75e5af2b-495c-44b2-975b-c18913eaa7a9","system_id":"levelo_inurba_marseille","lat":43.330442,"lon":5.389148,"is_reserved":false,"is_disabled":false,"rental_uris":{"android":"levelo://app?vid=75e5af2b-495c-44b2-975b-c18913eaa7a9","ios":"levelo://app?vid=75e5af2b-495c-44b2-975b-c18913eaa7a9"},"vehicle_type_id":"4","last_reported":1718053701,"current_range_meters":13200,"station_id":"ce4bhr92rcd13ifvqhrg","pricing_plan_id":"cebpf4jnsgd1na2vs0mg"},{"bike_id":"15eed7f3-2021-47b3-96d7-4eaaccee7201","system_id":"levelo_inurba_marseille","lat":43.31639,"lon":5.374014,"is_reserved":false,"is_disabled":false,"rental_uris":{"android":"levelo://app?vid=15eed7f3-2021-47b3-96d7-4eaaccee7201","ios":"levelo://app?vid=15eed7f3-2021-47b3-96d7-4eaaccee7201"},"vehicle_type_id":"4","last_reported":1718053701,"current_range_meters":0,"station_id":"","pricing_plan_id":"cebpf4jnsgd1na2vs0mg"},{"bike_id":"0028f384-32ed-453f-8373-0a878e38d413","system_id":"levelo_inurba_marseille","lat":43.314811,"lon":5.373103,"is_reserved":false,"is_disabled":false,"rental_uris":{"android":"levelo://app?vid=0028f384-32ed-453f-8373-0a878e38d413","ios":"levelo://app?vid=0028f384-32ed-453f-8373-0a878e38d413"},"vehicle_type_id":"4","last_reported":1718053701,"current_range_meters":26400,"station_id":"ce4bgt12rcd13ifvqcd0","pricing_plan_id":"cebpf4jnsgd1na2vs0mg"},{"bike_id":"60f2dc25-2eee-45d8-9ef4-7e5519f5fd6f","system_id":"levelo_inurba_marseille","lat":43.3098,"lon":5.37662,"is_reserved":false,"is_disabled":false,"rental_uris":{"android":"levelo://app?vid=60f2dc25-2eee-45d8-9ef4-7e5519f5fd6f","ios":"levelo://app?vid=60f2dc25-2eee-45d8-9ef4-7e5519f5fd6f"},"vehicle_type_id":"4","last_reported":1718053701,"current_range_meters":15200,"station_id":"","pricing_plan_id":"cebpf4jnsgd1na2vs0mg"},{"bike_id":"fb8cb2ba-565c-472d-a22a-0502e1de554f","system_id":"levelo_inurba_marseille","lat":43.305989,"lon":5.37225,"is_reserved":false,"is_disabled":false,"rental_uris":{"android":"levelo://app?vid=fb8cb2ba-565c-472d-a22a-0502e1de554f","ios":"levelo://app?vid=fb8cb2ba-565c-472d-a22a-0502e1de554f"},"vehicle_type_id":"4","last_reported":1718053701,"current_range_meters":0,"station_id":"ce4bgqh2rcd13ifvqc4g","pricing_plan_id":"cebpf4jnsgd1na2vs0mg"},{"bike_id":"918aadcc-8a05-45c6-bb59-9ea7dfa68922","system_id":"levelo_inurba_marseille","lat":43.311125,"lon":5.377624,"is_reserved":false,"is_disabled":false,"rental_uris":{"android":"levelo://app?vid=918aadcc-8a05-45c6-bb59-9ea7dfa68922","ios":"levelo://app?vid=918aadcc-8a05-45c6-bb59-9ea7dfa68922"},"vehicle_type_id":"4","last_reported":1718053701,"current_range_meters":21600,"station_id":"ce4bgt92rcd13ifvqcg0","pricing_plan_id":"cebpf4jnsgd1na2vs0mg"},{"bike_id":"e7410375-667b-4d6a-8dcd-69fefc77a033","system_id":"levelo_inurba_marseille","lat":43.311131,"lon":5.377651,"is_reserved":false,"is_disabled":false,"rental_uris":{"android":"levelo://app?vid=e7410375-667b-4d6a-8dcd-69fefc77a033","ios":"levelo://app?vid=e7410375-667b-4d6a-8dcd-69fefc77a033"},"vehicle_type_id":"4","last_reported":1718053701,"current_range_meters":11600,"station_id":"ce4bgt92rcd13ifvqcg0","pricing_plan_id":"cebpf4jnsgd1na2vs0mg"},{"bike_id":"04556c9c-70c6-46a3-a629-a5ae9e0e9630","system_id":"levelo_inurba_marseille","lat":43.311125,"lon":5.377624,"is_reserved":false,"is_disabled":false,"rental_uris":{"android":"levelo://app?vid=04556c9c-70c6-46a3-a629-a5ae9e0e9630","ios":"levelo://app?vid=04556c9c-70c6-46a3-a629-a5ae9e0e9630"},"vehicle_type_id":"4","last_reported":1718053701,"current_range_meters":12000,"station_id":"ce4bgt92rcd13ifvqcg0","pricing_plan_id":"cebpf4jnsgd1na2vs0mg"},{"bike_id":"a4464906-b3cc-48c1-aa73-9c3f1101dfb4","system_id":"levelo_inurba_marseille","lat":43.305706,"lon":5.365654,"is_reserved":false,"is_disabled":false,"rental_uris":{"android":"levelo://app?vid=a4464906-b3cc-48c1-aa73-9c3f1101dfb4","ios":"levelo://app?vid=a4464906-b3cc-48c1-aa73-9c3f1101dfb4"},"vehicle_type_id":"4","last_reported":1718053701,"current_range_meters":5200,"station_id":"ce4bgs12rcd13ifvqcag","pricing_plan_id":"cebpf4jnsgd1na2vs0mg"},{"bike_id":"10a43f23-d16e-4659-b70f-9753a139ae9e","system_id":"levelo_inurba_marseille","lat":43.31643,"lon":5.37676,"is_reserved":false,"is_disabled":false,"rental_uris":{"android":"levelo://app?vid=10a43f23-d16e-4659-b70f-9753a139ae9e","ios":"levelo://app?vid=10a43f23-d16e-4659-b70f-9753a139ae9e"},"vehicle_type_id":"4","last_reported":1718053701,"current_range_meters":14000,"station_id":"","pricing_plan_id":"cebpf4jnsgd1na2vs0mg"},{"bike_id":"cbdadb19-7508-4f50-a9dd-4ab9b7ae0109","system_id":"levelo_inurba_marseille","lat":43.311131,"lon":5.377651,"is_reserved":false,"is_disabled":false,"rental_uris":{"android":"levelo://app?vid=cbdadb19-7508-4f50-a9dd-4ab9b7ae0109","ios":"levelo://app?vid=cbdadb19-7508-4f50-a9dd-4ab9b7ae0109"},"vehicle_type_id":"4","last_reported":1718053701,"current_range_meters":18000,"station_id":"ce4bgt92rcd13ifvqcg0","pricing_plan_id":"cebpf4jnsgd1na2vs0mg"},{"bike_id":"8ebc46cb-9afb-4baa-b7b1-2e9b2e0e71d5","system_id":"levelo_inurba_marseille","lat":43.305364,"lon":5.384119,"is_reserved":false,"is_disabled":false,"rental_uris":{"android":"levelo://app?vid=8ebc46cb-9afb-4baa-b7b1-2e9b2e0e71d5","ios":"levelo://app?vid=8ebc46cb-9afb-4baa-b7b1-2e9b2e0e71d5"},"vehicle_type_id":"4","last_reported":1718053701,"current_range_meters":19600,"station_id":"ce4bgg92rcd13ifvqb30","pricing_plan_id":"cebpf4jnsgd1na2vs0mg"},{"bike_id":"50b7b289-dfe5-4a74-bc74-97fef28cdcdb","system_id":"levelo_inurba_marseille","lat":43.307945,"lon":5.376487,"is_reserved":false,"is_disabled":false,"rental_uris":{"android":"levelo://app?vid=50b7b289-dfe5-4a74-bc74-97fef28cdcdb","ios":"levelo://app?vid=50b7b289-dfe5-4a74-bc74-97fef28cdcdb"},"vehicle_type_id":"4","last_reported":1718053701,"current_range_meters":8400,"station_id":"ce4bgv92rcd13ifvqcq0","pricing_plan_id":"cebpf4jnsgd1na2vs0mg"},{"bike_id":"40ce5cfc-3e9b-4428-969a-e8d8042632f4","system_id":"levelo_inurba_marseille","lat":43.30319,"lon":5.36894,"is_reserved":false,"is_disabled":false,"rental_uris":{"android":"levelo://app?vid=40ce5cfc-3e9b-4428-969a-e8d8042632f4","ios":"levelo://app?vid=40ce5cfc-3e9b-4428-969a-e8d8042632f4"},"vehicle_type_id":"4","last_reported":1718053701,"current_range_meters":0,"station_id":"ce4bgqh2rcd13ifvqc5g","pricing_plan_id":"cebpf4jnsgd1na2vs0mg"},{"bike_id":"37fc6c77-6713-4953-86bd-b6e560fe81ae","system_id":"levelo_inurba_marseille","lat":43.303046,"lon":5.368981,"is_reserved":false,"is_disabled":false,"rental_uris":{"android":"levelo://app?vid=37fc6c77-6713-4953-86bd-b6e560fe81ae","ios":"levelo://app?vid=37fc6c77-6713-4953-86bd-b6e560fe81ae"},"vehicle_type_id":"4","last_reported":1718053701,"current_range_meters":16800,"station_id":"ce4bgqh2rcd13ifvqc5g","pricing_plan_id":"cebpf4jnsgd1na2vs0mg"},{"bike_id":"d36234de-3f1a-407d-8831-7d6144135830","system_id":"levelo_inurba_marseille","lat":43.303046,"lon":5.368981,"is_reserved":false,"is_disabled":false,"rental_uris":{"android":"levelo://app?vid=d36234de-3f1a-407d-8831-7d6144135830","ios":"levelo://app?vid=d36234de-3f1a-407d-8831-7d6144135830"},"vehicle_type_id":"4","last_reported":1718053701,"current_range_meters":31200,"station_id":"ce4bgqh2rcd13ifvqc5g","pricing_plan_id":"cebpf4jnsgd1na2vs0mg"},{"bike_id":"76d6c2e8-39d7-4a1a-8d9a-a843bce572d0","system_id":"levelo_inurba_marseille","lat":43.303046,"lon":5.368981,"is_reserved":false,"is_disabled":false,"rental_uris":{"android":"levelo://app?vid=76d6c2e8-39d7-4a1a-8d9a-a843bce572d0","ios":"levelo://app?vid=76d6c2e8-39d7-4a1a-8d9a-a843bce572d0"},"vehicle_type_id":"4","last_reported":1718053701,"current_range_meters":9600,"station_id":"ce4bgqh2rcd13ifvqc5g","pricing_plan_id":"cebpf4jnsgd1na2vs0mg"},{"bike_id":"feb53540-3b5e-4471-b5c0-7777c9eccabd","system_id":"levelo_inurba_marseille","lat":43.315289,"lon":5.380349,"is_reserved":false,"is_disabled":false,"rental_uris":{"android":"levelo://app?vid=feb53540-3b5e-4471-b5c0-7777c9eccabd","ios":"levelo://app?vid=feb53540-3b5e-4471-b5c0-7777c9eccabd"},"vehicle_type_id":"4","last_reported":1718053701,"current_range_meters":5600,"station_id":"ce4bhsp2rcd13ifvqi50","pricing_plan_id":"cebpf4jnsgd1na2vs0mg"},{"bike_id":"f3c65ee9-ffdb-48f1-848f-a31af98e6b19","system_id":"levelo_inurba_marseille","lat":43.315289,"lon":5.380349,"is_reserved":false,"is_disabled":false,"rental_uris":{"android":"levelo://app?vid=f3c65ee9-ffdb-48f1-848f-a31af98e6b19","ios":"levelo://app?vid=f3c65ee9-ffdb-48f1-848f-a31af98e6b19"},"vehicle_type_id":"4","last_reported":1718053701,"current_range_meters":21600,"station_id":"ce4bhsp2rcd13ifvqi50","pricing_plan_id":"cebpf4jnsgd1na2vs0mg"},{"bike_id":"3e3fe189-957c-498c-9f38-5543321fd70c","system_id":"levelo_inurba_marseille","lat":43.315289,"lon":5.380349,"is_reserved":false,"is_disabled":false,"rental_uris":{"android":"levelo://app?vid=3e3fe189-957c-498c-9f38-5543321fd70c","ios":"levelo://app?vid=3e3fe189-957c-498c-9f38-5543321fd70c"},"vehicle_type_id":"4","last_reported":1718053701,"current_range_meters":22000,"station_id":"ce4bhsp2rcd13ifvqi50","pricing_plan_id":"cebpf4jnsgd1na2vs0mg"},{"bike_id":"2c976252-7b24-4a41-8c9e-0ed531f2d1de","system_id":"levelo_inurba_marseille","lat":43.315289,"lon":5.380349,"is_reserved":false,"is_disabled":false,"rental_uris":{"android":"levelo://app?vid=2c976252-7b24-4a41-8c9e-0ed531f2d1de","ios":"levelo://app?vid=2c976252-7b24-4a41-8c9e-0ed531f2d1de"},"vehicle_type_id":"4","last_reported":1718053701,"current_range_meters":5600,"station_id":"ce4bhsp2rcd13ifvqi50","pricing_plan_id":"cebpf4jnsgd1na2vs0mg"},{"bike_id":"b57fa076-0a37-4e4d-89b8-2482990c5aaf","system_id":"levelo_inurba_marseille","lat":43.315289,"lon":5.380349,"is_reserved":false,"is_disabled":false,"rental_uris":{"android":"levelo://app?vid=b57fa076-0a37-4e4d-89b8-2482990c5aaf","ios":"levelo://app?vid=b57fa076-0a37-4e4d-89b8-2482990c5aaf"},"vehicle_type_id":"4","last_reported":1718053701,"current_range_meters":31600,"station_id":"ce4bhsp2rcd13ifvqi50","pricing_plan_id":"cebpf4jnsgd1na2vs0mg"},{"bike_id":"ddab50cd-f5fe-4846-af39-186466b9bc67","system_id":"levelo_inurba_marseille","lat":43.315289,"lon":5.380349,"is_reserved":false,"is_disabled":false,"rental_uris":{"android":"levelo://app?vid=ddab50cd-f5fe-4846-af39-186466b9bc67","ios":"levelo://app?vid=ddab50cd-f5fe-4846-af39-186466b9bc67"},"vehicle_type_id":"4","last_reported":1718053701,"current_range_meters":0,"station_id":"ce4bhsp2rcd13ifvqi50","pricing_plan_id":"cebpf4jnsgd1na2vs0mg"},{"bike_id":"3fe70a8f-b048-4203-a1ed-fcd12c566abe","system_id":"levelo_inurba_marseille","lat":43.315289,"lon":5.380349,"is_reserved":false,"is_disabled":false,"rental_uris":{"android":"levelo://app?vid=3fe70a8f-b048-4203-a1ed-fcd12c566abe","ios":"levelo://app?vid=3fe70a8f-b048-4203-a1ed-fcd12c566abe"},"vehicle_type_id":"4","last_reported":1718053701,"current_range_meters":4800,"station_id":"ce4bhsp2rcd13ifvqi50","pricing_plan_id":"cebpf4jnsgd1na2vs0mg"},{"bike_id":"c48a2beb-7059-4d6d-8643-0a00923c27b8","system_id":"levelo_inurba_marseille","lat":43.315289,"lon":5.380349,"is_reserved":false,"is_disabled":false,"rental_uris":{"android":"levelo://app?vid=c48a2beb-7059-4d6d-8643-0a00923c27b8","ios":"levelo://app?vid=c48a2beb-7059-4d6d-8643-0a00923c27b8"},"vehicle_type_id":"4","last_reported":1718053701,"current_range_meters":6800,"station_id":"ce4bhsp2rcd13ifvqi50","pricing_plan_id":"cebpf4jnsgd1na2vs0mg"},{"bike_id":"f5844944-c025-4cd6-bd90-2da5ae9d06ab","system_id":"levelo_inurba_marseille","lat":43.315289,"lon":5.380349,"is_reserved":false,"is_disabled":false,"rental_uris":{"android":"levelo://app?vid=f5844944-c025-4cd6-bd90-2da5ae9d06ab","ios":"levelo://app?vid=f5844944-c025-4cd6-bd90-2da5ae9d06ab"},"vehicle_type_id":"4","last_reported":1718053701,"current_range_meters":15600,"station_id":"ce4bhsp2rcd13ifvqi50","pricing_plan_id":"cebpf4jnsgd1na2vs0mg"},{"bike_id":"72eb99b3-f6bd-43d1-a0aa-39a3ad64607b","system_id":"levelo_inurba_marseille","lat":43.315289,"lon":5.380349,"is_reserved":false,"is_disabled":false,"rental_uris":{"android":"levelo://app?vid=72eb99b3-f6bd-43d1-a0aa-39a3ad64607b","ios":"levelo://app?vid=72eb99b3-f6bd-43d1-a0aa-39a3ad64607b"},"vehicle_type_id":"4","last_reported":1718053701,"current_range_meters":6400,"station_id":"ce4bhsp2rcd13ifvqi50","pricing_plan_id":"cebpf4jnsgd1na2vs0mg"},{"bike_id":"1b1815fe-460d-4bee-bddb-8cdc137ca1b4","system_id":"levelo_inurba_marseille","lat":43.301939,"lon":5.366286,"is_reserved":false,"is_disabled":false,"rental_uris":{"android":"levelo://app?vid=1b1815fe-460d-4bee-bddb-8cdc137ca1b4","ios":"levelo://app?vid=1b1815fe-460d-4bee-bddb-8cdc137ca1b4"},"vehicle_type_id":"4","last_reported":1718053701,"current_range_meters":10800,"station_id":"ce4bgrh2rcd13ifvqc8g","pricing_plan_id":"cebpf4jnsgd1na2vs0mg"},{"bike_id":"bc41c147-8ae4-4696-b8fe-fac1a49dfe2d","system_id":"levelo_inurba_marseille","lat":43.307945,"lon":5.376487,"is_reserved":false,"is_disabled":false,"rental_uris":{"android":"levelo://app?vid=bc41c147-8ae4-4696-b8fe-fac1a49dfe2d","ios":"levelo://app?vid=bc41c147-8ae4-4696-b8fe-fac1a49dfe2d"},"vehicle_type_id":"4","last_reported":1718053701,"current_range_meters":18000,"station_id":"ce4bgv92rcd13ifvqcq0","pricing_plan_id":"cebpf4jnsgd1na2vs0mg"},{"bike_id":"af538c6b-a057-4672-aeaf-fbc4bbb479f7","system_id":"levelo_inurba_marseille","lat":43.308012,"lon":5.381511,"is_reserved":false,"is_disabled":false,"rental_uris":{"android":"levelo://app?vid=af538c6b-a057-4672-aeaf-fbc4bbb479f7","ios":"levelo://app?vid=af538c6b-a057-4672-aeaf-fbc4bbb479f7"},"vehicle_type_id":"4","last_reported":1718053701,"current_range_meters":0,"station_id":"ce4bgt12rcd13ifvqce0","pricing_plan_id":"cebpf4jnsgd1na2vs0mg"},{"bike_id":"1b9986c3-506b-4326-a30d-d30981e1ebf0","system_id":"levelo_inurba_marseille","lat":43.308012,"lon":5.381511,"is_reserved":false,"is_disabled":false,"rental_uris":{"android":"levelo://app?vid=1b9986c3-506b-4326-a30d-d30981e1ebf0","ios":"levelo://app?vid=1b9986c3-506b-4326-a30d-d30981e1ebf0"},"vehicle_type_id":"4","last_reported":1718053701,"current_range_meters":30400,"station_id":"ce4bgt12rcd13ifvqce0","pricing_plan_id":"cebpf4jnsgd1na2vs0mg"},{"bike_id":"a020ca33-b2c6-44d5-ac8e-2ace3d8d177b","system_id":"levelo_inurba_marseille","lat":43.304606,"lon":5.379026,"is_reserved":false,"is_disabled":false,"rental_uris":{"android":"levelo://app?vid=a020ca33-b2c6-44d5-ac8e-2ace3d8d177b","ios":"levelo://app?vid=a020ca33-b2c6-44d5-ac8e-2ace3d8d177b"},"vehicle_type_id":"4","last_reported":1718053701,"current_range_meters":19200,"station_id":"ce4bgup2rcd13ifvqcn0","pricing_plan_id":"cebpf4jnsgd1na2vs0mg"},{"bike_id":"97a89233-b186-4d20-b87e-ba011f1363de","system_id":"levelo_inurba_marseille","lat":43.32484,"lon":5.36567,"is_reserved":false,"is_disabled":false,"rental_uris":{"android":"levelo://app?vid=97a89233-b186-4d20-b87e-ba011f1363de","ios":"levelo://app?vid=97a89233-b186-4d20-b87e-ba011f1363de"},"vehicle_type_id":"4","last_reported":1718053701,"current_range_meters":0,"station_id":"ce4bhs12rcd13ifvqhvg","pricing_plan_id":"cebpf4jnsgd1na2vs0mg"},{"bike_id":"87a8787f-ae5c-4c03-83dc-069cdb9fdb2e","system_id":"levelo_inurba_marseille","lat":43.310804,"lon":5.38359,"is_reserved":false,"is_disabled":false,"rental_uris":{"android":"levelo://app?vid=87a8787f-ae5c-4c03-83dc-069cdb9fdb2e","ios":"levelo://app?vid=87a8787f-ae5c-4c03-83dc-069cdb9fdb2e"},"vehicle_type_id":"4","last_reported":1718053701,"current_range_meters":16400,"station_id":"ce4bgv92rcd13ifvqcr0","pricing_plan_id":"cebpf4jnsgd1na2vs0mg"},{"bike_id":"f7f58fe5-561c-4a34-b8cb-da1c5c711141","system_id":"levelo_inurba_marseille","lat":43.310804,"lon":5.38359,"is_reserved":false,"is_disabled":false,"rental_uris":{"android":"levelo://app?vid=f7f58fe5-561c-4a34-b8cb-da1c5c711141","ios":"levelo://app?vid=f7f58fe5-561c-4a34-b8cb-da1c5c711141"},"vehicle_type_id":"4","last_reported":1718053701,"current_range_meters":0,"station_id":"ce4bgv92rcd13ifvqcr0","pricing_plan_id":"cebpf4jnsgd1na2vs0mg"},{"bike_id":"381d15ad-f748-46e6-851d-cce9d207814b","system_id":"levelo_inurba_marseille","lat":43.310804,"lon":5.38359,"is_reserved":false,"is_disabled":false,"rental_uris":{"android":"levelo://app?vid=381d15ad-f748-46e6-851d-cce9d207814b","ios":"levelo://app?vid=381d15ad-f748-46e6-851d-cce9d207814b"},"vehicle_type_id":"4","last_reported":1718053701,"current_range_meters":7200,"station_id":"ce4bgv92rcd13ifvqcr0","pricing_plan_id":"cebpf4jnsgd1na2vs0mg"},{"bike_id":"dfeb3aec-27ca-4b2d-b334-c66f767d465c","system_id":"levelo_inurba_marseille","lat":43.310804,"lon":5.38359,"is_reserved":false,"is_disabled":false,"rental_uris":{"android":"levelo://app?vid=dfeb3aec-27ca-4b2d-b334-c66f767d465c","ios":"levelo://app?vid=dfeb3aec-27ca-4b2d-b334-c66f767d465c"},"vehicle_type_id":"4","last_reported":1718053701,"current_range_meters":22000,"station_id":"ce4bgv92rcd13ifvqcr0","pricing_plan_id":"cebpf4jnsgd1na2vs0mg"},{"bike_id":"2183f5a4-9caa-441d-9814-93ce688dedcb","system_id":"levelo_inurba_marseille","lat":43.310804,"lon":5.38359,"is_reserved":false,"is_disabled":false,"rental_uris":{"android":"levelo://app?vid=2183f5a4-9caa-441d-9814-93ce688dedcb","ios":"levelo://app?vid=2183f5a4-9caa-441d-9814-93ce688dedcb"},"vehicle_type_id":"4","last_reported":1718053701,"current_range_meters":23600,"station_id":"ce4bgv92rcd13ifvqcr0","pricing_plan_id":"cebpf4jnsgd1na2vs0mg"},{"bike_id":"70ca43bb-66c9-4c55-ae3e-3bc53ad813bb","system_id":"levelo_inurba_marseille","lat":43.310804,"lon":5.38359,"is_reserved":false,"is_disabled":false,"rental_uris":{"android":"levelo://app?vid=70ca43bb-66c9-4c55-ae3e-3bc53ad813bb","ios":"levelo://app?vid=70ca43bb-66c9-4c55-ae3e-3bc53ad813bb"},"vehicle_type_id":"4","last_reported":1718053701,"current_range_meters":12000,"station_id":"ce4bgv92rcd13ifvqcr0","pricing_plan_id":"cebpf4jnsgd1na2vs0mg"},{"bike_id":"72f18667-0a11-4b36-9a40-07ba203274b5","system_id":"levelo_inurba_marseille","lat":43.310804,"lon":5.38359,"is_reserved":false,"is_disabled":false,"rental_uris":{"android":"levelo://app?vid=72f18667-0a11-4b36-9a40-07ba203274b5","ios":"levelo://app?vid=72f18667-0a11-4b36-9a40-07ba203274b5"},"vehicle_type_id":"4","last_reported":1718053701,"current_range_meters":6800,"station_id":"ce4bgv92rcd13ifvqcr0","pricing_plan_id":"cebpf4jnsgd1na2vs0mg"},{"bike_id":"ba946f18-6317-429f-8bfc-013b7a33eb08","system_id":"levelo_inurba_marseille","lat":43.302784,"lon":5.377158,"is_reserved":false,"is_disabled":false,"rental_uris":{"android":"levelo://app?vid=ba946f18-6317-429f-8bfc-013b7a33eb08","ios":"levelo://app?vid=ba946f18-6317-429f-8bfc-013b7a33eb08"},"vehicle_type_id":"4","last_reported":1718053701,"current_range_meters":18000,"station_id":"ce4bguh2rcd13ifvqcj0","pricing_plan_id":"cebpf4jnsgd1na2vs0mg"},{"bike_id":"a232de33-1ac7-493e-8a3f-b624a324f9ce","system_id":"levelo_inurba_marseille","lat":43.310755,"lon":5.383595,"is_reserved":false,"is_disabled":false,"rental_uris":{"android":"levelo://app?vid=a232de33-1ac7-493e-8a3f-b624a324f9ce","ios":"levelo://app?vid=a232de33-1ac7-493e-8a3f-b624a324f9ce"},"vehicle_type_id":"4","last_reported":1718053701,"current_range_meters":24800,"station_id":"","pricing_plan_id":"cebpf4jnsgd1na2vs0mg"},{"bike_id":"c36da255-0b57-44b5-ad14-cfd4d218a58a","system_id":"levelo_inurba_marseille","lat":43.311722,"lon":5.387247,"is_reserved":false,"is_disabled":false,"rental_uris":{"android":"levelo://app?vid=c36da255-0b57-44b5-ad14-cfd4d218a58a","ios":"levelo://app?vid=c36da255-0b57-44b5-ad14-cfd4d218a58a"},"vehicle_type_id":"4","last_reported":1718053701,"current_range_meters":20000,"station_id":"ce4bgv12rcd13ifvqcp0","pricing_plan_id":"cebpf4jnsgd1na2vs0mg"},{"bike_id":"70b4260c-2bc3-4f49-955d-752a4c7e3332","system_id":"levelo_inurba_marseille","lat":43.310804,"lon":5.38359,"is_reserved":false,"is_disabled":false,"rental_uris":{"android":"levelo://app?vid=70b4260c-2bc3-4f49-955d-752a4c7e3332","ios":"levelo://app?vid=70b4260c-2bc3-4f49-955d-752a4c7e3332"},"vehicle_type_id":"4","last_reported":1718053701,"current_range_meters":23600,"station_id":"ce4bgv92rcd13ifvqcr0","pricing_plan_id":"cebpf4jnsgd1na2vs0mg"},{"bike_id":"299437e8-0a65-4e79-bd7b-0316ab7160f0","system_id":"levelo_inurba_marseille","lat":43.302784,"lon":5.377158,"is_reserved":false,"is_disabled":false,"rental_uris":{"android":"levelo://app?vid=299437e8-0a65-4e79-bd7b-0316ab7160f0","ios":"levelo://app?vid=299437e8-0a65-4e79-bd7b-0316ab7160f0"},"vehicle_type_id":"4","last_reported":1718053701,"current_range_meters":20000,"station_id":"ce4bguh2rcd13ifvqcj0","pricing_plan_id":"cebpf4jnsgd1na2vs0mg"},{"bike_id":"934c97c7-0014-4105-9feb-5cc354e0aa34","system_id":"levelo_inurba_marseille","lat":43.301429,"lon":5.37413,"is_reserved":false,"is_disabled":false,"rental_uris":{"android":"levelo://app?vid=934c97c7-0014-4105-9feb-5cc354e0aa34","ios":"levelo://app?vid=934c97c7-0014-4105-9feb-5cc354e0aa34"},"vehicle_type_id":"4","last_reported":1718053701,"current_range_meters":30400,"station_id":"ce4bgs92rcd13ifvqcc0","pricing_plan_id":"cebpf4jnsgd1na2vs0mg"},{"bike_id":"9b2f4846-59a5-4cff-861b-e8045bc2841f","system_id":"levelo_inurba_marseille","lat":43.319935,"lon":5.381699,"is_reserved":false,"is_disabled":false,"rental_uris":{"android":"levelo://app?vid=9b2f4846-59a5-4cff-861b-e8045bc2841f","ios":"levelo://app?vid=9b2f4846-59a5-4cff-861b-e8045bc2841f"},"vehicle_type_id":"4","last_reported":1718053701,"current_range_meters":0,"station_id":"ce4bhr12rcd13ifvqhpg","pricing_plan_id":"cebpf4jnsgd1na2vs0mg"},{"bike_id":"12620fa0-7ce4-463f-b584-af39f581d16b","system_id":"levelo_inurba_marseille","lat":43.319935,"lon":5.381699,"is_reserved":false,"is_disabled":false,"rental_uris":{"android":"levelo://app?vid=12620fa0-7ce4-463f-b584-af39f581d16b","ios":"levelo://app?vid=12620fa0-7ce4-463f-b584-af39f581d16b"},"vehicle_type_id":"4","last_reported":1718053701,"current_range_meters":6800,"station_id":"ce4bhr12rcd13ifvqhpg","pricing_plan_id":"cebpf4jnsgd1na2vs0mg"},{"bike_id":"47f49a25-1d58-4bdd-9d17-c9657513714f","system_id":"levelo_inurba_marseille","lat":43.311125,"lon":5.377624,"is_reserved":false,"is_disabled":false,"rental_uris":{"android":"levelo://app?vid=47f49a25-1d58-4bdd-9d17-c9657513714f","ios":"levelo://app?vid=47f49a25-1d58-4bdd-9d17-c9657513714f"},"vehicle_type_id":"4","last_reported":1718053701,"current_range_meters":28400,"station_id":"ce4bgt92rcd13ifvqcg0","pricing_plan_id":"cebpf4jnsgd1na2vs0mg"},{"bike_id":"a84a937b-54af-4f6b-9aa3-d9b3d9eb6d00","system_id":"levelo_inurba_marseille","lat":43.313571,"lon":5.384829,"is_reserved":false,"is_disabled":false,"rental_uris":{"android":"levelo://app?vid=a84a937b-54af-4f6b-9aa3-d9b3d9eb6d00","ios":"levelo://app?vid=a84a937b-54af-4f6b-9aa3-d9b3d9eb6d00"},"vehicle_type_id":"4","last_reported":1718053701,"current_range_meters":4400,"station_id":"ce4bgt92rcd13ifvqcf0","pricing_plan_id":"cebpf4jnsgd1na2vs0mg"},{"bike_id":"5427b205-56d2-4786-bec5-c1434dd19af8","system_id":"levelo_inurba_marseille","lat":43.313571,"lon":5.384829,"is_reserved":false,"is_disabled":false,"rental_uris":{"android":"levelo://app?vid=5427b205-56d2-4786-bec5-c1434dd19af8","ios":"levelo://app?vid=5427b205-56d2-4786-bec5-c1434dd19af8"},"vehicle_type_id":"4","last_reported":1718053701,"current_range_meters":30000,"station_id":"ce4bgt92rcd13ifvqcf0","pricing_plan_id":"cebpf4jnsgd1na2vs0mg"},{"bike_id":"461d74f8-8644-424e-bf64-1bfe9295f1f6","system_id":"levelo_inurba_marseille","lat":43.299724,"lon":5.371829,"is_reserved":false,"is_disabled":false,"rental_uris":{"android":"levelo://app?vid=461d74f8-8644-424e-bf64-1bfe9295f1f6","ios":"levelo://app?vid=461d74f8-8644-424e-bf64-1bfe9295f1f6"},"vehicle_type_id":"4","last_reported":1718053701,"current_range_meters":400,"station_id":"ce4bgr92rcd13ifvqc7g","pricing_plan_id":"cebpf4jnsgd1na2vs0mg"},{"bike_id":"e80c2d0c-289b-498c-8760-537c71722d93","system_id":"levelo_inurba_marseille","lat":43.299222,"lon":5.365554,"is_reserved":false,"is_disabled":false,"rental_uris":{"android":"levelo://app?vid=e80c2d0c-289b-498c-8760-537c71722d93","ios":"levelo://app?vid=e80c2d0c-289b-498c-8760-537c71722d93"},"vehicle_type_id":"4","last_reported":1718053701,"current_range_meters":10800,"station_id":"ce4bgm92rcd13ifvqbr0","pricing_plan_id":"cebpf4jnsgd1na2vs0mg"},{"bike_id":"d2169b9e-9e3b-4abc-adb9-563458e89de4","system_id":"levelo_inurba_marseille","lat":43.299222,"lon":5.365554,"is_reserved":false,"is_disabled":false,"rental_uris":{"android":"levelo://app?vid=d2169b9e-9e3b-4abc-adb9-563458e89de4","ios":"levelo://app?vid=d2169b9e-9e3b-4abc-adb9-563458e89de4"},"vehicle_type_id":"4","last_reported":1718053701,"current_range_meters":2800,"station_id":"ce4bgm92rcd13ifvqbr0","pricing_plan_id":"cebpf4jnsgd1na2vs0mg"},{"bike_id":"f09df349-bb12-404b-b6b3-f9a20580be99","system_id":"levelo_inurba_marseille","lat":43.299222,"lon":5.365554,"is_reserved":false,"is_disabled":false,"rental_uris":{"android":"levelo://app?vid=f09df349-bb12-404b-b6b3-f9a20580be99","ios":"levelo://app?vid=f09df349-bb12-404b-b6b3-f9a20580be99"},"vehicle_type_id":"4","last_reported":1718053701,"current_range_meters":0,"station_id":"ce4bgm92rcd13ifvqbr0","pricing_plan_id":"cebpf4jnsgd1na2vs0mg"},{"bike_id":"48e17baa-1ffe-4f66-9763-7b33a5e3b067","system_id":"levelo_inurba_marseille","lat":43.305364,"lon":5.384119,"is_reserved":false,"is_disabled":false,"rental_uris":{"android":"levelo://app?vid=48e17baa-1ffe-4f66-9763-7b33a5e3b067","ios":"levelo://app?vid=48e17baa-1ffe-4f66-9763-7b33a5e3b067"},"vehicle_type_id":"4","last_reported":1718053701,"current_range_meters":3200,"station_id":"ce4bgg92rcd13ifvqb30","pricing_plan_id":"cebpf4jnsgd1na2vs0mg"},{"bike_id":"e201148f-e039-4e27-bf96-e0bd167c16f5","system_id":"levelo_inurba_marseille","lat":43.305364,"lon":5.384119,"is_reserved":false,"is_disabled":false,"rental_uris":{"android":"levelo://app?vid=e201148f-e039-4e27-bf96-e0bd167c16f5","ios":"levelo://app?vid=e201148f-e039-4e27-bf96-e0bd167c16f5"},"vehicle_type_id":"4","last_reported":1718053701,"current_range_meters":27600,"station_id":"ce4bgg92rcd13ifvqb30","pricing_plan_id":"cebpf4jnsgd1na2vs0mg"},{"bike_id":"9ad603b8-1a9b-4755-9d37-c6dd8e5acf3f","system_id":"levelo_inurba_marseille","lat":43.305364,"lon":5.384119,"is_reserved":false,"is_disabled":false,"rental_uris":{"android":"levelo://app?vid=9ad603b8-1a9b-4755-9d37-c6dd8e5acf3f","ios":"levelo://app?vid=9ad603b8-1a9b-4755-9d37-c6dd8e5acf3f"},"vehicle_type_id":"4","last_reported":1718053701,"current_range_meters":13600,"station_id":"ce4bgg92rcd13ifvqb30","pricing_plan_id":"cebpf4jnsgd1na2vs0mg"},{"bike_id":"8edbc1f6-9ed6-4fbd-9779-cc597fcfa4bc","system_id":"levelo_inurba_marseille","lat":43.305437,"lon":5.38433,"is_reserved":false,"is_disabled":false,"rental_uris":{"android":"levelo://app?vid=8edbc1f6-9ed6-4fbd-9779-cc597fcfa4bc","ios":"levelo://app?vid=8edbc1f6-9ed6-4fbd-9779-cc597fcfa4bc"},"vehicle_type_id":"4","last_reported":1718053701,"current_range_meters":5200,"station_id":"ce4bgg92rcd13ifvqb30","pricing_plan_id":"cebpf4jnsgd1na2vs0mg"},{"bike_id":"c867d108-cef1-4bad-94b1-27da19bb54b1","system_id":"levelo_inurba_marseille","lat":43.29844,"lon":5.36268,"is_reserved":false,"is_disabled":false,"rental_uris":{"android":"levelo://app?vid=c867d108-cef1-4bad-94b1-27da19bb54b1","ios":"levelo://app?vid=c867d108-cef1-4bad-94b1-27da19bb54b1"},"vehicle_type_id":"4","last_reported":1718053701,"current_range_meters":0,"station_id":"ce4bgpp2rcd13ifvqc3g","pricing_plan_id":"cebpf4jnsgd1na2vs0mg"},{"bike_id":"7cc60960-fb11-46e0-90a7-898a527e47b4","system_id":"levelo_inurba_marseille","lat":43.31171,"lon":5.38714,"is_reserved":false,"is_disabled":false,"rental_uris":{"android":"levelo://app?vid=7cc60960-fb11-46e0-90a7-898a527e47b4","ios":"levelo://app?vid=7cc60960-fb11-46e0-90a7-898a527e47b4"},"vehicle_type_id":"4","last_reported":1718053701,"current_range_meters":0,"station_id":"ce4bgv12rcd13ifvqcp0","pricing_plan_id":"cebpf4jnsgd1na2vs0mg"},{"bike_id":"5b3f97bc-73a7-428f-b4db-3656ce675974","system_id":"levelo_inurba_marseille","lat":43.311722,"lon":5.387247,"is_reserved":false,"is_disabled":false,"rental_uris":{"android":"levelo://app?vid=5b3f97bc-73a7-428f-b4db-3656ce675974","ios":"levelo://app?vid=5b3f97bc-73a7-428f-b4db-3656ce675974"},"vehicle_type_id":"4","last_reported":1718053701,"current_range_meters":11600,"station_id":"ce4bgv12rcd13ifvqcp0","pricing_plan_id":"cebpf4jnsgd1na2vs0mg"},{"bike_id":"44633568-3934-497b-8674-62af8ef7d3fb","system_id":"levelo_inurba_marseille","lat":43.307442,"lon":5.385957,"is_reserved":false,"is_disabled":false,"rental_uris":{"android":"levelo://app?vid=44633568-3934-497b-8674-62af8ef7d3fb","ios":"levelo://app?vid=44633568-3934-497b-8674-62af8ef7d3fb"},"vehicle_type_id":"4","last_reported":1718053701,"current_range_meters":18800,"station_id":"","pricing_plan_id":"cebpf4jnsgd1na2vs0mg"},{"bike_id":"de7c5108-e917-486e-ab56-4821218451a4","system_id":"levelo_inurba_marseille","lat":43.322872,"lon":5.382756,"is_reserved":false,"is_disabled":false,"rental_uris":{"android":"levelo://app?vid=de7c5108-e917-486e-ab56-4821218451a4","ios":"levelo://app?vid=de7c5108-e917-486e-ab56-4821218451a4"},"vehicle_type_id":"4","last_reported":1718053701,"current_range_meters":10800,"station_id":"ce4bhr12rcd13ifvqhqg","pricing_plan_id":"cebpf4jnsgd1na2vs0mg"},{"bike_id":"51a8b080-1707-44b3-b327-739216e19667","system_id":"levelo_inurba_marseille","lat":43.322872,"lon":5.382756,"is_reserved":false,"is_disabled":false,"rental_uris":{"android":"levelo://app?vid=51a8b080-1707-44b3-b327-739216e19667","ios":"levelo://app?vid=51a8b080-1707-44b3-b327-739216e19667"},"vehicle_type_id":"4","last_reported":1718053701,"current_range_meters":11200,"station_id":"ce4bhr12rcd13ifvqhqg","pricing_plan_id":"cebpf4jnsgd1na2vs0mg"},{"bike_id":"15601879-22de-4ba3-bd2c-dd9bf3648d91","system_id":"levelo_inurba_marseille","lat":43.322872,"lon":5.382756,"is_reserved":false,"is_disabled":false,"rental_uris":{"android":"levelo://app?vid=15601879-22de-4ba3-bd2c-dd9bf3648d91","ios":"levelo://app?vid=15601879-22de-4ba3-bd2c-dd9bf3648d91"},"vehicle_type_id":"4","last_reported":1718053701,"current_range_meters":0,"station_id":"ce4bhr12rcd13ifvqhqg","pricing_plan_id":"cebpf4jnsgd1na2vs0mg"},{"bike_id":"7915bf18-bb64-423c-bea1-6d6be854c47f","system_id":"levelo_inurba_marseille","lat":43.297163,"lon":5.365866,"is_reserved":false,"is_disabled":false,"rental_uris":{"android":"levelo://app?vid=7915bf18-bb64-423c-bea1-6d6be854c47f","ios":"levelo://app?vid=7915bf18-bb64-423c-bea1-6d6be854c47f"},"vehicle_type_id":"4","last_reported":1718053701,"current_range_meters":6800,"station_id":"ce4bgn12rcd13ifvqbt0","pricing_plan_id":"cebpf4jnsgd1na2vs0mg"},{"bike_id":"d1047cf4-3b4f-4018-85fb-f946787a800d","system_id":"levelo_inurba_marseille","lat":43.297163,"lon":5.365866,"is_reserved":false,"is_disabled":false,"rental_uris":{"android":"levelo://app?vid=d1047cf4-3b4f-4018-85fb-f946787a800d","ios":"levelo://app?vid=d1047cf4-3b4f-4018-85fb-f946787a800d"},"vehicle_type_id":"4","last_reported":1718053701,"current_range_meters":31200,"station_id":"ce4bgn12rcd13ifvqbt0","pricing_plan_id":"cebpf4jnsgd1na2vs0mg"},{"bike_id":"0bffb724-7977-43ff-9c8b-ebdf54caae39","system_id":"levelo_inurba_marseille","lat":43.297163,"lon":5.365866,"is_reserved":false,"is_disabled":false,"rental_uris":{"android":"levelo://app?vid=0bffb724-7977-43ff-9c8b-ebdf54caae39","ios":"levelo://app?vid=0bffb724-7977-43ff-9c8b-ebdf54caae39"},"vehicle_type_id":"4","last_reported":1718053701,"current_range_meters":11600,"station_id":"ce4bgn12rcd13ifvqbt0","pricing_plan_id":"cebpf4jnsgd1na2vs0mg"},{"bike_id":"1fc75ff6-2552-478e-a563-f4a2e17d403d","system_id":"levelo_inurba_marseille","lat":43.297163,"lon":5.365866,"is_reserved":false,"is_disabled":false,"rental_uris":{"android":"levelo://app?vid=1fc75ff6-2552-478e-a563-f4a2e17d403d","ios":"levelo://app?vid=1fc75ff6-2552-478e-a563-f4a2e17d403d"},"vehicle_type_id":"4","last_reported":1718053701,"current_range_meters":28400,"station_id":"ce4bgn12rcd13ifvqbt0","pricing_plan_id":"cebpf4jnsgd1na2vs0mg"},{"bike_id":"4648f00d-57f5-425f-95aa-b6644687edf5","system_id":"levelo_inurba_marseille","lat":43.297163,"lon":5.365866,"is_reserved":false,"is_disabled":false,"rental_uris":{"android":"levelo://app?vid=4648f00d-57f5-425f-95aa-b6644687edf5","ios":"levelo://app?vid=4648f00d-57f5-425f-95aa-b6644687edf5"},"vehicle_type_id":"4","last_reported":1718053701,"current_range_meters":9600,"station_id":"ce4bgn12rcd13ifvqbt0","pricing_plan_id":"cebpf4jnsgd1na2vs0mg"},{"bike_id":"e8f04730-bf80-4265-861e-33daa3741d42","system_id":"levelo_inurba_marseille","lat":43.297163,"lon":5.365866,"is_reserved":false,"is_disabled":false,"rental_uris":{"android":"levelo://app?vid=e8f04730-bf80-4265-861e-33daa3741d42","ios":"levelo://app?vid=e8f04730-bf80-4265-861e-33daa3741d42"},"vehicle_type_id":"4","last_reported":1718053701,"current_range_meters":9600,"station_id":"ce4bgn12rcd13ifvqbt0","pricing_plan_id":"cebpf4jnsgd1na2vs0mg"},{"bike_id":"098e04a3-22e8-4b6b-81b2-16167f0aed81","system_id":"levelo_inurba_marseille","lat":43.29688,"lon":5.37295,"is_reserved":false,"is_disabled":false,"rental_uris":{"android":"levelo://app?vid=098e04a3-22e8-4b6b-81b2-16167f0aed81","ios":"levelo://app?vid=098e04a3-22e8-4b6b-81b2-16167f0aed81"},"vehicle_type_id":"4","last_reported":1718053701,"current_range_meters":16000,"station_id":"","pricing_plan_id":"cebpf4jnsgd1na2vs0mg"},{"bike_id":"7a9762f1-bdca-494b-a4f5-e368bcfd5599","system_id":"levelo_inurba_marseille","lat":43.296935,"lon":5.376544,"is_reserved":false,"is_disabled":false,"rental_uris":{"android":"levelo://app?vid=7a9762f1-bdca-494b-a4f5-e368bcfd5599","ios":"levelo://app?vid=7a9762f1-bdca-494b-a4f5-e368bcfd5599"},"vehicle_type_id":"4","last_reported":1718053701,"current_range_meters":0,"station_id":"ce4bgkh2rcd13ifvqbl0","pricing_plan_id":"cebpf4jnsgd1na2vs0mg"},{"bike_id":"de59b517-dd4a-4de9-8ca6-250064292abe","system_id":"levelo_inurba_marseille","lat":43.2968,"lon":5.37291,"is_reserved":false,"is_disabled":false,"rental_uris":{"android":"levelo://app?vid=de59b517-dd4a-4de9-8ca6-250064292abe","ios":"levelo://app?vid=de59b517-dd4a-4de9-8ca6-250064292abe"},"vehicle_type_id":"4","last_reported":1718053701,"current_range_meters":12000,"station_id":"ce4bgk12rcd13ifvqbj0","pricing_plan_id":"cebpf4jnsgd1na2vs0mg"},{"bike_id":"1ad2a8fe-ecf7-4f51-965c-18cfee1c9fb7","system_id":"levelo_inurba_marseille","lat":43.309589,"lon":5.390258,"is_reserved":false,"is_disabled":false,"rental_uris":{"android":"levelo://app?vid=1ad2a8fe-ecf7-4f51-965c-18cfee1c9fb7","ios":"levelo://app?vid=1ad2a8fe-ecf7-4f51-965c-18cfee1c9fb7"},"vehicle_type_id":"4","last_reported":1718053701,"current_range_meters":0,"station_id":"ce4bgup2rcd13ifvqco0","pricing_plan_id":"cebpf4jnsgd1na2vs0mg"},{"bike_id":"dd42bd83-f640-4059-bc55-f2e3756a0347","system_id":"levelo_inurba_marseille","lat":43.309589,"lon":5.390258,"is_reserved":false,"is_disabled":false,"rental_uris":{"android":"levelo://app?vid=dd42bd83-f640-4059-bc55-f2e3756a0347","ios":"levelo://app?vid=dd42bd83-f640-4059-bc55-f2e3756a0347"},"vehicle_type_id":"4","last_reported":1718053701,"current_range_meters":9200,"station_id":"ce4bgup2rcd13ifvqco0","pricing_plan_id":"cebpf4jnsgd1na2vs0mg"},{"bike_id":"f59f9e82-c488-4135-8f21-ee62b8a49ed4","system_id":"levelo_inurba_marseille","lat":43.304274,"lon":5.397513,"is_reserved":false,"is_disabled":false,"rental_uris":{"android":"levelo://app?vid=f59f9e82-c488-4135-8f21-ee62b8a49ed4","ios":"levelo://app?vid=f59f9e82-c488-4135-8f21-ee62b8a49ed4"},"vehicle_type_id":"4","last_reported":1718053701,"current_range_meters":30400,"station_id":"ce4bh092rcd13ifvqd20","pricing_plan_id":"cebpf4jnsgd1na2vs0mg"},{"bike_id":"8ede572d-7a5c-4a23-a76d-6db1b8dad32b","system_id":"levelo_inurba_marseille","lat":43.317557,"lon":5.390173,"is_reserved":false,"is_disabled":false,"rental_uris":{"android":"levelo://app?vid=8ede572d-7a5c-4a23-a76d-6db1b8dad32b","ios":"levelo://app?vid=8ede572d-7a5c-4a23-a76d-6db1b8dad32b"},"vehicle_type_id":"4","last_reported":1718053701,"current_range_meters":14800,"station_id":"ce4bhqp2rcd13ifvqhng","pricing_plan_id":"cebpf4jnsgd1na2vs0mg"},{"bike_id":"40a0ffe3-cc26-41c3-a1a9-d9d9092ac836","system_id":"levelo_inurba_marseille","lat":43.304252,"lon":5.388692,"is_reserved":false,"is_disabled":false,"rental_uris":{"android":"levelo://app?vid=40a0ffe3-cc26-41c3-a1a9-d9d9092ac836","ios":"levelo://app?vid=40a0ffe3-cc26-41c3-a1a9-d9d9092ac836"},"vehicle_type_id":"4","last_reported":1718053701,"current_range_meters":17200,"station_id":"ce4bgk12rcd13ifvqbi0","pricing_plan_id":"cebpf4jnsgd1na2vs0mg"},{"bike_id":"88552617-64eb-43f3-bb65-98eaccbf63c7","system_id":"levelo_inurba_marseille","lat":43.29577,"lon":5.37512,"is_reserved":false,"is_disabled":false,"rental_uris":{"android":"levelo://app?vid=88552617-64eb-43f3-bb65-98eaccbf63c7","ios":"levelo://app?vid=88552617-64eb-43f3-bb65-98eaccbf63c7"},"vehicle_type_id":"4","last_reported":1718053701,"current_range_meters":18000,"station_id":"ce4bgh92rcd13ifvqb50","pricing_plan_id":"cebpf4jnsgd1na2vs0mg"},{"bike_id":"a0b5d7b0-d159-4c9c-a538-84a2cf457f6e","system_id":"levelo_inurba_marseille","lat":43.304323,"lon":5.388849,"is_reserved":false,"is_disabled":false,"rental_uris":{"android":"levelo://app?vid=a0b5d7b0-d159-4c9c-a538-84a2cf457f6e","ios":"levelo://app?vid=a0b5d7b0-d159-4c9c-a538-84a2cf457f6e"},"vehicle_type_id":"4","last_reported":1718053701,"current_range_meters":10000,"station_id":"ce4bgk12rcd13ifvqbi0","pricing_plan_id":"cebpf4jnsgd1na2vs0mg"},{"bike_id":"79f78365-d1e7-43c5-a89a-3df31d995032","system_id":"levelo_inurba_marseille","lat":43.297823,"lon":5.380922,"is_reserved":false,"is_disabled":false,"rental_uris":{"android":"levelo://app?vid=79f78365-d1e7-43c5-a89a-3df31d995032","ios":"levelo://app?vid=79f78365-d1e7-43c5-a89a-3df31d995032"},"vehicle_type_id":"4","last_reported":1718053701,"current_range_meters":0,"station_id":"ce4bgip2rcd13ifvqbb0","pricing_plan_id":"cebpf4jnsgd1na2vs0mg"},{"bike_id":"11699c66-cbe0-4a0f-91a0-959c8e249556","system_id":"levelo_inurba_marseille","lat":43.304278,"lon":5.388868,"is_reserved":false,"is_disabled":false,"rental_uris":{"android":"levelo://app?vid=11699c66-cbe0-4a0f-91a0-959c8e249556","ios":"levelo://app?vid=11699c66-cbe0-4a0f-91a0-959c8e249556"},"vehicle_type_id":"4","last_reported":1718053701,"current_range_meters":11200,"station_id":"ce4bgk12rcd13ifvqbi0","pricing_plan_id":"cebpf4jnsgd1na2vs0mg"},{"bike_id":"e3adbe99-3873-42e2-bdb6-13b2f89508c4","system_id":"levelo_inurba_marseille","lat":43.304278,"lon":5.388868,"is_reserved":false,"is_disabled":false,"rental_uris":{"android":"levelo://app?vid=e3adbe99-3873-42e2-bdb6-13b2f89508c4","ios":"levelo://app?vid=e3adbe99-3873-42e2-bdb6-13b2f89508c4"},"vehicle_type_id":"4","last_reported":1718053701,"current_range_meters":21200,"station_id":"ce4bgk12rcd13ifvqbi0","pricing_plan_id":"cebpf4jnsgd1na2vs0mg"},{"bike_id":"982a62f2-4a35-4a1f-8a60-b4725ef1891e","system_id":"levelo_inurba_marseille","lat":43.29565,"lon":5.37509,"is_reserved":false,"is_disabled":false,"rental_uris":{"android":"levelo://app?vid=982a62f2-4a35-4a1f-8a60-b4725ef1891e","ios":"levelo://app?vid=982a62f2-4a35-4a1f-8a60-b4725ef1891e"},"vehicle_type_id":"4","last_reported":1718053701,"current_range_meters":26800,"station_id":"ce4bgh92rcd13ifvqb50","pricing_plan_id":"cebpf4jnsgd1na2vs0mg"},{"bike_id":"5aa48f55-bf67-4cb2-a7e0-96cd0e8d7769","system_id":"levelo_inurba_marseille","lat":43.304278,"lon":5.388868,"is_reserved":false,"is_disabled":false,"rental_uris":{"android":"levelo://app?vid=5aa48f55-bf67-4cb2-a7e0-96cd0e8d7769","ios":"levelo://app?vid=5aa48f55-bf67-4cb2-a7e0-96cd0e8d7769"},"vehicle_type_id":"4","last_reported":1718053701,"current_range_meters":32000,"station_id":"ce4bgk12rcd13ifvqbi0","pricing_plan_id":"cebpf4jnsgd1na2vs0mg"},{"bike_id":"23283f06-29ba-44f1-a047-1743c212e2df","system_id":"levelo_inurba_marseille","lat":43.304278,"lon":5.388868,"is_reserved":false,"is_disabled":false,"rental_uris":{"android":"levelo://app?vid=23283f06-29ba-44f1-a047-1743c212e2df","ios":"levelo://app?vid=23283f06-29ba-44f1-a047-1743c212e2df"},"vehicle_type_id":"4","last_reported":1718053701,"current_range_meters":15600,"station_id":"ce4bgk12rcd13ifvqbi0","pricing_plan_id":"cebpf4jnsgd1na2vs0mg"},{"bike_id":"0a2a1c65-c8f0-465a-99ec-599f30b590e4","system_id":"levelo_inurba_marseille","lat":43.296277,"lon":5.377108,"is_reserved":false,"is_disabled":false,"rental_uris":{"android":"levelo://app?vid=0a2a1c65-c8f0-465a-99ec-599f30b590e4","ios":"levelo://app?vid=0a2a1c65-c8f0-465a-99ec-599f30b590e4"},"vehicle_type_id":"4","last_reported":1718053701,"current_range_meters":16800,"station_id":"ce4bgi92rcd13ifvqb90","pricing_plan_id":"cebpf4jnsgd1na2vs0mg"},{"bike_id":"01da03af-eef8-44f7-92cc-ad5113476657","system_id":"levelo_inurba_marseille","lat":43.304278,"lon":5.388868,"is_reserved":false,"is_disabled":false,"rental_uris":{"android":"levelo://app?vid=01da03af-eef8-44f7-92cc-ad5113476657","ios":"levelo://app?vid=01da03af-eef8-44f7-92cc-ad5113476657"},"vehicle_type_id":"4","last_reported":1718053701,"current_range_meters":21600,"station_id":"ce4bgk12rcd13ifvqbi0","pricing_plan_id":"cebpf4jnsgd1na2vs0mg"},{"bike_id":"09f882f9-009b-4072-831a-c2101bccc4de","system_id":"levelo_inurba_marseille","lat":43.304278,"lon":5.388868,"is_reserved":false,"is_disabled":false,"rental_uris":{"android":"levelo://app?vid=09f882f9-009b-4072-831a-c2101bccc4de","ios":"levelo://app?vid=09f882f9-009b-4072-831a-c2101bccc4de"},"vehicle_type_id":"4","last_reported":1718053701,"current_range_meters":31200,"station_id":"ce4bgk12rcd13ifvqbi0","pricing_plan_id":"cebpf4jnsgd1na2vs0mg"},{"bike_id":"95b862c6-7fb7-40b6-bc1d-d30bf1166ef2","system_id":"levelo_inurba_marseille","lat":43.304278,"lon":5.388868,"is_reserved":false,"is_disabled":false,"rental_uris":{"android":"levelo://app?vid=95b862c6-7fb7-40b6-bc1d-d30bf1166ef2","ios":"levelo://app?vid=95b862c6-7fb7-40b6-bc1d-d30bf1166ef2"},"vehicle_type_id":"4","last_reported":1718053701,"current_range_meters":16000,"station_id":"ce4bgk12rcd13ifvqbi0","pricing_plan_id":"cebpf4jnsgd1na2vs0mg"},{"bike_id":"eea6f307-4890-4577-bcb8-6fa2dad4049f","system_id":"levelo_inurba_marseille","lat":43.304334,"lon":5.389308,"is_reserved":false,"is_disabled":false,"rental_uris":{"android":"levelo://app?vid=eea6f307-4890-4577-bcb8-6fa2dad4049f","ios":"levelo://app?vid=eea6f307-4890-4577-bcb8-6fa2dad4049f"},"vehicle_type_id":"4","last_reported":1718053701,"current_range_meters":31200,"station_id":"ce4bgk12rcd13ifvqbi0","pricing_plan_id":"cebpf4jnsgd1na2vs0mg"},{"bike_id":"9dfba24f-15af-4f85-8cc3-76c7a8dc1bdb","system_id":"levelo_inurba_marseille","lat":43.29976,"lon":5.38487,"is_reserved":false,"is_disabled":false,"rental_uris":{"android":"levelo://app?vid=9dfba24f-15af-4f85-8cc3-76c7a8dc1bdb","ios":"levelo://app?vid=9dfba24f-15af-4f85-8cc3-76c7a8dc1bdb"},"vehicle_type_id":"4","last_reported":1718053701,"current_range_meters":0,"station_id":"ce4bgj92rcd13ifvqbd0","pricing_plan_id":"cebpf4jnsgd1na2vs0mg"},{"bike_id":"9c4630c4-5355-4b3e-8e5a-b9c9a864e8e8","system_id":"levelo_inurba_marseille","lat":43.299707,"lon":5.384859,"is_reserved":false,"is_disabled":false,"rental_uris":{"android":"levelo://app?vid=9c4630c4-5355-4b3e-8e5a-b9c9a864e8e8","ios":"levelo://app?vid=9c4630c4-5355-4b3e-8e5a-b9c9a864e8e8"},"vehicle_type_id":"4","last_reported":1718053701,"current_range_meters":0,"station_id":"ce4bgj92rcd13ifvqbd0","pricing_plan_id":"cebpf4jnsgd1na2vs0mg"},{"bike_id":"53ddabef-85ed-4d6e-a8e5-0c7ed41e479e","system_id":"levelo_inurba_marseille","lat":43.295279,"lon":5.375048,"is_reserved":false,"is_disabled":false,"rental_uris":{"android":"levelo://app?vid=53ddabef-85ed-4d6e-a8e5-0c7ed41e479e","ios":"levelo://app?vid=53ddabef-85ed-4d6e-a8e5-0c7ed41e479e"},"vehicle_type_id":"4","last_reported":1718053701,"current_range_meters":21600,"station_id":"ce4bgkp2rcd13ifvqbmg","pricing_plan_id":"cebpf4jnsgd1na2vs0mg"},{"bike_id":"cda1139f-d640-4ec7-b5f5-fa03c75651ad","system_id":"levelo_inurba_marseille","lat":43.298556,"lon":5.383843,"is_reserved":false,"is_disabled":false,"rental_uris":{"android":"levelo://app?vid=cda1139f-d640-4ec7-b5f5-fa03c75651ad","ios":"levelo://app?vid=cda1139f-d640-4ec7-b5f5-fa03c75651ad"},"vehicle_type_id":"4","last_reported":1718053701,"current_range_meters":25600,"station_id":"","pricing_plan_id":"cebpf4jnsgd1na2vs0mg"},{"bike_id":"f744b62e-6ad8-4880-aee8-7794ed5bd712","system_id":"levelo_inurba_marseille","lat":43.32367,"lon":5.388836,"is_reserved":false,"is_disabled":false,"rental_uris":{"android":"levelo://app?vid=f744b62e-6ad8-4880-aee8-7794ed5bd712","ios":"levelo://app?vid=f744b62e-6ad8-4880-aee8-7794ed5bd712"},"vehicle_type_id":"4","last_reported":1718053701,"current_range_meters":0,"station_id":"ce4bhqp2rcd13ifvqhog","pricing_plan_id":"cebpf4jnsgd1na2vs0mg"},{"bike_id":"515f9d4c-901e-40b1-bff2-7c0a2f83d3f9","system_id":"levelo_inurba_marseille","lat":43.32366,"lon":5.38883,"is_reserved":false,"is_disabled":false,"rental_uris":{"android":"levelo://app?vid=515f9d4c-901e-40b1-bff2-7c0a2f83d3f9","ios":"levelo://app?vid=515f9d4c-901e-40b1-bff2-7c0a2f83d3f9"},"vehicle_type_id":"4","last_reported":1718053701,"current_range_meters":0,"station_id":"ce4bhqp2rcd13ifvqhog","pricing_plan_id":"cebpf4jnsgd1na2vs0mg"},{"bike_id":"95c3eefc-14b5-4e74-8f9f-9623766bd34b","system_id":"levelo_inurba_marseille","lat":43.32367,"lon":5.388836,"is_reserved":false,"is_disabled":false,"rental_uris":{"android":"levelo://app?vid=95c3eefc-14b5-4e74-8f9f-9623766bd34b","ios":"levelo://app?vid=95c3eefc-14b5-4e74-8f9f-9623766bd34b"},"vehicle_type_id":"4","last_reported":1718053701,"current_range_meters":17600,"station_id":"ce4bhqp2rcd13ifvqhog","pricing_plan_id":"cebpf4jnsgd1na2vs0mg"},{"bike_id":"f07f95cc-38cd-4948-b236-4f8ca5c37972","system_id":"levelo_inurba_marseille","lat":43.323667,"lon":5.388857,"is_reserved":false,"is_disabled":false,"rental_uris":{"android":"levelo://app?vid=f07f95cc-38cd-4948-b236-4f8ca5c37972","ios":"levelo://app?vid=f07f95cc-38cd-4948-b236-4f8ca5c37972"},"vehicle_type_id":"4","last_reported":1718053701,"current_range_meters":19200,"station_id":"ce4bhqp2rcd13ifvqhog","pricing_plan_id":"cebpf4jnsgd1na2vs0mg"},{"bike_id":"5e9cac16-670e-4ed5-abb3-6f5156511ae3","system_id":"levelo_inurba_marseille","lat":43.32367,"lon":5.38889,"is_reserved":false,"is_disabled":false,"rental_uris":{"android":"levelo://app?vid=5e9cac16-670e-4ed5-abb3-6f5156511ae3","ios":"levelo://app?vid=5e9cac16-670e-4ed5-abb3-6f5156511ae3"},"vehicle_type_id":"4","last_reported":1718053701,"current_range_meters":2400,"station_id":"ce4bhqp2rcd13ifvqhog","pricing_plan_id":"cebpf4jnsgd1na2vs0mg"},{"bike_id":"4a316f56-edb5-400c-af08-3d2a9bff46f0","system_id":"levelo_inurba_marseille","lat":43.32367,"lon":5.388836,"is_reserved":false,"is_disabled":false,"rental_uris":{"android":"levelo://app?vid=4a316f56-edb5-400c-af08-3d2a9bff46f0","ios":"levelo://app?vid=4a316f56-edb5-400c-af08-3d2a9bff46f0"},"vehicle_type_id":"4","last_reported":1718053701,"current_range_meters":400,"station_id":"ce4bhqp2rcd13ifvqhog","pricing_plan_id":"cebpf4jnsgd1na2vs0mg"},{"bike_id":"8c3eca1d-6eae-4c74-a794-d5d64dbb8b0a","system_id":"levelo_inurba_marseille","lat":43.32367,"lon":5.388836,"is_reserved":false,"is_disabled":false,"rental_uris":{"android":"levelo://app?vid=8c3eca1d-6eae-4c74-a794-d5d64dbb8b0a","ios":"levelo://app?vid=8c3eca1d-6eae-4c74-a794-d5d64dbb8b0a"},"vehicle_type_id":"4","last_reported":1718053701,"current_range_meters":18000,"station_id":"ce4bhqp2rcd13ifvqhog","pricing_plan_id":"cebpf4jnsgd1na2vs0mg"},{"bike_id":"091d0760-44da-4d52-91d5-c81ebd757699","system_id":"levelo_inurba_marseille","lat":43.289184,"lon":5.366408,"is_reserved":false,"is_disabled":false,"rental_uris":{"android":"levelo://app?vid=091d0760-44da-4d52-91d5-c81ebd757699","ios":"levelo://app?vid=091d0760-44da-4d52-91d5-c81ebd757699"},"vehicle_type_id":"4","last_reported":1718053701,"current_range_meters":11600,"station_id":"ce4bhap2rcd13ifvqek0","pricing_plan_id":"cebpf4jnsgd1na2vs0mg"},{"bike_id":"1bb88a36-fc70-4f0f-ae56-290847e47a28","system_id":"levelo_inurba_marseille","lat":43.293259,"lon":5.371586,"is_reserved":false,"is_disabled":false,"rental_uris":{"android":"levelo://app?vid=1bb88a36-fc70-4f0f-ae56-290847e47a28","ios":"levelo://app?vid=1bb88a36-fc70-4f0f-ae56-290847e47a28"},"vehicle_type_id":"4","last_reported":1718053701,"current_range_meters":0,"station_id":"ce4bgh92rcd13ifvqb40","pricing_plan_id":"cebpf4jnsgd1na2vs0mg"},{"bike_id":"02770db6-0920-4a80-becb-37fa002d99f8","system_id":"levelo_inurba_marseille","lat":43.29311,"lon":5.3718,"is_reserved":false,"is_disabled":false,"rental_uris":{"android":"levelo://app?vid=02770db6-0920-4a80-becb-37fa002d99f8","ios":"levelo://app?vid=02770db6-0920-4a80-becb-37fa002d99f8"},"vehicle_type_id":"4","last_reported":1718053701,"current_range_meters":0,"station_id":"ce4bgh92rcd13ifvqb40","pricing_plan_id":"cebpf4jnsgd1na2vs0mg"},{"bike_id":"114b5954-2f8a-4aec-8800-25b1aa3ae9a8","system_id":"levelo_inurba_marseille","lat":43.29307,"lon":5.37176,"is_reserved":false,"is_disabled":false,"rental_uris":{"android":"levelo://app?vid=114b5954-2f8a-4aec-8800-25b1aa3ae9a8","ios":"levelo://app?vid=114b5954-2f8a-4aec-8800-25b1aa3ae9a8"},"vehicle_type_id":"4","last_reported":1718053701,"current_range_meters":0,"station_id":"ce4bgh92rcd13ifvqb40","pricing_plan_id":"cebpf4jnsgd1na2vs0mg"},{"bike_id":"55f0101d-123a-4c0d-ab03-91172859a570","system_id":"levelo_inurba_marseille","lat":43.293259,"lon":5.371586,"is_reserved":false,"is_disabled":false,"rental_uris":{"android":"levelo://app?vid=55f0101d-123a-4c0d-ab03-91172859a570","ios":"levelo://app?vid=55f0101d-123a-4c0d-ab03-91172859a570"},"vehicle_type_id":"4","last_reported":1718053701,"current_range_meters":22400,"station_id":"ce4bgh92rcd13ifvqb40","pricing_plan_id":"cebpf4jnsgd1na2vs0mg"},{"bike_id":"d162f3bb-6883-45ca-abc5-1194aba20a87","system_id":"levelo_inurba_marseille","lat":43.292749,"lon":5.368402,"is_reserved":false,"is_disabled":false,"rental_uris":{"android":"levelo://app?vid=d162f3bb-6883-45ca-abc5-1194aba20a87","ios":"levelo://app?vid=d162f3bb-6883-45ca-abc5-1194aba20a87"},"vehicle_type_id":"4","last_reported":1718053701,"current_range_meters":0,"station_id":"ce4bhbp2rcd13ifvqesg","pricing_plan_id":"cebpf4jnsgd1na2vs0mg"},{"bike_id":"172f95a9-d61c-4b19-b921-7c8fe6b11245","system_id":"levelo_inurba_marseille","lat":43.293259,"lon":5.371586,"is_reserved":false,"is_disabled":false,"rental_uris":{"android":"levelo://app?vid=172f95a9-d61c-4b19-b921-7c8fe6b11245","ios":"levelo://app?vid=172f95a9-d61c-4b19-b921-7c8fe6b11245"},"vehicle_type_id":"4","last_reported":1718053701,"current_range_meters":25600,"station_id":"ce4bgh92rcd13ifvqb40","pricing_plan_id":"cebpf4jnsgd1na2vs0mg"},{"bike_id":"5c47a17b-9959-44ef-94d4-0084565e4d42","system_id":"levelo_inurba_marseille","lat":43.29241,"lon":5.36611,"is_reserved":false,"is_disabled":false,"rental_uris":{"android":"levelo://app?vid=5c47a17b-9959-44ef-94d4-0084565e4d42","ios":"levelo://app?vid=5c47a17b-9959-44ef-94d4-0084565e4d42"},"vehicle_type_id":"4","last_reported":1718053701,"current_range_meters":8800,"station_id":"chh1huq6cuj3fo74tm60","pricing_plan_id":"cebpf4jnsgd1na2vs0mg"},{"bike_id":"dfa419ec-e106-40b0-8fbe-44ec88e65dcc","system_id":"levelo_inurba_marseille","lat":43.305994,"lon":5.393687,"is_reserved":false,"is_disabled":false,"rental_uris":{"android":"levelo://app?vid=dfa419ec-e106-40b0-8fbe-44ec88e65dcc","ios":"levelo://app?vid=dfa419ec-e106-40b0-8fbe-44ec88e65dcc"},"vehicle_type_id":"4","last_reported":1718053701,"current_range_meters":22400,"station_id":"ce4bh0p2rcd13ifvqd80","pricing_plan_id":"cebpf4jnsgd1na2vs0mg"},{"bike_id":"6b07e45c-6e6f-4c2f-b195-88d53c6b82c8","system_id":"levelo_inurba_marseille","lat":43.29307,"lon":5.374458,"is_reserved":false,"is_disabled":false,"rental_uris":{"android":"levelo://app?vid=6b07e45c-6e6f-4c2f-b195-88d53c6b82c8","ios":"levelo://app?vid=6b07e45c-6e6f-4c2f-b195-88d53c6b82c8"},"vehicle_type_id":"4","last_reported":1718053701,"current_range_meters":0,"station_id":"ce4bgi12rcd13ifvqb70","pricing_plan_id":"cebpf4jnsgd1na2vs0mg"},{"bike_id":"674b5998-e81f-4dbd-8961-c4921822514d","system_id":"levelo_inurba_marseille","lat":43.305994,"lon":5.393687,"is_reserved":false,"is_disabled":false,"rental_uris":{"android":"levelo://app?vid=674b5998-e81f-4dbd-8961-c4921822514d","ios":"levelo://app?vid=674b5998-e81f-4dbd-8961-c4921822514d"},"vehicle_type_id":"4","last_reported":1718053701,"current_range_meters":5200,"station_id":"ce4bh0p2rcd13ifvqd80","pricing_plan_id":"cebpf4jnsgd1na2vs0mg"},{"bike_id":"39a4c77b-9a8c-40af-be95-1f86b21bedeb","system_id":"levelo_inurba_marseille","lat":43.305994,"lon":5.393687,"is_reserved":false,"is_disabled":false,"rental_uris":{"android":"levelo://app?vid=39a4c77b-9a8c-40af-be95-1f86b21bedeb","ios":"levelo://app?vid=39a4c77b-9a8c-40af-be95-1f86b21bedeb"},"vehicle_type_id":"4","last_reported":1718053701,"current_range_meters":31600,"station_id":"ce4bh0p2rcd13ifvqd80","pricing_plan_id":"cebpf4jnsgd1na2vs0mg"},{"bike_id":"46b6d13b-61e3-42f5-9957-9df8b4f3bcad","system_id":"levelo_inurba_marseille","lat":43.313571,"lon":5.384829,"is_reserved":false,"is_disabled":false,"rental_uris":{"android":"levelo://app?vid=46b6d13b-61e3-42f5-9957-9df8b4f3bcad","ios":"levelo://app?vid=46b6d13b-61e3-42f5-9957-9df8b4f3bcad"},"vehicle_type_id":"4","last_reported":1718053701,"current_range_meters":16000,"station_id":"ce4bgt92rcd13ifvqcf0","pricing_plan_id":"cebpf4jnsgd1na2vs0mg"},{"bike_id":"c3cf4517-687a-4757-b9fe-bfc075f0d30e","system_id":"levelo_inurba_marseille","lat":43.2929,"lon":5.374478,"is_reserved":false,"is_disabled":false,"rental_uris":{"android":"levelo://app?vid=c3cf4517-687a-4757-b9fe-bfc075f0d30e","ios":"levelo://app?vid=c3cf4517-687a-4757-b9fe-bfc075f0d30e"},"vehicle_type_id":"4","last_reported":1718053701,"current_range_meters":0,"station_id":"ce4bgi12rcd13ifvqb70","pricing_plan_id":"cebpf4jnsgd1na2vs0mg"},{"bike_id":"0f124ab6-06bb-4ffa-88af-d0c000429d77","system_id":"levelo_inurba_marseille","lat":43.292893,"lon":5.374505,"is_reserved":false,"is_disabled":false,"rental_uris":{"android":"levelo://app?vid=0f124ab6-06bb-4ffa-88af-d0c000429d77","ios":"levelo://app?vid=0f124ab6-06bb-4ffa-88af-d0c000429d77"},"vehicle_type_id":"4","last_reported":1718053701,"current_range_meters":0,"station_id":"ce4bgi12rcd13ifvqb70","pricing_plan_id":"cebpf4jnsgd1na2vs0mg"},{"bike_id":"d78eb6f7-d226-448d-8cce-f275ca73c8ae","system_id":"levelo_inurba_marseille","lat":43.303155,"lon":5.392133,"is_reserved":false,"is_disabled":false,"rental_uris":{"android":"levelo://app?vid=d78eb6f7-d226-448d-8cce-f275ca73c8ae","ios":"levelo://app?vid=d78eb6f7-d226-448d-8cce-f275ca73c8ae"},"vehicle_type_id":"4","last_reported":1718053701,"current_range_meters":22800,"station_id":"ce4bgkh2rcd13ifvqbk0","pricing_plan_id":"cebpf4jnsgd1na2vs0mg"},{"bike_id":"7567a7bf-bd39-4597-adbe-b5395363ca22","system_id":"levelo_inurba_marseille","lat":43.302992,"lon":5.392136,"is_reserved":false,"is_disabled":false,"rental_uris":{"android":"levelo://app?vid=7567a7bf-bd39-4597-adbe-b5395363ca22","ios":"levelo://app?vid=7567a7bf-bd39-4597-adbe-b5395363ca22"},"vehicle_type_id":"4","last_reported":1718053701,"current_range_meters":1600,"station_id":"ce4bgkh2rcd13ifvqbk0","pricing_plan_id":"cebpf4jnsgd1na2vs0mg"},{"bike_id":"7376963d-75ac-46a3-b400-7a7409855aa2","system_id":"levelo_inurba_marseille","lat":43.303002,"lon":5.392142,"is_reserved":false,"is_disabled":false,"rental_uris":{"android":"levelo://app?vid=7376963d-75ac-46a3-b400-7a7409855aa2","ios":"levelo://app?vid=7376963d-75ac-46a3-b400-7a7409855aa2"},"vehicle_type_id":"4","last_reported":1718053701,"current_range_meters":31200,"station_id":"ce4bgkh2rcd13ifvqbk0","pricing_plan_id":"cebpf4jnsgd1na2vs0mg"},{"bike_id":"c8ee2764-6bea-4b77-b417-92980b4bc955","system_id":"levelo_inurba_marseille","lat":43.302992,"lon":5.392136,"is_reserved":false,"is_disabled":false,"rental_uris":{"android":"levelo://app?vid=c8ee2764-6bea-4b77-b417-92980b4bc955","ios":"levelo://app?vid=c8ee2764-6bea-4b77-b417-92980b4bc955"},"vehicle_type_id":"4","last_reported":1718053701,"current_range_meters":19200,"station_id":"ce4bgkh2rcd13ifvqbk0","pricing_plan_id":"cebpf4jnsgd1na2vs0mg"},{"bike_id":"2e03e3fc-3511-48f1-bd37-bf3c9ad8d619","system_id":"levelo_inurba_marseille","lat":43.29375,"lon":5.37842,"is_reserved":false,"is_disabled":false,"rental_uris":{"android":"levelo://app?vid=2e03e3fc-3511-48f1-bd37-bf3c9ad8d619","ios":"levelo://app?vid=2e03e3fc-3511-48f1-bd37-bf3c9ad8d619"},"vehicle_type_id":"4","last_reported":1718053701,"current_range_meters":21600,"station_id":"","pricing_plan_id":"cebpf4jnsgd1na2vs0mg"},{"bike_id":"f7de1e88-e24c-43d5-882a-95c9247bcfe4","system_id":"levelo_inurba_marseille","lat":43.305994,"lon":5.393687,"is_reserved":false,"is_disabled":false,"rental_uris":{"android":"levelo://app?vid=f7de1e88-e24c-43d5-882a-95c9247bcfe4","ios":"levelo://app?vid=f7de1e88-e24c-43d5-882a-95c9247bcfe4"},"vehicle_type_id":"4","last_reported":1718053701,"current_range_meters":8000,"station_id":"ce4bh0p2rcd13ifvqd80","pricing_plan_id":"cebpf4jnsgd1na2vs0mg"},{"bike_id":"40504cdd-e699-4d9f-9003-11f0d1746496","system_id":"levelo_inurba_marseille","lat":43.2936,"lon":5.37835,"is_reserved":false,"is_disabled":false,"rental_uris":{"android":"levelo://app?vid=40504cdd-e699-4d9f-9003-11f0d1746496","ios":"levelo://app?vid=40504cdd-e699-4d9f-9003-11f0d1746496"},"vehicle_type_id":"4","last_reported":1718053701,"current_range_meters":15600,"station_id":"ce4bgjh2rcd13ifvqbf0","pricing_plan_id":"cebpf4jnsgd1na2vs0mg"},{"bike_id":"70414216-ba2d-4336-b93e-2bca63ac56d7","system_id":"levelo_inurba_marseille","lat":43.298764,"lon":5.388973,"is_reserved":false,"is_disabled":false,"rental_uris":{"android":"levelo://app?vid=70414216-ba2d-4336-b93e-2bca63ac56d7","ios":"levelo://app?vid=70414216-ba2d-4336-b93e-2bca63ac56d7"},"vehicle_type_id":"4","last_reported":1718053701,"current_range_meters":14400,"station_id":"ce4bh392rcd13ifvqdl0","pricing_plan_id":"cebpf4jnsgd1na2vs0mg"},{"bike_id":"34b445b6-e87b-4e9b-bc13-13d70ed99f53","system_id":"levelo_inurba_marseille","lat":43.301046,"lon":5.391329,"is_reserved":false,"is_disabled":false,"rental_uris":{"android":"levelo://app?vid=34b445b6-e87b-4e9b-bc13-13d70ed99f53","ios":"levelo://app?vid=34b445b6-e87b-4e9b-bc13-13d70ed99f53"},"vehicle_type_id":"4","last_reported":1718053701,"current_range_meters":22400,"station_id":"ce4bh192rcd13ifvqdb0","pricing_plan_id":"cebpf4jnsgd1na2vs0mg"},{"bike_id":"7b92aac0-2bc6-4514-9f56-d664c4ae0eb0","system_id":"levelo_inurba_marseille","lat":43.302992,"lon":5.392136,"is_reserved":false,"is_disabled":false,"rental_uris":{"android":"levelo://app?vid=7b92aac0-2bc6-4514-9f56-d664c4ae0eb0","ios":"levelo://app?vid=7b92aac0-2bc6-4514-9f56-d664c4ae0eb0"},"vehicle_type_id":"4","last_reported":1718053701,"current_range_meters":20000,"station_id":"ce4bgkh2rcd13ifvqbk0","pricing_plan_id":"cebpf4jnsgd1na2vs0mg"},{"bike_id":"7a046a2f-81b2-47e5-96c7-2927ec1d1d12","system_id":"levelo_inurba_marseille","lat":43.29172,"lon":5.37169,"is_reserved":false,"is_disabled":false,"rental_uris":{"android":"levelo://app?vid=7a046a2f-81b2-47e5-96c7-2927ec1d1d12","ios":"levelo://app?vid=7a046a2f-81b2-47e5-96c7-2927ec1d1d12"},"vehicle_type_id":"4","last_reported":1718053701,"current_range_meters":7200,"station_id":"","pricing_plan_id":"cebpf4jnsgd1na2vs0mg"},{"bike_id":"562e79cf-2ee5-407e-9bf3-2fd641668d98","system_id":"levelo_inurba_marseille","lat":43.28856,"lon":5.358371,"is_reserved":false,"is_disabled":false,"rental_uris":{"android":"levelo://app?vid=562e79cf-2ee5-407e-9bf3-2fd641668d98","ios":"levelo://app?vid=562e79cf-2ee5-407e-9bf3-2fd641668d98"},"vehicle_type_id":"4","last_reported":1718053701,"current_range_meters":6400,"station_id":"ce4bhb12rcd13ifvqem0","pricing_plan_id":"cebpf4jnsgd1na2vs0mg"},{"bike_id":"401c018e-a56b-47b4-9c08-9c5df7fc0bec","system_id":"levelo_inurba_marseille","lat":43.312709,"lon":5.396638,"is_reserved":false,"is_disabled":false,"rental_uris":{"android":"levelo://app?vid=401c018e-a56b-47b4-9c08-9c5df7fc0bec","ios":"levelo://app?vid=401c018e-a56b-47b4-9c08-9c5df7fc0bec"},"vehicle_type_id":"4","last_reported":1718053701,"current_range_meters":0,"station_id":"ce4bgvp2rcd13ifvqcu0","pricing_plan_id":"cebpf4jnsgd1na2vs0mg"},{"bike_id":"4b059b7b-9fb9-4261-82a1-e1e988930bf1","system_id":"levelo_inurba_marseille","lat":43.308858,"lon":5.396223,"is_reserved":false,"is_disabled":false,"rental_uris":{"android":"levelo://app?vid=4b059b7b-9fb9-4261-82a1-e1e988930bf1","ios":"levelo://app?vid=4b059b7b-9fb9-4261-82a1-e1e988930bf1"},"vehicle_type_id":"4","last_reported":1718053701,"current_range_meters":12800,"station_id":"ce4bh012rcd13ifvqcv0","pricing_plan_id":"cebpf4jnsgd1na2vs0mg"},{"bike_id":"f11deb7b-385f-45be-9178-6c4b53539924","system_id":"levelo_inurba_marseille","lat":43.309047,"lon":5.396551,"is_reserved":false,"is_disabled":false,"rental_uris":{"android":"levelo://app?vid=f11deb7b-385f-45be-9178-6c4b53539924","ios":"levelo://app?vid=f11deb7b-385f-45be-9178-6c4b53539924"},"vehicle_type_id":"4","last_reported":1718053701,"current_range_meters":1600,"station_id":"ce4bh012rcd13ifvqcv0","pricing_plan_id":"cebpf4jnsgd1na2vs0mg"},{"bike_id":"6eee7032-8b82-4838-814d-93d20672c375","system_id":"levelo_inurba_marseille","lat":43.291994,"lon":5.357886,"is_reserved":false,"is_disabled":false,"rental_uris":{"android":"levelo://app?vid=6eee7032-8b82-4838-814d-93d20672c375","ios":"levelo://app?vid=6eee7032-8b82-4838-814d-93d20672c375"},"vehicle_type_id":"4","last_reported":1718053701,"current_range_meters":31600,"station_id":"ce4bhb12rcd13ifvqel0","pricing_plan_id":"cebpf4jnsgd1na2vs0mg"},{"bike_id":"d7d3c1cd-a99c-4bbd-9014-fe4f6cccea67","system_id":"levelo_inurba_marseille","lat":43.308116,"lon":5.396136,"is_reserved":false,"is_disabled":false,"rental_uris":{"android":"levelo://app?vid=d7d3c1cd-a99c-4bbd-9014-fe4f6cccea67","ios":"levelo://app?vid=d7d3c1cd-a99c-4bbd-9014-fe4f6cccea67"},"vehicle_type_id":"4","last_reported":1718053701,"current_range_meters":6400,"station_id":"ce4bh012rcd13ifvqcv0","pricing_plan_id":"cebpf4jnsgd1na2vs0mg"},{"bike_id":"0a283d6e-fa61-41a4-a4fb-dfcca0fa68f8","system_id":"levelo_inurba_marseille","lat":43.308243,"lon":5.396188,"is_reserved":false,"is_disabled":false,"rental_uris":{"android":"levelo://app?vid=0a283d6e-fa61-41a4-a4fb-dfcca0fa68f8","ios":"levelo://app?vid=0a283d6e-fa61-41a4-a4fb-dfcca0fa68f8"},"vehicle_type_id":"4","last_reported":1718053701,"current_range_meters":16400,"station_id":"ce4bh012rcd13ifvqcv0","pricing_plan_id":"cebpf4jnsgd1na2vs0mg"},{"bike_id":"6824dd32-0ab2-4061-a5c5-4c1a492f4fd6","system_id":"levelo_inurba_marseille","lat":43.31324,"lon":5.3969,"is_reserved":false,"is_disabled":false,"rental_uris":{"android":"levelo://app?vid=6824dd32-0ab2-4061-a5c5-4c1a492f4fd6","ios":"levelo://app?vid=6824dd32-0ab2-4061-a5c5-4c1a492f4fd6"},"vehicle_type_id":"4","last_reported":1718053701,"current_range_meters":8400,"station_id":"ce4bhpp2rcd13ifvqhgg","pricing_plan_id":"cebpf4jnsgd1na2vs0mg"},{"bike_id":"644e07f4-6ee5-4b1f-b4a5-9061b9dacf25","system_id":"levelo_inurba_marseille","lat":43.313291,"lon":5.396838,"is_reserved":false,"is_disabled":false,"rental_uris":{"android":"levelo://app?vid=644e07f4-6ee5-4b1f-b4a5-9061b9dacf25","ios":"levelo://app?vid=644e07f4-6ee5-4b1f-b4a5-9061b9dacf25"},"vehicle_type_id":"4","last_reported":1718053701,"current_range_meters":6400,"station_id":"ce4bgvp2rcd13ifvqcu0","pricing_plan_id":"cebpf4jnsgd1na2vs0mg"},{"bike_id":"58912c00-1f3c-4b0d-90cd-9be0503ba43f","system_id":"levelo_inurba_marseille","lat":43.291896,"lon":5.357959,"is_reserved":false,"is_disabled":false,"rental_uris":{"android":"levelo://app?vid=58912c00-1f3c-4b0d-90cd-9be0503ba43f","ios":"levelo://app?vid=58912c00-1f3c-4b0d-90cd-9be0503ba43f"},"vehicle_type_id":"4","last_reported":1718053701,"current_range_meters":14000,"station_id":"","pricing_plan_id":"cebpf4jnsgd1na2vs0mg"},{"bike_id":"88615f23-a1e3-4951-82db-b8f4b7c89e46","system_id":"levelo_inurba_marseille","lat":43.308626,"lon":5.396431,"is_reserved":false,"is_disabled":false,"rental_uris":{"android":"levelo://app?vid=88615f23-a1e3-4951-82db-b8f4b7c89e46","ios":"levelo://app?vid=88615f23-a1e3-4951-82db-b8f4b7c89e46"},"vehicle_type_id":"4","last_reported":1718053701,"current_range_meters":19200,"station_id":"ce4bh012rcd13ifvqcv0","pricing_plan_id":"cebpf4jnsgd1na2vs0mg"},{"bike_id":"e4969446-5b71-4ed6-9ce3-bf17eda304b9","system_id":"levelo_inurba_marseille","lat":43.309047,"lon":5.396551,"is_reserved":false,"is_disabled":false,"rental_uris":{"android":"levelo://app?vid=e4969446-5b71-4ed6-9ce3-bf17eda304b9","ios":"levelo://app?vid=e4969446-5b71-4ed6-9ce3-bf17eda304b9"},"vehicle_type_id":"4","last_reported":1718053701,"current_range_meters":24400,"station_id":"ce4bh012rcd13ifvqcv0","pricing_plan_id":"cebpf4jnsgd1na2vs0mg"},{"bike_id":"d690ee24-a50a-41c0-8cf6-e9934cf1ba92","system_id":"levelo_inurba_marseille","lat":43.309047,"lon":5.396551,"is_reserved":false,"is_disabled":false,"rental_uris":{"android":"levelo://app?vid=d690ee24-a50a-41c0-8cf6-e9934cf1ba92","ios":"levelo://app?vid=d690ee24-a50a-41c0-8cf6-e9934cf1ba92"},"vehicle_type_id":"4","last_reported":1718053701,"current_range_meters":7600,"station_id":"ce4bh012rcd13ifvqcv0","pricing_plan_id":"cebpf4jnsgd1na2vs0mg"},{"bike_id":"c5c0a021-fd4d-4453-85a2-397705c47d07","system_id":"levelo_inurba_marseille","lat":43.30889,"lon":5.39652,"is_reserved":false,"is_disabled":false,"rental_uris":{"android":"levelo://app?vid=c5c0a021-fd4d-4453-85a2-397705c47d07","ios":"levelo://app?vid=c5c0a021-fd4d-4453-85a2-397705c47d07"},"vehicle_type_id":"4","last_reported":1718053701,"current_range_meters":4400,"station_id":"ce4bh012rcd13ifvqcv0","pricing_plan_id":"cebpf4jnsgd1na2vs0mg"},{"bike_id":"a9d80ba9-5e27-4a0a-8465-2ca7bb0c83e8","system_id":"levelo_inurba_marseille","lat":43.313291,"lon":5.396838,"is_reserved":false,"is_disabled":false,"rental_uris":{"android":"levelo://app?vid=a9d80ba9-5e27-4a0a-8465-2ca7bb0c83e8","ios":"levelo://app?vid=a9d80ba9-5e27-4a0a-8465-2ca7bb0c83e8"},"vehicle_type_id":"4","last_reported":1718053701,"current_range_meters":20400,"station_id":"ce4bgvp2rcd13ifvqcu0","pricing_plan_id":"cebpf4jnsgd1na2vs0mg"},{"bike_id":"d528503a-eb52-4a57-8719-d98806bb0e5d","system_id":"levelo_inurba_marseille","lat":43.30889,"lon":5.39653,"is_reserved":false,"is_disabled":false,"rental_uris":{"android":"levelo://app?vid=d528503a-eb52-4a57-8719-d98806bb0e5d","ios":"levelo://app?vid=d528503a-eb52-4a57-8719-d98806bb0e5d"},"vehicle_type_id":"4","last_reported":1718053701,"current_range_meters":5200,"station_id":"ce4bh012rcd13ifvqcv0","pricing_plan_id":"cebpf4jnsgd1na2vs0mg"},{"bike_id":"2571927a-ec96-4f2a-a9f0-abcb27d7a2ad","system_id":"levelo_inurba_marseille","lat":43.30889,"lon":5.39653,"is_reserved":false,"is_disabled":false,"rental_uris":{"android":"levelo://app?vid=2571927a-ec96-4f2a-a9f0-abcb27d7a2ad","ios":"levelo://app?vid=2571927a-ec96-4f2a-a9f0-abcb27d7a2ad"},"vehicle_type_id":"4","last_reported":1718053701,"current_range_meters":8400,"station_id":"ce4bh012rcd13ifvqcv0","pricing_plan_id":"cebpf4jnsgd1na2vs0mg"},{"bike_id":"f762172c-6127-45a5-b3ae-90c2cac272c0","system_id":"levelo_inurba_marseille","lat":43.313348,"lon":5.397005,"is_reserved":false,"is_disabled":false,"rental_uris":{"android":"levelo://app?vid=f762172c-6127-45a5-b3ae-90c2cac272c0","ios":"levelo://app?vid=f762172c-6127-45a5-b3ae-90c2cac272c0"},"vehicle_type_id":"4","last_reported":1718053701,"current_range_meters":0,"station_id":"ce4bgvp2rcd13ifvqcu0","pricing_plan_id":"cebpf4jnsgd1na2vs0mg"},{"bike_id":"fde51350-b442-400c-aaf9-7c0169d541d6","system_id":"levelo_inurba_marseille","lat":43.313291,"lon":5.396838,"is_reserved":false,"is_disabled":false,"rental_uris":{"android":"levelo://app?vid=fde51350-b442-400c-aaf9-7c0169d541d6","ios":"levelo://app?vid=fde51350-b442-400c-aaf9-7c0169d541d6"},"vehicle_type_id":"4","last_reported":1718053701,"current_range_meters":13200,"station_id":"ce4bgvp2rcd13ifvqcu0","pricing_plan_id":"cebpf4jnsgd1na2vs0mg"},{"bike_id":"8d3bd3c6-1dfd-4ba9-b797-b3be123f4ca0","system_id":"levelo_inurba_marseille","lat":43.31323,"lon":5.39703,"is_reserved":false,"is_disabled":false,"rental_uris":{"android":"levelo://app?vid=8d3bd3c6-1dfd-4ba9-b797-b3be123f4ca0","ios":"levelo://app?vid=8d3bd3c6-1dfd-4ba9-b797-b3be123f4ca0"},"vehicle_type_id":"4","last_reported":1718053701,"current_range_meters":0,"station_id":"ce4bgvp2rcd13ifvqcu0","pricing_plan_id":"cebpf4jnsgd1na2vs0mg"},{"bike_id":"c9ca44cd-c88d-4822-ab08-8ea86573c2ef","system_id":"levelo_inurba_marseille","lat":43.309038,"lon":5.396546,"is_reserved":false,"is_disabled":false,"rental_uris":{"android":"levelo://app?vid=c9ca44cd-c88d-4822-ab08-8ea86573c2ef","ios":"levelo://app?vid=c9ca44cd-c88d-4822-ab08-8ea86573c2ef"},"vehicle_type_id":"4","last_reported":1718053701,"current_range_meters":0,"station_id":"ce4bh012rcd13ifvqcv0","pricing_plan_id":"cebpf4jnsgd1na2vs0mg"},{"bike_id":"38ad745e-5f13-4f2d-a68e-d018b9004b02","system_id":"levelo_inurba_marseille","lat":43.29529,"lon":5.385581,"is_reserved":false,"is_disabled":false,"rental_uris":{"android":"levelo://app?vid=38ad745e-5f13-4f2d-a68e-d018b9004b02","ios":"levelo://app?vid=38ad745e-5f13-4f2d-a68e-d018b9004b02"},"vehicle_type_id":"4","last_reported":1718053701,"current_range_meters":1600,"station_id":"ce4bgih2rcd13ifvqba0","pricing_plan_id":"cebpf4jnsgd1na2vs0mg"},{"bike_id":"91002a2b-1d8e-4a25-a06a-bdc417fad9c3","system_id":"levelo_inurba_marseille","lat":43.29529,"lon":5.385581,"is_reserved":false,"is_disabled":false,"rental_uris":{"android":"levelo://app?vid=91002a2b-1d8e-4a25-a06a-bdc417fad9c3","ios":"levelo://app?vid=91002a2b-1d8e-4a25-a06a-bdc417fad9c3"},"vehicle_type_id":"4","last_reported":1718053701,"current_range_meters":27200,"station_id":"ce4bgih2rcd13ifvqba0","pricing_plan_id":"cebpf4jnsgd1na2vs0mg"},{"bike_id":"7cd2fe79-ceec-429f-9a85-2cd4df16fb1e","system_id":"levelo_inurba_marseille","lat":43.29529,"lon":5.385581,"is_reserved":false,"is_disabled":false,"rental_uris":{"android":"levelo://app?vid=7cd2fe79-ceec-429f-9a85-2cd4df16fb1e","ios":"levelo://app?vid=7cd2fe79-ceec-429f-9a85-2cd4df16fb1e"},"vehicle_type_id":"4","last_reported":1718053701,"current_range_meters":3600,"station_id":"ce4bgih2rcd13ifvqba0","pricing_plan_id":"cebpf4jnsgd1na2vs0mg"},{"bike_id":"014402b2-61f3-4489-9622-abfb28256d10","system_id":"levelo_inurba_marseille","lat":43.289184,"lon":5.366408,"is_reserved":false,"is_disabled":false,"rental_uris":{"android":"levelo://app?vid=014402b2-61f3-4489-9622-abfb28256d10","ios":"levelo://app?vid=014402b2-61f3-4489-9622-abfb28256d10"},"vehicle_type_id":"4","last_reported":1718053701,"current_range_meters":16800,"station_id":"ce4bhap2rcd13ifvqek0","pricing_plan_id":"cebpf4jnsgd1na2vs0mg"},{"bike_id":"69a79e3a-db16-4295-a2da-e3e877f1aa0c","system_id":"levelo_inurba_marseille","lat":43.302008,"lon":5.394694,"is_reserved":false,"is_disabled":false,"rental_uris":{"android":"levelo://app?vid=69a79e3a-db16-4295-a2da-e3e877f1aa0c","ios":"levelo://app?vid=69a79e3a-db16-4295-a2da-e3e877f1aa0c"},"vehicle_type_id":"4","last_reported":1718053701,"current_range_meters":14400,"station_id":"ce4bh0p2rcd13ifvqd70","pricing_plan_id":"cebpf4jnsgd1na2vs0mg"},{"bike_id":"ffbf2609-65b5-4d5d-bc56-1451242d12d9","system_id":"levelo_inurba_marseille","lat":43.302008,"lon":5.394694,"is_reserved":false,"is_disabled":false,"rental_uris":{"android":"levelo://app?vid=ffbf2609-65b5-4d5d-bc56-1451242d12d9","ios":"levelo://app?vid=ffbf2609-65b5-4d5d-bc56-1451242d12d9"},"vehicle_type_id":"4","last_reported":1718053701,"current_range_meters":12000,"station_id":"ce4bh0p2rcd13ifvqd70","pricing_plan_id":"cebpf4jnsgd1na2vs0mg"},{"bike_id":"138b9583-7da7-45f4-8144-7cf4a4851612","system_id":"levelo_inurba_marseille","lat":43.302008,"lon":5.394694,"is_reserved":false,"is_disabled":false,"rental_uris":{"android":"levelo://app?vid=138b9583-7da7-45f4-8144-7cf4a4851612","ios":"levelo://app?vid=138b9583-7da7-45f4-8144-7cf4a4851612"},"vehicle_type_id":"4","last_reported":1718053701,"current_range_meters":28000,"station_id":"ce4bh0p2rcd13ifvqd70","pricing_plan_id":"cebpf4jnsgd1na2vs0mg"},{"bike_id":"adb64657-e10b-4d16-84d9-3fd58158a584","system_id":"levelo_inurba_marseille","lat":43.302008,"lon":5.394694,"is_reserved":false,"is_disabled":false,"rental_uris":{"android":"levelo://app?vid=adb64657-e10b-4d16-84d9-3fd58158a584","ios":"levelo://app?vid=adb64657-e10b-4d16-84d9-3fd58158a584"},"vehicle_type_id":"4","last_reported":1718053701,"current_range_meters":23600,"station_id":"ce4bh0p2rcd13ifvqd70","pricing_plan_id":"cebpf4jnsgd1na2vs0mg"},{"bike_id":"fb50e090-e84d-4530-9005-35b0d1d15b48","system_id":"levelo_inurba_marseille","lat":43.302008,"lon":5.394694,"is_reserved":false,"is_disabled":false,"rental_uris":{"android":"levelo://app?vid=fb50e090-e84d-4530-9005-35b0d1d15b48","ios":"levelo://app?vid=fb50e090-e84d-4530-9005-35b0d1d15b48"},"vehicle_type_id":"4","last_reported":1718053701,"current_range_meters":26800,"station_id":"ce4bh0p2rcd13ifvqd70","pricing_plan_id":"cebpf4jnsgd1na2vs0mg"},{"bike_id":"ec52c502-9fd2-46e8-ac64-0455244880fc","system_id":"levelo_inurba_marseille","lat":43.302008,"lon":5.394694,"is_reserved":false,"is_disabled":false,"rental_uris":{"android":"levelo://app?vid=ec52c502-9fd2-46e8-ac64-0455244880fc","ios":"levelo://app?vid=ec52c502-9fd2-46e8-ac64-0455244880fc"},"vehicle_type_id":"4","last_reported":1718053701,"current_range_meters":31600,"station_id":"ce4bh0p2rcd13ifvqd70","pricing_plan_id":"cebpf4jnsgd1na2vs0mg"},{"bike_id":"bbbd52b5-02c5-498a-bbce-87ed1b386626","system_id":"levelo_inurba_marseille","lat":43.289184,"lon":5.366408,"is_reserved":false,"is_disabled":false,"rental_uris":{"android":"levelo://app?vid=bbbd52b5-02c5-498a-bbce-87ed1b386626","ios":"levelo://app?vid=bbbd52b5-02c5-498a-bbce-87ed1b386626"},"vehicle_type_id":"4","last_reported":1718053701,"current_range_meters":6800,"station_id":"ce4bhap2rcd13ifvqek0","pricing_plan_id":"cebpf4jnsgd1na2vs0mg"},{"bike_id":"9e73f75b-2d6a-4ca0-ab74-fea00240fadb","system_id":"levelo_inurba_marseille","lat":43.294162,"lon":5.386292,"is_reserved":false,"is_disabled":false,"rental_uris":{"android":"levelo://app?vid=9e73f75b-2d6a-4ca0-ab74-fea00240fadb","ios":"levelo://app?vid=9e73f75b-2d6a-4ca0-ab74-fea00240fadb"},"vehicle_type_id":"4","last_reported":1718053701,"current_range_meters":4800,"station_id":"ce4bh2h2rcd13ifvqdh0","pricing_plan_id":"cebpf4jnsgd1na2vs0mg"},{"bike_id":"000e3509-45de-48fa-ab87-55b0addd3431","system_id":"levelo_inurba_marseille","lat":43.290327,"lon":5.375711,"is_reserved":false,"is_disabled":false,"rental_uris":{"android":"levelo://app?vid=000e3509-45de-48fa-ab87-55b0addd3431","ios":"levelo://app?vid=000e3509-45de-48fa-ab87-55b0addd3431"},"vehicle_type_id":"4","last_reported":1718053701,"current_range_meters":26400,"station_id":"ce4bh692rcd13ifvqe90","pricing_plan_id":"cebpf4jnsgd1na2vs0mg"},{"bike_id":"978a4f50-6aea-44ff-bd32-0b5778623e93","system_id":"levelo_inurba_marseille","lat":43.289468,"lon":5.363719,"is_reserved":false,"is_disabled":false,"rental_uris":{"android":"levelo://app?vid=978a4f50-6aea-44ff-bd32-0b5778623e93","ios":"levelo://app?vid=978a4f50-6aea-44ff-bd32-0b5778623e93"},"vehicle_type_id":"4","last_reported":1718053701,"current_range_meters":17200,"station_id":"ce4bhc92rcd13ifvqetg","pricing_plan_id":"cebpf4jnsgd1na2vs0mg"},{"bike_id":"f6c0a1af-cc31-4c37-bb4f-c1fffca654e1","system_id":"levelo_inurba_marseille","lat":43.28942,"lon":5.36636,"is_reserved":false,"is_disabled":false,"rental_uris":{"android":"levelo://app?vid=f6c0a1af-cc31-4c37-bb4f-c1fffca654e1","ios":"levelo://app?vid=f6c0a1af-cc31-4c37-bb4f-c1fffca654e1"},"vehicle_type_id":"4","last_reported":1718053701,"current_range_meters":22400,"station_id":"ce4bhap2rcd13ifvqek0","pricing_plan_id":"cebpf4jnsgd1na2vs0mg"},{"bike_id":"2d078f5e-4129-4e10-ae5d-825f1d9b4b4c","system_id":"levelo_inurba_marseille","lat":43.289468,"lon":5.363719,"is_reserved":false,"is_disabled":false,"rental_uris":{"android":"levelo://app?vid=2d078f5e-4129-4e10-ae5d-825f1d9b4b4c","ios":"levelo://app?vid=2d078f5e-4129-4e10-ae5d-825f1d9b4b4c"},"vehicle_type_id":"4","last_reported":1718053701,"current_range_meters":31200,"station_id":"ce4bhc92rcd13ifvqetg","pricing_plan_id":"cebpf4jnsgd1na2vs0mg"},{"bike_id":"43d5dff9-0fb1-473f-a9cc-fa7f9203d1a9","system_id":"levelo_inurba_marseille","lat":43.289184,"lon":5.366408,"is_reserved":false,"is_disabled":false,"rental_uris":{"android":"levelo://app?vid=43d5dff9-0fb1-473f-a9cc-fa7f9203d1a9","ios":"levelo://app?vid=43d5dff9-0fb1-473f-a9cc-fa7f9203d1a9"},"vehicle_type_id":"4","last_reported":1718053701,"current_range_meters":24400,"station_id":"ce4bhap2rcd13ifvqek0","pricing_plan_id":"cebpf4jnsgd1na2vs0mg"},{"bike_id":"a6207a68-ac23-4859-b2bd-50f751d2b27d","system_id":"levelo_inurba_marseille","lat":43.28942,"lon":5.3634,"is_reserved":false,"is_disabled":false,"rental_uris":{"android":"levelo://app?vid=a6207a68-ac23-4859-b2bd-50f751d2b27d","ios":"levelo://app?vid=a6207a68-ac23-4859-b2bd-50f751d2b27d"},"vehicle_type_id":"4","last_reported":1718053701,"current_range_meters":13200,"station_id":"ce4bh412rcd13ifvqdr0","pricing_plan_id":"cebpf4jnsgd1na2vs0mg"},{"bike_id":"f1262567-327f-4a0d-bd91-cc8c6ac48f9b","system_id":"levelo_inurba_marseille","lat":43.289468,"lon":5.363719,"is_reserved":false,"is_disabled":false,"rental_uris":{"android":"levelo://app?vid=f1262567-327f-4a0d-bd91-cc8c6ac48f9b","ios":"levelo://app?vid=f1262567-327f-4a0d-bd91-cc8c6ac48f9b"},"vehicle_type_id":"4","last_reported":1718053701,"current_range_meters":31200,"station_id":"ce4bhc92rcd13ifvqetg","pricing_plan_id":"cebpf4jnsgd1na2vs0mg"},{"bike_id":"1480a11b-c629-47d8-ad61-70b303349c45","system_id":"levelo_inurba_marseille","lat":43.290383,"lon":5.377193,"is_reserved":false,"is_disabled":false,"rental_uris":{"android":"levelo://app?vid=1480a11b-c629-47d8-ad61-70b303349c45","ios":"levelo://app?vid=1480a11b-c629-47d8-ad61-70b303349c45"},"vehicle_type_id":"4","last_reported":1718053701,"current_range_meters":19200,"station_id":"","pricing_plan_id":"cebpf4jnsgd1na2vs0mg"},{"bike_id":"8fe8cb2f-69d0-465e-82a8-fb8d4d333452","system_id":"levelo_inurba_marseille","lat":43.28727,"lon":5.36078,"is_reserved":false,"is_disabled":false,"rental_uris":{"android":"levelo://app?vid=8fe8cb2f-69d0-465e-82a8-fb8d4d333452","ios":"levelo://app?vid=8fe8cb2f-69d0-465e-82a8-fb8d4d333452"},"vehicle_type_id":"4","last_reported":1718053701,"current_range_meters":10000,"station_id":"cki0cbj6b192h4jlfktg","pricing_plan_id":"cebpf4jnsgd1na2vs0mg"},{"bike_id":"6591b536-df95-4422-8635-2e57134f15f6","system_id":"levelo_inurba_marseille","lat":43.304296,"lon":5.397513,"is_reserved":false,"is_disabled":false,"rental_uris":{"android":"levelo://app?vid=6591b536-df95-4422-8635-2e57134f15f6","ios":"levelo://app?vid=6591b536-df95-4422-8635-2e57134f15f6"},"vehicle_type_id":"4","last_reported":1718053701,"current_range_meters":7600,"station_id":"ce4bh092rcd13ifvqd20","pricing_plan_id":"cebpf4jnsgd1na2vs0mg"},{"bike_id":"d5b38f17-c8fe-445f-8ed6-52cdf92a6224","system_id":"levelo_inurba_marseille","lat":43.283494,"lon":5.380945,"is_reserved":false,"is_disabled":false,"rental_uris":{"android":"levelo://app?vid=d5b38f17-c8fe-445f-8ed6-52cdf92a6224","ios":"levelo://app?vid=d5b38f17-c8fe-445f-8ed6-52cdf92a6224"},"vehicle_type_id":"4","last_reported":1718053701,"current_range_meters":26800,"station_id":"ce4bh412rcd13ifvqdr0","pricing_plan_id":"cebpf4jnsgd1na2vs0mg"},{"bike_id":"3da82be9-6050-4c08-95d5-5a7d2245d12d","system_id":"levelo_inurba_marseille","lat":43.304296,"lon":5.397513,"is_reserved":false,"is_disabled":false,"rental_uris":{"android":"levelo://app?vid=3da82be9-6050-4c08-95d5-5a7d2245d12d","ios":"levelo://app?vid=3da82be9-6050-4c08-95d5-5a7d2245d12d"},"vehicle_type_id":"4","last_reported":1718053701,"current_range_meters":20000,"station_id":"ce4bh092rcd13ifvqd20","pricing_plan_id":"cebpf4jnsgd1na2vs0mg"},{"bike_id":"c1b4a034-8a9b-4209-9b44-7c7567fd88b6","system_id":"levelo_inurba_marseille","lat":43.304296,"lon":5.397513,"is_reserved":false,"is_disabled":false,"rental_uris":{"android":"levelo://app?vid=c1b4a034-8a9b-4209-9b44-7c7567fd88b6","ios":"levelo://app?vid=c1b4a034-8a9b-4209-9b44-7c7567fd88b6"},"vehicle_type_id":"4","last_reported":1718053701,"current_range_meters":22400,"station_id":"ce4bh092rcd13ifvqd20","pricing_plan_id":"cebpf4jnsgd1na2vs0mg"},{"bike_id":"f9d347bf-88ee-4e9d-a1f6-101820af9123","system_id":"levelo_inurba_marseille","lat":43.304296,"lon":5.397513,"is_reserved":false,"is_disabled":false,"rental_uris":{"android":"levelo://app?vid=f9d347bf-88ee-4e9d-a1f6-101820af9123","ios":"levelo://app?vid=f9d347bf-88ee-4e9d-a1f6-101820af9123"},"vehicle_type_id":"4","last_reported":1718053701,"current_range_meters":20400,"station_id":"ce4bh092rcd13ifvqd20","pricing_plan_id":"cebpf4jnsgd1na2vs0mg"},{"bike_id":"48a1a1cf-f474-4492-a1ee-e981d26bcfec","system_id":"levelo_inurba_marseille","lat":43.304274,"lon":5.397513,"is_reserved":false,"is_disabled":false,"rental_uris":{"android":"levelo://app?vid=48a1a1cf-f474-4492-a1ee-e981d26bcfec","ios":"levelo://app?vid=48a1a1cf-f474-4492-a1ee-e981d26bcfec"},"vehicle_type_id":"4","last_reported":1718053701,"current_range_meters":16400,"station_id":"ce4bh092rcd13ifvqd20","pricing_plan_id":"cebpf4jnsgd1na2vs0mg"},{"bike_id":"09ced65b-3a3b-4bd3-90d2-b369959bc81b","system_id":"levelo_inurba_marseille","lat":43.330442,"lon":5.389148,"is_reserved":false,"is_disabled":false,"rental_uris":{"android":"levelo://app?vid=09ced65b-3a3b-4bd3-90d2-b369959bc81b","ios":"levelo://app?vid=09ced65b-3a3b-4bd3-90d2-b369959bc81b"},"vehicle_type_id":"4","last_reported":1718053701,"current_range_meters":23200,"station_id":"ce4bhr92rcd13ifvqhrg","pricing_plan_id":"cebpf4jnsgd1na2vs0mg"},{"bike_id":"c018c82e-f6b2-4138-b037-4e05432a5add","system_id":"levelo_inurba_marseille","lat":43.295713,"lon":5.399639,"is_reserved":false,"is_disabled":false,"rental_uris":{"android":"levelo://app?vid=c018c82e-f6b2-4138-b037-4e05432a5add","ios":"levelo://app?vid=c018c82e-f6b2-4138-b037-4e05432a5add"},"vehicle_type_id":"4","last_reported":1718053701,"current_range_meters":4800,"station_id":"ce4bh312rcd13ifvqdj0","pricing_plan_id":"cebpf4jnsgd1na2vs0mg"},{"bike_id":"0bfd015e-dc20-44bf-b163-d9e76c721a3f","system_id":"levelo_inurba_marseille","lat":43.292642,"lon":5.384254,"is_reserved":false,"is_disabled":false,"rental_uris":{"android":"levelo://app?vid=0bfd015e-dc20-44bf-b163-d9e76c721a3f","ios":"levelo://app?vid=0bfd015e-dc20-44bf-b163-d9e76c721a3f"},"vehicle_type_id":"4","last_reported":1718053701,"current_range_meters":16800,"station_id":"ce4bh692rcd13ifvqea0","pricing_plan_id":"cebpf4jnsgd1na2vs0mg"},{"bike_id":"cfdb7b80-3a2f-4e9e-8d30-d331d100284f","system_id":"levelo_inurba_marseille","lat":43.292642,"lon":5.384254,"is_reserved":false,"is_disabled":false,"rental_uris":{"android":"levelo://app?vid=cfdb7b80-3a2f-4e9e-8d30-d331d100284f","ios":"levelo://app?vid=cfdb7b80-3a2f-4e9e-8d30-d331d100284f"},"vehicle_type_id":"4","last_reported":1718053701,"current_range_meters":0,"station_id":"ce4bh692rcd13ifvqea0","pricing_plan_id":"cebpf4jnsgd1na2vs0mg"},{"bike_id":"c5e7a4c0-7106-4428-8cc1-0f86a2aae108","system_id":"levelo_inurba_marseille","lat":43.29008,"lon":5.356247,"is_reserved":false,"is_disabled":false,"rental_uris":{"android":"levelo://app?vid=c5e7a4c0-7106-4428-8cc1-0f86a2aae108","ios":"levelo://app?vid=c5e7a4c0-7106-4428-8cc1-0f86a2aae108"},"vehicle_type_id":"4","last_reported":1718053701,"current_range_meters":30000,"station_id":"ce4bhb92rcd13ifvqen0","pricing_plan_id":"cebpf4jnsgd1na2vs0mg"},{"bike_id":"b50e9d10-c4c7-417e-bf20-e371a39f28f0","system_id":"levelo_inurba_marseille","lat":43.29006,"lon":5.35614,"is_reserved":false,"is_disabled":false,"rental_uris":{"android":"levelo://app?vid=b50e9d10-c4c7-417e-bf20-e371a39f28f0","ios":"levelo://app?vid=b50e9d10-c4c7-417e-bf20-e371a39f28f0"},"vehicle_type_id":"4","last_reported":1718053701,"current_range_meters":30400,"station_id":"ce4bhb92rcd13ifvqen0","pricing_plan_id":"cebpf4jnsgd1na2vs0mg"},{"bike_id":"3fbca34b-c0b5-4008-ae3c-e59cf6ce8dfc","system_id":"levelo_inurba_marseille","lat":43.29794,"lon":5.39335,"is_reserved":false,"is_disabled":false,"rental_uris":{"android":"levelo://app?vid=3fbca34b-c0b5-4008-ae3c-e59cf6ce8dfc","ios":"levelo://app?vid=3fbca34b-c0b5-4008-ae3c-e59cf6ce8dfc"},"vehicle_type_id":"4","last_reported":1718053701,"current_range_meters":26400,"station_id":"chh1huq6cuj3fo74tm60","pricing_plan_id":"cebpf4jnsgd1na2vs0mg"},{"bike_id":"fbd7664b-70b1-4dfc-b413-921861083597","system_id":"levelo_inurba_marseille","lat":43.29797,"lon":5.39341,"is_reserved":false,"is_disabled":false,"rental_uris":{"android":"levelo://app?vid=fbd7664b-70b1-4dfc-b413-921861083597","ios":"levelo://app?vid=fbd7664b-70b1-4dfc-b413-921861083597"},"vehicle_type_id":"4","last_reported":1718053701,"current_range_meters":11200,"station_id":"chh1huq6cuj3fo74tm60","pricing_plan_id":"cebpf4jnsgd1na2vs0mg"},{"bike_id":"21aeebc7-e0e6-44e7-b7f3-66b199236738","system_id":"levelo_inurba_marseille","lat":43.29792,"lon":5.39339,"is_reserved":false,"is_disabled":false,"rental_uris":{"android":"levelo://app?vid=21aeebc7-e0e6-44e7-b7f3-66b199236738","ios":"levelo://app?vid=21aeebc7-e0e6-44e7-b7f3-66b199236738"},"vehicle_type_id":"4","last_reported":1718053701,"current_range_meters":17200,"station_id":"chh1huq6cuj3fo74tm60","pricing_plan_id":"cebpf4jnsgd1na2vs0mg"},{"bike_id":"2f7ded5b-c7f6-4651-a586-d8db7db17b8f","system_id":"levelo_inurba_marseille","lat":43.29796,"lon":5.39344,"is_reserved":false,"is_disabled":false,"rental_uris":{"android":"levelo://app?vid=2f7ded5b-c7f6-4651-a586-d8db7db17b8f","ios":"levelo://app?vid=2f7ded5b-c7f6-4651-a586-d8db7db17b8f"},"vehicle_type_id":"4","last_reported":1718053701,"current_range_meters":25600,"station_id":"chh1huq6cuj3fo74tm60","pricing_plan_id":"cebpf4jnsgd1na2vs0mg"},{"bike_id":"7f130060-66fd-4f5b-be4a-9a5c30404765","system_id":"levelo_inurba_marseille","lat":43.297815,"lon":5.393548,"is_reserved":false,"is_disabled":false,"rental_uris":{"android":"levelo://app?vid=7f130060-66fd-4f5b-be4a-9a5c30404765","ios":"levelo://app?vid=7f130060-66fd-4f5b-be4a-9a5c30404765"},"vehicle_type_id":"4","last_reported":1718053701,"current_range_meters":11200,"station_id":"chh1huq6cuj3fo74tm60","pricing_plan_id":"cebpf4jnsgd1na2vs0mg"},{"bike_id":"171c36df-4f0d-46a3-b0eb-a94e2f4ea9ba","system_id":"levelo_inurba_marseille","lat":43.295169,"lon":5.390426,"is_reserved":false,"is_disabled":false,"rental_uris":{"android":"levelo://app?vid=171c36df-4f0d-46a3-b0eb-a94e2f4ea9ba","ios":"levelo://app?vid=171c36df-4f0d-46a3-b0eb-a94e2f4ea9ba"},"vehicle_type_id":"4","last_reported":1718053701,"current_range_meters":25200,"station_id":"ce4bh3p2rcd13ifvqdp0","pricing_plan_id":"cebpf4jnsgd1na2vs0mg"},{"bike_id":"d57b0040-dbd6-4ea1-895e-f1b0962de6d3","system_id":"levelo_inurba_marseille","lat":43.295169,"lon":5.390426,"is_reserved":false,"is_disabled":false,"rental_uris":{"android":"levelo://app?vid=d57b0040-dbd6-4ea1-895e-f1b0962de6d3","ios":"levelo://app?vid=d57b0040-dbd6-4ea1-895e-f1b0962de6d3"},"vehicle_type_id":"4","last_reported":1718053701,"current_range_meters":25600,"station_id":"ce4bh3p2rcd13ifvqdp0","pricing_plan_id":"cebpf4jnsgd1na2vs0mg"},{"bike_id":"b145480b-4fa6-4512-b15f-87e65b2f59f2","system_id":"levelo_inurba_marseille","lat":43.289741,"lon":5.378306,"is_reserved":false,"is_disabled":false,"rental_uris":{"android":"levelo://app?vid=b145480b-4fa6-4512-b15f-87e65b2f59f2","ios":"levelo://app?vid=b145480b-4fa6-4512-b15f-87e65b2f59f2"},"vehicle_type_id":"4","last_reported":1718053701,"current_range_meters":9600,"station_id":"ce4bh9p2rcd13ifvqed0","pricing_plan_id":"cebpf4jnsgd1na2vs0mg"},{"bike_id":"d4b547bb-47ab-4884-a9a7-b009a994b353","system_id":"levelo_inurba_marseille","lat":43.297704,"lon":5.393423,"is_reserved":false,"is_disabled":false,"rental_uris":{"android":"levelo://app?vid=d4b547bb-47ab-4884-a9a7-b009a994b353","ios":"levelo://app?vid=d4b547bb-47ab-4884-a9a7-b009a994b353"},"vehicle_type_id":"4","last_reported":1718053701,"current_range_meters":12000,"station_id":"chh1huq6cuj3fo74tm60","pricing_plan_id":"cebpf4jnsgd1na2vs0mg"},{"bike_id":"70264595-be5e-4274-830c-762bec69e2d2","system_id":"levelo_inurba_marseille","lat":43.330442,"lon":5.389148,"is_reserved":false,"is_disabled":false,"rental_uris":{"android":"levelo://app?vid=70264595-be5e-4274-830c-762bec69e2d2","ios":"levelo://app?vid=70264595-be5e-4274-830c-762bec69e2d2"},"vehicle_type_id":"4","last_reported":1718053701,"current_range_meters":14000,"station_id":"ce4bhr92rcd13ifvqhrg","pricing_plan_id":"cebpf4jnsgd1na2vs0mg"},{"bike_id":"b92e8af7-d4a3-411c-aa8f-ed7039aa7fc1","system_id":"levelo_inurba_marseille","lat":43.33028,"lon":5.3904,"is_reserved":false,"is_disabled":false,"rental_uris":{"android":"levelo://app?vid=b92e8af7-d4a3-411c-aa8f-ed7039aa7fc1","ios":"levelo://app?vid=b92e8af7-d4a3-411c-aa8f-ed7039aa7fc1"},"vehicle_type_id":"4","last_reported":1718053701,"current_range_meters":0,"station_id":"ce4bhr92rcd13ifvqhrg","pricing_plan_id":"cebpf4jnsgd1na2vs0mg"},{"bike_id":"2329d47a-1be4-41bd-95b4-5129d296a1c4","system_id":"levelo_inurba_marseille","lat":43.330442,"lon":5.389148,"is_reserved":false,"is_disabled":false,"rental_uris":{"android":"levelo://app?vid=2329d47a-1be4-41bd-95b4-5129d296a1c4","ios":"levelo://app?vid=2329d47a-1be4-41bd-95b4-5129d296a1c4"},"vehicle_type_id":"4","last_reported":1718053701,"current_range_meters":20000,"station_id":"ce4bhr92rcd13ifvqhrg","pricing_plan_id":"cebpf4jnsgd1na2vs0mg"},{"bike_id":"39697bd0-69d4-43ec-b760-b2153ee2342c","system_id":"levelo_inurba_marseille","lat":43.33029,"lon":5.39043,"is_reserved":false,"is_disabled":false,"rental_uris":{"android":"levelo://app?vid=39697bd0-69d4-43ec-b760-b2153ee2342c","ios":"levelo://app?vid=39697bd0-69d4-43ec-b760-b2153ee2342c"},"vehicle_type_id":"4","last_reported":1718053701,"current_range_meters":17600,"station_id":"ce4bhr92rcd13ifvqhrg","pricing_plan_id":"cebpf4jnsgd1na2vs0mg"},{"bike_id":"cfa63151-9e1d-4d5a-bde6-e9c7530578a5","system_id":"levelo_inurba_marseille","lat":43.290995,"lon":5.381361,"is_reserved":false,"is_disabled":false,"rental_uris":{"android":"levelo://app?vid=cfa63151-9e1d-4d5a-bde6-e9c7530578a5","ios":"levelo://app?vid=cfa63151-9e1d-4d5a-bde6-e9c7530578a5"},"vehicle_type_id":"4","last_reported":1718053701,"current_range_meters":7600,"station_id":"ce4bh512rcd13ifvqe2g","pricing_plan_id":"cebpf4jnsgd1na2vs0mg"},{"bike_id":"6ce9b677-f92b-4691-a876-51796d62ef6e","system_id":"levelo_inurba_marseille","lat":43.297815,"lon":5.393548,"is_reserved":false,"is_disabled":false,"rental_uris":{"android":"levelo://app?vid=6ce9b677-f92b-4691-a876-51796d62ef6e","ios":"levelo://app?vid=6ce9b677-f92b-4691-a876-51796d62ef6e"},"vehicle_type_id":"4","last_reported":1718053701,"current_range_meters":30400,"station_id":"chh1huq6cuj3fo74tm60","pricing_plan_id":"cebpf4jnsgd1na2vs0mg"},{"bike_id":"b9918d2f-1ba6-4ba3-94cf-d427dc9a4ee5","system_id":"levelo_inurba_marseille","lat":43.2901,"lon":5.381269,"is_reserved":false,"is_disabled":false,"rental_uris":{"android":"levelo://app?vid=b9918d2f-1ba6-4ba3-94cf-d427dc9a4ee5","ios":"levelo://app?vid=b9918d2f-1ba6-4ba3-94cf-d427dc9a4ee5"},"vehicle_type_id":"4","last_reported":1718053701,"current_range_meters":12800,"station_id":"ce4bh4p2rcd13ifvqe1g","pricing_plan_id":"cebpf4jnsgd1na2vs0mg"},{"bike_id":"3f46d27a-4b3e-40a1-bbff-026a8e7cac08","system_id":"levelo_inurba_marseille","lat":43.290217,"lon":5.381343,"is_reserved":false,"is_disabled":false,"rental_uris":{"android":"levelo://app?vid=3f46d27a-4b3e-40a1-bbff-026a8e7cac08","ios":"levelo://app?vid=3f46d27a-4b3e-40a1-bbff-026a8e7cac08"},"vehicle_type_id":"4","last_reported":1718053701,"current_range_meters":0,"station_id":"ce4bh4p2rcd13ifvqe1g","pricing_plan_id":"cebpf4jnsgd1na2vs0mg"},{"bike_id":"039501e9-2508-4e11-a8c6-be09752014b5","system_id":"levelo_inurba_marseille","lat":43.2901,"lon":5.381269,"is_reserved":false,"is_disabled":false,"rental_uris":{"android":"levelo://app?vid=039501e9-2508-4e11-a8c6-be09752014b5","ios":"levelo://app?vid=039501e9-2508-4e11-a8c6-be09752014b5"},"vehicle_type_id":"4","last_reported":1718053701,"current_range_meters":13600,"station_id":"ce4bh4p2rcd13ifvqe1g","pricing_plan_id":"cebpf4jnsgd1na2vs0mg"},{"bike_id":"3c0324c5-c393-43fa-8dcd-aa986d88a712","system_id":"levelo_inurba_marseille","lat":43.29195,"lon":5.38593,"is_reserved":false,"is_disabled":false,"rental_uris":{"android":"levelo://app?vid=3c0324c5-c393-43fa-8dcd-aa986d88a712","ios":"levelo://app?vid=3c0324c5-c393-43fa-8dcd-aa986d88a712"},"vehicle_type_id":"4","last_reported":1718053701,"current_range_meters":15200,"station_id":"","pricing_plan_id":"cebpf4jnsgd1na2vs0mg"},{"bike_id":"fb7085d3-3f82-46a8-9b03-a98e60ae3b5a","system_id":"levelo_inurba_marseille","lat":43.312609,"lon":5.401662,"is_reserved":false,"is_disabled":false,"rental_uris":{"android":"levelo://app?vid=fb7085d3-3f82-46a8-9b03-a98e60ae3b5a","ios":"levelo://app?vid=fb7085d3-3f82-46a8-9b03-a98e60ae3b5a"},"vehicle_type_id":"4","last_reported":1718053701,"current_range_meters":29200,"station_id":"ce4bh092rcd13ifvqd30","pricing_plan_id":"cebpf4jnsgd1na2vs0mg"},{"bike_id":"cafff717-c543-44d1-bfd3-19307a408223","system_id":"levelo_inurba_marseille","lat":43.312609,"lon":5.401662,"is_reserved":false,"is_disabled":false,"rental_uris":{"android":"levelo://app?vid=cafff717-c543-44d1-bfd3-19307a408223","ios":"levelo://app?vid=cafff717-c543-44d1-bfd3-19307a408223"},"vehicle_type_id":"4","last_reported":1718053701,"current_range_meters":18000,"station_id":"ce4bh092rcd13ifvqd30","pricing_plan_id":"cebpf4jnsgd1na2vs0mg"},{"bike_id":"b17e867e-c0f6-49c1-b91a-7b354ca6d67b","system_id":"levelo_inurba_marseille","lat":43.337444,"lon":5.374475,"is_reserved":false,"is_disabled":false,"rental_uris":{"android":"levelo://app?vid=b17e867e-c0f6-49c1-b91a-7b354ca6d67b","ios":"levelo://app?vid=b17e867e-c0f6-49c1-b91a-7b354ca6d67b"},"vehicle_type_id":"4","last_reported":1718053701,"current_range_meters":30400,"station_id":"","pricing_plan_id":"cebpf4jnsgd1na2vs0mg"},{"bike_id":"44a52d53-2225-4c7d-9bfe-2b2d5d78894b","system_id":"levelo_inurba_marseille","lat":43.309371,"lon":5.401449,"is_reserved":false,"is_disabled":false,"rental_uris":{"android":"levelo://app?vid=44a52d53-2225-4c7d-9bfe-2b2d5d78894b","ios":"levelo://app?vid=44a52d53-2225-4c7d-9bfe-2b2d5d78894b"},"vehicle_type_id":"4","last_reported":1718053701,"current_range_meters":2400,"station_id":"ce4bgvp2rcd13ifvqct0","pricing_plan_id":"cebpf4jnsgd1na2vs0mg"},{"bike_id":"bbe016a4-fa21-468a-b39a-032a173376cb","system_id":"levelo_inurba_marseille","lat":43.309371,"lon":5.401449,"is_reserved":false,"is_disabled":false,"rental_uris":{"android":"levelo://app?vid=bbe016a4-fa21-468a-b39a-032a173376cb","ios":"levelo://app?vid=bbe016a4-fa21-468a-b39a-032a173376cb"},"vehicle_type_id":"4","last_reported":1718053701,"current_range_meters":22000,"station_id":"ce4bgvp2rcd13ifvqct0","pricing_plan_id":"cebpf4jnsgd1na2vs0mg"},{"bike_id":"65f77974-ca0b-46f8-bcb2-323fe58a2ce1","system_id":"levelo_inurba_marseille","lat":43.309371,"lon":5.401449,"is_reserved":false,"is_disabled":false,"rental_uris":{"android":"levelo://app?vid=65f77974-ca0b-46f8-bcb2-323fe58a2ce1","ios":"levelo://app?vid=65f77974-ca0b-46f8-bcb2-323fe58a2ce1"},