{"last_updated":1753726615,"ttl":60,"version":"2.2","data":{"bikes":[{"bike_id":"33eda914-31bb-4b5a-adb5-07e53fd6583f","system_id":"levelo_inurba_marseille","lat":43.32339,"lon":5.36734,"is_reserved":false,"is_disabled":false,"rental_uris":{"android":"levelo://app?vid=33eda914-31bb-4b5a-adb5-07e53fd6583f","ios":"levelo://app?vid=33eda914-31bb-4b5a-adb5-07e53fd6583f"},"vehicle_type_id":"4","last_reported":1753726615,"current_range_meters":2800,"station_id":"ce4bhsh2rcd13ifvqi2g","pricing_plan_id":"cebpf4jnsgd1na2vs0mg"},{"bike_id":"c93dcea9-56ac-472f-882e-5b9620a7dd8b","system_id":"levelo_inurba_marseille","lat":43.26202,"lon":5.3793,"is_reserved":false,"is_disabled":false,"rental_uris":{"android":"levelo://app?vid=c93dcea9-56ac-472f-882e-5b9620a7dd8b","ios":"levelo://app?vid=c93dcea9-56ac-472f-882e-5b9620a7dd8b"},"vehicle_type_id":"4","last_reported":1753726615,"current_range_meters":2800,"station_id":"ce4bhjp2rcd13ifvqg90","pricing_plan_id":"cebpf4jnsgd1na2vs0mg"},{"bike_id":"70c05a8e-3202-4c7e-822b-51955b1d1462","system_id":"levelo_inurba_marseille","lat":43.24076,"lon":5.37756,"is_reserved":false,"is_disabled":false,"rental_uris":{"android":"levelo://app?vid=70c05a8e-3202-4c7e-822b-51955b1d1462","ios":"levelo://app?vid=70c05a8e-3202-4c7e-822b-51955b1d1462"},"vehicle_type_id":"4","last_reported":1753726615,"current_range_meters":2800,"station_id":"ce4bhnp2rcd13ifvqgvg","pricing_plan_id":"cebpf4jnsgd1na2vs0mg"},{"bike_id":"74f39557-f7a9-44ac-999f-87f3652a57ba","system_id":"levelo_inurba_marseille","lat":43.30906,"lon":5.3684,"is_reserved":false,"is_disabled":false,"rental_uris":{"android":"levelo://app?vid=74f39557-f7a9-44ac-999f-87f3652a57ba","ios":"levelo://app?vid=74f39557-f7a9-44ac-999f-87f3652a57ba"},"vehicle_type_id":"4","last_reported":1753726615,"current_range_meters":3600,"station_id":"ce4bgn92rcd13ifvqbvg","pricing_plan_id":"cebpf4jnsgd1na2vs0mg"},{"bike_id":"042a8476-d3c4-476b-9557-f32c03e9d625","system_id":"levelo_inurba_marseille","lat":43.33948,"lon":5.35696,"is_reserved":false,"is_disabled":false,"rental_uris":{"android":"levelo://app?vid=042a8476-d3c4-476b-9557-f32c03e9d625","ios":"levelo://app?vid=042a8476-d3c4-476b-9557-f32c03e9d625"},"vehicle_type_id":"4","last_reported":1753726615,"current_range_meters":3600,"station_id":"","pricing_plan_id":"cebpf4jnsgd1na2vs0mg"},{"bike_id":"e93b5b1a-31c9-4ad5-b9f2-f5b52c7aabbd","system_id":"levelo_inurba_marseille","lat":43.28154,"lon":5.42636,"is_reserved":false,"is_disabled":false,"rental_uris":{"android":"levelo://app?vid=e93b5b1a-31c9-4ad5-b9f2-f5b52c7aabbd","ios":"levelo://app?vid=e93b5b1a-31c9-4ad5-b9f2-f5b52c7aabbd"},"vehicle_type_id":"4","last_reported":1753726615,"current_range_meters":4000,"station_id":"ce4bhnh2rcd13ifvqgug","pricing_plan_id":"cebpf4jnsgd1na2vs0mg"},{"bike_id":"2caaf255-3aa0-41f2-8c83-4ceabbba9f09","system_id":"levelo_inurba_marseille","lat":43.28403,"lon":5.37511,"is_reserved":false,"is_disabled":false,"rental_uris":{"android":"levelo://app?vid=2caaf255-3aa0-41f2-8c83-4ceabbba9f09","ios":"levelo://app?vid=2caaf255-3aa0-41f2-8c83-4ceabbba9f09"},"vehicle_type_id":"4","last_reported":1753726615,"current_range_meters":4000,"station_id":"ce4bh412rcd13ifvqds0","pricing_plan_id":"cebpf4jnsgd1na2vs0mg"},{"bike_id":"09773cbf-3729-4177-aded-49eef1b02f4a","system_id":"levelo_inurba_marseille","lat":43.32504,"lon":5.3654,"is_reserved":false,"is_disabled":false,"rental_uris":{"android":"levelo://app?vid=09773cbf-3729-4177-aded-49eef1b02f4a","ios":"levelo://app?vid=09773cbf-3729-4177-aded-49eef1b02f4a"},"vehicle_type_id":"4","last_reported":1753726615,"current_range_meters":4400,"station_id":"ce4bhs12rcd13ifvqhvg","pricing_plan_id":"cebpf4jnsgd1na2vs0mg"},{"bike_id":"cfd954a5-e2d7-4986-8aef-ba5bf5bf4866","system_id":"levelo_inurba_marseille","lat":43.28931,"lon":5.36634,"is_reserved":false,"is_disabled":false,"rental_uris":{"android":"levelo://app?vid=cfd954a5-e2d7-4986-8aef-ba5bf5bf4866","ios":"levelo://app?vid=cfd954a5-e2d7-4986-8aef-ba5bf5bf4866"},"vehicle_type_id":"4","last_reported":1753726615,"current_range_meters":4400,"station_id":"ce4bhap2rcd13ifvqek0","pricing_plan_id":"cebpf4jnsgd1na2vs0mg"},{"bike_id":"8aa18e66-280a-4f01-b345-0fe49bf1c71a","system_id":"levelo_inurba_marseille","lat":43.28662,"lon":5.3635,"is_reserved":false,"is_disabled":false,"rental_uris":{"android":"levelo://app?vid=8aa18e66-280a-4f01-b345-0fe49bf1c71a","ios":"levelo://app?vid=8aa18e66-280a-4f01-b345-0fe49bf1c71a"},"vehicle_type_id":"4","last_reported":1753726615,"current_range_meters":4400,"station_id":"ce4bhah2rcd13ifvqej0","pricing_plan_id":"cebpf4jnsgd1na2vs0mg"},{"bike_id":"9386d615-0a51-4065-88a4-361471f71ca4","system_id":"levelo_inurba_marseille","lat":43.28941,"lon":5.36636,"is_reserved":false,"is_disabled":false,"rental_uris":{"android":"levelo://app?vid=9386d615-0a51-4065-88a4-361471f71ca4","ios":"levelo://app?vid=9386d615-0a51-4065-88a4-361471f71ca4"},"vehicle_type_id":"4","last_reported":1753726615,"current_range_meters":4400,"station_id":"ce4bhap2rcd13ifvqek0","pricing_plan_id":"cebpf4jnsgd1na2vs0mg"},{"bike_id":"949c4ccf-e13e-4298-9326-91cf3b7e1149","system_id":"levelo_inurba_marseille","lat":43.290318,"lon":5.386487,"is_reserved":false,"is_disabled":false,"rental_uris":{"android":"levelo://app?vid=949c4ccf-e13e-4298-9326-91cf3b7e1149","ios":"levelo://app?vid=949c4ccf-e13e-4298-9326-91cf3b7e1149"},"vehicle_type_id":"4","last_reported":1753726615,"current_range_meters":4800,"station_id":"ce4bh4p2rcd13ifvqe0g","pricing_plan_id":"cebpf4jnsgd1na2vs0mg"},{"bike_id":"89d63018-8ea0-4aad-9321-e1f15852ae1a","system_id":"levelo_inurba_marseille","lat":43.27171,"lon":5.4099,"is_reserved":false,"is_disabled":false,"rental_uris":{"android":"levelo://app?vid=89d63018-8ea0-4aad-9321-e1f15852ae1a","ios":"levelo://app?vid=89d63018-8ea0-4aad-9321-e1f15852ae1a"},"vehicle_type_id":"4","last_reported":1753726615,"current_range_meters":4800,"station_id":"ce4bhl12rcd13ifvqgf0","pricing_plan_id":"cebpf4jnsgd1na2vs0mg"},{"bike_id":"7e65c5ea-0429-45f5-a396-bd32e67f0744","system_id":"levelo_inurba_marseille","lat":43.33467,"lon":5.4004,"is_reserved":false,"is_disabled":false,"rental_uris":{"android":"levelo://app?vid=7e65c5ea-0429-45f5-a396-bd32e67f0744","ios":"levelo://app?vid=7e65c5ea-0429-45f5-a396-bd32e67f0744"},"vehicle_type_id":"4","last_reported":1753726615,"current_range_meters":4800,"station_id":"","pricing_plan_id":"cebpf4jnsgd1na2vs0mg"},{"bike_id":"de62a8a0-aff1-45b0-87a1-454591d21222","system_id":"levelo_inurba_marseille","lat":43.31266,"lon":5.40172,"is_reserved":false,"is_disabled":false,"rental_uris":{"android":"levelo://app?vid=de62a8a0-aff1-45b0-87a1-454591d21222","ios":"levelo://app?vid=de62a8a0-aff1-45b0-87a1-454591d21222"},"vehicle_type_id":"4","last_reported":1753726615,"current_range_meters":5600,"station_id":"ce4bh092rcd13ifvqd30","pricing_plan_id":"cebpf4jnsgd1na2vs0mg"},{"bike_id":"6d46428b-76ca-46cd-93c9-0f598e738444","system_id":"levelo_inurba_marseille","lat":43.26566,"lon":5.39003,"is_reserved":false,"is_disabled":false,"rental_uris":{"android":"levelo://app?vid=6d46428b-76ca-46cd-93c9-0f598e738444","ios":"levelo://app?vid=6d46428b-76ca-46cd-93c9-0f598e738444"},"vehicle_type_id":"4","last_reported":1753726615,"current_range_meters":5600,"station_id":"ce4bhe12rcd13ifvqf30","pricing_plan_id":"cebpf4jnsgd1na2vs0mg"},{"bike_id":"59e824ae-d814-4c81-a7b8-fe0e1d505499","system_id":"levelo_inurba_marseille","lat":43.27493,"lon":5.4245,"is_reserved":false,"is_disabled":false,"rental_uris":{"android":"levelo://app?vid=59e824ae-d814-4c81-a7b8-fe0e1d505499","ios":"levelo://app?vid=59e824ae-d814-4c81-a7b8-fe0e1d505499"},"vehicle_type_id":"4","last_reported":1753726615,"current_range_meters":5600,"station_id":"ce4bhn92rcd13ifvqgrg","pricing_plan_id":"cebpf4jnsgd1na2vs0mg"},{"bike_id":"a7ebd9a6-ece1-4b87-9e44-0030bc260976","system_id":"levelo_inurba_marseille","lat":43.299621,"lon":5.384814,"is_reserved":false,"is_disabled":false,"rental_uris":{"android":"levelo://app?vid=a7ebd9a6-ece1-4b87-9e44-0030bc260976","ios":"levelo://app?vid=a7ebd9a6-ece1-4b87-9e44-0030bc260976"},"vehicle_type_id":"4","last_reported":1753726615,"current_range_meters":5600,"station_id":"ce4bgjh2rcd13ifvqbf0","pricing_plan_id":"cebpf4jnsgd1na2vs0mg"},{"bike_id":"27796d81-ba37-44c2-8e01-e9d111e1a1f3","system_id":"levelo_inurba_marseille","lat":43.282702,"lon":5.350637,"is_reserved":false,"is_disabled":false,"rental_uris":{"android":"levelo://app?vid=27796d81-ba37-44c2-8e01-e9d111e1a1f3","ios":"levelo://app?vid=27796d81-ba37-44c2-8e01-e9d111e1a1f3"},"vehicle_type_id":"4","last_reported":1753726615,"current_range_meters":6000,"station_id":"ce4bhbp2rcd13ifvqerg","pricing_plan_id":"cebpf4jnsgd1na2vs0mg"},{"bike_id":"0a5b782f-19cc-4ab2-89b1-00ea607b709c","system_id":"levelo_inurba_marseille","lat":43.293308,"lon":5.37515,"is_reserved":false,"is_disabled":false,"rental_uris":{"android":"levelo://app?vid=0a5b782f-19cc-4ab2-89b1-00ea607b709c","ios":"levelo://app?vid=0a5b782f-19cc-4ab2-89b1-00ea607b709c"},"vehicle_type_id":"4","last_reported":1753726615,"current_range_meters":6000,"station_id":"ce4bgr92rcd13ifvqc7g","pricing_plan_id":"cebpf4jnsgd1na2vs0mg"},{"bike_id":"0d4eaf31-ae31-4384-95b4-b2c0970cc26a","system_id":"levelo_inurba_marseille","lat":43.31483,"lon":5.37305,"is_reserved":false,"is_disabled":false,"rental_uris":{"android":"levelo://app?vid=0d4eaf31-ae31-4384-95b4-b2c0970cc26a","ios":"levelo://app?vid=0d4eaf31-ae31-4384-95b4-b2c0970cc26a"},"vehicle_type_id":"4","last_reported":1753726615,"current_range_meters":6400,"station_id":"ce4bgt12rcd13ifvqcd0","pricing_plan_id":"cebpf4jnsgd1na2vs0mg"},{"bike_id":"c31c8057-415f-4ba1-9689-16f9e882d3a3","system_id":"levelo_inurba_marseille","lat":43.25853,"lon":5.39913,"is_reserved":false,"is_disabled":false,"rental_uris":{"android":"levelo://app?vid=c31c8057-415f-4ba1-9689-16f9e882d3a3","ios":"levelo://app?vid=c31c8057-415f-4ba1-9689-16f9e882d3a3"},"vehicle_type_id":"4","last_reported":1753726615,"current_range_meters":6400,"station_id":"ce4bhl92rcd13ifvqghg","pricing_plan_id":"cebpf4jnsgd1na2vs0mg"},{"bike_id":"156e744b-94c9-4be0-9dfd-d007398890ce","system_id":"levelo_inurba_marseille","lat":43.323539,"lon":5.367388,"is_reserved":false,"is_disabled":false,"rental_uris":{"android":"levelo://app?vid=156e744b-94c9-4be0-9dfd-d007398890ce","ios":"levelo://app?vid=156e744b-94c9-4be0-9dfd-d007398890ce"},"vehicle_type_id":"4","last_reported":1753726615,"current_range_meters":6400,"station_id":"ce4bhsh2rcd13ifvqi2g","pricing_plan_id":"cebpf4jnsgd1na2vs0mg"},{"bike_id":"078f11b0-bb56-4df0-87db-0c5d635cc500","system_id":"levelo_inurba_marseille","lat":43.22508,"lon":5.34764,"is_reserved":false,"is_disabled":false,"rental_uris":{"android":"levelo://app?vid=078f11b0-bb56-4df0-87db-0c5d635cc500","ios":"levelo://app?vid=078f11b0-bb56-4df0-87db-0c5d635cc500"},"vehicle_type_id":"4","last_reported":1753726615,"current_range_meters":6400,"station_id":"st_cvj5dfep6f1abm77gieg","pricing_plan_id":"cebpf4jnsgd1na2vs0mg"},{"bike_id":"56bf0055-e112-4078-b5aa-ffa4580277bd","system_id":"levelo_inurba_marseille","lat":43.31665,"lon":5.37806,"is_reserved":false,"is_disabled":false,"rental_uris":{"android":"levelo://app?vid=56bf0055-e112-4078-b5aa-ffa4580277bd","ios":"levelo://app?vid=56bf0055-e112-4078-b5aa-ffa4580277bd"},"vehicle_type_id":"4","last_reported":1753726615,"current_range_meters":6800,"station_id":"","pricing_plan_id":"cebpf4jnsgd1na2vs0mg"},{"bike_id":"8f399d44-3132-4221-8387-1893ede71a6b","system_id":"levelo_inurba_marseille","lat":43.280394,"lon":5.369394,"is_reserved":false,"is_disabled":false,"rental_uris":{"android":"levelo://app?vid=8f399d44-3132-4221-8387-1893ede71a6b","ios":"levelo://app?vid=8f399d44-3132-4221-8387-1893ede71a6b"},"vehicle_type_id":"4","last_reported":1753726615,"current_range_meters":6800,"station_id":"ce4bha12rcd13ifvqef0","pricing_plan_id":"cebpf4jnsgd1na2vs0mg"},{"bike_id":"57d2148b-4900-48dc-9253-f8ca7d2e9d8a","system_id":"levelo_inurba_marseille","lat":43.303122,"lon":5.405017,"is_reserved":false,"is_disabled":false,"rental_uris":{"android":"levelo://app?vid=57d2148b-4900-48dc-9253-f8ca7d2e9d8a","ios":"levelo://app?vid=57d2148b-4900-48dc-9253-f8ca7d2e9d8a"},"vehicle_type_id":"4","last_reported":1753726615,"current_range_meters":6800,"station_id":"","pricing_plan_id":"cebpf4jnsgd1na2vs0mg"},{"bike_id":"8c8570b9-a53a-4e8a-b73d-015669650fe2","system_id":"levelo_inurba_marseille","lat":43.33604,"lon":5.41032,"is_reserved":false,"is_disabled":false,"rental_uris":{"android":"levelo://app?vid=8c8570b9-a53a-4e8a-b73d-015669650fe2","ios":"levelo://app?vid=8c8570b9-a53a-4e8a-b73d-015669650fe2"},"vehicle_type_id":"4","last_reported":1753726615,"current_range_meters":6400,"station_id":"ce4bhqh2rcd13ifvqhmg","pricing_plan_id":"cebpf4jnsgd1na2vs0mg"},{"bike_id":"198a8a48-9082-408a-ac7c-20dca32fbf4e","system_id":"levelo_inurba_marseille","lat":43.32068,"lon":5.4092,"is_reserved":false,"is_disabled":false,"rental_uris":{"android":"levelo://app?vid=198a8a48-9082-408a-ac7c-20dca32fbf4e","ios":"levelo://app?vid=198a8a48-9082-408a-ac7c-20dca32fbf4e"},"vehicle_type_id":"4","last_reported":1753726615,"current_range_meters":6800,"station_id":"","pricing_plan_id":"cebpf4jnsgd1na2vs0mg"},{"bike_id":"36bf5741-5cf5-4e98-bdb0-03775d7a389c","system_id":"levelo_inurba_marseille","lat":43.28353,"lon":5.38106,"is_reserved":false,"is_disabled":false,"rental_uris":{"android":"levelo://app?vid=36bf5741-5cf5-4e98-bdb0-03775d7a389c","ios":"levelo://app?vid=36bf5741-5cf5-4e98-bdb0-03775d7a389c"},"vehicle_type_id":"4","last_reported":1753726615,"current_range_meters":7200,"station_id":"ce4bh412rcd13ifvqdr0","pricing_plan_id":"cebpf4jnsgd1na2vs0mg"},{"bike_id":"84b09b33-871c-4532-9225-0bd04646fe70","system_id":"levelo_inurba_marseille","lat":43.29963,"lon":5.38498,"is_reserved":false,"is_disabled":false,"rental_uris":{"android":"levelo://app?vid=84b09b33-871c-4532-9225-0bd04646fe70","ios":"levelo://app?vid=84b09b33-871c-4532-9225-0bd04646fe70"},"vehicle_type_id":"4","last_reported":1753726615,"current_range_meters":7200,"station_id":"ce4bgj92rcd13ifvqbd0","pricing_plan_id":"cebpf4jnsgd1na2vs0mg"},{"bike_id":"64fd8720-2ae1-44eb-a3aa-4e50e5e2f5f0","system_id":"levelo_inurba_marseille","lat":43.30881,"lon":5.39655,"is_reserved":false,"is_disabled":false,"rental_uris":{"android":"levelo://app?vid=64fd8720-2ae1-44eb-a3aa-4e50e5e2f5f0","ios":"levelo://app?vid=64fd8720-2ae1-44eb-a3aa-4e50e5e2f5f0"},"vehicle_type_id":"4","last_reported":1753726615,"current_range_meters":7200,"station_id":"ce4bh012rcd13ifvqcv0","pricing_plan_id":"cebpf4jnsgd1na2vs0mg"},{"bike_id":"bc31c2d8-c771-44e4-8766-bc144a18d567","system_id":"levelo_inurba_marseille","lat":43.29259,"lon":5.4091,"is_reserved":false,"is_disabled":false,"rental_uris":{"android":"levelo://app?vid=bc31c2d8-c771-44e4-8766-bc144a18d567","ios":"levelo://app?vid=bc31c2d8-c771-44e4-8766-bc144a18d567"},"vehicle_type_id":"4","last_reported":1753726615,"current_range_meters":6800,"station_id":"ce4bh192rcd13ifvqdc0","pricing_plan_id":"cebpf4jnsgd1na2vs0mg"},{"bike_id":"c1dec5a1-24e6-4bea-8581-61271462cc9a","system_id":"levelo_inurba_marseille","lat":43.280355,"lon":5.369554,"is_reserved":false,"is_disabled":false,"rental_uris":{"android":"levelo://app?vid=c1dec5a1-24e6-4bea-8581-61271462cc9a","ios":"levelo://app?vid=c1dec5a1-24e6-4bea-8581-61271462cc9a"},"vehicle_type_id":"4","last_reported":1753726615,"current_range_meters":8000,"station_id":"ce4bha12rcd13ifvqef0","pricing_plan_id":"cebpf4jnsgd1na2vs0mg"},{"bike_id":"463e03fe-b9b0-4212-a764-9bd6d78e3c2e","system_id":"levelo_inurba_marseille","lat":43.31014,"lon":5.38137,"is_reserved":false,"is_disabled":false,"rental_uris":{"android":"levelo://app?vid=463e03fe-b9b0-4212-a764-9bd6d78e3c2e","ios":"levelo://app?vid=463e03fe-b9b0-4212-a764-9bd6d78e3c2e"},"vehicle_type_id":"4","last_reported":1753726615,"current_range_meters":8000,"station_id":"","pricing_plan_id":"cebpf4jnsgd1na2vs0mg"},{"bike_id":"b3e047dd-28e8-4d38-bc05-0cf22f023c51","system_id":"levelo_inurba_marseille","lat":43.28673,"lon":5.38659,"is_reserved":false,"is_disabled":false,"rental_uris":{"android":"levelo://app?vid=b3e047dd-28e8-4d38-bc05-0cf22f023c51","ios":"levelo://app?vid=b3e047dd-28e8-4d38-bc05-0cf22f023c51"},"vehicle_type_id":"4","last_reported":1753726615,"current_range_meters":8000,"station_id":"ce4bh492rcd13ifvqdug","pricing_plan_id":"cebpf4jnsgd1na2vs0mg"},{"bike_id":"9735bf1e-e3a4-4640-8dfa-4275bbd789e0","system_id":"levelo_inurba_marseille","lat":43.284088,"lon":5.375053,"is_reserved":false,"is_disabled":false,"rental_uris":{"android":"levelo://app?vid=9735bf1e-e3a4-4640-8dfa-4275bbd789e0","ios":"levelo://app?vid=9735bf1e-e3a4-4640-8dfa-4275bbd789e0"},"vehicle_type_id":"4","last_reported":1753726615,"current_range_meters":8000,"station_id":"","pricing_plan_id":"cebpf4jnsgd1na2vs0mg"},{"bike_id":"f11d5c36-c7b9-4fc1-92df-c7e100615396","system_id":"levelo_inurba_marseille","lat":43.29528,"lon":5.42283,"is_reserved":false,"is_disabled":false,"rental_uris":{"android":"levelo://app?vid=f11d5c36-c7b9-4fc1-92df-c7e100615396","ios":"levelo://app?vid=f11d5c36-c7b9-4fc1-92df-c7e100615396"},"vehicle_type_id":"4","last_reported":1753726615,"current_range_meters":8000,"station_id":"ce4bhph2rcd13ifvqhdg","pricing_plan_id":"cebpf4jnsgd1na2vs0mg"},{"bike_id":"da0dea9a-07a2-4249-aa7c-2489e28d40de","system_id":"levelo_inurba_marseille","lat":43.29664,"lon":5.36244,"is_reserved":false,"is_disabled":false,"rental_uris":{"android":"levelo://app?vid=da0dea9a-07a2-4249-aa7c-2489e28d40de","ios":"levelo://app?vid=da0dea9a-07a2-4249-aa7c-2489e28d40de"},"vehicle_type_id":"4","last_reported":1753726615,"current_range_meters":8400,"station_id":"","pricing_plan_id":"cebpf4jnsgd1na2vs0mg"},{"bike_id":"1dcf5ad2-3cd6-4fbd-9206-7487a44a9851","system_id":"levelo_inurba_marseille","lat":43.30906,"lon":5.36842,"is_reserved":false,"is_disabled":false,"rental_uris":{"android":"levelo://app?vid=1dcf5ad2-3cd6-4fbd-9206-7487a44a9851","ios":"levelo://app?vid=1dcf5ad2-3cd6-4fbd-9206-7487a44a9851"},"vehicle_type_id":"4","last_reported":1753726615,"current_range_meters":8400,"station_id":"ce4bgn92rcd13ifvqbvg","pricing_plan_id":"cebpf4jnsgd1na2vs0mg"},{"bike_id":"11648341-5a9b-4630-b256-1b937e7ffd66","system_id":"levelo_inurba_marseille","lat":43.28662,"lon":5.35146,"is_reserved":false,"is_disabled":false,"rental_uris":{"android":"levelo://app?vid=11648341-5a9b-4630-b256-1b937e7ffd66","ios":"levelo://app?vid=11648341-5a9b-4630-b256-1b937e7ffd66"},"vehicle_type_id":"4","last_reported":1753726615,"current_range_meters":9200,"station_id":"","pricing_plan_id":"cebpf4jnsgd1na2vs0mg"},{"bike_id":"d68f005b-a113-40ab-b864-ae13d182dcb7","system_id":"levelo_inurba_marseille","lat":43.31359,"lon":5.38488,"is_reserved":false,"is_disabled":false,"rental_uris":{"android":"levelo://app?vid=d68f005b-a113-40ab-b864-ae13d182dcb7","ios":"levelo://app?vid=d68f005b-a113-40ab-b864-ae13d182dcb7"},"vehicle_type_id":"4","last_reported":1753726615,"current_range_meters":8400,"station_id":"ce4bgt92rcd13ifvqcf0","pricing_plan_id":"cebpf4jnsgd1na2vs0mg"},{"bike_id":"108b3875-9677-473a-96fe-c1ecf75f4b39","system_id":"levelo_inurba_marseille","lat":43.257294,"lon":5.410739,"is_reserved":false,"is_disabled":false,"rental_uris":{"android":"levelo://app?vid=108b3875-9677-473a-96fe-c1ecf75f4b39","ios":"levelo://app?vid=108b3875-9677-473a-96fe-c1ecf75f4b39"},"vehicle_type_id":"4","last_reported":1753726615,"current_range_meters":8800,"station_id":"ce4bhkp2rcd13ifvqgd0","pricing_plan_id":"cebpf4jnsgd1na2vs0mg"},{"bike_id":"5a3d5c19-c10f-4e83-aed3-bc03bdf5166b","system_id":"levelo_inurba_marseille","lat":43.29216,"lon":5.36074,"is_reserved":false,"is_disabled":false,"rental_uris":{"android":"levelo://app?vid=5a3d5c19-c10f-4e83-aed3-bc03bdf5166b","ios":"levelo://app?vid=5a3d5c19-c10f-4e83-aed3-bc03bdf5166b"},"vehicle_type_id":"4","last_reported":1753726615,"current_range_meters":8800,"station_id":"ce4bhbh2rcd13ifvqeqg","pricing_plan_id":"cebpf4jnsgd1na2vs0mg"},{"bike_id":"2539fa8b-fac1-416c-99b2-57950ddf4857","system_id":"levelo_inurba_marseille","lat":43.27559,"lon":5.38436,"is_reserved":false,"is_disabled":false,"rental_uris":{"android":"levelo://app?vid=2539fa8b-fac1-416c-99b2-57950ddf4857","ios":"levelo://app?vid=2539fa8b-fac1-416c-99b2-57950ddf4857"},"vehicle_type_id":"4","last_reported":1753726615,"current_range_meters":8800,"station_id":"ce4bhh92rcd13ifvqfi0","pricing_plan_id":"cebpf4jnsgd1na2vs0mg"},{"bike_id":"d1ee7493-1c8a-469d-8c3c-eed7b0a6afe5","system_id":"levelo_inurba_marseille","lat":43.299683,"lon":5.386239,"is_reserved":false,"is_disabled":false,"rental_uris":{"android":"levelo://app?vid=d1ee7493-1c8a-469d-8c3c-eed7b0a6afe5","ios":"levelo://app?vid=d1ee7493-1c8a-469d-8c3c-eed7b0a6afe5"},"vehicle_type_id":"4","last_reported":1753726615,"current_range_meters":9200,"station_id":"","pricing_plan_id":"cebpf4jnsgd1na2vs0mg"},{"bike_id":"bf295fbf-1f72-4e1a-a8f1-f319bb5fd736","system_id":"levelo_inurba_marseille","lat":43.29314,"lon":5.37035,"is_reserved":false,"is_disabled":false,"rental_uris":{"android":"levelo://app?vid=bf295fbf-1f72-4e1a-a8f1-f319bb5fd736","ios":"levelo://app?vid=bf295fbf-1f72-4e1a-a8f1-f319bb5fd736"},"vehicle_type_id":"4","last_reported":1753726615,"current_range_meters":9200,"station_id":"","pricing_plan_id":"cebpf4jnsgd1na2vs0mg"},{"bike_id":"59e4003f-739b-46e8-9f16-561546476c1c","system_id":"levelo_inurba_marseille","lat":43.29001,"lon":5.35613,"is_reserved":false,"is_disabled":false,"rental_uris":{"android":"levelo://app?vid=59e4003f-739b-46e8-9f16-561546476c1c","ios":"levelo://app?vid=59e4003f-739b-46e8-9f16-561546476c1c"},"vehicle_type_id":"4","last_reported":1753726615,"current_range_meters":9200,"station_id":"ce4bhb92rcd13ifvqen0","pricing_plan_id":"cebpf4jnsgd1na2vs0mg"},{"bike_id":"014255ab-31c4-4a64-a5d4-c9ee1a032060","system_id":"levelo_inurba_marseille","lat":43.28441,"lon":5.39206,"is_reserved":false,"is_disabled":false,"rental_uris":{"android":"levelo://app?vid=014255ab-31c4-4a64-a5d4-c9ee1a032060","ios":"levelo://app?vid=014255ab-31c4-4a64-a5d4-c9ee1a032060"},"vehicle_type_id":"4","last_reported":1753726615,"current_range_meters":8800,"station_id":"ce4bhoh2rcd13ifvqh5g","pricing_plan_id":"cebpf4jnsgd1na2vs0mg"},{"bike_id":"4d3451bb-811d-4406-9ba2-9be4a0254424","system_id":"levelo_inurba_marseille","lat":43.28402,"lon":5.34978,"is_reserved":false,"is_disabled":false,"rental_uris":{"android":"levelo://app?vid=4d3451bb-811d-4406-9ba2-9be4a0254424","ios":"levelo://app?vid=4d3451bb-811d-4406-9ba2-9be4a0254424"},"vehicle_type_id":"4","last_reported":1753726615,"current_range_meters":9200,"station_id":"ce4bhbh2rcd13ifvqepg","pricing_plan_id":"cebpf4jnsgd1na2vs0mg"},{"bike_id":"0b992b18-2b88-408b-ab85-80fc2c63a747","system_id":"levelo_inurba_marseille","lat":43.29555,"lon":5.42295,"is_reserved":false,"is_disabled":false,"rental_uris":{"android":"levelo://app?vid=0b992b18-2b88-408b-ab85-80fc2c63a747","ios":"levelo://app?vid=0b992b18-2b88-408b-ab85-80fc2c63a747"},"vehicle_type_id":"4","last_reported":1753726615,"current_range_meters":9200,"station_id":"ce4bhph2rcd13ifvqhdg","pricing_plan_id":"cebpf4jnsgd1na2vs0mg"},{"bike_id":"02a772d2-e76b-4489-b88a-f4e18e26bfae","system_id":"levelo_inurba_marseille","lat":43.28412,"lon":5.34986,"is_reserved":false,"is_disabled":false,"rental_uris":{"android":"levelo://app?vid=02a772d2-e76b-4489-b88a-f4e18e26bfae","ios":"levelo://app?vid=02a772d2-e76b-4489-b88a-f4e18e26bfae"},"vehicle_type_id":"4","last_reported":1753726615,"current_range_meters":9200,"station_id":"ce4bhbh2rcd13ifvqepg","pricing_plan_id":"cebpf4jnsgd1na2vs0mg"},{"bike_id":"4f020d92-8765-4eac-adb3-6d0daf9ec32d","system_id":"levelo_inurba_marseille","lat":43.28419,"lon":5.34981,"is_reserved":false,"is_disabled":false,"rental_uris":{"android":"levelo://app?vid=4f020d92-8765-4eac-adb3-6d0daf9ec32d","ios":"levelo://app?vid=4f020d92-8765-4eac-adb3-6d0daf9ec32d"},"vehicle_type_id":"4","last_reported":1753726615,"current_range_meters":9600,"station_id":"ce4bhbh2rcd13ifvqepg","pricing_plan_id":"cebpf4jnsgd1na2vs0mg"},{"bike_id":"787d1e5c-b534-4574-bc33-29395e0f8177","system_id":"levelo_inurba_marseille","lat":43.283508,"lon":5.381075,"is_reserved":false,"is_disabled":false,"rental_uris":{"android":"levelo://app?vid=787d1e5c-b534-4574-bc33-29395e0f8177","ios":"levelo://app?vid=787d1e5c-b534-4574-bc33-29395e0f8177"},"vehicle_type_id":"4","last_reported":1753726615,"current_range_meters":9600,"station_id":"ce4bh412rcd13ifvqdr0","pricing_plan_id":"cebpf4jnsgd1na2vs0mg"},{"bike_id":"fb45cff3-08fa-4cc9-bf53-0d8295f6b8d1","system_id":"levelo_inurba_marseille","lat":43.27898,"lon":5.42827,"is_reserved":false,"is_disabled":false,"rental_uris":{"android":"levelo://app?vid=fb45cff3-08fa-4cc9-bf53-0d8295f6b8d1","ios":"levelo://app?vid=fb45cff3-08fa-4cc9-bf53-0d8295f6b8d1"},"vehicle_type_id":"4","last_reported":1753726615,"current_range_meters":9600,"station_id":"","pricing_plan_id":"cebpf4jnsgd1na2vs0mg"},{"bike_id":"eac438a9-250c-4f80-b97e-66e585adbfcf","system_id":"levelo_inurba_marseille","lat":43.22497,"lon":5.34764,"is_reserved":false,"is_disabled":false,"rental_uris":{"android":"levelo://app?vid=eac438a9-250c-4f80-b97e-66e585adbfcf","ios":"levelo://app?vid=eac438a9-250c-4f80-b97e-66e585adbfcf"},"vehicle_type_id":"4","last_reported":1753726615,"current_range_meters":9600,"station_id":"st_cvj5dfep6f1abm77gieg","pricing_plan_id":"cebpf4jnsgd1na2vs0mg"},{"bike_id":"211b8ce2-a3fe-4eef-8f4f-b5d6d16137ba","system_id":"levelo_inurba_marseille","lat":43.286134,"lon":5.350804,"is_reserved":false,"is_disabled":false,"rental_uris":{"android":"levelo://app?vid=211b8ce2-a3fe-4eef-8f4f-b5d6d16137ba","ios":"levelo://app?vid=211b8ce2-a3fe-4eef-8f4f-b5d6d16137ba"},"vehicle_type_id":"4","last_reported":1753726615,"current_range_meters":10000,"station_id":"ce4bhch2rcd13ifvqeug","pricing_plan_id":"cebpf4jnsgd1na2vs0mg"},{"bike_id":"3075ce19-9875-4df9-96eb-9db54609e4d7","system_id":"levelo_inurba_marseille","lat":43.3032,"lon":5.40427,"is_reserved":false,"is_disabled":false,"rental_uris":{"android":"levelo://app?vid=3075ce19-9875-4df9-96eb-9db54609e4d7","ios":"levelo://app?vid=3075ce19-9875-4df9-96eb-9db54609e4d7"},"vehicle_type_id":"4","last_reported":1753726615,"current_range_meters":9600,"station_id":"ce4bh012rcd13ifvqd10","pricing_plan_id":"cebpf4jnsgd1na2vs0mg"},{"bike_id":"92995e75-acdc-4cd4-ab92-5c3564a22d5a","system_id":"levelo_inurba_marseille","lat":43.29597,"lon":5.38097,"is_reserved":false,"is_disabled":false,"rental_uris":{"android":"levelo://app?vid=92995e75-acdc-4cd4-ab92-5c3564a22d5a","ios":"levelo://app?vid=92995e75-acdc-4cd4-ab92-5c3564a22d5a"},"vehicle_type_id":"4","last_reported":1753726615,"current_range_meters":10000,"station_id":"ce4bgl12rcd13ifvqbo0","pricing_plan_id":"cebpf4jnsgd1na2vs0mg"},{"bike_id":"f078f85b-29cc-469a-b7a1-13876bebe32b","system_id":"levelo_inurba_marseille","lat":43.29585,"lon":5.36779,"is_reserved":false,"is_disabled":false,"rental_uris":{"android":"levelo://app?vid=f078f85b-29cc-469a-b7a1-13876bebe32b","ios":"levelo://app?vid=f078f85b-29cc-469a-b7a1-13876bebe32b"},"vehicle_type_id":"4","last_reported":1753726615,"current_range_meters":10000,"station_id":"ce4bgph2rcd13ifvqc2g","pricing_plan_id":"cebpf4jnsgd1na2vs0mg"},{"bike_id":"76e4cc88-573c-451d-94bd-7f5f05c31692","system_id":"levelo_inurba_marseille","lat":43.28932,"lon":5.36631,"is_reserved":false,"is_disabled":false,"rental_uris":{"android":"levelo://app?vid=76e4cc88-573c-451d-94bd-7f5f05c31692","ios":"levelo://app?vid=76e4cc88-573c-451d-94bd-7f5f05c31692"},"vehicle_type_id":"4","last_reported":1753726615,"current_range_meters":10000,"station_id":"ce4bhap2rcd13ifvqek0","pricing_plan_id":"cebpf4jnsgd1na2vs0mg"},{"bike_id":"d95f41e0-c662-467f-90f5-36ed6ff87c4d","system_id":"levelo_inurba_marseille","lat":43.24644,"lon":5.38887,"is_reserved":false,"is_disabled":false,"rental_uris":{"android":"levelo://app?vid=d95f41e0-c662-467f-90f5-36ed6ff87c4d","ios":"levelo://app?vid=d95f41e0-c662-467f-90f5-36ed6ff87c4d"},"vehicle_type_id":"4","last_reported":1753726615,"current_range_meters":10000,"station_id":"ce4bhg12rcd13ifvqf60","pricing_plan_id":"cebpf4jnsgd1na2vs0mg"},{"bike_id":"3152576e-d602-4c3f-980e-717f41aed773","system_id":"levelo_inurba_marseille","lat":43.33737,"lon":5.37465,"is_reserved":false,"is_disabled":false,"rental_uris":{"android":"levelo://app?vid=3152576e-d602-4c3f-980e-717f41aed773","ios":"levelo://app?vid=3152576e-d602-4c3f-980e-717f41aed773"},"vehicle_type_id":"4","last_reported":1753726615,"current_range_meters":10000,"station_id":"","pricing_plan_id":"cebpf4jnsgd1na2vs0mg"},{"bike_id":"6b721dde-59cf-4836-b104-ba07fdf0eebb","system_id":"levelo_inurba_marseille","lat":43.28466,"lon":5.35882,"is_reserved":false,"is_disabled":false,"rental_uris":{"android":"levelo://app?vid=6b721dde-59cf-4836-b104-ba07fdf0eebb","ios":"levelo://app?vid=6b721dde-59cf-4836-b104-ba07fdf0eebb"},"vehicle_type_id":"4","last_reported":1753726615,"current_range_meters":10800,"station_id":"ce4bhah2rcd13ifvqei0","pricing_plan_id":"cebpf4jnsgd1na2vs0mg"},{"bike_id":"f45ef595-d9cd-493e-8f94-bd153975c155","system_id":"levelo_inurba_marseille","lat":43.29786,"lon":5.39339,"is_reserved":false,"is_disabled":false,"rental_uris":{"android":"levelo://app?vid=f45ef595-d9cd-493e-8f94-bd153975c155","ios":"levelo://app?vid=f45ef595-d9cd-493e-8f94-bd153975c155"},"vehicle_type_id":"4","last_reported":1753726615,"current_range_meters":10000,"station_id":"chh1huq6cuj3fo74tm60","pricing_plan_id":"cebpf4jnsgd1na2vs0mg"},{"bike_id":"e288686f-b597-4c98-84da-5ff4558d159b","system_id":"levelo_inurba_marseille","lat":43.28569,"lon":5.39498,"is_reserved":false,"is_disabled":false,"rental_uris":{"android":"levelo://app?vid=e288686f-b597-4c98-84da-5ff4558d159b","ios":"levelo://app?vid=e288686f-b597-4c98-84da-5ff4558d159b"},"vehicle_type_id":"4","last_reported":1753726615,"current_range_meters":10800,"station_id":"ce4bh292rcd13ifvqdg0","pricing_plan_id":"cebpf4jnsgd1na2vs0mg"},{"bike_id":"5137e5c8-fae9-4531-85b9-df7423feb303","system_id":"levelo_inurba_marseille","lat":43.33147,"lon":5.38925,"is_reserved":false,"is_disabled":false,"rental_uris":{"android":"levelo://app?vid=5137e5c8-fae9-4531-85b9-df7423feb303","ios":"levelo://app?vid=5137e5c8-fae9-4531-85b9-df7423feb303"},"vehicle_type_id":"4","last_reported":1753726615,"current_range_meters":10800,"station_id":"","pricing_plan_id":"cebpf4jnsgd1na2vs0mg"},{"bike_id":"feb40379-0815-4a68-aadb-305942f11d04","system_id":"levelo_inurba_marseille","lat":43.24954,"lon":5.38964,"is_reserved":false,"is_disabled":false,"rental_uris":{"android":"levelo://app?vid=feb40379-0815-4a68-aadb-305942f11d04","ios":"levelo://app?vid=feb40379-0815-4a68-aadb-305942f11d04"},"vehicle_type_id":"4","last_reported":1753726615,"current_range_meters":10800,"station_id":"","pricing_plan_id":"cebpf4jnsgd1na2vs0mg"},{"bike_id":"0941ef75-74ba-42cf-ad5e-0c2c64824848","system_id":"levelo_inurba_marseille","lat":43.29961,"lon":5.37173,"is_reserved":false,"is_disabled":false,"rental_uris":{"android":"levelo://app?vid=0941ef75-74ba-42cf-ad5e-0c2c64824848","ios":"levelo://app?vid=0941ef75-74ba-42cf-ad5e-0c2c64824848"},"vehicle_type_id":"4","last_reported":1753726615,"current_range_meters":11200,"station_id":"ce4bgr92rcd13ifvqc7g","pricing_plan_id":"cebpf4jnsgd1na2vs0mg"},{"bike_id":"e4e06ef8-f146-4c4a-81f1-91159188d094","system_id":"levelo_inurba_marseille","lat":43.25821,"lon":5.39421,"is_reserved":false,"is_disabled":false,"rental_uris":{"android":"levelo://app?vid=e4e06ef8-f146-4c4a-81f1-91159188d094","ios":"levelo://app?vid=e4e06ef8-f146-4c4a-81f1-91159188d094"},"vehicle_type_id":"4","last_reported":1753726615,"current_range_meters":11200,"station_id":"ce4bhip2rcd13ifvqft0","pricing_plan_id":"cebpf4jnsgd1na2vs0mg"},{"bike_id":"b0562e78-62b2-42dc-bb1e-2da442cdc296","system_id":"levelo_inurba_marseille","lat":43.28618,"lon":5.35104,"is_reserved":false,"is_disabled":false,"rental_uris":{"android":"levelo://app?vid=b0562e78-62b2-42dc-bb1e-2da442cdc296","ios":"levelo://app?vid=b0562e78-62b2-42dc-bb1e-2da442cdc296"},"vehicle_type_id":"4","last_reported":1753726615,"current_range_meters":11200,"station_id":"ce4bhch2rcd13ifvqeug","pricing_plan_id":"cebpf4jnsgd1na2vs0mg"},{"bike_id":"22709049-0d39-445f-b228-d9eaa5759f44","system_id":"levelo_inurba_marseille","lat":43.28406,"lon":5.34988,"is_reserved":false,"is_disabled":false,"rental_uris":{"android":"levelo://app?vid=22709049-0d39-445f-b228-d9eaa5759f44","ios":"levelo://app?vid=22709049-0d39-445f-b228-d9eaa5759f44"},"vehicle_type_id":"4","last_reported":1753726615,"current_range_meters":11200,"station_id":"ce4bhbh2rcd13ifvqepg","pricing_plan_id":"cebpf4jnsgd1na2vs0mg"},{"bike_id":"87a4d710-c859-4883-a056-db27db09862e","system_id":"levelo_inurba_marseille","lat":43.277585,"lon":5.355971,"is_reserved":false,"is_disabled":false,"rental_uris":{"android":"levelo://app?vid=87a4d710-c859-4883-a056-db27db09862e","ios":"levelo://app?vid=87a4d710-c859-4883-a056-db27db09862e"},"vehicle_type_id":"4","last_reported":1753726615,"current_range_meters":11200,"station_id":"","pricing_plan_id":"cebpf4jnsgd1na2vs0mg"},{"bike_id":"2cf31370-d3b0-4cb4-bcf0-8f69a04b3bc3","system_id":"levelo_inurba_marseille","lat":43.286195,"lon":5.351064,"is_reserved":false,"is_disabled":false,"rental_uris":{"android":"levelo://app?vid=2cf31370-d3b0-4cb4-bcf0-8f69a04b3bc3","ios":"levelo://app?vid=2cf31370-d3b0-4cb4-bcf0-8f69a04b3bc3"},"vehicle_type_id":"4","last_reported":1753726615,"current_range_meters":11200,"station_id":"ce4bhch2rcd13ifvqeug","pricing_plan_id":"cebpf4jnsgd1na2vs0mg"},{"bike_id":"ade323cd-8a79-4942-9e07-5534aaf58a0c","system_id":"levelo_inurba_marseille","lat":43.28937,"lon":5.36631,"is_reserved":false,"is_disabled":false,"rental_uris":{"android":"levelo://app?vid=ade323cd-8a79-4942-9e07-5534aaf58a0c","ios":"levelo://app?vid=ade323cd-8a79-4942-9e07-5534aaf58a0c"},"vehicle_type_id":"4","last_reported":1753726615,"current_range_meters":11600,"station_id":"ce4bhap2rcd13ifvqek0","pricing_plan_id":"cebpf4jnsgd1na2vs0mg"},{"bike_id":"c490285a-ad86-41e9-a650-bc7838a33af4","system_id":"levelo_inurba_marseille","lat":43.23064,"lon":5.35503,"is_reserved":false,"is_disabled":false,"rental_uris":{"android":"levelo://app?vid=c490285a-ad86-41e9-a650-bc7838a33af4","ios":"levelo://app?vid=c490285a-ad86-41e9-a650-bc7838a33af4"},"vehicle_type_id":"4","last_reported":1753726615,"current_range_meters":11600,"station_id":"cpo3342slgdg3j2ifvpg","pricing_plan_id":"cebpf4jnsgd1na2vs0mg"},{"bike_id":"ffca1d8b-0a13-437b-a345-ef979506a600","system_id":"levelo_inurba_marseille","lat":43.27902,"lon":5.38014,"is_reserved":false,"is_disabled":false,"rental_uris":{"android":"levelo://app?vid=ffca1d8b-0a13-437b-a345-ef979506a600","ios":"levelo://app?vid=ffca1d8b-0a13-437b-a345-ef979506a600"},"vehicle_type_id":"4","last_reported":1753726615,"current_range_meters":11600,"station_id":"ce4bhf92rcd13ifvqf50","pricing_plan_id":"cebpf4jnsgd1na2vs0mg"},{"bike_id":"30216f8c-9329-42ca-aa74-4d11551c0996","system_id":"levelo_inurba_marseille","lat":43.31685,"lon":5.40477,"is_reserved":false,"is_disabled":false,"rental_uris":{"android":"levelo://app?vid=30216f8c-9329-42ca-aa74-4d11551c0996","ios":"levelo://app?vid=30216f8c-9329-42ca-aa74-4d11551c0996"},"vehicle_type_id":"4","last_reported":1753726615,"current_range_meters":11200,"station_id":"ce4bh012rcd13ifvqd00","pricing_plan_id":"cebpf4jnsgd1na2vs0mg"},{"bike_id":"7bbabe21-41fb-474d-b751-cfd2cc7ea973","system_id":"levelo_inurba_marseille","lat":43.26062,"lon":5.39391,"is_reserved":false,"is_disabled":false,"rental_uris":{"android":"levelo://app?vid=7bbabe21-41fb-474d-b751-cfd2cc7ea973","ios":"levelo://app?vid=7bbabe21-41fb-474d-b751-cfd2cc7ea973"},"vehicle_type_id":"4","last_reported":1753726615,"current_range_meters":11600,"station_id":"ce4bhh92rcd13ifvqfj0","pricing_plan_id":"cebpf4jnsgd1na2vs0mg"},{"bike_id":"180bdffc-3826-48ae-b1a9-6c1afe2aed29","system_id":"levelo_inurba_marseille","lat":43.28617,"lon":5.35104,"is_reserved":false,"is_disabled":false,"rental_uris":{"android":"levelo://app?vid=180bdffc-3826-48ae-b1a9-6c1afe2aed29","ios":"levelo://app?vid=180bdffc-3826-48ae-b1a9-6c1afe2aed29"},"vehicle_type_id":"4","last_reported":1753726615,"current_range_meters":11600,"station_id":"ce4bhch2rcd13ifvqeug","pricing_plan_id":"cebpf4jnsgd1na2vs0mg"},{"bike_id":"125c49fe-5287-45c3-85cf-3a5f7e7dd514","system_id":"levelo_inurba_marseille","lat":43.28999,"lon":5.35596,"is_reserved":false,"is_disabled":false,"rental_uris":{"android":"levelo://app?vid=125c49fe-5287-45c3-85cf-3a5f7e7dd514","ios":"levelo://app?vid=125c49fe-5287-45c3-85cf-3a5f7e7dd514"},"vehicle_type_id":"4","last_reported":1753726615,"current_range_meters":11600,"station_id":"ce4bhb92rcd13ifvqen0","pricing_plan_id":"cebpf4jnsgd1na2vs0mg"},{"bike_id":"28a46342-4835-4ef4-a561-63d01bab106c","system_id":"levelo_inurba_marseille","lat":43.28621,"lon":5.35099,"is_reserved":false,"is_disabled":false,"rental_uris":{"android":"levelo://app?vid=28a46342-4835-4ef4-a561-63d01bab106c","ios":"levelo://app?vid=28a46342-4835-4ef4-a561-63d01bab106c"},"vehicle_type_id":"4","last_reported":1753726615,"current_range_meters":11600,"station_id":"ce4bhch2rcd13ifvqeug","pricing_plan_id":"cebpf4jnsgd1na2vs0mg"},{"bike_id":"0710cc23-964c-41f9-b259-8bd1211f7d6e","system_id":"levelo_inurba_marseille","lat":43.28623,"lon":5.35092,"is_reserved":false,"is_disabled":false,"rental_uris":{"android":"levelo://app?vid=0710cc23-964c-41f9-b259-8bd1211f7d6e","ios":"levelo://app?vid=0710cc23-964c-41f9-b259-8bd1211f7d6e"},"vehicle_type_id":"4","last_reported":1753726615,"current_range_meters":12000,"station_id":"ce4bhch2rcd13ifvqeug","pricing_plan_id":"cebpf4jnsgd1na2vs0mg"},{"bike_id":"0d079687-545f-4bf6-8076-1fab5fa9e33c","system_id":"levelo_inurba_marseille","lat":43.26219,"lon":5.37447,"is_reserved":false,"is_disabled":false,"rental_uris":{"android":"levelo://app?vid=0d079687-545f-4bf6-8076-1fab5fa9e33c","ios":"levelo://app?vid=0d079687-545f-4bf6-8076-1fab5fa9e33c"},"vehicle_type_id":"4","last_reported":1753726615,"current_range_meters":12000,"station_id":"ce4bhgp2rcd13ifvqfc0","pricing_plan_id":"cebpf4jnsgd1na2vs0mg"},{"bike_id":"2fbaf56e-83d2-4d5f-a3fb-45a7ae6b9247","system_id":"levelo_inurba_marseille","lat":43.2732,"lon":5.39063,"is_reserved":false,"is_disabled":false,"rental_uris":{"android":"levelo://app?vid=2fbaf56e-83d2-4d5f-a3fb-45a7ae6b9247","ios":"levelo://app?vid=2fbaf56e-83d2-4d5f-a3fb-45a7ae6b9247"},"vehicle_type_id":"4","last_reported":1753726615,"current_range_meters":12000,"station_id":"ce4bhgp2rcd13ifvqfe0","pricing_plan_id":"cebpf4jnsgd1na2vs0mg"},{"bike_id":"9a53c405-7cae-4213-857e-35d22ee808a3","system_id":"levelo_inurba_marseille","lat":43.28415,"lon":5.34982,"is_reserved":false,"is_disabled":false,"rental_uris":{"android":"levelo://app?vid=9a53c405-7cae-4213-857e-35d22ee808a3","ios":"levelo://app?vid=9a53c405-7cae-4213-857e-35d22ee808a3"},"vehicle_type_id":"4","last_reported":1753726615,"current_range_meters":12000,"station_id":"ce4bhbh2rcd13ifvqepg","pricing_plan_id":"cebpf4jnsgd1na2vs0mg"},{"bike_id":"8e37ef79-bd01-46c2-9d9e-3d3f7741a07a","system_id":"levelo_inurba_marseille","lat":43.297302,"lon":5.374166,"is_reserved":false,"is_disabled":false,"rental_uris":{"android":"levelo://app?vid=8e37ef79-bd01-46c2-9d9e-3d3f7741a07a","ios":"levelo://app?vid=8e37ef79-bd01-46c2-9d9e-3d3f7741a07a"},"vehicle_type_id":"4","last_reported":1753726615,"current_range_meters":12000,"station_id":"","pricing_plan_id":"cebpf4jnsgd1na2vs0mg"},{"bike_id":"3d7bd2df-1620-4d2f-8a21-1ea51448f90e","system_id":"levelo_inurba_marseille","lat":43.28611,"lon":5.35113,"is_reserved":false,"is_disabled":false,"rental_uris":{"android":"levelo://app?vid=3d7bd2df-1620-4d2f-8a21-1ea51448f90e","ios":"levelo://app?vid=3d7bd2df-1620-4d2f-8a21-1ea51448f90e"},"vehicle_type_id":"4","last_reported":1753726615,"current_range_meters":12000,"station_id":"ce4bhch2rcd13ifvqeug","pricing_plan_id":"cebpf4jnsgd1na2vs0mg"},{"bike_id":"3efe99ad-0b45-4c18-92ca-96f6cb43a670","system_id":"levelo_inurba_marseille","lat":43.32365,"lon":5.36758,"is_reserved":false,"is_disabled":true,"rental_uris":{"android":"levelo://app?vid=3efe99ad-0b45-4c18-92ca-96f6cb43a670","ios":"levelo://app?vid=3efe99ad-0b45-4c18-92ca-96f6cb43a670"},"vehicle_type_id":"4","last_reported":1753726615,"current_range_meters":12000,"station_id":"ce4bhsh2rcd13ifvqi2g","pricing_plan_id":"cebpf4jnsgd1na2vs0mg"},{"bike_id":"65e3db07-f188-422b-b687-3d06cfe2bcf8","system_id":"levelo_inurba_marseille","lat":43.28057,"lon":5.34988,"is_reserved":false,"is_disabled":false,"rental_uris":{"android":"levelo://app?vid=65e3db07-f188-422b-b687-3d06cfe2bcf8","ios":"levelo://app?vid=65e3db07-f188-422b-b687-3d06cfe2bcf8"},"vehicle_type_id":"4","last_reported":1753726615,"current_range_meters":12000,"station_id":"","pricing_plan_id":"cebpf4jnsgd1na2vs0mg"},{"bike_id":"da8a121b-dd93-4a31-8254-38a795a66238","system_id":"levelo_inurba_marseille","lat":43.24076,"lon":5.37752,"is_reserved":false,"is_disabled":false,"rental_uris":{"android":"levelo://app?vid=da8a121b-dd93-4a31-8254-38a795a66238","ios":"levelo://app?vid=da8a121b-dd93-4a31-8254-38a795a66238"},"vehicle_type_id":"4","last_reported":1753726615,"current_range_meters":12000,"station_id":"ce4bhnp2rcd13ifvqgvg","pricing_plan_id":"cebpf4jnsgd1na2vs0mg"},{"bike_id":"c3815923-44f6-4bc1-9569-4c33519a2689","system_id":"levelo_inurba_marseille","lat":43.32103,"lon":5.36756,"is_reserved":false,"is_disabled":false,"rental_uris":{"android":"levelo://app?vid=c3815923-44f6-4bc1-9569-4c33519a2689","ios":"levelo://app?vid=c3815923-44f6-4bc1-9569-4c33519a2689"},"vehicle_type_id":"4","last_reported":1753726615,"current_range_meters":12000,"station_id":"ce4bhrh2rcd13ifvqhug","pricing_plan_id":"cebpf4jnsgd1na2vs0mg"},{"bike_id":"149fbe11-3bce-47a0-b584-c7c7bd6bb12f","system_id":"levelo_inurba_marseille","lat":43.21645,"lon":5.34415,"is_reserved":false,"is_disabled":false,"rental_uris":{"android":"levelo://app?vid=149fbe11-3bce-47a0-b584-c7c7bd6bb12f","ios":"levelo://app?vid=149fbe11-3bce-47a0-b584-c7c7bd6bb12f"},"vehicle_type_id":"4","last_reported":1753726615,"current_range_meters":12000,"station_id":"","pricing_plan_id":"cebpf4jnsgd1na2vs0mg"},{"bike_id":"c85546d4-3ea8-44da-9c2d-e6b7bf575831","system_id":"levelo_inurba_marseille","lat":43.28416,"lon":5.34985,"is_reserved":false,"is_disabled":false,"rental_uris":{"android":"levelo://app?vid=c85546d4-3ea8-44da-9c2d-e6b7bf575831","ios":"levelo://app?vid=c85546d4-3ea8-44da-9c2d-e6b7bf575831"},"vehicle_type_id":"4","last_reported":1753726615,"current_range_meters":12000,"station_id":"ce4bhbh2rcd13ifvqepg","pricing_plan_id":"cebpf4jnsgd1na2vs0mg"},{"bike_id":"ba19fae0-44ee-437f-913a-8c915df8c368","system_id":"levelo_inurba_marseille","lat":43.28424,"lon":5.34992,"is_reserved":false,"is_disabled":false,"rental_uris":{"android":"levelo://app?vid=ba19fae0-44ee-437f-913a-8c915df8c368","ios":"levelo://app?vid=ba19fae0-44ee-437f-913a-8c915df8c368"},"vehicle_type_id":"4","last_reported":1753726615,"current_range_meters":12000,"station_id":"ce4bhbh2rcd13ifvqepg","pricing_plan_id":"cebpf4jnsgd1na2vs0mg"},{"bike_id":"209c73e6-1f69-4d13-9fed-77cb46eecd05","system_id":"levelo_inurba_marseille","lat":43.34681,"lon":5.38065,"is_reserved":false,"is_disabled":false,"rental_uris":{"android":"levelo://app?vid=209c73e6-1f69-4d13-9fed-77cb46eecd05","ios":"levelo://app?vid=209c73e6-1f69-4d13-9fed-77cb46eecd05"},"vehicle_type_id":"4","last_reported":1753726615,"current_range_meters":12000,"station_id":"","pricing_plan_id":"cebpf4jnsgd1na2vs0mg"},{"bike_id":"465af1c6-94fa-401b-ad2c-153493985e44","system_id":"levelo_inurba_marseille","lat":43.3173,"lon":5.37682,"is_reserved":false,"is_disabled":false,"rental_uris":{"android":"levelo://app?vid=465af1c6-94fa-401b-ad2c-153493985e44","ios":"levelo://app?vid=465af1c6-94fa-401b-ad2c-153493985e44"},"vehicle_type_id":"4","last_reported":1753726615,"current_range_meters":12000,"station_id":"","pricing_plan_id":"cebpf4jnsgd1na2vs0mg"},{"bike_id":"467035e7-1dac-427b-869f-c900d457faf0","system_id":"levelo_inurba_marseille","lat":43.29268,"lon":5.38445,"is_reserved":false,"is_disabled":false,"rental_uris":{"android":"levelo://app?vid=467035e7-1dac-427b-869f-c900d457faf0","ios":"levelo://app?vid=467035e7-1dac-427b-869f-c900d457faf0"},"vehicle_type_id":"4","last_reported":1753726615,"current_range_meters":12400,"station_id":"ce4bh692rcd13ifvqea0","pricing_plan_id":"cebpf4jnsgd1na2vs0mg"},{"bike_id":"95dd70e4-879c-49e7-b318-a6c71b22a43e","system_id":"levelo_inurba_marseille","lat":43.2703,"lon":5.39295,"is_reserved":false,"is_disabled":false,"rental_uris":{"android":"levelo://app?vid=95dd70e4-879c-49e7-b318-a6c71b22a43e","ios":"levelo://app?vid=95dd70e4-879c-49e7-b318-a6c71b22a43e"},"vehicle_type_id":"4","last_reported":1753726615,"current_range_meters":12400,"station_id":"","pricing_plan_id":"cebpf4jnsgd1na2vs0mg"},{"bike_id":"84036e62-78c0-42e9-a5c2-ad3d3703bc8c","system_id":"levelo_inurba_marseille","lat":43.27958,"lon":5.41013,"is_reserved":false,"is_disabled":true,"rental_uris":{"android":"levelo://app?vid=84036e62-78c0-42e9-a5c2-ad3d3703bc8c","ios":"levelo://app?vid=84036e62-78c0-42e9-a5c2-ad3d3703bc8c"},"vehicle_type_id":"4","last_reported":1753726615,"current_range_meters":12400,"station_id":"ce4bhnp2rcd13ifvqh0g","pricing_plan_id":"cebpf4jnsgd1na2vs0mg"},{"bike_id":"db15df94-751f-47d3-b406-7ea54ed4473f","system_id":"levelo_inurba_marseille","lat":43.32479,"lon":5.36556,"is_reserved":false,"is_disabled":false,"rental_uris":{"android":"levelo://app?vid=db15df94-751f-47d3-b406-7ea54ed4473f","ios":"levelo://app?vid=db15df94-751f-47d3-b406-7ea54ed4473f"},"vehicle_type_id":"4","last_reported":1753726615,"current_range_meters":12000,"station_id":"ce4bhs12rcd13ifvqhvg","pricing_plan_id":"cebpf4jnsgd1na2vs0mg"},{"bike_id":"8156ba1c-79d1-400d-96a0-33669bb7caeb","system_id":"levelo_inurba_marseille","lat":43.32619,"lon":5.41118,"is_reserved":false,"is_disabled":false,"rental_uris":{"android":"levelo://app?vid=8156ba1c-79d1-400d-96a0-33669bb7caeb","ios":"levelo://app?vid=8156ba1c-79d1-400d-96a0-33669bb7caeb"},"vehicle_type_id":"4","last_reported":1753726615,"current_range_meters":12400,"station_id":"","pricing_plan_id":"cebpf4jnsgd1na2vs0mg"},{"bike_id":"acbc5739-05e4-42d8-9f55-3a6f6fc96491","system_id":"levelo_inurba_marseille","lat":43.28482,"lon":5.385635,"is_reserved":false,"is_disabled":false,"rental_uris":{"android":"levelo://app?vid=acbc5739-05e4-42d8-9f55-3a6f6fc96491","ios":"levelo://app?vid=acbc5739-05e4-42d8-9f55-3a6f6fc96491"},"vehicle_type_id":"4","last_reported":1753726615,"current_range_meters":12400,"station_id":"ce4bh8p2rcd13ifvqeb0","pricing_plan_id":"cebpf4jnsgd1na2vs0mg"},{"bike_id":"499cbe0c-4171-4c1f-a9b2-402296baf9ee","system_id":"levelo_inurba_marseille","lat":43.28609,"lon":5.37063,"is_reserved":false,"is_disabled":false,"rental_uris":{"android":"levelo://app?vid=499cbe0c-4171-4c1f-a9b2-402296baf9ee","ios":"levelo://app?vid=499cbe0c-4171-4c1f-a9b2-402296baf9ee"},"vehicle_type_id":"4","last_reported":1753726615,"current_range_meters":12000,"station_id":"ce4bht12rcd13ifvqi60","pricing_plan_id":"cebpf4jnsgd1na2vs0mg"},{"bike_id":"e861d438-5344-4ef2-8000-b8f1436392f4","system_id":"levelo_inurba_marseille","lat":43.29266,"lon":5.38436,"is_reserved":false,"is_disabled":false,"rental_uris":{"android":"levelo://app?vid=e861d438-5344-4ef2-8000-b8f1436392f4","ios":"levelo://app?vid=e861d438-5344-4ef2-8000-b8f1436392f4"},"vehicle_type_id":"4","last_reported":1753726615,"current_range_meters":12400,"station_id":"ce4bh692rcd13ifvqea0","pricing_plan_id":"cebpf4jnsgd1na2vs0mg"},{"bike_id":"d5d3f250-6969-45ec-83ba-0628405c993c","system_id":"levelo_inurba_marseille","lat":43.29277,"lon":5.38421,"is_reserved":false,"is_disabled":false,"rental_uris":{"android":"levelo://app?vid=d5d3f250-6969-45ec-83ba-0628405c993c","ios":"levelo://app?vid=d5d3f250-6969-45ec-83ba-0628405c993c"},"vehicle_type_id":"4","last_reported":1753726615,"current_range_meters":12800,"station_id":"ce4bh692rcd13ifvqea0","pricing_plan_id":"cebpf4jnsgd1na2vs0mg"},{"bike_id":"a610f13a-d337-4572-b51e-f2d98f76dda5","system_id":"levelo_inurba_marseille","lat":43.280001,"lon":5.416657,"is_reserved":false,"is_disabled":false,"rental_uris":{"android":"levelo://app?vid=a610f13a-d337-4572-b51e-f2d98f76dda5","ios":"levelo://app?vid=a610f13a-d337-4572-b51e-f2d98f76dda5"},"vehicle_type_id":"4","last_reported":1753726615,"current_range_meters":12800,"station_id":"ce4bho12rcd13ifvqh1g","pricing_plan_id":"cebpf4jnsgd1na2vs0mg"},{"bike_id":"033daf27-4a13-4a3f-8af0-ba01e18c00f4","system_id":"levelo_inurba_marseille","lat":43.30313,"lon":5.39212,"is_reserved":false,"is_disabled":false,"rental_uris":{"android":"levelo://app?vid=033daf27-4a13-4a3f-8af0-ba01e18c00f4","ios":"levelo://app?vid=033daf27-4a13-4a3f-8af0-ba01e18c00f4"},"vehicle_type_id":"4","last_reported":1753726615,"current_range_meters":12800,"station_id":"ce4bgkh2rcd13ifvqbk0","pricing_plan_id":"cebpf4jnsgd1na2vs0mg"},{"bike_id":"4a769e3b-29bf-451a-9f2c-2df91ce8f0bb","system_id":"levelo_inurba_marseille","lat":43.28607,"lon":5.37059,"is_reserved":false,"is_disabled":false,"rental_uris":{"android":"levelo://app?vid=4a769e3b-29bf-451a-9f2c-2df91ce8f0bb","ios":"levelo://app?vid=4a769e3b-29bf-451a-9f2c-2df91ce8f0bb"},"vehicle_type_id":"4","last_reported":1753726615,"current_range_meters":12800,"station_id":"ce4bht12rcd13ifvqi60","pricing_plan_id":"cebpf4jnsgd1na2vs0mg"},{"bike_id":"73da2ba0-87d7-4b99-ab59-197a71ae22ea","system_id":"levelo_inurba_marseille","lat":43.31325,"lon":5.39684,"is_reserved":false,"is_disabled":false,"rental_uris":{"android":"levelo://app?vid=73da2ba0-87d7-4b99-ab59-197a71ae22ea","ios":"levelo://app?vid=73da2ba0-87d7-4b99-ab59-197a71ae22ea"},"vehicle_type_id":"4","last_reported":1753726615,"current_range_meters":12800,"station_id":"ce4bgvp2rcd13ifvqcu0","pricing_plan_id":"cebpf4jnsgd1na2vs0mg"},{"bike_id":"4d89a707-d0ae-48ea-b2af-52a4d3443061","system_id":"levelo_inurba_marseille","lat":43.23191,"lon":5.39949,"is_reserved":false,"is_disabled":false,"rental_uris":{"android":"levelo://app?vid=4d89a707-d0ae-48ea-b2af-52a4d3443061","ios":"levelo://app?vid=4d89a707-d0ae-48ea-b2af-52a4d3443061"},"vehicle_type_id":"4","last_reported":1753726615,"current_range_meters":12800,"station_id":"ce4bhn12rcd13ifvqgqg","pricing_plan_id":"cebpf4jnsgd1na2vs0mg"},{"bike_id":"65bb749b-e8d8-47a7-b090-32851f9b7edd","system_id":"levelo_inurba_marseille","lat":43.28265,"lon":5.35048,"is_reserved":false,"is_disabled":true,"rental_uris":{"android":"levelo://app?vid=65bb749b-e8d8-47a7-b090-32851f9b7edd","ios":"levelo://app?vid=65bb749b-e8d8-47a7-b090-32851f9b7edd"},"vehicle_type_id":"4","last_reported":1753726615,"current_range_meters":12800,"station_id":"ce4bhbp2rcd13ifvqerg","pricing_plan_id":"cebpf4jnsgd1na2vs0mg"},{"bike_id":"4df3d709-651c-48c3-9436-e24d34153eb5","system_id":"levelo_inurba_marseille","lat":43.31489,"lon":5.37305,"is_reserved":false,"is_disabled":false,"rental_uris":{"android":"levelo://app?vid=4df3d709-651c-48c3-9436-e24d34153eb5","ios":"levelo://app?vid=4df3d709-651c-48c3-9436-e24d34153eb5"},"vehicle_type_id":"4","last_reported":1753726615,"current_range_meters":12800,"station_id":"ce4bgt12rcd13ifvqcd0","pricing_plan_id":"cebpf4jnsgd1na2vs0mg"},{"bike_id":"37f2d1c7-f98a-4c8b-985f-80b69e17444f","system_id":"levelo_inurba_marseille","lat":43.29532,"lon":5.38542,"is_reserved":false,"is_disabled":false,"rental_uris":{"android":"levelo://app?vid=37f2d1c7-f98a-4c8b-985f-80b69e17444f","ios":"levelo://app?vid=37f2d1c7-f98a-4c8b-985f-80b69e17444f"},"vehicle_type_id":"4","last_reported":1753726615,"current_range_meters":13600,"station_id":"ce4bgih2rcd13ifvqba0","pricing_plan_id":"cebpf4jnsgd1na2vs0mg"},{"bike_id":"655c52db-a601-48df-b0bc-96a62f6ac9a0","system_id":"levelo_inurba_marseille","lat":43.30363,"lon":5.42517,"is_reserved":false,"is_disabled":false,"rental_uris":{"android":"levelo://app?vid=655c52db-a601-48df-b0bc-96a62f6ac9a0","ios":"levelo://app?vid=655c52db-a601-48df-b0bc-96a62f6ac9a0"},"vehicle_type_id":"4","last_reported":1753726615,"current_range_meters":13600,"station_id":"ce4bhoh2rcd13ifvqh6g","pricing_plan_id":"cebpf4jnsgd1na2vs0mg"},{"bike_id":"3dd2b2f9-64bc-4f1c-ad06-386f2ab19894","system_id":"levelo_inurba_marseille","lat":43.297554,"lon":5.364374,"is_reserved":false,"is_disabled":false,"rental_uris":{"android":"levelo://app?vid=3dd2b2f9-64bc-4f1c-ad06-386f2ab19894","ios":"levelo://app?vid=3dd2b2f9-64bc-4f1c-ad06-386f2ab19894"},"vehicle_type_id":"4","last_reported":1753726615,"current_range_meters":13600,"station_id":"","pricing_plan_id":"cebpf4jnsgd1na2vs0mg"},{"bike_id":"ce0c42fe-f62e-4943-8979-97f7b10d3e23","system_id":"levelo_inurba_marseille","lat":43.32654,"lon":5.40995,"is_reserved":false,"is_disabled":false,"rental_uris":{"android":"levelo://app?vid=ce0c42fe-f62e-4943-8979-97f7b10d3e23","ios":"levelo://app?vid=ce0c42fe-f62e-4943-8979-97f7b10d3e23"},"vehicle_type_id":"4","last_reported":1753726615,"current_range_meters":13600,"station_id":"ce4bhpp2rcd13ifvqhgg","pricing_plan_id":"cebpf4jnsgd1na2vs0mg"},{"bike_id":"947cf9dd-0905-42a3-aafb-8e1c05b7ea7a","system_id":"levelo_inurba_marseille","lat":43.308178,"lon":5.38221,"is_reserved":false,"is_disabled":false,"rental_uris":{"android":"levelo://app?vid=947cf9dd-0905-42a3-aafb-8e1c05b7ea7a","ios":"levelo://app?vid=947cf9dd-0905-42a3-aafb-8e1c05b7ea7a"},"vehicle_type_id":"4","last_reported":1753726615,"current_range_meters":13600,"station_id":"","pricing_plan_id":"cebpf4jnsgd1na2vs0mg"},{"bike_id":"4f3eceeb-484e-46ed-94e7-ec7412413a8d","system_id":"levelo_inurba_marseille","lat":43.30887,"lon":5.39658,"is_reserved":false,"is_disabled":false,"rental_uris":{"android":"levelo://app?vid=4f3eceeb-484e-46ed-94e7-ec7412413a8d","ios":"levelo://app?vid=4f3eceeb-484e-46ed-94e7-ec7412413a8d"},"vehicle_type_id":"4","last_reported":1753726615,"current_range_meters":13600,"station_id":"ce4bh012rcd13ifvqcv0","pricing_plan_id":"cebpf4jnsgd1na2vs0mg"},{"bike_id":"de6a0433-2e48-4a4c-91a0-78cd9ed14adf","system_id":"levelo_inurba_marseille","lat":43.28918,"lon":5.38393,"is_reserved":false,"is_disabled":false,"rental_uris":{"android":"levelo://app?vid=de6a0433-2e48-4a4c-91a0-78cd9ed14adf","ios":"levelo://app?vid=de6a0433-2e48-4a4c-91a0-78cd9ed14adf"},"vehicle_type_id":"4","last_reported":1753726615,"current_range_meters":13600,"station_id":"ce4bh612rcd13ifvqe6g","pricing_plan_id":"cebpf4jnsgd1na2vs0mg"},{"bike_id":"17b0b40d-41d3-4e12-b89f-9e4a32b7ab29","system_id":"levelo_inurba_marseille","lat":43.28023,"lon":5.36938,"is_reserved":false,"is_disabled":false,"rental_uris":{"android":"levelo://app?vid=17b0b40d-41d3-4e12-b89f-9e4a32b7ab29","ios":"levelo://app?vid=17b0b40d-41d3-4e12-b89f-9e4a32b7ab29"},"vehicle_type_id":"4","last_reported":1753726615,"current_range_meters":14000,"station_id":"ce4bha12rcd13ifvqef0","pricing_plan_id":"cebpf4jnsgd1na2vs0mg"},{"bike_id":"7dd1a394-ac3b-45ae-8f59-195d372bf63b","system_id":"levelo_inurba_marseille","lat":43.30109,"lon":5.38079,"is_reserved":false,"is_disabled":true,"rental_uris":{"android":"levelo://app?vid=7dd1a394-ac3b-45ae-8f59-195d372bf63b","ios":"levelo://app?vid=7dd1a394-ac3b-45ae-8f59-195d372bf63b"},"vehicle_type_id":"4","last_reported":1753726615,"current_range_meters":14000,"station_id":"ce4bgjp2rcd13ifvqbh0","pricing_plan_id":"cebpf4jnsgd1na2vs0mg"},{"bike_id":"c5d6c16c-667e-4c61-9e09-b5efae6e86bc","system_id":"levelo_inurba_marseille","lat":43.29919,"lon":5.43663,"is_reserved":false,"is_disabled":false,"rental_uris":{"android":"levelo://app?vid=c5d6c16c-667e-4c61-9e09-b5efae6e86bc","ios":"levelo://app?vid=c5d6c16c-667e-4c61-9e09-b5efae6e86bc"},"vehicle_type_id":"4","last_reported":1753726615,"current_range_meters":14000,"station_id":"ce4bhpp2rcd13ifvqhfg","pricing_plan_id":"cebpf4jnsgd1na2vs0mg"},{"bike_id":"14227e06-08f3-4985-b75b-ee8866a47490","system_id":"levelo_inurba_marseille","lat":43.304196,"lon":5.397444,"is_reserved":false,"is_disabled":false,"rental_uris":{"android":"levelo://app?vid=14227e06-08f3-4985-b75b-ee8866a47490","ios":"levelo://app?vid=14227e06-08f3-4985-b75b-ee8866a47490"},"vehicle_type_id":"4","last_reported":1753726615,"current_range_meters":14000,"station_id":"ce4bh092rcd13ifvqd20","pricing_plan_id":"cebpf4jnsgd1na2vs0mg"},{"bike_id":"aafba76e-3da3-4ebb-9332-0bac111897c0","system_id":"levelo_inurba_marseille","lat":43.22922,"lon":5.35381,"is_reserved":false,"is_disabled":false,"rental_uris":{"android":"levelo://app?vid=aafba76e-3da3-4ebb-9332-0bac111897c0","ios":"levelo://app?vid=aafba76e-3da3-4ebb-9332-0bac111897c0"},"vehicle_type_id":"4","last_reported":1753726615,"current_range_meters":14000,"station_id":"cpo3532slgdg3j2ikp40","pricing_plan_id":"cebpf4jnsgd1na2vs0mg"},{"bike_id":"882bdff1-651a-41c1-9ab0-596f43205cf1","system_id":"levelo_inurba_marseille","lat":43.337444,"lon":5.374475,"is_reserved":false,"is_disabled":false,"rental_uris":{"android":"levelo://app?vid=882bdff1-651a-41c1-9ab0-596f43205cf1","ios":"levelo://app?vid=882bdff1-651a-41c1-9ab0-596f43205cf1"},"vehicle_type_id":"4","last_reported":1753726615,"current_range_meters":14400,"station_id":"ce4bgkp2rcd13ifvqbmg","pricing_plan_id":"cebpf4jnsgd1na2vs0mg"},{"bike_id":"2fff0963-a9c2-4145-b00f-e7e3f781128c","system_id":"levelo_inurba_marseille","lat":43.30318,"lon":5.40435,"is_reserved":false,"is_disabled":false,"rental_uris":{"android":"levelo://app?vid=2fff0963-a9c2-4145-b00f-e7e3f781128c","ios":"levelo://app?vid=2fff0963-a9c2-4145-b00f-e7e3f781128c"},"vehicle_type_id":"4","last_reported":1753726615,"current_range_meters":14400,"station_id":"ce4bh012rcd13ifvqd10","pricing_plan_id":"cebpf4jnsgd1na2vs0mg"},{"bike_id":"3f496ed7-9a33-4d4a-8a33-a653e8bae2fd","system_id":"levelo_inurba_marseille","lat":43.32348,"lon":5.40595,"is_reserved":false,"is_disabled":false,"rental_uris":{"android":"levelo://app?vid=3f496ed7-9a33-4d4a-8a33-a653e8bae2fd","ios":"levelo://app?vid=3f496ed7-9a33-4d4a-8a33-a653e8bae2fd"},"vehicle_type_id":"4","last_reported":1753726615,"current_range_meters":14400,"station_id":"ce4bhq92rcd13ifvqhjg","pricing_plan_id":"cebpf4jnsgd1na2vs0mg"},{"bike_id":"e0ce0053-71c4-4b07-8b9e-379e7ce2bf22","system_id":"levelo_inurba_marseille","lat":43.30281,"lon":5.3979,"is_reserved":false,"is_disabled":false,"rental_uris":{"android":"levelo://app?vid=e0ce0053-71c4-4b07-8b9e-379e7ce2bf22","ios":"levelo://app?vid=e0ce0053-71c4-4b07-8b9e-379e7ce2bf22"},"vehicle_type_id":"4","last_reported":1753726615,"current_range_meters":14400,"station_id":"","pricing_plan_id":"cebpf4jnsgd1na2vs0mg"},{"bike_id":"2a3a9f20-00d1-4c95-a093-ba8e28724bc0","system_id":"levelo_inurba_marseille","lat":43.30653,"lon":5.37591,"is_reserved":false,"is_disabled":false,"rental_uris":{"android":"levelo://app?vid=2a3a9f20-00d1-4c95-a093-ba8e28724bc0","ios":"levelo://app?vid=2a3a9f20-00d1-4c95-a093-ba8e28724bc0"},"vehicle_type_id":"4","last_reported":1753726615,"current_range_meters":14400,"station_id":"","pricing_plan_id":"cebpf4jnsgd1na2vs0mg"},{"bike_id":"c13ce413-660f-4ff8-9547-d17d0704485e","system_id":"levelo_inurba_marseille","lat":43.21166,"lon":5.35095,"is_reserved":false,"is_disabled":false,"rental_uris":{"android":"levelo://app?vid=c13ce413-660f-4ff8-9547-d17d0704485e","ios":"levelo://app?vid=c13ce413-660f-4ff8-9547-d17d0704485e"},"vehicle_type_id":"4","last_reported":1753726615,"current_range_meters":14800,"station_id":"","pricing_plan_id":"cebpf4jnsgd1na2vs0mg"},{"bike_id":"a9825f87-f223-4367-b468-ecf662eae7ce","system_id":"levelo_inurba_marseille","lat":43.29214,"lon":5.3577,"is_reserved":false,"is_disabled":false,"rental_uris":{"android":"levelo://app?vid=a9825f87-f223-4367-b468-ecf662eae7ce","ios":"levelo://app?vid=a9825f87-f223-4367-b468-ecf662eae7ce"},"vehicle_type_id":"4","last_reported":1753726615,"current_range_meters":14800,"station_id":"ce4bhb12rcd13ifvqel0","pricing_plan_id":"cebpf4jnsgd1na2vs0mg"},{"bike_id":"d4b0442d-37e3-4887-8827-87b59f4e9086","system_id":"levelo_inurba_marseille","lat":43.2977,"lon":5.38108,"is_reserved":false,"is_disabled":false,"rental_uris":{"android":"levelo://app?vid=d4b0442d-37e3-4887-8827-87b59f4e9086","ios":"levelo://app?vid=d4b0442d-37e3-4887-8827-87b59f4e9086"},"vehicle_type_id":"4","last_reported":1753726615,"current_range_meters":14800,"station_id":"","pricing_plan_id":"cebpf4jnsgd1na2vs0mg"},{"bike_id":"a0757552-cef1-4156-a44e-da8e0ad06a62","system_id":"levelo_inurba_marseille","lat":43.22931,"lon":5.35375,"is_reserved":false,"is_disabled":false,"rental_uris":{"android":"levelo://app?vid=a0757552-cef1-4156-a44e-da8e0ad06a62","ios":"levelo://app?vid=a0757552-cef1-4156-a44e-da8e0ad06a62"},"vehicle_type_id":"4","last_reported":1753726615,"current_range_meters":14800,"station_id":"","pricing_plan_id":"cebpf4jnsgd1na2vs0mg"},{"bike_id":"f297ecb0-f504-4ce2-a698-235b8f25b26b","system_id":"levelo_inurba_marseille","lat":43.24164,"lon":5.36401,"is_reserved":false,"is_disabled":false,"rental_uris":{"android":"levelo://app?vid=f297ecb0-f504-4ce2-a698-235b8f25b26b","ios":"levelo://app?vid=f297ecb0-f504-4ce2-a698-235b8f25b26b"},"vehicle_type_id":"4","last_reported":1753726615,"current_range_meters":14800,"station_id":"cpo36qri1sfpv3e86is0","pricing_plan_id":"cebpf4jnsgd1na2vs0mg"},{"bike_id":"a9cb653a-71c3-4456-bb06-70f202a21134","system_id":"levelo_inurba_marseille","lat":43.27836,"lon":5.39202,"is_reserved":false,"is_disabled":false,"rental_uris":{"android":"levelo://app?vid=a9cb653a-71c3-4456-bb06-70f202a21134","ios":"levelo://app?vid=a9cb653a-71c3-4456-bb06-70f202a21134"},"vehicle_type_id":"4","last_reported":1753726615,"current_range_meters":14800,"station_id":"ce4bhjp2rcd13ifvqga0","pricing_plan_id":"cebpf4jnsgd1na2vs0mg"},{"bike_id":"9cbe306a-82c5-452b-9389-03a73f115693","system_id":"levelo_inurba_marseille","lat":43.292764,"lon":5.368438,"is_reserved":false,"is_disabled":false,"rental_uris":{"android":"levelo://app?vid=9cbe306a-82c5-452b-9389-03a73f115693","ios":"levelo://app?vid=9cbe306a-82c5-452b-9389-03a73f115693"},"vehicle_type_id":"4","last_reported":1753726615,"current_range_meters":14800,"station_id":"ce4bhbp2rcd13ifvqesg","pricing_plan_id":"cebpf4jnsgd1na2vs0mg"},{"bike_id":"c1ed0047-371a-402e-a73a-0992f7f3ab1a","system_id":"levelo_inurba_marseille","lat":43.27212,"lon":5.40976,"is_reserved":false,"is_disabled":true,"rental_uris":{"android":"levelo://app?vid=c1ed0047-371a-402e-a73a-0992f7f3ab1a","ios":"levelo://app?vid=c1ed0047-371a-402e-a73a-0992f7f3ab1a"},"vehicle_type_id":"4","last_reported":1753726615,"current_range_meters":15200,"station_id":"ce4bhl12rcd13ifvqgf0","pricing_plan_id":"cebpf4jnsgd1na2vs0mg"},{"bike_id":"f300057d-7ab5-4146-a741-d20b49532b99","system_id":"levelo_inurba_marseille","lat":43.29968,"lon":5.37161,"is_reserved":false,"is_disabled":true,"rental_uris":{"android":"levelo://app?vid=f300057d-7ab5-4146-a741-d20b49532b99","ios":"levelo://app?vid=f300057d-7ab5-4146-a741-d20b49532b99"},"vehicle_type_id":"4","last_reported":1753726615,"current_range_meters":15200,"station_id":"ce4bgr92rcd13ifvqc7g","pricing_plan_id":"cebpf4jnsgd1na2vs0mg"},{"bike_id":"838985dc-6a56-4eb0-9ea8-88f116604154","system_id":"levelo_inurba_marseille","lat":43.29783,"lon":5.39329,"is_reserved":false,"is_disabled":false,"rental_uris":{"android":"levelo://app?vid=838985dc-6a56-4eb0-9ea8-88f116604154","ios":"levelo://app?vid=838985dc-6a56-4eb0-9ea8-88f116604154"},"vehicle_type_id":"4","last_reported":1753726615,"current_range_meters":15200,"station_id":"chh1huq6cuj3fo74tm60","pricing_plan_id":"cebpf4jnsgd1na2vs0mg"},{"bike_id":"d83c4d0a-f4a7-4c3c-b198-f78a8d9102c3","system_id":"levelo_inurba_marseille","lat":43.24814,"lon":5.37454,"is_reserved":false,"is_disabled":false,"rental_uris":{"android":"levelo://app?vid=d83c4d0a-f4a7-4c3c-b198-f78a8d9102c3","ios":"levelo://app?vid=d83c4d0a-f4a7-4c3c-b198-f78a8d9102c3"},"vehicle_type_id":"4","last_reported":1753726615,"current_range_meters":16000,"station_id":"ce4bhgh2rcd13ifvqfb0","pricing_plan_id":"cebpf4jnsgd1na2vs0mg"},{"bike_id":"3c6d990b-d853-4774-9e68-ab11c54c28bf","system_id":"levelo_inurba_marseille","lat":43.28419,"lon":5.34986,"is_reserved":false,"is_disabled":false,"rental_uris":{"android":"levelo://app?vid=3c6d990b-d853-4774-9e68-ab11c54c28bf","ios":"levelo://app?vid=3c6d990b-d853-4774-9e68-ab11c54c28bf"},"vehicle_type_id":"4","last_reported":1753726615,"current_range_meters":15200,"station_id":"ce4bhbh2rcd13ifvqepg","pricing_plan_id":"cebpf4jnsgd1na2vs0mg"},{"bike_id":"2c05888a-7ae8-44a4-a376-fc4db5630c25","system_id":"levelo_inurba_marseille","lat":43.28622,"lon":5.35116,"is_reserved":false,"is_disabled":false,"rental_uris":{"android":"levelo://app?vid=2c05888a-7ae8-44a4-a376-fc4db5630c25","ios":"levelo://app?vid=2c05888a-7ae8-44a4-a376-fc4db5630c25"},"vehicle_type_id":"4","last_reported":1753726615,"current_range_meters":15200,"station_id":"ce4bhch2rcd13ifvqeug","pricing_plan_id":"cebpf4jnsgd1na2vs0mg"},{"bike_id":"92fb6ac0-23dc-47f9-9358-bdcac2abbaaa","system_id":"levelo_inurba_marseille","lat":43.29535,"lon":5.38538,"is_reserved":false,"is_disabled":false,"rental_uris":{"android":"levelo://app?vid=92fb6ac0-23dc-47f9-9358-bdcac2abbaaa","ios":"levelo://app?vid=92fb6ac0-23dc-47f9-9358-bdcac2abbaaa"},"vehicle_type_id":"4","last_reported":1753726615,"current_range_meters":15200,"station_id":"ce4bgih2rcd13ifvqba0","pricing_plan_id":"cebpf4jnsgd1na2vs0mg"},{"bike_id":"11c69a97-b7e0-42d3-944b-4bcccd2f1b1f","system_id":"levelo_inurba_marseille","lat":43.28606,"lon":5.37065,"is_reserved":false,"is_disabled":false,"rental_uris":{"android":"levelo://app?vid=11c69a97-b7e0-42d3-944b-4bcccd2f1b1f","ios":"levelo://app?vid=11c69a97-b7e0-42d3-944b-4bcccd2f1b1f"},"vehicle_type_id":"4","last_reported":1753726615,"current_range_meters":14800,"station_id":"ce4bht12rcd13ifvqi60","pricing_plan_id":"cebpf4jnsgd1na2vs0mg"},{"bike_id":"52fa2f88-6678-4b0d-bdeb-77d5e9331688","system_id":"levelo_inurba_marseille","lat":43.212,"lon":5.35047,"is_reserved":false,"is_disabled":false,"rental_uris":{"android":"levelo://app?vid=52fa2f88-6678-4b0d-bdeb-77d5e9331688","ios":"levelo://app?vid=52fa2f88-6678-4b0d-bdeb-77d5e9331688"},"vehicle_type_id":"4","last_reported":1753726615,"current_range_meters":15200,"station_id":"st_cvj6sg6p6f1abm77japg","pricing_plan_id":"cebpf4jnsgd1na2vs0mg"},{"bike_id":"aa5a394a-b1fb-4d4c-a759-8ae175c6de22","system_id":"levelo_inurba_marseille","lat":43.284827,"lon":5.384192,"is_reserved":false,"is_disabled":false,"rental_uris":{"android":"levelo://app?vid=aa5a394a-b1fb-4d4c-a759-8ae175c6de22","ios":"levelo://app?vid=aa5a394a-b1fb-4d4c-a759-8ae175c6de22"},"vehicle_type_id":"4","last_reported":1753726615,"current_range_meters":14800,"station_id":"ce4bh512rcd13ifvqe3g","pricing_plan_id":"cebpf4jnsgd1na2vs0mg"},{"bike_id":"0938e41e-f961-425a-8c0f-36baf4215fb9","system_id":"levelo_inurba_marseille","lat":43.27065,"lon":5.42277,"is_reserved":false,"is_disabled":false,"rental_uris":{"android":"levelo://app?vid=0938e41e-f961-425a-8c0f-36baf4215fb9","ios":"levelo://app?vid=0938e41e-f961-425a-8c0f-36baf4215fb9"},"vehicle_type_id":"4","last_reported":1753726615,"current_range_meters":15200,"station_id":"ce4bhk92rcd13ifvqgb0","pricing_plan_id":"cebpf4jnsgd1na2vs0mg"},{"bike_id":"f35a8188-523e-43aa-9056-5d2bc47ec88f","system_id":"levelo_inurba_marseille","lat":43.280365,"lon":5.369452,"is_reserved":false,"is_disabled":false,"rental_uris":{"android":"levelo://app?vid=f35a8188-523e-43aa-9056-5d2bc47ec88f","ios":"levelo://app?vid=f35a8188-523e-43aa-9056-5d2bc47ec88f"},"vehicle_type_id":"4","last_reported":1753726615,"current_range_meters":16000,"station_id":"ce4bha12rcd13ifvqef0","pricing_plan_id":"cebpf4jnsgd1na2vs0mg"},{"bike_id":"6ce59e7d-af7c-470a-a4d3-cfa7b81f9c5a","system_id":"levelo_inurba_marseille","lat":43.30126,"lon":5.38779,"is_reserved":false,"is_disabled":false,"rental_uris":{"android":"levelo://app?vid=6ce59e7d-af7c-470a-a4d3-cfa7b81f9c5a","ios":"levelo://app?vid=6ce59e7d-af7c-470a-a4d3-cfa7b81f9c5a"},"vehicle_type_id":"4","last_reported":1753726615,"current_range_meters":16000,"station_id":"ce4bghh2rcd13ifvqb60","pricing_plan_id":"cebpf4jnsgd1na2vs0mg"},{"bike_id":"fcba826c-025e-47c0-aba6-cc7fa0ebbdf5","system_id":"levelo_inurba_marseille","lat":43.28612,"lon":5.35111,"is_reserved":false,"is_disabled":false,"rental_uris":{"android":"levelo://app?vid=fcba826c-025e-47c0-aba6-cc7fa0ebbdf5","ios":"levelo://app?vid=fcba826c-025e-47c0-aba6-cc7fa0ebbdf5"},"vehicle_type_id":"4","last_reported":1753726615,"current_range_meters":16000,"station_id":"ce4bhch2rcd13ifvqeug","pricing_plan_id":"cebpf4jnsgd1na2vs0mg"},{"bike_id":"50214110-0893-497b-8a40-8b9bcb344c06","system_id":"levelo_inurba_marseille","lat":43.284085,"lon":5.349752,"is_reserved":false,"is_disabled":false,"rental_uris":{"android":"levelo://app?vid=50214110-0893-497b-8a40-8b9bcb344c06","ios":"levelo://app?vid=50214110-0893-497b-8a40-8b9bcb344c06"},"vehicle_type_id":"4","last_reported":1753726615,"current_range_meters":16000,"station_id":"ce4bhbh2rcd13ifvqepg","pricing_plan_id":"cebpf4jnsgd1na2vs0mg"},{"bike_id":"1d599ca9-96fe-4939-8af9-7954ed58ad38","system_id":"levelo_inurba_marseille","lat":43.23549,"lon":5.36025,"is_reserved":false,"is_disabled":false,"rental_uris":{"android":"levelo://app?vid=1d599ca9-96fe-4939-8af9-7954ed58ad38","ios":"levelo://app?vid=1d599ca9-96fe-4939-8af9-7954ed58ad38"},"vehicle_type_id":"4","last_reported":1753726615,"current_range_meters":16000,"station_id":"","pricing_plan_id":"cebpf4jnsgd1na2vs0mg"},{"bike_id":"b5a9c95c-b3e9-4464-908a-30684a2d7b90","system_id":"levelo_inurba_marseille","lat":43.29003,"lon":5.35613,"is_reserved":false,"is_disabled":false,"rental_uris":{"android":"levelo://app?vid=b5a9c95c-b3e9-4464-908a-30684a2d7b90","ios":"levelo://app?vid=b5a9c95c-b3e9-4464-908a-30684a2d7b90"},"vehicle_type_id":"4","last_reported":1753726615,"current_range_meters":16000,"station_id":"ce4bhb92rcd13ifvqen0","pricing_plan_id":"cebpf4jnsgd1na2vs0mg"},{"bike_id":"f935bdfe-ce07-40e9-9f05-f13806b2bee8","system_id":"levelo_inurba_marseille","lat":43.22506,"lon":5.34756,"is_reserved":false,"is_disabled":false,"rental_uris":{"android":"levelo://app?vid=f935bdfe-ce07-40e9-9f05-f13806b2bee8","ios":"levelo://app?vid=f935bdfe-ce07-40e9-9f05-f13806b2bee8"},"vehicle_type_id":"4","last_reported":1753726615,"current_range_meters":16000,"station_id":"st_cvj5dfep6f1abm77gieg","pricing_plan_id":"cebpf4jnsgd1na2vs0mg"},{"bike_id":"32826f34-8228-4d4b-815c-cc490d99eb72","system_id":"levelo_inurba_marseille","lat":43.22498,"lon":5.3477,"is_reserved":false,"is_disabled":false,"rental_uris":{"android":"levelo://app?vid=32826f34-8228-4d4b-815c-cc490d99eb72","ios":"levelo://app?vid=32826f34-8228-4d4b-815c-cc490d99eb72"},"vehicle_type_id":"4","last_reported":1753726615,"current_range_meters":16000,"station_id":"st_cvj5dfep6f1abm77gieg","pricing_plan_id":"cebpf4jnsgd1na2vs0mg"},{"bike_id":"326e3f80-9d9e-4a28-82b8-7b240fccb8f5","system_id":"levelo_inurba_marseille","lat":43.288571,"lon":5.358642,"is_reserved":false,"is_disabled":false,"rental_uris":{"android":"levelo://app?vid=326e3f80-9d9e-4a28-82b8-7b240fccb8f5","ios":"levelo://app?vid=326e3f80-9d9e-4a28-82b8-7b240fccb8f5"},"vehicle_type_id":"4","last_reported":1753726615,"current_range_meters":16000,"station_id":"ce4bhb12rcd13ifvqem0","pricing_plan_id":"cebpf4jnsgd1na2vs0mg"},{"bike_id":"b97ffecd-6455-4c53-ac00-08f3870ed1f7","system_id":"levelo_inurba_marseille","lat":43.30006,"lon":5.37622,"is_reserved":false,"is_disabled":false,"rental_uris":{"android":"levelo://app?vid=b97ffecd-6455-4c53-ac00-08f3870ed1f7","ios":"levelo://app?vid=b97ffecd-6455-4c53-ac00-08f3870ed1f7"},"vehicle_type_id":"4","last_reported":1753726615,"current_range_meters":16000,"station_id":"","pricing_plan_id":"cebpf4jnsgd1na2vs0mg"},{"bike_id":"b7f55e5c-6bc9-4051-80ed-39f6e1e81991","system_id":"levelo_inurba_marseille","lat":43.280366,"lon":5.369468,"is_reserved":false,"is_disabled":false,"rental_uris":{"android":"levelo://app?vid=b7f55e5c-6bc9-4051-80ed-39f6e1e81991","ios":"levelo://app?vid=b7f55e5c-6bc9-4051-80ed-39f6e1e81991"},"vehicle_type_id":"4","last_reported":1753726615,"current_range_meters":16000,"station_id":"ce4bha12rcd13ifvqef0","pricing_plan_id":"cebpf4jnsgd1na2vs0mg"},{"bike_id":"379d82c2-f0f1-463f-a1f8-be9fae62ea1c","system_id":"levelo_inurba_marseille","lat":43.28151,"lon":5.42637,"is_reserved":false,"is_disabled":false,"rental_uris":{"android":"levelo://app?vid=379d82c2-f0f1-463f-a1f8-be9fae62ea1c","ios":"levelo://app?vid=379d82c2-f0f1-463f-a1f8-be9fae62ea1c"},"vehicle_type_id":"4","last_reported":1753726615,"current_range_meters":16000,"station_id":"ce4bhnh2rcd13ifvqgug","pricing_plan_id":"cebpf4jnsgd1na2vs0mg"},{"bike_id":"7d0bc366-7472-4dec-a2f3-a1ab117a465c","system_id":"levelo_inurba_marseille","lat":43.323,"lon":5.38258,"is_reserved":false,"is_disabled":false,"rental_uris":{"android":"levelo://app?vid=7d0bc366-7472-4dec-a2f3-a1ab117a465c","ios":"levelo://app?vid=7d0bc366-7472-4dec-a2f3-a1ab117a465c"},"vehicle_type_id":"4","last_reported":1753726615,"current_range_meters":16000,"station_id":"ce4bhr12rcd13ifvqhqg","pricing_plan_id":"cebpf4jnsgd1na2vs0mg"},{"bike_id":"753a1f17-1ad9-4eee-b576-471843602258","system_id":"levelo_inurba_marseille","lat":43.31689,"lon":5.40477,"is_reserved":false,"is_disabled":false,"rental_uris":{"android":"levelo://app?vid=753a1f17-1ad9-4eee-b576-471843602258","ios":"levelo://app?vid=753a1f17-1ad9-4eee-b576-471843602258"},"vehicle_type_id":"4","last_reported":1753726615,"current_range_meters":16400,"station_id":"ce4bh012rcd13ifvqd00","pricing_plan_id":"cebpf4jnsgd1na2vs0mg"},{"bike_id":"905576ef-66ce-426e-9600-566828c3b671","system_id":"levelo_inurba_marseille","lat":43.21745,"lon":5.34606,"is_reserved":false,"is_disabled":true,"rental_uris":{"android":"levelo://app?vid=905576ef-66ce-426e-9600-566828c3b671","ios":"levelo://app?vid=905576ef-66ce-426e-9600-566828c3b671"},"vehicle_type_id":"4","last_reported":1753726615,"current_range_meters":16400,"station_id":"","pricing_plan_id":"cebpf4jnsgd1na2vs0mg"},{"bike_id":"466ed295-6bec-43c6-8b11-8e96c2beac8d","system_id":"levelo_inurba_marseille","lat":43.22494,"lon":5.34766,"is_reserved":false,"is_disabled":false,"rental_uris":{"android":"levelo://app?vid=466ed295-6bec-43c6-8b11-8e96c2beac8d","ios":"levelo://app?vid=466ed295-6bec-43c6-8b11-8e96c2beac8d"},"vehicle_type_id":"4","last_reported":1753726615,"current_range_meters":16400,"station_id":"","pricing_plan_id":"cebpf4jnsgd1na2vs0mg"},{"bike_id":"76683f75-df5a-4cac-ba82-46ce545371c2","system_id":"levelo_inurba_marseille","lat":43.25087,"lon":5.3952,"is_reserved":false,"is_disabled":false,"rental_uris":{"android":"levelo://app?vid=76683f75-df5a-4cac-ba82-46ce545371c2","ios":"levelo://app?vid=76683f75-df5a-4cac-ba82-46ce545371c2"},"vehicle_type_id":"4","last_reported":1753726615,"current_range_meters":16400,"station_id":"ce4bhm12rcd13ifvqgkg","pricing_plan_id":"cebpf4jnsgd1na2vs0mg"},{"bike_id":"fbf45693-5f54-4d30-b67e-e30d19a02b46","system_id":"levelo_inurba_marseille","lat":43.31757,"lon":5.39016,"is_reserved":false,"is_disabled":false,"rental_uris":{"android":"levelo://app?vid=fbf45693-5f54-4d30-b67e-e30d19a02b46","ios":"levelo://app?vid=fbf45693-5f54-4d30-b67e-e30d19a02b46"},"vehicle_type_id":"4","last_reported":1753726615,"current_range_meters":16000,"station_id":"ce4bhqp2rcd13ifvqhng","pricing_plan_id":"cebpf4jnsgd1na2vs0mg"},{"bike_id":"40523d3c-3186-4c9d-bf57-cc5e90987418","system_id":"levelo_inurba_marseille","lat":43.24677,"lon":5.38159,"is_reserved":false,"is_disabled":false,"rental_uris":{"android":"levelo://app?vid=40523d3c-3186-4c9d-bf57-cc5e90987418","ios":"levelo://app?vid=40523d3c-3186-4c9d-bf57-cc5e90987418"},"vehicle_type_id":"4","last_reported":1753726615,"current_range_meters":16400,"station_id":"ce4bhih2rcd13ifvqfr0","pricing_plan_id":"cebpf4jnsgd1na2vs0mg"},{"bike_id":"80fc546e-9d29-4774-99e8-19237da691b3","system_id":"levelo_inurba_marseille","lat":43.25582,"lon":5.38234,"is_reserved":false,"is_disabled":false,"rental_uris":{"android":"levelo://app?vid=80fc546e-9d29-4774-99e8-19237da691b3","ios":"levelo://app?vid=80fc546e-9d29-4774-99e8-19237da691b3"},"vehicle_type_id":"4","last_reported":1753726615,"current_range_meters":16400,"station_id":"ce4bhih2rcd13ifvqfs0","pricing_plan_id":"cebpf4jnsgd1na2vs0mg"},{"bike_id":"0d5e8202-245e-4a24-b2d0-0e92081bf63a","system_id":"levelo_inurba_marseille","lat":43.29569,"lon":5.37524,"is_reserved":false,"is_disabled":false,"rental_uris":{"android":"levelo://app?vid=0d5e8202-245e-4a24-b2d0-0e92081bf63a","ios":"levelo://app?vid=0d5e8202-245e-4a24-b2d0-0e92081bf63a"},"vehicle_type_id":"4","last_reported":1753726615,"current_range_meters":16400,"station_id":"ce4bgh92rcd13ifvqb50","pricing_plan_id":"cebpf4jnsgd1na2vs0mg"},{"bike_id":"4f0d56f5-e54c-465b-a15e-32b747ab0912","system_id":"levelo_inurba_marseille","lat":43.31688,"lon":5.40485,"is_reserved":false,"is_disabled":true,"rental_uris":{"android":"levelo://app?vid=4f0d56f5-e54c-465b-a15e-32b747ab0912","ios":"levelo://app?vid=4f0d56f5-e54c-465b-a15e-32b747ab0912"},"vehicle_type_id":"4","last_reported":1753726615,"current_range_meters":16400,"station_id":"ce4bh012rcd13ifvqd00","pricing_plan_id":"cebpf4jnsgd1na2vs0mg"},{"bike_id":"1570fc31-acff-4c76-8b26-913f31756c7e","system_id":"levelo_inurba_marseille","lat":43.27062,"lon":5.42273,"is_reserved":false,"is_disabled":false,"rental_uris":{"android":"levelo://app?vid=1570fc31-acff-4c76-8b26-913f31756c7e","ios":"levelo://app?vid=1570fc31-acff-4c76-8b26-913f31756c7e"},"vehicle_type_id":"4","last_reported":1753726615,"current_range_meters":16400,"station_id":"ce4bhk92rcd13ifvqgb0","pricing_plan_id":"cebpf4jnsgd1na2vs0mg"},{"bike_id":"0fac0557-f8b9-4869-ba5b-0556fc1c0f59","system_id":"levelo_inurba_marseille","lat":43.29367,"lon":5.378553,"is_reserved":false,"is_disabled":false,"rental_uris":{"android":"levelo://app?vid=0fac0557-f8b9-4869-ba5b-0556fc1c0f59","ios":"levelo://app?vid=0fac0557-f8b9-4869-ba5b-0556fc1c0f59"},"vehicle_type_id":"4","last_reported":1753726615,"current_range_meters":16400,"station_id":"ce4bhbp2rcd13ifvqerg","pricing_plan_id":"cebpf4jnsgd1na2vs0mg"},{"bike_id":"4bfaa48f-84dd-4da8-8f81-81b4a794ffc8","system_id":"levelo_inurba_marseille","lat":43.244,"lon":5.37063,"is_reserved":false,"is_disabled":false,"rental_uris":{"android":"levelo://app?vid=4bfaa48f-84dd-4da8-8f81-81b4a794ffc8","ios":"levelo://app?vid=4bfaa48f-84dd-4da8-8f81-81b4a794ffc8"},"vehicle_type_id":"4","last_reported":1753726615,"current_range_meters":16400,"station_id":"ce4bhhh2rcd13ifvqfk0","pricing_plan_id":"cebpf4jnsgd1na2vs0mg"},{"bike_id":"9e27d81a-26ac-4b7e-ae61-bfa361a1ff06","system_id":"levelo_inurba_marseille","lat":43.28936,"lon":5.36634,"is_reserved":false,"is_disabled":false,"rental_uris":{"android":"levelo://app?vid=9e27d81a-26ac-4b7e-ae61-bfa361a1ff06","ios":"levelo://app?vid=9e27d81a-26ac-4b7e-ae61-bfa361a1ff06"},"vehicle_type_id":"4","last_reported":1753726615,"current_range_meters":16400,"station_id":"ce4bhap2rcd13ifvqek0","pricing_plan_id":"cebpf4jnsgd1na2vs0mg"},{"bike_id":"01a8e307-f9de-4eb5-a307-55559ca42c36","system_id":"levelo_inurba_marseille","lat":43.22495,"lon":5.34776,"is_reserved":false,"is_disabled":false,"rental_uris":{"android":"levelo://app?vid=01a8e307-f9de-4eb5-a307-55559ca42c36","ios":"levelo://app?vid=01a8e307-f9de-4eb5-a307-55559ca42c36"},"vehicle_type_id":"4","last_reported":1753726615,"current_range_meters":16400,"station_id":"st_cvj5dfep6f1abm77gieg","pricing_plan_id":"cebpf4jnsgd1na2vs0mg"},{"bike_id":"7f93c725-9db7-4ef6-98c4-7489e9db680f","system_id":"levelo_inurba_marseille","lat":43.28149,"lon":5.42637,"is_reserved":false,"is_disabled":false,"rental_uris":{"android":"levelo://app?vid=7f93c725-9db7-4ef6-98c4-7489e9db680f","ios":"levelo://app?vid=7f93c725-9db7-4ef6-98c4-7489e9db680f"},"vehicle_type_id":"4","last_reported":1753726615,"current_range_meters":16400,"station_id":"ce4bhnh2rcd13ifvqgug","pricing_plan_id":"cebpf4jnsgd1na2vs0mg"},{"bike_id":"57a14804-707e-4743-8fdc-ee255b7e6e88","system_id":"levelo_inurba_marseille","lat":43.28609,"lon":5.35124,"is_reserved":false,"is_disabled":false,"rental_uris":{"android":"levelo://app?vid=57a14804-707e-4743-8fdc-ee255b7e6e88","ios":"levelo://app?vid=57a14804-707e-4743-8fdc-ee255b7e6e88"},"vehicle_type_id":"4","last_reported":1753726615,"current_range_meters":16800,"station_id":"ce4bhch2rcd13ifvqeug","pricing_plan_id":"cebpf4jnsgd1na2vs0mg"},{"bike_id":"8ed1dc0e-d83c-42f2-b8b9-1a72d6bcbc4f","system_id":"levelo_inurba_marseille","lat":43.28855,"lon":5.35854,"is_reserved":false,"is_disabled":false,"rental_uris":{"android":"levelo://app?vid=8ed1dc0e-d83c-42f2-b8b9-1a72d6bcbc4f","ios":"levelo://app?vid=8ed1dc0e-d83c-42f2-b8b9-1a72d6bcbc4f"},"vehicle_type_id":"4","last_reported":1753726615,"current_range_meters":16800,"station_id":"ce4bhb12rcd13ifvqem0","pricing_plan_id":"cebpf4jnsgd1na2vs0mg"},{"bike_id":"edc93c31-35c3-4bc5-aec7-fdf1428c4e79","system_id":"levelo_inurba_marseille","lat":43.26165,"lon":5.37398,"is_reserved":false,"is_disabled":false,"rental_uris":{"android":"levelo://app?vid=edc93c31-35c3-4bc5-aec7-fdf1428c4e79","ios":"levelo://app?vid=edc93c31-35c3-4bc5-aec7-fdf1428c4e79"},"vehicle_type_id":"4","last_reported":1753726615,"current_range_meters":16800,"station_id":"ce4bhgp2rcd13ifvqfc0","pricing_plan_id":"cebpf4jnsgd1na2vs0mg"},{"bike_id":"8f346c07-df4f-459b-ac59-d111eb9f0783","system_id":"levelo_inurba_marseille","lat":43.22497,"lon":5.34777,"is_reserved":false,"is_disabled":false,"rental_uris":{"android":"levelo://app?vid=8f346c07-df4f-459b-ac59-d111eb9f0783","ios":"levelo://app?vid=8f346c07-df4f-459b-ac59-d111eb9f0783"},"vehicle_type_id":"4","last_reported":1753726615,"current_range_meters":16800,"station_id":"st_cvj5dfep6f1abm77gieg","pricing_plan_id":"cebpf4jnsgd1na2vs0mg"},{"bike_id":"839cb358-c777-49a7-9b10-9da2596c35a1","system_id":"levelo_inurba_marseille","lat":43.3376,"lon":5.37482,"is_reserved":false,"is_disabled":false,"rental_uris":{"android":"levelo://app?vid=839cb358-c777-49a7-9b10-9da2596c35a1","ios":"levelo://app?vid=839cb358-c777-49a7-9b10-9da2596c35a1"},"vehicle_type_id":"4","last_reported":1753726615,"current_range_meters":16800,"station_id":"","pricing_plan_id":"cebpf4jnsgd1na2vs0mg"},{"bike_id":"18d9d1bb-3481-4fe6-8e41-40913fa9f69c","system_id":"levelo_inurba_marseille","lat":43.24798,"lon":5.37468,"is_reserved":false,"is_disabled":false,"rental_uris":{"android":"levelo://app?vid=18d9d1bb-3481-4fe6-8e41-40913fa9f69c","ios":"levelo://app?vid=18d9d1bb-3481-4fe6-8e41-40913fa9f69c"},"vehicle_type_id":"4","last_reported":1753726615,"current_range_meters":16800,"station_id":"ce4bhgh2rcd13ifvqfb0","pricing_plan_id":"cebpf4jnsgd1na2vs0mg"},{"bike_id":"fe1e01f8-d4ce-40a3-9bef-dc35d4f0ebf5","system_id":"levelo_inurba_marseille","lat":43.28422,"lon":5.34981,"is_reserved":false,"is_disabled":true,"rental_uris":{"android":"levelo://app?vid=fe1e01f8-d4ce-40a3-9bef-dc35d4f0ebf5","ios":"levelo://app?vid=fe1e01f8-d4ce-40a3-9bef-dc35d4f0ebf5"},"vehicle_type_id":"4","last_reported":1753726615,"current_range_meters":16800,"station_id":"ce4bhbh2rcd13ifvqepg","pricing_plan_id":"cebpf4jnsgd1na2vs0mg"},{"bike_id":"10d081c1-273e-4901-9c1f-64e9f8f6e8dc","system_id":"levelo_inurba_marseille","lat":43.29973,"lon":5.38496,"is_reserved":false,"is_disabled":false,"rental_uris":{"android":"levelo://app?vid=10d081c1-273e-4901-9c1f-64e9f8f6e8dc","ios":"levelo://app?vid=10d081c1-273e-4901-9c1f-64e9f8f6e8dc"},"vehicle_type_id":"4","last_reported":1753726615,"current_range_meters":16800,"station_id":"ce4bgj92rcd13ifvqbd0","pricing_plan_id":"cebpf4jnsgd1na2vs0mg"},{"bike_id":"06d24496-c448-4f38-9136-8a8bbeabd961","system_id":"levelo_inurba_marseille","lat":43.21179,"lon":5.35071,"is_reserved":false,"is_disabled":false,"rental_uris":{"android":"levelo://app?vid=06d24496-c448-4f38-9136-8a8bbeabd961","ios":"levelo://app?vid=06d24496-c448-4f38-9136-8a8bbeabd961"},"vehicle_type_id":"4","last_reported":1753726615,"current_range_meters":16800,"station_id":"st_cvj6sg6p6f1abm77japg","pricing_plan_id":"cebpf4jnsgd1na2vs0mg"},{"bike_id":"88255ee3-5bdb-4dfb-bc09-6ade39a110e2","system_id":"levelo_inurba_marseille","lat":43.23965,"lon":5.36626,"is_reserved":false,"is_disabled":false,"rental_uris":{"android":"levelo://app?vid=88255ee3-5bdb-4dfb-bc09-6ade39a110e2","ios":"levelo://app?vid=88255ee3-5bdb-4dfb-bc09-6ade39a110e2"},"vehicle_type_id":"4","last_reported":1753726615,"current_range_meters":16800,"station_id":"ce4bhi12rcd13ifvqfp0","pricing_plan_id":"cebpf4jnsgd1na2vs0mg"},{"bike_id":"4a789262-50b7-4dff-96a3-d59dd4ab1de0","system_id":"levelo_inurba_marseille","lat":43.28843,"lon":5.35839,"is_reserved":false,"is_disabled":false,"rental_uris":{"android":"levelo://app?vid=4a789262-50b7-4dff-96a3-d59dd4ab1de0","ios":"levelo://app?vid=4a789262-50b7-4dff-96a3-d59dd4ab1de0"},"vehicle_type_id":"4","last_reported":1753726615,"current_range_meters":17200,"station_id":"ce4bhb12rcd13ifvqem0","pricing_plan_id":"cebpf4jnsgd1na2vs0mg"},{"bike_id":"0d0393cb-c23f-4bb1-aee8-3adae4f5fb76","system_id":"levelo_inurba_marseille","lat":43.29264,"lon":5.38441,"is_reserved":false,"is_disabled":false,"rental_uris":{"android":"levelo://app?vid=0d0393cb-c23f-4bb1-aee8-3adae4f5fb76","ios":"levelo://app?vid=0d0393cb-c23f-4bb1-aee8-3adae4f5fb76"},"vehicle_type_id":"4","last_reported":1753726615,"current_range_meters":17200,"station_id":"ce4bh692rcd13ifvqea0","pricing_plan_id":"cebpf4jnsgd1na2vs0mg"},{"bike_id":"ab8106b6-98d2-4aeb-8aff-57ba943c75de","system_id":"levelo_inurba_marseille","lat":43.279179,"lon":5.395776,"is_reserved":false,"is_disabled":false,"rental_uris":{"android":"levelo://app?vid=ab8106b6-98d2-4aeb-8aff-57ba943c75de","ios":"levelo://app?vid=ab8106b6-98d2-4aeb-8aff-57ba943c75de"},"vehicle_type_id":"4","last_reported":1753726615,"current_range_meters":17200,"station_id":"ce4bhf92rcd13ifvqf40","pricing_plan_id":"cebpf4jnsgd1na2vs0mg"},{"bike_id":"38d53539-7c03-4e77-8e62-c105eb01d9af","system_id":"levelo_inurba_marseille","lat":43.28612,"lon":5.37051,"is_reserved":false,"is_disabled":false,"rental_uris":{"android":"levelo://app?vid=38d53539-7c03-4e77-8e62-c105eb01d9af","ios":"levelo://app?vid=38d53539-7c03-4e77-8e62-c105eb01d9af"},"vehicle_type_id":"4","last_reported":1753726615,"current_range_meters":17200,"station_id":"ce4bht12rcd13ifvqi60","pricing_plan_id":"cebpf4jnsgd1na2vs0mg"},{"bike_id":"50ddb991-132a-407b-b3f1-2adbe5e9db55","system_id":"levelo_inurba_marseille","lat":43.30916,"lon":5.40152,"is_reserved":false,"is_disabled":true,"rental_uris":{"android":"levelo://app?vid=50ddb991-132a-407b-b3f1-2adbe5e9db55","ios":"levelo://app?vid=50ddb991-132a-407b-b3f1-2adbe5e9db55"},"vehicle_type_id":"4","last_reported":1753726615,"current_range_meters":17200,"station_id":"ce4bgvp2rcd13ifvqct0","pricing_plan_id":"cebpf4jnsgd1na2vs0mg"},{"bike_id":"5b3d4ee4-506a-460b-9c0a-db2e82e24bb2","system_id":"levelo_inurba_marseille","lat":43.28414,"lon":5.3499,"is_reserved":false,"is_disabled":false,"rental_uris":{"android":"levelo://app?vid=5b3d4ee4-506a-460b-9c0a-db2e82e24bb2","ios":"levelo://app?vid=5b3d4ee4-506a-460b-9c0a-db2e82e24bb2"},"vehicle_type_id":"4","last_reported":1753726615,"current_range_meters":17200,"station_id":"ce4bhbh2rcd13ifvqepg","pricing_plan_id":"cebpf4jnsgd1na2vs0mg"},{"bike_id":"d9994a40-4e43-42c7-94c7-297c15452c35","system_id":"levelo_inurba_marseille","lat":43.27377,"lon":5.36262,"is_reserved":false,"is_disabled":false,"rental_uris":{"android":"levelo://app?vid=d9994a40-4e43-42c7-94c7-297c15452c35","ios":"levelo://app?vid=d9994a40-4e43-42c7-94c7-297c15452c35"},"vehicle_type_id":"4","last_reported":1753726615,"current_range_meters":17200,"station_id":"ce4bhbh2rcd13ifvqeo0","pricing_plan_id":"cebpf4jnsgd1na2vs0mg"},{"bike_id":"de7a02f5-fdaf-4fd7-90bc-8f34669b86bf","system_id":"levelo_inurba_marseille","lat":43.280815,"lon":5.396626,"is_reserved":false,"is_disabled":false,"rental_uris":{"android":"levelo://app?vid=de7a02f5-fdaf-4fd7-90bc-8f34669b86bf","ios":"levelo://app?vid=de7a02f5-fdaf-4fd7-90bc-8f34669b86bf"},"vehicle_type_id":"4","last_reported":1753726615,"current_range_meters":17200,"station_id":"","pricing_plan_id":"cebpf4jnsgd1na2vs0mg"},{"bike_id":"3d9f2061-7fb9-4387-9262-8d2451911c2b","system_id":"levelo_inurba_marseille","lat":43.22923,"lon":5.35377,"is_reserved":false,"is_disabled":false,"rental_uris":{"android":"levelo://app?vid=3d9f2061-7fb9-4387-9262-8d2451911c2b","ios":"levelo://app?vid=3d9f2061-7fb9-4387-9262-8d2451911c2b"},"vehicle_type_id":"4","last_reported":1753726615,"current_range_meters":17200,"station_id":"cpo3532slgdg3j2ikp40","pricing_plan_id":"cebpf4jnsgd1na2vs0mg"},{"bike_id":"3a1b8560-7754-49d0-9e53-6c2c27152b9c","system_id":"levelo_inurba_marseille","lat":43.282702,"lon":5.350642,"is_reserved":false,"is_disabled":false,"rental_uris":{"android":"levelo://app?vid=3a1b8560-7754-49d0-9e53-6c2c27152b9c","ios":"levelo://app?vid=3a1b8560-7754-49d0-9e53-6c2c27152b9c"},"vehicle_type_id":"4","last_reported":1753726615,"current_range_meters":17200,"station_id":"ce4bhbp2rcd13ifvqerg","pricing_plan_id":"cebpf4jnsgd1na2vs0mg"},{"bike_id":"52e49a54-7185-49fc-9b10-ecc17823783b","system_id":"levelo_inurba_marseille","lat":43.29196,"lon":5.39322,"is_reserved":false,"is_disabled":false,"rental_uris":{"android":"levelo://app?vid=52e49a54-7185-49fc-9b10-ecc17823783b","ios":"levelo://app?vid=52e49a54-7185-49fc-9b10-ecc17823783b"},"vehicle_type_id":"4","last_reported":1753726615,"current_range_meters":17200,"station_id":"ce4bh192rcd13ifvqdd0","pricing_plan_id":"cebpf4jnsgd1na2vs0mg"},{"bike_id":"d08b6ea0-1fd3-4c34-817f-960720a8c326","system_id":"levelo_inurba_marseille","lat":43.29303,"lon":5.38546,"is_reserved":false,"is_disabled":false,"rental_uris":{"android":"levelo://app?vid=d08b6ea0-1fd3-4c34-817f-960720a8c326","ios":"levelo://app?vid=d08b6ea0-1fd3-4c34-817f-960720a8c326"},"vehicle_type_id":"4","last_reported":1753726615,"current_range_meters":17200,"station_id":"","pricing_plan_id":"cebpf4jnsgd1na2vs0mg"},{"bike_id":"35c04ed3-3f32-4bf9-8a1e-9f2898086490","system_id":"levelo_inurba_marseille","lat":43.33772,"lon":5.37423,"is_reserved":false,"is_disabled":false,"rental_uris":{"android":"levelo://app?vid=35c04ed3-3f32-4bf9-8a1e-9f2898086490","ios":"levelo://app?vid=35c04ed3-3f32-4bf9-8a1e-9f2898086490"},"vehicle_type_id":"4","last_reported":1753726615,"current_range_meters":17600,"station_id":"","pricing_plan_id":"cebpf4jnsgd1na2vs0mg"},{"bike_id":"2aeba322-83ac-4e26-a2f5-43e48558e674","system_id":"levelo_inurba_marseille","lat":43.31351,"lon":5.38493,"is_reserved":false,"is_disabled":false,"rental_uris":{"android":"levelo://app?vid=2aeba322-83ac-4e26-a2f5-43e48558e674","ios":"levelo://app?vid=2aeba322-83ac-4e26-a2f5-43e48558e674"},"vehicle_type_id":"4","last_reported":1753726615,"current_range_meters":17200,"station_id":"ce4bgt92rcd13ifvqcf0","pricing_plan_id":"cebpf4jnsgd1na2vs0mg"},{"bike_id":"6f7ccb69-bf92-486d-92b3-1d25f0d6e17f","system_id":"levelo_inurba_marseille","lat":43.26216,"lon":5.37438,"is_reserved":false,"is_disabled":false,"rental_uris":{"android":"levelo://app?vid=6f7ccb69-bf92-486d-92b3-1d25f0d6e17f","ios":"levelo://app?vid=6f7ccb69-bf92-486d-92b3-1d25f0d6e17f"},"vehicle_type_id":"4","last_reported":1753726615,"current_range_meters":17600,"station_id":"ce4bhgp2rcd13ifvqfc0","pricing_plan_id":"cebpf4jnsgd1na2vs0mg"},{"bike_id":"5dfabdc2-b806-44aa-94b4-47dba92b8204","system_id":"levelo_inurba_marseille","lat":43.229314,"lon":5.353868,"is_reserved":false,"is_disabled":false,"rental_uris":{"android":"levelo://app?vid=5dfabdc2-b806-44aa-94b4-47dba92b8204","ios":"levelo://app?vid=5dfabdc2-b806-44aa-94b4-47dba92b8204"},"vehicle_type_id":"4","last_reported":1753726615,"current_range_meters":17600,"station_id":"cpo3532slgdg3j2ikp40","pricing_plan_id":"cebpf4jnsgd1na2vs0mg"},{"bike_id":"227ddd15-53c8-4af5-ac55-2be36ae48567","system_id":"levelo_inurba_marseille","lat":43.30136,"lon":5.39866,"is_reserved":false,"is_disabled":false,"rental_uris":{"android":"levelo://app?vid=227ddd15-53c8-4af5-ac55-2be36ae48567","ios":"levelo://app?vid=227ddd15-53c8-4af5-ac55-2be36ae48567"},"vehicle_type_id":"4","last_reported":1753726615,"current_range_meters":17600,"station_id":"ce4bh0h2rcd13ifvqd40","pricing_plan_id":"cebpf4jnsgd1na2vs0mg"},{"bike_id":"b9d12c9e-b5ee-46f4-8071-a5a80d9c3460","system_id":"levelo_inurba_marseille","lat":43.2549,"lon":5.37646,"is_reserved":false,"is_disabled":false,"rental_uris":{"android":"levelo://app?vid=b9d12c9e-b5ee-46f4-8071-a5a80d9c3460","ios":"levelo://app?vid=b9d12c9e-b5ee-46f4-8071-a5a80d9c3460"},"vehicle_type_id":"4","last_reported":1753726615,"current_range_meters":17600,"station_id":"ce4bhh12rcd13ifvqff0","pricing_plan_id":"cebpf4jnsgd1na2vs0mg"},{"bike_id":"49491b9e-bc95-484f-b8e1-371ec4848922","system_id":"levelo_inurba_marseille","lat":43.229218,"lon":5.353708,"is_reserved":false,"is_disabled":false,"rental_uris":{"android":"levelo://app?vid=49491b9e-bc95-484f-b8e1-371ec4848922","ios":"levelo://app?vid=49491b9e-bc95-484f-b8e1-371ec4848922"},"vehicle_type_id":"4","last_reported":1753726615,"current_range_meters":17600,"station_id":"cpo3532slgdg3j2ikp40","pricing_plan_id":"cebpf4jnsgd1na2vs0mg"},{"bike_id":"8c1437b5-fbf3-4886-a0fd-f37f781146f8","system_id":"levelo_inurba_marseille","lat":43.292704,"lon":5.384374,"is_reserved":false,"is_disabled":false,"rental_uris":{"android":"levelo://app?vid=8c1437b5-fbf3-4886-a0fd-f37f781146f8","ios":"levelo://app?vid=8c1437b5-fbf3-4886-a0fd-f37f781146f8"},"vehicle_type_id":"4","last_reported":1753726615,"current_range_meters":17600,"station_id":"ce4bh692rcd13ifvqea0","pricing_plan_id":"cebpf4jnsgd1na2vs0mg"},{"bike_id":"36fd6cc2-e30c-4704-b473-4e50f9f36e88","system_id":"levelo_inurba_marseille","lat":43.2867,"lon":5.36333,"is_reserved":false,"is_disabled":false,"rental_uris":{"android":"levelo://app?vid=36fd6cc2-e30c-4704-b473-4e50f9f36e88","ios":"levelo://app?vid=36fd6cc2-e30c-4704-b473-4e50f9f36e88"},"vehicle_type_id":"4","last_reported":1753726615,"current_range_meters":17600,"station_id":"ce4bhah2rcd13ifvqej0","pricing_plan_id":"cebpf4jnsgd1na2vs0mg"},{"bike_id":"c11f4789-7d37-4722-9529-2b6d43a6d56c","system_id":"levelo_inurba_marseille","lat":43.28147,"lon":5.42647,"is_reserved":false,"is_disabled":true,"rental_uris":{"android":"levelo://app?vid=c11f4789-7d37-4722-9529-2b6d43a6d56c","ios":"levelo://app?vid=c11f4789-7d37-4722-9529-2b6d43a6d56c"},"vehicle_type_id":"4","last_reported":1753726615,"current_range_meters":17600,"station_id":"ce4bhnh2rcd13ifvqgug","pricing_plan_id":"cebpf4jnsgd1na2vs0mg"},{"bike_id":"75c073ec-9535-4d35-886a-7cda86424558","system_id":"levelo_inurba_marseille","lat":43.30102,"lon":5.39095,"is_reserved":false,"is_disabled":false,"rental_uris":{"android":"levelo://app?vid=75c073ec-9535-4d35-886a-7cda86424558","ios":"levelo://app?vid=75c073ec-9535-4d35-886a-7cda86424558"},"vehicle_type_id":"4","last_reported":1753726615,"current_range_meters":17600,"station_id":"ce4bh192rcd13ifvqdb0","pricing_plan_id":"cebpf4jnsgd1na2vs0mg"},{"bike_id":"f26efa5e-65eb-49c1-ac45-4876b46677f5","system_id":"levelo_inurba_marseille","lat":43.27184,"lon":5.40974,"is_reserved":false,"is_disabled":false,"rental_uris":{"android":"levelo://app?vid=f26efa5e-65eb-49c1-ac45-4876b46677f5","ios":"levelo://app?vid=f26efa5e-65eb-49c1-ac45-4876b46677f5"},"vehicle_type_id":"4","last_reported":1753726615,"current_range_meters":17600,"station_id":"ce4bhl12rcd13ifvqgf0","pricing_plan_id":"cebpf4jnsgd1na2vs0mg"},{"bike_id":"90d7df2a-251b-43b9-9339-5d650e173049","system_id":"levelo_inurba_marseille","lat":43.22928,"lon":5.35362,"is_reserved":false,"is_disabled":false,"rental_uris":{"android":"levelo://app?vid=90d7df2a-251b-43b9-9339-5d650e173049","ios":"levelo://app?vid=90d7df2a-251b-43b9-9339-5d650e173049"},"vehicle_type_id":"4","last_reported":1753726615,"current_range_meters":17600,"station_id":"cpo3532slgdg3j2ikp40","pricing_plan_id":"cebpf4jnsgd1na2vs0mg"},{"bike_id":"39080695-4aff-4fdf-b171-11c07b4b0950","system_id":"levelo_inurba_marseille","lat":43.2466,"lon":5.38165,"is_reserved":false,"is_disabled":false,"rental_uris":{"android":"levelo://app?vid=39080695-4aff-4fdf-b171-11c07b4b0950","ios":"levelo://app?vid=39080695-4aff-4fdf-b171-11c07b4b0950"},"vehicle_type_id":"4","last_reported":1753726615,"current_range_meters":17600,"station_id":"ce4bhih2rcd13ifvqfr0","pricing_plan_id":"cebpf4jnsgd1na2vs0mg"},{"bike_id":"57927d23-89e7-4ddd-a64f-277b3ded0af3","system_id":"levelo_inurba_marseille","lat":43.24099,"lon":5.3772,"is_reserved":false,"is_disabled":false,"rental_uris":{"android":"levelo://app?vid=57927d23-89e7-4ddd-a64f-277b3ded0af3","ios":"levelo://app?vid=57927d23-89e7-4ddd-a64f-277b3ded0af3"},"vehicle_type_id":"4","last_reported":1753726615,"current_range_meters":18000,"station_id":"ce4bhnp2rcd13ifvqgvg","pricing_plan_id":"cebpf4jnsgd1na2vs0mg"},{"bike_id":"4ffc9d79-d56a-482d-b7d9-a5892348f435","system_id":"levelo_inurba_marseille","lat":43.28399,"lon":5.34969,"is_reserved":false,"is_disabled":false,"rental_uris":{"android":"levelo://app?vid=4ffc9d79-d56a-482d-b7d9-a5892348f435","ios":"levelo://app?vid=4ffc9d79-d56a-482d-b7d9-a5892348f435"},"vehicle_type_id":"4","last_reported":1753726615,"current_range_meters":18000,"station_id":"ce4bhbh2rcd13ifvqepg","pricing_plan_id":"cebpf4jnsgd1na2vs0mg"},{"bike_id":"eb899311-9461-4d06-8287-47c6d7fd9b65","system_id":"levelo_inurba_marseille","lat":43.28471,"lon":5.3842,"is_reserved":false,"is_disabled":true,"rental_uris":{"android":"levelo://app?vid=eb899311-9461-4d06-8287-47c6d7fd9b65","ios":"levelo://app?vid=eb899311-9461-4d06-8287-47c6d7fd9b65"},"vehicle_type_id":"4","last_reported":1753726615,"current_range_meters":18000,"station_id":"ce4bh512rcd13ifvqe3g","pricing_plan_id":"cebpf4jnsgd1na2vs0mg"},{"bike_id":"84381d51-d8bf-4e0c-b58a-542cf5fe160c","system_id":"levelo_inurba_marseille","lat":43.30231,"lon":5.40056,"is_reserved":false,"is_disabled":false,"rental_uris":{"android":"levelo://app?vid=84381d51-d8bf-4e0c-b58a-542cf5fe160c","ios":"levelo://app?vid=84381d51-d8bf-4e0c-b58a-542cf5fe160c"},"vehicle_type_id":"4","last_reported":1753726615,"current_range_meters":18000,"station_id":"ce4bgvh2rcd13ifvqcs0","pricing_plan_id":"cebpf4jnsgd1na2vs0mg"},{"bike_id":"8d456a32-f5e7-4d9d-ae9d-a2a9a58546f8","system_id":"levelo_inurba_marseille","lat":43.295261,"lon":5.385424,"is_reserved":false,"is_disabled":false,"rental_uris":{"android":"levelo://app?vid=8d456a32-f5e7-4d9d-ae9d-a2a9a58546f8","ios":"levelo://app?vid=8d456a32-f5e7-4d9d-ae9d-a2a9a58546f8"},"vehicle_type_id":"4","last_reported":1753726615,"current_range_meters":18000,"station_id":"ce4bgih2rcd13ifvqba0","pricing_plan_id":"cebpf4jnsgd1na2vs0mg"},{"bike_id":"eaab0707-a743-4085-90a9-c190ade7c0fd","system_id":"levelo_inurba_marseille","lat":43.29026,"lon":5.38129,"is_reserved":false,"is_disabled":false,"rental_uris":{"android":"levelo://app?vid=eaab0707-a743-4085-90a9-c190ade7c0fd","ios":"levelo://app?vid=eaab0707-a743-4085-90a9-c190ade7c0fd"},"vehicle_type_id":"4","last_reported":1753726615,"current_range_meters":18000,"station_id":"ce4bh4p2rcd13ifvqe1g","pricing_plan_id":"cebpf4jnsgd1na2vs0mg"},{"bike_id":"75aa074a-8804-4fec-88d9-260a8abf5ca1","system_id":"levelo_inurba_marseille","lat":43.26553,"lon":5.3729,"is_reserved":false,"is_disabled":false,"rental_uris":{"android":"levelo://app?vid=75aa074a-8804-4fec-88d9-260a8abf5ca1","ios":"levelo://app?vid=75aa074a-8804-4fec-88d9-260a8abf5ca1"},"vehicle_type_id":"4","last_reported":1753726615,"current_range_meters":18000,"station_id":"ce4bhg12rcd13ifvqf70","pricing_plan_id":"cebpf4jnsgd1na2vs0mg"},{"bike_id":"62e54455-0cad-476e-836b-6efe5dee6c34","system_id":"levelo_inurba_marseille","lat":43.22514,"lon":5.34779,"is_reserved":false,"is_disabled":false,"rental_uris":{"android":"levelo://app?vid=62e54455-0cad-476e-836b-6efe5dee6c34","ios":"levelo://app?vid=62e54455-0cad-476e-836b-6efe5dee6c34"},"vehicle_type_id":"4","last_reported":1753726615,"current_range_meters":18000,"station_id":"st_cvj5dfep6f1abm77gieg","pricing_plan_id":"cebpf4jnsgd1na2vs0mg"},