{"last_updated":1758543619,"ttl":60,"version":"2.2","data":{"bikes":[{"bike_id":"fcb3f6af-c7d4-4ccc-be82-7f951e8865a2","system_id":"levelo_inurba_marseille","lat":43.21203,"lon":5.35084,"is_reserved":false,"is_disabled":false,"rental_uris":{"android":"levelo://app?vid=fcb3f6af-c7d4-4ccc-be82-7f951e8865a2","ios":"levelo://app?vid=fcb3f6af-c7d4-4ccc-be82-7f951e8865a2"},"vehicle_type_id":"4","last_reported":1758543620,"current_range_meters":2800,"station_id":"st_cvj6sg6p6f1abm77japg","pricing_plan_id":"cebpf4jnsgd1na2vs0mg"},{"bike_id":"e142cedc-8bcf-434b-b75c-eb4d4781d4cf","system_id":"levelo_inurba_marseille","lat":43.31222,"lon":5.36866,"is_reserved":false,"is_disabled":false,"rental_uris":{"android":"levelo://app?vid=e142cedc-8bcf-434b-b75c-eb4d4781d4cf","ios":"levelo://app?vid=e142cedc-8bcf-434b-b75c-eb4d4781d4cf"},"vehicle_type_id":"4","last_reported":1758543620,"current_range_meters":2800,"station_id":"ce4bgl92rcd13ifvqbq0","pricing_plan_id":"cebpf4jnsgd1na2vs0mg"},{"bike_id":"10e1fbf5-5672-410d-9c3b-bb0f261d7b3e","system_id":"levelo_inurba_marseille","lat":43.29885,"lon":5.39731,"is_reserved":false,"is_disabled":false,"rental_uris":{"android":"levelo://app?vid=10e1fbf5-5672-410d-9c3b-bb0f261d7b3e","ios":"levelo://app?vid=10e1fbf5-5672-410d-9c3b-bb0f261d7b3e"},"vehicle_type_id":"4","last_reported":1758543620,"current_range_meters":2800,"station_id":"ce4bh0h2rcd13ifvqd50","pricing_plan_id":"cebpf4jnsgd1na2vs0mg"},{"bike_id":"fb995bc5-3894-4487-abcd-e5b9a8d3d3a0","system_id":"levelo_inurba_marseille","lat":43.24272,"lon":5.4026,"is_reserved":false,"is_disabled":false,"rental_uris":{"android":"levelo://app?vid=fb995bc5-3894-4487-abcd-e5b9a8d3d3a0","ios":"levelo://app?vid=fb995bc5-3894-4487-abcd-e5b9a8d3d3a0"},"vehicle_type_id":"4","last_reported":1758543620,"current_range_meters":2800,"station_id":"","pricing_plan_id":"cebpf4jnsgd1na2vs0mg"},{"bike_id":"5b84af94-a4d6-4b46-a63f-085ff5681f73","system_id":"levelo_inurba_marseille","lat":43.2118,"lon":5.35066,"is_reserved":false,"is_disabled":false,"rental_uris":{"android":"levelo://app?vid=5b84af94-a4d6-4b46-a63f-085ff5681f73","ios":"levelo://app?vid=5b84af94-a4d6-4b46-a63f-085ff5681f73"},"vehicle_type_id":"4","last_reported":1758543620,"current_range_meters":2800,"station_id":"st_cvj6sg6p6f1abm77japg","pricing_plan_id":"cebpf4jnsgd1na2vs0mg"},{"bike_id":"610d56e4-2897-4cac-a126-8dd665e55106","system_id":"levelo_inurba_marseille","lat":43.3081,"lon":5.43522,"is_reserved":false,"is_disabled":false,"rental_uris":{"android":"levelo://app?vid=610d56e4-2897-4cac-a126-8dd665e55106","ios":"levelo://app?vid=610d56e4-2897-4cac-a126-8dd665e55106"},"vehicle_type_id":"4","last_reported":1758543620,"current_range_meters":2800,"station_id":"ce4bhph2rcd13ifvqheg","pricing_plan_id":"cebpf4jnsgd1na2vs0mg"},{"bike_id":"c9ae3c4d-94a8-45f5-b2bb-10c3c0cd0b63","system_id":"levelo_inurba_marseille","lat":43.29229,"lon":5.36084,"is_reserved":false,"is_disabled":false,"rental_uris":{"android":"levelo://app?vid=c9ae3c4d-94a8-45f5-b2bb-10c3c0cd0b63","ios":"levelo://app?vid=c9ae3c4d-94a8-45f5-b2bb-10c3c0cd0b63"},"vehicle_type_id":"4","last_reported":1758543620,"current_range_meters":6000,"station_id":"ce4bhbh2rcd13ifvqeqg","pricing_plan_id":"cebpf4jnsgd1na2vs0mg"},{"bike_id":"f215c7b2-430f-4880-8a7e-9b3029e8377b","system_id":"levelo_inurba_marseille","lat":43.29778,"lon":5.39329,"is_reserved":false,"is_disabled":false,"rental_uris":{"android":"levelo://app?vid=f215c7b2-430f-4880-8a7e-9b3029e8377b","ios":"levelo://app?vid=f215c7b2-430f-4880-8a7e-9b3029e8377b"},"vehicle_type_id":"4","last_reported":1758543620,"current_range_meters":2800,"station_id":"chh1huq6cuj3fo74tm60","pricing_plan_id":"cebpf4jnsgd1na2vs0mg"},{"bike_id":"b2ff86c2-15a8-475f-aede-284400679299","system_id":"levelo_inurba_marseille","lat":43.26931,"lon":5.38918,"is_reserved":false,"is_disabled":false,"rental_uris":{"android":"levelo://app?vid=b2ff86c2-15a8-475f-aede-284400679299","ios":"levelo://app?vid=b2ff86c2-15a8-475f-aede-284400679299"},"vehicle_type_id":"4","last_reported":1758543620,"current_range_meters":2800,"station_id":"ce4bhhh2rcd13ifvqfl0","pricing_plan_id":"cebpf4jnsgd1na2vs0mg"},{"bike_id":"a545d611-006a-48f6-a34f-1e07956e279e","system_id":"levelo_inurba_marseille","lat":43.31536,"lon":5.38022,"is_reserved":false,"is_disabled":false,"rental_uris":{"android":"levelo://app?vid=a545d611-006a-48f6-a34f-1e07956e279e","ios":"levelo://app?vid=a545d611-006a-48f6-a34f-1e07956e279e"},"vehicle_type_id":"4","last_reported":1758543620,"current_range_meters":2800,"station_id":"ce4bhsp2rcd13ifvqi50","pricing_plan_id":"cebpf4jnsgd1na2vs0mg"},{"bike_id":"cfe7c7e6-a996-41d0-9d47-5253f7b4c7c3","system_id":"levelo_inurba_marseille","lat":43.270592,"lon":5.40255,"is_reserved":false,"is_disabled":false,"rental_uris":{"android":"levelo://app?vid=cfe7c7e6-a996-41d0-9d47-5253f7b4c7c3","ios":"levelo://app?vid=cfe7c7e6-a996-41d0-9d47-5253f7b4c7c3"},"vehicle_type_id":"4","last_reported":1758543620,"current_range_meters":3200,"station_id":"ce4bhk92rcd13ifvqgc0","pricing_plan_id":"cebpf4jnsgd1na2vs0mg"},{"bike_id":"617dca4b-4508-4d52-9e62-d583d919ac44","system_id":"levelo_inurba_marseille","lat":43.29723,"lon":5.3713,"is_reserved":false,"is_disabled":false,"rental_uris":{"android":"levelo://app?vid=617dca4b-4508-4d52-9e62-d583d919ac44","ios":"levelo://app?vid=617dca4b-4508-4d52-9e62-d583d919ac44"},"vehicle_type_id":"4","last_reported":1758543620,"current_range_meters":3200,"station_id":"","pricing_plan_id":"cebpf4jnsgd1na2vs0mg"},{"bike_id":"3116075e-fa9b-423b-beef-aeee538d6e30","system_id":"levelo_inurba_marseille","lat":43.21752,"lon":5.34612,"is_reserved":false,"is_disabled":false,"rental_uris":{"android":"levelo://app?vid=3116075e-fa9b-423b-beef-aeee538d6e30","ios":"levelo://app?vid=3116075e-fa9b-423b-beef-aeee538d6e30"},"vehicle_type_id":"4","last_reported":1758543620,"current_range_meters":3600,"station_id":"","pricing_plan_id":"cebpf4jnsgd1na2vs0mg"},{"bike_id":"33bd9496-5057-4cb7-8334-9f9f0a00d83e","system_id":"levelo_inurba_marseille","lat":43.22932,"lon":5.35371,"is_reserved":false,"is_disabled":false,"rental_uris":{"android":"levelo://app?vid=33bd9496-5057-4cb7-8334-9f9f0a00d83e","ios":"levelo://app?vid=33bd9496-5057-4cb7-8334-9f9f0a00d83e"},"vehicle_type_id":"4","last_reported":1758543620,"current_range_meters":3600,"station_id":"cpo3532slgdg3j2ikp40","pricing_plan_id":"cebpf4jnsgd1na2vs0mg"},{"bike_id":"39292a1b-3198-48ea-91b5-ea10f3132f34","system_id":"levelo_inurba_marseille","lat":43.2912,"lon":5.38142,"is_reserved":false,"is_disabled":false,"rental_uris":{"android":"levelo://app?vid=39292a1b-3198-48ea-91b5-ea10f3132f34","ios":"levelo://app?vid=39292a1b-3198-48ea-91b5-ea10f3132f34"},"vehicle_type_id":"4","last_reported":1758543620,"current_range_meters":3600,"station_id":"ce4bh512rcd13ifvqe2g","pricing_plan_id":"cebpf4jnsgd1na2vs0mg"},{"bike_id":"58f523f8-3342-4e56-ad29-b604d1faa259","system_id":"levelo_inurba_marseille","lat":43.29517,"lon":5.39047,"is_reserved":false,"is_disabled":false,"rental_uris":{"android":"levelo://app?vid=58f523f8-3342-4e56-ad29-b604d1faa259","ios":"levelo://app?vid=58f523f8-3342-4e56-ad29-b604d1faa259"},"vehicle_type_id":"4","last_reported":1758543620,"current_range_meters":3600,"station_id":"ce4bh3p2rcd13ifvqdp0","pricing_plan_id":"cebpf4jnsgd1na2vs0mg"},{"bike_id":"ce967356-4568-4993-87da-5d9f2d64ce04","system_id":"levelo_inurba_marseille","lat":43.30562,"lon":5.36558,"is_reserved":false,"is_disabled":false,"rental_uris":{"android":"levelo://app?vid=ce967356-4568-4993-87da-5d9f2d64ce04","ios":"levelo://app?vid=ce967356-4568-4993-87da-5d9f2d64ce04"},"vehicle_type_id":"4","last_reported":1758543620,"current_range_meters":4000,"station_id":"ce4bgs12rcd13ifvqcag","pricing_plan_id":"cebpf4jnsgd1na2vs0mg"},{"bike_id":"d7c25918-4ee2-4f07-aafe-045313861472","system_id":"levelo_inurba_marseille","lat":43.27468,"lon":5.36101,"is_reserved":false,"is_disabled":false,"rental_uris":{"android":"levelo://app?vid=d7c25918-4ee2-4f07-aafe-045313861472","ios":"levelo://app?vid=d7c25918-4ee2-4f07-aafe-045313861472"},"vehicle_type_id":"4","last_reported":1758543620,"current_range_meters":4000,"station_id":"","pricing_plan_id":"cebpf4jnsgd1na2vs0mg"},{"bike_id":"83c9ef57-ba9f-4565-b0ad-07147fa2a84b","system_id":"levelo_inurba_marseille","lat":43.305408,"lon":5.365038,"is_reserved":false,"is_disabled":false,"rental_uris":{"android":"levelo://app?vid=83c9ef57-ba9f-4565-b0ad-07147fa2a84b","ios":"levelo://app?vid=83c9ef57-ba9f-4565-b0ad-07147fa2a84b"},"vehicle_type_id":"4","last_reported":1758543620,"current_range_meters":4400,"station_id":"","pricing_plan_id":"cebpf4jnsgd1na2vs0mg"},{"bike_id":"0f7caa9f-1d1a-40d7-9b4a-2f8720e63681","system_id":"levelo_inurba_marseille","lat":43.308447,"lon":5.37577,"is_reserved":false,"is_disabled":false,"rental_uris":{"android":"levelo://app?vid=0f7caa9f-1d1a-40d7-9b4a-2f8720e63681","ios":"levelo://app?vid=0f7caa9f-1d1a-40d7-9b4a-2f8720e63681"},"vehicle_type_id":"4","last_reported":1758543620,"current_range_meters":4400,"station_id":"","pricing_plan_id":"cebpf4jnsgd1na2vs0mg"},{"bike_id":"f93b2c5a-7cd5-419e-abf0-6c3909ef8594","system_id":"levelo_inurba_marseille","lat":43.29035,"lon":5.39969,"is_reserved":false,"is_disabled":false,"rental_uris":{"android":"levelo://app?vid=f93b2c5a-7cd5-419e-abf0-6c3909ef8594","ios":"levelo://app?vid=f93b2c5a-7cd5-419e-abf0-6c3909ef8594"},"vehicle_type_id":"4","last_reported":1758543620,"current_range_meters":4400,"station_id":"ce4bh392rcd13ifvqdm0","pricing_plan_id":"cebpf4jnsgd1na2vs0mg"},{"bike_id":"7e39f761-0fe4-4eb9-8592-5744db05ea96","system_id":"levelo_inurba_marseille","lat":43.30906,"lon":5.37203,"is_reserved":false,"is_disabled":false,"rental_uris":{"android":"levelo://app?vid=7e39f761-0fe4-4eb9-8592-5744db05ea96","ios":"levelo://app?vid=7e39f761-0fe4-4eb9-8592-5744db05ea96"},"vehicle_type_id":"4","last_reported":1758543620,"current_range_meters":4400,"station_id":"ce4bguh2rcd13ifvqckg","pricing_plan_id":"cebpf4jnsgd1na2vs0mg"},{"bike_id":"57328824-0b74-4e0f-af29-46d948722f56","system_id":"levelo_inurba_marseille","lat":43.29114,"lon":5.38105,"is_reserved":false,"is_disabled":false,"rental_uris":{"android":"levelo://app?vid=57328824-0b74-4e0f-af29-46d948722f56","ios":"levelo://app?vid=57328824-0b74-4e0f-af29-46d948722f56"},"vehicle_type_id":"4","last_reported":1758543620,"current_range_meters":4800,"station_id":"ce4bh512rcd13ifvqe2g","pricing_plan_id":"cebpf4jnsgd1na2vs0mg"},{"bike_id":"69e8e1de-136f-48be-9d47-afbe73ec2261","system_id":"levelo_inurba_marseille","lat":43.28422,"lon":5.34966,"is_reserved":false,"is_disabled":false,"rental_uris":{"android":"levelo://app?vid=69e8e1de-136f-48be-9d47-afbe73ec2261","ios":"levelo://app?vid=69e8e1de-136f-48be-9d47-afbe73ec2261"},"vehicle_type_id":"4","last_reported":1758543620,"current_range_meters":4800,"station_id":"ce4bhbh2rcd13ifvqepg","pricing_plan_id":"cebpf4jnsgd1na2vs0mg"},{"bike_id":"261dab31-3fc4-42a1-98f4-9e8ff232105a","system_id":"levelo_inurba_marseille","lat":43.28862,"lon":5.35854,"is_reserved":false,"is_disabled":false,"rental_uris":{"android":"levelo://app?vid=261dab31-3fc4-42a1-98f4-9e8ff232105a","ios":"levelo://app?vid=261dab31-3fc4-42a1-98f4-9e8ff232105a"},"vehicle_type_id":"4","last_reported":1758543620,"current_range_meters":5600,"station_id":"ce4bhb12rcd13ifvqem0","pricing_plan_id":"cebpf4jnsgd1na2vs0mg"},{"bike_id":"79a10fd6-e785-4ae5-bc69-3aac2736b89a","system_id":"levelo_inurba_marseille","lat":43.30314,"lon":5.40459,"is_reserved":false,"is_disabled":false,"rental_uris":{"android":"levelo://app?vid=79a10fd6-e785-4ae5-bc69-3aac2736b89a","ios":"levelo://app?vid=79a10fd6-e785-4ae5-bc69-3aac2736b89a"},"vehicle_type_id":"4","last_reported":1758543620,"current_range_meters":5600,"station_id":"ce4bh012rcd13ifvqd10","pricing_plan_id":"cebpf4jnsgd1na2vs0mg"},{"bike_id":"a07a513e-e5a9-4481-8592-d991379bc662","system_id":"levelo_inurba_marseille","lat":43.337536,"lon":5.374536,"is_reserved":false,"is_disabled":false,"rental_uris":{"android":"levelo://app?vid=a07a513e-e5a9-4481-8592-d991379bc662","ios":"levelo://app?vid=a07a513e-e5a9-4481-8592-d991379bc662"},"vehicle_type_id":"4","last_reported":1758543620,"current_range_meters":5600,"station_id":"","pricing_plan_id":"cebpf4jnsgd1na2vs0mg"},{"bike_id":"00553d56-8ef0-4cde-8e01-a15c6ce5d4c0","system_id":"levelo_inurba_marseille","lat":43.22928,"lon":5.35375,"is_reserved":false,"is_disabled":false,"rental_uris":{"android":"levelo://app?vid=00553d56-8ef0-4cde-8e01-a15c6ce5d4c0","ios":"levelo://app?vid=00553d56-8ef0-4cde-8e01-a15c6ce5d4c0"},"vehicle_type_id":"4","last_reported":1758543620,"current_range_meters":6000,"station_id":"cpo3532slgdg3j2ikp40","pricing_plan_id":"cebpf4jnsgd1na2vs0mg"},{"bike_id":"59e4fbc8-58d7-4b5b-be6b-596aae423ca4","system_id":"levelo_inurba_marseille","lat":43.30783,"lon":5.37652,"is_reserved":false,"is_disabled":false,"rental_uris":{"android":"levelo://app?vid=59e4fbc8-58d7-4b5b-be6b-596aae423ca4","ios":"levelo://app?vid=59e4fbc8-58d7-4b5b-be6b-596aae423ca4"},"vehicle_type_id":"4","last_reported":1758543620,"current_range_meters":6000,"station_id":"ce4bgv92rcd13ifvqcq0","pricing_plan_id":"cebpf4jnsgd1na2vs0mg"},{"bike_id":"db1a87b3-9753-48e8-b5c9-20417f7fcfdf","system_id":"levelo_inurba_marseille","lat":43.30281,"lon":5.37719,"is_reserved":false,"is_disabled":false,"rental_uris":{"android":"levelo://app?vid=db1a87b3-9753-48e8-b5c9-20417f7fcfdf","ios":"levelo://app?vid=db1a87b3-9753-48e8-b5c9-20417f7fcfdf"},"vehicle_type_id":"4","last_reported":1758543620,"current_range_meters":6000,"station_id":"ce4bguh2rcd13ifvqcj0","pricing_plan_id":"cebpf4jnsgd1na2vs0mg"},{"bike_id":"c1843d42-9f15-4235-8c7f-0c60147cb155","system_id":"levelo_inurba_marseille","lat":43.21196,"lon":5.35069,"is_reserved":false,"is_disabled":false,"rental_uris":{"android":"levelo://app?vid=c1843d42-9f15-4235-8c7f-0c60147cb155","ios":"levelo://app?vid=c1843d42-9f15-4235-8c7f-0c60147cb155"},"vehicle_type_id":"4","last_reported":1758543620,"current_range_meters":6000,"station_id":"st_cvj6sg6p6f1abm77japg","pricing_plan_id":"cebpf4jnsgd1na2vs0mg"},{"bike_id":"d6229552-d872-4249-ad84-bf7497e70d82","system_id":"levelo_inurba_marseille","lat":43.31708,"lon":5.43683,"is_reserved":false,"is_disabled":false,"rental_uris":{"android":"levelo://app?vid=d6229552-d872-4249-ad84-bf7497e70d82","ios":"levelo://app?vid=d6229552-d872-4249-ad84-bf7497e70d82"},"vehicle_type_id":"4","last_reported":1758543620,"current_range_meters":6400,"station_id":"ce4bhp92rcd13ifvqhcg","pricing_plan_id":"cebpf4jnsgd1na2vs0mg"},{"bike_id":"1483f0fb-1980-4944-b04c-587ac9c1b182","system_id":"levelo_inurba_marseille","lat":43.28726,"lon":5.37937,"is_reserved":false,"is_disabled":false,"rental_uris":{"android":"levelo://app?vid=1483f0fb-1980-4944-b04c-587ac9c1b182","ios":"levelo://app?vid=1483f0fb-1980-4944-b04c-587ac9c1b182"},"vehicle_type_id":"4","last_reported":1758543620,"current_range_meters":6000,"station_id":"ce4bh9p2rcd13ifvqec0","pricing_plan_id":"cebpf4jnsgd1na2vs0mg"},{"bike_id":"a329363e-972b-428b-836e-51e3b2893c70","system_id":"levelo_inurba_marseille","lat":43.211883,"lon":5.350678,"is_reserved":false,"is_disabled":false,"rental_uris":{"android":"levelo://app?vid=a329363e-972b-428b-836e-51e3b2893c70","ios":"levelo://app?vid=a329363e-972b-428b-836e-51e3b2893c70"},"vehicle_type_id":"4","last_reported":1758543620,"current_range_meters":6400,"station_id":"st_cvj6sg6p6f1abm77japg","pricing_plan_id":"cebpf4jnsgd1na2vs0mg"},{"bike_id":"083b68ae-7bad-4608-9d98-b4a48bb76f9a","system_id":"levelo_inurba_marseille","lat":43.27199,"lon":5.39182,"is_reserved":false,"is_disabled":false,"rental_uris":{"android":"levelo://app?vid=083b68ae-7bad-4608-9d98-b4a48bb76f9a","ios":"levelo://app?vid=083b68ae-7bad-4608-9d98-b4a48bb76f9a"},"vehicle_type_id":"4","last_reported":1758543620,"current_range_meters":6400,"station_id":"ce4bhhp2rcd13ifvqfm0","pricing_plan_id":"cebpf4jnsgd1na2vs0mg"},{"bike_id":"e90c206e-6dbd-4275-aee6-7af1ffed8fe0","system_id":"levelo_inurba_marseille","lat":43.29265,"lon":5.40895,"is_reserved":false,"is_disabled":false,"rental_uris":{"android":"levelo://app?vid=e90c206e-6dbd-4275-aee6-7af1ffed8fe0","ios":"levelo://app?vid=e90c206e-6dbd-4275-aee6-7af1ffed8fe0"},"vehicle_type_id":"4","last_reported":1758543620,"current_range_meters":6400,"station_id":"ce4bh192rcd13ifvqdc0","pricing_plan_id":"cebpf4jnsgd1na2vs0mg"},{"bike_id":"22136d5e-bfd1-49d2-850c-62768d603cca","system_id":"levelo_inurba_marseille","lat":43.255821,"lon":5.382279,"is_reserved":false,"is_disabled":false,"rental_uris":{"android":"levelo://app?vid=22136d5e-bfd1-49d2-850c-62768d603cca","ios":"levelo://app?vid=22136d5e-bfd1-49d2-850c-62768d603cca"},"vehicle_type_id":"4","last_reported":1758543620,"current_range_meters":6800,"station_id":"ce4bhih2rcd13ifvqfs0","pricing_plan_id":"cebpf4jnsgd1na2vs0mg"},{"bike_id":"213f818a-2fc2-423a-8734-2921a1895f7c","system_id":"levelo_inurba_marseille","lat":43.211989,"lon":5.35064,"is_reserved":false,"is_disabled":false,"rental_uris":{"android":"levelo://app?vid=213f818a-2fc2-423a-8734-2921a1895f7c","ios":"levelo://app?vid=213f818a-2fc2-423a-8734-2921a1895f7c"},"vehicle_type_id":"4","last_reported":1758543620,"current_range_meters":6800,"station_id":"st_cvj6sg6p6f1abm77japg","pricing_plan_id":"cebpf4jnsgd1na2vs0mg"},{"bike_id":"bd7ff32b-25d2-49db-9eb9-e8196164408a","system_id":"levelo_inurba_marseille","lat":43.29038,"lon":5.3756,"is_reserved":false,"is_disabled":false,"rental_uris":{"android":"levelo://app?vid=bd7ff32b-25d2-49db-9eb9-e8196164408a","ios":"levelo://app?vid=bd7ff32b-25d2-49db-9eb9-e8196164408a"},"vehicle_type_id":"4","last_reported":1758543620,"current_range_meters":6800,"station_id":"ce4bh692rcd13ifvqe90","pricing_plan_id":"cebpf4jnsgd1na2vs0mg"},{"bike_id":"c6c22151-f926-4ec1-b5a1-f296dddf14a0","system_id":"levelo_inurba_marseille","lat":43.278681,"lon":5.387668,"is_reserved":false,"is_disabled":false,"rental_uris":{"android":"levelo://app?vid=c6c22151-f926-4ec1-b5a1-f296dddf14a0","ios":"levelo://app?vid=c6c22151-f926-4ec1-b5a1-f296dddf14a0"},"vehicle_type_id":"4","last_reported":1758543620,"current_range_meters":6800,"station_id":"ce4bhg12rcd13ifvqf70","pricing_plan_id":"cebpf4jnsgd1na2vs0mg"},{"bike_id":"8f90c6e9-c2a0-414b-a280-ed01b517d1e8","system_id":"levelo_inurba_marseille","lat":43.211817,"lon":5.350659,"is_reserved":false,"is_disabled":false,"rental_uris":{"android":"levelo://app?vid=8f90c6e9-c2a0-414b-a280-ed01b517d1e8","ios":"levelo://app?vid=8f90c6e9-c2a0-414b-a280-ed01b517d1e8"},"vehicle_type_id":"4","last_reported":1758543620,"current_range_meters":6800,"station_id":"st_cvj6sg6p6f1abm77japg","pricing_plan_id":"cebpf4jnsgd1na2vs0mg"},{"bike_id":"2289a0ff-9c3e-4f79-ad38-4b41158d6057","system_id":"levelo_inurba_marseille","lat":43.29882,"lon":5.37911,"is_reserved":false,"is_disabled":false,"rental_uris":{"android":"levelo://app?vid=2289a0ff-9c3e-4f79-ad38-4b41158d6057","ios":"levelo://app?vid=2289a0ff-9c3e-4f79-ad38-4b41158d6057"},"vehicle_type_id":"4","last_reported":1758543620,"current_range_meters":6800,"station_id":"","pricing_plan_id":"cebpf4jnsgd1na2vs0mg"},{"bike_id":"c13ccc85-592a-4082-a27c-254d90923487","system_id":"levelo_inurba_marseille","lat":43.32523,"lon":5.41427,"is_reserved":false,"is_disabled":false,"rental_uris":{"android":"levelo://app?vid=c13ccc85-592a-4082-a27c-254d90923487","ios":"levelo://app?vid=c13ccc85-592a-4082-a27c-254d90923487"},"vehicle_type_id":"4","last_reported":1758543620,"current_range_meters":6800,"station_id":"ce4bhq12rcd13ifvqhhg","pricing_plan_id":"cebpf4jnsgd1na2vs0mg"},{"bike_id":"55d1bc08-fd54-4a82-afc7-2adcaa7b1c4e","system_id":"levelo_inurba_marseille","lat":43.30029,"lon":5.37692,"is_reserved":false,"is_disabled":false,"rental_uris":{"android":"levelo://app?vid=55d1bc08-fd54-4a82-afc7-2adcaa7b1c4e","ios":"levelo://app?vid=55d1bc08-fd54-4a82-afc7-2adcaa7b1c4e"},"vehicle_type_id":"4","last_reported":1758543620,"current_range_meters":6800,"station_id":"","pricing_plan_id":"cebpf4jnsgd1na2vs0mg"},{"bike_id":"37012ba3-0125-4c07-bff2-3ee830b291d1","system_id":"levelo_inurba_marseille","lat":43.28433,"lon":5.39197,"is_reserved":false,"is_disabled":false,"rental_uris":{"android":"levelo://app?vid=37012ba3-0125-4c07-bff2-3ee830b291d1","ios":"levelo://app?vid=37012ba3-0125-4c07-bff2-3ee830b291d1"},"vehicle_type_id":"4","last_reported":1758543620,"current_range_meters":6800,"station_id":"ce4bhoh2rcd13ifvqh5g","pricing_plan_id":"cebpf4jnsgd1na2vs0mg"},{"bike_id":"7a7cf3fe-7e55-4ab8-8089-04a2b02df51c","system_id":"levelo_inurba_marseille","lat":43.28945,"lon":5.36398,"is_reserved":false,"is_disabled":false,"rental_uris":{"android":"levelo://app?vid=7a7cf3fe-7e55-4ab8-8089-04a2b02df51c","ios":"levelo://app?vid=7a7cf3fe-7e55-4ab8-8089-04a2b02df51c"},"vehicle_type_id":"4","last_reported":1758543620,"current_range_meters":6400,"station_id":"ce4bhc92rcd13ifvqetg","pricing_plan_id":"cebpf4jnsgd1na2vs0mg"},{"bike_id":"2015c1f2-c286-408a-b930-50d865ce0bb9","system_id":"levelo_inurba_marseille","lat":43.21197,"lon":5.35016,"is_reserved":false,"is_disabled":false,"rental_uris":{"android":"levelo://app?vid=2015c1f2-c286-408a-b930-50d865ce0bb9","ios":"levelo://app?vid=2015c1f2-c286-408a-b930-50d865ce0bb9"},"vehicle_type_id":"4","last_reported":1758543620,"current_range_meters":6800,"station_id":"","pricing_plan_id":"cebpf4jnsgd1na2vs0mg"},{"bike_id":"efbe2cdb-8090-482f-b447-994dc4e444fc","system_id":"levelo_inurba_marseille","lat":43.30542,"lon":5.3653,"is_reserved":false,"is_disabled":false,"rental_uris":{"android":"levelo://app?vid=efbe2cdb-8090-482f-b447-994dc4e444fc","ios":"levelo://app?vid=efbe2cdb-8090-482f-b447-994dc4e444fc"},"vehicle_type_id":"4","last_reported":1758543620,"current_range_meters":7200,"station_id":"ce4bgs12rcd13ifvqcag","pricing_plan_id":"cebpf4jnsgd1na2vs0mg"},{"bike_id":"8a569a47-46ff-4e91-972f-c6991b590b75","system_id":"levelo_inurba_marseille","lat":43.302435,"lon":5.400764,"is_reserved":false,"is_disabled":false,"rental_uris":{"android":"levelo://app?vid=8a569a47-46ff-4e91-972f-c6991b590b75","ios":"levelo://app?vid=8a569a47-46ff-4e91-972f-c6991b590b75"},"vehicle_type_id":"4","last_reported":1758543620,"current_range_meters":7200,"station_id":"ce4bgvh2rcd13ifvqcs0","pricing_plan_id":"cebpf4jnsgd1na2vs0mg"},{"bike_id":"1a175611-9a6f-4885-ab79-ae681ea0ae93","system_id":"levelo_inurba_marseille","lat":43.23149,"lon":5.43708,"is_reserved":false,"is_disabled":false,"rental_uris":{"android":"levelo://app?vid=1a175611-9a6f-4885-ab79-ae681ea0ae93","ios":"levelo://app?vid=1a175611-9a6f-4885-ab79-ae681ea0ae93"},"vehicle_type_id":"4","last_reported":1758543620,"current_range_meters":7200,"station_id":"ce4bhmp2rcd13ifvqgog","pricing_plan_id":"cebpf4jnsgd1na2vs0mg"},{"bike_id":"18703120-05e9-4707-923d-b9426972d4a4","system_id":"levelo_inurba_marseille","lat":43.29003,"lon":5.356122,"is_reserved":false,"is_disabled":false,"rental_uris":{"android":"levelo://app?vid=18703120-05e9-4707-923d-b9426972d4a4","ios":"levelo://app?vid=18703120-05e9-4707-923d-b9426972d4a4"},"vehicle_type_id":"4","last_reported":1758543620,"current_range_meters":7200,"station_id":"ce4bhb92rcd13ifvqen0","pricing_plan_id":"cebpf4jnsgd1na2vs0mg"},{"bike_id":"ac85c436-3a6c-4b4f-bacd-ab1283d0d7d2","system_id":"levelo_inurba_marseille","lat":43.26026,"lon":5.37546,"is_reserved":false,"is_disabled":false,"rental_uris":{"android":"levelo://app?vid=ac85c436-3a6c-4b4f-bacd-ab1283d0d7d2","ios":"levelo://app?vid=ac85c436-3a6c-4b4f-bacd-ab1283d0d7d2"},"vehicle_type_id":"4","last_reported":1758543620,"current_range_meters":7200,"station_id":"ce4bhgh2rcd13ifvqfa0","pricing_plan_id":"cebpf4jnsgd1na2vs0mg"},{"bike_id":"f69f9714-93e7-4b9c-a46e-fabf7655f836","system_id":"levelo_inurba_marseille","lat":43.22563,"lon":5.41622,"is_reserved":false,"is_disabled":false,"rental_uris":{"android":"levelo://app?vid=f69f9714-93e7-4b9c-a46e-fabf7655f836","ios":"levelo://app?vid=f69f9714-93e7-4b9c-a46e-fabf7655f836"},"vehicle_type_id":"4","last_reported":1758543620,"current_range_meters":7200,"station_id":"st_d2o4gvlbi1j2169b742g","pricing_plan_id":"cebpf4jnsgd1na2vs0mg"},{"bike_id":"a37c996e-65cc-4312-854c-ec3aa44ba2c5","system_id":"levelo_inurba_marseille","lat":43.29781,"lon":5.37111,"is_reserved":false,"is_disabled":false,"rental_uris":{"android":"levelo://app?vid=a37c996e-65cc-4312-854c-ec3aa44ba2c5","ios":"levelo://app?vid=a37c996e-65cc-4312-854c-ec3aa44ba2c5"},"vehicle_type_id":"4","last_reported":1758543620,"current_range_meters":7200,"station_id":"ce4bgop2rcd13ifvqc1g","pricing_plan_id":"cebpf4jnsgd1na2vs0mg"},{"bike_id":"4dc7f894-dc0b-4b3e-9409-475e94ba0bad","system_id":"levelo_inurba_marseille","lat":43.29262,"lon":5.3762,"is_reserved":false,"is_disabled":false,"rental_uris":{"android":"levelo://app?vid=4dc7f894-dc0b-4b3e-9409-475e94ba0bad","ios":"levelo://app?vid=4dc7f894-dc0b-4b3e-9409-475e94ba0bad"},"vehicle_type_id":"4","last_reported":1758543620,"current_range_meters":8000,"station_id":"ce4bgi12rcd13ifvqb80","pricing_plan_id":"cebpf4jnsgd1na2vs0mg"},{"bike_id":"68adab37-f5ad-4072-b58a-fe6c68285ca6","system_id":"levelo_inurba_marseille","lat":43.306265,"lon":5.376499,"is_reserved":false,"is_disabled":false,"rental_uris":{"android":"levelo://app?vid=68adab37-f5ad-4072-b58a-fe6c68285ca6","ios":"levelo://app?vid=68adab37-f5ad-4072-b58a-fe6c68285ca6"},"vehicle_type_id":"4","last_reported":1758543620,"current_range_meters":8000,"station_id":"","pricing_plan_id":"cebpf4jnsgd1na2vs0mg"},{"bike_id":"a9a21997-ffa6-4b7a-8713-2bc3b80877f0","system_id":"levelo_inurba_marseille","lat":43.312215,"lon":5.368398,"is_reserved":false,"is_disabled":false,"rental_uris":{"android":"levelo://app?vid=a9a21997-ffa6-4b7a-8713-2bc3b80877f0","ios":"levelo://app?vid=a9a21997-ffa6-4b7a-8713-2bc3b80877f0"},"vehicle_type_id":"4","last_reported":1758543620,"current_range_meters":8000,"station_id":"","pricing_plan_id":"cebpf4jnsgd1na2vs0mg"},{"bike_id":"5319fae8-be79-4d87-b5d0-b333eba32d6a","system_id":"levelo_inurba_marseille","lat":43.21187,"lon":5.35084,"is_reserved":false,"is_disabled":false,"rental_uris":{"android":"levelo://app?vid=5319fae8-be79-4d87-b5d0-b333eba32d6a","ios":"levelo://app?vid=5319fae8-be79-4d87-b5d0-b333eba32d6a"},"vehicle_type_id":"4","last_reported":1758543620,"current_range_meters":8000,"station_id":"st_cvj6sg6p6f1abm77japg","pricing_plan_id":"cebpf4jnsgd1na2vs0mg"},{"bike_id":"a9acc0dc-e12c-49b0-85da-03c2c23c5f89","system_id":"levelo_inurba_marseille","lat":43.24178,"lon":5.39715,"is_reserved":false,"is_disabled":false,"rental_uris":{"android":"levelo://app?vid=a9acc0dc-e12c-49b0-85da-03c2c23c5f89","ios":"levelo://app?vid=a9acc0dc-e12c-49b0-85da-03c2c23c5f89"},"vehicle_type_id":"4","last_reported":1758543620,"current_range_meters":8000,"station_id":"ce4bhn12rcd13ifvqgpg","pricing_plan_id":"cebpf4jnsgd1na2vs0mg"},{"bike_id":"2d82061a-a240-43d1-93a6-ab71cf777b3c","system_id":"levelo_inurba_marseille","lat":43.21184,"lon":5.35072,"is_reserved":false,"is_disabled":false,"rental_uris":{"android":"levelo://app?vid=2d82061a-a240-43d1-93a6-ab71cf777b3c","ios":"levelo://app?vid=2d82061a-a240-43d1-93a6-ab71cf777b3c"},"vehicle_type_id":"4","last_reported":1758543620,"current_range_meters":8000,"station_id":"st_cvj6sg6p6f1abm77japg","pricing_plan_id":"cebpf4jnsgd1na2vs0mg"},{"bike_id":"65a6264a-0065-47ae-8c18-67de745a95da","system_id":"levelo_inurba_marseille","lat":43.30546,"lon":5.36523,"is_reserved":false,"is_disabled":true,"rental_uris":{"android":"levelo://app?vid=65a6264a-0065-47ae-8c18-67de745a95da","ios":"levelo://app?vid=65a6264a-0065-47ae-8c18-67de745a95da"},"vehicle_type_id":"4","last_reported":1758543620,"current_range_meters":8400,"station_id":"ce4bgs12rcd13ifvqcag","pricing_plan_id":"cebpf4jnsgd1na2vs0mg"},{"bike_id":"32f3e07b-4ffa-45d2-9d1b-c369ce2e0796","system_id":"levelo_inurba_marseille","lat":43.30144,"lon":5.37415,"is_reserved":false,"is_disabled":false,"rental_uris":{"android":"levelo://app?vid=32f3e07b-4ffa-45d2-9d1b-c369ce2e0796","ios":"levelo://app?vid=32f3e07b-4ffa-45d2-9d1b-c369ce2e0796"},"vehicle_type_id":"4","last_reported":1758543620,"current_range_meters":8400,"station_id":"ce4bgs92rcd13ifvqcc0","pricing_plan_id":"cebpf4jnsgd1na2vs0mg"},{"bike_id":"32672d25-1477-4e60-8a5c-2be58b126786","system_id":"levelo_inurba_marseille","lat":43.26924,"lon":5.38924,"is_reserved":false,"is_disabled":false,"rental_uris":{"android":"levelo://app?vid=32672d25-1477-4e60-8a5c-2be58b126786","ios":"levelo://app?vid=32672d25-1477-4e60-8a5c-2be58b126786"},"vehicle_type_id":"4","last_reported":1758543620,"current_range_meters":8400,"station_id":"ce4bhhh2rcd13ifvqfl0","pricing_plan_id":"cebpf4jnsgd1na2vs0mg"},{"bike_id":"cf997114-aa79-43e7-ad0a-45afabc7b756","system_id":"levelo_inurba_marseille","lat":43.23191,"lon":5.39977,"is_reserved":false,"is_disabled":false,"rental_uris":{"android":"levelo://app?vid=cf997114-aa79-43e7-ad0a-45afabc7b756","ios":"levelo://app?vid=cf997114-aa79-43e7-ad0a-45afabc7b756"},"vehicle_type_id":"4","last_reported":1758543620,"current_range_meters":8400,"station_id":"ce4bhn12rcd13ifvqgqg","pricing_plan_id":"cebpf4jnsgd1na2vs0mg"},{"bike_id":"43a2fc07-5a26-42d8-b1ea-63363f9962fe","system_id":"levelo_inurba_marseille","lat":43.316843,"lon":5.404643,"is_reserved":false,"is_disabled":false,"rental_uris":{"android":"levelo://app?vid=43a2fc07-5a26-42d8-b1ea-63363f9962fe","ios":"levelo://app?vid=43a2fc07-5a26-42d8-b1ea-63363f9962fe"},"vehicle_type_id":"4","last_reported":1758543620,"current_range_meters":8400,"station_id":"ce4bh012rcd13ifvqd00","pricing_plan_id":"cebpf4jnsgd1na2vs0mg"},{"bike_id":"a19ab9a0-7b29-4ef1-9433-62953b866275","system_id":"levelo_inurba_marseille","lat":43.31739,"lon":5.37746,"is_reserved":false,"is_disabled":false,"rental_uris":{"android":"levelo://app?vid=a19ab9a0-7b29-4ef1-9433-62953b866275","ios":"levelo://app?vid=a19ab9a0-7b29-4ef1-9433-62953b866275"},"vehicle_type_id":"4","last_reported":1758543620,"current_range_meters":8400,"station_id":"ce4bgth2rcd13ifvqch0","pricing_plan_id":"cebpf4jnsgd1na2vs0mg"},{"bike_id":"f00ee29e-231e-4b9d-a5eb-2019364ad5dd","system_id":"levelo_inurba_marseille","lat":43.29281,"lon":5.36843,"is_reserved":false,"is_disabled":false,"rental_uris":{"android":"levelo://app?vid=f00ee29e-231e-4b9d-a5eb-2019364ad5dd","ios":"levelo://app?vid=f00ee29e-231e-4b9d-a5eb-2019364ad5dd"},"vehicle_type_id":"4","last_reported":1758543620,"current_range_meters":8400,"station_id":"ce4bhbp2rcd13ifvqesg","pricing_plan_id":"cebpf4jnsgd1na2vs0mg"},{"bike_id":"f581ccb4-ae4a-44ef-9aee-8da2f62ff531","system_id":"levelo_inurba_marseille","lat":43.31244,"lon":5.36824,"is_reserved":false,"is_disabled":false,"rental_uris":{"android":"levelo://app?vid=f581ccb4-ae4a-44ef-9aee-8da2f62ff531","ios":"levelo://app?vid=f581ccb4-ae4a-44ef-9aee-8da2f62ff531"},"vehicle_type_id":"4","last_reported":1758543620,"current_range_meters":8800,"station_id":"ce4bgl92rcd13ifvqbq0","pricing_plan_id":"cebpf4jnsgd1na2vs0mg"},{"bike_id":"e86857f8-f405-4657-b145-ec58ed187087","system_id":"levelo_inurba_marseille","lat":43.31484,"lon":5.3881,"is_reserved":false,"is_disabled":false,"rental_uris":{"android":"levelo://app?vid=e86857f8-f405-4657-b145-ec58ed187087","ios":"levelo://app?vid=e86857f8-f405-4657-b145-ec58ed187087"},"vehicle_type_id":"4","last_reported":1758543620,"current_range_meters":8800,"station_id":"ce4bgt92rcd13ifvqcf0","pricing_plan_id":"cebpf4jnsgd1na2vs0mg"},{"bike_id":"d2667e4e-8f97-413d-81b1-13a394c6285f","system_id":"levelo_inurba_marseille","lat":43.23063,"lon":5.35489,"is_reserved":false,"is_disabled":true,"rental_uris":{"android":"levelo://app?vid=d2667e4e-8f97-413d-81b1-13a394c6285f","ios":"levelo://app?vid=d2667e4e-8f97-413d-81b1-13a394c6285f"},"vehicle_type_id":"4","last_reported":1758543620,"current_range_meters":8800,"station_id":"cpo3342slgdg3j2ifvpg","pricing_plan_id":"cebpf4jnsgd1na2vs0mg"},{"bike_id":"12e77a2f-3171-44d0-8d53-e7a881052ae9","system_id":"levelo_inurba_marseille","lat":43.23065,"lon":5.35484,"is_reserved":false,"is_disabled":false,"rental_uris":{"android":"levelo://app?vid=12e77a2f-3171-44d0-8d53-e7a881052ae9","ios":"levelo://app?vid=12e77a2f-3171-44d0-8d53-e7a881052ae9"},"vehicle_type_id":"4","last_reported":1758543620,"current_range_meters":9200,"station_id":"cpo3342slgdg3j2ifvpg","pricing_plan_id":"cebpf4jnsgd1na2vs0mg"},{"bike_id":"8e920f23-4ec6-4612-b77d-ee042b1ecf10","system_id":"levelo_inurba_marseille","lat":43.29005,"lon":5.35608,"is_reserved":false,"is_disabled":false,"rental_uris":{"android":"levelo://app?vid=8e920f23-4ec6-4612-b77d-ee042b1ecf10","ios":"levelo://app?vid=8e920f23-4ec6-4612-b77d-ee042b1ecf10"},"vehicle_type_id":"4","last_reported":1758543620,"current_range_meters":9200,"station_id":"ce4bhb92rcd13ifvqen0","pricing_plan_id":"cebpf4jnsgd1na2vs0mg"},{"bike_id":"12f56fb4-bf73-412f-ac74-b6104166a4e0","system_id":"levelo_inurba_marseille","lat":43.31329,"lon":5.39698,"is_reserved":false,"is_disabled":false,"rental_uris":{"android":"levelo://app?vid=12f56fb4-bf73-412f-ac74-b6104166a4e0","ios":"levelo://app?vid=12f56fb4-bf73-412f-ac74-b6104166a4e0"},"vehicle_type_id":"4","last_reported":1758543620,"current_range_meters":9200,"station_id":"ce4bgvp2rcd13ifvqcu0","pricing_plan_id":"cebpf4jnsgd1na2vs0mg"},{"bike_id":"f9eefa0a-1c4d-4871-9e94-8cd80dad2332","system_id":"levelo_inurba_marseille","lat":43.29794,"lon":5.40392,"is_reserved":false,"is_disabled":false,"rental_uris":{"android":"levelo://app?vid=f9eefa0a-1c4d-4871-9e94-8cd80dad2332","ios":"levelo://app?vid=f9eefa0a-1c4d-4871-9e94-8cd80dad2332"},"vehicle_type_id":"4","last_reported":1758543620,"current_range_meters":8800,"station_id":"ce4bh112rcd13ifvqd90","pricing_plan_id":"cebpf4jnsgd1na2vs0mg"},{"bike_id":"f258f673-d6e2-426c-8111-987e545cdaa0","system_id":"levelo_inurba_marseille","lat":43.217438,"lon":5.345945,"is_reserved":false,"is_disabled":false,"rental_uris":{"android":"levelo://app?vid=f258f673-d6e2-426c-8111-987e545cdaa0","ios":"levelo://app?vid=f258f673-d6e2-426c-8111-987e545cdaa0"},"vehicle_type_id":"4","last_reported":1758543620,"current_range_meters":9200,"station_id":"st_cvj6r9ubvosntc0bgbag","pricing_plan_id":"cebpf4jnsgd1na2vs0mg"},{"bike_id":"76bbf107-7ec5-4826-b296-ab629ecd14ab","system_id":"levelo_inurba_marseille","lat":43.298086,"lon":5.421301,"is_reserved":false,"is_disabled":false,"rental_uris":{"android":"levelo://app?vid=76bbf107-7ec5-4826-b296-ab629ecd14ab","ios":"levelo://app?vid=76bbf107-7ec5-4826-b296-ab629ecd14ab"},"vehicle_type_id":"4","last_reported":1758543620,"current_range_meters":9200,"station_id":"","pricing_plan_id":"cebpf4jnsgd1na2vs0mg"},{"bike_id":"118b6d7e-3328-44e2-ae13-d04071b8c00f","system_id":"levelo_inurba_marseille","lat":43.21198,"lon":5.3506,"is_reserved":false,"is_disabled":false,"rental_uris":{"android":"levelo://app?vid=118b6d7e-3328-44e2-ae13-d04071b8c00f","ios":"levelo://app?vid=118b6d7e-3328-44e2-ae13-d04071b8c00f"},"vehicle_type_id":"4","last_reported":1758543620,"current_range_meters":9600,"station_id":"st_cvj6sg6p6f1abm77japg","pricing_plan_id":"cebpf4jnsgd1na2vs0mg"},{"bike_id":"0c8a92f3-f5d4-48dc-bbf5-8177c0a48b95","system_id":"levelo_inurba_marseille","lat":43.296289,"lon":5.381592,"is_reserved":false,"is_disabled":false,"rental_uris":{"android":"levelo://app?vid=0c8a92f3-f5d4-48dc-bbf5-8177c0a48b95","ios":"levelo://app?vid=0c8a92f3-f5d4-48dc-bbf5-8177c0a48b95"},"vehicle_type_id":"4","last_reported":1758543620,"current_range_meters":9600,"station_id":"","pricing_plan_id":"cebpf4jnsgd1na2vs0mg"},{"bike_id":"b8ca04f3-fe6c-4980-951a-f17740f76400","system_id":"levelo_inurba_marseille","lat":43.30923,"lon":5.36844,"is_reserved":false,"is_disabled":false,"rental_uris":{"android":"levelo://app?vid=b8ca04f3-fe6c-4980-951a-f17740f76400","ios":"levelo://app?vid=b8ca04f3-fe6c-4980-951a-f17740f76400"},"vehicle_type_id":"4","last_reported":1758543620,"current_range_meters":9600,"station_id":"ce4bgn92rcd13ifvqbvg","pricing_plan_id":"cebpf4jnsgd1na2vs0mg"},{"bike_id":"162483fb-058a-43f7-a272-15e63e78b5bc","system_id":"levelo_inurba_marseille","lat":43.21752,"lon":5.34605,"is_reserved":false,"is_disabled":false,"rental_uris":{"android":"levelo://app?vid=162483fb-058a-43f7-a272-15e63e78b5bc","ios":"levelo://app?vid=162483fb-058a-43f7-a272-15e63e78b5bc"},"vehicle_type_id":"4","last_reported":1758543620,"current_range_meters":9600,"station_id":"st_cvj6r9ubvosntc0bgbag","pricing_plan_id":"cebpf4jnsgd1na2vs0mg"},{"bike_id":"ca7cfd93-60d9-4fda-b2da-28a86ec02074","system_id":"levelo_inurba_marseille","lat":43.3347,"lon":5.36237,"is_reserved":false,"is_disabled":false,"rental_uris":{"android":"levelo://app?vid=ca7cfd93-60d9-4fda-b2da-28a86ec02074","ios":"levelo://app?vid=ca7cfd93-60d9-4fda-b2da-28a86ec02074"},"vehicle_type_id":"4","last_reported":1758543620,"current_range_meters":9600,"station_id":"","pricing_plan_id":"cebpf4jnsgd1na2vs0mg"},{"bike_id":"a95a546a-691f-414b-9f19-eb455305a59b","system_id":"levelo_inurba_marseille","lat":43.217568,"lon":5.346016,"is_reserved":false,"is_disabled":false,"rental_uris":{"android":"levelo://app?vid=a95a546a-691f-414b-9f19-eb455305a59b","ios":"levelo://app?vid=a95a546a-691f-414b-9f19-eb455305a59b"},"vehicle_type_id":"4","last_reported":1758543620,"current_range_meters":9600,"station_id":"st_cvj6r9ubvosntc0bgbag","pricing_plan_id":"cebpf4jnsgd1na2vs0mg"},{"bike_id":"0f2a866d-9a0c-4afd-a196-774043c82891","system_id":"levelo_inurba_marseille","lat":43.23182,"lon":5.39981,"is_reserved":false,"is_disabled":false,"rental_uris":{"android":"levelo://app?vid=0f2a866d-9a0c-4afd-a196-774043c82891","ios":"levelo://app?vid=0f2a866d-9a0c-4afd-a196-774043c82891"},"vehicle_type_id":"4","last_reported":1758543620,"current_range_meters":9600,"station_id":"ce4bhn12rcd13ifvqgqg","pricing_plan_id":"cebpf4jnsgd1na2vs0mg"},{"bike_id":"bda75667-597d-4e1b-a32d-a06bd7f39943","system_id":"levelo_inurba_marseille","lat":43.279968,"lon":5.416565,"is_reserved":false,"is_disabled":false,"rental_uris":{"android":"levelo://app?vid=bda75667-597d-4e1b-a32d-a06bd7f39943","ios":"levelo://app?vid=bda75667-597d-4e1b-a32d-a06bd7f39943"},"vehicle_type_id":"4","last_reported":1758543620,"current_range_meters":10000,"station_id":"ce4bho12rcd13ifvqh1g","pricing_plan_id":"cebpf4jnsgd1na2vs0mg"},{"bike_id":"a8257798-e888-4b44-8802-affc27eeb43f","system_id":"levelo_inurba_marseille","lat":43.29619,"lon":5.37161,"is_reserved":false,"is_disabled":false,"rental_uris":{"android":"levelo://app?vid=a8257798-e888-4b44-8802-affc27eeb43f","ios":"levelo://app?vid=a8257798-e888-4b44-8802-affc27eeb43f"},"vehicle_type_id":"4","last_reported":1758543620,"current_range_meters":9600,"station_id":"ce4bgnh2rcd13ifvqc0g","pricing_plan_id":"cebpf4jnsgd1na2vs0mg"},{"bike_id":"363d99e5-837c-43c8-abcc-c80ef2e2786a","system_id":"levelo_inurba_marseille","lat":43.21191,"lon":5.35075,"is_reserved":false,"is_disabled":false,"rental_uris":{"android":"levelo://app?vid=363d99e5-837c-43c8-abcc-c80ef2e2786a","ios":"levelo://app?vid=363d99e5-837c-43c8-abcc-c80ef2e2786a"},"vehicle_type_id":"4","last_reported":1758543620,"current_range_meters":9600,"station_id":"st_cvj6sg6p6f1abm77japg","pricing_plan_id":"cebpf4jnsgd1na2vs0mg"},{"bike_id":"2adebf0e-758a-4bae-b579-905b8d8119da","system_id":"levelo_inurba_marseille","lat":43.28666,"lon":5.38674,"is_reserved":false,"is_disabled":false,"rental_uris":{"android":"levelo://app?vid=2adebf0e-758a-4bae-b579-905b8d8119da","ios":"levelo://app?vid=2adebf0e-758a-4bae-b579-905b8d8119da"},"vehicle_type_id":"4","last_reported":1758543620,"current_range_meters":10000,"station_id":"ce4bh492rcd13ifvqdug","pricing_plan_id":"cebpf4jnsgd1na2vs0mg"},{"bike_id":"3fc867c9-ec47-4da0-bc27-177a911f177a","system_id":"levelo_inurba_marseille","lat":43.30519,"lon":5.36711,"is_reserved":false,"is_disabled":false,"rental_uris":{"android":"levelo://app?vid=3fc867c9-ec47-4da0-bc27-177a911f177a","ios":"levelo://app?vid=3fc867c9-ec47-4da0-bc27-177a911f177a"},"vehicle_type_id":"4","last_reported":1758543620,"current_range_meters":36800,"station_id":"ce4bgrp2rcd13ifvqc9g","pricing_plan_id":"cebpf4jnsgd1na2vs0mg"},{"bike_id":"9176512c-2cc1-4df2-a8e0-6be514fbcdbf","system_id":"levelo_inurba_marseille","lat":43.33748,"lon":5.37465,"is_reserved":false,"is_disabled":false,"rental_uris":{"android":"levelo://app?vid=9176512c-2cc1-4df2-a8e0-6be514fbcdbf","ios":"levelo://app?vid=9176512c-2cc1-4df2-a8e0-6be514fbcdbf"},"vehicle_type_id":"4","last_reported":1758543620,"current_range_meters":10000,"station_id":"","pricing_plan_id":"cebpf4jnsgd1na2vs0mg"},{"bike_id":"73fefb2b-fd05-4b57-bded-b6136b664049","system_id":"levelo_inurba_marseille","lat":43.27498,"lon":5.42447,"is_reserved":false,"is_disabled":false,"rental_uris":{"android":"levelo://app?vid=73fefb2b-fd05-4b57-bded-b6136b664049","ios":"levelo://app?vid=73fefb2b-fd05-4b57-bded-b6136b664049"},"vehicle_type_id":"4","last_reported":1758543620,"current_range_meters":10000,"station_id":"ce4bhn92rcd13ifvqgrg","pricing_plan_id":"cebpf4jnsgd1na2vs0mg"},{"bike_id":"438ead59-de14-4fa0-a61d-03a70a4122ae","system_id":"levelo_inurba_marseille","lat":43.97285,"lon":4.89134,"is_reserved":false,"is_disabled":true,"rental_uris":{"android":"levelo://app?vid=438ead59-de14-4fa0-a61d-03a70a4122ae","ios":"levelo://app?vid=438ead59-de14-4fa0-a61d-03a70a4122ae"},"vehicle_type_id":"4","last_reported":1758543620,"current_range_meters":10000,"station_id":"","pricing_plan_id":"cebpf4jnsgd1na2vs0mg"},{"bike_id":"4b7965aa-d15e-4358-8e44-54ca10a7d84b","system_id":"levelo_inurba_marseille","lat":43.28785,"lon":5.38561,"is_reserved":false,"is_disabled":false,"rental_uris":{"android":"levelo://app?vid=4b7965aa-d15e-4358-8e44-54ca10a7d84b","ios":"levelo://app?vid=4b7965aa-d15e-4358-8e44-54ca10a7d84b"},"vehicle_type_id":"4","last_reported":1758543620,"current_range_meters":10800,"station_id":"","pricing_plan_id":"cebpf4jnsgd1na2vs0mg"},{"bike_id":"800d7cd6-9cf1-48ee-be18-fe8137e9be67","system_id":"levelo_inurba_marseille","lat":43.24079,"lon":5.37754,"is_reserved":false,"is_disabled":false,"rental_uris":{"android":"levelo://app?vid=800d7cd6-9cf1-48ee-be18-fe8137e9be67","ios":"levelo://app?vid=800d7cd6-9cf1-48ee-be18-fe8137e9be67"},"vehicle_type_id":"4","last_reported":1758543620,"current_range_meters":10000,"station_id":"ce4bhnp2rcd13ifvqgvg","pricing_plan_id":"cebpf4jnsgd1na2vs0mg"},{"bike_id":"0402438e-d72b-4870-8e22-17facef5f22b","system_id":"levelo_inurba_marseille","lat":43.295954,"lon":5.39163,"is_reserved":false,"is_disabled":false,"rental_uris":{"android":"levelo://app?vid=0402438e-d72b-4870-8e22-17facef5f22b","ios":"levelo://app?vid=0402438e-d72b-4870-8e22-17facef5f22b"},"vehicle_type_id":"4","last_reported":1758543620,"current_range_meters":10800,"station_id":"","pricing_plan_id":"cebpf4jnsgd1na2vs0mg"},{"bike_id":"f7745353-e767-49e8-be5c-5e729fb35a09","system_id":"levelo_inurba_marseille","lat":43.28626,"lon":5.38214,"is_reserved":false,"is_disabled":false,"rental_uris":{"android":"levelo://app?vid=f7745353-e767-49e8-be5c-5e729fb35a09","ios":"levelo://app?vid=f7745353-e767-49e8-be5c-5e729fb35a09"},"vehicle_type_id":"4","last_reported":1758543620,"current_range_meters":10800,"station_id":"","pricing_plan_id":"cebpf4jnsgd1na2vs0mg"},{"bike_id":"5929995c-d17e-4c9d-bfb4-2def0e8e5fad","system_id":"levelo_inurba_marseille","lat":43.29595,"lon":5.36734,"is_reserved":false,"is_disabled":false,"rental_uris":{"android":"levelo://app?vid=5929995c-d17e-4c9d-bfb4-2def0e8e5fad","ios":"levelo://app?vid=5929995c-d17e-4c9d-bfb4-2def0e8e5fad"},"vehicle_type_id":"4","last_reported":1758543620,"current_range_meters":10800,"station_id":"ce4bgph2rcd13ifvqc2g","pricing_plan_id":"cebpf4jnsgd1na2vs0mg"},{"bike_id":"d344a5a6-ecd3-4290-8ed0-770794776383","system_id":"levelo_inurba_marseille","lat":43.32282,"lon":5.3827,"is_reserved":false,"is_disabled":false,"rental_uris":{"android":"levelo://app?vid=d344a5a6-ecd3-4290-8ed0-770794776383","ios":"levelo://app?vid=d344a5a6-ecd3-4290-8ed0-770794776383"},"vehicle_type_id":"4","last_reported":1758543620,"current_range_meters":10800,"station_id":"ce4bhr12rcd13ifvqhqg","pricing_plan_id":"cebpf4jnsgd1na2vs0mg"},{"bike_id":"1e0fd49c-ac4b-47b7-af02-10561a312938","system_id":"levelo_inurba_marseille","lat":43.21747,"lon":5.34598,"is_reserved":false,"is_disabled":false,"rental_uris":{"android":"levelo://app?vid=1e0fd49c-ac4b-47b7-af02-10561a312938","ios":"levelo://app?vid=1e0fd49c-ac4b-47b7-af02-10561a312938"},"vehicle_type_id":"4","last_reported":1758543620,"current_range_meters":11200,"station_id":"st_cvj6r9ubvosntc0bgbag","pricing_plan_id":"cebpf4jnsgd1na2vs0mg"},{"bike_id":"504d39e8-3629-4802-a809-53ce97f25cab","system_id":"levelo_inurba_marseille","lat":43.285,"lon":5.38563,"is_reserved":false,"is_disabled":false,"rental_uris":{"android":"levelo://app?vid=504d39e8-3629-4802-a809-53ce97f25cab","ios":"levelo://app?vid=504d39e8-3629-4802-a809-53ce97f25cab"},"vehicle_type_id":"4","last_reported":1758543620,"current_range_meters":11200,"station_id":"ce4bh8p2rcd13ifvqeb0","pricing_plan_id":"cebpf4jnsgd1na2vs0mg"},{"bike_id":"4f645b2f-8e26-48da-bb4b-8c374ac13384","system_id":"levelo_inurba_marseille","lat":43.211947,"lon":5.35067,"is_reserved":false,"is_disabled":false,"rental_uris":{"android":"levelo://app?vid=4f645b2f-8e26-48da-bb4b-8c374ac13384","ios":"levelo://app?vid=4f645b2f-8e26-48da-bb4b-8c374ac13384"},"vehicle_type_id":"4","last_reported":1758543620,"current_range_meters":11200,"station_id":"st_cvj6sg6p6f1abm77japg","pricing_plan_id":"cebpf4jnsgd1na2vs0mg"},{"bike_id":"ef22be2a-a1f2-4314-bbc2-841591d604c2","system_id":"levelo_inurba_marseille","lat":43.29204,"lon":5.35797,"is_reserved":false,"is_disabled":false,"rental_uris":{"android":"levelo://app?vid=ef22be2a-a1f2-4314-bbc2-841591d604c2","ios":"levelo://app?vid=ef22be2a-a1f2-4314-bbc2-841591d604c2"},"vehicle_type_id":"4","last_reported":1758543620,"current_range_meters":11200,"station_id":"ce4bhb12rcd13ifvqel0","pricing_plan_id":"cebpf4jnsgd1na2vs0mg"},{"bike_id":"1acc509b-af85-4b58-bd74-e0c052811dd7","system_id":"levelo_inurba_marseille","lat":43.30284,"lon":5.396613,"is_reserved":false,"is_disabled":false,"rental_uris":{"android":"levelo://app?vid=1acc509b-af85-4b58-bd74-e0c052811dd7","ios":"levelo://app?vid=1acc509b-af85-4b58-bd74-e0c052811dd7"},"vehicle_type_id":"4","last_reported":1758543620,"current_range_meters":11600,"station_id":"","pricing_plan_id":"cebpf4jnsgd1na2vs0mg"},{"bike_id":"f3805ac9-2ab6-41f8-b374-0887d951860e","system_id":"levelo_inurba_marseille","lat":43.23064,"lon":5.35487,"is_reserved":false,"is_disabled":false,"rental_uris":{"android":"levelo://app?vid=f3805ac9-2ab6-41f8-b374-0887d951860e","ios":"levelo://app?vid=f3805ac9-2ab6-41f8-b374-0887d951860e"},"vehicle_type_id":"4","last_reported":1758543620,"current_range_meters":11600,"station_id":"cpo3342slgdg3j2ifvpg","pricing_plan_id":"cebpf4jnsgd1na2vs0mg"},{"bike_id":"f7ed9453-b872-4cb1-9fef-a7a5ec45c404","system_id":"levelo_inurba_marseille","lat":43.29792,"lon":5.38104,"is_reserved":false,"is_disabled":false,"rental_uris":{"android":"levelo://app?vid=f7ed9453-b872-4cb1-9fef-a7a5ec45c404","ios":"levelo://app?vid=f7ed9453-b872-4cb1-9fef-a7a5ec45c404"},"vehicle_type_id":"4","last_reported":1758543620,"current_range_meters":11600,"station_id":"ce4bgip2rcd13ifvqbb0","pricing_plan_id":"cebpf4jnsgd1na2vs0mg"},{"bike_id":"efb8e5a8-e1b7-4461-9065-59796b8d6bd0","system_id":"levelo_inurba_marseille","lat":43.25578,"lon":5.38229,"is_reserved":false,"is_disabled":false,"rental_uris":{"android":"levelo://app?vid=efb8e5a8-e1b7-4461-9065-59796b8d6bd0","ios":"levelo://app?vid=efb8e5a8-e1b7-4461-9065-59796b8d6bd0"},"vehicle_type_id":"4","last_reported":1758543620,"current_range_meters":11200,"station_id":"ce4bhih2rcd13ifvqfs0","pricing_plan_id":"cebpf4jnsgd1na2vs0mg"},{"bike_id":"a071384d-9a3b-4198-892a-7c17d5ea442c","system_id":"levelo_inurba_marseille","lat":43.312228,"lon":5.368501,"is_reserved":false,"is_disabled":false,"rental_uris":{"android":"levelo://app?vid=a071384d-9a3b-4198-892a-7c17d5ea442c","ios":"levelo://app?vid=a071384d-9a3b-4198-892a-7c17d5ea442c"},"vehicle_type_id":"4","last_reported":1758543620,"current_range_meters":11600,"station_id":"ce4bgl92rcd13ifvqbq0","pricing_plan_id":"cebpf4jnsgd1na2vs0mg"},{"bike_id":"c3e9ec78-d16b-45ba-a192-2cfab652bb22","system_id":"levelo_inurba_marseille","lat":43.2963,"lon":5.36966,"is_reserved":false,"is_disabled":false,"rental_uris":{"android":"levelo://app?vid=c3e9ec78-d16b-45ba-a192-2cfab652bb22","ios":"levelo://app?vid=c3e9ec78-d16b-45ba-a192-2cfab652bb22"},"vehicle_type_id":"4","last_reported":1758543620,"current_range_meters":11600,"station_id":"","pricing_plan_id":"cebpf4jnsgd1na2vs0mg"},{"bike_id":"157ea38c-d0c2-4dad-9bfb-17d116c131b7","system_id":"levelo_inurba_marseille","lat":43.30786,"lon":5.3764,"is_reserved":false,"is_disabled":false,"rental_uris":{"android":"levelo://app?vid=157ea38c-d0c2-4dad-9bfb-17d116c131b7","ios":"levelo://app?vid=157ea38c-d0c2-4dad-9bfb-17d116c131b7"},"vehicle_type_id":"4","last_reported":1758543620,"current_range_meters":11600,"station_id":"ce4bgv92rcd13ifvqcq0","pricing_plan_id":"cebpf4jnsgd1na2vs0mg"},{"bike_id":"cff82355-2c4d-48b5-bd67-56ba1fd5ab5c","system_id":"levelo_inurba_marseille","lat":43.298702,"lon":5.436471,"is_reserved":false,"is_disabled":false,"rental_uris":{"android":"levelo://app?vid=cff82355-2c4d-48b5-bd67-56ba1fd5ab5c","ios":"levelo://app?vid=cff82355-2c4d-48b5-bd67-56ba1fd5ab5c"},"vehicle_type_id":"4","last_reported":1758543620,"current_range_meters":12000,"station_id":"ce4bhpp2rcd13ifvqhfg","pricing_plan_id":"cebpf4jnsgd1na2vs0mg"},{"bike_id":"b7ba8aaf-5652-42b9-9af2-3576b0ef52b0","system_id":"levelo_inurba_marseille","lat":43.29933,"lon":5.36545,"is_reserved":false,"is_disabled":false,"rental_uris":{"android":"levelo://app?vid=b7ba8aaf-5652-42b9-9af2-3576b0ef52b0","ios":"levelo://app?vid=b7ba8aaf-5652-42b9-9af2-3576b0ef52b0"},"vehicle_type_id":"4","last_reported":1758543620,"current_range_meters":12000,"station_id":"ce4bgm92rcd13ifvqbr0","pricing_plan_id":"cebpf4jnsgd1na2vs0mg"},{"bike_id":"80341c0a-b728-4800-99ff-e61e960d4955","system_id":"levelo_inurba_marseille","lat":43.29915,"lon":5.37491,"is_reserved":false,"is_disabled":false,"rental_uris":{"android":"levelo://app?vid=80341c0a-b728-4800-99ff-e61e960d4955","ios":"levelo://app?vid=80341c0a-b728-4800-99ff-e61e960d4955"},"vehicle_type_id":"4","last_reported":1758543620,"current_range_meters":12000,"station_id":"ce4bgjh2rcd13ifvqbg0","pricing_plan_id":"cebpf4jnsgd1na2vs0mg"},{"bike_id":"f19dfb17-2376-43e9-8258-57b17b96e508","system_id":"levelo_inurba_marseille","lat":43.23062,"lon":5.35485,"is_reserved":false,"is_disabled":false,"rental_uris":{"android":"levelo://app?vid=f19dfb17-2376-43e9-8258-57b17b96e508","ios":"levelo://app?vid=f19dfb17-2376-43e9-8258-57b17b96e508"},"vehicle_type_id":"4","last_reported":1758543620,"current_range_meters":12000,"station_id":"cpo3342slgdg3j2ifvpg","pricing_plan_id":"cebpf4jnsgd1na2vs0mg"},{"bike_id":"75cdae86-aa3c-46f9-92bf-f3662c1063cf","system_id":"levelo_inurba_marseille","lat":43.33741,"lon":5.39184,"is_reserved":false,"is_disabled":false,"rental_uris":{"android":"levelo://app?vid=75cdae86-aa3c-46f9-92bf-f3662c1063cf","ios":"levelo://app?vid=75cdae86-aa3c-46f9-92bf-f3662c1063cf"},"vehicle_type_id":"4","last_reported":1758543620,"current_range_meters":12000,"station_id":"ce4bhr92rcd13ifvqhsg","pricing_plan_id":"cebpf4jnsgd1na2vs0mg"},{"bike_id":"c46575d3-d222-4081-9970-3a38bb708282","system_id":"levelo_inurba_marseille","lat":43.22938,"lon":5.35375,"is_reserved":false,"is_disabled":false,"rental_uris":{"android":"levelo://app?vid=c46575d3-d222-4081-9970-3a38bb708282","ios":"levelo://app?vid=c46575d3-d222-4081-9970-3a38bb708282"},"vehicle_type_id":"4","last_reported":1758543620,"current_range_meters":12000,"station_id":"cpo3532slgdg3j2ikp40","pricing_plan_id":"cebpf4jnsgd1na2vs0mg"},{"bike_id":"9f6d91e8-d8e4-458b-9442-31e0fadc77b2","system_id":"levelo_inurba_marseille","lat":43.29624,"lon":5.37726,"is_reserved":false,"is_disabled":false,"rental_uris":{"android":"levelo://app?vid=9f6d91e8-d8e4-458b-9442-31e0fadc77b2","ios":"levelo://app?vid=9f6d91e8-d8e4-458b-9442-31e0fadc77b2"},"vehicle_type_id":"4","last_reported":1758543620,"current_range_meters":12400,"station_id":"ce4bgi92rcd13ifvqb90","pricing_plan_id":"cebpf4jnsgd1na2vs0mg"},{"bike_id":"d64a3c34-4f58-4a33-9858-96d7eeac0575","system_id":"levelo_inurba_marseille","lat":43.22936,"lon":5.35371,"is_reserved":false,"is_disabled":false,"rental_uris":{"android":"levelo://app?vid=d64a3c34-4f58-4a33-9858-96d7eeac0575","ios":"levelo://app?vid=d64a3c34-4f58-4a33-9858-96d7eeac0575"},"vehicle_type_id":"4","last_reported":1758543620,"current_range_meters":12400,"station_id":"cpo3532slgdg3j2ikp40","pricing_plan_id":"cebpf4jnsgd1na2vs0mg"},{"bike_id":"43d57fd4-047e-4ac8-97e5-ec9b96239472","system_id":"levelo_inurba_marseille","lat":43.33123,"lon":5.39726,"is_reserved":false,"is_disabled":false,"rental_uris":{"android":"levelo://app?vid=43d57fd4-047e-4ac8-97e5-ec9b96239472","ios":"levelo://app?vid=43d57fd4-047e-4ac8-97e5-ec9b96239472"},"vehicle_type_id":"4","last_reported":1758543620,"current_range_meters":12400,"station_id":"","pricing_plan_id":"cebpf4jnsgd1na2vs0mg"},{"bike_id":"aa615de6-88cf-4553-9e37-2b398204d202","system_id":"levelo_inurba_marseille","lat":43.211881,"lon":5.350782,"is_reserved":false,"is_disabled":false,"rental_uris":{"android":"levelo://app?vid=aa615de6-88cf-4553-9e37-2b398204d202","ios":"levelo://app?vid=aa615de6-88cf-4553-9e37-2b398204d202"},"vehicle_type_id":"4","last_reported":1758543620,"current_range_meters":12800,"station_id":"st_cvj6sg6p6f1abm77japg","pricing_plan_id":"cebpf4jnsgd1na2vs0mg"},{"bike_id":"23ef11e9-e3bd-42e4-a408-73cf136362b7","system_id":"levelo_inurba_marseille","lat":43.29793,"lon":5.38102,"is_reserved":false,"is_disabled":false,"rental_uris":{"android":"levelo://app?vid=23ef11e9-e3bd-42e4-a408-73cf136362b7","ios":"levelo://app?vid=23ef11e9-e3bd-42e4-a408-73cf136362b7"},"vehicle_type_id":"4","last_reported":1758543620,"current_range_meters":12800,"station_id":"ce4bgip2rcd13ifvqbb0","pricing_plan_id":"cebpf4jnsgd1na2vs0mg"},{"bike_id":"256595de-240d-4c5f-a89b-19203ce847b4","system_id":"levelo_inurba_marseille","lat":43.28709,"lon":5.37946,"is_reserved":false,"is_disabled":false,"rental_uris":{"android":"levelo://app?vid=256595de-240d-4c5f-a89b-19203ce847b4","ios":"levelo://app?vid=256595de-240d-4c5f-a89b-19203ce847b4"},"vehicle_type_id":"4","last_reported":1758543620,"current_range_meters":12800,"station_id":"ce4bh9p2rcd13ifvqec0","pricing_plan_id":"cebpf4jnsgd1na2vs0mg"},{"bike_id":"0e3fe692-0715-4b11-84d0-e197b805536d","system_id":"levelo_inurba_marseille","lat":43.33614,"lon":5.41031,"is_reserved":false,"is_disabled":false,"rental_uris":{"android":"levelo://app?vid=0e3fe692-0715-4b11-84d0-e197b805536d","ios":"levelo://app?vid=0e3fe692-0715-4b11-84d0-e197b805536d"},"vehicle_type_id":"4","last_reported":1758543620,"current_range_meters":12800,"station_id":"ce4bhqh2rcd13ifvqhmg","pricing_plan_id":"cebpf4jnsgd1na2vs0mg"},{"bike_id":"ad2db62e-2dbb-48a8-8dee-fe17b8496425","system_id":"levelo_inurba_marseille","lat":43.30145,"lon":5.37418,"is_reserved":false,"is_disabled":false,"rental_uris":{"android":"levelo://app?vid=ad2db62e-2dbb-48a8-8dee-fe17b8496425","ios":"levelo://app?vid=ad2db62e-2dbb-48a8-8dee-fe17b8496425"},"vehicle_type_id":"4","last_reported":1758543620,"current_range_meters":12800,"station_id":"ce4bgs92rcd13ifvqcc0","pricing_plan_id":"cebpf4jnsgd1na2vs0mg"},{"bike_id":"2856ea7f-80d3-4041-9a34-8846fb61b455","system_id":"levelo_inurba_marseille","lat":43.285442,"lon":5.387867,"is_reserved":false,"is_disabled":true,"rental_uris":{"android":"levelo://app?vid=2856ea7f-80d3-4041-9a34-8846fb61b455","ios":"levelo://app?vid=2856ea7f-80d3-4041-9a34-8846fb61b455"},"vehicle_type_id":"4","last_reported":1758543620,"current_range_meters":12800,"station_id":"","pricing_plan_id":"cebpf4jnsgd1na2vs0mg"},{"bike_id":"a7e0fcb1-7f23-4053-a317-0cae7d88620c","system_id":"levelo_inurba_marseille","lat":43.3054,"lon":5.36524,"is_reserved":false,"is_disabled":false,"rental_uris":{"android":"levelo://app?vid=a7e0fcb1-7f23-4053-a317-0cae7d88620c","ios":"levelo://app?vid=a7e0fcb1-7f23-4053-a317-0cae7d88620c"},"vehicle_type_id":"4","last_reported":1758543620,"current_range_meters":12800,"station_id":"ce4bgs12rcd13ifvqcag","pricing_plan_id":"cebpf4jnsgd1na2vs0mg"},{"bike_id":"9b60e9bc-5d07-44d4-8647-a4f014c8ea72","system_id":"levelo_inurba_marseille","lat":43.30428,"lon":5.39749,"is_reserved":false,"is_disabled":false,"rental_uris":{"android":"levelo://app?vid=9b60e9bc-5d07-44d4-8647-a4f014c8ea72","ios":"levelo://app?vid=9b60e9bc-5d07-44d4-8647-a4f014c8ea72"},"vehicle_type_id":"4","last_reported":1758543620,"current_range_meters":12800,"station_id":"ce4bh092rcd13ifvqd20","pricing_plan_id":"cebpf4jnsgd1na2vs0mg"},{"bike_id":"90e14a2d-1c9e-457a-a1d7-7257e3270581","system_id":"levelo_inurba_marseille","lat":43.279969,"lon":5.416627,"is_reserved":false,"is_disabled":true,"rental_uris":{"android":"levelo://app?vid=90e14a2d-1c9e-457a-a1d7-7257e3270581","ios":"levelo://app?vid=90e14a2d-1c9e-457a-a1d7-7257e3270581"},"vehicle_type_id":"4","last_reported":1758543620,"current_range_meters":13600,"station_id":"ce4bho12rcd13ifvqh1g","pricing_plan_id":"cebpf4jnsgd1na2vs0mg"},{"bike_id":"b0ece6dd-02df-4a38-b85c-23b3341d3a19","system_id":"levelo_inurba_marseille","lat":43.30247,"lon":5.40066,"is_reserved":false,"is_disabled":true,"rental_uris":{"android":"levelo://app?vid=b0ece6dd-02df-4a38-b85c-23b3341d3a19","ios":"levelo://app?vid=b0ece6dd-02df-4a38-b85c-23b3341d3a19"},"vehicle_type_id":"4","last_reported":1758543620,"current_range_meters":13600,"station_id":"ce4bgvh2rcd13ifvqcs0","pricing_plan_id":"cebpf4jnsgd1na2vs0mg"},{"bike_id":"a3957254-c7b5-441b-a03f-ab5ad0d2f066","system_id":"levelo_inurba_marseille","lat":43.28414,"lon":5.34978,"is_reserved":false,"is_disabled":false,"rental_uris":{"android":"levelo://app?vid=a3957254-c7b5-441b-a03f-ab5ad0d2f066","ios":"levelo://app?vid=a3957254-c7b5-441b-a03f-ab5ad0d2f066"},"vehicle_type_id":"4","last_reported":1758543620,"current_range_meters":14000,"station_id":"ce4bhbh2rcd13ifvqepg","pricing_plan_id":"cebpf4jnsgd1na2vs0mg"},{"bike_id":"94dc763b-5c60-4e8c-a6fc-573bcaf8f7f0","system_id":"levelo_inurba_marseille","lat":43.324795,"lon":5.365662,"is_reserved":false,"is_disabled":false,"rental_uris":{"android":"levelo://app?vid=94dc763b-5c60-4e8c-a6fc-573bcaf8f7f0","ios":"levelo://app?vid=94dc763b-5c60-4e8c-a6fc-573bcaf8f7f0"},"vehicle_type_id":"4","last_reported":1758543620,"current_range_meters":14000,"station_id":"ce4bhs12rcd13ifvqhvg","pricing_plan_id":"cebpf4jnsgd1na2vs0mg"},{"bike_id":"ec14155c-f9ac-4f1a-ba06-934b61e8e6c8","system_id":"levelo_inurba_marseille","lat":43.32481,"lon":5.36586,"is_reserved":false,"is_disabled":false,"rental_uris":{"android":"levelo://app?vid=ec14155c-f9ac-4f1a-ba06-934b61e8e6c8","ios":"levelo://app?vid=ec14155c-f9ac-4f1a-ba06-934b61e8e6c8"},"vehicle_type_id":"4","last_reported":1758543620,"current_range_meters":14000,"station_id":"ce4bhs12rcd13ifvqhvg","pricing_plan_id":"cebpf4jnsgd1na2vs0mg"},{"bike_id":"b1b09d1a-e22d-44a8-80c4-7fbfc52d96cc","system_id":"levelo_inurba_marseille","lat":43.26595,"lon":5.39026,"is_reserved":false,"is_disabled":false,"rental_uris":{"android":"levelo://app?vid=b1b09d1a-e22d-44a8-80c4-7fbfc52d96cc","ios":"levelo://app?vid=b1b09d1a-e22d-44a8-80c4-7fbfc52d96cc"},"vehicle_type_id":"4","last_reported":1758543620,"current_range_meters":14000,"station_id":"ce4bhe12rcd13ifvqf30","pricing_plan_id":"cebpf4jnsgd1na2vs0mg"},{"bike_id":"ce183aa8-4685-4cb2-afd2-bc2ac2341c12","system_id":"levelo_inurba_marseille","lat":43.26559,"lon":5.37279,"is_reserved":false,"is_disabled":false,"rental_uris":{"android":"levelo://app?vid=ce183aa8-4685-4cb2-afd2-bc2ac2341c12","ios":"levelo://app?vid=ce183aa8-4685-4cb2-afd2-bc2ac2341c12"},"vehicle_type_id":"4","last_reported":1758543620,"current_range_meters":14000,"station_id":"ce4bhg12rcd13ifvqf70","pricing_plan_id":"cebpf4jnsgd1na2vs0mg"},{"bike_id":"f0fca713-2b9c-4144-bedb-3a48811b75eb","system_id":"levelo_inurba_marseille","lat":43.32291,"lon":5.38272,"is_reserved":false,"is_disabled":false,"rental_uris":{"android":"levelo://app?vid=f0fca713-2b9c-4144-bedb-3a48811b75eb","ios":"levelo://app?vid=f0fca713-2b9c-4144-bedb-3a48811b75eb"},"vehicle_type_id":"4","last_reported":1758543620,"current_range_meters":14000,"station_id":"ce4bhr12rcd13ifvqhqg","pricing_plan_id":"cebpf4jnsgd1na2vs0mg"},{"bike_id":"6bb4936d-45d5-4a3f-ad90-cabb6cf910cb","system_id":"levelo_inurba_marseille","lat":43.28419,"lon":5.34991,"is_reserved":false,"is_disabled":false,"rental_uris":{"android":"levelo://app?vid=6bb4936d-45d5-4a3f-ad90-cabb6cf910cb","ios":"levelo://app?vid=6bb4936d-45d5-4a3f-ad90-cabb6cf910cb"},"vehicle_type_id":"4","last_reported":1758543620,"current_range_meters":14000,"station_id":"ce4bhbh2rcd13ifvqepg","pricing_plan_id":"cebpf4jnsgd1na2vs0mg"},{"bike_id":"51d92c87-aa59-4783-b818-f9c5a7eebd73","system_id":"levelo_inurba_marseille","lat":43.295167,"lon":5.373943,"is_reserved":false,"is_disabled":false,"rental_uris":{"android":"levelo://app?vid=51d92c87-aa59-4783-b818-f9c5a7eebd73","ios":"levelo://app?vid=51d92c87-aa59-4783-b818-f9c5a7eebd73"},"vehicle_type_id":"4","last_reported":1758543620,"current_range_meters":14400,"station_id":"","pricing_plan_id":"cebpf4jnsgd1na2vs0mg"},{"bike_id":"3c1f8d36-3f53-4c54-9d0e-bef36c7b1388","system_id":"levelo_inurba_marseille","lat":43.30145,"lon":5.37413,"is_reserved":false,"is_disabled":false,"rental_uris":{"android":"levelo://app?vid=3c1f8d36-3f53-4c54-9d0e-bef36c7b1388","ios":"levelo://app?vid=3c1f8d36-3f53-4c54-9d0e-bef36c7b1388"},"vehicle_type_id":"4","last_reported":1758543620,"current_range_meters":14400,"station_id":"ce4bgs92rcd13ifvqcc0","pricing_plan_id":"cebpf4jnsgd1na2vs0mg"},{"bike_id":"61c1e04c-6d27-4521-adf1-f4c08c955163","system_id":"levelo_inurba_marseille","lat":43.261398,"lon":5.393537,"is_reserved":false,"is_disabled":false,"rental_uris":{"android":"levelo://app?vid=61c1e04c-6d27-4521-adf1-f4c08c955163","ios":"levelo://app?vid=61c1e04c-6d27-4521-adf1-f4c08c955163"},"vehicle_type_id":"4","last_reported":1758543620,"current_range_meters":14400,"station_id":"ce4bhh92rcd13ifvqfj0","pricing_plan_id":"cebpf4jnsgd1na2vs0mg"},{"bike_id":"d6081bcb-2279-4c53-bebe-ecfaad358b81","system_id":"levelo_inurba_marseille","lat":43.29439,"lon":5.39742,"is_reserved":false,"is_disabled":false,"rental_uris":{"android":"levelo://app?vid=d6081bcb-2279-4c53-bebe-ecfaad358b81","ios":"levelo://app?vid=d6081bcb-2279-4c53-bebe-ecfaad358b81"},"vehicle_type_id":"4","last_reported":1758543620,"current_range_meters":14800,"station_id":"ce4bh3h2rcd13ifvqdo0","pricing_plan_id":"cebpf4jnsgd1na2vs0mg"},{"bike_id":"650162a6-8f2b-490a-9c15-bd9a57f23a4e","system_id":"levelo_inurba_marseille","lat":43.295319,"lon":5.375022,"is_reserved":false,"is_disabled":true,"rental_uris":{"android":"levelo://app?vid=650162a6-8f2b-490a-9c15-bd9a57f23a4e","ios":"levelo://app?vid=650162a6-8f2b-490a-9c15-bd9a57f23a4e"},"vehicle_type_id":"4","last_reported":1758543620,"current_range_meters":14800,"station_id":"ce4bgkp2rcd13ifvqbmg","pricing_plan_id":"cebpf4jnsgd1na2vs0mg"},{"bike_id":"ed7f97c8-9f08-4f9c-9e9b-ccafbb260c2b","system_id":"levelo_inurba_marseille","lat":43.295807,"lon":5.385318,"is_reserved":false,"is_disabled":false,"rental_uris":{"android":"levelo://app?vid=ed7f97c8-9f08-4f9c-9e9b-ccafbb260c2b","ios":"levelo://app?vid=ed7f97c8-9f08-4f9c-9e9b-ccafbb260c2b"},"vehicle_type_id":"4","last_reported":1758543620,"current_range_meters":14800,"station_id":"ce4bgih2rcd13ifvqba0","pricing_plan_id":"cebpf4jnsgd1na2vs0mg"},{"bike_id":"cc9b340a-58e6-471b-8dd7-6de01648f094","system_id":"levelo_inurba_marseille","lat":43.26579,"lon":5.37285,"is_reserved":false,"is_disabled":true,"rental_uris":{"android":"levelo://app?vid=cc9b340a-58e6-471b-8dd7-6de01648f094","ios":"levelo://app?vid=cc9b340a-58e6-471b-8dd7-6de01648f094"},"vehicle_type_id":"4","last_reported":1758543620,"current_range_meters":14800,"station_id":"ce4bhg12rcd13ifvqf70","pricing_plan_id":"cebpf4jnsgd1na2vs0mg"},{"bike_id":"048d1145-3c6a-4695-872a-dbf2a707fbde","system_id":"levelo_inurba_marseille","lat":43.27331,"lon":5.39073,"is_reserved":false,"is_disabled":false,"rental_uris":{"android":"levelo://app?vid=048d1145-3c6a-4695-872a-dbf2a707fbde","ios":"levelo://app?vid=048d1145-3c6a-4695-872a-dbf2a707fbde"},"vehicle_type_id":"4","last_reported":1758543620,"current_range_meters":14800,"station_id":"ce4bhgp2rcd13ifvqfe0","pricing_plan_id":"cebpf4jnsgd1na2vs0mg"},{"bike_id":"642c89b8-364c-43bf-a774-6af614eb4d07","system_id":"levelo_inurba_marseille","lat":43.286781,"lon":5.363533,"is_reserved":false,"is_disabled":false,"rental_uris":{"android":"levelo://app?vid=642c89b8-364c-43bf-a774-6af614eb4d07","ios":"levelo://app?vid=642c89b8-364c-43bf-a774-6af614eb4d07"},"vehicle_type_id":"4","last_reported":1758543620,"current_range_meters":14800,"station_id":"ce4bhah2rcd13ifvqej0","pricing_plan_id":"cebpf4jnsgd1na2vs0mg"},{"bike_id":"1630393e-6ff0-41ff-9ced-5949abec17fa","system_id":"levelo_inurba_marseille","lat":43.30219,"lon":5.39467,"is_reserved":false,"is_disabled":false,"rental_uris":{"android":"levelo://app?vid=1630393e-6ff0-41ff-9ced-5949abec17fa","ios":"levelo://app?vid=1630393e-6ff0-41ff-9ced-5949abec17fa"},"vehicle_type_id":"4","last_reported":1758543620,"current_range_meters":14800,"station_id":"ce4bh0p2rcd13ifvqd70","pricing_plan_id":"cebpf4jnsgd1na2vs0mg"},{"bike_id":"b2be2404-53eb-4f74-9829-8104df3de106","system_id":"levelo_inurba_marseille","lat":43.33612,"lon":5.35432,"is_reserved":false,"is_disabled":false,"rental_uris":{"android":"levelo://app?vid=b2be2404-53eb-4f74-9829-8104df3de106","ios":"levelo://app?vid=b2be2404-53eb-4f74-9829-8104df3de106"},"vehicle_type_id":"4","last_reported":1758543620,"current_range_meters":14800,"station_id":"","pricing_plan_id":"cebpf4jnsgd1na2vs0mg"},{"bike_id":"42f35096-0a50-4172-93e3-86175b8631f6","system_id":"levelo_inurba_marseille","lat":43.28593,"lon":5.35139,"is_reserved":false,"is_disabled":false,"rental_uris":{"android":"levelo://app?vid=42f35096-0a50-4172-93e3-86175b8631f6","ios":"levelo://app?vid=42f35096-0a50-4172-93e3-86175b8631f6"},"vehicle_type_id":"4","last_reported":1758543620,"current_range_meters":14800,"station_id":"ce4bhch2rcd13ifvqeug","pricing_plan_id":"cebpf4jnsgd1na2vs0mg"},{"bike_id":"935741b4-cb4f-4e2e-9b3c-7119ae9c80e4","system_id":"levelo_inurba_marseille","lat":43.29043,"lon":5.37566,"is_reserved":false,"is_disabled":false,"rental_uris":{"android":"levelo://app?vid=935741b4-cb4f-4e2e-9b3c-7119ae9c80e4","ios":"levelo://app?vid=935741b4-cb4f-4e2e-9b3c-7119ae9c80e4"},"vehicle_type_id":"4","last_reported":1758543620,"current_range_meters":14800,"station_id":"ce4bh692rcd13ifvqe90","pricing_plan_id":"cebpf4jnsgd1na2vs0mg"},{"bike_id":"c74bf797-21f4-4f9b-95b6-71b62d1bf350","system_id":"levelo_inurba_marseille","lat":43.33726,"lon":5.391857,"is_reserved":false,"is_disabled":false,"rental_uris":{"android":"levelo://app?vid=c74bf797-21f4-4f9b-95b6-71b62d1bf350","ios":"levelo://app?vid=c74bf797-21f4-4f9b-95b6-71b62d1bf350"},"vehicle_type_id":"4","last_reported":1758543620,"current_range_meters":14800,"station_id":"ce4bhr92rcd13ifvqhsg","pricing_plan_id":"cebpf4jnsgd1na2vs0mg"},{"bike_id":"bcc26225-3fc0-4f7b-b807-ef403cb82bf9","system_id":"levelo_inurba_marseille","lat":43.26557,"lon":5.37282,"is_reserved":false,"is_disabled":false,"rental_uris":{"android":"levelo://app?vid=bcc26225-3fc0-4f7b-b807-ef403cb82bf9","ios":"levelo://app?vid=bcc26225-3fc0-4f7b-b807-ef403cb82bf9"},"vehicle_type_id":"4","last_reported":1758543620,"current_range_meters":15200,"station_id":"ce4bhg12rcd13ifvqf70","pricing_plan_id":"cebpf4jnsgd1na2vs0mg"},{"bike_id":"9e420343-b70a-4668-85ac-2c215e65ee29","system_id":"levelo_inurba_marseille","lat":43.29539,"lon":5.38541,"is_reserved":false,"is_disabled":false,"rental_uris":{"android":"levelo://app?vid=9e420343-b70a-4668-85ac-2c215e65ee29","ios":"levelo://app?vid=9e420343-b70a-4668-85ac-2c215e65ee29"},"vehicle_type_id":"4","last_reported":1758543620,"current_range_meters":15200,"station_id":"ce4bgih2rcd13ifvqba0","pricing_plan_id":"cebpf4jnsgd1na2vs0mg"},{"bike_id":"94d430e6-52b3-4d21-80c9-c6dd4519a8fb","system_id":"levelo_inurba_marseille","lat":43.317805,"lon":5.382835,"is_reserved":false,"is_disabled":false,"rental_uris":{"android":"levelo://app?vid=94d430e6-52b3-4d21-80c9-c6dd4519a8fb","ios":"levelo://app?vid=94d430e6-52b3-4d21-80c9-c6dd4519a8fb"},"vehicle_type_id":"4","last_reported":1758543620,"current_range_meters":15200,"station_id":"","pricing_plan_id":"cebpf4jnsgd1na2vs0mg"},{"bike_id":"fc7b9b71-96d0-4c3c-8041-ae36b22c862b","system_id":"levelo_inurba_marseille","lat":43.26185,"lon":5.3745,"is_reserved":false,"is_disabled":true,"rental_uris":{"android":"levelo://app?vid=fc7b9b71-96d0-4c3c-8041-ae36b22c862b","ios":"levelo://app?vid=fc7b9b71-96d0-4c3c-8041-ae36b22c862b"},"vehicle_type_id":"4","last_reported":1758543620,"current_range_meters":15200,"station_id":"ce4bhgp2rcd13ifvqfc0","pricing_plan_id":"cebpf4jnsgd1na2vs0mg"},{"bike_id":"d80cb768-6893-4d2e-b91c-58c7f98e4468","system_id":"levelo_inurba_marseille","lat":43.27091,"lon":5.42264,"is_reserved":false,"is_disabled":false,"rental_uris":{"android":"levelo://app?vid=d80cb768-6893-4d2e-b91c-58c7f98e4468","ios":"levelo://app?vid=d80cb768-6893-4d2e-b91c-58c7f98e4468"},"vehicle_type_id":"4","last_reported":1758543620,"current_range_meters":16000,"station_id":"ce4bhk92rcd13ifvqgb0","pricing_plan_id":"cebpf4jnsgd1na2vs0mg"},{"bike_id":"734f7642-3883-459d-a35c-8b9c5ee266ae","system_id":"levelo_inurba_marseille","lat":43.270566,"lon":5.422665,"is_reserved":false,"is_disabled":false,"rental_uris":{"android":"levelo://app?vid=734f7642-3883-459d-a35c-8b9c5ee266ae","ios":"levelo://app?vid=734f7642-3883-459d-a35c-8b9c5ee266ae"},"vehicle_type_id":"4","last_reported":1758543620,"current_range_meters":16000,"station_id":"ce4bhk92rcd13ifvqgb0","pricing_plan_id":"cebpf4jnsgd1na2vs0mg"},{"bike_id":"7e0b464a-905d-4ed9-b19f-3d5b62534e50","system_id":"levelo_inurba_marseille","lat":43.21193,"lon":5.35066,"is_reserved":false,"is_disabled":false,"rental_uris":{"android":"levelo://app?vid=7e0b464a-905d-4ed9-b19f-3d5b62534e50","ios":"levelo://app?vid=7e0b464a-905d-4ed9-b19f-3d5b62534e50"},"vehicle_type_id":"4","last_reported":1758543620,"current_range_meters":16000,"station_id":"st_cvj6sg6p6f1abm77japg","pricing_plan_id":"cebpf4jnsgd1na2vs0mg"},{"bike_id":"5f842832-4ff8-49ff-8ba3-51ff241068df","system_id":"levelo_inurba_marseille","lat":43.272039,"lon":5.391943,"is_reserved":false,"is_disabled":false,"rental_uris":{"android":"levelo://app?vid=5f842832-4ff8-49ff-8ba3-51ff241068df","ios":"levelo://app?vid=5f842832-4ff8-49ff-8ba3-51ff241068df"},"vehicle_type_id":"4","last_reported":1758543620,"current_range_meters":16000,"station_id":"ce4bhhp2rcd13ifvqfm0","pricing_plan_id":"cebpf4jnsgd1na2vs0mg"},{"bike_id":"ef75d15d-c28a-4fe7-853a-ed887e41d629","system_id":"levelo_inurba_marseille","lat":43.21756,"lon":5.34588,"is_reserved":false,"is_disabled":false,"rental_uris":{"android":"levelo://app?vid=ef75d15d-c28a-4fe7-853a-ed887e41d629","ios":"levelo://app?vid=ef75d15d-c28a-4fe7-853a-ed887e41d629"},"vehicle_type_id":"4","last_reported":1758543620,"current_range_meters":16000,"station_id":"st_cvj6r9ubvosntc0bgbag","pricing_plan_id":"cebpf4jnsgd1na2vs0mg"},{"bike_id":"4d45d2d8-71a8-44bb-b23e-6a8df2ba16aa","system_id":"levelo_inurba_marseille","lat":43.29622,"lon":5.3715,"is_reserved":false,"is_disabled":false,"rental_uris":{"android":"levelo://app?vid=4d45d2d8-71a8-44bb-b23e-6a8df2ba16aa","ios":"levelo://app?vid=4d45d2d8-71a8-44bb-b23e-6a8df2ba16aa"},"vehicle_type_id":"4","last_reported":1758543620,"current_range_meters":15200,"station_id":"ce4bgnh2rcd13ifvqc0g","pricing_plan_id":"cebpf4jnsgd1na2vs0mg"},{"bike_id":"4c011120-58cb-47bd-988b-7f1cba38a456","system_id":"levelo_inurba_marseille","lat":43.24628,"lon":5.43143,"is_reserved":false,"is_disabled":false,"rental_uris":{"android":"levelo://app?vid=4c011120-58cb-47bd-988b-7f1cba38a456","ios":"levelo://app?vid=4c011120-58cb-47bd-988b-7f1cba38a456"},"vehicle_type_id":"4","last_reported":1758543620,"current_range_meters":16000,"station_id":"st_d2m6c4gdas8pm72e190g","pricing_plan_id":"cebpf4jnsgd1na2vs0mg"},{"bike_id":"34072093-f9b6-4017-998e-95b181d82c91","system_id":"levelo_inurba_marseille","lat":43.294392,"lon":5.388194,"is_reserved":false,"is_disabled":false,"rental_uris":{"android":"levelo://app?vid=34072093-f9b6-4017-998e-95b181d82c91","ios":"levelo://app?vid=34072093-f9b6-4017-998e-95b181d82c91"},"vehicle_type_id":"4","last_reported":1758543620,"current_range_meters":16000,"station_id":"","pricing_plan_id":"cebpf4jnsgd1na2vs0mg"},{"bike_id":"f99de4a9-9420-4d0b-8cc7-d53cf6e86206","system_id":"levelo_inurba_marseille","lat":43.2408,"lon":5.3775,"is_reserved":false,"is_disabled":false,"rental_uris":{"android":"levelo://app?vid=f99de4a9-9420-4d0b-8cc7-d53cf6e86206","ios":"levelo://app?vid=f99de4a9-9420-4d0b-8cc7-d53cf6e86206"},"vehicle_type_id":"4","last_reported":1758543620,"current_range_meters":16000,"station_id":"ce4bhnp2rcd13ifvqgvg","pricing_plan_id":"cebpf4jnsgd1na2vs0mg"},{"bike_id":"6a574e46-b472-4470-a7c7-e4293d3f5226","system_id":"levelo_inurba_marseille","lat":43.32657,"lon":5.4099,"is_reserved":false,"is_disabled":false,"rental_uris":{"android":"levelo://app?vid=6a574e46-b472-4470-a7c7-e4293d3f5226","ios":"levelo://app?vid=6a574e46-b472-4470-a7c7-e4293d3f5226"},"vehicle_type_id":"4","last_reported":1758543620,"current_range_meters":16000,"station_id":"ce4bhpp2rcd13ifvqhgg","pricing_plan_id":"cebpf4jnsgd1na2vs0mg"},{"bike_id":"b7949007-d9c4-4999-a9b4-3a4e5504bacb","system_id":"levelo_inurba_marseille","lat":43.30315,"lon":5.36897,"is_reserved":false,"is_disabled":false,"rental_uris":{"android":"levelo://app?vid=b7949007-d9c4-4999-a9b4-3a4e5504bacb","ios":"levelo://app?vid=b7949007-d9c4-4999-a9b4-3a4e5504bacb"},"vehicle_type_id":"4","last_reported":1758543620,"current_range_meters":16400,"station_id":"ce4bgqh2rcd13ifvqc5g","pricing_plan_id":"cebpf4jnsgd1na2vs0mg"},{"bike_id":"6c2ccec1-b13f-4ca6-9191-d1ab1fc484ed","system_id":"levelo_inurba_marseille","lat":43.21214,"lon":5.35057,"is_reserved":false,"is_disabled":false,"rental_uris":{"android":"levelo://app?vid=6c2ccec1-b13f-4ca6-9191-d1ab1fc484ed","ios":"levelo://app?vid=6c2ccec1-b13f-4ca6-9191-d1ab1fc484ed"},"vehicle_type_id":"4","last_reported":1758543620,"current_range_meters":16400,"station_id":"st_cvj6sg6p6f1abm77japg","pricing_plan_id":"cebpf4jnsgd1na2vs0mg"},{"bike_id":"df1dfc6f-ed41-43d8-aa4d-f1e91b76d7fe","system_id":"levelo_inurba_marseille","lat":43.25006,"lon":5.38915,"is_reserved":false,"is_disabled":false,"rental_uris":{"android":"levelo://app?vid=df1dfc6f-ed41-43d8-aa4d-f1e91b76d7fe","ios":"levelo://app?vid=df1dfc6f-ed41-43d8-aa4d-f1e91b76d7fe"},"vehicle_type_id":"4","last_reported":1758543620,"current_range_meters":16800,"station_id":"ce4bhgp2rcd13ifvqfd0","pricing_plan_id":"cebpf4jnsgd1na2vs0mg"},{"bike_id":"1e074f7f-2ba8-4b1f-a375-2fc6c3a0b949","system_id":"levelo_inurba_marseille","lat":43.31226,"lon":5.36868,"is_reserved":false,"is_disabled":false,"rental_uris":{"android":"levelo://app?vid=1e074f7f-2ba8-4b1f-a375-2fc6c3a0b949","ios":"levelo://app?vid=1e074f7f-2ba8-4b1f-a375-2fc6c3a0b949"},"vehicle_type_id":"4","last_reported":1758543620,"current_range_meters":16800,"station_id":"ce4bgl92rcd13ifvqbq0","pricing_plan_id":"cebpf4jnsgd1na2vs0mg"},{"bike_id":"77b1cd40-6f0c-4041-a98b-2dee98d8a9c6","system_id":"levelo_inurba_marseille","lat":43.2407,"lon":5.37747,"is_reserved":false,"is_disabled":false,"rental_uris":{"android":"levelo://app?vid=77b1cd40-6f0c-4041-a98b-2dee98d8a9c6","ios":"levelo://app?vid=77b1cd40-6f0c-4041-a98b-2dee98d8a9c6"},"vehicle_type_id":"4","last_reported":1758543620,"current_range_meters":16800,"station_id":"ce4bhnp2rcd13ifvqgvg","pricing_plan_id":"cebpf4jnsgd1na2vs0mg"},{"bike_id":"0163730e-f682-4707-a459-be35b6d5d3a4","system_id":"levelo_inurba_marseille","lat":43.3302,"lon":5.3904,"is_reserved":false,"is_disabled":false,"rental_uris":{"android":"levelo://app?vid=0163730e-f682-4707-a459-be35b6d5d3a4","ios":"levelo://app?vid=0163730e-f682-4707-a459-be35b6d5d3a4"},"vehicle_type_id":"4","last_reported":1758543620,"current_range_meters":16800,"station_id":"ce4bhr92rcd13ifvqhrg","pricing_plan_id":"cebpf4jnsgd1na2vs0mg"},{"bike_id":"6b0e78fb-e15f-41b1-a191-b4b5ca219d2a","system_id":"levelo_inurba_marseille","lat":43.25699,"lon":5.41118,"is_reserved":false,"is_disabled":false,"rental_uris":{"android":"levelo://app?vid=6b0e78fb-e15f-41b1-a191-b4b5ca219d2a","ios":"levelo://app?vid=6b0e78fb-e15f-41b1-a191-b4b5ca219d2a"},"vehicle_type_id":"4","last_reported":1758543620,"current_range_meters":16800,"station_id":"ce4bhkp2rcd13ifvqgd0","pricing_plan_id":"cebpf4jnsgd1na2vs0mg"},{"bike_id":"7fa2ba5e-200e-4aec-8954-205f879faa4a","system_id":"levelo_inurba_marseille","lat":43.23152,"lon":5.43703,"is_reserved":false,"is_disabled":false,"rental_uris":{"android":"levelo://app?vid=7fa2ba5e-200e-4aec-8954-205f879faa4a","ios":"levelo://app?vid=7fa2ba5e-200e-4aec-8954-205f879faa4a"},"vehicle_type_id":"4","last_reported":1758543620,"current_range_meters":16800,"station_id":"ce4bhmp2rcd13ifvqgog","pricing_plan_id":"cebpf4jnsgd1na2vs0mg"},{"bike_id":"6210641e-392b-400e-990b-b6f0b5af54f0","system_id":"levelo_inurba_marseille","lat":43.32334,"lon":5.36705,"is_reserved":false,"is_disabled":false,"rental_uris":{"android":"levelo://app?vid=6210641e-392b-400e-990b-b6f0b5af54f0","ios":"levelo://app?vid=6210641e-392b-400e-990b-b6f0b5af54f0"},"vehicle_type_id":"4","last_reported":1758543620,"current_range_meters":16800,"station_id":"ce4bhsh2rcd13ifvqi2g","pricing_plan_id":"cebpf4jnsgd1na2vs0mg"},{"bike_id":"953a7b62-5b9e-4efe-9217-b37cf1896bf0","system_id":"levelo_inurba_marseille","lat":43.21195,"lon":5.35068,"is_reserved":false,"is_disabled":false,"rental_uris":{"android":"levelo://app?vid=953a7b62-5b9e-4efe-9217-b37cf1896bf0","ios":"levelo://app?vid=953a7b62-5b9e-4efe-9217-b37cf1896bf0"},"vehicle_type_id":"4","last_reported":1758543620,"current_range_meters":16800,"station_id":"st_cvj6sg6p6f1abm77japg","pricing_plan_id":"cebpf4jnsgd1na2vs0mg"},{"bike_id":"4519ded0-f3b9-42bd-af35-e69456d100e8","system_id":"levelo_inurba_marseille","lat":43.2929,"lon":5.38332,"is_reserved":false,"is_disabled":false,"rental_uris":{"android":"levelo://app?vid=4519ded0-f3b9-42bd-af35-e69456d100e8","ios":"levelo://app?vid=4519ded0-f3b9-42bd-af35-e69456d100e8"},"vehicle_type_id":"4","last_reported":1758543620,"current_range_meters":16800,"station_id":"","pricing_plan_id":"cebpf4jnsgd1na2vs0mg"},{"bike_id":"fcc94cba-8c69-4266-aa85-dc57f8f765b6","system_id":"levelo_inurba_marseille","lat":43.28485,"lon":5.38558,"is_reserved":false,"is_disabled":false,"rental_uris":{"android":"levelo://app?vid=fcc94cba-8c69-4266-aa85-dc57f8f765b6","ios":"levelo://app?vid=fcc94cba-8c69-4266-aa85-dc57f8f765b6"},"vehicle_type_id":"4","last_reported":1758543620,"current_range_meters":17200,"station_id":"ce4bh8p2rcd13ifvqeb0","pricing_plan_id":"cebpf4jnsgd1na2vs0mg"},{"bike_id":"4db55b8c-211f-4a3e-9da9-d7249e4703aa","system_id":"levelo_inurba_marseille","lat":43.28511,"lon":5.3796,"is_reserved":false,"is_disabled":false,"rental_uris":{"android":"levelo://app?vid=4db55b8c-211f-4a3e-9da9-d7249e4703aa","ios":"levelo://app?vid=4db55b8c-211f-4a3e-9da9-d7249e4703aa"},"vehicle_type_id":"4","last_reported":1758543620,"current_range_meters":17200,"station_id":"","pricing_plan_id":"cebpf4jnsgd1na2vs0mg"},{"bike_id":"ec2660f7-68b1-4255-8dc4-559a4741aea0","system_id":"levelo_inurba_marseille","lat":43.30544,"lon":5.36527,"is_reserved":false,"is_disabled":false,"rental_uris":{"android":"levelo://app?vid=ec2660f7-68b1-4255-8dc4-559a4741aea0","ios":"levelo://app?vid=ec2660f7-68b1-4255-8dc4-559a4741aea0"},"vehicle_type_id":"4","last_reported":1758543620,"current_range_meters":17200,"station_id":"ce4bgs12rcd13ifvqcag","pricing_plan_id":"cebpf4jnsgd1na2vs0mg"},{"bike_id":"00097665-a835-434a-87df-bc4092c235bd","system_id":"levelo_inurba_marseille","lat":43.30559,"lon":5.36526,"is_reserved":false,"is_disabled":false,"rental_uris":{"android":"levelo://app?vid=00097665-a835-434a-87df-bc4092c235bd","ios":"levelo://app?vid=00097665-a835-434a-87df-bc4092c235bd"},"vehicle_type_id":"4","last_reported":1758543620,"current_range_meters":17200,"station_id":"ce4bgs12rcd13ifvqcag","pricing_plan_id":"cebpf4jnsgd1na2vs0mg"},{"bike_id":"0b53635f-f17e-45ad-81c1-5680b91c3102","system_id":"levelo_inurba_marseille","lat":43.32501,"lon":5.36557,"is_reserved":false,"is_disabled":false,"rental_uris":{"android":"levelo://app?vid=0b53635f-f17e-45ad-81c1-5680b91c3102","ios":"levelo://app?vid=0b53635f-f17e-45ad-81c1-5680b91c3102"},"vehicle_type_id":"4","last_reported":1758543620,"current_range_meters":17200,"station_id":"ce4bhs12rcd13ifvqhvg","pricing_plan_id":"cebpf4jnsgd1na2vs0mg"},{"bike_id":"8aa1f4a5-ce10-4dc8-ad09-652566773495","system_id":"levelo_inurba_marseille","lat":43.312079,"lon":5.368657,"is_reserved":false,"is_disabled":true,"rental_uris":{"android":"levelo://app?vid=8aa1f4a5-ce10-4dc8-ad09-652566773495","ios":"levelo://app?vid=8aa1f4a5-ce10-4dc8-ad09-652566773495"},"vehicle_type_id":"4","last_reported":1758543620,"current_range_meters":17200,"station_id":"ce4bgl92rcd13ifvqbq0","pricing_plan_id":"cebpf4jnsgd1na2vs0mg"},{"bike_id":"05bbcead-8ec5-469b-b472-64270e5696e3","system_id":"levelo_inurba_marseille","lat":43.29587,"lon":5.36733,"is_reserved":false,"is_disabled":false,"rental_uris":{"android":"levelo://app?vid=05bbcead-8ec5-469b-b472-64270e5696e3","ios":"levelo://app?vid=05bbcead-8ec5-469b-b472-64270e5696e3"},"vehicle_type_id":"4","last_reported":1758543620,"current_range_meters":17600,"station_id":"ce4bgph2rcd13ifvqc2g","pricing_plan_id":"cebpf4jnsgd1na2vs0mg"},{"bike_id":"43efa7fa-0bc6-4112-9a80-354f85765d75","system_id":"levelo_inurba_marseille","lat":43.29613,"lon":5.38107,"is_reserved":false,"is_disabled":false,"rental_uris":{"android":"levelo://app?vid=43efa7fa-0bc6-4112-9a80-354f85765d75","ios":"levelo://app?vid=43efa7fa-0bc6-4112-9a80-354f85765d75"},"vehicle_type_id":"4","last_reported":1758543620,"current_range_meters":17600,"station_id":"ce4bgl12rcd13ifvqbo0","pricing_plan_id":"cebpf4jnsgd1na2vs0mg"},{"bike_id":"a7bf9f28-7084-4e84-85ba-652face43092","system_id":"levelo_inurba_marseille","lat":43.30532,"lon":5.36702,"is_reserved":false,"is_disabled":false,"rental_uris":{"android":"levelo://app?vid=a7bf9f28-7084-4e84-85ba-652face43092","ios":"levelo://app?vid=a7bf9f28-7084-4e84-85ba-652face43092"},"vehicle_type_id":"4","last_reported":1758543620,"current_range_meters":17600,"station_id":"ce4bgrp2rcd13ifvqc9g","pricing_plan_id":"cebpf4jnsgd1na2vs0mg"},{"bike_id":"8081ba73-d2a6-490e-a03b-d8260dd18c01","system_id":"levelo_inurba_marseille","lat":43.26593,"lon":5.39038,"is_reserved":false,"is_disabled":false,"rental_uris":{"android":"levelo://app?vid=8081ba73-d2a6-490e-a03b-d8260dd18c01","ios":"levelo://app?vid=8081ba73-d2a6-490e-a03b-d8260dd18c01"},"vehicle_type_id":"4","last_reported":1758543620,"current_range_meters":17600,"station_id":"ce4bhe12rcd13ifvqf30","pricing_plan_id":"cebpf4jnsgd1na2vs0mg"},{"bike_id":"eb84241e-3fe9-4ba5-ba9a-cad9a5b4eb9a","system_id":"levelo_inurba_marseille","lat":43.26578,"lon":5.39022,"is_reserved":false,"is_disabled":false,"rental_uris":{"android":"levelo://app?vid=eb84241e-3fe9-4ba5-ba9a-cad9a5b4eb9a","ios":"levelo://app?vid=eb84241e-3fe9-4ba5-ba9a-cad9a5b4eb9a"},"vehicle_type_id":"4","last_reported":1758543620,"current_range_meters":17600,"station_id":"ce4bhe12rcd13ifvqf30","pricing_plan_id":"cebpf4jnsgd1na2vs0mg"},{"bike_id":"c5b99b60-d1d1-4f8e-b5cb-0498fc101a17","system_id":"levelo_inurba_marseille","lat":43.29936,"lon":5.36547,"is_reserved":false,"is_disabled":false,"rental_uris":{"android":"levelo://app?vid=c5b99b60-d1d1-4f8e-b5cb-0498fc101a17","ios":"levelo://app?vid=c5b99b60-d1d1-4f8e-b5cb-0498fc101a17"},"vehicle_type_id":"4","last_reported":1758543620,"current_range_meters":17600,"station_id":"ce4bgm92rcd13ifvqbr0","pricing_plan_id":"cebpf4jnsgd1na2vs0mg"},{"bike_id":"2b8a7b75-2ac8-48a2-8531-7901e18dd054","system_id":"levelo_inurba_marseille","lat":43.21206,"lon":5.35051,"is_reserved":false,"is_disabled":false,"rental_uris":{"android":"levelo://app?vid=2b8a7b75-2ac8-48a2-8531-7901e18dd054","ios":"levelo://app?vid=2b8a7b75-2ac8-48a2-8531-7901e18dd054"},"vehicle_type_id":"4","last_reported":1758543620,"current_range_meters":18000,"station_id":"st_cvj6sg6p6f1abm77japg","pricing_plan_id":"cebpf4jnsgd1na2vs0mg"},{"bike_id":"bee46eba-68ef-4798-9e55-94438be76791","system_id":"levelo_inurba_marseille","lat":43.26783,"lon":5.3941,"is_reserved":false,"is_disabled":false,"rental_uris":{"android":"levelo://app?vid=bee46eba-68ef-4798-9e55-94438be76791","ios":"levelo://app?vid=bee46eba-68ef-4798-9e55-94438be76791"},"vehicle_type_id":"4","last_reported":1758543620,"current_range_meters":18000,"station_id":"ce4bhh12rcd13ifvqfg0","pricing_plan_id":"cebpf4jnsgd1na2vs0mg"},{"bike_id":"28eb32c4-4f86-476b-8b2a-eb674175843e","system_id":"levelo_inurba_marseille","lat":43.26544,"lon":5.39035,"is_reserved":false,"is_disabled":false,"rental_uris":{"android":"levelo://app?vid=28eb32c4-4f86-476b-8b2a-eb674175843e","ios":"levelo://app?vid=28eb32c4-4f86-476b-8b2a-eb674175843e"},"vehicle_type_id":"4","last_reported":1758543620,"current_range_meters":18000,"station_id":"ce4bhe12rcd13ifvqf30","pricing_plan_id":"cebpf4jnsgd1na2vs0mg"},{"bike_id":"bd0cce49-fba3-44b6-a11d-776c75682d1d","system_id":"levelo_inurba_marseille","lat":43.292238,"lon":5.360437,"is_reserved":false,"is_disabled":false,"rental_uris":{"android":"levelo://app?vid=bd0cce49-fba3-44b6-a11d-776c75682d1d","ios":"levelo://app?vid=bd0cce49-fba3-44b6-a11d-776c75682d1d"},"vehicle_type_id":"4","last_reported":1758543620,"current_range_meters":18000,"station_id":"ce4bhbh2rcd13ifvqeqg","pricing_plan_id":"cebpf4jnsgd1na2vs0mg"},{"bike_id":"9b40446f-f8d2-4a20-99e5-65de1af9112f","system_id":"levelo_inurba_marseille","lat":43.260307,"lon":5.375468,"is_reserved":false,"is_disabled":false,"rental_uris":{"android":"levelo://app?vid=9b40446f-f8d2-4a20-99e5-65de1af9112f","ios":"levelo://app?vid=9b40446f-f8d2-4a20-99e5-65de1af9112f"},"vehicle_type_id":"4","last_reported":1758543620,"current_range_meters":18000,"station_id":"","pricing_plan_id":"cebpf4jnsgd1na2vs0mg"},{"bike_id":"a9e11661-3d18-4430-bf80-f7c342dc0668","system_id":"levelo_inurba_marseille","lat":43.28276,"lon":5.35065,"is_reserved":false,"is_disabled":false,"rental_uris":{"android":"levelo://app?vid=a9e11661-3d18-4430-bf80-f7c342dc0668","ios":"levelo://app?vid=a9e11661-3d18-4430-bf80-f7c342dc0668"},"vehicle_type_id":"4","last_reported":1758543620,"current_range_meters":18000,"station_id":"ce4bhbp2rcd13ifvqerg","pricing_plan_id":"cebpf4jnsgd1na2vs0mg"},{"bike_id":"3be13cea-d001-4935-8d31-8a1a6840148c","system_id":"levelo_inurba_marseille","lat":43.29541,"lon":5.3855,"is_reserved":false,"is_disabled":false,"rental_uris":{"android":"levelo://app?vid=3be13cea-d001-4935-8d31-8a1a6840148c","ios":"levelo://app?vid=3be13cea-d001-4935-8d31-8a1a6840148c"},"vehicle_type_id":"4","last_reported":1758543620,"current_range_meters":18000,"station_id":"ce4bgih2rcd13ifvqba0","pricing_plan_id":"cebpf4jnsgd1na2vs0mg"},{"bike_id":"d72f0517-8fb0-46d3-84b1-909849bc16cc","system_id":"levelo_inurba_marseille","lat":43.25338,"lon":5.421756,"is_reserved":false,"is_disabled":false,"rental_uris":{"android":"levelo://app?vid=d72f0517-8fb0-46d3-84b1-909849bc16cc","ios":"levelo://app?vid=d72f0517-8fb0-46d3-84b1-909849bc16cc"},"vehicle_type_id":"4","last_reported":1758543620,"current_range_meters":18000,"station_id":"","pricing_plan_id":"cebpf4jnsgd1na2vs0mg"},{"bike_id":"3a2f0200-19f6-4563-8356-bbb5c698396a","system_id":"levelo_inurba_marseille","lat":43.21784,"lon":5.34592,"is_reserved":false,"is_disabled":false,"rental_uris":{"android":"levelo://app?vid=3a2f0200-19f6-4563-8356-bbb5c698396a","ios":"levelo://app?vid=3a2f0200-19f6-4563-8356-bbb5c698396a"},"vehicle_type_id":"4","last_reported":1758543620,"current_range_meters":18000,"station_id":"","pricing_plan_id":"cebpf4jnsgd1na2vs0mg"},{"bike_id":"f1b5ff85-e6ed-4fad-bee1-5991e9deffbe","system_id":"levelo_inurba_marseille","lat":43.29619,"lon":5.37149,"is_reserved":false,"is_disabled":false,"rental_uris":{"android":"levelo://app?vid=f1b5ff85-e6ed-4fad-bee1-5991e9deffbe","ios":"levelo://app?vid=f1b5ff85-e6ed-4fad-bee1-5991e9deffbe"},"vehicle_type_id":"4","last_reported":1758543620,"current_range_meters":18000,"station_id":"ce4bgnh2rcd13ifvqc0g","pricing_plan_id":"cebpf4jnsgd1na2vs0mg"},{"bike_id":"95563e35-5787-445a-b66f-d345f805dd41","system_id":"levelo_inurba_marseille","lat":43.25929,"lon":5.40905,"is_reserved":false,"is_disabled":false,"rental_uris":{"android":"levelo://app?vid=95563e35-5787-445a-b66f-d345f805dd41","ios":"levelo://app?vid=95563e35-5787-445a-b66f-d345f805dd41"},"vehicle_type_id":"4","last_reported":1758543620,"current_range_meters":18800,"station_id":"ce4bhm92rcd13ifvqglg","pricing_plan_id":"cebpf4jnsgd1na2vs0mg"},{"bike_id":"4dfb4c69-9635-4461-bd30-9650c147c871","system_id":"levelo_inurba_marseille","lat":43.31694,"lon":5.37752,"is_reserved":false,"is_disabled":false,"rental_uris":{"android":"levelo://app?vid=4dfb4c69-9635-4461-bd30-9650c147c871","ios":"levelo://app?vid=4dfb4c69-9635-4461-bd30-9650c147c871"},"vehicle_type_id":"4","last_reported":1758543620,"current_range_meters":18800,"station_id":"ce4bgth2rcd13ifvqch0","pricing_plan_id":"cebpf4jnsgd1na2vs0mg"},{"bike_id":"07074187-f7d0-4c9c-8007-3c4d0edd4745","system_id":"levelo_inurba_marseille","lat":43.31341,"lon":5.36713,"is_reserved":false,"is_disabled":false,"rental_uris":{"android":"levelo://app?vid=07074187-f7d0-4c9c-8007-3c4d0edd4745","ios":"levelo://app?vid=07074187-f7d0-4c9c-8007-3c4d0edd4745"},"vehicle_type_id":"4","last_reported":1758543620,"current_range_meters":18800,"station_id":"ce4bgr92rcd13ifvqc6g","pricing_plan_id":"cebpf4jnsgd1na2vs0mg"},{"bike_id":"b127d452-1264-4619-bec2-b18e476739bf","system_id":"levelo_inurba_marseille","lat":43.28861,"lon":5.35838,"is_reserved":false,"is_disabled":false,"rental_uris":{"android":"levelo://app?vid=b127d452-1264-4619-bec2-b18e476739bf","ios":"levelo://app?vid=b127d452-1264-4619-bec2-b18e476739bf"},"vehicle_type_id":"4","last_reported":1758543620,"current_range_meters":18800,"station_id":"ce4bhb12rcd13ifvqem0","pricing_plan_id":"cebpf4jnsgd1na2vs0mg"},{"bike_id":"a91c2381-f923-442e-960a-570fdeb6c4fe","system_id":"levelo_inurba_marseille","lat":43.27058,"lon":5.40259,"is_reserved":false,"is_disabled":false,"rental_uris":{"android":"levelo://app?vid=a91c2381-f923-442e-960a-570fdeb6c4fe","ios":"levelo://app?vid=a91c2381-f923-442e-960a-570fdeb6c4fe"},"vehicle_type_id":"4","last_reported":1758543620,"current_range_meters":18800,"station_id":"ce4bhk92rcd13ifvqgc0","pricing_plan_id":"cebpf4jnsgd1na2vs0mg"},{"bike_id":"b9c44632-132f-4f55-8c6b-aee7f2d2ffc8","system_id":"levelo_inurba_marseille","lat":43.27488,"lon":5.4245,"is_reserved":false,"is_disabled":false,"rental_uris":{"android":"levelo://app?vid=b9c44632-132f-4f55-8c6b-aee7f2d2ffc8","ios":"levelo://app?vid=b9c44632-132f-4f55-8c6b-aee7f2d2ffc8"},"vehicle_type_id":"4","last_reported":1758543620,"current_range_meters":18800,"station_id":"ce4bhn92rcd13ifvqgrg","pricing_plan_id":"cebpf4jnsgd1na2vs0mg"},{"bike_id":"d0bd8550-6edb-4a20-b60d-0db75ea73dbf","system_id":"levelo_inurba_marseille","lat":43.22581,"lon":5.41617,"is_reserved":false,"is_disabled":false,"rental_uris":{"android":"levelo://app?vid=d0bd8550-6edb-4a20-b60d-0db75ea73dbf","ios":"levelo://app?vid=d0bd8550-6edb-4a20-b60d-0db75ea73dbf"},"vehicle_type_id":"4","last_reported":1758543620,"current_range_meters":18800,"station_id":"st_d2o4gvlbi1j2169b742g","pricing_plan_id":"cebpf4jnsgd1na2vs0mg"},{"bike_id":"8c6ec981-673e-4087-a438-e08d5ca5d9c1","system_id":"levelo_inurba_marseille","lat":43.241651,"lon":5.363912,"is_reserved":false,"is_disabled":false,"rental_uris":{"android":"levelo://app?vid=8c6ec981-673e-4087-a438-e08d5ca5d9c1","ios":"levelo://app?vid=8c6ec981-673e-4087-a438-e08d5ca5d9c1"},"vehicle_type_id":"4","last_reported":1758543620,"current_range_meters":18800,"station_id":"cpo36qri1sfpv3e86is0","pricing_plan_id":"cebpf4jnsgd1na2vs0mg"},{"bike_id":"84be3e54-c732-4508-9904-6aceaca4b3cb","system_id":"levelo_inurba_marseille","lat":43.31274,"lon":5.36877,"is_reserved":false,"is_disabled":false,"rental_uris":{"android":"levelo://app?vid=84be3e54-c732-4508-9904-6aceaca4b3cb","ios":"levelo://app?vid=84be3e54-c732-4508-9904-6aceaca4b3cb"},"vehicle_type_id":"4","last_reported":1758543620,"current_range_meters":18800,"station_id":"","pricing_plan_id":"cebpf4jnsgd1na2vs0mg"},{"bike_id":"bfc0bacd-b93a-45a9-8a6f-14bbfc2ef3c4","system_id":"levelo_inurba_marseille","lat":43.28471,"lon":5.35889,"is_reserved":false,"is_disabled":false,"rental_uris":{"android":"levelo://app?vid=bfc0bacd-b93a-45a9-8a6f-14bbfc2ef3c4","ios":"levelo://app?vid=bfc0bacd-b93a-45a9-8a6f-14bbfc2ef3c4"},"vehicle_type_id":"4","last_reported":1758543620,"current_range_meters":18800,"station_id":"ce4bhah2rcd13ifvqei0","pricing_plan_id":"cebpf4jnsgd1na2vs0mg"},{"bike_id":"d6375e18-e752-4046-898e-9f5d0ff7d6b9","system_id":"levelo_inurba_marseille","lat":43.29004,"lon":5.35606,"is_reserved":false,"is_disabled":false,"rental_uris":{"android":"levelo://app?vid=d6375e18-e752-4046-898e-9f5d0ff7d6b9","ios":"levelo://app?vid=d6375e18-e752-4046-898e-9f5d0ff7d6b9"},"vehicle_type_id":"4","last_reported":1758543620,"current_range_meters":19600,"station_id":"ce4bhb92rcd13ifvqen0","pricing_plan_id":"cebpf4jnsgd1na2vs0mg"},{"bike_id":"7c0482c3-9253-4d1b-b4f3-be55cdb7721d","system_id":"levelo_inurba_marseille","lat":43.33757,"lon":5.37466,"is_reserved":false,"is_disabled":false,"rental_uris":{"android":"levelo://app?vid=7c0482c3-9253-4d1b-b4f3-be55cdb7721d","ios":"levelo://app?vid=7c0482c3-9253-4d1b-b4f3-be55cdb7721d"},"vehicle_type_id":"4","last_reported":1758543620,"current_range_meters":19200,"station_id":"","pricing_plan_id":"cebpf4jnsgd1na2vs0mg"},{"bike_id":"2e195247-11f9-440b-bc51-9300e1a0e171","system_id":"levelo_inurba_marseille","lat":43.32288,"lon":5.38263,"is_reserved":false,"is_disabled":false,"rental_uris":{"android":"levelo://app?vid=2e195247-11f9-440b-bc51-9300e1a0e171","ios":"levelo://app?vid=2e195247-11f9-440b-bc51-9300e1a0e171"},"vehicle_type_id":"4","last_reported":1758543620,"current_range_meters":19200,"station_id":"ce4bhr12rcd13ifvqhqg","pricing_plan_id":"cebpf4jnsgd1na2vs0mg"},{"bike_id":"620438fb-11f0-49cb-b600-78739d113653","system_id":"levelo_inurba_marseille","lat":43.28576,"lon":5.38427,"is_reserved":false,"is_disabled":false,"rental_uris":{"android":"levelo://app?vid=620438fb-11f0-49cb-b600-78739d113653","ios":"levelo://app?vid=620438fb-11f0-49cb-b600-78739d113653"},"vehicle_type_id":"4","last_reported":1758543620,"current_range_meters":19200,"station_id":"","pricing_plan_id":"cebpf4jnsgd1na2vs0mg"},{"bike_id":"9a3a9489-3f5a-4e2d-b1e4-586b6ddfa52b","system_id":"levelo_inurba_marseille","lat":43.32482,"lon":5.36557,"is_reserved":false,"is_disabled":false,"rental_uris":{"android":"levelo://app?vid=9a3a9489-3f5a-4e2d-b1e4-586b6ddfa52b","ios":"levelo://app?vid=9a3a9489-3f5a-4e2d-b1e4-586b6ddfa52b"},"vehicle_type_id":"4","last_reported":1758543620,"current_range_meters":19200,"station_id":"ce4bhs12rcd13ifvqhvg","pricing_plan_id":"cebpf4jnsgd1na2vs0mg"},{"bike_id":"cb9859f6-2029-48f2-812d-2029fd84b6c0","system_id":"levelo_inurba_marseille","lat":43.255,"lon":5.37648,"is_reserved":false,"is_disabled":false,"rental_uris":{"android":"levelo://app?vid=cb9859f6-2029-48f2-812d-2029fd84b6c0","ios":"levelo://app?vid=cb9859f6-2029-48f2-812d-2029fd84b6c0"},"vehicle_type_id":"4","last_reported":1758543620,"current_range_meters":19200,"station_id":"ce4bhh12rcd13ifvqff0","pricing_plan_id":"cebpf4jnsgd1na2vs0mg"},{"bike_id":"2766ac55-17a6-4e49-9caf-4cbb5dff4963","system_id":"levelo_inurba_marseille","lat":43.30553,"lon":5.36565,"is_reserved":false,"is_disabled":false,"rental_uris":{"android":"levelo://app?vid=2766ac55-17a6-4e49-9caf-4cbb5dff4963","ios":"levelo://app?vid=2766ac55-17a6-4e49-9caf-4cbb5dff4963"},"vehicle_type_id":"4","last_reported":1758543620,"current_range_meters":19600,"station_id":"ce4bgs12rcd13ifvqcag","pricing_plan_id":"cebpf4jnsgd1na2vs0mg"},{"bike_id":"905587da-e84e-4e45-bfaa-18ad5c405c70","system_id":"levelo_inurba_marseille","lat":43.27423,"lon":5.39381,"is_reserved":false,"is_disabled":false,"rental_uris":{"android":"levelo://app?vid=905587da-e84e-4e45-bfaa-18ad5c405c70","ios":"levelo://app?vid=905587da-e84e-4e45-bfaa-18ad5c405c70"},"vehicle_type_id":"4","last_reported":1758543620,"current_range_meters":19600,"station_id":"ce4bhdp2rcd13ifvqf20","pricing_plan_id":"cebpf4jnsgd1na2vs0mg"},{"bike_id":"06a24bce-028d-4b4a-b4a3-d45296145db5","system_id":"levelo_inurba_marseille","lat":43.28425,"lon":5.34991,"is_reserved":false,"is_disabled":true,"rental_uris":{"android":"levelo://app?vid=06a24bce-028d-4b4a-b4a3-d45296145db5","ios":"levelo://app?vid=06a24bce-028d-4b4a-b4a3-d45296145db5"},"vehicle_type_id":"4","last_reported":1758543620,"current_range_meters":19600,"station_id":"ce4bhch2rcd13ifvqeug","pricing_plan_id":"cebpf4jnsgd1na2vs0mg"},{"bike_id":"781f61f1-9221-4b14-842e-c3a99e74f6c3","system_id":"levelo_inurba_marseille","lat":43.270702,"lon":5.422798,"is_reserved":false,"is_disabled":false,"rental_uris":{"android":"levelo://app?vid=781f61f1-9221-4b14-842e-c3a99e74f6c3","ios":"levelo://app?vid=781f61f1-9221-4b14-842e-c3a99e74f6c3"},"vehicle_type_id":"4","last_reported":1758543620,"current_range_meters":19600,"station_id":"","pricing_plan_id":"cebpf4jnsgd1na2vs0mg"},{"bike_id":"2da9bf1f-7e9a-4a16-8971-5cce28eaefbd","system_id":"levelo_inurba_marseille","lat":43.27618,"lon":5.36109,"is_reserved":false,"is_disabled":false,"rental_uris":{"android":"levelo://app?vid=2da9bf1f-7e9a-4a16-8971-5cce28eaefbd","ios":"levelo://app?vid=2da9bf1f-7e9a-4a16-8971-5cce28eaefbd"},"vehicle_type_id":"4","last_reported":1758543620,"current_range_meters":19600,"station_id":"ce4bgj92rcd13ifvqbe0","pricing_plan_id":"cebpf4jnsgd1na2vs0mg"},{"bike_id":"1964a7c4-f341-4518-b3f3-4cff78a650f1","system_id":"levelo_inurba_marseille","lat":43.32489,"lon":5.36559,"is_reserved":false,"is_disabled":false,"rental_uris":{"android":"levelo://app?vid=1964a7c4-f341-4518-b3f3-4cff78a650f1","ios":"levelo://app?vid=1964a7c4-f341-4518-b3f3-4cff78a650f1"},"vehicle_type_id":"4","last_reported":1758543620,"current_range_meters":19600,"station_id":"ce4bhs12rcd13ifvqhvg","pricing_plan_id":"cebpf4jnsgd1na2vs0mg"},{"bike_id":"eb22dfdb-8618-458e-b283-af3846fe978a","system_id":"levelo_inurba_marseille","lat":43.21191,"lon":5.35061,"is_reserved":false,"is_disabled":false,"rental_uris":{"android":"levelo://app?vid=eb22dfdb-8618-458e-b283-af3846fe978a","ios":"levelo://app?vid=eb22dfdb-8618-458e-b283-af3846fe978a"},"vehicle_type_id":"4","last_reported":1758543620,"current_range_meters":19600,"station_id":"st_cvj6sg6p6f1abm77japg","pricing_plan_id":"cebpf4jnsgd1na2vs0mg"},{"bike_id":"0fd81d6d-b5b8-4c2e-a333-fa4533e39a09","system_id":"levelo_inurba_marseille","lat":43.267408,"lon":5.382808,"is_reserved":false,"is_disabled":false,"rental_uris":{"android":"levelo://app?vid=0fd81d6d-b5b8-4c2e-a333-fa4533e39a09","ios":"levelo://app?vid=0fd81d6d-b5b8-4c2e-a333-fa4533e39a09"},"vehicle_type_id":"4","last_reported":1758543620,"current_range_meters":19600,"station_id":"ce4bhg92rcd13ifvqf90","pricing_plan_id":"cebpf4jnsgd1na2vs0mg"},{"bike_id":"6a68175c-617d-48a4-85e1-3893f5de1b60","system_id":"levelo_inurba_marseille","lat":43.24392,"lon":5.37057,"is_reserved":false,"is_disabled":true,"rental_uris":{"android":"levelo://app?vid=6a68175c-617d-48a4-85e1-3893f5de1b60","ios":"levelo://app?vid=6a68175c-617d-48a4-85e1-3893f5de1b60"},"vehicle_type_id":"4","last_reported":1758543620,"current_range_meters":20000,"station_id":"ce4bhhh2rcd13ifvqfk0","pricing_plan_id":"cebpf4jnsgd1na2vs0mg"},