{"last_updated":1722110905,"ttl":30,"version":"2.2","data":{"bikes":[{"bike_id":"c94bf83f-f78b-454f-85c2-bb9b7ba01c8f","system_id":"levelo_inurba_marseille","lat":43.312239,"lon":5.368562,"is_reserved":false,"is_disabled":false,"rental_uris":{"android":"levelo://app?vid=c94bf83f-f78b-454f-85c2-bb9b7ba01c8f","ios":"levelo://app?vid=c94bf83f-f78b-454f-85c2-bb9b7ba01c8f"},"vehicle_type_id":"4","last_reported":1722110905,"current_range_meters":14400,"station_id":"ce4bgl92rcd13ifvqbq0","pricing_plan_id":"cebpf4jnsgd1na2vs0mg"},{"bike_id":"93f326e1-088f-48a9-8c56-279bf174f0a8","system_id":"levelo_inurba_marseille","lat":43.312239,"lon":5.368562,"is_reserved":false,"is_disabled":false,"rental_uris":{"android":"levelo://app?vid=93f326e1-088f-48a9-8c56-279bf174f0a8","ios":"levelo://app?vid=93f326e1-088f-48a9-8c56-279bf174f0a8"},"vehicle_type_id":"4","last_reported":1722110905,"current_range_meters":24400,"station_id":"ce4bgl92rcd13ifvqbq0","pricing_plan_id":"cebpf4jnsgd1na2vs0mg"},{"bike_id":"cd2c6ae7-9ef1-4b3a-bda9-790557eb2b0b","system_id":"levelo_inurba_marseille","lat":43.312239,"lon":5.368562,"is_reserved":false,"is_disabled":false,"rental_uris":{"android":"levelo://app?vid=cd2c6ae7-9ef1-4b3a-bda9-790557eb2b0b","ios":"levelo://app?vid=cd2c6ae7-9ef1-4b3a-bda9-790557eb2b0b"},"vehicle_type_id":"4","last_reported":1722110905,"current_range_meters":11600,"station_id":"ce4bgl92rcd13ifvqbq0","pricing_plan_id":"cebpf4jnsgd1na2vs0mg"},{"bike_id":"3ed0b17d-f9c1-46b4-82c7-2973f6c2c628","system_id":"levelo_inurba_marseille","lat":43.312239,"lon":5.368562,"is_reserved":false,"is_disabled":false,"rental_uris":{"android":"levelo://app?vid=3ed0b17d-f9c1-46b4-82c7-2973f6c2c628","ios":"levelo://app?vid=3ed0b17d-f9c1-46b4-82c7-2973f6c2c628"},"vehicle_type_id":"4","last_reported":1722110905,"current_range_meters":15200,"station_id":"ce4bgl92rcd13ifvqbq0","pricing_plan_id":"cebpf4jnsgd1na2vs0mg"},{"bike_id":"2b2f4716-656f-42c0-b930-94e7e28acc8e","system_id":"levelo_inurba_marseille","lat":43.312239,"lon":5.368562,"is_reserved":false,"is_disabled":false,"rental_uris":{"android":"levelo://app?vid=2b2f4716-656f-42c0-b930-94e7e28acc8e","ios":"levelo://app?vid=2b2f4716-656f-42c0-b930-94e7e28acc8e"},"vehicle_type_id":"4","last_reported":1722110905,"current_range_meters":4800,"station_id":"ce4bgl92rcd13ifvqbq0","pricing_plan_id":"cebpf4jnsgd1na2vs0mg"},{"bike_id":"5fcf3a92-8fe3-49e8-b79c-72744a72a97e","system_id":"levelo_inurba_marseille","lat":43.312239,"lon":5.368562,"is_reserved":false,"is_disabled":false,"rental_uris":{"android":"levelo://app?vid=5fcf3a92-8fe3-49e8-b79c-72744a72a97e","ios":"levelo://app?vid=5fcf3a92-8fe3-49e8-b79c-72744a72a97e"},"vehicle_type_id":"4","last_reported":1722110905,"current_range_meters":31200,"station_id":"ce4bgl92rcd13ifvqbq0","pricing_plan_id":"cebpf4jnsgd1na2vs0mg"},{"bike_id":"f1efb92e-8546-4e23-8677-e0dda4112782","system_id":"levelo_inurba_marseille","lat":43.309076,"lon":5.368465,"is_reserved":false,"is_disabled":false,"rental_uris":{"android":"levelo://app?vid=f1efb92e-8546-4e23-8677-e0dda4112782","ios":"levelo://app?vid=f1efb92e-8546-4e23-8677-e0dda4112782"},"vehicle_type_id":"4","last_reported":1722110905,"current_range_meters":8800,"station_id":"ce4bgn92rcd13ifvqbvg","pricing_plan_id":"cebpf4jnsgd1na2vs0mg"},{"bike_id":"c2939831-055e-4c93-98a3-c51e6003baab","system_id":"levelo_inurba_marseille","lat":43.309076,"lon":5.368465,"is_reserved":false,"is_disabled":false,"rental_uris":{"android":"levelo://app?vid=c2939831-055e-4c93-98a3-c51e6003baab","ios":"levelo://app?vid=c2939831-055e-4c93-98a3-c51e6003baab"},"vehicle_type_id":"4","last_reported":1722110905,"current_range_meters":31600,"station_id":"ce4bgn92rcd13ifvqbvg","pricing_plan_id":"cebpf4jnsgd1na2vs0mg"},{"bike_id":"737726ee-87a6-493a-b912-14001c69ec43","system_id":"levelo_inurba_marseille","lat":43.309076,"lon":5.368465,"is_reserved":false,"is_disabled":false,"rental_uris":{"android":"levelo://app?vid=737726ee-87a6-493a-b912-14001c69ec43","ios":"levelo://app?vid=737726ee-87a6-493a-b912-14001c69ec43"},"vehicle_type_id":"4","last_reported":1722110905,"current_range_meters":12800,"station_id":"ce4bgn92rcd13ifvqbvg","pricing_plan_id":"cebpf4jnsgd1na2vs0mg"},{"bike_id":"9c673442-5db2-41a6-a901-3bdf6b199a64","system_id":"levelo_inurba_marseille","lat":43.314811,"lon":5.373103,"is_reserved":false,"is_disabled":false,"rental_uris":{"android":"levelo://app?vid=9c673442-5db2-41a6-a901-3bdf6b199a64","ios":"levelo://app?vid=9c673442-5db2-41a6-a901-3bdf6b199a64"},"vehicle_type_id":"4","last_reported":1722110905,"current_range_meters":14000,"station_id":"ce4bgt12rcd13ifvqcd0","pricing_plan_id":"cebpf4jnsgd1na2vs0mg"},{"bike_id":"aa162d19-a201-4036-b377-061013b5bcd6","system_id":"levelo_inurba_marseille","lat":43.309039,"lon":5.371797,"is_reserved":false,"is_disabled":false,"rental_uris":{"android":"levelo://app?vid=aa162d19-a201-4036-b377-061013b5bcd6","ios":"levelo://app?vid=aa162d19-a201-4036-b377-061013b5bcd6"},"vehicle_type_id":"4","last_reported":1722110905,"current_range_meters":11600,"station_id":"ce4bguh2rcd13ifvqckg","pricing_plan_id":"cebpf4jnsgd1na2vs0mg"},{"bike_id":"f01e297c-565c-42a0-b136-c826a673d05f","system_id":"levelo_inurba_marseille","lat":43.309039,"lon":5.371797,"is_reserved":false,"is_disabled":false,"rental_uris":{"android":"levelo://app?vid=f01e297c-565c-42a0-b136-c826a673d05f","ios":"levelo://app?vid=f01e297c-565c-42a0-b136-c826a673d05f"},"vehicle_type_id":"4","last_reported":1722110905,"current_range_meters":17200,"station_id":"ce4bguh2rcd13ifvqckg","pricing_plan_id":"cebpf4jnsgd1na2vs0mg"},{"bike_id":"b298deb5-0fca-47fb-8620-852090741f19","system_id":"levelo_inurba_marseille","lat":43.309039,"lon":5.371797,"is_reserved":false,"is_disabled":false,"rental_uris":{"android":"levelo://app?vid=b298deb5-0fca-47fb-8620-852090741f19","ios":"levelo://app?vid=b298deb5-0fca-47fb-8620-852090741f19"},"vehicle_type_id":"4","last_reported":1722110905,"current_range_meters":31200,"station_id":"ce4bguh2rcd13ifvqckg","pricing_plan_id":"cebpf4jnsgd1na2vs0mg"},{"bike_id":"46307e04-a145-4e8b-bdbd-b88d2a32b7a4","system_id":"levelo_inurba_marseille","lat":43.309039,"lon":5.371797,"is_reserved":false,"is_disabled":false,"rental_uris":{"android":"levelo://app?vid=46307e04-a145-4e8b-bdbd-b88d2a32b7a4","ios":"levelo://app?vid=46307e04-a145-4e8b-bdbd-b88d2a32b7a4"},"vehicle_type_id":"4","last_reported":1722110905,"current_range_meters":21600,"station_id":"ce4bguh2rcd13ifvqckg","pricing_plan_id":"cebpf4jnsgd1na2vs0mg"},{"bike_id":"1d1d01cd-cc4a-4e2e-b990-a6f31abbbb0d","system_id":"levelo_inurba_marseille","lat":43.309039,"lon":5.371797,"is_reserved":false,"is_disabled":false,"rental_uris":{"android":"levelo://app?vid=1d1d01cd-cc4a-4e2e-b990-a6f31abbbb0d","ios":"levelo://app?vid=1d1d01cd-cc4a-4e2e-b990-a6f31abbbb0d"},"vehicle_type_id":"4","last_reported":1722110905,"current_range_meters":30400,"station_id":"ce4bguh2rcd13ifvqckg","pricing_plan_id":"cebpf4jnsgd1na2vs0mg"},{"bike_id":"b4ff3cf7-0d12-415b-a2a7-b226dcade073","system_id":"levelo_inurba_marseille","lat":43.30724,"lon":5.37184,"is_reserved":false,"is_disabled":false,"rental_uris":{"android":"levelo://app?vid=b4ff3cf7-0d12-415b-a2a7-b226dcade073","ios":"levelo://app?vid=b4ff3cf7-0d12-415b-a2a7-b226dcade073"},"vehicle_type_id":"4","last_reported":1722110905,"current_range_meters":30000,"station_id":"","pricing_plan_id":"cebpf4jnsgd1na2vs0mg"},{"bike_id":"71e1018e-9954-4e1b-ad70-8d380fc53e2d","system_id":"levelo_inurba_marseille","lat":43.305714,"lon":5.365633,"is_reserved":false,"is_disabled":false,"rental_uris":{"android":"levelo://app?vid=71e1018e-9954-4e1b-ad70-8d380fc53e2d","ios":"levelo://app?vid=71e1018e-9954-4e1b-ad70-8d380fc53e2d"},"vehicle_type_id":"4","last_reported":1722110905,"current_range_meters":14800,"station_id":"ce4bgs12rcd13ifvqcag","pricing_plan_id":"cebpf4jnsgd1na2vs0mg"},{"bike_id":"848b6706-c731-4834-884d-d7500cb26dac","system_id":"levelo_inurba_marseille","lat":43.305712,"lon":5.365641,"is_reserved":false,"is_disabled":false,"rental_uris":{"android":"levelo://app?vid=848b6706-c731-4834-884d-d7500cb26dac","ios":"levelo://app?vid=848b6706-c731-4834-884d-d7500cb26dac"},"vehicle_type_id":"4","last_reported":1722110905,"current_range_meters":8400,"station_id":"ce4bgs12rcd13ifvqcag","pricing_plan_id":"cebpf4jnsgd1na2vs0mg"},{"bike_id":"a55025ba-7a90-435e-9a0f-70d9cb3c7561","system_id":"levelo_inurba_marseille","lat":43.30545,"lon":5.36556,"is_reserved":false,"is_disabled":false,"rental_uris":{"android":"levelo://app?vid=a55025ba-7a90-435e-9a0f-70d9cb3c7561","ios":"levelo://app?vid=a55025ba-7a90-435e-9a0f-70d9cb3c7561"},"vehicle_type_id":"4","last_reported":1722110905,"current_range_meters":5600,"station_id":"ce4bgs12rcd13ifvqcag","pricing_plan_id":"cebpf4jnsgd1na2vs0mg"},{"bike_id":"44b477a0-c3cc-4a25-806a-0d5496afbeea","system_id":"levelo_inurba_marseille","lat":43.305368,"lon":5.367343,"is_reserved":false,"is_disabled":false,"rental_uris":{"android":"levelo://app?vid=44b477a0-c3cc-4a25-806a-0d5496afbeea","ios":"levelo://app?vid=44b477a0-c3cc-4a25-806a-0d5496afbeea"},"vehicle_type_id":"4","last_reported":1722110905,"current_range_meters":16000,"station_id":"ce4bgrp2rcd13ifvqc9g","pricing_plan_id":"cebpf4jnsgd1na2vs0mg"},{"bike_id":"ae29117d-81e9-4cb6-a95a-d30979a8a49c","system_id":"levelo_inurba_marseille","lat":43.305989,"lon":5.37225,"is_reserved":false,"is_disabled":false,"rental_uris":{"android":"levelo://app?vid=ae29117d-81e9-4cb6-a95a-d30979a8a49c","ios":"levelo://app?vid=ae29117d-81e9-4cb6-a95a-d30979a8a49c"},"vehicle_type_id":"4","last_reported":1722110905,"current_range_meters":15600,"station_id":"ce4bgqh2rcd13ifvqc4g","pricing_plan_id":"cebpf4jnsgd1na2vs0mg"},{"bike_id":"e3d2cf8e-8524-4807-921b-ccf2c973812e","system_id":"levelo_inurba_marseille","lat":43.305989,"lon":5.37225,"is_reserved":false,"is_disabled":false,"rental_uris":{"android":"levelo://app?vid=e3d2cf8e-8524-4807-921b-ccf2c973812e","ios":"levelo://app?vid=e3d2cf8e-8524-4807-921b-ccf2c973812e"},"vehicle_type_id":"4","last_reported":1722110905,"current_range_meters":28800,"station_id":"ce4bgqh2rcd13ifvqc4g","pricing_plan_id":"cebpf4jnsgd1na2vs0mg"},{"bike_id":"15b76320-a087-4d53-b20d-7b782f5a9115","system_id":"levelo_inurba_marseille","lat":43.311125,"lon":5.377624,"is_reserved":false,"is_disabled":false,"rental_uris":{"android":"levelo://app?vid=15b76320-a087-4d53-b20d-7b782f5a9115","ios":"levelo://app?vid=15b76320-a087-4d53-b20d-7b782f5a9115"},"vehicle_type_id":"4","last_reported":1722110905,"current_range_meters":31200,"station_id":"ce4bgt92rcd13ifvqcg0","pricing_plan_id":"cebpf4jnsgd1na2vs0mg"},{"bike_id":"a32c1078-55b0-4f09-9363-8b42d4150e8d","system_id":"levelo_inurba_marseille","lat":43.311125,"lon":5.377624,"is_reserved":false,"is_disabled":false,"rental_uris":{"android":"levelo://app?vid=a32c1078-55b0-4f09-9363-8b42d4150e8d","ios":"levelo://app?vid=a32c1078-55b0-4f09-9363-8b42d4150e8d"},"vehicle_type_id":"4","last_reported":1722110905,"current_range_meters":2400,"station_id":"ce4bgt92rcd13ifvqcg0","pricing_plan_id":"cebpf4jnsgd1na2vs0mg"},{"bike_id":"62312a0c-d162-42c4-961e-e723902c085e","system_id":"levelo_inurba_marseille","lat":43.307945,"lon":5.376487,"is_reserved":false,"is_disabled":false,"rental_uris":{"android":"levelo://app?vid=62312a0c-d162-42c4-961e-e723902c085e","ios":"levelo://app?vid=62312a0c-d162-42c4-961e-e723902c085e"},"vehicle_type_id":"4","last_reported":1722110905,"current_range_meters":31200,"station_id":"ce4bgv92rcd13ifvqcq0","pricing_plan_id":"cebpf4jnsgd1na2vs0mg"},{"bike_id":"fdd0dd83-9dab-4021-8e9e-4c62d0f2da6a","system_id":"levelo_inurba_marseille","lat":43.307945,"lon":5.376487,"is_reserved":false,"is_disabled":false,"rental_uris":{"android":"levelo://app?vid=fdd0dd83-9dab-4021-8e9e-4c62d0f2da6a","ios":"levelo://app?vid=fdd0dd83-9dab-4021-8e9e-4c62d0f2da6a"},"vehicle_type_id":"4","last_reported":1722110905,"current_range_meters":19600,"station_id":"ce4bgv92rcd13ifvqcq0","pricing_plan_id":"cebpf4jnsgd1na2vs0mg"},{"bike_id":"9d21d9f7-b810-4087-abff-b12c8ad65a0d","system_id":"levelo_inurba_marseille","lat":43.307945,"lon":5.376487,"is_reserved":false,"is_disabled":false,"rental_uris":{"android":"levelo://app?vid=9d21d9f7-b810-4087-abff-b12c8ad65a0d","ios":"levelo://app?vid=9d21d9f7-b810-4087-abff-b12c8ad65a0d"},"vehicle_type_id":"4","last_reported":1722110905,"current_range_meters":13600,"station_id":"ce4bgv92rcd13ifvqcq0","pricing_plan_id":"cebpf4jnsgd1na2vs0mg"},{"bike_id":"28e5d18f-a2b6-41b7-b25c-794b4750c635","system_id":"levelo_inurba_marseille","lat":43.307945,"lon":5.376487,"is_reserved":false,"is_disabled":false,"rental_uris":{"android":"levelo://app?vid=28e5d18f-a2b6-41b7-b25c-794b4750c635","ios":"levelo://app?vid=28e5d18f-a2b6-41b7-b25c-794b4750c635"},"vehicle_type_id":"4","last_reported":1722110905,"current_range_meters":4400,"station_id":"ce4bgv92rcd13ifvqcq0","pricing_plan_id":"cebpf4jnsgd1na2vs0mg"},{"bike_id":"fa183ecd-b9dd-48d0-8103-9faac3b3748d","system_id":"levelo_inurba_marseille","lat":43.307836,"lon":5.376564,"is_reserved":false,"is_disabled":false,"rental_uris":{"android":"levelo://app?vid=fa183ecd-b9dd-48d0-8103-9faac3b3748d","ios":"levelo://app?vid=fa183ecd-b9dd-48d0-8103-9faac3b3748d"},"vehicle_type_id":"4","last_reported":1722110905,"current_range_meters":25600,"station_id":"","pricing_plan_id":"cebpf4jnsgd1na2vs0mg"},{"bike_id":"2a5c9b74-e3d4-4259-a9ed-7588ec70de23","system_id":"levelo_inurba_marseille","lat":43.317075,"lon":5.377367,"is_reserved":false,"is_disabled":false,"rental_uris":{"android":"levelo://app?vid=2a5c9b74-e3d4-4259-a9ed-7588ec70de23","ios":"levelo://app?vid=2a5c9b74-e3d4-4259-a9ed-7588ec70de23"},"vehicle_type_id":"4","last_reported":1722110905,"current_range_meters":23600,"station_id":"ce4bgth2rcd13ifvqch0","pricing_plan_id":"cebpf4jnsgd1na2vs0mg"},{"bike_id":"d342a526-7c8a-4007-970b-0f648e001364","system_id":"levelo_inurba_marseille","lat":43.303046,"lon":5.368981,"is_reserved":false,"is_disabled":false,"rental_uris":{"android":"levelo://app?vid=d342a526-7c8a-4007-970b-0f648e001364","ios":"levelo://app?vid=d342a526-7c8a-4007-970b-0f648e001364"},"vehicle_type_id":"4","last_reported":1722110905,"current_range_meters":27200,"station_id":"ce4bgqh2rcd13ifvqc5g","pricing_plan_id":"cebpf4jnsgd1na2vs0mg"},{"bike_id":"e6f341f8-6318-446d-9055-295ba8dd57b2","system_id":"levelo_inurba_marseille","lat":43.315289,"lon":5.380349,"is_reserved":false,"is_disabled":false,"rental_uris":{"android":"levelo://app?vid=e6f341f8-6318-446d-9055-295ba8dd57b2","ios":"levelo://app?vid=e6f341f8-6318-446d-9055-295ba8dd57b2"},"vehicle_type_id":"4","last_reported":1722110905,"current_range_meters":6800,"station_id":"ce4bhsp2rcd13ifvqi50","pricing_plan_id":"cebpf4jnsgd1na2vs0mg"},{"bike_id":"cf6d9d36-a9ce-4c51-a442-965e86d42c84","system_id":"levelo_inurba_marseille","lat":43.31555,"lon":5.38034,"is_reserved":false,"is_disabled":false,"rental_uris":{"android":"levelo://app?vid=cf6d9d36-a9ce-4c51-a442-965e86d42c84","ios":"levelo://app?vid=cf6d9d36-a9ce-4c51-a442-965e86d42c84"},"vehicle_type_id":"4","last_reported":1722110905,"current_range_meters":12000,"station_id":"ce4bhsp2rcd13ifvqi50","pricing_plan_id":"cebpf4jnsgd1na2vs0mg"},{"bike_id":"b489993a-b8f7-4a14-8243-873b83cb6ea1","system_id":"levelo_inurba_marseille","lat":43.30187,"lon":5.3661,"is_reserved":false,"is_disabled":false,"rental_uris":{"android":"levelo://app?vid=b489993a-b8f7-4a14-8243-873b83cb6ea1","ios":"levelo://app?vid=b489993a-b8f7-4a14-8243-873b83cb6ea1"},"vehicle_type_id":"4","last_reported":1722110905,"current_range_meters":25600,"station_id":"ce4bgrh2rcd13ifvqc8g","pricing_plan_id":"cebpf4jnsgd1na2vs0mg"},{"bike_id":"35af4968-033e-441f-b624-c1e779540d0d","system_id":"levelo_inurba_marseille","lat":43.30181,"lon":5.36604,"is_reserved":false,"is_disabled":false,"rental_uris":{"android":"levelo://app?vid=35af4968-033e-441f-b624-c1e779540d0d","ios":"levelo://app?vid=35af4968-033e-441f-b624-c1e779540d0d"},"vehicle_type_id":"4","last_reported":1722110905,"current_range_meters":0,"station_id":"ce4bgrh2rcd13ifvqc8g","pricing_plan_id":"cebpf4jnsgd1na2vs0mg"},{"bike_id":"ee0430c3-86a4-42d5-9e8c-af56992c83a3","system_id":"levelo_inurba_marseille","lat":43.308012,"lon":5.381511,"is_reserved":false,"is_disabled":false,"rental_uris":{"android":"levelo://app?vid=ee0430c3-86a4-42d5-9e8c-af56992c83a3","ios":"levelo://app?vid=ee0430c3-86a4-42d5-9e8c-af56992c83a3"},"vehicle_type_id":"4","last_reported":1722110905,"current_range_meters":6000,"station_id":"ce4bgt12rcd13ifvqce0","pricing_plan_id":"cebpf4jnsgd1na2vs0mg"},{"bike_id":"5d83d89b-4877-44d0-9701-a282a38fd579","system_id":"levelo_inurba_marseille","lat":43.308012,"lon":5.381511,"is_reserved":false,"is_disabled":false,"rental_uris":{"android":"levelo://app?vid=5d83d89b-4877-44d0-9701-a282a38fd579","ios":"levelo://app?vid=5d83d89b-4877-44d0-9701-a282a38fd579"},"vehicle_type_id":"4","last_reported":1722110905,"current_range_meters":16800,"station_id":"ce4bgt12rcd13ifvqce0","pricing_plan_id":"cebpf4jnsgd1na2vs0mg"},{"bike_id":"85f65e7f-9b16-4a84-bb43-42110d74b045","system_id":"levelo_inurba_marseille","lat":43.324771,"lon":5.36557,"is_reserved":false,"is_disabled":false,"rental_uris":{"android":"levelo://app?vid=85f65e7f-9b16-4a84-bb43-42110d74b045","ios":"levelo://app?vid=85f65e7f-9b16-4a84-bb43-42110d74b045"},"vehicle_type_id":"4","last_reported":1722110905,"current_range_meters":31200,"station_id":"ce4bhs12rcd13ifvqhvg","pricing_plan_id":"cebpf4jnsgd1na2vs0mg"},{"bike_id":"7fc59e34-6f40-4e8f-8e9c-e8bea02bf36c","system_id":"levelo_inurba_marseille","lat":43.324771,"lon":5.36557,"is_reserved":false,"is_disabled":false,"rental_uris":{"android":"levelo://app?vid=7fc59e34-6f40-4e8f-8e9c-e8bea02bf36c","ios":"levelo://app?vid=7fc59e34-6f40-4e8f-8e9c-e8bea02bf36c"},"vehicle_type_id":"4","last_reported":1722110905,"current_range_meters":30400,"station_id":"ce4bhs12rcd13ifvqhvg","pricing_plan_id":"cebpf4jnsgd1na2vs0mg"},{"bike_id":"3b1973cc-3e92-4fc1-b567-dab2cb5a2d48","system_id":"levelo_inurba_marseille","lat":43.324771,"lon":5.36557,"is_reserved":false,"is_disabled":false,"rental_uris":{"android":"levelo://app?vid=3b1973cc-3e92-4fc1-b567-dab2cb5a2d48","ios":"levelo://app?vid=3b1973cc-3e92-4fc1-b567-dab2cb5a2d48"},"vehicle_type_id":"4","last_reported":1722110905,"current_range_meters":31200,"station_id":"ce4bhs12rcd13ifvqhvg","pricing_plan_id":"cebpf4jnsgd1na2vs0mg"},{"bike_id":"a9bb2acc-40ee-4783-9004-e4537b5713af","system_id":"levelo_inurba_marseille","lat":43.324771,"lon":5.36557,"is_reserved":false,"is_disabled":false,"rental_uris":{"android":"levelo://app?vid=a9bb2acc-40ee-4783-9004-e4537b5713af","ios":"levelo://app?vid=a9bb2acc-40ee-4783-9004-e4537b5713af"},"vehicle_type_id":"4","last_reported":1722110905,"current_range_meters":30800,"station_id":"ce4bhs12rcd13ifvqhvg","pricing_plan_id":"cebpf4jnsgd1na2vs0mg"},{"bike_id":"3498bef9-dc04-4ae1-9e4e-e0c2bfa68f1f","system_id":"levelo_inurba_marseille","lat":43.310804,"lon":5.38359,"is_reserved":false,"is_disabled":false,"rental_uris":{"android":"levelo://app?vid=3498bef9-dc04-4ae1-9e4e-e0c2bfa68f1f","ios":"levelo://app?vid=3498bef9-dc04-4ae1-9e4e-e0c2bfa68f1f"},"vehicle_type_id":"4","last_reported":1722110905,"current_range_meters":22800,"station_id":"ce4bgv92rcd13ifvqcr0","pricing_plan_id":"cebpf4jnsgd1na2vs0mg"},{"bike_id":"2142b5c3-722a-4626-83d5-25b95a9cbd68","system_id":"levelo_inurba_marseille","lat":43.310804,"lon":5.38359,"is_reserved":false,"is_disabled":false,"rental_uris":{"android":"levelo://app?vid=2142b5c3-722a-4626-83d5-25b95a9cbd68","ios":"levelo://app?vid=2142b5c3-722a-4626-83d5-25b95a9cbd68"},"vehicle_type_id":"4","last_reported":1722110905,"current_range_meters":31200,"station_id":"ce4bgv92rcd13ifvqcr0","pricing_plan_id":"cebpf4jnsgd1na2vs0mg"},{"bike_id":"4f45f0ca-736c-4005-a503-33d1094cd3e5","system_id":"levelo_inurba_marseille","lat":43.301429,"lon":5.37413,"is_reserved":false,"is_disabled":false,"rental_uris":{"android":"levelo://app?vid=4f45f0ca-736c-4005-a503-33d1094cd3e5","ios":"levelo://app?vid=4f45f0ca-736c-4005-a503-33d1094cd3e5"},"vehicle_type_id":"4","last_reported":1722110905,"current_range_meters":2400,"station_id":"ce4bgs92rcd13ifvqcc0","pricing_plan_id":"cebpf4jnsgd1na2vs0mg"},{"bike_id":"9a2e6b6a-febb-4bb2-b208-74dba3fe5505","system_id":"levelo_inurba_marseille","lat":43.313571,"lon":5.384829,"is_reserved":false,"is_disabled":false,"rental_uris":{"android":"levelo://app?vid=9a2e6b6a-febb-4bb2-b208-74dba3fe5505","ios":"levelo://app?vid=9a2e6b6a-febb-4bb2-b208-74dba3fe5505"},"vehicle_type_id":"4","last_reported":1722110905,"current_range_meters":3600,"station_id":"ce4bgt92rcd13ifvqcf0","pricing_plan_id":"cebpf4jnsgd1na2vs0mg"},{"bike_id":"65a2fefb-2e6b-4acb-a6fb-8379ab318884","system_id":"levelo_inurba_marseille","lat":43.313571,"lon":5.384829,"is_reserved":false,"is_disabled":false,"rental_uris":{"android":"levelo://app?vid=65a2fefb-2e6b-4acb-a6fb-8379ab318884","ios":"levelo://app?vid=65a2fefb-2e6b-4acb-a6fb-8379ab318884"},"vehicle_type_id":"4","last_reported":1722110905,"current_range_meters":3600,"station_id":"ce4bgt92rcd13ifvqcf0","pricing_plan_id":"cebpf4jnsgd1na2vs0mg"},{"bike_id":"aac16ff0-e093-49b0-b1f1-57bb6bd9ea79","system_id":"levelo_inurba_marseille","lat":43.313571,"lon":5.384829,"is_reserved":false,"is_disabled":false,"rental_uris":{"android":"levelo://app?vid=aac16ff0-e093-49b0-b1f1-57bb6bd9ea79","ios":"levelo://app?vid=aac16ff0-e093-49b0-b1f1-57bb6bd9ea79"},"vehicle_type_id":"4","last_reported":1722110905,"current_range_meters":12400,"station_id":"ce4bgt92rcd13ifvqcf0","pricing_plan_id":"cebpf4jnsgd1na2vs0mg"},{"bike_id":"de501cfe-f812-467f-a9d2-57e4263c4ed1","system_id":"levelo_inurba_marseille","lat":43.313571,"lon":5.384829,"is_reserved":false,"is_disabled":false,"rental_uris":{"android":"levelo://app?vid=de501cfe-f812-467f-a9d2-57e4263c4ed1","ios":"levelo://app?vid=de501cfe-f812-467f-a9d2-57e4263c4ed1"},"vehicle_type_id":"4","last_reported":1722110905,"current_range_meters":31600,"station_id":"ce4bgt92rcd13ifvqcf0","pricing_plan_id":"cebpf4jnsgd1na2vs0mg"},{"bike_id":"05fafb86-7664-47b1-8499-1f40ef0784b6","system_id":"levelo_inurba_marseille","lat":43.29941,"lon":5.3655,"is_reserved":false,"is_disabled":false,"rental_uris":{"android":"levelo://app?vid=05fafb86-7664-47b1-8499-1f40ef0784b6","ios":"levelo://app?vid=05fafb86-7664-47b1-8499-1f40ef0784b6"},"vehicle_type_id":"4","last_reported":1722110905,"current_range_meters":17200,"station_id":"ce4bgm92rcd13ifvqbr0","pricing_plan_id":"cebpf4jnsgd1na2vs0mg"},{"bike_id":"8b9b99b1-0948-45cc-868f-d065647704ae","system_id":"levelo_inurba_marseille","lat":43.29937,"lon":5.36543,"is_reserved":false,"is_disabled":false,"rental_uris":{"android":"levelo://app?vid=8b9b99b1-0948-45cc-868f-d065647704ae","ios":"levelo://app?vid=8b9b99b1-0948-45cc-868f-d065647704ae"},"vehicle_type_id":"4","last_reported":1722110905,"current_range_meters":20000,"station_id":"ce4bgm92rcd13ifvqbr0","pricing_plan_id":"cebpf4jnsgd1na2vs0mg"},{"bike_id":"7c88b7cd-0abd-479e-96da-4ab176e53510","system_id":"levelo_inurba_marseille","lat":43.29937,"lon":5.3654,"is_reserved":false,"is_disabled":false,"rental_uris":{"android":"levelo://app?vid=7c88b7cd-0abd-479e-96da-4ab176e53510","ios":"levelo://app?vid=7c88b7cd-0abd-479e-96da-4ab176e53510"},"vehicle_type_id":"4","last_reported":1722110905,"current_range_meters":20800,"station_id":"ce4bgm92rcd13ifvqbr0","pricing_plan_id":"cebpf4jnsgd1na2vs0mg"},{"bike_id":"97226555-55ce-4fbd-896b-a0caa9c73bc5","system_id":"levelo_inurba_marseille","lat":43.29936,"lon":5.3655,"is_reserved":false,"is_disabled":false,"rental_uris":{"android":"levelo://app?vid=97226555-55ce-4fbd-896b-a0caa9c73bc5","ios":"levelo://app?vid=97226555-55ce-4fbd-896b-a0caa9c73bc5"},"vehicle_type_id":"4","last_reported":1722110905,"current_range_meters":0,"station_id":"ce4bgm92rcd13ifvqbr0","pricing_plan_id":"cebpf4jnsgd1na2vs0mg"},{"bike_id":"223d93b0-2f7b-4ac0-ac2b-126cdba0be35","system_id":"levelo_inurba_marseille","lat":43.29934,"lon":5.3653,"is_reserved":false,"is_disabled":false,"rental_uris":{"android":"levelo://app?vid=223d93b0-2f7b-4ac0-ac2b-126cdba0be35","ios":"levelo://app?vid=223d93b0-2f7b-4ac0-ac2b-126cdba0be35"},"vehicle_type_id":"4","last_reported":1722110905,"current_range_meters":0,"station_id":"ce4bgm92rcd13ifvqbr0","pricing_plan_id":"cebpf4jnsgd1na2vs0mg"},{"bike_id":"624b0758-199f-4883-a268-ab2285509b9e","system_id":"levelo_inurba_marseille","lat":43.299724,"lon":5.371829,"is_reserved":false,"is_disabled":false,"rental_uris":{"android":"levelo://app?vid=624b0758-199f-4883-a268-ab2285509b9e","ios":"levelo://app?vid=624b0758-199f-4883-a268-ab2285509b9e"},"vehicle_type_id":"4","last_reported":1722110905,"current_range_meters":1200,"station_id":"ce4bgr92rcd13ifvqc7g","pricing_plan_id":"cebpf4jnsgd1na2vs0mg"},{"bike_id":"451111f3-f52d-4c10-bfe4-c198fc10406e","system_id":"levelo_inurba_marseille","lat":43.299297,"lon":5.36541,"is_reserved":false,"is_disabled":false,"rental_uris":{"android":"levelo://app?vid=451111f3-f52d-4c10-bfe4-c198fc10406e","ios":"levelo://app?vid=451111f3-f52d-4c10-bfe4-c198fc10406e"},"vehicle_type_id":"4","last_reported":1722110905,"current_range_meters":26800,"station_id":"ce4bgm92rcd13ifvqbr0","pricing_plan_id":"cebpf4jnsgd1na2vs0mg"},{"bike_id":"e2153a5b-92e2-4287-b040-b3e441b5a403","system_id":"levelo_inurba_marseille","lat":43.299724,"lon":5.371829,"is_reserved":false,"is_disabled":false,"rental_uris":{"android":"levelo://app?vid=e2153a5b-92e2-4287-b040-b3e441b5a403","ios":"levelo://app?vid=e2153a5b-92e2-4287-b040-b3e441b5a403"},"vehicle_type_id":"4","last_reported":1722110905,"current_range_meters":400,"station_id":"ce4bgr92rcd13ifvqc7g","pricing_plan_id":"cebpf4jnsgd1na2vs0mg"},{"bike_id":"7b0d5a24-1fd7-45c6-89c6-5c233c3b1c3e","system_id":"levelo_inurba_marseille","lat":43.29955,"lon":5.37419,"is_reserved":false,"is_disabled":false,"rental_uris":{"android":"levelo://app?vid=7b0d5a24-1fd7-45c6-89c6-5c233c3b1c3e","ios":"levelo://app?vid=7b0d5a24-1fd7-45c6-89c6-5c233c3b1c3e"},"vehicle_type_id":"4","last_reported":1722110905,"current_range_meters":6400,"station_id":"","pricing_plan_id":"cebpf4jnsgd1na2vs0mg"},{"bike_id":"0eb8de3d-5246-4a0a-8cdb-b8f95d2f7138","system_id":"levelo_inurba_marseille","lat":43.305364,"lon":5.384119,"is_reserved":false,"is_disabled":false,"rental_uris":{"android":"levelo://app?vid=0eb8de3d-5246-4a0a-8cdb-b8f95d2f7138","ios":"levelo://app?vid=0eb8de3d-5246-4a0a-8cdb-b8f95d2f7138"},"vehicle_type_id":"4","last_reported":1722110905,"current_range_meters":13200,"station_id":"ce4bgg92rcd13ifvqb30","pricing_plan_id":"cebpf4jnsgd1na2vs0mg"},{"bike_id":"83a8127b-a170-47ca-8de8-ee50838c4bbb","system_id":"levelo_inurba_marseille","lat":43.29853,"lon":5.36284,"is_reserved":false,"is_disabled":false,"rental_uris":{"android":"levelo://app?vid=83a8127b-a170-47ca-8de8-ee50838c4bbb","ios":"levelo://app?vid=83a8127b-a170-47ca-8de8-ee50838c4bbb"},"vehicle_type_id":"4","last_reported":1722110905,"current_range_meters":28000,"station_id":"ce4bgpp2rcd13ifvqc3g","pricing_plan_id":"cebpf4jnsgd1na2vs0mg"},{"bike_id":"a1594960-3aed-4052-ba05-1b604a9fcb0a","system_id":"levelo_inurba_marseille","lat":43.29852,"lon":5.36287,"is_reserved":false,"is_disabled":false,"rental_uris":{"android":"levelo://app?vid=a1594960-3aed-4052-ba05-1b604a9fcb0a","ios":"levelo://app?vid=a1594960-3aed-4052-ba05-1b604a9fcb0a"},"vehicle_type_id":"4","last_reported":1722110905,"current_range_meters":31200,"station_id":"ce4bgpp2rcd13ifvqc3g","pricing_plan_id":"cebpf4jnsgd1na2vs0mg"},{"bike_id":"63fc8afc-94b9-4bf1-a47a-424fa263123d","system_id":"levelo_inurba_marseille","lat":43.29851,"lon":5.3629,"is_reserved":false,"is_disabled":false,"rental_uris":{"android":"levelo://app?vid=63fc8afc-94b9-4bf1-a47a-424fa263123d","ios":"levelo://app?vid=63fc8afc-94b9-4bf1-a47a-424fa263123d"},"vehicle_type_id":"4","last_reported":1722110905,"current_range_meters":19200,"station_id":"ce4bgpp2rcd13ifvqc3g","pricing_plan_id":"cebpf4jnsgd1na2vs0mg"},{"bike_id":"96a0a32c-f5ab-41b8-a8cf-571ef4d09ae1","system_id":"levelo_inurba_marseille","lat":43.29851,"lon":5.36287,"is_reserved":false,"is_disabled":false,"rental_uris":{"android":"levelo://app?vid=96a0a32c-f5ab-41b8-a8cf-571ef4d09ae1","ios":"levelo://app?vid=96a0a32c-f5ab-41b8-a8cf-571ef4d09ae1"},"vehicle_type_id":"4","last_reported":1722110905,"current_range_meters":31200,"station_id":"ce4bgpp2rcd13ifvqc3g","pricing_plan_id":"cebpf4jnsgd1na2vs0mg"},{"bike_id":"4656b90c-2090-4efa-a7b0-849aae6df5bf","system_id":"levelo_inurba_marseille","lat":43.305364,"lon":5.384119,"is_reserved":false,"is_disabled":false,"rental_uris":{"android":"levelo://app?vid=4656b90c-2090-4efa-a7b0-849aae6df5bf","ios":"levelo://app?vid=4656b90c-2090-4efa-a7b0-849aae6df5bf"},"vehicle_type_id":"4","last_reported":1722110905,"current_range_meters":15600,"station_id":"ce4bgg92rcd13ifvqb30","pricing_plan_id":"cebpf4jnsgd1na2vs0mg"},{"bike_id":"42d16ec9-310b-4828-85b3-236f7cb2d65a","system_id":"levelo_inurba_marseille","lat":43.298433,"lon":5.362774,"is_reserved":false,"is_disabled":false,"rental_uris":{"android":"levelo://app?vid=42d16ec9-310b-4828-85b3-236f7cb2d65a","ios":"levelo://app?vid=42d16ec9-310b-4828-85b3-236f7cb2d65a"},"vehicle_type_id":"4","last_reported":1722110905,"current_range_meters":28000,"station_id":"ce4bgpp2rcd13ifvqc3g","pricing_plan_id":"cebpf4jnsgd1na2vs0mg"},{"bike_id":"9bf129b7-385b-4bf3-b39c-b34b68f6540a","system_id":"levelo_inurba_marseille","lat":43.305364,"lon":5.384119,"is_reserved":false,"is_disabled":false,"rental_uris":{"android":"levelo://app?vid=9bf129b7-385b-4bf3-b39c-b34b68f6540a","ios":"levelo://app?vid=9bf129b7-385b-4bf3-b39c-b34b68f6540a"},"vehicle_type_id":"4","last_reported":1722110905,"current_range_meters":15200,"station_id":"ce4bgg92rcd13ifvqb30","pricing_plan_id":"cebpf4jnsgd1na2vs0mg"},{"bike_id":"46ea21a2-842e-41c6-8baf-9934e38eacb8","system_id":"levelo_inurba_marseille","lat":43.32146,"lon":5.38302,"is_reserved":false,"is_disabled":false,"rental_uris":{"android":"levelo://app?vid=46ea21a2-842e-41c6-8baf-9934e38eacb8","ios":"levelo://app?vid=46ea21a2-842e-41c6-8baf-9934e38eacb8"},"vehicle_type_id":"4","last_reported":1722110905,"current_range_meters":2400,"station_id":"","pricing_plan_id":"cebpf4jnsgd1na2vs0mg"},{"bike_id":"c6639f66-d175-4976-bee2-c4d21fd0c0a2","system_id":"levelo_inurba_marseille","lat":43.298433,"lon":5.362774,"is_reserved":false,"is_disabled":false,"rental_uris":{"android":"levelo://app?vid=c6639f66-d175-4976-bee2-c4d21fd0c0a2","ios":"levelo://app?vid=c6639f66-d175-4976-bee2-c4d21fd0c0a2"},"vehicle_type_id":"4","last_reported":1722110905,"current_range_meters":12800,"station_id":"ce4bgpp2rcd13ifvqc3g","pricing_plan_id":"cebpf4jnsgd1na2vs0mg"},{"bike_id":"e1b84b7a-1a2f-4844-b662-a80f5373f98a","system_id":"levelo_inurba_marseille","lat":43.298433,"lon":5.362774,"is_reserved":false,"is_disabled":false,"rental_uris":{"android":"levelo://app?vid=e1b84b7a-1a2f-4844-b662-a80f5373f98a","ios":"levelo://app?vid=e1b84b7a-1a2f-4844-b662-a80f5373f98a"},"vehicle_type_id":"4","last_reported":1722110905,"current_range_meters":8800,"station_id":"ce4bgpp2rcd13ifvqc3g","pricing_plan_id":"cebpf4jnsgd1na2vs0mg"},{"bike_id":"caa4d158-6046-4836-b60f-41254c6196dc","system_id":"levelo_inurba_marseille","lat":43.32151,"lon":5.38304,"is_reserved":false,"is_disabled":false,"rental_uris":{"android":"levelo://app?vid=caa4d158-6046-4836-b60f-41254c6196dc","ios":"levelo://app?vid=caa4d158-6046-4836-b60f-41254c6196dc"},"vehicle_type_id":"4","last_reported":1722110905,"current_range_meters":16400,"station_id":"","pricing_plan_id":"cebpf4jnsgd1na2vs0mg"},{"bike_id":"802613bb-e516-43c0-8c87-37139789d0ac","system_id":"levelo_inurba_marseille","lat":43.299243,"lon":5.374807,"is_reserved":false,"is_disabled":false,"rental_uris":{"android":"levelo://app?vid=802613bb-e516-43c0-8c87-37139789d0ac","ios":"levelo://app?vid=802613bb-e516-43c0-8c87-37139789d0ac"},"vehicle_type_id":"4","last_reported":1722110905,"current_range_meters":23600,"station_id":"ce4bgjh2rcd13ifvqbg0","pricing_plan_id":"cebpf4jnsgd1na2vs0mg"},{"bike_id":"69c16251-9c63-4a14-8790-984c23a7e0b1","system_id":"levelo_inurba_marseille","lat":43.31179,"lon":5.38712,"is_reserved":false,"is_disabled":false,"rental_uris":{"android":"levelo://app?vid=69c16251-9c63-4a14-8790-984c23a7e0b1","ios":"levelo://app?vid=69c16251-9c63-4a14-8790-984c23a7e0b1"},"vehicle_type_id":"4","last_reported":1722110905,"current_range_meters":31200,"station_id":"ce4bgv12rcd13ifvqcp0","pricing_plan_id":"cebpf4jnsgd1na2vs0mg"},{"bike_id":"3f0e7482-015f-4dfe-aaf5-a73bc7693b1c","system_id":"levelo_inurba_marseille","lat":43.311722,"lon":5.387247,"is_reserved":false,"is_disabled":false,"rental_uris":{"android":"levelo://app?vid=3f0e7482-015f-4dfe-aaf5-a73bc7693b1c","ios":"levelo://app?vid=3f0e7482-015f-4dfe-aaf5-a73bc7693b1c"},"vehicle_type_id":"4","last_reported":1722110905,"current_range_meters":22800,"station_id":"ce4bgv12rcd13ifvqcp0","pricing_plan_id":"cebpf4jnsgd1na2vs0mg"},{"bike_id":"e106b6bd-90a2-49c0-9500-05429575ff92","system_id":"levelo_inurba_marseille","lat":43.311722,"lon":5.387247,"is_reserved":false,"is_disabled":false,"rental_uris":{"android":"levelo://app?vid=e106b6bd-90a2-49c0-9500-05429575ff92","ios":"levelo://app?vid=e106b6bd-90a2-49c0-9500-05429575ff92"},"vehicle_type_id":"4","last_reported":1722110905,"current_range_meters":23200,"station_id":"ce4bgv12rcd13ifvqcp0","pricing_plan_id":"cebpf4jnsgd1na2vs0mg"},{"bike_id":"f5b07eb1-e11e-464d-aa6d-799ac6061bbe","system_id":"levelo_inurba_marseille","lat":43.30146,"lon":5.38075,"is_reserved":false,"is_disabled":false,"rental_uris":{"android":"levelo://app?vid=f5b07eb1-e11e-464d-aa6d-799ac6061bbe","ios":"levelo://app?vid=f5b07eb1-e11e-464d-aa6d-799ac6061bbe"},"vehicle_type_id":"4","last_reported":1722110905,"current_range_meters":22000,"station_id":"","pricing_plan_id":"cebpf4jnsgd1na2vs0mg"},{"bike_id":"16efffc8-f875-4e55-8075-13dcdca400e3","system_id":"levelo_inurba_marseille","lat":43.29783,"lon":5.37125,"is_reserved":false,"is_disabled":false,"rental_uris":{"android":"levelo://app?vid=16efffc8-f875-4e55-8075-13dcdca400e3","ios":"levelo://app?vid=16efffc8-f875-4e55-8075-13dcdca400e3"},"vehicle_type_id":"4","last_reported":1722110905,"current_range_meters":0,"station_id":"ce4bgop2rcd13ifvqc1g","pricing_plan_id":"cebpf4jnsgd1na2vs0mg"},{"bike_id":"e5f61c4d-e668-4079-b472-11c01ea8121b","system_id":"levelo_inurba_marseille","lat":43.297794,"lon":5.370888,"is_reserved":false,"is_disabled":false,"rental_uris":{"android":"levelo://app?vid=e5f61c4d-e668-4079-b472-11c01ea8121b","ios":"levelo://app?vid=e5f61c4d-e668-4079-b472-11c01ea8121b"},"vehicle_type_id":"4","last_reported":1722110905,"current_range_meters":22400,"station_id":"ce4bgop2rcd13ifvqc1g","pricing_plan_id":"cebpf4jnsgd1na2vs0mg"},{"bike_id":"8ad7d1f0-36ba-4891-8a86-274947aa917f","system_id":"levelo_inurba_marseille","lat":43.322872,"lon":5.382756,"is_reserved":false,"is_disabled":false,"rental_uris":{"android":"levelo://app?vid=8ad7d1f0-36ba-4891-8a86-274947aa917f","ios":"levelo://app?vid=8ad7d1f0-36ba-4891-8a86-274947aa917f"},"vehicle_type_id":"4","last_reported":1722110905,"current_range_meters":24000,"station_id":"ce4bhr12rcd13ifvqhqg","pricing_plan_id":"cebpf4jnsgd1na2vs0mg"},{"bike_id":"e1ba1532-1ae0-436e-86f8-fe73ccbaa231","system_id":"levelo_inurba_marseille","lat":43.297774,"lon":5.370875,"is_reserved":false,"is_disabled":false,"rental_uris":{"android":"levelo://app?vid=e1ba1532-1ae0-436e-86f8-fe73ccbaa231","ios":"levelo://app?vid=e1ba1532-1ae0-436e-86f8-fe73ccbaa231"},"vehicle_type_id":"4","last_reported":1722110905,"current_range_meters":5200,"station_id":"ce4bgop2rcd13ifvqc1g","pricing_plan_id":"cebpf4jnsgd1na2vs0mg"},{"bike_id":"bb1d7735-0716-47be-bc6e-b3785c682dbe","system_id":"levelo_inurba_marseille","lat":43.297163,"lon":5.365866,"is_reserved":false,"is_disabled":false,"rental_uris":{"android":"levelo://app?vid=bb1d7735-0716-47be-bc6e-b3785c682dbe","ios":"levelo://app?vid=bb1d7735-0716-47be-bc6e-b3785c682dbe"},"vehicle_type_id":"4","last_reported":1722110905,"current_range_meters":17200,"station_id":"ce4bgn12rcd13ifvqbt0","pricing_plan_id":"cebpf4jnsgd1na2vs0mg"},{"bike_id":"a8b16c71-340c-4626-b737-cc8d4e230374","system_id":"levelo_inurba_marseille","lat":43.297163,"lon":5.365866,"is_reserved":false,"is_disabled":false,"rental_uris":{"android":"levelo://app?vid=a8b16c71-340c-4626-b737-cc8d4e230374","ios":"levelo://app?vid=a8b16c71-340c-4626-b737-cc8d4e230374"},"vehicle_type_id":"4","last_reported":1722110905,"current_range_meters":31200,"station_id":"ce4bgn12rcd13ifvqbt0","pricing_plan_id":"cebpf4jnsgd1na2vs0mg"},{"bike_id":"22e41778-51bb-4239-91a8-cf2d50ed1db8","system_id":"levelo_inurba_marseille","lat":43.31907,"lon":5.38654,"is_reserved":false,"is_disabled":false,"rental_uris":{"android":"levelo://app?vid=22e41778-51bb-4239-91a8-cf2d50ed1db8","ios":"levelo://app?vid=22e41778-51bb-4239-91a8-cf2d50ed1db8"},"vehicle_type_id":"4","last_reported":1722110905,"current_range_meters":31600,"station_id":"","pricing_plan_id":"cebpf4jnsgd1na2vs0mg"},{"bike_id":"d5e867a8-9dc5-4b89-a088-4568e80f7a87","system_id":"levelo_inurba_marseille","lat":43.297163,"lon":5.365866,"is_reserved":false,"is_disabled":false,"rental_uris":{"android":"levelo://app?vid=d5e867a8-9dc5-4b89-a088-4568e80f7a87","ios":"levelo://app?vid=d5e867a8-9dc5-4b89-a088-4568e80f7a87"},"vehicle_type_id":"4","last_reported":1722110905,"current_range_meters":4800,"station_id":"ce4bgn12rcd13ifvqbt0","pricing_plan_id":"cebpf4jnsgd1na2vs0mg"},{"bike_id":"f2cdfdaf-0beb-4bca-a0ec-f351eadda063","system_id":"levelo_inurba_marseille","lat":43.297163,"lon":5.365866,"is_reserved":false,"is_disabled":false,"rental_uris":{"android":"levelo://app?vid=f2cdfdaf-0beb-4bca-a0ec-f351eadda063","ios":"levelo://app?vid=f2cdfdaf-0beb-4bca-a0ec-f351eadda063"},"vehicle_type_id":"4","last_reported":1722110905,"current_range_meters":12800,"station_id":"ce4bgn12rcd13ifvqbt0","pricing_plan_id":"cebpf4jnsgd1na2vs0mg"},{"bike_id":"d309a08a-9b0b-4a43-b21d-44bde8cf589e","system_id":"levelo_inurba_marseille","lat":43.297163,"lon":5.365866,"is_reserved":false,"is_disabled":false,"rental_uris":{"android":"levelo://app?vid=d309a08a-9b0b-4a43-b21d-44bde8cf589e","ios":"levelo://app?vid=d309a08a-9b0b-4a43-b21d-44bde8cf589e"},"vehicle_type_id":"4","last_reported":1722110905,"current_range_meters":7600,"station_id":"ce4bgn12rcd13ifvqbt0","pricing_plan_id":"cebpf4jnsgd1na2vs0mg"},{"bike_id":"efe8f30f-9e81-4297-b4a8-06b411665f88","system_id":"levelo_inurba_marseille","lat":43.297163,"lon":5.365866,"is_reserved":false,"is_disabled":false,"rental_uris":{"android":"levelo://app?vid=efe8f30f-9e81-4297-b4a8-06b411665f88","ios":"levelo://app?vid=efe8f30f-9e81-4297-b4a8-06b411665f88"},"vehicle_type_id":"4","last_reported":1722110905,"current_range_meters":8400,"station_id":"ce4bgn12rcd13ifvqbt0","pricing_plan_id":"cebpf4jnsgd1na2vs0mg"},{"bike_id":"8646fd8c-19ca-44e8-88d7-731a7519258b","system_id":"levelo_inurba_marseille","lat":43.29708,"lon":5.36619,"is_reserved":false,"is_disabled":false,"rental_uris":{"android":"levelo://app?vid=8646fd8c-19ca-44e8-88d7-731a7519258b","ios":"levelo://app?vid=8646fd8c-19ca-44e8-88d7-731a7519258b"},"vehicle_type_id":"4","last_reported":1722110905,"current_range_meters":5200,"station_id":"ce4bgn12rcd13ifvqbt0","pricing_plan_id":"cebpf4jnsgd1na2vs0mg"},{"bike_id":"d03b5337-f4c4-43a3-82a0-077de9926467","system_id":"levelo_inurba_marseille","lat":43.29706,"lon":5.36615,"is_reserved":false,"is_disabled":false,"rental_uris":{"android":"levelo://app?vid=d03b5337-f4c4-43a3-82a0-077de9926467","ios":"levelo://app?vid=d03b5337-f4c4-43a3-82a0-077de9926467"},"vehicle_type_id":"4","last_reported":1722110905,"current_range_meters":6800,"station_id":"ce4bgn12rcd13ifvqbt0","pricing_plan_id":"cebpf4jnsgd1na2vs0mg"},{"bike_id":"fc7742bd-ad79-4cc0-a91e-485bcd633209","system_id":"levelo_inurba_marseille","lat":43.297163,"lon":5.365866,"is_reserved":false,"is_disabled":false,"rental_uris":{"android":"levelo://app?vid=fc7742bd-ad79-4cc0-a91e-485bcd633209","ios":"levelo://app?vid=fc7742bd-ad79-4cc0-a91e-485bcd633209"},"vehicle_type_id":"4","last_reported":1722110905,"current_range_meters":18800,"station_id":"ce4bgn12rcd13ifvqbt0","pricing_plan_id":"cebpf4jnsgd1na2vs0mg"},{"bike_id":"91725bbe-1e8a-444f-8aba-0bcc5a3fa4d8","system_id":"levelo_inurba_marseille","lat":43.297163,"lon":5.365866,"is_reserved":false,"is_disabled":false,"rental_uris":{"android":"levelo://app?vid=91725bbe-1e8a-444f-8aba-0bcc5a3fa4d8","ios":"levelo://app?vid=91725bbe-1e8a-444f-8aba-0bcc5a3fa4d8"},"vehicle_type_id":"4","last_reported":1722110905,"current_range_meters":26400,"station_id":"ce4bgn12rcd13ifvqbt0","pricing_plan_id":"cebpf4jnsgd1na2vs0mg"},{"bike_id":"bb94f7f1-1712-41a7-a982-9fee035be9c2","system_id":"levelo_inurba_marseille","lat":43.2968,"lon":5.3658,"is_reserved":false,"is_disabled":false,"rental_uris":{"android":"levelo://app?vid=bb94f7f1-1712-41a7-a982-9fee035be9c2","ios":"levelo://app?vid=bb94f7f1-1712-41a7-a982-9fee035be9c2"},"vehicle_type_id":"4","last_reported":1722110905,"current_range_meters":31600,"station_id":"ce4bgn12rcd13ifvqbt0","pricing_plan_id":"cebpf4jnsgd1na2vs0mg"},{"bike_id":"77ebd6f7-0e15-4246-8feb-b1d720ac899a","system_id":"levelo_inurba_marseille","lat":43.300434,"lon":5.382081,"is_reserved":false,"is_disabled":false,"rental_uris":{"android":"levelo://app?vid=77ebd6f7-0e15-4246-8feb-b1d720ac899a","ios":"levelo://app?vid=77ebd6f7-0e15-4246-8feb-b1d720ac899a"},"vehicle_type_id":"4","last_reported":1722110905,"current_range_meters":18400,"station_id":"","pricing_plan_id":"cebpf4jnsgd1na2vs0mg"},{"bike_id":"448ad478-2c2b-49d8-ad43-44720cb9db0e","system_id":"levelo_inurba_marseille","lat":43.29624,"lon":5.37148,"is_reserved":false,"is_disabled":false,"rental_uris":{"android":"levelo://app?vid=448ad478-2c2b-49d8-ad43-44720cb9db0e","ios":"levelo://app?vid=448ad478-2c2b-49d8-ad43-44720cb9db0e"},"vehicle_type_id":"4","last_reported":1722110905,"current_range_meters":31200,"station_id":"ce4bgnh2rcd13ifvqc0g","pricing_plan_id":"cebpf4jnsgd1na2vs0mg"},{"bike_id":"05a5575c-b3d6-4c42-97a2-0ab5cff746b7","system_id":"levelo_inurba_marseille","lat":43.296217,"lon":5.371557,"is_reserved":false,"is_disabled":false,"rental_uris":{"android":"levelo://app?vid=05a5575c-b3d6-4c42-97a2-0ab5cff746b7","ios":"levelo://app?vid=05a5575c-b3d6-4c42-97a2-0ab5cff746b7"},"vehicle_type_id":"4","last_reported":1722110905,"current_range_meters":22800,"station_id":"ce4bgnh2rcd13ifvqc0g","pricing_plan_id":"cebpf4jnsgd1na2vs0mg"},{"bike_id":"c2d10942-a736-4ada-a1ee-11254839a25e","system_id":"levelo_inurba_marseille","lat":43.296131,"lon":5.370773,"is_reserved":false,"is_disabled":false,"rental_uris":{"android":"levelo://app?vid=c2d10942-a736-4ada-a1ee-11254839a25e","ios":"levelo://app?vid=c2d10942-a736-4ada-a1ee-11254839a25e"},"vehicle_type_id":"4","last_reported":1722110905,"current_range_meters":400,"station_id":"ce4bgnh2rcd13ifvqc0g","pricing_plan_id":"cebpf4jnsgd1na2vs0mg"},{"bike_id":"59186a27-1e78-446f-aa9e-e1ee822d3dab","system_id":"levelo_inurba_marseille","lat":43.2962,"lon":5.371515,"is_reserved":false,"is_disabled":false,"rental_uris":{"android":"levelo://app?vid=59186a27-1e78-446f-aa9e-e1ee822d3dab","ios":"levelo://app?vid=59186a27-1e78-446f-aa9e-e1ee822d3dab"},"vehicle_type_id":"4","last_reported":1722110905,"current_range_meters":0,"station_id":"ce4bgnh2rcd13ifvqc0g","pricing_plan_id":"cebpf4jnsgd1na2vs0mg"},{"bike_id":"d86ed249-ad17-460a-83df-7c8d544414af","system_id":"levelo_inurba_marseille","lat":43.29585,"lon":5.36748,"is_reserved":false,"is_disabled":false,"rental_uris":{"android":"levelo://app?vid=d86ed249-ad17-460a-83df-7c8d544414af","ios":"levelo://app?vid=d86ed249-ad17-460a-83df-7c8d544414af"},"vehicle_type_id":"4","last_reported":1722110905,"current_range_meters":0,"station_id":"ce4bgph2rcd13ifvqc2g","pricing_plan_id":"cebpf4jnsgd1na2vs0mg"},{"bike_id":"aef279b0-5cfd-43d0-8baa-b17521f8b71c","system_id":"levelo_inurba_marseille","lat":43.296921,"lon":5.376579,"is_reserved":false,"is_disabled":false,"rental_uris":{"android":"levelo://app?vid=aef279b0-5cfd-43d0-8baa-b17521f8b71c","ios":"levelo://app?vid=aef279b0-5cfd-43d0-8baa-b17521f8b71c"},"vehicle_type_id":"4","last_reported":1722110905,"current_range_meters":1200,"station_id":"ce4bgkh2rcd13ifvqbl0","pricing_plan_id":"cebpf4jnsgd1na2vs0mg"},{"bike_id":"e9e37496-12c6-44e5-a39c-3817a5605b0b","system_id":"levelo_inurba_marseille","lat":43.29573,"lon":5.367355,"is_reserved":false,"is_disabled":false,"rental_uris":{"android":"levelo://app?vid=e9e37496-12c6-44e5-a39c-3817a5605b0b","ios":"levelo://app?vid=e9e37496-12c6-44e5-a39c-3817a5605b0b"},"vehicle_type_id":"4","last_reported":1722110905,"current_range_meters":14400,"station_id":"ce4bgph2rcd13ifvqc2g","pricing_plan_id":"cebpf4jnsgd1na2vs0mg"},{"bike_id":"1e6825a3-8ba5-4e14-8f46-de19d86cbeb9","system_id":"levelo_inurba_marseille","lat":43.29578,"lon":5.36735,"is_reserved":false,"is_disabled":false,"rental_uris":{"android":"levelo://app?vid=1e6825a3-8ba5-4e14-8f46-de19d86cbeb9","ios":"levelo://app?vid=1e6825a3-8ba5-4e14-8f46-de19d86cbeb9"},"vehicle_type_id":"4","last_reported":1722110905,"current_range_meters":0,"station_id":"ce4bgph2rcd13ifvqc2g","pricing_plan_id":"cebpf4jnsgd1na2vs0mg"},{"bike_id":"80ddf4eb-c6ac-4ada-9a1b-cffa41ebaeaf","system_id":"levelo_inurba_marseille","lat":43.29578,"lon":5.36745,"is_reserved":false,"is_disabled":false,"rental_uris":{"android":"levelo://app?vid=80ddf4eb-c6ac-4ada-9a1b-cffa41ebaeaf","ios":"levelo://app?vid=80ddf4eb-c6ac-4ada-9a1b-cffa41ebaeaf"},"vehicle_type_id":"4","last_reported":1722110905,"current_range_meters":28400,"station_id":"ce4bgph2rcd13ifvqc2g","pricing_plan_id":"cebpf4jnsgd1na2vs0mg"},{"bike_id":"f2e62a59-d1c7-43e4-ba70-69b09d130175","system_id":"levelo_inurba_marseille","lat":43.29573,"lon":5.367355,"is_reserved":false,"is_disabled":false,"rental_uris":{"android":"levelo://app?vid=f2e62a59-d1c7-43e4-ba70-69b09d130175","ios":"levelo://app?vid=f2e62a59-d1c7-43e4-ba70-69b09d130175"},"vehicle_type_id":"4","last_reported":1722110905,"current_range_meters":1600,"station_id":"ce4bgph2rcd13ifvqc2g","pricing_plan_id":"cebpf4jnsgd1na2vs0mg"},{"bike_id":"25362cc8-cdf0-4cdb-a374-70bd9aa99015","system_id":"levelo_inurba_marseille","lat":43.29573,"lon":5.367355,"is_reserved":false,"is_disabled":false,"rental_uris":{"android":"levelo://app?vid=25362cc8-cdf0-4cdb-a374-70bd9aa99015","ios":"levelo://app?vid=25362cc8-cdf0-4cdb-a374-70bd9aa99015"},"vehicle_type_id":"4","last_reported":1722110905,"current_range_meters":18800,"station_id":"ce4bgph2rcd13ifvqc2g","pricing_plan_id":"cebpf4jnsgd1na2vs0mg"},{"bike_id":"1d02bca0-8a53-47f3-b9c8-c18baa497f25","system_id":"levelo_inurba_marseille","lat":43.29573,"lon":5.367355,"is_reserved":false,"is_disabled":false,"rental_uris":{"android":"levelo://app?vid=1d02bca0-8a53-47f3-b9c8-c18baa497f25","ios":"levelo://app?vid=1d02bca0-8a53-47f3-b9c8-c18baa497f25"},"vehicle_type_id":"4","last_reported":1722110905,"current_range_meters":29600,"station_id":"ce4bgph2rcd13ifvqc2g","pricing_plan_id":"cebpf4jnsgd1na2vs0mg"},{"bike_id":"ba868eab-f3b2-4847-b920-c98e7adfc664","system_id":"levelo_inurba_marseille","lat":43.29573,"lon":5.367355,"is_reserved":false,"is_disabled":false,"rental_uris":{"android":"levelo://app?vid=ba868eab-f3b2-4847-b920-c98e7adfc664","ios":"levelo://app?vid=ba868eab-f3b2-4847-b920-c98e7adfc664"},"vehicle_type_id":"4","last_reported":1722110905,"current_range_meters":4000,"station_id":"ce4bgph2rcd13ifvqc2g","pricing_plan_id":"cebpf4jnsgd1na2vs0mg"},{"bike_id":"57a023e9-0d50-4fb7-9534-90ae257c17aa","system_id":"levelo_inurba_marseille","lat":43.29575,"lon":5.36742,"is_reserved":false,"is_disabled":false,"rental_uris":{"android":"levelo://app?vid=57a023e9-0d50-4fb7-9534-90ae257c17aa","ios":"levelo://app?vid=57a023e9-0d50-4fb7-9534-90ae257c17aa"},"vehicle_type_id":"4","last_reported":1722110905,"current_range_meters":8400,"station_id":"ce4bgph2rcd13ifvqc2g","pricing_plan_id":"cebpf4jnsgd1na2vs0mg"},{"bike_id":"f003a5f7-8ac1-4ff4-9028-ebcf19e472db","system_id":"levelo_inurba_marseille","lat":43.29573,"lon":5.367355,"is_reserved":false,"is_disabled":false,"rental_uris":{"android":"levelo://app?vid=f003a5f7-8ac1-4ff4-9028-ebcf19e472db","ios":"levelo://app?vid=f003a5f7-8ac1-4ff4-9028-ebcf19e472db"},"vehicle_type_id":"4","last_reported":1722110905,"current_range_meters":4800,"station_id":"ce4bgph2rcd13ifvqc2g","pricing_plan_id":"cebpf4jnsgd1na2vs0mg"},{"bike_id":"c0af7b47-caf4-40b9-a828-9bbc60d41832","system_id":"levelo_inurba_marseille","lat":43.2972,"lon":5.37693,"is_reserved":false,"is_disabled":false,"rental_uris":{"android":"levelo://app?vid=c0af7b47-caf4-40b9-a828-9bbc60d41832","ios":"levelo://app?vid=c0af7b47-caf4-40b9-a828-9bbc60d41832"},"vehicle_type_id":"4","last_reported":1722110905,"current_range_meters":22400,"station_id":"ce4bgkh2rcd13ifvqbl0","pricing_plan_id":"cebpf4jnsgd1na2vs0mg"},{"bike_id":"565d2c0e-532e-4c29-a5e2-43403f77e8c7","system_id":"levelo_inurba_marseille","lat":43.299028,"lon":5.381509,"is_reserved":false,"is_disabled":false,"rental_uris":{"android":"levelo://app?vid=565d2c0e-532e-4c29-a5e2-43403f77e8c7","ios":"levelo://app?vid=565d2c0e-532e-4c29-a5e2-43403f77e8c7"},"vehicle_type_id":"4","last_reported":1722110905,"current_range_meters":0,"station_id":"ce4bgj12rcd13ifvqbc0","pricing_plan_id":"cebpf4jnsgd1na2vs0mg"},{"bike_id":"3924069b-1137-4285-a152-a466838b8e4b","system_id":"levelo_inurba_marseille","lat":43.299028,"lon":5.381509,"is_reserved":false,"is_disabled":false,"rental_uris":{"android":"levelo://app?vid=3924069b-1137-4285-a152-a466838b8e4b","ios":"levelo://app?vid=3924069b-1137-4285-a152-a466838b8e4b"},"vehicle_type_id":"4","last_reported":1722110905,"current_range_meters":400,"station_id":"ce4bgj12rcd13ifvqbc0","pricing_plan_id":"cebpf4jnsgd1na2vs0mg"},{"bike_id":"07d5a8b9-636e-44f3-b7f8-2087cf8cc00f","system_id":"levelo_inurba_marseille","lat":43.309567,"lon":5.390211,"is_reserved":false,"is_disabled":false,"rental_uris":{"android":"levelo://app?vid=07d5a8b9-636e-44f3-b7f8-2087cf8cc00f","ios":"levelo://app?vid=07d5a8b9-636e-44f3-b7f8-2087cf8cc00f"},"vehicle_type_id":"4","last_reported":1722110905,"current_range_meters":4400,"station_id":"ce4bgup2rcd13ifvqco0","pricing_plan_id":"cebpf4jnsgd1na2vs0mg"},{"bike_id":"02c59fce-705e-498c-9735-68f1d52a7f90","system_id":"levelo_inurba_marseille","lat":43.30956,"lon":5.39022,"is_reserved":false,"is_disabled":false,"rental_uris":{"android":"levelo://app?vid=02c59fce-705e-498c-9735-68f1d52a7f90","ios":"levelo://app?vid=02c59fce-705e-498c-9735-68f1d52a7f90"},"vehicle_type_id":"4","last_reported":1722110905,"current_range_meters":23600,"station_id":"ce4bgup2rcd13ifvqco0","pricing_plan_id":"cebpf4jnsgd1na2vs0mg"},{"bike_id":"3d779d8e-a9fe-498d-9b4f-9ba59aa542ef","system_id":"levelo_inurba_marseille","lat":43.30951,"lon":5.39022,"is_reserved":false,"is_disabled":false,"rental_uris":{"android":"levelo://app?vid=3d779d8e-a9fe-498d-9b4f-9ba59aa542ef","ios":"levelo://app?vid=3d779d8e-a9fe-498d-9b4f-9ba59aa542ef"},"vehicle_type_id":"4","last_reported":1722110905,"current_range_meters":6000,"station_id":"ce4bgup2rcd13ifvqco0","pricing_plan_id":"cebpf4jnsgd1na2vs0mg"},{"bike_id":"93656cba-5a02-4951-bfff-5256c56695d3","system_id":"levelo_inurba_marseille","lat":43.30957,"lon":5.39024,"is_reserved":false,"is_disabled":false,"rental_uris":{"android":"levelo://app?vid=93656cba-5a02-4951-bfff-5256c56695d3","ios":"levelo://app?vid=93656cba-5a02-4951-bfff-5256c56695d3"},"vehicle_type_id":"4","last_reported":1722110905,"current_range_meters":0,"station_id":"ce4bgup2rcd13ifvqco0","pricing_plan_id":"cebpf4jnsgd1na2vs0mg"},{"bike_id":"e37759d2-2067-4c05-84ab-10b0452b624c","system_id":"levelo_inurba_marseille","lat":43.30951,"lon":5.39023,"is_reserved":false,"is_disabled":false,"rental_uris":{"android":"levelo://app?vid=e37759d2-2067-4c05-84ab-10b0452b624c","ios":"levelo://app?vid=e37759d2-2067-4c05-84ab-10b0452b624c"},"vehicle_type_id":"4","last_reported":1722110905,"current_range_meters":6400,"station_id":"ce4bgup2rcd13ifvqco0","pricing_plan_id":"cebpf4jnsgd1na2vs0mg"},{"bike_id":"de72cce0-b011-4616-870f-b59cadb6d1c4","system_id":"levelo_inurba_marseille","lat":43.30953,"lon":5.39024,"is_reserved":false,"is_disabled":false,"rental_uris":{"android":"levelo://app?vid=de72cce0-b011-4616-870f-b59cadb6d1c4","ios":"levelo://app?vid=de72cce0-b011-4616-870f-b59cadb6d1c4"},"vehicle_type_id":"4","last_reported":1722110905,"current_range_meters":9600,"station_id":"ce4bgup2rcd13ifvqco0","pricing_plan_id":"cebpf4jnsgd1na2vs0mg"},{"bike_id":"38256312-a7bc-497f-8746-9998a80a63c2","system_id":"levelo_inurba_marseille","lat":43.30954,"lon":5.39027,"is_reserved":false,"is_disabled":false,"rental_uris":{"android":"levelo://app?vid=38256312-a7bc-497f-8746-9998a80a63c2","ios":"levelo://app?vid=38256312-a7bc-497f-8746-9998a80a63c2"},"vehicle_type_id":"4","last_reported":1722110905,"current_range_meters":1200,"station_id":"ce4bgup2rcd13ifvqco0","pricing_plan_id":"cebpf4jnsgd1na2vs0mg"},{"bike_id":"1f9d7aa7-9370-493a-a66b-abe1f5dde882","system_id":"levelo_inurba_marseille","lat":43.309589,"lon":5.390258,"is_reserved":false,"is_disabled":false,"rental_uris":{"android":"levelo://app?vid=1f9d7aa7-9370-493a-a66b-abe1f5dde882","ios":"levelo://app?vid=1f9d7aa7-9370-493a-a66b-abe1f5dde882"},"vehicle_type_id":"4","last_reported":1722110905,"current_range_meters":4800,"station_id":"ce4bgup2rcd13ifvqco0","pricing_plan_id":"cebpf4jnsgd1na2vs0mg"},{"bike_id":"9128ebb6-e9f7-4c8d-8180-5b786536bda0","system_id":"levelo_inurba_marseille","lat":43.3096,"lon":5.39029,"is_reserved":false,"is_disabled":false,"rental_uris":{"android":"levelo://app?vid=9128ebb6-e9f7-4c8d-8180-5b786536bda0","ios":"levelo://app?vid=9128ebb6-e9f7-4c8d-8180-5b786536bda0"},"vehicle_type_id":"4","last_reported":1722110905,"current_range_meters":4400,"station_id":"ce4bgup2rcd13ifvqco0","pricing_plan_id":"cebpf4jnsgd1na2vs0mg"},{"bike_id":"985adb11-ed7d-4139-be2d-6ceab22cf2d7","system_id":"levelo_inurba_marseille","lat":43.30943,"lon":5.39026,"is_reserved":false,"is_disabled":false,"rental_uris":{"android":"levelo://app?vid=985adb11-ed7d-4139-be2d-6ceab22cf2d7","ios":"levelo://app?vid=985adb11-ed7d-4139-be2d-6ceab22cf2d7"},"vehicle_type_id":"4","last_reported":1722110905,"current_range_meters":28800,"station_id":"ce4bgup2rcd13ifvqco0","pricing_plan_id":"cebpf4jnsgd1na2vs0mg"},{"bike_id":"9b416605-70a6-467d-af52-d21a1f997de1","system_id":"levelo_inurba_marseille","lat":43.30954,"lon":5.39029,"is_reserved":false,"is_disabled":false,"rental_uris":{"android":"levelo://app?vid=9b416605-70a6-467d-af52-d21a1f997de1","ios":"levelo://app?vid=9b416605-70a6-467d-af52-d21a1f997de1"},"vehicle_type_id":"4","last_reported":1722110905,"current_range_meters":400,"station_id":"ce4bgup2rcd13ifvqco0","pricing_plan_id":"cebpf4jnsgd1na2vs0mg"},{"bike_id":"5577df36-1040-450d-b99e-131190e9662d","system_id":"levelo_inurba_marseille","lat":43.309589,"lon":5.390258,"is_reserved":false,"is_disabled":false,"rental_uris":{"android":"levelo://app?vid=5577df36-1040-450d-b99e-131190e9662d","ios":"levelo://app?vid=5577df36-1040-450d-b99e-131190e9662d"},"vehicle_type_id":"4","last_reported":1722110905,"current_range_meters":3200,"station_id":"ce4bgup2rcd13ifvqco0","pricing_plan_id":"cebpf4jnsgd1na2vs0mg"},{"bike_id":"3830a05e-c6c2-4a14-8743-b31fe50c5ff6","system_id":"levelo_inurba_marseille","lat":43.30953,"lon":5.3903,"is_reserved":false,"is_disabled":false,"rental_uris":{"android":"levelo://app?vid=3830a05e-c6c2-4a14-8743-b31fe50c5ff6","ios":"levelo://app?vid=3830a05e-c6c2-4a14-8743-b31fe50c5ff6"},"vehicle_type_id":"4","last_reported":1722110905,"current_range_meters":800,"station_id":"ce4bgup2rcd13ifvqco0","pricing_plan_id":"cebpf4jnsgd1na2vs0mg"},{"bike_id":"de564e87-7d21-488e-920e-a6c89a8a03ac","system_id":"levelo_inurba_marseille","lat":43.30956,"lon":5.39031,"is_reserved":false,"is_disabled":false,"rental_uris":{"android":"levelo://app?vid=de564e87-7d21-488e-920e-a6c89a8a03ac","ios":"levelo://app?vid=de564e87-7d21-488e-920e-a6c89a8a03ac"},"vehicle_type_id":"4","last_reported":1722110905,"current_range_meters":1600,"station_id":"ce4bgup2rcd13ifvqco0","pricing_plan_id":"cebpf4jnsgd1na2vs0mg"},{"bike_id":"b21d10be-110f-4c9a-95ca-7a4e77addf77","system_id":"levelo_inurba_marseille","lat":43.309589,"lon":5.390258,"is_reserved":false,"is_disabled":false,"rental_uris":{"android":"levelo://app?vid=b21d10be-110f-4c9a-95ca-7a4e77addf77","ios":"levelo://app?vid=b21d10be-110f-4c9a-95ca-7a4e77addf77"},"vehicle_type_id":"4","last_reported":1722110905,"current_range_meters":29200,"station_id":"ce4bgup2rcd13ifvqco0","pricing_plan_id":"cebpf4jnsgd1na2vs0mg"},{"bike_id":"2be1ce18-28ee-463f-b587-99fed9ef975f","system_id":"levelo_inurba_marseille","lat":43.30953,"lon":5.39031,"is_reserved":false,"is_disabled":false,"rental_uris":{"android":"levelo://app?vid=2be1ce18-28ee-463f-b587-99fed9ef975f","ios":"levelo://app?vid=2be1ce18-28ee-463f-b587-99fed9ef975f"},"vehicle_type_id":"4","last_reported":1722110905,"current_range_meters":17600,"station_id":"ce4bgup2rcd13ifvqco0","pricing_plan_id":"cebpf4jnsgd1na2vs0mg"},{"bike_id":"5ee9b251-8104-4be0-b9b7-80f9b5f03f84","system_id":"levelo_inurba_marseille","lat":43.309589,"lon":5.390258,"is_reserved":false,"is_disabled":false,"rental_uris":{"android":"levelo://app?vid=5ee9b251-8104-4be0-b9b7-80f9b5f03f84","ios":"levelo://app?vid=5ee9b251-8104-4be0-b9b7-80f9b5f03f84"},"vehicle_type_id":"4","last_reported":1722110905,"current_range_meters":24000,"station_id":"ce4bgup2rcd13ifvqco0","pricing_plan_id":"cebpf4jnsgd1na2vs0mg"},{"bike_id":"6960db49-4680-4921-817b-17deea707a3e","system_id":"levelo_inurba_marseille","lat":43.309589,"lon":5.390258,"is_reserved":false,"is_disabled":false,"rental_uris":{"android":"levelo://app?vid=6960db49-4680-4921-817b-17deea707a3e","ios":"levelo://app?vid=6960db49-4680-4921-817b-17deea707a3e"},"vehicle_type_id":"4","last_reported":1722110905,"current_range_meters":2800,"station_id":"ce4bgup2rcd13ifvqco0","pricing_plan_id":"cebpf4jnsgd1na2vs0mg"},{"bike_id":"089fbf63-f655-4fc7-9c85-a5752b77f3dc","system_id":"levelo_inurba_marseille","lat":43.309589,"lon":5.390258,"is_reserved":false,"is_disabled":false,"rental_uris":{"android":"levelo://app?vid=089fbf63-f655-4fc7-9c85-a5752b77f3dc","ios":"levelo://app?vid=089fbf63-f655-4fc7-9c85-a5752b77f3dc"},"vehicle_type_id":"4","last_reported":1722110905,"current_range_meters":18800,"station_id":"ce4bgup2rcd13ifvqco0","pricing_plan_id":"cebpf4jnsgd1na2vs0mg"},{"bike_id":"ac8e302d-ad82-47f4-8584-013baf39815e","system_id":"levelo_inurba_marseille","lat":43.309589,"lon":5.390258,"is_reserved":false,"is_disabled":false,"rental_uris":{"android":"levelo://app?vid=ac8e302d-ad82-47f4-8584-013baf39815e","ios":"levelo://app?vid=ac8e302d-ad82-47f4-8584-013baf39815e"},"vehicle_type_id":"4","last_reported":1722110905,"current_range_meters":19200,"station_id":"ce4bgup2rcd13ifvqco0","pricing_plan_id":"cebpf4jnsgd1na2vs0mg"},{"bike_id":"e01761d3-ed51-49cf-b5df-ed6f8d2764ab","system_id":"levelo_inurba_marseille","lat":43.30952,"lon":5.390365,"is_reserved":false,"is_disabled":false,"rental_uris":{"android":"levelo://app?vid=e01761d3-ed51-49cf-b5df-ed6f8d2764ab","ios":"levelo://app?vid=e01761d3-ed51-49cf-b5df-ed6f8d2764ab"},"vehicle_type_id":"4","last_reported":1722110905,"current_range_meters":3200,"station_id":"","pricing_plan_id":"cebpf4jnsgd1na2vs0mg"},{"bike_id":"99593d25-14e7-4b8f-b003-0aca5c866ea6","system_id":"levelo_inurba_marseille","lat":43.309523,"lon":5.390373,"is_reserved":false,"is_disabled":false,"rental_uris":{"android":"levelo://app?vid=99593d25-14e7-4b8f-b003-0aca5c866ea6","ios":"levelo://app?vid=99593d25-14e7-4b8f-b003-0aca5c866ea6"},"vehicle_type_id":"4","last_reported":1722110905,"current_range_meters":10000,"station_id":"","pricing_plan_id":"cebpf4jnsgd1na2vs0mg"},{"bike_id":"5a5020b1-64ec-48e9-b5c0-69f252145b76","system_id":"levelo_inurba_marseille","lat":43.30951,"lon":5.39037,"is_reserved":false,"is_disabled":false,"rental_uris":{"android":"levelo://app?vid=5a5020b1-64ec-48e9-b5c0-69f252145b76","ios":"levelo://app?vid=5a5020b1-64ec-48e9-b5c0-69f252145b76"},"vehicle_type_id":"4","last_reported":1722110905,"current_range_meters":3600,"station_id":"ce4bgup2rcd13ifvqco0","pricing_plan_id":"cebpf4jnsgd1na2vs0mg"},{"bike_id":"b4737434-81ce-4e48-9595-8959667baf91","system_id":"levelo_inurba_marseille","lat":43.309589,"lon":5.390258,"is_reserved":false,"is_disabled":false,"rental_uris":{"android":"levelo://app?vid=b4737434-81ce-4e48-9595-8959667baf91","ios":"levelo://app?vid=b4737434-81ce-4e48-9595-8959667baf91"},"vehicle_type_id":"4","last_reported":1722110905,"current_range_meters":27600,"station_id":"ce4bgup2rcd13ifvqco0","pricing_plan_id":"cebpf4jnsgd1na2vs0mg"},{"bike_id":"1d116abb-a54b-4471-ae1f-b49c221dadd8","system_id":"levelo_inurba_marseille","lat":43.30951,"lon":5.39039,"is_reserved":false,"is_disabled":false,"rental_uris":{"android":"levelo://app?vid=1d116abb-a54b-4471-ae1f-b49c221dadd8","ios":"levelo://app?vid=1d116abb-a54b-4471-ae1f-b49c221dadd8"},"vehicle_type_id":"4","last_reported":1722110905,"current_range_meters":24800,"station_id":"ce4bgup2rcd13ifvqco0","pricing_plan_id":"cebpf4jnsgd1na2vs0mg"},{"bike_id":"03007310-5532-4fa6-a69f-457a1ca1e9b6","system_id":"levelo_inurba_marseille","lat":43.309515,"lon":5.390417,"is_reserved":false,"is_disabled":false,"rental_uris":{"android":"levelo://app?vid=03007310-5532-4fa6-a69f-457a1ca1e9b6","ios":"levelo://app?vid=03007310-5532-4fa6-a69f-457a1ca1e9b6"},"vehicle_type_id":"4","last_reported":1722110905,"current_range_meters":4000,"station_id":"ce4bgup2rcd13ifvqco0","pricing_plan_id":"cebpf4jnsgd1na2vs0mg"},{"bike_id":"b5b97180-4a54-4f79-a6e2-f9a94552384e","system_id":"levelo_inurba_marseille","lat":43.309589,"lon":5.390258,"is_reserved":false,"is_disabled":false,"rental_uris":{"android":"levelo://app?vid=b5b97180-4a54-4f79-a6e2-f9a94552384e","ios":"levelo://app?vid=b5b97180-4a54-4f79-a6e2-f9a94552384e"},"vehicle_type_id":"4","last_reported":1722110905,"current_range_meters":12000,"station_id":"ce4bgup2rcd13ifvqco0","pricing_plan_id":"cebpf4jnsgd1na2vs0mg"},{"bike_id":"f587f3f6-ad33-4a35-a96f-164d3bf54fd9","system_id":"levelo_inurba_marseille","lat":43.30945,"lon":5.39041,"is_reserved":false,"is_disabled":false,"rental_uris":{"android":"levelo://app?vid=f587f3f6-ad33-4a35-a96f-164d3bf54fd9","ios":"levelo://app?vid=f587f3f6-ad33-4a35-a96f-164d3bf54fd9"},"vehicle_type_id":"4","last_reported":1722110905,"current_range_meters":10400,"station_id":"ce4bgup2rcd13ifvqco0","pricing_plan_id":"cebpf4jnsgd1na2vs0mg"},{"bike_id":"375acbf1-71a8-4b24-a8d5-0cfa9344939d","system_id":"levelo_inurba_marseille","lat":43.309589,"lon":5.390258,"is_reserved":false,"is_disabled":false,"rental_uris":{"android":"levelo://app?vid=375acbf1-71a8-4b24-a8d5-0cfa9344939d","ios":"levelo://app?vid=375acbf1-71a8-4b24-a8d5-0cfa9344939d"},"vehicle_type_id":"4","last_reported":1722110905,"current_range_meters":21600,"station_id":"ce4bgup2rcd13ifvqco0","pricing_plan_id":"cebpf4jnsgd1na2vs0mg"},{"bike_id":"56d08423-cf45-4b0a-9c41-ef9a39ba760f","system_id":"levelo_inurba_marseille","lat":43.309589,"lon":5.390258,"is_reserved":false,"is_disabled":false,"rental_uris":{"android":"levelo://app?vid=56d08423-cf45-4b0a-9c41-ef9a39ba760f","ios":"levelo://app?vid=56d08423-cf45-4b0a-9c41-ef9a39ba760f"},"vehicle_type_id":"4","last_reported":1722110905,"current_range_meters":31200,"station_id":"ce4bgup2rcd13ifvqco0","pricing_plan_id":"cebpf4jnsgd1na2vs0mg"},{"bike_id":"4b12d2c3-39d4-4295-af36-eaf5162db54b","system_id":"levelo_inurba_marseille","lat":43.309589,"lon":5.390258,"is_reserved":false,"is_disabled":false,"rental_uris":{"android":"levelo://app?vid=4b12d2c3-39d4-4295-af36-eaf5162db54b","ios":"levelo://app?vid=4b12d2c3-39d4-4295-af36-eaf5162db54b"},"vehicle_type_id":"4","last_reported":1722110905,"current_range_meters":31600,"station_id":"ce4bgup2rcd13ifvqco0","pricing_plan_id":"cebpf4jnsgd1na2vs0mg"},{"bike_id":"5f6217bd-ccb4-40fa-b5c0-06da5117c45f","system_id":"levelo_inurba_marseille","lat":43.309589,"lon":5.390258,"is_reserved":false,"is_disabled":false,"rental_uris":{"android":"levelo://app?vid=5f6217bd-ccb4-40fa-b5c0-06da5117c45f","ios":"levelo://app?vid=5f6217bd-ccb4-40fa-b5c0-06da5117c45f"},"vehicle_type_id":"4","last_reported":1722110905,"current_range_meters":24400,"station_id":"ce4bgup2rcd13ifvqco0","pricing_plan_id":"cebpf4jnsgd1na2vs0mg"},{"bike_id":"22fea3b0-90e2-49e5-91ff-148c41352189","system_id":"levelo_inurba_marseille","lat":43.309589,"lon":5.390258,"is_reserved":false,"is_disabled":false,"rental_uris":{"android":"levelo://app?vid=22fea3b0-90e2-49e5-91ff-148c41352189","ios":"levelo://app?vid=22fea3b0-90e2-49e5-91ff-148c41352189"},"vehicle_type_id":"4","last_reported":1722110905,"current_range_meters":26000,"station_id":"ce4bgup2rcd13ifvqco0","pricing_plan_id":"cebpf4jnsgd1na2vs0mg"},{"bike_id":"e6d35184-2f5c-4f40-8d65-b0af84f83fd4","system_id":"levelo_inurba_marseille","lat":43.309589,"lon":5.390258,"is_reserved":false,"is_disabled":false,"rental_uris":{"android":"levelo://app?vid=e6d35184-2f5c-4f40-8d65-b0af84f83fd4","ios":"levelo://app?vid=e6d35184-2f5c-4f40-8d65-b0af84f83fd4"},"vehicle_type_id":"4","last_reported":1722110905,"current_range_meters":20000,"station_id":"ce4bgup2rcd13ifvqco0","pricing_plan_id":"cebpf4jnsgd1na2vs0mg"},{"bike_id":"fc6d773b-de3b-4ac2-a83b-c124cb296bed","system_id":"levelo_inurba_marseille","lat":43.317557,"lon":5.390173,"is_reserved":false,"is_disabled":false,"rental_uris":{"android":"levelo://app?vid=fc6d773b-de3b-4ac2-a83b-c124cb296bed","ios":"levelo://app?vid=fc6d773b-de3b-4ac2-a83b-c124cb296bed"},"vehicle_type_id":"4","last_reported":1722110905,"current_range_meters":10400,"station_id":"ce4bhqp2rcd13ifvqhng","pricing_plan_id":"cebpf4jnsgd1na2vs0mg"},{"bike_id":"ccfb9ba5-333d-4ec1-8556-46821726af77","system_id":"levelo_inurba_marseille","lat":43.317557,"lon":5.390173,"is_reserved":false,"is_disabled":false,"rental_uris":{"android":"levelo://app?vid=ccfb9ba5-333d-4ec1-8556-46821726af77","ios":"levelo://app?vid=ccfb9ba5-333d-4ec1-8556-46821726af77"},"vehicle_type_id":"4","last_reported":1722110905,"current_range_meters":31600,"station_id":"ce4bhqp2rcd13ifvqhng","pricing_plan_id":"cebpf4jnsgd1na2vs0mg"},{"bike_id":"e3d81d9f-7b35-49bc-94ac-76ea14b3f795","system_id":"levelo_inurba_marseille","lat":43.317557,"lon":5.390173,"is_reserved":false,"is_disabled":false,"rental_uris":{"android":"levelo://app?vid=e3d81d9f-7b35-49bc-94ac-76ea14b3f795","ios":"levelo://app?vid=e3d81d9f-7b35-49bc-94ac-76ea14b3f795"},"vehicle_type_id":"4","last_reported":1722110905,"current_range_meters":17600,"station_id":"ce4bhqp2rcd13ifvqhng","pricing_plan_id":"cebpf4jnsgd1na2vs0mg"},{"bike_id":"4496c404-3c32-4a6a-a8d4-fe28ae420eb9","system_id":"levelo_inurba_marseille","lat":43.317557,"lon":5.390173,"is_reserved":false,"is_disabled":false,"rental_uris":{"android":"levelo://app?vid=4496c404-3c32-4a6a-a8d4-fe28ae420eb9","ios":"levelo://app?vid=4496c404-3c32-4a6a-a8d4-fe28ae420eb9"},"vehicle_type_id":"4","last_reported":1722110905,"current_range_meters":10800,"station_id":"ce4bhqp2rcd13ifvqhng","pricing_plan_id":"cebpf4jnsgd1na2vs0mg"},{"bike_id":"6d8e9407-b212-4fcf-b0f6-031d73b1226a","system_id":"levelo_inurba_marseille","lat":43.317557,"lon":5.390173,"is_reserved":false,"is_disabled":false,"rental_uris":{"android":"levelo://app?vid=6d8e9407-b212-4fcf-b0f6-031d73b1226a","ios":"levelo://app?vid=6d8e9407-b212-4fcf-b0f6-031d73b1226a"},"vehicle_type_id":"4","last_reported":1722110905,"current_range_meters":30800,"station_id":"ce4bhqp2rcd13ifvqhng","pricing_plan_id":"cebpf4jnsgd1na2vs0mg"},{"bike_id":"d6a4a827-9200-4d1e-ae9a-30506e3a0fa6","system_id":"levelo_inurba_marseille","lat":43.317557,"lon":5.390173,"is_reserved":false,"is_disabled":false,"rental_uris":{"android":"levelo://app?vid=d6a4a827-9200-4d1e-ae9a-30506e3a0fa6","ios":"levelo://app?vid=d6a4a827-9200-4d1e-ae9a-30506e3a0fa6"},"vehicle_type_id":"4","last_reported":1722110905,"current_range_meters":21200,"station_id":"ce4bhqp2rcd13ifvqhng","pricing_plan_id":"cebpf4jnsgd1na2vs0mg"},{"bike_id":"22591f15-b3ce-49aa-ab0b-05b871f53d37","system_id":"levelo_inurba_marseille","lat":43.298037,"lon":5.381066,"is_reserved":false,"is_disabled":false,"rental_uris":{"android":"levelo://app?vid=22591f15-b3ce-49aa-ab0b-05b871f53d37","ios":"levelo://app?vid=22591f15-b3ce-49aa-ab0b-05b871f53d37"},"vehicle_type_id":"4","last_reported":1722110905,"current_range_meters":27600,"station_id":"ce4bgip2rcd13ifvqbb0","pricing_plan_id":"cebpf4jnsgd1na2vs0mg"},{"bike_id":"f2b751ee-6095-4a73-8765-a20efc101fa1","system_id":"levelo_inurba_marseille","lat":43.29582,"lon":5.37509,"is_reserved":false,"is_disabled":false,"rental_uris":{"android":"levelo://app?vid=f2b751ee-6095-4a73-8765-a20efc101fa1","ios":"levelo://app?vid=f2b751ee-6095-4a73-8765-a20efc101fa1"},"vehicle_type_id":"4","last_reported":1722110905,"current_range_meters":31200,"station_id":"ce4bgh92rcd13ifvqb50","pricing_plan_id":"cebpf4jnsgd1na2vs0mg"},{"bike_id":"7b67a7a1-d572-4f5f-a986-01f937f86027","system_id":"levelo_inurba_marseille","lat":43.29583,"lon":5.37516,"is_reserved":false,"is_disabled":false,"rental_uris":{"android":"levelo://app?vid=7b67a7a1-d572-4f5f-a986-01f937f86027","ios":"levelo://app?vid=7b67a7a1-d572-4f5f-a986-01f937f86027"},"vehicle_type_id":"4","last_reported":1722110905,"current_range_meters":17200,"station_id":"ce4bgh92rcd13ifvqb50","pricing_plan_id":"cebpf4jnsgd1na2vs0mg"},{"bike_id":"7d91ee3d-a1b1-457c-a47d-2da04bb14f50","system_id":"levelo_inurba_marseille","lat":43.29579,"lon":5.37514,"is_reserved":false,"is_disabled":false,"rental_uris":{"android":"levelo://app?vid=7d91ee3d-a1b1-457c-a47d-2da04bb14f50","ios":"levelo://app?vid=7d91ee3d-a1b1-457c-a47d-2da04bb14f50"},"vehicle_type_id":"4","last_reported":1722110905,"current_range_meters":4000,"station_id":"ce4bgh92rcd13ifvqb50","pricing_plan_id":"cebpf4jnsgd1na2vs0mg"},{"bike_id":"2d350eca-2a53-4526-aac7-9d1aea3b0744","system_id":"levelo_inurba_marseille","lat":43.299028,"lon":5.381509,"is_reserved":false,"is_disabled":false,"rental_uris":{"android":"levelo://app?vid=2d350eca-2a53-4526-aac7-9d1aea3b0744","ios":"levelo://app?vid=2d350eca-2a53-4526-aac7-9d1aea3b0744"},"vehicle_type_id":"4","last_reported":1722110905,"current_range_meters":24800,"station_id":"ce4bgj12rcd13ifvqbc0","pricing_plan_id":"cebpf4jnsgd1na2vs0mg"},{"bike_id":"af99111d-ed91-4a72-9277-b7c46bb9bffd","system_id":"levelo_inurba_marseille","lat":43.295748,"lon":5.37522,"is_reserved":false,"is_disabled":false,"rental_uris":{"android":"levelo://app?vid=af99111d-ed91-4a72-9277-b7c46bb9bffd","ios":"levelo://app?vid=af99111d-ed91-4a72-9277-b7c46bb9bffd"},"vehicle_type_id":"4","last_reported":1722110905,"current_range_meters":3200,"station_id":"ce4bgh92rcd13ifvqb50","pricing_plan_id":"cebpf4jnsgd1na2vs0mg"},{"bike_id":"233d5ce2-2370-4862-8a80-032831a12043","system_id":"levelo_inurba_marseille","lat":43.29572,"lon":5.37523,"is_reserved":false,"is_disabled":false,"rental_uris":{"android":"levelo://app?vid=233d5ce2-2370-4862-8a80-032831a12043","ios":"levelo://app?vid=233d5ce2-2370-4862-8a80-032831a12043"},"vehicle_type_id":"4","last_reported":1722110905,"current_range_meters":28400,"station_id":"ce4bgh92rcd13ifvqb50","pricing_plan_id":"cebpf4jnsgd1na2vs0mg"},{"bike_id":"d8c96bfb-bbbc-4398-9551-5747d8acfcd1","system_id":"levelo_inurba_marseille","lat":43.304278,"lon":5.388868,"is_reserved":false,"is_disabled":false,"rental_uris":{"android":"levelo://app?vid=d8c96bfb-bbbc-4398-9551-5747d8acfcd1","ios":"levelo://app?vid=d8c96bfb-bbbc-4398-9551-5747d8acfcd1"},"vehicle_type_id":"4","last_reported":1722110905,"current_range_meters":18000,"station_id":"ce4bgk12rcd13ifvqbi0","pricing_plan_id":"cebpf4jnsgd1na2vs0mg"},{"bike_id":"f6d35dd3-b27c-4782-b840-7362168a29b1","system_id":"levelo_inurba_marseille","lat":43.295568,"lon":5.37479,"is_reserved":false,"is_disabled":false,"rental_uris":{"android":"levelo://app?vid=f6d35dd3-b27c-4782-b840-7362168a29b1","ios":"levelo://app?vid=f6d35dd3-b27c-4782-b840-7362168a29b1"},"vehicle_type_id":"4","last_reported":1722110905,"current_range_meters":6000,"station_id":"ce4bgh92rcd13ifvqb50","pricing_plan_id":"cebpf4jnsgd1na2vs0mg"},{"bike_id":"13e967e1-63e8-4639-87cf-744701338dcd","system_id":"levelo_inurba_marseille","lat":43.29618,"lon":5.37727,"is_reserved":false,"is_disabled":false,"rental_uris":{"android":"levelo://app?vid=13e967e1-63e8-4639-87cf-744701338dcd","ios":"levelo://app?vid=13e967e1-63e8-4639-87cf-744701338dcd"},"vehicle_type_id":"4","last_reported":1722110905,"current_range_meters":8000,"station_id":"ce4bgi92rcd13ifvqb90","pricing_plan_id":"cebpf4jnsgd1na2vs0mg"},{"bike_id":"d98e0cb1-aef2-4fae-a8ed-9d24701b5570","system_id":"levelo_inurba_marseille","lat":43.296263,"lon":5.377094,"is_reserved":false,"is_disabled":false,"rental_uris":{"android":"levelo://app?vid=d98e0cb1-aef2-4fae-a8ed-9d24701b5570","ios":"levelo://app?vid=d98e0cb1-aef2-4fae-a8ed-9d24701b5570"},"vehicle_type_id":"4","last_reported":1722110905,"current_range_meters":26800,"station_id":"ce4bgi92rcd13ifvqb90","pricing_plan_id":"cebpf4jnsgd1na2vs0mg"},{"bike_id":"c86ef179-5544-4cd6-bb65-6171257206b8","system_id":"levelo_inurba_marseille","lat":43.296263,"lon":5.377094,"is_reserved":false,"is_disabled":false,"rental_uris":{"android":"levelo://app?vid=c86ef179-5544-4cd6-bb65-6171257206b8","ios":"levelo://app?vid=c86ef179-5544-4cd6-bb65-6171257206b8"},"vehicle_type_id":"4","last_reported":1722110905,"current_range_meters":18000,"station_id":"ce4bgi92rcd13ifvqb90","pricing_plan_id":"cebpf4jnsgd1na2vs0mg"},{"bike_id":"261aed34-2af9-4a77-a0ff-86de0457d1d1","system_id":"levelo_inurba_marseille","lat":43.295279,"lon":5.375048,"is_reserved":false,"is_disabled":false,"rental_uris":{"android":"levelo://app?vid=261aed34-2af9-4a77-a0ff-86de0457d1d1","ios":"levelo://app?vid=261aed34-2af9-4a77-a0ff-86de0457d1d1"},"vehicle_type_id":"4","last_reported":1722110905,"current_range_meters":31600,"station_id":"ce4bgkp2rcd13ifvqbmg","pricing_plan_id":"cebpf4jnsgd1na2vs0mg"},{"bike_id":"19f88d01-7c11-4f41-9de7-922032dabb59","system_id":"levelo_inurba_marseille","lat":43.299707,"lon":5.384859,"is_reserved":false,"is_disabled":false,"rental_uris":{"android":"levelo://app?vid=19f88d01-7c11-4f41-9de7-922032dabb59","ios":"levelo://app?vid=19f88d01-7c11-4f41-9de7-922032dabb59"},"vehicle_type_id":"4","last_reported":1722110905,"current_range_meters":0,"station_id":"ce4bgj92rcd13ifvqbd0","pricing_plan_id":"cebpf4jnsgd1na2vs0mg"},{"bike_id":"292f62fb-cc44-4d2a-909e-8f35c01e9e45","system_id":"levelo_inurba_marseille","lat":43.299724,"lon":5.384848,"is_reserved":false,"is_disabled":false,"rental_uris":{"android":"levelo://app?vid=292f62fb-cc44-4d2a-909e-8f35c01e9e45","ios":"levelo://app?vid=292f62fb-cc44-4d2a-909e-8f35c01e9e45"},"vehicle_type_id":"4","last_reported":1722110905,"current_range_meters":14400,"station_id":"ce4bgj92rcd13ifvqbd0","pricing_plan_id":"cebpf4jnsgd1na2vs0mg"},{"bike_id":"675dd122-c7fe-458a-a042-9670547b0f08","system_id":"levelo_inurba_marseille","lat":43.299707,"lon":5.384859,"is_reserved":false,"is_disabled":false,"rental_uris":{"android":"levelo://app?vid=675dd122-c7fe-458a-a042-9670547b0f08","ios":"levelo://app?vid=675dd122-c7fe-458a-a042-9670547b0f08"},"vehicle_type_id":"4","last_reported":1722110905,"current_range_meters":0,"station_id":"ce4bgj92rcd13ifvqbd0","pricing_plan_id":"cebpf4jnsgd1na2vs0mg"},{"bike_id":"62754f3c-6ed8-49e3-8fb4-794a2c1cc1e2","system_id":"levelo_inurba_marseille","lat":43.29971,"lon":5.38486,"is_reserved":false,"is_disabled":false,"rental_uris":{"android":"levelo://app?vid=62754f3c-6ed8-49e3-8fb4-794a2c1cc1e2","ios":"levelo://app?vid=62754f3c-6ed8-49e3-8fb4-794a2c1cc1e2"},"vehicle_type_id":"4","last_reported":1722110905,"current_range_meters":29200,"station_id":"ce4bgj92rcd13ifvqbd0","pricing_plan_id":"cebpf4jnsgd1na2vs0mg"},{"bike_id":"f89579dd-9053-48a4-86d8-e6a32bc8d658","system_id":"levelo_inurba_marseille","lat":43.29529,"lon":5.37513,"is_reserved":false,"is_disabled":false,"rental_uris":{"android":"levelo://app?vid=f89579dd-9053-48a4-86d8-e6a32bc8d658","ios":"levelo://app?vid=f89579dd-9053-48a4-86d8-e6a32bc8d658"},"vehicle_type_id":"4","last_reported":1722110905,"current_range_meters":31200,"station_id":"ce4bgkp2rcd13ifvqbmg","pricing_plan_id":"cebpf4jnsgd1na2vs0mg"},{"bike_id":"ebb67c21-47d1-441c-9846-7b9d88520315","system_id":"levelo_inurba_marseille","lat":43.299724,"lon":5.384848,"is_reserved":false,"is_disabled":false,"rental_uris":{"android":"levelo://app?vid=ebb67c21-47d1-441c-9846-7b9d88520315","ios":"levelo://app?vid=ebb67c21-47d1-441c-9846-7b9d88520315"},"vehicle_type_id":"4","last_reported":1722110905,"current_range_meters":2000,"station_id":"ce4bgj92rcd13ifvqbd0","pricing_plan_id":"cebpf4jnsgd1na2vs0mg"},{"bike_id":"3837cc9a-0b22-4ef3-8ff9-6912353ef0d9","system_id":"levelo_inurba_marseille","lat":43.299724,"lon":5.384848,"is_reserved":false,"is_disabled":false,"rental_uris":{"android":"levelo://app?vid=3837cc9a-0b22-4ef3-8ff9-6912353ef0d9","ios":"levelo://app?vid=3837cc9a-0b22-4ef3-8ff9-6912353ef0d9"},"vehicle_type_id":"4","last_reported":1722110905,"current_range_meters":0,"station_id":"ce4bgj92rcd13ifvqbd0","pricing_plan_id":"cebpf4jnsgd1na2vs0mg"},{"bike_id":"dd7dc4f9-a58a-4248-94c6-c257ce69c4b2","system_id":"levelo_inurba_marseille","lat":43.295279,"lon":5.375048,"is_reserved":false,"is_disabled":false,"rental_uris":{"android":"levelo://app?vid=dd7dc4f9-a58a-4248-94c6-c257ce69c4b2","ios":"levelo://app?vid=dd7dc4f9-a58a-4248-94c6-c257ce69c4b2"},"vehicle_type_id":"4","last_reported":1722110905,"current_range_meters":31200,"station_id":"ce4bgkp2rcd13ifvqbmg","pricing_plan_id":"cebpf4jnsgd1na2vs0mg"},{"bike_id":"c416cccc-98a5-485c-b45b-ffc5c330f097","system_id":"levelo_inurba_marseille","lat":43.29513,"lon":5.37506,"is_reserved":false,"is_disabled":false,"rental_uris":{"android":"levelo://app?vid=c416cccc-98a5-485c-b45b-ffc5c330f097","ios":"levelo://app?vid=c416cccc-98a5-485c-b45b-ffc5c330f097"},"vehicle_type_id":"4","last_reported":1722110905,"current_range_meters":29600,"station_id":"ce4bgkp2rcd13ifvqbmg","pricing_plan_id":"cebpf4jnsgd1na2vs0mg"},{"bike_id":"1b294820-7ace-41fe-85da-f16a0d8c72c2","system_id":"levelo_inurba_marseille","lat":43.3082,"lon":5.39193,"is_reserved":false,"is_disabled":false,"rental_uris":{"android":"levelo://app?vid=1b294820-7ace-41fe-85da-f16a0d8c72c2","ios":"levelo://app?vid=1b294820-7ace-41fe-85da-f16a0d8c72c2"},"vehicle_type_id":"4","last_reported":1722110905,"current_range_meters":14000,"station_id":"ce4bgup2rcd13ifvqco0","pricing_plan_id":"cebpf4jnsgd1na2vs0mg"},{"bike_id":"75ec0ad4-d887-41d7-95a0-1dfb90d1600b","system_id":"levelo_inurba_marseille","lat":43.301396,"lon":5.387812,"is_reserved":false,"is_disabled":false,"rental_uris":{"android":"levelo://app?vid=75ec0ad4-d887-41d7-95a0-1dfb90d1600b","ios":"levelo://app?vid=75ec0ad4-d887-41d7-95a0-1dfb90d1600b"},"vehicle_type_id":"4","last_reported":1722110905,"current_range_meters":17600,"station_id":"ce4bghh2rcd13ifvqb60","pricing_plan_id":"cebpf4jnsgd1na2vs0mg"},{"bike_id":"b46d3261-4607-4de5-9a07-49fc2f6f54d5","system_id":"levelo_inurba_marseille","lat":43.301396,"lon":5.387812,"is_reserved":false,"is_disabled":false,"rental_uris":{"android":"levelo://app?vid=b46d3261-4607-4de5-9a07-49fc2f6f54d5","ios":"levelo://app?vid=b46d3261-4607-4de5-9a07-49fc2f6f54d5"},"vehicle_type_id":"4","last_reported":1722110905,"current_range_meters":2000,"station_id":"ce4bghh2rcd13ifvqb60","pricing_plan_id":"cebpf4jnsgd1na2vs0mg"},{"bike_id":"e925e06d-73b7-427f-b779-d0fe2230501a","system_id":"levelo_inurba_marseille","lat":43.301396,"lon":5.387812,"is_reserved":false,"is_disabled":false,"rental_uris":{"android":"levelo://app?vid=e925e06d-73b7-427f-b779-d0fe2230501a","ios":"levelo://app?vid=e925e06d-73b7-427f-b779-d0fe2230501a"},"vehicle_type_id":"4","last_reported":1722110905,"current_range_meters":6000,"station_id":"ce4bghh2rcd13ifvqb60","pricing_plan_id":"cebpf4jnsgd1na2vs0mg"},{"bike_id":"705478de-29e1-4f89-8627-eda9a7dd1a6c","system_id":"levelo_inurba_marseille","lat":43.32367,"lon":5.388836,"is_reserved":false,"is_disabled":false,"rental_uris":{"android":"levelo://app?vid=705478de-29e1-4f89-8627-eda9a7dd1a6c","ios":"levelo://app?vid=705478de-29e1-4f89-8627-eda9a7dd1a6c"},"vehicle_type_id":"4","last_reported":1722110905,"current_range_meters":0,"station_id":"ce4bhqp2rcd13ifvqhog","pricing_plan_id":"cebpf4jnsgd1na2vs0mg"},{"bike_id":"82c8f0ce-2606-4d93-8fc4-260cdab0d2ad","system_id":"levelo_inurba_marseille","lat":43.32367,"lon":5.388836,"is_reserved":false,"is_disabled":false,"rental_uris":{"android":"levelo://app?vid=82c8f0ce-2606-4d93-8fc4-260cdab0d2ad","ios":"levelo://app?vid=82c8f0ce-2606-4d93-8fc4-260cdab0d2ad"},"vehicle_type_id":"4","last_reported":1722110905,"current_range_meters":16000,"station_id":"ce4bhqp2rcd13ifvqhog","pricing_plan_id":"cebpf4jnsgd1na2vs0mg"},{"bike_id":"dbc3e368-a8d2-4dba-bd46-0aefc801a43f","system_id":"levelo_inurba_marseille","lat":43.32367,"lon":5.388836,"is_reserved":false,"is_disabled":false,"rental_uris":{"android":"levelo://app?vid=dbc3e368-a8d2-4dba-bd46-0aefc801a43f","ios":"levelo://app?vid=dbc3e368-a8d2-4dba-bd46-0aefc801a43f"},"vehicle_type_id":"4","last_reported":1722110905,"current_range_meters":12400,"station_id":"ce4bhqp2rcd13ifvqhog","pricing_plan_id":"cebpf4jnsgd1na2vs0mg"},{"bike_id":"b5f3930e-a153-4036-86db-c3e12916a35f","system_id":"levelo_inurba_marseille","lat":43.32367,"lon":5.388836,"is_reserved":false,"is_disabled":false,"rental_uris":{"android":"levelo://app?vid=b5f3930e-a153-4036-86db-c3e12916a35f","ios":"levelo://app?vid=b5f3930e-a153-4036-86db-c3e12916a35f"},"vehicle_type_id":"4","last_reported":1722110905,"current_range_meters":12400,"station_id":"ce4bhqp2rcd13ifvqhog","pricing_plan_id":"cebpf4jnsgd1na2vs0mg"},{"bike_id":"b1d7b27e-fef1-405c-8a54-bbf2d235d3c8","system_id":"levelo_inurba_marseille","lat":43.29394,"lon":5.37324,"is_reserved":false,"is_disabled":false,"rental_uris":{"android":"levelo://app?vid=b1d7b27e-fef1-405c-8a54-bbf2d235d3c8","ios":"levelo://app?vid=b1d7b27e-fef1-405c-8a54-bbf2d235d3c8"},"vehicle_type_id":"4","last_reported":1722110905,"current_range_meters":28000,"station_id":"","pricing_plan_id":"cebpf4jnsgd1na2vs0mg"},{"bike_id":"fff9ce80-e3a6-4300-a750-f133cdb858c3","system_id":"levelo_inurba_marseille","lat":43.29351,"lon":5.37132,"is_reserved":false,"is_disabled":false,"rental_uris":{"android":"levelo://app?vid=fff9ce80-e3a6-4300-a750-f133cdb858c3","ios":"levelo://app?vid=fff9ce80-e3a6-4300-a750-f133cdb858c3"},"vehicle_type_id":"4","last_reported":1722110905,"current_range_meters":13200,"station_id":"","pricing_plan_id":"cebpf4jnsgd1na2vs0mg"},{"bike_id":"1a134dc3-6c31-49bf-b224-776846421a9c","system_id":"levelo_inurba_marseille","lat":43.29602,"lon":5.381084,"is_reserved":false,"is_disabled":false,"rental_uris":{"android":"levelo://app?vid=1a134dc3-6c31-49bf-b224-776846421a9c","ios":"levelo://app?vid=1a134dc3-6c31-49bf-b224-776846421a9c"},"vehicle_type_id":"4","last_reported":1722110905,"current_range_meters":28400,"station_id":"ce4bgl12rcd13ifvqbo0","pricing_plan_id":"cebpf4jnsgd1na2vs0mg"},{"bike_id":"66cb6ac3-641d-4d5c-b0e5-83060c22da55","system_id":"levelo_inurba_marseille","lat":43.29602,"lon":5.381084,"is_reserved":false,"is_disabled":false,"rental_uris":{"android":"levelo://app?vid=66cb6ac3-641d-4d5c-b0e5-83060c22da55","ios":"levelo://app?vid=66cb6ac3-641d-4d5c-b0e5-83060c22da55"},"vehicle_type_id":"4","last_reported":1722110905,"current_range_meters":0,"station_id":"ce4bgl12rcd13ifvqbo0","pricing_plan_id":"cebpf4jnsgd1na2vs0mg"},{"bike_id":"423e533b-d679-4587-904d-cf5a3c861fbb","system_id":"levelo_inurba_marseille","lat":43.29602,"lon":5.381084,"is_reserved":false,"is_disabled":false,"rental_uris":{"android":"levelo://app?vid=423e533b-d679-4587-904d-cf5a3c861fbb","ios":"levelo://app?vid=423e533b-d679-4587-904d-cf5a3c861fbb"},"vehicle_type_id":"4","last_reported":1722110905,"current_range_meters":21200,"station_id":"ce4bgl12rcd13ifvqbo0","pricing_plan_id":"cebpf4jnsgd1na2vs0mg"},{"bike_id":"1cda9266-5d24-47dd-a675-994e79e09124","system_id":"levelo_inurba_marseille","lat":43.29593,"lon":5.38095,"is_reserved":false,"is_disabled":false,"rental_uris":{"android":"levelo://app?vid=1cda9266-5d24-47dd-a675-994e79e09124","ios":"levelo://app?vid=1cda9266-5d24-47dd-a675-994e79e09124"},"vehicle_type_id":"4","last_reported":1722110905,"current_range_meters":4000,"station_id":"ce4bgl12rcd13ifvqbo0","pricing_plan_id":"cebpf4jnsgd1na2vs0mg"},{"bike_id":"4728a8e7-dcd8-484f-baaf-4f557c2beadd","system_id":"levelo_inurba_marseille","lat":43.29596,"lon":5.38102,"is_reserved":false,"is_disabled":false,"rental_uris":{"android":"levelo://app?vid=4728a8e7-dcd8-484f-baaf-4f557c2beadd","ios":"levelo://app?vid=4728a8e7-dcd8-484f-baaf-4f557c2beadd"},"vehicle_type_id":"4","last_reported":1722110905,"current_range_meters":7600,"station_id":"ce4bgl12rcd13ifvqbo0","pricing_plan_id":"cebpf4jnsgd1na2vs0mg"},{"bike_id":"da353571-bf65-4425-b159-7d8dbe518cf4","system_id":"levelo_inurba_marseille","lat":43.31647,"lon":5.39357,"is_reserved":false,"is_disabled":false,"rental_uris":{"android":"levelo://app?vid=da353571-bf65-4425-b159-7d8dbe518cf4","ios":"levelo://app?vid=da353571-bf65-4425-b159-7d8dbe518cf4"},"vehicle_type_id":"4","last_reported":1722110905,"current_range_meters":11600,"station_id":"","pricing_plan_id":"cebpf4jnsgd1na2vs0mg"},{"bike_id":"ab638d17-ea1c-4e07-bceb-1f0e97065d15","system_id":"levelo_inurba_marseille","lat":43.296129,"lon":5.370777,"is_reserved":false,"is_disabled":false,"rental_uris":{"android":"levelo://app?vid=ab638d17-ea1c-4e07-bceb-1f0e97065d15","ios":"levelo://app?vid=ab638d17-ea1c-4e07-bceb-1f0e97065d15"},"vehicle_type_id":"4","last_reported":1722110905,"current_range_meters":7600,"station_id":"ce4bgnh2rcd13ifvqc0g","pricing_plan_id":"cebpf4jnsgd1na2vs0mg"},{"bike_id":"e5e18c21-efd9-4355-9fff-e28efe9f72fe","system_id":"levelo_inurba_marseille","lat":43.292367,"lon":5.36599,"is_reserved":false,"is_disabled":false,"rental_uris":{"android":"levelo://app?vid=e5e18c21-efd9-4355-9fff-e28efe9f72fe","ios":"levelo://app?vid=e5e18c21-efd9-4355-9fff-e28efe9f72fe"},"vehicle_type_id":"4","last_reported":1722110905,"current_range_meters":0,"station_id":"","pricing_plan_id":"cebpf4jnsgd1na2vs0mg"},{"bike_id":"39f3af60-9ea2-4a98-8e30-6f7bf3b89079","system_id":"levelo_inurba_marseille","lat":43.293009,"lon":5.374584,"is_reserved":false,"is_disabled":false,"rental_uris":{"android":"levelo://app?vid=39f3af60-9ea2-4a98-8e30-6f7bf3b89079","ios":"levelo://app?vid=39f3af60-9ea2-4a98-8e30-6f7bf3b89079"},"vehicle_type_id":"4","last_reported":1722110905,"current_range_meters":11600,"station_id":"ce4bgi12rcd13ifvqb70","pricing_plan_id":"cebpf4jnsgd1na2vs0mg"},{"bike_id":"b35f7bc2-b7ef-4380-8c90-a1a08898565d","system_id":"levelo_inurba_marseille","lat":43.29308,"lon":5.37461,"is_reserved":false,"is_disabled":false,"rental_uris":{"android":"levelo://app?vid=b35f7bc2-b7ef-4380-8c90-a1a08898565d","ios":"levelo://app?vid=b35f7bc2-b7ef-4380-8c90-a1a08898565d"},"vehicle_type_id":"4","last_reported":1722110905,"current_range_meters":17600,"station_id":"ce4bgi12rcd13ifvqb70","pricing_plan_id":"cebpf4jnsgd1na2vs0mg"},{"bike_id":"0ecdf11b-48dd-4a95-8cc9-0bd895ea8d78","system_id":"levelo_inurba_marseille","lat":43.29306,"lon":5.37453,"is_reserved":false,"is_disabled":false,"rental_uris":{"android":"levelo://app?vid=0ecdf11b-48dd-4a95-8cc9-0bd895ea8d78","ios":"levelo://app?vid=0ecdf11b-48dd-4a95-8cc9-0bd895ea8d78"},"vehicle_type_id":"4","last_reported":1722110905,"current_range_meters":2800,"station_id":"ce4bgi12rcd13ifvqb70","pricing_plan_id":"cebpf4jnsgd1na2vs0mg"},{"bike_id":"6a400085-e8e1-43e3-9ce5-7784c6f2e12d","system_id":"levelo_inurba_marseille","lat":43.29307,"lon":5.37467,"is_reserved":false,"is_disabled":false,"rental_uris":{"android":"levelo://app?vid=6a400085-e8e1-43e3-9ce5-7784c6f2e12d","ios":"levelo://app?vid=6a400085-e8e1-43e3-9ce5-7784c6f2e12d"},"vehicle_type_id":"4","last_reported":1722110905,"current_range_meters":6000,"station_id":"","pricing_plan_id":"cebpf4jnsgd1na2vs0mg"},{"bike_id":"8f067c1a-cb0e-4b8a-99ad-5f5edb2becc0","system_id":"levelo_inurba_marseille","lat":43.293009,"lon":5.374584,"is_reserved":false,"is_disabled":false,"rental_uris":{"android":"levelo://app?vid=8f067c1a-cb0e-4b8a-99ad-5f5edb2becc0","ios":"levelo://app?vid=8f067c1a-cb0e-4b8a-99ad-5f5edb2becc0"},"vehicle_type_id":"4","last_reported":1722110905,"current_range_meters":1200,"station_id":"ce4bgi12rcd13ifvqb70","pricing_plan_id":"cebpf4jnsgd1na2vs0mg"},{"bike_id":"81e49ca5-f346-49eb-9e38-54ff4987f8be","system_id":"levelo_inurba_marseille","lat":43.293009,"lon":5.374584,"is_reserved":false,"is_disabled":false,"rental_uris":{"android":"levelo://app?vid=81e49ca5-f346-49eb-9e38-54ff4987f8be","ios":"levelo://app?vid=81e49ca5-f346-49eb-9e38-54ff4987f8be"},"vehicle_type_id":"4","last_reported":1722110905,"current_range_meters":21600,"station_id":"ce4bgi12rcd13ifvqb70","pricing_plan_id":"cebpf4jnsgd1na2vs0mg"},{"bike_id":"368b188b-3339-4682-842b-7d5d967f0216","system_id":"levelo_inurba_marseille","lat":43.293009,"lon":5.374584,"is_reserved":false,"is_disabled":false,"rental_uris":{"android":"levelo://app?vid=368b188b-3339-4682-842b-7d5d967f0216","ios":"levelo://app?vid=368b188b-3339-4682-842b-7d5d967f0216"},"vehicle_type_id":"4","last_reported":1722110905,"current_range_meters":0,"station_id":"ce4bgi12rcd13ifvqb70","pricing_plan_id":"cebpf4jnsgd1na2vs0mg"},{"bike_id":"42102c9f-4e2d-4f24-b138-f0ef576b21ab","system_id":"levelo_inurba_marseille","lat":43.293009,"lon":5.374584,"is_reserved":false,"is_disabled":false,"rental_uris":{"android":"levelo://app?vid=42102c9f-4e2d-4f24-b138-f0ef576b21ab","ios":"levelo://app?vid=42102c9f-4e2d-4f24-b138-f0ef576b21ab"},"vehicle_type_id":"4","last_reported":1722110905,"current_range_meters":22800,"station_id":"ce4bgi12rcd13ifvqb70","pricing_plan_id":"cebpf4jnsgd1na2vs0mg"},{"bike_id":"93dc9ee0-e588-4af0-914f-4521b957b63b","system_id":"levelo_inurba_marseille","lat":43.29231,"lon":5.36455,"is_reserved":false,"is_disabled":false,"rental_uris":{"android":"levelo://app?vid=93dc9ee0-e588-4af0-914f-4521b957b63b","ios":"levelo://app?vid=93dc9ee0-e588-4af0-914f-4521b957b63b"},"vehicle_type_id":"4","last_reported":1722110905,"current_range_meters":0,"station_id":"","pricing_plan_id":"cebpf4jnsgd1na2vs0mg"},{"bike_id":"c01fd4ca-1cca-46e1-8209-0dfa0540c567","system_id":"levelo_inurba_marseille","lat":43.293009,"lon":5.374584,"is_reserved":false,"is_disabled":false,"rental_uris":{"android":"levelo://app?vid=c01fd4ca-1cca-46e1-8209-0dfa0540c567","ios":"levelo://app?vid=c01fd4ca-1cca-46e1-8209-0dfa0540c567"},"vehicle_type_id":"4","last_reported":1722110905,"current_range_meters":5600,"station_id":"ce4bgi12rcd13ifvqb70","pricing_plan_id":"cebpf4jnsgd1na2vs0mg"},{"bike_id":"53b60629-2bf6-4b67-b76c-8da27b1e253d","system_id":"levelo_inurba_marseille","lat":43.30601,"lon":5.39356,"is_reserved":false,"is_disabled":false,"rental_uris":{"android":"levelo://app?vid=53b60629-2bf6-4b67-b76c-8da27b1e253d","ios":"levelo://app?vid=53b60629-2bf6-4b67-b76c-8da27b1e253d"},"vehicle_type_id":"4","last_reported":1722110905,"current_range_meters":18000,"station_id":"ce4bh0p2rcd13ifvqd80","pricing_plan_id":"cebpf4jnsgd1na2vs0mg"},{"bike_id":"e0c2e598-f3b5-41aa-b131-ea296512c757","system_id":"levelo_inurba_marseille","lat":43.29228,"lon":5.36473,"is_reserved":false,"is_disabled":false,"rental_uris":{"android":"levelo://app?vid=e0c2e598-f3b5-41aa-b131-ea296512c757","ios":"levelo://app?vid=e0c2e598-f3b5-41aa-b131-ea296512c757"},"vehicle_type_id":"4","last_reported":1722110905,"current_range_meters":0,"station_id":"","pricing_plan_id":"cebpf4jnsgd1na2vs0mg"},{"bike_id":"df326cb8-cb95-4682-864e-9ca548dd3d81","system_id":"levelo_inurba_marseille","lat":43.293009,"lon":5.374584,"is_reserved":false,"is_disabled":false,"rental_uris":{"android":"levelo://app?vid=df326cb8-cb95-4682-864e-9ca548dd3d81","ios":"levelo://app?vid=df326cb8-cb95-4682-864e-9ca548dd3d81"},"vehicle_type_id":"4","last_reported":1722110905,"current_range_meters":4400,"station_id":"ce4bgi12rcd13ifvqb70","pricing_plan_id":"cebpf4jnsgd1na2vs0mg"},{"bike_id":"d326d555-ba6a-4d91-80b0-d9f46060bd43","system_id":"levelo_inurba_marseille","lat":43.305994,"lon":5.393687,"is_reserved":false,"is_disabled":false,"rental_uris":{"android":"levelo://app?vid=d326d555-ba6a-4d91-80b0-d9f46060bd43","ios":"levelo://app?vid=d326d555-ba6a-4d91-80b0-d9f46060bd43"},"vehicle_type_id":"4","last_reported":1722110905,"current_range_meters":6400,"station_id":"ce4bh0p2rcd13ifvqd80","pricing_plan_id":"cebpf4jnsgd1na2vs0mg"},{"bike_id":"d92e77a4-8c7b-4869-bb29-50c56738a38c","system_id":"levelo_inurba_marseille","lat":43.293009,"lon":5.374584,"is_reserved":false,"is_disabled":false,"rental_uris":{"android":"levelo://app?vid=d92e77a4-8c7b-4869-bb29-50c56738a38c","ios":"levelo://app?vid=d92e77a4-8c7b-4869-bb29-50c56738a38c"},"vehicle_type_id":"4","last_reported":1722110905,"current_range_meters":4000,"station_id":"ce4bgi12rcd13ifvqb70","pricing_plan_id":"cebpf4jnsgd1na2vs0mg"},{"bike_id":"e60b6048-8824-41f0-9a54-83d0c9b71f82","system_id":"levelo_inurba_marseille","lat":43.293009,"lon":5.374584,"is_reserved":false,"is_disabled":false,"rental_uris":{"android":"levelo://app?vid=e60b6048-8824-41f0-9a54-83d0c9b71f82","ios":"levelo://app?vid=e60b6048-8824-41f0-9a54-83d0c9b71f82"},"vehicle_type_id":"4","last_reported":1722110905,"current_range_meters":27600,"station_id":"ce4bgi12rcd13ifvqb70","pricing_plan_id":"cebpf4jnsgd1na2vs0mg"},{"bike_id":"e178407a-3e5f-4452-964a-02c9e6abca2e","system_id":"levelo_inurba_marseille","lat":43.293009,"lon":5.374584,"is_reserved":false,"is_disabled":false,"rental_uris":{"android":"levelo://app?vid=e178407a-3e5f-4452-964a-02c9e6abca2e","ios":"levelo://app?vid=e178407a-3e5f-4452-964a-02c9e6abca2e"},"vehicle_type_id":"4","last_reported":1722110905,"current_range_meters":1600,"station_id":"ce4bgi12rcd13ifvqb70","pricing_plan_id":"cebpf4jnsgd1na2vs0mg"},{"bike_id":"81122791-b878-4de8-a555-dd7a468d8635","system_id":"levelo_inurba_marseille","lat":43.293009,"lon":5.374584,"is_reserved":false,"is_disabled":false,"rental_uris":{"android":"levelo://app?vid=81122791-b878-4de8-a555-dd7a468d8635","ios":"levelo://app?vid=81122791-b878-4de8-a555-dd7a468d8635"},"vehicle_type_id":"4","last_reported":1722110905,"current_range_meters":0,"station_id":"ce4bgi12rcd13ifvqb70","pricing_plan_id":"cebpf4jnsgd1na2vs0mg"},{"bike_id":"6fb5aca8-d42b-4856-9156-5ead902f7605","system_id":"levelo_inurba_marseille","lat":43.2936,"lon":5.37835,"is_reserved":false,"is_disabled":false,"rental_uris":{"android":"levelo://app?vid=6fb5aca8-d42b-4856-9156-5ead902f7605","ios":"levelo://app?vid=6fb5aca8-d42b-4856-9156-5ead902f7605"},"vehicle_type_id":"4","last_reported":1722110905,"current_range_meters":11600,"station_id":"ce4bgjh2rcd13ifvqbf0","pricing_plan_id":"cebpf4jnsgd1na2vs0mg"},{"bike_id":"3c3e14b8-32bc-41a6-8289-7970259dfb56","system_id":"levelo_inurba_marseille","lat":43.2936,"lon":5.37835,"is_reserved":false,"is_disabled":false,"rental_uris":{"android":"levelo://app?vid=3c3e14b8-32bc-41a6-8289-7970259dfb56","ios":"levelo://app?vid=3c3e14b8-32bc-41a6-8289-7970259dfb56"},"vehicle_type_id":"4","last_reported":1722110905,"current_range_meters":2400,"station_id":"ce4bgjh2rcd13ifvqbf0","pricing_plan_id":"cebpf4jnsgd1na2vs0mg"},{"bike_id":"ced6ad28-cffe-48f3-83d3-44b05f399f3a","system_id":"levelo_inurba_marseille","lat":43.29372,"lon":5.37833,"is_reserved":false,"is_disabled":false,"rental_uris":{"android":"levelo://app?vid=ced6ad28-cffe-48f3-83d3-44b05f399f3a","ios":"levelo://app?vid=ced6ad28-cffe-48f3-83d3-44b05f399f3a"},"vehicle_type_id":"4","last_reported":1722110905,"current_range_meters":0,"station_id":"ce4bgjh2rcd13ifvqbf0","pricing_plan_id":"cebpf4jnsgd1na2vs0mg"},{"bike_id":"a99271b6-ab5e-4f3f-97d1-24385e36189d","system_id":"levelo_inurba_marseille","lat":43.2936,"lon":5.37835,"is_reserved":false,"is_disabled":false,"rental_uris":{"android":"levelo://app?vid=a99271b6-ab5e-4f3f-97d1-24385e36189d","ios":"levelo://app?vid=a99271b6-ab5e-4f3f-97d1-24385e36189d"},"vehicle_type_id":"4","last_reported":1722110905,"current_range_meters":19600,"station_id":"ce4bgjh2rcd13ifvqbf0","pricing_plan_id":"cebpf4jnsgd1na2vs0mg"},{"bike_id":"2e630dcb-f957-4f6b-be04-7e80e275e51f","system_id":"levelo_inurba_marseille","lat":43.292311,"lon":5.360731,"is_reserved":false,"is_disabled":false,"rental_uris":{"android":"levelo://app?vid=2e630dcb-f957-4f6b-be04-7e80e275e51f","ios":"levelo://app?vid=2e630dcb-f957-4f6b-be04-7e80e275e51f"},"vehicle_type_id":"4","last_reported":1722110905,"current_range_meters":0,"station_id":"ce4bhbh2rcd13ifvqeqg","pricing_plan_id":"cebpf4jnsgd1na2vs0mg"},{"bike_id":"f8628416-bb8a-445b-b3c9-9bba520b8b54","system_id":"levelo_inurba_marseille","lat":43.30085,"lon":5.390856,"is_reserved":false,"is_disabled":false,"rental_uris":{"android":"levelo://app?vid=f8628416-bb8a-445b-b3c9-9bba520b8b54","ios":"levelo://app?vid=f8628416-bb8a-445b-b3c9-9bba520b8b54"},"vehicle_type_id":"4","last_reported":1722110905,"current_range_meters":6800,"station_id":"ce4bh192rcd13ifvqdb0","pricing_plan_id":"cebpf4jnsgd1na2vs0mg"},{"bike_id":"7b2239c6-a92c-4e17-a8f6-ca8a6137b5b4","system_id":"levelo_inurba_marseille","lat":43.30085,"lon":5.390856,"is_reserved":false,"is_disabled":false,"rental_uris":{"android":"levelo://app?vid=7b2239c6-a92c-4e17-a8f6-ca8a6137b5b4","ios":"levelo://app?vid=7b2239c6-a92c-4e17-a8f6-ca8a6137b5b4"},"vehicle_type_id":"4","last_reported":1722110905,"current_range_meters":4800,"station_id":"ce4bh192rcd13ifvqdb0","pricing_plan_id":"cebpf4jnsgd1na2vs0mg"},{"bike_id":"3b1f3440-4a86-44fb-a8bf-e67577db3bc2","system_id":"levelo_inurba_marseille","lat":43.30085,"lon":5.390856,"is_reserved":false,"is_disabled":false,"rental_uris":{"android":"levelo://app?vid=3b1f3440-4a86-44fb-a8bf-e67577db3bc2","ios":"levelo://app?vid=3b1f3440-4a86-44fb-a8bf-e67577db3bc2"},"vehicle_type_id":"4","last_reported":1722110905,"current_range_meters":17200,"station_id":"ce4bh192rcd13ifvqdb0","pricing_plan_id":"cebpf4jnsgd1na2vs0mg"},{"bike_id":"fdc88d72-4731-47c0-897e-57910a7f171e","system_id":"levelo_inurba_marseille","lat":43.29529,"lon":5.385581,"is_reserved":false,"is_disabled":false,"rental_uris":{"android":"levelo://app?vid=fdc88d72-4731-47c0-897e-57910a7f171e","ios":"levelo://app?vid=fdc88d72-4731-47c0-897e-57910a7f171e"},"vehicle_type_id":"4","last_reported":1722110905,"current_range_meters":800,"station_id":"ce4bgih2rcd13ifvqba0","pricing_plan_id":"cebpf4jnsgd1na2vs0mg"},{"bike_id":"14d2bcfa-8cba-4bcd-8682-0ec2a2a43696","system_id":"levelo_inurba_marseille","lat":43.298764,"lon":5.388973,"is_reserved":false,"is_disabled":false,"rental_uris":{"android":"levelo://app?vid=14d2bcfa-8cba-4bcd-8682-0ec2a2a43696","ios":"levelo://app?vid=14d2bcfa-8cba-4bcd-8682-0ec2a2a43696"},"vehicle_type_id":"4","last_reported":1722110905,"current_range_meters":30000,"station_id":"ce4bh392rcd13ifvqdl0","pricing_plan_id":"cebpf4jnsgd1na2vs0mg"},{"bike_id":"c953aa84-e3c1-473e-8a2d-57d9ba080bd2","system_id":"levelo_inurba_marseille","lat":43.298764,"lon":5.388973,"is_reserved":false,"is_disabled":false,"rental_uris":{"android":"levelo://app?vid=c953aa84-e3c1-473e-8a2d-57d9ba080bd2","ios":"levelo://app?vid=c953aa84-e3c1-473e-8a2d-57d9ba080bd2"},"vehicle_type_id":"4","last_reported":1722110905,"current_range_meters":25200,"station_id":"ce4bh392rcd13ifvqdl0","pricing_plan_id":"cebpf4jnsgd1na2vs0mg"},{"bike_id":"bed1782a-78a3-4882-b015-d7f49950bacc","system_id":"levelo_inurba_marseille","lat":43.298764,"lon":5.388973,"is_reserved":false,"is_disabled":false,"rental_uris":{"android":"levelo://app?vid=bed1782a-78a3-4882-b015-d7f49950bacc","ios":"levelo://app?vid=bed1782a-78a3-4882-b015-d7f49950bacc"},"vehicle_type_id":"4","last_reported":1722110905,"current_range_meters":14800,"station_id":"ce4bh392rcd13ifvqdl0","pricing_plan_id":"cebpf4jnsgd1na2vs0mg"},