{"last_updated":1736975237,"ttl":60,"version":"2.2","data":{"bikes":[{"bike_id":"86945d6f-cb0a-4bce-9a7a-6417e51fc425","system_id":"levelo_inurba_marseille","lat":43.30329,"lon":5.40431,"is_reserved":false,"is_disabled":false,"rental_uris":{"android":"levelo://app?vid=86945d6f-cb0a-4bce-9a7a-6417e51fc425","ios":"levelo://app?vid=86945d6f-cb0a-4bce-9a7a-6417e51fc425"},"vehicle_type_id":"4","last_reported":1736975237,"current_range_meters":39200,"station_id":"ce4bh012rcd13ifvqd10","pricing_plan_id":"cebpf4jnsgd1na2vs0mg"},{"bike_id":"8950994e-141b-4c16-ae82-ef1e6827f7d4","system_id":"levelo_inurba_marseille","lat":43.2781,"lon":5.4072,"is_reserved":false,"is_disabled":false,"rental_uris":{"android":"levelo://app?vid=8950994e-141b-4c16-ae82-ef1e6827f7d4","ios":"levelo://app?vid=8950994e-141b-4c16-ae82-ef1e6827f7d4"},"vehicle_type_id":"4","last_reported":1736975237,"current_range_meters":38800,"station_id":"ce4bhnh2rcd13ifvqgtg","pricing_plan_id":"cebpf4jnsgd1na2vs0mg"},{"bike_id":"bb2bff4f-1a83-4e7f-9557-c5605347308e","system_id":"levelo_inurba_marseille","lat":43.31756,"lon":5.39016,"is_reserved":false,"is_disabled":false,"rental_uris":{"android":"levelo://app?vid=bb2bff4f-1a83-4e7f-9557-c5605347308e","ios":"levelo://app?vid=bb2bff4f-1a83-4e7f-9557-c5605347308e"},"vehicle_type_id":"4","last_reported":1736975237,"current_range_meters":24800,"station_id":"ce4bhqp2rcd13ifvqhng","pricing_plan_id":"cebpf4jnsgd1na2vs0mg"},{"bike_id":"fb6e86aa-86ad-41f4-8894-d2b77336a888","system_id":"levelo_inurba_marseille","lat":43.29416,"lon":5.38623,"is_reserved":false,"is_disabled":false,"rental_uris":{"android":"levelo://app?vid=fb6e86aa-86ad-41f4-8894-d2b77336a888","ios":"levelo://app?vid=fb6e86aa-86ad-41f4-8894-d2b77336a888"},"vehicle_type_id":"4","last_reported":1736975237,"current_range_meters":38000,"station_id":"ce4bh2h2rcd13ifvqdh0","pricing_plan_id":"cebpf4jnsgd1na2vs0mg"},{"bike_id":"c4b529d8-64e2-4efa-b320-5de2e667a18d","system_id":"levelo_inurba_marseille","lat":43.30097,"lon":5.39069,"is_reserved":false,"is_disabled":false,"rental_uris":{"android":"levelo://app?vid=c4b529d8-64e2-4efa-b320-5de2e667a18d","ios":"levelo://app?vid=c4b529d8-64e2-4efa-b320-5de2e667a18d"},"vehicle_type_id":"4","last_reported":1736975237,"current_range_meters":6800,"station_id":"ce4bh192rcd13ifvqdb0","pricing_plan_id":"cebpf4jnsgd1na2vs0mg"},{"bike_id":"f3ad909e-5298-4e1c-b615-b28684ff798b","system_id":"levelo_inurba_marseille","lat":43.27978,"lon":5.41649,"is_reserved":false,"is_disabled":false,"rental_uris":{"android":"levelo://app?vid=f3ad909e-5298-4e1c-b615-b28684ff798b","ios":"levelo://app?vid=f3ad909e-5298-4e1c-b615-b28684ff798b"},"vehicle_type_id":"4","last_reported":1736975237,"current_range_meters":39200,"station_id":"ce4bho12rcd13ifvqh1g","pricing_plan_id":"cebpf4jnsgd1na2vs0mg"},{"bike_id":"6d2a11a4-1d4d-4f20-ad3c-b47d5eaff74a","system_id":"levelo_inurba_marseille","lat":43.28345,"lon":5.38101,"is_reserved":false,"is_disabled":false,"rental_uris":{"android":"levelo://app?vid=6d2a11a4-1d4d-4f20-ad3c-b47d5eaff74a","ios":"levelo://app?vid=6d2a11a4-1d4d-4f20-ad3c-b47d5eaff74a"},"vehicle_type_id":"4","last_reported":1736975237,"current_range_meters":38800,"station_id":"ce4bh412rcd13ifvqdr0","pricing_plan_id":"cebpf4jnsgd1na2vs0mg"},{"bike_id":"6d540c0f-98a4-4311-9d97-d8f4a0c4b88a","system_id":"levelo_inurba_marseille","lat":43.23183,"lon":5.39985,"is_reserved":false,"is_disabled":false,"rental_uris":{"android":"levelo://app?vid=6d540c0f-98a4-4311-9d97-d8f4a0c4b88a","ios":"levelo://app?vid=6d540c0f-98a4-4311-9d97-d8f4a0c4b88a"},"vehicle_type_id":"4","last_reported":1736975237,"current_range_meters":16400,"station_id":"ce4bhn12rcd13ifvqgqg","pricing_plan_id":"cebpf4jnsgd1na2vs0mg"},{"bike_id":"b80161e1-2168-4ade-a2d2-f1956561ac66","system_id":"levelo_inurba_marseille","lat":43.25861,"lon":5.39893,"is_reserved":false,"is_disabled":false,"rental_uris":{"android":"levelo://app?vid=b80161e1-2168-4ade-a2d2-f1956561ac66","ios":"levelo://app?vid=b80161e1-2168-4ade-a2d2-f1956561ac66"},"vehicle_type_id":"4","last_reported":1736975237,"current_range_meters":36400,"station_id":"ce4bhl92rcd13ifvqghg","pricing_plan_id":"cebpf4jnsgd1na2vs0mg"},{"bike_id":"27c168c2-27e1-4b1b-8c9a-5ee6d48c534a","system_id":"levelo_inurba_marseille","lat":43.30134,"lon":5.38785,"is_reserved":false,"is_disabled":false,"rental_uris":{"android":"levelo://app?vid=27c168c2-27e1-4b1b-8c9a-5ee6d48c534a","ios":"levelo://app?vid=27c168c2-27e1-4b1b-8c9a-5ee6d48c534a"},"vehicle_type_id":"4","last_reported":1736975237,"current_range_meters":33200,"station_id":"ce4bghh2rcd13ifvqb60","pricing_plan_id":"cebpf4jnsgd1na2vs0mg"},{"bike_id":"4fa358ca-b741-467a-a03f-b8033021b471","system_id":"levelo_inurba_marseille","lat":43.337571,"lon":5.374567,"is_reserved":false,"is_disabled":false,"rental_uris":{"android":"levelo://app?vid=4fa358ca-b741-467a-a03f-b8033021b471","ios":"levelo://app?vid=4fa358ca-b741-467a-a03f-b8033021b471"},"vehicle_type_id":"4","last_reported":1736975237,"current_range_meters":35600,"station_id":"","pricing_plan_id":"cebpf4jnsgd1na2vs0mg"},{"bike_id":"5db5f749-55d7-4666-b989-2cc4222957b1","system_id":"levelo_inurba_marseille","lat":43.28437,"lon":5.39237,"is_reserved":false,"is_disabled":true,"rental_uris":{"android":"levelo://app?vid=5db5f749-55d7-4666-b989-2cc4222957b1","ios":"levelo://app?vid=5db5f749-55d7-4666-b989-2cc4222957b1"},"vehicle_type_id":"4","last_reported":1736975237,"current_range_meters":22400,"station_id":"ce4bhoh2rcd13ifvqh5g","pricing_plan_id":"cebpf4jnsgd1na2vs0mg"},{"bike_id":"2b2cb29b-656b-412b-b107-6e49fdf15518","system_id":"levelo_inurba_marseille","lat":43.27492,"lon":5.42461,"is_reserved":false,"is_disabled":true,"rental_uris":{"android":"levelo://app?vid=2b2cb29b-656b-412b-b107-6e49fdf15518","ios":"levelo://app?vid=2b2cb29b-656b-412b-b107-6e49fdf15518"},"vehicle_type_id":"4","last_reported":1736975237,"current_range_meters":0,"station_id":"ce4bhn92rcd13ifvqgrg","pricing_plan_id":"cebpf4jnsgd1na2vs0mg"},{"bike_id":"71e691e4-0d90-4b4b-9481-7b6897ea1525","system_id":"levelo_inurba_marseille","lat":43.29536,"lon":5.38538,"is_reserved":false,"is_disabled":false,"rental_uris":{"android":"levelo://app?vid=71e691e4-0d90-4b4b-9481-7b6897ea1525","ios":"levelo://app?vid=71e691e4-0d90-4b4b-9481-7b6897ea1525"},"vehicle_type_id":"4","last_reported":1736975237,"current_range_meters":26000,"station_id":"ce4bgih2rcd13ifvqba0","pricing_plan_id":"cebpf4jnsgd1na2vs0mg"},{"bike_id":"e7525fb8-d58c-4068-a38f-e353cc185a02","system_id":"levelo_inurba_marseille","lat":43.30929,"lon":5.40149,"is_reserved":false,"is_disabled":false,"rental_uris":{"android":"levelo://app?vid=e7525fb8-d58c-4068-a38f-e353cc185a02","ios":"levelo://app?vid=e7525fb8-d58c-4068-a38f-e353cc185a02"},"vehicle_type_id":"4","last_reported":1736975237,"current_range_meters":28400,"station_id":"ce4bgvp2rcd13ifvqct0","pricing_plan_id":"cebpf4jnsgd1na2vs0mg"},{"bike_id":"e815a81b-bac9-44d8-927b-cad09d4c7319","system_id":"levelo_inurba_marseille","lat":43.27822,"lon":5.40711,"is_reserved":false,"is_disabled":false,"rental_uris":{"android":"levelo://app?vid=e815a81b-bac9-44d8-927b-cad09d4c7319","ios":"levelo://app?vid=e815a81b-bac9-44d8-927b-cad09d4c7319"},"vehicle_type_id":"4","last_reported":1736975237,"current_range_meters":39200,"station_id":"ce4bhnh2rcd13ifvqgtg","pricing_plan_id":"cebpf4jnsgd1na2vs0mg"},{"bike_id":"ccbd796f-0853-4438-83a6-7ee13405bafc","system_id":"levelo_inurba_marseille","lat":43.27836,"lon":5.39186,"is_reserved":false,"is_disabled":false,"rental_uris":{"android":"levelo://app?vid=ccbd796f-0853-4438-83a6-7ee13405bafc","ios":"levelo://app?vid=ccbd796f-0853-4438-83a6-7ee13405bafc"},"vehicle_type_id":"4","last_reported":1736975237,"current_range_meters":38800,"station_id":"ce4bhjp2rcd13ifvqga0","pricing_plan_id":"cebpf4jnsgd1na2vs0mg"},{"bike_id":"15d6f005-74a2-4445-83ad-c386942ef0cb","system_id":"levelo_inurba_marseille","lat":43.29726,"lon":5.37686,"is_reserved":false,"is_disabled":false,"rental_uris":{"android":"levelo://app?vid=15d6f005-74a2-4445-83ad-c386942ef0cb","ios":"levelo://app?vid=15d6f005-74a2-4445-83ad-c386942ef0cb"},"vehicle_type_id":"4","last_reported":1736975237,"current_range_meters":20800,"station_id":"ce4bgkh2rcd13ifvqbl0","pricing_plan_id":"cebpf4jnsgd1na2vs0mg"},{"bike_id":"7164c78a-36d6-4e86-abd2-0a6acd059045","system_id":"levelo_inurba_marseille","lat":43.29564,"lon":5.37517,"is_reserved":false,"is_disabled":false,"rental_uris":{"android":"levelo://app?vid=7164c78a-36d6-4e86-abd2-0a6acd059045","ios":"levelo://app?vid=7164c78a-36d6-4e86-abd2-0a6acd059045"},"vehicle_type_id":"4","last_reported":1736975237,"current_range_meters":38800,"station_id":"ce4bgkp2rcd13ifvqbmg","pricing_plan_id":"cebpf4jnsgd1na2vs0mg"},{"bike_id":"7af1e4c4-5bfc-40ba-beaf-5f6d7fa2acdd","system_id":"levelo_inurba_marseille","lat":43.29304,"lon":5.37166,"is_reserved":false,"is_disabled":false,"rental_uris":{"android":"levelo://app?vid=7af1e4c4-5bfc-40ba-beaf-5f6d7fa2acdd","ios":"levelo://app?vid=7af1e4c4-5bfc-40ba-beaf-5f6d7fa2acdd"},"vehicle_type_id":"4","last_reported":1736975237,"current_range_meters":32400,"station_id":"ce4bgh92rcd13ifvqb40","pricing_plan_id":"cebpf4jnsgd1na2vs0mg"},{"bike_id":"1196e9f5-0570-4505-b30c-37b2b9c61113","system_id":"levelo_inurba_marseille","lat":43.25499,"lon":5.37649,"is_reserved":false,"is_disabled":false,"rental_uris":{"android":"levelo://app?vid=1196e9f5-0570-4505-b30c-37b2b9c61113","ios":"levelo://app?vid=1196e9f5-0570-4505-b30c-37b2b9c61113"},"vehicle_type_id":"4","last_reported":1736975237,"current_range_meters":38000,"station_id":"ce4bhh12rcd13ifvqff0","pricing_plan_id":"cebpf4jnsgd1na2vs0mg"},{"bike_id":"05dcce0a-1f30-4267-9930-c165e5e4ea9d","system_id":"levelo_inurba_marseille","lat":43.24081,"lon":5.37752,"is_reserved":false,"is_disabled":false,"rental_uris":{"android":"levelo://app?vid=05dcce0a-1f30-4267-9930-c165e5e4ea9d","ios":"levelo://app?vid=05dcce0a-1f30-4267-9930-c165e5e4ea9d"},"vehicle_type_id":"4","last_reported":1736975237,"current_range_meters":28800,"station_id":"ce4bhnp2rcd13ifvqgvg","pricing_plan_id":"cebpf4jnsgd1na2vs0mg"},{"bike_id":"0b8cc1da-c0cb-47d1-a0f0-027b07b55b96","system_id":"levelo_inurba_marseille","lat":43.29801,"lon":5.39342,"is_reserved":false,"is_disabled":false,"rental_uris":{"android":"levelo://app?vid=0b8cc1da-c0cb-47d1-a0f0-027b07b55b96","ios":"levelo://app?vid=0b8cc1da-c0cb-47d1-a0f0-027b07b55b96"},"vehicle_type_id":"4","last_reported":1736975237,"current_range_meters":37600,"station_id":"chh1huq6cuj3fo74tm60","pricing_plan_id":"cebpf4jnsgd1na2vs0mg"},{"bike_id":"0e842b39-329d-48e2-b781-7e3babc96cf4","system_id":"levelo_inurba_marseille","lat":43.22939,"lon":5.35369,"is_reserved":false,"is_disabled":false,"rental_uris":{"android":"levelo://app?vid=0e842b39-329d-48e2-b781-7e3babc96cf4","ios":"levelo://app?vid=0e842b39-329d-48e2-b781-7e3babc96cf4"},"vehicle_type_id":"4","last_reported":1736975237,"current_range_meters":19600,"station_id":"cpo3532slgdg3j2ikp40","pricing_plan_id":"cebpf4jnsgd1na2vs0mg"},{"bike_id":"66d86647-f3d9-43c2-8067-2511dcc8853d","system_id":"levelo_inurba_marseille","lat":43.269439,"lon":5.402517,"is_reserved":false,"is_disabled":true,"rental_uris":{"android":"levelo://app?vid=66d86647-f3d9-43c2-8067-2511dcc8853d","ios":"levelo://app?vid=66d86647-f3d9-43c2-8067-2511dcc8853d"},"vehicle_type_id":"4","last_reported":1736975237,"current_range_meters":2800,"station_id":"cjm6bp8fraef2m0cb0m0","pricing_plan_id":"cebpf4jnsgd1na2vs0mg"},{"bike_id":"04bfd732-e3f2-4dbb-a7c9-bb99355282fc","system_id":"levelo_inurba_marseille","lat":43.31721,"lon":5.42396,"is_reserved":false,"is_disabled":false,"rental_uris":{"android":"levelo://app?vid=04bfd732-e3f2-4dbb-a7c9-bb99355282fc","ios":"levelo://app?vid=04bfd732-e3f2-4dbb-a7c9-bb99355282fc"},"vehicle_type_id":"4","last_reported":1736975237,"current_range_meters":38400,"station_id":"ce4bhp92rcd13ifvqhbg","pricing_plan_id":"cebpf4jnsgd1na2vs0mg"},{"bike_id":"d4d7adfe-943d-4585-86b3-b9cf81c5a37b","system_id":"levelo_inurba_marseille","lat":43.26681,"lon":5.38263,"is_reserved":false,"is_disabled":false,"rental_uris":{"android":"levelo://app?vid=d4d7adfe-943d-4585-86b3-b9cf81c5a37b","ios":"levelo://app?vid=d4d7adfe-943d-4585-86b3-b9cf81c5a37b"},"vehicle_type_id":"4","last_reported":1736975237,"current_range_meters":20000,"station_id":"ce4bhg92rcd13ifvqf90","pricing_plan_id":"cebpf4jnsgd1na2vs0mg"},{"bike_id":"01c1b6ee-96ad-465c-a795-3422aa19fed9","system_id":"levelo_inurba_marseille","lat":43.29262,"lon":5.38442,"is_reserved":false,"is_disabled":false,"rental_uris":{"android":"levelo://app?vid=01c1b6ee-96ad-465c-a795-3422aa19fed9","ios":"levelo://app?vid=01c1b6ee-96ad-465c-a795-3422aa19fed9"},"vehicle_type_id":"4","last_reported":1736975237,"current_range_meters":32400,"station_id":"ce4bh692rcd13ifvqea0","pricing_plan_id":"cebpf4jnsgd1na2vs0mg"},{"bike_id":"8b6182c3-3c5e-4a05-80f5-f25cf3a13217","system_id":"levelo_inurba_marseille","lat":43.24561,"lon":5.39525,"is_reserved":false,"is_disabled":false,"rental_uris":{"android":"levelo://app?vid=8b6182c3-3c5e-4a05-80f5-f25cf3a13217","ios":"levelo://app?vid=8b6182c3-3c5e-4a05-80f5-f25cf3a13217"},"vehicle_type_id":"4","last_reported":1736975237,"current_range_meters":26800,"station_id":"ce4bhlp2rcd13ifvqgjg","pricing_plan_id":"cebpf4jnsgd1na2vs0mg"},{"bike_id":"85fb2bf8-5b4b-4be2-81d5-99a2452f7f4a","system_id":"levelo_inurba_marseille","lat":43.2587,"lon":5.39904,"is_reserved":false,"is_disabled":false,"rental_uris":{"android":"levelo://app?vid=85fb2bf8-5b4b-4be2-81d5-99a2452f7f4a","ios":"levelo://app?vid=85fb2bf8-5b4b-4be2-81d5-99a2452f7f4a"},"vehicle_type_id":"4","last_reported":1736975237,"current_range_meters":38800,"station_id":"ce4bhl92rcd13ifvqghg","pricing_plan_id":"cebpf4jnsgd1na2vs0mg"},{"bike_id":"21991245-c0ed-460a-96c0-efd1586188d9","system_id":"levelo_inurba_marseille","lat":43.26032,"lon":5.37531,"is_reserved":false,"is_disabled":false,"rental_uris":{"android":"levelo://app?vid=21991245-c0ed-460a-96c0-efd1586188d9","ios":"levelo://app?vid=21991245-c0ed-460a-96c0-efd1586188d9"},"vehicle_type_id":"4","last_reported":1736975237,"current_range_meters":37600,"station_id":"ce4bhgh2rcd13ifvqfa0","pricing_plan_id":"cebpf4jnsgd1na2vs0mg"},{"bike_id":"a113a636-9709-4346-9337-9ff9f13c7d24","system_id":"levelo_inurba_marseille","lat":43.26544,"lon":5.3726,"is_reserved":false,"is_disabled":false,"rental_uris":{"android":"levelo://app?vid=a113a636-9709-4346-9337-9ff9f13c7d24","ios":"levelo://app?vid=a113a636-9709-4346-9337-9ff9f13c7d24"},"vehicle_type_id":"4","last_reported":1736975237,"current_range_meters":17200,"station_id":"ce4bhg12rcd13ifvqf70","pricing_plan_id":"cebpf4jnsgd1na2vs0mg"},{"bike_id":"b96abaf4-0fa5-4720-8999-93f7ce59d4e6","system_id":"levelo_inurba_marseille","lat":43.27064,"lon":5.42266,"is_reserved":false,"is_disabled":false,"rental_uris":{"android":"levelo://app?vid=b96abaf4-0fa5-4720-8999-93f7ce59d4e6","ios":"levelo://app?vid=b96abaf4-0fa5-4720-8999-93f7ce59d4e6"},"vehicle_type_id":"4","last_reported":1736975237,"current_range_meters":36400,"station_id":"ce4bhk92rcd13ifvqgb0","pricing_plan_id":"cebpf4jnsgd1na2vs0mg"},{"bike_id":"bf640603-83b1-45ec-97b9-6f63203dda4b","system_id":"levelo_inurba_marseille","lat":43.28152,"lon":5.42645,"is_reserved":false,"is_disabled":false,"rental_uris":{"android":"levelo://app?vid=bf640603-83b1-45ec-97b9-6f63203dda4b","ios":"levelo://app?vid=bf640603-83b1-45ec-97b9-6f63203dda4b"},"vehicle_type_id":"4","last_reported":1736975237,"current_range_meters":24800,"station_id":"ce4bhnh2rcd13ifvqgug","pricing_plan_id":"cebpf4jnsgd1na2vs0mg"},{"bike_id":"43fd6972-8b77-49c4-9232-69d397e2e1ec","system_id":"levelo_inurba_marseille","lat":43.2407,"lon":5.37734,"is_reserved":false,"is_disabled":false,"rental_uris":{"android":"levelo://app?vid=43fd6972-8b77-49c4-9232-69d397e2e1ec","ios":"levelo://app?vid=43fd6972-8b77-49c4-9232-69d397e2e1ec"},"vehicle_type_id":"4","last_reported":1736975237,"current_range_meters":10800,"station_id":"ce4bhnp2rcd13ifvqgvg","pricing_plan_id":"cebpf4jnsgd1na2vs0mg"},{"bike_id":"abd70145-a4d5-456b-aff2-316f688b7c3d","system_id":"levelo_inurba_marseille","lat":43.29881,"lon":5.39751,"is_reserved":false,"is_disabled":false,"rental_uris":{"android":"levelo://app?vid=abd70145-a4d5-456b-aff2-316f688b7c3d","ios":"levelo://app?vid=abd70145-a4d5-456b-aff2-316f688b7c3d"},"vehicle_type_id":"4","last_reported":1736975237,"current_range_meters":29600,"station_id":"ce4bh0h2rcd13ifvqd50","pricing_plan_id":"cebpf4jnsgd1na2vs0mg"},{"bike_id":"ef51811a-779b-49b3-a776-f428a3240d11","system_id":"levelo_inurba_marseille","lat":43.2929,"lon":5.40132,"is_reserved":false,"is_disabled":false,"rental_uris":{"android":"levelo://app?vid=ef51811a-779b-49b3-a776-f428a3240d11","ios":"levelo://app?vid=ef51811a-779b-49b3-a776-f428a3240d11"},"vehicle_type_id":"4","last_reported":1736975237,"current_range_meters":3200,"station_id":"ce4bh312rcd13ifvqdk0","pricing_plan_id":"cebpf4jnsgd1na2vs0mg"},{"bike_id":"73bbd733-8668-482c-b82d-a3e1fe3cf3e3","system_id":"levelo_inurba_marseille","lat":43.28725,"lon":5.36085,"is_reserved":false,"is_disabled":false,"rental_uris":{"android":"levelo://app?vid=73bbd733-8668-482c-b82d-a3e1fe3cf3e3","ios":"levelo://app?vid=73bbd733-8668-482c-b82d-a3e1fe3cf3e3"},"vehicle_type_id":"4","last_reported":1736975237,"current_range_meters":28000,"station_id":"cki0cbj6b192h4jlfktg","pricing_plan_id":"cebpf4jnsgd1na2vs0mg"},{"bike_id":"f35e1588-67ac-4139-a3c7-0d0ef1dd861e","system_id":"levelo_inurba_marseille","lat":43.31168,"lon":5.38697,"is_reserved":false,"is_disabled":false,"rental_uris":{"android":"levelo://app?vid=f35e1588-67ac-4139-a3c7-0d0ef1dd861e","ios":"levelo://app?vid=f35e1588-67ac-4139-a3c7-0d0ef1dd861e"},"vehicle_type_id":"4","last_reported":1736975237,"current_range_meters":38800,"station_id":"ce4bgv12rcd13ifvqcp0","pricing_plan_id":"cebpf4jnsgd1na2vs0mg"},{"bike_id":"c8e997c0-8580-4d0f-8d9f-0766596381e1","system_id":"levelo_inurba_marseille","lat":43.33918,"lon":5.37562,"is_reserved":false,"is_disabled":true,"rental_uris":{"android":"levelo://app?vid=c8e997c0-8580-4d0f-8d9f-0766596381e1","ios":"levelo://app?vid=c8e997c0-8580-4d0f-8d9f-0766596381e1"},"vehicle_type_id":"4","last_reported":1736975237,"current_range_meters":0,"station_id":"","pricing_plan_id":"cebpf4jnsgd1na2vs0mg"},{"bike_id":"b21afbc7-90e9-40ab-93bc-1df3f0f00f63","system_id":"levelo_inurba_marseille","lat":43.306477,"lon":5.369553,"is_reserved":false,"is_disabled":false,"rental_uris":{"android":"levelo://app?vid=b21afbc7-90e9-40ab-93bc-1df3f0f00f63","ios":"levelo://app?vid=b21afbc7-90e9-40ab-93bc-1df3f0f00f63"},"vehicle_type_id":"4","last_reported":1736975237,"current_range_meters":38800,"station_id":"ce4bgqh2rcd13ifvqc4g","pricing_plan_id":"cebpf4jnsgd1na2vs0mg"},{"bike_id":"28d58d01-ff9a-4d04-a9a2-3f3598663adb","system_id":"levelo_inurba_marseille","lat":43.28713,"lon":5.37379,"is_reserved":false,"is_disabled":false,"rental_uris":{"android":"levelo://app?vid=28d58d01-ff9a-4d04-a9a2-3f3598663adb","ios":"levelo://app?vid=28d58d01-ff9a-4d04-a9a2-3f3598663adb"},"vehicle_type_id":"4","last_reported":1736975237,"current_range_meters":24000,"station_id":"ce4bh3p2rcd13ifvqdq0","pricing_plan_id":"cebpf4jnsgd1na2vs0mg"},{"bike_id":"d897c182-a994-41ed-8182-39285d609a0b","system_id":"levelo_inurba_marseille","lat":43.30336,"lon":5.40442,"is_reserved":false,"is_disabled":false,"rental_uris":{"android":"levelo://app?vid=d897c182-a994-41ed-8182-39285d609a0b","ios":"levelo://app?vid=d897c182-a994-41ed-8182-39285d609a0b"},"vehicle_type_id":"4","last_reported":1736975237,"current_range_meters":35600,"station_id":"ce4bh012rcd13ifvqd10","pricing_plan_id":"cebpf4jnsgd1na2vs0mg"},{"bike_id":"85a7b7fe-337d-47e7-b225-17728841ea08","system_id":"levelo_inurba_marseille","lat":43.31182,"lon":5.38699,"is_reserved":false,"is_disabled":false,"rental_uris":{"android":"levelo://app?vid=85a7b7fe-337d-47e7-b225-17728841ea08","ios":"levelo://app?vid=85a7b7fe-337d-47e7-b225-17728841ea08"},"vehicle_type_id":"4","last_reported":1736975237,"current_range_meters":12800,"station_id":"ce4bgv12rcd13ifvqcp0","pricing_plan_id":"cebpf4jnsgd1na2vs0mg"},{"bike_id":"febc64f0-6a85-4a99-8546-ef0a268b8e60","system_id":"levelo_inurba_marseille","lat":43.25501,"lon":5.3765,"is_reserved":false,"is_disabled":false,"rental_uris":{"android":"levelo://app?vid=febc64f0-6a85-4a99-8546-ef0a268b8e60","ios":"levelo://app?vid=febc64f0-6a85-4a99-8546-ef0a268b8e60"},"vehicle_type_id":"4","last_reported":1736975237,"current_range_meters":30800,"station_id":"ce4bhh12rcd13ifvqff0","pricing_plan_id":"cebpf4jnsgd1na2vs0mg"},{"bike_id":"bb90d116-cd2d-49c0-9a85-782232d09c9e","system_id":"levelo_inurba_marseille","lat":43.28929,"lon":5.36385,"is_reserved":false,"is_disabled":false,"rental_uris":{"android":"levelo://app?vid=bb90d116-cd2d-49c0-9a85-782232d09c9e","ios":"levelo://app?vid=bb90d116-cd2d-49c0-9a85-782232d09c9e"},"vehicle_type_id":"4","last_reported":1736975237,"current_range_meters":22800,"station_id":"ce4bhc92rcd13ifvqetg","pricing_plan_id":"cebpf4jnsgd1na2vs0mg"},{"bike_id":"ea7ed8ae-e588-4709-a73c-d982d378c6bd","system_id":"levelo_inurba_marseille","lat":43.26694,"lon":5.38266,"is_reserved":false,"is_disabled":false,"rental_uris":{"android":"levelo://app?vid=ea7ed8ae-e588-4709-a73c-d982d378c6bd","ios":"levelo://app?vid=ea7ed8ae-e588-4709-a73c-d982d378c6bd"},"vehicle_type_id":"4","last_reported":1736975237,"current_range_meters":36800,"station_id":"ce4bhg92rcd13ifvqf90","pricing_plan_id":"cebpf4jnsgd1na2vs0mg"},{"bike_id":"98384fdc-4e22-410d-8ac0-a95f275d2dff","system_id":"levelo_inurba_marseille","lat":43.30788,"lon":5.37652,"is_reserved":false,"is_disabled":false,"rental_uris":{"android":"levelo://app?vid=98384fdc-4e22-410d-8ac0-a95f275d2dff","ios":"levelo://app?vid=98384fdc-4e22-410d-8ac0-a95f275d2dff"},"vehicle_type_id":"4","last_reported":1736975237,"current_range_meters":24000,"station_id":"ce4bgv92rcd13ifvqcq0","pricing_plan_id":"cebpf4jnsgd1na2vs0mg"},{"bike_id":"7b693463-6b82-4e9a-aa2d-726f031e21f9","system_id":"levelo_inurba_marseille","lat":43.30813,"lon":5.43525,"is_reserved":false,"is_disabled":false,"rental_uris":{"android":"levelo://app?vid=7b693463-6b82-4e9a-aa2d-726f031e21f9","ios":"levelo://app?vid=7b693463-6b82-4e9a-aa2d-726f031e21f9"},"vehicle_type_id":"4","last_reported":1736975237,"current_range_meters":32400,"station_id":"ce4bhph2rcd13ifvqheg","pricing_plan_id":"cebpf4jnsgd1na2vs0mg"},{"bike_id":"af12d302-a01d-4bf1-a6e4-67ea67b42c73","system_id":"levelo_inurba_marseille","lat":43.28702,"lon":5.37388,"is_reserved":false,"is_disabled":false,"rental_uris":{"android":"levelo://app?vid=af12d302-a01d-4bf1-a6e4-67ea67b42c73","ios":"levelo://app?vid=af12d302-a01d-4bf1-a6e4-67ea67b42c73"},"vehicle_type_id":"4","last_reported":1736975237,"current_range_meters":20400,"station_id":"ce4bh3p2rcd13ifvqdq0","pricing_plan_id":"cebpf4jnsgd1na2vs0mg"},{"bike_id":"ee28e867-21e8-4831-b259-c94c83f948c2","system_id":"levelo_inurba_marseille","lat":43.2958,"lon":5.3674,"is_reserved":false,"is_disabled":false,"rental_uris":{"android":"levelo://app?vid=ee28e867-21e8-4831-b259-c94c83f948c2","ios":"levelo://app?vid=ee28e867-21e8-4831-b259-c94c83f948c2"},"vehicle_type_id":"4","last_reported":1736975237,"current_range_meters":30800,"station_id":"ce4bgph2rcd13ifvqc2g","pricing_plan_id":"cebpf4jnsgd1na2vs0mg"},{"bike_id":"5416b3d0-0626-4e79-9d40-c2d4d2711930","system_id":"levelo_inurba_marseille","lat":43.30328,"lon":5.404346,"is_reserved":false,"is_disabled":false,"rental_uris":{"android":"levelo://app?vid=5416b3d0-0626-4e79-9d40-c2d4d2711930","ios":"levelo://app?vid=5416b3d0-0626-4e79-9d40-c2d4d2711930"},"vehicle_type_id":"4","last_reported":1736975237,"current_range_meters":38800,"station_id":"ce4bh012rcd13ifvqd10","pricing_plan_id":"cebpf4jnsgd1na2vs0mg"},{"bike_id":"fa53afd0-c3c0-46c2-be7e-d056eb14f6b8","system_id":"levelo_inurba_marseille","lat":43.24077,"lon":5.37761,"is_reserved":false,"is_disabled":false,"rental_uris":{"android":"levelo://app?vid=fa53afd0-c3c0-46c2-be7e-d056eb14f6b8","ios":"levelo://app?vid=fa53afd0-c3c0-46c2-be7e-d056eb14f6b8"},"vehicle_type_id":"4","last_reported":1736975237,"current_range_meters":39200,"station_id":"ce4bhnp2rcd13ifvqgvg","pricing_plan_id":"cebpf4jnsgd1na2vs0mg"},{"bike_id":"b713aa20-673e-4776-ad1a-f1df82a1e4e1","system_id":"levelo_inurba_marseille","lat":43.28464,"lon":5.35881,"is_reserved":false,"is_disabled":false,"rental_uris":{"android":"levelo://app?vid=b713aa20-673e-4776-ad1a-f1df82a1e4e1","ios":"levelo://app?vid=b713aa20-673e-4776-ad1a-f1df82a1e4e1"},"vehicle_type_id":"4","last_reported":1736975237,"current_range_meters":35600,"station_id":"ce4bhah2rcd13ifvqei0","pricing_plan_id":"cebpf4jnsgd1na2vs0mg"},{"bike_id":"f90ce595-f471-4c14-b36b-3bba7cea4d17","system_id":"levelo_inurba_marseille","lat":43.28704,"lon":5.37381,"is_reserved":false,"is_disabled":false,"rental_uris":{"android":"levelo://app?vid=f90ce595-f471-4c14-b36b-3bba7cea4d17","ios":"levelo://app?vid=f90ce595-f471-4c14-b36b-3bba7cea4d17"},"vehicle_type_id":"4","last_reported":1736975237,"current_range_meters":36400,"station_id":"ce4bh3p2rcd13ifvqdq0","pricing_plan_id":"cebpf4jnsgd1na2vs0mg"},{"bike_id":"b76e98a5-262e-4e73-85d7-b2637fca444c","system_id":"levelo_inurba_marseille","lat":43.28688,"lon":5.3864,"is_reserved":false,"is_disabled":false,"rental_uris":{"android":"levelo://app?vid=b76e98a5-262e-4e73-85d7-b2637fca444c","ios":"levelo://app?vid=b76e98a5-262e-4e73-85d7-b2637fca444c"},"vehicle_type_id":"4","last_reported":1736975237,"current_range_meters":24800,"station_id":"ce4bh492rcd13ifvqdug","pricing_plan_id":"cebpf4jnsgd1na2vs0mg"},{"bike_id":"155dbf4b-d6fe-46aa-9097-9994452a5158","system_id":"levelo_inurba_marseille","lat":43.230647,"lon":5.354958,"is_reserved":false,"is_disabled":false,"rental_uris":{"android":"levelo://app?vid=155dbf4b-d6fe-46aa-9097-9994452a5158","ios":"levelo://app?vid=155dbf4b-d6fe-46aa-9097-9994452a5158"},"vehicle_type_id":"4","last_reported":1736975237,"current_range_meters":11200,"station_id":"cpo3342slgdg3j2ifvpg","pricing_plan_id":"cebpf4jnsgd1na2vs0mg"},{"bike_id":"e5dac3e9-311e-4c35-a93e-6977f4c3e4f6","system_id":"levelo_inurba_marseille","lat":43.28697,"lon":5.37378,"is_reserved":false,"is_disabled":false,"rental_uris":{"android":"levelo://app?vid=e5dac3e9-311e-4c35-a93e-6977f4c3e4f6","ios":"levelo://app?vid=e5dac3e9-311e-4c35-a93e-6977f4c3e4f6"},"vehicle_type_id":"4","last_reported":1736975237,"current_range_meters":39200,"station_id":"ce4bh3p2rcd13ifvqdq0","pricing_plan_id":"cebpf4jnsgd1na2vs0mg"},{"bike_id":"c779a577-7d6e-48f0-86c1-e9ac9265475a","system_id":"levelo_inurba_marseille","lat":43.29428,"lon":5.38636,"is_reserved":false,"is_disabled":false,"rental_uris":{"android":"levelo://app?vid=c779a577-7d6e-48f0-86c1-e9ac9265475a","ios":"levelo://app?vid=c779a577-7d6e-48f0-86c1-e9ac9265475a"},"vehicle_type_id":"4","last_reported":1736975237,"current_range_meters":38800,"station_id":"ce4bh2h2rcd13ifvqdh0","pricing_plan_id":"cebpf4jnsgd1na2vs0mg"},{"bike_id":"fea1b24d-bbfb-474a-b028-8645483cd7e6","system_id":"levelo_inurba_marseille","lat":43.337615,"lon":5.374737,"is_reserved":false,"is_disabled":false,"rental_uris":{"android":"levelo://app?vid=fea1b24d-bbfb-474a-b028-8645483cd7e6","ios":"levelo://app?vid=fea1b24d-bbfb-474a-b028-8645483cd7e6"},"vehicle_type_id":"4","last_reported":1736975237,"current_range_meters":36800,"station_id":"","pricing_plan_id":"cebpf4jnsgd1na2vs0mg"},{"bike_id":"e806f119-e608-4cb3-a323-1e84d74b6d48","system_id":"levelo_inurba_marseille","lat":43.29096,"lon":5.39997,"is_reserved":false,"is_disabled":false,"rental_uris":{"android":"levelo://app?vid=e806f119-e608-4cb3-a323-1e84d74b6d48","ios":"levelo://app?vid=e806f119-e608-4cb3-a323-1e84d74b6d48"},"vehicle_type_id":"4","last_reported":1736975237,"current_range_meters":38800,"station_id":"ce4bh392rcd13ifvqdm0","pricing_plan_id":"cebpf4jnsgd1na2vs0mg"},{"bike_id":"9a63f0cd-32ef-484a-a164-6bb057ec52f3","system_id":"levelo_inurba_marseille","lat":43.30926,"lon":5.40139,"is_reserved":false,"is_disabled":false,"rental_uris":{"android":"levelo://app?vid=9a63f0cd-32ef-484a-a164-6bb057ec52f3","ios":"levelo://app?vid=9a63f0cd-32ef-484a-a164-6bb057ec52f3"},"vehicle_type_id":"4","last_reported":1736975237,"current_range_meters":32800,"station_id":"ce4bgvp2rcd13ifvqct0","pricing_plan_id":"cebpf4jnsgd1na2vs0mg"},{"bike_id":"e979d60c-d5ee-4666-9345-5faffd5dfc17","system_id":"levelo_inurba_marseille","lat":43.30132,"lon":5.39864,"is_reserved":false,"is_disabled":false,"rental_uris":{"android":"levelo://app?vid=e979d60c-d5ee-4666-9345-5faffd5dfc17","ios":"levelo://app?vid=e979d60c-d5ee-4666-9345-5faffd5dfc17"},"vehicle_type_id":"4","last_reported":1736975237,"current_range_meters":24000,"station_id":"ce4bh0h2rcd13ifvqd40","pricing_plan_id":"cebpf4jnsgd1na2vs0mg"},{"bike_id":"ef8fd08b-5270-4847-828e-411320aba947","system_id":"levelo_inurba_marseille","lat":43.28465,"lon":5.38413,"is_reserved":false,"is_disabled":false,"rental_uris":{"android":"levelo://app?vid=ef8fd08b-5270-4847-828e-411320aba947","ios":"levelo://app?vid=ef8fd08b-5270-4847-828e-411320aba947"},"vehicle_type_id":"4","last_reported":1736975237,"current_range_meters":38000,"station_id":"ce4bh512rcd13ifvqe3g","pricing_plan_id":"cebpf4jnsgd1na2vs0mg"},{"bike_id":"e1fe12c3-1829-4f11-ac72-e281b2a37c12","system_id":"levelo_inurba_marseille","lat":43.30882,"lon":5.39645,"is_reserved":false,"is_disabled":false,"rental_uris":{"android":"levelo://app?vid=e1fe12c3-1829-4f11-ac72-e281b2a37c12","ios":"levelo://app?vid=e1fe12c3-1829-4f11-ac72-e281b2a37c12"},"vehicle_type_id":"4","last_reported":1736975237,"current_range_meters":22400,"station_id":"ce4bh012rcd13ifvqcv0","pricing_plan_id":"cebpf4jnsgd1na2vs0mg"},{"bike_id":"0de1c0c3-224c-470c-9c40-92abbb1e542e","system_id":"levelo_inurba_marseille","lat":43.27449,"lon":5.39408,"is_reserved":false,"is_disabled":true,"rental_uris":{"android":"levelo://app?vid=0de1c0c3-224c-470c-9c40-92abbb1e542e","ios":"levelo://app?vid=0de1c0c3-224c-470c-9c40-92abbb1e542e"},"vehicle_type_id":"4","last_reported":1736975237,"current_range_meters":27200,"station_id":"ce4bhdp2rcd13ifvqf20","pricing_plan_id":"cebpf4jnsgd1na2vs0mg"},{"bike_id":"c128629d-a6b0-4e56-8fb2-9acca0407eec","system_id":"levelo_inurba_marseille","lat":43.2845,"lon":5.35884,"is_reserved":false,"is_disabled":false,"rental_uris":{"android":"levelo://app?vid=c128629d-a6b0-4e56-8fb2-9acca0407eec","ios":"levelo://app?vid=c128629d-a6b0-4e56-8fb2-9acca0407eec"},"vehicle_type_id":"4","last_reported":1736975237,"current_range_meters":38800,"station_id":"ce4bhah2rcd13ifvqei0","pricing_plan_id":"cebpf4jnsgd1na2vs0mg"},{"bike_id":"45c4b311-d420-4285-be5e-8fbbcedd6483","system_id":"levelo_inurba_marseille","lat":43.28088,"lon":5.39647,"is_reserved":false,"is_disabled":false,"rental_uris":{"android":"levelo://app?vid=45c4b311-d420-4285-be5e-8fbbcedd6483","ios":"levelo://app?vid=45c4b311-d420-4285-be5e-8fbbcedd6483"},"vehicle_type_id":"4","last_reported":1736975237,"current_range_meters":38800,"station_id":"ce4bho12rcd13ifvqh2g","pricing_plan_id":"cebpf4jnsgd1na2vs0mg"},{"bike_id":"1f149e26-9d4e-4970-96ec-1b76430b914b","system_id":"levelo_inurba_marseille","lat":43.24386,"lon":5.37054,"is_reserved":false,"is_disabled":false,"rental_uris":{"android":"levelo://app?vid=1f149e26-9d4e-4970-96ec-1b76430b914b","ios":"levelo://app?vid=1f149e26-9d4e-4970-96ec-1b76430b914b"},"vehicle_type_id":"4","last_reported":1736975237,"current_range_meters":37600,"station_id":"ce4bhhh2rcd13ifvqfk0","pricing_plan_id":"cebpf4jnsgd1na2vs0mg"},{"bike_id":"da3afe3c-5cdd-453f-9551-77e8476e7381","system_id":"levelo_inurba_marseille","lat":43.29531,"lon":5.38523,"is_reserved":false,"is_disabled":true,"rental_uris":{"android":"levelo://app?vid=da3afe3c-5cdd-453f-9551-77e8476e7381","ios":"levelo://app?vid=da3afe3c-5cdd-453f-9551-77e8476e7381"},"vehicle_type_id":"4","last_reported":1736975237,"current_range_meters":38400,"station_id":"ce4bgih2rcd13ifvqba0","pricing_plan_id":"cebpf4jnsgd1na2vs0mg"},{"bike_id":"7ae55881-355c-4568-817f-c94fd19ee31d","system_id":"levelo_inurba_marseille","lat":43.28666,"lon":5.36347,"is_reserved":false,"is_disabled":false,"rental_uris":{"android":"levelo://app?vid=7ae55881-355c-4568-817f-c94fd19ee31d","ios":"levelo://app?vid=7ae55881-355c-4568-817f-c94fd19ee31d"},"vehicle_type_id":"4","last_reported":1736975237,"current_range_meters":38800,"station_id":"ce4bhah2rcd13ifvqej0","pricing_plan_id":"cebpf4jnsgd1na2vs0mg"},{"bike_id":"e5ae2f7c-bcf7-4e90-8647-01cc30d26abe","system_id":"levelo_inurba_marseille","lat":43.28693,"lon":5.39985,"is_reserved":false,"is_disabled":false,"rental_uris":{"android":"levelo://app?vid=e5ae2f7c-bcf7-4e90-8647-01cc30d26abe","ios":"levelo://app?vid=e5ae2f7c-bcf7-4e90-8647-01cc30d26abe"},"vehicle_type_id":"4","last_reported":1736975237,"current_range_meters":39200,"station_id":"ce4bho92rcd13ifvqh3g","pricing_plan_id":"cebpf4jnsgd1na2vs0mg"},{"bike_id":"e052f47d-c314-4142-a490-846c18d74eff","system_id":"levelo_inurba_marseille","lat":43.28707,"lon":5.37943,"is_reserved":false,"is_disabled":true,"rental_uris":{"android":"levelo://app?vid=e052f47d-c314-4142-a490-846c18d74eff","ios":"levelo://app?vid=e052f47d-c314-4142-a490-846c18d74eff"},"vehicle_type_id":"4","last_reported":1736975237,"current_range_meters":29600,"station_id":"ce4bh9p2rcd13ifvqec0","pricing_plan_id":"cebpf4jnsgd1na2vs0mg"},{"bike_id":"63cc8642-685b-489d-905f-b1e9c7c25773","system_id":"levelo_inurba_marseille","lat":43.28029,"lon":5.36941,"is_reserved":false,"is_disabled":false,"rental_uris":{"android":"levelo://app?vid=63cc8642-685b-489d-905f-b1e9c7c25773","ios":"levelo://app?vid=63cc8642-685b-489d-905f-b1e9c7c25773"},"vehicle_type_id":"4","last_reported":1736975237,"current_range_meters":14000,"station_id":"ce4bha12rcd13ifvqef0","pricing_plan_id":"cebpf4jnsgd1na2vs0mg"},{"bike_id":"b85c581f-730e-4cc8-a0fe-b3c19f390caf","system_id":"levelo_inurba_marseille","lat":43.29892,"lon":5.39731,"is_reserved":false,"is_disabled":false,"rental_uris":{"android":"levelo://app?vid=b85c581f-730e-4cc8-a0fe-b3c19f390caf","ios":"levelo://app?vid=b85c581f-730e-4cc8-a0fe-b3c19f390caf"},"vehicle_type_id":"4","last_reported":1736975237,"current_range_meters":16800,"station_id":"ce4bh0h2rcd13ifvqd50","pricing_plan_id":"cebpf4jnsgd1na2vs0mg"},{"bike_id":"84299edb-4937-46bc-b7d0-f1ba8633c0fe","system_id":"levelo_inurba_marseille","lat":43.29204,"lon":5.39334,"is_reserved":false,"is_disabled":false,"rental_uris":{"android":"levelo://app?vid=84299edb-4937-46bc-b7d0-f1ba8633c0fe","ios":"levelo://app?vid=84299edb-4937-46bc-b7d0-f1ba8633c0fe"},"vehicle_type_id":"4","last_reported":1736975237,"current_range_meters":39200,"station_id":"ce4bh192rcd13ifvqdd0","pricing_plan_id":"cebpf4jnsgd1na2vs0mg"},{"bike_id":"2c839bfc-228b-4afd-9c45-0e54b8f36672","system_id":"levelo_inurba_marseille","lat":43.24648,"lon":5.38896,"is_reserved":false,"is_disabled":false,"rental_uris":{"android":"levelo://app?vid=2c839bfc-228b-4afd-9c45-0e54b8f36672","ios":"levelo://app?vid=2c839bfc-228b-4afd-9c45-0e54b8f36672"},"vehicle_type_id":"4","last_reported":1736975237,"current_range_meters":38800,"station_id":"ce4bhg12rcd13ifvqf60","pricing_plan_id":"cebpf4jnsgd1na2vs0mg"},{"bike_id":"36bc9abd-9273-41d0-bd68-9e79dbe079aa","system_id":"levelo_inurba_marseille","lat":43.301336,"lon":5.398612,"is_reserved":false,"is_disabled":false,"rental_uris":{"android":"levelo://app?vid=36bc9abd-9273-41d0-bd68-9e79dbe079aa","ios":"levelo://app?vid=36bc9abd-9273-41d0-bd68-9e79dbe079aa"},"vehicle_type_id":"4","last_reported":1736975237,"current_range_meters":16400,"station_id":"ce4bh0h2rcd13ifvqd40","pricing_plan_id":"cebpf4jnsgd1na2vs0mg"},{"bike_id":"5ac6e81e-c019-47ef-b708-c59262b0c774","system_id":"levelo_inurba_marseille","lat":43.24064,"lon":5.37756,"is_reserved":false,"is_disabled":false,"rental_uris":{"android":"levelo://app?vid=5ac6e81e-c019-47ef-b708-c59262b0c774","ios":"levelo://app?vid=5ac6e81e-c019-47ef-b708-c59262b0c774"},"vehicle_type_id":"4","last_reported":1736975237,"current_range_meters":30400,"station_id":"ce4bhnp2rcd13ifvqgvg","pricing_plan_id":"cebpf4jnsgd1na2vs0mg"},{"bike_id":"663d7f2c-2062-4d24-ae4c-cbceda4e4161","system_id":"levelo_inurba_marseille","lat":43.27207,"lon":5.40974,"is_reserved":false,"is_disabled":false,"rental_uris":{"android":"levelo://app?vid=663d7f2c-2062-4d24-ae4c-cbceda4e4161","ios":"levelo://app?vid=663d7f2c-2062-4d24-ae4c-cbceda4e4161"},"vehicle_type_id":"4","last_reported":1736975237,"current_range_meters":30800,"station_id":"ce4bhl12rcd13ifvqgf0","pricing_plan_id":"cebpf4jnsgd1na2vs0mg"},{"bike_id":"eb36113f-26ca-4395-b635-d082ab13ba53","system_id":"levelo_inurba_marseille","lat":43.28938,"lon":5.36397,"is_reserved":false,"is_disabled":false,"rental_uris":{"android":"levelo://app?vid=eb36113f-26ca-4395-b635-d082ab13ba53","ios":"levelo://app?vid=eb36113f-26ca-4395-b635-d082ab13ba53"},"vehicle_type_id":"4","last_reported":1736975237,"current_range_meters":38800,"station_id":"ce4bhc92rcd13ifvqetg","pricing_plan_id":"cebpf4jnsgd1na2vs0mg"},{"bike_id":"ea173e33-4acf-4e6f-98c2-b711e5ceb4a6","system_id":"levelo_inurba_marseille","lat":43.29843,"lon":5.36371,"is_reserved":false,"is_disabled":false,"rental_uris":{"android":"levelo://app?vid=ea173e33-4acf-4e6f-98c2-b711e5ceb4a6","ios":"levelo://app?vid=ea173e33-4acf-4e6f-98c2-b711e5ceb4a6"},"vehicle_type_id":"4","last_reported":1736975237,"current_range_meters":10800,"station_id":"ce4bgpp2rcd13ifvqc3g","pricing_plan_id":"cebpf4jnsgd1na2vs0mg"},{"bike_id":"a15980ac-c225-4e68-8982-6cc8c4cbfd79","system_id":"levelo_inurba_marseille","lat":43.23188,"lon":5.35553,"is_reserved":false,"is_disabled":false,"rental_uris":{"android":"levelo://app?vid=a15980ac-c225-4e68-8982-6cc8c4cbfd79","ios":"levelo://app?vid=a15980ac-c225-4e68-8982-6cc8c4cbfd79"},"vehicle_type_id":"4","last_reported":1736975237,"current_range_meters":38800,"station_id":"ce4bhu92rcd13ifvqi70","pricing_plan_id":"cebpf4jnsgd1na2vs0mg"},{"bike_id":"5bc604cb-e640-4c90-b5e4-6850ddaa0de1","system_id":"levelo_inurba_marseille","lat":43.28934,"lon":5.39617,"is_reserved":false,"is_disabled":false,"rental_uris":{"android":"levelo://app?vid=5bc604cb-e640-4c90-b5e4-6850ddaa0de1","ios":"levelo://app?vid=5bc604cb-e640-4c90-b5e4-6850ddaa0de1"},"vehicle_type_id":"4","last_reported":1736975237,"current_range_meters":21600,"station_id":"ce4bh3h2rcd13ifvqdn0","pricing_plan_id":"cebpf4jnsgd1na2vs0mg"},{"bike_id":"465a04f5-d00d-4665-aa96-54ceb247e37b","system_id":"levelo_inurba_marseille","lat":43.28157,"lon":5.42647,"is_reserved":false,"is_disabled":false,"rental_uris":{"android":"levelo://app?vid=465a04f5-d00d-4665-aa96-54ceb247e37b","ios":"levelo://app?vid=465a04f5-d00d-4665-aa96-54ceb247e37b"},"vehicle_type_id":"4","last_reported":1736975237,"current_range_meters":24000,"station_id":"ce4bhnh2rcd13ifvqgug","pricing_plan_id":"cebpf4jnsgd1na2vs0mg"},{"bike_id":"a72f9127-8fde-413a-96f3-4b81783ba6ca","system_id":"levelo_inurba_marseille","lat":43.3033,"lon":5.40441,"is_reserved":false,"is_disabled":false,"rental_uris":{"android":"levelo://app?vid=a72f9127-8fde-413a-96f3-4b81783ba6ca","ios":"levelo://app?vid=a72f9127-8fde-413a-96f3-4b81783ba6ca"},"vehicle_type_id":"4","last_reported":1736975237,"current_range_meters":38000,"station_id":"ce4bh012rcd13ifvqd10","pricing_plan_id":"cebpf4jnsgd1na2vs0mg"},{"bike_id":"a0f052b6-765c-4f88-94e0-860938c612c5","system_id":"levelo_inurba_marseille","lat":43.27169,"lon":5.40991,"is_reserved":false,"is_disabled":false,"rental_uris":{"android":"levelo://app?vid=a0f052b6-765c-4f88-94e0-860938c612c5","ios":"levelo://app?vid=a0f052b6-765c-4f88-94e0-860938c612c5"},"vehicle_type_id":"4","last_reported":1736975237,"current_range_meters":38800,"station_id":"ce4bhl12rcd13ifvqgf0","pricing_plan_id":"cebpf4jnsgd1na2vs0mg"},{"bike_id":"c1d914f9-317b-4356-9031-7d930891593e","system_id":"levelo_inurba_marseille","lat":43.28102,"lon":5.37834,"is_reserved":false,"is_disabled":false,"rental_uris":{"android":"levelo://app?vid=c1d914f9-317b-4356-9031-7d930891593e","ios":"levelo://app?vid=c1d914f9-317b-4356-9031-7d930891593e"},"vehicle_type_id":"4","last_reported":1736975237,"current_range_meters":24400,"station_id":"ce4bha12rcd13ifvqee0","pricing_plan_id":"cebpf4jnsgd1na2vs0mg"},{"bike_id":"4f26bc33-39ee-44c8-a9e9-5ae03626a86e","system_id":"levelo_inurba_marseille","lat":43.323676,"lon":5.388831,"is_reserved":false,"is_disabled":false,"rental_uris":{"android":"levelo://app?vid=4f26bc33-39ee-44c8-a9e9-5ae03626a86e","ios":"levelo://app?vid=4f26bc33-39ee-44c8-a9e9-5ae03626a86e"},"vehicle_type_id":"4","last_reported":1736975237,"current_range_meters":38800,"station_id":"ce4bhqp2rcd13ifvqhog","pricing_plan_id":"cebpf4jnsgd1na2vs0mg"},{"bike_id":"7680d9c7-0877-4a9f-a172-87f40b34ef9e","system_id":"levelo_inurba_marseille","lat":43.28022,"lon":5.36935,"is_reserved":false,"is_disabled":false,"rental_uris":{"android":"levelo://app?vid=7680d9c7-0877-4a9f-a172-87f40b34ef9e","ios":"levelo://app?vid=7680d9c7-0877-4a9f-a172-87f40b34ef9e"},"vehicle_type_id":"4","last_reported":1736975237,"current_range_meters":20400,"station_id":"ce4bha12rcd13ifvqef0","pricing_plan_id":"cebpf4jnsgd1na2vs0mg"},{"bike_id":"5f78c57e-f66a-412e-b5a4-76f4de609e6e","system_id":"levelo_inurba_marseille","lat":43.29537,"lon":5.38532,"is_reserved":false,"is_disabled":false,"rental_uris":{"android":"levelo://app?vid=5f78c57e-f66a-412e-b5a4-76f4de609e6e","ios":"levelo://app?vid=5f78c57e-f66a-412e-b5a4-76f4de609e6e"},"vehicle_type_id":"4","last_reported":1736975237,"current_range_meters":38800,"station_id":"ce4bgih2rcd13ifvqba0","pricing_plan_id":"cebpf4jnsgd1na2vs0mg"},{"bike_id":"23d78238-ed24-4b95-a952-3ed0f200bfb8","system_id":"levelo_inurba_marseille","lat":43.29369,"lon":5.37843,"is_reserved":false,"is_disabled":false,"rental_uris":{"android":"levelo://app?vid=23d78238-ed24-4b95-a952-3ed0f200bfb8","ios":"levelo://app?vid=23d78238-ed24-4b95-a952-3ed0f200bfb8"},"vehicle_type_id":"4","last_reported":1736975237,"current_range_meters":38800,"station_id":"ce4bgjh2rcd13ifvqbf0","pricing_plan_id":"cebpf4jnsgd1na2vs0mg"},{"bike_id":"51bb6953-dea8-4e82-96bf-52696267905f","system_id":"levelo_inurba_marseille","lat":43.230615,"lon":5.354929,"is_reserved":false,"is_disabled":false,"rental_uris":{"android":"levelo://app?vid=51bb6953-dea8-4e82-96bf-52696267905f","ios":"levelo://app?vid=51bb6953-dea8-4e82-96bf-52696267905f"},"vehicle_type_id":"4","last_reported":1736975237,"current_range_meters":38800,"station_id":"cpo3342slgdg3j2ifvpg","pricing_plan_id":"cebpf4jnsgd1na2vs0mg"},{"bike_id":"c4d8df25-78b3-4eb4-9f47-49e233791ca0","system_id":"levelo_inurba_marseille","lat":43.32067,"lon":5.41567,"is_reserved":false,"is_disabled":false,"rental_uris":{"android":"levelo://app?vid=c4d8df25-78b3-4eb4-9f47-49e233791ca0","ios":"levelo://app?vid=c4d8df25-78b3-4eb4-9f47-49e233791ca0"},"vehicle_type_id":"4","last_reported":1736975237,"current_range_meters":38800,"station_id":"ce4bhq92rcd13ifvqhkg","pricing_plan_id":"cebpf4jnsgd1na2vs0mg"},{"bike_id":"fd7be8f0-9c83-4f08-bd24-065ae8f50b31","system_id":"levelo_inurba_marseille","lat":43.24641,"lon":5.38894,"is_reserved":false,"is_disabled":false,"rental_uris":{"android":"levelo://app?vid=fd7be8f0-9c83-4f08-bd24-065ae8f50b31","ios":"levelo://app?vid=fd7be8f0-9c83-4f08-bd24-065ae8f50b31"},"vehicle_type_id":"4","last_reported":1736975237,"current_range_meters":38800,"station_id":"ce4bhg12rcd13ifvqf60","pricing_plan_id":"cebpf4jnsgd1na2vs0mg"},{"bike_id":"d62aabf6-9ee5-4808-8677-670939ad6911","system_id":"levelo_inurba_marseille","lat":43.28946,"lon":5.36393,"is_reserved":false,"is_disabled":false,"rental_uris":{"android":"levelo://app?vid=d62aabf6-9ee5-4808-8677-670939ad6911","ios":"levelo://app?vid=d62aabf6-9ee5-4808-8677-670939ad6911"},"vehicle_type_id":"4","last_reported":1736975237,"current_range_meters":37600,"station_id":"ce4bhc92rcd13ifvqetg","pricing_plan_id":"cebpf4jnsgd1na2vs0mg"},{"bike_id":"78218188-10d8-41e6-bf5a-150ff3b43099","system_id":"levelo_inurba_marseille","lat":43.23966,"lon":5.36624,"is_reserved":false,"is_disabled":false,"rental_uris":{"android":"levelo://app?vid=78218188-10d8-41e6-bf5a-150ff3b43099","ios":"levelo://app?vid=78218188-10d8-41e6-bf5a-150ff3b43099"},"vehicle_type_id":"4","last_reported":1736975237,"current_range_meters":7200,"station_id":"ce4bhi12rcd13ifvqfp0","pricing_plan_id":"cebpf4jnsgd1na2vs0mg"},{"bike_id":"4ed35703-7db0-45cb-9540-60199c11afca","system_id":"levelo_inurba_marseille","lat":43.310725,"lon":5.38354,"is_reserved":false,"is_disabled":false,"rental_uris":{"android":"levelo://app?vid=4ed35703-7db0-45cb-9540-60199c11afca","ios":"levelo://app?vid=4ed35703-7db0-45cb-9540-60199c11afca"},"vehicle_type_id":"4","last_reported":1736975237,"current_range_meters":38800,"station_id":"ce4bgv92rcd13ifvqcr0","pricing_plan_id":"cebpf4jnsgd1na2vs0mg"},{"bike_id":"d8dee5cc-2cbf-4fd6-b6fa-13c7b24f7377","system_id":"levelo_inurba_marseille","lat":43.31711,"lon":5.40466,"is_reserved":false,"is_disabled":false,"rental_uris":{"android":"levelo://app?vid=d8dee5cc-2cbf-4fd6-b6fa-13c7b24f7377","ios":"levelo://app?vid=d8dee5cc-2cbf-4fd6-b6fa-13c7b24f7377"},"vehicle_type_id":"4","last_reported":1736975237,"current_range_meters":35200,"station_id":"ce4bh012rcd13ifvqd00","pricing_plan_id":"cebpf4jnsgd1na2vs0mg"},{"bike_id":"1a88b36a-bdcc-4ab6-a257-59715f73d204","system_id":"levelo_inurba_marseille","lat":43.26699,"lon":5.38254,"is_reserved":false,"is_disabled":false,"rental_uris":{"android":"levelo://app?vid=1a88b36a-bdcc-4ab6-a257-59715f73d204","ios":"levelo://app?vid=1a88b36a-bdcc-4ab6-a257-59715f73d204"},"vehicle_type_id":"4","last_reported":1736975237,"current_range_meters":24400,"station_id":"ce4bhg92rcd13ifvqf90","pricing_plan_id":"cebpf4jnsgd1na2vs0mg"},{"bike_id":"f6b5a21b-caca-4bab-9767-62a516c88435","system_id":"levelo_inurba_marseille","lat":43.24647,"lon":5.38904,"is_reserved":false,"is_disabled":false,"rental_uris":{"android":"levelo://app?vid=f6b5a21b-caca-4bab-9767-62a516c88435","ios":"levelo://app?vid=f6b5a21b-caca-4bab-9767-62a516c88435"},"vehicle_type_id":"4","last_reported":1736975237,"current_range_meters":38800,"station_id":"ce4bhg12rcd13ifvqf60","pricing_plan_id":"cebpf4jnsgd1na2vs0mg"},{"bike_id":"957a4dc6-8867-48ee-b7c6-d3eee42e0539","system_id":"levelo_inurba_marseille","lat":43.23157,"lon":5.43704,"is_reserved":false,"is_disabled":false,"rental_uris":{"android":"levelo://app?vid=957a4dc6-8867-48ee-b7c6-d3eee42e0539","ios":"levelo://app?vid=957a4dc6-8867-48ee-b7c6-d3eee42e0539"},"vehicle_type_id":"4","last_reported":1736975237,"current_range_meters":38000,"station_id":"ce4bhmp2rcd13ifvqgog","pricing_plan_id":"cebpf4jnsgd1na2vs0mg"},{"bike_id":"26bf88bc-9ab6-4d8a-bd3b-8823091c5a70","system_id":"levelo_inurba_marseille","lat":43.2816,"lon":5.42672,"is_reserved":false,"is_disabled":false,"rental_uris":{"android":"levelo://app?vid=26bf88bc-9ab6-4d8a-bd3b-8823091c5a70","ios":"levelo://app?vid=26bf88bc-9ab6-4d8a-bd3b-8823091c5a70"},"vehicle_type_id":"4","last_reported":1736975237,"current_range_meters":21600,"station_id":"ce4bhnh2rcd13ifvqgug","pricing_plan_id":"cebpf4jnsgd1na2vs0mg"},{"bike_id":"4a8c20d9-670a-4029-9219-52996fd0718d","system_id":"levelo_inurba_marseille","lat":43.28067,"lon":5.39626,"is_reserved":false,"is_disabled":false,"rental_uris":{"android":"levelo://app?vid=4a8c20d9-670a-4029-9219-52996fd0718d","ios":"levelo://app?vid=4a8c20d9-670a-4029-9219-52996fd0718d"},"vehicle_type_id":"4","last_reported":1736975237,"current_range_meters":38400,"station_id":"ce4bho12rcd13ifvqh2g","pricing_plan_id":"cebpf4jnsgd1na2vs0mg"},{"bike_id":"9f01486f-2bf6-4386-82c7-df7001a32308","system_id":"levelo_inurba_marseille","lat":43.25121,"lon":5.40338,"is_reserved":false,"is_disabled":true,"rental_uris":{"android":"levelo://app?vid=9f01486f-2bf6-4386-82c7-df7001a32308","ios":"levelo://app?vid=9f01486f-2bf6-4386-82c7-df7001a32308"},"vehicle_type_id":"4","last_reported":1736975237,"current_range_meters":23200,"station_id":"ce4bhlh2rcd13ifvqgig","pricing_plan_id":"cebpf4jnsgd1na2vs0mg"},{"bike_id":"cb57f13e-0f96-498a-b9ca-57c0b42e7a64","system_id":"levelo_inurba_marseille","lat":43.2397,"lon":5.36627,"is_reserved":false,"is_disabled":false,"rental_uris":{"android":"levelo://app?vid=cb57f13e-0f96-498a-b9ca-57c0b42e7a64","ios":"levelo://app?vid=cb57f13e-0f96-498a-b9ca-57c0b42e7a64"},"vehicle_type_id":"4","last_reported":1736975237,"current_range_meters":22800,"station_id":"ce4bhi12rcd13ifvqfp0","pricing_plan_id":"cebpf4jnsgd1na2vs0mg"},{"bike_id":"a56bdef2-14b8-4e02-b3bc-538917283971","system_id":"levelo_inurba_marseille","lat":43.25089,"lon":5.39508,"is_reserved":false,"is_disabled":false,"rental_uris":{"android":"levelo://app?vid=a56bdef2-14b8-4e02-b3bc-538917283971","ios":"levelo://app?vid=a56bdef2-14b8-4e02-b3bc-538917283971"},"vehicle_type_id":"4","last_reported":1736975237,"current_range_meters":26800,"station_id":"ce4bhm12rcd13ifvqgkg","pricing_plan_id":"cebpf4jnsgd1na2vs0mg"},{"bike_id":"4a580b3d-1de7-410c-b007-9f6f811026cd","system_id":"levelo_inurba_marseille","lat":43.2584,"lon":5.39427,"is_reserved":false,"is_disabled":false,"rental_uris":{"android":"levelo://app?vid=4a580b3d-1de7-410c-b007-9f6f811026cd","ios":"levelo://app?vid=4a580b3d-1de7-410c-b007-9f6f811026cd"},"vehicle_type_id":"4","last_reported":1736975237,"current_range_meters":39200,"station_id":"ce4bhip2rcd13ifvqft0","pricing_plan_id":"cebpf4jnsgd1na2vs0mg"},{"bike_id":"1e040693-baaf-4374-8c35-8fd64d6321d0","system_id":"levelo_inurba_marseille","lat":43.28465,"lon":5.38941,"is_reserved":false,"is_disabled":false,"rental_uris":{"android":"levelo://app?vid=1e040693-baaf-4374-8c35-8fd64d6321d0","ios":"levelo://app?vid=1e040693-baaf-4374-8c35-8fd64d6321d0"},"vehicle_type_id":"4","last_reported":1736975237,"current_range_meters":33200,"station_id":"","pricing_plan_id":"cebpf4jnsgd1na2vs0mg"},{"bike_id":"512796d1-8e41-4714-bb68-24ce5b606af1","system_id":"levelo_inurba_marseille","lat":43.26496,"lon":5.39546,"is_reserved":false,"is_disabled":false,"rental_uris":{"android":"levelo://app?vid=512796d1-8e41-4714-bb68-24ce5b606af1","ios":"levelo://app?vid=512796d1-8e41-4714-bb68-24ce5b606af1"},"vehicle_type_id":"4","last_reported":1736975237,"current_range_meters":38000,"station_id":"ce4bhi12rcd13ifvqfq0","pricing_plan_id":"cebpf4jnsgd1na2vs0mg"},{"bike_id":"944551cb-bc5e-419f-8a98-9b450af1f656","system_id":"levelo_inurba_marseille","lat":43.25575,"lon":5.38242,"is_reserved":false,"is_disabled":false,"rental_uris":{"android":"levelo://app?vid=944551cb-bc5e-419f-8a98-9b450af1f656","ios":"levelo://app?vid=944551cb-bc5e-419f-8a98-9b450af1f656"},"vehicle_type_id":"4","last_reported":1736975237,"current_range_meters":27600,"station_id":"ce4bhih2rcd13ifvqfs0","pricing_plan_id":"cebpf4jnsgd1na2vs0mg"},{"bike_id":"e5b9252e-eebf-4c90-b028-b53cc4934330","system_id":"levelo_inurba_marseille","lat":43.303508,"lon":5.418872,"is_reserved":false,"is_disabled":true,"rental_uris":{"android":"levelo://app?vid=e5b9252e-eebf-4c90-b028-b53cc4934330","ios":"levelo://app?vid=e5b9252e-eebf-4c90-b028-b53cc4934330"},"vehicle_type_id":"4","last_reported":1736975237,"current_range_meters":16400,"station_id":"ce4bhop2rcd13ifvqh7g","pricing_plan_id":"cebpf4jnsgd1na2vs0mg"},{"bike_id":"ba6917e4-c4bf-4983-9c25-20169d3a5a55","system_id":"levelo_inurba_marseille","lat":43.2954,"lon":5.39054,"is_reserved":false,"is_disabled":false,"rental_uris":{"android":"levelo://app?vid=ba6917e4-c4bf-4983-9c25-20169d3a5a55","ios":"levelo://app?vid=ba6917e4-c4bf-4983-9c25-20169d3a5a55"},"vehicle_type_id":"4","last_reported":1736975237,"current_range_meters":39200,"station_id":"ce4bh3p2rcd13ifvqdp0","pricing_plan_id":"cebpf4jnsgd1na2vs0mg"},{"bike_id":"616f800e-b36e-415d-af31-5ce43bcd69c8","system_id":"levelo_inurba_marseille","lat":43.25014,"lon":5.3956,"is_reserved":false,"is_disabled":false,"rental_uris":{"android":"levelo://app?vid=616f800e-b36e-415d-af31-5ce43bcd69c8","ios":"levelo://app?vid=616f800e-b36e-415d-af31-5ce43bcd69c8"},"vehicle_type_id":"4","last_reported":1736975237,"current_range_meters":13600,"station_id":"","pricing_plan_id":"cebpf4jnsgd1na2vs0mg"},{"bike_id":"93af35ad-738e-40e4-afcb-6d3589d7e732","system_id":"levelo_inurba_marseille","lat":43.23155,"lon":5.43697,"is_reserved":false,"is_disabled":false,"rental_uris":{"android":"levelo://app?vid=93af35ad-738e-40e4-afcb-6d3589d7e732","ios":"levelo://app?vid=93af35ad-738e-40e4-afcb-6d3589d7e732"},"vehicle_type_id":"4","last_reported":1736975237,"current_range_meters":25600,"station_id":"ce4bhmp2rcd13ifvqgog","pricing_plan_id":"cebpf4jnsgd1na2vs0mg"},{"bike_id":"653d7eb5-e932-4d0f-8eba-b2bccd81fbe5","system_id":"levelo_inurba_marseille","lat":43.31328,"lon":5.3671,"is_reserved":false,"is_disabled":true,"rental_uris":{"android":"levelo://app?vid=653d7eb5-e932-4d0f-8eba-b2bccd81fbe5","ios":"levelo://app?vid=653d7eb5-e932-4d0f-8eba-b2bccd81fbe5"},"vehicle_type_id":"4","last_reported":1736975237,"current_range_meters":0,"station_id":"ce4bgr92rcd13ifvqc6g","pricing_plan_id":"cebpf4jnsgd1na2vs0mg"},{"bike_id":"f82ceb99-c44d-4f9d-bec0-701c6e43c0c2","system_id":"levelo_inurba_marseille","lat":43.31165,"lon":5.38718,"is_reserved":false,"is_disabled":false,"rental_uris":{"android":"levelo://app?vid=f82ceb99-c44d-4f9d-bec0-701c6e43c0c2","ios":"levelo://app?vid=f82ceb99-c44d-4f9d-bec0-701c6e43c0c2"},"vehicle_type_id":"4","last_reported":1736975237,"current_range_meters":17200,"station_id":"ce4bgv12rcd13ifvqcp0","pricing_plan_id":"cebpf4jnsgd1na2vs0mg"},{"bike_id":"edc3ef82-4f7e-4056-942f-8e28e925ea2f","system_id":"levelo_inurba_marseille","lat":43.24075,"lon":5.37761,"is_reserved":false,"is_disabled":false,"rental_uris":{"android":"levelo://app?vid=edc3ef82-4f7e-4056-942f-8e28e925ea2f","ios":"levelo://app?vid=edc3ef82-4f7e-4056-942f-8e28e925ea2f"},"vehicle_type_id":"4","last_reported":1736975237,"current_range_meters":39200,"station_id":"ce4bhnp2rcd13ifvqgvg","pricing_plan_id":"cebpf4jnsgd1na2vs0mg"},{"bike_id":"48f101cc-dfef-4933-a09b-b6d0ee025ad9","system_id":"levelo_inurba_marseille","lat":43.32358,"lon":5.38888,"is_reserved":false,"is_disabled":false,"rental_uris":{"android":"levelo://app?vid=48f101cc-dfef-4933-a09b-b6d0ee025ad9","ios":"levelo://app?vid=48f101cc-dfef-4933-a09b-b6d0ee025ad9"},"vehicle_type_id":"4","last_reported":1736975237,"current_range_meters":37600,"station_id":"ce4bhqp2rcd13ifvqhog","pricing_plan_id":"cebpf4jnsgd1na2vs0mg"},{"bike_id":"4b5a720b-ef9e-421e-b75e-c96b247c25a9","system_id":"levelo_inurba_marseille","lat":43.30784,"lon":5.3765,"is_reserved":false,"is_disabled":false,"rental_uris":{"android":"levelo://app?vid=4b5a720b-ef9e-421e-b75e-c96b247c25a9","ios":"levelo://app?vid=4b5a720b-ef9e-421e-b75e-c96b247c25a9"},"vehicle_type_id":"4","last_reported":1736975237,"current_range_meters":39200,"station_id":"ce4bgv92rcd13ifvqcq0","pricing_plan_id":"cebpf4jnsgd1na2vs0mg"},{"bike_id":"48dc9977-942c-469c-90b6-18ec7a2f483b","system_id":"levelo_inurba_marseille","lat":43.33013,"lon":5.39033,"is_reserved":false,"is_disabled":false,"rental_uris":{"android":"levelo://app?vid=48dc9977-942c-469c-90b6-18ec7a2f483b","ios":"levelo://app?vid=48dc9977-942c-469c-90b6-18ec7a2f483b"},"vehicle_type_id":"4","last_reported":1736975237,"current_range_meters":28800,"station_id":"ce4bhr92rcd13ifvqhrg","pricing_plan_id":"cebpf4jnsgd1na2vs0mg"},{"bike_id":"0adbfa65-465c-487a-8c44-6247250163c9","system_id":"levelo_inurba_marseille","lat":43.3124,"lon":5.36876,"is_reserved":false,"is_disabled":true,"rental_uris":{"android":"levelo://app?vid=0adbfa65-465c-487a-8c44-6247250163c9","ios":"levelo://app?vid=0adbfa65-465c-487a-8c44-6247250163c9"},"vehicle_type_id":"4","last_reported":1736975237,"current_range_meters":3600,"station_id":"ce4bgl92rcd13ifvqbq0","pricing_plan_id":"cebpf4jnsgd1na2vs0mg"},{"bike_id":"c57f7411-350c-444f-bc55-fcab7a54283f","system_id":"levelo_inurba_marseille","lat":43.27943,"lon":5.41049,"is_reserved":false,"is_disabled":false,"rental_uris":{"android":"levelo://app?vid=c57f7411-350c-444f-bc55-fcab7a54283f","ios":"levelo://app?vid=c57f7411-350c-444f-bc55-fcab7a54283f"},"vehicle_type_id":"4","last_reported":1736975237,"current_range_meters":32400,"station_id":"ce4bhnp2rcd13ifvqh0g","pricing_plan_id":"cebpf4jnsgd1na2vs0mg"},{"bike_id":"d8e3941b-0cae-4b8e-ae3c-c34a4b3b2c65","system_id":"levelo_inurba_marseille","lat":43.31999,"lon":5.38143,"is_reserved":false,"is_disabled":false,"rental_uris":{"android":"levelo://app?vid=d8e3941b-0cae-4b8e-ae3c-c34a4b3b2c65","ios":"levelo://app?vid=d8e3941b-0cae-4b8e-ae3c-c34a4b3b2c65"},"vehicle_type_id":"4","last_reported":1736975237,"current_range_meters":38400,"station_id":"ce4bhr12rcd13ifvqhpg","pricing_plan_id":"cebpf4jnsgd1na2vs0mg"},{"bike_id":"bae146de-d38a-44ca-aef8-bb314e6a28b5","system_id":"levelo_inurba_marseille","lat":43.30335,"lon":5.40439,"is_reserved":false,"is_disabled":false,"rental_uris":{"android":"levelo://app?vid=bae146de-d38a-44ca-aef8-bb314e6a28b5","ios":"levelo://app?vid=bae146de-d38a-44ca-aef8-bb314e6a28b5"},"vehicle_type_id":"4","last_reported":1736975237,"current_range_meters":33600,"station_id":"ce4bh012rcd13ifvqd10","pricing_plan_id":"cebpf4jnsgd1na2vs0mg"},{"bike_id":"ef7adbc7-f956-407a-a3eb-ebdd3e60d992","system_id":"levelo_inurba_marseille","lat":43.30563,"lon":5.36526,"is_reserved":false,"is_disabled":true,"rental_uris":{"android":"levelo://app?vid=ef7adbc7-f956-407a-a3eb-ebdd3e60d992","ios":"levelo://app?vid=ef7adbc7-f956-407a-a3eb-ebdd3e60d992"},"vehicle_type_id":"4","last_reported":1736975237,"current_range_meters":6800,"station_id":"ce4bgs12rcd13ifvqcag","pricing_plan_id":"cebpf4jnsgd1na2vs0mg"},{"bike_id":"fbe5a5e3-06c2-43d2-a19d-3c4a91fc0ada","system_id":"levelo_inurba_marseille","lat":43.29226,"lon":5.36873,"is_reserved":false,"is_disabled":false,"rental_uris":{"android":"levelo://app?vid=fbe5a5e3-06c2-43d2-a19d-3c4a91fc0ada","ios":"levelo://app?vid=fbe5a5e3-06c2-43d2-a19d-3c4a91fc0ada"},"vehicle_type_id":"4","last_reported":1736975237,"current_range_meters":37600,"station_id":"","pricing_plan_id":"cebpf4jnsgd1na2vs0mg"},{"bike_id":"8a5a41c6-c6c6-427e-a7d8-5be0f418b8ed","system_id":"levelo_inurba_marseille","lat":43.26802,"lon":5.40251,"is_reserved":false,"is_disabled":false,"rental_uris":{"android":"levelo://app?vid=8a5a41c6-c6c6-427e-a7d8-5be0f418b8ed","ios":"levelo://app?vid=8a5a41c6-c6c6-427e-a7d8-5be0f418b8ed"},"vehicle_type_id":"4","last_reported":1736975237,"current_range_meters":38000,"station_id":"ce501612rcd8frsf0b60","pricing_plan_id":"cebpf4jnsgd1na2vs0mg"},{"bike_id":"c1b93f11-c5af-455c-b2e3-1cfe9a6876da","system_id":"levelo_inurba_marseille","lat":43.30633,"lon":5.40057,"is_reserved":false,"is_disabled":false,"rental_uris":{"android":"levelo://app?vid=c1b93f11-c5af-455c-b2e3-1cfe9a6876da","ios":"levelo://app?vid=c1b93f11-c5af-455c-b2e3-1cfe9a6876da"},"vehicle_type_id":"4","last_reported":1736975237,"current_range_meters":24800,"station_id":"ce4bh112rcd13ifvqda0","pricing_plan_id":"cebpf4jnsgd1na2vs0mg"},{"bike_id":"a1ffa901-2604-4022-8b9a-c99dc49c6247","system_id":"levelo_inurba_marseille","lat":43.28149,"lon":5.42641,"is_reserved":false,"is_disabled":false,"rental_uris":{"android":"levelo://app?vid=a1ffa901-2604-4022-8b9a-c99dc49c6247","ios":"levelo://app?vid=a1ffa901-2604-4022-8b9a-c99dc49c6247"},"vehicle_type_id":"4","last_reported":1736975237,"current_range_meters":16000,"station_id":"ce4bhnh2rcd13ifvqgug","pricing_plan_id":"cebpf4jnsgd1na2vs0mg"},{"bike_id":"488e4197-9562-4f28-a5d9-95046f5ad29c","system_id":"levelo_inurba_marseille","lat":43.30315,"lon":5.39206,"is_reserved":false,"is_disabled":false,"rental_uris":{"android":"levelo://app?vid=488e4197-9562-4f28-a5d9-95046f5ad29c","ios":"levelo://app?vid=488e4197-9562-4f28-a5d9-95046f5ad29c"},"vehicle_type_id":"4","last_reported":1736975237,"current_range_meters":37600,"station_id":"ce4bgkh2rcd13ifvqbk0","pricing_plan_id":"cebpf4jnsgd1na2vs0mg"},{"bike_id":"1dc0c184-15f1-4d35-a85d-77d854d1d847","system_id":"levelo_inurba_marseille","lat":43.29553,"lon":5.4228,"is_reserved":false,"is_disabled":false,"rental_uris":{"android":"levelo://app?vid=1dc0c184-15f1-4d35-a85d-77d854d1d847","ios":"levelo://app?vid=1dc0c184-15f1-4d35-a85d-77d854d1d847"},"vehicle_type_id":"4","last_reported":1736975237,"current_range_meters":22000,"station_id":"ce4bhph2rcd13ifvqhdg","pricing_plan_id":"cebpf4jnsgd1na2vs0mg"},{"bike_id":"4daf6d29-2e46-4f3d-9a0b-b16db5ef5d6d","system_id":"levelo_inurba_marseille","lat":43.29435,"lon":5.39745,"is_reserved":false,"is_disabled":false,"rental_uris":{"android":"levelo://app?vid=4daf6d29-2e46-4f3d-9a0b-b16db5ef5d6d","ios":"levelo://app?vid=4daf6d29-2e46-4f3d-9a0b-b16db5ef5d6d"},"vehicle_type_id":"4","last_reported":1736975237,"current_range_meters":18800,"station_id":"ce4bh3h2rcd13ifvqdo0","pricing_plan_id":"cebpf4jnsgd1na2vs0mg"},{"bike_id":"468d2986-8de5-47dc-84aa-f8a7ef57b6e2","system_id":"levelo_inurba_marseille","lat":43.30885,"lon":5.39645,"is_reserved":false,"is_disabled":false,"rental_uris":{"android":"levelo://app?vid=468d2986-8de5-47dc-84aa-f8a7ef57b6e2","ios":"levelo://app?vid=468d2986-8de5-47dc-84aa-f8a7ef57b6e2"},"vehicle_type_id":"4","last_reported":1736975237,"current_range_meters":24800,"station_id":"ce4bh012rcd13ifvqcv0","pricing_plan_id":"cebpf4jnsgd1na2vs0mg"},{"bike_id":"e8a63cd5-0015-4448-a93d-2fed9cfa5ba5","system_id":"levelo_inurba_marseille","lat":43.31369,"lon":5.38499,"is_reserved":false,"is_disabled":false,"rental_uris":{"android":"levelo://app?vid=e8a63cd5-0015-4448-a93d-2fed9cfa5ba5","ios":"levelo://app?vid=e8a63cd5-0015-4448-a93d-2fed9cfa5ba5"},"vehicle_type_id":"4","last_reported":1736975237,"current_range_meters":39200,"station_id":"ce4bgt92rcd13ifvqcf0","pricing_plan_id":"cebpf4jnsgd1na2vs0mg"},{"bike_id":"a93d55b1-f3c6-41a5-9ed3-bc50ec0172c6","system_id":"levelo_inurba_marseille","lat":43.28696,"lon":5.3739,"is_reserved":false,"is_disabled":false,"rental_uris":{"android":"levelo://app?vid=a93d55b1-f3c6-41a5-9ed3-bc50ec0172c6","ios":"levelo://app?vid=a93d55b1-f3c6-41a5-9ed3-bc50ec0172c6"},"vehicle_type_id":"4","last_reported":1736975237,"current_range_meters":8400,"station_id":"ce4bh3p2rcd13ifvqdq0","pricing_plan_id":"cebpf4jnsgd1na2vs0mg"},{"bike_id":"7a26b63c-652f-4d2d-8353-1a9dfb4e945a","system_id":"levelo_inurba_marseille","lat":43.33745,"lon":5.39171,"is_reserved":false,"is_disabled":false,"rental_uris":{"android":"levelo://app?vid=7a26b63c-652f-4d2d-8353-1a9dfb4e945a","ios":"levelo://app?vid=7a26b63c-652f-4d2d-8353-1a9dfb4e945a"},"vehicle_type_id":"4","last_reported":1736975237,"current_range_meters":39200,"station_id":"ce4bhr92rcd13ifvqhsg","pricing_plan_id":"cebpf4jnsgd1na2vs0mg"},{"bike_id":"e96d83a8-cde8-404a-9e40-5bc9e9229ea9","system_id":"levelo_inurba_marseille","lat":43.33744,"lon":5.37414,"is_reserved":false,"is_disabled":false,"rental_uris":{"android":"levelo://app?vid=e96d83a8-cde8-404a-9e40-5bc9e9229ea9","ios":"levelo://app?vid=e96d83a8-cde8-404a-9e40-5bc9e9229ea9"},"vehicle_type_id":"4","last_reported":1736975237,"current_range_meters":37600,"station_id":"","pricing_plan_id":"cebpf4jnsgd1na2vs0mg"},{"bike_id":"f4764a42-86eb-4d76-b558-df598e488f6c","system_id":"levelo_inurba_marseille","lat":43.23939,"lon":5.37586,"is_reserved":false,"is_disabled":false,"rental_uris":{"android":"levelo://app?vid=f4764a42-86eb-4d76-b558-df598e488f6c","ios":"levelo://app?vid=f4764a42-86eb-4d76-b558-df598e488f6c"},"vehicle_type_id":"4","last_reported":1736975237,"current_range_meters":3600,"station_id":"","pricing_plan_id":"cebpf4jnsgd1na2vs0mg"},{"bike_id":"5e5fc1d6-193c-4267-9b79-66f1a3263221","system_id":"levelo_inurba_marseille","lat":43.24068,"lon":5.37746,"is_reserved":false,"is_disabled":false,"rental_uris":{"android":"levelo://app?vid=5e5fc1d6-193c-4267-9b79-66f1a3263221","ios":"levelo://app?vid=5e5fc1d6-193c-4267-9b79-66f1a3263221"},"vehicle_type_id":"4","last_reported":1736975237,"current_range_meters":25600,"station_id":"ce4bhnp2rcd13ifvqgvg","pricing_plan_id":"cebpf4jnsgd1na2vs0mg"},{"bike_id":"56b8e9bc-f750-4815-bc98-9098414d16db","system_id":"levelo_inurba_marseille","lat":43.23195,"lon":5.35563,"is_reserved":false,"is_disabled":true,"rental_uris":{"android":"levelo://app?vid=56b8e9bc-f750-4815-bc98-9098414d16db","ios":"levelo://app?vid=56b8e9bc-f750-4815-bc98-9098414d16db"},"vehicle_type_id":"4","last_reported":1736975237,"current_range_meters":0,"station_id":"ce4bhu92rcd13ifvqi70","pricing_plan_id":"cebpf4jnsgd1na2vs0mg"},{"bike_id":"8e734dd1-aaf0-44fe-8abc-175106067a04","system_id":"levelo_inurba_marseille","lat":43.28949,"lon":5.36375,"is_reserved":false,"is_disabled":false,"rental_uris":{"android":"levelo://app?vid=8e734dd1-aaf0-44fe-8abc-175106067a04","ios":"levelo://app?vid=8e734dd1-aaf0-44fe-8abc-175106067a04"},"vehicle_type_id":"4","last_reported":1736975237,"current_range_meters":38800,"station_id":"ce4bhc92rcd13ifvqetg","pricing_plan_id":"cebpf4jnsgd1na2vs0mg"},{"bike_id":"886c2bbb-1b99-4795-80cb-99bf8240c559","system_id":"levelo_inurba_marseille","lat":43.2466,"lon":5.38891,"is_reserved":false,"is_disabled":false,"rental_uris":{"android":"levelo://app?vid=886c2bbb-1b99-4795-80cb-99bf8240c559","ios":"levelo://app?vid=886c2bbb-1b99-4795-80cb-99bf8240c559"},"vehicle_type_id":"4","last_reported":1736975237,"current_range_meters":25200,"station_id":"ce4bhg12rcd13ifvqf60","pricing_plan_id":"cebpf4jnsgd1na2vs0mg"},{"bike_id":"8fa56adc-0eaa-4d1e-86c0-b8759c4fb267","system_id":"levelo_inurba_marseille","lat":43.25081,"lon":5.39536,"is_reserved":false,"is_disabled":false,"rental_uris":{"android":"levelo://app?vid=8fa56adc-0eaa-4d1e-86c0-b8759c4fb267","ios":"levelo://app?vid=8fa56adc-0eaa-4d1e-86c0-b8759c4fb267"},"vehicle_type_id":"4","last_reported":1736975237,"current_range_meters":38800,"station_id":"ce4bhm12rcd13ifvqgkg","pricing_plan_id":"cebpf4jnsgd1na2vs0mg"},{"bike_id":"f6bb3330-51df-4aaa-8269-ab7638db39bd","system_id":"levelo_inurba_marseille","lat":43.24396,"lon":5.37083,"is_reserved":false,"is_disabled":false,"rental_uris":{"android":"levelo://app?vid=f6bb3330-51df-4aaa-8269-ab7638db39bd","ios":"levelo://app?vid=f6bb3330-51df-4aaa-8269-ab7638db39bd"},"vehicle_type_id":"4","last_reported":1736975237,"current_range_meters":30000,"station_id":"ce4bhhh2rcd13ifvqfk0","pricing_plan_id":"cebpf4jnsgd1na2vs0mg"},{"bike_id":"ef87f77f-d203-49b7-892a-ffc95d000999","system_id":"levelo_inurba_marseille","lat":43.28731,"lon":5.3608,"is_reserved":false,"is_disabled":false,"rental_uris":{"android":"levelo://app?vid=ef87f77f-d203-49b7-892a-ffc95d000999","ios":"levelo://app?vid=ef87f77f-d203-49b7-892a-ffc95d000999"},"vehicle_type_id":"4","last_reported":1736975237,"current_range_meters":38400,"station_id":"cki0cbj6b192h4jlfktg","pricing_plan_id":"cebpf4jnsgd1na2vs0mg"},{"bike_id":"6801b75f-ba24-4717-968a-a8d23abfc515","system_id":"levelo_inurba_marseille","lat":43.25108,"lon":5.4032,"is_reserved":false,"is_disabled":true,"rental_uris":{"android":"levelo://app?vid=6801b75f-ba24-4717-968a-a8d23abfc515","ios":"levelo://app?vid=6801b75f-ba24-4717-968a-a8d23abfc515"},"vehicle_type_id":"4","last_reported":1736975237,"current_range_meters":800,"station_id":"ce4bhlh2rcd13ifvqgig","pricing_plan_id":"cebpf4jnsgd1na2vs0mg"},{"bike_id":"12b5f6a3-f139-4417-8263-7e4fcd1e2ee5","system_id":"levelo_inurba_marseille","lat":43.28722,"lon":5.37943,"is_reserved":false,"is_disabled":false,"rental_uris":{"android":"levelo://app?vid=12b5f6a3-f139-4417-8263-7e4fcd1e2ee5","ios":"levelo://app?vid=12b5f6a3-f139-4417-8263-7e4fcd1e2ee5"},"vehicle_type_id":"4","last_reported":1736975237,"current_range_meters":38800,"station_id":"ce4bh9p2rcd13ifvqec0","pricing_plan_id":"cebpf4jnsgd1na2vs0mg"},{"bike_id":"dccac9f7-22cb-4419-8286-e3f3fc1791cb","system_id":"levelo_inurba_marseille","lat":43.31327,"lon":5.39694,"is_reserved":false,"is_disabled":false,"rental_uris":{"android":"levelo://app?vid=dccac9f7-22cb-4419-8286-e3f3fc1791cb","ios":"levelo://app?vid=dccac9f7-22cb-4419-8286-e3f3fc1791cb"},"vehicle_type_id":"4","last_reported":1736975237,"current_range_meters":38800,"station_id":"ce4bgvp2rcd13ifvqcu0","pricing_plan_id":"cebpf4jnsgd1na2vs0mg"},{"bike_id":"8c8befec-83a6-4ae4-9845-821c3ffb6ed4","system_id":"levelo_inurba_marseille","lat":43.27909,"lon":5.39574,"is_reserved":false,"is_disabled":false,"rental_uris":{"android":"levelo://app?vid=8c8befec-83a6-4ae4-9845-821c3ffb6ed4","ios":"levelo://app?vid=8c8befec-83a6-4ae4-9845-821c3ffb6ed4"},"vehicle_type_id":"4","last_reported":1736975237,"current_range_meters":26800,"station_id":"ce4bhf92rcd13ifvqf40","pricing_plan_id":"cebpf4jnsgd1na2vs0mg"},{"bike_id":"66c7ef40-be78-46fe-ac73-71f11e84f5c4","system_id":"levelo_inurba_marseille","lat":43.25585,"lon":5.38242,"is_reserved":false,"is_disabled":false,"rental_uris":{"android":"levelo://app?vid=66c7ef40-be78-46fe-ac73-71f11e84f5c4","ios":"levelo://app?vid=66c7ef40-be78-46fe-ac73-71f11e84f5c4"},"vehicle_type_id":"4","last_reported":1736975237,"current_range_meters":13600,"station_id":"ce4bhih2rcd13ifvqfs0","pricing_plan_id":"cebpf4jnsgd1na2vs0mg"},{"bike_id":"c5748c79-66ea-4909-9026-e66a2b573a47","system_id":"levelo_inurba_marseille","lat":43.30312,"lon":5.36912,"is_reserved":false,"is_disabled":true,"rental_uris":{"android":"levelo://app?vid=c5748c79-66ea-4909-9026-e66a2b573a47","ios":"levelo://app?vid=c5748c79-66ea-4909-9026-e66a2b573a47"},"vehicle_type_id":"4","last_reported":1736975237,"current_range_meters":27600,"station_id":"ce4bgqh2rcd13ifvqc5g","pricing_plan_id":"cebpf4jnsgd1na2vs0mg"},{"bike_id":"e2ef0804-292f-4218-9c91-c2e727950007","system_id":"levelo_inurba_marseille","lat":43.29977,"lon":5.37173,"is_reserved":false,"is_disabled":false,"rental_uris":{"android":"levelo://app?vid=e2ef0804-292f-4218-9c91-c2e727950007","ios":"levelo://app?vid=e2ef0804-292f-4218-9c91-c2e727950007"},"vehicle_type_id":"4","last_reported":1736975237,"current_range_meters":38000,"station_id":"ce4bgr92rcd13ifvqc7g","pricing_plan_id":"cebpf4jnsgd1na2vs0mg"},{"bike_id":"0c12b47b-ac3d-4b78-a898-427ed2cc5877","system_id":"levelo_inurba_marseille","lat":43.2695,"lon":5.38634,"is_reserved":false,"is_disabled":false,"rental_uris":{"android":"levelo://app?vid=0c12b47b-ac3d-4b78-a898-427ed2cc5877","ios":"levelo://app?vid=0c12b47b-ac3d-4b78-a898-427ed2cc5877"},"vehicle_type_id":"4","last_reported":1736975237,"current_range_meters":38800,"station_id":"ce4bhh92rcd13ifvqfh0","pricing_plan_id":"cebpf4jnsgd1na2vs0mg"},{"bike_id":"60c48e84-151f-4edd-83cd-789ff87c7f63","system_id":"levelo_inurba_marseille","lat":43.2869,"lon":5.37385,"is_reserved":false,"is_disabled":true,"rental_uris":{"android":"levelo://app?vid=60c48e84-151f-4edd-83cd-789ff87c7f63","ios":"levelo://app?vid=60c48e84-151f-4edd-83cd-789ff87c7f63"},"vehicle_type_id":"4","last_reported":1736975237,"current_range_meters":27600,"station_id":"ce4bh3p2rcd13ifvqdq0","pricing_plan_id":"cebpf4jnsgd1na2vs0mg"},{"bike_id":"1ea05333-113b-43e7-929a-470579ef95c0","system_id":"levelo_inurba_marseille","lat":43.29549,"lon":5.39383,"is_reserved":false,"is_disabled":true,"rental_uris":{"android":"levelo://app?vid=1ea05333-113b-43e7-929a-470579ef95c0","ios":"levelo://app?vid=1ea05333-113b-43e7-929a-470579ef95c0"},"vehicle_type_id":"4","last_reported":1736975237,"current_range_meters":17200,"station_id":"ce4bh292rcd13ifvqdf0","pricing_plan_id":"cebpf4jnsgd1na2vs0mg"},{"bike_id":"557bdeaa-471c-464a-90e1-5911c6fabaf0","system_id":"levelo_inurba_marseille","lat":43.323684,"lon":5.388837,"is_reserved":false,"is_disabled":false,"rental_uris":{"android":"levelo://app?vid=557bdeaa-471c-464a-90e1-5911c6fabaf0","ios":"levelo://app?vid=557bdeaa-471c-464a-90e1-5911c6fabaf0"},"vehicle_type_id":"4","last_reported":1736975237,"current_range_meters":36400,"station_id":"ce4bhqp2rcd13ifvqhog","pricing_plan_id":"cebpf4jnsgd1na2vs0mg"},{"bike_id":"8877e7a6-4aa2-4c5a-ac5a-26bcf6368000","system_id":"levelo_inurba_marseille","lat":43.28031,"lon":5.36946,"is_reserved":false,"is_disabled":false,"rental_uris":{"android":"levelo://app?vid=8877e7a6-4aa2-4c5a-ac5a-26bcf6368000","ios":"levelo://app?vid=8877e7a6-4aa2-4c5a-ac5a-26bcf6368000"},"vehicle_type_id":"4","last_reported":1736975237,"current_range_meters":28800,"station_id":"ce4bha12rcd13ifvqef0","pricing_plan_id":"cebpf4jnsgd1na2vs0mg"},{"bike_id":"a0ffede7-3341-4855-b911-b1e6e871db85","system_id":"levelo_inurba_marseille","lat":43.32024,"lon":5.41553,"is_reserved":false,"is_disabled":false,"rental_uris":{"android":"levelo://app?vid=a0ffede7-3341-4855-b911-b1e6e871db85","ios":"levelo://app?vid=a0ffede7-3341-4855-b911-b1e6e871db85"},"vehicle_type_id":"4","last_reported":1736975237,"current_range_meters":12400,"station_id":"ce4bhq92rcd13ifvqhkg","pricing_plan_id":"cebpf4jnsgd1na2vs0mg"},{"bike_id":"72c1a72b-7611-4579-b0e3-c6973d08e01a","system_id":"levelo_inurba_marseille","lat":43.2921,"lon":5.36894,"is_reserved":false,"is_disabled":false,"rental_uris":{"android":"levelo://app?vid=72c1a72b-7611-4579-b0e3-c6973d08e01a","ios":"levelo://app?vid=72c1a72b-7611-4579-b0e3-c6973d08e01a"},"vehicle_type_id":"4","last_reported":1736975237,"current_range_meters":8400,"station_id":"","pricing_plan_id":"cebpf4jnsgd1na2vs0mg"},{"bike_id":"c89b232d-343f-46cb-b833-7d43ba08c02a","system_id":"levelo_inurba_marseille","lat":43.32992,"lon":5.39034,"is_reserved":false,"is_disabled":false,"rental_uris":{"android":"levelo://app?vid=c89b232d-343f-46cb-b833-7d43ba08c02a","ios":"levelo://app?vid=c89b232d-343f-46cb-b833-7d43ba08c02a"},"vehicle_type_id":"4","last_reported":1736975237,"current_range_meters":34800,"station_id":"ce4bhr92rcd13ifvqhrg","pricing_plan_id":"cebpf4jnsgd1na2vs0mg"},{"bike_id":"23f5ea08-82a0-4cba-b3a5-e1cda91a8208","system_id":"levelo_inurba_marseille","lat":43.31727,"lon":5.42404,"is_reserved":false,"is_disabled":false,"rental_uris":{"android":"levelo://app?vid=23f5ea08-82a0-4cba-b3a5-e1cda91a8208","ios":"levelo://app?vid=23f5ea08-82a0-4cba-b3a5-e1cda91a8208"},"vehicle_type_id":"4","last_reported":1736975237,"current_range_meters":38800,"station_id":"ce4bhp92rcd13ifvqhbg","pricing_plan_id":"cebpf4jnsgd1na2vs0mg"},{"bike_id":"9f89b701-7d41-4871-a620-462fe45589bd","system_id":"levelo_inurba_marseille","lat":43.27372,"lon":5.36249,"is_reserved":false,"is_disabled":false,"rental_uris":{"android":"levelo://app?vid=9f89b701-7d41-4871-a620-462fe45589bd","ios":"levelo://app?vid=9f89b701-7d41-4871-a620-462fe45589bd"},"vehicle_type_id":"4","last_reported":1736975237,"current_range_meters":39200,"station_id":"ce4bhbh2rcd13ifvqeo0","pricing_plan_id":"cebpf4jnsgd1na2vs0mg"},{"bike_id":"917148ce-4c9d-450a-97ee-d2deee4d50c3","system_id":"levelo_inurba_marseille","lat":43.32443,"lon":5.367,"is_reserved":false,"is_disabled":false,"rental_uris":{"android":"levelo://app?vid=917148ce-4c9d-450a-97ee-d2deee4d50c3","ios":"levelo://app?vid=917148ce-4c9d-450a-97ee-d2deee4d50c3"},"vehicle_type_id":"4","last_reported":1736975237,"current_range_meters":14800,"station_id":"ce4bhs12rcd13ifvqhvg","pricing_plan_id":"cebpf4jnsgd1na2vs0mg"},{"bike_id":"6f0a34a5-dcd2-40df-a525-7f6c1402acf2","system_id":"levelo_inurba_marseille","lat":43.29863,"lon":5.39724,"is_reserved":false,"is_disabled":false,"rental_uris":{"android":"levelo://app?vid=6f0a34a5-dcd2-40df-a525-7f6c1402acf2","ios":"levelo://app?vid=6f0a34a5-dcd2-40df-a525-7f6c1402acf2"},"vehicle_type_id":"4","last_reported":1736975237,"current_range_meters":10800,"station_id":"ce4bh0h2rcd13ifvqd50","pricing_plan_id":"cebpf4jnsgd1na2vs0mg"},{"bike_id":"c4944fc2-d767-48b9-bd43-af584a393e70","system_id":"levelo_inurba_marseille","lat":43.30325,"lon":5.40437,"is_reserved":false,"is_disabled":false,"rental_uris":{"android":"levelo://app?vid=c4944fc2-d767-48b9-bd43-af584a393e70","ios":"levelo://app?vid=c4944fc2-d767-48b9-bd43-af584a393e70"},"vehicle_type_id":"4","last_reported":1736975237,"current_range_meters":5600,"station_id":"ce4bh012rcd13ifvqd10","pricing_plan_id":"cebpf4jnsgd1na2vs0mg"},{"bike_id":"becd60ec-8baa-4bd4-baf7-76ee6c6b3447","system_id":"levelo_inurba_marseille","lat":43.28612,"lon":5.35104,"is_reserved":false,"is_disabled":false,"rental_uris":{"android":"levelo://app?vid=becd60ec-8baa-4bd4-baf7-76ee6c6b3447","ios":"levelo://app?vid=becd60ec-8baa-4bd4-baf7-76ee6c6b3447"},"vehicle_type_id":"4","last_reported":1736975237,"current_range_meters":38800,"station_id":"ce4bhch2rcd13ifvqeug","pricing_plan_id":"cebpf4jnsgd1na2vs0mg"},{"bike_id":"2635dd77-daaa-46f8-b481-18d8bd38ecb3","system_id":"levelo_inurba_marseille","lat":43.28421,"lon":5.34993,"is_reserved":false,"is_disabled":false,"rental_uris":{"android":"levelo://app?vid=2635dd77-daaa-46f8-b481-18d8bd38ecb3","ios":"levelo://app?vid=2635dd77-daaa-46f8-b481-18d8bd38ecb3"},"vehicle_type_id":"4","last_reported":1736975237,"current_range_meters":16400,"station_id":"ce4bhbh2rcd13ifvqepg","pricing_plan_id":"cebpf4jnsgd1na2vs0mg"},{"bike_id":"5ce61666-8447-4ff6-b817-161e126c2b98","system_id":"levelo_inurba_marseille","lat":43.29019,"lon":5.38645,"is_reserved":false,"is_disabled":false,"rental_uris":{"android":"levelo://app?vid=5ce61666-8447-4ff6-b817-161e126c2b98","ios":"levelo://app?vid=5ce61666-8447-4ff6-b817-161e126c2b98"},"vehicle_type_id":"4","last_reported":1736975237,"current_range_meters":32800,"station_id":"ce4bh4p2rcd13ifvqe0g","pricing_plan_id":"cebpf4jnsgd1na2vs0mg"},{"bike_id":"f582b59d-1225-4cb5-8d0c-2c17265f6846","system_id":"levelo_inurba_marseille","lat":43.28103,"lon":5.37843,"is_reserved":false,"is_disabled":false,"rental_uris":{"android":"levelo://app?vid=f582b59d-1225-4cb5-8d0c-2c17265f6846","ios":"levelo://app?vid=f582b59d-1225-4cb5-8d0c-2c17265f6846"},"vehicle_type_id":"4","last_reported":1736975237,"current_range_meters":36800,"station_id":"ce4bha12rcd13ifvqee0","pricing_plan_id":"cebpf4jnsgd1na2vs0mg"},{"bike_id":"2d7f3353-743b-41e1-85f2-e32181d4ae48","system_id":"levelo_inurba_marseille","lat":43.31996,"lon":5.38137,"is_reserved":false,"is_disabled":false,"rental_uris":{"android":"levelo://app?vid=2d7f3353-743b-41e1-85f2-e32181d4ae48","ios":"levelo://app?vid=2d7f3353-743b-41e1-85f2-e32181d4ae48"},"vehicle_type_id":"4","last_reported":1736975237,"current_range_meters":36400,"station_id":"ce4bhr12rcd13ifvqhpg","pricing_plan_id":"cebpf4jnsgd1na2vs0mg"},{"bike_id":"7e3ee2e7-7482-4133-a472-006dba3905fa","system_id":"levelo_inurba_marseille","lat":43.25499,"lon":5.37646,"is_reserved":false,"is_disabled":false,"rental_uris":{"android":"levelo://app?vid=7e3ee2e7-7482-4133-a472-006dba3905fa","ios":"levelo://app?vid=7e3ee2e7-7482-4133-a472-006dba3905fa"},"vehicle_type_id":"4","last_reported":1736975237,"current_range_meters":30000,"station_id":"ce4bhh12rcd13ifvqff0","pricing_plan_id":"cebpf4jnsgd1na2vs0mg"},{"bike_id":"363da7d7-f331-4be5-b616-92543340adb3","system_id":"levelo_inurba_marseille","lat":43.27193,"lon":5.40984,"is_reserved":false,"is_disabled":false,"rental_uris":{"android":"levelo://app?vid=363da7d7-f331-4be5-b616-92543340adb3","ios":"levelo://app?vid=363da7d7-f331-4be5-b616-92543340adb3"},"vehicle_type_id":"4","last_reported":1736975237,"current_range_meters":36800,"station_id":"ce4bhl12rcd13ifvqgf0","pricing_plan_id":"cebpf4jnsgd1na2vs0mg"},{"bike_id":"3b81ae39-027f-428c-b2db-070b6b26668c","system_id":"levelo_inurba_marseille","lat":43.28102,"lon":5.37851,"is_reserved":false,"is_disabled":false,"rental_uris":{"android":"levelo://app?vid=3b81ae39-027f-428c-b2db-070b6b26668c","ios":"levelo://app?vid=3b81ae39-027f-428c-b2db-070b6b26668c"},"vehicle_type_id":"4","last_reported":1736975237,"current_range_meters":27600,"station_id":"ce4bha12rcd13ifvqee0","pricing_plan_id":"cebpf4jnsgd1na2vs0mg"},{"bike_id":"f7e38dc7-32fb-4613-b8a0-f1dcd3094a54","system_id":"levelo_inurba_marseille","lat":43.31165,"lon":5.38706,"is_reserved":false,"is_disabled":false,"rental_uris":{"android":"levelo://app?vid=f7e38dc7-32fb-4613-b8a0-f1dcd3094a54","ios":"levelo://app?vid=f7e38dc7-32fb-4613-b8a0-f1dcd3094a54"},"vehicle_type_id":"4","last_reported":1736975237,"current_range_meters":38800,"station_id":"ce4bgv12rcd13ifvqcp0","pricing_plan_id":"cebpf4jnsgd1na2vs0mg"},{"bike_id":"1d6528fb-0c16-40a0-8901-74c2906f9d60","system_id":"levelo_inurba_marseille","lat":43.31773,"lon":5.39015,"is_reserved":false,"is_disabled":false,"rental_uris":{"android":"levelo://app?vid=1d6528fb-0c16-40a0-8901-74c2906f9d60","ios":"levelo://app?vid=1d6528fb-0c16-40a0-8901-74c2906f9d60"},"vehicle_type_id":"4","last_reported":1736975237,"current_range_meters":16000,"station_id":"ce4bhqp2rcd13ifvqhng","pricing_plan_id":"cebpf4jnsgd1na2vs0mg"},{"bike_id":"c3e35290-6491-44eb-9866-0c9e8e5b99c9","system_id":"levelo_inurba_marseille","lat":43.32292,"lon":5.38267,"is_reserved":false,"is_disabled":false,"rental_uris":{"android":"levelo://app?vid=c3e35290-6491-44eb-9866-0c9e8e5b99c9","ios":"levelo://app?vid=c3e35290-6491-44eb-9866-0c9e8e5b99c9"},"vehicle_type_id":"4","last_reported":1736975237,"current_range_meters":28000,"station_id":"ce4bhr12rcd13ifvqhqg","pricing_plan_id":"cebpf4jnsgd1na2vs0mg"},{"bike_id":"b583689d-4b3b-4fec-a4c3-0358dd755494","system_id":"levelo_inurba_marseille","lat":43.266871,"lon":5.382734,"is_reserved":false,"is_disabled":false,"rental_uris":{"android":"levelo://app?vid=b583689d-4b3b-4fec-a4c3-0358dd755494","ios":"levelo://app?vid=b583689d-4b3b-4fec-a4c3-0358dd755494"},"vehicle_type_id":"4","last_reported":1736975237,"current_range_meters":26800,"station_id":"ce4bhg92rcd13ifvqf90","pricing_plan_id":"cebpf4jnsgd1na2vs0mg"},{"bike_id":"55cf908b-1b3d-492f-9bfd-085397d23224","system_id":"levelo_inurba_marseille","lat":43.28181,"lon":5.42631,"is_reserved":false,"is_disabled":false,"rental_uris":{"android":"levelo://app?vid=55cf908b-1b3d-492f-9bfd-085397d23224","ios":"levelo://app?vid=55cf908b-1b3d-492f-9bfd-085397d23224"},"vehicle_type_id":"4","last_reported":1736975237,"current_range_meters":14800,"station_id":"ce4bhnh2rcd13ifvqgug","pricing_plan_id":"cebpf4jnsgd1na2vs0mg"},{"bike_id":"707749f3-a37d-4d9b-b334-806fb35104ea","system_id":"levelo_inurba_marseille","lat":43.31173,"lon":5.38701,"is_reserved":false,"is_disabled":false,"rental_uris":{"android":"levelo://app?vid=707749f3-a37d-4d9b-b334-806fb35104ea","ios":"levelo://app?vid=707749f3-a37d-4d9b-b334-806fb35104ea"},"vehicle_type_id":"4","last_reported":1736975237,"current_range_meters":38800,"station_id":"ce4bgv12rcd13ifvqcp0","pricing_plan_id":"cebpf4jnsgd1na2vs0mg"},{"bike_id":"8534aaf4-535f-4db5-8998-0f97ef68ef36","system_id":"levelo_inurba_marseille","lat":43.24396,"lon":5.37052,"is_reserved":false,"is_disabled":false,"rental_uris":{"android":"levelo://app?vid=8534aaf4-535f-4db5-8998-0f97ef68ef36","ios":"levelo://app?vid=8534aaf4-535f-4db5-8998-0f97ef68ef36"},"vehicle_type_id":"4","last_reported":1736975237,"current_range_meters":13600,"station_id":"ce4bhhh2rcd13ifvqfk0","pricing_plan_id":"cebpf4jnsgd1na2vs0mg"},{"bike_id":"5d42a98e-bef8-43af-946e-751274f82d4c","system_id":"levelo_inurba_marseille","lat":43.23657,"lon":5.43591,"is_reserved":false,"is_disabled":false,"rental_uris":{"android":"levelo://app?vid=5d42a98e-bef8-43af-946e-751274f82d4c","ios":"levelo://app?vid=5d42a98e-bef8-43af-946e-751274f82d4c"},"vehicle_type_id":"4","last_reported":1736975237,"current_range_meters":34000,"station_id":"","pricing_plan_id":"cebpf4jnsgd1na2vs0mg"},{"bike_id":"4a3247e0-3217-42b1-ae81-034cd7e67a59","system_id":"levelo_inurba_marseille","lat":43.29596,"lon":5.38095,"is_reserved":false,"is_disabled":false,"rental_uris":{"android":"levelo://app?vid=4a3247e0-3217-42b1-ae81-034cd7e67a59","ios":"levelo://app?vid=4a3247e0-3217-42b1-ae81-034cd7e67a59"},"vehicle_type_id":"4","last_reported":1736975237,"current_range_meters":27200,"station_id":"ce4bgl12rcd13ifvqbo0","pricing_plan_id":"cebpf4jnsgd1na2vs0mg"},{"bike_id":"a2908b4f-e283-49c6-a08d-76ce2a17372d","system_id":"levelo_inurba_marseille","lat":43.2997,"lon":5.38485,"is_reserved":false,"is_disabled":true,"rental_uris":{"android":"levelo://app?vid=a2908b4f-e283-49c6-a08d-76ce2a17372d","ios":"levelo://app?vid=a2908b4f-e283-49c6-a08d-76ce2a17372d"},"vehicle_type_id":"4","last_reported":1736975237,"current_range_meters":38800,"station_id":"ce4bgj92rcd13ifvqbd0","pricing_plan_id":"cebpf4jnsgd1na2vs0mg"},{"bike_id":"05f99b36-9cf7-43cd-9526-71c0f6c7002c","system_id":"levelo_inurba_marseille","lat":43.26059,"lon":5.39393,"is_reserved":false,"is_disabled":false,"rental_uris":{"android":"levelo://app?vid=05f99b36-9cf7-43cd-9526-71c0f6c7002c","ios":"levelo://app?vid=05f99b36-9cf7-43cd-9526-71c0f6c7002c"},"vehicle_type_id":"4","last_reported":1736975237,"current_range_meters":36800,"station_id":"ce4bhh92rcd13ifvqfj0","pricing_plan_id":"cebpf4jnsgd1na2vs0mg"},{"bike_id":"11278e1c-be2e-4e31-bf3c-f5d6585df2f8","system_id":"levelo_inurba_marseille","lat":43.30771,"lon":5.38168,"is_reserved":false,"is_disabled":false,"rental_uris":{"android":"levelo://app?vid=11278e1c-be2e-4e31-bf3c-f5d6585df2f8","ios":"levelo://app?vid=11278e1c-be2e-4e31-bf3c-f5d6585df2f8"},"vehicle_type_id":"4","last_reported":1736975237,"current_range_meters":39200,"station_id":"ce4bgt12rcd13ifvqce0","pricing_plan_id":"cebpf4jnsgd1na2vs0mg"},{"bike_id":"6c02ae22-4e33-4b73-a0d5-7fa499611cc2","system_id":"levelo_inurba_marseille","lat":43.23151,"lon":5.43698,"is_reserved":false,"is_disabled":false,"rental_uris":{"android":"levelo://app?vid=6c02ae22-4e33-4b73-a0d5-7fa499611cc2","ios":"levelo://app?vid=6c02ae22-4e33-4b73-a0d5-7fa499611cc2"},"vehicle_type_id":"4","last_reported":1736975237,"current_range_meters":36800,"station_id":"ce4bhmp2rcd13ifvqgog","pricing_plan_id":"cebpf4jnsgd1na2vs0mg"},{"bike_id":"26c59f0b-5c67-41af-a7c3-448cd620e554","system_id":"levelo_inurba_marseille","lat":43.26807,"lon":5.40262,"is_reserved":false,"is_disabled":false,"rental_uris":{"android":"levelo://app?vid=26c59f0b-5c67-41af-a7c3-448cd620e554","ios":"levelo://app?vid=26c59f0b-5c67-41af-a7c3-448cd620e554"},"vehicle_type_id":"4","last_reported":1736975237,"current_range_meters":38800,"station_id":"ce501612rcd8frsf0b60","pricing_plan_id":"cebpf4jnsgd1na2vs0mg"},{"bike_id":"f3000f12-d78d-46d5-99ca-8a4e13f94f9e","system_id":"levelo_inurba_marseille","lat":43.25503,"lon":5.37645,"is_reserved":false,"is_disabled":false,"rental_uris":{"android":"levelo://app?vid=f3000f12-d78d-46d5-99ca-8a4e13f94f9e","ios":"levelo://app?vid=f3000f12-d78d-46d5-99ca-8a4e13f94f9e"},"vehicle_type_id":"4","last_reported":1736975237,"current_range_meters":38800,"station_id":"ce4bhh12rcd13ifvqff0","pricing_plan_id":"cebpf4jnsgd1na2vs0mg"},{"bike_id":"7241fb88-c4be-4279-8256-9b9eda4440ff","system_id":"levelo_inurba_marseille","lat":43.24651,"lon":5.38894,"is_reserved":false,"is_disabled":false,"rental_uris":{"android":"levelo://app?vid=7241fb88-c4be-4279-8256-9b9eda4440ff","ios":"levelo://app?vid=7241fb88-c4be-4279-8256-9b9eda4440ff"},"vehicle_type_id":"4","last_reported":1736975237,"current_range_meters":29600,"station_id":"ce4bhg12rcd13ifvqf60","pricing_plan_id":"cebpf4jnsgd1na2vs0mg"},{"bike_id":"daed1ccd-abf9-45c7-831e-19fefaff00a6","system_id":"levelo_inurba_marseille","lat":43.28151,"lon":5.42651,"is_reserved":false,"is_disabled":false,"rental_uris":{"android":"levelo://app?vid=daed1ccd-abf9-45c7-831e-19fefaff00a6","ios":"levelo://app?vid=daed1ccd-abf9-45c7-831e-19fefaff00a6"},"vehicle_type_id":"4","last_reported":1736975237,"current_range_meters":26800,"station_id":"ce4bhnh2rcd13ifvqgug","pricing_plan_id":"cebpf4jnsgd1na2vs0mg"},{"bike_id":"6003524c-18e4-4d25-8fc7-903f93c12173","system_id":"levelo_inurba_marseille","lat":43.30142,"lon":5.38766,"is_reserved":false,"is_disabled":true,"rental_uris":{"android":"levelo://app?vid=6003524c-18e4-4d25-8fc7-903f93c12173","ios":"levelo://app?vid=6003524c-18e4-4d25-8fc7-903f93c12173"},"vehicle_type_id":"4","last_reported":1736975237,"current_range_meters":0,"station_id":"ce4bghh2rcd13ifvqb60","pricing_plan_id":"cebpf4jnsgd1na2vs0mg"},{"bike_id":"57edb4d6-08bb-4140-842e-8411bf1bbd16","system_id":"levelo_inurba_marseille","lat":43.313581,"lon":5.384892,"is_reserved":false,"is_disabled":false,"rental_uris":{"android":"levelo://app?vid=57edb4d6-08bb-4140-842e-8411bf1bbd16","ios":"levelo://app?vid=57edb4d6-08bb-4140-842e-8411bf1bbd16"},"vehicle_type_id":"4","last_reported":1736975237,"current_range_meters":18000,"station_id":"ce4bgt92rcd13ifvqcf0","pricing_plan_id":"cebpf4jnsgd1na2vs0mg"},{"bike_id":"18aa87ac-4f2a-414a-88f7-f106e8544a48","system_id":"levelo_inurba_marseille","lat":43.28454,"lon":5.3589,"is_reserved":false,"is_disabled":false,"rental_uris":{"android":"levelo://app?vid=18aa87ac-4f2a-414a-88f7-f106e8544a48","ios":"levelo://app?vid=18aa87ac-4f2a-414a-88f7-f106e8544a48"},"vehicle_type_id":"4","last_reported":1736975237,"current_range_meters":27200,"station_id":"ce4bhah2rcd13ifvqei0","pricing_plan_id":"cebpf4jnsgd1na2vs0mg"},{"bike_id":"7dd28d71-a90d-402c-98d7-6bf2d28c5739","system_id":"levelo_inurba_marseille","lat":43.29539,"lon":5.39417,"is_reserved":false,"is_disabled":true,"rental_uris":{"android":"levelo://app?vid=7dd28d71-a90d-402c-98d7-6bf2d28c5739","ios":"levelo://app?vid=7dd28d71-a90d-402c-98d7-6bf2d28c5739"},"vehicle_type_id":"4","last_reported":1736975237,"current_range_meters":2000,"station_id":"ce4bh292rcd13ifvqdf0","pricing_plan_id":"cebpf4jnsgd1na2vs0mg"},{"bike_id":"7b2dad03-0db0-43a1-9f51-dcbeeaadc873","system_id":"levelo_inurba_marseille","lat":43.24805,"lon":5.37451,"is_reserved":false,"is_disabled":false,"rental_uris":{"android":"levelo://app?vid=7b2dad03-0db0-43a1-9f51-dcbeeaadc873","ios":"levelo://app?vid=7b2dad03-0db0-43a1-9f51-dcbeeaadc873"},"vehicle_type_id":"4","last_reported":1736975237,"current_range_meters":39200,"station_id":"ce4bhgh2rcd13ifvqfb0","pricing_plan_id":"cebpf4jnsgd1na2vs0mg"},{"bike_id":"e1ef5d1c-0e65-4750-a161-52ba58c02508","system_id":"levelo_inurba_marseille","lat":43.25823,"lon":5.39434,"is_reserved":false,"is_disabled":false,"rental_uris":{"android":"levelo://app?vid=e1ef5d1c-0e65-4750-a161-52ba58c02508","ios":"levelo://app?vid=e1ef5d1c-0e65-4750-a161-52ba58c02508"},"vehicle_type_id":"4","last_reported":1736975237,"current_range_meters":23200,"station_id":"ce4bhip2rcd13ifvqft0","pricing_plan_id":"cebpf4jnsgd1na2vs0mg"},{"bike_id":"647a00c4-5ed6-4d8d-885c-12687f55b6f1","system_id":"levelo_inurba_marseille","lat":43.28478,"lon":5.38393,"is_reserved":false,"is_disabled":false,"rental_uris":{"android":"levelo://app?vid=647a00c4-5ed6-4d8d-885c-12687f55b6f1","ios":"levelo://app?vid=647a00c4-5ed6-4d8d-885c-12687f55b6f1"},"vehicle_type_id":"4","last_reported":1736975237,"current_range_meters":38400,"station_id":"ce4bh512rcd13ifvqe3g","pricing_plan_id":"cebpf4jnsgd1na2vs0mg"},{"bike_id":"ba1008a8-8bd4-4cbd-ad17-281945b98710","system_id":"levelo_inurba_marseille","lat":43.26556,"lon":5.3902,"is_reserved":false,"is_disabled":true,"rental_uris":{"android":"levelo://app?vid=ba1008a8-8bd4-4cbd-ad17-281945b98710","ios":"levelo://app?vid=ba1008a8-8bd4-4cbd-ad17-281945b98710"},"vehicle_type_id":"4","last_reported":1736975237,"current_range_meters":38800,"station_id":"ce4bhe12rcd13ifvqf30","pricing_plan_id":"cebpf4jnsgd1na2vs0mg"},{"bike_id":"9654565a-de20-49ea-98e9-7a7679e1d5c2","system_id":"levelo_inurba_marseille","lat":43.31273,"lon":5.40164,"is_reserved":false,"is_disabled":false,"rental_uris":{"android":"levelo://app?vid=9654565a-de20-49ea-98e9-7a7679e1d5c2","ios":"levelo://app?vid=9654565a-de20-49ea-98e9-7a7679e1d5c2"},"vehicle_type_id":"4","last_reported":1736975237,"current_range_meters":35200,"station_id":"ce4bh092rcd13ifvqd30","pricing_plan_id":"cebpf4jnsgd1na2vs0mg"},{"bike_id":"b66c8a7c-98ac-480c-a383-f54813a2d5aa","system_id":"levelo_inurba_marseille","lat":43.25822,"lon":5.39427,"is_reserved":false,"is_disabled":false,"rental_uris":{"android":"levelo://app?vid=b66c8a7c-98ac-480c-a383-f54813a2d5aa","ios":"levelo://app?vid=b66c8a7c-98ac-480c-a383-f54813a2d5aa"},"vehicle_type_id":"4","last_reported":1736975237,"current_range_meters":38400,"station_id":"ce4bhip2rcd13ifvqft0","pricing_plan_id":"cebpf4jnsgd1na2vs0mg"},{"bike_id":"2432eacd-ab10-461b-a2e2-21c71ec55dc6","system_id":"levelo_inurba_marseille","lat":43.28912,"lon":5.38391,"is_reserved":false,"is_disabled":false,"rental_uris":{"android":"levelo://app?vid=2432eacd-ab10-461b-a2e2-21c71ec55dc6","ios":"levelo://app?vid=2432eacd-ab10-461b-a2e2-21c71ec55dc6"},"vehicle_type_id":"4","last_reported":1736975237,"current_range_meters":39200,"station_id":"ce4bh612rcd13ifvqe6g","pricing_plan_id":"cebpf4jnsgd1na2vs0mg"},{"bike_id":"84c1b7bc-b2a1-4aca-8fde-4b60932654f6","system_id":"levelo_inurba_marseille","lat":43.29711,"lon":5.37699,"is_reserved":false,"is_disabled":false,"rental_uris":{"android":"levelo://app?vid=84c1b7bc-b2a1-4aca-8fde-4b60932654f6","ios":"levelo://app?vid=84c1b7bc-b2a1-4aca-8fde-4b60932654f6"},"vehicle_type_id":"4","last_reported":1736975237,"current_range_meters":30800,"station_id":"ce4bgkh2rcd13ifvqbl0","pricing_plan_id":"cebpf4jnsgd1na2vs0mg"},{"bike_id":"e3848547-df47-4a51-92ba-9382fd18f259","system_id":"levelo_inurba_marseille","lat":43.26944,"lon":5.40251,"is_reserved":false,"is_disabled":false,"rental_uris":{"android":"levelo://app?vid=e3848547-df47-4a51-92ba-9382fd18f259","ios":"levelo://app?vid=e3848547-df47-4a51-92ba-9382fd18f259"},"vehicle_type_id":"4","last_reported":1736975237,"current_range_meters":35200,"station_id":"cjm6bp8fraef2m0cb0m0","pricing_plan_id":"cebpf4jnsgd1na2vs0mg"},{"bike_id":"2c0a4b85-fa0c-4b1c-9f17-72a3156947f6","system_id":"levelo_inurba_marseille","lat":43.300944,"lon":5.390736,"is_reserved":false,"is_disabled":false,"rental_uris":{"android":"levelo://app?vid=2c0a4b85-fa0c-4b1c-9f17-72a3156947f6","ios":"levelo://app?vid=2c0a4b85-fa0c-4b1c-9f17-72a3156947f6"},"vehicle_type_id":"4","last_reported":1736975237,"current_range_meters":38800,"station_id":"ce4bh192rcd13ifvqdb0","pricing_plan_id":"cebpf4jnsgd1na2vs0mg"},{"bike_id":"da3f7a96-04f0-45a8-ab21-e4d3ec53c466","system_id":"levelo_inurba_marseille","lat":43.24542,"lon":5.39514,"is_reserved":false,"is_disabled":false,"rental_uris":{"android":"levelo://app?vid=da3f7a96-04f0-45a8-ab21-e4d3ec53c466","ios":"levelo://app?vid=da3f7a96-04f0-45a8-ab21-e4d3ec53c466"},"vehicle_type_id":"4","last_reported":1736975237,"current_range_meters":31200,"station_id":"ce4bhlp2rcd13ifvqgjg","pricing_plan_id":"cebpf4jnsgd1na2vs0mg"},{"bike_id":"3db749df-9f2a-4e9d-8f74-e4ba80be6ff9","system_id":"levelo_inurba_marseille","lat":43.23183,"lon":5.39993,"is_reserved":false,"is_disabled":false,"rental_uris":{"android":"levelo://app?vid=3db749df-9f2a-4e9d-8f74-e4ba80be6ff9","ios":"levelo://app?vid=3db749df-9f2a-4e9d-8f74-e4ba80be6ff9"},"vehicle_type_id":"4","last_reported":1736975237,"current_range_meters":28400,"station_id":"ce4bhn12rcd13ifvqgqg","pricing_plan_id":"cebpf4jnsgd1na2vs0mg"},{"bike_id":"df7cc3d2-0391-4ca1-8a40-573bec664cf0","system_id":"levelo_inurba_marseille","lat":43.24807,"lon":5.37452,"is_reserved":false,"is_disabled":false,"rental_uris":{"android":"levelo://app?vid=df7cc3d2-0391-4ca1-8a40-573bec664cf0","ios":"levelo://app?vid=df7cc3d2-0391-4ca1-8a40-573bec664cf0"},"vehicle_type_id":"4","last_reported":1736975237,"current_range_meters":4400,"station_id":"ce4bhgh2rcd13ifvqfb0","pricing_plan_id":"cebpf4jnsgd1na2vs0mg"},{"bike_id":"b5a5123f-0104-4536-bce5-1557eef1c1ed","system_id":"levelo_inurba_marseille","lat":43.30258,"lon":5.40045,"is_reserved":false,"is_disabled":false,"rental_uris":{"android":"levelo://app?vid=b5a5123f-0104-4536-bce5-1557eef1c1ed","ios":"levelo://app?vid=b5a5123f-0104-4536-bce5-1557eef1c1ed"},"vehicle_type_id":"4","last_reported":1736975237,"current_range_meters":26000,"station_id":"ce4bgvh2rcd13ifvqcs0","pricing_plan_id":"cebpf4jnsgd1na2vs0mg"},{"bike_id":"c3add43b-bf52-4193-b880-0d78478473f5","system_id":"levelo_inurba_marseille","lat":43.23189,"lon":5.35537,"is_reserved":false,"is_disabled":false,"rental_uris":{"android":"levelo://app?vid=c3add43b-bf52-4193-b880-0d78478473f5","ios":"levelo://app?vid=c3add43b-bf52-4193-b880-0d78478473f5"},"vehicle_type_id":"4","last_reported":1736975237,"current_range_meters":36800,"station_id":"ce4bhu92rcd13ifvqi70","pricing_plan_id":"cebpf4jnsgd1na2vs0mg"},{"bike_id":"b5afb34a-447b-45fd-99a2-32ae5df604b2","system_id":"levelo_inurba_marseille","lat":43.28912,"lon":5.38385,"is_reserved":false,"is_disabled":false,"rental_uris":{"android":"levelo://app?vid=b5afb34a-447b-45fd-99a2-32ae5df604b2","ios":"levelo://app?vid=b5afb34a-447b-45fd-99a2-32ae5df604b2"},"vehicle_type_id":"4","last_reported":1736975237,"current_range_meters":16000,"station_id":"ce4bh612rcd13ifvqe6g","pricing_plan_id":"cebpf4jnsgd1na2vs0mg"},{"bike_id":"59e39e6e-07d2-4c0d-a96b-2eece172dc89","system_id":"levelo_inurba_marseille","lat":43.26213,"lon":5.37437,"is_reserved":false,"is_disabled":true,"rental_uris":{"android":"levelo://app?vid=59e39e6e-07d2-4c0d-a96b-2eece172dc89","ios":"levelo://app?vid=59e39e6e-07d2-4c0d-a96b-2eece172dc89"},"vehicle_type_id":"4","last_reported":1736975237,"current_range_meters":37600,"station_id":"ce4bhgp2rcd13ifvqfc0","pricing_plan_id":"cebpf4jnsgd1na2vs0mg"},{"bike_id":"ed31ad95-4bab-4194-8ddc-4e871d1c4495","system_id":"levelo_inurba_marseille","lat":43.301,"lon":5.39063,"is_reserved":false,"is_disabled":false,"rental_uris":{"android":"levelo://app?vid=ed31ad95-4bab-4194-8ddc-4e871d1c4495","ios":"levelo://app?vid=ed31ad95-4bab-4194-8ddc-4e871d1c4495"},"vehicle_type_id":"4","last_reported":1736975237,"current_range_meters":10000,"station_id":"ce4bh192rcd13ifvqdb0","pricing_plan_id":"cebpf4jnsgd1na2vs0mg"},{"bike_id":"a48db53e-52f5-4811-a477-21dc3b0729dc","system_id":"levelo_inurba_marseille","lat":43.30791,"lon":5.38151,"is_reserved":false,"is_disabled":false,"rental_uris":{"android":"levelo://app?vid=a48db53e-52f5-4811-a477-21dc3b0729dc","ios":"levelo://app?vid=a48db53e-52f5-4811-a477-21dc3b0729dc"},"vehicle_type_id":"4","last_reported":1736975237,"current_range_meters":23200,"station_id":"ce4bgt12rcd13ifvqce0","pricing_plan_id":"cebpf4jnsgd1na2vs0mg"},{"bike_id":"5565ba63-8c08-4156-ad24-a446e77f076d","system_id":"levelo_inurba_marseille","lat":43.2547,"lon":5.37637,"is_reserved":false,"is_disabled":false,"rental_uris":{"android":"levelo://app?vid=5565ba63-8c08-4156-ad24-a446e77f076d","ios":"levelo://app?vid=5565ba63-8c08-4156-ad24-a446e77f076d"},"vehicle_type_id":"4","last_reported":1736975237,"current_range_meters":37600,"station_id":"ce4bhh12rcd13ifvqff0","pricing_plan_id":"cebpf4jnsgd1na2vs0mg"},{"bike_id":"bdd7c4c9-f9bc-4cf0-9638-ea56b0417d02","system_id":"levelo_inurba_marseille","lat":43.29804,"lon":5.3935,"is_reserved":false,"is_disabled":false,"rental_uris":{"android":"levelo://app?vid=bdd7c4c9-f9bc-4cf0-9638-ea56b0417d02","ios":"levelo://app?vid=bdd7c4c9-f9bc-4cf0-9638-ea56b0417d02"},"vehicle_type_id":"4","last_reported":1736975237,"current_range_meters":38800,"station_id":"chh1huq6cuj3fo74tm60","pricing_plan_id":"cebpf4jnsgd1na2vs0mg"},{"bike_id":"d7189954-2d06-41cb-a4d1-2c98daaad5fb","system_id":"levelo_inurba_marseille","lat":43.27941,"lon":5.41031,"is_reserved":false,"is_disabled":false,"rental_uris":{"android":"levelo://app?vid=d7189954-2d06-41cb-a4d1-2c98daaad5fb","ios":"levelo://app?vid=d7189954-2d06-41cb-a4d1-2c98daaad5fb"},"vehicle_type_id":"4","last_reported":1736975237,"current_range_meters":30400,"station_id":"ce4bhnp2rcd13ifvqh0g","pricing_plan_id":"cebpf4jnsgd1na2vs0mg"},{"bike_id":"c0bdaeb8-7370-4ae1-a195-1211fb17f7dc","system_id":"levelo_inurba_marseille","lat":43.28852,"lon":5.39302,"is_reserved":false,"is_disabled":false,"rental_uris":{"android":"levelo://app?vid=c0bdaeb8-7370-4ae1-a195-1211fb17f7dc","ios":"levelo://app?vid=c0bdaeb8-7370-4ae1-a195-1211fb17f7dc"},"vehicle_type_id":"4","last_reported":1736975237,"current_range_meters":24400,"station_id":"ce4bh2p2rcd13ifvqdi0","pricing_plan_id":"cebpf4jnsgd1na2vs0mg"},{"bike_id":"d8f6489f-1a74-42ff-a53a-330662d1f289","system_id":"levelo_inurba_marseille","lat":43.3107,"lon":5.38357,"is_reserved":false,"is_disabled":false,"rental_uris":{"android":"levelo://app?vid=d8f6489f-1a74-42ff-a53a-330662d1f289","ios":"levelo://app?vid=d8f6489f-1a74-42ff-a53a-330662d1f289"},"vehicle_type_id":"4","last_reported":1736975237,"current_range_meters":14000,"station_id":"ce4bgv92rcd13ifvqcr0","pricing_plan_id":"cebpf4jnsgd1na2vs0mg"},