{"last_updated":1720879589,"ttl":30,"version":"2.2","data":{"bikes":[{"bike_id":"250ce43e-a31b-497d-9217-b532f6a53537","system_id":"levelo_inurba_marseille","lat":43.31323,"lon":5.36656,"is_reserved":false,"is_disabled":false,"rental_uris":{"android":"levelo://app?vid=250ce43e-a31b-497d-9217-b532f6a53537","ios":"levelo://app?vid=250ce43e-a31b-497d-9217-b532f6a53537"},"vehicle_type_id":"4","last_reported":1720879589,"current_range_meters":14800,"station_id":"","pricing_plan_id":"cebpf4jnsgd1na2vs0mg"},{"bike_id":"3fec8def-be29-462a-ac48-17951f4ec48a","system_id":"levelo_inurba_marseille","lat":43.31341,"lon":5.367098,"is_reserved":false,"is_disabled":false,"rental_uris":{"android":"levelo://app?vid=3fec8def-be29-462a-ac48-17951f4ec48a","ios":"levelo://app?vid=3fec8def-be29-462a-ac48-17951f4ec48a"},"vehicle_type_id":"4","last_reported":1720879589,"current_range_meters":24800,"station_id":"ce4bgr92rcd13ifvqc6g","pricing_plan_id":"cebpf4jnsgd1na2vs0mg"},{"bike_id":"c1eba6b1-1e55-4704-b6bd-f0e7b724bb2d","system_id":"levelo_inurba_marseille","lat":43.31341,"lon":5.367098,"is_reserved":false,"is_disabled":false,"rental_uris":{"android":"levelo://app?vid=c1eba6b1-1e55-4704-b6bd-f0e7b724bb2d","ios":"levelo://app?vid=c1eba6b1-1e55-4704-b6bd-f0e7b724bb2d"},"vehicle_type_id":"4","last_reported":1720879589,"current_range_meters":27600,"station_id":"ce4bgr92rcd13ifvqc6g","pricing_plan_id":"cebpf4jnsgd1na2vs0mg"},{"bike_id":"737b4a9f-eca1-4f4f-9509-bd3ddc92a32a","system_id":"levelo_inurba_marseille","lat":43.312183,"lon":5.368206,"is_reserved":false,"is_disabled":false,"rental_uris":{"android":"levelo://app?vid=737b4a9f-eca1-4f4f-9509-bd3ddc92a32a","ios":"levelo://app?vid=737b4a9f-eca1-4f4f-9509-bd3ddc92a32a"},"vehicle_type_id":"4","last_reported":1720879589,"current_range_meters":11200,"station_id":"ce4bgl92rcd13ifvqbq0","pricing_plan_id":"cebpf4jnsgd1na2vs0mg"},{"bike_id":"8c34e1ec-2195-46a9-b451-15f27ddc5c9d","system_id":"levelo_inurba_marseille","lat":43.312239,"lon":5.368562,"is_reserved":false,"is_disabled":false,"rental_uris":{"android":"levelo://app?vid=8c34e1ec-2195-46a9-b451-15f27ddc5c9d","ios":"levelo://app?vid=8c34e1ec-2195-46a9-b451-15f27ddc5c9d"},"vehicle_type_id":"4","last_reported":1720879589,"current_range_meters":10000,"station_id":"ce4bgl92rcd13ifvqbq0","pricing_plan_id":"cebpf4jnsgd1na2vs0mg"},{"bike_id":"97eaf195-3055-420c-932d-da9b1f2c4577","system_id":"levelo_inurba_marseille","lat":43.31221,"lon":5.36858,"is_reserved":false,"is_disabled":false,"rental_uris":{"android":"levelo://app?vid=97eaf195-3055-420c-932d-da9b1f2c4577","ios":"levelo://app?vid=97eaf195-3055-420c-932d-da9b1f2c4577"},"vehicle_type_id":"4","last_reported":1720879589,"current_range_meters":28800,"station_id":"ce4bgl92rcd13ifvqbq0","pricing_plan_id":"cebpf4jnsgd1na2vs0mg"},{"bike_id":"2f568454-a2a4-45ad-afad-d7cb1564714f","system_id":"levelo_inurba_marseille","lat":43.312239,"lon":5.368562,"is_reserved":false,"is_disabled":false,"rental_uris":{"android":"levelo://app?vid=2f568454-a2a4-45ad-afad-d7cb1564714f","ios":"levelo://app?vid=2f568454-a2a4-45ad-afad-d7cb1564714f"},"vehicle_type_id":"4","last_reported":1720879589,"current_range_meters":9600,"station_id":"ce4bgl92rcd13ifvqbq0","pricing_plan_id":"cebpf4jnsgd1na2vs0mg"},{"bike_id":"bed01362-f925-4ba7-a67c-dc4ae587d412","system_id":"levelo_inurba_marseille","lat":43.309076,"lon":5.368465,"is_reserved":false,"is_disabled":false,"rental_uris":{"android":"levelo://app?vid=bed01362-f925-4ba7-a67c-dc4ae587d412","ios":"levelo://app?vid=bed01362-f925-4ba7-a67c-dc4ae587d412"},"vehicle_type_id":"4","last_reported":1720879589,"current_range_meters":31200,"station_id":"ce4bgn92rcd13ifvqbvg","pricing_plan_id":"cebpf4jnsgd1na2vs0mg"},{"bike_id":"f664b091-a2fe-43f4-99db-8f9e1bd1e800","system_id":"levelo_inurba_marseille","lat":43.31494,"lon":5.37311,"is_reserved":false,"is_disabled":false,"rental_uris":{"android":"levelo://app?vid=f664b091-a2fe-43f4-99db-8f9e1bd1e800","ios":"levelo://app?vid=f664b091-a2fe-43f4-99db-8f9e1bd1e800"},"vehicle_type_id":"4","last_reported":1720879589,"current_range_meters":2800,"station_id":"ce4bgt12rcd13ifvqcd0","pricing_plan_id":"cebpf4jnsgd1na2vs0mg"},{"bike_id":"19d00453-5dcd-46f2-ac36-1a5360fe4e32","system_id":"levelo_inurba_marseille","lat":43.309034,"lon":5.371783,"is_reserved":false,"is_disabled":false,"rental_uris":{"android":"levelo://app?vid=19d00453-5dcd-46f2-ac36-1a5360fe4e32","ios":"levelo://app?vid=19d00453-5dcd-46f2-ac36-1a5360fe4e32"},"vehicle_type_id":"4","last_reported":1720879589,"current_range_meters":8800,"station_id":"ce4bguh2rcd13ifvqckg","pricing_plan_id":"cebpf4jnsgd1na2vs0mg"},{"bike_id":"67dc44ec-6bcd-492f-baed-83f33a186c87","system_id":"levelo_inurba_marseille","lat":43.31945,"lon":5.36858,"is_reserved":false,"is_disabled":false,"rental_uris":{"android":"levelo://app?vid=67dc44ec-6bcd-492f-baed-83f33a186c87","ios":"levelo://app?vid=67dc44ec-6bcd-492f-baed-83f33a186c87"},"vehicle_type_id":"4","last_reported":1720879589,"current_range_meters":29600,"station_id":"","pricing_plan_id":"cebpf4jnsgd1na2vs0mg"},{"bike_id":"b4638671-5131-4156-9b99-9b271c02fc87","system_id":"levelo_inurba_marseille","lat":43.30549,"lon":5.3656,"is_reserved":false,"is_disabled":false,"rental_uris":{"android":"levelo://app?vid=b4638671-5131-4156-9b99-9b271c02fc87","ios":"levelo://app?vid=b4638671-5131-4156-9b99-9b271c02fc87"},"vehicle_type_id":"4","last_reported":1720879589,"current_range_meters":0,"station_id":"ce4bgs12rcd13ifvqcag","pricing_plan_id":"cebpf4jnsgd1na2vs0mg"},{"bike_id":"8d8c4b49-7bfc-43cd-816c-a42897935c51","system_id":"levelo_inurba_marseille","lat":43.305714,"lon":5.365633,"is_reserved":false,"is_disabled":false,"rental_uris":{"android":"levelo://app?vid=8d8c4b49-7bfc-43cd-816c-a42897935c51","ios":"levelo://app?vid=8d8c4b49-7bfc-43cd-816c-a42897935c51"},"vehicle_type_id":"4","last_reported":1720879589,"current_range_meters":29600,"station_id":"ce4bgs12rcd13ifvqcag","pricing_plan_id":"cebpf4jnsgd1na2vs0mg"},{"bike_id":"4da9139d-f657-4247-ab2a-eac9cca172e4","system_id":"levelo_inurba_marseille","lat":43.305706,"lon":5.365654,"is_reserved":false,"is_disabled":false,"rental_uris":{"android":"levelo://app?vid=4da9139d-f657-4247-ab2a-eac9cca172e4","ios":"levelo://app?vid=4da9139d-f657-4247-ab2a-eac9cca172e4"},"vehicle_type_id":"4","last_reported":1720879589,"current_range_meters":16000,"station_id":"ce4bgs12rcd13ifvqcag","pricing_plan_id":"cebpf4jnsgd1na2vs0mg"},{"bike_id":"36f60132-a9ab-4cbd-a69c-5a640241db3d","system_id":"levelo_inurba_marseille","lat":43.305714,"lon":5.365633,"is_reserved":false,"is_disabled":false,"rental_uris":{"android":"levelo://app?vid=36f60132-a9ab-4cbd-a69c-5a640241db3d","ios":"levelo://app?vid=36f60132-a9ab-4cbd-a69c-5a640241db3d"},"vehicle_type_id":"4","last_reported":1720879589,"current_range_meters":6400,"station_id":"ce4bgs12rcd13ifvqcag","pricing_plan_id":"cebpf4jnsgd1na2vs0mg"},{"bike_id":"325533da-25e0-451c-a79b-1d50baf97225","system_id":"levelo_inurba_marseille","lat":43.305706,"lon":5.365654,"is_reserved":false,"is_disabled":false,"rental_uris":{"android":"levelo://app?vid=325533da-25e0-451c-a79b-1d50baf97225","ios":"levelo://app?vid=325533da-25e0-451c-a79b-1d50baf97225"},"vehicle_type_id":"4","last_reported":1720879589,"current_range_meters":22400,"station_id":"ce4bgs12rcd13ifvqcag","pricing_plan_id":"cebpf4jnsgd1na2vs0mg"},{"bike_id":"536cf686-c628-4838-b3f2-7d19badadf29","system_id":"levelo_inurba_marseille","lat":43.305706,"lon":5.365654,"is_reserved":false,"is_disabled":false,"rental_uris":{"android":"levelo://app?vid=536cf686-c628-4838-b3f2-7d19badadf29","ios":"levelo://app?vid=536cf686-c628-4838-b3f2-7d19badadf29"},"vehicle_type_id":"4","last_reported":1720879589,"current_range_meters":0,"station_id":"ce4bgs12rcd13ifvqcag","pricing_plan_id":"cebpf4jnsgd1na2vs0mg"},{"bike_id":"0ca65889-c035-488f-980e-d9a1429aa80f","system_id":"levelo_inurba_marseille","lat":43.305989,"lon":5.37225,"is_reserved":false,"is_disabled":false,"rental_uris":{"android":"levelo://app?vid=0ca65889-c035-488f-980e-d9a1429aa80f","ios":"levelo://app?vid=0ca65889-c035-488f-980e-d9a1429aa80f"},"vehicle_type_id":"4","last_reported":1720879589,"current_range_meters":13600,"station_id":"ce4bgqh2rcd13ifvqc4g","pricing_plan_id":"cebpf4jnsgd1na2vs0mg"},{"bike_id":"3d352796-6daf-416e-a455-a6b542c00a0f","system_id":"levelo_inurba_marseille","lat":43.31116,"lon":5.37772,"is_reserved":false,"is_disabled":false,"rental_uris":{"android":"levelo://app?vid=3d352796-6daf-416e-a455-a6b542c00a0f","ios":"levelo://app?vid=3d352796-6daf-416e-a455-a6b542c00a0f"},"vehicle_type_id":"4","last_reported":1720879589,"current_range_meters":16000,"station_id":"ce4bgt92rcd13ifvqcg0","pricing_plan_id":"cebpf4jnsgd1na2vs0mg"},{"bike_id":"d724e6ff-9d38-407e-b2b3-981dd7f99fe8","system_id":"levelo_inurba_marseille","lat":43.30663,"lon":5.374098,"is_reserved":false,"is_disabled":false,"rental_uris":{"android":"levelo://app?vid=d724e6ff-9d38-407e-b2b3-981dd7f99fe8","ios":"levelo://app?vid=d724e6ff-9d38-407e-b2b3-981dd7f99fe8"},"vehicle_type_id":"4","last_reported":1720879589,"current_range_meters":28000,"station_id":"","pricing_plan_id":"cebpf4jnsgd1na2vs0mg"},{"bike_id":"2417e3d1-4b1c-4031-9745-f4bf19980377","system_id":"levelo_inurba_marseille","lat":43.307945,"lon":5.376487,"is_reserved":false,"is_disabled":false,"rental_uris":{"android":"levelo://app?vid=2417e3d1-4b1c-4031-9745-f4bf19980377","ios":"levelo://app?vid=2417e3d1-4b1c-4031-9745-f4bf19980377"},"vehicle_type_id":"4","last_reported":1720879589,"current_range_meters":28400,"station_id":"ce4bgv92rcd13ifvqcq0","pricing_plan_id":"cebpf4jnsgd1na2vs0mg"},{"bike_id":"cb73945a-ab16-45df-a15b-ac7ac60d5736","system_id":"levelo_inurba_marseille","lat":43.303046,"lon":5.368981,"is_reserved":false,"is_disabled":false,"rental_uris":{"android":"levelo://app?vid=cb73945a-ab16-45df-a15b-ac7ac60d5736","ios":"levelo://app?vid=cb73945a-ab16-45df-a15b-ac7ac60d5736"},"vehicle_type_id":"4","last_reported":1720879589,"current_range_meters":17600,"station_id":"ce4bgqh2rcd13ifvqc5g","pricing_plan_id":"cebpf4jnsgd1na2vs0mg"},{"bike_id":"2b4da476-2e26-40be-9aee-5dbf144bd864","system_id":"levelo_inurba_marseille","lat":43.310535,"lon":5.381233,"is_reserved":false,"is_disabled":false,"rental_uris":{"android":"levelo://app?vid=2b4da476-2e26-40be-9aee-5dbf144bd864","ios":"levelo://app?vid=2b4da476-2e26-40be-9aee-5dbf144bd864"},"vehicle_type_id":"4","last_reported":1720879589,"current_range_meters":11200,"station_id":"","pricing_plan_id":"cebpf4jnsgd1na2vs0mg"},{"bike_id":"a47285e7-2616-4dee-abb3-999bd832caf8","system_id":"levelo_inurba_marseille","lat":43.301312,"lon":5.368076,"is_reserved":false,"is_disabled":false,"rental_uris":{"android":"levelo://app?vid=a47285e7-2616-4dee-abb3-999bd832caf8","ios":"levelo://app?vid=a47285e7-2616-4dee-abb3-999bd832caf8"},"vehicle_type_id":"4","last_reported":1720879589,"current_range_meters":12400,"station_id":"","pricing_plan_id":"cebpf4jnsgd1na2vs0mg"},{"bike_id":"ca34db20-192c-41d6-8555-f257fbab28a8","system_id":"levelo_inurba_marseille","lat":43.30466,"lon":5.378976,"is_reserved":false,"is_disabled":false,"rental_uris":{"android":"levelo://app?vid=ca34db20-192c-41d6-8555-f257fbab28a8","ios":"levelo://app?vid=ca34db20-192c-41d6-8555-f257fbab28a8"},"vehicle_type_id":"4","last_reported":1720879589,"current_range_meters":6400,"station_id":"ce4bgup2rcd13ifvqcn0","pricing_plan_id":"cebpf4jnsgd1na2vs0mg"},{"bike_id":"7cc422b3-86c7-4cef-a92f-d1a17bda7dc7","system_id":"levelo_inurba_marseille","lat":43.304606,"lon":5.379026,"is_reserved":false,"is_disabled":false,"rental_uris":{"android":"levelo://app?vid=7cc422b3-86c7-4cef-a92f-d1a17bda7dc7","ios":"levelo://app?vid=7cc422b3-86c7-4cef-a92f-d1a17bda7dc7"},"vehicle_type_id":"4","last_reported":1720879589,"current_range_meters":4400,"station_id":"ce4bgup2rcd13ifvqcn0","pricing_plan_id":"cebpf4jnsgd1na2vs0mg"},{"bike_id":"616bbced-b5d2-4bb1-8e61-76647ccd5559","system_id":"levelo_inurba_marseille","lat":43.324771,"lon":5.36557,"is_reserved":false,"is_disabled":false,"rental_uris":{"android":"levelo://app?vid=616bbced-b5d2-4bb1-8e61-76647ccd5559","ios":"levelo://app?vid=616bbced-b5d2-4bb1-8e61-76647ccd5559"},"vehicle_type_id":"4","last_reported":1720879589,"current_range_meters":17600,"station_id":"ce4bhs12rcd13ifvqhvg","pricing_plan_id":"cebpf4jnsgd1na2vs0mg"},{"bike_id":"445a5680-1b9e-48f1-94de-06deb522d251","system_id":"levelo_inurba_marseille","lat":43.324771,"lon":5.36557,"is_reserved":false,"is_disabled":false,"rental_uris":{"android":"levelo://app?vid=445a5680-1b9e-48f1-94de-06deb522d251","ios":"levelo://app?vid=445a5680-1b9e-48f1-94de-06deb522d251"},"vehicle_type_id":"4","last_reported":1720879589,"current_range_meters":14000,"station_id":"ce4bhs12rcd13ifvqhvg","pricing_plan_id":"cebpf4jnsgd1na2vs0mg"},{"bike_id":"8cef89db-5f5e-49ee-9ae1-a8cf17c4a2ad","system_id":"levelo_inurba_marseille","lat":43.324771,"lon":5.36557,"is_reserved":false,"is_disabled":false,"rental_uris":{"android":"levelo://app?vid=8cef89db-5f5e-49ee-9ae1-a8cf17c4a2ad","ios":"levelo://app?vid=8cef89db-5f5e-49ee-9ae1-a8cf17c4a2ad"},"vehicle_type_id":"4","last_reported":1720879589,"current_range_meters":800,"station_id":"ce4bhs12rcd13ifvqhvg","pricing_plan_id":"cebpf4jnsgd1na2vs0mg"},{"bike_id":"97033c31-1152-4401-ae2a-e429e4cd10b4","system_id":"levelo_inurba_marseille","lat":43.32479,"lon":5.36576,"is_reserved":false,"is_disabled":false,"rental_uris":{"android":"levelo://app?vid=97033c31-1152-4401-ae2a-e429e4cd10b4","ios":"levelo://app?vid=97033c31-1152-4401-ae2a-e429e4cd10b4"},"vehicle_type_id":"4","last_reported":1720879589,"current_range_meters":30800,"station_id":"ce4bhs12rcd13ifvqhvg","pricing_plan_id":"cebpf4jnsgd1na2vs0mg"},{"bike_id":"d43dd5fd-24a2-458f-aeb8-d07b18c4dd02","system_id":"levelo_inurba_marseille","lat":43.32479,"lon":5.36571,"is_reserved":false,"is_disabled":false,"rental_uris":{"android":"levelo://app?vid=d43dd5fd-24a2-458f-aeb8-d07b18c4dd02","ios":"levelo://app?vid=d43dd5fd-24a2-458f-aeb8-d07b18c4dd02"},"vehicle_type_id":"4","last_reported":1720879589,"current_range_meters":13200,"station_id":"","pricing_plan_id":"cebpf4jnsgd1na2vs0mg"},{"bike_id":"ea9427d3-3844-4ab0-8397-5150365c96a8","system_id":"levelo_inurba_marseille","lat":43.324807,"lon":5.365771,"is_reserved":false,"is_disabled":false,"rental_uris":{"android":"levelo://app?vid=ea9427d3-3844-4ab0-8397-5150365c96a8","ios":"levelo://app?vid=ea9427d3-3844-4ab0-8397-5150365c96a8"},"vehicle_type_id":"4","last_reported":1720879589,"current_range_meters":20800,"station_id":"ce4bhs12rcd13ifvqhvg","pricing_plan_id":"cebpf4jnsgd1na2vs0mg"},{"bike_id":"ee8164e4-5f0f-4f94-8dd9-73d49b9ecd83","system_id":"levelo_inurba_marseille","lat":43.324771,"lon":5.36557,"is_reserved":false,"is_disabled":false,"rental_uris":{"android":"levelo://app?vid=ee8164e4-5f0f-4f94-8dd9-73d49b9ecd83","ios":"levelo://app?vid=ee8164e4-5f0f-4f94-8dd9-73d49b9ecd83"},"vehicle_type_id":"4","last_reported":1720879589,"current_range_meters":19200,"station_id":"ce4bhs12rcd13ifvqhvg","pricing_plan_id":"cebpf4jnsgd1na2vs0mg"},{"bike_id":"21252025-cf9c-4852-ab78-01d2cbced8b0","system_id":"levelo_inurba_marseille","lat":43.324771,"lon":5.36557,"is_reserved":false,"is_disabled":false,"rental_uris":{"android":"levelo://app?vid=21252025-cf9c-4852-ab78-01d2cbced8b0","ios":"levelo://app?vid=21252025-cf9c-4852-ab78-01d2cbced8b0"},"vehicle_type_id":"4","last_reported":1720879589,"current_range_meters":27600,"station_id":"ce4bhs12rcd13ifvqhvg","pricing_plan_id":"cebpf4jnsgd1na2vs0mg"},{"bike_id":"81086735-f153-4daa-883e-468fe9f98951","system_id":"levelo_inurba_marseille","lat":43.324771,"lon":5.36557,"is_reserved":false,"is_disabled":false,"rental_uris":{"android":"levelo://app?vid=81086735-f153-4daa-883e-468fe9f98951","ios":"levelo://app?vid=81086735-f153-4daa-883e-468fe9f98951"},"vehicle_type_id":"4","last_reported":1720879589,"current_range_meters":3600,"station_id":"ce4bhs12rcd13ifvqhvg","pricing_plan_id":"cebpf4jnsgd1na2vs0mg"},{"bike_id":"01ec4e6e-72dc-4798-b2f0-ed454319c72d","system_id":"levelo_inurba_marseille","lat":43.32486,"lon":5.36577,"is_reserved":false,"is_disabled":false,"rental_uris":{"android":"levelo://app?vid=01ec4e6e-72dc-4798-b2f0-ed454319c72d","ios":"levelo://app?vid=01ec4e6e-72dc-4798-b2f0-ed454319c72d"},"vehicle_type_id":"4","last_reported":1720879589,"current_range_meters":10800,"station_id":"ce4bhs12rcd13ifvqhvg","pricing_plan_id":"cebpf4jnsgd1na2vs0mg"},{"bike_id":"2ed9ffac-b45a-4371-bc2b-67270dccba13","system_id":"levelo_inurba_marseille","lat":43.30154,"lon":5.37422,"is_reserved":false,"is_disabled":false,"rental_uris":{"android":"levelo://app?vid=2ed9ffac-b45a-4371-bc2b-67270dccba13","ios":"levelo://app?vid=2ed9ffac-b45a-4371-bc2b-67270dccba13"},"vehicle_type_id":"4","last_reported":1720879589,"current_range_meters":0,"station_id":"ce4bgs92rcd13ifvqcc0","pricing_plan_id":"cebpf4jnsgd1na2vs0mg"},{"bike_id":"e1a31500-9de2-4aa2-9f8d-db45e74e798c","system_id":"levelo_inurba_marseille","lat":43.302784,"lon":5.377158,"is_reserved":false,"is_disabled":false,"rental_uris":{"android":"levelo://app?vid=e1a31500-9de2-4aa2-9f8d-db45e74e798c","ios":"levelo://app?vid=e1a31500-9de2-4aa2-9f8d-db45e74e798c"},"vehicle_type_id":"4","last_reported":1720879589,"current_range_meters":29600,"station_id":"ce4bguh2rcd13ifvqcj0","pricing_plan_id":"cebpf4jnsgd1na2vs0mg"},{"bike_id":"93e98519-9415-4b68-9b65-1833bcb82b28","system_id":"levelo_inurba_marseille","lat":43.319935,"lon":5.381699,"is_reserved":false,"is_disabled":false,"rental_uris":{"android":"levelo://app?vid=93e98519-9415-4b68-9b65-1833bcb82b28","ios":"levelo://app?vid=93e98519-9415-4b68-9b65-1833bcb82b28"},"vehicle_type_id":"4","last_reported":1720879589,"current_range_meters":30800,"station_id":"ce4bhr12rcd13ifvqhpg","pricing_plan_id":"cebpf4jnsgd1na2vs0mg"},{"bike_id":"dd4f0334-a299-4932-beac-7fcf7492435a","system_id":"levelo_inurba_marseille","lat":43.313571,"lon":5.384829,"is_reserved":false,"is_disabled":false,"rental_uris":{"android":"levelo://app?vid=dd4f0334-a299-4932-beac-7fcf7492435a","ios":"levelo://app?vid=dd4f0334-a299-4932-beac-7fcf7492435a"},"vehicle_type_id":"4","last_reported":1720879589,"current_range_meters":14800,"station_id":"ce4bgt92rcd13ifvqcf0","pricing_plan_id":"cebpf4jnsgd1na2vs0mg"},{"bike_id":"6b45adf0-ebce-4ae5-bac8-5d7d199c19e8","system_id":"levelo_inurba_marseille","lat":43.29995,"lon":5.37165,"is_reserved":false,"is_disabled":false,"rental_uris":{"android":"levelo://app?vid=6b45adf0-ebce-4ae5-bac8-5d7d199c19e8","ios":"levelo://app?vid=6b45adf0-ebce-4ae5-bac8-5d7d199c19e8"},"vehicle_type_id":"4","last_reported":1720879589,"current_range_meters":4800,"station_id":"","pricing_plan_id":"cebpf4jnsgd1na2vs0mg"},{"bike_id":"a5da961b-43a7-43d1-bfe7-07ab05a863d4","system_id":"levelo_inurba_marseille","lat":43.298433,"lon":5.362774,"is_reserved":false,"is_disabled":false,"rental_uris":{"android":"levelo://app?vid=a5da961b-43a7-43d1-bfe7-07ab05a863d4","ios":"levelo://app?vid=a5da961b-43a7-43d1-bfe7-07ab05a863d4"},"vehicle_type_id":"4","last_reported":1720879589,"current_range_meters":13600,"station_id":"ce4bgpp2rcd13ifvqc3g","pricing_plan_id":"cebpf4jnsgd1na2vs0mg"},{"bike_id":"86e0474a-f169-44bc-bc28-07c403ad547f","system_id":"levelo_inurba_marseille","lat":43.298433,"lon":5.362774,"is_reserved":false,"is_disabled":false,"rental_uris":{"android":"levelo://app?vid=86e0474a-f169-44bc-bc28-07c403ad547f","ios":"levelo://app?vid=86e0474a-f169-44bc-bc28-07c403ad547f"},"vehicle_type_id":"4","last_reported":1720879589,"current_range_meters":6800,"station_id":"ce4bgpp2rcd13ifvqc3g","pricing_plan_id":"cebpf4jnsgd1na2vs0mg"},{"bike_id":"d31548d8-b90b-4015-8ff8-31f164605324","system_id":"levelo_inurba_marseille","lat":43.298433,"lon":5.362774,"is_reserved":false,"is_disabled":false,"rental_uris":{"android":"levelo://app?vid=d31548d8-b90b-4015-8ff8-31f164605324","ios":"levelo://app?vid=d31548d8-b90b-4015-8ff8-31f164605324"},"vehicle_type_id":"4","last_reported":1720879589,"current_range_meters":17600,"station_id":"ce4bgpp2rcd13ifvqc3g","pricing_plan_id":"cebpf4jnsgd1na2vs0mg"},{"bike_id":"d55e94c4-c64d-4a5e-b50c-e112fa03ba53","system_id":"levelo_inurba_marseille","lat":43.30539,"lon":5.3842,"is_reserved":false,"is_disabled":false,"rental_uris":{"android":"levelo://app?vid=d55e94c4-c64d-4a5e-b50c-e112fa03ba53","ios":"levelo://app?vid=d55e94c4-c64d-4a5e-b50c-e112fa03ba53"},"vehicle_type_id":"4","last_reported":1720879589,"current_range_meters":6800,"station_id":"ce4bgg92rcd13ifvqb30","pricing_plan_id":"cebpf4jnsgd1na2vs0mg"},{"bike_id":"16ca692c-1e5e-49a8-9852-3a4b08ad6fb6","system_id":"levelo_inurba_marseille","lat":43.298433,"lon":5.362774,"is_reserved":false,"is_disabled":false,"rental_uris":{"android":"levelo://app?vid=16ca692c-1e5e-49a8-9852-3a4b08ad6fb6","ios":"levelo://app?vid=16ca692c-1e5e-49a8-9852-3a4b08ad6fb6"},"vehicle_type_id":"4","last_reported":1720879589,"current_range_meters":21200,"station_id":"ce4bgpp2rcd13ifvqc3g","pricing_plan_id":"cebpf4jnsgd1na2vs0mg"},{"bike_id":"2276747d-8395-466f-90ae-2a6147f9f249","system_id":"levelo_inurba_marseille","lat":43.298433,"lon":5.362774,"is_reserved":false,"is_disabled":false,"rental_uris":{"android":"levelo://app?vid=2276747d-8395-466f-90ae-2a6147f9f249","ios":"levelo://app?vid=2276747d-8395-466f-90ae-2a6147f9f249"},"vehicle_type_id":"4","last_reported":1720879589,"current_range_meters":26400,"station_id":"ce4bgpp2rcd13ifvqc3g","pricing_plan_id":"cebpf4jnsgd1na2vs0mg"},{"bike_id":"e2f061c1-45f2-4feb-bfc2-f4481fc644bb","system_id":"levelo_inurba_marseille","lat":43.311722,"lon":5.387247,"is_reserved":false,"is_disabled":false,"rental_uris":{"android":"levelo://app?vid=e2f061c1-45f2-4feb-bfc2-f4481fc644bb","ios":"levelo://app?vid=e2f061c1-45f2-4feb-bfc2-f4481fc644bb"},"vehicle_type_id":"4","last_reported":1720879589,"current_range_meters":3600,"station_id":"ce4bgv12rcd13ifvqcp0","pricing_plan_id":"cebpf4jnsgd1na2vs0mg"},{"bike_id":"8061e277-7b01-4c2a-95a6-3b16e7a7e8b9","system_id":"levelo_inurba_marseille","lat":43.298179,"lon":5.372645,"is_reserved":false,"is_disabled":false,"rental_uris":{"android":"levelo://app?vid=8061e277-7b01-4c2a-95a6-3b16e7a7e8b9","ios":"levelo://app?vid=8061e277-7b01-4c2a-95a6-3b16e7a7e8b9"},"vehicle_type_id":"4","last_reported":1720879589,"current_range_meters":7200,"station_id":"","pricing_plan_id":"cebpf4jnsgd1na2vs0mg"},{"bike_id":"85d8b927-8767-4564-a3a6-2ce98b63b05d","system_id":"levelo_inurba_marseille","lat":43.297774,"lon":5.370875,"is_reserved":false,"is_disabled":false,"rental_uris":{"android":"levelo://app?vid=85d8b927-8767-4564-a3a6-2ce98b63b05d","ios":"levelo://app?vid=85d8b927-8767-4564-a3a6-2ce98b63b05d"},"vehicle_type_id":"4","last_reported":1720879589,"current_range_meters":31200,"station_id":"ce4bgop2rcd13ifvqc1g","pricing_plan_id":"cebpf4jnsgd1na2vs0mg"},{"bike_id":"53226564-62be-4a9b-b10b-fa9777d84c54","system_id":"levelo_inurba_marseille","lat":43.32284,"lon":5.38275,"is_reserved":false,"is_disabled":false,"rental_uris":{"android":"levelo://app?vid=53226564-62be-4a9b-b10b-fa9777d84c54","ios":"levelo://app?vid=53226564-62be-4a9b-b10b-fa9777d84c54"},"vehicle_type_id":"4","last_reported":1720879589,"current_range_meters":8400,"station_id":"ce4bhr12rcd13ifvqhqg","pricing_plan_id":"cebpf4jnsgd1na2vs0mg"},{"bike_id":"6b42c756-ed8d-4140-9130-58661ac75218","system_id":"levelo_inurba_marseille","lat":43.322872,"lon":5.382756,"is_reserved":false,"is_disabled":false,"rental_uris":{"android":"levelo://app?vid=6b42c756-ed8d-4140-9130-58661ac75218","ios":"levelo://app?vid=6b42c756-ed8d-4140-9130-58661ac75218"},"vehicle_type_id":"4","last_reported":1720879589,"current_range_meters":30000,"station_id":"ce4bhr12rcd13ifvqhqg","pricing_plan_id":"cebpf4jnsgd1na2vs0mg"},{"bike_id":"596c9539-f138-47c2-addc-1596467bc720","system_id":"levelo_inurba_marseille","lat":43.322872,"lon":5.382756,"is_reserved":false,"is_disabled":false,"rental_uris":{"android":"levelo://app?vid=596c9539-f138-47c2-addc-1596467bc720","ios":"levelo://app?vid=596c9539-f138-47c2-addc-1596467bc720"},"vehicle_type_id":"4","last_reported":1720879589,"current_range_meters":28400,"station_id":"ce4bhr12rcd13ifvqhqg","pricing_plan_id":"cebpf4jnsgd1na2vs0mg"},{"bike_id":"729c2a8a-b899-4d67-ac44-060e04cca798","system_id":"levelo_inurba_marseille","lat":43.3229,"lon":5.38276,"is_reserved":false,"is_disabled":false,"rental_uris":{"android":"levelo://app?vid=729c2a8a-b899-4d67-ac44-060e04cca798","ios":"levelo://app?vid=729c2a8a-b899-4d67-ac44-060e04cca798"},"vehicle_type_id":"4","last_reported":1720879589,"current_range_meters":10000,"station_id":"ce4bhr12rcd13ifvqhqg","pricing_plan_id":"cebpf4jnsgd1na2vs0mg"},{"bike_id":"51e8ba81-f0e1-40ab-b620-8e1a5aff3e9f","system_id":"levelo_inurba_marseille","lat":43.32287,"lon":5.38282,"is_reserved":false,"is_disabled":false,"rental_uris":{"android":"levelo://app?vid=51e8ba81-f0e1-40ab-b620-8e1a5aff3e9f","ios":"levelo://app?vid=51e8ba81-f0e1-40ab-b620-8e1a5aff3e9f"},"vehicle_type_id":"4","last_reported":1720879589,"current_range_meters":0,"station_id":"ce4bhr12rcd13ifvqhqg","pricing_plan_id":"cebpf4jnsgd1na2vs0mg"},{"bike_id":"b457a77b-de82-40ba-8ba0-61c1cfaeca7c","system_id":"levelo_inurba_marseille","lat":43.3229,"lon":5.38282,"is_reserved":false,"is_disabled":false,"rental_uris":{"android":"levelo://app?vid=b457a77b-de82-40ba-8ba0-61c1cfaeca7c","ios":"levelo://app?vid=b457a77b-de82-40ba-8ba0-61c1cfaeca7c"},"vehicle_type_id":"4","last_reported":1720879589,"current_range_meters":0,"station_id":"ce4bhr12rcd13ifvqhqg","pricing_plan_id":"cebpf4jnsgd1na2vs0mg"},{"bike_id":"241524ab-9f35-4a90-aaca-ad7f246b829f","system_id":"levelo_inurba_marseille","lat":43.297186,"lon":5.368639,"is_reserved":false,"is_disabled":false,"rental_uris":{"android":"levelo://app?vid=241524ab-9f35-4a90-aaca-ad7f246b829f","ios":"levelo://app?vid=241524ab-9f35-4a90-aaca-ad7f246b829f"},"vehicle_type_id":"4","last_reported":1720879589,"current_range_meters":10400,"station_id":"","pricing_plan_id":"cebpf4jnsgd1na2vs0mg"},{"bike_id":"92ff7df0-4080-4ee3-b0d2-b2a7029d657b","system_id":"levelo_inurba_marseille","lat":43.297163,"lon":5.365866,"is_reserved":false,"is_disabled":false,"rental_uris":{"android":"levelo://app?vid=92ff7df0-4080-4ee3-b0d2-b2a7029d657b","ios":"levelo://app?vid=92ff7df0-4080-4ee3-b0d2-b2a7029d657b"},"vehicle_type_id":"4","last_reported":1720879589,"current_range_meters":0,"station_id":"ce4bgn12rcd13ifvqbt0","pricing_plan_id":"cebpf4jnsgd1na2vs0mg"},{"bike_id":"bfa4b56a-c648-4b59-9ae7-cf25afdc39e4","system_id":"levelo_inurba_marseille","lat":43.297163,"lon":5.365866,"is_reserved":false,"is_disabled":false,"rental_uris":{"android":"levelo://app?vid=bfa4b56a-c648-4b59-9ae7-cf25afdc39e4","ios":"levelo://app?vid=bfa4b56a-c648-4b59-9ae7-cf25afdc39e4"},"vehicle_type_id":"4","last_reported":1720879589,"current_range_meters":6800,"station_id":"ce4bgn12rcd13ifvqbt0","pricing_plan_id":"cebpf4jnsgd1na2vs0mg"},{"bike_id":"c9e34788-7e6d-4b23-b152-a64782a40e76","system_id":"levelo_inurba_marseille","lat":43.297001,"lon":5.371243,"is_reserved":false,"is_disabled":false,"rental_uris":{"android":"levelo://app?vid=c9e34788-7e6d-4b23-b152-a64782a40e76","ios":"levelo://app?vid=c9e34788-7e6d-4b23-b152-a64782a40e76"},"vehicle_type_id":"4","last_reported":1720879589,"current_range_meters":0,"station_id":"","pricing_plan_id":"cebpf4jnsgd1na2vs0mg"},{"bike_id":"ecde7b3d-cc55-4b5e-a321-ed57dba1e91b","system_id":"levelo_inurba_marseille","lat":43.32337,"lon":5.38561,"is_reserved":false,"is_disabled":false,"rental_uris":{"android":"levelo://app?vid=ecde7b3d-cc55-4b5e-a321-ed57dba1e91b","ios":"levelo://app?vid=ecde7b3d-cc55-4b5e-a321-ed57dba1e91b"},"vehicle_type_id":"4","last_reported":1720879589,"current_range_meters":13200,"station_id":"","pricing_plan_id":"cebpf4jnsgd1na2vs0mg"},{"bike_id":"0eb21776-a2cd-4a83-9986-2c275b295d9b","system_id":"levelo_inurba_marseille","lat":43.309589,"lon":5.390258,"is_reserved":false,"is_disabled":false,"rental_uris":{"android":"levelo://app?vid=0eb21776-a2cd-4a83-9986-2c275b295d9b","ios":"levelo://app?vid=0eb21776-a2cd-4a83-9986-2c275b295d9b"},"vehicle_type_id":"4","last_reported":1720879589,"current_range_meters":16800,"station_id":"ce4bgup2rcd13ifvqco0","pricing_plan_id":"cebpf4jnsgd1na2vs0mg"},{"bike_id":"0fbba6dc-8f60-4e7b-8c2c-805402fd46d1","system_id":"levelo_inurba_marseille","lat":43.309589,"lon":5.390258,"is_reserved":false,"is_disabled":false,"rental_uris":{"android":"levelo://app?vid=0fbba6dc-8f60-4e7b-8c2c-805402fd46d1","ios":"levelo://app?vid=0fbba6dc-8f60-4e7b-8c2c-805402fd46d1"},"vehicle_type_id":"4","last_reported":1720879589,"current_range_meters":4400,"station_id":"ce4bgup2rcd13ifvqco0","pricing_plan_id":"cebpf4jnsgd1na2vs0mg"},{"bike_id":"90fa642f-a8b4-420b-a68c-a601f7f3cf67","system_id":"levelo_inurba_marseille","lat":43.309589,"lon":5.390258,"is_reserved":false,"is_disabled":false,"rental_uris":{"android":"levelo://app?vid=90fa642f-a8b4-420b-a68c-a601f7f3cf67","ios":"levelo://app?vid=90fa642f-a8b4-420b-a68c-a601f7f3cf67"},"vehicle_type_id":"4","last_reported":1720879589,"current_range_meters":6000,"station_id":"ce4bgup2rcd13ifvqco0","pricing_plan_id":"cebpf4jnsgd1na2vs0mg"},{"bike_id":"1565d0c7-f599-4e67-8cf2-a8f774ed9e42","system_id":"levelo_inurba_marseille","lat":43.309589,"lon":5.390258,"is_reserved":false,"is_disabled":false,"rental_uris":{"android":"levelo://app?vid=1565d0c7-f599-4e67-8cf2-a8f774ed9e42","ios":"levelo://app?vid=1565d0c7-f599-4e67-8cf2-a8f774ed9e42"},"vehicle_type_id":"4","last_reported":1720879589,"current_range_meters":13200,"station_id":"ce4bgup2rcd13ifvqco0","pricing_plan_id":"cebpf4jnsgd1na2vs0mg"},{"bike_id":"9148519c-78b2-4cc7-86f2-10febb70e826","system_id":"levelo_inurba_marseille","lat":43.317557,"lon":5.390173,"is_reserved":false,"is_disabled":false,"rental_uris":{"android":"levelo://app?vid=9148519c-78b2-4cc7-86f2-10febb70e826","ios":"levelo://app?vid=9148519c-78b2-4cc7-86f2-10febb70e826"},"vehicle_type_id":"4","last_reported":1720879589,"current_range_meters":5600,"station_id":"ce4bhqp2rcd13ifvqhng","pricing_plan_id":"cebpf4jnsgd1na2vs0mg"},{"bike_id":"e500f2ab-2260-47bc-80c5-2fa4a9abb706","system_id":"levelo_inurba_marseille","lat":43.29584,"lon":5.37523,"is_reserved":false,"is_disabled":false,"rental_uris":{"android":"levelo://app?vid=e500f2ab-2260-47bc-80c5-2fa4a9abb706","ios":"levelo://app?vid=e500f2ab-2260-47bc-80c5-2fa4a9abb706"},"vehicle_type_id":"4","last_reported":1720879589,"current_range_meters":31200,"station_id":"ce4bgh92rcd13ifvqb50","pricing_plan_id":"cebpf4jnsgd1na2vs0mg"},{"bike_id":"35153bac-54cc-49bc-ac2d-803de035d4ac","system_id":"levelo_inurba_marseille","lat":43.295748,"lon":5.37522,"is_reserved":false,"is_disabled":false,"rental_uris":{"android":"levelo://app?vid=35153bac-54cc-49bc-ac2d-803de035d4ac","ios":"levelo://app?vid=35153bac-54cc-49bc-ac2d-803de035d4ac"},"vehicle_type_id":"4","last_reported":1720879589,"current_range_meters":12800,"station_id":"ce4bgh92rcd13ifvqb50","pricing_plan_id":"cebpf4jnsgd1na2vs0mg"},{"bike_id":"415d4ea3-b6e0-413f-89f2-78808ae0faa9","system_id":"levelo_inurba_marseille","lat":43.295279,"lon":5.375048,"is_reserved":false,"is_disabled":false,"rental_uris":{"android":"levelo://app?vid=415d4ea3-b6e0-413f-89f2-78808ae0faa9","ios":"levelo://app?vid=415d4ea3-b6e0-413f-89f2-78808ae0faa9"},"vehicle_type_id":"4","last_reported":1720879589,"current_range_meters":2800,"station_id":"ce4bgkp2rcd13ifvqbmg","pricing_plan_id":"cebpf4jnsgd1na2vs0mg"},{"bike_id":"1f7ed60d-ac06-4949-9edf-a248fc054f21","system_id":"levelo_inurba_marseille","lat":43.295279,"lon":5.375048,"is_reserved":false,"is_disabled":false,"rental_uris":{"android":"levelo://app?vid=1f7ed60d-ac06-4949-9edf-a248fc054f21","ios":"levelo://app?vid=1f7ed60d-ac06-4949-9edf-a248fc054f21"},"vehicle_type_id":"4","last_reported":1720879589,"current_range_meters":18000,"station_id":"ce4bgkp2rcd13ifvqbmg","pricing_plan_id":"cebpf4jnsgd1na2vs0mg"},{"bike_id":"dea89374-72d8-466a-81c6-a2bee06e77ac","system_id":"levelo_inurba_marseille","lat":43.299724,"lon":5.384848,"is_reserved":false,"is_disabled":false,"rental_uris":{"android":"levelo://app?vid=dea89374-72d8-466a-81c6-a2bee06e77ac","ios":"levelo://app?vid=dea89374-72d8-466a-81c6-a2bee06e77ac"},"vehicle_type_id":"4","last_reported":1720879589,"current_range_meters":28800,"station_id":"ce4bgj92rcd13ifvqbd0","pricing_plan_id":"cebpf4jnsgd1na2vs0mg"},{"bike_id":"a51d0944-c33d-47c8-868f-1a7253e73770","system_id":"levelo_inurba_marseille","lat":43.29553,"lon":5.37723,"is_reserved":false,"is_disabled":false,"rental_uris":{"android":"levelo://app?vid=a51d0944-c33d-47c8-868f-1a7253e73770","ios":"levelo://app?vid=a51d0944-c33d-47c8-868f-1a7253e73770"},"vehicle_type_id":"4","last_reported":1720879589,"current_range_meters":19600,"station_id":"","pricing_plan_id":"cebpf4jnsgd1na2vs0mg"},{"bike_id":"87e68666-088d-4909-95e6-2bf9d33575b6","system_id":"levelo_inurba_marseille","lat":43.293009,"lon":5.374584,"is_reserved":false,"is_disabled":false,"rental_uris":{"android":"levelo://app?vid=87e68666-088d-4909-95e6-2bf9d33575b6","ios":"levelo://app?vid=87e68666-088d-4909-95e6-2bf9d33575b6"},"vehicle_type_id":"4","last_reported":1720879589,"current_range_meters":10400,"station_id":"ce4bgi12rcd13ifvqb70","pricing_plan_id":"cebpf4jnsgd1na2vs0mg"},{"bike_id":"47e12d69-3938-491e-b315-beb852bc7047","system_id":"levelo_inurba_marseille","lat":43.305994,"lon":5.393687,"is_reserved":false,"is_disabled":false,"rental_uris":{"android":"levelo://app?vid=47e12d69-3938-491e-b315-beb852bc7047","ios":"levelo://app?vid=47e12d69-3938-491e-b315-beb852bc7047"},"vehicle_type_id":"4","last_reported":1720879589,"current_range_meters":10000,"station_id":"ce4bh0p2rcd13ifvqd80","pricing_plan_id":"cebpf4jnsgd1na2vs0mg"},{"bike_id":"f00409a1-4d4b-4baa-b020-5578af1e215d","system_id":"levelo_inurba_marseille","lat":43.29217,"lon":5.36052,"is_reserved":false,"is_disabled":false,"rental_uris":{"android":"levelo://app?vid=f00409a1-4d4b-4baa-b020-5578af1e215d","ios":"levelo://app?vid=f00409a1-4d4b-4baa-b020-5578af1e215d"},"vehicle_type_id":"4","last_reported":1720879589,"current_range_meters":0,"station_id":"ce4bhbh2rcd13ifvqeqg","pricing_plan_id":"cebpf4jnsgd1na2vs0mg"},{"bike_id":"50ddb325-5767-4d7b-8242-59aac2715170","system_id":"levelo_inurba_marseille","lat":43.291675,"lon":5.371583,"is_reserved":false,"is_disabled":false,"rental_uris":{"android":"levelo://app?vid=50ddb325-5767-4d7b-8242-59aac2715170","ios":"levelo://app?vid=50ddb325-5767-4d7b-8242-59aac2715170"},"vehicle_type_id":"4","last_reported":1720879589,"current_range_meters":3200,"station_id":"ce4bha92rcd13ifvqeh0","pricing_plan_id":"cebpf4jnsgd1na2vs0mg"},{"bike_id":"56401a08-e983-422b-b394-1d0984399322","system_id":"levelo_inurba_marseille","lat":43.29869,"lon":5.38907,"is_reserved":false,"is_disabled":false,"rental_uris":{"android":"levelo://app?vid=56401a08-e983-422b-b394-1d0984399322","ios":"levelo://app?vid=56401a08-e983-422b-b394-1d0984399322"},"vehicle_type_id":"4","last_reported":1720879589,"current_range_meters":800,"station_id":"ce4bh392rcd13ifvqdl0","pricing_plan_id":"cebpf4jnsgd1na2vs0mg"},{"bike_id":"fd4dfffa-f10d-44d7-ba27-a561195ff186","system_id":"levelo_inurba_marseille","lat":43.291994,"lon":5.357886,"is_reserved":false,"is_disabled":false,"rental_uris":{"android":"levelo://app?vid=fd4dfffa-f10d-44d7-ba27-a561195ff186","ios":"levelo://app?vid=fd4dfffa-f10d-44d7-ba27-a561195ff186"},"vehicle_type_id":"4","last_reported":1720879589,"current_range_meters":31600,"station_id":"ce4bhb12rcd13ifvqel0","pricing_plan_id":"cebpf4jnsgd1na2vs0mg"},{"bike_id":"6c8a0ca3-e10c-43c7-852c-42a35283221c","system_id":"levelo_inurba_marseille","lat":43.291994,"lon":5.357886,"is_reserved":false,"is_disabled":false,"rental_uris":{"android":"levelo://app?vid=6c8a0ca3-e10c-43c7-852c-42a35283221c","ios":"levelo://app?vid=6c8a0ca3-e10c-43c7-852c-42a35283221c"},"vehicle_type_id":"4","last_reported":1720879589,"current_range_meters":25600,"station_id":"ce4bhb12rcd13ifvqel0","pricing_plan_id":"cebpf4jnsgd1na2vs0mg"},{"bike_id":"00e7b6d9-c26b-4e56-af52-3df50f3c704b","system_id":"levelo_inurba_marseille","lat":43.313291,"lon":5.396838,"is_reserved":false,"is_disabled":false,"rental_uris":{"android":"levelo://app?vid=00e7b6d9-c26b-4e56-af52-3df50f3c704b","ios":"levelo://app?vid=00e7b6d9-c26b-4e56-af52-3df50f3c704b"},"vehicle_type_id":"4","last_reported":1720879589,"current_range_meters":14400,"station_id":"ce4bgvp2rcd13ifvqcu0","pricing_plan_id":"cebpf4jnsgd1na2vs0mg"},{"bike_id":"8c15fa48-8af8-4f64-a67a-f9f6758783ae","system_id":"levelo_inurba_marseille","lat":43.309038,"lon":5.396546,"is_reserved":false,"is_disabled":false,"rental_uris":{"android":"levelo://app?vid=8c15fa48-8af8-4f64-a67a-f9f6758783ae","ios":"levelo://app?vid=8c15fa48-8af8-4f64-a67a-f9f6758783ae"},"vehicle_type_id":"4","last_reported":1720879589,"current_range_meters":20800,"station_id":"ce4bh012rcd13ifvqcv0","pricing_plan_id":"cebpf4jnsgd1na2vs0mg"},{"bike_id":"0ecc87b4-1535-4d22-aad0-29fd5820742c","system_id":"levelo_inurba_marseille","lat":43.29529,"lon":5.385581,"is_reserved":false,"is_disabled":false,"rental_uris":{"android":"levelo://app?vid=0ecc87b4-1535-4d22-aad0-29fd5820742c","ios":"levelo://app?vid=0ecc87b4-1535-4d22-aad0-29fd5820742c"},"vehicle_type_id":"4","last_reported":1720879589,"current_range_meters":11600,"station_id":"ce4bgih2rcd13ifvqba0","pricing_plan_id":"cebpf4jnsgd1na2vs0mg"},{"bike_id":"c37b81fb-2ab7-4864-9701-72e11140bc6c","system_id":"levelo_inurba_marseille","lat":43.29529,"lon":5.385581,"is_reserved":false,"is_disabled":false,"rental_uris":{"android":"levelo://app?vid=c37b81fb-2ab7-4864-9701-72e11140bc6c","ios":"levelo://app?vid=c37b81fb-2ab7-4864-9701-72e11140bc6c"},"vehicle_type_id":"4","last_reported":1720879589,"current_range_meters":20000,"station_id":"ce4bgih2rcd13ifvqba0","pricing_plan_id":"cebpf4jnsgd1na2vs0mg"},{"bike_id":"bee22c52-bd6b-484c-b197-bf3b37fe6fc5","system_id":"levelo_inurba_marseille","lat":43.29529,"lon":5.385581,"is_reserved":false,"is_disabled":false,"rental_uris":{"android":"levelo://app?vid=bee22c52-bd6b-484c-b197-bf3b37fe6fc5","ios":"levelo://app?vid=bee22c52-bd6b-484c-b197-bf3b37fe6fc5"},"vehicle_type_id":"4","last_reported":1720879589,"current_range_meters":30000,"station_id":"ce4bgih2rcd13ifvqba0","pricing_plan_id":"cebpf4jnsgd1na2vs0mg"},{"bike_id":"74e3bf2c-ba3f-492b-a31d-f549037ea385","system_id":"levelo_inurba_marseille","lat":43.290631,"lon":5.359244,"is_reserved":false,"is_disabled":false,"rental_uris":{"android":"levelo://app?vid=74e3bf2c-ba3f-492b-a31d-f549037ea385","ios":"levelo://app?vid=74e3bf2c-ba3f-492b-a31d-f549037ea385"},"vehicle_type_id":"4","last_reported":1720879589,"current_range_meters":6400,"station_id":"ce4bha92rcd13ifvqeg0","pricing_plan_id":"cebpf4jnsgd1na2vs0mg"},{"bike_id":"1af46f29-b45c-4c32-8140-38359a0d5a03","system_id":"levelo_inurba_marseille","lat":43.294153,"lon":5.386305,"is_reserved":false,"is_disabled":false,"rental_uris":{"android":"levelo://app?vid=1af46f29-b45c-4c32-8140-38359a0d5a03","ios":"levelo://app?vid=1af46f29-b45c-4c32-8140-38359a0d5a03"},"vehicle_type_id":"4","last_reported":1720879589,"current_range_meters":10800,"station_id":"ce4bh2h2rcd13ifvqdh0","pricing_plan_id":"cebpf4jnsgd1na2vs0mg"},{"bike_id":"cc8787d7-792a-4121-baa7-b6f798b31c02","system_id":"levelo_inurba_marseille","lat":43.294153,"lon":5.386305,"is_reserved":false,"is_disabled":false,"rental_uris":{"android":"levelo://app?vid=cc8787d7-792a-4121-baa7-b6f798b31c02","ios":"levelo://app?vid=cc8787d7-792a-4121-baa7-b6f798b31c02"},"vehicle_type_id":"4","last_reported":1720879589,"current_range_meters":30800,"station_id":"ce4bh2h2rcd13ifvqdh0","pricing_plan_id":"cebpf4jnsgd1na2vs0mg"},{"bike_id":"3321438b-1b6d-414c-9aba-0941a6c035f3","system_id":"levelo_inurba_marseille","lat":43.290327,"lon":5.375711,"is_reserved":false,"is_disabled":false,"rental_uris":{"android":"levelo://app?vid=3321438b-1b6d-414c-9aba-0941a6c035f3","ios":"levelo://app?vid=3321438b-1b6d-414c-9aba-0941a6c035f3"},"vehicle_type_id":"4","last_reported":1720879589,"current_range_meters":5600,"station_id":"ce4bh692rcd13ifvqe90","pricing_plan_id":"cebpf4jnsgd1na2vs0mg"},{"bike_id":"7c2b7fa7-5b2e-451f-9a82-6e0c1c51c897","system_id":"levelo_inurba_marseille","lat":43.289184,"lon":5.366408,"is_reserved":false,"is_disabled":false,"rental_uris":{"android":"levelo://app?vid=7c2b7fa7-5b2e-451f-9a82-6e0c1c51c897","ios":"levelo://app?vid=7c2b7fa7-5b2e-451f-9a82-6e0c1c51c897"},"vehicle_type_id":"4","last_reported":1720879589,"current_range_meters":0,"station_id":"ce4bhap2rcd13ifvqek0","pricing_plan_id":"cebpf4jnsgd1na2vs0mg"},{"bike_id":"4d43f530-466b-427a-831d-412a49e3cb2a","system_id":"levelo_inurba_marseille","lat":43.289184,"lon":5.366408,"is_reserved":false,"is_disabled":false,"rental_uris":{"android":"levelo://app?vid=4d43f530-466b-427a-831d-412a49e3cb2a","ios":"levelo://app?vid=4d43f530-466b-427a-831d-412a49e3cb2a"},"vehicle_type_id":"4","last_reported":1720879589,"current_range_meters":5200,"station_id":"ce4bhap2rcd13ifvqek0","pricing_plan_id":"cebpf4jnsgd1na2vs0mg"},{"bike_id":"3abc66fb-7e35-4e99-b3e5-8c2139ff0c29","system_id":"levelo_inurba_marseille","lat":43.289184,"lon":5.366408,"is_reserved":false,"is_disabled":false,"rental_uris":{"android":"levelo://app?vid=3abc66fb-7e35-4e99-b3e5-8c2139ff0c29","ios":"levelo://app?vid=3abc66fb-7e35-4e99-b3e5-8c2139ff0c29"},"vehicle_type_id":"4","last_reported":1720879589,"current_range_meters":0,"station_id":"ce4bhap2rcd13ifvqek0","pricing_plan_id":"cebpf4jnsgd1na2vs0mg"},{"bike_id":"e7c65cf4-3302-472f-b73d-37e9fd079873","system_id":"levelo_inurba_marseille","lat":43.294162,"lon":5.386292,"is_reserved":false,"is_disabled":false,"rental_uris":{"android":"levelo://app?vid=e7c65cf4-3302-472f-b73d-37e9fd079873","ios":"levelo://app?vid=e7c65cf4-3302-472f-b73d-37e9fd079873"},"vehicle_type_id":"4","last_reported":1720879589,"current_range_meters":10800,"station_id":"ce4bh2h2rcd13ifvqdh0","pricing_plan_id":"cebpf4jnsgd1na2vs0mg"},{"bike_id":"7ce227be-767e-4826-9979-51482c3d3447","system_id":"levelo_inurba_marseille","lat":43.289468,"lon":5.363719,"is_reserved":false,"is_disabled":false,"rental_uris":{"android":"levelo://app?vid=7ce227be-767e-4826-9979-51482c3d3447","ios":"levelo://app?vid=7ce227be-767e-4826-9979-51482c3d3447"},"vehicle_type_id":"4","last_reported":1720879589,"current_range_meters":13200,"station_id":"ce4bhc92rcd13ifvqetg","pricing_plan_id":"cebpf4jnsgd1na2vs0mg"},{"bike_id":"3f75e012-d4a7-45c0-b882-2931d7c5a851","system_id":"levelo_inurba_marseille","lat":43.289468,"lon":5.363719,"is_reserved":false,"is_disabled":false,"rental_uris":{"android":"levelo://app?vid=3f75e012-d4a7-45c0-b882-2931d7c5a851","ios":"levelo://app?vid=3f75e012-d4a7-45c0-b882-2931d7c5a851"},"vehicle_type_id":"4","last_reported":1720879589,"current_range_meters":0,"station_id":"ce4bhc92rcd13ifvqetg","pricing_plan_id":"cebpf4jnsgd1na2vs0mg"},{"bike_id":"c923814e-15dc-4084-b237-afe80e184a64","system_id":"levelo_inurba_marseille","lat":43.292644,"lon":5.384257,"is_reserved":false,"is_disabled":false,"rental_uris":{"android":"levelo://app?vid=c923814e-15dc-4084-b237-afe80e184a64","ios":"levelo://app?vid=c923814e-15dc-4084-b237-afe80e184a64"},"vehicle_type_id":"4","last_reported":1720879589,"current_range_meters":28800,"station_id":"ce4bh692rcd13ifvqea0","pricing_plan_id":"cebpf4jnsgd1na2vs0mg"},{"bike_id":"168dbe33-9c3f-4142-9a69-54b255baff58","system_id":"levelo_inurba_marseille","lat":43.29267,"lon":5.38439,"is_reserved":false,"is_disabled":false,"rental_uris":{"android":"levelo://app?vid=168dbe33-9c3f-4142-9a69-54b255baff58","ios":"levelo://app?vid=168dbe33-9c3f-4142-9a69-54b255baff58"},"vehicle_type_id":"4","last_reported":1720879589,"current_range_meters":0,"station_id":"ce4bh692rcd13ifvqea0","pricing_plan_id":"cebpf4jnsgd1na2vs0mg"},{"bike_id":"12d856c5-860f-4a88-b94c-1b2764fb3315","system_id":"levelo_inurba_marseille","lat":43.292644,"lon":5.384257,"is_reserved":false,"is_disabled":false,"rental_uris":{"android":"levelo://app?vid=12d856c5-860f-4a88-b94c-1b2764fb3315","ios":"levelo://app?vid=12d856c5-860f-4a88-b94c-1b2764fb3315"},"vehicle_type_id":"4","last_reported":1720879589,"current_range_meters":400,"station_id":"ce4bh692rcd13ifvqea0","pricing_plan_id":"cebpf4jnsgd1na2vs0mg"},{"bike_id":"27d7d89f-fd31-4785-9aa6-995c62c89854","system_id":"levelo_inurba_marseille","lat":43.29265,"lon":5.38447,"is_reserved":false,"is_disabled":false,"rental_uris":{"android":"levelo://app?vid=27d7d89f-fd31-4785-9aa6-995c62c89854","ios":"levelo://app?vid=27d7d89f-fd31-4785-9aa6-995c62c89854"},"vehicle_type_id":"4","last_reported":1720879589,"current_range_meters":0,"station_id":"ce4bh692rcd13ifvqea0","pricing_plan_id":"cebpf4jnsgd1na2vs0mg"},{"bike_id":"a1c757c4-e82e-487d-b0c3-3a2023448c10","system_id":"levelo_inurba_marseille","lat":43.292644,"lon":5.384257,"is_reserved":false,"is_disabled":false,"rental_uris":{"android":"levelo://app?vid=a1c757c4-e82e-487d-b0c3-3a2023448c10","ios":"levelo://app?vid=a1c757c4-e82e-487d-b0c3-3a2023448c10"},"vehicle_type_id":"4","last_reported":1720879589,"current_range_meters":8000,"station_id":"ce4bh692rcd13ifvqea0","pricing_plan_id":"cebpf4jnsgd1na2vs0mg"},{"bike_id":"6694d6d6-5625-4100-a320-cdb297cf080b","system_id":"levelo_inurba_marseille","lat":43.290104,"lon":5.356111,"is_reserved":false,"is_disabled":false,"rental_uris":{"android":"levelo://app?vid=6694d6d6-5625-4100-a320-cdb297cf080b","ios":"levelo://app?vid=6694d6d6-5625-4100-a320-cdb297cf080b"},"vehicle_type_id":"4","last_reported":1720879589,"current_range_meters":0,"station_id":"ce4bhb92rcd13ifvqen0","pricing_plan_id":"cebpf4jnsgd1na2vs0mg"},{"bike_id":"7bd36600-7348-420e-b3ef-52adb4f355a4","system_id":"levelo_inurba_marseille","lat":43.290995,"lon":5.381361,"is_reserved":false,"is_disabled":false,"rental_uris":{"android":"levelo://app?vid=7bd36600-7348-420e-b3ef-52adb4f355a4","ios":"levelo://app?vid=7bd36600-7348-420e-b3ef-52adb4f355a4"},"vehicle_type_id":"4","last_reported":1720879589,"current_range_meters":4000,"station_id":"ce4bh512rcd13ifvqe2g","pricing_plan_id":"cebpf4jnsgd1na2vs0mg"},{"bike_id":"72ca490b-9400-4969-a18f-93729c6267c5","system_id":"levelo_inurba_marseille","lat":43.290995,"lon":5.381361,"is_reserved":false,"is_disabled":false,"rental_uris":{"android":"levelo://app?vid=72ca490b-9400-4969-a18f-93729c6267c5","ios":"levelo://app?vid=72ca490b-9400-4969-a18f-93729c6267c5"},"vehicle_type_id":"4","last_reported":1720879589,"current_range_meters":18000,"station_id":"ce4bh512rcd13ifvqe2g","pricing_plan_id":"cebpf4jnsgd1na2vs0mg"},{"bike_id":"8b185a16-83b2-4523-a667-e72debddddbd","system_id":"levelo_inurba_marseille","lat":43.290995,"lon":5.381361,"is_reserved":false,"is_disabled":false,"rental_uris":{"android":"levelo://app?vid=8b185a16-83b2-4523-a667-e72debddddbd","ios":"levelo://app?vid=8b185a16-83b2-4523-a667-e72debddddbd"},"vehicle_type_id":"4","last_reported":1720879589,"current_range_meters":31200,"station_id":"ce4bh512rcd13ifvqe2g","pricing_plan_id":"cebpf4jnsgd1na2vs0mg"},{"bike_id":"23a27d64-f09f-4cd8-9fea-e0307c4e1c26","system_id":"levelo_inurba_marseille","lat":43.290104,"lon":5.356111,"is_reserved":false,"is_disabled":false,"rental_uris":{"android":"levelo://app?vid=23a27d64-f09f-4cd8-9fea-e0307c4e1c26","ios":"levelo://app?vid=23a27d64-f09f-4cd8-9fea-e0307c4e1c26"},"vehicle_type_id":"4","last_reported":1720879589,"current_range_meters":0,"station_id":"ce4bhb92rcd13ifvqen0","pricing_plan_id":"cebpf4jnsgd1na2vs0mg"},{"bike_id":"4cf463c6-4002-44a5-9163-ae6cc2268edf","system_id":"levelo_inurba_marseille","lat":43.290995,"lon":5.381361,"is_reserved":false,"is_disabled":false,"rental_uris":{"android":"levelo://app?vid=4cf463c6-4002-44a5-9163-ae6cc2268edf","ios":"levelo://app?vid=4cf463c6-4002-44a5-9163-ae6cc2268edf"},"vehicle_type_id":"4","last_reported":1720879589,"current_range_meters":26400,"station_id":"ce4bh512rcd13ifvqe2g","pricing_plan_id":"cebpf4jnsgd1na2vs0mg"},{"bike_id":"606b2767-8dc5-441b-a015-fba1428d7928","system_id":"levelo_inurba_marseille","lat":43.295169,"lon":5.390426,"is_reserved":false,"is_disabled":false,"rental_uris":{"android":"levelo://app?vid=606b2767-8dc5-441b-a015-fba1428d7928","ios":"levelo://app?vid=606b2767-8dc5-441b-a015-fba1428d7928"},"vehicle_type_id":"4","last_reported":1720879589,"current_range_meters":14400,"station_id":"ce4bh3p2rcd13ifvqdp0","pricing_plan_id":"cebpf4jnsgd1na2vs0mg"},{"bike_id":"bf5d5b0c-33a2-4514-807e-a8b015f75c6a","system_id":"levelo_inurba_marseille","lat":43.330442,"lon":5.389148,"is_reserved":false,"is_disabled":false,"rental_uris":{"android":"levelo://app?vid=bf5d5b0c-33a2-4514-807e-a8b015f75c6a","ios":"levelo://app?vid=bf5d5b0c-33a2-4514-807e-a8b015f75c6a"},"vehicle_type_id":"4","last_reported":1720879589,"current_range_meters":25200,"station_id":"ce4bhr92rcd13ifvqhrg","pricing_plan_id":"cebpf4jnsgd1na2vs0mg"},{"bike_id":"542940b3-ae80-4fed-ada3-8ed41eb63afe","system_id":"levelo_inurba_marseille","lat":43.28947,"lon":5.35482,"is_reserved":false,"is_disabled":false,"rental_uris":{"android":"levelo://app?vid=542940b3-ae80-4fed-ada3-8ed41eb63afe","ios":"levelo://app?vid=542940b3-ae80-4fed-ada3-8ed41eb63afe"},"vehicle_type_id":"4","last_reported":1720879589,"current_range_meters":14400,"station_id":"","pricing_plan_id":"cebpf4jnsgd1na2vs0mg"},{"bike_id":"9b52c02d-816e-4b0b-bc64-1dcc6f6f07a7","system_id":"levelo_inurba_marseille","lat":43.28856,"lon":5.358371,"is_reserved":false,"is_disabled":false,"rental_uris":{"android":"levelo://app?vid=9b52c02d-816e-4b0b-bc64-1dcc6f6f07a7","ios":"levelo://app?vid=9b52c02d-816e-4b0b-bc64-1dcc6f6f07a7"},"vehicle_type_id":"4","last_reported":1720879589,"current_range_meters":13600,"station_id":"ce4bhb12rcd13ifvqem0","pricing_plan_id":"cebpf4jnsgd1na2vs0mg"},{"bike_id":"6e136d8c-2cb8-40e0-b925-fa6bc58ec452","system_id":"levelo_inurba_marseille","lat":43.33663,"lon":5.35577,"is_reserved":false,"is_disabled":false,"rental_uris":{"android":"levelo://app?vid=6e136d8c-2cb8-40e0-b925-fa6bc58ec452","ios":"levelo://app?vid=6e136d8c-2cb8-40e0-b925-fa6bc58ec452"},"vehicle_type_id":"4","last_reported":1720879589,"current_range_meters":11600,"station_id":"","pricing_plan_id":"cebpf4jnsgd1na2vs0mg"},{"bike_id":"3215f2e8-4ff4-4c73-8020-2206d9f8795c","system_id":"levelo_inurba_marseille","lat":43.312609,"lon":5.401662,"is_reserved":false,"is_disabled":false,"rental_uris":{"android":"levelo://app?vid=3215f2e8-4ff4-4c73-8020-2206d9f8795c","ios":"levelo://app?vid=3215f2e8-4ff4-4c73-8020-2206d9f8795c"},"vehicle_type_id":"4","last_reported":1720879589,"current_range_meters":8800,"station_id":"ce4bh092rcd13ifvqd30","pricing_plan_id":"cebpf4jnsgd1na2vs0mg"},{"bike_id":"219d0d76-9416-4543-8766-4dd8adcfbf6b","system_id":"levelo_inurba_marseille","lat":43.33745,"lon":5.37459,"is_reserved":false,"is_disabled":false,"rental_uris":{"android":"levelo://app?vid=219d0d76-9416-4543-8766-4dd8adcfbf6b","ios":"levelo://app?vid=219d0d76-9416-4543-8766-4dd8adcfbf6b"},"vehicle_type_id":"4","last_reported":1720879589,"current_range_meters":26800,"station_id":"","pricing_plan_id":"cebpf4jnsgd1na2vs0mg"},{"bike_id":"cfc62c60-1388-4c6b-b874-5ac9793ccb03","system_id":"levelo_inurba_marseille","lat":43.312609,"lon":5.401662,"is_reserved":false,"is_disabled":false,"rental_uris":{"android":"levelo://app?vid=cfc62c60-1388-4c6b-b874-5ac9793ccb03","ios":"levelo://app?vid=cfc62c60-1388-4c6b-b874-5ac9793ccb03"},"vehicle_type_id":"4","last_reported":1720879589,"current_range_meters":26800,"station_id":"ce4bh092rcd13ifvqd30","pricing_plan_id":"cebpf4jnsgd1na2vs0mg"},{"bike_id":"cc1ba6bf-e1ed-4670-ada9-7db7afc18815","system_id":"levelo_inurba_marseille","lat":43.309371,"lon":5.401449,"is_reserved":false,"is_disabled":false,"rental_uris":{"android":"levelo://app?vid=cc1ba6bf-e1ed-4670-ada9-7db7afc18815","ios":"levelo://app?vid=cc1ba6bf-e1ed-4670-ada9-7db7afc18815"},"vehicle_type_id":"4","last_reported":1720879589,"current_range_meters":28000,"station_id":"ce4bgvp2rcd13ifvqct0","pricing_plan_id":"cebpf4jnsgd1na2vs0mg"},{"bike_id":"5ea29ff4-fae6-4d78-a94d-86a41014e8ef","system_id":"levelo_inurba_marseille","lat":43.309371,"lon":5.401449,"is_reserved":false,"is_disabled":false,"rental_uris":{"android":"levelo://app?vid=5ea29ff4-fae6-4d78-a94d-86a41014e8ef","ios":"levelo://app?vid=5ea29ff4-fae6-4d78-a94d-86a41014e8ef"},"vehicle_type_id":"4","last_reported":1720879589,"current_range_meters":4800,"station_id":"ce4bgvp2rcd13ifvqct0","pricing_plan_id":"cebpf4jnsgd1na2vs0mg"},{"bike_id":"42bdc924-df2a-4934-8963-0fb1c057f02e","system_id":"levelo_inurba_marseille","lat":43.337579,"lon":5.374557,"is_reserved":false,"is_disabled":false,"rental_uris":{"android":"levelo://app?vid=42bdc924-df2a-4934-8963-0fb1c057f02e","ios":"levelo://app?vid=42bdc924-df2a-4934-8963-0fb1c057f02e"},"vehicle_type_id":"4","last_reported":1720879589,"current_range_meters":31200,"station_id":"","pricing_plan_id":"cebpf4jnsgd1na2vs0mg"},{"bike_id":"7db14a83-5996-4107-aac5-8660c0fb36ae","system_id":"levelo_inurba_marseille","lat":43.337584,"lon":5.374721,"is_reserved":false,"is_disabled":false,"rental_uris":{"android":"levelo://app?vid=7db14a83-5996-4107-aac5-8660c0fb36ae","ios":"levelo://app?vid=7db14a83-5996-4107-aac5-8660c0fb36ae"},"vehicle_type_id":"4","last_reported":1720879589,"current_range_meters":22000,"station_id":"","pricing_plan_id":"cebpf4jnsgd1na2vs0mg"},{"bike_id":"ccea21f4-ac15-4161-b144-e6d8be649cbd","system_id":"levelo_inurba_marseille","lat":43.337627,"lon":5.374456,"is_reserved":false,"is_disabled":false,"rental_uris":{"android":"levelo://app?vid=ccea21f4-ac15-4161-b144-e6d8be649cbd","ios":"levelo://app?vid=ccea21f4-ac15-4161-b144-e6d8be649cbd"},"vehicle_type_id":"4","last_reported":1720879589,"current_range_meters":30400,"station_id":"","pricing_plan_id":"cebpf4jnsgd1na2vs0mg"},{"bike_id":"0d58fd1b-f1d1-4fc6-a4e4-51a623e9a871","system_id":"levelo_inurba_marseille","lat":43.33766,"lon":5.37474,"is_reserved":false,"is_disabled":false,"rental_uris":{"android":"levelo://app?vid=0d58fd1b-f1d1-4fc6-a4e4-51a623e9a871","ios":"levelo://app?vid=0d58fd1b-f1d1-4fc6-a4e4-51a623e9a871"},"vehicle_type_id":"4","last_reported":1720879589,"current_range_meters":30800,"station_id":"","pricing_plan_id":"cebpf4jnsgd1na2vs0mg"},{"bike_id":"bc669f5d-d6ae-4c41-ab4a-a2023131d965","system_id":"levelo_inurba_marseille","lat":43.33772,"lon":5.37441,"is_reserved":false,"is_disabled":false,"rental_uris":{"android":"levelo://app?vid=bc669f5d-d6ae-4c41-ab4a-a2023131d965","ios":"levelo://app?vid=bc669f5d-d6ae-4c41-ab4a-a2023131d965"},"vehicle_type_id":"4","last_reported":1720879589,"current_range_meters":29600,"station_id":"","pricing_plan_id":"cebpf4jnsgd1na2vs0mg"},{"bike_id":"c4c7ada2-d925-40bd-9c9c-25a7565bf03e","system_id":"levelo_inurba_marseille","lat":43.301117,"lon":5.398795,"is_reserved":false,"is_disabled":false,"rental_uris":{"android":"levelo://app?vid=c4c7ada2-d925-40bd-9c9c-25a7565bf03e","ios":"levelo://app?vid=c4c7ada2-d925-40bd-9c9c-25a7565bf03e"},"vehicle_type_id":"4","last_reported":1720879589,"current_range_meters":26000,"station_id":"ce4bh0h2rcd13ifvqd40","pricing_plan_id":"cebpf4jnsgd1na2vs0mg"},{"bike_id":"7bca4626-fa39-4102-8201-01de866c798b","system_id":"levelo_inurba_marseille","lat":43.29035,"lon":5.38654,"is_reserved":false,"is_disabled":false,"rental_uris":{"android":"levelo://app?vid=7bca4626-fa39-4102-8201-01de866c798b","ios":"levelo://app?vid=7bca4626-fa39-4102-8201-01de866c798b"},"vehicle_type_id":"4","last_reported":1720879589,"current_range_meters":0,"station_id":"ce4bh4p2rcd13ifvqe0g","pricing_plan_id":"cebpf4jnsgd1na2vs0mg"},{"bike_id":"118caeb6-4aab-4b6e-8a53-5b8d89a69f7f","system_id":"levelo_inurba_marseille","lat":43.302759,"lon":5.400793,"is_reserved":false,"is_disabled":false,"rental_uris":{"android":"levelo://app?vid=118caeb6-4aab-4b6e-8a53-5b8d89a69f7f","ios":"levelo://app?vid=118caeb6-4aab-4b6e-8a53-5b8d89a69f7f"},"vehicle_type_id":"4","last_reported":1720879589,"current_range_meters":18800,"station_id":"ce4bgvh2rcd13ifvqcs0","pricing_plan_id":"cebpf4jnsgd1na2vs0mg"},{"bike_id":"5165e61a-e0b0-4783-8aae-9d9ee5263752","system_id":"levelo_inurba_marseille","lat":43.302759,"lon":5.400793,"is_reserved":false,"is_disabled":false,"rental_uris":{"android":"levelo://app?vid=5165e61a-e0b0-4783-8aae-9d9ee5263752","ios":"levelo://app?vid=5165e61a-e0b0-4783-8aae-9d9ee5263752"},"vehicle_type_id":"4","last_reported":1720879589,"current_range_meters":31200,"station_id":"ce4bgvh2rcd13ifvqcs0","pricing_plan_id":"cebpf4jnsgd1na2vs0mg"},{"bike_id":"f187cad9-2bba-48a2-a022-faf6453d5360","system_id":"levelo_inurba_marseille","lat":43.316828,"lon":5.404723,"is_reserved":false,"is_disabled":false,"rental_uris":{"android":"levelo://app?vid=f187cad9-2bba-48a2-a022-faf6453d5360","ios":"levelo://app?vid=f187cad9-2bba-48a2-a022-faf6453d5360"},"vehicle_type_id":"4","last_reported":1720879589,"current_range_meters":28000,"station_id":"ce4bh012rcd13ifvqd00","pricing_plan_id":"cebpf4jnsgd1na2vs0mg"},{"bike_id":"9d5a0df0-47f4-43ae-84de-9a64e8a23b88","system_id":"levelo_inurba_marseille","lat":43.316828,"lon":5.404723,"is_reserved":false,"is_disabled":false,"rental_uris":{"android":"levelo://app?vid=9d5a0df0-47f4-43ae-84de-9a64e8a23b88","ios":"levelo://app?vid=9d5a0df0-47f4-43ae-84de-9a64e8a23b88"},"vehicle_type_id":"4","last_reported":1720879589,"current_range_meters":13200,"station_id":"ce4bh012rcd13ifvqd00","pricing_plan_id":"cebpf4jnsgd1na2vs0mg"},{"bike_id":"c7543639-61c3-48b2-bcac-664dde59153e","system_id":"levelo_inurba_marseille","lat":43.316821,"lon":5.404737,"is_reserved":false,"is_disabled":false,"rental_uris":{"android":"levelo://app?vid=c7543639-61c3-48b2-bcac-664dde59153e","ios":"levelo://app?vid=c7543639-61c3-48b2-bcac-664dde59153e"},"vehicle_type_id":"4","last_reported":1720879589,"current_range_meters":13600,"station_id":"ce4bh012rcd13ifvqd00","pricing_plan_id":"cebpf4jnsgd1na2vs0mg"},{"bike_id":"8783667d-662a-4b5f-9879-f129e6a96cac","system_id":"levelo_inurba_marseille","lat":43.291994,"lon":5.392907,"is_reserved":false,"is_disabled":false,"rental_uris":{"android":"levelo://app?vid=8783667d-662a-4b5f-9879-f129e6a96cac","ios":"levelo://app?vid=8783667d-662a-4b5f-9879-f129e6a96cac"},"vehicle_type_id":"4","last_reported":1720879589,"current_range_meters":11600,"station_id":"ce4bh192rcd13ifvqdd0","pricing_plan_id":"cebpf4jnsgd1na2vs0mg"},{"bike_id":"cc5cc208-7756-4dc0-8119-346f92a87d86","system_id":"levelo_inurba_marseille","lat":43.286286,"lon":5.351124,"is_reserved":false,"is_disabled":false,"rental_uris":{"android":"levelo://app?vid=cc5cc208-7756-4dc0-8119-346f92a87d86","ios":"levelo://app?vid=cc5cc208-7756-4dc0-8119-346f92a87d86"},"vehicle_type_id":"4","last_reported":1720879589,"current_range_meters":6800,"station_id":"ce4bhch2rcd13ifvqeug","pricing_plan_id":"cebpf4jnsgd1na2vs0mg"},{"bike_id":"4fc4db99-f45e-4ede-98c4-7c0149af9460","system_id":"levelo_inurba_marseille","lat":43.28625,"lon":5.35106,"is_reserved":false,"is_disabled":false,"rental_uris":{"android":"levelo://app?vid=4fc4db99-f45e-4ede-98c4-7c0149af9460","ios":"levelo://app?vid=4fc4db99-f45e-4ede-98c4-7c0149af9460"},"vehicle_type_id":"4","last_reported":1720879589,"current_range_meters":2800,"station_id":"ce4bhch2rcd13ifvqeug","pricing_plan_id":"cebpf4jnsgd1na2vs0mg"},{"bike_id":"e227dbb3-1237-449d-91c0-223925094d5e","system_id":"levelo_inurba_marseille","lat":43.28624,"lon":5.35104,"is_reserved":false,"is_disabled":false,"rental_uris":{"android":"levelo://app?vid=e227dbb3-1237-449d-91c0-223925094d5e","ios":"levelo://app?vid=e227dbb3-1237-449d-91c0-223925094d5e"},"vehicle_type_id":"4","last_reported":1720879589,"current_range_meters":28400,"station_id":"ce4bhch2rcd13ifvqeug","pricing_plan_id":"cebpf4jnsgd1na2vs0mg"},{"bike_id":"618ecb8a-f58d-4832-8550-4614181d20d3","system_id":"levelo_inurba_marseille","lat":43.28622,"lon":5.35108,"is_reserved":false,"is_disabled":false,"rental_uris":{"android":"levelo://app?vid=618ecb8a-f58d-4832-8550-4614181d20d3","ios":"levelo://app?vid=618ecb8a-f58d-4832-8550-4614181d20d3"},"vehicle_type_id":"4","last_reported":1720879589,"current_range_meters":4400,"station_id":"ce4bhch2rcd13ifvqeug","pricing_plan_id":"cebpf4jnsgd1na2vs0mg"},{"bike_id":"9e1f4ea2-a8f7-4dd7-b041-e36a7d7fbec2","system_id":"levelo_inurba_marseille","lat":43.285856,"lon":5.350771,"is_reserved":false,"is_disabled":false,"rental_uris":{"android":"levelo://app?vid=9e1f4ea2-a8f7-4dd7-b041-e36a7d7fbec2","ios":"levelo://app?vid=9e1f4ea2-a8f7-4dd7-b041-e36a7d7fbec2"},"vehicle_type_id":"4","last_reported":1720879589,"current_range_meters":31200,"station_id":"ce4bhch2rcd13ifvqeug","pricing_plan_id":"cebpf4jnsgd1na2vs0mg"},{"bike_id":"7298524f-08ab-4f35-b38f-b5a634a283a4","system_id":"levelo_inurba_marseille","lat":43.28621,"lon":5.35104,"is_reserved":false,"is_disabled":false,"rental_uris":{"android":"levelo://app?vid=7298524f-08ab-4f35-b38f-b5a634a283a4","ios":"levelo://app?vid=7298524f-08ab-4f35-b38f-b5a634a283a4"},"vehicle_type_id":"4","last_reported":1720879589,"current_range_meters":27600,"station_id":"ce4bhch2rcd13ifvqeug","pricing_plan_id":"cebpf4jnsgd1na2vs0mg"},{"bike_id":"96f417c4-7fb8-486d-a47a-e4da330fb887","system_id":"levelo_inurba_marseille","lat":43.2862,"lon":5.35107,"is_reserved":false,"is_disabled":false,"rental_uris":{"android":"levelo://app?vid=96f417c4-7fb8-486d-a47a-e4da330fb887","ios":"levelo://app?vid=96f417c4-7fb8-486d-a47a-e4da330fb887"},"vehicle_type_id":"4","last_reported":1720879589,"current_range_meters":19200,"station_id":"ce4bhch2rcd13ifvqeug","pricing_plan_id":"cebpf4jnsgd1na2vs0mg"},{"bike_id":"5b50692f-5fd3-44c3-98cf-527bd39371a2","system_id":"levelo_inurba_marseille","lat":43.285856,"lon":5.350771,"is_reserved":false,"is_disabled":false,"rental_uris":{"android":"levelo://app?vid=5b50692f-5fd3-44c3-98cf-527bd39371a2","ios":"levelo://app?vid=5b50692f-5fd3-44c3-98cf-527bd39371a2"},"vehicle_type_id":"4","last_reported":1720879589,"current_range_meters":24000,"station_id":"ce4bhch2rcd13ifvqeug","pricing_plan_id":"cebpf4jnsgd1na2vs0mg"},{"bike_id":"bc16e376-3bee-48fe-a973-71527678b399","system_id":"levelo_inurba_marseille","lat":43.28618,"lon":5.3511,"is_reserved":false,"is_disabled":false,"rental_uris":{"android":"levelo://app?vid=bc16e376-3bee-48fe-a973-71527678b399","ios":"levelo://app?vid=bc16e376-3bee-48fe-a973-71527678b399"},"vehicle_type_id":"4","last_reported":1720879589,"current_range_meters":16800,"station_id":"ce4bhch2rcd13ifvqeug","pricing_plan_id":"cebpf4jnsgd1na2vs0mg"},{"bike_id":"9eef4f92-461b-41a7-962b-fe3471c25e28","system_id":"levelo_inurba_marseille","lat":43.28619,"lon":5.35106,"is_reserved":false,"is_disabled":false,"rental_uris":{"android":"levelo://app?vid=9eef4f92-461b-41a7-962b-fe3471c25e28","ios":"levelo://app?vid=9eef4f92-461b-41a7-962b-fe3471c25e28"},"vehicle_type_id":"4","last_reported":1720879589,"current_range_meters":14000,"station_id":"ce4bhch2rcd13ifvqeug","pricing_plan_id":"cebpf4jnsgd1na2vs0mg"},{"bike_id":"75a0ec2e-be39-4008-b0ed-dfaa4ae7e43e","system_id":"levelo_inurba_marseille","lat":43.286185,"lon":5.351067,"is_reserved":false,"is_disabled":false,"rental_uris":{"android":"levelo://app?vid=75a0ec2e-be39-4008-b0ed-dfaa4ae7e43e","ios":"levelo://app?vid=75a0ec2e-be39-4008-b0ed-dfaa4ae7e43e"},"vehicle_type_id":"4","last_reported":1720879589,"current_range_meters":8800,"station_id":"ce4bhch2rcd13ifvqeug","pricing_plan_id":"cebpf4jnsgd1na2vs0mg"},{"bike_id":"b97525f9-db91-4430-b430-bb37e0544fa4","system_id":"levelo_inurba_marseille","lat":43.28617,"lon":5.35111,"is_reserved":false,"is_disabled":false,"rental_uris":{"android":"levelo://app?vid=b97525f9-db91-4430-b430-bb37e0544fa4","ios":"levelo://app?vid=b97525f9-db91-4430-b430-bb37e0544fa4"},"vehicle_type_id":"4","last_reported":1720879589,"current_range_meters":10000,"station_id":"ce4bhch2rcd13ifvqeug","pricing_plan_id":"cebpf4jnsgd1na2vs0mg"},{"bike_id":"162ce0b8-a03a-4b51-b89a-46db22755de2","system_id":"levelo_inurba_marseille","lat":43.28621,"lon":5.35097,"is_reserved":false,"is_disabled":false,"rental_uris":{"android":"levelo://app?vid=162ce0b8-a03a-4b51-b89a-46db22755de2","ios":"levelo://app?vid=162ce0b8-a03a-4b51-b89a-46db22755de2"},"vehicle_type_id":"4","last_reported":1720879589,"current_range_meters":5200,"station_id":"ce4bhch2rcd13ifvqeug","pricing_plan_id":"cebpf4jnsgd1na2vs0mg"},{"bike_id":"3a8fe5e6-0b4f-40e2-83a1-93b35021c9e8","system_id":"levelo_inurba_marseille","lat":43.28617,"lon":5.35108,"is_reserved":false,"is_disabled":false,"rental_uris":{"android":"levelo://app?vid=3a8fe5e6-0b4f-40e2-83a1-93b35021c9e8","ios":"levelo://app?vid=3a8fe5e6-0b4f-40e2-83a1-93b35021c9e8"},"vehicle_type_id":"4","last_reported":1720879589,"current_range_meters":28000,"station_id":"ce4bhch2rcd13ifvqeug","pricing_plan_id":"cebpf4jnsgd1na2vs0mg"},{"bike_id":"a2b61a6f-a7c7-4b85-ae1f-43aa6ccfeb57","system_id":"levelo_inurba_marseille","lat":43.285856,"lon":5.350771,"is_reserved":false,"is_disabled":false,"rental_uris":{"android":"levelo://app?vid=a2b61a6f-a7c7-4b85-ae1f-43aa6ccfeb57","ios":"levelo://app?vid=a2b61a6f-a7c7-4b85-ae1f-43aa6ccfeb57"},"vehicle_type_id":"4","last_reported":1720879589,"current_range_meters":21600,"station_id":"ce4bhch2rcd13ifvqeug","pricing_plan_id":"cebpf4jnsgd1na2vs0mg"},{"bike_id":"0f10ba26-6840-4634-9d36-cc0a93c8d31b","system_id":"levelo_inurba_marseille","lat":43.285856,"lon":5.350771,"is_reserved":false,"is_disabled":false,"rental_uris":{"android":"levelo://app?vid=0f10ba26-6840-4634-9d36-cc0a93c8d31b","ios":"levelo://app?vid=0f10ba26-6840-4634-9d36-cc0a93c8d31b"},"vehicle_type_id":"4","last_reported":1720879589,"current_range_meters":29600,"station_id":"ce4bhch2rcd13ifvqeug","pricing_plan_id":"cebpf4jnsgd1na2vs0mg"},{"bike_id":"64656176-428c-4c5d-8419-2f37549d1f79","system_id":"levelo_inurba_marseille","lat":43.28617,"lon":5.35105,"is_reserved":false,"is_disabled":false,"rental_uris":{"android":"levelo://app?vid=64656176-428c-4c5d-8419-2f37549d1f79","ios":"levelo://app?vid=64656176-428c-4c5d-8419-2f37549d1f79"},"vehicle_type_id":"4","last_reported":1720879589,"current_range_meters":12000,"station_id":"ce4bhch2rcd13ifvqeug","pricing_plan_id":"cebpf4jnsgd1na2vs0mg"},{"bike_id":"f6bd8b4f-65cd-404e-b3bc-a73b3ef9b383","system_id":"levelo_inurba_marseille","lat":43.285848,"lon":5.350787,"is_reserved":false,"is_disabled":false,"rental_uris":{"android":"levelo://app?vid=f6bd8b4f-65cd-404e-b3bc-a73b3ef9b383","ios":"levelo://app?vid=f6bd8b4f-65cd-404e-b3bc-a73b3ef9b383"},"vehicle_type_id":"4","last_reported":1720879589,"current_range_meters":21200,"station_id":"ce4bhch2rcd13ifvqeug","pricing_plan_id":"cebpf4jnsgd1na2vs0mg"},{"bike_id":"eefb4afa-5c5c-4c02-9aca-053f1c4fcff6","system_id":"levelo_inurba_marseille","lat":43.28617,"lon":5.35103,"is_reserved":false,"is_disabled":false,"rental_uris":{"android":"levelo://app?vid=eefb4afa-5c5c-4c02-9aca-053f1c4fcff6","ios":"levelo://app?vid=eefb4afa-5c5c-4c02-9aca-053f1c4fcff6"},"vehicle_type_id":"4","last_reported":1720879589,"current_range_meters":18800,"station_id":"ce4bhch2rcd13ifvqeug","pricing_plan_id":"cebpf4jnsgd1na2vs0mg"},{"bike_id":"78105da0-137e-4799-a635-cba8b443a9c9","system_id":"levelo_inurba_marseille","lat":43.28617,"lon":5.35101,"is_reserved":false,"is_disabled":false,"rental_uris":{"android":"levelo://app?vid=78105da0-137e-4799-a635-cba8b443a9c9","ios":"levelo://app?vid=78105da0-137e-4799-a635-cba8b443a9c9"},"vehicle_type_id":"4","last_reported":1720879589,"current_range_meters":4400,"station_id":"ce4bhch2rcd13ifvqeug","pricing_plan_id":"cebpf4jnsgd1na2vs0mg"},{"bike_id":"bf87d6ee-718c-4c86-b455-3a16d8bda4d0","system_id":"levelo_inurba_marseille","lat":43.28615,"lon":5.35107,"is_reserved":false,"is_disabled":false,"rental_uris":{"android":"levelo://app?vid=bf87d6ee-718c-4c86-b455-3a16d8bda4d0","ios":"levelo://app?vid=bf87d6ee-718c-4c86-b455-3a16d8bda4d0"},"vehicle_type_id":"4","last_reported":1720879589,"current_range_meters":20000,"station_id":"ce4bhch2rcd13ifvqeug","pricing_plan_id":"cebpf4jnsgd1na2vs0mg"},{"bike_id":"176ce380-7f3e-463c-b3a9-18e9bac53770","system_id":"levelo_inurba_marseille","lat":43.28617,"lon":5.351,"is_reserved":false,"is_disabled":false,"rental_uris":{"android":"levelo://app?vid=176ce380-7f3e-463c-b3a9-18e9bac53770","ios":"levelo://app?vid=176ce380-7f3e-463c-b3a9-18e9bac53770"},"vehicle_type_id":"4","last_reported":1720879589,"current_range_meters":24000,"station_id":"ce4bhch2rcd13ifvqeug","pricing_plan_id":"cebpf4jnsgd1na2vs0mg"},{"bike_id":"c51bcaf8-3fec-484a-ab4d-ef278e673c37","system_id":"levelo_inurba_marseille","lat":43.28616,"lon":5.35103,"is_reserved":false,"is_disabled":false,"rental_uris":{"android":"levelo://app?vid=c51bcaf8-3fec-484a-ab4d-ef278e673c37","ios":"levelo://app?vid=c51bcaf8-3fec-484a-ab4d-ef278e673c37"},"vehicle_type_id":"4","last_reported":1720879589,"current_range_meters":12000,"station_id":"ce4bhch2rcd13ifvqeug","pricing_plan_id":"cebpf4jnsgd1na2vs0mg"},{"bike_id":"ff46b0e8-3ef5-4e3a-b0ef-59afbc7a72a7","system_id":"levelo_inurba_marseille","lat":43.28615,"lon":5.35104,"is_reserved":false,"is_disabled":false,"rental_uris":{"android":"levelo://app?vid=ff46b0e8-3ef5-4e3a-b0ef-59afbc7a72a7","ios":"levelo://app?vid=ff46b0e8-3ef5-4e3a-b0ef-59afbc7a72a7"},"vehicle_type_id":"4","last_reported":1720879589,"current_range_meters":22800,"station_id":"ce4bhch2rcd13ifvqeug","pricing_plan_id":"cebpf4jnsgd1na2vs0mg"},{"bike_id":"dbfc893f-2881-41fc-be1d-c73b1d94379f","system_id":"levelo_inurba_marseille","lat":43.28614,"lon":5.35107,"is_reserved":false,"is_disabled":false,"rental_uris":{"android":"levelo://app?vid=dbfc893f-2881-41fc-be1d-c73b1d94379f","ios":"levelo://app?vid=dbfc893f-2881-41fc-be1d-c73b1d94379f"},"vehicle_type_id":"4","last_reported":1720879589,"current_range_meters":25600,"station_id":"ce4bhch2rcd13ifvqeug","pricing_plan_id":"cebpf4jnsgd1na2vs0mg"},{"bike_id":"b6748c6a-19d9-4043-b39f-4563a235b7fa","system_id":"levelo_inurba_marseille","lat":43.285856,"lon":5.350771,"is_reserved":false,"is_disabled":false,"rental_uris":{"android":"levelo://app?vid=b6748c6a-19d9-4043-b39f-4563a235b7fa","ios":"levelo://app?vid=b6748c6a-19d9-4043-b39f-4563a235b7fa"},"vehicle_type_id":"4","last_reported":1720879589,"current_range_meters":22400,"station_id":"ce4bhch2rcd13ifvqeug","pricing_plan_id":"cebpf4jnsgd1na2vs0mg"},{"bike_id":"632ec864-3f47-48b8-8d0b-63fa8fcb2ceb","system_id":"levelo_inurba_marseille","lat":43.28616,"lon":5.351,"is_reserved":false,"is_disabled":false,"rental_uris":{"android":"levelo://app?vid=632ec864-3f47-48b8-8d0b-63fa8fcb2ceb","ios":"levelo://app?vid=632ec864-3f47-48b8-8d0b-63fa8fcb2ceb"},"vehicle_type_id":"4","last_reported":1720879589,"current_range_meters":8000,"station_id":"ce4bhch2rcd13ifvqeug","pricing_plan_id":"cebpf4jnsgd1na2vs0mg"},{"bike_id":"3ae6e488-17bd-475c-844f-af92f7291c6d","system_id":"levelo_inurba_marseille","lat":43.28616,"lon":5.35099,"is_reserved":false,"is_disabled":false,"rental_uris":{"android":"levelo://app?vid=3ae6e488-17bd-475c-844f-af92f7291c6d","ios":"levelo://app?vid=3ae6e488-17bd-475c-844f-af92f7291c6d"},"vehicle_type_id":"4","last_reported":1720879589,"current_range_meters":30000,"station_id":"ce4bhch2rcd13ifvqeug","pricing_plan_id":"cebpf4jnsgd1na2vs0mg"},{"bike_id":"cd975e0a-17d5-4787-864e-df74a90f2dc4","system_id":"levelo_inurba_marseille","lat":43.28614,"lon":5.35105,"is_reserved":false,"is_disabled":false,"rental_uris":{"android":"levelo://app?vid=cd975e0a-17d5-4787-864e-df74a90f2dc4","ios":"levelo://app?vid=cd975e0a-17d5-4787-864e-df74a90f2dc4"},"vehicle_type_id":"4","last_reported":1720879589,"current_range_meters":4000,"station_id":"ce4bhch2rcd13ifvqeug","pricing_plan_id":"cebpf4jnsgd1na2vs0mg"},{"bike_id":"797988f1-e071-4e91-9a4a-0c909d71aaf9","system_id":"levelo_inurba_marseille","lat":43.28614,"lon":5.35105,"is_reserved":false,"is_disabled":false,"rental_uris":{"android":"levelo://app?vid=797988f1-e071-4e91-9a4a-0c909d71aaf9","ios":"levelo://app?vid=797988f1-e071-4e91-9a4a-0c909d71aaf9"},"vehicle_type_id":"4","last_reported":1720879589,"current_range_meters":21600,"station_id":"ce4bhch2rcd13ifvqeug","pricing_plan_id":"cebpf4jnsgd1na2vs0mg"},{"bike_id":"5af3d5c4-d965-4614-851f-9efdcbad7bea","system_id":"levelo_inurba_marseille","lat":43.28614,"lon":5.35104,"is_reserved":false,"is_disabled":false,"rental_uris":{"android":"levelo://app?vid=5af3d5c4-d965-4614-851f-9efdcbad7bea","ios":"levelo://app?vid=5af3d5c4-d965-4614-851f-9efdcbad7bea"},"vehicle_type_id":"4","last_reported":1720879589,"current_range_meters":22000,"station_id":"ce4bhch2rcd13ifvqeug","pricing_plan_id":"cebpf4jnsgd1na2vs0mg"},{"bike_id":"3b20dda1-f886-49c5-9ecc-d8d0e922479c","system_id":"levelo_inurba_marseille","lat":43.28615,"lon":5.351,"is_reserved":false,"is_disabled":false,"rental_uris":{"android":"levelo://app?vid=3b20dda1-f886-49c5-9ecc-d8d0e922479c","ios":"levelo://app?vid=3b20dda1-f886-49c5-9ecc-d8d0e922479c"},"vehicle_type_id":"4","last_reported":1720879589,"current_range_meters":8400,"station_id":"ce4bhch2rcd13ifvqeug","pricing_plan_id":"cebpf4jnsgd1na2vs0mg"},{"bike_id":"6b50f0ef-7936-4135-b7c7-daf0e3895c28","system_id":"levelo_inurba_marseille","lat":43.28615,"lon":5.35099,"is_reserved":false,"is_disabled":false,"rental_uris":{"android":"levelo://app?vid=6b50f0ef-7936-4135-b7c7-daf0e3895c28","ios":"levelo://app?vid=6b50f0ef-7936-4135-b7c7-daf0e3895c28"},"vehicle_type_id":"4","last_reported":1720879589,"current_range_meters":26000,"station_id":"ce4bhch2rcd13ifvqeug","pricing_plan_id":"cebpf4jnsgd1na2vs0mg"},{"bike_id":"355b1b2b-9a2b-4d1a-9c9c-68e6e95f45dd","system_id":"levelo_inurba_marseille","lat":43.28613,"lon":5.35104,"is_reserved":false,"is_disabled":false,"rental_uris":{"android":"levelo://app?vid=355b1b2b-9a2b-4d1a-9c9c-68e6e95f45dd","ios":"levelo://app?vid=355b1b2b-9a2b-4d1a-9c9c-68e6e95f45dd"},"vehicle_type_id":"4","last_reported":1720879589,"current_range_meters":1600,"station_id":"ce4bhch2rcd13ifvqeug","pricing_plan_id":"cebpf4jnsgd1na2vs0mg"},{"bike_id":"fa718340-6e17-40e0-b78c-d25af835652f","system_id":"levelo_inurba_marseille","lat":43.28613,"lon":5.35101,"is_reserved":false,"is_disabled":false,"rental_uris":{"android":"levelo://app?vid=fa718340-6e17-40e0-b78c-d25af835652f","ios":"levelo://app?vid=fa718340-6e17-40e0-b78c-d25af835652f"},"vehicle_type_id":"4","last_reported":1720879589,"current_range_meters":19200,"station_id":"ce4bhch2rcd13ifvqeug","pricing_plan_id":"cebpf4jnsgd1na2vs0mg"},{"bike_id":"602e6a52-8d03-4039-93a1-07598c7f9ba2","system_id":"levelo_inurba_marseille","lat":43.285848,"lon":5.350787,"is_reserved":false,"is_disabled":false,"rental_uris":{"android":"levelo://app?vid=602e6a52-8d03-4039-93a1-07598c7f9ba2","ios":"levelo://app?vid=602e6a52-8d03-4039-93a1-07598c7f9ba2"},"vehicle_type_id":"4","last_reported":1720879589,"current_range_meters":21200,"station_id":"ce4bhch2rcd13ifvqeug","pricing_plan_id":"cebpf4jnsgd1na2vs0mg"},{"bike_id":"62ff2fa5-5bc9-40f0-844f-f4a98cf6c2b1","system_id":"levelo_inurba_marseille","lat":43.28614,"lon":5.35095,"is_reserved":false,"is_disabled":false,"rental_uris":{"android":"levelo://app?vid=62ff2fa5-5bc9-40f0-844f-f4a98cf6c2b1","ios":"levelo://app?vid=62ff2fa5-5bc9-40f0-844f-f4a98cf6c2b1"},"vehicle_type_id":"4","last_reported":1720879589,"current_range_meters":8000,"station_id":"ce4bhch2rcd13ifvqeug","pricing_plan_id":"cebpf4jnsgd1na2vs0mg"},{"bike_id":"023807b3-5b1e-4b27-992b-17f577b8c99b","system_id":"levelo_inurba_marseille","lat":43.2861,"lon":5.35106,"is_reserved":false,"is_disabled":false,"rental_uris":{"android":"levelo://app?vid=023807b3-5b1e-4b27-992b-17f577b8c99b","ios":"levelo://app?vid=023807b3-5b1e-4b27-992b-17f577b8c99b"},"vehicle_type_id":"4","last_reported":1720879589,"current_range_meters":20000,"station_id":"ce4bhch2rcd13ifvqeug","pricing_plan_id":"cebpf4jnsgd1na2vs0mg"},{"bike_id":"b482a51f-5828-40cc-bf99-4582e41a2671","system_id":"levelo_inurba_marseille","lat":43.28612,"lon":5.35098,"is_reserved":false,"is_disabled":false,"rental_uris":{"android":"levelo://app?vid=b482a51f-5828-40cc-bf99-4582e41a2671","ios":"levelo://app?vid=b482a51f-5828-40cc-bf99-4582e41a2671"},"vehicle_type_id":"4","last_reported":1720879589,"current_range_meters":22800,"station_id":"ce4bhch2rcd13ifvqeug","pricing_plan_id":"cebpf4jnsgd1na2vs0mg"},{"bike_id":"99bb051b-4084-4306-a1ff-487454e48a82","system_id":"levelo_inurba_marseille","lat":43.28609,"lon":5.35099,"is_reserved":false,"is_disabled":false,"rental_uris":{"android":"levelo://app?vid=99bb051b-4084-4306-a1ff-487454e48a82","ios":"levelo://app?vid=99bb051b-4084-4306-a1ff-487454e48a82"},"vehicle_type_id":"4","last_reported":1720879589,"current_range_meters":5600,"station_id":"ce4bhch2rcd13ifvqeug","pricing_plan_id":"cebpf4jnsgd1na2vs0mg"},{"bike_id":"bb7c8c5c-fd6a-4774-b74e-c6d25147bbdb","system_id":"levelo_inurba_marseille","lat":43.28608,"lon":5.35102,"is_reserved":false,"is_disabled":false,"rental_uris":{"android":"levelo://app?vid=bb7c8c5c-fd6a-4774-b74e-c6d25147bbdb","ios":"levelo://app?vid=bb7c8c5c-fd6a-4774-b74e-c6d25147bbdb"},"vehicle_type_id":"4","last_reported":1720879589,"current_range_meters":21600,"station_id":"ce4bhch2rcd13ifvqeug","pricing_plan_id":"cebpf4jnsgd1na2vs0mg"},{"bike_id":"ed183f50-02b6-48ae-aafa-9979a50b7248","system_id":"levelo_inurba_marseille","lat":43.295713,"lon":5.399639,"is_reserved":false,"is_disabled":false,"rental_uris":{"android":"levelo://app?vid=ed183f50-02b6-48ae-aafa-9979a50b7248","ios":"levelo://app?vid=ed183f50-02b6-48ae-aafa-9979a50b7248"},"vehicle_type_id":"4","last_reported":1720879589,"current_range_meters":0,"station_id":"ce4bh312rcd13ifvqdj0","pricing_plan_id":"cebpf4jnsgd1na2vs0mg"},{"bike_id":"52f339ef-ee44-4bdd-9142-b05eecff5d8c","system_id":"levelo_inurba_marseille","lat":43.29736,"lon":5.40142,"is_reserved":false,"is_disabled":false,"rental_uris":{"android":"levelo://app?vid=52f339ef-ee44-4bdd-9142-b05eecff5d8c","ios":"levelo://app?vid=52f339ef-ee44-4bdd-9142-b05eecff5d8c"},"vehicle_type_id":"4","last_reported":1720879589,"current_range_meters":1600,"station_id":"","pricing_plan_id":"cebpf4jnsgd1na2vs0mg"},{"bike_id":"278f6a51-03f2-40f7-b0e3-d9809ab330b1","system_id":"levelo_inurba_marseille","lat":43.286595,"lon":5.386795,"is_reserved":false,"is_disabled":false,"rental_uris":{"android":"levelo://app?vid=278f6a51-03f2-40f7-b0e3-d9809ab330b1","ios":"levelo://app?vid=278f6a51-03f2-40f7-b0e3-d9809ab330b1"},"vehicle_type_id":"4","last_reported":1720879589,"current_range_meters":14800,"station_id":"ce4bh492rcd13ifvqdug","pricing_plan_id":"cebpf4jnsgd1na2vs0mg"},{"bike_id":"f5bb72a6-dbce-4f84-a1d2-62f2461506d7","system_id":"levelo_inurba_marseille","lat":43.286595,"lon":5.386795,"is_reserved":false,"is_disabled":false,"rental_uris":{"android":"levelo://app?vid=f5bb72a6-dbce-4f84-a1d2-62f2461506d7","ios":"levelo://app?vid=f5bb72a6-dbce-4f84-a1d2-62f2461506d7"},"vehicle_type_id":"4","last_reported":1720879589,"current_range_meters":11200,"station_id":"ce4bh492rcd13ifvqdug","pricing_plan_id":"cebpf4jnsgd1na2vs0mg"},{"bike_id":"da75fa16-20ce-4e4a-afcf-f2a1678095c5","system_id":"levelo_inurba_marseille","lat":43.336929,"lon":5.391427,"is_reserved":false,"is_disabled":false,"rental_uris":{"android":"levelo://app?vid=da75fa16-20ce-4e4a-afcf-f2a1678095c5","ios":"levelo://app?vid=da75fa16-20ce-4e4a-afcf-f2a1678095c5"},"vehicle_type_id":"4","last_reported":1720879589,"current_range_meters":24000,"station_id":"ce4bhr92rcd13ifvqhsg","pricing_plan_id":"cebpf4jnsgd1na2vs0mg"},{"bike_id":"9e16efa1-7b75-4a51-80bc-66347fd4b9d5","system_id":"levelo_inurba_marseille","lat":43.33721,"lon":5.39176,"is_reserved":false,"is_disabled":false,"rental_uris":{"android":"levelo://app?vid=9e16efa1-7b75-4a51-80bc-66347fd4b9d5","ios":"levelo://app?vid=9e16efa1-7b75-4a51-80bc-66347fd4b9d5"},"vehicle_type_id":"4","last_reported":1720879589,"current_range_meters":21600,"station_id":"ce4bhr92rcd13ifvqhsg","pricing_plan_id":"cebpf4jnsgd1na2vs0mg"},{"bike_id":"4ec247a6-b3aa-49db-9c98-ef76772d358c","system_id":"levelo_inurba_marseille","lat":43.337185,"lon":5.39181,"is_reserved":false,"is_disabled":false,"rental_uris":{"android":"levelo://app?vid=4ec247a6-b3aa-49db-9c98-ef76772d358c","ios":"levelo://app?vid=4ec247a6-b3aa-49db-9c98-ef76772d358c"},"vehicle_type_id":"4","last_reported":1720879589,"current_range_meters":30000,"station_id":"ce4bhr92rcd13ifvqhsg","pricing_plan_id":"cebpf4jnsgd1na2vs0mg"},{"bike_id":"79057f16-70fc-4e99-bf05-743a64cbae87","system_id":"levelo_inurba_marseille","lat":43.33717,"lon":5.391857,"is_reserved":false,"is_disabled":false,"rental_uris":{"android":"levelo://app?vid=79057f16-70fc-4e99-bf05-743a64cbae87","ios":"levelo://app?vid=79057f16-70fc-4e99-bf05-743a64cbae87"},"vehicle_type_id":"4","last_reported":1720879589,"current_range_meters":24000,"station_id":"ce4bhr92rcd13ifvqhsg","pricing_plan_id":"cebpf4jnsgd1na2vs0mg"},{"bike_id":"a2bbdcc3-d868-42e9-928b-76bfab191120","system_id":"levelo_inurba_marseille","lat":43.3372,"lon":5.391823,"is_reserved":false,"is_disabled":false,"rental_uris":{"android":"levelo://app?vid=a2bbdcc3-d868-42e9-928b-76bfab191120","ios":"levelo://app?vid=a2bbdcc3-d868-42e9-928b-76bfab191120"},"vehicle_type_id":"4","last_reported":1720879589,"current_range_meters":26400,"station_id":"ce4bhr92rcd13ifvqhsg","pricing_plan_id":"cebpf4jnsgd1na2vs0mg"},{"bike_id":"21e4ef63-0a9d-476f-b956-f659d25c40c2","system_id":"levelo_inurba_marseille","lat":43.33722,"lon":5.3918,"is_reserved":false,"is_disabled":false,"rental_uris":{"android":"levelo://app?vid=21e4ef63-0a9d-476f-b956-f659d25c40c2","ios":"levelo://app?vid=21e4ef63-0a9d-476f-b956-f659d25c40c2"},"vehicle_type_id":"4","last_reported":1720879589,"current_range_meters":6000,"station_id":"ce4bhr92rcd13ifvqhsg","pricing_plan_id":"cebpf4jnsgd1na2vs0mg"},{"bike_id":"bcfcd402-fe96-4917-ae58-ae3467ffddc2","system_id":"levelo_inurba_marseille","lat":43.32336,"lon":5.40616,"is_reserved":false,"is_disabled":false,"rental_uris":{"android":"levelo://app?vid=bcfcd402-fe96-4917-ae58-ae3467ffddc2","ios":"levelo://app?vid=bcfcd402-fe96-4917-ae58-ae3467ffddc2"},"vehicle_type_id":"4","last_reported":1720879589,"current_range_meters":11600,"station_id":"ce4bhq92rcd13ifvqhjg","pricing_plan_id":"cebpf4jnsgd1na2vs0mg"},{"bike_id":"2d940ee5-88e2-47e7-becf-8a2178e98459","system_id":"levelo_inurba_marseille","lat":43.33717,"lon":5.391857,"is_reserved":false,"is_disabled":false,"rental_uris":{"android":"levelo://app?vid=2d940ee5-88e2-47e7-becf-8a2178e98459","ios":"levelo://app?vid=2d940ee5-88e2-47e7-becf-8a2178e98459"},"vehicle_type_id":"4","last_reported":1720879589,"current_range_meters":22000,"station_id":"ce4bhr92rcd13ifvqhsg","pricing_plan_id":"cebpf4jnsgd1na2vs0mg"},{"bike_id":"85e1d5ab-aec3-495c-9ff6-5590e7ab13b4","system_id":"levelo_inurba_marseille","lat":43.323464,"lon":5.406297,"is_reserved":false,"is_disabled":false,"rental_uris":{"android":"levelo://app?vid=85e1d5ab-aec3-495c-9ff6-5590e7ab13b4","ios":"levelo://app?vid=85e1d5ab-aec3-495c-9ff6-5590e7ab13b4"},"vehicle_type_id":"4","last_reported":1720879589,"current_range_meters":30800,"station_id":"ce4bhq92rcd13ifvqhjg","pricing_plan_id":"cebpf4jnsgd1na2vs0mg"},{"bike_id":"2f9eeeac-76e8-4385-bc95-c4fdafc2b3f8","system_id":"levelo_inurba_marseille","lat":43.33722,"lon":5.39191,"is_reserved":false,"is_disabled":false,"rental_uris":{"android":"levelo://app?vid=2f9eeeac-76e8-4385-bc95-c4fdafc2b3f8","ios":"levelo://app?vid=2f9eeeac-76e8-4385-bc95-c4fdafc2b3f8"},"vehicle_type_id":"4","last_reported":1720879589,"current_range_meters":18400,"station_id":"ce4bhr92rcd13ifvqhsg","pricing_plan_id":"cebpf4jnsgd1na2vs0mg"},{"bike_id":"41493b50-9e67-4456-a659-731e6b362bcf","system_id":"levelo_inurba_marseille","lat":43.337278,"lon":5.391818,"is_reserved":false,"is_disabled":false,"rental_uris":{"android":"levelo://app?vid=41493b50-9e67-4456-a659-731e6b362bcf","ios":"levelo://app?vid=41493b50-9e67-4456-a659-731e6b362bcf"},"vehicle_type_id":"4","last_reported":1720879589,"current_range_meters":14000,"station_id":"ce4bhr92rcd13ifvqhsg","pricing_plan_id":"cebpf4jnsgd1na2vs0mg"},{"bike_id":"75f15957-952d-4258-9ed9-fc0dc4a18f40","system_id":"levelo_inurba_marseille","lat":43.323464,"lon":5.406297,"is_reserved":false,"is_disabled":false,"rental_uris":{"android":"levelo://app?vid=75f15957-952d-4258-9ed9-fc0dc4a18f40","ios":"levelo://app?vid=75f15957-952d-4258-9ed9-fc0dc4a18f40"},"vehicle_type_id":"4","last_reported":1720879589,"current_range_meters":1200,"station_id":"ce4bhq92rcd13ifvqhjg","pricing_plan_id":"cebpf4jnsgd1na2vs0mg"},{"bike_id":"72604efb-d1d3-4138-81bd-41d98d77d278","system_id":"levelo_inurba_marseille","lat":43.323464,"lon":5.406297,"is_reserved":false,"is_disabled":false,"rental_uris":{"android":"levelo://app?vid=72604efb-d1d3-4138-81bd-41d98d77d278","ios":"levelo://app?vid=72604efb-d1d3-4138-81bd-41d98d77d278"},"vehicle_type_id":"4","last_reported":1720879589,"current_range_meters":18400,"station_id":"ce4bhq92rcd13ifvqhjg","pricing_plan_id":"cebpf4jnsgd1na2vs0mg"},{"bike_id":"f9faadeb-d122-4d90-9ba1-dd3dc770e5d0","system_id":"levelo_inurba_marseille","lat":43.323464,"lon":5.406297,"is_reserved":false,"is_disabled":false,"rental_uris":{"android":"levelo://app?vid=f9faadeb-d122-4d90-9ba1-dd3dc770e5d0","ios":"levelo://app?vid=f9faadeb-d122-4d90-9ba1-dd3dc770e5d0"},"vehicle_type_id":"4","last_reported":1720879589,"current_range_meters":10400,"station_id":"ce4bhq92rcd13ifvqhjg","pricing_plan_id":"cebpf4jnsgd1na2vs0mg"},{"bike_id":"b4345683-f089-4724-9bf8-8595d0cdce27","system_id":"levelo_inurba_marseille","lat":43.2848,"lon":5.38422,"is_reserved":false,"is_disabled":false,"rental_uris":{"android":"levelo://app?vid=b4345683-f089-4724-9bf8-8595d0cdce27","ios":"levelo://app?vid=b4345683-f089-4724-9bf8-8595d0cdce27"},"vehicle_type_id":"4","last_reported":1720879589,"current_range_meters":0,"station_id":"ce4bh512rcd13ifvqe3g","pricing_plan_id":"cebpf4jnsgd1na2vs0mg"},{"bike_id":"52974a03-6edf-4f81-b360-384595b387fe","system_id":"levelo_inurba_marseille","lat":43.3101,"lon":5.40894,"is_reserved":false,"is_disabled":false,"rental_uris":{"android":"levelo://app?vid=52974a03-6edf-4f81-b360-384595b387fe","ios":"levelo://app?vid=52974a03-6edf-4f81-b360-384595b387fe"},"vehicle_type_id":"4","last_reported":1720879589,"current_range_meters":7200,"station_id":"ce4bhp92rcd13ifvqhag","pricing_plan_id":"cebpf4jnsgd1na2vs0mg"},{"bike_id":"77a5e9e1-781a-443d-8b3b-d48b185eb546","system_id":"levelo_inurba_marseille","lat":43.284219,"lon":5.3497,"is_reserved":false,"is_disabled":false,"rental_uris":{"android":"levelo://app?vid=77a5e9e1-781a-443d-8b3b-d48b185eb546","ios":"levelo://app?vid=77a5e9e1-781a-443d-8b3b-d48b185eb546"},"vehicle_type_id":"4","last_reported":1720879589,"current_range_meters":23200,"station_id":"ce4bhbh2rcd13ifvqepg","pricing_plan_id":"cebpf4jnsgd1na2vs0mg"},{"bike_id":"22b11e55-e522-4126-940e-40bd743a39b2","system_id":"levelo_inurba_marseille","lat":43.284214,"lon":5.349706,"is_reserved":false,"is_disabled":false,"rental_uris":{"android":"levelo://app?vid=22b11e55-e522-4126-940e-40bd743a39b2","ios":"levelo://app?vid=22b11e55-e522-4126-940e-40bd743a39b2"},"vehicle_type_id":"4","last_reported":1720879589,"current_range_meters":23200,"station_id":"ce4bhbh2rcd13ifvqepg","pricing_plan_id":"cebpf4jnsgd1na2vs0mg"},{"bike_id":"25c95a58-c026-46a1-9e31-d803be344482","system_id":"levelo_inurba_marseille","lat":43.284776,"lon":5.385603,"is_reserved":false,"is_disabled":false,"rental_uris":{"android":"levelo://app?vid=25c95a58-c026-46a1-9e31-d803be344482","ios":"levelo://app?vid=25c95a58-c026-46a1-9e31-d803be344482"},"vehicle_type_id":"4","last_reported":1720879589,"current_range_meters":28000,"station_id":"ce4bh8p2rcd13ifvqeb0","pricing_plan_id":"cebpf4jnsgd1na2vs0mg"},{"bike_id":"58541ca8-0203-45df-b9aa-cc7e5aa1288d","system_id":"levelo_inurba_marseille","lat":43.2842,"lon":5.35007,"is_reserved":false,"is_disabled":false,"rental_uris":{"android":"levelo://app?vid=58541ca8-0203-45df-b9aa-cc7e5aa1288d","ios":"levelo://app?vid=58541ca8-0203-45df-b9aa-cc7e5aa1288d"},"vehicle_type_id":"4","last_reported":1720879589,"current_range_meters":3600,"station_id":"ce4bhbh2rcd13ifvqepg","pricing_plan_id":"cebpf4jnsgd1na2vs0mg"},{"bike_id":"b6b8e71a-3a74-44df-a646-2cdc5a86df71","system_id":"levelo_inurba_marseille","lat":43.28425,"lon":5.34988,"is_reserved":false,"is_disabled":false,"rental_uris":{"android":"levelo://app?vid=b6b8e71a-3a74-44df-a646-2cdc5a86df71","ios":"levelo://app?vid=b6b8e71a-3a74-44df-a646-2cdc5a86df71"},"vehicle_type_id":"4","last_reported":1720879589,"current_range_meters":400,"station_id":"ce4bhbh2rcd13ifvqepg","pricing_plan_id":"cebpf4jnsgd1na2vs0mg"},{"bike_id":"0338eed8-a554-4a98-b85a-55b6a069e13a","system_id":"levelo_inurba_marseille","lat":43.28417,"lon":5.35011,"is_reserved":false,"is_disabled":false,"rental_uris":{"android":"levelo://app?vid=0338eed8-a554-4a98-b85a-55b6a069e13a","ios":"levelo://app?vid=0338eed8-a554-4a98-b85a-55b6a069e13a"},"vehicle_type_id":"4","last_reported":1720879589,"current_range_meters":24800,"station_id":"ce4bhbh2rcd13ifvqepg","pricing_plan_id":"cebpf4jnsgd1na2vs0mg"},{"bike_id":"e6f2e209-9092-4e9e-bc30-14f6ae35a532","system_id":"levelo_inurba_marseille","lat":43.284217,"lon":5.349697,"is_reserved":false,"is_disabled":false,"rental_uris":{"android":"levelo://app?vid=e6f2e209-9092-4e9e-bc30-14f6ae35a532","ios":"levelo://app?vid=e6f2e209-9092-4e9e-bc30-14f6ae35a532"},"vehicle_type_id":"4","last_reported":1720879589,"current_range_meters":10000,"station_id":"ce4bhbh2rcd13ifvqepg","pricing_plan_id":"cebpf4jnsgd1na2vs0mg"},{"bike_id":"d077a34d-7a17-4265-a01d-01b34b6da87e","system_id":"levelo_inurba_marseille","lat":43.28425,"lon":5.34983,"is_reserved":false,"is_disabled":false,"rental_uris":{"android":"levelo://app?vid=d077a34d-7a17-4265-a01d-01b34b6da87e","ios":"levelo://app?vid=d077a34d-7a17-4265-a01d-01b34b6da87e"},"vehicle_type_id":"4","last_reported":1720879589,"current_range_meters":18400,"station_id":"ce4bhbh2rcd13ifvqepg","pricing_plan_id":"cebpf4jnsgd1na2vs0mg"},{"bike_id":"89be357d-57ac-464e-a0d8-a5f1718ca8c5","system_id":"levelo_inurba_marseille","lat":43.284207,"lon":5.349933,"is_reserved":false,"is_disabled":false,"rental_uris":{"android":"levelo://app?vid=89be357d-57ac-464e-a0d8-a5f1718ca8c5","ios":"levelo://app?vid=89be357d-57ac-464e-a0d8-a5f1718ca8c5"},"vehicle_type_id":"4","last_reported":1720879589,"current_range_meters":12000,"station_id":"ce4bhbh2rcd13ifvqepg","pricing_plan_id":"cebpf4jnsgd1na2vs0mg"},{"bike_id":"dc23d3ec-cf71-4b51-9f93-7f90152a7a9f","system_id":"levelo_inurba_marseille","lat":43.28421,"lon":5.34992,"is_reserved":false,"is_disabled":false,"rental_uris":{"android":"levelo://app?vid=dc23d3ec-cf71-4b51-9f93-7f90152a7a9f","ios":"levelo://app?vid=dc23d3ec-cf71-4b51-9f93-7f90152a7a9f"},"vehicle_type_id":"4","last_reported":1720879589,"current_range_meters":22800,"station_id":"ce4bhbh2rcd13ifvqepg","pricing_plan_id":"cebpf4jnsgd1na2vs0mg"},{"bike_id":"b8d77710-8094-4484-9f2c-cd61b15a5691","system_id":"levelo_inurba_marseille","lat":43.284219,"lon":5.3497,"is_reserved":false,"is_disabled":false,"rental_uris":{"android":"levelo://app?vid=b8d77710-8094-4484-9f2c-cd61b15a5691","ios":"levelo://app?vid=b8d77710-8094-4484-9f2c-cd61b15a5691"},"vehicle_type_id":"4","last_reported":1720879589,"current_range_meters":32000,"station_id":"ce4bhbh2rcd13ifvqepg","pricing_plan_id":"cebpf4jnsgd1na2vs0mg"},{"bike_id":"5858460e-44ea-4973-a7ff-63e846d663a3","system_id":"levelo_inurba_marseille","lat":43.28424,"lon":5.34981,"is_reserved":false,"is_disabled":false,"rental_uris":{"android":"levelo://app?vid=5858460e-44ea-4973-a7ff-63e846d663a3","ios":"levelo://app?vid=5858460e-44ea-4973-a7ff-63e846d663a3"},"vehicle_type_id":"4","last_reported":1720879589,"current_range_meters":9600,"station_id":"ce4bhbh2rcd13ifvqepg","pricing_plan_id":"cebpf4jnsgd1na2vs0mg"},{"bike_id":"e1b5cca9-efb0-4793-afb6-44ce706503b0","system_id":"levelo_inurba_marseille","lat":43.28421,"lon":5.3499,"is_reserved":false,"is_disabled":false,"rental_uris":{"android":"levelo://app?vid=e1b5cca9-efb0-4793-afb6-44ce706503b0","ios":"levelo://app?vid=e1b5cca9-efb0-4793-afb6-44ce706503b0"},"vehicle_type_id":"4","last_reported":1720879589,"current_range_meters":23200,"station_id":"ce4bhbh2rcd13ifvqepg","pricing_plan_id":"cebpf4jnsgd1na2vs0mg"},{"bike_id":"d87a41c7-b004-44c7-85de-a3af14e86554","system_id":"levelo_inurba_marseille","lat":43.284219,"lon":5.3497,"is_reserved":false,"is_disabled":false,"rental_uris":{"android":"levelo://app?vid=d87a41c7-b004-44c7-85de-a3af14e86554","ios":"levelo://app?vid=d87a41c7-b004-44c7-85de-a3af14e86554"},"vehicle_type_id":"4","last_reported":1720879589,"current_range_meters":20800,"station_id":"ce4bhbh2rcd13ifvqepg","pricing_plan_id":"cebpf4jnsgd1na2vs0mg"},{"bike_id":"61cf8450-7a3a-4a09-803a-b320a271c126","system_id":"levelo_inurba_marseille","lat":43.284214,"lon":5.349706,"is_reserved":false,"is_disabled":false,"rental_uris":{"android":"levelo://app?vid=61cf8450-7a3a-4a09-803a-b320a271c126","ios":"levelo://app?vid=61cf8450-7a3a-4a09-803a-b320a271c126"},"vehicle_type_id":"4","last_reported":1720879589,"current_range_meters":12400,"station_id":"ce4bhbh2rcd13ifvqepg","pricing_plan_id":"cebpf4jnsgd1na2vs0mg"},{"bike_id":"1e86cc41-0f15-4bc4-8ead-3d8da195cb54","system_id":"levelo_inurba_marseille","lat":43.284214,"lon":5.349862,"is_reserved":false,"is_disabled":false,"rental_uris":{"android":"levelo://app?vid=1e86cc41-0f15-4bc4-8ead-3d8da195cb54","ios":"levelo://app?vid=1e86cc41-0f15-4bc4-8ead-3d8da195cb54"},"vehicle_type_id":"4","last_reported":1720879589,"current_range_meters":4800,"station_id":"ce4bhbh2rcd13ifvqepg","pricing_plan_id":"cebpf4jnsgd1na2vs0mg"},{"bike_id":"37616d79-7850-461e-b75c-bf7c1e6c2a25","system_id":"levelo_inurba_marseille","lat":43.28417,"lon":5.35,"is_reserved":false,"is_disabled":false,"rental_uris":{"android":"levelo://app?vid=37616d79-7850-461e-b75c-bf7c1e6c2a25","ios":"levelo://app?vid=37616d79-7850-461e-b75c-bf7c1e6c2a25"},"vehicle_type_id":"4","last_reported":1720879589,"current_range_meters":11600,"station_id":"ce4bhbh2rcd13ifvqepg","pricing_plan_id":"cebpf4jnsgd1na2vs0mg"},{"bike_id":"3ade7925-4bed-4a64-8690-d93c83373d3f","system_id":"levelo_inurba_marseille","lat":43.284217,"lon":5.349697,"is_reserved":false,"is_disabled":false,"rental_uris":{"android":"levelo://app?vid=3ade7925-4bed-4a64-8690-d93c83373d3f","ios":"levelo://app?vid=3ade7925-4bed-4a64-8690-d93c83373d3f"},"vehicle_type_id":"4","last_reported":1720879589,"current_range_meters":23600,"station_id":"ce4bhbh2rcd13ifvqepg","pricing_plan_id":"cebpf4jnsgd1na2vs0mg"},{"bike_id":"7557785b-53a2-4526-a0cf-e3f35505e0b7","system_id":"levelo_inurba_marseille","lat":43.284217,"lon":5.349697,"is_reserved":false,"is_disabled":false,"rental_uris":{"android":"levelo://app?vid=7557785b-53a2-4526-a0cf-e3f35505e0b7","ios":"levelo://app?vid=7557785b-53a2-4526-a0cf-e3f35505e0b7"},"vehicle_type_id":"4","last_reported":1720879589,"current_range_meters":21200,"station_id":"ce4bhbh2rcd13ifvqepg","pricing_plan_id":"cebpf4jnsgd1na2vs0mg"},{"bike_id":"cbc0f8d2-93f3-4c5e-a372-e8e88ca4d2d7","system_id":"levelo_inurba_marseille","lat":43.284217,"lon":5.349697,"is_reserved":false,"is_disabled":false,"rental_uris":{"android":"levelo://app?vid=cbc0f8d2-93f3-4c5e-a372-e8e88ca4d2d7","ios":"levelo://app?vid=cbc0f8d2-93f3-4c5e-a372-e8e88ca4d2d7"},"vehicle_type_id":"4","last_reported":1720879589,"current_range_meters":31600,"station_id":"ce4bhbh2rcd13ifvqepg","pricing_plan_id":"cebpf4jnsgd1na2vs0mg"},{"bike_id":"e0bced06-a67e-434b-a11a-8fd336f582f4","system_id":"levelo_inurba_marseille","lat":43.284219,"lon":5.3497,"is_reserved":false,"is_disabled":false,"rental_uris":{"android":"levelo://app?vid=e0bced06-a67e-434b-a11a-8fd336f582f4","ios":"levelo://app?vid=e0bced06-a67e-434b-a11a-8fd336f582f4"},"vehicle_type_id":"4","last_reported":1720879589,"current_range_meters":26000,"station_id":"ce4bhbh2rcd13ifvqepg","pricing_plan_id":"cebpf4jnsgd1na2vs0mg"},{"bike_id":"d5098bc1-ffec-4f9f-b597-98519619d24e","system_id":"levelo_inurba_marseille","lat":43.284219,"lon":5.3497,"is_reserved":false,"is_disabled":false,"rental_uris":{"android":"levelo://app?vid=d5098bc1-ffec-4f9f-b597-98519619d24e","ios":"levelo://app?vid=d5098bc1-ffec-4f9f-b597-98519619d24e"},"vehicle_type_id":"4","last_reported":1720879589,"current_range_meters":24000,"station_id":"ce4bhbh2rcd13ifvqepg","pricing_plan_id":"cebpf4jnsgd1na2vs0mg"},{"bike_id":"9ffbfa46-41dc-46f9-8470-e262d0d62dad","system_id":"levelo_inurba_marseille","lat":43.284219,"lon":5.3497,"is_reserved":false,"is_disabled":false,"rental_uris":{"android":"levelo://app?vid=9ffbfa46-41dc-46f9-8470-e262d0d62dad","ios":"levelo://app?vid=9ffbfa46-41dc-46f9-8470-e262d0d62dad"},"vehicle_type_id":"4","last_reported":1720879589,"current_range_meters":18800,"station_id":"ce4bhbh2rcd13ifvqepg","pricing_plan_id":"cebpf4jnsgd1na2vs0mg"},{"bike_id":"a8e71312-9547-4f78-9bd6-c193bc13b864","system_id":"levelo_inurba_marseille","lat":43.284147,"lon":5.350027,"is_reserved":false,"is_disabled":false,"rental_uris":{"android":"levelo://app?vid=a8e71312-9547-4f78-9bd6-c193bc13b864","ios":"levelo://app?vid=a8e71312-9547-4f78-9bd6-c193bc13b864"},"vehicle_type_id":"4","last_reported":1720879589,"current_range_meters":22800,"station_id":"ce4bhbh2rcd13ifvqepg","pricing_plan_id":"cebpf4jnsgd1na2vs0mg"},{"bike_id":"6d9ca3c1-758e-473b-9c20-bb44b618d8f3","system_id":"levelo_inurba_marseille","lat":43.28423,"lon":5.34974,"is_reserved":false,"is_disabled":false,"rental_uris":{"android":"levelo://app?vid=6d9ca3c1-758e-473b-9c20-bb44b618d8f3","ios":"levelo://app?vid=6d9ca3c1-758e-473b-9c20-bb44b618d8f3"},"vehicle_type_id":"4","last_reported":1720879589,"current_range_meters":23200,"station_id":"ce4bhbh2rcd13ifvqepg","pricing_plan_id":"cebpf4jnsgd1na2vs0mg"},{"bike_id":"a5af51cd-eb66-4bd4-930e-0414e5599e16","system_id":"levelo_inurba_marseille","lat":43.284219,"lon":5.3497,"is_reserved":false,"is_disabled":false,"rental_uris":{"android":"levelo://app?vid=a5af51cd-eb66-4bd4-930e-0414e5599e16","ios":"levelo://app?vid=a5af51cd-eb66-4bd4-930e-0414e5599e16"},"vehicle_type_id":"4","last_reported":1720879589,"current_range_meters":28000,"station_id":"ce4bhbh2rcd13ifvqepg","pricing_plan_id":"cebpf4jnsgd1na2vs0mg"},{"bike_id":"7c605fdc-b8ca-40f4-b00e-1c5b5c3e1462","system_id":"levelo_inurba_marseille","lat":43.284214,"lon":5.349706,"is_reserved":false,"is_disabled":false,"rental_uris":{"android":"levelo://app?vid=7c605fdc-b8ca-40f4-b00e-1c5b5c3e1462","ios":"levelo://app?vid=7c605fdc-b8ca-40f4-b00e-1c5b5c3e1462"},"vehicle_type_id":"4","last_reported":1720879589,"current_range_meters":2000,"station_id":"ce4bhbh2rcd13ifvqepg","pricing_plan_id":"cebpf4jnsgd1na2vs0mg"},{"bike_id":"c6017dd6-ff18-44b5-8ff8-6b79e27c9a59","system_id":"levelo_inurba_marseille","lat":43.284219,"lon":5.3497,"is_reserved":false,"is_disabled":false,"rental_uris":{"android":"levelo://app?vid=c6017dd6-ff18-44b5-8ff8-6b79e27c9a59","ios":"levelo://app?vid=c6017dd6-ff18-44b5-8ff8-6b79e27c9a59"},"vehicle_type_id":"4","last_reported":1720879589,"current_range_meters":10800,"station_id":"ce4bhbh2rcd13ifvqepg","pricing_plan_id":"cebpf4jnsgd1na2vs0mg"},{"bike_id":"e985a5b1-f738-4443-80b2-4a4d0208cf57","system_id":"levelo_inurba_marseille","lat":43.284214,"lon":5.349706,"is_reserved":false,"is_disabled":false,"rental_uris":{"android":"levelo://app?vid=e985a5b1-f738-4443-80b2-4a4d0208cf57","ios":"levelo://app?vid=e985a5b1-f738-4443-80b2-4a4d0208cf57"},"vehicle_type_id":"4","last_reported":1720879589,"current_range_meters":14800,"station_id":"ce4bhbh2rcd13ifvqepg","pricing_plan_id":"cebpf4jnsgd1na2vs0mg"},{"bike_id":"02c87a90-898f-4d5c-a988-48ef2aa6b608","system_id":"levelo_inurba_marseille","lat":43.284183,"lon":5.34984,"is_reserved":false,"is_disabled":false,"rental_uris":{"android":"levelo://app?vid=02c87a90-898f-4d5c-a988-48ef2aa6b608","ios":"levelo://app?vid=02c87a90-898f-4d5c-a988-48ef2aa6b608"},"vehicle_type_id":"4","last_reported":1720879589,"current_range_meters":26800,"station_id":"ce4bhbh2rcd13ifvqepg","pricing_plan_id":"cebpf4jnsgd1na2vs0mg"},