{"last_updated":1728079726,"ttl":60,"version":"2.2","data":{"bikes":[{"bike_id":"3d2cf6c8-3ab3-44b3-9164-09d4f84bd23f","system_id":"levelo_inurba_marseille","lat":43.3042,"lon":5.41281,"is_reserved":false,"is_disabled":false,"rental_uris":{"android":"levelo://app?vid=3d2cf6c8-3ab3-44b3-9164-09d4f84bd23f","ios":"levelo://app?vid=3d2cf6c8-3ab3-44b3-9164-09d4f84bd23f"},"vehicle_type_id":"4","last_reported":1728079726,"current_range_meters":22800,"station_id":"ce4bhop2rcd13ifvqh8g","pricing_plan_id":"cebpf4jnsgd1na2vs0mg"},{"bike_id":"e4b84675-a2ef-4a08-972b-c8ccf50cd9f9","system_id":"levelo_inurba_marseille","lat":43.2318,"lon":5.39992,"is_reserved":false,"is_disabled":false,"rental_uris":{"android":"levelo://app?vid=e4b84675-a2ef-4a08-972b-c8ccf50cd9f9","ios":"levelo://app?vid=e4b84675-a2ef-4a08-972b-c8ccf50cd9f9"},"vehicle_type_id":"4","last_reported":1728079726,"current_range_meters":25200,"station_id":"ce4bhn12rcd13ifvqgqg","pricing_plan_id":"cebpf4jnsgd1na2vs0mg"},{"bike_id":"16abea4d-2df9-4334-a003-972c736b9d3a","system_id":"levelo_inurba_marseille","lat":43.29764,"lon":5.37107,"is_reserved":false,"is_disabled":false,"rental_uris":{"android":"levelo://app?vid=16abea4d-2df9-4334-a003-972c736b9d3a","ios":"levelo://app?vid=16abea4d-2df9-4334-a003-972c736b9d3a"},"vehicle_type_id":"4","last_reported":1728079726,"current_range_meters":30400,"station_id":"ce4bgop2rcd13ifvqc1g","pricing_plan_id":"cebpf4jnsgd1na2vs0mg"},{"bike_id":"7244a60b-bd29-46a8-b6b6-1ba592f74ded","system_id":"levelo_inurba_marseille","lat":43.25117,"lon":5.40322,"is_reserved":false,"is_disabled":false,"rental_uris":{"android":"levelo://app?vid=7244a60b-bd29-46a8-b6b6-1ba592f74ded","ios":"levelo://app?vid=7244a60b-bd29-46a8-b6b6-1ba592f74ded"},"vehicle_type_id":"4","last_reported":1728079726,"current_range_meters":24000,"station_id":"ce4bhlh2rcd13ifvqgig","pricing_plan_id":"cebpf4jnsgd1na2vs0mg"},{"bike_id":"f7082bcf-80d3-4add-b7d2-c738b791918d","system_id":"levelo_inurba_marseille","lat":43.28853,"lon":5.39337,"is_reserved":false,"is_disabled":false,"rental_uris":{"android":"levelo://app?vid=f7082bcf-80d3-4add-b7d2-c738b791918d","ios":"levelo://app?vid=f7082bcf-80d3-4add-b7d2-c738b791918d"},"vehicle_type_id":"4","last_reported":1728079726,"current_range_meters":30800,"station_id":"ce4bh2p2rcd13ifvqdi0","pricing_plan_id":"cebpf4jnsgd1na2vs0mg"},{"bike_id":"fc4cd310-d92c-4df7-a20f-bde8894c63db","system_id":"levelo_inurba_marseille","lat":43.2512,"lon":5.40292,"is_reserved":false,"is_disabled":false,"rental_uris":{"android":"levelo://app?vid=fc4cd310-d92c-4df7-a20f-bde8894c63db","ios":"levelo://app?vid=fc4cd310-d92c-4df7-a20f-bde8894c63db"},"vehicle_type_id":"4","last_reported":1728079726,"current_range_meters":6000,"station_id":"ce4bhlh2rcd13ifvqgig","pricing_plan_id":"cebpf4jnsgd1na2vs0mg"},{"bike_id":"40fa03b7-66ea-4ec1-9bdc-41ec2b95b381","system_id":"levelo_inurba_marseille","lat":43.31066,"lon":5.42408,"is_reserved":false,"is_disabled":false,"rental_uris":{"android":"levelo://app?vid=40fa03b7-66ea-4ec1-9bdc-41ec2b95b381","ios":"levelo://app?vid=40fa03b7-66ea-4ec1-9bdc-41ec2b95b381"},"vehicle_type_id":"4","last_reported":1728079726,"current_range_meters":11600,"station_id":"ce4bhp92rcd13ifvqhag","pricing_plan_id":"cebpf4jnsgd1na2vs0mg"},{"bike_id":"0ab31a2b-100e-46ba-8518-e3de7fc7122e","system_id":"levelo_inurba_marseille","lat":43.33763,"lon":5.37456,"is_reserved":false,"is_disabled":false,"rental_uris":{"android":"levelo://app?vid=0ab31a2b-100e-46ba-8518-e3de7fc7122e","ios":"levelo://app?vid=0ab31a2b-100e-46ba-8518-e3de7fc7122e"},"vehicle_type_id":"4","last_reported":1728079726,"current_range_meters":35600,"station_id":"","pricing_plan_id":"cebpf4jnsgd1na2vs0mg"},{"bike_id":"4e5d55ab-5625-4878-b6f4-3a40ac8fe1fe","system_id":"levelo_inurba_marseille","lat":43.30316,"lon":5.40445,"is_reserved":false,"is_disabled":false,"rental_uris":{"android":"levelo://app?vid=4e5d55ab-5625-4878-b6f4-3a40ac8fe1fe","ios":"levelo://app?vid=4e5d55ab-5625-4878-b6f4-3a40ac8fe1fe"},"vehicle_type_id":"4","last_reported":1728079726,"current_range_meters":20800,"station_id":"ce4bh012rcd13ifvqd10","pricing_plan_id":"cebpf4jnsgd1na2vs0mg"},{"bike_id":"756088e4-bd38-4606-aa6f-cbbf1461af00","system_id":"levelo_inurba_marseille","lat":43.22936,"lon":5.35378,"is_reserved":false,"is_disabled":false,"rental_uris":{"android":"levelo://app?vid=756088e4-bd38-4606-aa6f-cbbf1461af00","ios":"levelo://app?vid=756088e4-bd38-4606-aa6f-cbbf1461af00"},"vehicle_type_id":"4","last_reported":1728079726,"current_range_meters":10000,"station_id":"cpo3532slgdg3j2ikp40","pricing_plan_id":"cebpf4jnsgd1na2vs0mg"},{"bike_id":"6389b576-d923-4269-964f-3722f353b0aa","system_id":"levelo_inurba_marseille","lat":43.25115,"lon":5.40321,"is_reserved":false,"is_disabled":false,"rental_uris":{"android":"levelo://app?vid=6389b576-d923-4269-964f-3722f353b0aa","ios":"levelo://app?vid=6389b576-d923-4269-964f-3722f353b0aa"},"vehicle_type_id":"4","last_reported":1728079726,"current_range_meters":17200,"station_id":"ce4bhlh2rcd13ifvqgig","pricing_plan_id":"cebpf4jnsgd1na2vs0mg"},{"bike_id":"add08215-8b60-44c3-9055-1a35cbdfb852","system_id":"levelo_inurba_marseille","lat":43.29782,"lon":5.38108,"is_reserved":false,"is_disabled":false,"rental_uris":{"android":"levelo://app?vid=add08215-8b60-44c3-9055-1a35cbdfb852","ios":"levelo://app?vid=add08215-8b60-44c3-9055-1a35cbdfb852"},"vehicle_type_id":"4","last_reported":1728079726,"current_range_meters":36400,"station_id":"ce4bgip2rcd13ifvqbb0","pricing_plan_id":"cebpf4jnsgd1na2vs0mg"},{"bike_id":"b533c485-8de5-4435-9b8a-7bede3d5f21f","system_id":"levelo_inurba_marseille","lat":43.31118,"lon":5.37764,"is_reserved":false,"is_disabled":false,"rental_uris":{"android":"levelo://app?vid=b533c485-8de5-4435-9b8a-7bede3d5f21f","ios":"levelo://app?vid=b533c485-8de5-4435-9b8a-7bede3d5f21f"},"vehicle_type_id":"4","last_reported":1728079726,"current_range_meters":38800,"station_id":"ce4bgt92rcd13ifvqcg0","pricing_plan_id":"cebpf4jnsgd1na2vs0mg"},{"bike_id":"4baa9b83-4430-4f18-814e-ddb2add7d50a","system_id":"levelo_inurba_marseille","lat":43.309318,"lon":5.401503,"is_reserved":false,"is_disabled":false,"rental_uris":{"android":"levelo://app?vid=4baa9b83-4430-4f18-814e-ddb2add7d50a","ios":"levelo://app?vid=4baa9b83-4430-4f18-814e-ddb2add7d50a"},"vehicle_type_id":"4","last_reported":1728079726,"current_range_meters":28400,"station_id":"ce4bgvp2rcd13ifvqct0","pricing_plan_id":"cebpf4jnsgd1na2vs0mg"},{"bike_id":"903fe59b-807c-4105-be9c-444c54009a86","system_id":"levelo_inurba_marseille","lat":43.31495,"lon":5.37289,"is_reserved":false,"is_disabled":false,"rental_uris":{"android":"levelo://app?vid=903fe59b-807c-4105-be9c-444c54009a86","ios":"levelo://app?vid=903fe59b-807c-4105-be9c-444c54009a86"},"vehicle_type_id":"4","last_reported":1728079726,"current_range_meters":38800,"station_id":"ce4bgt12rcd13ifvqcd0","pricing_plan_id":"cebpf4jnsgd1na2vs0mg"},{"bike_id":"37042c1b-99f0-4379-a7d0-0b6867cdb669","system_id":"levelo_inurba_marseille","lat":43.23179,"lon":5.39983,"is_reserved":false,"is_disabled":false,"rental_uris":{"android":"levelo://app?vid=37042c1b-99f0-4379-a7d0-0b6867cdb669","ios":"levelo://app?vid=37042c1b-99f0-4379-a7d0-0b6867cdb669"},"vehicle_type_id":"4","last_reported":1728079726,"current_range_meters":19600,"station_id":"ce4bhn12rcd13ifvqgqg","pricing_plan_id":"cebpf4jnsgd1na2vs0mg"},{"bike_id":"949f4c7b-f4a8-4118-8901-e4fe18c36241","system_id":"levelo_inurba_marseille","lat":43.32662,"lon":5.40991,"is_reserved":false,"is_disabled":false,"rental_uris":{"android":"levelo://app?vid=949f4c7b-f4a8-4118-8901-e4fe18c36241","ios":"levelo://app?vid=949f4c7b-f4a8-4118-8901-e4fe18c36241"},"vehicle_type_id":"4","last_reported":1728079726,"current_range_meters":16800,"station_id":"ce4bhpp2rcd13ifvqhgg","pricing_plan_id":"cebpf4jnsgd1na2vs0mg"},{"bike_id":"57ca37b5-3df4-46a1-89d9-502a214a9079","system_id":"levelo_inurba_marseille","lat":43.31275,"lon":5.40178,"is_reserved":false,"is_disabled":false,"rental_uris":{"android":"levelo://app?vid=57ca37b5-3df4-46a1-89d9-502a214a9079","ios":"levelo://app?vid=57ca37b5-3df4-46a1-89d9-502a214a9079"},"vehicle_type_id":"4","last_reported":1728079726,"current_range_meters":11200,"station_id":"ce4bh092rcd13ifvqd30","pricing_plan_id":"cebpf4jnsgd1na2vs0mg"},{"bike_id":"bf2806b7-8876-43a0-8574-e188ec258e50","system_id":"levelo_inurba_marseille","lat":43.279828,"lon":5.387498,"is_reserved":false,"is_disabled":false,"rental_uris":{"android":"levelo://app?vid=bf2806b7-8876-43a0-8574-e188ec258e50","ios":"levelo://app?vid=bf2806b7-8876-43a0-8574-e188ec258e50"},"vehicle_type_id":"4","last_reported":1728079726,"current_range_meters":6000,"station_id":"ce4bhg12rcd13ifvqf80","pricing_plan_id":"cebpf4jnsgd1na2vs0mg"},{"bike_id":"546c05c2-8786-4025-bbad-0f87d45f6e5f","system_id":"levelo_inurba_marseille","lat":43.28943,"lon":5.36637,"is_reserved":false,"is_disabled":false,"rental_uris":{"android":"levelo://app?vid=546c05c2-8786-4025-bbad-0f87d45f6e5f","ios":"levelo://app?vid=546c05c2-8786-4025-bbad-0f87d45f6e5f"},"vehicle_type_id":"4","last_reported":1728079726,"current_range_meters":38400,"station_id":"ce4bhap2rcd13ifvqek0","pricing_plan_id":"cebpf4jnsgd1na2vs0mg"},{"bike_id":"eedd5d37-5a70-467c-8705-83b621ea6de1","system_id":"levelo_inurba_marseille","lat":43.29422,"lon":5.38624,"is_reserved":false,"is_disabled":false,"rental_uris":{"android":"levelo://app?vid=eedd5d37-5a70-467c-8705-83b621ea6de1","ios":"levelo://app?vid=eedd5d37-5a70-467c-8705-83b621ea6de1"},"vehicle_type_id":"4","last_reported":1728079726,"current_range_meters":25200,"station_id":"ce4bh2h2rcd13ifvqdh0","pricing_plan_id":"cebpf4jnsgd1na2vs0mg"},{"bike_id":"c68cc33a-4a9b-4083-b265-cd063174559a","system_id":"levelo_inurba_marseille","lat":43.28462,"lon":5.35883,"is_reserved":false,"is_disabled":false,"rental_uris":{"android":"levelo://app?vid=c68cc33a-4a9b-4083-b265-cd063174559a","ios":"levelo://app?vid=c68cc33a-4a9b-4083-b265-cd063174559a"},"vehicle_type_id":"4","last_reported":1728079726,"current_range_meters":24000,"station_id":"ce4bhah2rcd13ifvqei0","pricing_plan_id":"cebpf4jnsgd1na2vs0mg"},{"bike_id":"5a484b9f-0ab5-40c4-af5c-dba35c9c07cb","system_id":"levelo_inurba_marseille","lat":43.29906,"lon":5.40509,"is_reserved":false,"is_disabled":false,"rental_uris":{"android":"levelo://app?vid=5a484b9f-0ab5-40c4-af5c-dba35c9c07cb","ios":"levelo://app?vid=5a484b9f-0ab5-40c4-af5c-dba35c9c07cb"},"vehicle_type_id":"4","last_reported":1728079726,"current_range_meters":11600,"station_id":"ce4bh112rcd13ifvqd90","pricing_plan_id":"cebpf4jnsgd1na2vs0mg"},{"bike_id":"b7354af7-ca07-467a-820e-bd58eabae8aa","system_id":"levelo_inurba_marseille","lat":43.29964,"lon":5.38495,"is_reserved":false,"is_disabled":false,"rental_uris":{"android":"levelo://app?vid=b7354af7-ca07-467a-820e-bd58eabae8aa","ios":"levelo://app?vid=b7354af7-ca07-467a-820e-bd58eabae8aa"},"vehicle_type_id":"4","last_reported":1728079726,"current_range_meters":13600,"station_id":"ce4bgj92rcd13ifvqbd0","pricing_plan_id":"cebpf4jnsgd1na2vs0mg"},{"bike_id":"69b2ab72-6eb7-403d-85c7-be72aa2ab82b","system_id":"levelo_inurba_marseille","lat":43.30095,"lon":5.40043,"is_reserved":false,"is_disabled":false,"rental_uris":{"android":"levelo://app?vid=69b2ab72-6eb7-403d-85c7-be72aa2ab82b","ios":"levelo://app?vid=69b2ab72-6eb7-403d-85c7-be72aa2ab82b"},"vehicle_type_id":"4","last_reported":1728079726,"current_range_meters":20800,"station_id":"","pricing_plan_id":"cebpf4jnsgd1na2vs0mg"},{"bike_id":"5257bc58-7f86-4691-bfd8-4409f576b50a","system_id":"levelo_inurba_marseille","lat":43.295746,"lon":5.375692,"is_reserved":false,"is_disabled":false,"rental_uris":{"android":"levelo://app?vid=5257bc58-7f86-4691-bfd8-4409f576b50a","ios":"levelo://app?vid=5257bc58-7f86-4691-bfd8-4409f576b50a"},"vehicle_type_id":"4","last_reported":1728079726,"current_range_meters":35600,"station_id":"","pricing_plan_id":"cebpf4jnsgd1na2vs0mg"},{"bike_id":"cffb92b8-2b6c-4646-8965-977d39509d2f","system_id":"levelo_inurba_marseille","lat":43.26168,"lon":5.37472,"is_reserved":false,"is_disabled":false,"rental_uris":{"android":"levelo://app?vid=cffb92b8-2b6c-4646-8965-977d39509d2f","ios":"levelo://app?vid=cffb92b8-2b6c-4646-8965-977d39509d2f"},"vehicle_type_id":"4","last_reported":1728079726,"current_range_meters":38000,"station_id":"ce4bhjp2rcd13ifvqg90","pricing_plan_id":"cebpf4jnsgd1na2vs0mg"},{"bike_id":"2ee470a2-f6fc-41c4-9ed0-be15e787887a","system_id":"levelo_inurba_marseille","lat":43.2397,"lon":5.36641,"is_reserved":false,"is_disabled":false,"rental_uris":{"android":"levelo://app?vid=2ee470a2-f6fc-41c4-9ed0-be15e787887a","ios":"levelo://app?vid=2ee470a2-f6fc-41c4-9ed0-be15e787887a"},"vehicle_type_id":"4","last_reported":1728079726,"current_range_meters":30400,"station_id":"ce4bhi12rcd13ifvqfp0","pricing_plan_id":"cebpf4jnsgd1na2vs0mg"},{"bike_id":"d2d8fb63-03b7-4912-8faa-a780e30e5e37","system_id":"levelo_inurba_marseille","lat":43.31276,"lon":5.40172,"is_reserved":false,"is_disabled":false,"rental_uris":{"android":"levelo://app?vid=d2d8fb63-03b7-4912-8faa-a780e30e5e37","ios":"levelo://app?vid=d2d8fb63-03b7-4912-8faa-a780e30e5e37"},"vehicle_type_id":"4","last_reported":1728079726,"current_range_meters":39200,"station_id":"ce4bh092rcd13ifvqd30","pricing_plan_id":"cebpf4jnsgd1na2vs0mg"},{"bike_id":"4782596d-3e6e-4437-8d44-1e1923d90165","system_id":"levelo_inurba_marseille","lat":43.31117,"lon":5.37767,"is_reserved":false,"is_disabled":false,"rental_uris":{"android":"levelo://app?vid=4782596d-3e6e-4437-8d44-1e1923d90165","ios":"levelo://app?vid=4782596d-3e6e-4437-8d44-1e1923d90165"},"vehicle_type_id":"4","last_reported":1728079726,"current_range_meters":38000,"station_id":"ce4bgt92rcd13ifvqcg0","pricing_plan_id":"cebpf4jnsgd1na2vs0mg"},{"bike_id":"e6b2df58-b4a0-4aec-933d-a62e42f34d34","system_id":"levelo_inurba_marseille","lat":43.33723,"lon":5.39199,"is_reserved":false,"is_disabled":false,"rental_uris":{"android":"levelo://app?vid=e6b2df58-b4a0-4aec-933d-a62e42f34d34","ios":"levelo://app?vid=e6b2df58-b4a0-4aec-933d-a62e42f34d34"},"vehicle_type_id":"4","last_reported":1728079726,"current_range_meters":17600,"station_id":"ce4bhr92rcd13ifvqhsg","pricing_plan_id":"cebpf4jnsgd1na2vs0mg"},{"bike_id":"445b3126-2656-47b3-82b8-be21a8d0e2fa","system_id":"levelo_inurba_marseille","lat":43.2979,"lon":5.40398,"is_reserved":false,"is_disabled":false,"rental_uris":{"android":"levelo://app?vid=445b3126-2656-47b3-82b8-be21a8d0e2fa","ios":"levelo://app?vid=445b3126-2656-47b3-82b8-be21a8d0e2fa"},"vehicle_type_id":"4","last_reported":1728079726,"current_range_meters":40000,"station_id":"ce4bh112rcd13ifvqd90","pricing_plan_id":"cebpf4jnsgd1na2vs0mg"},{"bike_id":"09d39197-7e1a-46cd-b544-55475c0ede20","system_id":"levelo_inurba_marseille","lat":43.31369,"lon":5.38502,"is_reserved":false,"is_disabled":false,"rental_uris":{"android":"levelo://app?vid=09d39197-7e1a-46cd-b544-55475c0ede20","ios":"levelo://app?vid=09d39197-7e1a-46cd-b544-55475c0ede20"},"vehicle_type_id":"4","last_reported":1728079726,"current_range_meters":25200,"station_id":"ce4bgt92rcd13ifvqcf0","pricing_plan_id":"cebpf4jnsgd1na2vs0mg"},{"bike_id":"d77938b7-ff1e-465c-a8b9-4b07085a5cc9","system_id":"levelo_inurba_marseille","lat":43.2307,"lon":5.35496,"is_reserved":false,"is_disabled":false,"rental_uris":{"android":"levelo://app?vid=d77938b7-ff1e-465c-a8b9-4b07085a5cc9","ios":"levelo://app?vid=d77938b7-ff1e-465c-a8b9-4b07085a5cc9"},"vehicle_type_id":"4","last_reported":1728079726,"current_range_meters":17200,"station_id":"cpo3342slgdg3j2ifvpg","pricing_plan_id":"cebpf4jnsgd1na2vs0mg"},{"bike_id":"852457a1-813f-46b8-bb13-232384e208e9","system_id":"levelo_inurba_marseille","lat":43.33764,"lon":5.37427,"is_reserved":false,"is_disabled":false,"rental_uris":{"android":"levelo://app?vid=852457a1-813f-46b8-bb13-232384e208e9","ios":"levelo://app?vid=852457a1-813f-46b8-bb13-232384e208e9"},"vehicle_type_id":"4","last_reported":1728079726,"current_range_meters":36800,"station_id":"","pricing_plan_id":"cebpf4jnsgd1na2vs0mg"},{"bike_id":"4d0e5609-ab50-4133-b954-c423f408aa09","system_id":"levelo_inurba_marseille","lat":43.29708,"lon":5.3662,"is_reserved":false,"is_disabled":false,"rental_uris":{"android":"levelo://app?vid=4d0e5609-ab50-4133-b954-c423f408aa09","ios":"levelo://app?vid=4d0e5609-ab50-4133-b954-c423f408aa09"},"vehicle_type_id":"4","last_reported":1728079726,"current_range_meters":24400,"station_id":"ce4bgn12rcd13ifvqbt0","pricing_plan_id":"cebpf4jnsgd1na2vs0mg"},{"bike_id":"dd6c7fd6-0a20-4cbb-8c45-22c7258c6fcf","system_id":"levelo_inurba_marseille","lat":43.313547,"lon":5.384846,"is_reserved":false,"is_disabled":false,"rental_uris":{"android":"levelo://app?vid=dd6c7fd6-0a20-4cbb-8c45-22c7258c6fcf","ios":"levelo://app?vid=dd6c7fd6-0a20-4cbb-8c45-22c7258c6fcf"},"vehicle_type_id":"4","last_reported":1728079726,"current_range_meters":26800,"station_id":"ce4bgt92rcd13ifvqcf0","pricing_plan_id":"cebpf4jnsgd1na2vs0mg"},{"bike_id":"566a9cf0-f209-4c9f-9e1e-a43a024de395","system_id":"levelo_inurba_marseille","lat":43.27377,"lon":5.3624,"is_reserved":false,"is_disabled":false,"rental_uris":{"android":"levelo://app?vid=566a9cf0-f209-4c9f-9e1e-a43a024de395","ios":"levelo://app?vid=566a9cf0-f209-4c9f-9e1e-a43a024de395"},"vehicle_type_id":"4","last_reported":1728079726,"current_range_meters":24400,"station_id":"ce4bhbh2rcd13ifvqeo0","pricing_plan_id":"cebpf4jnsgd1na2vs0mg"},{"bike_id":"54d09a39-e79d-434c-8a05-a8f2660c6a94","system_id":"levelo_inurba_marseille","lat":43.29896,"lon":5.43658,"is_reserved":false,"is_disabled":false,"rental_uris":{"android":"levelo://app?vid=54d09a39-e79d-434c-8a05-a8f2660c6a94","ios":"levelo://app?vid=54d09a39-e79d-434c-8a05-a8f2660c6a94"},"vehicle_type_id":"4","last_reported":1728079726,"current_range_meters":14400,"station_id":"ce4bhpp2rcd13ifvqhfg","pricing_plan_id":"cebpf4jnsgd1na2vs0mg"},{"bike_id":"bb743000-6bbc-44b2-92ca-00619f94dd47","system_id":"levelo_inurba_marseille","lat":43.30791,"lon":5.38153,"is_reserved":false,"is_disabled":false,"rental_uris":{"android":"levelo://app?vid=bb743000-6bbc-44b2-92ca-00619f94dd47","ios":"levelo://app?vid=bb743000-6bbc-44b2-92ca-00619f94dd47"},"vehicle_type_id":"4","last_reported":1728079726,"current_range_meters":27600,"station_id":"ce4bgt12rcd13ifvqce0","pricing_plan_id":"cebpf4jnsgd1na2vs0mg"},{"bike_id":"2f6471d4-b16d-44e6-92e3-eb26e2526693","system_id":"levelo_inurba_marseille","lat":43.28416,"lon":5.37516,"is_reserved":false,"is_disabled":false,"rental_uris":{"android":"levelo://app?vid=2f6471d4-b16d-44e6-92e3-eb26e2526693","ios":"levelo://app?vid=2f6471d4-b16d-44e6-92e3-eb26e2526693"},"vehicle_type_id":"4","last_reported":1728079726,"current_range_meters":28400,"station_id":"ce4bh412rcd13ifvqds0","pricing_plan_id":"cebpf4jnsgd1na2vs0mg"},{"bike_id":"1b5570bc-0cd8-4e9b-8227-4974e5a1d5c5","system_id":"levelo_inurba_marseille","lat":43.25723,"lon":5.41111,"is_reserved":false,"is_disabled":false,"rental_uris":{"android":"levelo://app?vid=1b5570bc-0cd8-4e9b-8227-4974e5a1d5c5","ios":"levelo://app?vid=1b5570bc-0cd8-4e9b-8227-4974e5a1d5c5"},"vehicle_type_id":"4","last_reported":1728079726,"current_range_meters":36000,"station_id":"ce4bhkp2rcd13ifvqgd0","pricing_plan_id":"cebpf4jnsgd1na2vs0mg"},{"bike_id":"58da2d85-0a0f-4148-ab1e-457dd3339d52","system_id":"levelo_inurba_marseille","lat":43.2857,"lon":5.39507,"is_reserved":false,"is_disabled":false,"rental_uris":{"android":"levelo://app?vid=58da2d85-0a0f-4148-ab1e-457dd3339d52","ios":"levelo://app?vid=58da2d85-0a0f-4148-ab1e-457dd3339d52"},"vehicle_type_id":"4","last_reported":1728079726,"current_range_meters":22400,"station_id":"ce4bh292rcd13ifvqdg0","pricing_plan_id":"cebpf4jnsgd1na2vs0mg"},{"bike_id":"a2757abc-4224-428a-a673-690954ea5d2d","system_id":"levelo_inurba_marseille","lat":43.25014,"lon":5.3819,"is_reserved":false,"is_disabled":false,"rental_uris":{"android":"levelo://app?vid=a2757abc-4224-428a-a673-690954ea5d2d","ios":"levelo://app?vid=a2757abc-4224-428a-a673-690954ea5d2d"},"vehicle_type_id":"4","last_reported":1728079726,"current_range_meters":24400,"station_id":"","pricing_plan_id":"cebpf4jnsgd1na2vs0mg"},{"bike_id":"ed87872f-0d96-4b49-a78b-ad0d6e9917d3","system_id":"levelo_inurba_marseille","lat":43.3093,"lon":5.40149,"is_reserved":false,"is_disabled":false,"rental_uris":{"android":"levelo://app?vid=ed87872f-0d96-4b49-a78b-ad0d6e9917d3","ios":"levelo://app?vid=ed87872f-0d96-4b49-a78b-ad0d6e9917d3"},"vehicle_type_id":"4","last_reported":1728079726,"current_range_meters":3200,"station_id":"ce4bgvp2rcd13ifvqct0","pricing_plan_id":"cebpf4jnsgd1na2vs0mg"},{"bike_id":"308ae973-a71c-45c1-9a03-b73643f01e25","system_id":"levelo_inurba_marseille","lat":43.31715,"lon":5.43712,"is_reserved":false,"is_disabled":false,"rental_uris":{"android":"levelo://app?vid=308ae973-a71c-45c1-9a03-b73643f01e25","ios":"levelo://app?vid=308ae973-a71c-45c1-9a03-b73643f01e25"},"vehicle_type_id":"4","last_reported":1728079726,"current_range_meters":25200,"station_id":"ce4bhp92rcd13ifvqhcg","pricing_plan_id":"cebpf4jnsgd1na2vs0mg"},{"bike_id":"3ab35772-ab98-4e0e-bb77-b34f7802889b","system_id":"levelo_inurba_marseille","lat":43.25118,"lon":5.40319,"is_reserved":false,"is_disabled":false,"rental_uris":{"android":"levelo://app?vid=3ab35772-ab98-4e0e-bb77-b34f7802889b","ios":"levelo://app?vid=3ab35772-ab98-4e0e-bb77-b34f7802889b"},"vehicle_type_id":"4","last_reported":1728079726,"current_range_meters":27200,"station_id":"ce4bhlh2rcd13ifvqgig","pricing_plan_id":"cebpf4jnsgd1na2vs0mg"},{"bike_id":"a4721277-157e-42b9-87f0-290a3d401919","system_id":"levelo_inurba_marseille","lat":43.2594,"lon":5.40904,"is_reserved":false,"is_disabled":false,"rental_uris":{"android":"levelo://app?vid=a4721277-157e-42b9-87f0-290a3d401919","ios":"levelo://app?vid=a4721277-157e-42b9-87f0-290a3d401919"},"vehicle_type_id":"4","last_reported":1728079726,"current_range_meters":38800,"station_id":"ce4bhm92rcd13ifvqglg","pricing_plan_id":"cebpf4jnsgd1na2vs0mg"},{"bike_id":"cda9a186-5007-4af0-8430-c0b5fc5e4bde","system_id":"levelo_inurba_marseille","lat":43.29008,"lon":5.35611,"is_reserved":false,"is_disabled":false,"rental_uris":{"android":"levelo://app?vid=cda9a186-5007-4af0-8430-c0b5fc5e4bde","ios":"levelo://app?vid=cda9a186-5007-4af0-8430-c0b5fc5e4bde"},"vehicle_type_id":"4","last_reported":1728079726,"current_range_meters":24400,"station_id":"ce4bhb92rcd13ifvqen0","pricing_plan_id":"cebpf4jnsgd1na2vs0mg"},{"bike_id":"b49fb503-3567-42e6-a107-8d3b91a0e2f7","system_id":"levelo_inurba_marseille","lat":43.30893,"lon":5.37198,"is_reserved":false,"is_disabled":false,"rental_uris":{"android":"levelo://app?vid=b49fb503-3567-42e6-a107-8d3b91a0e2f7","ios":"levelo://app?vid=b49fb503-3567-42e6-a107-8d3b91a0e2f7"},"vehicle_type_id":"4","last_reported":1728079726,"current_range_meters":12000,"station_id":"ce4bguh2rcd13ifvqckg","pricing_plan_id":"cebpf4jnsgd1na2vs0mg"},{"bike_id":"3579f349-1b2d-43b2-9980-2f7aaeaf225d","system_id":"levelo_inurba_marseille","lat":43.29011,"lon":5.35616,"is_reserved":false,"is_disabled":false,"rental_uris":{"android":"levelo://app?vid=3579f349-1b2d-43b2-9980-2f7aaeaf225d","ios":"levelo://app?vid=3579f349-1b2d-43b2-9980-2f7aaeaf225d"},"vehicle_type_id":"4","last_reported":1728079726,"current_range_meters":10800,"station_id":"ce4bhb92rcd13ifvqen0","pricing_plan_id":"cebpf4jnsgd1na2vs0mg"},{"bike_id":"bf214ee5-bcc3-48ed-b2c5-a945b0468078","system_id":"levelo_inurba_marseille","lat":43.24651,"lon":5.38902,"is_reserved":false,"is_disabled":false,"rental_uris":{"android":"levelo://app?vid=bf214ee5-bcc3-48ed-b2c5-a945b0468078","ios":"levelo://app?vid=bf214ee5-bcc3-48ed-b2c5-a945b0468078"},"vehicle_type_id":"4","last_reported":1728079726,"current_range_meters":17200,"station_id":"ce4bhg12rcd13ifvqf60","pricing_plan_id":"cebpf4jnsgd1na2vs0mg"},{"bike_id":"6102bacc-0bb3-4c79-854a-2d4ec81b21c1","system_id":"levelo_inurba_marseille","lat":43.31719,"lon":5.42407,"is_reserved":false,"is_disabled":false,"rental_uris":{"android":"levelo://app?vid=6102bacc-0bb3-4c79-854a-2d4ec81b21c1","ios":"levelo://app?vid=6102bacc-0bb3-4c79-854a-2d4ec81b21c1"},"vehicle_type_id":"4","last_reported":1728079726,"current_range_meters":39200,"station_id":"ce4bhp92rcd13ifvqhbg","pricing_plan_id":"cebpf4jnsgd1na2vs0mg"},{"bike_id":"74926ff8-a339-47b4-973e-bb8e6cae9cc5","system_id":"levelo_inurba_marseille","lat":43.23156,"lon":5.43711,"is_reserved":false,"is_disabled":false,"rental_uris":{"android":"levelo://app?vid=74926ff8-a339-47b4-973e-bb8e6cae9cc5","ios":"levelo://app?vid=74926ff8-a339-47b4-973e-bb8e6cae9cc5"},"vehicle_type_id":"4","last_reported":1728079726,"current_range_meters":12400,"station_id":"ce4bhmp2rcd13ifvqgog","pricing_plan_id":"cebpf4jnsgd1na2vs0mg"},{"bike_id":"6f9ea692-b854-4466-8783-f86828c11080","system_id":"levelo_inurba_marseille","lat":43.32536,"lon":5.41458,"is_reserved":false,"is_disabled":false,"rental_uris":{"android":"levelo://app?vid=6f9ea692-b854-4466-8783-f86828c11080","ios":"levelo://app?vid=6f9ea692-b854-4466-8783-f86828c11080"},"vehicle_type_id":"4","last_reported":1728079726,"current_range_meters":39200,"station_id":"ce4bhq12rcd13ifvqhhg","pricing_plan_id":"cebpf4jnsgd1na2vs0mg"},{"bike_id":"b91ba8c2-9fc9-4095-ac3b-611000ce56a7","system_id":"levelo_inurba_marseille","lat":43.286033,"lon":5.398028,"is_reserved":false,"is_disabled":false,"rental_uris":{"android":"levelo://app?vid=b91ba8c2-9fc9-4095-ac3b-611000ce56a7","ios":"levelo://app?vid=b91ba8c2-9fc9-4095-ac3b-611000ce56a7"},"vehicle_type_id":"4","last_reported":1728079726,"current_range_meters":12800,"station_id":"ce4bh492rcd13ifvqdvg","pricing_plan_id":"cebpf4jnsgd1na2vs0mg"},{"bike_id":"265a7a9b-2f01-4738-b642-8a75440677b8","system_id":"levelo_inurba_marseille","lat":43.28573,"lon":5.39508,"is_reserved":false,"is_disabled":false,"rental_uris":{"android":"levelo://app?vid=265a7a9b-2f01-4738-b642-8a75440677b8","ios":"levelo://app?vid=265a7a9b-2f01-4738-b642-8a75440677b8"},"vehicle_type_id":"4","last_reported":1728079726,"current_range_meters":39200,"station_id":"ce4bh292rcd13ifvqdg0","pricing_plan_id":"cebpf4jnsgd1na2vs0mg"},{"bike_id":"ec7d53bb-6008-4fc3-af9a-4b91d9199a43","system_id":"levelo_inurba_marseille","lat":43.295959,"lon":5.399416,"is_reserved":false,"is_disabled":false,"rental_uris":{"android":"levelo://app?vid=ec7d53bb-6008-4fc3-af9a-4b91d9199a43","ios":"levelo://app?vid=ec7d53bb-6008-4fc3-af9a-4b91d9199a43"},"vehicle_type_id":"4","last_reported":1728079726,"current_range_meters":8400,"station_id":"ce4bguh2rcd13ifvqckg","pricing_plan_id":"cebpf4jnsgd1na2vs0mg"},{"bike_id":"b8248562-b4d3-4533-abf6-60db83645701","system_id":"levelo_inurba_marseille","lat":43.287049,"lon":5.399883,"is_reserved":false,"is_disabled":false,"rental_uris":{"android":"levelo://app?vid=b8248562-b4d3-4533-abf6-60db83645701","ios":"levelo://app?vid=b8248562-b4d3-4533-abf6-60db83645701"},"vehicle_type_id":"4","last_reported":1728079726,"current_range_meters":26000,"station_id":"ce4bho92rcd13ifvqh3g","pricing_plan_id":"cebpf4jnsgd1na2vs0mg"},{"bike_id":"0bc4da86-c871-4c42-9afa-cbea77a620ca","system_id":"levelo_inurba_marseille","lat":43.28043,"lon":5.36955,"is_reserved":false,"is_disabled":false,"rental_uris":{"android":"levelo://app?vid=0bc4da86-c871-4c42-9afa-cbea77a620ca","ios":"levelo://app?vid=0bc4da86-c871-4c42-9afa-cbea77a620ca"},"vehicle_type_id":"4","last_reported":1728079726,"current_range_meters":40000,"station_id":"ce4bha12rcd13ifvqef0","pricing_plan_id":"cebpf4jnsgd1na2vs0mg"},{"bike_id":"e08c062f-61a2-493a-875d-6e296e2965d6","system_id":"levelo_inurba_marseille","lat":43.33758,"lon":5.37445,"is_reserved":false,"is_disabled":false,"rental_uris":{"android":"levelo://app?vid=e08c062f-61a2-493a-875d-6e296e2965d6","ios":"levelo://app?vid=e08c062f-61a2-493a-875d-6e296e2965d6"},"vehicle_type_id":"4","last_reported":1728079726,"current_range_meters":32000,"station_id":"","pricing_plan_id":"cebpf4jnsgd1na2vs0mg"},{"bike_id":"767b5572-7a96-45fd-9ea6-1b05056115f2","system_id":"levelo_inurba_marseille","lat":43.33023,"lon":5.39037,"is_reserved":false,"is_disabled":false,"rental_uris":{"android":"levelo://app?vid=767b5572-7a96-45fd-9ea6-1b05056115f2","ios":"levelo://app?vid=767b5572-7a96-45fd-9ea6-1b05056115f2"},"vehicle_type_id":"4","last_reported":1728079726,"current_range_meters":35600,"station_id":"ce4bhr92rcd13ifvqhrg","pricing_plan_id":"cebpf4jnsgd1na2vs0mg"},{"bike_id":"b871d3e1-c5d5-4d1f-8267-43a325f41cf2","system_id":"levelo_inurba_marseille","lat":43.25086,"lon":5.39513,"is_reserved":false,"is_disabled":false,"rental_uris":{"android":"levelo://app?vid=b871d3e1-c5d5-4d1f-8267-43a325f41cf2","ios":"levelo://app?vid=b871d3e1-c5d5-4d1f-8267-43a325f41cf2"},"vehicle_type_id":"4","last_reported":1728079726,"current_range_meters":39200,"station_id":"ce4bhm12rcd13ifvqgkg","pricing_plan_id":"cebpf4jnsgd1na2vs0mg"},{"bike_id":"74f1008a-2df1-4e28-a788-b63e1b328743","system_id":"levelo_inurba_marseille","lat":43.2958,"lon":5.36749,"is_reserved":false,"is_disabled":false,"rental_uris":{"android":"levelo://app?vid=74f1008a-2df1-4e28-a788-b63e1b328743","ios":"levelo://app?vid=74f1008a-2df1-4e28-a788-b63e1b328743"},"vehicle_type_id":"4","last_reported":1728079726,"current_range_meters":36000,"station_id":"ce4bgph2rcd13ifvqc2g","pricing_plan_id":"cebpf4jnsgd1na2vs0mg"},{"bike_id":"8e31d303-8507-40a7-96ff-391486b49ac5","system_id":"levelo_inurba_marseille","lat":43.29259,"lon":5.409,"is_reserved":false,"is_disabled":false,"rental_uris":{"android":"levelo://app?vid=8e31d303-8507-40a7-96ff-391486b49ac5","ios":"levelo://app?vid=8e31d303-8507-40a7-96ff-391486b49ac5"},"vehicle_type_id":"4","last_reported":1728079726,"current_range_meters":22000,"station_id":"ce4bh192rcd13ifvqdc0","pricing_plan_id":"cebpf4jnsgd1na2vs0mg"},{"bike_id":"ba1b760c-54ef-42e8-b328-f8b6995afafd","system_id":"levelo_inurba_marseille","lat":43.30802,"lon":5.38149,"is_reserved":false,"is_disabled":false,"rental_uris":{"android":"levelo://app?vid=ba1b760c-54ef-42e8-b328-f8b6995afafd","ios":"levelo://app?vid=ba1b760c-54ef-42e8-b328-f8b6995afafd"},"vehicle_type_id":"4","last_reported":1728079726,"current_range_meters":14800,"station_id":"ce4bgt12rcd13ifvqce0","pricing_plan_id":"cebpf4jnsgd1na2vs0mg"},{"bike_id":"fcfb42de-cde1-4ec3-8e89-f197fdfcc1a8","system_id":"levelo_inurba_marseille","lat":43.23968,"lon":5.36645,"is_reserved":false,"is_disabled":false,"rental_uris":{"android":"levelo://app?vid=fcfb42de-cde1-4ec3-8e89-f197fdfcc1a8","ios":"levelo://app?vid=fcfb42de-cde1-4ec3-8e89-f197fdfcc1a8"},"vehicle_type_id":"4","last_reported":1728079726,"current_range_meters":29600,"station_id":"ce4bhi12rcd13ifvqfp0","pricing_plan_id":"cebpf4jnsgd1na2vs0mg"},{"bike_id":"633d2344-d99e-4174-b6fb-920c3267e701","system_id":"levelo_inurba_marseille","lat":43.33724,"lon":5.39184,"is_reserved":false,"is_disabled":false,"rental_uris":{"android":"levelo://app?vid=633d2344-d99e-4174-b6fb-920c3267e701","ios":"levelo://app?vid=633d2344-d99e-4174-b6fb-920c3267e701"},"vehicle_type_id":"4","last_reported":1728079726,"current_range_meters":27600,"station_id":"ce4bhr92rcd13ifvqhsg","pricing_plan_id":"cebpf4jnsgd1na2vs0mg"},{"bike_id":"5f8d3d8f-1503-41ea-a148-3895c82e3ec7","system_id":"levelo_inurba_marseille","lat":43.28166,"lon":5.42646,"is_reserved":false,"is_disabled":false,"rental_uris":{"android":"levelo://app?vid=5f8d3d8f-1503-41ea-a148-3895c82e3ec7","ios":"levelo://app?vid=5f8d3d8f-1503-41ea-a148-3895c82e3ec7"},"vehicle_type_id":"4","last_reported":1728079726,"current_range_meters":15200,"station_id":"ce4bhnh2rcd13ifvqgug","pricing_plan_id":"cebpf4jnsgd1na2vs0mg"},{"bike_id":"88d763e9-254b-4f45-a733-903d4efd49e1","system_id":"levelo_inurba_marseille","lat":43.31064,"lon":5.38351,"is_reserved":false,"is_disabled":false,"rental_uris":{"android":"levelo://app?vid=88d763e9-254b-4f45-a733-903d4efd49e1","ios":"levelo://app?vid=88d763e9-254b-4f45-a733-903d4efd49e1"},"vehicle_type_id":"4","last_reported":1728079726,"current_range_meters":37600,"station_id":"ce4bgv92rcd13ifvqcr0","pricing_plan_id":"cebpf4jnsgd1na2vs0mg"},{"bike_id":"fd872ba7-9877-4e67-9269-d8995abba644","system_id":"levelo_inurba_marseille","lat":43.22936,"lon":5.35378,"is_reserved":false,"is_disabled":false,"rental_uris":{"android":"levelo://app?vid=fd872ba7-9877-4e67-9269-d8995abba644","ios":"levelo://app?vid=fd872ba7-9877-4e67-9269-d8995abba644"},"vehicle_type_id":"4","last_reported":1728079726,"current_range_meters":17600,"station_id":"cpo3532slgdg3j2ikp40","pricing_plan_id":"cebpf4jnsgd1na2vs0mg"},{"bike_id":"fe069c0c-ab7e-4066-b369-24f70f595c37","system_id":"levelo_inurba_marseille","lat":43.32485,"lon":5.36562,"is_reserved":false,"is_disabled":false,"rental_uris":{"android":"levelo://app?vid=fe069c0c-ab7e-4066-b369-24f70f595c37","ios":"levelo://app?vid=fe069c0c-ab7e-4066-b369-24f70f595c37"},"vehicle_type_id":"4","last_reported":1728079726,"current_range_meters":27600,"station_id":"ce4bhs12rcd13ifvqhvg","pricing_plan_id":"cebpf4jnsgd1na2vs0mg"},{"bike_id":"2cfde8ca-341f-4330-863a-fa6449e2eb47","system_id":"levelo_inurba_marseille","lat":43.29517,"lon":5.39381,"is_reserved":false,"is_disabled":false,"rental_uris":{"android":"levelo://app?vid=2cfde8ca-341f-4330-863a-fa6449e2eb47","ios":"levelo://app?vid=2cfde8ca-341f-4330-863a-fa6449e2eb47"},"vehicle_type_id":"4","last_reported":1728079726,"current_range_meters":28400,"station_id":"ce4bh292rcd13ifvqdf0","pricing_plan_id":"cebpf4jnsgd1na2vs0mg"},{"bike_id":"4de85611-0de8-451d-b967-966a45b47c34","system_id":"levelo_inurba_marseille","lat":43.28977,"lon":5.37845,"is_reserved":false,"is_disabled":false,"rental_uris":{"android":"levelo://app?vid=4de85611-0de8-451d-b967-966a45b47c34","ios":"levelo://app?vid=4de85611-0de8-451d-b967-966a45b47c34"},"vehicle_type_id":"4","last_reported":1728079726,"current_range_meters":8000,"station_id":"ce4bh9p2rcd13ifvqed0","pricing_plan_id":"cebpf4jnsgd1na2vs0mg"},{"bike_id":"02287b3e-a2e5-4db9-badc-4f46622493bb","system_id":"levelo_inurba_marseille","lat":43.27073,"lon":5.4228,"is_reserved":false,"is_disabled":false,"rental_uris":{"android":"levelo://app?vid=02287b3e-a2e5-4db9-badc-4f46622493bb","ios":"levelo://app?vid=02287b3e-a2e5-4db9-badc-4f46622493bb"},"vehicle_type_id":"4","last_reported":1728079726,"current_range_meters":40000,"station_id":"ce4bhk92rcd13ifvqgb0","pricing_plan_id":"cebpf4jnsgd1na2vs0mg"},{"bike_id":"2dfa250e-fa81-43be-b763-8f49843284b7","system_id":"levelo_inurba_marseille","lat":43.23187,"lon":5.39996,"is_reserved":false,"is_disabled":false,"rental_uris":{"android":"levelo://app?vid=2dfa250e-fa81-43be-b763-8f49843284b7","ios":"levelo://app?vid=2dfa250e-fa81-43be-b763-8f49843284b7"},"vehicle_type_id":"4","last_reported":1728079726,"current_range_meters":5600,"station_id":"ce4bhn12rcd13ifvqgqg","pricing_plan_id":"cebpf4jnsgd1na2vs0mg"},{"bike_id":"3879a0e9-5083-48f5-ab30-6db0abb01470","system_id":"levelo_inurba_marseille","lat":43.29878,"lon":5.3891,"is_reserved":false,"is_disabled":false,"rental_uris":{"android":"levelo://app?vid=3879a0e9-5083-48f5-ab30-6db0abb01470","ios":"levelo://app?vid=3879a0e9-5083-48f5-ab30-6db0abb01470"},"vehicle_type_id":"4","last_reported":1728079726,"current_range_meters":39200,"station_id":"ce4bh392rcd13ifvqdl0","pricing_plan_id":"cebpf4jnsgd1na2vs0mg"},{"bike_id":"3c5f8865-2299-4f74-97e5-b2b18be0eeaa","system_id":"levelo_inurba_marseille","lat":43.290233,"lon":5.381234,"is_reserved":false,"is_disabled":false,"rental_uris":{"android":"levelo://app?vid=3c5f8865-2299-4f74-97e5-b2b18be0eeaa","ios":"levelo://app?vid=3c5f8865-2299-4f74-97e5-b2b18be0eeaa"},"vehicle_type_id":"4","last_reported":1728079726,"current_range_meters":38800,"station_id":"ce4bh512rcd13ifvqe2g","pricing_plan_id":"cebpf4jnsgd1na2vs0mg"},{"bike_id":"2127827a-03bd-4f9a-a0c5-31598fd2cadd","system_id":"levelo_inurba_marseille","lat":43.32658,"lon":5.40996,"is_reserved":false,"is_disabled":false,"rental_uris":{"android":"levelo://app?vid=2127827a-03bd-4f9a-a0c5-31598fd2cadd","ios":"levelo://app?vid=2127827a-03bd-4f9a-a0c5-31598fd2cadd"},"vehicle_type_id":"4","last_reported":1728079726,"current_range_meters":8400,"station_id":"ce4bhpp2rcd13ifvqhgg","pricing_plan_id":"cebpf4jnsgd1na2vs0mg"},{"bike_id":"796f7bf9-e0c7-4ea3-b96f-9594e19b892e","system_id":"levelo_inurba_marseille","lat":43.24648,"lon":5.38893,"is_reserved":false,"is_disabled":false,"rental_uris":{"android":"levelo://app?vid=796f7bf9-e0c7-4ea3-b96f-9594e19b892e","ios":"levelo://app?vid=796f7bf9-e0c7-4ea3-b96f-9594e19b892e"},"vehicle_type_id":"4","last_reported":1728079726,"current_range_meters":39200,"station_id":"ce4bhg12rcd13ifvqf60","pricing_plan_id":"cebpf4jnsgd1na2vs0mg"},{"bike_id":"d2a2b46f-4685-4bde-b7d0-90213a9c65e3","system_id":"levelo_inurba_marseille","lat":43.29027,"lon":5.38647,"is_reserved":false,"is_disabled":false,"rental_uris":{"android":"levelo://app?vid=d2a2b46f-4685-4bde-b7d0-90213a9c65e3","ios":"levelo://app?vid=d2a2b46f-4685-4bde-b7d0-90213a9c65e3"},"vehicle_type_id":"4","last_reported":1728079726,"current_range_meters":4000,"station_id":"ce4bh4p2rcd13ifvqe0g","pricing_plan_id":"cebpf4jnsgd1na2vs0mg"},{"bike_id":"82fb1d9b-f78d-4572-93cd-c097376a885d","system_id":"levelo_inurba_marseille","lat":43.2316,"lon":5.43715,"is_reserved":false,"is_disabled":false,"rental_uris":{"android":"levelo://app?vid=82fb1d9b-f78d-4572-93cd-c097376a885d","ios":"levelo://app?vid=82fb1d9b-f78d-4572-93cd-c097376a885d"},"vehicle_type_id":"4","last_reported":1728079726,"current_range_meters":6400,"station_id":"ce4bhmp2rcd13ifvqgog","pricing_plan_id":"cebpf4jnsgd1na2vs0mg"},{"bike_id":"e04e5431-207d-4263-8b72-762e4c4878e5","system_id":"levelo_inurba_marseille","lat":43.23059,"lon":5.35492,"is_reserved":false,"is_disabled":false,"rental_uris":{"android":"levelo://app?vid=e04e5431-207d-4263-8b72-762e4c4878e5","ios":"levelo://app?vid=e04e5431-207d-4263-8b72-762e4c4878e5"},"vehicle_type_id":"4","last_reported":1728079726,"current_range_meters":19600,"station_id":"cpo3342slgdg3j2ifvpg","pricing_plan_id":"cebpf4jnsgd1na2vs0mg"},{"bike_id":"1a5410ba-9fbb-4266-a0fe-2364c4d5e366","system_id":"levelo_inurba_marseille","lat":43.31363,"lon":5.36718,"is_reserved":false,"is_disabled":false,"rental_uris":{"android":"levelo://app?vid=1a5410ba-9fbb-4266-a0fe-2364c4d5e366","ios":"levelo://app?vid=1a5410ba-9fbb-4266-a0fe-2364c4d5e366"},"vehicle_type_id":"4","last_reported":1728079726,"current_range_meters":19200,"station_id":"ce4bgr92rcd13ifvqc6g","pricing_plan_id":"cebpf4jnsgd1na2vs0mg"},{"bike_id":"50e6aeb8-7e25-4c09-9781-24c9f5d23dff","system_id":"levelo_inurba_marseille","lat":43.33753,"lon":5.37436,"is_reserved":false,"is_disabled":false,"rental_uris":{"android":"levelo://app?vid=50e6aeb8-7e25-4c09-9781-24c9f5d23dff","ios":"levelo://app?vid=50e6aeb8-7e25-4c09-9781-24c9f5d23dff"},"vehicle_type_id":"4","last_reported":1728079726,"current_range_meters":30400,"station_id":"","pricing_plan_id":"cebpf4jnsgd1na2vs0mg"},{"bike_id":"db6d3114-5e27-4869-bbbf-86348f43961f","system_id":"levelo_inurba_marseille","lat":43.29557,"lon":5.42274,"is_reserved":false,"is_disabled":false,"rental_uris":{"android":"levelo://app?vid=db6d3114-5e27-4869-bbbf-86348f43961f","ios":"levelo://app?vid=db6d3114-5e27-4869-bbbf-86348f43961f"},"vehicle_type_id":"4","last_reported":1728079726,"current_range_meters":6400,"station_id":"ce4bhph2rcd13ifvqhdg","pricing_plan_id":"cebpf4jnsgd1na2vs0mg"},{"bike_id":"094b268c-4cc2-43fc-862b-773d8ae92352","system_id":"levelo_inurba_marseille","lat":43.31117,"lon":5.37773,"is_reserved":false,"is_disabled":false,"rental_uris":{"android":"levelo://app?vid=094b268c-4cc2-43fc-862b-773d8ae92352","ios":"levelo://app?vid=094b268c-4cc2-43fc-862b-773d8ae92352"},"vehicle_type_id":"4","last_reported":1728079726,"current_range_meters":38000,"station_id":"ce4bgt92rcd13ifvqcg0","pricing_plan_id":"cebpf4jnsgd1na2vs0mg"},{"bike_id":"f5e93991-8630-4f47-9b21-ba3d107cb0ab","system_id":"levelo_inurba_marseille","lat":43.28104,"lon":5.37838,"is_reserved":false,"is_disabled":false,"rental_uris":{"android":"levelo://app?vid=f5e93991-8630-4f47-9b21-ba3d107cb0ab","ios":"levelo://app?vid=f5e93991-8630-4f47-9b21-ba3d107cb0ab"},"vehicle_type_id":"4","last_reported":1728079726,"current_range_meters":35600,"station_id":"ce4bha12rcd13ifvqee0","pricing_plan_id":"cebpf4jnsgd1na2vs0mg"},{"bike_id":"be855d3f-aa37-4c69-9485-bcd30590fee9","system_id":"levelo_inurba_marseille","lat":43.3106,"lon":5.38354,"is_reserved":false,"is_disabled":false,"rental_uris":{"android":"levelo://app?vid=be855d3f-aa37-4c69-9485-bcd30590fee9","ios":"levelo://app?vid=be855d3f-aa37-4c69-9485-bcd30590fee9"},"vehicle_type_id":"4","last_reported":1728079726,"current_range_meters":38800,"station_id":"ce4bgv92rcd13ifvqcr0","pricing_plan_id":"cebpf4jnsgd1na2vs0mg"},{"bike_id":"98fe9666-1214-4d75-b1e8-91292b88bd3c","system_id":"levelo_inurba_marseille","lat":43.2885,"lon":5.35847,"is_reserved":false,"is_disabled":false,"rental_uris":{"android":"levelo://app?vid=98fe9666-1214-4d75-b1e8-91292b88bd3c","ios":"levelo://app?vid=98fe9666-1214-4d75-b1e8-91292b88bd3c"},"vehicle_type_id":"4","last_reported":1728079726,"current_range_meters":20800,"station_id":"ce4bhb12rcd13ifvqem0","pricing_plan_id":"cebpf4jnsgd1na2vs0mg"},{"bike_id":"fe925873-1d48-4119-ae9f-068dc591d4ff","system_id":"levelo_inurba_marseille","lat":43.28478,"lon":5.38414,"is_reserved":false,"is_disabled":false,"rental_uris":{"android":"levelo://app?vid=fe925873-1d48-4119-ae9f-068dc591d4ff","ios":"levelo://app?vid=fe925873-1d48-4119-ae9f-068dc591d4ff"},"vehicle_type_id":"4","last_reported":1728079726,"current_range_meters":2000,"station_id":"ce4bh512rcd13ifvqe3g","pricing_plan_id":"cebpf4jnsgd1na2vs0mg"},{"bike_id":"3cc4d07d-3eee-4b93-9fc0-d4f2d12e1e80","system_id":"levelo_inurba_marseille","lat":43.30324,"lon":5.40425,"is_reserved":false,"is_disabled":false,"rental_uris":{"android":"levelo://app?vid=3cc4d07d-3eee-4b93-9fc0-d4f2d12e1e80","ios":"levelo://app?vid=3cc4d07d-3eee-4b93-9fc0-d4f2d12e1e80"},"vehicle_type_id":"4","last_reported":1728079726,"current_range_meters":3600,"station_id":"ce4bh012rcd13ifvqd10","pricing_plan_id":"cebpf4jnsgd1na2vs0mg"},{"bike_id":"bfa6f8f3-5ed6-441a-b00a-81e3148e1125","system_id":"levelo_inurba_marseille","lat":43.31497,"lon":5.37303,"is_reserved":false,"is_disabled":false,"rental_uris":{"android":"levelo://app?vid=bfa6f8f3-5ed6-441a-b00a-81e3148e1125","ios":"levelo://app?vid=bfa6f8f3-5ed6-441a-b00a-81e3148e1125"},"vehicle_type_id":"4","last_reported":1728079726,"current_range_meters":38000,"station_id":"ce4bgt12rcd13ifvqcd0","pricing_plan_id":"cebpf4jnsgd1na2vs0mg"},{"bike_id":"9c27bab3-f424-4277-b949-7e851513f6f0","system_id":"levelo_inurba_marseille","lat":43.30538,"lon":5.38426,"is_reserved":false,"is_disabled":false,"rental_uris":{"android":"levelo://app?vid=9c27bab3-f424-4277-b949-7e851513f6f0","ios":"levelo://app?vid=9c27bab3-f424-4277-b949-7e851513f6f0"},"vehicle_type_id":"4","last_reported":1728079726,"current_range_meters":37600,"station_id":"ce4bgg92rcd13ifvqb30","pricing_plan_id":"cebpf4jnsgd1na2vs0mg"},{"bike_id":"d4de802b-7b1f-4c87-bfd7-e6e463405806","system_id":"levelo_inurba_marseille","lat":43.31271,"lon":5.40181,"is_reserved":false,"is_disabled":false,"rental_uris":{"android":"levelo://app?vid=d4de802b-7b1f-4c87-bfd7-e6e463405806","ios":"levelo://app?vid=d4de802b-7b1f-4c87-bfd7-e6e463405806"},"vehicle_type_id":"4","last_reported":1728079726,"current_range_meters":38800,"station_id":"ce4bh092rcd13ifvqd30","pricing_plan_id":"cebpf4jnsgd1na2vs0mg"},{"bike_id":"b539cef5-a0ee-4eb9-af10-1c3a300ff81c","system_id":"levelo_inurba_marseille","lat":43.32103,"lon":5.36762,"is_reserved":false,"is_disabled":false,"rental_uris":{"android":"levelo://app?vid=b539cef5-a0ee-4eb9-af10-1c3a300ff81c","ios":"levelo://app?vid=b539cef5-a0ee-4eb9-af10-1c3a300ff81c"},"vehicle_type_id":"4","last_reported":1728079726,"current_range_meters":38400,"station_id":"ce4bhrh2rcd13ifvqhug","pricing_plan_id":"cebpf4jnsgd1na2vs0mg"},{"bike_id":"51e85f59-1755-498a-9375-8ea113241647","system_id":"levelo_inurba_marseille","lat":43.30284,"lon":5.37713,"is_reserved":false,"is_disabled":false,"rental_uris":{"android":"levelo://app?vid=51e85f59-1755-498a-9375-8ea113241647","ios":"levelo://app?vid=51e85f59-1755-498a-9375-8ea113241647"},"vehicle_type_id":"4","last_reported":1728079726,"current_range_meters":28400,"station_id":"","pricing_plan_id":"cebpf4jnsgd1na2vs0mg"},{"bike_id":"7ada930f-3c5f-409f-9b3a-d7247464f463","system_id":"levelo_inurba_marseille","lat":43.29032,"lon":5.38647,"is_reserved":false,"is_disabled":false,"rental_uris":{"android":"levelo://app?vid=7ada930f-3c5f-409f-9b3a-d7247464f463","ios":"levelo://app?vid=7ada930f-3c5f-409f-9b3a-d7247464f463"},"vehicle_type_id":"4","last_reported":1728079726,"current_range_meters":19200,"station_id":"ce4bh4p2rcd13ifvqe0g","pricing_plan_id":"cebpf4jnsgd1na2vs0mg"},{"bike_id":"f54f4499-302b-4ab3-9465-cdf60f08d6c0","system_id":"levelo_inurba_marseille","lat":43.25089,"lon":5.39514,"is_reserved":false,"is_disabled":false,"rental_uris":{"android":"levelo://app?vid=f54f4499-302b-4ab3-9465-cdf60f08d6c0","ios":"levelo://app?vid=f54f4499-302b-4ab3-9465-cdf60f08d6c0"},"vehicle_type_id":"4","last_reported":1728079726,"current_range_meters":27200,"station_id":"ce4bhm12rcd13ifvqgkg","pricing_plan_id":"cebpf4jnsgd1na2vs0mg"},{"bike_id":"206bf6bf-09ad-4763-85da-6f36c3ad29a0","system_id":"levelo_inurba_marseille","lat":43.27994,"lon":5.41664,"is_reserved":false,"is_disabled":false,"rental_uris":{"android":"levelo://app?vid=206bf6bf-09ad-4763-85da-6f36c3ad29a0","ios":"levelo://app?vid=206bf6bf-09ad-4763-85da-6f36c3ad29a0"},"vehicle_type_id":"4","last_reported":1728079726,"current_range_meters":24800,"station_id":"ce4bho12rcd13ifvqh1g","pricing_plan_id":"cebpf4jnsgd1na2vs0mg"},{"bike_id":"6a2ecc02-eb74-4108-af94-a2504e7fa070","system_id":"levelo_inurba_marseille","lat":43.31178,"lon":5.38719,"is_reserved":false,"is_disabled":false,"rental_uris":{"android":"levelo://app?vid=6a2ecc02-eb74-4108-af94-a2504e7fa070","ios":"levelo://app?vid=6a2ecc02-eb74-4108-af94-a2504e7fa070"},"vehicle_type_id":"4","last_reported":1728079726,"current_range_meters":38400,"station_id":"ce4bgv12rcd13ifvqcp0","pricing_plan_id":"cebpf4jnsgd1na2vs0mg"},{"bike_id":"48e1fc4f-bb49-4aec-901f-651c503b77d7","system_id":"levelo_inurba_marseille","lat":43.28852,"lon":5.39316,"is_reserved":false,"is_disabled":false,"rental_uris":{"android":"levelo://app?vid=48e1fc4f-bb49-4aec-901f-651c503b77d7","ios":"levelo://app?vid=48e1fc4f-bb49-4aec-901f-651c503b77d7"},"vehicle_type_id":"4","last_reported":1728079726,"current_range_meters":35200,"station_id":"ce4bh2p2rcd13ifvqdi0","pricing_plan_id":"cebpf4jnsgd1na2vs0mg"},{"bike_id":"bb5f5452-4b9b-417d-b148-b396a874f3d9","system_id":"levelo_inurba_marseille","lat":43.3376,"lon":5.37448,"is_reserved":false,"is_disabled":false,"rental_uris":{"android":"levelo://app?vid=bb5f5452-4b9b-417d-b148-b396a874f3d9","ios":"levelo://app?vid=bb5f5452-4b9b-417d-b148-b396a874f3d9"},"vehicle_type_id":"4","last_reported":1728079726,"current_range_meters":35200,"station_id":"","pricing_plan_id":"cebpf4jnsgd1na2vs0mg"},{"bike_id":"a9cca9d5-e40e-483d-9a44-24c121cbe605","system_id":"levelo_inurba_marseille","lat":43.30211,"lon":5.39469,"is_reserved":false,"is_disabled":false,"rental_uris":{"android":"levelo://app?vid=a9cca9d5-e40e-483d-9a44-24c121cbe605","ios":"levelo://app?vid=a9cca9d5-e40e-483d-9a44-24c121cbe605"},"vehicle_type_id":"4","last_reported":1728079726,"current_range_meters":5600,"station_id":"ce4bh0p2rcd13ifvqd70","pricing_plan_id":"cebpf4jnsgd1na2vs0mg"},{"bike_id":"fdbcd65c-ad40-4462-89b9-75b1b076eb71","system_id":"levelo_inurba_marseille","lat":43.30268,"lon":5.37734,"is_reserved":false,"is_disabled":false,"rental_uris":{"android":"levelo://app?vid=fdbcd65c-ad40-4462-89b9-75b1b076eb71","ios":"levelo://app?vid=fdbcd65c-ad40-4462-89b9-75b1b076eb71"},"vehicle_type_id":"4","last_reported":1728079726,"current_range_meters":38800,"station_id":"ce4bguh2rcd13ifvqcj0","pricing_plan_id":"cebpf4jnsgd1na2vs0mg"},{"bike_id":"7248aff2-60e1-4878-ba28-7b6ea5894451","system_id":"levelo_inurba_marseille","lat":43.29792,"lon":5.39341,"is_reserved":false,"is_disabled":false,"rental_uris":{"android":"levelo://app?vid=7248aff2-60e1-4878-ba28-7b6ea5894451","ios":"levelo://app?vid=7248aff2-60e1-4878-ba28-7b6ea5894451"},"vehicle_type_id":"4","last_reported":1728079726,"current_range_meters":37600,"station_id":"chh1huq6cuj3fo74tm60","pricing_plan_id":"cebpf4jnsgd1na2vs0mg"},{"bike_id":"d7a0298f-5c2b-438d-ab05-5d6a7ac83160","system_id":"levelo_inurba_marseille","lat":43.30804,"lon":5.43527,"is_reserved":false,"is_disabled":false,"rental_uris":{"android":"levelo://app?vid=d7a0298f-5c2b-438d-ab05-5d6a7ac83160","ios":"levelo://app?vid=d7a0298f-5c2b-438d-ab05-5d6a7ac83160"},"vehicle_type_id":"4","last_reported":1728079726,"current_range_meters":38400,"station_id":"ce4bhph2rcd13ifvqheg","pricing_plan_id":"cebpf4jnsgd1na2vs0mg"},{"bike_id":"bace3393-4932-4b96-a2b9-cded8e119aeb","system_id":"levelo_inurba_marseille","lat":43.28616,"lon":5.35103,"is_reserved":false,"is_disabled":false,"rental_uris":{"android":"levelo://app?vid=bace3393-4932-4b96-a2b9-cded8e119aeb","ios":"levelo://app?vid=bace3393-4932-4b96-a2b9-cded8e119aeb"},"vehicle_type_id":"4","last_reported":1728079726,"current_range_meters":36000,"station_id":"ce4bhch2rcd13ifvqeug","pricing_plan_id":"cebpf4jnsgd1na2vs0mg"},{"bike_id":"d3d7a7fc-28da-4268-9109-ef9b8e7c61f6","system_id":"levelo_inurba_marseille","lat":43.30891,"lon":5.39652,"is_reserved":false,"is_disabled":false,"rental_uris":{"android":"levelo://app?vid=d3d7a7fc-28da-4268-9109-ef9b8e7c61f6","ios":"levelo://app?vid=d3d7a7fc-28da-4268-9109-ef9b8e7c61f6"},"vehicle_type_id":"4","last_reported":1728079726,"current_range_meters":25600,"station_id":"ce4bh012rcd13ifvqcv0","pricing_plan_id":"cebpf4jnsgd1na2vs0mg"},{"bike_id":"6205d477-546b-4c7d-ba71-9954f909617d","system_id":"levelo_inurba_marseille","lat":43.2318,"lon":5.3999,"is_reserved":false,"is_disabled":false,"rental_uris":{"android":"levelo://app?vid=6205d477-546b-4c7d-ba71-9954f909617d","ios":"levelo://app?vid=6205d477-546b-4c7d-ba71-9954f909617d"},"vehicle_type_id":"4","last_reported":1728079726,"current_range_meters":2000,"station_id":"ce4bhn12rcd13ifvqgqg","pricing_plan_id":"cebpf4jnsgd1na2vs0mg"},{"bike_id":"b0dc2897-cb6b-44e2-947a-9e1de3e6a940","system_id":"levelo_inurba_marseille","lat":43.28157,"lon":5.42642,"is_reserved":false,"is_disabled":false,"rental_uris":{"android":"levelo://app?vid=b0dc2897-cb6b-44e2-947a-9e1de3e6a940","ios":"levelo://app?vid=b0dc2897-cb6b-44e2-947a-9e1de3e6a940"},"vehicle_type_id":"4","last_reported":1728079726,"current_range_meters":8000,"station_id":"ce4bhnh2rcd13ifvqgug","pricing_plan_id":"cebpf4jnsgd1na2vs0mg"},{"bike_id":"69d22968-5985-4dc4-b82a-a054e66a9462","system_id":"levelo_inurba_marseille","lat":43.33608,"lon":5.41037,"is_reserved":false,"is_disabled":false,"rental_uris":{"android":"levelo://app?vid=69d22968-5985-4dc4-b82a-a054e66a9462","ios":"levelo://app?vid=69d22968-5985-4dc4-b82a-a054e66a9462"},"vehicle_type_id":"4","last_reported":1728079726,"current_range_meters":33200,"station_id":"ce4bhqh2rcd13ifvqhmg","pricing_plan_id":"cebpf4jnsgd1na2vs0mg"},{"bike_id":"43fc5487-6973-4fc7-a12f-6a97ffe8a3ce","system_id":"levelo_inurba_marseille","lat":43.2511,"lon":5.40328,"is_reserved":false,"is_disabled":false,"rental_uris":{"android":"levelo://app?vid=43fc5487-6973-4fc7-a12f-6a97ffe8a3ce","ios":"levelo://app?vid=43fc5487-6973-4fc7-a12f-6a97ffe8a3ce"},"vehicle_type_id":"4","last_reported":1728079726,"current_range_meters":38800,"station_id":"ce4bhlh2rcd13ifvqgig","pricing_plan_id":"cebpf4jnsgd1na2vs0mg"},{"bike_id":"2eaa0040-6ce1-4a14-a1ce-ca4c4f1a6624","system_id":"levelo_inurba_marseille","lat":43.29057,"lon":5.35906,"is_reserved":false,"is_disabled":false,"rental_uris":{"android":"levelo://app?vid=2eaa0040-6ce1-4a14-a1ce-ca4c4f1a6624","ios":"levelo://app?vid=2eaa0040-6ce1-4a14-a1ce-ca4c4f1a6624"},"vehicle_type_id":"4","last_reported":1728079726,"current_range_meters":25200,"station_id":"ce4bha92rcd13ifvqeg0","pricing_plan_id":"cebpf4jnsgd1na2vs0mg"},{"bike_id":"219df1b6-9d69-46f8-bdd5-caa50ce674cf","system_id":"levelo_inurba_marseille","lat":43.255493,"lon":5.37674,"is_reserved":false,"is_disabled":false,"rental_uris":{"android":"levelo://app?vid=219df1b6-9d69-46f8-bdd5-caa50ce674cf","ios":"levelo://app?vid=219df1b6-9d69-46f8-bdd5-caa50ce674cf"},"vehicle_type_id":"4","last_reported":1728079726,"current_range_meters":19600,"station_id":"","pricing_plan_id":"cebpf4jnsgd1na2vs0mg"},{"bike_id":"2cc2656e-6f48-4a0b-9be2-7008572e4934","system_id":"levelo_inurba_marseille","lat":43.2894,"lon":5.38388,"is_reserved":false,"is_disabled":false,"rental_uris":{"android":"levelo://app?vid=2cc2656e-6f48-4a0b-9be2-7008572e4934","ios":"levelo://app?vid=2cc2656e-6f48-4a0b-9be2-7008572e4934"},"vehicle_type_id":"4","last_reported":1728079726,"current_range_meters":32400,"station_id":"ce4bh612rcd13ifvqe6g","pricing_plan_id":"cebpf4jnsgd1na2vs0mg"},{"bike_id":"24288944-0101-44b2-8f05-dfa33a293120","system_id":"levelo_inurba_marseille","lat":43.31356,"lon":5.38504,"is_reserved":false,"is_disabled":false,"rental_uris":{"android":"levelo://app?vid=24288944-0101-44b2-8f05-dfa33a293120","ios":"levelo://app?vid=24288944-0101-44b2-8f05-dfa33a293120"},"vehicle_type_id":"4","last_reported":1728079726,"current_range_meters":37600,"station_id":"ce4bgt92rcd13ifvqcf0","pricing_plan_id":"cebpf4jnsgd1na2vs0mg"},{"bike_id":"6a4b0bea-a36c-4e34-8edb-b3ea3c6da77f","system_id":"levelo_inurba_marseille","lat":43.25117,"lon":5.4032,"is_reserved":false,"is_disabled":false,"rental_uris":{"android":"levelo://app?vid=6a4b0bea-a36c-4e34-8edb-b3ea3c6da77f","ios":"levelo://app?vid=6a4b0bea-a36c-4e34-8edb-b3ea3c6da77f"},"vehicle_type_id":"4","last_reported":1728079726,"current_range_meters":25200,"station_id":"ce4bhlh2rcd13ifvqgig","pricing_plan_id":"cebpf4jnsgd1na2vs0mg"},{"bike_id":"7915b3d9-3a0f-47f7-b1c0-ba6cdbec88a4","system_id":"levelo_inurba_marseille","lat":43.27812,"lon":5.40713,"is_reserved":false,"is_disabled":false,"rental_uris":{"android":"levelo://app?vid=7915b3d9-3a0f-47f7-b1c0-ba6cdbec88a4","ios":"levelo://app?vid=7915b3d9-3a0f-47f7-b1c0-ba6cdbec88a4"},"vehicle_type_id":"4","last_reported":1728079726,"current_range_meters":24400,"station_id":"ce4bhnh2rcd13ifvqgtg","pricing_plan_id":"cebpf4jnsgd1na2vs0mg"},{"bike_id":"149df3d4-2bac-4b47-b0b0-caa020d5e1f5","system_id":"levelo_inurba_marseille","lat":43.2293,"lon":5.35379,"is_reserved":false,"is_disabled":false,"rental_uris":{"android":"levelo://app?vid=149df3d4-2bac-4b47-b0b0-caa020d5e1f5","ios":"levelo://app?vid=149df3d4-2bac-4b47-b0b0-caa020d5e1f5"},"vehicle_type_id":"4","last_reported":1728079726,"current_range_meters":18000,"station_id":"cpo3532slgdg3j2ikp40","pricing_plan_id":"cebpf4jnsgd1na2vs0mg"},{"bike_id":"6a9c234c-0182-45bc-919f-a39fc92c26eb","system_id":"levelo_inurba_marseille","lat":43.30182,"lon":5.36618,"is_reserved":false,"is_disabled":false,"rental_uris":{"android":"levelo://app?vid=6a9c234c-0182-45bc-919f-a39fc92c26eb","ios":"levelo://app?vid=6a9c234c-0182-45bc-919f-a39fc92c26eb"},"vehicle_type_id":"4","last_reported":1728079726,"current_range_meters":39200,"station_id":"ce4bgrh2rcd13ifvqc8g","pricing_plan_id":"cebpf4jnsgd1na2vs0mg"},{"bike_id":"77c59eab-5250-44c4-be86-099c0defe9c4","system_id":"levelo_inurba_marseille","lat":43.33751,"lon":5.37457,"is_reserved":false,"is_disabled":false,"rental_uris":{"android":"levelo://app?vid=77c59eab-5250-44c4-be86-099c0defe9c4","ios":"levelo://app?vid=77c59eab-5250-44c4-be86-099c0defe9c4"},"vehicle_type_id":"4","last_reported":1728079726,"current_range_meters":28800,"station_id":"","pricing_plan_id":"cebpf4jnsgd1na2vs0mg"},{"bike_id":"bb915d33-cf6f-4eb4-af8e-51267873ce7e","system_id":"levelo_inurba_marseille","lat":43.30811,"lon":5.3815,"is_reserved":false,"is_disabled":false,"rental_uris":{"android":"levelo://app?vid=bb915d33-cf6f-4eb4-af8e-51267873ce7e","ios":"levelo://app?vid=bb915d33-cf6f-4eb4-af8e-51267873ce7e"},"vehicle_type_id":"4","last_reported":1728079726,"current_range_meters":36800,"station_id":"ce4bgt12rcd13ifvqce0","pricing_plan_id":"cebpf4jnsgd1na2vs0mg"},{"bike_id":"655c7a70-a9e9-4bdb-90df-3dd326718d46","system_id":"levelo_inurba_marseille","lat":43.24665,"lon":5.38163,"is_reserved":false,"is_disabled":false,"rental_uris":{"android":"levelo://app?vid=655c7a70-a9e9-4bdb-90df-3dd326718d46","ios":"levelo://app?vid=655c7a70-a9e9-4bdb-90df-3dd326718d46"},"vehicle_type_id":"4","last_reported":1728079726,"current_range_meters":24400,"station_id":"ce4bhih2rcd13ifvqfr0","pricing_plan_id":"cebpf4jnsgd1na2vs0mg"},{"bike_id":"6e4404fe-9f2c-4094-b7ac-6438d3421190","system_id":"levelo_inurba_marseille","lat":43.25822,"lon":5.39425,"is_reserved":false,"is_disabled":false,"rental_uris":{"android":"levelo://app?vid=6e4404fe-9f2c-4094-b7ac-6438d3421190","ios":"levelo://app?vid=6e4404fe-9f2c-4094-b7ac-6438d3421190"},"vehicle_type_id":"4","last_reported":1728079726,"current_range_meters":40000,"station_id":"ce4bhip2rcd13ifvqft0","pricing_plan_id":"cebpf4jnsgd1na2vs0mg"},{"bike_id":"84b07b81-8a90-4e9c-96ec-461a75726f5b","system_id":"levelo_inurba_marseille","lat":43.32013,"lon":5.38168,"is_reserved":false,"is_disabled":false,"rental_uris":{"android":"levelo://app?vid=84b07b81-8a90-4e9c-96ec-461a75726f5b","ios":"levelo://app?vid=84b07b81-8a90-4e9c-96ec-461a75726f5b"},"vehicle_type_id":"4","last_reported":1728079726,"current_range_meters":9200,"station_id":"ce4bhr12rcd13ifvqhpg","pricing_plan_id":"cebpf4jnsgd1na2vs0mg"},{"bike_id":"d3831008-2e40-49ed-9feb-19f1d9f96d9c","system_id":"levelo_inurba_marseille","lat":43.31177,"lon":5.3871,"is_reserved":false,"is_disabled":false,"rental_uris":{"android":"levelo://app?vid=d3831008-2e40-49ed-9feb-19f1d9f96d9c","ios":"levelo://app?vid=d3831008-2e40-49ed-9feb-19f1d9f96d9c"},"vehicle_type_id":"4","last_reported":1728079726,"current_range_meters":23200,"station_id":"ce4bgv12rcd13ifvqcp0","pricing_plan_id":"cebpf4jnsgd1na2vs0mg"},{"bike_id":"66abda2b-1382-4853-b1f1-dd71ae8ab888","system_id":"levelo_inurba_marseille","lat":43.30805,"lon":5.38145,"is_reserved":false,"is_disabled":false,"rental_uris":{"android":"levelo://app?vid=66abda2b-1382-4853-b1f1-dd71ae8ab888","ios":"levelo://app?vid=66abda2b-1382-4853-b1f1-dd71ae8ab888"},"vehicle_type_id":"4","last_reported":1728079726,"current_range_meters":39200,"station_id":"ce4bgt12rcd13ifvqce0","pricing_plan_id":"cebpf4jnsgd1na2vs0mg"},{"bike_id":"32ceac28-dacd-4d4c-9c55-d75f7e6d1aa1","system_id":"levelo_inurba_marseille","lat":43.30802,"lon":5.43519,"is_reserved":false,"is_disabled":false,"rental_uris":{"android":"levelo://app?vid=32ceac28-dacd-4d4c-9c55-d75f7e6d1aa1","ios":"levelo://app?vid=32ceac28-dacd-4d4c-9c55-d75f7e6d1aa1"},"vehicle_type_id":"4","last_reported":1728079726,"current_range_meters":12800,"station_id":"ce4bhph2rcd13ifvqheg","pricing_plan_id":"cebpf4jnsgd1na2vs0mg"},{"bike_id":"e7812633-fd48-4025-9aac-6b4c090c3a86","system_id":"levelo_inurba_marseille","lat":43.29039,"lon":5.35915,"is_reserved":false,"is_disabled":false,"rental_uris":{"android":"levelo://app?vid=e7812633-fd48-4025-9aac-6b4c090c3a86","ios":"levelo://app?vid=e7812633-fd48-4025-9aac-6b4c090c3a86"},"vehicle_type_id":"4","last_reported":1728079726,"current_range_meters":9600,"station_id":"ce4bha92rcd13ifvqeg0","pricing_plan_id":"cebpf4jnsgd1na2vs0mg"},{"bike_id":"3e0ada6c-630f-49c5-bd04-c47d3b9da6d5","system_id":"levelo_inurba_marseille","lat":43.2707,"lon":5.42279,"is_reserved":false,"is_disabled":false,"rental_uris":{"android":"levelo://app?vid=3e0ada6c-630f-49c5-bd04-c47d3b9da6d5","ios":"levelo://app?vid=3e0ada6c-630f-49c5-bd04-c47d3b9da6d5"},"vehicle_type_id":"4","last_reported":1728079726,"current_range_meters":32000,"station_id":"ce4bhk92rcd13ifvqgb0","pricing_plan_id":"cebpf4jnsgd1na2vs0mg"},{"bike_id":"99198af3-abe6-4f8c-82f0-757453242f24","system_id":"levelo_inurba_marseille","lat":43.30324,"lon":5.40432,"is_reserved":false,"is_disabled":false,"rental_uris":{"android":"levelo://app?vid=99198af3-abe6-4f8c-82f0-757453242f24","ios":"levelo://app?vid=99198af3-abe6-4f8c-82f0-757453242f24"},"vehicle_type_id":"4","last_reported":1728079726,"current_range_meters":7200,"station_id":"ce4bh012rcd13ifvqd10","pricing_plan_id":"cebpf4jnsgd1na2vs0mg"},{"bike_id":"b417a8d0-1fac-4a2b-9294-35cea48e57c1","system_id":"levelo_inurba_marseille","lat":43.33026,"lon":5.3905,"is_reserved":false,"is_disabled":false,"rental_uris":{"android":"levelo://app?vid=b417a8d0-1fac-4a2b-9294-35cea48e57c1","ios":"levelo://app?vid=b417a8d0-1fac-4a2b-9294-35cea48e57c1"},"vehicle_type_id":"4","last_reported":1728079726,"current_range_meters":29600,"station_id":"ce4bhr92rcd13ifvqhrg","pricing_plan_id":"cebpf4jnsgd1na2vs0mg"},{"bike_id":"a02a935a-10a8-46de-bf61-e6f06b368e7d","system_id":"levelo_inurba_marseille","lat":43.29558,"lon":5.42286,"is_reserved":false,"is_disabled":false,"rental_uris":{"android":"levelo://app?vid=a02a935a-10a8-46de-bf61-e6f06b368e7d","ios":"levelo://app?vid=a02a935a-10a8-46de-bf61-e6f06b368e7d"},"vehicle_type_id":"4","last_reported":1728079726,"current_range_meters":9600,"station_id":"ce4bhph2rcd13ifvqhdg","pricing_plan_id":"cebpf4jnsgd1na2vs0mg"},{"bike_id":"2a4aa957-1894-4a67-8120-7c17092fc1a3","system_id":"levelo_inurba_marseille","lat":43.27978,"lon":5.41676,"is_reserved":false,"is_disabled":false,"rental_uris":{"android":"levelo://app?vid=2a4aa957-1894-4a67-8120-7c17092fc1a3","ios":"levelo://app?vid=2a4aa957-1894-4a67-8120-7c17092fc1a3"},"vehicle_type_id":"4","last_reported":1728079726,"current_range_meters":12400,"station_id":"","pricing_plan_id":"cebpf4jnsgd1na2vs0mg"},{"bike_id":"d217497d-1510-4778-9b96-28eea513fd88","system_id":"levelo_inurba_marseille","lat":43.24662,"lon":5.3817,"is_reserved":false,"is_disabled":false,"rental_uris":{"android":"levelo://app?vid=d217497d-1510-4778-9b96-28eea513fd88","ios":"levelo://app?vid=d217497d-1510-4778-9b96-28eea513fd88"},"vehicle_type_id":"4","last_reported":1728079726,"current_range_meters":24000,"station_id":"ce4bhih2rcd13ifvqfr0","pricing_plan_id":"cebpf4jnsgd1na2vs0mg"},{"bike_id":"49de90c0-55ec-465f-9634-cca22de14fd6","system_id":"levelo_inurba_marseille","lat":43.30597,"lon":5.39351,"is_reserved":false,"is_disabled":false,"rental_uris":{"android":"levelo://app?vid=49de90c0-55ec-465f-9634-cca22de14fd6","ios":"levelo://app?vid=49de90c0-55ec-465f-9634-cca22de14fd6"},"vehicle_type_id":"4","last_reported":1728079726,"current_range_meters":38000,"station_id":"ce4bh0p2rcd13ifvqd80","pricing_plan_id":"cebpf4jnsgd1na2vs0mg"},{"bike_id":"fdfedb27-0d71-4488-8023-a13584ae499a","system_id":"levelo_inurba_marseille","lat":43.32104,"lon":5.3677,"is_reserved":false,"is_disabled":false,"rental_uris":{"android":"levelo://app?vid=fdfedb27-0d71-4488-8023-a13584ae499a","ios":"levelo://app?vid=fdfedb27-0d71-4488-8023-a13584ae499a"},"vehicle_type_id":"4","last_reported":1728079726,"current_range_meters":38000,"station_id":"ce4bhrh2rcd13ifvqhug","pricing_plan_id":"cebpf4jnsgd1na2vs0mg"},{"bike_id":"8e303be2-37fb-4902-a31e-04c22c3f9276","system_id":"levelo_inurba_marseille","lat":43.31327,"lon":5.39701,"is_reserved":false,"is_disabled":false,"rental_uris":{"android":"levelo://app?vid=8e303be2-37fb-4902-a31e-04c22c3f9276","ios":"levelo://app?vid=8e303be2-37fb-4902-a31e-04c22c3f9276"},"vehicle_type_id":"4","last_reported":1728079726,"current_range_meters":14400,"station_id":"ce4bgvp2rcd13ifvqcu0","pricing_plan_id":"cebpf4jnsgd1na2vs0mg"},{"bike_id":"8444ed0b-fdac-4648-a368-f82ca7e16cd9","system_id":"levelo_inurba_marseille","lat":43.25111,"lon":5.40324,"is_reserved":false,"is_disabled":false,"rental_uris":{"android":"levelo://app?vid=8444ed0b-fdac-4648-a368-f82ca7e16cd9","ios":"levelo://app?vid=8444ed0b-fdac-4648-a368-f82ca7e16cd9"},"vehicle_type_id":"4","last_reported":1728079726,"current_range_meters":6000,"station_id":"ce4bhlh2rcd13ifvqgig","pricing_plan_id":"cebpf4jnsgd1na2vs0mg"},{"bike_id":"aea3d640-79b2-4598-ab3c-1d3a183f1a2c","system_id":"levelo_inurba_marseille","lat":43.30952,"lon":5.39033,"is_reserved":false,"is_disabled":false,"rental_uris":{"android":"levelo://app?vid=aea3d640-79b2-4598-ab3c-1d3a183f1a2c","ios":"levelo://app?vid=aea3d640-79b2-4598-ab3c-1d3a183f1a2c"},"vehicle_type_id":"4","last_reported":1728079726,"current_range_meters":31200,"station_id":"ce4bgup2rcd13ifvqco0","pricing_plan_id":"cebpf4jnsgd1na2vs0mg"},{"bike_id":"d9513a24-3235-43a7-b9a5-1c5cfe37603f","system_id":"levelo_inurba_marseille","lat":43.23056,"lon":5.35493,"is_reserved":false,"is_disabled":false,"rental_uris":{"android":"levelo://app?vid=d9513a24-3235-43a7-b9a5-1c5cfe37603f","ios":"levelo://app?vid=d9513a24-3235-43a7-b9a5-1c5cfe37603f"},"vehicle_type_id":"4","last_reported":1728079726,"current_range_meters":24000,"station_id":"cpo3342slgdg3j2ifvpg","pricing_plan_id":"cebpf4jnsgd1na2vs0mg"},{"bike_id":"009d6d0e-c1a8-4ddc-b330-ebf04e9c45b9","system_id":"levelo_inurba_marseille","lat":43.299,"lon":5.43677,"is_reserved":false,"is_disabled":false,"rental_uris":{"android":"levelo://app?vid=009d6d0e-c1a8-4ddc-b330-ebf04e9c45b9","ios":"levelo://app?vid=009d6d0e-c1a8-4ddc-b330-ebf04e9c45b9"},"vehicle_type_id":"4","last_reported":1728079726,"current_range_meters":24800,"station_id":"ce4bhpp2rcd13ifvqhfg","pricing_plan_id":"cebpf4jnsgd1na2vs0mg"},{"bike_id":"eb535a80-2109-432f-99be-98ec5f17543d","system_id":"levelo_inurba_marseille","lat":43.2738,"lon":5.36233,"is_reserved":false,"is_disabled":false,"rental_uris":{"android":"levelo://app?vid=eb535a80-2109-432f-99be-98ec5f17543d","ios":"levelo://app?vid=eb535a80-2109-432f-99be-98ec5f17543d"},"vehicle_type_id":"4","last_reported":1728079726,"current_range_meters":36000,"station_id":"ce4bhbh2rcd13ifvqeo0","pricing_plan_id":"cebpf4jnsgd1na2vs0mg"},{"bike_id":"d0898481-3578-40b2-9add-8b714658de6d","system_id":"levelo_inurba_marseille","lat":43.28152,"lon":5.42644,"is_reserved":false,"is_disabled":false,"rental_uris":{"android":"levelo://app?vid=d0898481-3578-40b2-9add-8b714658de6d","ios":"levelo://app?vid=d0898481-3578-40b2-9add-8b714658de6d"},"vehicle_type_id":"4","last_reported":1728079726,"current_range_meters":30000,"station_id":"ce4bhnh2rcd13ifvqgug","pricing_plan_id":"cebpf4jnsgd1na2vs0mg"},{"bike_id":"9c2ed353-e0c3-4e49-ae26-291d7de7b953","system_id":"levelo_inurba_marseille","lat":43.30286,"lon":5.37691,"is_reserved":false,"is_disabled":false,"rental_uris":{"android":"levelo://app?vid=9c2ed353-e0c3-4e49-ae26-291d7de7b953","ios":"levelo://app?vid=9c2ed353-e0c3-4e49-ae26-291d7de7b953"},"vehicle_type_id":"4","last_reported":1728079726,"current_range_meters":35600,"station_id":"ce4bguh2rcd13ifvqcj0","pricing_plan_id":"cebpf4jnsgd1na2vs0mg"},{"bike_id":"4e0c83a2-b0c3-4894-8559-e509681998d3","system_id":"levelo_inurba_marseille","lat":43.31109,"lon":5.3832,"is_reserved":false,"is_disabled":false,"rental_uris":{"android":"levelo://app?vid=4e0c83a2-b0c3-4894-8559-e509681998d3","ios":"levelo://app?vid=4e0c83a2-b0c3-4894-8559-e509681998d3"},"vehicle_type_id":"4","last_reported":1728079726,"current_range_meters":20000,"station_id":"ce4bgv92rcd13ifvqcr0","pricing_plan_id":"cebpf4jnsgd1na2vs0mg"},{"bike_id":"c2f21302-0bda-4485-a5df-98d1ef9f2991","system_id":"levelo_inurba_marseille","lat":43.23945,"lon":5.3829,"is_reserved":false,"is_disabled":false,"rental_uris":{"android":"levelo://app?vid=c2f21302-0bda-4485-a5df-98d1ef9f2991","ios":"levelo://app?vid=c2f21302-0bda-4485-a5df-98d1ef9f2991"},"vehicle_type_id":"4","last_reported":1728079726,"current_range_meters":10000,"station_id":"","pricing_plan_id":"cebpf4jnsgd1na2vs0mg"},{"bike_id":"46fc9234-c13b-49a3-8cc2-6ac2e6c9ad97","system_id":"levelo_inurba_marseille","lat":43.31486,"lon":5.37309,"is_reserved":false,"is_disabled":false,"rental_uris":{"android":"levelo://app?vid=46fc9234-c13b-49a3-8cc2-6ac2e6c9ad97","ios":"levelo://app?vid=46fc9234-c13b-49a3-8cc2-6ac2e6c9ad97"},"vehicle_type_id":"4","last_reported":1728079726,"current_range_meters":11200,"station_id":"ce4bgt12rcd13ifvqcd0","pricing_plan_id":"cebpf4jnsgd1na2vs0mg"},{"bike_id":"2e0c5314-cd4b-4635-a356-5dee48587906","system_id":"levelo_inurba_marseille","lat":43.31116,"lon":5.37778,"is_reserved":false,"is_disabled":false,"rental_uris":{"android":"levelo://app?vid=2e0c5314-cd4b-4635-a356-5dee48587906","ios":"levelo://app?vid=2e0c5314-cd4b-4635-a356-5dee48587906"},"vehicle_type_id":"4","last_reported":1728079726,"current_range_meters":38800,"station_id":"ce4bgt92rcd13ifvqcg0","pricing_plan_id":"cebpf4jnsgd1na2vs0mg"},{"bike_id":"61537623-d7da-4711-9110-514752c5c1a4","system_id":"levelo_inurba_marseille","lat":43.25117,"lon":5.4032,"is_reserved":false,"is_disabled":false,"rental_uris":{"android":"levelo://app?vid=61537623-d7da-4711-9110-514752c5c1a4","ios":"levelo://app?vid=61537623-d7da-4711-9110-514752c5c1a4"},"vehicle_type_id":"4","last_reported":1728079726,"current_range_meters":11200,"station_id":"ce4bhlh2rcd13ifvqgig","pricing_plan_id":"cebpf4jnsgd1na2vs0mg"},{"bike_id":"745956e2-85a4-4e28-8a9f-f9dc9abb062e","system_id":"levelo_inurba_marseille","lat":43.28789,"lon":5.37363,"is_reserved":false,"is_disabled":false,"rental_uris":{"android":"levelo://app?vid=745956e2-85a4-4e28-8a9f-f9dc9abb062e","ios":"levelo://app?vid=745956e2-85a4-4e28-8a9f-f9dc9abb062e"},"vehicle_type_id":"4","last_reported":1728079726,"current_range_meters":35600,"station_id":"","pricing_plan_id":"cebpf4jnsgd1na2vs0mg"},{"bike_id":"aa6ea80f-d3cc-43e6-a69f-38faa11735ba","system_id":"levelo_inurba_marseille","lat":43.23963,"lon":5.36646,"is_reserved":false,"is_disabled":false,"rental_uris":{"android":"levelo://app?vid=aa6ea80f-d3cc-43e6-a69f-38faa11735ba","ios":"levelo://app?vid=aa6ea80f-d3cc-43e6-a69f-38faa11735ba"},"vehicle_type_id":"4","last_reported":1728079726,"current_range_meters":39200,"station_id":"ce4bhi12rcd13ifvqfp0","pricing_plan_id":"cebpf4jnsgd1na2vs0mg"},{"bike_id":"ce9d16b3-ff92-4cc9-8c9e-41a4cf7a261e","system_id":"levelo_inurba_marseille","lat":43.29882,"lon":5.39718,"is_reserved":false,"is_disabled":false,"rental_uris":{"android":"levelo://app?vid=ce9d16b3-ff92-4cc9-8c9e-41a4cf7a261e","ios":"levelo://app?vid=ce9d16b3-ff92-4cc9-8c9e-41a4cf7a261e"},"vehicle_type_id":"4","last_reported":1728079726,"current_range_meters":4400,"station_id":"ce4bh0h2rcd13ifvqd50","pricing_plan_id":"cebpf4jnsgd1na2vs0mg"},{"bike_id":"61c19b5c-5cda-4ef6-b96c-f1f7b54749b6","system_id":"levelo_inurba_marseille","lat":43.29905,"lon":5.37474,"is_reserved":false,"is_disabled":false,"rental_uris":{"android":"levelo://app?vid=61c19b5c-5cda-4ef6-b96c-f1f7b54749b6","ios":"levelo://app?vid=61c19b5c-5cda-4ef6-b96c-f1f7b54749b6"},"vehicle_type_id":"4","last_reported":1728079726,"current_range_meters":30000,"station_id":"ce4bgjh2rcd13ifvqbg0","pricing_plan_id":"cebpf4jnsgd1na2vs0mg"},{"bike_id":"d054fab0-6a9a-4a13-8a72-8f548595cf1c","system_id":"levelo_inurba_marseille","lat":43.31539,"lon":5.380322,"is_reserved":false,"is_disabled":false,"rental_uris":{"android":"levelo://app?vid=d054fab0-6a9a-4a13-8a72-8f548595cf1c","ios":"levelo://app?vid=d054fab0-6a9a-4a13-8a72-8f548595cf1c"},"vehicle_type_id":"4","last_reported":1728079726,"current_range_meters":36800,"station_id":"ce4bhsp2rcd13ifvqi50","pricing_plan_id":"cebpf4jnsgd1na2vs0mg"},{"bike_id":"10bf43ce-7e3a-4fca-bf40-b7eb5fa4925c","system_id":"levelo_inurba_marseille","lat":43.33608,"lon":5.41032,"is_reserved":false,"is_disabled":false,"rental_uris":{"android":"levelo://app?vid=10bf43ce-7e3a-4fca-bf40-b7eb5fa4925c","ios":"levelo://app?vid=10bf43ce-7e3a-4fca-bf40-b7eb5fa4925c"},"vehicle_type_id":"4","last_reported":1728079726,"current_range_meters":12800,"station_id":"ce4bhqh2rcd13ifvqhmg","pricing_plan_id":"cebpf4jnsgd1na2vs0mg"},{"bike_id":"6883f550-8994-41a9-850c-a795a1521786","system_id":"levelo_inurba_marseille","lat":43.29533,"lon":5.38559,"is_reserved":false,"is_disabled":false,"rental_uris":{"android":"levelo://app?vid=6883f550-8994-41a9-850c-a795a1521786","ios":"levelo://app?vid=6883f550-8994-41a9-850c-a795a1521786"},"vehicle_type_id":"4","last_reported":1728079726,"current_range_meters":38800,"station_id":"ce4bh3h2rcd13ifvqdo0","pricing_plan_id":"cebpf4jnsgd1na2vs0mg"},{"bike_id":"ed4aa36f-2130-4721-b127-a9963153fa74","system_id":"levelo_inurba_marseille","lat":43.28705,"lon":5.37395,"is_reserved":false,"is_disabled":false,"rental_uris":{"android":"levelo://app?vid=ed4aa36f-2130-4721-b127-a9963153fa74","ios":"levelo://app?vid=ed4aa36f-2130-4721-b127-a9963153fa74"},"vehicle_type_id":"4","last_reported":1728079726,"current_range_meters":32400,"station_id":"ce4bh3p2rcd13ifvqdq0","pricing_plan_id":"cebpf4jnsgd1na2vs0mg"},{"bike_id":"bdefae95-7cc5-4880-bfcb-b1af39586be0","system_id":"levelo_inurba_marseille","lat":43.32664,"lon":5.40985,"is_reserved":false,"is_disabled":false,"rental_uris":{"android":"levelo://app?vid=bdefae95-7cc5-4880-bfcb-b1af39586be0","ios":"levelo://app?vid=bdefae95-7cc5-4880-bfcb-b1af39586be0"},"vehicle_type_id":"4","last_reported":1728079726,"current_range_meters":40000,"station_id":"ce4bhpp2rcd13ifvqhgg","pricing_plan_id":"cebpf4jnsgd1na2vs0mg"},{"bike_id":"d5797860-4a9e-4832-898f-167797dcf352","system_id":"levelo_inurba_marseille","lat":43.30887,"lon":5.37191,"is_reserved":false,"is_disabled":false,"rental_uris":{"android":"levelo://app?vid=d5797860-4a9e-4832-898f-167797dcf352","ios":"levelo://app?vid=d5797860-4a9e-4832-898f-167797dcf352"},"vehicle_type_id":"4","last_reported":1728079726,"current_range_meters":12000,"station_id":"ce4bguh2rcd13ifvqckg","pricing_plan_id":"cebpf4jnsgd1na2vs0mg"},{"bike_id":"6f837aaa-55c1-49e4-a055-9f731cbbbe46","system_id":"levelo_inurba_marseille","lat":43.29622,"lon":5.3716,"is_reserved":false,"is_disabled":false,"rental_uris":{"android":"levelo://app?vid=6f837aaa-55c1-49e4-a055-9f731cbbbe46","ios":"levelo://app?vid=6f837aaa-55c1-49e4-a055-9f731cbbbe46"},"vehicle_type_id":"4","last_reported":1728079726,"current_range_meters":37600,"station_id":"ce4bgnh2rcd13ifvqc0g","pricing_plan_id":"cebpf4jnsgd1na2vs0mg"},{"bike_id":"c34ce5f2-7d94-4d45-be97-91e82089085e","system_id":"levelo_inurba_marseille","lat":43.31529,"lon":5.38036,"is_reserved":false,"is_disabled":false,"rental_uris":{"android":"levelo://app?vid=c34ce5f2-7d94-4d45-be97-91e82089085e","ios":"levelo://app?vid=c34ce5f2-7d94-4d45-be97-91e82089085e"},"vehicle_type_id":"4","last_reported":1728079726,"current_range_meters":38000,"station_id":"ce4bhsp2rcd13ifvqi50","pricing_plan_id":"cebpf4jnsgd1na2vs0mg"},{"bike_id":"eda7fe5c-4a27-4c4a-8143-930384eaf68e","system_id":"levelo_inurba_marseille","lat":43.30586,"lon":5.39354,"is_reserved":false,"is_disabled":false,"rental_uris":{"android":"levelo://app?vid=eda7fe5c-4a27-4c4a-8143-930384eaf68e","ios":"levelo://app?vid=eda7fe5c-4a27-4c4a-8143-930384eaf68e"},"vehicle_type_id":"4","last_reported":1728079726,"current_range_meters":2000,"station_id":"ce4bh0p2rcd13ifvqd80","pricing_plan_id":"cebpf4jnsgd1na2vs0mg"},{"bike_id":"1e9e701f-fb8e-430e-be7f-54907f1b9076","system_id":"levelo_inurba_marseille","lat":43.33023,"lon":5.39043,"is_reserved":false,"is_disabled":false,"rental_uris":{"android":"levelo://app?vid=1e9e701f-fb8e-430e-be7f-54907f1b9076","ios":"levelo://app?vid=1e9e701f-fb8e-430e-be7f-54907f1b9076"},"vehicle_type_id":"4","last_reported":1728079726,"current_range_meters":22000,"station_id":"ce4bhr92rcd13ifvqhrg","pricing_plan_id":"cebpf4jnsgd1na2vs0mg"},{"bike_id":"26f290bb-1447-4f43-ab6d-1590e2a06a4b","system_id":"levelo_inurba_marseille","lat":43.31462,"lon":5.37381,"is_reserved":false,"is_disabled":false,"rental_uris":{"android":"levelo://app?vid=26f290bb-1447-4f43-ab6d-1590e2a06a4b","ios":"levelo://app?vid=26f290bb-1447-4f43-ab6d-1590e2a06a4b"},"vehicle_type_id":"4","last_reported":1728079726,"current_range_meters":37600,"station_id":"ce4bgt12rcd13ifvqcd0","pricing_plan_id":"cebpf4jnsgd1na2vs0mg"},{"bike_id":"963c6083-dd9e-4a39-8923-bb98784ba268","system_id":"levelo_inurba_marseille","lat":43.28717,"lon":5.3793,"is_reserved":false,"is_disabled":false,"rental_uris":{"android":"levelo://app?vid=963c6083-dd9e-4a39-8923-bb98784ba268","ios":"levelo://app?vid=963c6083-dd9e-4a39-8923-bb98784ba268"},"vehicle_type_id":"4","last_reported":1728079726,"current_range_meters":22800,"station_id":"ce4bh9p2rcd13ifvqec0","pricing_plan_id":"cebpf4jnsgd1na2vs0mg"},{"bike_id":"e0a07a08-8ace-4a01-b000-9c812c1d132e","system_id":"levelo_inurba_marseille","lat":43.31538,"lon":5.38043,"is_reserved":false,"is_disabled":false,"rental_uris":{"android":"levelo://app?vid=e0a07a08-8ace-4a01-b000-9c812c1d132e","ios":"levelo://app?vid=e0a07a08-8ace-4a01-b000-9c812c1d132e"},"vehicle_type_id":"4","last_reported":1728079726,"current_range_meters":7200,"station_id":"ce4bhsp2rcd13ifvqi50","pricing_plan_id":"cebpf4jnsgd1na2vs0mg"},{"bike_id":"a1c36e90-d938-4845-ab25-edfddd38bab7","system_id":"levelo_inurba_marseille","lat":43.30935,"lon":5.40145,"is_reserved":false,"is_disabled":false,"rental_uris":{"android":"levelo://app?vid=a1c36e90-d938-4845-ab25-edfddd38bab7","ios":"levelo://app?vid=a1c36e90-d938-4845-ab25-edfddd38bab7"},"vehicle_type_id":"4","last_reported":1728079726,"current_range_meters":28400,"station_id":"ce4bgvp2rcd13ifvqct0","pricing_plan_id":"cebpf4jnsgd1na2vs0mg"},{"bike_id":"e2b62f7b-f163-4ce0-a035-e5fe5a9f421d","system_id":"levelo_inurba_marseille","lat":43.2804,"lon":5.36937,"is_reserved":false,"is_disabled":false,"rental_uris":{"android":"levelo://app?vid=e2b62f7b-f163-4ce0-a035-e5fe5a9f421d","ios":"levelo://app?vid=e2b62f7b-f163-4ce0-a035-e5fe5a9f421d"},"vehicle_type_id":"4","last_reported":1728079726,"current_range_meters":10800,"station_id":"ce4bha12rcd13ifvqef0","pricing_plan_id":"cebpf4jnsgd1na2vs0mg"},{"bike_id":"15907423-e2e0-4eaf-80aa-cddbb7684b5b","system_id":"levelo_inurba_marseille","lat":43.29802,"lon":5.40409,"is_reserved":false,"is_disabled":false,"rental_uris":{"android":"levelo://app?vid=15907423-e2e0-4eaf-80aa-cddbb7684b5b","ios":"levelo://app?vid=15907423-e2e0-4eaf-80aa-cddbb7684b5b"},"vehicle_type_id":"4","last_reported":1728079726,"current_range_meters":12800,"station_id":"ce4bh112rcd13ifvqd90","pricing_plan_id":"cebpf4jnsgd1na2vs0mg"},{"bike_id":"fe894fa8-2950-42c3-b21f-a384c41b699b","system_id":"levelo_inurba_marseille","lat":43.31716,"lon":5.4371,"is_reserved":false,"is_disabled":false,"rental_uris":{"android":"levelo://app?vid=fe894fa8-2950-42c3-b21f-a384c41b699b","ios":"levelo://app?vid=fe894fa8-2950-42c3-b21f-a384c41b699b"},"vehicle_type_id":"4","last_reported":1728079726,"current_range_meters":27600,"station_id":"ce4bhp92rcd13ifvqhcg","pricing_plan_id":"cebpf4jnsgd1na2vs0mg"},{"bike_id":"5b0a6d7f-c426-454a-82ad-28e2608bee63","system_id":"levelo_inurba_marseille","lat":43.32299,"lon":5.38664,"is_reserved":false,"is_disabled":false,"rental_uris":{"android":"levelo://app?vid=5b0a6d7f-c426-454a-82ad-28e2608bee63","ios":"levelo://app?vid=5b0a6d7f-c426-454a-82ad-28e2608bee63"},"vehicle_type_id":"4","last_reported":1728079726,"current_range_meters":24800,"station_id":"","pricing_plan_id":"cebpf4jnsgd1na2vs0mg"},{"bike_id":"4de60834-d192-45cc-9f41-15893aad862d","system_id":"levelo_inurba_marseille","lat":43.28858,"lon":5.35864,"is_reserved":false,"is_disabled":false,"rental_uris":{"android":"levelo://app?vid=4de60834-d192-45cc-9f41-15893aad862d","ios":"levelo://app?vid=4de60834-d192-45cc-9f41-15893aad862d"},"vehicle_type_id":"4","last_reported":1728079726,"current_range_meters":35600,"station_id":"ce4bhb12rcd13ifvqem0","pricing_plan_id":"cebpf4jnsgd1na2vs0mg"},{"bike_id":"5cbc9e7e-36a4-4ee2-9b2e-b9b518fe7f8a","system_id":"levelo_inurba_marseille","lat":43.31717,"lon":5.43711,"is_reserved":false,"is_disabled":false,"rental_uris":{"android":"levelo://app?vid=5cbc9e7e-36a4-4ee2-9b2e-b9b518fe7f8a","ios":"levelo://app?vid=5cbc9e7e-36a4-4ee2-9b2e-b9b518fe7f8a"},"vehicle_type_id":"4","last_reported":1728079726,"current_range_meters":38800,"station_id":"ce4bhp92rcd13ifvqhcg","pricing_plan_id":"cebpf4jnsgd1na2vs0mg"},{"bike_id":"02ce21ed-3847-40cd-9cc1-a0519369f558","system_id":"levelo_inurba_marseille","lat":43.2841,"lon":5.37507,"is_reserved":false,"is_disabled":false,"rental_uris":{"android":"levelo://app?vid=02ce21ed-3847-40cd-9cc1-a0519369f558","ios":"levelo://app?vid=02ce21ed-3847-40cd-9cc1-a0519369f558"},"vehicle_type_id":"4","last_reported":1728079726,"current_range_meters":28400,"station_id":"ce4bh412rcd13ifvqds0","pricing_plan_id":"cebpf4jnsgd1na2vs0mg"},{"bike_id":"3c76bc3c-ba6b-497c-b639-532eac44bc71","system_id":"levelo_inurba_marseille","lat":43.32365,"lon":5.38892,"is_reserved":false,"is_disabled":false,"rental_uris":{"android":"levelo://app?vid=3c76bc3c-ba6b-497c-b639-532eac44bc71","ios":"levelo://app?vid=3c76bc3c-ba6b-497c-b639-532eac44bc71"},"vehicle_type_id":"4","last_reported":1728079726,"current_range_meters":9200,"station_id":"ce4bhqp2rcd13ifvqhog","pricing_plan_id":"cebpf4jnsgd1na2vs0mg"},{"bike_id":"0a5d7662-44ac-4d3b-8872-a58239f98f93","system_id":"levelo_inurba_marseille","lat":43.32112,"lon":5.36767,"is_reserved":false,"is_disabled":false,"rental_uris":{"android":"levelo://app?vid=0a5d7662-44ac-4d3b-8872-a58239f98f93","ios":"levelo://app?vid=0a5d7662-44ac-4d3b-8872-a58239f98f93"},"vehicle_type_id":"4","last_reported":1728079726,"current_range_meters":34000,"station_id":"ce4bhrh2rcd13ifvqhug","pricing_plan_id":"cebpf4jnsgd1na2vs0mg"},{"bike_id":"19c2c618-2c07-48c7-a973-23612d81f7df","system_id":"levelo_inurba_marseille","lat":43.25832,"lon":5.39426,"is_reserved":false,"is_disabled":false,"rental_uris":{"android":"levelo://app?vid=19c2c618-2c07-48c7-a973-23612d81f7df","ios":"levelo://app?vid=19c2c618-2c07-48c7-a973-23612d81f7df"},"vehicle_type_id":"4","last_reported":1728079726,"current_range_meters":38800,"station_id":"ce4bhip2rcd13ifvqft0","pricing_plan_id":"cebpf4jnsgd1na2vs0mg"},{"bike_id":"666bc129-da48-43b6-859c-bfc1c5948593","system_id":"levelo_inurba_marseille","lat":43.31642,"lon":5.38329,"is_reserved":false,"is_disabled":false,"rental_uris":{"android":"levelo://app?vid=666bc129-da48-43b6-859c-bfc1c5948593","ios":"levelo://app?vid=666bc129-da48-43b6-859c-bfc1c5948593"},"vehicle_type_id":"4","last_reported":1728079726,"current_range_meters":31200,"station_id":"","pricing_plan_id":"cebpf4jnsgd1na2vs0mg"},{"bike_id":"c9de30fa-5cb5-4fd9-9ea9-1f9d62e20e62","system_id":"levelo_inurba_marseille","lat":43.314033,"lon":5.402779,"is_reserved":false,"is_disabled":false,"rental_uris":{"android":"levelo://app?vid=c9de30fa-5cb5-4fd9-9ea9-1f9d62e20e62","ios":"levelo://app?vid=c9de30fa-5cb5-4fd9-9ea9-1f9d62e20e62"},"vehicle_type_id":"4","last_reported":1728079726,"current_range_meters":11600,"station_id":"ce4bh092rcd13ifvqd30","pricing_plan_id":"cebpf4jnsgd1na2vs0mg"},{"bike_id":"3cf7d202-a4fb-496c-bc1d-a214862d864b","system_id":"levelo_inurba_marseille","lat":43.28707,"lon":5.39981,"is_reserved":false,"is_disabled":false,"rental_uris":{"android":"levelo://app?vid=3cf7d202-a4fb-496c-bc1d-a214862d864b","ios":"levelo://app?vid=3cf7d202-a4fb-496c-bc1d-a214862d864b"},"vehicle_type_id":"4","last_reported":1728079726,"current_range_meters":7200,"station_id":"ce4bho92rcd13ifvqh3g","pricing_plan_id":"cebpf4jnsgd1na2vs0mg"},{"bike_id":"573489e6-2cdf-4257-b279-a15a77ea34ba","system_id":"levelo_inurba_marseille","lat":43.29574,"lon":5.3998,"is_reserved":false,"is_disabled":false,"rental_uris":{"android":"levelo://app?vid=573489e6-2cdf-4257-b279-a15a77ea34ba","ios":"levelo://app?vid=573489e6-2cdf-4257-b279-a15a77ea34ba"},"vehicle_type_id":"4","last_reported":1728079726,"current_range_meters":6000,"station_id":"ce4bh312rcd13ifvqdj0","pricing_plan_id":"cebpf4jnsgd1na2vs0mg"},{"bike_id":"e3a55123-dd31-4c6a-9a44-7e5a51c0f0eb","system_id":"levelo_inurba_marseille","lat":43.25115,"lon":5.40318,"is_reserved":false,"is_disabled":false,"rental_uris":{"android":"levelo://app?vid=e3a55123-dd31-4c6a-9a44-7e5a51c0f0eb","ios":"levelo://app?vid=e3a55123-dd31-4c6a-9a44-7e5a51c0f0eb"},"vehicle_type_id":"4","last_reported":1728079726,"current_range_meters":7200,"station_id":"ce4bhlh2rcd13ifvqgig","pricing_plan_id":"cebpf4jnsgd1na2vs0mg"},{"bike_id":"b6a817d8-5787-46a3-898e-0b46c75fc481","system_id":"levelo_inurba_marseille","lat":43.32965,"lon":5.40344,"is_reserved":false,"is_disabled":false,"rental_uris":{"android":"levelo://app?vid=b6a817d8-5787-46a3-898e-0b46c75fc481","ios":"levelo://app?vid=b6a817d8-5787-46a3-898e-0b46c75fc481"},"vehicle_type_id":"4","last_reported":1728079726,"current_range_meters":8800,"station_id":"","pricing_plan_id":"cebpf4jnsgd1na2vs0mg"},{"bike_id":"a7094075-0769-4eb0-8ab5-844e93f33032","system_id":"levelo_inurba_marseille","lat":43.31068,"lon":5.3835,"is_reserved":false,"is_disabled":false,"rental_uris":{"android":"levelo://app?vid=a7094075-0769-4eb0-8ab5-844e93f33032","ios":"levelo://app?vid=a7094075-0769-4eb0-8ab5-844e93f33032"},"vehicle_type_id":"4","last_reported":1728079726,"current_range_meters":12000,"station_id":"ce4bgv92rcd13ifvqcr0","pricing_plan_id":"cebpf4jnsgd1na2vs0mg"},{"bike_id":"be9c2872-4b59-4bd2-9461-e45023d12436","system_id":"levelo_inurba_marseille","lat":43.29875,"lon":5.38914,"is_reserved":false,"is_disabled":false,"rental_uris":{"android":"levelo://app?vid=be9c2872-4b59-4bd2-9461-e45023d12436","ios":"levelo://app?vid=be9c2872-4b59-4bd2-9461-e45023d12436"},"vehicle_type_id":"4","last_reported":1728079726,"current_range_meters":39200,"station_id":"ce4bh392rcd13ifvqdl0","pricing_plan_id":"cebpf4jnsgd1na2vs0mg"},{"bike_id":"2729bd97-3161-4cc0-8ce5-2fbaf332608d","system_id":"levelo_inurba_marseille","lat":43.24544,"lon":5.39523,"is_reserved":false,"is_disabled":false,"rental_uris":{"android":"levelo://app?vid=2729bd97-3161-4cc0-8ce5-2fbaf332608d","ios":"levelo://app?vid=2729bd97-3161-4cc0-8ce5-2fbaf332608d"},"vehicle_type_id":"4","last_reported":1728079726,"current_range_meters":8400,"station_id":"ce4bhlp2rcd13ifvqgjg","pricing_plan_id":"cebpf4jnsgd1na2vs0mg"},{"bike_id":"e255c8a0-eac2-479c-a87c-ce62f641bfd8","system_id":"levelo_inurba_marseille","lat":43.291623,"lon":5.371499,"is_reserved":false,"is_disabled":false,"rental_uris":{"android":"levelo://app?vid=e255c8a0-eac2-479c-a87c-ce62f641bfd8","ios":"levelo://app?vid=e255c8a0-eac2-479c-a87c-ce62f641bfd8"},"vehicle_type_id":"4","last_reported":1728079726,"current_range_meters":32400,"station_id":"ce4bha92rcd13ifvqeh0","pricing_plan_id":"cebpf4jnsgd1na2vs0mg"},{"bike_id":"64bd957e-b978-44cb-a85c-928d627d24ec","system_id":"levelo_inurba_marseille","lat":43.35424,"lon":5.35869,"is_reserved":false,"is_disabled":false,"rental_uris":{"android":"levelo://app?vid=64bd957e-b978-44cb-a85c-928d627d24ec","ios":"levelo://app?vid=64bd957e-b978-44cb-a85c-928d627d24ec"},"vehicle_type_id":"4","last_reported":1728079726,"current_range_meters":10800,"station_id":"","pricing_plan_id":"cebpf4jnsgd1na2vs0mg"},{"bike_id":"5d27344c-48db-4143-abcc-d6fc82ce47ec","system_id":"levelo_inurba_marseille","lat":43.32494,"lon":5.36566,"is_reserved":false,"is_disabled":false,"rental_uris":{"android":"levelo://app?vid=5d27344c-48db-4143-abcc-d6fc82ce47ec","ios":"levelo://app?vid=5d27344c-48db-4143-abcc-d6fc82ce47ec"},"vehicle_type_id":"4","last_reported":1728079726,"current_range_meters":38000,"station_id":"ce4bhs12rcd13ifvqhvg","pricing_plan_id":"cebpf4jnsgd1na2vs0mg"},{"bike_id":"4a79b7f5-df06-47d9-894a-c23c245e5186","system_id":"levelo_inurba_marseille","lat":43.29562,"lon":5.42283,"is_reserved":false,"is_disabled":false,"rental_uris":{"android":"levelo://app?vid=4a79b7f5-df06-47d9-894a-c23c245e5186","ios":"levelo://app?vid=4a79b7f5-df06-47d9-894a-c23c245e5186"},"vehicle_type_id":"4","last_reported":1728079726,"current_range_meters":6400,"station_id":"ce4bhph2rcd13ifvqhdg","pricing_plan_id":"cebpf4jnsgd1na2vs0mg"},{"bike_id":"32242c56-871c-43e9-886b-ffb4c5d66c0e","system_id":"levelo_inurba_marseille","lat":43.25932,"lon":5.40915,"is_reserved":false,"is_disabled":false,"rental_uris":{"android":"levelo://app?vid=32242c56-871c-43e9-886b-ffb4c5d66c0e","ios":"levelo://app?vid=32242c56-871c-43e9-886b-ffb4c5d66c0e"},"vehicle_type_id":"4","last_reported":1728079726,"current_range_meters":15200,"station_id":"ce4bhm92rcd13ifvqglg","pricing_plan_id":"cebpf4jnsgd1na2vs0mg"},{"bike_id":"81fb961e-0945-4e06-9c01-7ed6f6abf5cb","system_id":"levelo_inurba_marseille","lat":43.30951,"lon":5.39028,"is_reserved":false,"is_disabled":false,"rental_uris":{"android":"levelo://app?vid=81fb961e-0945-4e06-9c01-7ed6f6abf5cb","ios":"levelo://app?vid=81fb961e-0945-4e06-9c01-7ed6f6abf5cb"},"vehicle_type_id":"4","last_reported":1728079726,"current_range_meters":39200,"station_id":"ce4bgup2rcd13ifvqco0","pricing_plan_id":"cebpf4jnsgd1na2vs0mg"},{"bike_id":"19dc696a-2df3-4720-928f-146a4ed17896","system_id":"levelo_inurba_marseille","lat":43.28157,"lon":5.42647,"is_reserved":false,"is_disabled":false,"rental_uris":{"android":"levelo://app?vid=19dc696a-2df3-4720-928f-146a4ed17896","ios":"levelo://app?vid=19dc696a-2df3-4720-928f-146a4ed17896"},"vehicle_type_id":"4","last_reported":1728079726,"current_range_meters":19200,"station_id":"ce4bhnh2rcd13ifvqgug","pricing_plan_id":"cebpf4jnsgd1na2vs0mg"},{"bike_id":"2e950194-819e-4a99-8754-4a359672fe16","system_id":"levelo_inurba_marseille","lat":43.28565,"lon":5.39499,"is_reserved":false,"is_disabled":false,"rental_uris":{"android":"levelo://app?vid=2e950194-819e-4a99-8754-4a359672fe16","ios":"levelo://app?vid=2e950194-819e-4a99-8754-4a359672fe16"},"vehicle_type_id":"4","last_reported":1728079726,"current_range_meters":4800,"station_id":"ce4bh292rcd13ifvqdg0","pricing_plan_id":"cebpf4jnsgd1na2vs0mg"},{"bike_id":"6d679b6b-38e0-4f37-8caf-d0dfb3677fc5","system_id":"levelo_inurba_marseille","lat":43.22939,"lon":5.35381,"is_reserved":false,"is_disabled":false,"rental_uris":{"android":"levelo://app?vid=6d679b6b-38e0-4f37-8caf-d0dfb3677fc5","ios":"levelo://app?vid=6d679b6b-38e0-4f37-8caf-d0dfb3677fc5"},"vehicle_type_id":"4","last_reported":1728079726,"current_range_meters":16400,"station_id":"cpo3532slgdg3j2ikp40","pricing_plan_id":"cebpf4jnsgd1na2vs0mg"},{"bike_id":"5305316b-eb43-43cb-bedf-3a735be36892","system_id":"levelo_inurba_marseille","lat":43.31712,"lon":5.43719,"is_reserved":false,"is_disabled":false,"rental_uris":{"android":"levelo://app?vid=5305316b-eb43-43cb-bedf-3a735be36892","ios":"levelo://app?vid=5305316b-eb43-43cb-bedf-3a735be36892"},"vehicle_type_id":"4","last_reported":1728079726,"current_range_meters":38800,"station_id":"ce4bhp92rcd13ifvqhcg","pricing_plan_id":"cebpf4jnsgd1na2vs0mg"},{"bike_id":"b251e820-f27e-4340-9ee4-ceb3b4cf32ed","system_id":"levelo_inurba_marseille","lat":43.2307,"lon":5.35484,"is_reserved":false,"is_disabled":false,"rental_uris":{"android":"levelo://app?vid=b251e820-f27e-4340-9ee4-ceb3b4cf32ed","ios":"levelo://app?vid=b251e820-f27e-4340-9ee4-ceb3b4cf32ed"},"vehicle_type_id":"4","last_reported":1728079726,"current_range_meters":25200,"station_id":"cpo3342slgdg3j2ifvpg","pricing_plan_id":"cebpf4jnsgd1na2vs0mg"},{"bike_id":"d0c99f10-b434-476e-a2c1-df744285748f","system_id":"levelo_inurba_marseille","lat":43.28103,"lon":5.37832,"is_reserved":false,"is_disabled":false,"rental_uris":{"android":"levelo://app?vid=d0c99f10-b434-476e-a2c1-df744285748f","ios":"levelo://app?vid=d0c99f10-b434-476e-a2c1-df744285748f"},"vehicle_type_id":"4","last_reported":1728079726,"current_range_meters":28000,"station_id":"ce4bha12rcd13ifvqee0","pricing_plan_id":"cebpf4jnsgd1na2vs0mg"},{"bike_id":"1df4a6b4-39e4-4279-8ea5-f5fb23e15a36","system_id":"levelo_inurba_marseille","lat":43.2926,"lon":5.40919,"is_reserved":false,"is_disabled":false,"rental_uris":{"android":"levelo://app?vid=1df4a6b4-39e4-4279-8ea5-f5fb23e15a36","ios":"levelo://app?vid=1df4a6b4-39e4-4279-8ea5-f5fb23e15a36"},"vehicle_type_id":"4","last_reported":1728079726,"current_range_meters":13600,"station_id":"ce4bh192rcd13ifvqdc0","pricing_plan_id":"cebpf4jnsgd1na2vs0mg"},{"bike_id":"42715632-e225-47f3-813c-9451f24e5700","system_id":"levelo_inurba_marseille","lat":43.23196,"lon":5.35557,"is_reserved":false,"is_disabled":false,"rental_uris":{"android":"levelo://app?vid=42715632-e225-47f3-813c-9451f24e5700","ios":"levelo://app?vid=42715632-e225-47f3-813c-9451f24e5700"},"vehicle_type_id":"4","last_reported":1728079726,"current_range_meters":10000,"station_id":"ce4bhu92rcd13ifvqi70","pricing_plan_id":"cebpf4jnsgd1na2vs0mg"},{"bike_id":"1544a62c-d77b-48ed-bac4-75ba00a4f909","system_id":"levelo_inurba_marseille","lat":43.22927,"lon":5.35376,"is_reserved":false,"is_disabled":false,"rental_uris":{"android":"levelo://app?vid=1544a62c-d77b-48ed-bac4-75ba00a4f909","ios":"levelo://app?vid=1544a62c-d77b-48ed-bac4-75ba00a4f909"},"vehicle_type_id":"4","last_reported":1728079726,"current_range_meters":32000,"station_id":"cpo3532slgdg3j2ikp40","pricing_plan_id":"cebpf4jnsgd1na2vs0mg"},{"bike_id":"b4d0f903-0d6a-4d8a-a93b-a5b90f71412b","system_id":"levelo_inurba_marseille","lat":43.259313,"lon":5.409204,"is_reserved":false,"is_disabled":false,"rental_uris":{"android":"levelo://app?vid=b4d0f903-0d6a-4d8a-a93b-a5b90f71412b","ios":"levelo://app?vid=b4d0f903-0d6a-4d8a-a93b-a5b90f71412b"},"vehicle_type_id":"4","last_reported":1728079726,"current_range_meters":38000,"station_id":"ce4bhm92rcd13ifvqglg","pricing_plan_id":"cebpf4jnsgd1na2vs0mg"},{"bike_id":"f5b68981-3cfa-41e1-af3d-7f46589afa77","system_id":"levelo_inurba_marseille","lat":43.24674,"lon":5.38169,"is_reserved":false,"is_disabled":false,"rental_uris":{"android":"levelo://app?vid=f5b68981-3cfa-41e1-af3d-7f46589afa77","ios":"levelo://app?vid=f5b68981-3cfa-41e1-af3d-7f46589afa77"},"vehicle_type_id":"4","last_reported":1728079726,"current_range_meters":2000,"station_id":"ce4bhih2rcd13ifvqfr0","pricing_plan_id":"cebpf4jnsgd1na2vs0mg"},{"bike_id":"9c6ceacf-46aa-4972-8a1c-69fbeaf93293","system_id":"levelo_inurba_marseille","lat":43.31754,"lon":5.39026,"is_reserved":false,"is_disabled":false,"rental_uris":{"android":"levelo://app?vid=9c6ceacf-46aa-4972-8a1c-69fbeaf93293","ios":"levelo://app?vid=9c6ceacf-46aa-4972-8a1c-69fbeaf93293"},"vehicle_type_id":"4","last_reported":1728079726,"current_range_meters":9600,"station_id":"ce4bhqp2rcd13ifvqhng","pricing_plan_id":"cebpf4jnsgd1na2vs0mg"},{"bike_id":"1cedc711-3b77-4836-b164-43fe90b340d0","system_id":"levelo_inurba_marseille","lat":43.28846,"lon":5.39317,"is_reserved":false,"is_disabled":false,"rental_uris":{"android":"levelo://app?vid=1cedc711-3b77-4836-b164-43fe90b340d0","ios":"levelo://app?vid=1cedc711-3b77-4836-b164-43fe90b340d0"},"vehicle_type_id":"4","last_reported":1728079726,"current_range_meters":38800,"station_id":"ce4bh2p2rcd13ifvqdi0","pricing_plan_id":"cebpf4jnsgd1na2vs0mg"},{"bike_id":"e55e8583-89a9-4b5b-91be-cce99c1e77d0","system_id":"levelo_inurba_marseille","lat":43.30544,"lon":5.38418,"is_reserved":false,"is_disabled":false,"rental_uris":{"android":"levelo://app?vid=e55e8583-89a9-4b5b-91be-cce99c1e77d0","ios":"levelo://app?vid=e55e8583-89a9-4b5b-91be-cce99c1e77d0"},"vehicle_type_id":"4","last_reported":1728079726,"current_range_meters":37600,"station_id":"ce4bgg92rcd13ifvqb30","pricing_plan_id":"cebpf4jnsgd1na2vs0mg"},{"bike_id":"eec0fdc3-c696-4c2b-8fff-9abe3910eec4","system_id":"levelo_inurba_marseille","lat":43.29279,"lon":5.40121,"is_reserved":false,"is_disabled":false,"rental_uris":{"android":"levelo://app?vid=eec0fdc3-c696-4c2b-8fff-9abe3910eec4","ios":"levelo://app?vid=eec0fdc3-c696-4c2b-8fff-9abe3910eec4"},"vehicle_type_id":"4","last_reported":1728079726,"current_range_meters":10000,"station_id":"ce4bh312rcd13ifvqdk0","pricing_plan_id":"cebpf4jnsgd1na2vs0mg"},{"bike_id":"1fb73e93-4589-4ef9-9725-a9d8541a3300","system_id":"levelo_inurba_marseille","lat":43.31486,"lon":5.37309,"is_reserved":false,"is_disabled":false,"rental_uris":{"android":"levelo://app?vid=1fb73e93-4589-4ef9-9725-a9d8541a3300","ios":"levelo://app?vid=1fb73e93-4589-4ef9-9725-a9d8541a3300"},"vehicle_type_id":"4","last_reported":1728079726,"current_range_meters":26800,"station_id":"ce4bgt12rcd13ifvqcd0","pricing_plan_id":"cebpf4jnsgd1na2vs0mg"},{"bike_id":"9f36d3b1-2b09-4cce-b9be-f516cac78440","system_id":"levelo_inurba_marseille","lat":43.32175,"lon":5.40696,"is_reserved":false,"is_disabled":false,"rental_uris":{"android":"levelo://app?vid=9f36d3b1-2b09-4cce-b9be-f516cac78440","ios":"levelo://app?vid=9f36d3b1-2b09-4cce-b9be-f516cac78440"},"vehicle_type_id":"4","last_reported":1728079726,"current_range_meters":28000,"station_id":"","pricing_plan_id":"cebpf4jnsgd1na2vs0mg"},{"bike_id":"3fcada9b-94d2-4f2c-b11e-57358f7bc56c","system_id":"levelo_inurba_marseille","lat":43.31167,"lon":5.38711,"is_reserved":false,"is_disabled":false,"rental_uris":{"android":"levelo://app?vid=3fcada9b-94d2-4f2c-b11e-57358f7bc56c","ios":"levelo://app?vid=3fcada9b-94d2-4f2c-b11e-57358f7bc56c"},"vehicle_type_id":"4","last_reported":1728079726,"current_range_meters":28400,"station_id":"ce4bgv12rcd13ifvqcp0","pricing_plan_id":"cebpf4jnsgd1na2vs0mg"},{"bike_id":"fa6cfb62-5326-4ccd-9577-45335a9efc7e","system_id":"levelo_inurba_marseille","lat":43.25109,"lon":5.40333,"is_reserved":false,"is_disabled":false,"rental_uris":{"android":"levelo://app?vid=fa6cfb62-5326-4ccd-9577-45335a9efc7e","ios":"levelo://app?vid=fa6cfb62-5326-4ccd-9577-45335a9efc7e"},"vehicle_type_id":"4","last_reported":1728079726,"current_range_meters":33600,"station_id":"ce4bhlh2rcd13ifvqgig","pricing_plan_id":"cebpf4jnsgd1na2vs0mg"},{"bike_id":"94b02f65-be7d-4809-9532-e0f8b361d3ca","system_id":"levelo_inurba_marseille","lat":43.2979,"lon":5.39343,"is_reserved":false,"is_disabled":false,"rental_uris":{"android":"levelo://app?vid=94b02f65-be7d-4809-9532-e0f8b361d3ca","ios":"levelo://app?vid=94b02f65-be7d-4809-9532-e0f8b361d3ca"},"vehicle_type_id":"4","last_reported":1728079726,"current_range_meters":28000,"station_id":"chh1huq6cuj3fo74tm60","pricing_plan_id":"cebpf4jnsgd1na2vs0mg"},{"bike_id":"b594cb2b-3999-4f75-bb15-256cdbc5934f","system_id":"levelo_inurba_marseille","lat":43.31326,"lon":5.39692,"is_reserved":false,"is_disabled":false,"rental_uris":{"android":"levelo://app?vid=b594cb2b-3999-4f75-bb15-256cdbc5934f","ios":"levelo://app?vid=b594cb2b-3999-4f75-bb15-256cdbc5934f"},"vehicle_type_id":"4","last_reported":1728079726,"current_range_meters":30000,"station_id":"ce4bh012rcd13ifvqcv0","pricing_plan_id":"cebpf4jnsgd1na2vs0mg"},{"bike_id":"8f345d9b-0faf-4704-8e3e-28eb24afe8cb","system_id":"levelo_inurba_marseille","lat":43.29008,"lon":5.35611,"is_reserved":false,"is_disabled":false,"rental_uris":{"android":"levelo://app?vid=8f345d9b-0faf-4704-8e3e-28eb24afe8cb","ios":"levelo://app?vid=8f345d9b-0faf-4704-8e3e-28eb24afe8cb"},"vehicle_type_id":"4","last_reported":1728079726,"current_range_meters":10800,"station_id":"ce4bhb92rcd13ifvqen0","pricing_plan_id":"cebpf4jnsgd1na2vs0mg"},{"bike_id":"79a766ca-e077-4273-ab14-d424da1d3edb","system_id":"levelo_inurba_marseille","lat":43.29571,"lon":5.39965,"is_reserved":false,"is_disabled":false,"rental_uris":{"android":"levelo://app?vid=79a766ca-e077-4273-ab14-d424da1d3edb","ios":"levelo://app?vid=79a766ca-e077-4273-ab14-d424da1d3edb"},"vehicle_type_id":"4","last_reported":1728079726,"current_range_meters":25600,"station_id":"ce4bh312rcd13ifvqdj0","pricing_plan_id":"cebpf4jnsgd1na2vs0mg"},{"bike_id":"4711ede7-1416-4f80-ba26-ef9438f1caec","system_id":"levelo_inurba_marseille","lat":43.28845,"lon":5.3585,"is_reserved":false,"is_disabled":false,"rental_uris":{"android":"levelo://app?vid=4711ede7-1416-4f80-ba26-ef9438f1caec","ios":"levelo://app?vid=4711ede7-1416-4f80-ba26-ef9438f1caec"},"vehicle_type_id":"4","last_reported":1728079726,"current_range_meters":3600,"station_id":"ce4bhb12rcd13ifvqem0","pricing_plan_id":"cebpf4jnsgd1na2vs0mg"},{"bike_id":"f791d285-e796-472d-a2e8-a373dd52bfca","system_id":"levelo_inurba_marseille","lat":43.25087,"lon":5.39513,"is_reserved":false,"is_disabled":false,"rental_uris":{"android":"levelo://app?vid=f791d285-e796-472d-a2e8-a373dd52bfca","ios":"levelo://app?vid=f791d285-e796-472d-a2e8-a373dd52bfca"},"vehicle_type_id":"4","last_reported":1728079726,"current_range_meters":40000,"station_id":"ce4bhm12rcd13ifvqgkg","pricing_plan_id":"cebpf4jnsgd1na2vs0mg"},