{"last_updated":1702897603,"ttl":30,"version":"2.2","data":{"bikes":[{"bike_id":"2a35484a-0926-4daa-abd1-ee8694286426","system_id":"levelo_inurba_marseille","lat":43.31341,"lon":5.367098,"is_reserved":false,"is_disabled":false,"rental_uris":{"android":"levelo://app?vid=2a35484a-0926-4daa-abd1-ee8694286426","ios":"levelo://app?vid=2a35484a-0926-4daa-abd1-ee8694286426"},"vehicle_type_id":"4","last_reported":1702897603,"current_range_meters":22000,"station_id":"ce4bgr92rcd13ifvqc6g","pricing_plan_id":"free"},{"bike_id":"98b54974-3b1d-47c7-af5d-e6243eb800ea","system_id":"levelo_inurba_marseille","lat":43.31341,"lon":5.367098,"is_reserved":false,"is_disabled":false,"rental_uris":{"android":"levelo://app?vid=98b54974-3b1d-47c7-af5d-e6243eb800ea","ios":"levelo://app?vid=98b54974-3b1d-47c7-af5d-e6243eb800ea"},"vehicle_type_id":"4","last_reported":1702897603,"current_range_meters":27600,"station_id":"ce4bgr92rcd13ifvqc6g","pricing_plan_id":"free"},{"bike_id":"19d38c64-1f80-4241-ae3f-24cc0f2bed28","system_id":"levelo_inurba_marseille","lat":43.31341,"lon":5.367098,"is_reserved":false,"is_disabled":false,"rental_uris":{"android":"levelo://app?vid=19d38c64-1f80-4241-ae3f-24cc0f2bed28","ios":"levelo://app?vid=19d38c64-1f80-4241-ae3f-24cc0f2bed28"},"vehicle_type_id":"4","last_reported":1702897603,"current_range_meters":19600,"station_id":"ce4bgr92rcd13ifvqc6g","pricing_plan_id":"free"},{"bike_id":"44e56b04-61e1-46fd-9715-3f61882dd42d","system_id":"levelo_inurba_marseille","lat":43.31343,"lon":5.36723,"is_reserved":false,"is_disabled":false,"rental_uris":{"android":"levelo://app?vid=44e56b04-61e1-46fd-9715-3f61882dd42d","ios":"levelo://app?vid=44e56b04-61e1-46fd-9715-3f61882dd42d"},"vehicle_type_id":"4","last_reported":1702897603,"current_range_meters":3600,"station_id":"ce4bgr92rcd13ifvqc6g","pricing_plan_id":"free"},{"bike_id":"f3b0c131-5380-4666-98fa-6affed18498a","system_id":"levelo_inurba_marseille","lat":43.31341,"lon":5.367098,"is_reserved":false,"is_disabled":false,"rental_uris":{"android":"levelo://app?vid=f3b0c131-5380-4666-98fa-6affed18498a","ios":"levelo://app?vid=f3b0c131-5380-4666-98fa-6affed18498a"},"vehicle_type_id":"4","last_reported":1702897603,"current_range_meters":31200,"station_id":"ce4bgr92rcd13ifvqc6g","pricing_plan_id":"free"},{"bike_id":"ab7a7104-f849-4234-8d21-da7063b2b5ab","system_id":"levelo_inurba_marseille","lat":43.31341,"lon":5.367098,"is_reserved":false,"is_disabled":false,"rental_uris":{"android":"levelo://app?vid=ab7a7104-f849-4234-8d21-da7063b2b5ab","ios":"levelo://app?vid=ab7a7104-f849-4234-8d21-da7063b2b5ab"},"vehicle_type_id":"4","last_reported":1702897603,"current_range_meters":31200,"station_id":"ce4bgr92rcd13ifvqc6g","pricing_plan_id":"free"},{"bike_id":"e223c69a-1d61-4a03-811f-5db9cad1005b","system_id":"levelo_inurba_marseille","lat":43.31341,"lon":5.367098,"is_reserved":false,"is_disabled":false,"rental_uris":{"android":"levelo://app?vid=e223c69a-1d61-4a03-811f-5db9cad1005b","ios":"levelo://app?vid=e223c69a-1d61-4a03-811f-5db9cad1005b"},"vehicle_type_id":"4","last_reported":1702897603,"current_range_meters":31200,"station_id":"ce4bgr92rcd13ifvqc6g","pricing_plan_id":"free"},{"bike_id":"4cf2c463-4fcf-4b40-8f47-d4c001339294","system_id":"levelo_inurba_marseille","lat":43.313391,"lon":5.36706,"is_reserved":false,"is_disabled":false,"rental_uris":{"android":"levelo://app?vid=4cf2c463-4fcf-4b40-8f47-d4c001339294","ios":"levelo://app?vid=4cf2c463-4fcf-4b40-8f47-d4c001339294"},"vehicle_type_id":"4","last_reported":1702897603,"current_range_meters":31200,"station_id":"ce4bgr92rcd13ifvqc6g","pricing_plan_id":"free"},{"bike_id":"4fc9f832-7db8-4188-af64-2e5c98dde42e","system_id":"levelo_inurba_marseille","lat":43.313391,"lon":5.36706,"is_reserved":false,"is_disabled":false,"rental_uris":{"android":"levelo://app?vid=4fc9f832-7db8-4188-af64-2e5c98dde42e","ios":"levelo://app?vid=4fc9f832-7db8-4188-af64-2e5c98dde42e"},"vehicle_type_id":"4","last_reported":1702897603,"current_range_meters":30000,"station_id":"ce4bgr92rcd13ifvqc6g","pricing_plan_id":"free"},{"bike_id":"b2988eb2-5692-47e1-90d4-040e9464d95b","system_id":"levelo_inurba_marseille","lat":43.313391,"lon":5.36706,"is_reserved":false,"is_disabled":false,"rental_uris":{"android":"levelo://app?vid=b2988eb2-5692-47e1-90d4-040e9464d95b","ios":"levelo://app?vid=b2988eb2-5692-47e1-90d4-040e9464d95b"},"vehicle_type_id":"4","last_reported":1702897603,"current_range_meters":22000,"station_id":"ce4bgr92rcd13ifvqc6g","pricing_plan_id":"free"},{"bike_id":"a7d09204-ac96-4aae-9dae-4eebaad8480f","system_id":"levelo_inurba_marseille","lat":43.31341,"lon":5.367098,"is_reserved":false,"is_disabled":false,"rental_uris":{"android":"levelo://app?vid=a7d09204-ac96-4aae-9dae-4eebaad8480f","ios":"levelo://app?vid=a7d09204-ac96-4aae-9dae-4eebaad8480f"},"vehicle_type_id":"4","last_reported":1702897603,"current_range_meters":30400,"station_id":"ce4bgr92rcd13ifvqc6g","pricing_plan_id":"free"},{"bike_id":"b3e0af21-ee86-4aa8-9916-d7bac4d530f0","system_id":"levelo_inurba_marseille","lat":43.313391,"lon":5.36706,"is_reserved":false,"is_disabled":false,"rental_uris":{"android":"levelo://app?vid=b3e0af21-ee86-4aa8-9916-d7bac4d530f0","ios":"levelo://app?vid=b3e0af21-ee86-4aa8-9916-d7bac4d530f0"},"vehicle_type_id":"4","last_reported":1702897603,"current_range_meters":31200,"station_id":"ce4bgr92rcd13ifvqc6g","pricing_plan_id":"free"},{"bike_id":"b9e387d8-18f5-443a-b524-a9bc938b3c3c","system_id":"levelo_inurba_marseille","lat":43.31364,"lon":5.36709,"is_reserved":false,"is_disabled":false,"rental_uris":{"android":"levelo://app?vid=b9e387d8-18f5-443a-b524-a9bc938b3c3c","ios":"levelo://app?vid=b9e387d8-18f5-443a-b524-a9bc938b3c3c"},"vehicle_type_id":"4","last_reported":1702897603,"current_range_meters":22800,"station_id":"ce4bgr92rcd13ifvqc6g","pricing_plan_id":"free"},{"bike_id":"03995a8a-88ef-45ae-bc9d-810c260cb9cf","system_id":"levelo_inurba_marseille","lat":43.31341,"lon":5.367098,"is_reserved":false,"is_disabled":false,"rental_uris":{"android":"levelo://app?vid=03995a8a-88ef-45ae-bc9d-810c260cb9cf","ios":"levelo://app?vid=03995a8a-88ef-45ae-bc9d-810c260cb9cf"},"vehicle_type_id":"4","last_reported":1702897603,"current_range_meters":28400,"station_id":"ce4bgr92rcd13ifvqc6g","pricing_plan_id":"free"},{"bike_id":"c14e76f4-310e-454a-a6d0-23b530eee53c","system_id":"levelo_inurba_marseille","lat":43.312239,"lon":5.368562,"is_reserved":false,"is_disabled":false,"rental_uris":{"android":"levelo://app?vid=c14e76f4-310e-454a-a6d0-23b530eee53c","ios":"levelo://app?vid=c14e76f4-310e-454a-a6d0-23b530eee53c"},"vehicle_type_id":"4","last_reported":1702897603,"current_range_meters":21200,"station_id":"ce4bgl92rcd13ifvqbq0","pricing_plan_id":"free"},{"bike_id":"a20719af-a94d-488f-9df3-f3ef1b2553c5","system_id":"levelo_inurba_marseille","lat":43.312239,"lon":5.368562,"is_reserved":false,"is_disabled":false,"rental_uris":{"android":"levelo://app?vid=a20719af-a94d-488f-9df3-f3ef1b2553c5","ios":"levelo://app?vid=a20719af-a94d-488f-9df3-f3ef1b2553c5"},"vehicle_type_id":"4","last_reported":1702897603,"current_range_meters":26800,"station_id":"ce4bgl92rcd13ifvqbq0","pricing_plan_id":"free"},{"bike_id":"ccbc476a-ba92-43c6-898d-76d2c8beed82","system_id":"levelo_inurba_marseille","lat":43.312239,"lon":5.368562,"is_reserved":false,"is_disabled":false,"rental_uris":{"android":"levelo://app?vid=ccbc476a-ba92-43c6-898d-76d2c8beed82","ios":"levelo://app?vid=ccbc476a-ba92-43c6-898d-76d2c8beed82"},"vehicle_type_id":"4","last_reported":1702897603,"current_range_meters":22400,"station_id":"ce4bgl92rcd13ifvqbq0","pricing_plan_id":"free"},{"bike_id":"7ab59877-030b-4329-b4fb-e9d31e0f999c","system_id":"levelo_inurba_marseille","lat":43.312239,"lon":5.368562,"is_reserved":false,"is_disabled":false,"rental_uris":{"android":"levelo://app?vid=7ab59877-030b-4329-b4fb-e9d31e0f999c","ios":"levelo://app?vid=7ab59877-030b-4329-b4fb-e9d31e0f999c"},"vehicle_type_id":"4","last_reported":1702897603,"current_range_meters":31200,"station_id":"ce4bgl92rcd13ifvqbq0","pricing_plan_id":"free"},{"bike_id":"8cc9c813-2eb0-4860-8a08-0d1199d1de65","system_id":"levelo_inurba_marseille","lat":43.312239,"lon":5.368562,"is_reserved":false,"is_disabled":false,"rental_uris":{"android":"levelo://app?vid=8cc9c813-2eb0-4860-8a08-0d1199d1de65","ios":"levelo://app?vid=8cc9c813-2eb0-4860-8a08-0d1199d1de65"},"vehicle_type_id":"4","last_reported":1702897603,"current_range_meters":29600,"station_id":"ce4bgl92rcd13ifvqbq0","pricing_plan_id":"free"},{"bike_id":"d03066d9-96cf-4f9f-812f-6e75e1aad218","system_id":"levelo_inurba_marseille","lat":43.309076,"lon":5.368465,"is_reserved":false,"is_disabled":false,"rental_uris":{"android":"levelo://app?vid=d03066d9-96cf-4f9f-812f-6e75e1aad218","ios":"levelo://app?vid=d03066d9-96cf-4f9f-812f-6e75e1aad218"},"vehicle_type_id":"4","last_reported":1702897603,"current_range_meters":20000,"station_id":"ce4bgn92rcd13ifvqbvg","pricing_plan_id":"free"},{"bike_id":"4d297a7f-79f6-4b18-9222-53e4785c2279","system_id":"levelo_inurba_marseille","lat":43.309076,"lon":5.368465,"is_reserved":false,"is_disabled":false,"rental_uris":{"android":"levelo://app?vid=4d297a7f-79f6-4b18-9222-53e4785c2279","ios":"levelo://app?vid=4d297a7f-79f6-4b18-9222-53e4785c2279"},"vehicle_type_id":"4","last_reported":1702897603,"current_range_meters":16800,"station_id":"ce4bgn92rcd13ifvqbvg","pricing_plan_id":"free"},{"bike_id":"47726aa0-e745-4d9c-9908-3d4ddab2a909","system_id":"levelo_inurba_marseille","lat":43.309076,"lon":5.368465,"is_reserved":false,"is_disabled":false,"rental_uris":{"android":"levelo://app?vid=47726aa0-e745-4d9c-9908-3d4ddab2a909","ios":"levelo://app?vid=47726aa0-e745-4d9c-9908-3d4ddab2a909"},"vehicle_type_id":"4","last_reported":1702897603,"current_range_meters":31200,"station_id":"ce4bgn92rcd13ifvqbvg","pricing_plan_id":"free"},{"bike_id":"17518c11-9ff9-4e3b-8858-32d744eb9e16","system_id":"levelo_inurba_marseille","lat":43.309076,"lon":5.368465,"is_reserved":false,"is_disabled":false,"rental_uris":{"android":"levelo://app?vid=17518c11-9ff9-4e3b-8858-32d744eb9e16","ios":"levelo://app?vid=17518c11-9ff9-4e3b-8858-32d744eb9e16"},"vehicle_type_id":"4","last_reported":1702897603,"current_range_meters":31200,"station_id":"ce4bgn92rcd13ifvqbvg","pricing_plan_id":"free"},{"bike_id":"b68c4dbf-fd47-480a-bc56-568c1ee4f600","system_id":"levelo_inurba_marseille","lat":43.309076,"lon":5.368465,"is_reserved":false,"is_disabled":false,"rental_uris":{"android":"levelo://app?vid=b68c4dbf-fd47-480a-bc56-568c1ee4f600","ios":"levelo://app?vid=b68c4dbf-fd47-480a-bc56-568c1ee4f600"},"vehicle_type_id":"4","last_reported":1702897603,"current_range_meters":18400,"station_id":"ce4bgn92rcd13ifvqbvg","pricing_plan_id":"free"},{"bike_id":"b2819221-57af-4835-9092-151e2c662355","system_id":"levelo_inurba_marseille","lat":43.309076,"lon":5.368465,"is_reserved":false,"is_disabled":false,"rental_uris":{"android":"levelo://app?vid=b2819221-57af-4835-9092-151e2c662355","ios":"levelo://app?vid=b2819221-57af-4835-9092-151e2c662355"},"vehicle_type_id":"4","last_reported":1702897603,"current_range_meters":17200,"station_id":"ce4bgn92rcd13ifvqbvg","pricing_plan_id":"free"},{"bike_id":"1fb55ffe-7d20-4e7c-9ed5-ee9777700e9f","system_id":"levelo_inurba_marseille","lat":43.30547,"lon":5.36689,"is_reserved":false,"is_disabled":false,"rental_uris":{"android":"levelo://app?vid=1fb55ffe-7d20-4e7c-9ed5-ee9777700e9f","ios":"levelo://app?vid=1fb55ffe-7d20-4e7c-9ed5-ee9777700e9f"},"vehicle_type_id":"4","last_reported":1702897603,"current_range_meters":29200,"station_id":"ce4bgrp2rcd13ifvqc9g","pricing_plan_id":"free"},{"bike_id":"7e25146f-e903-47ed-b2d1-02ffaf5b934c","system_id":"levelo_inurba_marseille","lat":43.305368,"lon":5.367343,"is_reserved":false,"is_disabled":false,"rental_uris":{"android":"levelo://app?vid=7e25146f-e903-47ed-b2d1-02ffaf5b934c","ios":"levelo://app?vid=7e25146f-e903-47ed-b2d1-02ffaf5b934c"},"vehicle_type_id":"4","last_reported":1702897603,"current_range_meters":31200,"station_id":"ce4bgrp2rcd13ifvqc9g","pricing_plan_id":"free"},{"bike_id":"99c51a4d-8d55-4074-973c-5cb6d318730f","system_id":"levelo_inurba_marseille","lat":43.305432,"lon":5.366938,"is_reserved":false,"is_disabled":false,"rental_uris":{"android":"levelo://app?vid=99c51a4d-8d55-4074-973c-5cb6d318730f","ios":"levelo://app?vid=99c51a4d-8d55-4074-973c-5cb6d318730f"},"vehicle_type_id":"4","last_reported":1702897603,"current_range_meters":22800,"station_id":"ce4bgrp2rcd13ifvqc9g","pricing_plan_id":"free"},{"bike_id":"f5243271-d4dd-4b90-86d9-af9cbf375878","system_id":"levelo_inurba_marseille","lat":43.305368,"lon":5.367343,"is_reserved":false,"is_disabled":false,"rental_uris":{"android":"levelo://app?vid=f5243271-d4dd-4b90-86d9-af9cbf375878","ios":"levelo://app?vid=f5243271-d4dd-4b90-86d9-af9cbf375878"},"vehicle_type_id":"4","last_reported":1702897603,"current_range_meters":14000,"station_id":"ce4bgrp2rcd13ifvqc9g","pricing_plan_id":"free"},{"bike_id":"0215c5be-1a82-4699-8caa-f190e4197816","system_id":"levelo_inurba_marseille","lat":43.30538,"lon":5.36699,"is_reserved":false,"is_disabled":false,"rental_uris":{"android":"levelo://app?vid=0215c5be-1a82-4699-8caa-f190e4197816","ios":"levelo://app?vid=0215c5be-1a82-4699-8caa-f190e4197816"},"vehicle_type_id":"4","last_reported":1702897603,"current_range_meters":17600,"station_id":"ce4bgrp2rcd13ifvqc9g","pricing_plan_id":"free"},{"bike_id":"1a20e4c9-89c3-47b7-8b3c-650bde9c0dc9","system_id":"levelo_inurba_marseille","lat":43.305368,"lon":5.367343,"is_reserved":false,"is_disabled":false,"rental_uris":{"android":"levelo://app?vid=1a20e4c9-89c3-47b7-8b3c-650bde9c0dc9","ios":"levelo://app?vid=1a20e4c9-89c3-47b7-8b3c-650bde9c0dc9"},"vehicle_type_id":"4","last_reported":1702897603,"current_range_meters":31200,"station_id":"ce4bgrp2rcd13ifvqc9g","pricing_plan_id":"free"},{"bike_id":"3644b26c-bab2-4e31-8ce9-ddf01a8eb439","system_id":"levelo_inurba_marseille","lat":43.305706,"lon":5.365654,"is_reserved":false,"is_disabled":false,"rental_uris":{"android":"levelo://app?vid=3644b26c-bab2-4e31-8ce9-ddf01a8eb439","ios":"levelo://app?vid=3644b26c-bab2-4e31-8ce9-ddf01a8eb439"},"vehicle_type_id":"4","last_reported":1702897603,"current_range_meters":2400,"station_id":"ce4bgs12rcd13ifvqcag","pricing_plan_id":"free"},{"bike_id":"f7290901-0299-4906-b0d1-3c351cc426e3","system_id":"levelo_inurba_marseille","lat":43.305319,"lon":5.367166,"is_reserved":false,"is_disabled":false,"rental_uris":{"android":"levelo://app?vid=f7290901-0299-4906-b0d1-3c351cc426e3","ios":"levelo://app?vid=f7290901-0299-4906-b0d1-3c351cc426e3"},"vehicle_type_id":"4","last_reported":1702897603,"current_range_meters":27600,"station_id":"ce4bgrp2rcd13ifvqc9g","pricing_plan_id":"free"},{"bike_id":"28ccea3c-6fe7-494c-b049-b69db180f246","system_id":"levelo_inurba_marseille","lat":43.305714,"lon":5.365633,"is_reserved":false,"is_disabled":false,"rental_uris":{"android":"levelo://app?vid=28ccea3c-6fe7-494c-b049-b69db180f246","ios":"levelo://app?vid=28ccea3c-6fe7-494c-b049-b69db180f246"},"vehicle_type_id":"4","last_reported":1702897603,"current_range_meters":30000,"station_id":"ce4bgs12rcd13ifvqcag","pricing_plan_id":"free"},{"bike_id":"955e4ab2-16e5-44e8-a986-a2f50ff96c06","system_id":"levelo_inurba_marseille","lat":43.305382,"lon":5.365389,"is_reserved":false,"is_disabled":false,"rental_uris":{"android":"levelo://app?vid=955e4ab2-16e5-44e8-a986-a2f50ff96c06","ios":"levelo://app?vid=955e4ab2-16e5-44e8-a986-a2f50ff96c06"},"vehicle_type_id":"4","last_reported":1702897603,"current_range_meters":8000,"station_id":"","pricing_plan_id":"free"},{"bike_id":"05fa78bb-31b8-4484-a9b9-352b2251b854","system_id":"levelo_inurba_marseille","lat":43.305706,"lon":5.365654,"is_reserved":false,"is_disabled":false,"rental_uris":{"android":"levelo://app?vid=05fa78bb-31b8-4484-a9b9-352b2251b854","ios":"levelo://app?vid=05fa78bb-31b8-4484-a9b9-352b2251b854"},"vehicle_type_id":"4","last_reported":1702897603,"current_range_meters":31200,"station_id":"ce4bgs12rcd13ifvqcag","pricing_plan_id":"free"},{"bike_id":"250a5901-f7e3-418e-8c4c-e7f1a394a997","system_id":"levelo_inurba_marseille","lat":43.311125,"lon":5.377624,"is_reserved":false,"is_disabled":false,"rental_uris":{"android":"levelo://app?vid=250a5901-f7e3-418e-8c4c-e7f1a394a997","ios":"levelo://app?vid=250a5901-f7e3-418e-8c4c-e7f1a394a997"},"vehicle_type_id":"4","last_reported":1702897603,"current_range_meters":18000,"station_id":"ce4bgt92rcd13ifvqcg0","pricing_plan_id":"free"},{"bike_id":"928b32c6-f3b0-4317-978d-dc173db7da76","system_id":"levelo_inurba_marseille","lat":43.30304,"lon":5.368987,"is_reserved":false,"is_disabled":false,"rental_uris":{"android":"levelo://app?vid=928b32c6-f3b0-4317-978d-dc173db7da76","ios":"levelo://app?vid=928b32c6-f3b0-4317-978d-dc173db7da76"},"vehicle_type_id":"4","last_reported":1702897603,"current_range_meters":17200,"station_id":"ce4bgqh2rcd13ifvqc5g","pricing_plan_id":"free"},{"bike_id":"83b7a995-1aa4-4425-bfa7-cf8d9cb1d5b8","system_id":"levelo_inurba_marseille","lat":43.304606,"lon":5.379026,"is_reserved":false,"is_disabled":false,"rental_uris":{"android":"levelo://app?vid=83b7a995-1aa4-4425-bfa7-cf8d9cb1d5b8","ios":"levelo://app?vid=83b7a995-1aa4-4425-bfa7-cf8d9cb1d5b8"},"vehicle_type_id":"4","last_reported":1702897603,"current_range_meters":0,"station_id":"ce4bgup2rcd13ifvqcn0","pricing_plan_id":"free"},{"bike_id":"3aa8138a-b2b2-4b1b-8f5c-787994460959","system_id":"levelo_inurba_marseille","lat":43.304606,"lon":5.379026,"is_reserved":false,"is_disabled":false,"rental_uris":{"android":"levelo://app?vid=3aa8138a-b2b2-4b1b-8f5c-787994460959","ios":"levelo://app?vid=3aa8138a-b2b2-4b1b-8f5c-787994460959"},"vehicle_type_id":"4","last_reported":1702897603,"current_range_meters":28000,"station_id":"ce4bgup2rcd13ifvqcn0","pricing_plan_id":"free"},{"bike_id":"3be8833f-411b-4497-9b53-682ee7f4d01b","system_id":"levelo_inurba_marseille","lat":43.32475,"lon":5.3657,"is_reserved":false,"is_disabled":false,"rental_uris":{"android":"levelo://app?vid=3be8833f-411b-4497-9b53-682ee7f4d01b","ios":"levelo://app?vid=3be8833f-411b-4497-9b53-682ee7f4d01b"},"vehicle_type_id":"4","last_reported":1702897603,"current_range_meters":20000,"station_id":"ce4bhs12rcd13ifvqhvg","pricing_plan_id":"free"},{"bike_id":"8b97c3f1-bb5f-4c4b-bae8-74bcb68230ca","system_id":"levelo_inurba_marseille","lat":43.310723,"lon":5.383313,"is_reserved":false,"is_disabled":false,"rental_uris":{"android":"levelo://app?vid=8b97c3f1-bb5f-4c4b-bae8-74bcb68230ca","ios":"levelo://app?vid=8b97c3f1-bb5f-4c4b-bae8-74bcb68230ca"},"vehicle_type_id":"4","last_reported":1702897603,"current_range_meters":2000,"station_id":"","pricing_plan_id":"free"},{"bike_id":"453c5d3c-e88c-479a-99e3-57ae72e91b93","system_id":"levelo_inurba_marseille","lat":43.301429,"lon":5.37413,"is_reserved":false,"is_disabled":false,"rental_uris":{"android":"levelo://app?vid=453c5d3c-e88c-479a-99e3-57ae72e91b93","ios":"levelo://app?vid=453c5d3c-e88c-479a-99e3-57ae72e91b93"},"vehicle_type_id":"4","last_reported":1702897603,"current_range_meters":21200,"station_id":"ce4bgs92rcd13ifvqcc0","pricing_plan_id":"free"},{"bike_id":"182138f8-12d8-4c90-9fef-cb2cdbd95e2e","system_id":"levelo_inurba_marseille","lat":43.30143,"lon":5.37415,"is_reserved":false,"is_disabled":false,"rental_uris":{"android":"levelo://app?vid=182138f8-12d8-4c90-9fef-cb2cdbd95e2e","ios":"levelo://app?vid=182138f8-12d8-4c90-9fef-cb2cdbd95e2e"},"vehicle_type_id":"4","last_reported":1702897603,"current_range_meters":28800,"station_id":"ce4bgs92rcd13ifvqcc0","pricing_plan_id":"free"},{"bike_id":"39da29ba-2c59-4412-9e73-080fd4e15435","system_id":"levelo_inurba_marseille","lat":43.299724,"lon":5.371829,"is_reserved":false,"is_disabled":false,"rental_uris":{"android":"levelo://app?vid=39da29ba-2c59-4412-9e73-080fd4e15435","ios":"levelo://app?vid=39da29ba-2c59-4412-9e73-080fd4e15435"},"vehicle_type_id":"4","last_reported":1702897603,"current_range_meters":4000,"station_id":"ce4bgr92rcd13ifvqc7g","pricing_plan_id":"free"},{"bike_id":"819cb438-2e9c-4e0b-902b-5e19ef554d5c","system_id":"levelo_inurba_marseille","lat":43.305491,"lon":5.384284,"is_reserved":false,"is_disabled":false,"rental_uris":{"android":"levelo://app?vid=819cb438-2e9c-4e0b-902b-5e19ef554d5c","ios":"levelo://app?vid=819cb438-2e9c-4e0b-902b-5e19ef554d5c"},"vehicle_type_id":"4","last_reported":1702897603,"current_range_meters":6800,"station_id":"","pricing_plan_id":"free"},{"bike_id":"c4e77394-aef9-4077-b745-e99148625344","system_id":"levelo_inurba_marseille","lat":43.32733,"lon":5.36707,"is_reserved":false,"is_disabled":false,"rental_uris":{"android":"levelo://app?vid=c4e77394-aef9-4077-b745-e99148625344","ios":"levelo://app?vid=c4e77394-aef9-4077-b745-e99148625344"},"vehicle_type_id":"4","last_reported":1702897603,"current_range_meters":15200,"station_id":"","pricing_plan_id":"free"},{"bike_id":"2a66295e-a0a6-4813-b690-beb9b7e4950f","system_id":"levelo_inurba_marseille","lat":43.298433,"lon":5.362774,"is_reserved":false,"is_disabled":false,"rental_uris":{"android":"levelo://app?vid=2a66295e-a0a6-4813-b690-beb9b7e4950f","ios":"levelo://app?vid=2a66295e-a0a6-4813-b690-beb9b7e4950f"},"vehicle_type_id":"4","last_reported":1702897603,"current_range_meters":8400,"station_id":"ce4bgpp2rcd13ifvqc3g","pricing_plan_id":"free"},{"bike_id":"4ce836d1-a5c5-4627-9212-a40dae2edd6f","system_id":"levelo_inurba_marseille","lat":43.298433,"lon":5.362774,"is_reserved":false,"is_disabled":false,"rental_uris":{"android":"levelo://app?vid=4ce836d1-a5c5-4627-9212-a40dae2edd6f","ios":"levelo://app?vid=4ce836d1-a5c5-4627-9212-a40dae2edd6f"},"vehicle_type_id":"4","last_reported":1702897603,"current_range_meters":24000,"station_id":"ce4bgpp2rcd13ifvqc3g","pricing_plan_id":"free"},{"bike_id":"5ab7c4a2-de56-4d11-b0c7-3077b969465c","system_id":"levelo_inurba_marseille","lat":43.299243,"lon":5.374807,"is_reserved":false,"is_disabled":false,"rental_uris":{"android":"levelo://app?vid=5ab7c4a2-de56-4d11-b0c7-3077b969465c","ios":"levelo://app?vid=5ab7c4a2-de56-4d11-b0c7-3077b969465c"},"vehicle_type_id":"4","last_reported":1702897603,"current_range_meters":28000,"station_id":"ce4bgjh2rcd13ifvqbg0","pricing_plan_id":"free"},{"bike_id":"3737aebe-1cce-415b-8132-94746ed5f00f","system_id":"levelo_inurba_marseille","lat":43.32297,"lon":5.38268,"is_reserved":false,"is_disabled":false,"rental_uris":{"android":"levelo://app?vid=3737aebe-1cce-415b-8132-94746ed5f00f","ios":"levelo://app?vid=3737aebe-1cce-415b-8132-94746ed5f00f"},"vehicle_type_id":"4","last_reported":1702897603,"current_range_meters":0,"station_id":"ce4bhr12rcd13ifvqhqg","pricing_plan_id":"free"},{"bike_id":"1c4e0be7-4a56-4d58-8b2f-9899334fc7b6","system_id":"levelo_inurba_marseille","lat":43.32834,"lon":5.36673,"is_reserved":false,"is_disabled":false,"rental_uris":{"android":"levelo://app?vid=1c4e0be7-4a56-4d58-8b2f-9899334fc7b6","ios":"levelo://app?vid=1c4e0be7-4a56-4d58-8b2f-9899334fc7b6"},"vehicle_type_id":"4","last_reported":1702897603,"current_range_meters":22000,"station_id":"ce4bhs92rcd13ifvqi0g","pricing_plan_id":"free"},{"bike_id":"8d994e78-9e8c-4183-9bc4-59f679c62317","system_id":"levelo_inurba_marseille","lat":43.29908,"lon":5.38132,"is_reserved":false,"is_disabled":false,"rental_uris":{"android":"levelo://app?vid=8d994e78-9e8c-4183-9bc4-59f679c62317","ios":"levelo://app?vid=8d994e78-9e8c-4183-9bc4-59f679c62317"},"vehicle_type_id":"4","last_reported":1702897603,"current_range_meters":28800,"station_id":"ce4bgj12rcd13ifvqbc0","pricing_plan_id":"free"},{"bike_id":"d50ea279-4a78-46c5-8852-be77ad6f9264","system_id":"levelo_inurba_marseille","lat":43.29907,"lon":5.38138,"is_reserved":false,"is_disabled":false,"rental_uris":{"android":"levelo://app?vid=d50ea279-4a78-46c5-8852-be77ad6f9264","ios":"levelo://app?vid=d50ea279-4a78-46c5-8852-be77ad6f9264"},"vehicle_type_id":"4","last_reported":1702897603,"current_range_meters":28800,"station_id":"ce4bgj12rcd13ifvqbc0","pricing_plan_id":"free"},{"bike_id":"a891a0fe-9cfe-46ac-afb7-8ff4ed21d952","system_id":"levelo_inurba_marseille","lat":43.298046,"lon":5.380921,"is_reserved":false,"is_disabled":false,"rental_uris":{"android":"levelo://app?vid=a891a0fe-9cfe-46ac-afb7-8ff4ed21d952","ios":"levelo://app?vid=a891a0fe-9cfe-46ac-afb7-8ff4ed21d952"},"vehicle_type_id":"4","last_reported":1702897603,"current_range_meters":4800,"station_id":"ce4bgip2rcd13ifvqbb0","pricing_plan_id":"free"},{"bike_id":"a4f766c6-e06c-4d43-a9a1-f97738dbb5f4","system_id":"levelo_inurba_marseille","lat":43.29792,"lon":5.38087,"is_reserved":false,"is_disabled":false,"rental_uris":{"android":"levelo://app?vid=a4f766c6-e06c-4d43-a9a1-f97738dbb5f4","ios":"levelo://app?vid=a4f766c6-e06c-4d43-a9a1-f97738dbb5f4"},"vehicle_type_id":"4","last_reported":1702897603,"current_range_meters":9600,"station_id":"","pricing_plan_id":"free"},{"bike_id":"72183ccb-c5f9-4b27-8a69-df4147b21a32","system_id":"levelo_inurba_marseille","lat":43.295748,"lon":5.37522,"is_reserved":false,"is_disabled":false,"rental_uris":{"android":"levelo://app?vid=72183ccb-c5f9-4b27-8a69-df4147b21a32","ios":"levelo://app?vid=72183ccb-c5f9-4b27-8a69-df4147b21a32"},"vehicle_type_id":"4","last_reported":1702897603,"current_range_meters":16800,"station_id":"ce4bgh92rcd13ifvqb50","pricing_plan_id":"free"},{"bike_id":"a58457d2-793d-4290-9a60-d1638b6d4828","system_id":"levelo_inurba_marseille","lat":43.297832,"lon":5.38108,"is_reserved":false,"is_disabled":false,"rental_uris":{"android":"levelo://app?vid=a58457d2-793d-4290-9a60-d1638b6d4828","ios":"levelo://app?vid=a58457d2-793d-4290-9a60-d1638b6d4828"},"vehicle_type_id":"4","last_reported":1702897603,"current_range_meters":8400,"station_id":"","pricing_plan_id":"free"},{"bike_id":"6fc44479-a3ca-4898-a4e8-c7c5a86049f8","system_id":"levelo_inurba_marseille","lat":43.299717,"lon":5.384845,"is_reserved":false,"is_disabled":false,"rental_uris":{"android":"levelo://app?vid=6fc44479-a3ca-4898-a4e8-c7c5a86049f8","ios":"levelo://app?vid=6fc44479-a3ca-4898-a4e8-c7c5a86049f8"},"vehicle_type_id":"4","last_reported":1702897603,"current_range_meters":22800,"station_id":"ce4bgj92rcd13ifvqbd0","pricing_plan_id":"free"},{"bike_id":"c4f9bc29-7317-49d5-8bdc-66e7c764e3ea","system_id":"levelo_inurba_marseille","lat":43.32367,"lon":5.388836,"is_reserved":false,"is_disabled":false,"rental_uris":{"android":"levelo://app?vid=c4f9bc29-7317-49d5-8bdc-66e7c764e3ea","ios":"levelo://app?vid=c4f9bc29-7317-49d5-8bdc-66e7c764e3ea"},"vehicle_type_id":"4","last_reported":1702897603,"current_range_meters":0,"station_id":"ce4bhqp2rcd13ifvqhog","pricing_plan_id":"free"},{"bike_id":"1af27398-847a-4591-82ca-735fa6629fea","system_id":"levelo_inurba_marseille","lat":43.323679,"lon":5.388855,"is_reserved":false,"is_disabled":false,"rental_uris":{"android":"levelo://app?vid=1af27398-847a-4591-82ca-735fa6629fea","ios":"levelo://app?vid=1af27398-847a-4591-82ca-735fa6629fea"},"vehicle_type_id":"4","last_reported":1702897603,"current_range_meters":14000,"station_id":"ce4bhqp2rcd13ifvqhog","pricing_plan_id":"free"},{"bike_id":"f7415e69-cd24-41e0-9669-ea3ef06af791","system_id":"levelo_inurba_marseille","lat":43.32367,"lon":5.388836,"is_reserved":false,"is_disabled":false,"rental_uris":{"android":"levelo://app?vid=f7415e69-cd24-41e0-9669-ea3ef06af791","ios":"levelo://app?vid=f7415e69-cd24-41e0-9669-ea3ef06af791"},"vehicle_type_id":"4","last_reported":1702897603,"current_range_meters":16000,"station_id":"ce4bhqp2rcd13ifvqhog","pricing_plan_id":"free"},{"bike_id":"9a72d82e-793e-4f23-9b1c-a2c760fda773","system_id":"levelo_inurba_marseille","lat":43.29602,"lon":5.381084,"is_reserved":false,"is_disabled":false,"rental_uris":{"android":"levelo://app?vid=9a72d82e-793e-4f23-9b1c-a2c760fda773","ios":"levelo://app?vid=9a72d82e-793e-4f23-9b1c-a2c760fda773"},"vehicle_type_id":"4","last_reported":1702897603,"current_range_meters":16000,"station_id":"ce4bgl12rcd13ifvqbo0","pricing_plan_id":"free"},{"bike_id":"4badfd2c-66bc-4fab-adc6-c26f2e09217a","system_id":"levelo_inurba_marseille","lat":43.293009,"lon":5.374584,"is_reserved":false,"is_disabled":false,"rental_uris":{"android":"levelo://app?vid=4badfd2c-66bc-4fab-adc6-c26f2e09217a","ios":"levelo://app?vid=4badfd2c-66bc-4fab-adc6-c26f2e09217a"},"vehicle_type_id":"4","last_reported":1702897603,"current_range_meters":9200,"station_id":"ce4bgi12rcd13ifvqb70","pricing_plan_id":"free"},{"bike_id":"59746571-1d4f-43e3-b67a-c0626b2569e1","system_id":"levelo_inurba_marseille","lat":43.293009,"lon":5.374584,"is_reserved":false,"is_disabled":false,"rental_uris":{"android":"levelo://app?vid=59746571-1d4f-43e3-b67a-c0626b2569e1","ios":"levelo://app?vid=59746571-1d4f-43e3-b67a-c0626b2569e1"},"vehicle_type_id":"4","last_reported":1702897603,"current_range_meters":15200,"station_id":"ce4bgi12rcd13ifvqb70","pricing_plan_id":"free"},{"bike_id":"08856c6d-1f7d-41f2-92d5-51cc469cdba0","system_id":"levelo_inurba_marseille","lat":43.293009,"lon":5.374584,"is_reserved":false,"is_disabled":false,"rental_uris":{"android":"levelo://app?vid=08856c6d-1f7d-41f2-92d5-51cc469cdba0","ios":"levelo://app?vid=08856c6d-1f7d-41f2-92d5-51cc469cdba0"},"vehicle_type_id":"4","last_reported":1702897603,"current_range_meters":22000,"station_id":"ce4bgi12rcd13ifvqb70","pricing_plan_id":"free"},{"bike_id":"114f5f53-7de9-4721-a2de-2132dd25c6fc","system_id":"levelo_inurba_marseille","lat":43.2936,"lon":5.37835,"is_reserved":false,"is_disabled":false,"rental_uris":{"android":"levelo://app?vid=114f5f53-7de9-4721-a2de-2132dd25c6fc","ios":"levelo://app?vid=114f5f53-7de9-4721-a2de-2132dd25c6fc"},"vehicle_type_id":"4","last_reported":1702897603,"current_range_meters":0,"station_id":"ce4bgjh2rcd13ifvqbf0","pricing_plan_id":"free"},{"bike_id":"afb4de7b-9c31-43e4-9267-8d570ceced8d","system_id":"levelo_inurba_marseille","lat":43.292311,"lon":5.360731,"is_reserved":false,"is_disabled":false,"rental_uris":{"android":"levelo://app?vid=afb4de7b-9c31-43e4-9267-8d570ceced8d","ios":"levelo://app?vid=afb4de7b-9c31-43e4-9267-8d570ceced8d"},"vehicle_type_id":"4","last_reported":1702897603,"current_range_meters":0,"station_id":"ce4bhbh2rcd13ifvqeqg","pricing_plan_id":"free"},{"bike_id":"31dae819-5374-4ae9-9d8d-3000d30a59ec","system_id":"levelo_inurba_marseille","lat":43.292311,"lon":5.360731,"is_reserved":false,"is_disabled":false,"rental_uris":{"android":"levelo://app?vid=31dae819-5374-4ae9-9d8d-3000d30a59ec","ios":"levelo://app?vid=31dae819-5374-4ae9-9d8d-3000d30a59ec"},"vehicle_type_id":"4","last_reported":1702897603,"current_range_meters":13200,"station_id":"ce4bhbh2rcd13ifvqeqg","pricing_plan_id":"free"},{"bike_id":"c86a3f8a-eddd-4ac4-b7ec-8e996633fe36","system_id":"levelo_inurba_marseille","lat":43.293009,"lon":5.374584,"is_reserved":false,"is_disabled":false,"rental_uris":{"android":"levelo://app?vid=c86a3f8a-eddd-4ac4-b7ec-8e996633fe36","ios":"levelo://app?vid=c86a3f8a-eddd-4ac4-b7ec-8e996633fe36"},"vehicle_type_id":"4","last_reported":1702897603,"current_range_meters":13600,"station_id":"ce4bgi12rcd13ifvqb70","pricing_plan_id":"free"},{"bike_id":"86f0f847-0778-47b6-8feb-87c990a245e1","system_id":"levelo_inurba_marseille","lat":43.291675,"lon":5.371583,"is_reserved":false,"is_disabled":false,"rental_uris":{"android":"levelo://app?vid=86f0f847-0778-47b6-8feb-87c990a245e1","ios":"levelo://app?vid=86f0f847-0778-47b6-8feb-87c990a245e1"},"vehicle_type_id":"4","last_reported":1702897603,"current_range_meters":30000,"station_id":"ce4bha92rcd13ifvqeh0","pricing_plan_id":"free"},{"bike_id":"42ec564b-2ae3-40d7-b351-f7445bbbe52c","system_id":"levelo_inurba_marseille","lat":43.29197,"lon":5.3582,"is_reserved":false,"is_disabled":false,"rental_uris":{"android":"levelo://app?vid=42ec564b-2ae3-40d7-b351-f7445bbbe52c","ios":"levelo://app?vid=42ec564b-2ae3-40d7-b351-f7445bbbe52c"},"vehicle_type_id":"4","last_reported":1702897603,"current_range_meters":27600,"station_id":"ce4bhb12rcd13ifvqel0","pricing_plan_id":"free"},{"bike_id":"8b0c5a7f-7127-46fc-9505-bf7db3172a79","system_id":"levelo_inurba_marseille","lat":43.29198,"lon":5.358,"is_reserved":false,"is_disabled":false,"rental_uris":{"android":"levelo://app?vid=8b0c5a7f-7127-46fc-9505-bf7db3172a79","ios":"levelo://app?vid=8b0c5a7f-7127-46fc-9505-bf7db3172a79"},"vehicle_type_id":"4","last_reported":1702897603,"current_range_meters":28000,"station_id":"ce4bhb12rcd13ifvqel0","pricing_plan_id":"free"},{"bike_id":"1e9f6906-14db-419c-aa66-24f36b413bbc","system_id":"levelo_inurba_marseille","lat":43.29198,"lon":5.35798,"is_reserved":false,"is_disabled":false,"rental_uris":{"android":"levelo://app?vid=1e9f6906-14db-419c-aa66-24f36b413bbc","ios":"levelo://app?vid=1e9f6906-14db-419c-aa66-24f36b413bbc"},"vehicle_type_id":"4","last_reported":1702897603,"current_range_meters":27600,"station_id":"ce4bhb12rcd13ifvqel0","pricing_plan_id":"free"},{"bike_id":"17a733a1-4ae9-4709-af79-e10d33216b87","system_id":"levelo_inurba_marseille","lat":43.294153,"lon":5.386305,"is_reserved":false,"is_disabled":false,"rental_uris":{"android":"levelo://app?vid=17a733a1-4ae9-4709-af79-e10d33216b87","ios":"levelo://app?vid=17a733a1-4ae9-4709-af79-e10d33216b87"},"vehicle_type_id":"4","last_reported":1702897603,"current_range_meters":3200,"station_id":"ce4bh2h2rcd13ifvqdh0","pricing_plan_id":"free"},{"bike_id":"e35474ef-171b-4ec6-b8c7-9b247eb2039d","system_id":"levelo_inurba_marseille","lat":43.292644,"lon":5.384257,"is_reserved":false,"is_disabled":false,"rental_uris":{"android":"levelo://app?vid=e35474ef-171b-4ec6-b8c7-9b247eb2039d","ios":"levelo://app?vid=e35474ef-171b-4ec6-b8c7-9b247eb2039d"},"vehicle_type_id":"4","last_reported":1702897603,"current_range_meters":24800,"station_id":"ce4bh692rcd13ifvqea0","pricing_plan_id":"free"},{"bike_id":"bad8020d-2f9a-49cf-81c4-89ee78281d29","system_id":"levelo_inurba_marseille","lat":43.292642,"lon":5.384254,"is_reserved":false,"is_disabled":false,"rental_uris":{"android":"levelo://app?vid=bad8020d-2f9a-49cf-81c4-89ee78281d29","ios":"levelo://app?vid=bad8020d-2f9a-49cf-81c4-89ee78281d29"},"vehicle_type_id":"4","last_reported":1702897603,"current_range_meters":3200,"station_id":"ce4bh692rcd13ifvqea0","pricing_plan_id":"free"},{"bike_id":"1b27635a-20ae-4703-85ed-f8ddc63c9387","system_id":"levelo_inurba_marseille","lat":43.292644,"lon":5.384257,"is_reserved":false,"is_disabled":false,"rental_uris":{"android":"levelo://app?vid=1b27635a-20ae-4703-85ed-f8ddc63c9387","ios":"levelo://app?vid=1b27635a-20ae-4703-85ed-f8ddc63c9387"},"vehicle_type_id":"4","last_reported":1702897603,"current_range_meters":8000,"station_id":"ce4bh692rcd13ifvqea0","pricing_plan_id":"free"},{"bike_id":"3558de2d-ac28-4c49-803f-a55220c3c8b5","system_id":"levelo_inurba_marseille","lat":43.292644,"lon":5.384257,"is_reserved":false,"is_disabled":false,"rental_uris":{"android":"levelo://app?vid=3558de2d-ac28-4c49-803f-a55220c3c8b5","ios":"levelo://app?vid=3558de2d-ac28-4c49-803f-a55220c3c8b5"},"vehicle_type_id":"4","last_reported":1702897603,"current_range_meters":22400,"station_id":"ce4bh692rcd13ifvqea0","pricing_plan_id":"free"},{"bike_id":"7c351f67-b49c-4671-9629-f5d9b3b06df2","system_id":"levelo_inurba_marseille","lat":43.290104,"lon":5.356111,"is_reserved":false,"is_disabled":false,"rental_uris":{"android":"levelo://app?vid=7c351f67-b49c-4671-9629-f5d9b3b06df2","ios":"levelo://app?vid=7c351f67-b49c-4671-9629-f5d9b3b06df2"},"vehicle_type_id":"4","last_reported":1702897603,"current_range_meters":6800,"station_id":"ce4bhb92rcd13ifvqen0","pricing_plan_id":"free"},{"bike_id":"2a5ab310-16cb-41d6-8318-0a8a39d8909e","system_id":"levelo_inurba_marseille","lat":43.295169,"lon":5.390426,"is_reserved":false,"is_disabled":false,"rental_uris":{"android":"levelo://app?vid=2a5ab310-16cb-41d6-8318-0a8a39d8909e","ios":"levelo://app?vid=2a5ab310-16cb-41d6-8318-0a8a39d8909e"},"vehicle_type_id":"4","last_reported":1702897603,"current_range_meters":25200,"station_id":"ce4bh3p2rcd13ifvqdp0","pricing_plan_id":"free"},{"bike_id":"697d7388-bfa8-46c0-8dd7-1d740870cfe4","system_id":"levelo_inurba_marseille","lat":43.2901,"lon":5.381269,"is_reserved":false,"is_disabled":false,"rental_uris":{"android":"levelo://app?vid=697d7388-bfa8-46c0-8dd7-1d740870cfe4","ios":"levelo://app?vid=697d7388-bfa8-46c0-8dd7-1d740870cfe4"},"vehicle_type_id":"4","last_reported":1702897603,"current_range_meters":14400,"station_id":"ce4bh4p2rcd13ifvqe1g","pricing_plan_id":"free"},{"bike_id":"1ebbbf1a-8881-49d5-b686-d9fcf0ba8778","system_id":"levelo_inurba_marseille","lat":43.28856,"lon":5.358371,"is_reserved":false,"is_disabled":false,"rental_uris":{"android":"levelo://app?vid=1ebbbf1a-8881-49d5-b686-d9fcf0ba8778","ios":"levelo://app?vid=1ebbbf1a-8881-49d5-b686-d9fcf0ba8778"},"vehicle_type_id":"4","last_reported":1702897603,"current_range_meters":4800,"station_id":"ce4bhb12rcd13ifvqem0","pricing_plan_id":"free"},{"bike_id":"fc8d24bb-0c26-4688-9bac-affcc075aa4d","system_id":"levelo_inurba_marseille","lat":43.337562,"lon":5.374628,"is_reserved":false,"is_disabled":false,"rental_uris":{"android":"levelo://app?vid=fc8d24bb-0c26-4688-9bac-affcc075aa4d","ios":"levelo://app?vid=fc8d24bb-0c26-4688-9bac-affcc075aa4d"},"vehicle_type_id":"4","last_reported":1702897603,"current_range_meters":30800,"station_id":"","pricing_plan_id":"free"},{"bike_id":"3582e14b-5982-4fcb-8817-b42b12be68a8","system_id":"levelo_inurba_marseille","lat":43.33762,"lon":5.37463,"is_reserved":false,"is_disabled":false,"rental_uris":{"android":"levelo://app?vid=3582e14b-5982-4fcb-8817-b42b12be68a8","ios":"levelo://app?vid=3582e14b-5982-4fcb-8817-b42b12be68a8"},"vehicle_type_id":"4","last_reported":1702897603,"current_range_meters":30800,"station_id":"","pricing_plan_id":"free"},{"bike_id":"4894ab7d-8f0a-413b-afad-f123d3723de0","system_id":"levelo_inurba_marseille","lat":43.286591,"lon":5.363346,"is_reserved":false,"is_disabled":false,"rental_uris":{"android":"levelo://app?vid=4894ab7d-8f0a-413b-afad-f123d3723de0","ios":"levelo://app?vid=4894ab7d-8f0a-413b-afad-f123d3723de0"},"vehicle_type_id":"4","last_reported":1702897603,"current_range_meters":8800,"station_id":"ce4bhah2rcd13ifvqej0","pricing_plan_id":"free"},{"bike_id":"cb733e3c-b4b1-479e-a3bc-44fe7da1a6c1","system_id":"levelo_inurba_marseille","lat":43.289307,"lon":5.38406,"is_reserved":false,"is_disabled":false,"rental_uris":{"android":"levelo://app?vid=cb733e3c-b4b1-479e-a3bc-44fe7da1a6c1","ios":"levelo://app?vid=cb733e3c-b4b1-479e-a3bc-44fe7da1a6c1"},"vehicle_type_id":"4","last_reported":1702897603,"current_range_meters":6400,"station_id":"ce4bh612rcd13ifvqe6g","pricing_plan_id":"free"},{"bike_id":"8321f1a3-969a-44d5-99e4-d37e4fac7dd1","system_id":"levelo_inurba_marseille","lat":43.286039,"lon":5.370681,"is_reserved":false,"is_disabled":false,"rental_uris":{"android":"levelo://app?vid=8321f1a3-969a-44d5-99e4-d37e4fac7dd1","ios":"levelo://app?vid=8321f1a3-969a-44d5-99e4-d37e4fac7dd1"},"vehicle_type_id":"4","last_reported":1702897603,"current_range_meters":10000,"station_id":"ce4bht12rcd13ifvqi60","pricing_plan_id":"free"},{"bike_id":"f5d00b58-6155-4aa5-ae3b-9fc827529f69","system_id":"levelo_inurba_marseille","lat":43.294314,"lon":5.397498,"is_reserved":false,"is_disabled":false,"rental_uris":{"android":"levelo://app?vid=f5d00b58-6155-4aa5-ae3b-9fc827529f69","ios":"levelo://app?vid=f5d00b58-6155-4aa5-ae3b-9fc827529f69"},"vehicle_type_id":"4","last_reported":1702897603,"current_range_meters":14000,"station_id":"ce4bh3h2rcd13ifvqdo0","pricing_plan_id":"free"},{"bike_id":"87ec457e-e14e-4b4b-b230-55f02c5dac1a","system_id":"levelo_inurba_marseille","lat":43.316828,"lon":5.404723,"is_reserved":false,"is_disabled":false,"rental_uris":{"android":"levelo://app?vid=87ec457e-e14e-4b4b-b230-55f02c5dac1a","ios":"levelo://app?vid=87ec457e-e14e-4b4b-b230-55f02c5dac1a"},"vehicle_type_id":"4","last_reported":1702897603,"current_range_meters":0,"station_id":"ce4bh012rcd13ifvqd00","pricing_plan_id":"free"},{"bike_id":"e08125b9-036e-40ee-b395-6fab4d9f0f5a","system_id":"levelo_inurba_marseille","lat":43.316828,"lon":5.404723,"is_reserved":false,"is_disabled":false,"rental_uris":{"android":"levelo://app?vid=e08125b9-036e-40ee-b395-6fab4d9f0f5a","ios":"levelo://app?vid=e08125b9-036e-40ee-b395-6fab4d9f0f5a"},"vehicle_type_id":"4","last_reported":1702897603,"current_range_meters":25200,"station_id":"ce4bh012rcd13ifvqd00","pricing_plan_id":"free"},{"bike_id":"3a7a37db-16f3-42b3-b9fb-9c1b01fd2e16","system_id":"levelo_inurba_marseille","lat":43.294314,"lon":5.397498,"is_reserved":false,"is_disabled":false,"rental_uris":{"android":"levelo://app?vid=3a7a37db-16f3-42b3-b9fb-9c1b01fd2e16","ios":"levelo://app?vid=3a7a37db-16f3-42b3-b9fb-9c1b01fd2e16"},"vehicle_type_id":"4","last_reported":1702897603,"current_range_meters":27200,"station_id":"ce4bh3h2rcd13ifvqdo0","pricing_plan_id":"free"},{"bike_id":"84d42f38-4252-442e-9e49-55f442ca799a","system_id":"levelo_inurba_marseille","lat":43.285856,"lon":5.350771,"is_reserved":false,"is_disabled":false,"rental_uris":{"android":"levelo://app?vid=84d42f38-4252-442e-9e49-55f442ca799a","ios":"levelo://app?vid=84d42f38-4252-442e-9e49-55f442ca799a"},"vehicle_type_id":"4","last_reported":1702897603,"current_range_meters":27600,"station_id":"ce4bhch2rcd13ifvqeug","pricing_plan_id":"free"},{"bike_id":"40d74143-bcac-4300-bc4a-f17ac2232065","system_id":"levelo_inurba_marseille","lat":43.28614,"lon":5.35101,"is_reserved":false,"is_disabled":false,"rental_uris":{"android":"levelo://app?vid=40d74143-bcac-4300-bc4a-f17ac2232065","ios":"levelo://app?vid=40d74143-bcac-4300-bc4a-f17ac2232065"},"vehicle_type_id":"4","last_reported":1702897603,"current_range_meters":0,"station_id":"ce4bhch2rcd13ifvqeug","pricing_plan_id":"free"},{"bike_id":"71f8a14b-0d6f-4559-96dd-a9b7d38b2eac","system_id":"levelo_inurba_marseille","lat":43.295713,"lon":5.399639,"is_reserved":false,"is_disabled":false,"rental_uris":{"android":"levelo://app?vid=71f8a14b-0d6f-4559-96dd-a9b7d38b2eac","ios":"levelo://app?vid=71f8a14b-0d6f-4559-96dd-a9b7d38b2eac"},"vehicle_type_id":"4","last_reported":1702897603,"current_range_meters":29200,"station_id":"ce4bh312rcd13ifvqdj0","pricing_plan_id":"free"},{"bike_id":"2dfa5049-0e1b-4839-b5c3-156910a65dbd","system_id":"levelo_inurba_marseille","lat":43.33218,"lon":5.397067,"is_reserved":false,"is_disabled":false,"rental_uris":{"android":"levelo://app?vid=2dfa5049-0e1b-4839-b5c3-156910a65dbd","ios":"levelo://app?vid=2dfa5049-0e1b-4839-b5c3-156910a65dbd"},"vehicle_type_id":"4","last_reported":1702897603,"current_range_meters":5600,"station_id":"","pricing_plan_id":"free"},{"bike_id":"831e2d4c-5f0e-4ae5-9050-c85672a4a9fb","system_id":"levelo_inurba_marseille","lat":43.319179,"lon":5.407725,"is_reserved":false,"is_disabled":false,"rental_uris":{"android":"levelo://app?vid=831e2d4c-5f0e-4ae5-9050-c85672a4a9fb","ios":"levelo://app?vid=831e2d4c-5f0e-4ae5-9050-c85672a4a9fb"},"vehicle_type_id":"4","last_reported":1702897603,"current_range_meters":26400,"station_id":"ce4bhq12rcd13ifvqhig","pricing_plan_id":"free"},{"bike_id":"d7712de3-f0cd-46af-b706-7fa343bd6e56","system_id":"levelo_inurba_marseille","lat":43.337168,"lon":5.391825,"is_reserved":false,"is_disabled":false,"rental_uris":{"android":"levelo://app?vid=d7712de3-f0cd-46af-b706-7fa343bd6e56","ios":"levelo://app?vid=d7712de3-f0cd-46af-b706-7fa343bd6e56"},"vehicle_type_id":"4","last_reported":1702897603,"current_range_meters":16400,"station_id":"ce4bhr92rcd13ifvqhsg","pricing_plan_id":"free"},{"bike_id":"3d790a76-1668-4070-a446-01ae51ee11f5","system_id":"levelo_inurba_marseille","lat":43.297946,"lon":5.404063,"is_reserved":false,"is_disabled":false,"rental_uris":{"android":"levelo://app?vid=3d790a76-1668-4070-a446-01ae51ee11f5","ios":"levelo://app?vid=3d790a76-1668-4070-a446-01ae51ee11f5"},"vehicle_type_id":"4","last_reported":1702897603,"current_range_meters":11600,"station_id":"ce4bh112rcd13ifvqd90","pricing_plan_id":"free"},{"bike_id":"1c096ec0-5471-4197-ab62-ffa18c311bc5","system_id":"levelo_inurba_marseille","lat":43.306412,"lon":5.401035,"is_reserved":false,"is_disabled":false,"rental_uris":{"android":"levelo://app?vid=1c096ec0-5471-4197-ab62-ffa18c311bc5","ios":"levelo://app?vid=1c096ec0-5471-4197-ab62-ffa18c311bc5"},"vehicle_type_id":"4","last_reported":1702897603,"current_range_meters":27200,"station_id":"ce4bh112rcd13ifvqda0","pricing_plan_id":"free"},{"bike_id":"f33a8310-1c14-4b8e-8352-76e4bd257b95","system_id":"levelo_inurba_marseille","lat":43.283502,"lon":5.386471,"is_reserved":false,"is_disabled":false,"rental_uris":{"android":"levelo://app?vid=f33a8310-1c14-4b8e-8352-76e4bd257b95","ios":"levelo://app?vid=f33a8310-1c14-4b8e-8352-76e4bd257b95"},"vehicle_type_id":"4","last_reported":1702897603,"current_range_meters":0,"station_id":"ce4bh492rcd13ifvqdvg","pricing_plan_id":"free"},{"bike_id":"4345b800-7345-402f-ac19-d96dd2548378","system_id":"levelo_inurba_marseille","lat":43.2963,"lon":5.40592,"is_reserved":false,"is_disabled":false,"rental_uris":{"android":"levelo://app?vid=4345b800-7345-402f-ac19-d96dd2548378","ios":"levelo://app?vid=4345b800-7345-402f-ac19-d96dd2548378"},"vehicle_type_id":"4","last_reported":1702897603,"current_range_meters":1200,"station_id":"ce4bh0h2rcd13ifvqd60","pricing_plan_id":"free"},{"bike_id":"18b08ec9-cd66-4c90-87d3-7c992aef42b9","system_id":"levelo_inurba_marseille","lat":43.284462,"lon":5.392121,"is_reserved":false,"is_disabled":false,"rental_uris":{"android":"levelo://app?vid=18b08ec9-cd66-4c90-87d3-7c992aef42b9","ios":"levelo://app?vid=18b08ec9-cd66-4c90-87d3-7c992aef42b9"},"vehicle_type_id":"4","last_reported":1702897603,"current_range_meters":28000,"station_id":"ce4bhoh2rcd13ifvqh5g","pricing_plan_id":"free"},{"bike_id":"72ab2e08-031b-4da5-9b0d-5fd20d27602f","system_id":"levelo_inurba_marseille","lat":43.320045,"lon":5.415048,"is_reserved":false,"is_disabled":false,"rental_uris":{"android":"levelo://app?vid=72ab2e08-031b-4da5-9b0d-5fd20d27602f","ios":"levelo://app?vid=72ab2e08-031b-4da5-9b0d-5fd20d27602f"},"vehicle_type_id":"4","last_reported":1702897603,"current_range_meters":26800,"station_id":"ce4bhq92rcd13ifvqhkg","pricing_plan_id":"free"},{"bike_id":"c9a59b04-600c-45c8-989e-bea4665420ab","system_id":"levelo_inurba_marseille","lat":43.299579,"lon":5.413255,"is_reserved":false,"is_disabled":false,"rental_uris":{"android":"levelo://app?vid=c9a59b04-600c-45c8-989e-bea4665420ab","ios":"levelo://app?vid=c9a59b04-600c-45c8-989e-bea4665420ab"},"vehicle_type_id":"4","last_reported":1702897603,"current_range_meters":30400,"station_id":"ce4bhp12rcd13ifvqh9g","pricing_plan_id":"free"},{"bike_id":"d7151524-9488-473d-b2b2-11de02aab3d9","system_id":"levelo_inurba_marseille","lat":43.325243,"lon":5.414326,"is_reserved":false,"is_disabled":false,"rental_uris":{"android":"levelo://app?vid=d7151524-9488-473d-b2b2-11de02aab3d9","ios":"levelo://app?vid=d7151524-9488-473d-b2b2-11de02aab3d9"},"vehicle_type_id":"4","last_reported":1702897603,"current_range_meters":18800,"station_id":"ce4bhq12rcd13ifvqhhg","pricing_plan_id":"free"},{"bike_id":"354ae364-2c75-48c0-a452-9b8ea91f6994","system_id":"levelo_inurba_marseille","lat":43.3254,"lon":5.41431,"is_reserved":false,"is_disabled":false,"rental_uris":{"android":"levelo://app?vid=354ae364-2c75-48c0-a452-9b8ea91f6994","ios":"levelo://app?vid=354ae364-2c75-48c0-a452-9b8ea91f6994"},"vehicle_type_id":"4","last_reported":1702897603,"current_range_meters":10400,"station_id":"ce4bhq12rcd13ifvqhhg","pricing_plan_id":"free"},{"bike_id":"cf75a6d8-3502-4f9e-a4e1-9961562d262f","system_id":"levelo_inurba_marseille","lat":43.325233,"lon":5.414318,"is_reserved":false,"is_disabled":false,"rental_uris":{"android":"levelo://app?vid=cf75a6d8-3502-4f9e-a4e1-9961562d262f","ios":"levelo://app?vid=cf75a6d8-3502-4f9e-a4e1-9961562d262f"},"vehicle_type_id":"4","last_reported":1702897603,"current_range_meters":31200,"station_id":"ce4bhq12rcd13ifvqhhg","pricing_plan_id":"free"},{"bike_id":"b46e4907-6d80-4200-8d5a-80ed95b733bd","system_id":"levelo_inurba_marseille","lat":43.320045,"lon":5.415048,"is_reserved":false,"is_disabled":false,"rental_uris":{"android":"levelo://app?vid=b46e4907-6d80-4200-8d5a-80ed95b733bd","ios":"levelo://app?vid=b46e4907-6d80-4200-8d5a-80ed95b733bd"},"vehicle_type_id":"4","last_reported":1702897603,"current_range_meters":12800,"station_id":"ce4bhq92rcd13ifvqhkg","pricing_plan_id":"free"},{"bike_id":"6439764e-1017-4b79-b1ee-0830cac99bcd","system_id":"levelo_inurba_marseille","lat":43.325233,"lon":5.414318,"is_reserved":false,"is_disabled":false,"rental_uris":{"android":"levelo://app?vid=6439764e-1017-4b79-b1ee-0830cac99bcd","ios":"levelo://app?vid=6439764e-1017-4b79-b1ee-0830cac99bcd"},"vehicle_type_id":"4","last_reported":1702897603,"current_range_meters":30000,"station_id":"ce4bhq12rcd13ifvqhhg","pricing_plan_id":"free"},{"bike_id":"224bcffd-86fc-4c77-ac09-12306f63094d","system_id":"levelo_inurba_marseille","lat":43.325233,"lon":5.414318,"is_reserved":false,"is_disabled":false,"rental_uris":{"android":"levelo://app?vid=224bcffd-86fc-4c77-ac09-12306f63094d","ios":"levelo://app?vid=224bcffd-86fc-4c77-ac09-12306f63094d"},"vehicle_type_id":"4","last_reported":1702897603,"current_range_meters":31200,"station_id":"ce4bhq12rcd13ifvqhhg","pricing_plan_id":"free"},{"bike_id":"0996178a-e20e-429d-88c9-783e15747b15","system_id":"levelo_inurba_marseille","lat":43.325243,"lon":5.414326,"is_reserved":false,"is_disabled":false,"rental_uris":{"android":"levelo://app?vid=0996178a-e20e-429d-88c9-783e15747b15","ios":"levelo://app?vid=0996178a-e20e-429d-88c9-783e15747b15"},"vehicle_type_id":"4","last_reported":1702897603,"current_range_meters":5200,"station_id":"ce4bhq12rcd13ifvqhhg","pricing_plan_id":"free"},{"bike_id":"8b89a6cf-b837-45b4-ae98-4ba2c5780b41","system_id":"levelo_inurba_marseille","lat":43.325243,"lon":5.414326,"is_reserved":false,"is_disabled":false,"rental_uris":{"android":"levelo://app?vid=8b89a6cf-b837-45b4-ae98-4ba2c5780b41","ios":"levelo://app?vid=8b89a6cf-b837-45b4-ae98-4ba2c5780b41"},"vehicle_type_id":"4","last_reported":1702897603,"current_range_meters":30400,"station_id":"ce4bhq12rcd13ifvqhhg","pricing_plan_id":"free"},{"bike_id":"9783b029-37a4-4b0f-b2eb-c8b4f0a0e6a4","system_id":"levelo_inurba_marseille","lat":43.325233,"lon":5.414318,"is_reserved":false,"is_disabled":false,"rental_uris":{"android":"levelo://app?vid=9783b029-37a4-4b0f-b2eb-c8b4f0a0e6a4","ios":"levelo://app?vid=9783b029-37a4-4b0f-b2eb-c8b4f0a0e6a4"},"vehicle_type_id":"4","last_reported":1702897603,"current_range_meters":31200,"station_id":"ce4bhq12rcd13ifvqhhg","pricing_plan_id":"free"},{"bike_id":"58ada6ab-d1f9-466f-8fbb-598d5159b236","system_id":"levelo_inurba_marseille","lat":43.2738,"lon":5.36253,"is_reserved":false,"is_disabled":false,"rental_uris":{"android":"levelo://app?vid=58ada6ab-d1f9-466f-8fbb-598d5159b236","ios":"levelo://app?vid=58ada6ab-d1f9-466f-8fbb-598d5159b236"},"vehicle_type_id":"4","last_reported":1702897603,"current_range_meters":26800,"station_id":"ce4bhbh2rcd13ifvqeo0","pricing_plan_id":"free"},{"bike_id":"55759c6e-73dd-4320-8e9b-380979d2769e","system_id":"levelo_inurba_marseille","lat":43.3361,"lon":5.410097,"is_reserved":false,"is_disabled":false,"rental_uris":{"android":"levelo://app?vid=55759c6e-73dd-4320-8e9b-380979d2769e","ios":"levelo://app?vid=55759c6e-73dd-4320-8e9b-380979d2769e"},"vehicle_type_id":"4","last_reported":1702897603,"current_range_meters":15200,"station_id":"ce4bhqh2rcd13ifvqhmg","pricing_plan_id":"free"},{"bike_id":"4d03f41e-8872-4c7f-aa6a-3473a79df718","system_id":"levelo_inurba_marseille","lat":43.336134,"lon":5.410341,"is_reserved":false,"is_disabled":false,"rental_uris":{"android":"levelo://app?vid=4d03f41e-8872-4c7f-aa6a-3473a79df718","ios":"levelo://app?vid=4d03f41e-8872-4c7f-aa6a-3473a79df718"},"vehicle_type_id":"4","last_reported":1702897603,"current_range_meters":14800,"station_id":"ce4bhqh2rcd13ifvqhmg","pricing_plan_id":"free"},{"bike_id":"ba23a49f-f752-40f9-b881-d731ba920e07","system_id":"levelo_inurba_marseille","lat":43.32542,"lon":5.42121,"is_reserved":false,"is_disabled":false,"rental_uris":{"android":"levelo://app?vid=ba23a49f-f752-40f9-b881-d731ba920e07","ios":"levelo://app?vid=ba23a49f-f752-40f9-b881-d731ba920e07"},"vehicle_type_id":"4","last_reported":1702897603,"current_range_meters":28800,"station_id":"","pricing_plan_id":"free"},{"bike_id":"3ca2c2d2-99b0-4aa6-a05d-e30f02e6a7fb","system_id":"levelo_inurba_marseille","lat":43.276092,"lon":5.395289,"is_reserved":false,"is_disabled":false,"rental_uris":{"android":"levelo://app?vid=3ca2c2d2-99b0-4aa6-a05d-e30f02e6a7fb","ios":"levelo://app?vid=3ca2c2d2-99b0-4aa6-a05d-e30f02e6a7fb"},"vehicle_type_id":"4","last_reported":1702897603,"current_range_meters":14000,"station_id":"","pricing_plan_id":"free"},{"bike_id":"628a1844-4de6-4ff8-b7b8-44bb12a39376","system_id":"levelo_inurba_marseille","lat":43.295511,"lon":5.422926,"is_reserved":false,"is_disabled":false,"rental_uris":{"android":"levelo://app?vid=628a1844-4de6-4ff8-b7b8-44bb12a39376","ios":"levelo://app?vid=628a1844-4de6-4ff8-b7b8-44bb12a39376"},"vehicle_type_id":"4","last_reported":1702897603,"current_range_meters":31600,"station_id":"ce4bhph2rcd13ifvqhdg","pricing_plan_id":"free"},{"bike_id":"3be05306-32ba-460c-830b-c3f5cb8fc928","system_id":"levelo_inurba_marseille","lat":43.295511,"lon":5.422926,"is_reserved":false,"is_disabled":false,"rental_uris":{"android":"levelo://app?vid=3be05306-32ba-460c-830b-c3f5cb8fc928","ios":"levelo://app?vid=3be05306-32ba-460c-830b-c3f5cb8fc928"},"vehicle_type_id":"4","last_reported":1702897603,"current_range_meters":28800,"station_id":"ce4bhph2rcd13ifvqhdg","pricing_plan_id":"free"},{"bike_id":"fb094048-824a-49d1-905f-084ec3753a88","system_id":"levelo_inurba_marseille","lat":43.295523,"lon":5.422926,"is_reserved":false,"is_disabled":false,"rental_uris":{"android":"levelo://app?vid=fb094048-824a-49d1-905f-084ec3753a88","ios":"levelo://app?vid=fb094048-824a-49d1-905f-084ec3753a88"},"vehicle_type_id":"4","last_reported":1702897603,"current_range_meters":26000,"station_id":"ce4bhph2rcd13ifvqhdg","pricing_plan_id":"free"},{"bike_id":"35f4c7df-1dd1-49cd-b086-e9b64d14ba25","system_id":"levelo_inurba_marseille","lat":43.295511,"lon":5.422926,"is_reserved":false,"is_disabled":false,"rental_uris":{"android":"levelo://app?vid=35f4c7df-1dd1-49cd-b086-e9b64d14ba25","ios":"levelo://app?vid=35f4c7df-1dd1-49cd-b086-e9b64d14ba25"},"vehicle_type_id":"4","last_reported":1702897603,"current_range_meters":26800,"station_id":"ce4bhph2rcd13ifvqhdg","pricing_plan_id":"free"},{"bike_id":"9cbe5e87-404e-4c09-afbe-5ee44247e5dc","system_id":"levelo_inurba_marseille","lat":43.295523,"lon":5.422926,"is_reserved":false,"is_disabled":false,"rental_uris":{"android":"levelo://app?vid=9cbe5e87-404e-4c09-afbe-5ee44247e5dc","ios":"levelo://app?vid=9cbe5e87-404e-4c09-afbe-5ee44247e5dc"},"vehicle_type_id":"4","last_reported":1702897603,"current_range_meters":31200,"station_id":"ce4bhph2rcd13ifvqhdg","pricing_plan_id":"free"},{"bike_id":"c5b44840-1601-43ac-abe9-c1e5b739efac","system_id":"levelo_inurba_marseille","lat":43.295523,"lon":5.422926,"is_reserved":false,"is_disabled":false,"rental_uris":{"android":"levelo://app?vid=c5b44840-1601-43ac-abe9-c1e5b739efac","ios":"levelo://app?vid=c5b44840-1601-43ac-abe9-c1e5b739efac"},"vehicle_type_id":"4","last_reported":1702897603,"current_range_meters":29200,"station_id":"ce4bhph2rcd13ifvqhdg","pricing_plan_id":"free"},{"bike_id":"7c4cb4b8-c5a4-4039-9877-e1fd973e994a","system_id":"levelo_inurba_marseille","lat":43.295565,"lon":5.422946,"is_reserved":false,"is_disabled":false,"rental_uris":{"android":"levelo://app?vid=7c4cb4b8-c5a4-4039-9877-e1fd973e994a","ios":"levelo://app?vid=7c4cb4b8-c5a4-4039-9877-e1fd973e994a"},"vehicle_type_id":"4","last_reported":1702897603,"current_range_meters":28000,"station_id":"","pricing_plan_id":"free"},{"bike_id":"9b8f5ce3-81d5-4ecb-80a2-771cfce35fc0","system_id":"levelo_inurba_marseille","lat":43.295511,"lon":5.422926,"is_reserved":false,"is_disabled":false,"rental_uris":{"android":"levelo://app?vid=9b8f5ce3-81d5-4ecb-80a2-771cfce35fc0","ios":"levelo://app?vid=9b8f5ce3-81d5-4ecb-80a2-771cfce35fc0"},"vehicle_type_id":"4","last_reported":1702897603,"current_range_meters":26000,"station_id":"ce4bhph2rcd13ifvqhdg","pricing_plan_id":"free"},{"bike_id":"cb94324f-2a65-478e-a112-0f4d70250d1b","system_id":"levelo_inurba_marseille","lat":43.295552,"lon":5.422949,"is_reserved":false,"is_disabled":false,"rental_uris":{"android":"levelo://app?vid=cb94324f-2a65-478e-a112-0f4d70250d1b","ios":"levelo://app?vid=cb94324f-2a65-478e-a112-0f4d70250d1b"},"vehicle_type_id":"4","last_reported":1702897603,"current_range_meters":28000,"station_id":"","pricing_plan_id":"free"},{"bike_id":"7c5e5a9a-9f39-4a14-9573-d5b8ab599dd5","system_id":"levelo_inurba_marseille","lat":43.27188,"lon":5.39224,"is_reserved":false,"is_disabled":false,"rental_uris":{"android":"levelo://app?vid=7c5e5a9a-9f39-4a14-9573-d5b8ab599dd5","ios":"levelo://app?vid=7c5e5a9a-9f39-4a14-9573-d5b8ab599dd5"},"vehicle_type_id":"4","last_reported":1702897603,"current_range_meters":14400,"station_id":"ce4bhhp2rcd13ifvqfm0","pricing_plan_id":"free"},{"bike_id":"f0fee9dc-8832-4206-bce1-b91d2c190d45","system_id":"levelo_inurba_marseille","lat":43.279465,"lon":5.410561,"is_reserved":false,"is_disabled":false,"rental_uris":{"android":"levelo://app?vid=f0fee9dc-8832-4206-bce1-b91d2c190d45","ios":"levelo://app?vid=f0fee9dc-8832-4206-bce1-b91d2c190d45"},"vehicle_type_id":"4","last_reported":1702897603,"current_range_meters":6800,"station_id":"ce4bhnp2rcd13ifvqh0g","pricing_plan_id":"free"},{"bike_id":"04d9051f-3742-40cc-a5fd-26456787f6f5","system_id":"levelo_inurba_marseille","lat":43.269319,"lon":5.389397,"is_reserved":false,"is_disabled":false,"rental_uris":{"android":"levelo://app?vid=04d9051f-3742-40cc-a5fd-26456787f6f5","ios":"levelo://app?vid=04d9051f-3742-40cc-a5fd-26456787f6f5"},"vehicle_type_id":"4","last_reported":1702897603,"current_range_meters":28000,"station_id":"ce4bhhh2rcd13ifvqfl0","pricing_plan_id":"free"},{"bike_id":"db774753-4382-453e-a138-c32d538f9839","system_id":"levelo_inurba_marseille","lat":43.358673,"lon":5.356887,"is_reserved":false,"is_disabled":false,"rental_uris":{"android":"levelo://app?vid=db774753-4382-453e-a138-c32d538f9839","ios":"levelo://app?vid=db774753-4382-453e-a138-c32d538f9839"},"vehicle_type_id":"4","last_reported":1702897603,"current_range_meters":10000,"station_id":"","pricing_plan_id":"free"},{"bike_id":"f948964a-3a3c-44c4-96e2-4c66297a1ddf","system_id":"levelo_inurba_marseille","lat":43.26681,"lon":5.382694,"is_reserved":false,"is_disabled":false,"rental_uris":{"android":"levelo://app?vid=f948964a-3a3c-44c4-96e2-4c66297a1ddf","ios":"levelo://app?vid=f948964a-3a3c-44c4-96e2-4c66297a1ddf"},"vehicle_type_id":"4","last_reported":1702897603,"current_range_meters":14400,"station_id":"ce4bhg92rcd13ifvqf90","pricing_plan_id":"free"},{"bike_id":"af924c13-a1fc-4be6-952c-092d15688ce7","system_id":"levelo_inurba_marseille","lat":43.26678,"lon":5.38265,"is_reserved":false,"is_disabled":false,"rental_uris":{"android":"levelo://app?vid=af924c13-a1fc-4be6-952c-092d15688ce7","ios":"levelo://app?vid=af924c13-a1fc-4be6-952c-092d15688ce7"},"vehicle_type_id":"4","last_reported":1702897603,"current_range_meters":4000,"station_id":"ce4bhg92rcd13ifvqf90","pricing_plan_id":"free"},{"bike_id":"18362084-cae0-4751-b141-9300d4f7dd83","system_id":"levelo_inurba_marseille","lat":43.26681,"lon":5.382694,"is_reserved":false,"is_disabled":false,"rental_uris":{"android":"levelo://app?vid=18362084-cae0-4751-b141-9300d4f7dd83","ios":"levelo://app?vid=18362084-cae0-4751-b141-9300d4f7dd83"},"vehicle_type_id":"4","last_reported":1702897603,"current_range_meters":31600,"station_id":"ce4bhg92rcd13ifvqf90","pricing_plan_id":"free"},{"bike_id":"521b0377-cc4f-4a6f-afad-39e2f88f14b3","system_id":"levelo_inurba_marseille","lat":43.26681,"lon":5.382694,"is_reserved":false,"is_disabled":false,"rental_uris":{"android":"levelo://app?vid=521b0377-cc4f-4a6f-afad-39e2f88f14b3","ios":"levelo://app?vid=521b0377-cc4f-4a6f-afad-39e2f88f14b3"},"vehicle_type_id":"4","last_reported":1702897603,"current_range_meters":31200,"station_id":"ce4bhg92rcd13ifvqf90","pricing_plan_id":"free"},{"bike_id":"cbf8ad84-81e4-4d8d-9ca5-2b9c3fbb949a","system_id":"levelo_inurba_marseille","lat":43.26553,"lon":5.37287,"is_reserved":false,"is_disabled":false,"rental_uris":{"android":"levelo://app?vid=cbf8ad84-81e4-4d8d-9ca5-2b9c3fbb949a","ios":"levelo://app?vid=cbf8ad84-81e4-4d8d-9ca5-2b9c3fbb949a"},"vehicle_type_id":"4","last_reported":1702897603,"current_range_meters":28000,"station_id":"","pricing_plan_id":"free"},{"bike_id":"52d02a16-98a7-42b3-9676-007c2ae8e728","system_id":"levelo_inurba_marseille","lat":43.27996,"lon":5.416624,"is_reserved":false,"is_disabled":false,"rental_uris":{"android":"levelo://app?vid=52d02a16-98a7-42b3-9676-007c2ae8e728","ios":"levelo://app?vid=52d02a16-98a7-42b3-9676-007c2ae8e728"},"vehicle_type_id":"4","last_reported":1702897603,"current_range_meters":0,"station_id":"ce4bho12rcd13ifvqh1g","pricing_plan_id":"free"},{"bike_id":"0519215d-32e4-4f20-abcf-50d7be4e3298","system_id":"levelo_inurba_marseille","lat":43.27996,"lon":5.416624,"is_reserved":false,"is_disabled":false,"rental_uris":{"android":"levelo://app?vid=0519215d-32e4-4f20-abcf-50d7be4e3298","ios":"levelo://app?vid=0519215d-32e4-4f20-abcf-50d7be4e3298"},"vehicle_type_id":"4","last_reported":1702897603,"current_range_meters":8400,"station_id":"ce4bho12rcd13ifvqh1g","pricing_plan_id":"free"},{"bike_id":"61913a3b-348a-4780-9c29-b29ac6d11f6f","system_id":"levelo_inurba_marseille","lat":43.265714,"lon":5.372891,"is_reserved":false,"is_disabled":false,"rental_uris":{"android":"levelo://app?vid=61913a3b-348a-4780-9c29-b29ac6d11f6f","ios":"levelo://app?vid=61913a3b-348a-4780-9c29-b29ac6d11f6f"},"vehicle_type_id":"4","last_reported":1702897603,"current_range_meters":30800,"station_id":"ce4bhg12rcd13ifvqf70","pricing_plan_id":"free"},{"bike_id":"f16d33ca-bf6a-4a01-ba7b-7f87a1ee5b04","system_id":"levelo_inurba_marseille","lat":43.265714,"lon":5.372891,"is_reserved":false,"is_disabled":false,"rental_uris":{"android":"levelo://app?vid=f16d33ca-bf6a-4a01-ba7b-7f87a1ee5b04","ios":"levelo://app?vid=f16d33ca-bf6a-4a01-ba7b-7f87a1ee5b04"},"vehicle_type_id":"4","last_reported":1702897603,"current_range_meters":3200,"station_id":"ce4bhg12rcd13ifvqf70","pricing_plan_id":"free"},{"bike_id":"1e4e2d3c-2c40-4f75-ac12-0387ae124292","system_id":"levelo_inurba_marseille","lat":43.267966,"lon":5.393976,"is_reserved":false,"is_disabled":false,"rental_uris":{"android":"levelo://app?vid=1e4e2d3c-2c40-4f75-ac12-0387ae124292","ios":"levelo://app?vid=1e4e2d3c-2c40-4f75-ac12-0387ae124292"},"vehicle_type_id":"4","last_reported":1702897603,"current_range_meters":29200,"station_id":"ce4bhh12rcd13ifvqfg0","pricing_plan_id":"free"},{"bike_id":"302c6552-d42d-4de3-88e7-8d5d8132bb40","system_id":"levelo_inurba_marseille","lat":43.265571,"lon":5.390032,"is_reserved":false,"is_disabled":false,"rental_uris":{"android":"levelo://app?vid=302c6552-d42d-4de3-88e7-8d5d8132bb40","ios":"levelo://app?vid=302c6552-d42d-4de3-88e7-8d5d8132bb40"},"vehicle_type_id":"4","last_reported":1702897603,"current_range_meters":22000,"station_id":"ce4bhe12rcd13ifvqf30","pricing_plan_id":"free"},{"bike_id":"ef15242a-96b1-4b4c-b3bb-ef921560161a","system_id":"levelo_inurba_marseille","lat":43.317104,"lon":5.436818,"is_reserved":false,"is_disabled":false,"rental_uris":{"android":"levelo://app?vid=ef15242a-96b1-4b4c-b3bb-ef921560161a","ios":"levelo://app?vid=ef15242a-96b1-4b4c-b3bb-ef921560161a"},"vehicle_type_id":"4","last_reported":1702897603,"current_range_meters":24400,"station_id":"ce4bhp92rcd13ifvqhcg","pricing_plan_id":"free"},{"bike_id":"be3c7518-3a90-4ace-b263-cbe424279bc2","system_id":"levelo_inurba_marseille","lat":43.298768,"lon":5.43643,"is_reserved":false,"is_disabled":false,"rental_uris":{"android":"levelo://app?vid=be3c7518-3a90-4ace-b263-cbe424279bc2","ios":"levelo://app?vid=be3c7518-3a90-4ace-b263-cbe424279bc2"},"vehicle_type_id":"4","last_reported":1702897603,"current_range_meters":23200,"station_id":"ce4bhpp2rcd13ifvqhfg","pricing_plan_id":"free"},{"bike_id":"8b000818-ee66-4afa-956c-06d1feec8088","system_id":"levelo_inurba_marseille","lat":43.298768,"lon":5.43643,"is_reserved":false,"is_disabled":false,"rental_uris":{"android":"levelo://app?vid=8b000818-ee66-4afa-956c-06d1feec8088","ios":"levelo://app?vid=8b000818-ee66-4afa-956c-06d1feec8088"},"vehicle_type_id":"4","last_reported":1702897603,"current_range_meters":26000,"station_id":"ce4bhpp2rcd13ifvqhfg","pricing_plan_id":"free"},{"bike_id":"4fea65ab-a77d-4bf8-a74b-5071d694c413","system_id":"levelo_inurba_marseille","lat":43.260225,"lon":5.375455,"is_reserved":false,"is_disabled":false,"rental_uris":{"android":"levelo://app?vid=4fea65ab-a77d-4bf8-a74b-5071d694c413","ios":"levelo://app?vid=4fea65ab-a77d-4bf8-a74b-5071d694c413"},"vehicle_type_id":"4","last_reported":1702897603,"current_range_meters":10400,"station_id":"ce4bhgh2rcd13ifvqfa0","pricing_plan_id":"free"},{"bike_id":"99867697-39b0-4506-8cb3-35ad1ffd1128","system_id":"levelo_inurba_marseille","lat":43.260225,"lon":5.375455,"is_reserved":false,"is_disabled":false,"rental_uris":{"android":"levelo://app?vid=99867697-39b0-4506-8cb3-35ad1ffd1128","ios":"levelo://app?vid=99867697-39b0-4506-8cb3-35ad1ffd1128"},"vehicle_type_id":"4","last_reported":1702897603,"current_range_meters":23600,"station_id":"ce4bhgh2rcd13ifvqfa0","pricing_plan_id":"free"},{"bike_id":"c9a3d65d-2491-4ef4-915d-7e74ff265d0f","system_id":"levelo_inurba_marseille","lat":43.260225,"lon":5.375455,"is_reserved":false,"is_disabled":false,"rental_uris":{"android":"levelo://app?vid=c9a3d65d-2491-4ef4-915d-7e74ff265d0f","ios":"levelo://app?vid=c9a3d65d-2491-4ef4-915d-7e74ff265d0f"},"vehicle_type_id":"4","last_reported":1702897603,"current_range_meters":26000,"station_id":"ce4bhgh2rcd13ifvqfa0","pricing_plan_id":"free"},{"bike_id":"4d2f94b6-89fd-4934-b631-4bde17164171","system_id":"levelo_inurba_marseille","lat":43.26023,"lon":5.3755,"is_reserved":false,"is_disabled":false,"rental_uris":{"android":"levelo://app?vid=4d2f94b6-89fd-4934-b631-4bde17164171","ios":"levelo://app?vid=4d2f94b6-89fd-4934-b631-4bde17164171"},"vehicle_type_id":"4","last_reported":1702897603,"current_range_meters":27200,"station_id":"ce4bhgh2rcd13ifvqfa0","pricing_plan_id":"free"},{"bike_id":"7bd30b8c-d34e-4b55-a5a3-898b9d728a98","system_id":"levelo_inurba_marseille","lat":43.2607,"lon":5.393983,"is_reserved":false,"is_disabled":false,"rental_uris":{"android":"levelo://app?vid=7bd30b8c-d34e-4b55-a5a3-898b9d728a98","ios":"levelo://app?vid=7bd30b8c-d34e-4b55-a5a3-898b9d728a98"},"vehicle_type_id":"4","last_reported":1702897603,"current_range_meters":30400,"station_id":"ce4bhh92rcd13ifvqfj0","pricing_plan_id":"free"},{"bike_id":"5e86fbab-807a-4ddf-af4c-7e9d6f7d0080","system_id":"levelo_inurba_marseille","lat":43.2607,"lon":5.393983,"is_reserved":false,"is_disabled":false,"rental_uris":{"android":"levelo://app?vid=5e86fbab-807a-4ddf-af4c-7e9d6f7d0080","ios":"levelo://app?vid=5e86fbab-807a-4ddf-af4c-7e9d6f7d0080"},"vehicle_type_id":"4","last_reported":1702897603,"current_range_meters":8800,"station_id":"ce4bhh92rcd13ifvqfj0","pricing_plan_id":"free"},{"bike_id":"d2007443-4338-42cb-923c-147041d30edf","system_id":"levelo_inurba_marseille","lat":43.275028,"lon":5.424534,"is_reserved":false,"is_disabled":false,"rental_uris":{"android":"levelo://app?vid=d2007443-4338-42cb-923c-147041d30edf","ios":"levelo://app?vid=d2007443-4338-42cb-923c-147041d30edf"},"vehicle_type_id":"4","last_reported":1702897603,"current_range_meters":31200,"station_id":"ce4bhn92rcd13ifvqgrg","pricing_plan_id":"free"},{"bike_id":"152e125e-7225-4ec6-8728-7823316384b7","system_id":"levelo_inurba_marseille","lat":43.275028,"lon":5.424534,"is_reserved":false,"is_disabled":false,"rental_uris":{"android":"levelo://app?vid=152e125e-7225-4ec6-8728-7823316384b7","ios":"levelo://app?vid=152e125e-7225-4ec6-8728-7823316384b7"},"vehicle_type_id":"4","last_reported":1702897603,"current_range_meters":22000,"station_id":"ce4bhn92rcd13ifvqgrg","pricing_plan_id":"free"},{"bike_id":"b9e168a5-bfcd-4bea-9c6f-dd7e3cd7ad17","system_id":"levelo_inurba_marseille","lat":43.275028,"lon":5.424534,"is_reserved":false,"is_disabled":false,"rental_uris":{"android":"levelo://app?vid=b9e168a5-bfcd-4bea-9c6f-dd7e3cd7ad17","ios":"levelo://app?vid=b9e168a5-bfcd-4bea-9c6f-dd7e3cd7ad17"},"vehicle_type_id":"4","last_reported":1702897603,"current_range_meters":23200,"station_id":"ce4bhn92rcd13ifvqgrg","pricing_plan_id":"free"},{"bike_id":"45baab9e-6fe0-4451-8ff2-5be7fb590c65","system_id":"levelo_inurba_marseille","lat":43.275028,"lon":5.424534,"is_reserved":false,"is_disabled":false,"rental_uris":{"android":"levelo://app?vid=45baab9e-6fe0-4451-8ff2-5be7fb590c65","ios":"levelo://app?vid=45baab9e-6fe0-4451-8ff2-5be7fb590c65"},"vehicle_type_id":"4","last_reported":1702897603,"current_range_meters":800,"station_id":"ce4bhn92rcd13ifvqgrg","pricing_plan_id":"free"},{"bike_id":"b41d8c65-a328-409e-a2f2-8750a4fd551a","system_id":"levelo_inurba_marseille","lat":43.275028,"lon":5.424534,"is_reserved":false,"is_disabled":false,"rental_uris":{"android":"levelo://app?vid=b41d8c65-a328-409e-a2f2-8750a4fd551a","ios":"levelo://app?vid=b41d8c65-a328-409e-a2f2-8750a4fd551a"},"vehicle_type_id":"4","last_reported":1702897603,"current_range_meters":5600,"station_id":"ce4bhn92rcd13ifvqgrg","pricing_plan_id":"free"},{"bike_id":"ff00ffc6-1f36-457c-a38b-c213194d2ed3","system_id":"levelo_inurba_marseille","lat":43.275028,"lon":5.424534,"is_reserved":false,"is_disabled":false,"rental_uris":{"android":"levelo://app?vid=ff00ffc6-1f36-457c-a38b-c213194d2ed3","ios":"levelo://app?vid=ff00ffc6-1f36-457c-a38b-c213194d2ed3"},"vehicle_type_id":"4","last_reported":1702897603,"current_range_meters":0,"station_id":"ce4bhn92rcd13ifvqgrg","pricing_plan_id":"free"},{"bike_id":"9d996e84-0694-4cd4-b5da-e9c86eaccfc0","system_id":"levelo_inurba_marseille","lat":43.275028,"lon":5.424534,"is_reserved":false,"is_disabled":false,"rental_uris":{"android":"levelo://app?vid=9d996e84-0694-4cd4-b5da-e9c86eaccfc0","ios":"levelo://app?vid=9d996e84-0694-4cd4-b5da-e9c86eaccfc0"},"vehicle_type_id":"4","last_reported":1702897603,"current_range_meters":11600,"station_id":"ce4bhn92rcd13ifvqgrg","pricing_plan_id":"free"},{"bike_id":"8ce65bd2-6385-4b97-8ac6-1877d7ca4f72","system_id":"levelo_inurba_marseille","lat":43.26088,"lon":5.39766,"is_reserved":false,"is_disabled":false,"rental_uris":{"android":"levelo://app?vid=8ce65bd2-6385-4b97-8ac6-1877d7ca4f72","ios":"levelo://app?vid=8ce65bd2-6385-4b97-8ac6-1877d7ca4f72"},"vehicle_type_id":"4","last_reported":1702897603,"current_range_meters":30800,"station_id":"","pricing_plan_id":"free"},{"bike_id":"6a24c9c2-0536-4d05-8056-8d8332f4bc28","system_id":"levelo_inurba_marseille","lat":43.275028,"lon":5.424534,"is_reserved":false,"is_disabled":false,"rental_uris":{"android":"levelo://app?vid=6a24c9c2-0536-4d05-8056-8d8332f4bc28","ios":"levelo://app?vid=6a24c9c2-0536-4d05-8056-8d8332f4bc28"},"vehicle_type_id":"4","last_reported":1702897603,"current_range_meters":31200,"station_id":"ce4bhn92rcd13ifvqgrg","pricing_plan_id":"free"},{"bike_id":"f5075650-2824-4d3b-a7ef-e7bc4b7f03f1","system_id":"levelo_inurba_marseille","lat":43.25586,"lon":5.38218,"is_reserved":false,"is_disabled":false,"rental_uris":{"android":"levelo://app?vid=f5075650-2824-4d3b-a7ef-e7bc4b7f03f1","ios":"levelo://app?vid=f5075650-2824-4d3b-a7ef-e7bc4b7f03f1"},"vehicle_type_id":"4","last_reported":1702897603,"current_range_meters":0,"station_id":"ce4bhih2rcd13ifvqfs0","pricing_plan_id":"free"},{"bike_id":"59c250aa-e004-4225-9d7a-d2f19f2699de","system_id":"levelo_inurba_marseille","lat":43.25581,"lon":5.3822,"is_reserved":false,"is_disabled":false,"rental_uris":{"android":"levelo://app?vid=59c250aa-e004-4225-9d7a-d2f19f2699de","ios":"levelo://app?vid=59c250aa-e004-4225-9d7a-d2f19f2699de"},"vehicle_type_id":"4","last_reported":1702897603,"current_range_meters":31200,"station_id":"ce4bhih2rcd13ifvqfs0","pricing_plan_id":"free"},{"bike_id":"83ae4143-0b80-4b86-af8d-bced285766a8","system_id":"levelo_inurba_marseille","lat":43.25582,"lon":5.38238,"is_reserved":false,"is_disabled":false,"rental_uris":{"android":"levelo://app?vid=83ae4143-0b80-4b86-af8d-bced285766a8","ios":"levelo://app?vid=83ae4143-0b80-4b86-af8d-bced285766a8"},"vehicle_type_id":"4","last_reported":1702897603,"current_range_meters":20800,"station_id":"ce4bhih2rcd13ifvqfs0","pricing_plan_id":"free"},{"bike_id":"fdceae04-adce-4951-89fc-a39188c2b1d8","system_id":"levelo_inurba_marseille","lat":43.25579,"lon":5.38231,"is_reserved":false,"is_disabled":false,"rental_uris":{"android":"levelo://app?vid=fdceae04-adce-4951-89fc-a39188c2b1d8","ios":"levelo://app?vid=fdceae04-adce-4951-89fc-a39188c2b1d8"},"vehicle_type_id":"4","last_reported":1702897603,"current_range_meters":16400,"station_id":"ce4bhih2rcd13ifvqfs0","pricing_plan_id":"free"},{"bike_id":"554b9716-3962-44dd-9cdb-dc4e11773c87","system_id":"levelo_inurba_marseille","lat":43.25507,"lon":5.37651,"is_reserved":false,"is_disabled":false,"rental_uris":{"android":"levelo://app?vid=554b9716-3962-44dd-9cdb-dc4e11773c87","ios":"levelo://app?vid=554b9716-3962-44dd-9cdb-dc4e11773c87"},"vehicle_type_id":"4","last_reported":1702897603,"current_range_meters":30000,"station_id":"ce4bhh12rcd13ifvqff0","pricing_plan_id":"free"},{"bike_id":"2a49bcf8-fdfb-41e1-91bd-16a50274d949","system_id":"levelo_inurba_marseille","lat":43.25506,"lon":5.37646,"is_reserved":false,"is_disabled":false,"rental_uris":{"android":"levelo://app?vid=2a49bcf8-fdfb-41e1-91bd-16a50274d949","ios":"levelo://app?vid=2a49bcf8-fdfb-41e1-91bd-16a50274d949"},"vehicle_type_id":"4","last_reported":1702897603,"current_range_meters":30000,"station_id":"ce4bhh12rcd13ifvqff0","pricing_plan_id":"free"},{"bike_id":"15cd475d-8f66-4ed5-a1bf-e16d9818e344","system_id":"levelo_inurba_marseille","lat":43.25503,"lon":5.376515,"is_reserved":false,"is_disabled":false,"rental_uris":{"android":"levelo://app?vid=15cd475d-8f66-4ed5-a1bf-e16d9818e344","ios":"levelo://app?vid=15cd475d-8f66-4ed5-a1bf-e16d9818e344"},"vehicle_type_id":"4","last_reported":1702897603,"current_range_meters":9600,"station_id":"ce4bhh12rcd13ifvqff0","pricing_plan_id":"free"},{"bike_id":"f1610506-02fc-4f1d-998e-2c43f96c3238","system_id":"levelo_inurba_marseille","lat":43.25502,"lon":5.37646,"is_reserved":false,"is_disabled":false,"rental_uris":{"android":"levelo://app?vid=f1610506-02fc-4f1d-998e-2c43f96c3238","ios":"levelo://app?vid=f1610506-02fc-4f1d-998e-2c43f96c3238"},"vehicle_type_id":"4","last_reported":1702897603,"current_range_meters":25200,"station_id":"ce4bhh12rcd13ifvqff0","pricing_plan_id":"free"},{"bike_id":"60eede1b-ac4d-4892-9773-f8a5cb9486b9","system_id":"levelo_inurba_marseille","lat":43.255,"lon":5.3765,"is_reserved":false,"is_disabled":false,"rental_uris":{"android":"levelo://app?vid=60eede1b-ac4d-4892-9773-f8a5cb9486b9","ios":"levelo://app?vid=60eede1b-ac4d-4892-9773-f8a5cb9486b9"},"vehicle_type_id":"4","last_reported":1702897603,"current_range_meters":30800,"station_id":"ce4bhh12rcd13ifvqff0","pricing_plan_id":"free"},{"bike_id":"c96612af-e83a-48f9-b251-5e8b8bb1c819","system_id":"levelo_inurba_marseille","lat":43.254947,"lon":5.376454,"is_reserved":false,"is_disabled":false,"rental_uris":{"android":"levelo://app?vid=c96612af-e83a-48f9-b251-5e8b8bb1c819","ios":"levelo://app?vid=c96612af-e83a-48f9-b251-5e8b8bb1c819"},"vehicle_type_id":"4","last_reported":1702897603,"current_range_meters":31200,"station_id":"ce4bhh12rcd13ifvqff0","pricing_plan_id":"free"},{"bike_id":"aca2dcca-a316-4f0c-ac24-39f4a3a60bd2","system_id":"levelo_inurba_marseille","lat":43.254947,"lon":5.376454,"is_reserved":false,"is_disabled":false,"rental_uris":{"android":"levelo://app?vid=aca2dcca-a316-4f0c-ac24-39f4a3a60bd2","ios":"levelo://app?vid=aca2dcca-a316-4f0c-ac24-39f4a3a60bd2"},"vehicle_type_id":"4","last_reported":1702897603,"current_range_meters":31200,"station_id":"ce4bhh12rcd13ifvqff0","pricing_plan_id":"free"},{"bike_id":"6387043d-f040-4a32-ae79-b39e200a69f6","system_id":"levelo_inurba_marseille","lat":43.258658,"lon":5.398935,"is_reserved":false,"is_disabled":false,"rental_uris":{"android":"levelo://app?vid=6387043d-f040-4a32-ae79-b39e200a69f6","ios":"levelo://app?vid=6387043d-f040-4a32-ae79-b39e200a69f6"},"vehicle_type_id":"4","last_reported":1702897603,"current_range_meters":11600,"station_id":"ce4bhl92rcd13ifvqghg","pricing_plan_id":"free"},{"bike_id":"75b58ad3-589c-4015-9a40-0297bf20ca67","system_id":"levelo_inurba_marseille","lat":43.25935,"lon":5.40891,"is_reserved":false,"is_disabled":false,"rental_uris":{"android":"levelo://app?vid=75b58ad3-589c-4015-9a40-0297bf20ca67","ios":"levelo://app?vid=75b58ad3-589c-4015-9a40-0297bf20ca67"},"vehicle_type_id":"4","last_reported":1702897603,"current_range_meters":31200,"station_id":"ce4bhm92rcd13ifvqglg","pricing_plan_id":"free"},{"bike_id":"418b19ae-6fb6-4d94-bab6-c8b738cb1c25","system_id":"levelo_inurba_marseille","lat":43.25938,"lon":5.40906,"is_reserved":false,"is_disabled":false,"rental_uris":{"android":"levelo://app?vid=418b19ae-6fb6-4d94-bab6-c8b738cb1c25","ios":"levelo://app?vid=418b19ae-6fb6-4d94-bab6-c8b738cb1c25"},"vehicle_type_id":"4","last_reported":1702897603,"current_range_meters":31200,"station_id":"ce4bhm92rcd13ifvqglg","pricing_plan_id":"free"},{"bike_id":"7b9dbebe-a91a-4333-86e7-f71bb8ba3e5e","system_id":"levelo_inurba_marseille","lat":43.259013,"lon":5.409301,"is_reserved":false,"is_disabled":false,"rental_uris":{"android":"levelo://app?vid=7b9dbebe-a91a-4333-86e7-f71bb8ba3e5e","ios":"levelo://app?vid=7b9dbebe-a91a-4333-86e7-f71bb8ba3e5e"},"vehicle_type_id":"4","last_reported":1702897603,"current_range_meters":16000,"station_id":"ce4bhm92rcd13ifvqglg","pricing_plan_id":"free"},{"bike_id":"7af5d6b9-01d1-4dbe-a1ef-63878ea59995","system_id":"levelo_inurba_marseille","lat":43.259013,"lon":5.409301,"is_reserved":false,"is_disabled":false,"rental_uris":{"android":"levelo://app?vid=7af5d6b9-01d1-4dbe-a1ef-63878ea59995","ios":"levelo://app?vid=7af5d6b9-01d1-4dbe-a1ef-63878ea59995"},"vehicle_type_id":"4","last_reported":1702897603,"current_range_meters":22000,"station_id":"ce4bhm92rcd13ifvqglg","pricing_plan_id":"free"},{"bike_id":"8952c61a-6f73-4e52-9b5b-ed5cd4449237","system_id":"levelo_inurba_marseille","lat":43.2593,"lon":5.40908,"is_reserved":false,"is_disabled":false,"rental_uris":{"android":"levelo://app?vid=8952c61a-6f73-4e52-9b5b-ed5cd4449237","ios":"levelo://app?vid=8952c61a-6f73-4e52-9b5b-ed5cd4449237"},"vehicle_type_id":"4","last_reported":1702897603,"current_range_meters":31200,"station_id":"ce4bhm92rcd13ifvqglg","pricing_plan_id":"free"},{"bike_id":"61a4c449-70c1-4d31-941e-a3fe596474dd","system_id":"levelo_inurba_marseille","lat":43.2589,"lon":5.40922,"is_reserved":false,"is_disabled":false,"rental_uris":{"android":"levelo://app?vid=61a4c449-70c1-4d31-941e-a3fe596474dd","ios":"levelo://app?vid=61a4c449-70c1-4d31-941e-a3fe596474dd"},"vehicle_type_id":"4","last_reported":1702897603,"current_range_meters":29600,"station_id":"ce4bhm92rcd13ifvqglg","pricing_plan_id":"free"},{"bike_id":"3ec10c70-a7bb-48e5-835e-6e4794721133","system_id":"levelo_inurba_marseille","lat":43.257079,"lon":5.411051,"is_reserved":false,"is_disabled":false,"rental_uris":{"android":"levelo://app?vid=3ec10c70-a7bb-48e5-835e-6e4794721133","ios":"levelo://app?vid=3ec10c70-a7bb-48e5-835e-6e4794721133"},"vehicle_type_id":"4","last_reported":1702897603,"current_range_meters":13200,"station_id":"ce4bhkp2rcd13ifvqgd0","pricing_plan_id":"free"},{"bike_id":"1b5b8572-9f39-4d0f-8e18-fca8919c82a0","system_id":"levelo_inurba_marseille","lat":43.257079,"lon":5.411051,"is_reserved":false,"is_disabled":false,"rental_uris":{"android":"levelo://app?vid=1b5b8572-9f39-4d0f-8e18-fca8919c82a0","ios":"levelo://app?vid=1b5b8572-9f39-4d0f-8e18-fca8919c82a0"},"vehicle_type_id":"4","last_reported":1702897603,"current_range_meters":27600,"station_id":"ce4bhkp2rcd13ifvqgd0","pricing_plan_id":"free"},{"bike_id":"ace7b35c-16fb-4476-b8cd-c6dba46436f8","system_id":"levelo_inurba_marseille","lat":43.257079,"lon":5.411051,"is_reserved":false,"is_disabled":false,"rental_uris":{"android":"levelo://app?vid=ace7b35c-16fb-4476-b8cd-c6dba46436f8","ios":"levelo://app?vid=ace7b35c-16fb-4476-b8cd-c6dba46436f8"},"vehicle_type_id":"4","last_reported":1702897603,"current_range_meters":16400,"station_id":"ce4bhkp2rcd13ifvqgd0","pricing_plan_id":"free"},{"bike_id":"af6d5942-356e-47b0-b03d-2a9cd26e6689","system_id":"levelo_inurba_marseille","lat":43.250009,"lon":5.389195,"is_reserved":false,"is_disabled":false,"rental_uris":{"android":"levelo://app?vid=af6d5942-356e-47b0-b03d-2a9cd26e6689","ios":"levelo://app?vid=af6d5942-356e-47b0-b03d-2a9cd26e6689"},"vehicle_type_id":"4","last_reported":1702897603,"current_range_meters":18000,"station_id":"ce4bhgp2rcd13ifvqfd0","pricing_plan_id":"free"},{"bike_id":"8c4243c4-9714-49ba-8b79-7b53ae4784d0","system_id":"levelo_inurba_marseille","lat":43.250009,"lon":5.389195,"is_reserved":false,"is_disabled":false,"rental_uris":{"android":"levelo://app?vid=8c4243c4-9714-49ba-8b79-7b53ae4784d0","ios":"levelo://app?vid=8c4243c4-9714-49ba-8b79-7b53ae4784d0"},"vehicle_type_id":"4","last_reported":1702897603,"current_range_meters":22000,"station_id":"ce4bhgp2rcd13ifvqfd0","pricing_plan_id":"free"},{"bike_id":"1149a69c-e992-476d-a8c2-c73ea41f36f7","system_id":"levelo_inurba_marseille","lat":43.250009,"lon":5.389195,"is_reserved":false,"is_disabled":false,"rental_uris":{"android":"levelo://app?vid=1149a69c-e992-476d-a8c2-c73ea41f36f7","ios":"levelo://app?vid=1149a69c-e992-476d-a8c2-c73ea41f36f7"},"vehicle_type_id":"4","last_reported":1702897603,"current_range_meters":19200,"station_id":"ce4bhgp2rcd13ifvqfd0","pricing_plan_id":"free"},{"bike_id":"e5b46ff5-e8fd-4998-ba91-902cd6e99ae1","system_id":"levelo_inurba_marseille","lat":43.250023,"lon":5.38919,"is_reserved":false,"is_disabled":false,"rental_uris":{"android":"levelo://app?vid=e5b46ff5-e8fd-4998-ba91-902cd6e99ae1","ios":"levelo://app?vid=e5b46ff5-e8fd-4998-ba91-902cd6e99ae1"},"vehicle_type_id":"4","last_reported":1702897603,"current_range_meters":3600,"station_id":"ce4bhgp2rcd13ifvqfd0","pricing_plan_id":"free"},{"bike_id":"78dc20d4-c153-4938-b99b-aec94edcf1c7","system_id":"levelo_inurba_marseille","lat":43.2479,"lon":5.374457,"is_reserved":false,"is_disabled":false,"rental_uris":{"android":"levelo://app?vid=78dc20d4-c153-4938-b99b-aec94edcf1c7","ios":"levelo://app?vid=78dc20d4-c153-4938-b99b-aec94edcf1c7"},"vehicle_type_id":"4","last_reported":1702897603,"current_range_meters":16000,"station_id":"ce4bhgh2rcd13ifvqfb0","pricing_plan_id":"free"},{"bike_id":"505a13f6-f287-4b26-a852-68089107685c","system_id":"levelo_inurba_marseille","lat":43.24804,"lon":5.37445,"is_reserved":false,"is_disabled":false,"rental_uris":{"android":"levelo://app?vid=505a13f6-f287-4b26-a852-68089107685c","ios":"levelo://app?vid=505a13f6-f287-4b26-a852-68089107685c"},"vehicle_type_id":"4","last_reported":1702897603,"current_range_meters":31200,"station_id":"ce4bhgh2rcd13ifvqfb0","pricing_plan_id":"free"},{"bike_id":"426a9558-23c4-48db-b29a-f3c6b8d6bd75","system_id":"levelo_inurba_marseille","lat":43.2479,"lon":5.374457,"is_reserved":false,"is_disabled":false,"rental_uris":{"android":"levelo://app?vid=426a9558-23c4-48db-b29a-f3c6b8d6bd75","ios":"levelo://app?vid=426a9558-23c4-48db-b29a-f3c6b8d6bd75"},"vehicle_type_id":"4","last_reported":1702897603,"current_range_meters":31200,"station_id":"ce4bhgh2rcd13ifvqfb0","pricing_plan_id":"free"},{"bike_id":"69b4e56c-751a-4fe6-911a-bb4a7c68f45a","system_id":"levelo_inurba_marseille","lat":43.24801,"lon":5.37455,"is_reserved":false,"is_disabled":false,"rental_uris":{"android":"levelo://app?vid=69b4e56c-751a-4fe6-911a-bb4a7c68f45a","ios":"levelo://app?vid=69b4e56c-751a-4fe6-911a-bb4a7c68f45a"},"vehicle_type_id":"4","last_reported":1702897603,"current_range_meters":22800,"station_id":"ce4bhgh2rcd13ifvqfb0","pricing_plan_id":"free"},{"bike_id":"fc8b063e-8478-4cac-a2bf-4ff6ce508263","system_id":"levelo_inurba_marseille","lat":43.24799,"lon":5.37452,"is_reserved":false,"is_disabled":false,"rental_uris":{"android":"levelo://app?vid=fc8b063e-8478-4cac-a2bf-4ff6ce508263","ios":"levelo://app?vid=fc8b063e-8478-4cac-a2bf-4ff6ce508263"},"vehicle_type_id":"4","last_reported":1702897603,"current_range_meters":31200,"station_id":"ce4bhgh2rcd13ifvqfb0","pricing_plan_id":"free"},{"bike_id":"f7355d0c-75e0-4eb6-a66b-8a3f13e7d068","system_id":"levelo_inurba_marseille","lat":43.250966,"lon":5.395186,"is_reserved":false,"is_disabled":false,"rental_uris":{"android":"levelo://app?vid=f7355d0c-75e0-4eb6-a66b-8a3f13e7d068","ios":"levelo://app?vid=f7355d0c-75e0-4eb6-a66b-8a3f13e7d068"},"vehicle_type_id":"4","last_reported":1702897603,"current_range_meters":18000,"station_id":"ce4bhm12rcd13ifvqgkg","pricing_plan_id":"free"},{"bike_id":"dc2e4c03-023f-43c4-a180-60d0d9907867","system_id":"levelo_inurba_marseille","lat":43.24672,"lon":5.38165,"is_reserved":false,"is_disabled":false,"rental_uris":{"android":"levelo://app?vid=dc2e4c03-023f-43c4-a180-60d0d9907867","ios":"levelo://app?vid=dc2e4c03-023f-43c4-a180-60d0d9907867"},"vehicle_type_id":"4","last_reported":1702897603,"current_range_meters":31200,"station_id":"ce4bhih2rcd13ifvqfr0","pricing_plan_id":"free"},{"bike_id":"d4c05a46-e7e8-4aba-bb52-c5f7dc3f7c0b","system_id":"levelo_inurba_marseille","lat":43.25102,"lon":5.403214,"is_reserved":false,"is_disabled":false,"rental_uris":{"android":"levelo://app?vid=d4c05a46-e7e8-4aba-bb52-c5f7dc3f7c0b","ios":"levelo://app?vid=d4c05a46-e7e8-4aba-bb52-c5f7dc3f7c0b"},"vehicle_type_id":"4","last_reported":1702897603,"current_range_meters":22400,"station_id":"ce4bhlh2rcd13ifvqgig","pricing_plan_id":"free"},{"bike_id":"2cedff25-a380-4cc3-bd12-aa3bd8d509fa","system_id":"levelo_inurba_marseille","lat":43.251113,"lon":5.40318,"is_reserved":false,"is_disabled":false,"rental_uris":{"android":"levelo://app?vid=2cedff25-a380-4cc3-bd12-aa3bd8d509fa","ios":"levelo://app?vid=2cedff25-a380-4cc3-bd12-aa3bd8d509fa"},"vehicle_type_id":"4","last_reported":1702897603,"current_range_meters":31200,"station_id":"ce4bhlh2rcd13ifvqgig","pricing_plan_id":"free"},{"bike_id":"c139e5ca-ff3a-4f59-96c2-3cc852af19d3","system_id":"levelo_inurba_marseille","lat":43.25112,"lon":5.4034,"is_reserved":false,"is_disabled":false,"rental_uris":{"android":"levelo://app?vid=c139e5ca-ff3a-4f59-96c2-3cc852af19d3","ios":"levelo://app?vid=c139e5ca-ff3a-4f59-96c2-3cc852af19d3"},"vehicle_type_id":"4","last_reported":1702897603,"current_range_meters":25600,"station_id":"ce4bhlh2rcd13ifvqgig","pricing_plan_id":"free"},{"bike_id":"4532d7a1-2de5-45eb-8611-2987ce88eaba","system_id":"levelo_inurba_marseille","lat":43.24387,"lon":5.37055,"is_reserved":false,"is_disabled":false,"rental_uris":{"android":"levelo://app?vid=4532d7a1-2de5-45eb-8611-2987ce88eaba","ios":"levelo://app?vid=4532d7a1-2de5-45eb-8611-2987ce88eaba"},"vehicle_type_id":"4","last_reported":1702897603,"current_range_meters":31200,"station_id":"ce4bhhh2rcd13ifvqfk0","pricing_plan_id":"free"},{"bike_id":"194aff4d-e2f0-4445-913b-4609679b0b5a","system_id":"levelo_inurba_marseille","lat":43.24386,"lon":5.37055,"is_reserved":false,"is_disabled":false,"rental_uris":{"android":"levelo://app?vid=194aff4d-e2f0-4445-913b-4609679b0b5a","ios":"levelo://app?vid=194aff4d-e2f0-4445-913b-4609679b0b5a"},"vehicle_type_id":"4","last_reported":1702897603,"current_range_meters":16400,"station_id":"ce4bhhh2rcd13ifvqfk0","pricing_plan_id":"free"},{"bike_id":"962eadf3-0c56-4ff8-989c-7ffd64e3ef6a","system_id":"levelo_inurba_marseille","lat":43.24543,"lon":5.39518,"is_reserved":false,"is_disabled":false,"rental_uris":{"android":"levelo://app?vid=962eadf3-0c56-4ff8-989c-7ffd64e3ef6a","ios":"levelo://app?vid=962eadf3-0c56-4ff8-989c-7ffd64e3ef6a"},"vehicle_type_id":"4","last_reported":1702897603,"current_range_meters":21600,"station_id":"ce4bhlp2rcd13ifvqgjg","pricing_plan_id":"free"},{"bike_id":"337ca3c7-9462-4737-ac66-26cb921cd8a2","system_id":"levelo_inurba_marseille","lat":43.239588,"lon":5.366238,"is_reserved":false,"is_disabled":false,"rental_uris":{"android":"levelo://app?vid=337ca3c7-9462-4737-ac66-26cb921cd8a2","ios":"levelo://app?vid=337ca3c7-9462-4737-ac66-26cb921cd8a2"},"vehicle_type_id":"4","last_reported":1702897603,"current_range_meters":31200,"station_id":"ce4bhi12rcd13ifvqfp0","pricing_plan_id":"free"},{"bike_id":"f93bd17e-c01d-48ca-bfd8-2a624d454bce","system_id":"levelo_inurba_marseille","lat":43.239588,"lon":5.366238,"is_reserved":false,"is_disabled":false,"rental_uris":{"android":"levelo://app?vid=f93bd17e-c01d-48ca-bfd8-2a624d454bce","ios":"levelo://app?vid=f93bd17e-c01d-48ca-bfd8-2a624d454bce"},"vehicle_type_id":"4","last_reported":1702897603,"current_range_meters":19600,"station_id":"ce4bhi12rcd13ifvqfp0","pricing_plan_id":"free"},{"bike_id":"1ad391e7-93e7-4f09-a729-f72dd7118996","system_id":"levelo_inurba_marseille","lat":43.239588,"lon":5.366238,"is_reserved":false,"is_disabled":false,"rental_uris":{"android":"levelo://app?vid=1ad391e7-93e7-4f09-a729-f72dd7118996","ios":"levelo://app?vid=1ad391e7-93e7-4f09-a729-f72dd7118996"},"vehicle_type_id":"4","last_reported":1702897603,"current_range_meters":19200,"station_id":"ce4bhi12rcd13ifvqfp0","pricing_plan_id":"free"},{"bike_id":"945031ea-46a0-45dc-b827-f2c1848c09af","system_id":"levelo_inurba_marseille","lat":43.239588,"lon":5.366238,"is_reserved":false,"is_disabled":false,"rental_uris":{"android":"levelo://app?vid=945031ea-46a0-45dc-b827-f2c1848c09af","ios":"levelo://app?vid=945031ea-46a0-45dc-b827-f2c1848c09af"},"vehicle_type_id":"4","last_reported":1702897603,"current_range_meters":31200,"station_id":"ce4bhi12rcd13ifvqfp0","pricing_plan_id":"free"},{"bike_id":"795e09d4-4713-41f0-aa41-6f9f774eed27","system_id":"levelo_inurba_marseille","lat":43.239588,"lon":5.366238,"is_reserved":false,"is_disabled":false,"rental_uris":{"android":"levelo://app?vid=795e09d4-4713-41f0-aa41-6f9f774eed27","ios":"levelo://app?vid=795e09d4-4713-41f0-aa41-6f9f774eed27"},"vehicle_type_id":"4","last_reported":1702897603,"current_range_meters":26400,"station_id":"ce4bhi12rcd13ifvqfp0","pricing_plan_id":"free"},{"bike_id":"192f6b49-591c-4a7a-818b-cb3e1dd788f1","system_id":"levelo_inurba_marseille","lat":43.236133,"lon":5.361735,"is_reserved":false,"is_disabled":false,"rental_uris":{"android":"levelo://app?vid=192f6b49-591c-4a7a-818b-cb3e1dd788f1","ios":"levelo://app?vid=192f6b49-591c-4a7a-818b-cb3e1dd788f1"},"vehicle_type_id":"4","last_reported":1702897603,"current_range_meters":0,"station_id":"","pricing_plan_id":"free"},{"bike_id":"deb8549c-895f-4c6d-b68c-130ea343f1e6","system_id":"levelo_inurba_marseille","lat":43.23193,"lon":5.35548,"is_reserved":false,"is_disabled":false,"rental_uris":{"android":"levelo://app?vid=deb8549c-895f-4c6d-b68c-130ea343f1e6","ios":"levelo://app?vid=deb8549c-895f-4c6d-b68c-130ea343f1e6"},"vehicle_type_id":"4","last_reported":1702897603,"current_range_meters":16000,"station_id":"ce4bhu92rcd13ifvqi70","pricing_plan_id":"free"},{"bike_id":"c2d1714a-e656-472f-a1d5-518b21bcd8c1","system_id":"levelo_inurba_marseille","lat":43.231919,"lon":5.355532,"is_reserved":false,"is_disabled":false,"rental_uris":{"android":"levelo://app?vid=c2d1714a-e656-472f-a1d5-518b21bcd8c1","ios":"levelo://app?vid=c2d1714a-e656-472f-a1d5-518b21bcd8c1"},"vehicle_type_id":"4","last_reported":1702897603,"current_range_meters":27600,"station_id":"ce4bhu92rcd13ifvqi70","pricing_plan_id":"free"},{"bike_id":"b0bad05c-52a3-4cce-a6c6-3954af2ae0b6","system_id":"levelo_inurba_marseille","lat":43.23196,"lon":5.39998,"is_reserved":false,"is_disabled":false,"rental_uris":{"android":"levelo://app?vid=b0bad05c-52a3-4cce-a6c6-3954af2ae0b6","ios":"levelo://app?vid=b0bad05c-52a3-4cce-a6c6-3954af2ae0b6"},"vehicle_type_id":"4","last_reported":1702897603,"current_range_meters":30000,"station_id":"ce4bhn12rcd13ifvqgqg","pricing_plan_id":"free"},{"bike_id":"3f7500c4-e050-4359-a304-d2ae74d9edf0","system_id":"levelo_inurba_marseille","lat":43.23188,"lon":5.39976,"is_reserved":false,"is_disabled":false,"rental_uris":{"android":"levelo://app?vid=3f7500c4-e050-4359-a304-d2ae74d9edf0","ios":"levelo://app?vid=3f7500c4-e050-4359-a304-d2ae74d9edf0"},"vehicle_type_id":"4","last_reported":1702897603,"current_range_meters":30800,"station_id":"ce4bhn12rcd13ifvqgqg","pricing_plan_id":"free"},{"bike_id":"d9e90a00-4eaf-4c9c-9eec-79e0be0c0bc3","system_id":"levelo_inurba_marseille","lat":43.23183,"lon":5.399793,"is_reserved":false,"is_disabled":false,"rental_uris":{"android":"levelo://app?vid=d9e90a00-4eaf-4c9c-9eec-79e0be0c0bc3","ios":"levelo://app?vid=d9e90a00-4eaf-4c9c-9eec-79e0be0c0bc3"},"vehicle_type_id":"4","last_reported":1702897603,"current_range_meters":30800,"station_id":"ce4bhn12rcd13ifvqgqg","pricing_plan_id":"free"},{"bike_id":"acf0dd34-f913-498b-aa4b-4fc19f73e994","system_id":"levelo_inurba_marseille","lat":43.231794,"lon":5.400052,"is_reserved":false,"is_disabled":false,"rental_uris":{"android":"levelo://app?vid=acf0dd34-f913-498b-aa4b-4fc19f73e994","ios":"levelo://app?vid=acf0dd34-f913-498b-aa4b-4fc19f73e994"},"vehicle_type_id":"4","last_reported":1702897603,"current_range_meters":20400,"station_id":"ce4bhn12rcd13ifvqgqg","pricing_plan_id":"free"},{"bike_id":"c72f640a-d17c-4b02-a7e4-b9cd6015f5ad","system_id":"levelo_inurba_marseille","lat":43.231793,"lon":5.400044,"is_reserved":false,"is_disabled":false,"rental_uris":{"android":"levelo://app?vid=c72f640a-d17c-4b02-a7e4-b9cd6015f5ad","ios":"levelo://app?vid=c72f640a-d17c-4b02-a7e4-b9cd6015f5ad"},"vehicle_type_id":"4","last_reported":1702897603,"current_range_meters":20400,"station_id":"ce4bhn12rcd13ifvqgqg","pricing_plan_id":"free"},{"bike_id":"1fda6d9b-238c-4d92-b885-31f562a03362","system_id":"levelo_inurba_marseille","lat":43.231562,"lon":5.436933,"is_reserved":false,"is_disabled":false,"rental_uris":{"android":"levelo://app?vid=1fda6d9b-238c-4d92-b885-31f562a03362","ios":"levelo://app?vid=1fda6d9b-238c-4d92-b885-31f562a03362"},"vehicle_type_id":"4","last_reported":1702897603,"current_range_meters":27600,"station_id":"ce4bhmp2rcd13ifvqgog","pricing_plan_id":"free"},{"bike_id":"d79d6467-dc1a-4dcd-84af-1bd593c8dfef","system_id":"levelo_inurba_marseille","lat":43.231562,"lon":5.436933,"is_reserved":false,"is_disabled":false,"rental_uris":{"android":"levelo://app?vid=d79d6467-dc1a-4dcd-84af-1bd593c8dfef","ios":"levelo://app?vid=d79d6467-dc1a-4dcd-84af-1bd593c8dfef"},"vehicle_type_id":"4","last_reported":1702897603,"current_range_meters":2800,"station_id":"ce4bhmp2rcd13ifvqgog","pricing_plan_id":"free"},{"bike_id":"537c0cfd-17b6-4509-b2ac-86146dc0f0fc","system_id":"levelo_inurba_marseille","lat":43.23153,"lon":5.4372,"is_reserved":false,"is_disabled":false,"rental_uris":{"android":"levelo://app?vid=537c0cfd-17b6-4509-b2ac-86146dc0f0fc","ios":"levelo://app?vid=537c0cfd-17b6-4509-b2ac-86146dc0f0fc"},"vehicle_type_id":"4","last_reported":1702897603,"current_range_meters":12000,"station_id":"ce4bhmp2rcd13ifvqgog","pricing_plan_id":"free"},{"bike_id":"8dc09c54-1f26-4a53-a922-2e14cb8b2636","system_id":"levelo_inurba_marseille","lat":43.23152,"lon":5.43718,"is_reserved":false,"is_disabled":false,"rental_uris":{"android":"levelo://app?vid=8dc09c54-1f26-4a53-a922-2e14cb8b2636","ios":"levelo://app?vid=8dc09c54-1f26-4a53-a922-2e14cb8b2636"},"vehicle_type_id":"4","last_reported":1702897603,"current_range_meters":0,"station_id":"ce4bhmp2rcd13ifvqgog","pricing_plan_id":"free"},{"bike_id":"7dc70694-c42e-4a80-984c-9fe82f81c13d","system_id":"levelo_inurba_marseille","lat":43.231562,"lon":5.436933,"is_reserved":false,"is_disabled":false,"rental_uris":{"android":"levelo://app?vid=7dc70694-c42e-4a80-984c-9fe82f81c13d","ios":"levelo://app?vid=7dc70694-c42e-4a80-984c-9fe82f81c13d"},"vehicle_type_id":"4","last_reported":1702897603,"current_range_meters":31200,"station_id":"ce4bhmp2rcd13ifvqgog","pricing_plan_id":"free"},{"bike_id":"d5b5365d-ae87-4306-bbc5-b0c9d03f1445","system_id":"levelo_inurba_marseille","lat":43.231562,"lon":5.436933,"is_reserved":false,"is_disabled":false,"rental_uris":{"android":"levelo://app?vid=d5b5365d-ae87-4306-bbc5-b0c9d03f1445","ios":"levelo://app?vid=d5b5365d-ae87-4306-bbc5-b0c9d03f1445"},"vehicle_type_id":"4","last_reported":1702897603,"current_range_meters":26400,"station_id":"ce4bhmp2rcd13ifvqgog","pricing_plan_id":"free"},{"bike_id":"8d9e658d-7c45-43df-9c2b-c900491175b0","system_id":"levelo_inurba_marseille","lat":43.23152,"lon":5.43725,"is_reserved":false,"is_disabled":false,"rental_uris":{"android":"levelo://app?vid=8d9e658d-7c45-43df-9c2b-c900491175b0","ios":"levelo://app?vid=8d9e658d-7c45-43df-9c2b-c900491175b0"},"vehicle_type_id":"4","last_reported":1702897603,"current_range_meters":9600,"station_id":"ce4bhmp2rcd13ifvqgog","pricing_plan_id":"free"},{"bike_id":"26b64840-ef8d-4a64-ba9e-b951d8acc7fd","system_id":"levelo_inurba_marseille","lat":43.23145,"lon":5.43714,"is_reserved":false,"is_disabled":false,"rental_uris":{"android":"levelo://app?vid=26b64840-ef8d-4a64-ba9e-b951d8acc7fd","ios":"levelo://app?vid=26b64840-ef8d-4a64-ba9e-b951d8acc7fd"},"vehicle_type_id":"4","last_reported":1702897603,"current_range_meters":3200,"station_id":"ce4bhmp2rcd13ifvqgog","pricing_plan_id":"free"},{"bike_id":"66400aee-e87a-41ea-af35-36de2b576622","system_id":"levelo_inurba_marseille","lat":43.231562,"lon":5.436933,"is_reserved":false,"is_disabled":false,"rental_uris":{"android":"levelo://app?vid=66400aee-e87a-41ea-af35-36de2b576622","ios":"levelo://app?vid=66400aee-e87a-41ea-af35-36de2b576622"},"vehicle_type_id":"4","last_reported":1702897603,"current_range_meters":25600,"station_id":"ce4bhmp2rcd13ifvqgog","pricing_plan_id":"free"},{"bike_id":"4ff28cf7-5df4-4ad1-b066-345de5c4646c","system_id":"levelo_inurba_marseille","lat":43.231562,"lon":5.436933,"is_reserved":false,"is_disabled":false,"rental_uris":{"android":"levelo://app?vid=4ff28cf7-5df4-4ad1-b066-345de5c4646c","ios":"levelo://app?vid=4ff28cf7-5df4-4ad1-b066-345de5c4646c"},"vehicle_type_id":"4","last_reported":1702897603,"current_range_meters":16800,"station_id":"ce4bhmp2rcd13ifvqgog","pricing_plan_id":"free"}]}}