{"last_updated":1750422047,"ttl":60,"version":"2.2","data":{"bikes":[{"bike_id":"3da29fb8-fc97-44c6-b9ac-31dd456b2fd4","system_id":"levelo_inurba_marseille","lat":43.33771,"lon":5.37424,"is_reserved":false,"is_disabled":true,"rental_uris":{"android":"levelo://app?vid=3da29fb8-fc97-44c6-b9ac-31dd456b2fd4","ios":"levelo://app?vid=3da29fb8-fc97-44c6-b9ac-31dd456b2fd4"},"vehicle_type_id":"4","last_reported":1750422048,"current_range_meters":0,"station_id":"","pricing_plan_id":"cebpf4jnsgd1na2vs0mg"},{"bike_id":"01861ad8-a8d7-4be6-816e-651927c87584","system_id":"levelo_inurba_marseille","lat":43.33751,"lon":5.37456,"is_reserved":false,"is_disabled":true,"rental_uris":{"android":"levelo://app?vid=01861ad8-a8d7-4be6-816e-651927c87584","ios":"levelo://app?vid=01861ad8-a8d7-4be6-816e-651927c87584"},"vehicle_type_id":"4","last_reported":1750422048,"current_range_meters":0,"station_id":"","pricing_plan_id":"cebpf4jnsgd1na2vs0mg"},{"bike_id":"4f79ed18-3754-4594-beef-87f7c093389b","system_id":"levelo_inurba_marseille","lat":43.34207,"lon":5.40377,"is_reserved":false,"is_disabled":true,"rental_uris":{"android":"levelo://app?vid=4f79ed18-3754-4594-beef-87f7c093389b","ios":"levelo://app?vid=4f79ed18-3754-4594-beef-87f7c093389b"},"vehicle_type_id":"4","last_reported":1750422048,"current_range_meters":0,"station_id":"","pricing_plan_id":"cebpf4jnsgd1na2vs0mg"},{"bike_id":"d2bd57c8-6b64-48db-ad24-5398eb3fd9d6","system_id":"levelo_inurba_marseille","lat":43.337444,"lon":5.374475,"is_reserved":false,"is_disabled":true,"rental_uris":{"android":"levelo://app?vid=d2bd57c8-6b64-48db-ad24-5398eb3fd9d6","ios":"levelo://app?vid=d2bd57c8-6b64-48db-ad24-5398eb3fd9d6"},"vehicle_type_id":"4","last_reported":1750422048,"current_range_meters":0,"station_id":"","pricing_plan_id":"cebpf4jnsgd1na2vs0mg"},{"bike_id":"62a493c7-4534-4419-ad43-0582de34a72a","system_id":"levelo_inurba_marseille","lat":43.21366,"lon":5.355183,"is_reserved":false,"is_disabled":true,"rental_uris":{"android":"levelo://app?vid=62a493c7-4534-4419-ad43-0582de34a72a","ios":"levelo://app?vid=62a493c7-4534-4419-ad43-0582de34a72a"},"vehicle_type_id":"4","last_reported":1750422048,"current_range_meters":0,"station_id":"","pricing_plan_id":"cebpf4jnsgd1na2vs0mg"},{"bike_id":"d5a1ae9e-4421-4539-b5ac-98a00695a8d8","system_id":"levelo_inurba_marseille","lat":43.33421,"lon":5.40051,"is_reserved":false,"is_disabled":true,"rental_uris":{"android":"levelo://app?vid=d5a1ae9e-4421-4539-b5ac-98a00695a8d8","ios":"levelo://app?vid=d5a1ae9e-4421-4539-b5ac-98a00695a8d8"},"vehicle_type_id":"4","last_reported":1750422048,"current_range_meters":0,"station_id":"","pricing_plan_id":"cebpf4jnsgd1na2vs0mg"},{"bike_id":"d6609b4f-333b-43c1-9ebe-8726f5e76e88","system_id":"levelo_inurba_marseille","lat":43.337444,"lon":5.374475,"is_reserved":false,"is_disabled":true,"rental_uris":{"android":"levelo://app?vid=d6609b4f-333b-43c1-9ebe-8726f5e76e88","ios":"levelo://app?vid=d6609b4f-333b-43c1-9ebe-8726f5e76e88"},"vehicle_type_id":"4","last_reported":1750422048,"current_range_meters":0,"station_id":"","pricing_plan_id":"cebpf4jnsgd1na2vs0mg"},{"bike_id":"faedb750-b8ea-4e5f-b7f1-2931a192c239","system_id":"levelo_inurba_marseille","lat":43.31318,"lon":5.367385,"is_reserved":false,"is_disabled":true,"rental_uris":{"android":"levelo://app?vid=faedb750-b8ea-4e5f-b7f1-2931a192c239","ios":"levelo://app?vid=faedb750-b8ea-4e5f-b7f1-2931a192c239"},"vehicle_type_id":"4","last_reported":1750422048,"current_range_meters":0,"station_id":"ce4bgr92rcd13ifvqc6g","pricing_plan_id":"cebpf4jnsgd1na2vs0mg"},{"bike_id":"003a2873-0631-4024-ad10-f60d4d06b624","system_id":"levelo_inurba_marseille","lat":43.30595,"lon":5.39367,"is_reserved":false,"is_disabled":true,"rental_uris":{"android":"levelo://app?vid=003a2873-0631-4024-ad10-f60d4d06b624","ios":"levelo://app?vid=003a2873-0631-4024-ad10-f60d4d06b624"},"vehicle_type_id":"4","last_reported":1750422048,"current_range_meters":0,"station_id":"ce4bh0p2rcd13ifvqd80","pricing_plan_id":"cebpf4jnsgd1na2vs0mg"},{"bike_id":"7d079143-b074-4419-863e-ec17c5426c19","system_id":"levelo_inurba_marseille","lat":43.2738,"lon":5.36255,"is_reserved":false,"is_disabled":true,"rental_uris":{"android":"levelo://app?vid=7d079143-b074-4419-863e-ec17c5426c19","ios":"levelo://app?vid=7d079143-b074-4419-863e-ec17c5426c19"},"vehicle_type_id":"4","last_reported":1750422048,"current_range_meters":0,"station_id":"ce4bhbh2rcd13ifvqeo0","pricing_plan_id":"cebpf4jnsgd1na2vs0mg"},{"bike_id":"84169abd-83ae-41ce-861e-d7a855522f4a","system_id":"levelo_inurba_marseille","lat":43.27379,"lon":5.36254,"is_reserved":false,"is_disabled":true,"rental_uris":{"android":"levelo://app?vid=84169abd-83ae-41ce-861e-d7a855522f4a","ios":"levelo://app?vid=84169abd-83ae-41ce-861e-d7a855522f4a"},"vehicle_type_id":"4","last_reported":1750422048,"current_range_meters":0,"station_id":"ce4bhbh2rcd13ifvqeo0","pricing_plan_id":"cebpf4jnsgd1na2vs0mg"},{"bike_id":"4f13cf1c-e39e-4b95-a53a-8b92a85e1683","system_id":"levelo_inurba_marseille","lat":43.292212,"lon":5.360714,"is_reserved":false,"is_disabled":true,"rental_uris":{"android":"levelo://app?vid=4f13cf1c-e39e-4b95-a53a-8b92a85e1683","ios":"levelo://app?vid=4f13cf1c-e39e-4b95-a53a-8b92a85e1683"},"vehicle_type_id":"4","last_reported":1750422048,"current_range_meters":0,"station_id":"ce4bhbh2rcd13ifvqeqg","pricing_plan_id":"cebpf4jnsgd1na2vs0mg"},{"bike_id":"576dadf3-eca2-4f6a-91ce-386f7454b213","system_id":"levelo_inurba_marseille","lat":43.27919,"lon":5.39574,"is_reserved":false,"is_disabled":true,"rental_uris":{"android":"levelo://app?vid=576dadf3-eca2-4f6a-91ce-386f7454b213","ios":"levelo://app?vid=576dadf3-eca2-4f6a-91ce-386f7454b213"},"vehicle_type_id":"4","last_reported":1750422048,"current_range_meters":0,"station_id":"ce4bhf92rcd13ifvqf40","pricing_plan_id":"cebpf4jnsgd1na2vs0mg"},{"bike_id":"c315b8bf-225b-437a-b93f-669aa7da1f2f","system_id":"levelo_inurba_marseille","lat":43.27917,"lon":5.39576,"is_reserved":false,"is_disabled":true,"rental_uris":{"android":"levelo://app?vid=c315b8bf-225b-437a-b93f-669aa7da1f2f","ios":"levelo://app?vid=c315b8bf-225b-437a-b93f-669aa7da1f2f"},"vehicle_type_id":"4","last_reported":1750422048,"current_range_meters":0,"station_id":"ce4bhf92rcd13ifvqf40","pricing_plan_id":"cebpf4jnsgd1na2vs0mg"},{"bike_id":"685f1fd8-eedc-4689-a9ac-35b576888cd6","system_id":"levelo_inurba_marseille","lat":43.26554,"lon":5.37304,"is_reserved":false,"is_disabled":true,"rental_uris":{"android":"levelo://app?vid=685f1fd8-eedc-4689-a9ac-35b576888cd6","ios":"levelo://app?vid=685f1fd8-eedc-4689-a9ac-35b576888cd6"},"vehicle_type_id":"4","last_reported":1750422048,"current_range_meters":0,"station_id":"ce4bhg12rcd13ifvqf70","pricing_plan_id":"cebpf4jnsgd1na2vs0mg"},{"bike_id":"715b2648-f159-48ec-a705-c79e3562f3a8","system_id":"levelo_inurba_marseille","lat":43.26553,"lon":5.37285,"is_reserved":false,"is_disabled":true,"rental_uris":{"android":"levelo://app?vid=715b2648-f159-48ec-a705-c79e3562f3a8","ios":"levelo://app?vid=715b2648-f159-48ec-a705-c79e3562f3a8"},"vehicle_type_id":"4","last_reported":1750422048,"current_range_meters":0,"station_id":"ce4bhg12rcd13ifvqf70","pricing_plan_id":"cebpf4jnsgd1na2vs0mg"},{"bike_id":"2dcab90c-1b72-4823-b1cf-628832d10d67","system_id":"levelo_inurba_marseille","lat":43.24549,"lon":5.39525,"is_reserved":false,"is_disabled":true,"rental_uris":{"android":"levelo://app?vid=2dcab90c-1b72-4823-b1cf-628832d10d67","ios":"levelo://app?vid=2dcab90c-1b72-4823-b1cf-628832d10d67"},"vehicle_type_id":"4","last_reported":1750422048,"current_range_meters":0,"station_id":"ce4bhlp2rcd13ifvqgjg","pricing_plan_id":"cebpf4jnsgd1na2vs0mg"},{"bike_id":"9491b791-a5aa-472a-b475-a8adbacb70fe","system_id":"levelo_inurba_marseille","lat":43.341432,"lon":5.409,"is_reserved":false,"is_disabled":true,"rental_uris":{"android":"levelo://app?vid=9491b791-a5aa-472a-b475-a8adbacb70fe","ios":"levelo://app?vid=9491b791-a5aa-472a-b475-a8adbacb70fe"},"vehicle_type_id":"4","last_reported":1750422048,"current_range_meters":0,"station_id":"ce4bhqh2rcd13ifvqhlg","pricing_plan_id":"cebpf4jnsgd1na2vs0mg"},{"bike_id":"1d3c5359-5208-4100-a7e3-a6f9f6eda1fe","system_id":"levelo_inurba_marseille","lat":43.3361,"lon":5.410183,"is_reserved":false,"is_disabled":true,"rental_uris":{"android":"levelo://app?vid=1d3c5359-5208-4100-a7e3-a6f9f6eda1fe","ios":"levelo://app?vid=1d3c5359-5208-4100-a7e3-a6f9f6eda1fe"},"vehicle_type_id":"4","last_reported":1750422048,"current_range_meters":0,"station_id":"ce4bhqh2rcd13ifvqhmg","pricing_plan_id":"cebpf4jnsgd1na2vs0mg"},{"bike_id":"8f49a748-5547-4851-a01f-ec21c1b4690e","system_id":"levelo_inurba_marseille","lat":43.32478,"lon":5.36557,"is_reserved":false,"is_disabled":true,"rental_uris":{"android":"levelo://app?vid=8f49a748-5547-4851-a01f-ec21c1b4690e","ios":"levelo://app?vid=8f49a748-5547-4851-a01f-ec21c1b4690e"},"vehicle_type_id":"4","last_reported":1750422048,"current_range_meters":0,"station_id":"ce4bhs12rcd13ifvqhvg","pricing_plan_id":"cebpf4jnsgd1na2vs0mg"},{"bike_id":"077d9a7c-6be0-457d-baae-848fc82d297e","system_id":"levelo_inurba_marseille","lat":43.23201,"lon":5.3555,"is_reserved":false,"is_disabled":true,"rental_uris":{"android":"levelo://app?vid=077d9a7c-6be0-457d-baae-848fc82d297e","ios":"levelo://app?vid=077d9a7c-6be0-457d-baae-848fc82d297e"},"vehicle_type_id":"4","last_reported":1750422048,"current_range_meters":0,"station_id":"ce4bhu92rcd13ifvqi70","pricing_plan_id":"cebpf4jnsgd1na2vs0mg"},{"bike_id":"de304e80-b21e-4423-a36e-c975e57153c2","system_id":"levelo_inurba_marseille","lat":43.22959,"lon":5.35345,"is_reserved":false,"is_disabled":true,"rental_uris":{"android":"levelo://app?vid=de304e80-b21e-4423-a36e-c975e57153c2","ios":"levelo://app?vid=de304e80-b21e-4423-a36e-c975e57153c2"},"vehicle_type_id":"4","last_reported":1750422048,"current_range_meters":0,"station_id":"cpo3532slgdg3j2ikp40","pricing_plan_id":"cebpf4jnsgd1na2vs0mg"},{"bike_id":"62601cf6-4d7a-474f-a378-dfdbba984829","system_id":"levelo_inurba_marseille","lat":43.312876,"lon":5.40141,"is_reserved":false,"is_disabled":true,"rental_uris":{"android":"levelo://app?vid=62601cf6-4d7a-474f-a378-dfdbba984829","ios":"levelo://app?vid=62601cf6-4d7a-474f-a378-dfdbba984829"},"vehicle_type_id":"4","last_reported":1750422048,"current_range_meters":800,"station_id":"ce4bh092rcd13ifvqd30","pricing_plan_id":"cebpf4jnsgd1na2vs0mg"},{"bike_id":"8f98c5ea-203a-468b-89d4-a3ea7a1fa494","system_id":"levelo_inurba_marseille","lat":43.28463,"lon":5.3589,"is_reserved":false,"is_disabled":true,"rental_uris":{"android":"levelo://app?vid=8f98c5ea-203a-468b-89d4-a3ea7a1fa494","ios":"levelo://app?vid=8f98c5ea-203a-468b-89d4-a3ea7a1fa494"},"vehicle_type_id":"4","last_reported":1750422048,"current_range_meters":800,"station_id":"ce4bhah2rcd13ifvqei0","pricing_plan_id":"cebpf4jnsgd1na2vs0mg"},{"bike_id":"fff7b7fb-ba5c-49b9-a013-f34b38335434","system_id":"levelo_inurba_marseille","lat":43.28938,"lon":5.36647,"is_reserved":false,"is_disabled":true,"rental_uris":{"android":"levelo://app?vid=fff7b7fb-ba5c-49b9-a013-f34b38335434","ios":"levelo://app?vid=fff7b7fb-ba5c-49b9-a013-f34b38335434"},"vehicle_type_id":"4","last_reported":1750422048,"current_range_meters":800,"station_id":"ce4bhap2rcd13ifvqek0","pricing_plan_id":"cebpf4jnsgd1na2vs0mg"},{"bike_id":"c53ba9e2-1f74-4201-adad-79fb708479e2","system_id":"levelo_inurba_marseille","lat":43.269968,"lon":5.402848,"is_reserved":false,"is_disabled":true,"rental_uris":{"android":"levelo://app?vid=c53ba9e2-1f74-4201-adad-79fb708479e2","ios":"levelo://app?vid=c53ba9e2-1f74-4201-adad-79fb708479e2"},"vehicle_type_id":"4","last_reported":1750422048,"current_range_meters":800,"station_id":"ce4bhk92rcd13ifvqgc0","pricing_plan_id":"cebpf4jnsgd1na2vs0mg"},{"bike_id":"8b3c2b35-9e5e-4816-9a3c-87b85b95aec3","system_id":"levelo_inurba_marseille","lat":43.2417,"lon":5.36399,"is_reserved":false,"is_disabled":true,"rental_uris":{"android":"levelo://app?vid=8b3c2b35-9e5e-4816-9a3c-87b85b95aec3","ios":"levelo://app?vid=8b3c2b35-9e5e-4816-9a3c-87b85b95aec3"},"vehicle_type_id":"4","last_reported":1750422048,"current_range_meters":800,"station_id":"cpo36qri1sfpv3e86is0","pricing_plan_id":"cebpf4jnsgd1na2vs0mg"},{"bike_id":"0c2fb0b6-2016-487e-9007-30b5815093c4","system_id":"levelo_inurba_marseille","lat":43.29291,"lon":5.3745,"is_reserved":false,"is_disabled":true,"rental_uris":{"android":"levelo://app?vid=0c2fb0b6-2016-487e-9007-30b5815093c4","ios":"levelo://app?vid=0c2fb0b6-2016-487e-9007-30b5815093c4"},"vehicle_type_id":"4","last_reported":1750422048,"current_range_meters":1200,"station_id":"ce4bgi12rcd13ifvqb70","pricing_plan_id":"cebpf4jnsgd1na2vs0mg"},{"bike_id":"ee272ff7-81d5-4508-9d7d-ba25e59527fd","system_id":"levelo_inurba_marseille","lat":43.31698,"lon":5.40469,"is_reserved":false,"is_disabled":true,"rental_uris":{"android":"levelo://app?vid=ee272ff7-81d5-4508-9d7d-ba25e59527fd","ios":"levelo://app?vid=ee272ff7-81d5-4508-9d7d-ba25e59527fd"},"vehicle_type_id":"4","last_reported":1750422048,"current_range_meters":1200,"station_id":"ce4bh012rcd13ifvqd00","pricing_plan_id":"cebpf4jnsgd1na2vs0mg"},{"bike_id":"a50a6588-33f7-480b-86db-f01191577927","system_id":"levelo_inurba_marseille","lat":43.28154,"lon":5.42646,"is_reserved":false,"is_disabled":true,"rental_uris":{"android":"levelo://app?vid=a50a6588-33f7-480b-86db-f01191577927","ios":"levelo://app?vid=a50a6588-33f7-480b-86db-f01191577927"},"vehicle_type_id":"4","last_reported":1750422048,"current_range_meters":1200,"station_id":"ce4bhnh2rcd13ifvqgug","pricing_plan_id":"cebpf4jnsgd1na2vs0mg"},{"bike_id":"7dc08265-548b-47e8-8242-9be0df3016c8","system_id":"levelo_inurba_marseille","lat":43.23964,"lon":5.36647,"is_reserved":false,"is_disabled":true,"rental_uris":{"android":"levelo://app?vid=7dc08265-548b-47e8-8242-9be0df3016c8","ios":"levelo://app?vid=7dc08265-548b-47e8-8242-9be0df3016c8"},"vehicle_type_id":"4","last_reported":1750422048,"current_range_meters":1600,"station_id":"ce4bhi12rcd13ifvqfp0","pricing_plan_id":"cebpf4jnsgd1na2vs0mg"},{"bike_id":"285cd243-ebe2-42e4-a0d7-91c1ebe0e1d2","system_id":"levelo_inurba_marseille","lat":43.29788,"lon":5.38106,"is_reserved":false,"is_disabled":true,"rental_uris":{"android":"levelo://app?vid=285cd243-ebe2-42e4-a0d7-91c1ebe0e1d2","ios":"levelo://app?vid=285cd243-ebe2-42e4-a0d7-91c1ebe0e1d2"},"vehicle_type_id":"4","last_reported":1750422048,"current_range_meters":2000,"station_id":"ce4bgip2rcd13ifvqbb0","pricing_plan_id":"cebpf4jnsgd1na2vs0mg"},{"bike_id":"161a3ca1-7a0f-4df0-8e5e-cdc0a4961e7e","system_id":"levelo_inurba_marseille","lat":43.26552,"lon":5.37283,"is_reserved":false,"is_disabled":true,"rental_uris":{"android":"levelo://app?vid=161a3ca1-7a0f-4df0-8e5e-cdc0a4961e7e","ios":"levelo://app?vid=161a3ca1-7a0f-4df0-8e5e-cdc0a4961e7e"},"vehicle_type_id":"4","last_reported":1750422048,"current_range_meters":2000,"station_id":"ce4bhg12rcd13ifvqf70","pricing_plan_id":"cebpf4jnsgd1na2vs0mg"},{"bike_id":"5e160d94-327d-498a-bb60-14f302678693","system_id":"levelo_inurba_marseille","lat":43.28685,"lon":5.38667,"is_reserved":false,"is_disabled":false,"rental_uris":{"android":"levelo://app?vid=5e160d94-327d-498a-bb60-14f302678693","ios":"levelo://app?vid=5e160d94-327d-498a-bb60-14f302678693"},"vehicle_type_id":"4","last_reported":1750422048,"current_range_meters":2800,"station_id":"ce4bh492rcd13ifvqdug","pricing_plan_id":"cebpf4jnsgd1na2vs0mg"},{"bike_id":"4c8f7352-56b5-460c-ab01-f4fddedaaff1","system_id":"levelo_inurba_marseille","lat":43.25943,"lon":5.40898,"is_reserved":false,"is_disabled":false,"rental_uris":{"android":"levelo://app?vid=4c8f7352-56b5-460c-ab01-f4fddedaaff1","ios":"levelo://app?vid=4c8f7352-56b5-460c-ab01-f4fddedaaff1"},"vehicle_type_id":"4","last_reported":1750422048,"current_range_meters":2800,"station_id":"ce4bhm92rcd13ifvqglg","pricing_plan_id":"cebpf4jnsgd1na2vs0mg"},{"bike_id":"03335c97-3828-4146-9108-72b9eb0b89cf","system_id":"levelo_inurba_marseille","lat":43.21755,"lon":5.34585,"is_reserved":false,"is_disabled":false,"rental_uris":{"android":"levelo://app?vid=03335c97-3828-4146-9108-72b9eb0b89cf","ios":"levelo://app?vid=03335c97-3828-4146-9108-72b9eb0b89cf"},"vehicle_type_id":"4","last_reported":1750422048,"current_range_meters":2800,"station_id":"st_cvj6r9ubvosntc0bgbag","pricing_plan_id":"cebpf4jnsgd1na2vs0mg"},{"bike_id":"2ffae795-9c9c-41b1-9025-e63a457bc189","system_id":"levelo_inurba_marseille","lat":43.29895,"lon":5.436677,"is_reserved":false,"is_disabled":false,"rental_uris":{"android":"levelo://app?vid=2ffae795-9c9c-41b1-9025-e63a457bc189","ios":"levelo://app?vid=2ffae795-9c9c-41b1-9025-e63a457bc189"},"vehicle_type_id":"4","last_reported":1750422048,"current_range_meters":3200,"station_id":"","pricing_plan_id":"cebpf4jnsgd1na2vs0mg"},{"bike_id":"aff4d10d-6641-4ded-aa8c-567678e3bcd5","system_id":"levelo_inurba_marseille","lat":43.23194,"lon":5.39989,"is_reserved":false,"is_disabled":false,"rental_uris":{"android":"levelo://app?vid=aff4d10d-6641-4ded-aa8c-567678e3bcd5","ios":"levelo://app?vid=aff4d10d-6641-4ded-aa8c-567678e3bcd5"},"vehicle_type_id":"4","last_reported":1750422048,"current_range_meters":3200,"station_id":"ce4bhn12rcd13ifvqgqg","pricing_plan_id":"cebpf4jnsgd1na2vs0mg"},{"bike_id":"4aea8136-e63d-4500-9554-28456e2e9cb5","system_id":"levelo_inurba_marseille","lat":43.2857,"lon":5.39504,"is_reserved":false,"is_disabled":false,"rental_uris":{"android":"levelo://app?vid=4aea8136-e63d-4500-9554-28456e2e9cb5","ios":"levelo://app?vid=4aea8136-e63d-4500-9554-28456e2e9cb5"},"vehicle_type_id":"4","last_reported":1750422048,"current_range_meters":4000,"station_id":"ce4bh292rcd13ifvqdg0","pricing_plan_id":"cebpf4jnsgd1na2vs0mg"},{"bike_id":"024f5c2e-54f2-4e9b-96db-8a1dc242916f","system_id":"levelo_inurba_marseille","lat":43.23193,"lon":5.35548,"is_reserved":false,"is_disabled":false,"rental_uris":{"android":"levelo://app?vid=024f5c2e-54f2-4e9b-96db-8a1dc242916f","ios":"levelo://app?vid=024f5c2e-54f2-4e9b-96db-8a1dc242916f"},"vehicle_type_id":"4","last_reported":1750422048,"current_range_meters":4000,"station_id":"ce4bhu92rcd13ifvqi70","pricing_plan_id":"cebpf4jnsgd1na2vs0mg"},{"bike_id":"be94484a-5f13-4a2c-8d20-06e095da8cf9","system_id":"levelo_inurba_marseille","lat":43.27816,"lon":5.40713,"is_reserved":false,"is_disabled":false,"rental_uris":{"android":"levelo://app?vid=be94484a-5f13-4a2c-8d20-06e095da8cf9","ios":"levelo://app?vid=be94484a-5f13-4a2c-8d20-06e095da8cf9"},"vehicle_type_id":"4","last_reported":1750422048,"current_range_meters":4400,"station_id":"ce4bhnh2rcd13ifvqgtg","pricing_plan_id":"cebpf4jnsgd1na2vs0mg"},{"bike_id":"f2863ff2-e26a-44d9-b4c6-5cd1c3178e05","system_id":"levelo_inurba_marseille","lat":43.28941,"lon":5.36638,"is_reserved":false,"is_disabled":false,"rental_uris":{"android":"levelo://app?vid=f2863ff2-e26a-44d9-b4c6-5cd1c3178e05","ios":"levelo://app?vid=f2863ff2-e26a-44d9-b4c6-5cd1c3178e05"},"vehicle_type_id":"4","last_reported":1750422048,"current_range_meters":4800,"station_id":"ce4bhap2rcd13ifvqek0","pricing_plan_id":"cebpf4jnsgd1na2vs0mg"},{"bike_id":"b4bd8599-585e-421b-8512-091102f67835","system_id":"levelo_inurba_marseille","lat":43.25869,"lon":5.39891,"is_reserved":false,"is_disabled":false,"rental_uris":{"android":"levelo://app?vid=b4bd8599-585e-421b-8512-091102f67835","ios":"levelo://app?vid=b4bd8599-585e-421b-8512-091102f67835"},"vehicle_type_id":"4","last_reported":1750422048,"current_range_meters":4800,"station_id":"ce4bhl92rcd13ifvqghg","pricing_plan_id":"cebpf4jnsgd1na2vs0mg"},{"bike_id":"02c8328a-1e0c-43b9-b20a-72a6553a5656","system_id":"levelo_inurba_marseille","lat":43.299,"lon":5.43671,"is_reserved":false,"is_disabled":false,"rental_uris":{"android":"levelo://app?vid=02c8328a-1e0c-43b9-b20a-72a6553a5656","ios":"levelo://app?vid=02c8328a-1e0c-43b9-b20a-72a6553a5656"},"vehicle_type_id":"4","last_reported":1750422048,"current_range_meters":4800,"station_id":"ce4bhpp2rcd13ifvqhfg","pricing_plan_id":"cebpf4jnsgd1na2vs0mg"},{"bike_id":"7977d4f0-faed-4505-b100-18dcd3bfa9b5","system_id":"levelo_inurba_marseille","lat":43.29845,"lon":5.36282,"is_reserved":false,"is_disabled":false,"rental_uris":{"android":"levelo://app?vid=7977d4f0-faed-4505-b100-18dcd3bfa9b5","ios":"levelo://app?vid=7977d4f0-faed-4505-b100-18dcd3bfa9b5"},"vehicle_type_id":"4","last_reported":1750422048,"current_range_meters":5600,"station_id":"ce4bgpp2rcd13ifvqc3g","pricing_plan_id":"cebpf4jnsgd1na2vs0mg"},{"bike_id":"5659bbab-b770-4025-9b3f-fcd18227fe10","system_id":"levelo_inurba_marseille","lat":43.21755,"lon":5.346,"is_reserved":false,"is_disabled":false,"rental_uris":{"android":"levelo://app?vid=5659bbab-b770-4025-9b3f-fcd18227fe10","ios":"levelo://app?vid=5659bbab-b770-4025-9b3f-fcd18227fe10"},"vehicle_type_id":"4","last_reported":1750422048,"current_range_meters":5600,"station_id":"st_cvj6r9ubvosntc0bgbag","pricing_plan_id":"cebpf4jnsgd1na2vs0mg"},{"bike_id":"0b1e53b6-bc72-4bff-b2c0-17099e7d43a1","system_id":"levelo_inurba_marseille","lat":43.31484,"lon":5.37294,"is_reserved":false,"is_disabled":false,"rental_uris":{"android":"levelo://app?vid=0b1e53b6-bc72-4bff-b2c0-17099e7d43a1","ios":"levelo://app?vid=0b1e53b6-bc72-4bff-b2c0-17099e7d43a1"},"vehicle_type_id":"4","last_reported":1750422048,"current_range_meters":6000,"station_id":"ce4bgt12rcd13ifvqcd0","pricing_plan_id":"cebpf4jnsgd1na2vs0mg"},{"bike_id":"aca23b85-2d0a-4a04-879c-a12cefefd928","system_id":"levelo_inurba_marseille","lat":43.31061,"lon":5.3836,"is_reserved":false,"is_disabled":false,"rental_uris":{"android":"levelo://app?vid=aca23b85-2d0a-4a04-879c-a12cefefd928","ios":"levelo://app?vid=aca23b85-2d0a-4a04-879c-a12cefefd928"},"vehicle_type_id":"4","last_reported":1750422048,"current_range_meters":6000,"station_id":"ce4bgv92rcd13ifvqcr0","pricing_plan_id":"cebpf4jnsgd1na2vs0mg"},{"bike_id":"da77d13d-a0ec-4c65-a89c-a5b824007f68","system_id":"levelo_inurba_marseille","lat":43.31759,"lon":5.39017,"is_reserved":false,"is_disabled":false,"rental_uris":{"android":"levelo://app?vid=da77d13d-a0ec-4c65-a89c-a5b824007f68","ios":"levelo://app?vid=da77d13d-a0ec-4c65-a89c-a5b824007f68"},"vehicle_type_id":"4","last_reported":1750422048,"current_range_meters":6000,"station_id":"ce4bhqp2rcd13ifvqhng","pricing_plan_id":"cebpf4jnsgd1na2vs0mg"},{"bike_id":"26430529-ad71-4190-ab5b-acf540851571","system_id":"levelo_inurba_marseille","lat":43.21749,"lon":5.34598,"is_reserved":false,"is_disabled":false,"rental_uris":{"android":"levelo://app?vid=26430529-ad71-4190-ab5b-acf540851571","ios":"levelo://app?vid=26430529-ad71-4190-ab5b-acf540851571"},"vehicle_type_id":"4","last_reported":1750422048,"current_range_meters":6000,"station_id":"st_cvj6r9ubvosntc0bgbag","pricing_plan_id":"cebpf4jnsgd1na2vs0mg"},{"bike_id":"a666abf9-9059-4202-ae47-694f5365d78d","system_id":"levelo_inurba_marseille","lat":43.28076,"lon":5.34753,"is_reserved":false,"is_disabled":false,"rental_uris":{"android":"levelo://app?vid=a666abf9-9059-4202-ae47-694f5365d78d","ios":"levelo://app?vid=a666abf9-9059-4202-ae47-694f5365d78d"},"vehicle_type_id":"4","last_reported":1750422048,"current_range_meters":6400,"station_id":"","pricing_plan_id":"cebpf4jnsgd1na2vs0mg"},{"bike_id":"268aafb4-1331-426c-97bc-a7d6564caeb6","system_id":"levelo_inurba_marseille","lat":43.32933,"lon":5.37919,"is_reserved":false,"is_disabled":false,"rental_uris":{"android":"levelo://app?vid=268aafb4-1331-426c-97bc-a7d6564caeb6","ios":"levelo://app?vid=268aafb4-1331-426c-97bc-a7d6564caeb6"},"vehicle_type_id":"4","last_reported":1750422048,"current_range_meters":6400,"station_id":"","pricing_plan_id":"cebpf4jnsgd1na2vs0mg"},{"bike_id":"0dedb6f6-6801-483b-bfb8-9cd4533d158f","system_id":"levelo_inurba_marseille","lat":43.31139,"lon":5.38083,"is_reserved":false,"is_disabled":false,"rental_uris":{"android":"levelo://app?vid=0dedb6f6-6801-483b-bfb8-9cd4533d158f","ios":"levelo://app?vid=0dedb6f6-6801-483b-bfb8-9cd4533d158f"},"vehicle_type_id":"4","last_reported":1750422048,"current_range_meters":6400,"station_id":"","pricing_plan_id":"cebpf4jnsgd1na2vs0mg"},{"bike_id":"dd91410a-7683-454a-a8e1-378103ef79c9","system_id":"levelo_inurba_marseille","lat":43.26786,"lon":5.39412,"is_reserved":false,"is_disabled":false,"rental_uris":{"android":"levelo://app?vid=dd91410a-7683-454a-a8e1-378103ef79c9","ios":"levelo://app?vid=dd91410a-7683-454a-a8e1-378103ef79c9"},"vehicle_type_id":"4","last_reported":1750422048,"current_range_meters":6400,"station_id":"ce4bhh12rcd13ifvqfg0","pricing_plan_id":"cebpf4jnsgd1na2vs0mg"},{"bike_id":"cd3c7067-4026-48a6-9a1f-603005b45d20","system_id":"levelo_inurba_marseille","lat":43.26231,"lon":5.40448,"is_reserved":false,"is_disabled":false,"rental_uris":{"android":"levelo://app?vid=cd3c7067-4026-48a6-9a1f-603005b45d20","ios":"levelo://app?vid=cd3c7067-4026-48a6-9a1f-603005b45d20"},"vehicle_type_id":"4","last_reported":1750422048,"current_range_meters":6400,"station_id":"ce4bhmh2rcd13ifvqgmg","pricing_plan_id":"cebpf4jnsgd1na2vs0mg"},{"bike_id":"825b8564-7c66-46c0-a7f0-398bff3d24ca","system_id":"levelo_inurba_marseille","lat":43.31176,"lon":5.38707,"is_reserved":false,"is_disabled":false,"rental_uris":{"android":"levelo://app?vid=825b8564-7c66-46c0-a7f0-398bff3d24ca","ios":"levelo://app?vid=825b8564-7c66-46c0-a7f0-398bff3d24ca"},"vehicle_type_id":"4","last_reported":1750422048,"current_range_meters":6800,"station_id":"ce4bgv12rcd13ifvqcp0","pricing_plan_id":"cebpf4jnsgd1na2vs0mg"},{"bike_id":"613bc561-de7b-4c61-8b6c-b1a0df32b2e5","system_id":"levelo_inurba_marseille","lat":43.28626,"lon":5.35107,"is_reserved":false,"is_disabled":false,"rental_uris":{"android":"levelo://app?vid=613bc561-de7b-4c61-8b6c-b1a0df32b2e5","ios":"levelo://app?vid=613bc561-de7b-4c61-8b6c-b1a0df32b2e5"},"vehicle_type_id":"4","last_reported":1750422048,"current_range_meters":6800,"station_id":"ce4bhch2rcd13ifvqeug","pricing_plan_id":"cebpf4jnsgd1na2vs0mg"},{"bike_id":"1c1ef026-c2be-4a0f-b28e-781947e2be1a","system_id":"levelo_inurba_marseille","lat":43.26221,"lon":5.37443,"is_reserved":false,"is_disabled":false,"rental_uris":{"android":"levelo://app?vid=1c1ef026-c2be-4a0f-b28e-781947e2be1a","ios":"levelo://app?vid=1c1ef026-c2be-4a0f-b28e-781947e2be1a"},"vehicle_type_id":"4","last_reported":1750422048,"current_range_meters":6800,"station_id":"ce4bhgp2rcd13ifvqfc0","pricing_plan_id":"cebpf4jnsgd1na2vs0mg"},{"bike_id":"ef21d472-619b-4672-9054-97ec3bc97065","system_id":"levelo_inurba_marseille","lat":43.299,"lon":5.43673,"is_reserved":false,"is_disabled":false,"rental_uris":{"android":"levelo://app?vid=ef21d472-619b-4672-9054-97ec3bc97065","ios":"levelo://app?vid=ef21d472-619b-4672-9054-97ec3bc97065"},"vehicle_type_id":"4","last_reported":1750422048,"current_range_meters":6800,"station_id":"ce4bhpp2rcd13ifvqhfg","pricing_plan_id":"cebpf4jnsgd1na2vs0mg"},{"bike_id":"e2154599-1a95-44de-8d18-d9e76b4ffa33","system_id":"levelo_inurba_marseille","lat":43.21744,"lon":5.34604,"is_reserved":false,"is_disabled":false,"rental_uris":{"android":"levelo://app?vid=e2154599-1a95-44de-8d18-d9e76b4ffa33","ios":"levelo://app?vid=e2154599-1a95-44de-8d18-d9e76b4ffa33"},"vehicle_type_id":"4","last_reported":1750422048,"current_range_meters":6800,"station_id":"st_cvj6r9ubvosntc0bgbag","pricing_plan_id":"cebpf4jnsgd1na2vs0mg"},{"bike_id":"e7ea39a0-08e1-4f09-8f3f-e30c119e669a","system_id":"levelo_inurba_marseille","lat":43.30801,"lon":5.43707,"is_reserved":false,"is_disabled":false,"rental_uris":{"android":"levelo://app?vid=e7ea39a0-08e1-4f09-8f3f-e30c119e669a","ios":"levelo://app?vid=e7ea39a0-08e1-4f09-8f3f-e30c119e669a"},"vehicle_type_id":"4","last_reported":1750422048,"current_range_meters":7200,"station_id":"","pricing_plan_id":"cebpf4jnsgd1na2vs0mg"},{"bike_id":"9086f4b7-ff01-4711-87d8-ace194b263fd","system_id":"levelo_inurba_marseille","lat":43.301447,"lon":5.38069,"is_reserved":false,"is_disabled":false,"rental_uris":{"android":"levelo://app?vid=9086f4b7-ff01-4711-87d8-ace194b263fd","ios":"levelo://app?vid=9086f4b7-ff01-4711-87d8-ace194b263fd"},"vehicle_type_id":"4","last_reported":1750422048,"current_range_meters":7200,"station_id":"ce4bgjp2rcd13ifvqbh0","pricing_plan_id":"cebpf4jnsgd1na2vs0mg"},{"bike_id":"f899a80c-3d88-4f61-bc10-7f13b2cdefd7","system_id":"levelo_inurba_marseille","lat":43.30431,"lon":5.3975,"is_reserved":false,"is_disabled":false,"rental_uris":{"android":"levelo://app?vid=f899a80c-3d88-4f61-bc10-7f13b2cdefd7","ios":"levelo://app?vid=f899a80c-3d88-4f61-bc10-7f13b2cdefd7"},"vehicle_type_id":"4","last_reported":1750422048,"current_range_meters":7200,"station_id":"ce4bh092rcd13ifvqd20","pricing_plan_id":"cebpf4jnsgd1na2vs0mg"},{"bike_id":"a9b72587-ed46-47e8-9222-b38908b5180d","system_id":"levelo_inurba_marseille","lat":43.27813,"lon":5.4071,"is_reserved":false,"is_disabled":false,"rental_uris":{"android":"levelo://app?vid=a9b72587-ed46-47e8-9222-b38908b5180d","ios":"levelo://app?vid=a9b72587-ed46-47e8-9222-b38908b5180d"},"vehicle_type_id":"4","last_reported":1750422048,"current_range_meters":7200,"station_id":"ce4bhnh2rcd13ifvqgtg","pricing_plan_id":"cebpf4jnsgd1na2vs0mg"},{"bike_id":"c40946bd-0669-481e-81b6-0016ba7ffe28","system_id":"levelo_inurba_marseille","lat":43.33012,"lon":5.39048,"is_reserved":false,"is_disabled":false,"rental_uris":{"android":"levelo://app?vid=c40946bd-0669-481e-81b6-0016ba7ffe28","ios":"levelo://app?vid=c40946bd-0669-481e-81b6-0016ba7ffe28"},"vehicle_type_id":"4","last_reported":1750422048,"current_range_meters":7200,"station_id":"ce4bhr92rcd13ifvqhrg","pricing_plan_id":"cebpf4jnsgd1na2vs0mg"},{"bike_id":"dba40f4c-521c-4b7f-95ed-25c6e0811189","system_id":"levelo_inurba_marseille","lat":43.276186,"lon":5.361044,"is_reserved":false,"is_disabled":false,"rental_uris":{"android":"levelo://app?vid=dba40f4c-521c-4b7f-95ed-25c6e0811189","ios":"levelo://app?vid=dba40f4c-521c-4b7f-95ed-25c6e0811189"},"vehicle_type_id":"4","last_reported":1750422048,"current_range_meters":8000,"station_id":"ce4bgj92rcd13ifvqbe0","pricing_plan_id":"cebpf4jnsgd1na2vs0mg"},{"bike_id":"643f94cb-51c5-4264-b485-2657375d1cd1","system_id":"levelo_inurba_marseille","lat":43.2869,"lon":5.38672,"is_reserved":false,"is_disabled":false,"rental_uris":{"android":"levelo://app?vid=643f94cb-51c5-4264-b485-2657375d1cd1","ios":"levelo://app?vid=643f94cb-51c5-4264-b485-2657375d1cd1"},"vehicle_type_id":"4","last_reported":1750422048,"current_range_meters":8000,"station_id":"ce4bh492rcd13ifvqdug","pricing_plan_id":"cebpf4jnsgd1na2vs0mg"},{"bike_id":"4c3c5c82-55df-42a4-aefd-092b6c76bd74","system_id":"levelo_inurba_marseille","lat":43.28267,"lon":5.3508,"is_reserved":false,"is_disabled":false,"rental_uris":{"android":"levelo://app?vid=4c3c5c82-55df-42a4-aefd-092b6c76bd74","ios":"levelo://app?vid=4c3c5c82-55df-42a4-aefd-092b6c76bd74"},"vehicle_type_id":"4","last_reported":1750422048,"current_range_meters":8000,"station_id":"ce4bhbp2rcd13ifvqerg","pricing_plan_id":"cebpf4jnsgd1na2vs0mg"},{"bike_id":"8934b7c6-3431-416d-99c6-52e5c301bf55","system_id":"levelo_inurba_marseille","lat":43.23156,"lon":5.43721,"is_reserved":false,"is_disabled":false,"rental_uris":{"android":"levelo://app?vid=8934b7c6-3431-416d-99c6-52e5c301bf55","ios":"levelo://app?vid=8934b7c6-3431-416d-99c6-52e5c301bf55"},"vehicle_type_id":"4","last_reported":1750422048,"current_range_meters":8000,"station_id":"ce4bhmp2rcd13ifvqgog","pricing_plan_id":"cebpf4jnsgd1na2vs0mg"},{"bike_id":"791230d7-d8e7-4dee-8e0d-b4dcc6f926c1","system_id":"levelo_inurba_marseille","lat":43.23145,"lon":5.43752,"is_reserved":false,"is_disabled":false,"rental_uris":{"android":"levelo://app?vid=791230d7-d8e7-4dee-8e0d-b4dcc6f926c1","ios":"levelo://app?vid=791230d7-d8e7-4dee-8e0d-b4dcc6f926c1"},"vehicle_type_id":"4","last_reported":1750422048,"current_range_meters":8000,"station_id":"ce4bhmp2rcd13ifvqgog","pricing_plan_id":"cebpf4jnsgd1na2vs0mg"},{"bike_id":"f025e0b0-8595-426c-b214-cb9b74c5fcfd","system_id":"levelo_inurba_marseille","lat":43.32202,"lon":5.40579,"is_reserved":false,"is_disabled":false,"rental_uris":{"android":"levelo://app?vid=f025e0b0-8595-426c-b214-cb9b74c5fcfd","ios":"levelo://app?vid=f025e0b0-8595-426c-b214-cb9b74c5fcfd"},"vehicle_type_id":"4","last_reported":1750422048,"current_range_meters":8400,"station_id":"","pricing_plan_id":"cebpf4jnsgd1na2vs0mg"},{"bike_id":"cc62f5b2-7a35-43cb-839b-8a831a04636d","system_id":"levelo_inurba_marseille","lat":43.23188,"lon":5.39987,"is_reserved":false,"is_disabled":false,"rental_uris":{"android":"levelo://app?vid=cc62f5b2-7a35-43cb-839b-8a831a04636d","ios":"levelo://app?vid=cc62f5b2-7a35-43cb-839b-8a831a04636d"},"vehicle_type_id":"4","last_reported":1750422048,"current_range_meters":8400,"station_id":"ce4bhn12rcd13ifvqgqg","pricing_plan_id":"cebpf4jnsgd1na2vs0mg"},{"bike_id":"daa859b6-b6a4-4176-aec7-8324d51ad96e","system_id":"levelo_inurba_marseille","lat":43.2417,"lon":5.364,"is_reserved":false,"is_disabled":false,"rental_uris":{"android":"levelo://app?vid=daa859b6-b6a4-4176-aec7-8324d51ad96e","ios":"levelo://app?vid=daa859b6-b6a4-4176-aec7-8324d51ad96e"},"vehicle_type_id":"4","last_reported":1750422048,"current_range_meters":8400,"station_id":"cpo36qri1sfpv3e86is0","pricing_plan_id":"cebpf4jnsgd1na2vs0mg"},{"bike_id":"d3a31c97-d355-4903-9294-81f5a81fb5f7","system_id":"levelo_inurba_marseille","lat":43.2968,"lon":5.37285,"is_reserved":false,"is_disabled":false,"rental_uris":{"android":"levelo://app?vid=d3a31c97-d355-4903-9294-81f5a81fb5f7","ios":"levelo://app?vid=d3a31c97-d355-4903-9294-81f5a81fb5f7"},"vehicle_type_id":"4","last_reported":1750422048,"current_range_meters":8800,"station_id":"ce4bgk12rcd13ifvqbj0","pricing_plan_id":"cebpf4jnsgd1na2vs0mg"},{"bike_id":"ef89ca8a-8162-4bb0-a865-4300d1ea1593","system_id":"levelo_inurba_marseille","lat":43.31223,"lon":5.36887,"is_reserved":false,"is_disabled":false,"rental_uris":{"android":"levelo://app?vid=ef89ca8a-8162-4bb0-a865-4300d1ea1593","ios":"levelo://app?vid=ef89ca8a-8162-4bb0-a865-4300d1ea1593"},"vehicle_type_id":"4","last_reported":1750422048,"current_range_meters":8800,"station_id":"ce4bgl92rcd13ifvqbq0","pricing_plan_id":"cebpf4jnsgd1na2vs0mg"},{"bike_id":"2f78d359-aa23-4f80-8a56-07d6cf19b433","system_id":"levelo_inurba_marseille","lat":43.29718,"lon":5.36579,"is_reserved":false,"is_disabled":false,"rental_uris":{"android":"levelo://app?vid=2f78d359-aa23-4f80-8a56-07d6cf19b433","ios":"levelo://app?vid=2f78d359-aa23-4f80-8a56-07d6cf19b433"},"vehicle_type_id":"4","last_reported":1750422048,"current_range_meters":8800,"station_id":"ce4bgn12rcd13ifvqbt0","pricing_plan_id":"cebpf4jnsgd1na2vs0mg"},{"bike_id":"0a9d461b-49dc-4885-ac07-cbe225bc9823","system_id":"levelo_inurba_marseille","lat":43.314993,"lon":5.373073,"is_reserved":false,"is_disabled":false,"rental_uris":{"android":"levelo://app?vid=0a9d461b-49dc-4885-ac07-cbe225bc9823","ios":"levelo://app?vid=0a9d461b-49dc-4885-ac07-cbe225bc9823"},"vehicle_type_id":"4","last_reported":1750422048,"current_range_meters":8800,"station_id":"ce4bgt12rcd13ifvqcd0","pricing_plan_id":"cebpf4jnsgd1na2vs0mg"},{"bike_id":"6e0f2999-c006-4dcb-a5fa-6fe2049cefa8","system_id":"levelo_inurba_marseille","lat":43.31178,"lon":5.38717,"is_reserved":false,"is_disabled":false,"rental_uris":{"android":"levelo://app?vid=6e0f2999-c006-4dcb-a5fa-6fe2049cefa8","ios":"levelo://app?vid=6e0f2999-c006-4dcb-a5fa-6fe2049cefa8"},"vehicle_type_id":"4","last_reported":1750422048,"current_range_meters":8800,"station_id":"ce4bgv12rcd13ifvqcp0","pricing_plan_id":"cebpf4jnsgd1na2vs0mg"},{"bike_id":"c6d92c7c-5b03-4f50-92af-0a189777b633","system_id":"levelo_inurba_marseille","lat":43.31074,"lon":5.38353,"is_reserved":false,"is_disabled":false,"rental_uris":{"android":"levelo://app?vid=c6d92c7c-5b03-4f50-92af-0a189777b633","ios":"levelo://app?vid=c6d92c7c-5b03-4f50-92af-0a189777b633"},"vehicle_type_id":"4","last_reported":1750422048,"current_range_meters":8800,"station_id":"ce4bgv92rcd13ifvqcr0","pricing_plan_id":"cebpf4jnsgd1na2vs0mg"},{"bike_id":"2e474e55-c40b-4370-8568-ba79b813c4bb","system_id":"levelo_inurba_marseille","lat":43.29258,"lon":5.40911,"is_reserved":false,"is_disabled":false,"rental_uris":{"android":"levelo://app?vid=2e474e55-c40b-4370-8568-ba79b813c4bb","ios":"levelo://app?vid=2e474e55-c40b-4370-8568-ba79b813c4bb"},"vehicle_type_id":"4","last_reported":1750422048,"current_range_meters":8800,"station_id":"ce4bh192rcd13ifvqdc0","pricing_plan_id":"cebpf4jnsgd1na2vs0mg"},{"bike_id":"d2d46c7c-bf70-414e-833c-8dd0942c0ef9","system_id":"levelo_inurba_marseille","lat":43.22944,"lon":5.35379,"is_reserved":false,"is_disabled":false,"rental_uris":{"android":"levelo://app?vid=d2d46c7c-bf70-414e-833c-8dd0942c0ef9","ios":"levelo://app?vid=d2d46c7c-bf70-414e-833c-8dd0942c0ef9"},"vehicle_type_id":"4","last_reported":1750422048,"current_range_meters":8800,"station_id":"cpo3532slgdg3j2ikp40","pricing_plan_id":"cebpf4jnsgd1na2vs0mg"},{"bike_id":"854e84e4-4fc6-4a5f-af20-2cae2fe62e7d","system_id":"levelo_inurba_marseille","lat":43.22504,"lon":5.34772,"is_reserved":false,"is_disabled":false,"rental_uris":{"android":"levelo://app?vid=854e84e4-4fc6-4a5f-af20-2cae2fe62e7d","ios":"levelo://app?vid=854e84e4-4fc6-4a5f-af20-2cae2fe62e7d"},"vehicle_type_id":"4","last_reported":1750422048,"current_range_meters":8800,"station_id":"st_cvj5dfep6f1abm77gieg","pricing_plan_id":"cebpf4jnsgd1na2vs0mg"},{"bike_id":"df735c88-ae0a-4f8e-9723-d29eb27d80b9","system_id":"levelo_inurba_marseille","lat":43.29899,"lon":5.37643,"is_reserved":false,"is_disabled":false,"rental_uris":{"android":"levelo://app?vid=df735c88-ae0a-4f8e-9723-d29eb27d80b9","ios":"levelo://app?vid=df735c88-ae0a-4f8e-9723-d29eb27d80b9"},"vehicle_type_id":"4","last_reported":1750422048,"current_range_meters":9200,"station_id":"","pricing_plan_id":"cebpf4jnsgd1na2vs0mg"},{"bike_id":"f89eaeaa-c8c6-45df-8e91-373999bae770","system_id":"levelo_inurba_marseille","lat":43.26671,"lon":5.38275,"is_reserved":false,"is_disabled":false,"rental_uris":{"android":"levelo://app?vid=f89eaeaa-c8c6-45df-8e91-373999bae770","ios":"levelo://app?vid=f89eaeaa-c8c6-45df-8e91-373999bae770"},"vehicle_type_id":"4","last_reported":1750422048,"current_range_meters":9200,"station_id":"ce4bhg92rcd13ifvqf90","pricing_plan_id":"cebpf4jnsgd1na2vs0mg"},{"bike_id":"bfc20a18-faed-4eff-8f33-23bf96d8c669","system_id":"levelo_inurba_marseille","lat":43.26937,"lon":5.38909,"is_reserved":false,"is_disabled":false,"rental_uris":{"android":"levelo://app?vid=bfc20a18-faed-4eff-8f33-23bf96d8c669","ios":"levelo://app?vid=bfc20a18-faed-4eff-8f33-23bf96d8c669"},"vehicle_type_id":"4","last_reported":1750422048,"current_range_meters":9200,"station_id":"ce4bhhh2rcd13ifvqfl0","pricing_plan_id":"cebpf4jnsgd1na2vs0mg"},{"bike_id":"fe87cc41-afd0-4771-b4ea-978846f62fe5","system_id":"levelo_inurba_marseille","lat":43.325414,"lon":5.414226,"is_reserved":false,"is_disabled":false,"rental_uris":{"android":"levelo://app?vid=fe87cc41-afd0-4771-b4ea-978846f62fe5","ios":"levelo://app?vid=fe87cc41-afd0-4771-b4ea-978846f62fe5"},"vehicle_type_id":"4","last_reported":1750422048,"current_range_meters":9200,"station_id":"ce4bhq12rcd13ifvqhhg","pricing_plan_id":"cebpf4jnsgd1na2vs0mg"},{"bike_id":"e2b0a006-f829-46ab-a14e-6dfa147c551e","system_id":"levelo_inurba_marseille","lat":43.33029,"lon":5.39025,"is_reserved":false,"is_disabled":false,"rental_uris":{"android":"levelo://app?vid=e2b0a006-f829-46ab-a14e-6dfa147c551e","ios":"levelo://app?vid=e2b0a006-f829-46ab-a14e-6dfa147c551e"},"vehicle_type_id":"4","last_reported":1750422048,"current_range_meters":9200,"station_id":"ce4bhr92rcd13ifvqhrg","pricing_plan_id":"cebpf4jnsgd1na2vs0mg"},{"bike_id":"d100a5f9-d645-47b2-9ad8-8aea51bc81c2","system_id":"levelo_inurba_marseille","lat":43.29713,"lon":5.36601,"is_reserved":false,"is_disabled":false,"rental_uris":{"android":"levelo://app?vid=d100a5f9-d645-47b2-9ad8-8aea51bc81c2","ios":"levelo://app?vid=d100a5f9-d645-47b2-9ad8-8aea51bc81c2"},"vehicle_type_id":"4","last_reported":1750422048,"current_range_meters":9600,"station_id":"ce4bgn12rcd13ifvqbt0","pricing_plan_id":"cebpf4jnsgd1na2vs0mg"},{"bike_id":"cc604cbb-c008-487e-be1b-88cf4bb96b27","system_id":"levelo_inurba_marseille","lat":43.31499,"lon":5.37309,"is_reserved":false,"is_disabled":false,"rental_uris":{"android":"levelo://app?vid=cc604cbb-c008-487e-be1b-88cf4bb96b27","ios":"levelo://app?vid=cc604cbb-c008-487e-be1b-88cf4bb96b27"},"vehicle_type_id":"4","last_reported":1750422048,"current_range_meters":9600,"station_id":"ce4bgt12rcd13ifvqcd0","pricing_plan_id":"cebpf4jnsgd1na2vs0mg"},{"bike_id":"eb8c9ef2-e721-4e85-bd71-53a3788b1744","system_id":"levelo_inurba_marseille","lat":43.2743,"lon":5.39422,"is_reserved":false,"is_disabled":false,"rental_uris":{"android":"levelo://app?vid=eb8c9ef2-e721-4e85-bd71-53a3788b1744","ios":"levelo://app?vid=eb8c9ef2-e721-4e85-bd71-53a3788b1744"},"vehicle_type_id":"4","last_reported":1750422048,"current_range_meters":9600,"station_id":"ce4bhdp2rcd13ifvqf20","pricing_plan_id":"cebpf4jnsgd1na2vs0mg"},{"bike_id":"943d57f3-b313-44b7-ae78-a394f179e07f","system_id":"levelo_inurba_marseille","lat":43.298493,"lon":5.41574,"is_reserved":false,"is_disabled":false,"rental_uris":{"android":"levelo://app?vid=943d57f3-b313-44b7-ae78-a394f179e07f","ios":"levelo://app?vid=943d57f3-b313-44b7-ae78-a394f179e07f"},"vehicle_type_id":"4","last_reported":1750422048,"current_range_meters":10000,"station_id":"","pricing_plan_id":"cebpf4jnsgd1na2vs0mg"},{"bike_id":"d9b2950a-cd4b-488f-8f1a-b2421b953666","system_id":"levelo_inurba_marseille","lat":43.31458,"lon":5.39211,"is_reserved":false,"is_disabled":false,"rental_uris":{"android":"levelo://app?vid=d9b2950a-cd4b-488f-8f1a-b2421b953666","ios":"levelo://app?vid=d9b2950a-cd4b-488f-8f1a-b2421b953666"},"vehicle_type_id":"4","last_reported":1750422048,"current_range_meters":10000,"station_id":"","pricing_plan_id":"cebpf4jnsgd1na2vs0mg"},{"bike_id":"76d98782-fa9c-4a02-968c-91695381711d","system_id":"levelo_inurba_marseille","lat":43.27616,"lon":5.36115,"is_reserved":false,"is_disabled":false,"rental_uris":{"android":"levelo://app?vid=76d98782-fa9c-4a02-968c-91695381711d","ios":"levelo://app?vid=76d98782-fa9c-4a02-968c-91695381711d"},"vehicle_type_id":"4","last_reported":1750422048,"current_range_meters":10000,"station_id":"ce4bgj92rcd13ifvqbe0","pricing_plan_id":"cebpf4jnsgd1na2vs0mg"},{"bike_id":"4bc33eab-8288-496d-a0b3-af0f4566b5af","system_id":"levelo_inurba_marseille","lat":43.2998,"lon":5.37169,"is_reserved":false,"is_disabled":false,"rental_uris":{"android":"levelo://app?vid=4bc33eab-8288-496d-a0b3-af0f4566b5af","ios":"levelo://app?vid=4bc33eab-8288-496d-a0b3-af0f4566b5af"},"vehicle_type_id":"4","last_reported":1750422048,"current_range_meters":10000,"station_id":"ce4bgr92rcd13ifvqc7g","pricing_plan_id":"cebpf4jnsgd1na2vs0mg"},{"bike_id":"1161406b-8c6b-4f7f-8a28-97ab6d054d58","system_id":"levelo_inurba_marseille","lat":43.29036,"lon":5.399604,"is_reserved":false,"is_disabled":false,"rental_uris":{"android":"levelo://app?vid=1161406b-8c6b-4f7f-8a28-97ab6d054d58","ios":"levelo://app?vid=1161406b-8c6b-4f7f-8a28-97ab6d054d58"},"vehicle_type_id":"4","last_reported":1750422048,"current_range_meters":10000,"station_id":"ce4bh392rcd13ifvqdm0","pricing_plan_id":"cebpf4jnsgd1na2vs0mg"},{"bike_id":"fc9c54e8-b6e1-462b-b393-a453863683f0","system_id":"levelo_inurba_marseille","lat":43.231936,"lon":5.399758,"is_reserved":false,"is_disabled":false,"rental_uris":{"android":"levelo://app?vid=fc9c54e8-b6e1-462b-b393-a453863683f0","ios":"levelo://app?vid=fc9c54e8-b6e1-462b-b393-a453863683f0"},"vehicle_type_id":"4","last_reported":1750422048,"current_range_meters":10000,"station_id":"ce4bhn12rcd13ifvqgqg","pricing_plan_id":"cebpf4jnsgd1na2vs0mg"},{"bike_id":"578faedf-7b10-4d6a-a63c-fd2dc834c9fc","system_id":"levelo_inurba_marseille","lat":43.32043,"lon":5.41566,"is_reserved":false,"is_disabled":false,"rental_uris":{"android":"levelo://app?vid=578faedf-7b10-4d6a-a63c-fd2dc834c9fc","ios":"levelo://app?vid=578faedf-7b10-4d6a-a63c-fd2dc834c9fc"},"vehicle_type_id":"4","last_reported":1750422048,"current_range_meters":10000,"station_id":"ce4bhq92rcd13ifvqhkg","pricing_plan_id":"cebpf4jnsgd1na2vs0mg"},{"bike_id":"762900f6-03a5-4dfb-ab40-9cc1565e2272","system_id":"levelo_inurba_marseille","lat":43.33021,"lon":5.39009,"is_reserved":false,"is_disabled":false,"rental_uris":{"android":"levelo://app?vid=762900f6-03a5-4dfb-ab40-9cc1565e2272","ios":"levelo://app?vid=762900f6-03a5-4dfb-ab40-9cc1565e2272"},"vehicle_type_id":"4","last_reported":1750422048,"current_range_meters":10000,"station_id":"ce4bhr92rcd13ifvqhrg","pricing_plan_id":"cebpf4jnsgd1na2vs0mg"},{"bike_id":"059a97da-c725-4fd0-bdc6-03c9754b1bda","system_id":"levelo_inurba_marseille","lat":43.22935,"lon":5.35375,"is_reserved":false,"is_disabled":false,"rental_uris":{"android":"levelo://app?vid=059a97da-c725-4fd0-bdc6-03c9754b1bda","ios":"levelo://app?vid=059a97da-c725-4fd0-bdc6-03c9754b1bda"},"vehicle_type_id":"4","last_reported":1750422048,"current_range_meters":10000,"station_id":"cpo3532slgdg3j2ikp40","pricing_plan_id":"cebpf4jnsgd1na2vs0mg"},{"bike_id":"3faf2329-83a2-494e-b098-e7888ccf5fcb","system_id":"levelo_inurba_marseille","lat":43.28718,"lon":5.38336,"is_reserved":false,"is_disabled":false,"rental_uris":{"android":"levelo://app?vid=3faf2329-83a2-494e-b098-e7888ccf5fcb","ios":"levelo://app?vid=3faf2329-83a2-494e-b098-e7888ccf5fcb"},"vehicle_type_id":"4","last_reported":1750422048,"current_range_meters":10800,"station_id":"","pricing_plan_id":"cebpf4jnsgd1na2vs0mg"},{"bike_id":"c9c22aca-75ac-42ea-a8e4-e94b15510eef","system_id":"levelo_inurba_marseille","lat":43.29906,"lon":5.38152,"is_reserved":false,"is_disabled":false,"rental_uris":{"android":"levelo://app?vid=c9c22aca-75ac-42ea-a8e4-e94b15510eef","ios":"levelo://app?vid=c9c22aca-75ac-42ea-a8e4-e94b15510eef"},"vehicle_type_id":"4","last_reported":1750422048,"current_range_meters":10800,"station_id":"ce4bgj12rcd13ifvqbc0","pricing_plan_id":"cebpf4jnsgd1na2vs0mg"},{"bike_id":"bc818d66-0121-423f-bca6-ebc01df66a0f","system_id":"levelo_inurba_marseille","lat":43.31494,"lon":5.37306,"is_reserved":false,"is_disabled":false,"rental_uris":{"android":"levelo://app?vid=bc818d66-0121-423f-bca6-ebc01df66a0f","ios":"levelo://app?vid=bc818d66-0121-423f-bca6-ebc01df66a0f"},"vehicle_type_id":"4","last_reported":1750422048,"current_range_meters":10800,"station_id":"ce4bgt12rcd13ifvqcd0","pricing_plan_id":"cebpf4jnsgd1na2vs0mg"},{"bike_id":"1c53cc0e-a575-415a-a315-a07e35680b1b","system_id":"levelo_inurba_marseille","lat":43.316931,"lon":5.405232,"is_reserved":false,"is_disabled":false,"rental_uris":{"android":"levelo://app?vid=1c53cc0e-a575-415a-a315-a07e35680b1b","ios":"levelo://app?vid=1c53cc0e-a575-415a-a315-a07e35680b1b"},"vehicle_type_id":"4","last_reported":1750422048,"current_range_meters":10800,"station_id":"ce4bh012rcd13ifvqd00","pricing_plan_id":"cebpf4jnsgd1na2vs0mg"},{"bike_id":"504860e5-46cb-45e5-9abc-9ccc278bcdda","system_id":"levelo_inurba_marseille","lat":43.25004,"lon":5.38923,"is_reserved":false,"is_disabled":false,"rental_uris":{"android":"levelo://app?vid=504860e5-46cb-45e5-9abc-9ccc278bcdda","ios":"levelo://app?vid=504860e5-46cb-45e5-9abc-9ccc278bcdda"},"vehicle_type_id":"4","last_reported":1750422048,"current_range_meters":10800,"station_id":"ce4bhgp2rcd13ifvqfd0","pricing_plan_id":"cebpf4jnsgd1na2vs0mg"},{"bike_id":"e2d3f9e2-62d9-4b5c-b1f9-c8063c945128","system_id":"levelo_inurba_marseille","lat":43.30535,"lon":5.384237,"is_reserved":false,"is_disabled":false,"rental_uris":{"android":"levelo://app?vid=e2d3f9e2-62d9-4b5c-b1f9-c8063c945128","ios":"levelo://app?vid=e2d3f9e2-62d9-4b5c-b1f9-c8063c945128"},"vehicle_type_id":"4","last_reported":1750422048,"current_range_meters":11200,"station_id":"ce4bgg92rcd13ifvqb30","pricing_plan_id":"cebpf4jnsgd1na2vs0mg"},{"bike_id":"ee9e43c0-6612-42d2-8e5d-ee22cfd8ab29","system_id":"levelo_inurba_marseille","lat":43.246398,"lon":5.384395,"is_reserved":false,"is_disabled":false,"rental_uris":{"android":"levelo://app?vid=ee9e43c0-6612-42d2-8e5d-ee22cfd8ab29","ios":"levelo://app?vid=ee9e43c0-6612-42d2-8e5d-ee22cfd8ab29"},"vehicle_type_id":"4","last_reported":1750422048,"current_range_meters":11200,"station_id":"ce4bhhh2rcd13ifvqfk0","pricing_plan_id":"cebpf4jnsgd1na2vs0mg"},{"bike_id":"97dc7944-a3f7-4f56-bf01-05ead9087acf","system_id":"levelo_inurba_marseille","lat":43.24172,"lon":5.36397,"is_reserved":false,"is_disabled":false,"rental_uris":{"android":"levelo://app?vid=97dc7944-a3f7-4f56-bf01-05ead9087acf","ios":"levelo://app?vid=97dc7944-a3f7-4f56-bf01-05ead9087acf"},"vehicle_type_id":"4","last_reported":1750422048,"current_range_meters":11200,"station_id":"cpo36qri1sfpv3e86is0","pricing_plan_id":"cebpf4jnsgd1na2vs0mg"},{"bike_id":"f7574965-0667-4f3b-90e2-276750d028f1","system_id":"levelo_inurba_marseille","lat":43.33101,"lon":5.38266,"is_reserved":false,"is_disabled":false,"rental_uris":{"android":"levelo://app?vid=f7574965-0667-4f3b-90e2-276750d028f1","ios":"levelo://app?vid=f7574965-0667-4f3b-90e2-276750d028f1"},"vehicle_type_id":"4","last_reported":1750422048,"current_range_meters":11600,"station_id":"","pricing_plan_id":"cebpf4jnsgd1na2vs0mg"},{"bike_id":"1e466cd0-4ebd-40dc-a9d0-f5b0d3d7d813","system_id":"levelo_inurba_marseille","lat":43.30543,"lon":5.36686,"is_reserved":false,"is_disabled":false,"rental_uris":{"android":"levelo://app?vid=1e466cd0-4ebd-40dc-a9d0-f5b0d3d7d813","ios":"levelo://app?vid=1e466cd0-4ebd-40dc-a9d0-f5b0d3d7d813"},"vehicle_type_id":"4","last_reported":1750422048,"current_range_meters":11600,"station_id":"ce4bgrp2rcd13ifvqc9g","pricing_plan_id":"cebpf4jnsgd1na2vs0mg"},{"bike_id":"ab7b3f27-81bc-4ae0-be80-fe70c348ce3d","system_id":"levelo_inurba_marseille","lat":43.30795,"lon":5.37645,"is_reserved":false,"is_disabled":false,"rental_uris":{"android":"levelo://app?vid=ab7b3f27-81bc-4ae0-be80-fe70c348ce3d","ios":"levelo://app?vid=ab7b3f27-81bc-4ae0-be80-fe70c348ce3d"},"vehicle_type_id":"4","last_reported":1750422048,"current_range_meters":11600,"station_id":"ce4bgv92rcd13ifvqcq0","pricing_plan_id":"cebpf4jnsgd1na2vs0mg"},{"bike_id":"a965974f-3780-48da-bc7f-ce1218e562e4","system_id":"levelo_inurba_marseille","lat":43.249911,"lon":5.389522,"is_reserved":false,"is_disabled":false,"rental_uris":{"android":"levelo://app?vid=a965974f-3780-48da-bc7f-ce1218e562e4","ios":"levelo://app?vid=a965974f-3780-48da-bc7f-ce1218e562e4"},"vehicle_type_id":"4","last_reported":1750422048,"current_range_meters":11600,"station_id":"ce4bhgp2rcd13ifvqfd0","pricing_plan_id":"cebpf4jnsgd1na2vs0mg"},{"bike_id":"e23e7a54-4149-46ba-a8bd-e7c898fc479c","system_id":"levelo_inurba_marseille","lat":43.2991,"lon":5.38167,"is_reserved":false,"is_disabled":false,"rental_uris":{"android":"levelo://app?vid=e23e7a54-4149-46ba-a8bd-e7c898fc479c","ios":"levelo://app?vid=e23e7a54-4149-46ba-a8bd-e7c898fc479c"},"vehicle_type_id":"4","last_reported":1750422048,"current_range_meters":12000,"station_id":"ce4bgj12rcd13ifvqbc0","pricing_plan_id":"cebpf4jnsgd1na2vs0mg"},{"bike_id":"9219617b-bd32-4f08-9e33-b1c7207dfa8b","system_id":"levelo_inurba_marseille","lat":43.31081,"lon":5.42435,"is_reserved":false,"is_disabled":false,"rental_uris":{"android":"levelo://app?vid=9219617b-bd32-4f08-9e33-b1c7207dfa8b","ios":"levelo://app?vid=9219617b-bd32-4f08-9e33-b1c7207dfa8b"},"vehicle_type_id":"4","last_reported":1750422048,"current_range_meters":12000,"station_id":"ce4bhp92rcd13ifvqhag","pricing_plan_id":"cebpf4jnsgd1na2vs0mg"},{"bike_id":"fac6d2f1-c1e9-42f6-91e6-b04843c94974","system_id":"levelo_inurba_marseille","lat":43.29944,"lon":5.36552,"is_reserved":false,"is_disabled":false,"rental_uris":{"android":"levelo://app?vid=fac6d2f1-c1e9-42f6-91e6-b04843c94974","ios":"levelo://app?vid=fac6d2f1-c1e9-42f6-91e6-b04843c94974"},"vehicle_type_id":"4","last_reported":1750422048,"current_range_meters":12400,"station_id":"ce4bgm92rcd13ifvqbr0","pricing_plan_id":"cebpf4jnsgd1na2vs0mg"},{"bike_id":"2edbbb6e-0cf9-46ce-8d41-42a112fc230d","system_id":"levelo_inurba_marseille","lat":43.30135,"lon":5.37419,"is_reserved":false,"is_disabled":false,"rental_uris":{"android":"levelo://app?vid=2edbbb6e-0cf9-46ce-8d41-42a112fc230d","ios":"levelo://app?vid=2edbbb6e-0cf9-46ce-8d41-42a112fc230d"},"vehicle_type_id":"4","last_reported":1750422048,"current_range_meters":12400,"station_id":"ce4bgs92rcd13ifvqcc0","pricing_plan_id":"cebpf4jnsgd1na2vs0mg"},{"bike_id":"e998e0e5-83c0-4a39-bc24-27d9c0e90119","system_id":"levelo_inurba_marseille","lat":43.28616,"lon":5.35105,"is_reserved":false,"is_disabled":false,"rental_uris":{"android":"levelo://app?vid=e998e0e5-83c0-4a39-bc24-27d9c0e90119","ios":"levelo://app?vid=e998e0e5-83c0-4a39-bc24-27d9c0e90119"},"vehicle_type_id":"4","last_reported":1750422048,"current_range_meters":12400,"station_id":"ce4bhch2rcd13ifvqeug","pricing_plan_id":"cebpf4jnsgd1na2vs0mg"},{"bike_id":"cfcc63e5-33ec-4229-a7bf-4d1c7311a7b9","system_id":"levelo_inurba_marseille","lat":43.29909,"lon":5.43694,"is_reserved":false,"is_disabled":false,"rental_uris":{"android":"levelo://app?vid=cfcc63e5-33ec-4229-a7bf-4d1c7311a7b9","ios":"levelo://app?vid=cfcc63e5-33ec-4229-a7bf-4d1c7311a7b9"},"vehicle_type_id":"4","last_reported":1750422048,"current_range_meters":12800,"station_id":"","pricing_plan_id":"cebpf4jnsgd1na2vs0mg"},{"bike_id":"0c499489-2c11-4d0d-90b0-84114225110d","system_id":"levelo_inurba_marseille","lat":43.30152,"lon":5.38086,"is_reserved":false,"is_disabled":false,"rental_uris":{"android":"levelo://app?vid=0c499489-2c11-4d0d-90b0-84114225110d","ios":"levelo://app?vid=0c499489-2c11-4d0d-90b0-84114225110d"},"vehicle_type_id":"4","last_reported":1750422048,"current_range_meters":12800,"station_id":"ce4bgjp2rcd13ifvqbh0","pricing_plan_id":"cebpf4jnsgd1na2vs0mg"},{"bike_id":"728c49f2-add5-40cd-b8e6-26c9ff74b7e8","system_id":"levelo_inurba_marseille","lat":43.305478,"lon":5.365619,"is_reserved":false,"is_disabled":false,"rental_uris":{"android":"levelo://app?vid=728c49f2-add5-40cd-b8e6-26c9ff74b7e8","ios":"levelo://app?vid=728c49f2-add5-40cd-b8e6-26c9ff74b7e8"},"vehicle_type_id":"4","last_reported":1750422048,"current_range_meters":12800,"station_id":"ce4bgs12rcd13ifvqcag","pricing_plan_id":"cebpf4jnsgd1na2vs0mg"},{"bike_id":"90924104-20aa-484b-a5de-9df9beaa0035","system_id":"levelo_inurba_marseille","lat":43.24391,"lon":5.37062,"is_reserved":false,"is_disabled":false,"rental_uris":{"android":"levelo://app?vid=90924104-20aa-484b-a5de-9df9beaa0035","ios":"levelo://app?vid=90924104-20aa-484b-a5de-9df9beaa0035"},"vehicle_type_id":"4","last_reported":1750422048,"current_range_meters":12800,"station_id":"ce4bhhh2rcd13ifvqfk0","pricing_plan_id":"cebpf4jnsgd1na2vs0mg"},{"bike_id":"8fd94bfe-b0a3-4509-a3c9-0f6e3f8eed78","system_id":"levelo_inurba_marseille","lat":43.24164,"lon":5.36411,"is_reserved":false,"is_disabled":false,"rental_uris":{"android":"levelo://app?vid=8fd94bfe-b0a3-4509-a3c9-0f6e3f8eed78","ios":"levelo://app?vid=8fd94bfe-b0a3-4509-a3c9-0f6e3f8eed78"},"vehicle_type_id":"4","last_reported":1750422048,"current_range_meters":12800,"station_id":"cpo36qri1sfpv3e86is0","pricing_plan_id":"cebpf4jnsgd1na2vs0mg"},{"bike_id":"0708cf38-7a7f-4f4d-a4c6-7778c58c5a3c","system_id":"levelo_inurba_marseille","lat":43.28331,"lon":5.41126,"is_reserved":false,"is_disabled":false,"rental_uris":{"android":"levelo://app?vid=0708cf38-7a7f-4f4d-a4c6-7778c58c5a3c","ios":"levelo://app?vid=0708cf38-7a7f-4f4d-a4c6-7778c58c5a3c"},"vehicle_type_id":"4","last_reported":1750422048,"current_range_meters":13600,"station_id":"","pricing_plan_id":"cebpf4jnsgd1na2vs0mg"},{"bike_id":"199c2831-e081-4bc0-9b94-19503817091d","system_id":"levelo_inurba_marseille","lat":43.24904,"lon":5.40665,"is_reserved":false,"is_disabled":false,"rental_uris":{"android":"levelo://app?vid=199c2831-e081-4bc0-9b94-19503817091d","ios":"levelo://app?vid=199c2831-e081-4bc0-9b94-19503817091d"},"vehicle_type_id":"4","last_reported":1750422048,"current_range_meters":13600,"station_id":"","pricing_plan_id":"cebpf4jnsgd1na2vs0mg"},{"bike_id":"cedabf78-fc2f-4690-81c7-96c642203441","system_id":"levelo_inurba_marseille","lat":43.30554,"lon":5.36558,"is_reserved":false,"is_disabled":false,"rental_uris":{"android":"levelo://app?vid=cedabf78-fc2f-4690-81c7-96c642203441","ios":"levelo://app?vid=cedabf78-fc2f-4690-81c7-96c642203441"},"vehicle_type_id":"4","last_reported":1750422048,"current_range_meters":13600,"station_id":"ce4bgs12rcd13ifvqcag","pricing_plan_id":"cebpf4jnsgd1na2vs0mg"},{"bike_id":"1d514744-5636-4fb5-a714-d03e9ce5d9dd","system_id":"levelo_inurba_marseille","lat":43.30169,"lon":5.37368,"is_reserved":false,"is_disabled":false,"rental_uris":{"android":"levelo://app?vid=1d514744-5636-4fb5-a714-d03e9ce5d9dd","ios":"levelo://app?vid=1d514744-5636-4fb5-a714-d03e9ce5d9dd"},"vehicle_type_id":"4","last_reported":1750422048,"current_range_meters":13600,"station_id":"ce4bgs92rcd13ifvqcc0","pricing_plan_id":"cebpf4jnsgd1na2vs0mg"},{"bike_id":"5c04f4e0-7a5b-4e92-8e92-8b037538170f","system_id":"levelo_inurba_marseille","lat":43.3047,"lon":5.37895,"is_reserved":false,"is_disabled":false,"rental_uris":{"android":"levelo://app?vid=5c04f4e0-7a5b-4e92-8e92-8b037538170f","ios":"levelo://app?vid=5c04f4e0-7a5b-4e92-8e92-8b037538170f"},"vehicle_type_id":"4","last_reported":1750422048,"current_range_meters":13600,"station_id":"ce4bgup2rcd13ifvqcn0","pricing_plan_id":"cebpf4jnsgd1na2vs0mg"},{"bike_id":"b331be69-3bd5-438d-ac73-ea92b1a2094c","system_id":"levelo_inurba_marseille","lat":43.28852,"lon":5.39325,"is_reserved":false,"is_disabled":false,"rental_uris":{"android":"levelo://app?vid=b331be69-3bd5-438d-ac73-ea92b1a2094c","ios":"levelo://app?vid=b331be69-3bd5-438d-ac73-ea92b1a2094c"},"vehicle_type_id":"4","last_reported":1750422048,"current_range_meters":13600,"station_id":"ce4bh2p2rcd13ifvqdi0","pricing_plan_id":"cebpf4jnsgd1na2vs0mg"},{"bike_id":"145b1f0c-4a66-4b61-80a9-45232047a5a2","system_id":"levelo_inurba_marseille","lat":43.24085,"lon":5.37743,"is_reserved":false,"is_disabled":false,"rental_uris":{"android":"levelo://app?vid=145b1f0c-4a66-4b61-80a9-45232047a5a2","ios":"levelo://app?vid=145b1f0c-4a66-4b61-80a9-45232047a5a2"},"vehicle_type_id":"4","last_reported":1750422048,"current_range_meters":13600,"station_id":"ce4bhnp2rcd13ifvqgvg","pricing_plan_id":"cebpf4jnsgd1na2vs0mg"},{"bike_id":"09595997-6c52-44ba-874c-e5a0e51a13a7","system_id":"levelo_inurba_marseille","lat":43.21755,"lon":5.34601,"is_reserved":false,"is_disabled":false,"rental_uris":{"android":"levelo://app?vid=09595997-6c52-44ba-874c-e5a0e51a13a7","ios":"levelo://app?vid=09595997-6c52-44ba-874c-e5a0e51a13a7"},"vehicle_type_id":"4","last_reported":1750422048,"current_range_meters":13600,"station_id":"st_cvj6r9ubvosntc0bgbag","pricing_plan_id":"cebpf4jnsgd1na2vs0mg"},{"bike_id":"f30123e7-96d3-442d-9d01-6c98dc61e7c8","system_id":"levelo_inurba_marseille","lat":43.29819,"lon":5.36841,"is_reserved":false,"is_disabled":false,"rental_uris":{"android":"levelo://app?vid=f30123e7-96d3-442d-9d01-6c98dc61e7c8","ios":"levelo://app?vid=f30123e7-96d3-442d-9d01-6c98dc61e7c8"},"vehicle_type_id":"4","last_reported":1750422048,"current_range_meters":14000,"station_id":"","pricing_plan_id":"cebpf4jnsgd1na2vs0mg"},{"bike_id":"3dc1a2f8-8b98-4a65-980d-b42a647d0080","system_id":"levelo_inurba_marseille","lat":43.23962,"lon":5.36635,"is_reserved":false,"is_disabled":false,"rental_uris":{"android":"levelo://app?vid=3dc1a2f8-8b98-4a65-980d-b42a647d0080","ios":"levelo://app?vid=3dc1a2f8-8b98-4a65-980d-b42a647d0080"},"vehicle_type_id":"4","last_reported":1750422048,"current_range_meters":14000,"station_id":"ce4bhi12rcd13ifvqfp0","pricing_plan_id":"cebpf4jnsgd1na2vs0mg"},{"bike_id":"fc9aee4f-28db-420f-8d6e-aacacdde6cf5","system_id":"levelo_inurba_marseille","lat":43.33009,"lon":5.39093,"is_reserved":false,"is_disabled":false,"rental_uris":{"android":"levelo://app?vid=fc9aee4f-28db-420f-8d6e-aacacdde6cf5","ios":"levelo://app?vid=fc9aee4f-28db-420f-8d6e-aacacdde6cf5"},"vehicle_type_id":"4","last_reported":1750422048,"current_range_meters":14000,"station_id":"ce4bhr92rcd13ifvqhrg","pricing_plan_id":"cebpf4jnsgd1na2vs0mg"},{"bike_id":"763c365b-d554-4cb9-b43a-83ff33f2c22b","system_id":"levelo_inurba_marseille","lat":43.22519,"lon":5.3478,"is_reserved":false,"is_disabled":false,"rental_uris":{"android":"levelo://app?vid=763c365b-d554-4cb9-b43a-83ff33f2c22b","ios":"levelo://app?vid=763c365b-d554-4cb9-b43a-83ff33f2c22b"},"vehicle_type_id":"4","last_reported":1750422048,"current_range_meters":14000,"station_id":"st_cvj5dfep6f1abm77gieg","pricing_plan_id":"cebpf4jnsgd1na2vs0mg"},{"bike_id":"4e09fa04-33cc-44a3-9843-f082fb2e04d5","system_id":"levelo_inurba_marseille","lat":43.31491,"lon":5.37314,"is_reserved":false,"is_disabled":false,"rental_uris":{"android":"levelo://app?vid=4e09fa04-33cc-44a3-9843-f082fb2e04d5","ios":"levelo://app?vid=4e09fa04-33cc-44a3-9843-f082fb2e04d5"},"vehicle_type_id":"4","last_reported":1750422048,"current_range_meters":14400,"station_id":"ce4bgt12rcd13ifvqcd0","pricing_plan_id":"cebpf4jnsgd1na2vs0mg"},{"bike_id":"d22d7c80-7fc1-44ae-8e69-cb28aa030963","system_id":"levelo_inurba_marseille","lat":43.30883,"lon":5.39661,"is_reserved":false,"is_disabled":false,"rental_uris":{"android":"levelo://app?vid=d22d7c80-7fc1-44ae-8e69-cb28aa030963","ios":"levelo://app?vid=d22d7c80-7fc1-44ae-8e69-cb28aa030963"},"vehicle_type_id":"4","last_reported":1750422048,"current_range_meters":14400,"station_id":"ce4bh012rcd13ifvqcv0","pricing_plan_id":"cebpf4jnsgd1na2vs0mg"},{"bike_id":"15a2f196-e132-4848-96db-30c247e693b8","system_id":"levelo_inurba_marseille","lat":43.29109,"lon":5.37155,"is_reserved":false,"is_disabled":false,"rental_uris":{"android":"levelo://app?vid=15a2f196-e132-4848-96db-30c247e693b8","ios":"levelo://app?vid=15a2f196-e132-4848-96db-30c247e693b8"},"vehicle_type_id":"4","last_reported":1750422048,"current_range_meters":14400,"station_id":"ce4bh5p2rcd13ifvqe4g","pricing_plan_id":"cebpf4jnsgd1na2vs0mg"},{"bike_id":"9b9943dc-4516-4747-bc75-a7db6a1bb286","system_id":"levelo_inurba_marseille","lat":43.302,"lon":5.36624,"is_reserved":false,"is_disabled":false,"rental_uris":{"android":"levelo://app?vid=9b9943dc-4516-4747-bc75-a7db6a1bb286","ios":"levelo://app?vid=9b9943dc-4516-4747-bc75-a7db6a1bb286"},"vehicle_type_id":"4","last_reported":1750422048,"current_range_meters":14800,"station_id":"ce4bgrh2rcd13ifvqc8g","pricing_plan_id":"cebpf4jnsgd1na2vs0mg"},{"bike_id":"271e5c9f-7e23-46c5-9c49-3bf3f98778c7","system_id":"levelo_inurba_marseille","lat":43.31118,"lon":5.37769,"is_reserved":false,"is_disabled":false,"rental_uris":{"android":"levelo://app?vid=271e5c9f-7e23-46c5-9c49-3bf3f98778c7","ios":"levelo://app?vid=271e5c9f-7e23-46c5-9c49-3bf3f98778c7"},"vehicle_type_id":"4","last_reported":1750422048,"current_range_meters":14800,"station_id":"ce4bgt92rcd13ifvqcg0","pricing_plan_id":"cebpf4jnsgd1na2vs0mg"},{"bike_id":"31a1aa6b-1c16-4a45-9101-d8154a4ed752","system_id":"levelo_inurba_marseille","lat":43.26956,"lon":5.38634,"is_reserved":false,"is_disabled":false,"rental_uris":{"android":"levelo://app?vid=31a1aa6b-1c16-4a45-9101-d8154a4ed752","ios":"levelo://app?vid=31a1aa6b-1c16-4a45-9101-d8154a4ed752"},"vehicle_type_id":"4","last_reported":1750422048,"current_range_meters":14800,"station_id":"ce4bhh92rcd13ifvqfh0","pricing_plan_id":"cebpf4jnsgd1na2vs0mg"},{"bike_id":"318ef4d3-a783-4402-9b35-776556f88091","system_id":"levelo_inurba_marseille","lat":43.29897,"lon":5.43677,"is_reserved":false,"is_disabled":false,"rental_uris":{"android":"levelo://app?vid=318ef4d3-a783-4402-9b35-776556f88091","ios":"levelo://app?vid=318ef4d3-a783-4402-9b35-776556f88091"},"vehicle_type_id":"4","last_reported":1750422048,"current_range_meters":14800,"station_id":"ce4bhpp2rcd13ifvqhfg","pricing_plan_id":"cebpf4jnsgd1na2vs0mg"},{"bike_id":"04d972d4-625c-41a2-93b6-5337e9ca8ff0","system_id":"levelo_inurba_marseille","lat":43.32068,"lon":5.36867,"is_reserved":false,"is_disabled":false,"rental_uris":{"android":"levelo://app?vid=04d972d4-625c-41a2-93b6-5337e9ca8ff0","ios":"levelo://app?vid=04d972d4-625c-41a2-93b6-5337e9ca8ff0"},"vehicle_type_id":"4","last_reported":1750422048,"current_range_meters":14800,"station_id":"ce4bhrh2rcd13ifvqhug","pricing_plan_id":"cebpf4jnsgd1na2vs0mg"},{"bike_id":"1067e012-e83b-4f9b-a228-5d6178f1c368","system_id":"levelo_inurba_marseille","lat":43.2841,"lon":5.34971,"is_reserved":false,"is_disabled":false,"rental_uris":{"android":"levelo://app?vid=1067e012-e83b-4f9b-a228-5d6178f1c368","ios":"levelo://app?vid=1067e012-e83b-4f9b-a228-5d6178f1c368"},"vehicle_type_id":"4","last_reported":1750422048,"current_range_meters":15200,"station_id":"ce4bhbh2rcd13ifvqepg","pricing_plan_id":"cebpf4jnsgd1na2vs0mg"},{"bike_id":"9765131a-3ace-43fa-bca8-8a29ccceccbb","system_id":"levelo_inurba_marseille","lat":43.28405,"lon":5.34995,"is_reserved":false,"is_disabled":false,"rental_uris":{"android":"levelo://app?vid=9765131a-3ace-43fa-bca8-8a29ccceccbb","ios":"levelo://app?vid=9765131a-3ace-43fa-bca8-8a29ccceccbb"},"vehicle_type_id":"4","last_reported":1750422048,"current_range_meters":15200,"station_id":"ce4bhbh2rcd13ifvqepg","pricing_plan_id":"cebpf4jnsgd1na2vs0mg"},{"bike_id":"a67a0071-197c-4678-8c80-801f20f0bf52","system_id":"levelo_inurba_marseille","lat":43.27211,"lon":5.39175,"is_reserved":false,"is_disabled":false,"rental_uris":{"android":"levelo://app?vid=a67a0071-197c-4678-8c80-801f20f0bf52","ios":"levelo://app?vid=a67a0071-197c-4678-8c80-801f20f0bf52"},"vehicle_type_id":"4","last_reported":1750422048,"current_range_meters":15200,"station_id":"ce4bhhp2rcd13ifvqfm0","pricing_plan_id":"cebpf4jnsgd1na2vs0mg"},{"bike_id":"56735059-a511-4f75-9fa1-1f0e9a363234","system_id":"levelo_inurba_marseille","lat":43.232,"lon":5.3554,"is_reserved":false,"is_disabled":false,"rental_uris":{"android":"levelo://app?vid=56735059-a511-4f75-9fa1-1f0e9a363234","ios":"levelo://app?vid=56735059-a511-4f75-9fa1-1f0e9a363234"},"vehicle_type_id":"4","last_reported":1750422048,"current_range_meters":15200,"station_id":"ce4bhu92rcd13ifvqi70","pricing_plan_id":"cebpf4jnsgd1na2vs0mg"},{"bike_id":"74e58c3c-6de6-4ddc-8072-08325a79deec","system_id":"levelo_inurba_marseille","lat":43.23149,"lon":5.43756,"is_reserved":false,"is_disabled":false,"rental_uris":{"android":"levelo://app?vid=74e58c3c-6de6-4ddc-8072-08325a79deec","ios":"levelo://app?vid=74e58c3c-6de6-4ddc-8072-08325a79deec"},"vehicle_type_id":"4","last_reported":1750422048,"current_range_meters":16000,"station_id":"","pricing_plan_id":"cebpf4jnsgd1na2vs0mg"},{"bike_id":"dd45b830-666c-4c76-b06e-9938bffa2cad","system_id":"levelo_inurba_marseille","lat":43.28905,"lon":5.35935,"is_reserved":false,"is_disabled":false,"rental_uris":{"android":"levelo://app?vid=dd45b830-666c-4c76-b06e-9938bffa2cad","ios":"levelo://app?vid=dd45b830-666c-4c76-b06e-9938bffa2cad"},"vehicle_type_id":"4","last_reported":1750422048,"current_range_meters":16000,"station_id":"","pricing_plan_id":"cebpf4jnsgd1na2vs0mg"},{"bike_id":"d6bd1abe-be2d-419c-9bb3-b7689290fc18","system_id":"levelo_inurba_marseille","lat":43.30884,"lon":5.39652,"is_reserved":false,"is_disabled":false,"rental_uris":{"android":"levelo://app?vid=d6bd1abe-be2d-419c-9bb3-b7689290fc18","ios":"levelo://app?vid=d6bd1abe-be2d-419c-9bb3-b7689290fc18"},"vehicle_type_id":"4","last_reported":1750422048,"current_range_meters":16000,"station_id":"ce4bh012rcd13ifvqcv0","pricing_plan_id":"cebpf4jnsgd1na2vs0mg"},{"bike_id":"a95a896d-ffc2-4827-bd94-096d427606ba","system_id":"levelo_inurba_marseille","lat":43.29081,"lon":5.37154,"is_reserved":false,"is_disabled":false,"rental_uris":{"android":"levelo://app?vid=a95a896d-ffc2-4827-bd94-096d427606ba","ios":"levelo://app?vid=a95a896d-ffc2-4827-bd94-096d427606ba"},"vehicle_type_id":"4","last_reported":1750422048,"current_range_meters":16000,"station_id":"ce4bh5p2rcd13ifvqe4g","pricing_plan_id":"cebpf4jnsgd1na2vs0mg"},{"bike_id":"ed00ba10-e580-4de5-b017-d9ff82799ca6","system_id":"levelo_inurba_marseille","lat":43.25503,"lon":5.37646,"is_reserved":false,"is_disabled":false,"rental_uris":{"android":"levelo://app?vid=ed00ba10-e580-4de5-b017-d9ff82799ca6","ios":"levelo://app?vid=ed00ba10-e580-4de5-b017-d9ff82799ca6"},"vehicle_type_id":"4","last_reported":1750422048,"current_range_meters":16000,"station_id":"ce4bhh12rcd13ifvqff0","pricing_plan_id":"cebpf4jnsgd1na2vs0mg"},{"bike_id":"314bd7c4-28ea-43fb-845a-fea4027b53a9","system_id":"levelo_inurba_marseille","lat":43.26247,"lon":5.40452,"is_reserved":false,"is_disabled":false,"rental_uris":{"android":"levelo://app?vid=314bd7c4-28ea-43fb-845a-fea4027b53a9","ios":"levelo://app?vid=314bd7c4-28ea-43fb-845a-fea4027b53a9"},"vehicle_type_id":"4","last_reported":1750422048,"current_range_meters":16000,"station_id":"ce4bhmh2rcd13ifvqgmg","pricing_plan_id":"cebpf4jnsgd1na2vs0mg"},{"bike_id":"dc540ba2-fb63-45eb-b83a-1826fb3d30b7","system_id":"levelo_inurba_marseille","lat":43.246108,"lon":5.392605,"is_reserved":false,"is_disabled":false,"rental_uris":{"android":"levelo://app?vid=dc540ba2-fb63-45eb-b83a-1826fb3d30b7","ios":"levelo://app?vid=dc540ba2-fb63-45eb-b83a-1826fb3d30b7"},"vehicle_type_id":"4","last_reported":1750422048,"current_range_meters":16400,"station_id":"","pricing_plan_id":"cebpf4jnsgd1na2vs0mg"},{"bike_id":"8ef11a45-504d-45b0-a2b5-97fef9594218","system_id":"levelo_inurba_marseille","lat":43.29553,"lon":5.3819,"is_reserved":false,"is_disabled":false,"rental_uris":{"android":"levelo://app?vid=8ef11a45-504d-45b0-a2b5-97fef9594218","ios":"levelo://app?vid=8ef11a45-504d-45b0-a2b5-97fef9594218"},"vehicle_type_id":"4","last_reported":1750422048,"current_range_meters":16400,"station_id":"","pricing_plan_id":"cebpf4jnsgd1na2vs0mg"},{"bike_id":"be8c1372-29a1-4f7b-aab3-e91e3da2be59","system_id":"levelo_inurba_marseille","lat":43.3043,"lon":5.38885,"is_reserved":false,"is_disabled":false,"rental_uris":{"android":"levelo://app?vid=be8c1372-29a1-4f7b-aab3-e91e3da2be59","ios":"levelo://app?vid=be8c1372-29a1-4f7b-aab3-e91e3da2be59"},"vehicle_type_id":"4","last_reported":1750422048,"current_range_meters":16400,"station_id":"ce4bgk12rcd13ifvqbi0","pricing_plan_id":"cebpf4jnsgd1na2vs0mg"},{"bike_id":"bfc4421a-ba30-4095-8161-c513f3f14387","system_id":"levelo_inurba_marseille","lat":43.310793,"lon":5.383552,"is_reserved":false,"is_disabled":false,"rental_uris":{"android":"levelo://app?vid=bfc4421a-ba30-4095-8161-c513f3f14387","ios":"levelo://app?vid=bfc4421a-ba30-4095-8161-c513f3f14387"},"vehicle_type_id":"4","last_reported":1750422048,"current_range_meters":16400,"station_id":"ce4bgv92rcd13ifvqcr0","pricing_plan_id":"cebpf4jnsgd1na2vs0mg"},{"bike_id":"466bb8e1-f84f-4fb8-ab92-32aaffe6cd04","system_id":"levelo_inurba_marseille","lat":43.29065,"lon":5.37167,"is_reserved":false,"is_disabled":false,"rental_uris":{"android":"levelo://app?vid=466bb8e1-f84f-4fb8-ab92-32aaffe6cd04","ios":"levelo://app?vid=466bb8e1-f84f-4fb8-ab92-32aaffe6cd04"},"vehicle_type_id":"4","last_reported":1750422048,"current_range_meters":16400,"station_id":"ce4bh5p2rcd13ifvqe4g","pricing_plan_id":"cebpf4jnsgd1na2vs0mg"},{"bike_id":"b080a13a-ffff-4ef0-9581-04f345727159","system_id":"levelo_inurba_marseille","lat":43.284097,"lon":5.38716,"is_reserved":false,"is_disabled":false,"rental_uris":{"android":"levelo://app?vid=b080a13a-ffff-4ef0-9581-04f345727159","ios":"levelo://app?vid=b080a13a-ffff-4ef0-9581-04f345727159"},"vehicle_type_id":"4","last_reported":1750422048,"current_range_meters":16400,"station_id":"ce4bh8p2rcd13ifvqeb0","pricing_plan_id":"cebpf4jnsgd1na2vs0mg"},{"bike_id":"01f82335-1be4-49f0-bb9c-76bf3d817d2f","system_id":"levelo_inurba_marseille","lat":43.28427,"lon":5.34997,"is_reserved":false,"is_disabled":false,"rental_uris":{"android":"levelo://app?vid=01f82335-1be4-49f0-bb9c-76bf3d817d2f","ios":"levelo://app?vid=01f82335-1be4-49f0-bb9c-76bf3d817d2f"},"vehicle_type_id":"4","last_reported":1750422048,"current_range_meters":16400,"station_id":"ce4bhbh2rcd13ifvqepg","pricing_plan_id":"cebpf4jnsgd1na2vs0mg"},{"bike_id":"c3507ecf-350a-4f40-a3ec-c054291d999e","system_id":"levelo_inurba_marseille","lat":43.2827,"lon":5.35084,"is_reserved":false,"is_disabled":false,"rental_uris":{"android":"levelo://app?vid=c3507ecf-350a-4f40-a3ec-c054291d999e","ios":"levelo://app?vid=c3507ecf-350a-4f40-a3ec-c054291d999e"},"vehicle_type_id":"4","last_reported":1750422048,"current_range_meters":16400,"station_id":"ce4bhbp2rcd13ifvqerg","pricing_plan_id":"cebpf4jnsgd1na2vs0mg"},{"bike_id":"69c0f21f-cbde-4af0-994f-35069cc82c27","system_id":"levelo_inurba_marseille","lat":43.26956,"lon":5.38636,"is_reserved":false,"is_disabled":false,"rental_uris":{"android":"levelo://app?vid=69c0f21f-cbde-4af0-994f-35069cc82c27","ios":"levelo://app?vid=69c0f21f-cbde-4af0-994f-35069cc82c27"},"vehicle_type_id":"4","last_reported":1750422048,"current_range_meters":16400,"station_id":"ce4bhh92rcd13ifvqfh0","pricing_plan_id":"cebpf4jnsgd1na2vs0mg"},{"bike_id":"bd170c34-4c5d-4801-9c1e-787bb907a936","system_id":"levelo_inurba_marseille","lat":43.24122,"lon":5.397186,"is_reserved":false,"is_disabled":false,"rental_uris":{"android":"levelo://app?vid=bd170c34-4c5d-4801-9c1e-787bb907a936","ios":"levelo://app?vid=bd170c34-4c5d-4801-9c1e-787bb907a936"},"vehicle_type_id":"4","last_reported":1750422048,"current_range_meters":16400,"station_id":"ce4bhm12rcd13ifvqgkg","pricing_plan_id":"cebpf4jnsgd1na2vs0mg"},{"bike_id":"9c9432f2-200a-4685-a0d1-4fe23879268a","system_id":"levelo_inurba_marseille","lat":43.24069,"lon":5.37757,"is_reserved":false,"is_disabled":false,"rental_uris":{"android":"levelo://app?vid=9c9432f2-200a-4685-a0d1-4fe23879268a","ios":"levelo://app?vid=9c9432f2-200a-4685-a0d1-4fe23879268a"},"vehicle_type_id":"4","last_reported":1750422048,"current_range_meters":16400,"station_id":"ce4bhnp2rcd13ifvqgvg","pricing_plan_id":"cebpf4jnsgd1na2vs0mg"},{"bike_id":"ddefd7fd-3400-4337-8338-4067185a8cdb","system_id":"levelo_inurba_marseille","lat":43.321052,"lon":5.367672,"is_reserved":false,"is_disabled":false,"rental_uris":{"android":"levelo://app?vid=ddefd7fd-3400-4337-8338-4067185a8cdb","ios":"levelo://app?vid=ddefd7fd-3400-4337-8338-4067185a8cdb"},"vehicle_type_id":"4","last_reported":1750422048,"current_range_meters":16400,"station_id":"ce4bhrh2rcd13ifvqhug","pricing_plan_id":"cebpf4jnsgd1na2vs0mg"},{"bike_id":"8e92feac-7d18-4ddd-8b47-3e77cf9b9c34","system_id":"levelo_inurba_marseille","lat":43.23185,"lon":5.35591,"is_reserved":false,"is_disabled":false,"rental_uris":{"android":"levelo://app?vid=8e92feac-7d18-4ddd-8b47-3e77cf9b9c34","ios":"levelo://app?vid=8e92feac-7d18-4ddd-8b47-3e77cf9b9c34"},"vehicle_type_id":"4","last_reported":1750422048,"current_range_meters":16400,"station_id":"ce4bhu92rcd13ifvqi70","pricing_plan_id":"cebpf4jnsgd1na2vs0mg"},{"bike_id":"c38216e2-5eae-4c28-8eaa-4c91f6880c1d","system_id":"levelo_inurba_marseille","lat":43.22506,"lon":5.34791,"is_reserved":false,"is_disabled":false,"rental_uris":{"android":"levelo://app?vid=c38216e2-5eae-4c28-8eaa-4c91f6880c1d","ios":"levelo://app?vid=c38216e2-5eae-4c28-8eaa-4c91f6880c1d"},"vehicle_type_id":"4","last_reported":1750422048,"current_range_meters":16400,"station_id":"st_cvj5dfep6f1abm77gieg","pricing_plan_id":"cebpf4jnsgd1na2vs0mg"},{"bike_id":"d40af265-11b5-43a6-9bb6-f910f57901ba","system_id":"levelo_inurba_marseille","lat":43.329525,"lon":5.38017,"is_reserved":false,"is_disabled":false,"rental_uris":{"android":"levelo://app?vid=d40af265-11b5-43a6-9bb6-f910f57901ba","ios":"levelo://app?vid=d40af265-11b5-43a6-9bb6-f910f57901ba"},"vehicle_type_id":"4","last_reported":1750422048,"current_range_meters":16800,"station_id":"","pricing_plan_id":"cebpf4jnsgd1na2vs0mg"},{"bike_id":"bd27fe72-6fbc-453f-8b77-bee10ab3b13c","system_id":"levelo_inurba_marseille","lat":43.2958,"lon":5.42398,"is_reserved":false,"is_disabled":false,"rental_uris":{"android":"levelo://app?vid=bd27fe72-6fbc-453f-8b77-bee10ab3b13c","ios":"levelo://app?vid=bd27fe72-6fbc-453f-8b77-bee10ab3b13c"},"vehicle_type_id":"4","last_reported":1750422048,"current_range_meters":16800,"station_id":"","pricing_plan_id":"cebpf4jnsgd1na2vs0mg"},{"bike_id":"e904481c-c075-4235-ab4b-c7d3ddbe3194","system_id":"levelo_inurba_marseille","lat":43.293304,"lon":5.370808,"is_reserved":false,"is_disabled":false,"rental_uris":{"android":"levelo://app?vid=e904481c-c075-4235-ab4b-c7d3ddbe3194","ios":"levelo://app?vid=e904481c-c075-4235-ab4b-c7d3ddbe3194"},"vehicle_type_id":"4","last_reported":1750422048,"current_range_meters":16800,"station_id":"","pricing_plan_id":"cebpf4jnsgd1na2vs0mg"},{"bike_id":"3f7c23cc-d594-42bc-a881-f5ba267c7233","system_id":"levelo_inurba_marseille","lat":43.28619,"lon":5.35103,"is_reserved":false,"is_disabled":false,"rental_uris":{"android":"levelo://app?vid=3f7c23cc-d594-42bc-a881-f5ba267c7233","ios":"levelo://app?vid=3f7c23cc-d594-42bc-a881-f5ba267c7233"},"vehicle_type_id":"4","last_reported":1750422048,"current_range_meters":16800,"station_id":"ce4bhch2rcd13ifvqeug","pricing_plan_id":"cebpf4jnsgd1na2vs0mg"},{"bike_id":"e5408f17-4efc-4d6d-b68b-d90fc54917c1","system_id":"levelo_inurba_marseille","lat":43.25002,"lon":5.38926,"is_reserved":false,"is_disabled":false,"rental_uris":{"android":"levelo://app?vid=e5408f17-4efc-4d6d-b68b-d90fc54917c1","ios":"levelo://app?vid=e5408f17-4efc-4d6d-b68b-d90fc54917c1"},"vehicle_type_id":"4","last_reported":1750422048,"current_range_meters":16800,"station_id":"ce4bhgp2rcd13ifvqfd0","pricing_plan_id":"cebpf4jnsgd1na2vs0mg"},{"bike_id":"349c0f97-8649-4ba5-89ff-4bcd56d59d48","system_id":"levelo_inurba_marseille","lat":43.23196,"lon":5.3999,"is_reserved":false,"is_disabled":false,"rental_uris":{"android":"levelo://app?vid=349c0f97-8649-4ba5-89ff-4bcd56d59d48","ios":"levelo://app?vid=349c0f97-8649-4ba5-89ff-4bcd56d59d48"},"vehicle_type_id":"4","last_reported":1750422048,"current_range_meters":16800,"station_id":"ce4bhn12rcd13ifvqgqg","pricing_plan_id":"cebpf4jnsgd1na2vs0mg"},{"bike_id":"d79942ff-057d-40a1-b6a9-4181f1344ff2","system_id":"levelo_inurba_marseille","lat":43.30427,"lon":5.4128,"is_reserved":false,"is_disabled":false,"rental_uris":{"android":"levelo://app?vid=d79942ff-057d-40a1-b6a9-4181f1344ff2","ios":"levelo://app?vid=d79942ff-057d-40a1-b6a9-4181f1344ff2"},"vehicle_type_id":"4","last_reported":1750422048,"current_range_meters":16800,"station_id":"ce4bhop2rcd13ifvqh8g","pricing_plan_id":"cebpf4jnsgd1na2vs0mg"},{"bike_id":"a22aa312-0025-4f42-88e2-b1e95e79340f","system_id":"levelo_inurba_marseille","lat":43.316973,"lon":5.383884,"is_reserved":false,"is_disabled":false,"rental_uris":{"android":"levelo://app?vid=a22aa312-0025-4f42-88e2-b1e95e79340f","ios":"levelo://app?vid=a22aa312-0025-4f42-88e2-b1e95e79340f"},"vehicle_type_id":"4","last_reported":1750422048,"current_range_meters":17200,"station_id":"","pricing_plan_id":"cebpf4jnsgd1na2vs0mg"},{"bike_id":"123d81d8-e2e4-446c-91b6-b6270d0d7926","system_id":"levelo_inurba_marseille","lat":43.30148,"lon":5.37422,"is_reserved":false,"is_disabled":false,"rental_uris":{"android":"levelo://app?vid=123d81d8-e2e4-446c-91b6-b6270d0d7926","ios":"levelo://app?vid=123d81d8-e2e4-446c-91b6-b6270d0d7926"},"vehicle_type_id":"4","last_reported":1750422048,"current_range_meters":17200,"station_id":"ce4bgs92rcd13ifvqcc0","pricing_plan_id":"cebpf4jnsgd1na2vs0mg"},{"bike_id":"a355deee-f604-4bbe-bc6d-9b0b2f98b683","system_id":"levelo_inurba_marseille","lat":43.31522,"lon":5.37336,"is_reserved":false,"is_disabled":false,"rental_uris":{"android":"levelo://app?vid=a355deee-f604-4bbe-bc6d-9b0b2f98b683","ios":"levelo://app?vid=a355deee-f604-4bbe-bc6d-9b0b2f98b683"},"vehicle_type_id":"4","last_reported":1750422048,"current_range_meters":17200,"station_id":"ce4bgt12rcd13ifvqcd0","pricing_plan_id":"cebpf4jnsgd1na2vs0mg"},{"bike_id":"7c0d2e1d-5c52-41a2-bcb2-b15043f0d0ca","system_id":"levelo_inurba_marseille","lat":43.30939,"lon":5.40141,"is_reserved":false,"is_disabled":false,"rental_uris":{"android":"levelo://app?vid=7c0d2e1d-5c52-41a2-bcb2-b15043f0d0ca","ios":"levelo://app?vid=7c0d2e1d-5c52-41a2-bcb2-b15043f0d0ca"},"vehicle_type_id":"4","last_reported":1750422048,"current_range_meters":17200,"station_id":"ce4bgvp2rcd13ifvqct0","pricing_plan_id":"cebpf4jnsgd1na2vs0mg"},{"bike_id":"49609025-f09b-4011-8056-c4a09df0135d","system_id":"levelo_inurba_marseille","lat":43.28271,"lon":5.35055,"is_reserved":false,"is_disabled":false,"rental_uris":{"android":"levelo://app?vid=49609025-f09b-4011-8056-c4a09df0135d","ios":"levelo://app?vid=49609025-f09b-4011-8056-c4a09df0135d"},"vehicle_type_id":"4","last_reported":1750422048,"current_range_meters":17200,"station_id":"ce4bhbp2rcd13ifvqerg","pricing_plan_id":"cebpf4jnsgd1na2vs0mg"},{"bike_id":"610daf13-bcea-4a5f-b794-a1d5fae6f96b","system_id":"levelo_inurba_marseille","lat":43.22929,"lon":5.35379,"is_reserved":false,"is_disabled":false,"rental_uris":{"android":"levelo://app?vid=610daf13-bcea-4a5f-b794-a1d5fae6f96b","ios":"levelo://app?vid=610daf13-bcea-4a5f-b794-a1d5fae6f96b"},"vehicle_type_id":"4","last_reported":1750422048,"current_range_meters":17200,"station_id":"cpo3532slgdg3j2ikp40","pricing_plan_id":"cebpf4jnsgd1na2vs0mg"},{"bike_id":"4643bc90-1bac-4c4b-98b1-e2d500830573","system_id":"levelo_inurba_marseille","lat":43.31371,"lon":5.37704,"is_reserved":false,"is_disabled":false,"rental_uris":{"android":"levelo://app?vid=4643bc90-1bac-4c4b-98b1-e2d500830573","ios":"levelo://app?vid=4643bc90-1bac-4c4b-98b1-e2d500830573"},"vehicle_type_id":"4","last_reported":1750422048,"current_range_meters":17600,"station_id":"","pricing_plan_id":"cebpf4jnsgd1na2vs0mg"},{"bike_id":"ffbb0c22-3f4e-4cdb-a0e5-79e3b9f3e1a2","system_id":"levelo_inurba_marseille","lat":43.33789,"lon":5.37463,"is_reserved":false,"is_disabled":false,"rental_uris":{"android":"levelo://app?vid=ffbb0c22-3f4e-4cdb-a0e5-79e3b9f3e1a2","ios":"levelo://app?vid=ffbb0c22-3f4e-4cdb-a0e5-79e3b9f3e1a2"},"vehicle_type_id":"4","last_reported":1750422048,"current_range_meters":17600,"station_id":"","pricing_plan_id":"cebpf4jnsgd1na2vs0mg"},{"bike_id":"f3e09ffc-a218-40bd-9ee4-191ec4196bd5","system_id":"levelo_inurba_marseille","lat":43.30097,"lon":5.39081,"is_reserved":false,"is_disabled":false,"rental_uris":{"android":"levelo://app?vid=f3e09ffc-a218-40bd-9ee4-191ec4196bd5","ios":"levelo://app?vid=f3e09ffc-a218-40bd-9ee4-191ec4196bd5"},"vehicle_type_id":"4","last_reported":1750422048,"current_range_meters":17600,"station_id":"ce4bh192rcd13ifvqdb0","pricing_plan_id":"cebpf4jnsgd1na2vs0mg"},{"bike_id":"c1c6054d-a8cb-416d-8ef0-b90275603faf","system_id":"levelo_inurba_marseille","lat":43.29275,"lon":5.36845,"is_reserved":false,"is_disabled":false,"rental_uris":{"android":"levelo://app?vid=c1c6054d-a8cb-416d-8ef0-b90275603faf","ios":"levelo://app?vid=c1c6054d-a8cb-416d-8ef0-b90275603faf"},"vehicle_type_id":"4","last_reported":1750422048,"current_range_meters":17600,"station_id":"ce4bhbp2rcd13ifvqesg","pricing_plan_id":"cebpf4jnsgd1na2vs0mg"},{"bike_id":"0b438125-229a-47e7-b809-95fbbd1d8f9d","system_id":"levelo_inurba_marseille","lat":43.26503,"lon":5.395452,"is_reserved":false,"is_disabled":false,"rental_uris":{"android":"levelo://app?vid=0b438125-229a-47e7-b809-95fbbd1d8f9d","ios":"levelo://app?vid=0b438125-229a-47e7-b809-95fbbd1d8f9d"},"vehicle_type_id":"4","last_reported":1750422048,"current_range_meters":17600,"station_id":"ce4bhi12rcd13ifvqfq0","pricing_plan_id":"cebpf4jnsgd1na2vs0mg"},{"bike_id":"a9f7e5b6-c3b9-477a-9dd1-4ff223f734c0","system_id":"levelo_inurba_marseille","lat":43.29892,"lon":5.43654,"is_reserved":false,"is_disabled":false,"rental_uris":{"android":"levelo://app?vid=a9f7e5b6-c3b9-477a-9dd1-4ff223f734c0","ios":"levelo://app?vid=a9f7e5b6-c3b9-477a-9dd1-4ff223f734c0"},"vehicle_type_id":"4","last_reported":1750422048,"current_range_meters":17600,"station_id":"ce4bhpp2rcd13ifvqhfg","pricing_plan_id":"cebpf4jnsgd1na2vs0mg"},{"bike_id":"a27dfe13-84f1-4a5a-95b6-055954b50ba0","system_id":"levelo_inurba_marseille","lat":43.274002,"lon":5.362075,"is_reserved":false,"is_disabled":false,"rental_uris":{"android":"levelo://app?vid=a27dfe13-84f1-4a5a-95b6-055954b50ba0","ios":"levelo://app?vid=a27dfe13-84f1-4a5a-95b6-055954b50ba0"},"vehicle_type_id":"4","last_reported":1750422048,"current_range_meters":18000,"station_id":"","pricing_plan_id":"cebpf4jnsgd1na2vs0mg"},{"bike_id":"90c109b5-5cee-495e-8f11-f318c0f086b6","system_id":"levelo_inurba_marseille","lat":43.32493,"lon":5.43484,"is_reserved":false,"is_disabled":false,"rental_uris":{"android":"levelo://app?vid=90c109b5-5cee-495e-8f11-f318c0f086b6","ios":"levelo://app?vid=90c109b5-5cee-495e-8f11-f318c0f086b6"},"vehicle_type_id":"4","last_reported":1750422048,"current_range_meters":18000,"station_id":"","pricing_plan_id":"cebpf4jnsgd1na2vs0mg"},{"bike_id":"0a11771e-cc24-4d24-baf4-0abfe3e65cfe","system_id":"levelo_inurba_marseille","lat":43.28645,"lon":5.35095,"is_reserved":false,"is_disabled":false,"rental_uris":{"android":"levelo://app?vid=0a11771e-cc24-4d24-baf4-0abfe3e65cfe","ios":"levelo://app?vid=0a11771e-cc24-4d24-baf4-0abfe3e65cfe"},"vehicle_type_id":"4","last_reported":1750422048,"current_range_meters":18000,"station_id":"ce4bhch2rcd13ifvqeug","pricing_plan_id":"cebpf4jnsgd1na2vs0mg"},{"bike_id":"7292142d-a01f-49a7-8bbe-828e8933a3de","system_id":"levelo_inurba_marseille","lat":43.26546,"lon":5.37327,"is_reserved":false,"is_disabled":false,"rental_uris":{"android":"levelo://app?vid=7292142d-a01f-49a7-8bbe-828e8933a3de","ios":"levelo://app?vid=7292142d-a01f-49a7-8bbe-828e8933a3de"},"vehicle_type_id":"4","last_reported":1750422048,"current_range_meters":18000,"station_id":"ce4bhg12rcd13ifvqf70","pricing_plan_id":"cebpf4jnsgd1na2vs0mg"},{"bike_id":"78a57506-573f-46b6-a310-7ba341a7b2cc","system_id":"levelo_inurba_marseille","lat":43.24391,"lon":5.37067,"is_reserved":false,"is_disabled":false,"rental_uris":{"android":"levelo://app?vid=78a57506-573f-46b6-a310-7ba341a7b2cc","ios":"levelo://app?vid=78a57506-573f-46b6-a310-7ba341a7b2cc"},"vehicle_type_id":"4","last_reported":1750422048,"current_range_meters":18000,"station_id":"ce4bhhh2rcd13ifvqfk0","pricing_plan_id":"cebpf4jnsgd1na2vs0mg"},{"bike_id":"204afd8f-d13a-468d-a59c-e2db9671fff1","system_id":"levelo_inurba_marseille","lat":43.24417,"lon":5.3709,"is_reserved":false,"is_disabled":false,"rental_uris":{"android":"levelo://app?vid=204afd8f-d13a-468d-a59c-e2db9671fff1","ios":"levelo://app?vid=204afd8f-d13a-468d-a59c-e2db9671fff1"},"vehicle_type_id":"4","last_reported":1750422048,"current_range_meters":18000,"station_id":"ce4bhhh2rcd13ifvqfk0","pricing_plan_id":"cebpf4jnsgd1na2vs0mg"},{"bike_id":"a1c1777d-da5a-4c9f-bb72-8f2ece0962a4","system_id":"levelo_inurba_marseille","lat":43.27076,"lon":5.42276,"is_reserved":false,"is_disabled":false,"rental_uris":{"android":"levelo://app?vid=a1c1777d-da5a-4c9f-bb72-8f2ece0962a4","ios":"levelo://app?vid=a1c1777d-da5a-4c9f-bb72-8f2ece0962a4"},"vehicle_type_id":"4","last_reported":1750422048,"current_range_meters":18000,"station_id":"ce4bhk92rcd13ifvqgb0","pricing_plan_id":"cebpf4jnsgd1na2vs0mg"},{"bike_id":"a9fe177d-6cf7-41a6-b924-383cb8edf7ce","system_id":"levelo_inurba_marseille","lat":43.28569,"lon":5.35171,"is_reserved":false,"is_disabled":false,"rental_uris":{"android":"levelo://app?vid=a9fe177d-6cf7-41a6-b924-383cb8edf7ce","ios":"levelo://app?vid=a9fe177d-6cf7-41a6-b924-383cb8edf7ce"},"vehicle_type_id":"4","last_reported":1750422048,"current_range_meters":18800,"station_id":"","pricing_plan_id":"cebpf4jnsgd1na2vs0mg"},{"bike_id":"31d16323-c5f1-4bbe-8c62-9abb9a5ff85e","system_id":"levelo_inurba_marseille","lat":43.30147,"lon":5.38079,"is_reserved":false,"is_disabled":false,"rental_uris":{"android":"levelo://app?vid=31d16323-c5f1-4bbe-8c62-9abb9a5ff85e","ios":"levelo://app?vid=31d16323-c5f1-4bbe-8c62-9abb9a5ff85e"},"vehicle_type_id":"4","last_reported":1750422048,"current_range_meters":18800,"station_id":"ce4bgjp2rcd13ifvqbh0","pricing_plan_id":"cebpf4jnsgd1na2vs0mg"},{"bike_id":"3051f95c-da83-45e2-9862-8d2e4a808dd9","system_id":"levelo_inurba_marseille","lat":43.30472,"lon":5.37901,"is_reserved":false,"is_disabled":false,"rental_uris":{"android":"levelo://app?vid=3051f95c-da83-45e2-9862-8d2e4a808dd9","ios":"levelo://app?vid=3051f95c-da83-45e2-9862-8d2e4a808dd9"},"vehicle_type_id":"4","last_reported":1750422048,"current_range_meters":18800,"station_id":"ce4bgup2rcd13ifvqcn0","pricing_plan_id":"cebpf4jnsgd1na2vs0mg"},{"bike_id":"187dd912-16cb-4844-990b-733801fa224e","system_id":"levelo_inurba_marseille","lat":43.29104,"lon":5.3814,"is_reserved":false,"is_disabled":false,"rental_uris":{"android":"levelo://app?vid=187dd912-16cb-4844-990b-733801fa224e","ios":"levelo://app?vid=187dd912-16cb-4844-990b-733801fa224e"},"vehicle_type_id":"4","last_reported":1750422048,"current_range_meters":18800,"station_id":"ce4bh512rcd13ifvqe2g","pricing_plan_id":"cebpf4jnsgd1na2vs0mg"},{"bike_id":"219b5936-c769-4b8d-bef4-518d48165ac7","system_id":"levelo_inurba_marseille","lat":43.28403,"lon":5.34992,"is_reserved":false,"is_disabled":false,"rental_uris":{"android":"levelo://app?vid=219b5936-c769-4b8d-bef4-518d48165ac7","ios":"levelo://app?vid=219b5936-c769-4b8d-bef4-518d48165ac7"},"vehicle_type_id":"4","last_reported":1750422048,"current_range_meters":18800,"station_id":"ce4bhbh2rcd13ifvqepg","pricing_plan_id":"cebpf4jnsgd1na2vs0mg"},{"bike_id":"933d7c40-9935-4238-88f4-d116bf69d796","system_id":"levelo_inurba_marseille","lat":43.30152,"lon":5.38088,"is_reserved":false,"is_disabled":false,"rental_uris":{"android":"levelo://app?vid=933d7c40-9935-4238-88f4-d116bf69d796","ios":"levelo://app?vid=933d7c40-9935-4238-88f4-d116bf69d796"},"vehicle_type_id":"4","last_reported":1750422048,"current_range_meters":19200,"station_id":"ce4bgjp2rcd13ifvqbh0","pricing_plan_id":"cebpf4jnsgd1na2vs0mg"},{"bike_id":"c774a1f2-c36d-4d93-b45b-551316c740c7","system_id":"levelo_inurba_marseille","lat":43.304209,"lon":5.388964,"is_reserved":false,"is_disabled":false,"rental_uris":{"android":"levelo://app?vid=c774a1f2-c36d-4d93-b45b-551316c740c7","ios":"levelo://app?vid=c774a1f2-c36d-4d93-b45b-551316c740c7"},"vehicle_type_id":"4","last_reported":1750422048,"current_range_meters":19200,"station_id":"ce4bgk12rcd13ifvqbi0","pricing_plan_id":"cebpf4jnsgd1na2vs0mg"},{"bike_id":"0c4c2be6-728a-444e-9fd8-fb4481328cc8","system_id":"levelo_inurba_marseille","lat":43.30909,"lon":5.36853,"is_reserved":false,"is_disabled":false,"rental_uris":{"android":"levelo://app?vid=0c4c2be6-728a-444e-9fd8-fb4481328cc8","ios":"levelo://app?vid=0c4c2be6-728a-444e-9fd8-fb4481328cc8"},"vehicle_type_id":"4","last_reported":1750422048,"current_range_meters":19200,"station_id":"ce4bgn92rcd13ifvqbvg","pricing_plan_id":"cebpf4jnsgd1na2vs0mg"},{"bike_id":"94bcc0ac-269c-4a9e-883d-16a45fc74b3c","system_id":"levelo_inurba_marseille","lat":43.299754,"lon":5.371771,"is_reserved":false,"is_disabled":false,"rental_uris":{"android":"levelo://app?vid=94bcc0ac-269c-4a9e-883d-16a45fc74b3c","ios":"levelo://app?vid=94bcc0ac-269c-4a9e-883d-16a45fc74b3c"},"vehicle_type_id":"4","last_reported":1750422048,"current_range_meters":19200,"station_id":"ce4bgr92rcd13ifvqc7g","pricing_plan_id":"cebpf4jnsgd1na2vs0mg"},{"bike_id":"bd2af711-32a6-4e52-9f47-ad263467b6cb","system_id":"levelo_inurba_marseille","lat":43.26616,"lon":5.38308,"is_reserved":false,"is_disabled":false,"rental_uris":{"android":"levelo://app?vid=bd2af711-32a6-4e52-9f47-ad263467b6cb","ios":"levelo://app?vid=bd2af711-32a6-4e52-9f47-ad263467b6cb"},"vehicle_type_id":"4","last_reported":1750422048,"current_range_meters":19200,"station_id":"ce4bhg92rcd13ifvqf90","pricing_plan_id":"cebpf4jnsgd1na2vs0mg"},{"bike_id":"28ae73c4-e445-4559-b2e8-9e10e2171ef6","system_id":"levelo_inurba_marseille","lat":43.23197,"lon":5.39996,"is_reserved":false,"is_disabled":false,"rental_uris":{"android":"levelo://app?vid=28ae73c4-e445-4559-b2e8-9e10e2171ef6","ios":"levelo://app?vid=28ae73c4-e445-4559-b2e8-9e10e2171ef6"},"vehicle_type_id":"4","last_reported":1750422048,"current_range_meters":19200,"station_id":"ce4bhn12rcd13ifvqgqg","pricing_plan_id":"cebpf4jnsgd1na2vs0mg"},{"bike_id":"979e0a6d-dcd9-47be-a2f9-210f00882926","system_id":"levelo_inurba_marseille","lat":43.31087,"lon":5.42426,"is_reserved":false,"is_disabled":false,"rental_uris":{"android":"levelo://app?vid=979e0a6d-dcd9-47be-a2f9-210f00882926","ios":"levelo://app?vid=979e0a6d-dcd9-47be-a2f9-210f00882926"},"vehicle_type_id":"4","last_reported":1750422048,"current_range_meters":19200,"station_id":"ce4bhp92rcd13ifvqhag","pricing_plan_id":"cebpf4jnsgd1na2vs0mg"},{"bike_id":"904d9165-8a4c-4d2c-8705-df7457f3b83b","system_id":"levelo_inurba_marseille","lat":43.29901,"lon":5.43666,"is_reserved":false,"is_disabled":false,"rental_uris":{"android":"levelo://app?vid=904d9165-8a4c-4d2c-8705-df7457f3b83b","ios":"levelo://app?vid=904d9165-8a4c-4d2c-8705-df7457f3b83b"},"vehicle_type_id":"4","last_reported":1750422048,"current_range_meters":19200,"station_id":"ce4bhpp2rcd13ifvqhfg","pricing_plan_id":"cebpf4jnsgd1na2vs0mg"},{"bike_id":"73a224ff-f6a3-4c18-9279-d392a3f86d72","system_id":"levelo_inurba_marseille","lat":43.21763,"lon":5.34637,"is_reserved":false,"is_disabled":false,"rental_uris":{"android":"levelo://app?vid=73a224ff-f6a3-4c18-9279-d392a3f86d72","ios":"levelo://app?vid=73a224ff-f6a3-4c18-9279-d392a3f86d72"},"vehicle_type_id":"4","last_reported":1750422048,"current_range_meters":19200,"station_id":"st_cvj6r9ubvosntc0bgbag","pricing_plan_id":"cebpf4jnsgd1na2vs0mg"},{"bike_id":"a7e377ee-78d5-4fdc-bc9b-9a42472315e7","system_id":"levelo_inurba_marseille","lat":43.31363,"lon":5.36697,"is_reserved":false,"is_disabled":false,"rental_uris":{"android":"levelo://app?vid=a7e377ee-78d5-4fdc-bc9b-9a42472315e7","ios":"levelo://app?vid=a7e377ee-78d5-4fdc-bc9b-9a42472315e7"},"vehicle_type_id":"4","last_reported":1750422048,"current_range_meters":19600,"station_id":"","pricing_plan_id":"cebpf4jnsgd1na2vs0mg"},{"bike_id":"063e9941-d5f6-480d-a2cf-92698b2a4bd1","system_id":"levelo_inurba_marseille","lat":43.31487,"lon":5.37366,"is_reserved":false,"is_disabled":false,"rental_uris":{"android":"levelo://app?vid=063e9941-d5f6-480d-a2cf-92698b2a4bd1","ios":"levelo://app?vid=063e9941-d5f6-480d-a2cf-92698b2a4bd1"},"vehicle_type_id":"4","last_reported":1750422048,"current_range_meters":19600,"station_id":"ce4bgt12rcd13ifvqcd0","pricing_plan_id":"cebpf4jnsgd1na2vs0mg"},{"bike_id":"b047340b-07a3-434c-a853-eb5b0355650f","system_id":"levelo_inurba_marseille","lat":43.28847,"lon":5.39323,"is_reserved":false,"is_disabled":false,"rental_uris":{"android":"levelo://app?vid=b047340b-07a3-434c-a853-eb5b0355650f","ios":"levelo://app?vid=b047340b-07a3-434c-a853-eb5b0355650f"},"vehicle_type_id":"4","last_reported":1750422048,"current_range_meters":19600,"station_id":"ce4bh2p2rcd13ifvqdi0","pricing_plan_id":"cebpf4jnsgd1na2vs0mg"},{"bike_id":"9853c69b-447d-4e87-98d2-9456178bcde1","system_id":"levelo_inurba_marseille","lat":43.289316,"lon":5.366398,"is_reserved":false,"is_disabled":false,"rental_uris":{"android":"levelo://app?vid=9853c69b-447d-4e87-98d2-9456178bcde1","ios":"levelo://app?vid=9853c69b-447d-4e87-98d2-9456178bcde1"},"vehicle_type_id":"4","last_reported":1750422048,"current_range_meters":19600,"station_id":"ce4bhap2rcd13ifvqek0","pricing_plan_id":"cebpf4jnsgd1na2vs0mg"},{"bike_id":"3eea2498-f27e-4c63-b673-f80f27f95587","system_id":"levelo_inurba_marseille","lat":43.27837,"lon":5.3922,"is_reserved":false,"is_disabled":false,"rental_uris":{"android":"levelo://app?vid=3eea2498-f27e-4c63-b673-f80f27f95587","ios":"levelo://app?vid=3eea2498-f27e-4c63-b673-f80f27f95587"},"vehicle_type_id":"4","last_reported":1750422048,"current_range_meters":19600,"station_id":"ce4bhjp2rcd13ifvqga0","pricing_plan_id":"cebpf4jnsgd1na2vs0mg"},{"bike_id":"dc591c65-66de-4407-a725-940cfaff8a28","system_id":"levelo_inurba_marseille","lat":43.23165,"lon":5.43707,"is_reserved":false,"is_disabled":false,"rental_uris":{"android":"levelo://app?vid=dc591c65-66de-4407-a725-940cfaff8a28","ios":"levelo://app?vid=dc591c65-66de-4407-a725-940cfaff8a28"},"vehicle_type_id":"4","last_reported":1750422048,"current_range_meters":19600,"station_id":"ce4bhmp2rcd13ifvqgog","pricing_plan_id":"cebpf4jnsgd1na2vs0mg"},{"bike_id":"5187990f-0e38-4183-960c-3c6c679fb2e8","system_id":"levelo_inurba_marseille","lat":43.211814,"lon":5.350664,"is_reserved":false,"is_disabled":false,"rental_uris":{"android":"levelo://app?vid=5187990f-0e38-4183-960c-3c6c679fb2e8","ios":"levelo://app?vid=5187990f-0e38-4183-960c-3c6c679fb2e8"},"vehicle_type_id":"4","last_reported":1750422048,"current_range_meters":19600,"station_id":"st_cvj6sg6p6f1abm77japg","pricing_plan_id":"cebpf4jnsgd1na2vs0mg"},{"bike_id":"2d50ff45-3046-40df-b784-ee274c648ea0","system_id":"levelo_inurba_marseille","lat":43.3203,"lon":5.40817,"is_reserved":false,"is_disabled":false,"rental_uris":{"android":"levelo://app?vid=2d50ff45-3046-40df-b784-ee274c648ea0","ios":"levelo://app?vid=2d50ff45-3046-40df-b784-ee274c648ea0"},"vehicle_type_id":"4","last_reported":1750422048,"current_range_meters":20000,"station_id":"","pricing_plan_id":"cebpf4jnsgd1na2vs0mg"},{"bike_id":"6c785d94-8028-4acd-8256-9866bde0424c","system_id":"levelo_inurba_marseille","lat":43.29516,"lon":5.37509,"is_reserved":false,"is_disabled":false,"rental_uris":{"android":"levelo://app?vid=6c785d94-8028-4acd-8256-9866bde0424c","ios":"levelo://app?vid=6c785d94-8028-4acd-8256-9866bde0424c"},"vehicle_type_id":"4","last_reported":1750422048,"current_range_meters":20000,"station_id":"ce4bgkp2rcd13ifvqbmg","pricing_plan_id":"cebpf4jnsgd1na2vs0mg"},{"bike_id":"040de4a9-42f1-4b7a-a22f-b172faa3ea03","system_id":"levelo_inurba_marseille","lat":43.31244,"lon":5.36864,"is_reserved":false,"is_disabled":false,"rental_uris":{"android":"levelo://app?vid=040de4a9-42f1-4b7a-a22f-b172faa3ea03","ios":"levelo://app?vid=040de4a9-42f1-4b7a-a22f-b172faa3ea03"},"vehicle_type_id":"4","last_reported":1750422048,"current_range_meters":20000,"station_id":"ce4bgl92rcd13ifvqbq0","pricing_plan_id":"cebpf4jnsgd1na2vs0mg"},{"bike_id":"28c61316-6d7c-4551-95d6-f3f6b5981563","system_id":"levelo_inurba_marseille","lat":43.29702,"lon":5.36573,"is_reserved":false,"is_disabled":false,"rental_uris":{"android":"levelo://app?vid=28c61316-6d7c-4551-95d6-f3f6b5981563","ios":"levelo://app?vid=28c61316-6d7c-4551-95d6-f3f6b5981563"},"vehicle_type_id":"4","last_reported":1750422048,"current_range_meters":20000,"station_id":"ce4bgn12rcd13ifvqbt0","pricing_plan_id":"cebpf4jnsgd1na2vs0mg"},{"bike_id":"6c543eb1-92f1-4738-b01a-c5c28c3a3f58","system_id":"levelo_inurba_marseille","lat":43.30539,"lon":5.36703,"is_reserved":false,"is_disabled":false,"rental_uris":{"android":"levelo://app?vid=6c543eb1-92f1-4738-b01a-c5c28c3a3f58","ios":"levelo://app?vid=6c543eb1-92f1-4738-b01a-c5c28c3a3f58"},"vehicle_type_id":"4","last_reported":1750422048,"current_range_meters":20000,"station_id":"ce4bgrp2rcd13ifvqc9g","pricing_plan_id":"cebpf4jnsgd1na2vs0mg"},{"bike_id":"86f956c2-95df-4c7d-b611-b5fe1121c754","system_id":"levelo_inurba_marseille","lat":43.231895,"lon":5.39992,"is_reserved":false,"is_disabled":false,"rental_uris":{"android":"levelo://app?vid=86f956c2-95df-4c7d-b611-b5fe1121c754","ios":"levelo://app?vid=86f956c2-95df-4c7d-b611-b5fe1121c754"},"vehicle_type_id":"4","last_reported":1750422048,"current_range_meters":20000,"station_id":"ce4bhn12rcd13ifvqgqg","pricing_plan_id":"cebpf4jnsgd1na2vs0mg"},{"bike_id":"90c5a1b6-730c-413e-bcee-b223ffbd4504","system_id":"levelo_inurba_marseille","lat":43.241685,"lon":5.36389,"is_reserved":false,"is_disabled":false,"rental_uris":{"android":"levelo://app?vid=90c5a1b6-730c-413e-bcee-b223ffbd4504","ios":"levelo://app?vid=90c5a1b6-730c-413e-bcee-b223ffbd4504"},"vehicle_type_id":"4","last_reported":1750422048,"current_range_meters":20000,"station_id":"cpo36qri1sfpv3e86is0","pricing_plan_id":"cebpf4jnsgd1na2vs0mg"},{"bike_id":"65490dbb-fb26-48b3-b1b6-17abf527e385","system_id":"levelo_inurba_marseille","lat":43.24163,"lon":5.36413,"is_reserved":false,"is_disabled":false,"rental_uris":{"android":"levelo://app?vid=65490dbb-fb26-48b3-b1b6-17abf527e385","ios":"levelo://app?vid=65490dbb-fb26-48b3-b1b6-17abf527e385"},"vehicle_type_id":"4","last_reported":1750422048,"current_range_meters":20000,"station_id":"cpo36qri1sfpv3e86is0","pricing_plan_id":"cebpf4jnsgd1na2vs0mg"},