{"last_updated":1732378259,"ttl":60,"version":"2.2","data":{"bikes":[{"bike_id":"8b4910b0-d01b-458b-a576-fd3fea5280ce","system_id":"levelo_inurba_marseille","lat":43.30277,"lon":5.37715,"is_reserved":false,"is_disabled":false,"rental_uris":{"android":"levelo://app?vid=8b4910b0-d01b-458b-a576-fd3fea5280ce","ios":"levelo://app?vid=8b4910b0-d01b-458b-a576-fd3fea5280ce"},"vehicle_type_id":"4","last_reported":1732378259,"current_range_meters":20400,"station_id":"ce4bguh2rcd13ifvqcj0","pricing_plan_id":"cebpf4jnsgd1na2vs0mg"},{"bike_id":"6dc0bca3-b309-402e-90ca-e24d6fc04741","system_id":"levelo_inurba_marseille","lat":43.25578,"lon":5.38228,"is_reserved":false,"is_disabled":false,"rental_uris":{"android":"levelo://app?vid=6dc0bca3-b309-402e-90ca-e24d6fc04741","ios":"levelo://app?vid=6dc0bca3-b309-402e-90ca-e24d6fc04741"},"vehicle_type_id":"4","last_reported":1732378259,"current_range_meters":6000,"station_id":"ce4bhih2rcd13ifvqfs0","pricing_plan_id":"cebpf4jnsgd1na2vs0mg"},{"bike_id":"0c05dca5-6cb0-463e-b7bb-661803a8b145","system_id":"levelo_inurba_marseille","lat":43.25584,"lon":5.38229,"is_reserved":false,"is_disabled":false,"rental_uris":{"android":"levelo://app?vid=0c05dca5-6cb0-463e-b7bb-661803a8b145","ios":"levelo://app?vid=0c05dca5-6cb0-463e-b7bb-661803a8b145"},"vehicle_type_id":"4","last_reported":1732378259,"current_range_meters":9200,"station_id":"ce4bhih2rcd13ifvqfs0","pricing_plan_id":"cebpf4jnsgd1na2vs0mg"},{"bike_id":"0a528131-a07a-4d9d-836d-8c037c3e44be","system_id":"levelo_inurba_marseille","lat":43.274423,"lon":5.394221,"is_reserved":false,"is_disabled":false,"rental_uris":{"android":"levelo://app?vid=0a528131-a07a-4d9d-836d-8c037c3e44be","ios":"levelo://app?vid=0a528131-a07a-4d9d-836d-8c037c3e44be"},"vehicle_type_id":"4","last_reported":1732378259,"current_range_meters":14000,"station_id":"ce4bhdp2rcd13ifvqf20","pricing_plan_id":"cebpf4jnsgd1na2vs0mg"},{"bike_id":"5fd683e1-4200-427d-b022-85d61b63da51","system_id":"levelo_inurba_marseille","lat":43.29571,"lon":5.37502,"is_reserved":false,"is_disabled":false,"rental_uris":{"android":"levelo://app?vid=5fd683e1-4200-427d-b022-85d61b63da51","ios":"levelo://app?vid=5fd683e1-4200-427d-b022-85d61b63da51"},"vehicle_type_id":"4","last_reported":1732378259,"current_range_meters":36800,"station_id":"ce4bgh92rcd13ifvqb50","pricing_plan_id":"cebpf4jnsgd1na2vs0mg"},{"bike_id":"fe7dea4e-d632-4642-aee0-92c00a764691","system_id":"levelo_inurba_marseille","lat":43.30131,"lon":5.38782,"is_reserved":false,"is_disabled":true,"rental_uris":{"android":"levelo://app?vid=fe7dea4e-d632-4642-aee0-92c00a764691","ios":"levelo://app?vid=fe7dea4e-d632-4642-aee0-92c00a764691"},"vehicle_type_id":"4","last_reported":1732378259,"current_range_meters":38800,"station_id":"ce4bghh2rcd13ifvqb60","pricing_plan_id":"cebpf4jnsgd1na2vs0mg"},{"bike_id":"39b51f3e-341e-41dc-ade7-f2b371d9bb26","system_id":"levelo_inurba_marseille","lat":43.2863,"lon":5.35105,"is_reserved":false,"is_disabled":false,"rental_uris":{"android":"levelo://app?vid=39b51f3e-341e-41dc-ade7-f2b371d9bb26","ios":"levelo://app?vid=39b51f3e-341e-41dc-ade7-f2b371d9bb26"},"vehicle_type_id":"4","last_reported":1732378259,"current_range_meters":29600,"station_id":"ce4bhch2rcd13ifvqeug","pricing_plan_id":"cebpf4jnsgd1na2vs0mg"},{"bike_id":"9e38786f-f502-4c1c-9428-59d535da9860","system_id":"levelo_inurba_marseille","lat":43.27614,"lon":5.36114,"is_reserved":false,"is_disabled":false,"rental_uris":{"android":"levelo://app?vid=9e38786f-f502-4c1c-9428-59d535da9860","ios":"levelo://app?vid=9e38786f-f502-4c1c-9428-59d535da9860"},"vehicle_type_id":"4","last_reported":1732378259,"current_range_meters":24000,"station_id":"ce4bgj92rcd13ifvqbe0","pricing_plan_id":"cebpf4jnsgd1na2vs0mg"},{"bike_id":"4441f99d-07ad-49b5-a5b6-5cb62c19fe38","system_id":"levelo_inurba_marseille","lat":43.29574,"lon":5.37514,"is_reserved":false,"is_disabled":false,"rental_uris":{"android":"levelo://app?vid=4441f99d-07ad-49b5-a5b6-5cb62c19fe38","ios":"levelo://app?vid=4441f99d-07ad-49b5-a5b6-5cb62c19fe38"},"vehicle_type_id":"4","last_reported":1732378259,"current_range_meters":38800,"station_id":"ce4bgh92rcd13ifvqb50","pricing_plan_id":"cebpf4jnsgd1na2vs0mg"},{"bike_id":"bdf26d91-3659-447f-9e68-4801cc72b5f2","system_id":"levelo_inurba_marseille","lat":43.28954,"lon":5.36409,"is_reserved":false,"is_disabled":false,"rental_uris":{"android":"levelo://app?vid=bdf26d91-3659-447f-9e68-4801cc72b5f2","ios":"levelo://app?vid=bdf26d91-3659-447f-9e68-4801cc72b5f2"},"vehicle_type_id":"4","last_reported":1732378259,"current_range_meters":10800,"station_id":"ce4bhc92rcd13ifvqetg","pricing_plan_id":"cebpf4jnsgd1na2vs0mg"},{"bike_id":"1d480d76-bb73-4781-930a-16c68fdce680","system_id":"levelo_inurba_marseille","lat":43.2558,"lon":5.3823,"is_reserved":false,"is_disabled":true,"rental_uris":{"android":"levelo://app?vid=1d480d76-bb73-4781-930a-16c68fdce680","ios":"levelo://app?vid=1d480d76-bb73-4781-930a-16c68fdce680"},"vehicle_type_id":"4","last_reported":1732378259,"current_range_meters":0,"station_id":"ce4bhih2rcd13ifvqfs0","pricing_plan_id":"cebpf4jnsgd1na2vs0mg"},{"bike_id":"a721a59b-c6c0-46b8-84e5-19ba74a48bdb","system_id":"levelo_inurba_marseille","lat":43.28038,"lon":5.36945,"is_reserved":false,"is_disabled":false,"rental_uris":{"android":"levelo://app?vid=a721a59b-c6c0-46b8-84e5-19ba74a48bdb","ios":"levelo://app?vid=a721a59b-c6c0-46b8-84e5-19ba74a48bdb"},"vehicle_type_id":"4","last_reported":1732378259,"current_range_meters":19200,"station_id":"ce4bha12rcd13ifvqef0","pricing_plan_id":"cebpf4jnsgd1na2vs0mg"},{"bike_id":"8a89fd6e-5b64-4955-9c08-426905332903","system_id":"levelo_inurba_marseille","lat":43.29722,"lon":5.3661,"is_reserved":false,"is_disabled":false,"rental_uris":{"android":"levelo://app?vid=8a89fd6e-5b64-4955-9c08-426905332903","ios":"levelo://app?vid=8a89fd6e-5b64-4955-9c08-426905332903"},"vehicle_type_id":"4","last_reported":1732378259,"current_range_meters":26800,"station_id":"ce4bgn12rcd13ifvqbt0","pricing_plan_id":"cebpf4jnsgd1na2vs0mg"},{"bike_id":"add52e01-f0f7-4ab8-bb78-99b6dcf2cbd0","system_id":"levelo_inurba_marseille","lat":43.27306,"lon":5.39085,"is_reserved":false,"is_disabled":false,"rental_uris":{"android":"levelo://app?vid=add52e01-f0f7-4ab8-bb78-99b6dcf2cbd0","ios":"levelo://app?vid=add52e01-f0f7-4ab8-bb78-99b6dcf2cbd0"},"vehicle_type_id":"4","last_reported":1732378259,"current_range_meters":30800,"station_id":"ce4bhgp2rcd13ifvqfe0","pricing_plan_id":"cebpf4jnsgd1na2vs0mg"},{"bike_id":"92aca063-e395-402a-a362-69eb5641c33c","system_id":"levelo_inurba_marseille","lat":43.28609,"lon":5.35113,"is_reserved":false,"is_disabled":false,"rental_uris":{"android":"levelo://app?vid=92aca063-e395-402a-a362-69eb5641c33c","ios":"levelo://app?vid=92aca063-e395-402a-a362-69eb5641c33c"},"vehicle_type_id":"4","last_reported":1732378259,"current_range_meters":38800,"station_id":"ce4bhch2rcd13ifvqeug","pricing_plan_id":"cebpf4jnsgd1na2vs0mg"},{"bike_id":"8a0ea6f5-d3ad-46d9-aec1-7bf22726326f","system_id":"levelo_inurba_marseille","lat":43.28987,"lon":5.35595,"is_reserved":false,"is_disabled":false,"rental_uris":{"android":"levelo://app?vid=8a0ea6f5-d3ad-46d9-aec1-7bf22726326f","ios":"levelo://app?vid=8a0ea6f5-d3ad-46d9-aec1-7bf22726326f"},"vehicle_type_id":"4","last_reported":1732378259,"current_range_meters":39200,"station_id":"ce4bhb92rcd13ifvqen0","pricing_plan_id":"cebpf4jnsgd1na2vs0mg"},{"bike_id":"7ed373fa-e29c-4ceb-b4cf-b4727f191d71","system_id":"levelo_inurba_marseille","lat":43.29849,"lon":5.36293,"is_reserved":false,"is_disabled":false,"rental_uris":{"android":"levelo://app?vid=7ed373fa-e29c-4ceb-b4cf-b4727f191d71","ios":"levelo://app?vid=7ed373fa-e29c-4ceb-b4cf-b4727f191d71"},"vehicle_type_id":"4","last_reported":1732378259,"current_range_meters":38800,"station_id":"ce4bgpp2rcd13ifvqc3g","pricing_plan_id":"cebpf4jnsgd1na2vs0mg"},{"bike_id":"561692a1-369c-4ac8-a04a-5193554f2e90","system_id":"levelo_inurba_marseille","lat":43.3211,"lon":5.36773,"is_reserved":false,"is_disabled":false,"rental_uris":{"android":"levelo://app?vid=561692a1-369c-4ac8-a04a-5193554f2e90","ios":"levelo://app?vid=561692a1-369c-4ac8-a04a-5193554f2e90"},"vehicle_type_id":"4","last_reported":1732378259,"current_range_meters":25600,"station_id":"ce4bhrh2rcd13ifvqhug","pricing_plan_id":"cebpf4jnsgd1na2vs0mg"},{"bike_id":"82d1be91-52cd-4b04-8cfa-8b4558906f04","system_id":"levelo_inurba_marseille","lat":43.30903,"lon":5.37184,"is_reserved":false,"is_disabled":false,"rental_uris":{"android":"levelo://app?vid=82d1be91-52cd-4b04-8cfa-8b4558906f04","ios":"levelo://app?vid=82d1be91-52cd-4b04-8cfa-8b4558906f04"},"vehicle_type_id":"4","last_reported":1732378259,"current_range_meters":14400,"station_id":"ce4bguh2rcd13ifvqckg","pricing_plan_id":"cebpf4jnsgd1na2vs0mg"},{"bike_id":"1ddb03ea-bd68-475b-8b35-ac120210278b","system_id":"levelo_inurba_marseille","lat":43.29264,"lon":5.38457,"is_reserved":false,"is_disabled":false,"rental_uris":{"android":"levelo://app?vid=1ddb03ea-bd68-475b-8b35-ac120210278b","ios":"levelo://app?vid=1ddb03ea-bd68-475b-8b35-ac120210278b"},"vehicle_type_id":"4","last_reported":1732378259,"current_range_meters":16000,"station_id":"ce4bh692rcd13ifvqea0","pricing_plan_id":"cebpf4jnsgd1na2vs0mg"},{"bike_id":"ae22a332-da36-4807-a05e-264d328761ce","system_id":"levelo_inurba_marseille","lat":43.31711,"lon":5.37746,"is_reserved":false,"is_disabled":false,"rental_uris":{"android":"levelo://app?vid=ae22a332-da36-4807-a05e-264d328761ce","ios":"levelo://app?vid=ae22a332-da36-4807-a05e-264d328761ce"},"vehicle_type_id":"4","last_reported":1732378259,"current_range_meters":22400,"station_id":"ce4bgth2rcd13ifvqch0","pricing_plan_id":"cebpf4jnsgd1na2vs0mg"},{"bike_id":"9ebc2ded-4a1c-411c-b89f-b72ba47799a0","system_id":"levelo_inurba_marseille","lat":43.28409,"lon":5.37499,"is_reserved":false,"is_disabled":false,"rental_uris":{"android":"levelo://app?vid=9ebc2ded-4a1c-411c-b89f-b72ba47799a0","ios":"levelo://app?vid=9ebc2ded-4a1c-411c-b89f-b72ba47799a0"},"vehicle_type_id":"4","last_reported":1732378259,"current_range_meters":24000,"station_id":"ce4bh412rcd13ifvqds0","pricing_plan_id":"cebpf4jnsgd1na2vs0mg"},{"bike_id":"47853868-c529-44e3-a297-7afe26429ea0","system_id":"levelo_inurba_marseille","lat":43.30922,"lon":5.40157,"is_reserved":false,"is_disabled":false,"rental_uris":{"android":"levelo://app?vid=47853868-c529-44e3-a297-7afe26429ea0","ios":"levelo://app?vid=47853868-c529-44e3-a297-7afe26429ea0"},"vehicle_type_id":"4","last_reported":1732378259,"current_range_meters":30400,"station_id":"ce4bgvp2rcd13ifvqct0","pricing_plan_id":"cebpf4jnsgd1na2vs0mg"},{"bike_id":"8ff24a51-63db-44af-962c-ba6c06904d4b","system_id":"levelo_inurba_marseille","lat":43.27679,"lon":5.38871,"is_reserved":false,"is_disabled":false,"rental_uris":{"android":"levelo://app?vid=8ff24a51-63db-44af-962c-ba6c06904d4b","ios":"levelo://app?vid=8ff24a51-63db-44af-962c-ba6c06904d4b"},"vehicle_type_id":"4","last_reported":1732378259,"current_range_meters":7200,"station_id":"ce4bhi12rcd13ifvqfo0","pricing_plan_id":"cebpf4jnsgd1na2vs0mg"},{"bike_id":"caeeb28a-2337-46ff-8cc1-38286fc7227b","system_id":"levelo_inurba_marseille","lat":43.25579,"lon":5.38233,"is_reserved":false,"is_disabled":false,"rental_uris":{"android":"levelo://app?vid=caeeb28a-2337-46ff-8cc1-38286fc7227b","ios":"levelo://app?vid=caeeb28a-2337-46ff-8cc1-38286fc7227b"},"vehicle_type_id":"4","last_reported":1732378259,"current_range_meters":16400,"station_id":"ce4bhih2rcd13ifvqfs0","pricing_plan_id":"cebpf4jnsgd1na2vs0mg"},{"bike_id":"6a2df70c-4e94-45ba-b67d-45bd465ca49d","system_id":"levelo_inurba_marseille","lat":43.29193,"lon":5.39319,"is_reserved":false,"is_disabled":true,"rental_uris":{"android":"levelo://app?vid=6a2df70c-4e94-45ba-b67d-45bd465ca49d","ios":"levelo://app?vid=6a2df70c-4e94-45ba-b67d-45bd465ca49d"},"vehicle_type_id":"4","last_reported":1732378259,"current_range_meters":35200,"station_id":"ce4bh192rcd13ifvqdd0","pricing_plan_id":"cebpf4jnsgd1na2vs0mg"},{"bike_id":"b9b9ed17-2332-448e-a260-27c24592bd4a","system_id":"levelo_inurba_marseille","lat":43.29536,"lon":5.37491,"is_reserved":false,"is_disabled":true,"rental_uris":{"android":"levelo://app?vid=b9b9ed17-2332-448e-a260-27c24592bd4a","ios":"levelo://app?vid=b9b9ed17-2332-448e-a260-27c24592bd4a"},"vehicle_type_id":"4","last_reported":1732378259,"current_range_meters":34800,"station_id":"ce4bgkp2rcd13ifvqbmg","pricing_plan_id":"cebpf4jnsgd1na2vs0mg"},{"bike_id":"62f28776-669a-4320-b766-deaf82321cbf","system_id":"levelo_inurba_marseille","lat":43.27885,"lon":5.38049,"is_reserved":false,"is_disabled":false,"rental_uris":{"android":"levelo://app?vid=62f28776-669a-4320-b766-deaf82321cbf","ios":"levelo://app?vid=62f28776-669a-4320-b766-deaf82321cbf"},"vehicle_type_id":"4","last_reported":1732378259,"current_range_meters":38800,"station_id":"ce4bhf92rcd13ifvqf50","pricing_plan_id":"cebpf4jnsgd1na2vs0mg"},{"bike_id":"d875dc15-0e9a-4da4-aed9-8741b03a7412","system_id":"levelo_inurba_marseille","lat":43.27075,"lon":5.42284,"is_reserved":false,"is_disabled":false,"rental_uris":{"android":"levelo://app?vid=d875dc15-0e9a-4da4-aed9-8741b03a7412","ios":"levelo://app?vid=d875dc15-0e9a-4da4-aed9-8741b03a7412"},"vehicle_type_id":"4","last_reported":1732378259,"current_range_meters":24400,"station_id":"ce4bhk92rcd13ifvqgb0","pricing_plan_id":"cebpf4jnsgd1na2vs0mg"},{"bike_id":"ff3594ee-f948-4832-9680-599cfdacc368","system_id":"levelo_inurba_marseille","lat":43.271798,"lon":5.409973,"is_reserved":false,"is_disabled":false,"rental_uris":{"android":"levelo://app?vid=ff3594ee-f948-4832-9680-599cfdacc368","ios":"levelo://app?vid=ff3594ee-f948-4832-9680-599cfdacc368"},"vehicle_type_id":"4","last_reported":1732378259,"current_range_meters":37600,"station_id":"ce4bhl12rcd13ifvqgf0","pricing_plan_id":"cebpf4jnsgd1na2vs0mg"},{"bike_id":"99b29f0a-fef9-49fe-8166-69785bf88e94","system_id":"levelo_inurba_marseille","lat":43.28997,"lon":5.3562,"is_reserved":false,"is_disabled":false,"rental_uris":{"android":"levelo://app?vid=99b29f0a-fef9-49fe-8166-69785bf88e94","ios":"levelo://app?vid=99b29f0a-fef9-49fe-8166-69785bf88e94"},"vehicle_type_id":"4","last_reported":1732378259,"current_range_meters":38000,"station_id":"ce4bhb92rcd13ifvqen0","pricing_plan_id":"cebpf4jnsgd1na2vs0mg"},{"bike_id":"b1837f61-5796-4dde-bb22-4d0e3427d3e7","system_id":"levelo_inurba_marseille","lat":43.29807,"lon":5.36472,"is_reserved":false,"is_disabled":false,"rental_uris":{"android":"levelo://app?vid=b1837f61-5796-4dde-bb22-4d0e3427d3e7","ios":"levelo://app?vid=b1837f61-5796-4dde-bb22-4d0e3427d3e7"},"vehicle_type_id":"4","last_reported":1732378259,"current_range_meters":24000,"station_id":"","pricing_plan_id":"cebpf4jnsgd1na2vs0mg"},{"bike_id":"856c5296-7fea-42cc-be09-a6b9a37c0b30","system_id":"levelo_inurba_marseille","lat":43.27376,"lon":5.36251,"is_reserved":false,"is_disabled":true,"rental_uris":{"android":"levelo://app?vid=856c5296-7fea-42cc-be09-a6b9a37c0b30","ios":"levelo://app?vid=856c5296-7fea-42cc-be09-a6b9a37c0b30"},"vehicle_type_id":"4","last_reported":1732378259,"current_range_meters":0,"station_id":"ce4bhbh2rcd13ifvqeo0","pricing_plan_id":"cebpf4jnsgd1na2vs0mg"},{"bike_id":"8f616fc2-f238-4b09-8e6a-c2e07ab2442b","system_id":"levelo_inurba_marseille","lat":43.28435,"lon":5.39195,"is_reserved":false,"is_disabled":false,"rental_uris":{"android":"levelo://app?vid=8f616fc2-f238-4b09-8e6a-c2e07ab2442b","ios":"levelo://app?vid=8f616fc2-f238-4b09-8e6a-c2e07ab2442b"},"vehicle_type_id":"4","last_reported":1732378259,"current_range_meters":28800,"station_id":"ce4bhoh2rcd13ifvqh5g","pricing_plan_id":"cebpf4jnsgd1na2vs0mg"},{"bike_id":"7630654c-da22-4f8e-8b36-11b82b0f802c","system_id":"levelo_inurba_marseille","lat":43.29198,"lon":5.35813,"is_reserved":false,"is_disabled":true,"rental_uris":{"android":"levelo://app?vid=7630654c-da22-4f8e-8b36-11b82b0f802c","ios":"levelo://app?vid=7630654c-da22-4f8e-8b36-11b82b0f802c"},"vehicle_type_id":"4","last_reported":1732378259,"current_range_meters":1600,"station_id":"ce4bhb12rcd13ifvqel0","pricing_plan_id":"cebpf4jnsgd1na2vs0mg"},{"bike_id":"215e5565-bba0-4744-90c3-1fca745feca8","system_id":"levelo_inurba_marseille","lat":43.29269,"lon":5.4091,"is_reserved":false,"is_disabled":false,"rental_uris":{"android":"levelo://app?vid=215e5565-bba0-4744-90c3-1fca745feca8","ios":"levelo://app?vid=215e5565-bba0-4744-90c3-1fca745feca8"},"vehicle_type_id":"4","last_reported":1732378259,"current_range_meters":20800,"station_id":"ce4bh192rcd13ifvqdc0","pricing_plan_id":"cebpf4jnsgd1na2vs0mg"},{"bike_id":"9a122f92-8d1b-4a84-9637-aeed9243668f","system_id":"levelo_inurba_marseille","lat":43.28939,"lon":5.36632,"is_reserved":false,"is_disabled":true,"rental_uris":{"android":"levelo://app?vid=9a122f92-8d1b-4a84-9637-aeed9243668f","ios":"levelo://app?vid=9a122f92-8d1b-4a84-9637-aeed9243668f"},"vehicle_type_id":"4","last_reported":1732378259,"current_range_meters":38800,"station_id":"ce4bhap2rcd13ifvqek0","pricing_plan_id":"cebpf4jnsgd1na2vs0mg"},{"bike_id":"ebd21c7a-b63d-473e-9407-73c1c91944c1","system_id":"levelo_inurba_marseille","lat":43.25088,"lon":5.3952,"is_reserved":false,"is_disabled":false,"rental_uris":{"android":"levelo://app?vid=ebd21c7a-b63d-473e-9407-73c1c91944c1","ios":"levelo://app?vid=ebd21c7a-b63d-473e-9407-73c1c91944c1"},"vehicle_type_id":"4","last_reported":1732378259,"current_range_meters":40000,"station_id":"ce4bhm12rcd13ifvqgkg","pricing_plan_id":"cebpf4jnsgd1na2vs0mg"},{"bike_id":"8da1be4d-ebfd-4ca9-810b-7e370dfb5b46","system_id":"levelo_inurba_marseille","lat":43.32652,"lon":5.40994,"is_reserved":false,"is_disabled":false,"rental_uris":{"android":"levelo://app?vid=8da1be4d-ebfd-4ca9-810b-7e370dfb5b46","ios":"levelo://app?vid=8da1be4d-ebfd-4ca9-810b-7e370dfb5b46"},"vehicle_type_id":"4","last_reported":1732378259,"current_range_meters":22800,"station_id":"ce4bhpp2rcd13ifvqhgg","pricing_plan_id":"cebpf4jnsgd1na2vs0mg"},{"bike_id":"d099d286-c979-4d90-ae69-f655c433290c","system_id":"levelo_inurba_marseille","lat":43.25499,"lon":5.3765,"is_reserved":false,"is_disabled":false,"rental_uris":{"android":"levelo://app?vid=d099d286-c979-4d90-ae69-f655c433290c","ios":"levelo://app?vid=d099d286-c979-4d90-ae69-f655c433290c"},"vehicle_type_id":"4","last_reported":1732378259,"current_range_meters":17200,"station_id":"ce4bhh12rcd13ifvqff0","pricing_plan_id":"cebpf4jnsgd1na2vs0mg"},{"bike_id":"7bea41ce-582c-43e2-8f6f-ecf1da32878f","system_id":"levelo_inurba_marseille","lat":43.29532,"lon":5.37502,"is_reserved":false,"is_disabled":false,"rental_uris":{"android":"levelo://app?vid=7bea41ce-582c-43e2-8f6f-ecf1da32878f","ios":"levelo://app?vid=7bea41ce-582c-43e2-8f6f-ecf1da32878f"},"vehicle_type_id":"4","last_reported":1732378259,"current_range_meters":38000,"station_id":"ce4bgkp2rcd13ifvqbmg","pricing_plan_id":"cebpf4jnsgd1na2vs0mg"},{"bike_id":"d64718dc-df1d-4226-8262-ce8d6f4a2b69","system_id":"levelo_inurba_marseille","lat":43.31234,"lon":5.36869,"is_reserved":false,"is_disabled":false,"rental_uris":{"android":"levelo://app?vid=d64718dc-df1d-4226-8262-ce8d6f4a2b69","ios":"levelo://app?vid=d64718dc-df1d-4226-8262-ce8d6f4a2b69"},"vehicle_type_id":"4","last_reported":1732378259,"current_range_meters":12800,"station_id":"ce4bgl92rcd13ifvqbq0","pricing_plan_id":"cebpf4jnsgd1na2vs0mg"},{"bike_id":"fa8314ae-1864-43c4-8fa1-c6e47ea1e55c","system_id":"levelo_inurba_marseille","lat":43.32109,"lon":5.36771,"is_reserved":false,"is_disabled":false,"rental_uris":{"android":"levelo://app?vid=fa8314ae-1864-43c4-8fa1-c6e47ea1e55c","ios":"levelo://app?vid=fa8314ae-1864-43c4-8fa1-c6e47ea1e55c"},"vehicle_type_id":"4","last_reported":1732378259,"current_range_meters":27600,"station_id":"ce4bhrh2rcd13ifvqhug","pricing_plan_id":"cebpf4jnsgd1na2vs0mg"},{"bike_id":"d9bc6b44-bca5-46e3-9c60-66587873a860","system_id":"levelo_inurba_marseille","lat":43.29273,"lon":5.38447,"is_reserved":false,"is_disabled":false,"rental_uris":{"android":"levelo://app?vid=d9bc6b44-bca5-46e3-9c60-66587873a860","ios":"levelo://app?vid=d9bc6b44-bca5-46e3-9c60-66587873a860"},"vehicle_type_id":"4","last_reported":1732378259,"current_range_meters":12400,"station_id":"ce4bh692rcd13ifvqea0","pricing_plan_id":"cebpf4jnsgd1na2vs0mg"},{"bike_id":"cc8f0ace-72fc-4047-817b-833d7545a1ec","system_id":"levelo_inurba_marseille","lat":43.279066,"lon":5.38014,"is_reserved":false,"is_disabled":false,"rental_uris":{"android":"levelo://app?vid=cc8f0ace-72fc-4047-817b-833d7545a1ec","ios":"levelo://app?vid=cc8f0ace-72fc-4047-817b-833d7545a1ec"},"vehicle_type_id":"4","last_reported":1732378259,"current_range_meters":28400,"station_id":"ce4bhf92rcd13ifvqf50","pricing_plan_id":"cebpf4jnsgd1na2vs0mg"},{"bike_id":"64ef5fd1-f6ad-4ac9-a91c-bd90dce4550e","system_id":"levelo_inurba_marseille","lat":43.26064,"lon":5.39403,"is_reserved":false,"is_disabled":false,"rental_uris":{"android":"levelo://app?vid=64ef5fd1-f6ad-4ac9-a91c-bd90dce4550e","ios":"levelo://app?vid=64ef5fd1-f6ad-4ac9-a91c-bd90dce4550e"},"vehicle_type_id":"4","last_reported":1732378259,"current_range_meters":36000,"station_id":"ce4bhh92rcd13ifvqfj0","pricing_plan_id":"cebpf4jnsgd1na2vs0mg"},{"bike_id":"d3a7f609-252d-4f84-9290-8b544666800d","system_id":"levelo_inurba_marseille","lat":43.29301,"lon":5.37447,"is_reserved":false,"is_disabled":false,"rental_uris":{"android":"levelo://app?vid=d3a7f609-252d-4f84-9290-8b544666800d","ios":"levelo://app?vid=d3a7f609-252d-4f84-9290-8b544666800d"},"vehicle_type_id":"4","last_reported":1732378259,"current_range_meters":38800,"station_id":"ce4bgi12rcd13ifvqb70","pricing_plan_id":"cebpf4jnsgd1na2vs0mg"},{"bike_id":"4614c3ce-fa32-4b49-800d-cf02516d6ab9","system_id":"levelo_inurba_marseille","lat":43.32381,"lon":5.3897,"is_reserved":false,"is_disabled":false,"rental_uris":{"android":"levelo://app?vid=4614c3ce-fa32-4b49-800d-cf02516d6ab9","ios":"levelo://app?vid=4614c3ce-fa32-4b49-800d-cf02516d6ab9"},"vehicle_type_id":"4","last_reported":1732378259,"current_range_meters":24000,"station_id":"","pricing_plan_id":"cebpf4jnsgd1na2vs0mg"},{"bike_id":"e7a6ac48-1f3a-40dd-95e2-a2ca282c825f","system_id":"levelo_inurba_marseille","lat":43.301833,"lon":5.36624,"is_reserved":false,"is_disabled":false,"rental_uris":{"android":"levelo://app?vid=e7a6ac48-1f3a-40dd-95e2-a2ca282c825f","ios":"levelo://app?vid=e7a6ac48-1f3a-40dd-95e2-a2ca282c825f"},"vehicle_type_id":"4","last_reported":1732378259,"current_range_meters":39200,"station_id":"ce4bgrh2rcd13ifvqc8g","pricing_plan_id":"cebpf4jnsgd1na2vs0mg"},{"bike_id":"dee03222-b96c-4bd9-8076-cf797d32d688","system_id":"levelo_inurba_marseille","lat":43.3205,"lon":5.41568,"is_reserved":false,"is_disabled":false,"rental_uris":{"android":"levelo://app?vid=dee03222-b96c-4bd9-8076-cf797d32d688","ios":"levelo://app?vid=dee03222-b96c-4bd9-8076-cf797d32d688"},"vehicle_type_id":"4","last_reported":1732378259,"current_range_meters":39200,"station_id":"ce4bhq92rcd13ifvqhkg","pricing_plan_id":"cebpf4jnsgd1na2vs0mg"},{"bike_id":"0ecb0e70-6e2f-4c40-ae14-77249cd56bd7","system_id":"levelo_inurba_marseille","lat":43.27963,"lon":5.38724,"is_reserved":false,"is_disabled":true,"rental_uris":{"android":"levelo://app?vid=0ecb0e70-6e2f-4c40-ae14-77249cd56bd7","ios":"levelo://app?vid=0ecb0e70-6e2f-4c40-ae14-77249cd56bd7"},"vehicle_type_id":"4","last_reported":1732378259,"current_range_meters":21600,"station_id":"ce4bhg12rcd13ifvqf80","pricing_plan_id":"cebpf4jnsgd1na2vs0mg"},{"bike_id":"e8a9b83a-fcea-47ac-98e1-961f4756eb63","system_id":"levelo_inurba_marseille","lat":43.25579,"lon":5.38224,"is_reserved":false,"is_disabled":false,"rental_uris":{"android":"levelo://app?vid=e8a9b83a-fcea-47ac-98e1-961f4756eb63","ios":"levelo://app?vid=e8a9b83a-fcea-47ac-98e1-961f4756eb63"},"vehicle_type_id":"4","last_reported":1732378259,"current_range_meters":24800,"station_id":"ce4bhih2rcd13ifvqfs0","pricing_plan_id":"cebpf4jnsgd1na2vs0mg"},{"bike_id":"58fad8dd-dd6d-469c-94a8-60639d2ad81c","system_id":"levelo_inurba_marseille","lat":43.29027,"lon":5.38645,"is_reserved":false,"is_disabled":false,"rental_uris":{"android":"levelo://app?vid=58fad8dd-dd6d-469c-94a8-60639d2ad81c","ios":"levelo://app?vid=58fad8dd-dd6d-469c-94a8-60639d2ad81c"},"vehicle_type_id":"4","last_reported":1732378259,"current_range_meters":39200,"station_id":"ce4bh4p2rcd13ifvqe0g","pricing_plan_id":"cebpf4jnsgd1na2vs0mg"},{"bike_id":"05b637c0-2e80-42b2-b06e-7c6e1ecd40f1","system_id":"levelo_inurba_marseille","lat":43.30479,"lon":5.37899,"is_reserved":false,"is_disabled":false,"rental_uris":{"android":"levelo://app?vid=05b637c0-2e80-42b2-b06e-7c6e1ecd40f1","ios":"levelo://app?vid=05b637c0-2e80-42b2-b06e-7c6e1ecd40f1"},"vehicle_type_id":"4","last_reported":1732378259,"current_range_meters":8800,"station_id":"ce4bgup2rcd13ifvqcn0","pricing_plan_id":"cebpf4jnsgd1na2vs0mg"},{"bike_id":"f9e35db8-2f7a-4f43-8c70-83778761d42d","system_id":"levelo_inurba_marseille","lat":43.23191,"lon":5.35553,"is_reserved":false,"is_disabled":false,"rental_uris":{"android":"levelo://app?vid=f9e35db8-2f7a-4f43-8c70-83778761d42d","ios":"levelo://app?vid=f9e35db8-2f7a-4f43-8c70-83778761d42d"},"vehicle_type_id":"4","last_reported":1732378259,"current_range_meters":30400,"station_id":"ce4bhu92rcd13ifvqi70","pricing_plan_id":"cebpf4jnsgd1na2vs0mg"},{"bike_id":"a302010e-dfaf-4a76-83b6-2ae5d9b731e8","system_id":"levelo_inurba_marseille","lat":43.2861,"lon":5.37064,"is_reserved":false,"is_disabled":false,"rental_uris":{"android":"levelo://app?vid=a302010e-dfaf-4a76-83b6-2ae5d9b731e8","ios":"levelo://app?vid=a302010e-dfaf-4a76-83b6-2ae5d9b731e8"},"vehicle_type_id":"4","last_reported":1732378259,"current_range_meters":14800,"station_id":"ce4bht12rcd13ifvqi60","pricing_plan_id":"cebpf4jnsgd1na2vs0mg"},{"bike_id":"f1a3a586-56bf-43c9-9645-5182fb2f34fe","system_id":"levelo_inurba_marseille","lat":43.30312,"lon":5.36901,"is_reserved":false,"is_disabled":false,"rental_uris":{"android":"levelo://app?vid=f1a3a586-56bf-43c9-9645-5182fb2f34fe","ios":"levelo://app?vid=f1a3a586-56bf-43c9-9645-5182fb2f34fe"},"vehicle_type_id":"4","last_reported":1732378259,"current_range_meters":23200,"station_id":"ce4bgqh2rcd13ifvqc5g","pricing_plan_id":"cebpf4jnsgd1na2vs0mg"},{"bike_id":"6f356d40-76b6-4bc9-9bea-361e30764fe1","system_id":"levelo_inurba_marseille","lat":43.23062,"lon":5.35492,"is_reserved":false,"is_disabled":false,"rental_uris":{"android":"levelo://app?vid=6f356d40-76b6-4bc9-9bea-361e30764fe1","ios":"levelo://app?vid=6f356d40-76b6-4bc9-9bea-361e30764fe1"},"vehicle_type_id":"4","last_reported":1732378259,"current_range_meters":31200,"station_id":"cpo3342slgdg3j2ifvpg","pricing_plan_id":"cebpf4jnsgd1na2vs0mg"},{"bike_id":"8a4eb594-2873-4022-ac05-d2a96f39bf59","system_id":"levelo_inurba_marseille","lat":43.27316,"lon":5.3908,"is_reserved":false,"is_disabled":true,"rental_uris":{"android":"levelo://app?vid=8a4eb594-2873-4022-ac05-d2a96f39bf59","ios":"levelo://app?vid=8a4eb594-2873-4022-ac05-d2a96f39bf59"},"vehicle_type_id":"4","last_reported":1732378259,"current_range_meters":0,"station_id":"ce4bhgp2rcd13ifvqfe0","pricing_plan_id":"cebpf4jnsgd1na2vs0mg"},{"bike_id":"560bff24-20ef-4aaf-acdb-73eff32dfbde","system_id":"levelo_inurba_marseille","lat":43.30945,"lon":5.39027,"is_reserved":false,"is_disabled":false,"rental_uris":{"android":"levelo://app?vid=560bff24-20ef-4aaf-acdb-73eff32dfbde","ios":"levelo://app?vid=560bff24-20ef-4aaf-acdb-73eff32dfbde"},"vehicle_type_id":"4","last_reported":1732378259,"current_range_meters":38400,"station_id":"ce4bgup2rcd13ifvqco0","pricing_plan_id":"cebpf4jnsgd1na2vs0mg"},{"bike_id":"e0324038-a844-4adb-9dbc-536d3bbbcaac","system_id":"levelo_inurba_marseille","lat":43.29189,"lon":5.35801,"is_reserved":false,"is_disabled":false,"rental_uris":{"android":"levelo://app?vid=e0324038-a844-4adb-9dbc-536d3bbbcaac","ios":"levelo://app?vid=e0324038-a844-4adb-9dbc-536d3bbbcaac"},"vehicle_type_id":"4","last_reported":1732378259,"current_range_meters":22800,"station_id":"ce4bhb12rcd13ifvqel0","pricing_plan_id":"cebpf4jnsgd1na2vs0mg"},{"bike_id":"ba338bd6-d928-4859-a03d-0726d80b6f80","system_id":"levelo_inurba_marseille","lat":43.30421,"lon":5.41275,"is_reserved":false,"is_disabled":false,"rental_uris":{"android":"levelo://app?vid=ba338bd6-d928-4859-a03d-0726d80b6f80","ios":"levelo://app?vid=ba338bd6-d928-4859-a03d-0726d80b6f80"},"vehicle_type_id":"4","last_reported":1732378259,"current_range_meters":30000,"station_id":"ce4bhop2rcd13ifvqh8g","pricing_plan_id":"cebpf4jnsgd1na2vs0mg"},{"bike_id":"9c0b2639-faf8-4291-b0be-1f8ad2e4b2b3","system_id":"levelo_inurba_marseille","lat":43.31061,"lon":5.38347,"is_reserved":false,"is_disabled":false,"rental_uris":{"android":"levelo://app?vid=9c0b2639-faf8-4291-b0be-1f8ad2e4b2b3","ios":"levelo://app?vid=9c0b2639-faf8-4291-b0be-1f8ad2e4b2b3"},"vehicle_type_id":"4","last_reported":1732378259,"current_range_meters":2800,"station_id":"ce4bgv92rcd13ifvqcr0","pricing_plan_id":"cebpf4jnsgd1na2vs0mg"},{"bike_id":"a4677d78-dc15-4522-ad17-9f97ccedb0f8","system_id":"levelo_inurba_marseille","lat":43.32473,"lon":5.36568,"is_reserved":false,"is_disabled":false,"rental_uris":{"android":"levelo://app?vid=a4677d78-dc15-4522-ad17-9f97ccedb0f8","ios":"levelo://app?vid=a4677d78-dc15-4522-ad17-9f97ccedb0f8"},"vehicle_type_id":"4","last_reported":1732378259,"current_range_meters":38000,"station_id":"ce4bhs12rcd13ifvqhvg","pricing_plan_id":"cebpf4jnsgd1na2vs0mg"},{"bike_id":"889e6f44-6a06-4ea6-8996-3c1e5665bb7f","system_id":"levelo_inurba_marseille","lat":43.29569,"lon":5.37521,"is_reserved":false,"is_disabled":false,"rental_uris":{"android":"levelo://app?vid=889e6f44-6a06-4ea6-8996-3c1e5665bb7f","ios":"levelo://app?vid=889e6f44-6a06-4ea6-8996-3c1e5665bb7f"},"vehicle_type_id":"4","last_reported":1732378259,"current_range_meters":26000,"station_id":"ce4bgh92rcd13ifvqb50","pricing_plan_id":"cebpf4jnsgd1na2vs0mg"},{"bike_id":"5d085e44-727b-48a3-bc67-58c1776b2f7d","system_id":"levelo_inurba_marseille","lat":43.2916,"lon":5.37158,"is_reserved":false,"is_disabled":false,"rental_uris":{"android":"levelo://app?vid=5d085e44-727b-48a3-bc67-58c1776b2f7d","ios":"levelo://app?vid=5d085e44-727b-48a3-bc67-58c1776b2f7d"},"vehicle_type_id":"4","last_reported":1732378259,"current_range_meters":22000,"station_id":"ce4bha92rcd13ifvqeh0","pricing_plan_id":"cebpf4jnsgd1na2vs0mg"},{"bike_id":"5a0b1d81-89f0-49a2-a9e4-72b7927ad49e","system_id":"levelo_inurba_marseille","lat":43.29785,"lon":5.37121,"is_reserved":false,"is_disabled":false,"rental_uris":{"android":"levelo://app?vid=5a0b1d81-89f0-49a2-a9e4-72b7927ad49e","ios":"levelo://app?vid=5a0b1d81-89f0-49a2-a9e4-72b7927ad49e"},"vehicle_type_id":"4","last_reported":1732378259,"current_range_meters":29600,"station_id":"ce4bgop2rcd13ifvqc1g","pricing_plan_id":"cebpf4jnsgd1na2vs0mg"},{"bike_id":"684af78b-1c07-4297-a058-d0aefe8244e4","system_id":"levelo_inurba_marseille","lat":43.26197,"lon":5.3745,"is_reserved":false,"is_disabled":false,"rental_uris":{"android":"levelo://app?vid=684af78b-1c07-4297-a058-d0aefe8244e4","ios":"levelo://app?vid=684af78b-1c07-4297-a058-d0aefe8244e4"},"vehicle_type_id":"4","last_reported":1732378259,"current_range_meters":27600,"station_id":"ce4bhgp2rcd13ifvqfc0","pricing_plan_id":"cebpf4jnsgd1na2vs0mg"},{"bike_id":"1660f486-aae0-42f3-92d5-88d1e629fa5f","system_id":"levelo_inurba_marseille","lat":43.30123,"lon":5.39833,"is_reserved":false,"is_disabled":false,"rental_uris":{"android":"levelo://app?vid=1660f486-aae0-42f3-92d5-88d1e629fa5f","ios":"levelo://app?vid=1660f486-aae0-42f3-92d5-88d1e629fa5f"},"vehicle_type_id":"4","last_reported":1732378259,"current_range_meters":36800,"station_id":"ce4bh0h2rcd13ifvqd40","pricing_plan_id":"cebpf4jnsgd1na2vs0mg"},{"bike_id":"b610ee9e-c8c1-4e40-9140-a32195464397","system_id":"levelo_inurba_marseille","lat":43.30655,"lon":5.40071,"is_reserved":false,"is_disabled":false,"rental_uris":{"android":"levelo://app?vid=b610ee9e-c8c1-4e40-9140-a32195464397","ios":"levelo://app?vid=b610ee9e-c8c1-4e40-9140-a32195464397"},"vehicle_type_id":"4","last_reported":1732378259,"current_range_meters":16400,"station_id":"ce4bh112rcd13ifvqda0","pricing_plan_id":"cebpf4jnsgd1na2vs0mg"},{"bike_id":"f1c0194a-d687-4668-8c71-70ffc5515c4c","system_id":"levelo_inurba_marseille","lat":43.29582,"lon":5.37506,"is_reserved":false,"is_disabled":false,"rental_uris":{"android":"levelo://app?vid=f1c0194a-d687-4668-8c71-70ffc5515c4c","ios":"levelo://app?vid=f1c0194a-d687-4668-8c71-70ffc5515c4c"},"vehicle_type_id":"4","last_reported":1732378259,"current_range_meters":35600,"station_id":"ce4bgh92rcd13ifvqb50","pricing_plan_id":"cebpf4jnsgd1na2vs0mg"},{"bike_id":"a39fd15f-d160-4487-ba9f-a267a8fc4f2c","system_id":"levelo_inurba_marseille","lat":43.27215,"lon":5.39182,"is_reserved":false,"is_disabled":true,"rental_uris":{"android":"levelo://app?vid=a39fd15f-d160-4487-ba9f-a267a8fc4f2c","ios":"levelo://app?vid=a39fd15f-d160-4487-ba9f-a267a8fc4f2c"},"vehicle_type_id":"4","last_reported":1732378259,"current_range_meters":0,"station_id":"ce4bhhp2rcd13ifvqfm0","pricing_plan_id":"cebpf4jnsgd1na2vs0mg"},{"bike_id":"294eeb79-af1b-495a-909f-216801ae6b41","system_id":"levelo_inurba_marseille","lat":43.337444,"lon":5.374475,"is_reserved":false,"is_disabled":true,"rental_uris":{"android":"levelo://app?vid=294eeb79-af1b-495a-909f-216801ae6b41","ios":"levelo://app?vid=294eeb79-af1b-495a-909f-216801ae6b41"},"vehicle_type_id":"4","last_reported":1732378259,"current_range_meters":0,"station_id":"","pricing_plan_id":"cebpf4jnsgd1na2vs0mg"},{"bike_id":"e5d63661-ea2d-4e9d-bdce-dbbf19d65c3c","system_id":"levelo_inurba_marseille","lat":43.32368,"lon":5.36772,"is_reserved":false,"is_disabled":false,"rental_uris":{"android":"levelo://app?vid=e5d63661-ea2d-4e9d-bdce-dbbf19d65c3c","ios":"levelo://app?vid=e5d63661-ea2d-4e9d-bdce-dbbf19d65c3c"},"vehicle_type_id":"4","last_reported":1732378259,"current_range_meters":38800,"station_id":"ce4bhsh2rcd13ifvqi2g","pricing_plan_id":"cebpf4jnsgd1na2vs0mg"},{"bike_id":"f53d48ef-5518-4cb6-bf8e-b02165e4c798","system_id":"levelo_inurba_marseille","lat":43.2894,"lon":5.36638,"is_reserved":false,"is_disabled":false,"rental_uris":{"android":"levelo://app?vid=f53d48ef-5518-4cb6-bf8e-b02165e4c798","ios":"levelo://app?vid=f53d48ef-5518-4cb6-bf8e-b02165e4c798"},"vehicle_type_id":"4","last_reported":1732378259,"current_range_meters":38000,"station_id":"ce4bhap2rcd13ifvqek0","pricing_plan_id":"cebpf4jnsgd1na2vs0mg"},{"bike_id":"677c7322-f017-41b4-b2b4-6107ebd39bbc","system_id":"levelo_inurba_marseille","lat":43.32659,"lon":5.40992,"is_reserved":false,"is_disabled":false,"rental_uris":{"android":"levelo://app?vid=677c7322-f017-41b4-b2b4-6107ebd39bbc","ios":"levelo://app?vid=677c7322-f017-41b4-b2b4-6107ebd39bbc"},"vehicle_type_id":"4","last_reported":1732378259,"current_range_meters":4800,"station_id":"ce4bhpp2rcd13ifvqhgg","pricing_plan_id":"cebpf4jnsgd1na2vs0mg"},{"bike_id":"90cc99af-54e0-4698-bffa-7f2f1beb1a95","system_id":"levelo_inurba_marseille","lat":43.27991,"lon":5.4166,"is_reserved":false,"is_disabled":false,"rental_uris":{"android":"levelo://app?vid=90cc99af-54e0-4698-bffa-7f2f1beb1a95","ios":"levelo://app?vid=90cc99af-54e0-4698-bffa-7f2f1beb1a95"},"vehicle_type_id":"4","last_reported":1732378259,"current_range_meters":38800,"station_id":"ce4bho12rcd13ifvqh1g","pricing_plan_id":"cebpf4jnsgd1na2vs0mg"},{"bike_id":"cd78312a-142a-42d0-92e1-dbc654bf8bb4","system_id":"levelo_inurba_marseille","lat":43.2418,"lon":5.39719,"is_reserved":false,"is_disabled":true,"rental_uris":{"android":"levelo://app?vid=cd78312a-142a-42d0-92e1-dbc654bf8bb4","ios":"levelo://app?vid=cd78312a-142a-42d0-92e1-dbc654bf8bb4"},"vehicle_type_id":"4","last_reported":1732378259,"current_range_meters":14000,"station_id":"ce4bhn12rcd13ifvqgpg","pricing_plan_id":"cebpf4jnsgd1na2vs0mg"},{"bike_id":"f701453a-5867-4dd1-87ec-b1dad55af8b2","system_id":"levelo_inurba_marseille","lat":43.23968,"lon":5.36634,"is_reserved":false,"is_disabled":false,"rental_uris":{"android":"levelo://app?vid=f701453a-5867-4dd1-87ec-b1dad55af8b2","ios":"levelo://app?vid=f701453a-5867-4dd1-87ec-b1dad55af8b2"},"vehicle_type_id":"4","last_reported":1732378259,"current_range_meters":16000,"station_id":"ce4bhi12rcd13ifvqfp0","pricing_plan_id":"cebpf4jnsgd1na2vs0mg"},{"bike_id":"e7ac835b-e621-4c11-8999-ed0d5773c843","system_id":"levelo_inurba_marseille","lat":43.31721,"lon":5.42406,"is_reserved":false,"is_disabled":false,"rental_uris":{"android":"levelo://app?vid=e7ac835b-e621-4c11-8999-ed0d5773c843","ios":"levelo://app?vid=e7ac835b-e621-4c11-8999-ed0d5773c843"},"vehicle_type_id":"4","last_reported":1732378259,"current_range_meters":38800,"station_id":"ce4bhp92rcd13ifvqhbg","pricing_plan_id":"cebpf4jnsgd1na2vs0mg"},{"bike_id":"5689b724-a864-493d-bd82-108440b79093","system_id":"levelo_inurba_marseille","lat":43.27374,"lon":5.36249,"is_reserved":false,"is_disabled":false,"rental_uris":{"android":"levelo://app?vid=5689b724-a864-493d-bd82-108440b79093","ios":"levelo://app?vid=5689b724-a864-493d-bd82-108440b79093"},"vehicle_type_id":"4","last_reported":1732378259,"current_range_meters":39200,"station_id":"ce4bhbh2rcd13ifvqeo0","pricing_plan_id":"cebpf4jnsgd1na2vs0mg"},{"bike_id":"43f6da94-5cf1-446e-9b8d-b4c4e86bf027","system_id":"levelo_inurba_marseille","lat":43.26039,"lon":5.374593,"is_reserved":false,"is_disabled":true,"rental_uris":{"android":"levelo://app?vid=43f6da94-5cf1-446e-9b8d-b4c4e86bf027","ios":"levelo://app?vid=43f6da94-5cf1-446e-9b8d-b4c4e86bf027"},"vehicle_type_id":"4","last_reported":1732378259,"current_range_meters":11200,"station_id":"","pricing_plan_id":"cebpf4jnsgd1na2vs0mg"},{"bike_id":"dd5ab154-647e-4dfa-88f1-0f781c7552f5","system_id":"levelo_inurba_marseille","lat":43.2558,"lon":5.3823,"is_reserved":false,"is_disabled":false,"rental_uris":{"android":"levelo://app?vid=dd5ab154-647e-4dfa-88f1-0f781c7552f5","ios":"levelo://app?vid=dd5ab154-647e-4dfa-88f1-0f781c7552f5"},"vehicle_type_id":"4","last_reported":1732378259,"current_range_meters":29600,"station_id":"ce4bhih2rcd13ifvqfs0","pricing_plan_id":"cebpf4jnsgd1na2vs0mg"},{"bike_id":"e98a0907-6692-4d86-ad38-031a48198592","system_id":"levelo_inurba_marseille","lat":43.28469,"lon":5.3843,"is_reserved":false,"is_disabled":false,"rental_uris":{"android":"levelo://app?vid=e98a0907-6692-4d86-ad38-031a48198592","ios":"levelo://app?vid=e98a0907-6692-4d86-ad38-031a48198592"},"vehicle_type_id":"4","last_reported":1732378259,"current_range_meters":20000,"station_id":"ce4bh512rcd13ifvqe3g","pricing_plan_id":"cebpf4jnsgd1na2vs0mg"},{"bike_id":"994195f6-b5da-4158-a5b5-8b38baad32b0","system_id":"levelo_inurba_marseille","lat":43.33733,"lon":5.39187,"is_reserved":false,"is_disabled":false,"rental_uris":{"android":"levelo://app?vid=994195f6-b5da-4158-a5b5-8b38baad32b0","ios":"levelo://app?vid=994195f6-b5da-4158-a5b5-8b38baad32b0"},"vehicle_type_id":"4","last_reported":1732378259,"current_range_meters":31200,"station_id":"ce4bhr92rcd13ifvqhsg","pricing_plan_id":"cebpf4jnsgd1na2vs0mg"},{"bike_id":"7c2f19f3-5373-4c2a-87bb-e1fd3ef39822","system_id":"levelo_inurba_marseille","lat":43.265596,"lon":5.390074,"is_reserved":false,"is_disabled":true,"rental_uris":{"android":"levelo://app?vid=7c2f19f3-5373-4c2a-87bb-e1fd3ef39822","ios":"levelo://app?vid=7c2f19f3-5373-4c2a-87bb-e1fd3ef39822"},"vehicle_type_id":"4","last_reported":1732378259,"current_range_meters":24800,"station_id":"ce4bhe12rcd13ifvqf30","pricing_plan_id":"cebpf4jnsgd1na2vs0mg"},{"bike_id":"36ef9a42-f4d8-45f5-adc2-b51fb9b962d0","system_id":"levelo_inurba_marseille","lat":43.34143,"lon":5.40899,"is_reserved":false,"is_disabled":false,"rental_uris":{"android":"levelo://app?vid=36ef9a42-f4d8-45f5-adc2-b51fb9b962d0","ios":"levelo://app?vid=36ef9a42-f4d8-45f5-adc2-b51fb9b962d0"},"vehicle_type_id":"4","last_reported":1732378259,"current_range_meters":38800,"station_id":"ce4bhqh2rcd13ifvqhlg","pricing_plan_id":"cebpf4jnsgd1na2vs0mg"},{"bike_id":"6ce6086b-6084-46f4-ba4b-69f8aaaa51b2","system_id":"levelo_inurba_marseille","lat":43.30541,"lon":5.38431,"is_reserved":false,"is_disabled":true,"rental_uris":{"android":"levelo://app?vid=6ce6086b-6084-46f4-ba4b-69f8aaaa51b2","ios":"levelo://app?vid=6ce6086b-6084-46f4-ba4b-69f8aaaa51b2"},"vehicle_type_id":"4","last_reported":1732378259,"current_range_meters":28400,"station_id":"ce4bgg92rcd13ifvqb30","pricing_plan_id":"cebpf4jnsgd1na2vs0mg"},{"bike_id":"bce8ff7f-d729-4ae9-8d99-377ff6518050","system_id":"levelo_inurba_marseille","lat":43.278599,"lon":5.396918,"is_reserved":false,"is_disabled":false,"rental_uris":{"android":"levelo://app?vid=bce8ff7f-d729-4ae9-8d99-377ff6518050","ios":"levelo://app?vid=bce8ff7f-d729-4ae9-8d99-377ff6518050"},"vehicle_type_id":"4","last_reported":1732378259,"current_range_meters":2000,"station_id":"ce4bhf92rcd13ifvqf40","pricing_plan_id":"cebpf4jnsgd1na2vs0mg"},{"bike_id":"c44f537a-bc33-4d10-ad80-2dc8e659d7be","system_id":"levelo_inurba_marseille","lat":43.31707,"lon":5.3774,"is_reserved":false,"is_disabled":false,"rental_uris":{"android":"levelo://app?vid=c44f537a-bc33-4d10-ad80-2dc8e659d7be","ios":"levelo://app?vid=c44f537a-bc33-4d10-ad80-2dc8e659d7be"},"vehicle_type_id":"4","last_reported":1732378259,"current_range_meters":22800,"station_id":"ce4bgth2rcd13ifvqch0","pricing_plan_id":"cebpf4jnsgd1na2vs0mg"},{"bike_id":"67eec873-2e0f-49d2-a011-594652020334","system_id":"levelo_inurba_marseille","lat":43.26212,"lon":5.37923,"is_reserved":false,"is_disabled":false,"rental_uris":{"android":"levelo://app?vid=67eec873-2e0f-49d2-a011-594652020334","ios":"levelo://app?vid=67eec873-2e0f-49d2-a011-594652020334"},"vehicle_type_id":"4","last_reported":1732378259,"current_range_meters":18000,"station_id":"ce4bhjp2rcd13ifvqg90","pricing_plan_id":"cebpf4jnsgd1na2vs0mg"},{"bike_id":"f1517e6b-96a7-4f2c-b7cf-673b270320c2","system_id":"levelo_inurba_marseille","lat":43.26568,"lon":5.39006,"is_reserved":false,"is_disabled":false,"rental_uris":{"android":"levelo://app?vid=f1517e6b-96a7-4f2c-b7cf-673b270320c2","ios":"levelo://app?vid=f1517e6b-96a7-4f2c-b7cf-673b270320c2"},"vehicle_type_id":"4","last_reported":1732378259,"current_range_meters":10000,"station_id":"ce4bhe12rcd13ifvqf30","pricing_plan_id":"cebpf4jnsgd1na2vs0mg"},{"bike_id":"974b45d9-3e9e-46a0-bc0f-461f5453a67a","system_id":"levelo_inurba_marseille","lat":43.30193,"lon":5.36608,"is_reserved":false,"is_disabled":false,"rental_uris":{"android":"levelo://app?vid=974b45d9-3e9e-46a0-bc0f-461f5453a67a","ios":"levelo://app?vid=974b45d9-3e9e-46a0-bc0f-461f5453a67a"},"vehicle_type_id":"4","last_reported":1732378259,"current_range_meters":14000,"station_id":"ce4bgrh2rcd13ifvqc8g","pricing_plan_id":"cebpf4jnsgd1na2vs0mg"},{"bike_id":"50e385e3-0ee7-427c-8711-07fe7da0b388","system_id":"levelo_inurba_marseille","lat":43.28435,"lon":5.39191,"is_reserved":false,"is_disabled":false,"rental_uris":{"android":"levelo://app?vid=50e385e3-0ee7-427c-8711-07fe7da0b388","ios":"levelo://app?vid=50e385e3-0ee7-427c-8711-07fe7da0b388"},"vehicle_type_id":"4","last_reported":1732378259,"current_range_meters":32400,"station_id":"ce4bhoh2rcd13ifvqh5g","pricing_plan_id":"cebpf4jnsgd1na2vs0mg"},{"bike_id":"ffab3504-d8a3-4a52-bdf7-546e47ffeccf","system_id":"levelo_inurba_marseille","lat":43.297,"lon":5.3663,"is_reserved":false,"is_disabled":false,"rental_uris":{"android":"levelo://app?vid=ffab3504-d8a3-4a52-bdf7-546e47ffeccf","ios":"levelo://app?vid=ffab3504-d8a3-4a52-bdf7-546e47ffeccf"},"vehicle_type_id":"4","last_reported":1732378259,"current_range_meters":24800,"station_id":"ce4bgn12rcd13ifvqbt0","pricing_plan_id":"cebpf4jnsgd1na2vs0mg"},{"bike_id":"92784d60-d679-40b3-9c89-ced2dd61ad9c","system_id":"levelo_inurba_marseille","lat":43.32476,"lon":5.366,"is_reserved":false,"is_disabled":false,"rental_uris":{"android":"levelo://app?vid=92784d60-d679-40b3-9c89-ced2dd61ad9c","ios":"levelo://app?vid=92784d60-d679-40b3-9c89-ced2dd61ad9c"},"vehicle_type_id":"4","last_reported":1732378259,"current_range_meters":27600,"station_id":"ce4bhs12rcd13ifvqhvg","pricing_plan_id":"cebpf4jnsgd1na2vs0mg"},{"bike_id":"68f9bc67-7a46-4c54-8555-1eed96ca8ef0","system_id":"levelo_inurba_marseille","lat":43.32107,"lon":5.36778,"is_reserved":false,"is_disabled":false,"rental_uris":{"android":"levelo://app?vid=68f9bc67-7a46-4c54-8555-1eed96ca8ef0","ios":"levelo://app?vid=68f9bc67-7a46-4c54-8555-1eed96ca8ef0"},"vehicle_type_id":"4","last_reported":1732378259,"current_range_meters":36000,"station_id":"ce4bhrh2rcd13ifvqhug","pricing_plan_id":"cebpf4jnsgd1na2vs0mg"},{"bike_id":"4d1fc215-00a8-43c1-a56d-07dfeae9adce","system_id":"levelo_inurba_marseille","lat":43.32049,"lon":5.41553,"is_reserved":false,"is_disabled":false,"rental_uris":{"android":"levelo://app?vid=4d1fc215-00a8-43c1-a56d-07dfeae9adce","ios":"levelo://app?vid=4d1fc215-00a8-43c1-a56d-07dfeae9adce"},"vehicle_type_id":"4","last_reported":1732378259,"current_range_meters":25600,"station_id":"ce4bhq92rcd13ifvqhkg","pricing_plan_id":"cebpf4jnsgd1na2vs0mg"},{"bike_id":"3749f547-26de-49f3-8704-9a5a504b68f5","system_id":"levelo_inurba_marseille","lat":43.25576,"lon":5.3824,"is_reserved":false,"is_disabled":false,"rental_uris":{"android":"levelo://app?vid=3749f547-26de-49f3-8704-9a5a504b68f5","ios":"levelo://app?vid=3749f547-26de-49f3-8704-9a5a504b68f5"},"vehicle_type_id":"4","last_reported":1732378259,"current_range_meters":2800,"station_id":"ce4bhih2rcd13ifvqfs0","pricing_plan_id":"cebpf4jnsgd1na2vs0mg"},{"bike_id":"d2a52b58-fabe-4a57-94ba-464e41b85800","system_id":"levelo_inurba_marseille","lat":43.30109,"lon":5.37789,"is_reserved":false,"is_disabled":true,"rental_uris":{"android":"levelo://app?vid=d2a52b58-fabe-4a57-94ba-464e41b85800","ios":"levelo://app?vid=d2a52b58-fabe-4a57-94ba-464e41b85800"},"vehicle_type_id":"4","last_reported":1732378259,"current_range_meters":30800,"station_id":"ce4bgs92rcd13ifvqcc0","pricing_plan_id":"cebpf4jnsgd1na2vs0mg"},{"bike_id":"4eb4f746-0a83-47fc-a5d4-a6698b48aa3f","system_id":"levelo_inurba_marseille","lat":43.32656,"lon":5.40995,"is_reserved":false,"is_disabled":false,"rental_uris":{"android":"levelo://app?vid=4eb4f746-0a83-47fc-a5d4-a6698b48aa3f","ios":"levelo://app?vid=4eb4f746-0a83-47fc-a5d4-a6698b48aa3f"},"vehicle_type_id":"4","last_reported":1732378259,"current_range_meters":26800,"station_id":"ce4bhpp2rcd13ifvqhgg","pricing_plan_id":"cebpf4jnsgd1na2vs0mg"},{"bike_id":"438578fc-7baf-4f66-a3b2-0426d16984fc","system_id":"levelo_inurba_marseille","lat":43.27069,"lon":5.42281,"is_reserved":false,"is_disabled":false,"rental_uris":{"android":"levelo://app?vid=438578fc-7baf-4f66-a3b2-0426d16984fc","ios":"levelo://app?vid=438578fc-7baf-4f66-a3b2-0426d16984fc"},"vehicle_type_id":"4","last_reported":1732378259,"current_range_meters":39200,"station_id":"ce4bhk92rcd13ifvqgb0","pricing_plan_id":"cebpf4jnsgd1na2vs0mg"},{"bike_id":"ce7684e9-8261-40e4-bce0-0c6cbd109af9","system_id":"levelo_inurba_marseille","lat":43.29874,"lon":5.39739,"is_reserved":false,"is_disabled":false,"rental_uris":{"android":"levelo://app?vid=ce7684e9-8261-40e4-bce0-0c6cbd109af9","ios":"levelo://app?vid=ce7684e9-8261-40e4-bce0-0c6cbd109af9"},"vehicle_type_id":"4","last_reported":1732378259,"current_range_meters":6800,"station_id":"ce4bh0h2rcd13ifvqd50","pricing_plan_id":"cebpf4jnsgd1na2vs0mg"},{"bike_id":"98d8074c-0f66-4410-aa45-21610bdb4b81","system_id":"levelo_inurba_marseille","lat":43.29307,"lon":5.37461,"is_reserved":false,"is_disabled":false,"rental_uris":{"android":"levelo://app?vid=98d8074c-0f66-4410-aa45-21610bdb4b81","ios":"levelo://app?vid=98d8074c-0f66-4410-aa45-21610bdb4b81"},"vehicle_type_id":"4","last_reported":1732378259,"current_range_meters":39200,"station_id":"ce4bgi12rcd13ifvqb70","pricing_plan_id":"cebpf4jnsgd1na2vs0mg"},{"bike_id":"a63070df-f117-44f0-b225-dbdf56b29ebb","system_id":"levelo_inurba_marseille","lat":43.295178,"lon":5.390255,"is_reserved":false,"is_disabled":false,"rental_uris":{"android":"levelo://app?vid=a63070df-f117-44f0-b225-dbdf56b29ebb","ios":"levelo://app?vid=a63070df-f117-44f0-b225-dbdf56b29ebb"},"vehicle_type_id":"4","last_reported":1732378259,"current_range_meters":30400,"station_id":"ce4bh3p2rcd13ifvqdp0","pricing_plan_id":"cebpf4jnsgd1na2vs0mg"},{"bike_id":"cbaff803-d0db-4147-9ebd-c512d396efbe","system_id":"levelo_inurba_marseille","lat":43.28262,"lon":5.35076,"is_reserved":false,"is_disabled":false,"rental_uris":{"android":"levelo://app?vid=cbaff803-d0db-4147-9ebd-c512d396efbe","ios":"levelo://app?vid=cbaff803-d0db-4147-9ebd-c512d396efbe"},"vehicle_type_id":"4","last_reported":1732378259,"current_range_meters":35200,"station_id":"ce4bhbp2rcd13ifvqerg","pricing_plan_id":"cebpf4jnsgd1na2vs0mg"},{"bike_id":"3c5d0254-2542-44e0-aa08-1a8753e937a8","system_id":"levelo_inurba_marseille","lat":43.26687,"lon":5.38273,"is_reserved":false,"is_disabled":false,"rental_uris":{"android":"levelo://app?vid=3c5d0254-2542-44e0-aa08-1a8753e937a8","ios":"levelo://app?vid=3c5d0254-2542-44e0-aa08-1a8753e937a8"},"vehicle_type_id":"4","last_reported":1732378259,"current_range_meters":35600,"station_id":"ce4bhg92rcd13ifvqf90","pricing_plan_id":"cebpf4jnsgd1na2vs0mg"},{"bike_id":"dd3b09fe-b71a-401a-b299-a88383f47f1c","system_id":"levelo_inurba_marseille","lat":43.337444,"lon":5.374475,"is_reserved":false,"is_disabled":false,"rental_uris":{"android":"levelo://app?vid=dd3b09fe-b71a-401a-b299-a88383f47f1c","ios":"levelo://app?vid=dd3b09fe-b71a-401a-b299-a88383f47f1c"},"vehicle_type_id":"4","last_reported":1732378259,"current_range_meters":35200,"station_id":"","pricing_plan_id":"cebpf4jnsgd1na2vs0mg"},{"bike_id":"538f8be4-3b49-4ac8-8e22-0ffc46f5ce19","system_id":"levelo_inurba_marseille","lat":43.27972,"lon":5.38733,"is_reserved":false,"is_disabled":true,"rental_uris":{"android":"levelo://app?vid=538f8be4-3b49-4ac8-8e22-0ffc46f5ce19","ios":"levelo://app?vid=538f8be4-3b49-4ac8-8e22-0ffc46f5ce19"},"vehicle_type_id":"4","last_reported":1732378259,"current_range_meters":0,"station_id":"ce4bhg12rcd13ifvqf80","pricing_plan_id":"cebpf4jnsgd1na2vs0mg"},{"bike_id":"e3337411-c63e-4e9d-b5e1-35e5e2305102","system_id":"levelo_inurba_marseille","lat":43.27304,"lon":5.39085,"is_reserved":false,"is_disabled":false,"rental_uris":{"android":"levelo://app?vid=e3337411-c63e-4e9d-b5e1-35e5e2305102","ios":"levelo://app?vid=e3337411-c63e-4e9d-b5e1-35e5e2305102"},"vehicle_type_id":"4","last_reported":1732378259,"current_range_meters":33200,"station_id":"ce4bhgp2rcd13ifvqfe0","pricing_plan_id":"cebpf4jnsgd1na2vs0mg"},{"bike_id":"48316204-459d-4fe2-b448-eb3bca56b31a","system_id":"levelo_inurba_marseille","lat":43.2466,"lon":5.38164,"is_reserved":false,"is_disabled":true,"rental_uris":{"android":"levelo://app?vid=48316204-459d-4fe2-b448-eb3bca56b31a","ios":"levelo://app?vid=48316204-459d-4fe2-b448-eb3bca56b31a"},"vehicle_type_id":"4","last_reported":1732378259,"current_range_meters":0,"station_id":"ce4bhih2rcd13ifvqfr0","pricing_plan_id":"cebpf4jnsgd1na2vs0mg"},{"bike_id":"18908abd-a4d4-4295-9e48-1b1b9f6bc1b0","system_id":"levelo_inurba_marseille","lat":43.26805,"lon":5.40257,"is_reserved":false,"is_disabled":false,"rental_uris":{"android":"levelo://app?vid=18908abd-a4d4-4295-9e48-1b1b9f6bc1b0","ios":"levelo://app?vid=18908abd-a4d4-4295-9e48-1b1b9f6bc1b0"},"vehicle_type_id":"4","last_reported":1732378259,"current_range_meters":39200,"station_id":"ce501612rcd8frsf0b60","pricing_plan_id":"cebpf4jnsgd1na2vs0mg"},{"bike_id":"c3a9fd83-5a98-42b2-a8f7-5104c351d62e","system_id":"levelo_inurba_marseille","lat":43.30461,"lon":5.37905,"is_reserved":false,"is_disabled":false,"rental_uris":{"android":"levelo://app?vid=c3a9fd83-5a98-42b2-a8f7-5104c351d62e","ios":"levelo://app?vid=c3a9fd83-5a98-42b2-a8f7-5104c351d62e"},"vehicle_type_id":"4","last_reported":1732378259,"current_range_meters":38000,"station_id":"ce4bgup2rcd13ifvqcn0","pricing_plan_id":"cebpf4jnsgd1na2vs0mg"},{"bike_id":"a07f3b18-b7e9-4865-b1d3-2e0773f13888","system_id":"levelo_inurba_marseille","lat":43.24805,"lon":5.37458,"is_reserved":false,"is_disabled":true,"rental_uris":{"android":"levelo://app?vid=a07f3b18-b7e9-4865-b1d3-2e0773f13888","ios":"levelo://app?vid=a07f3b18-b7e9-4865-b1d3-2e0773f13888"},"vehicle_type_id":"4","last_reported":1732378259,"current_range_meters":0,"station_id":"ce4bhgh2rcd13ifvqfb0","pricing_plan_id":"cebpf4jnsgd1na2vs0mg"},{"bike_id":"30afc51d-7981-4daa-a145-a1a39f6a3f81","system_id":"levelo_inurba_marseille","lat":43.26939,"lon":5.38928,"is_reserved":false,"is_disabled":false,"rental_uris":{"android":"levelo://app?vid=30afc51d-7981-4daa-a145-a1a39f6a3f81","ios":"levelo://app?vid=30afc51d-7981-4daa-a145-a1a39f6a3f81"},"vehicle_type_id":"4","last_reported":1732378259,"current_range_meters":38000,"station_id":"ce4bhhh2rcd13ifvqfl0","pricing_plan_id":"cebpf4jnsgd1na2vs0mg"},{"bike_id":"de78f0b7-964c-4eaa-9358-2b948ea7ef77","system_id":"levelo_inurba_marseille","lat":43.30537,"lon":5.36567,"is_reserved":false,"is_disabled":false,"rental_uris":{"android":"levelo://app?vid=de78f0b7-964c-4eaa-9358-2b948ea7ef77","ios":"levelo://app?vid=de78f0b7-964c-4eaa-9358-2b948ea7ef77"},"vehicle_type_id":"4","last_reported":1732378259,"current_range_meters":15200,"station_id":"ce4bgs12rcd13ifvqcag","pricing_plan_id":"cebpf4jnsgd1na2vs0mg"},{"bike_id":"cbc2167d-639d-4b33-b914-3ad6f36f2868","system_id":"levelo_inurba_marseille","lat":43.22929,"lon":5.35376,"is_reserved":false,"is_disabled":false,"rental_uris":{"android":"levelo://app?vid=cbc2167d-639d-4b33-b914-3ad6f36f2868","ios":"levelo://app?vid=cbc2167d-639d-4b33-b914-3ad6f36f2868"},"vehicle_type_id":"4","last_reported":1732378259,"current_range_meters":6000,"station_id":"cpo3532slgdg3j2ikp40","pricing_plan_id":"cebpf4jnsgd1na2vs0mg"},{"bike_id":"51223518-45b2-48f9-a2cb-bc183ee1db80","system_id":"levelo_inurba_marseille","lat":43.29535,"lon":5.38543,"is_reserved":false,"is_disabled":false,"rental_uris":{"android":"levelo://app?vid=51223518-45b2-48f9-a2cb-bc183ee1db80","ios":"levelo://app?vid=51223518-45b2-48f9-a2cb-bc183ee1db80"},"vehicle_type_id":"4","last_reported":1732378259,"current_range_meters":37600,"station_id":"ce4bgih2rcd13ifvqba0","pricing_plan_id":"cebpf4jnsgd1na2vs0mg"},{"bike_id":"1ad4cc33-74c5-4b98-ab55-99e50791bb40","system_id":"levelo_inurba_marseille","lat":43.29619,"lon":5.3715,"is_reserved":false,"is_disabled":false,"rental_uris":{"android":"levelo://app?vid=1ad4cc33-74c5-4b98-ab55-99e50791bb40","ios":"levelo://app?vid=1ad4cc33-74c5-4b98-ab55-99e50791bb40"},"vehicle_type_id":"4","last_reported":1732378259,"current_range_meters":36000,"station_id":"ce4bgnh2rcd13ifvqc0g","pricing_plan_id":"cebpf4jnsgd1na2vs0mg"},{"bike_id":"c1902714-1c95-4d9e-9c42-53add7a89c5d","system_id":"levelo_inurba_marseille","lat":43.29041,"lon":5.37572,"is_reserved":false,"is_disabled":false,"rental_uris":{"android":"levelo://app?vid=c1902714-1c95-4d9e-9c42-53add7a89c5d","ios":"levelo://app?vid=c1902714-1c95-4d9e-9c42-53add7a89c5d"},"vehicle_type_id":"4","last_reported":1732378259,"current_range_meters":5600,"station_id":"ce4bh692rcd13ifvqe90","pricing_plan_id":"cebpf4jnsgd1na2vs0mg"},{"bike_id":"635f2088-37d7-4c7e-b140-3292398be605","system_id":"levelo_inurba_marseille","lat":43.24813,"lon":5.37465,"is_reserved":false,"is_disabled":false,"rental_uris":{"android":"levelo://app?vid=635f2088-37d7-4c7e-b140-3292398be605","ios":"levelo://app?vid=635f2088-37d7-4c7e-b140-3292398be605"},"vehicle_type_id":"4","last_reported":1732378259,"current_range_meters":38800,"station_id":"ce4bhgh2rcd13ifvqfb0","pricing_plan_id":"cebpf4jnsgd1na2vs0mg"},{"bike_id":"e6cd0c8f-d7f7-4b8c-b79a-5062102cc9cc","system_id":"levelo_inurba_marseille","lat":43.29571,"lon":5.37519,"is_reserved":false,"is_disabled":false,"rental_uris":{"android":"levelo://app?vid=e6cd0c8f-d7f7-4b8c-b79a-5062102cc9cc","ios":"levelo://app?vid=e6cd0c8f-d7f7-4b8c-b79a-5062102cc9cc"},"vehicle_type_id":"4","last_reported":1732378259,"current_range_meters":38800,"station_id":"ce4bgh92rcd13ifvqb50","pricing_plan_id":"cebpf4jnsgd1na2vs0mg"},{"bike_id":"442fefad-935b-4992-af9e-2b250be966f3","system_id":"levelo_inurba_marseille","lat":43.3091,"lon":5.36845,"is_reserved":false,"is_disabled":false,"rental_uris":{"android":"levelo://app?vid=442fefad-935b-4992-af9e-2b250be966f3","ios":"levelo://app?vid=442fefad-935b-4992-af9e-2b250be966f3"},"vehicle_type_id":"4","last_reported":1732378259,"current_range_meters":25600,"station_id":"ce4bgn92rcd13ifvqbvg","pricing_plan_id":"cebpf4jnsgd1na2vs0mg"},{"bike_id":"f796b412-9140-415f-9f98-4b489dc2b14e","system_id":"levelo_inurba_marseille","lat":43.26936,"lon":5.40246,"is_reserved":false,"is_disabled":false,"rental_uris":{"android":"levelo://app?vid=f796b412-9140-415f-9f98-4b489dc2b14e","ios":"levelo://app?vid=f796b412-9140-415f-9f98-4b489dc2b14e"},"vehicle_type_id":"4","last_reported":1732378259,"current_range_meters":36400,"station_id":"cjm6bp8fraef2m0cb0m0","pricing_plan_id":"cebpf4jnsgd1na2vs0mg"},{"bike_id":"1efad98e-81b9-454d-9873-e2b81491e8e0","system_id":"levelo_inurba_marseille","lat":43.28098,"lon":5.37841,"is_reserved":false,"is_disabled":true,"rental_uris":{"android":"levelo://app?vid=1efad98e-81b9-454d-9873-e2b81491e8e0","ios":"levelo://app?vid=1efad98e-81b9-454d-9873-e2b81491e8e0"},"vehicle_type_id":"4","last_reported":1732378259,"current_range_meters":0,"station_id":"ce4bha12rcd13ifvqee0","pricing_plan_id":"cebpf4jnsgd1na2vs0mg"},{"bike_id":"2671fb8a-3452-46fd-bec4-bd169133378c","system_id":"levelo_inurba_marseille","lat":43.26685,"lon":5.38273,"is_reserved":false,"is_disabled":true,"rental_uris":{"android":"levelo://app?vid=2671fb8a-3452-46fd-bec4-bd169133378c","ios":"levelo://app?vid=2671fb8a-3452-46fd-bec4-bd169133378c"},"vehicle_type_id":"4","last_reported":1732378259,"current_range_meters":0,"station_id":"ce4bhg92rcd13ifvqf90","pricing_plan_id":"cebpf4jnsgd1na2vs0mg"},{"bike_id":"a89ea2d2-9f7a-4ca0-b4c6-6693004d86cf","system_id":"levelo_inurba_marseille","lat":43.24806,"lon":5.37456,"is_reserved":false,"is_disabled":false,"rental_uris":{"android":"levelo://app?vid=a89ea2d2-9f7a-4ca0-b4c6-6693004d86cf","ios":"levelo://app?vid=a89ea2d2-9f7a-4ca0-b4c6-6693004d86cf"},"vehicle_type_id":"4","last_reported":1732378259,"current_range_meters":2000,"station_id":"ce4bhgh2rcd13ifvqfb0","pricing_plan_id":"cebpf4jnsgd1na2vs0mg"},{"bike_id":"28f8ecf8-a7ae-4a32-aa4f-609e03eada5d","system_id":"levelo_inurba_marseille","lat":43.29523,"lon":5.38547,"is_reserved":false,"is_disabled":true,"rental_uris":{"android":"levelo://app?vid=28f8ecf8-a7ae-4a32-aa4f-609e03eada5d","ios":"levelo://app?vid=28f8ecf8-a7ae-4a32-aa4f-609e03eada5d"},"vehicle_type_id":"4","last_reported":1732378259,"current_range_meters":2800,"station_id":"ce4bgih2rcd13ifvqba0","pricing_plan_id":"cebpf4jnsgd1na2vs0mg"},{"bike_id":"71ed2183-caea-4dc8-838e-7fc515c012f5","system_id":"levelo_inurba_marseille","lat":43.29508,"lon":5.37509,"is_reserved":false,"is_disabled":false,"rental_uris":{"android":"levelo://app?vid=71ed2183-caea-4dc8-838e-7fc515c012f5","ios":"levelo://app?vid=71ed2183-caea-4dc8-838e-7fc515c012f5"},"vehicle_type_id":"4","last_reported":1732378259,"current_range_meters":38400,"station_id":"ce4bgkp2rcd13ifvqbmg","pricing_plan_id":"cebpf4jnsgd1na2vs0mg"},{"bike_id":"858b65e1-94fc-4151-a71e-8b168cb19dcb","system_id":"levelo_inurba_marseille","lat":43.30804,"lon":5.38152,"is_reserved":false,"is_disabled":true,"rental_uris":{"android":"levelo://app?vid=858b65e1-94fc-4151-a71e-8b168cb19dcb","ios":"levelo://app?vid=858b65e1-94fc-4151-a71e-8b168cb19dcb"},"vehicle_type_id":"4","last_reported":1732378259,"current_range_meters":8800,"station_id":"ce4bgt12rcd13ifvqce0","pricing_plan_id":"cebpf4jnsgd1na2vs0mg"},{"bike_id":"d21f3514-3a1b-468c-a74b-86559a117b5b","system_id":"levelo_inurba_marseille","lat":43.29845,"lon":5.3629,"is_reserved":false,"is_disabled":false,"rental_uris":{"android":"levelo://app?vid=d21f3514-3a1b-468c-a74b-86559a117b5b","ios":"levelo://app?vid=d21f3514-3a1b-468c-a74b-86559a117b5b"},"vehicle_type_id":"4","last_reported":1732378259,"current_range_meters":37600,"station_id":"ce4bgpp2rcd13ifvqc3g","pricing_plan_id":"cebpf4jnsgd1na2vs0mg"},{"bike_id":"c8a7066f-900d-4c15-8eaa-c4b93cb88ee7","system_id":"levelo_inurba_marseille","lat":43.28659,"lon":5.36365,"is_reserved":false,"is_disabled":false,"rental_uris":{"android":"levelo://app?vid=c8a7066f-900d-4c15-8eaa-c4b93cb88ee7","ios":"levelo://app?vid=c8a7066f-900d-4c15-8eaa-c4b93cb88ee7"},"vehicle_type_id":"4","last_reported":1732378259,"current_range_meters":34800,"station_id":"ce4bhah2rcd13ifvqej0","pricing_plan_id":"cebpf4jnsgd1na2vs0mg"},{"bike_id":"133c0635-6ac4-49a6-b3b8-4ad5dda949c5","system_id":"levelo_inurba_marseille","lat":43.31705,"lon":5.37805,"is_reserved":false,"is_disabled":true,"rental_uris":{"android":"levelo://app?vid=133c0635-6ac4-49a6-b3b8-4ad5dda949c5","ios":"levelo://app?vid=133c0635-6ac4-49a6-b3b8-4ad5dda949c5"},"vehicle_type_id":"4","last_reported":1732378259,"current_range_meters":38800,"station_id":"","pricing_plan_id":"cebpf4jnsgd1na2vs0mg"},{"bike_id":"1c2e9f24-f8cb-4637-a9f2-78db5aee2700","system_id":"levelo_inurba_marseille","lat":43.2835,"lon":5.38113,"is_reserved":false,"is_disabled":false,"rental_uris":{"android":"levelo://app?vid=1c2e9f24-f8cb-4637-a9f2-78db5aee2700","ios":"levelo://app?vid=1c2e9f24-f8cb-4637-a9f2-78db5aee2700"},"vehicle_type_id":"4","last_reported":1732378259,"current_range_meters":25200,"station_id":"ce4bh412rcd13ifvqdr0","pricing_plan_id":"cebpf4jnsgd1na2vs0mg"},{"bike_id":"7ca0c449-3790-407a-b9c0-d0eb3af9525a","system_id":"levelo_inurba_marseille","lat":43.29172,"lon":5.37171,"is_reserved":false,"is_disabled":false,"rental_uris":{"android":"levelo://app?vid=7ca0c449-3790-407a-b9c0-d0eb3af9525a","ios":"levelo://app?vid=7ca0c449-3790-407a-b9c0-d0eb3af9525a"},"vehicle_type_id":"4","last_reported":1732378259,"current_range_meters":37600,"station_id":"ce4bha92rcd13ifvqeh0","pricing_plan_id":"cebpf4jnsgd1na2vs0mg"},{"bike_id":"dffeccd3-600e-418b-9fc1-99c6dfe6c759","system_id":"levelo_inurba_marseille","lat":43.30142,"lon":5.37418,"is_reserved":false,"is_disabled":false,"rental_uris":{"android":"levelo://app?vid=dffeccd3-600e-418b-9fc1-99c6dfe6c759","ios":"levelo://app?vid=dffeccd3-600e-418b-9fc1-99c6dfe6c759"},"vehicle_type_id":"4","last_reported":1732378259,"current_range_meters":21600,"station_id":"ce4bgs92rcd13ifvqcc0","pricing_plan_id":"cebpf4jnsgd1na2vs0mg"},{"bike_id":"adb4a6c6-5a6e-4085-970a-e1f3b687d21d","system_id":"levelo_inurba_marseille","lat":43.24079,"lon":5.37764,"is_reserved":false,"is_disabled":false,"rental_uris":{"android":"levelo://app?vid=adb4a6c6-5a6e-4085-970a-e1f3b687d21d","ios":"levelo://app?vid=adb4a6c6-5a6e-4085-970a-e1f3b687d21d"},"vehicle_type_id":"4","last_reported":1732378259,"current_range_meters":4400,"station_id":"ce4bhnp2rcd13ifvqgvg","pricing_plan_id":"cebpf4jnsgd1na2vs0mg"},{"bike_id":"f7033b3a-38b5-43ec-9dfb-9338084bda7e","system_id":"levelo_inurba_marseille","lat":43.26065,"lon":5.39402,"is_reserved":false,"is_disabled":false,"rental_uris":{"android":"levelo://app?vid=f7033b3a-38b5-43ec-9dfb-9338084bda7e","ios":"levelo://app?vid=f7033b3a-38b5-43ec-9dfb-9338084bda7e"},"vehicle_type_id":"4","last_reported":1732378259,"current_range_meters":6000,"station_id":"ce4bhh92rcd13ifvqfj0","pricing_plan_id":"cebpf4jnsgd1na2vs0mg"},{"bike_id":"552ae1f9-34eb-4d70-a19b-3616d3661778","system_id":"levelo_inurba_marseille","lat":43.33723,"lon":5.39185,"is_reserved":false,"is_disabled":false,"rental_uris":{"android":"levelo://app?vid=552ae1f9-34eb-4d70-a19b-3616d3661778","ios":"levelo://app?vid=552ae1f9-34eb-4d70-a19b-3616d3661778"},"vehicle_type_id":"4","last_reported":1732378259,"current_range_meters":20000,"station_id":"ce4bhr92rcd13ifvqhsg","pricing_plan_id":"cebpf4jnsgd1na2vs0mg"},{"bike_id":"f7f3756c-1ec7-4782-9c87-6273f87b6774","system_id":"levelo_inurba_marseille","lat":43.337444,"lon":5.374475,"is_reserved":false,"is_disabled":true,"rental_uris":{"android":"levelo://app?vid=f7f3756c-1ec7-4782-9c87-6273f87b6774","ios":"levelo://app?vid=f7f3756c-1ec7-4782-9c87-6273f87b6774"},"vehicle_type_id":"4","last_reported":1732378259,"current_range_meters":32400,"station_id":"","pricing_plan_id":"cebpf4jnsgd1na2vs0mg"},{"bike_id":"740f162e-a0c7-4af9-899d-283ea1409dc6","system_id":"levelo_inurba_marseille","lat":43.269333,"lon":5.389182,"is_reserved":false,"is_disabled":true,"rental_uris":{"android":"levelo://app?vid=740f162e-a0c7-4af9-899d-283ea1409dc6","ios":"levelo://app?vid=740f162e-a0c7-4af9-899d-283ea1409dc6"},"vehicle_type_id":"4","last_reported":1732378259,"current_range_meters":36400,"station_id":"ce4bhhh2rcd13ifvqfl0","pricing_plan_id":"cebpf4jnsgd1na2vs0mg"},{"bike_id":"766b1a24-8256-4eb9-bc15-d3b45689f959","system_id":"levelo_inurba_marseille","lat":43.2895,"lon":5.35724,"is_reserved":false,"is_disabled":false,"rental_uris":{"android":"levelo://app?vid=766b1a24-8256-4eb9-bc15-d3b45689f959","ios":"levelo://app?vid=766b1a24-8256-4eb9-bc15-d3b45689f959"},"vehicle_type_id":"4","last_reported":1732378259,"current_range_meters":26800,"station_id":"ce4bhb92rcd13ifvqen0","pricing_plan_id":"cebpf4jnsgd1na2vs0mg"},{"bike_id":"e8f826ec-cf1d-427e-a65b-cf83f280be00","system_id":"levelo_inurba_marseille","lat":43.27055,"lon":5.40263,"is_reserved":false,"is_disabled":true,"rental_uris":{"android":"levelo://app?vid=e8f826ec-cf1d-427e-a65b-cf83f280be00","ios":"levelo://app?vid=e8f826ec-cf1d-427e-a65b-cf83f280be00"},"vehicle_type_id":"4","last_reported":1732378259,"current_range_meters":0,"station_id":"ce4bhk92rcd13ifvqgc0","pricing_plan_id":"cebpf4jnsgd1na2vs0mg"},{"bike_id":"427bb9a1-ac5d-4748-bf07-bc568efe5787","system_id":"levelo_inurba_marseille","lat":43.28719,"lon":5.36108,"is_reserved":false,"is_disabled":false,"rental_uris":{"android":"levelo://app?vid=427bb9a1-ac5d-4748-bf07-bc568efe5787","ios":"levelo://app?vid=427bb9a1-ac5d-4748-bf07-bc568efe5787"},"vehicle_type_id":"4","last_reported":1732378259,"current_range_meters":18800,"station_id":"cki0cbj6b192h4jlfktg","pricing_plan_id":"cebpf4jnsgd1na2vs0mg"},{"bike_id":"06867f49-6536-478a-865f-5f43336a6c89","system_id":"levelo_inurba_marseille","lat":43.27209,"lon":5.39197,"is_reserved":false,"is_disabled":false,"rental_uris":{"android":"levelo://app?vid=06867f49-6536-478a-865f-5f43336a6c89","ios":"levelo://app?vid=06867f49-6536-478a-865f-5f43336a6c89"},"vehicle_type_id":"4","last_reported":1732378259,"current_range_meters":27600,"station_id":"ce4bhhp2rcd13ifvqfm0","pricing_plan_id":"cebpf4jnsgd1na2vs0mg"},{"bike_id":"799013f6-957f-41bd-97ec-60847b60d862","system_id":"levelo_inurba_marseille","lat":43.27375,"lon":5.36253,"is_reserved":false,"is_disabled":true,"rental_uris":{"android":"levelo://app?vid=799013f6-957f-41bd-97ec-60847b60d862","ios":"levelo://app?vid=799013f6-957f-41bd-97ec-60847b60d862"},"vehicle_type_id":"4","last_reported":1732378259,"current_range_meters":36400,"station_id":"ce4bhbh2rcd13ifvqeo0","pricing_plan_id":"cebpf4jnsgd1na2vs0mg"},{"bike_id":"b7b61d62-d3cf-45c0-ae9e-f05215122577","system_id":"levelo_inurba_marseille","lat":43.30923,"lon":5.40145,"is_reserved":false,"is_disabled":true,"rental_uris":{"android":"levelo://app?vid=b7b61d62-d3cf-45c0-ae9e-f05215122577","ios":"levelo://app?vid=b7b61d62-d3cf-45c0-ae9e-f05215122577"},"vehicle_type_id":"4","last_reported":1732378259,"current_range_meters":800,"station_id":"ce4bgvp2rcd13ifvqct0","pricing_plan_id":"cebpf4jnsgd1na2vs0mg"},{"bike_id":"f0101f7b-8900-46aa-8805-79e36090f8db","system_id":"levelo_inurba_marseille","lat":43.28407,"lon":5.3751,"is_reserved":false,"is_disabled":true,"rental_uris":{"android":"levelo://app?vid=f0101f7b-8900-46aa-8805-79e36090f8db","ios":"levelo://app?vid=f0101f7b-8900-46aa-8805-79e36090f8db"},"vehicle_type_id":"4","last_reported":1732378259,"current_range_meters":800,"station_id":"ce4bh412rcd13ifvqds0","pricing_plan_id":"cebpf4jnsgd1na2vs0mg"},{"bike_id":"4794a1b2-bd54-4c0f-9cff-cb268229a068","system_id":"levelo_inurba_marseille","lat":43.23156,"lon":5.43712,"is_reserved":false,"is_disabled":false,"rental_uris":{"android":"levelo://app?vid=4794a1b2-bd54-4c0f-9cff-cb268229a068","ios":"levelo://app?vid=4794a1b2-bd54-4c0f-9cff-cb268229a068"},"vehicle_type_id":"4","last_reported":1732378259,"current_range_meters":12800,"station_id":"ce4bhmp2rcd13ifvqgog","pricing_plan_id":"cebpf4jnsgd1na2vs0mg"},{"bike_id":"0dc1a6a5-dd7f-4419-9cbc-f7d24e6ee2e2","system_id":"levelo_inurba_marseille","lat":43.29604,"lon":5.38106,"is_reserved":false,"is_disabled":false,"rental_uris":{"android":"levelo://app?vid=0dc1a6a5-dd7f-4419-9cbc-f7d24e6ee2e2","ios":"levelo://app?vid=0dc1a6a5-dd7f-4419-9cbc-f7d24e6ee2e2"},"vehicle_type_id":"4","last_reported":1732378259,"current_range_meters":34000,"station_id":"ce4bgl12rcd13ifvqbo0","pricing_plan_id":"cebpf4jnsgd1na2vs0mg"},{"bike_id":"a3a4d349-0228-4793-b777-1f7ce7c73256","system_id":"levelo_inurba_marseille","lat":43.31714,"lon":5.37746,"is_reserved":false,"is_disabled":false,"rental_uris":{"android":"levelo://app?vid=a3a4d349-0228-4793-b777-1f7ce7c73256","ios":"levelo://app?vid=a3a4d349-0228-4793-b777-1f7ce7c73256"},"vehicle_type_id":"4","last_reported":1732378259,"current_range_meters":38400,"station_id":"ce4bgth2rcd13ifvqch0","pricing_plan_id":"cebpf4jnsgd1na2vs0mg"},{"bike_id":"d84f2164-1394-41ee-8a6e-ad2b3ded0069","system_id":"levelo_inurba_marseille","lat":43.32046,"lon":5.41557,"is_reserved":false,"is_disabled":false,"rental_uris":{"android":"levelo://app?vid=d84f2164-1394-41ee-8a6e-ad2b3ded0069","ios":"levelo://app?vid=d84f2164-1394-41ee-8a6e-ad2b3ded0069"},"vehicle_type_id":"4","last_reported":1732378259,"current_range_meters":38800,"station_id":"ce4bhq92rcd13ifvqhkg","pricing_plan_id":"cebpf4jnsgd1na2vs0mg"},{"bike_id":"63e5c75a-30c8-4be5-8ec8-448fdf89dbb8","system_id":"levelo_inurba_marseille","lat":43.23068,"lon":5.35496,"is_reserved":false,"is_disabled":false,"rental_uris":{"android":"levelo://app?vid=63e5c75a-30c8-4be5-8ec8-448fdf89dbb8","ios":"levelo://app?vid=63e5c75a-30c8-4be5-8ec8-448fdf89dbb8"},"vehicle_type_id":"4","last_reported":1732378259,"current_range_meters":9200,"station_id":"cpo3342slgdg3j2ifvpg","pricing_plan_id":"cebpf4jnsgd1na2vs0mg"},{"bike_id":"844693b4-a8ab-4270-9c51-2ae0bf163fc0","system_id":"levelo_inurba_marseille","lat":43.23137,"lon":5.4372,"is_reserved":false,"is_disabled":true,"rental_uris":{"android":"levelo://app?vid=844693b4-a8ab-4270-9c51-2ae0bf163fc0","ios":"levelo://app?vid=844693b4-a8ab-4270-9c51-2ae0bf163fc0"},"vehicle_type_id":"4","last_reported":1732378259,"current_range_meters":0,"station_id":"ce4bhmp2rcd13ifvqgog","pricing_plan_id":"cebpf4jnsgd1na2vs0mg"},{"bike_id":"325fe5f5-d999-444f-bb23-27ea636eb738","system_id":"levelo_inurba_marseille","lat":43.24167,"lon":5.36398,"is_reserved":false,"is_disabled":true,"rental_uris":{"android":"levelo://app?vid=325fe5f5-d999-444f-bb23-27ea636eb738","ios":"levelo://app?vid=325fe5f5-d999-444f-bb23-27ea636eb738"},"vehicle_type_id":"4","last_reported":1732378259,"current_range_meters":0,"station_id":"cpo36qri1sfpv3e86is0","pricing_plan_id":"cebpf4jnsgd1na2vs0mg"},{"bike_id":"89228f68-3127-4436-9201-8331b38355c7","system_id":"levelo_inurba_marseille","lat":43.2573,"lon":5.41108,"is_reserved":false,"is_disabled":true,"rental_uris":{"android":"levelo://app?vid=89228f68-3127-4436-9201-8331b38355c7","ios":"levelo://app?vid=89228f68-3127-4436-9201-8331b38355c7"},"vehicle_type_id":"4","last_reported":1732378259,"current_range_meters":0,"station_id":"ce4bhkp2rcd13ifvqgd0","pricing_plan_id":"cebpf4jnsgd1na2vs0mg"},{"bike_id":"8721b0fc-c858-41fc-8b58-dfceb34bff29","system_id":"levelo_inurba_marseille","lat":43.29291,"lon":5.37464,"is_reserved":false,"is_disabled":false,"rental_uris":{"android":"levelo://app?vid=8721b0fc-c858-41fc-8b58-dfceb34bff29","ios":"levelo://app?vid=8721b0fc-c858-41fc-8b58-dfceb34bff29"},"vehicle_type_id":"4","last_reported":1732378259,"current_range_meters":39200,"station_id":"ce4bgi12rcd13ifvqb70","pricing_plan_id":"cebpf4jnsgd1na2vs0mg"},{"bike_id":"29fb895b-8948-42c3-9cf9-e4b5a361d278","system_id":"levelo_inurba_marseille","lat":43.28424,"lon":5.34996,"is_reserved":false,"is_disabled":false,"rental_uris":{"android":"levelo://app?vid=29fb895b-8948-42c3-9cf9-e4b5a361d278","ios":"levelo://app?vid=29fb895b-8948-42c3-9cf9-e4b5a361d278"},"vehicle_type_id":"4","last_reported":1732378259,"current_range_meters":31200,"station_id":"ce4bhbh2rcd13ifvqepg","pricing_plan_id":"cebpf4jnsgd1na2vs0mg"},{"bike_id":"e5951ee3-4a5a-4ebb-b469-096c5188dfa3","system_id":"levelo_inurba_marseille","lat":43.23184,"lon":5.35554,"is_reserved":false,"is_disabled":false,"rental_uris":{"android":"levelo://app?vid=e5951ee3-4a5a-4ebb-b469-096c5188dfa3","ios":"levelo://app?vid=e5951ee3-4a5a-4ebb-b469-096c5188dfa3"},"vehicle_type_id":"4","last_reported":1732378259,"current_range_meters":24000,"station_id":"ce4bhu92rcd13ifvqi70","pricing_plan_id":"cebpf4jnsgd1na2vs0mg"},{"bike_id":"53aedfa4-4049-4759-bc95-757addd8c685","system_id":"levelo_inurba_marseille","lat":43.26554,"lon":5.37287,"is_reserved":false,"is_disabled":false,"rental_uris":{"android":"levelo://app?vid=53aedfa4-4049-4759-bc95-757addd8c685","ios":"levelo://app?vid=53aedfa4-4049-4759-bc95-757addd8c685"},"vehicle_type_id":"4","last_reported":1732378259,"current_range_meters":38800,"station_id":"ce4bhg12rcd13ifvqf70","pricing_plan_id":"cebpf4jnsgd1na2vs0mg"},{"bike_id":"e89acc00-2b06-4720-9a63-22cf0d597a07","system_id":"levelo_inurba_marseille","lat":43.25006,"lon":5.38919,"is_reserved":false,"is_disabled":false,"rental_uris":{"android":"levelo://app?vid=e89acc00-2b06-4720-9a63-22cf0d597a07","ios":"levelo://app?vid=e89acc00-2b06-4720-9a63-22cf0d597a07"},"vehicle_type_id":"4","last_reported":1732378259,"current_range_meters":34000,"station_id":"ce4bhgp2rcd13ifvqfd0","pricing_plan_id":"cebpf4jnsgd1na2vs0mg"},{"bike_id":"6c948e9c-d5b3-4fe5-a918-1bd2f7c83b02","system_id":"levelo_inurba_marseille","lat":43.32114,"lon":5.36772,"is_reserved":false,"is_disabled":false,"rental_uris":{"android":"levelo://app?vid=6c948e9c-d5b3-4fe5-a918-1bd2f7c83b02","ios":"levelo://app?vid=6c948e9c-d5b3-4fe5-a918-1bd2f7c83b02"},"vehicle_type_id":"4","last_reported":1732378259,"current_range_meters":32400,"station_id":"ce4bhrh2rcd13ifvqhug","pricing_plan_id":"cebpf4jnsgd1na2vs0mg"},{"bike_id":"9e620abf-d324-4f99-84fc-d67e71109f2a","system_id":"levelo_inurba_marseille","lat":43.31077,"lon":5.42434,"is_reserved":false,"is_disabled":true,"rental_uris":{"android":"levelo://app?vid=9e620abf-d324-4f99-84fc-d67e71109f2a","ios":"levelo://app?vid=9e620abf-d324-4f99-84fc-d67e71109f2a"},"vehicle_type_id":"4","last_reported":1732378259,"current_range_meters":0,"station_id":"ce4bhp92rcd13ifvqhag","pricing_plan_id":"cebpf4jnsgd1na2vs0mg"},{"bike_id":"9388a7ff-9c5c-4c26-9899-39b2408cf7e3","system_id":"levelo_inurba_marseille","lat":43.31025,"lon":5.38342,"is_reserved":false,"is_disabled":true,"rental_uris":{"android":"levelo://app?vid=9388a7ff-9c5c-4c26-9899-39b2408cf7e3","ios":"levelo://app?vid=9388a7ff-9c5c-4c26-9899-39b2408cf7e3"},"vehicle_type_id":"4","last_reported":1732378259,"current_range_meters":0,"station_id":"","pricing_plan_id":"cebpf4jnsgd1na2vs0mg"},{"bike_id":"6bd0bfd4-2bec-493f-9ac5-a5bc7980b001","system_id":"levelo_inurba_marseille","lat":43.26032,"lon":5.3755,"is_reserved":false,"is_disabled":true,"rental_uris":{"android":"levelo://app?vid=6bd0bfd4-2bec-493f-9ac5-a5bc7980b001","ios":"levelo://app?vid=6bd0bfd4-2bec-493f-9ac5-a5bc7980b001"},"vehicle_type_id":"4","last_reported":1732378259,"current_range_meters":0,"station_id":"ce4bhgh2rcd13ifvqfa0","pricing_plan_id":"cebpf4jnsgd1na2vs0mg"},{"bike_id":"9197ea94-bcf4-41be-b0cb-1ac2f1626958","system_id":"levelo_inurba_marseille","lat":43.32373,"lon":5.38887,"is_reserved":false,"is_disabled":false,"rental_uris":{"android":"levelo://app?vid=9197ea94-bcf4-41be-b0cb-1ac2f1626958","ios":"levelo://app?vid=9197ea94-bcf4-41be-b0cb-1ac2f1626958"},"vehicle_type_id":"4","last_reported":1732378259,"current_range_meters":12800,"station_id":"ce4bhqp2rcd13ifvqhog","pricing_plan_id":"cebpf4jnsgd1na2vs0mg"},{"bike_id":"2b4ae033-e6ef-45f5-96bd-1c600ecf5c5a","system_id":"levelo_inurba_marseille","lat":43.29268,"lon":5.38434,"is_reserved":false,"is_disabled":false,"rental_uris":{"android":"levelo://app?vid=2b4ae033-e6ef-45f5-96bd-1c600ecf5c5a","ios":"levelo://app?vid=2b4ae033-e6ef-45f5-96bd-1c600ecf5c5a"},"vehicle_type_id":"4","last_reported":1732378259,"current_range_meters":38000,"station_id":"ce4bh692rcd13ifvqea0","pricing_plan_id":"cebpf4jnsgd1na2vs0mg"},{"bike_id":"94830ad1-649f-4df3-8001-cbcc69e39a8f","system_id":"levelo_inurba_marseille","lat":43.3205,"lon":5.41573,"is_reserved":false,"is_disabled":false,"rental_uris":{"android":"levelo://app?vid=94830ad1-649f-4df3-8001-cbcc69e39a8f","ios":"levelo://app?vid=94830ad1-649f-4df3-8001-cbcc69e39a8f"},"vehicle_type_id":"4","last_reported":1732378259,"current_range_meters":37600,"station_id":"ce4bhq92rcd13ifvqhkg","pricing_plan_id":"cebpf4jnsgd1na2vs0mg"},{"bike_id":"5c53cfbd-2547-413a-b79a-f8cc3b1ca992","system_id":"levelo_inurba_marseille","lat":43.32109,"lon":5.3678,"is_reserved":false,"is_disabled":false,"rental_uris":{"android":"levelo://app?vid=5c53cfbd-2547-413a-b79a-f8cc3b1ca992","ios":"levelo://app?vid=5c53cfbd-2547-413a-b79a-f8cc3b1ca992"},"vehicle_type_id":"4","last_reported":1732378259,"current_range_meters":9600,"station_id":"ce4bhrh2rcd13ifvqhug","pricing_plan_id":"cebpf4jnsgd1na2vs0mg"},{"bike_id":"b9185020-0eec-428f-b70f-43aeec807d8c","system_id":"levelo_inurba_marseille","lat":43.29284,"lon":5.38453,"is_reserved":false,"is_disabled":false,"rental_uris":{"android":"levelo://app?vid=b9185020-0eec-428f-b70f-43aeec807d8c","ios":"levelo://app?vid=b9185020-0eec-428f-b70f-43aeec807d8c"},"vehicle_type_id":"4","last_reported":1732378259,"current_range_meters":3600,"station_id":"ce4bh692rcd13ifvqea0","pricing_plan_id":"cebpf4jnsgd1na2vs0mg"},{"bike_id":"65f846d2-8298-4e92-bed1-380f44c062fb","system_id":"levelo_inurba_marseille","lat":43.29855,"lon":5.36254,"is_reserved":false,"is_disabled":false,"rental_uris":{"android":"levelo://app?vid=65f846d2-8298-4e92-bed1-380f44c062fb","ios":"levelo://app?vid=65f846d2-8298-4e92-bed1-380f44c062fb"},"vehicle_type_id":"4","last_reported":1732378259,"current_range_meters":24000,"station_id":"ce4bgpp2rcd13ifvqc3g","pricing_plan_id":"cebpf4jnsgd1na2vs0mg"},{"bike_id":"04b9c9cb-be15-44a7-9bdc-6d22ca715c34","system_id":"levelo_inurba_marseille","lat":43.33724,"lon":5.39175,"is_reserved":false,"is_disabled":false,"rental_uris":{"android":"levelo://app?vid=04b9c9cb-be15-44a7-9bdc-6d22ca715c34","ios":"levelo://app?vid=04b9c9cb-be15-44a7-9bdc-6d22ca715c34"},"vehicle_type_id":"4","last_reported":1732378259,"current_range_meters":28800,"station_id":"ce4bhr92rcd13ifvqhsg","pricing_plan_id":"cebpf4jnsgd1na2vs0mg"},{"bike_id":"6eabbee3-df9e-43de-b6d1-e7a64ddad8a3","system_id":"levelo_inurba_marseille","lat":43.28351,"lon":5.38102,"is_reserved":false,"is_disabled":false,"rental_uris":{"android":"levelo://app?vid=6eabbee3-df9e-43de-b6d1-e7a64ddad8a3","ios":"levelo://app?vid=6eabbee3-df9e-43de-b6d1-e7a64ddad8a3"},"vehicle_type_id":"4","last_reported":1732378259,"current_range_meters":18800,"station_id":"ce4bh412rcd13ifvqdr0","pricing_plan_id":"cebpf4jnsgd1na2vs0mg"},{"bike_id":"610cd756-6b54-49c8-a87e-2e0ac6243b1e","system_id":"levelo_inurba_marseille","lat":43.23204,"lon":5.3555,"is_reserved":false,"is_disabled":false,"rental_uris":{"android":"levelo://app?vid=610cd756-6b54-49c8-a87e-2e0ac6243b1e","ios":"levelo://app?vid=610cd756-6b54-49c8-a87e-2e0ac6243b1e"},"vehicle_type_id":"4","last_reported":1732378259,"current_range_meters":10000,"station_id":"ce4bhu92rcd13ifvqi70","pricing_plan_id":"cebpf4jnsgd1na2vs0mg"},{"bike_id":"56ca6b93-ca3d-4dfc-8e20-e35c24d8bd07","system_id":"levelo_inurba_marseille","lat":43.337444,"lon":5.374475,"is_reserved":false,"is_disabled":true,"rental_uris":{"android":"levelo://app?vid=56ca6b93-ca3d-4dfc-8e20-e35c24d8bd07","ios":"levelo://app?vid=56ca6b93-ca3d-4dfc-8e20-e35c24d8bd07"},"vehicle_type_id":"4","last_reported":1732378259,"current_range_meters":400,"station_id":"","pricing_plan_id":"cebpf4jnsgd1na2vs0mg"},{"bike_id":"14a94806-137c-4936-85ff-161a6d38126b","system_id":"levelo_inurba_marseille","lat":43.32367,"lon":5.38885,"is_reserved":false,"is_disabled":false,"rental_uris":{"android":"levelo://app?vid=14a94806-137c-4936-85ff-161a6d38126b","ios":"levelo://app?vid=14a94806-137c-4936-85ff-161a6d38126b"},"vehicle_type_id":"4","last_reported":1732378259,"current_range_meters":38800,"station_id":"ce4bhqp2rcd13ifvqhog","pricing_plan_id":"cebpf4jnsgd1na2vs0mg"},{"bike_id":"1f741346-28e9-475e-945e-50145fcc1501","system_id":"levelo_inurba_marseille","lat":43.2693,"lon":5.38914,"is_reserved":false,"is_disabled":true,"rental_uris":{"android":"levelo://app?vid=1f741346-28e9-475e-945e-50145fcc1501","ios":"levelo://app?vid=1f741346-28e9-475e-945e-50145fcc1501"},"vehicle_type_id":"4","last_reported":1732378259,"current_range_meters":0,"station_id":"ce4bhhh2rcd13ifvqfl0","pricing_plan_id":"cebpf4jnsgd1na2vs0mg"},{"bike_id":"311d9020-325c-42d8-9890-07f72c3a96cc","system_id":"levelo_inurba_marseille","lat":43.29515,"lon":5.37506,"is_reserved":false,"is_disabled":false,"rental_uris":{"android":"levelo://app?vid=311d9020-325c-42d8-9890-07f72c3a96cc","ios":"levelo://app?vid=311d9020-325c-42d8-9890-07f72c3a96cc"},"vehicle_type_id":"4","last_reported":1732378259,"current_range_meters":38400,"station_id":"ce4bgkp2rcd13ifvqbmg","pricing_plan_id":"cebpf4jnsgd1na2vs0mg"},{"bike_id":"43746d86-8a13-4845-9faf-ae69b548d714","system_id":"levelo_inurba_marseille","lat":43.29448,"lon":5.3794,"is_reserved":false,"is_disabled":true,"rental_uris":{"android":"levelo://app?vid=43746d86-8a13-4845-9faf-ae69b548d714","ios":"levelo://app?vid=43746d86-8a13-4845-9faf-ae69b548d714"},"vehicle_type_id":"4","last_reported":1732378259,"current_range_meters":1600,"station_id":"","pricing_plan_id":"cebpf4jnsgd1na2vs0mg"},{"bike_id":"0a12e6c7-3edb-448a-aa6d-fdb9ee86611f","system_id":"levelo_inurba_marseille","lat":43.27319,"lon":5.39083,"is_reserved":false,"is_disabled":false,"rental_uris":{"android":"levelo://app?vid=0a12e6c7-3edb-448a-aa6d-fdb9ee86611f","ios":"levelo://app?vid=0a12e6c7-3edb-448a-aa6d-fdb9ee86611f"},"vehicle_type_id":"4","last_reported":1732378259,"current_range_meters":36000,"station_id":"ce4bhgp2rcd13ifvqfe0","pricing_plan_id":"cebpf4jnsgd1na2vs0mg"},{"bike_id":"b4d5f64b-5802-4dd6-aaf7-f46557043238","system_id":"levelo_inurba_marseille","lat":43.2606,"lon":5.39398,"is_reserved":false,"is_disabled":false,"rental_uris":{"android":"levelo://app?vid=b4d5f64b-5802-4dd6-aaf7-f46557043238","ios":"levelo://app?vid=b4d5f64b-5802-4dd6-aaf7-f46557043238"},"vehicle_type_id":"4","last_reported":1732378259,"current_range_meters":22000,"station_id":"ce4bhh92rcd13ifvqfj0","pricing_plan_id":"cebpf4jnsgd1na2vs0mg"},{"bike_id":"3f890dfb-140d-4d35-88cd-7149bad1c788","system_id":"levelo_inurba_marseille","lat":43.29607,"lon":5.38098,"is_reserved":false,"is_disabled":true,"rental_uris":{"android":"levelo://app?vid=3f890dfb-140d-4d35-88cd-7149bad1c788","ios":"levelo://app?vid=3f890dfb-140d-4d35-88cd-7149bad1c788"},"vehicle_type_id":"4","last_reported":1732378259,"current_range_meters":0,"station_id":"ce4bgl12rcd13ifvqbo0","pricing_plan_id":"cebpf4jnsgd1na2vs0mg"},{"bike_id":"a2b09865-004d-45eb-b301-cf3640220a72","system_id":"levelo_inurba_marseille","lat":43.29597,"lon":5.381,"is_reserved":false,"is_disabled":true,"rental_uris":{"android":"levelo://app?vid=a2b09865-004d-45eb-b301-cf3640220a72","ios":"levelo://app?vid=a2b09865-004d-45eb-b301-cf3640220a72"},"vehicle_type_id":"4","last_reported":1732378259,"current_range_meters":0,"station_id":"ce4bgl12rcd13ifvqbo0","pricing_plan_id":"cebpf4jnsgd1na2vs0mg"},{"bike_id":"565c1bd9-f377-49b5-83b4-e543a26c1994","system_id":"levelo_inurba_marseille","lat":43.29894,"lon":5.43675,"is_reserved":false,"is_disabled":false,"rental_uris":{"android":"levelo://app?vid=565c1bd9-f377-49b5-83b4-e543a26c1994","ios":"levelo://app?vid=565c1bd9-f377-49b5-83b4-e543a26c1994"},"vehicle_type_id":"4","last_reported":1732378259,"current_range_meters":26000,"station_id":"ce4bhpp2rcd13ifvqhfg","pricing_plan_id":"cebpf4jnsgd1na2vs0mg"},{"bike_id":"f7f29097-34a0-4fd3-9ee7-8abdc6d41ad7","system_id":"levelo_inurba_marseille","lat":43.27206,"lon":5.39199,"is_reserved":false,"is_disabled":true,"rental_uris":{"android":"levelo://app?vid=f7f29097-34a0-4fd3-9ee7-8abdc6d41ad7","ios":"levelo://app?vid=f7f29097-34a0-4fd3-9ee7-8abdc6d41ad7"},"vehicle_type_id":"4","last_reported":1732378259,"current_range_meters":3600,"station_id":"ce4bhhp2rcd13ifvqfm0","pricing_plan_id":"cebpf4jnsgd1na2vs0mg"},{"bike_id":"2a65ad68-9aed-4d86-9726-75767aa91ee1","system_id":"levelo_inurba_marseille","lat":43.25501,"lon":5.37646,"is_reserved":false,"is_disabled":false,"rental_uris":{"android":"levelo://app?vid=2a65ad68-9aed-4d86-9726-75767aa91ee1","ios":"levelo://app?vid=2a65ad68-9aed-4d86-9726-75767aa91ee1"},"vehicle_type_id":"4","last_reported":1732378259,"current_range_meters":26000,"station_id":"ce4bhh12rcd13ifvqff0","pricing_plan_id":"cebpf4jnsgd1na2vs0mg"},{"bike_id":"87518e9b-d305-48a8-9c4e-850d1e0dd7e6","system_id":"levelo_inurba_marseille","lat":43.29805,"lon":5.40413,"is_reserved":false,"is_disabled":true,"rental_uris":{"android":"levelo://app?vid=87518e9b-d305-48a8-9c4e-850d1e0dd7e6","ios":"levelo://app?vid=87518e9b-d305-48a8-9c4e-850d1e0dd7e6"},"vehicle_type_id":"4","last_reported":1732378259,"current_range_meters":0,"station_id":"ce4bh112rcd13ifvqd90","pricing_plan_id":"cebpf4jnsgd1na2vs0mg"},{"bike_id":"4219cfaa-5f1b-43f2-8fb7-74601adbe65f","system_id":"levelo_inurba_marseille","lat":43.30538,"lon":5.38417,"is_reserved":false,"is_disabled":false,"rental_uris":{"android":"levelo://app?vid=4219cfaa-5f1b-43f2-8fb7-74601adbe65f","ios":"levelo://app?vid=4219cfaa-5f1b-43f2-8fb7-74601adbe65f"},"vehicle_type_id":"4","last_reported":1732378259,"current_range_meters":39200,"station_id":"ce4bgg92rcd13ifvqb30","pricing_plan_id":"cebpf4jnsgd1na2vs0mg"},{"bike_id":"c2e13c12-68b6-4ca5-a340-49ad27c9757e","system_id":"levelo_inurba_marseille","lat":43.29624,"lon":5.40598,"is_reserved":false,"is_disabled":false,"rental_uris":{"android":"levelo://app?vid=c2e13c12-68b6-4ca5-a340-49ad27c9757e","ios":"levelo://app?vid=c2e13c12-68b6-4ca5-a340-49ad27c9757e"},"vehicle_type_id":"4","last_reported":1732378259,"current_range_meters":34000,"station_id":"ce4bh0h2rcd13ifvqd60","pricing_plan_id":"cebpf4jnsgd1na2vs0mg"},{"bike_id":"1e6adbea-1003-4c41-bf6d-d37d97165c18","system_id":"levelo_inurba_marseille","lat":43.31996,"lon":5.38158,"is_reserved":false,"is_disabled":false,"rental_uris":{"android":"levelo://app?vid=1e6adbea-1003-4c41-bf6d-d37d97165c18","ios":"levelo://app?vid=1e6adbea-1003-4c41-bf6d-d37d97165c18"},"vehicle_type_id":"4","last_reported":1732378259,"current_range_meters":20400,"station_id":"ce4bhr12rcd13ifvqhpg","pricing_plan_id":"cebpf4jnsgd1na2vs0mg"},{"bike_id":"7fb55d12-7815-420d-bec8-3f43ad66836d","system_id":"levelo_inurba_marseille","lat":43.27202,"lon":5.39179,"is_reserved":false,"is_disabled":false,"rental_uris":{"android":"levelo://app?vid=7fb55d12-7815-420d-bec8-3f43ad66836d","ios":"levelo://app?vid=7fb55d12-7815-420d-bec8-3f43ad66836d"},"vehicle_type_id":"4","last_reported":1732378259,"current_range_meters":38800,"station_id":"ce4bhhp2rcd13ifvqfm0","pricing_plan_id":"cebpf4jnsgd1na2vs0mg"},{"bike_id":"7770b1cc-2a54-4d08-8255-6bed2fc397aa","system_id":"levelo_inurba_marseille","lat":43.232,"lon":5.3555,"is_reserved":false,"is_disabled":false,"rental_uris":{"android":"levelo://app?vid=7770b1cc-2a54-4d08-8255-6bed2fc397aa","ios":"levelo://app?vid=7770b1cc-2a54-4d08-8255-6bed2fc397aa"},"vehicle_type_id":"4","last_reported":1732378259,"current_range_meters":3600,"station_id":"ce4bhu92rcd13ifvqi70","pricing_plan_id":"cebpf4jnsgd1na2vs0mg"},{"bike_id":"7f723b0b-cbe8-4f68-b8fe-2ce3d5e983bd","system_id":"levelo_inurba_marseille","lat":43.32101,"lon":5.3678,"is_reserved":false,"is_disabled":true,"rental_uris":{"android":"levelo://app?vid=7f723b0b-cbe8-4f68-b8fe-2ce3d5e983bd","ios":"levelo://app?vid=7f723b0b-cbe8-4f68-b8fe-2ce3d5e983bd"},"vehicle_type_id":"4","last_reported":1732378259,"current_range_meters":34000,"station_id":"","pricing_plan_id":"cebpf4jnsgd1na2vs0mg"},{"bike_id":"14b12e5f-4c89-4660-855f-f09d66e01b05","system_id":"levelo_inurba_marseille","lat":43.29302,"lon":5.37177,"is_reserved":false,"is_disabled":false,"rental_uris":{"android":"levelo://app?vid=14b12e5f-4c89-4660-855f-f09d66e01b05","ios":"levelo://app?vid=14b12e5f-4c89-4660-855f-f09d66e01b05"},"vehicle_type_id":"4","last_reported":1732378259,"current_range_meters":36000,"station_id":"ce4bgh92rcd13ifvqb40","pricing_plan_id":"cebpf4jnsgd1na2vs0mg"},{"bike_id":"306ef5e8-3139-451a-b68e-c9335bb80200","system_id":"levelo_inurba_marseille","lat":43.27313,"lon":5.39083,"is_reserved":false,"is_disabled":false,"rental_uris":{"android":"levelo://app?vid=306ef5e8-3139-451a-b68e-c9335bb80200","ios":"levelo://app?vid=306ef5e8-3139-451a-b68e-c9335bb80200"},"vehicle_type_id":"4","last_reported":1732378259,"current_range_meters":18800,"station_id":"ce4bhgp2rcd13ifvqfe0","pricing_plan_id":"cebpf4jnsgd1na2vs0mg"},{"bike_id":"4fd0c277-6cdc-413d-9dd1-c585e969f2fc","system_id":"levelo_inurba_marseille","lat":43.23153,"lon":5.43713,"is_reserved":false,"is_disabled":false,"rental_uris":{"android":"levelo://app?vid=4fd0c277-6cdc-413d-9dd1-c585e969f2fc","ios":"levelo://app?vid=4fd0c277-6cdc-413d-9dd1-c585e969f2fc"},"vehicle_type_id":"4","last_reported":1732378259,"current_range_meters":4800,"station_id":"ce4bhmp2rcd13ifvqgog","pricing_plan_id":"cebpf4jnsgd1na2vs0mg"},{"bike_id":"cee81c8e-d296-49d5-888a-e371a4863f4e","system_id":"levelo_inurba_marseille","lat":43.25725,"lon":5.41106,"is_reserved":false,"is_disabled":false,"rental_uris":{"android":"levelo://app?vid=cee81c8e-d296-49d5-888a-e371a4863f4e","ios":"levelo://app?vid=cee81c8e-d296-49d5-888a-e371a4863f4e"},"vehicle_type_id":"4","last_reported":1732378259,"current_range_meters":39200,"station_id":"ce4bhkp2rcd13ifvqgd0","pricing_plan_id":"cebpf4jnsgd1na2vs0mg"},{"bike_id":"7e9061cd-5627-407a-8c6f-fcf878e75a40","system_id":"levelo_inurba_marseille","lat":43.27954,"lon":5.41051,"is_reserved":false,"is_disabled":true,"rental_uris":{"android":"levelo://app?vid=7e9061cd-5627-407a-8c6f-fcf878e75a40","ios":"levelo://app?vid=7e9061cd-5627-407a-8c6f-fcf878e75a40"},"vehicle_type_id":"4","last_reported":1732378259,"current_range_meters":17200,"station_id":"ce4bhnp2rcd13ifvqh0g","pricing_plan_id":"cebpf4jnsgd1na2vs0mg"},{"bike_id":"0aa2ee5b-29e3-4db8-9ffd-eb5f7b56cdbc","system_id":"levelo_inurba_marseille","lat":43.27424,"lon":5.39415,"is_reserved":false,"is_disabled":true,"rental_uris":{"android":"levelo://app?vid=0aa2ee5b-29e3-4db8-9ffd-eb5f7b56cdbc","ios":"levelo://app?vid=0aa2ee5b-29e3-4db8-9ffd-eb5f7b56cdbc"},"vehicle_type_id":"4","last_reported":1732378259,"current_range_meters":32800,"station_id":"ce4bhdp2rcd13ifvqf20","pricing_plan_id":"cebpf4jnsgd1na2vs0mg"},{"bike_id":"43eb7303-d80c-491b-a2f3-6366c7854f1b","system_id":"levelo_inurba_marseille","lat":43.26554,"lon":5.37287,"is_reserved":false,"is_disabled":false,"rental_uris":{"android":"levelo://app?vid=43eb7303-d80c-491b-a2f3-6366c7854f1b","ios":"levelo://app?vid=43eb7303-d80c-491b-a2f3-6366c7854f1b"},"vehicle_type_id":"4","last_reported":1732378259,"current_range_meters":38800,"station_id":"ce4bhg12rcd13ifvqf70","pricing_plan_id":"cebpf4jnsgd1na2vs0mg"},{"bike_id":"34ce2636-a271-4156-a90f-8efc4fc87b2b","system_id":"levelo_inurba_marseille","lat":43.26936,"lon":5.38916,"is_reserved":false,"is_disabled":false,"rental_uris":{"android":"levelo://app?vid=34ce2636-a271-4156-a90f-8efc4fc87b2b","ios":"levelo://app?vid=34ce2636-a271-4156-a90f-8efc4fc87b2b"},"vehicle_type_id":"4","last_reported":1732378259,"current_range_meters":36800,"station_id":"ce4bhhh2rcd13ifvqfl0","pricing_plan_id":"cebpf4jnsgd1na2vs0mg"},{"bike_id":"5790b197-07cb-4dd3-942a-13f1722c67d8","system_id":"levelo_inurba_marseille","lat":43.25581,"lon":5.38231,"is_reserved":false,"is_disabled":false,"rental_uris":{"android":"levelo://app?vid=5790b197-07cb-4dd3-942a-13f1722c67d8","ios":"levelo://app?vid=5790b197-07cb-4dd3-942a-13f1722c67d8"},"vehicle_type_id":"4","last_reported":1732378259,"current_range_meters":23200,"station_id":"ce4bhih2rcd13ifvqfs0","pricing_plan_id":"cebpf4jnsgd1na2vs0mg"},{"bike_id":"9411bf75-e8a0-4219-8729-1a34bebdf94d","system_id":"levelo_inurba_marseille","lat":43.27057,"lon":5.40256,"is_reserved":false,"is_disabled":true,"rental_uris":{"android":"levelo://app?vid=9411bf75-e8a0-4219-8729-1a34bebdf94d","ios":"levelo://app?vid=9411bf75-e8a0-4219-8729-1a34bebdf94d"},"vehicle_type_id":"4","last_reported":1732378259,"current_range_meters":0,"station_id":"ce4bhk92rcd13ifvqgc0","pricing_plan_id":"cebpf4jnsgd1na2vs0mg"},{"bike_id":"de21c370-3fbb-4be8-8e93-a8031c3454c0","system_id":"levelo_inurba_marseille","lat":43.29572,"lon":5.375,"is_reserved":false,"is_disabled":false,"rental_uris":{"android":"levelo://app?vid=de21c370-3fbb-4be8-8e93-a8031c3454c0","ios":"levelo://app?vid=de21c370-3fbb-4be8-8e93-a8031c3454c0"},"vehicle_type_id":"4","last_reported":1732378259,"current_range_meters":31200,"station_id":"ce4bgh92rcd13ifvqb50","pricing_plan_id":"cebpf4jnsgd1na2vs0mg"},{"bike_id":"c07acb10-e345-4fca-8a74-4184ef90e69d","system_id":"levelo_inurba_marseille","lat":43.28726,"lon":5.37937,"is_reserved":false,"is_disabled":false,"rental_uris":{"android":"levelo://app?vid=c07acb10-e345-4fca-8a74-4184ef90e69d","ios":"levelo://app?vid=c07acb10-e345-4fca-8a74-4184ef90e69d"},"vehicle_type_id":"4","last_reported":1732378259,"current_range_meters":25200,"station_id":"ce4bh9p2rcd13ifvqec0","pricing_plan_id":"cebpf4jnsgd1na2vs0mg"},{"bike_id":"40c18cd3-c72d-48e2-b684-87f6d0c8281c","system_id":"levelo_inurba_marseille","lat":43.28605,"lon":5.35092,"is_reserved":false,"is_disabled":false,"rental_uris":{"android":"levelo://app?vid=40c18cd3-c72d-48e2-b684-87f6d0c8281c","ios":"levelo://app?vid=40c18cd3-c72d-48e2-b684-87f6d0c8281c"},"vehicle_type_id":"4","last_reported":1732378259,"current_range_meters":38800,"station_id":"ce4bhch2rcd13ifvqeug","pricing_plan_id":"cebpf4jnsgd1na2vs0mg"},{"bike_id":"12a19c10-f897-4c0e-9448-fec8aac092ce","system_id":"levelo_inurba_marseille","lat":43.2583,"lon":5.39439,"is_reserved":false,"is_disabled":true,"rental_uris":{"android":"levelo://app?vid=12a19c10-f897-4c0e-9448-fec8aac092ce","ios":"levelo://app?vid=12a19c10-f897-4c0e-9448-fec8aac092ce"},"vehicle_type_id":"4","last_reported":1732378259,"current_range_meters":6000,"station_id":"ce4bhip2rcd13ifvqft0","pricing_plan_id":"cebpf4jnsgd1na2vs0mg"},{"bike_id":"e25eef18-332f-4018-90c2-f2fc0b468a36","system_id":"levelo_inurba_marseille","lat":43.3204,"lon":5.41565,"is_reserved":false,"is_disabled":false,"rental_uris":{"android":"levelo://app?vid=e25eef18-332f-4018-90c2-f2fc0b468a36","ios":"levelo://app?vid=e25eef18-332f-4018-90c2-f2fc0b468a36"},"vehicle_type_id":"4","last_reported":1732378259,"current_range_meters":39200,"station_id":"ce4bhq92rcd13ifvqhkg","pricing_plan_id":"cebpf4jnsgd1na2vs0mg"},{"bike_id":"4e85fe84-a52c-4b06-bb6f-99e7d7546baa","system_id":"levelo_inurba_marseille","lat":43.32043,"lon":5.41556,"is_reserved":false,"is_disabled":false,"rental_uris":{"android":"levelo://app?vid=4e85fe84-a52c-4b06-bb6f-99e7d7546baa","ios":"levelo://app?vid=4e85fe84-a52c-4b06-bb6f-99e7d7546baa"},"vehicle_type_id":"4","last_reported":1732378259,"current_range_meters":38800,"station_id":"ce4bhq92rcd13ifvqhkg","pricing_plan_id":"cebpf4jnsgd1na2vs0mg"},{"bike_id":"95f67a14-9054-4c4d-ab3d-7d78f1dcf02a","system_id":"levelo_inurba_marseille","lat":43.26686,"lon":5.38274,"is_reserved":false,"is_disabled":false,"rental_uris":{"android":"levelo://app?vid=95f67a14-9054-4c4d-ab3d-7d78f1dcf02a","ios":"levelo://app?vid=95f67a14-9054-4c4d-ab3d-7d78f1dcf02a"},"vehicle_type_id":"4","last_reported":1732378259,"current_range_meters":8000,"station_id":"ce4bhg92rcd13ifvqf90","pricing_plan_id":"cebpf4jnsgd1na2vs0mg"},{"bike_id":"4e50658d-80fd-4ed6-91aa-0958969760d9","system_id":"levelo_inurba_marseille","lat":43.23155,"lon":5.43724,"is_reserved":false,"is_disabled":true,"rental_uris":{"android":"levelo://app?vid=4e50658d-80fd-4ed6-91aa-0958969760d9","ios":"levelo://app?vid=4e50658d-80fd-4ed6-91aa-0958969760d9"},"vehicle_type_id":"4","last_reported":1732378259,"current_range_meters":0,"station_id":"ce4bhmp2rcd13ifvqgog","pricing_plan_id":"cebpf4jnsgd1na2vs0mg"},{"bike_id":"2e672086-ad9a-4eb5-9382-5b6b4d0f96f5","system_id":"levelo_inurba_marseille","lat":43.30461,"lon":5.37904,"is_reserved":false,"is_disabled":false,"rental_uris":{"android":"levelo://app?vid=2e672086-ad9a-4eb5-9382-5b6b4d0f96f5","ios":"levelo://app?vid=2e672086-ad9a-4eb5-9382-5b6b4d0f96f5"},"vehicle_type_id":"4","last_reported":1732378259,"current_range_meters":6400,"station_id":"ce4bgup2rcd13ifvqcn0","pricing_plan_id":"cebpf4jnsgd1na2vs0mg"},{"bike_id":"95fcc105-a543-46aa-aeaa-0aaefefed613","system_id":"levelo_inurba_marseille","lat":43.26668,"lon":5.39469,"is_reserved":false,"is_disabled":false,"rental_uris":{"android":"levelo://app?vid=95fcc105-a543-46aa-aeaa-0aaefefed613","ios":"levelo://app?vid=95fcc105-a543-46aa-aeaa-0aaefefed613"},"vehicle_type_id":"4","last_reported":1732378259,"current_range_meters":21600,"station_id":"ce4bhh92rcd13ifvqfj0","pricing_plan_id":"cebpf4jnsgd1na2vs0mg"},{"bike_id":"b7d8fe14-d2ee-47f3-80c3-0d61d6ac2df9","system_id":"levelo_inurba_marseille","lat":43.28103,"lon":5.37835,"is_reserved":false,"is_disabled":false,"rental_uris":{"android":"levelo://app?vid=b7d8fe14-d2ee-47f3-80c3-0d61d6ac2df9","ios":"levelo://app?vid=b7d8fe14-d2ee-47f3-80c3-0d61d6ac2df9"},"vehicle_type_id":"4","last_reported":1732378259,"current_range_meters":17200,"station_id":"ce4bha12rcd13ifvqee0","pricing_plan_id":"cebpf4jnsgd1na2vs0mg"},{"bike_id":"e60d94ce-0494-4acd-b923-d07747c04ede","system_id":"levelo_inurba_marseille","lat":43.26561,"lon":5.39004,"is_reserved":false,"is_disabled":false,"rental_uris":{"android":"levelo://app?vid=e60d94ce-0494-4acd-b923-d07747c04ede","ios":"levelo://app?vid=e60d94ce-0494-4acd-b923-d07747c04ede"},"vehicle_type_id":"4","last_reported":1732378259,"current_range_meters":31200,"station_id":"ce4bhe12rcd13ifvqf30","pricing_plan_id":"cebpf4jnsgd1na2vs0mg"},{"bike_id":"df544d8f-773d-4cc2-a2bf-5d05612c883d","system_id":"levelo_inurba_marseille","lat":43.30441,"lon":5.38906,"is_reserved":false,"is_disabled":false,"rental_uris":{"android":"levelo://app?vid=df544d8f-773d-4cc2-a2bf-5d05612c883d","ios":"levelo://app?vid=df544d8f-773d-4cc2-a2bf-5d05612c883d"},"vehicle_type_id":"4","last_reported":1732378259,"current_range_meters":34800,"station_id":"ce4bgk12rcd13ifvqbi0","pricing_plan_id":"cebpf4jnsgd1na2vs0mg"},{"bike_id":"ee811421-710d-4547-b6db-ae5165ad14b0","system_id":"levelo_inurba_marseille","lat":43.23957,"lon":5.36633,"is_reserved":false,"is_disabled":false,"rental_uris":{"android":"levelo://app?vid=ee811421-710d-4547-b6db-ae5165ad14b0","ios":"levelo://app?vid=ee811421-710d-4547-b6db-ae5165ad14b0"},"vehicle_type_id":"4","last_reported":1732378259,"current_range_meters":16000,"station_id":"ce4bhi12rcd13ifvqfp0","pricing_plan_id":"cebpf4jnsgd1na2vs0mg"},{"bike_id":"7cc2cbcf-e64e-4747-9f94-e8d4fee51e39","system_id":"levelo_inurba_marseille","lat":43.3091,"lon":5.36842,"is_reserved":false,"is_disabled":false,"rental_uris":{"android":"levelo://app?vid=7cc2cbcf-e64e-4747-9f94-e8d4fee51e39","ios":"levelo://app?vid=7cc2cbcf-e64e-4747-9f94-e8d4fee51e39"},"vehicle_type_id":"4","last_reported":1732378259,"current_range_meters":38000,"station_id":"ce4bgn92rcd13ifvqbvg","pricing_plan_id":"cebpf4jnsgd1na2vs0mg"},{"bike_id":"d6753fee-bec8-4f9f-9fe7-ec2158f25985","system_id":"levelo_inurba_marseille","lat":43.2987,"lon":5.39737,"is_reserved":false,"is_disabled":true,"rental_uris":{"android":"levelo://app?vid=d6753fee-bec8-4f9f-9fe7-ec2158f25985","ios":"levelo://app?vid=d6753fee-bec8-4f9f-9fe7-ec2158f25985"},"vehicle_type_id":"4","last_reported":1732378259,"current_range_meters":800,"station_id":"ce4bh0h2rcd13ifvqd50","pricing_plan_id":"cebpf4jnsgd1na2vs0mg"},