{"last_updated":1698008726,"ttl":30,"version":"2.2","data":{"bikes":[{"bike_id":"03bfbd57-ac78-4754-bf3c-3f3c993d7544","system_id":"levelo_inurba_marseille","lat":43.312341,"lon":5.368529,"is_reserved":false,"is_disabled":false,"rental_uris":{"android":"levelo://app?vid=03bfbd57-ac78-4754-bf3c-3f3c993d7544","ios":"levelo://app?vid=03bfbd57-ac78-4754-bf3c-3f3c993d7544"},"vehicle_type_id":"4","last_reported":1698008726,"current_range_meters":31200,"station_id":"ce4bgl92rcd13ifvqbq0","pricing_plan_id":"free"},{"bike_id":"cc26c0c2-8147-4c14-9654-072c752ea0f1","system_id":"levelo_inurba_marseille","lat":43.312239,"lon":5.368562,"is_reserved":false,"is_disabled":false,"rental_uris":{"android":"levelo://app?vid=cc26c0c2-8147-4c14-9654-072c752ea0f1","ios":"levelo://app?vid=cc26c0c2-8147-4c14-9654-072c752ea0f1"},"vehicle_type_id":"4","last_reported":1698008726,"current_range_meters":31600,"station_id":"ce4bgl92rcd13ifvqbq0","pricing_plan_id":"free"},{"bike_id":"9f872c85-c1e6-4d6d-96e6-60fef345aacb","system_id":"levelo_inurba_marseille","lat":43.312239,"lon":5.368562,"is_reserved":false,"is_disabled":false,"rental_uris":{"android":"levelo://app?vid=9f872c85-c1e6-4d6d-96e6-60fef345aacb","ios":"levelo://app?vid=9f872c85-c1e6-4d6d-96e6-60fef345aacb"},"vehicle_type_id":"4","last_reported":1698008726,"current_range_meters":27200,"station_id":"ce4bgl92rcd13ifvqbq0","pricing_plan_id":"free"},{"bike_id":"88e287c6-ab65-48de-80b6-b0b0b93f0d82","system_id":"levelo_inurba_marseille","lat":43.312115,"lon":5.368624,"is_reserved":false,"is_disabled":false,"rental_uris":{"android":"levelo://app?vid=88e287c6-ab65-48de-80b6-b0b0b93f0d82","ios":"levelo://app?vid=88e287c6-ab65-48de-80b6-b0b0b93f0d82"},"vehicle_type_id":"4","last_reported":1698008726,"current_range_meters":22400,"station_id":"ce4bgl92rcd13ifvqbq0","pricing_plan_id":"free"},{"bike_id":"bbcc2351-d677-4289-8da7-8b8e83fabd35","system_id":"levelo_inurba_marseille","lat":43.309797,"lon":5.368093,"is_reserved":false,"is_disabled":false,"rental_uris":{"android":"levelo://app?vid=bbcc2351-d677-4289-8da7-8b8e83fabd35","ios":"levelo://app?vid=bbcc2351-d677-4289-8da7-8b8e83fabd35"},"vehicle_type_id":"4","last_reported":1698008726,"current_range_meters":14000,"station_id":"ce4bgn92rcd13ifvqbvg","pricing_plan_id":"free"},{"bike_id":"c6c490e3-cc7b-49ee-8547-a9a44c779313","system_id":"levelo_inurba_marseille","lat":43.31533,"lon":5.37188,"is_reserved":false,"is_disabled":false,"rental_uris":{"android":"levelo://app?vid=c6c490e3-cc7b-49ee-8547-a9a44c779313","ios":"levelo://app?vid=c6c490e3-cc7b-49ee-8547-a9a44c779313"},"vehicle_type_id":"4","last_reported":1698008726,"current_range_meters":24400,"station_id":"","pricing_plan_id":"free"},{"bike_id":"46494cf3-810e-46df-8e73-89e4b9e66e1f","system_id":"levelo_inurba_marseille","lat":43.314811,"lon":5.373103,"is_reserved":false,"is_disabled":false,"rental_uris":{"android":"levelo://app?vid=46494cf3-810e-46df-8e73-89e4b9e66e1f","ios":"levelo://app?vid=46494cf3-810e-46df-8e73-89e4b9e66e1f"},"vehicle_type_id":"4","last_reported":1698008726,"current_range_meters":17200,"station_id":"ce4bgt12rcd13ifvqcd0","pricing_plan_id":"free"},{"bike_id":"8c7ec9d6-4d63-48ae-9878-2dbe4125a278","system_id":"levelo_inurba_marseille","lat":43.314811,"lon":5.373103,"is_reserved":false,"is_disabled":false,"rental_uris":{"android":"levelo://app?vid=8c7ec9d6-4d63-48ae-9878-2dbe4125a278","ios":"levelo://app?vid=8c7ec9d6-4d63-48ae-9878-2dbe4125a278"},"vehicle_type_id":"4","last_reported":1698008726,"current_range_meters":0,"station_id":"ce4bgt12rcd13ifvqcd0","pricing_plan_id":"free"},{"bike_id":"e4d21b69-bbfe-44d8-9e77-f27f37c332cf","system_id":"levelo_inurba_marseille","lat":43.309039,"lon":5.371797,"is_reserved":false,"is_disabled":false,"rental_uris":{"android":"levelo://app?vid=e4d21b69-bbfe-44d8-9e77-f27f37c332cf","ios":"levelo://app?vid=e4d21b69-bbfe-44d8-9e77-f27f37c332cf"},"vehicle_type_id":"4","last_reported":1698008726,"current_range_meters":0,"station_id":"ce4bguh2rcd13ifvqckg","pricing_plan_id":"free"},{"bike_id":"d54e792a-a06b-4be4-be49-1b6b0601f912","system_id":"levelo_inurba_marseille","lat":43.30567,"lon":5.36524,"is_reserved":false,"is_disabled":false,"rental_uris":{"android":"levelo://app?vid=d54e792a-a06b-4be4-be49-1b6b0601f912","ios":"levelo://app?vid=d54e792a-a06b-4be4-be49-1b6b0601f912"},"vehicle_type_id":"4","last_reported":1698008726,"current_range_meters":3600,"station_id":"ce4bgs12rcd13ifvqcag","pricing_plan_id":"free"},{"bike_id":"733887d8-76ae-4a2f-9303-f3200a3cf6a0","system_id":"levelo_inurba_marseille","lat":43.305074,"lon":5.366306,"is_reserved":false,"is_disabled":false,"rental_uris":{"android":"levelo://app?vid=733887d8-76ae-4a2f-9303-f3200a3cf6a0","ios":"levelo://app?vid=733887d8-76ae-4a2f-9303-f3200a3cf6a0"},"vehicle_type_id":"4","last_reported":1698008726,"current_range_meters":17600,"station_id":"ce4bgs12rcd13ifvqcag","pricing_plan_id":"free"},{"bike_id":"317223d0-5b78-4814-87f7-e6d6b75791cb","system_id":"levelo_inurba_marseille","lat":43.311125,"lon":5.377624,"is_reserved":false,"is_disabled":false,"rental_uris":{"android":"levelo://app?vid=317223d0-5b78-4814-87f7-e6d6b75791cb","ios":"levelo://app?vid=317223d0-5b78-4814-87f7-e6d6b75791cb"},"vehicle_type_id":"4","last_reported":1698008726,"current_range_meters":26000,"station_id":"ce4bgt92rcd13ifvqcg0","pricing_plan_id":"free"},{"bike_id":"d16e7bf5-dad1-418b-96de-af7e9cf6cb90","system_id":"levelo_inurba_marseille","lat":43.30793,"lon":5.37647,"is_reserved":false,"is_disabled":false,"rental_uris":{"android":"levelo://app?vid=d16e7bf5-dad1-418b-96de-af7e9cf6cb90","ios":"levelo://app?vid=d16e7bf5-dad1-418b-96de-af7e9cf6cb90"},"vehicle_type_id":"4","last_reported":1698008726,"current_range_meters":26000,"station_id":"ce4bgv92rcd13ifvqcq0","pricing_plan_id":"free"},{"bike_id":"6b2f1bae-84c1-4cfa-b934-31a8799497c4","system_id":"levelo_inurba_marseille","lat":43.317075,"lon":5.377367,"is_reserved":false,"is_disabled":false,"rental_uris":{"android":"levelo://app?vid=6b2f1bae-84c1-4cfa-b934-31a8799497c4","ios":"levelo://app?vid=6b2f1bae-84c1-4cfa-b934-31a8799497c4"},"vehicle_type_id":"4","last_reported":1698008726,"current_range_meters":0,"station_id":"ce4bgth2rcd13ifvqch0","pricing_plan_id":"free"},{"bike_id":"4aebd5d1-8623-400f-aba1-dbc6d9badd01","system_id":"levelo_inurba_marseille","lat":43.319825,"lon":5.37434,"is_reserved":false,"is_disabled":false,"rental_uris":{"android":"levelo://app?vid=4aebd5d1-8623-400f-aba1-dbc6d9badd01","ios":"levelo://app?vid=4aebd5d1-8623-400f-aba1-dbc6d9badd01"},"vehicle_type_id":"4","last_reported":1698008726,"current_range_meters":29200,"station_id":"","pricing_plan_id":"free"},{"bike_id":"a8736dc1-ccc4-41cb-90a2-f9bca2c41765","system_id":"levelo_inurba_marseille","lat":43.32199,"lon":5.369275,"is_reserved":false,"is_disabled":false,"rental_uris":{"android":"levelo://app?vid=a8736dc1-ccc4-41cb-90a2-f9bca2c41765","ios":"levelo://app?vid=a8736dc1-ccc4-41cb-90a2-f9bca2c41765"},"vehicle_type_id":"4","last_reported":1698008726,"current_range_meters":0,"station_id":"","pricing_plan_id":"free"},{"bike_id":"e949cf95-afc4-47a7-ac1e-e44f2270f6ad","system_id":"levelo_inurba_marseille","lat":43.303046,"lon":5.368981,"is_reserved":false,"is_disabled":false,"rental_uris":{"android":"levelo://app?vid=e949cf95-afc4-47a7-ac1e-e44f2270f6ad","ios":"levelo://app?vid=e949cf95-afc4-47a7-ac1e-e44f2270f6ad"},"vehicle_type_id":"4","last_reported":1698008726,"current_range_meters":17200,"station_id":"ce4bgqh2rcd13ifvqc5g","pricing_plan_id":"free"},{"bike_id":"bf0ea72c-76e1-461a-a986-80125a201e89","system_id":"levelo_inurba_marseille","lat":43.31534,"lon":5.380253,"is_reserved":false,"is_disabled":false,"rental_uris":{"android":"levelo://app?vid=bf0ea72c-76e1-461a-a986-80125a201e89","ios":"levelo://app?vid=bf0ea72c-76e1-461a-a986-80125a201e89"},"vehicle_type_id":"4","last_reported":1698008726,"current_range_meters":15600,"station_id":"ce4bhsp2rcd13ifvqi50","pricing_plan_id":"free"},{"bike_id":"3ebd17b1-0e9d-4237-a7fc-fd7851f27b6c","system_id":"levelo_inurba_marseille","lat":43.2968,"lon":5.37291,"is_reserved":false,"is_disabled":false,"rental_uris":{"android":"levelo://app?vid=3ebd17b1-0e9d-4237-a7fc-fd7851f27b6c","ios":"levelo://app?vid=3ebd17b1-0e9d-4237-a7fc-fd7851f27b6c"},"vehicle_type_id":"4","last_reported":1698008726,"current_range_meters":15200,"station_id":"ce4bgk12rcd13ifvqbj0","pricing_plan_id":"free"},{"bike_id":"613134ec-a0db-4b6c-b221-146c8f6030d7","system_id":"levelo_inurba_marseille","lat":43.323265,"lon":5.37054,"is_reserved":false,"is_disabled":false,"rental_uris":{"android":"levelo://app?vid=613134ec-a0db-4b6c-b221-146c8f6030d7","ios":"levelo://app?vid=613134ec-a0db-4b6c-b221-146c8f6030d7"},"vehicle_type_id":"4","last_reported":1698008726,"current_range_meters":26800,"station_id":"","pricing_plan_id":"free"},{"bike_id":"04ecd5cc-668c-453a-a1ec-e8af5faf694a","system_id":"levelo_inurba_marseille","lat":43.308007,"lon":5.38142,"is_reserved":false,"is_disabled":false,"rental_uris":{"android":"levelo://app?vid=04ecd5cc-668c-453a-a1ec-e8af5faf694a","ios":"levelo://app?vid=04ecd5cc-668c-453a-a1ec-e8af5faf694a"},"vehicle_type_id":"4","last_reported":1698008726,"current_range_meters":20000,"station_id":"ce4bgt12rcd13ifvqce0","pricing_plan_id":"free"},{"bike_id":"b1d2e7f5-4b73-4b39-bb15-0faea1a42af6","system_id":"levelo_inurba_marseille","lat":43.308009,"lon":5.38154,"is_reserved":false,"is_disabled":false,"rental_uris":{"android":"levelo://app?vid=b1d2e7f5-4b73-4b39-bb15-0faea1a42af6","ios":"levelo://app?vid=b1d2e7f5-4b73-4b39-bb15-0faea1a42af6"},"vehicle_type_id":"4","last_reported":1698008726,"current_range_meters":24000,"station_id":"","pricing_plan_id":"free"},{"bike_id":"6df0396d-132d-4cb0-947f-55b4ba9da63e","system_id":"levelo_inurba_marseille","lat":43.32481,"lon":5.36835,"is_reserved":false,"is_disabled":false,"rental_uris":{"android":"levelo://app?vid=6df0396d-132d-4cb0-947f-55b4ba9da63e","ios":"levelo://app?vid=6df0396d-132d-4cb0-947f-55b4ba9da63e"},"vehicle_type_id":"4","last_reported":1698008726,"current_range_meters":0,"station_id":"","pricing_plan_id":"free"},{"bike_id":"2fe8984f-4595-454f-9562-66e94dba88ee","system_id":"levelo_inurba_marseille","lat":43.32124,"lon":5.3803,"is_reserved":false,"is_disabled":false,"rental_uris":{"android":"levelo://app?vid=2fe8984f-4595-454f-9562-66e94dba88ee","ios":"levelo://app?vid=2fe8984f-4595-454f-9562-66e94dba88ee"},"vehicle_type_id":"4","last_reported":1698008726,"current_range_meters":0,"station_id":"","pricing_plan_id":"free"},{"bike_id":"a46e89a0-78e4-4669-99ff-02c1b3f80d61","system_id":"levelo_inurba_marseille","lat":43.3136,"lon":5.38494,"is_reserved":false,"is_disabled":false,"rental_uris":{"android":"levelo://app?vid=a46e89a0-78e4-4669-99ff-02c1b3f80d61","ios":"levelo://app?vid=a46e89a0-78e4-4669-99ff-02c1b3f80d61"},"vehicle_type_id":"4","last_reported":1698008726,"current_range_meters":0,"station_id":"ce4bgt92rcd13ifvqcf0","pricing_plan_id":"free"},{"bike_id":"c5a075da-2790-4085-9d46-4818076a11ca","system_id":"levelo_inurba_marseille","lat":43.313628,"lon":5.384948,"is_reserved":false,"is_disabled":false,"rental_uris":{"android":"levelo://app?vid=c5a075da-2790-4085-9d46-4818076a11ca","ios":"levelo://app?vid=c5a075da-2790-4085-9d46-4818076a11ca"},"vehicle_type_id":"4","last_reported":1698008726,"current_range_meters":6800,"station_id":"ce4bgt92rcd13ifvqcf0","pricing_plan_id":"free"},{"bike_id":"859fe0c5-878d-4005-af62-06fefab66670","system_id":"levelo_inurba_marseille","lat":43.31371,"lon":5.38497,"is_reserved":false,"is_disabled":false,"rental_uris":{"android":"levelo://app?vid=859fe0c5-878d-4005-af62-06fefab66670","ios":"levelo://app?vid=859fe0c5-878d-4005-af62-06fefab66670"},"vehicle_type_id":"4","last_reported":1698008726,"current_range_meters":24400,"station_id":"ce4bgt92rcd13ifvqcf0","pricing_plan_id":"free"},{"bike_id":"eb2a64f4-9a56-4f34-9b8b-b8d6e1e430c8","system_id":"levelo_inurba_marseille","lat":43.32264,"lon":5.37915,"is_reserved":false,"is_disabled":false,"rental_uris":{"android":"levelo://app?vid=eb2a64f4-9a56-4f34-9b8b-b8d6e1e430c8","ios":"levelo://app?vid=eb2a64f4-9a56-4f34-9b8b-b8d6e1e430c8"},"vehicle_type_id":"4","last_reported":1698008726,"current_range_meters":18400,"station_id":"ce4bgt92rcd13ifvqcf0","pricing_plan_id":"free"},{"bike_id":"7ce42f71-0fc4-4d1d-a9d9-69c6002634e7","system_id":"levelo_inurba_marseille","lat":43.299724,"lon":5.371829,"is_reserved":false,"is_disabled":false,"rental_uris":{"android":"levelo://app?vid=7ce42f71-0fc4-4d1d-a9d9-69c6002634e7","ios":"levelo://app?vid=7ce42f71-0fc4-4d1d-a9d9-69c6002634e7"},"vehicle_type_id":"4","last_reported":1698008726,"current_range_meters":9200,"station_id":"ce4bgr92rcd13ifvqc7g","pricing_plan_id":"free"},{"bike_id":"0eed1805-7c2a-4155-9f3b-f0d54f7087a7","system_id":"levelo_inurba_marseille","lat":43.299259,"lon":5.365483,"is_reserved":false,"is_disabled":false,"rental_uris":{"android":"levelo://app?vid=0eed1805-7c2a-4155-9f3b-f0d54f7087a7","ios":"levelo://app?vid=0eed1805-7c2a-4155-9f3b-f0d54f7087a7"},"vehicle_type_id":"4","last_reported":1698008726,"current_range_meters":0,"station_id":"","pricing_plan_id":"free"},{"bike_id":"ff121eef-c12e-4bb1-982d-bfbd0d03c1d9","system_id":"levelo_inurba_marseille","lat":43.321633,"lon":5.382118,"is_reserved":false,"is_disabled":false,"rental_uris":{"android":"levelo://app?vid=ff121eef-c12e-4bb1-982d-bfbd0d03c1d9","ios":"levelo://app?vid=ff121eef-c12e-4bb1-982d-bfbd0d03c1d9"},"vehicle_type_id":"4","last_reported":1698008726,"current_range_meters":3600,"station_id":"","pricing_plan_id":"free"},{"bike_id":"0aa97447-dd89-4d15-9b8b-09a68b6ea113","system_id":"levelo_inurba_marseille","lat":43.320945,"lon":5.38306,"is_reserved":false,"is_disabled":false,"rental_uris":{"android":"levelo://app?vid=0aa97447-dd89-4d15-9b8b-09a68b6ea113","ios":"levelo://app?vid=0aa97447-dd89-4d15-9b8b-09a68b6ea113"},"vehicle_type_id":"4","last_reported":1698008726,"current_range_meters":15200,"station_id":"","pricing_plan_id":"free"},{"bike_id":"c600443c-fb60-4d43-955a-f1229afff445","system_id":"levelo_inurba_marseille","lat":43.30546,"lon":5.38421,"is_reserved":false,"is_disabled":false,"rental_uris":{"android":"levelo://app?vid=c600443c-fb60-4d43-955a-f1229afff445","ios":"levelo://app?vid=c600443c-fb60-4d43-955a-f1229afff445"},"vehicle_type_id":"4","last_reported":1698008726,"current_range_meters":29600,"station_id":"ce4bgg92rcd13ifvqb30","pricing_plan_id":"free"},{"bike_id":"b56b7ab3-43f6-45cb-a720-ebf4814709bf","system_id":"levelo_inurba_marseille","lat":43.298433,"lon":5.362774,"is_reserved":false,"is_disabled":false,"rental_uris":{"android":"levelo://app?vid=b56b7ab3-43f6-45cb-a720-ebf4814709bf","ios":"levelo://app?vid=b56b7ab3-43f6-45cb-a720-ebf4814709bf"},"vehicle_type_id":"4","last_reported":1698008726,"current_range_meters":10000,"station_id":"ce4bgpp2rcd13ifvqc3g","pricing_plan_id":"free"},{"bike_id":"1b0211b9-81cd-4868-ad32-c42188ec083c","system_id":"levelo_inurba_marseille","lat":43.311722,"lon":5.387247,"is_reserved":false,"is_disabled":false,"rental_uris":{"android":"levelo://app?vid=1b0211b9-81cd-4868-ad32-c42188ec083c","ios":"levelo://app?vid=1b0211b9-81cd-4868-ad32-c42188ec083c"},"vehicle_type_id":"4","last_reported":1698008726,"current_range_meters":6800,"station_id":"ce4bgv12rcd13ifvqcp0","pricing_plan_id":"free"},{"bike_id":"46707535-ab46-4918-88b1-ac79cf0cf628","system_id":"levelo_inurba_marseille","lat":43.31168,"lon":5.38716,"is_reserved":false,"is_disabled":false,"rental_uris":{"android":"levelo://app?vid=46707535-ab46-4918-88b1-ac79cf0cf628","ios":"levelo://app?vid=46707535-ab46-4918-88b1-ac79cf0cf628"},"vehicle_type_id":"4","last_reported":1698008726,"current_range_meters":0,"station_id":"ce4bgvp2rcd13ifvqcu0","pricing_plan_id":"free"},{"bike_id":"bbc7ef35-06d5-4663-a73b-157d92f12437","system_id":"levelo_inurba_marseille","lat":43.299243,"lon":5.374807,"is_reserved":false,"is_disabled":false,"rental_uris":{"android":"levelo://app?vid=bbc7ef35-06d5-4663-a73b-157d92f12437","ios":"levelo://app?vid=bbc7ef35-06d5-4663-a73b-157d92f12437"},"vehicle_type_id":"4","last_reported":1698008726,"current_range_meters":3600,"station_id":"ce4bgjh2rcd13ifvqbg0","pricing_plan_id":"free"},{"bike_id":"16264156-f362-4551-ae2b-4650f86c3049","system_id":"levelo_inurba_marseille","lat":43.322872,"lon":5.382756,"is_reserved":false,"is_disabled":false,"rental_uris":{"android":"levelo://app?vid=16264156-f362-4551-ae2b-4650f86c3049","ios":"levelo://app?vid=16264156-f362-4551-ae2b-4650f86c3049"},"vehicle_type_id":"4","last_reported":1698008726,"current_range_meters":1200,"station_id":"ce4bhr12rcd13ifvqhqg","pricing_plan_id":"free"},{"bike_id":"aaa46958-2564-4e96-8e70-ca4aedf93ce4","system_id":"levelo_inurba_marseille","lat":43.322872,"lon":5.382756,"is_reserved":false,"is_disabled":false,"rental_uris":{"android":"levelo://app?vid=aaa46958-2564-4e96-8e70-ca4aedf93ce4","ios":"levelo://app?vid=aaa46958-2564-4e96-8e70-ca4aedf93ce4"},"vehicle_type_id":"4","last_reported":1698008726,"current_range_meters":30400,"station_id":"ce4bhr12rcd13ifvqhqg","pricing_plan_id":"free"},{"bike_id":"7fc4f594-5780-4f71-94fd-b9130f5aa9b3","system_id":"levelo_inurba_marseille","lat":43.32824,"lon":5.36681,"is_reserved":false,"is_disabled":false,"rental_uris":{"android":"levelo://app?vid=7fc4f594-5780-4f71-94fd-b9130f5aa9b3","ios":"levelo://app?vid=7fc4f594-5780-4f71-94fd-b9130f5aa9b3"},"vehicle_type_id":"4","last_reported":1698008726,"current_range_meters":2400,"station_id":"","pricing_plan_id":"free"},{"bike_id":"65e87260-096b-4c49-bb67-ca04b595885f","system_id":"levelo_inurba_marseille","lat":43.32827,"lon":5.36679,"is_reserved":false,"is_disabled":false,"rental_uris":{"android":"levelo://app?vid=65e87260-096b-4c49-bb67-ca04b595885f","ios":"levelo://app?vid=65e87260-096b-4c49-bb67-ca04b595885f"},"vehicle_type_id":"4","last_reported":1698008726,"current_range_meters":9600,"station_id":"ce4bhs92rcd13ifvqi0g","pricing_plan_id":"free"},{"bike_id":"82fff072-04ad-4fcb-bd9e-ea05f13c0a7d","system_id":"levelo_inurba_marseille","lat":43.3288,"lon":5.36386,"is_reserved":false,"is_disabled":false,"rental_uris":{"android":"levelo://app?vid=82fff072-04ad-4fcb-bd9e-ea05f13c0a7d","ios":"levelo://app?vid=82fff072-04ad-4fcb-bd9e-ea05f13c0a7d"},"vehicle_type_id":"4","last_reported":1698008726,"current_range_meters":0,"station_id":"","pricing_plan_id":"free"},{"bike_id":"3c9a82f9-264b-48b5-9a4e-8b057d4601b3","system_id":"levelo_inurba_marseille","lat":43.32884,"lon":5.36392,"is_reserved":false,"is_disabled":false,"rental_uris":{"android":"levelo://app?vid=3c9a82f9-264b-48b5-9a4e-8b057d4601b3","ios":"levelo://app?vid=3c9a82f9-264b-48b5-9a4e-8b057d4601b3"},"vehicle_type_id":"4","last_reported":1698008726,"current_range_meters":2800,"station_id":"","pricing_plan_id":"free"},{"bike_id":"654ab505-a7c8-4a67-96a3-39916e8262c2","system_id":"levelo_inurba_marseille","lat":43.329113,"lon":5.36637,"is_reserved":false,"is_disabled":false,"rental_uris":{"android":"levelo://app?vid=654ab505-a7c8-4a67-96a3-39916e8262c2","ios":"levelo://app?vid=654ab505-a7c8-4a67-96a3-39916e8262c2"},"vehicle_type_id":"4","last_reported":1698008726,"current_range_meters":24000,"station_id":"","pricing_plan_id":"free"},{"bike_id":"a4b2a7aa-5a0b-442d-8941-0242d4912403","system_id":"levelo_inurba_marseille","lat":43.321297,"lon":5.386527,"is_reserved":false,"is_disabled":false,"rental_uris":{"android":"levelo://app?vid=a4b2a7aa-5a0b-442d-8941-0242d4912403","ios":"levelo://app?vid=a4b2a7aa-5a0b-442d-8941-0242d4912403"},"vehicle_type_id":"4","last_reported":1698008726,"current_range_meters":1600,"station_id":"","pricing_plan_id":"free"},{"bike_id":"ccc2e2c8-7ff6-44fb-9700-f5c1c25d40cb","system_id":"levelo_inurba_marseille","lat":43.329673,"lon":5.365468,"is_reserved":false,"is_disabled":false,"rental_uris":{"android":"levelo://app?vid=ccc2e2c8-7ff6-44fb-9700-f5c1c25d40cb","ios":"levelo://app?vid=ccc2e2c8-7ff6-44fb-9700-f5c1c25d40cb"},"vehicle_type_id":"4","last_reported":1698008726,"current_range_meters":26800,"station_id":"","pricing_plan_id":"free"},{"bike_id":"b2712577-7a6f-41c1-8a3c-14ca50402123","system_id":"levelo_inurba_marseille","lat":43.309589,"lon":5.390258,"is_reserved":false,"is_disabled":false,"rental_uris":{"android":"levelo://app?vid=b2712577-7a6f-41c1-8a3c-14ca50402123","ios":"levelo://app?vid=b2712577-7a6f-41c1-8a3c-14ca50402123"},"vehicle_type_id":"4","last_reported":1698008726,"current_range_meters":6000,"station_id":"ce4bgup2rcd13ifvqco0","pricing_plan_id":"free"},{"bike_id":"b2e3a4a8-ce30-424b-818c-80696bb3911c","system_id":"levelo_inurba_marseille","lat":43.296921,"lon":5.376579,"is_reserved":false,"is_disabled":false,"rental_uris":{"android":"levelo://app?vid=b2e3a4a8-ce30-424b-818c-80696bb3911c","ios":"levelo://app?vid=b2e3a4a8-ce30-424b-818c-80696bb3911c"},"vehicle_type_id":"4","last_reported":1698008726,"current_range_meters":31200,"station_id":"ce4bgkh2rcd13ifvqbl0","pricing_plan_id":"free"},{"bike_id":"8cfa812d-0a3b-4000-8771-4570c3c274c3","system_id":"levelo_inurba_marseille","lat":43.330018,"lon":5.364536,"is_reserved":false,"is_disabled":false,"rental_uris":{"android":"levelo://app?vid=8cfa812d-0a3b-4000-8771-4570c3c274c3","ios":"levelo://app?vid=8cfa812d-0a3b-4000-8771-4570c3c274c3"},"vehicle_type_id":"4","last_reported":1698008726,"current_range_meters":26400,"station_id":"","pricing_plan_id":"free"},{"bike_id":"c5c09262-d83c-4415-91ca-bf27dae3bee1","system_id":"levelo_inurba_marseille","lat":43.317557,"lon":5.390173,"is_reserved":false,"is_disabled":false,"rental_uris":{"android":"levelo://app?vid=c5c09262-d83c-4415-91ca-bf27dae3bee1","ios":"levelo://app?vid=c5c09262-d83c-4415-91ca-bf27dae3bee1"},"vehicle_type_id":"4","last_reported":1698008726,"current_range_meters":3600,"station_id":"ce4bhqp2rcd13ifvqhng","pricing_plan_id":"free"},{"bike_id":"4140f0c8-e6fe-42c0-baaf-b55d6720c7de","system_id":"levelo_inurba_marseille","lat":43.317557,"lon":5.390173,"is_reserved":false,"is_disabled":false,"rental_uris":{"android":"levelo://app?vid=4140f0c8-e6fe-42c0-baaf-b55d6720c7de","ios":"levelo://app?vid=4140f0c8-e6fe-42c0-baaf-b55d6720c7de"},"vehicle_type_id":"4","last_reported":1698008726,"current_range_meters":31600,"station_id":"ce4bhqp2rcd13ifvqhng","pricing_plan_id":"free"},{"bike_id":"871e2695-cbf9-4464-82f5-e96fe2aa5d0e","system_id":"levelo_inurba_marseille","lat":43.317557,"lon":5.390173,"is_reserved":false,"is_disabled":false,"rental_uris":{"android":"levelo://app?vid=871e2695-cbf9-4464-82f5-e96fe2aa5d0e","ios":"levelo://app?vid=871e2695-cbf9-4464-82f5-e96fe2aa5d0e"},"vehicle_type_id":"4","last_reported":1698008726,"current_range_meters":24000,"station_id":"ce4bhqp2rcd13ifvqhng","pricing_plan_id":"free"},{"bike_id":"03c38942-6252-4ea8-a6aa-a6b77370fbf9","system_id":"levelo_inurba_marseille","lat":43.329007,"lon":5.357663,"is_reserved":false,"is_disabled":false,"rental_uris":{"android":"levelo://app?vid=03c38942-6252-4ea8-a6aa-a6b77370fbf9","ios":"levelo://app?vid=03c38942-6252-4ea8-a6aa-a6b77370fbf9"},"vehicle_type_id":"4","last_reported":1698008726,"current_range_meters":2800,"station_id":"","pricing_plan_id":"free"},{"bike_id":"e892d452-7b59-4cf4-a2ef-b8d6a81ed767","system_id":"levelo_inurba_marseille","lat":43.298037,"lon":5.381066,"is_reserved":false,"is_disabled":false,"rental_uris":{"android":"levelo://app?vid=e892d452-7b59-4cf4-a2ef-b8d6a81ed767","ios":"levelo://app?vid=e892d452-7b59-4cf4-a2ef-b8d6a81ed767"},"vehicle_type_id":"4","last_reported":1698008726,"current_range_meters":21200,"station_id":"ce4bgip2rcd13ifvqbb0","pricing_plan_id":"free"},{"bike_id":"3f9b3cb4-cc02-4828-913f-9ec00ec29275","system_id":"levelo_inurba_marseille","lat":43.298037,"lon":5.381066,"is_reserved":false,"is_disabled":false,"rental_uris":{"android":"levelo://app?vid=3f9b3cb4-cc02-4828-913f-9ec00ec29275","ios":"levelo://app?vid=3f9b3cb4-cc02-4828-913f-9ec00ec29275"},"vehicle_type_id":"4","last_reported":1698008726,"current_range_meters":21200,"station_id":"ce4bgip2rcd13ifvqbb0","pricing_plan_id":"free"},{"bike_id":"6ea7f5c1-8fd1-4735-ae4f-7d895f1f0e24","system_id":"levelo_inurba_marseille","lat":43.298037,"lon":5.381066,"is_reserved":false,"is_disabled":false,"rental_uris":{"android":"levelo://app?vid=6ea7f5c1-8fd1-4735-ae4f-7d895f1f0e24","ios":"levelo://app?vid=6ea7f5c1-8fd1-4735-ae4f-7d895f1f0e24"},"vehicle_type_id":"4","last_reported":1698008726,"current_range_meters":20800,"station_id":"ce4bgip2rcd13ifvqbb0","pricing_plan_id":"free"},{"bike_id":"efc66cff-5e46-47b5-b846-864afdd6b291","system_id":"levelo_inurba_marseille","lat":43.329539,"lon":5.376006,"is_reserved":false,"is_disabled":false,"rental_uris":{"android":"levelo://app?vid=efc66cff-5e46-47b5-b846-864afdd6b291","ios":"levelo://app?vid=efc66cff-5e46-47b5-b846-864afdd6b291"},"vehicle_type_id":"4","last_reported":1698008726,"current_range_meters":13200,"station_id":"","pricing_plan_id":"free"},{"bike_id":"ae2bc8c3-c4a6-4ba0-93c8-773f0eded6f1","system_id":"levelo_inurba_marseille","lat":43.304274,"lon":5.388873,"is_reserved":false,"is_disabled":false,"rental_uris":{"android":"levelo://app?vid=ae2bc8c3-c4a6-4ba0-93c8-773f0eded6f1","ios":"levelo://app?vid=ae2bc8c3-c4a6-4ba0-93c8-773f0eded6f1"},"vehicle_type_id":"4","last_reported":1698008726,"current_range_meters":19600,"station_id":"ce4bgk12rcd13ifvqbi0","pricing_plan_id":"free"},{"bike_id":"433ddb51-efbc-4a95-88a4-89fcafcd47ad","system_id":"levelo_inurba_marseille","lat":43.304247,"lon":5.388907,"is_reserved":false,"is_disabled":false,"rental_uris":{"android":"levelo://app?vid=433ddb51-efbc-4a95-88a4-89fcafcd47ad","ios":"levelo://app?vid=433ddb51-efbc-4a95-88a4-89fcafcd47ad"},"vehicle_type_id":"4","last_reported":1698008726,"current_range_meters":0,"station_id":"ce4bgk12rcd13ifvqbi0","pricing_plan_id":"free"},{"bike_id":"f54c6f73-640f-4f99-a2a1-b3ae4e4cc635","system_id":"levelo_inurba_marseille","lat":43.282754,"lon":5.350519,"is_reserved":false,"is_disabled":false,"rental_uris":{"android":"levelo://app?vid=f54c6f73-640f-4f99-a2a1-b3ae4e4cc635","ios":"levelo://app?vid=f54c6f73-640f-4f99-a2a1-b3ae4e4cc635"},"vehicle_type_id":"4","last_reported":1698008726,"current_range_meters":0,"station_id":"ce4bhbp2rcd13ifvqerg","pricing_plan_id":"free"},{"bike_id":"482c3121-b40b-483e-9e9c-931a5bcdcf3f","system_id":"levelo_inurba_marseille","lat":43.29514,"lon":5.374215,"is_reserved":false,"is_disabled":false,"rental_uris":{"android":"levelo://app?vid=482c3121-b40b-483e-9e9c-931a5bcdcf3f","ios":"levelo://app?vid=482c3121-b40b-483e-9e9c-931a5bcdcf3f"},"vehicle_type_id":"4","last_reported":1698008726,"current_range_meters":0,"station_id":"","pricing_plan_id":"free"},{"bike_id":"e8c97296-511e-4ec1-98e2-247748084c63","system_id":"levelo_inurba_marseille","lat":43.299707,"lon":5.384859,"is_reserved":false,"is_disabled":false,"rental_uris":{"android":"levelo://app?vid=e8c97296-511e-4ec1-98e2-247748084c63","ios":"levelo://app?vid=e8c97296-511e-4ec1-98e2-247748084c63"},"vehicle_type_id":"4","last_reported":1698008726,"current_range_meters":1600,"station_id":"ce4bgj92rcd13ifvqbd0","pricing_plan_id":"free"},{"bike_id":"8873021f-bfae-420f-92f7-7abd1dcc9d06","system_id":"levelo_inurba_marseille","lat":43.300852,"lon":5.390859,"is_reserved":false,"is_disabled":false,"rental_uris":{"android":"levelo://app?vid=8873021f-bfae-420f-92f7-7abd1dcc9d06","ios":"levelo://app?vid=8873021f-bfae-420f-92f7-7abd1dcc9d06"},"vehicle_type_id":"4","last_reported":1698008726,"current_range_meters":31200,"station_id":"ce4bh192rcd13ifvqdb0","pricing_plan_id":"free"},{"bike_id":"69e22f2c-0574-40e7-8000-d90ef746287e","system_id":"levelo_inurba_marseille","lat":43.29698,"lon":5.3812,"is_reserved":false,"is_disabled":false,"rental_uris":{"android":"levelo://app?vid=69e22f2c-0574-40e7-8000-d90ef746287e","ios":"levelo://app?vid=69e22f2c-0574-40e7-8000-d90ef746287e"},"vehicle_type_id":"4","last_reported":1698008726,"current_range_meters":16000,"station_id":"","pricing_plan_id":"free"},{"bike_id":"796cab94-416c-4a3c-89ba-a7df71295bd3","system_id":"levelo_inurba_marseille","lat":43.32365,"lon":5.38881,"is_reserved":false,"is_disabled":false,"rental_uris":{"android":"levelo://app?vid=796cab94-416c-4a3c-89ba-a7df71295bd3","ios":"levelo://app?vid=796cab94-416c-4a3c-89ba-a7df71295bd3"},"vehicle_type_id":"4","last_reported":1698008726,"current_range_meters":12400,"station_id":"ce4bhqp2rcd13ifvqhog","pricing_plan_id":"free"},{"bike_id":"6d167bb7-fcde-488d-a731-304a9f8f5fa8","system_id":"levelo_inurba_marseille","lat":43.32365,"lon":5.38882,"is_reserved":false,"is_disabled":false,"rental_uris":{"android":"levelo://app?vid=6d167bb7-fcde-488d-a731-304a9f8f5fa8","ios":"levelo://app?vid=6d167bb7-fcde-488d-a731-304a9f8f5fa8"},"vehicle_type_id":"4","last_reported":1698008726,"current_range_meters":2800,"station_id":"ce4bhqp2rcd13ifvqhog","pricing_plan_id":"free"},{"bike_id":"dd787477-8d86-4061-a28c-fe8e54465838","system_id":"levelo_inurba_marseille","lat":43.32367,"lon":5.388836,"is_reserved":false,"is_disabled":false,"rental_uris":{"android":"levelo://app?vid=dd787477-8d86-4061-a28c-fe8e54465838","ios":"levelo://app?vid=dd787477-8d86-4061-a28c-fe8e54465838"},"vehicle_type_id":"4","last_reported":1698008726,"current_range_meters":400,"station_id":"ce4bhqp2rcd13ifvqhog","pricing_plan_id":"free"},{"bike_id":"c08afdf0-05b9-43c1-b7b4-5890085889b1","system_id":"levelo_inurba_marseille","lat":43.32367,"lon":5.388836,"is_reserved":false,"is_disabled":false,"rental_uris":{"android":"levelo://app?vid=c08afdf0-05b9-43c1-b7b4-5890085889b1","ios":"levelo://app?vid=c08afdf0-05b9-43c1-b7b4-5890085889b1"},"vehicle_type_id":"4","last_reported":1698008726,"current_range_meters":13600,"station_id":"ce4bhqp2rcd13ifvqhog","pricing_plan_id":"free"},{"bike_id":"97d28821-aaae-41ff-80f0-17d23fdb723f","system_id":"levelo_inurba_marseille","lat":43.323688,"lon":5.388973,"is_reserved":false,"is_disabled":false,"rental_uris":{"android":"levelo://app?vid=97d28821-aaae-41ff-80f0-17d23fdb723f","ios":"levelo://app?vid=97d28821-aaae-41ff-80f0-17d23fdb723f"},"vehicle_type_id":"4","last_reported":1698008726,"current_range_meters":2000,"station_id":"","pricing_plan_id":"free"},{"bike_id":"7b4f06b6-3588-48aa-a0c9-e928374d7207","system_id":"levelo_inurba_marseille","lat":43.330632,"lon":5.379508,"is_reserved":false,"is_disabled":false,"rental_uris":{"android":"levelo://app?vid=7b4f06b6-3588-48aa-a0c9-e928374d7207","ios":"levelo://app?vid=7b4f06b6-3588-48aa-a0c9-e928374d7207"},"vehicle_type_id":"4","last_reported":1698008726,"current_range_meters":16800,"station_id":"","pricing_plan_id":"free"},{"bike_id":"f3c0d1ff-1a5a-4a2d-b660-f3a397e82ec8","system_id":"levelo_inurba_marseille","lat":43.29264,"lon":5.3684,"is_reserved":false,"is_disabled":false,"rental_uris":{"android":"levelo://app?vid=f3c0d1ff-1a5a-4a2d-b660-f3a397e82ec8","ios":"levelo://app?vid=f3c0d1ff-1a5a-4a2d-b660-f3a397e82ec8"},"vehicle_type_id":"4","last_reported":1698008726,"current_range_meters":3600,"station_id":"ce4bhbp2rcd13ifvqesg","pricing_plan_id":"free"},{"bike_id":"9840a813-73ed-4acd-8e9f-977a4be87e9c","system_id":"levelo_inurba_marseille","lat":43.29297,"lon":5.374468,"is_reserved":false,"is_disabled":false,"rental_uris":{"android":"levelo://app?vid=9840a813-73ed-4acd-8e9f-977a4be87e9c","ios":"levelo://app?vid=9840a813-73ed-4acd-8e9f-977a4be87e9c"},"vehicle_type_id":"4","last_reported":1698008726,"current_range_meters":0,"station_id":"ce4bgi12rcd13ifvqb70","pricing_plan_id":"free"},{"bike_id":"2cfd85f8-6e87-4523-b4c3-e6ac00cd9406","system_id":"levelo_inurba_marseille","lat":43.33016,"lon":5.38294,"is_reserved":false,"is_disabled":false,"rental_uris":{"android":"levelo://app?vid=2cfd85f8-6e87-4523-b4c3-e6ac00cd9406","ios":"levelo://app?vid=2cfd85f8-6e87-4523-b4c3-e6ac00cd9406"},"vehicle_type_id":"4","last_reported":1698008726,"current_range_meters":11600,"station_id":"","pricing_plan_id":"free"},{"bike_id":"b64897e7-92ef-4d12-8960-2eea0bc7399a","system_id":"levelo_inurba_marseille","lat":43.300852,"lon":5.390859,"is_reserved":false,"is_disabled":false,"rental_uris":{"android":"levelo://app?vid=b64897e7-92ef-4d12-8960-2eea0bc7399a","ios":"levelo://app?vid=b64897e7-92ef-4d12-8960-2eea0bc7399a"},"vehicle_type_id":"4","last_reported":1698008726,"current_range_meters":27600,"station_id":"ce4bh192rcd13ifvqdb0","pricing_plan_id":"free"},{"bike_id":"b048d02d-e8b0-49e9-a9f0-50543b39583f","system_id":"levelo_inurba_marseille","lat":43.30085,"lon":5.390856,"is_reserved":false,"is_disabled":false,"rental_uris":{"android":"levelo://app?vid=b048d02d-e8b0-49e9-a9f0-50543b39583f","ios":"levelo://app?vid=b048d02d-e8b0-49e9-a9f0-50543b39583f"},"vehicle_type_id":"4","last_reported":1698008726,"current_range_meters":30000,"station_id":"ce4bh192rcd13ifvqdb0","pricing_plan_id":"free"},{"bike_id":"2dd25f1a-fbc8-4956-b8f9-1bfc779875da","system_id":"levelo_inurba_marseille","lat":43.29883,"lon":5.389063,"is_reserved":false,"is_disabled":false,"rental_uris":{"android":"levelo://app?vid=2dd25f1a-fbc8-4956-b8f9-1bfc779875da","ios":"levelo://app?vid=2dd25f1a-fbc8-4956-b8f9-1bfc779875da"},"vehicle_type_id":"4","last_reported":1698008726,"current_range_meters":6000,"station_id":"ce4bh392rcd13ifvqdl0","pricing_plan_id":"free"},{"bike_id":"65e2fbaf-c957-4038-9878-e842218be502","system_id":"levelo_inurba_marseille","lat":43.32677,"lon":5.388993,"is_reserved":false,"is_disabled":false,"rental_uris":{"android":"levelo://app?vid=65e2fbaf-c957-4038-9878-e842218be502","ios":"levelo://app?vid=65e2fbaf-c957-4038-9878-e842218be502"},"vehicle_type_id":"4","last_reported":1698008726,"current_range_meters":0,"station_id":"","pricing_plan_id":"free"},{"bike_id":"5af7ad65-0ef6-4952-933f-a3aeb8905c4d","system_id":"levelo_inurba_marseille","lat":43.308819,"lon":5.396287,"is_reserved":false,"is_disabled":false,"rental_uris":{"android":"levelo://app?vid=5af7ad65-0ef6-4952-933f-a3aeb8905c4d","ios":"levelo://app?vid=5af7ad65-0ef6-4952-933f-a3aeb8905c4d"},"vehicle_type_id":"4","last_reported":1698008726,"current_range_meters":5600,"station_id":"ce4bh012rcd13ifvqcv0","pricing_plan_id":"free"},{"bike_id":"24aa667e-d341-4385-996a-c1110fe0801f","system_id":"levelo_inurba_marseille","lat":43.30891,"lon":5.39635,"is_reserved":false,"is_disabled":false,"rental_uris":{"android":"levelo://app?vid=24aa667e-d341-4385-996a-c1110fe0801f","ios":"levelo://app?vid=24aa667e-d341-4385-996a-c1110fe0801f"},"vehicle_type_id":"4","last_reported":1698008726,"current_range_meters":19200,"station_id":"ce4bh012rcd13ifvqcv0","pricing_plan_id":"free"},{"bike_id":"3fdcab7f-b59d-471d-8404-4943601f4a9a","system_id":"levelo_inurba_marseille","lat":43.29188,"lon":5.35819,"is_reserved":false,"is_disabled":false,"rental_uris":{"android":"levelo://app?vid=3fdcab7f-b59d-471d-8404-4943601f4a9a","ios":"levelo://app?vid=3fdcab7f-b59d-471d-8404-4943601f4a9a"},"vehicle_type_id":"4","last_reported":1698008726,"current_range_meters":2000,"station_id":"ce4bhb12rcd13ifvqel0","pricing_plan_id":"free"},{"bike_id":"53c7d975-8db3-456e-9a71-4abb1f925466","system_id":"levelo_inurba_marseille","lat":43.309047,"lon":5.396551,"is_reserved":false,"is_disabled":false,"rental_uris":{"android":"levelo://app?vid=53c7d975-8db3-456e-9a71-4abb1f925466","ios":"levelo://app?vid=53c7d975-8db3-456e-9a71-4abb1f925466"},"vehicle_type_id":"4","last_reported":1698008726,"current_range_meters":28400,"station_id":"ce4bh012rcd13ifvqcv0","pricing_plan_id":"free"},{"bike_id":"9455f3ce-d7be-44b8-88b1-bef97e175356","system_id":"levelo_inurba_marseille","lat":43.309038,"lon":5.396546,"is_reserved":false,"is_disabled":false,"rental_uris":{"android":"levelo://app?vid=9455f3ce-d7be-44b8-88b1-bef97e175356","ios":"levelo://app?vid=9455f3ce-d7be-44b8-88b1-bef97e175356"},"vehicle_type_id":"4","last_reported":1698008726,"current_range_meters":24800,"station_id":"ce4bh012rcd13ifvqcv0","pricing_plan_id":"free"},{"bike_id":"53faad57-24e9-412f-9302-afc09bfff193","system_id":"levelo_inurba_marseille","lat":43.30881,"lon":5.39658,"is_reserved":false,"is_disabled":false,"rental_uris":{"android":"levelo://app?vid=53faad57-24e9-412f-9302-afc09bfff193","ios":"levelo://app?vid=53faad57-24e9-412f-9302-afc09bfff193"},"vehicle_type_id":"4","last_reported":1698008726,"current_range_meters":7600,"station_id":"ce4bh012rcd13ifvqcv0","pricing_plan_id":"free"},{"bike_id":"b37c1134-729d-4871-ba9f-0aac0480d7af","system_id":"levelo_inurba_marseille","lat":43.309038,"lon":5.396546,"is_reserved":false,"is_disabled":false,"rental_uris":{"android":"levelo://app?vid=b37c1134-729d-4871-ba9f-0aac0480d7af","ios":"levelo://app?vid=b37c1134-729d-4871-ba9f-0aac0480d7af"},"vehicle_type_id":"4","last_reported":1698008726,"current_range_meters":7600,"station_id":"ce4bh012rcd13ifvqcv0","pricing_plan_id":"free"},{"bike_id":"ba672ef9-6c65-49bb-9841-5f8ac5cfbdb3","system_id":"levelo_inurba_marseille","lat":43.29535,"lon":5.38551,"is_reserved":false,"is_disabled":false,"rental_uris":{"android":"levelo://app?vid=ba672ef9-6c65-49bb-9841-5f8ac5cfbdb3","ios":"levelo://app?vid=ba672ef9-6c65-49bb-9841-5f8ac5cfbdb3"},"vehicle_type_id":"4","last_reported":1698008726,"current_range_meters":0,"station_id":"ce4bgih2rcd13ifvqba0","pricing_plan_id":"free"},{"bike_id":"6e0edb10-ded6-4eb6-8c43-2a426dbc7c28","system_id":"levelo_inurba_marseille","lat":43.333083,"lon":5.379177,"is_reserved":false,"is_disabled":false,"rental_uris":{"android":"levelo://app?vid=6e0edb10-ded6-4eb6-8c43-2a426dbc7c28","ios":"levelo://app?vid=6e0edb10-ded6-4eb6-8c43-2a426dbc7c28"},"vehicle_type_id":"4","last_reported":1698008726,"current_range_meters":0,"station_id":"ce4bhr12rcd13ifvqhqg","pricing_plan_id":"free"},{"bike_id":"102e38f4-d560-44e1-bff1-5ac802ced13c","system_id":"levelo_inurba_marseille","lat":43.334757,"lon":5.362235,"is_reserved":false,"is_disabled":false,"rental_uris":{"android":"levelo://app?vid=102e38f4-d560-44e1-bff1-5ac802ced13c","ios":"levelo://app?vid=102e38f4-d560-44e1-bff1-5ac802ced13c"},"vehicle_type_id":"4","last_reported":1698008726,"current_range_meters":4400,"station_id":"","pricing_plan_id":"free"},{"bike_id":"b4f8f343-13dd-4d04-bd6a-0336573386bb","system_id":"levelo_inurba_marseille","lat":43.327338,"lon":5.390985,"is_reserved":false,"is_disabled":false,"rental_uris":{"android":"levelo://app?vid=b4f8f343-13dd-4d04-bd6a-0336573386bb","ios":"levelo://app?vid=b4f8f343-13dd-4d04-bd6a-0336573386bb"},"vehicle_type_id":"4","last_reported":1698008726,"current_range_meters":11600,"station_id":"","pricing_plan_id":"free"},{"bike_id":"1fc4f0db-d8b1-4352-aeac-7b2836e2782f","system_id":"levelo_inurba_marseille","lat":43.302008,"lon":5.394694,"is_reserved":false,"is_disabled":false,"rental_uris":{"android":"levelo://app?vid=1fc4f0db-d8b1-4352-aeac-7b2836e2782f","ios":"levelo://app?vid=1fc4f0db-d8b1-4352-aeac-7b2836e2782f"},"vehicle_type_id":"4","last_reported":1698008726,"current_range_meters":24800,"station_id":"ce4bh0p2rcd13ifvqd70","pricing_plan_id":"free"},{"bike_id":"fbe9e9cd-caff-47d1-8df0-f8597aa580e3","system_id":"levelo_inurba_marseille","lat":43.32937,"lon":5.38918,"is_reserved":false,"is_disabled":false,"rental_uris":{"android":"levelo://app?vid=fbe9e9cd-caff-47d1-8df0-f8597aa580e3","ios":"levelo://app?vid=fbe9e9cd-caff-47d1-8df0-f8597aa580e3"},"vehicle_type_id":"4","last_reported":1698008726,"current_range_meters":0,"station_id":"","pricing_plan_id":"free"},{"bike_id":"368c8913-aff8-4f26-bebd-3db9605e6ad2","system_id":"levelo_inurba_marseille","lat":43.2942,"lon":5.38627,"is_reserved":false,"is_disabled":false,"rental_uris":{"android":"levelo://app?vid=368c8913-aff8-4f26-bebd-3db9605e6ad2","ios":"levelo://app?vid=368c8913-aff8-4f26-bebd-3db9605e6ad2"},"vehicle_type_id":"4","last_reported":1698008726,"current_range_meters":0,"station_id":"ce4bh2h2rcd13ifvqdh0","pricing_plan_id":"free"},{"bike_id":"7c1c8c79-e6c2-42cb-82a5-278810daf909","system_id":"levelo_inurba_marseille","lat":43.29416,"lon":5.3862,"is_reserved":false,"is_disabled":false,"rental_uris":{"android":"levelo://app?vid=7c1c8c79-e6c2-42cb-82a5-278810daf909","ios":"levelo://app?vid=7c1c8c79-e6c2-42cb-82a5-278810daf909"},"vehicle_type_id":"4","last_reported":1698008726,"current_range_meters":0,"station_id":"ce4bh2h2rcd13ifvqdh0","pricing_plan_id":"free"},{"bike_id":"bca8c56f-90fc-4bd2-8577-fb7d2044e3b4","system_id":"levelo_inurba_marseille","lat":43.294162,"lon":5.386292,"is_reserved":false,"is_disabled":false,"rental_uris":{"android":"levelo://app?vid=bca8c56f-90fc-4bd2-8577-fb7d2044e3b4","ios":"levelo://app?vid=bca8c56f-90fc-4bd2-8577-fb7d2044e3b4"},"vehicle_type_id":"4","last_reported":1698008726,"current_range_meters":0,"station_id":"ce4bh2h2rcd13ifvqdh0","pricing_plan_id":"free"},{"bike_id":"a14d1882-3858-42bf-90f5-554cc8393afd","system_id":"levelo_inurba_marseille","lat":43.29417,"lon":5.38625,"is_reserved":false,"is_disabled":false,"rental_uris":{"android":"levelo://app?vid=a14d1882-3858-42bf-90f5-554cc8393afd","ios":"levelo://app?vid=a14d1882-3858-42bf-90f5-554cc8393afd"},"vehicle_type_id":"4","last_reported":1698008726,"current_range_meters":0,"station_id":"ce4bh2h2rcd13ifvqdh0","pricing_plan_id":"free"},{"bike_id":"4f607d73-ccf5-4e0a-9ed2-9cb78ae66334","system_id":"levelo_inurba_marseille","lat":43.29419,"lon":5.386305,"is_reserved":false,"is_disabled":false,"rental_uris":{"android":"levelo://app?vid=4f607d73-ccf5-4e0a-9ed2-9cb78ae66334","ios":"levelo://app?vid=4f607d73-ccf5-4e0a-9ed2-9cb78ae66334"},"vehicle_type_id":"4","last_reported":1698008726,"current_range_meters":0,"station_id":"ce4bh2h2rcd13ifvqdh0","pricing_plan_id":"free"},{"bike_id":"016b24b3-d414-404a-83bf-b59c41a83546","system_id":"levelo_inurba_marseille","lat":43.294162,"lon":5.386292,"is_reserved":false,"is_disabled":false,"rental_uris":{"android":"levelo://app?vid=016b24b3-d414-404a-83bf-b59c41a83546","ios":"levelo://app?vid=016b24b3-d414-404a-83bf-b59c41a83546"},"vehicle_type_id":"4","last_reported":1698008726,"current_range_meters":29600,"station_id":"ce4bh2h2rcd13ifvqdh0","pricing_plan_id":"free"},{"bike_id":"1d0fcacf-e724-498b-b2fb-100bacbd6a52","system_id":"levelo_inurba_marseille","lat":43.289378,"lon":5.3664,"is_reserved":false,"is_disabled":false,"rental_uris":{"android":"levelo://app?vid=1d0fcacf-e724-498b-b2fb-100bacbd6a52","ios":"levelo://app?vid=1d0fcacf-e724-498b-b2fb-100bacbd6a52"},"vehicle_type_id":"4","last_reported":1698008726,"current_range_meters":0,"station_id":"ce4bhap2rcd13ifvqek0","pricing_plan_id":"free"},{"bike_id":"91142f1f-fac2-4259-a6eb-b3efa0828d0b","system_id":"levelo_inurba_marseille","lat":43.289184,"lon":5.366408,"is_reserved":false,"is_disabled":false,"rental_uris":{"android":"levelo://app?vid=91142f1f-fac2-4259-a6eb-b3efa0828d0b","ios":"levelo://app?vid=91142f1f-fac2-4259-a6eb-b3efa0828d0b"},"vehicle_type_id":"4","last_reported":1698008726,"current_range_meters":11600,"station_id":"ce4bhap2rcd13ifvqek0","pricing_plan_id":"free"},{"bike_id":"6b30e886-5ecf-45b3-9df1-1820cd23db54","system_id":"levelo_inurba_marseille","lat":43.28946,"lon":5.36381,"is_reserved":false,"is_disabled":false,"rental_uris":{"android":"levelo://app?vid=6b30e886-5ecf-45b3-9df1-1820cd23db54","ios":"levelo://app?vid=6b30e886-5ecf-45b3-9df1-1820cd23db54"},"vehicle_type_id":"4","last_reported":1698008726,"current_range_meters":0,"station_id":"ce4bhc92rcd13ifvqetg","pricing_plan_id":"free"},{"bike_id":"603d890e-def4-4fc6-90c2-a7caeecba1f4","system_id":"levelo_inurba_marseille","lat":43.33022,"lon":5.38927,"is_reserved":false,"is_disabled":false,"rental_uris":{"android":"levelo://app?vid=603d890e-def4-4fc6-90c2-a7caeecba1f4","ios":"levelo://app?vid=603d890e-def4-4fc6-90c2-a7caeecba1f4"},"vehicle_type_id":"4","last_reported":1698008726,"current_range_meters":14000,"station_id":"ce4bhr92rcd13ifvqhrg","pricing_plan_id":"free"},{"bike_id":"b3f1adc4-78b0-4310-8cd1-aa23cf05ee39","system_id":"levelo_inurba_marseille","lat":43.33033,"lon":5.38922,"is_reserved":false,"is_disabled":false,"rental_uris":{"android":"levelo://app?vid=b3f1adc4-78b0-4310-8cd1-aa23cf05ee39","ios":"levelo://app?vid=b3f1adc4-78b0-4310-8cd1-aa23cf05ee39"},"vehicle_type_id":"4","last_reported":1698008726,"current_range_meters":1200,"station_id":"ce4bhr92rcd13ifvqhrg","pricing_plan_id":"free"},{"bike_id":"78830c48-e97f-457b-956b-ff4ed2e6061e","system_id":"levelo_inurba_marseille","lat":43.330843,"lon":5.38911,"is_reserved":false,"is_disabled":false,"rental_uris":{"android":"levelo://app?vid=78830c48-e97f-457b-956b-ff4ed2e6061e","ios":"levelo://app?vid=78830c48-e97f-457b-956b-ff4ed2e6061e"},"vehicle_type_id":"4","last_reported":1698008726,"current_range_meters":0,"station_id":"ce4bhq12rcd13ifvqhhg","pricing_plan_id":"free"},{"bike_id":"5e52f86a-e10d-4fc2-9313-e58c8c94d70a","system_id":"levelo_inurba_marseille","lat":43.331293,"lon":5.388527,"is_reserved":false,"is_disabled":false,"rental_uris":{"android":"levelo://app?vid=5e52f86a-e10d-4fc2-9313-e58c8c94d70a","ios":"levelo://app?vid=5e52f86a-e10d-4fc2-9313-e58c8c94d70a"},"vehicle_type_id":"4","last_reported":1698008726,"current_range_meters":2400,"station_id":"","pricing_plan_id":"free"},{"bike_id":"7a0245d0-aad0-4d5c-97a0-b96de9e0ff33","system_id":"levelo_inurba_marseille","lat":43.297815,"lon":5.393548,"is_reserved":false,"is_disabled":false,"rental_uris":{"android":"levelo://app?vid=7a0245d0-aad0-4d5c-97a0-b96de9e0ff33","ios":"levelo://app?vid=7a0245d0-aad0-4d5c-97a0-b96de9e0ff33"},"vehicle_type_id":"4","last_reported":1698008726,"current_range_meters":7200,"station_id":"chh1huq6cuj3fo74tm60","pricing_plan_id":"free"},{"bike_id":"62a51ee5-1bef-487f-8f12-7cf53d74ac43","system_id":"levelo_inurba_marseille","lat":43.28851,"lon":5.36339,"is_reserved":false,"is_disabled":false,"rental_uris":{"android":"levelo://app?vid=62a51ee5-1bef-487f-8f12-7cf53d74ac43","ios":"levelo://app?vid=62a51ee5-1bef-487f-8f12-7cf53d74ac43"},"vehicle_type_id":"4","last_reported":1698008726,"current_range_meters":0,"station_id":"","pricing_plan_id":"free"},{"bike_id":"4e63de9c-f0e4-4603-892b-3d408ce5cd4a","system_id":"levelo_inurba_marseille","lat":43.29792,"lon":5.393515,"is_reserved":false,"is_disabled":false,"rental_uris":{"android":"levelo://app?vid=4e63de9c-f0e4-4603-892b-3d408ce5cd4a","ios":"levelo://app?vid=4e63de9c-f0e4-4603-892b-3d408ce5cd4a"},"vehicle_type_id":"4","last_reported":1698008726,"current_range_meters":24800,"station_id":"chh1huq6cuj3fo74tm60","pricing_plan_id":"free"},{"bike_id":"eaf59ef7-0695-4e1d-a233-6a675728acdc","system_id":"levelo_inurba_marseille","lat":43.299717,"lon":5.384845,"is_reserved":false,"is_disabled":false,"rental_uris":{"android":"levelo://app?vid=eaf59ef7-0695-4e1d-a233-6a675728acdc","ios":"levelo://app?vid=eaf59ef7-0695-4e1d-a233-6a675728acdc"},"vehicle_type_id":"4","last_reported":1698008726,"current_range_meters":0,"station_id":"ce4bgj92rcd13ifvqbd0","pricing_plan_id":"free"},{"bike_id":"2e5ee300-bf9c-4f7e-bbb1-6d281f1f321c","system_id":"levelo_inurba_marseille","lat":43.29783,"lon":5.39349,"is_reserved":false,"is_disabled":false,"rental_uris":{"android":"levelo://app?vid=2e5ee300-bf9c-4f7e-bbb1-6d281f1f321c","ios":"levelo://app?vid=2e5ee300-bf9c-4f7e-bbb1-6d281f1f321c"},"vehicle_type_id":"4","last_reported":1698008726,"current_range_meters":21600,"station_id":"chh1huq6cuj3fo74tm60","pricing_plan_id":"free"},{"bike_id":"4117bd52-8d70-4d64-941a-6e41fb1f4946","system_id":"levelo_inurba_marseille","lat":43.297815,"lon":5.393548,"is_reserved":false,"is_disabled":false,"rental_uris":{"android":"levelo://app?vid=4117bd52-8d70-4d64-941a-6e41fb1f4946","ios":"levelo://app?vid=4117bd52-8d70-4d64-941a-6e41fb1f4946"},"vehicle_type_id":"4","last_reported":1698008726,"current_range_meters":31600,"station_id":"chh1huq6cuj3fo74tm60","pricing_plan_id":"free"},{"bike_id":"a380b229-d1d3-41e7-bd48-dd11b602513c","system_id":"levelo_inurba_marseille","lat":43.29771,"lon":5.39362,"is_reserved":false,"is_disabled":false,"rental_uris":{"android":"levelo://app?vid=a380b229-d1d3-41e7-bd48-dd11b602513c","ios":"levelo://app?vid=a380b229-d1d3-41e7-bd48-dd11b602513c"},"vehicle_type_id":"4","last_reported":1698008726,"current_range_meters":400,"station_id":"chh1huq6cuj3fo74tm60","pricing_plan_id":"free"},{"bike_id":"b370e1c5-2587-48ec-8dcb-0bdccf28dd0f","system_id":"levelo_inurba_marseille","lat":43.312718,"lon":5.401675,"is_reserved":false,"is_disabled":false,"rental_uris":{"android":"levelo://app?vid=b370e1c5-2587-48ec-8dcb-0bdccf28dd0f","ios":"levelo://app?vid=b370e1c5-2587-48ec-8dcb-0bdccf28dd0f"},"vehicle_type_id":"4","last_reported":1698008726,"current_range_meters":6400,"station_id":"ce4bh092rcd13ifvqd30","pricing_plan_id":"free"},{"bike_id":"e4589a04-c72b-49d7-8606-f5d5e8d507ad","system_id":"levelo_inurba_marseille","lat":43.312703,"lon":5.401707,"is_reserved":false,"is_disabled":false,"rental_uris":{"android":"levelo://app?vid=e4589a04-c72b-49d7-8606-f5d5e8d507ad","ios":"levelo://app?vid=e4589a04-c72b-49d7-8606-f5d5e8d507ad"},"vehicle_type_id":"4","last_reported":1698008726,"current_range_meters":3600,"station_id":"","pricing_plan_id":"free"},{"bike_id":"d7c790d9-19aa-47a3-880c-4fd93d35346b","system_id":"levelo_inurba_marseille","lat":43.309371,"lon":5.401449,"is_reserved":false,"is_disabled":false,"rental_uris":{"android":"levelo://app?vid=d7c790d9-19aa-47a3-880c-4fd93d35346b","ios":"levelo://app?vid=d7c790d9-19aa-47a3-880c-4fd93d35346b"},"vehicle_type_id":"4","last_reported":1698008726,"current_range_meters":11200,"station_id":"ce4bgvp2rcd13ifvqct0","pricing_plan_id":"free"},{"bike_id":"2eca7f12-2ae7-4465-8a30-527b47d19556","system_id":"levelo_inurba_marseille","lat":43.30642,"lon":5.401031,"is_reserved":false,"is_disabled":false,"rental_uris":{"android":"levelo://app?vid=2eca7f12-2ae7-4465-8a30-527b47d19556","ios":"levelo://app?vid=2eca7f12-2ae7-4465-8a30-527b47d19556"},"vehicle_type_id":"4","last_reported":1698008726,"current_range_meters":10800,"station_id":"ce4bh112rcd13ifvqda0","pricing_plan_id":"free"},{"bike_id":"aca10bb8-102f-4396-8fe1-186eec611dd7","system_id":"levelo_inurba_marseille","lat":43.309282,"lon":5.401469,"is_reserved":false,"is_disabled":false,"rental_uris":{"android":"levelo://app?vid=aca10bb8-102f-4396-8fe1-186eec611dd7","ios":"levelo://app?vid=aca10bb8-102f-4396-8fe1-186eec611dd7"},"vehicle_type_id":"4","last_reported":1698008726,"current_range_meters":0,"station_id":"ce4bgvp2rcd13ifvqct0","pricing_plan_id":"free"},{"bike_id":"ce660052-974f-4b4c-a206-d7d70f0fe8c6","system_id":"levelo_inurba_marseille","lat":43.312609,"lon":5.401662,"is_reserved":false,"is_disabled":false,"rental_uris":{"android":"levelo://app?vid=ce660052-974f-4b4c-a206-d7d70f0fe8c6","ios":"levelo://app?vid=ce660052-974f-4b4c-a206-d7d70f0fe8c6"},"vehicle_type_id":"4","last_reported":1698008726,"current_range_meters":8800,"station_id":"ce4bh092rcd13ifvqd30","pricing_plan_id":"free"},{"bike_id":"747ef87c-540e-4458-abc1-957cc4e1026a","system_id":"levelo_inurba_marseille","lat":43.30642,"lon":5.401031,"is_reserved":false,"is_disabled":false,"rental_uris":{"android":"levelo://app?vid=747ef87c-540e-4458-abc1-957cc4e1026a","ios":"levelo://app?vid=747ef87c-540e-4458-abc1-957cc4e1026a"},"vehicle_type_id":"4","last_reported":1698008726,"current_range_meters":0,"station_id":"ce4bh112rcd13ifvqda0","pricing_plan_id":"free"},{"bike_id":"ab40faf5-12c7-4ff2-b369-680d5fa82944","system_id":"levelo_inurba_marseille","lat":43.301323,"lon":5.398737,"is_reserved":false,"is_disabled":false,"rental_uris":{"android":"levelo://app?vid=ab40faf5-12c7-4ff2-b369-680d5fa82944","ios":"levelo://app?vid=ab40faf5-12c7-4ff2-b369-680d5fa82944"},"vehicle_type_id":"4","last_reported":1698008726,"current_range_meters":0,"station_id":"ce4bh0h2rcd13ifvqd40","pricing_plan_id":"free"},{"bike_id":"37c62a3f-b7ae-4462-9847-d7c3a836786d","system_id":"levelo_inurba_marseille","lat":43.28727,"lon":5.36078,"is_reserved":false,"is_disabled":false,"rental_uris":{"android":"levelo://app?vid=37c62a3f-b7ae-4462-9847-d7c3a836786d","ios":"levelo://app?vid=37c62a3f-b7ae-4462-9847-d7c3a836786d"},"vehicle_type_id":"4","last_reported":1698008726,"current_range_meters":0,"station_id":"cki0cbj6b192h4jlfktg","pricing_plan_id":"free"},{"bike_id":"6145442b-befe-41e4-a085-f197c63eea31","system_id":"levelo_inurba_marseille","lat":43.298681,"lon":5.397225,"is_reserved":false,"is_disabled":false,"rental_uris":{"android":"levelo://app?vid=6145442b-befe-41e4-a085-f197c63eea31","ios":"levelo://app?vid=6145442b-befe-41e4-a085-f197c63eea31"},"vehicle_type_id":"4","last_reported":1698008726,"current_range_meters":21200,"station_id":"ce4bh0h2rcd13ifvqd50","pricing_plan_id":"free"},{"bike_id":"e3ce3f00-d52e-48f9-8b3b-46d131ff874f","system_id":"levelo_inurba_marseille","lat":43.286591,"lon":5.363346,"is_reserved":false,"is_disabled":false,"rental_uris":{"android":"levelo://app?vid=e3ce3f00-d52e-48f9-8b3b-46d131ff874f","ios":"levelo://app?vid=e3ce3f00-d52e-48f9-8b3b-46d131ff874f"},"vehicle_type_id":"4","last_reported":1698008726,"current_range_meters":9600,"station_id":"ce4bhah2rcd13ifvqej0","pricing_plan_id":"free"},{"bike_id":"a6d39050-bcdb-4a4c-8683-9fa8f85ad3b9","system_id":"levelo_inurba_marseille","lat":43.25102,"lon":5.403214,"is_reserved":false,"is_disabled":false,"rental_uris":{"android":"levelo://app?vid=a6d39050-bcdb-4a4c-8683-9fa8f85ad3b9","ios":"levelo://app?vid=a6d39050-bcdb-4a4c-8683-9fa8f85ad3b9"},"vehicle_type_id":"4","last_reported":1698008726,"current_range_meters":19200,"station_id":"ce4bhlh2rcd13ifvqgig","pricing_plan_id":"free"},{"bike_id":"0746480c-c462-48a9-bc44-7365673aa634","system_id":"levelo_inurba_marseille","lat":43.298681,"lon":5.397225,"is_reserved":false,"is_disabled":false,"rental_uris":{"android":"levelo://app?vid=0746480c-c462-48a9-bc44-7365673aa634","ios":"levelo://app?vid=0746480c-c462-48a9-bc44-7365673aa634"},"vehicle_type_id":"4","last_reported":1698008726,"current_range_meters":26800,"station_id":"ce4bh0h2rcd13ifvqd50","pricing_plan_id":"free"},{"bike_id":"cb21356e-bb5b-4da6-b525-2b46214ec8fa","system_id":"levelo_inurba_marseille","lat":43.286591,"lon":5.363346,"is_reserved":false,"is_disabled":false,"rental_uris":{"android":"levelo://app?vid=cb21356e-bb5b-4da6-b525-2b46214ec8fa","ios":"levelo://app?vid=cb21356e-bb5b-4da6-b525-2b46214ec8fa"},"vehicle_type_id":"4","last_reported":1698008726,"current_range_meters":24400,"station_id":"ce4bhah2rcd13ifvqej0","pricing_plan_id":"free"},{"bike_id":"896e7472-814a-47f7-ae86-276b3a261d6d","system_id":"levelo_inurba_marseille","lat":43.289353,"lon":5.383937,"is_reserved":false,"is_disabled":false,"rental_uris":{"android":"levelo://app?vid=896e7472-814a-47f7-ae86-276b3a261d6d","ios":"levelo://app?vid=896e7472-814a-47f7-ae86-276b3a261d6d"},"vehicle_type_id":"4","last_reported":1698008726,"current_range_meters":1200,"station_id":"ce4bh612rcd13ifvqe6g","pricing_plan_id":"free"},{"bike_id":"6d437c03-9e21-4900-a24b-06e8b26f0007","system_id":"levelo_inurba_marseille","lat":43.29038,"lon":5.38646,"is_reserved":false,"is_disabled":false,"rental_uris":{"android":"levelo://app?vid=6d437c03-9e21-4900-a24b-06e8b26f0007","ios":"levelo://app?vid=6d437c03-9e21-4900-a24b-06e8b26f0007"},"vehicle_type_id":"4","last_reported":1698008726,"current_range_meters":14000,"station_id":"ce4bh4p2rcd13ifvqe0g","pricing_plan_id":"free"},{"bike_id":"cd524c23-8e03-49b5-9e87-7a247aea0e06","system_id":"levelo_inurba_marseille","lat":43.289189,"lon":5.384018,"is_reserved":false,"is_disabled":false,"rental_uris":{"android":"levelo://app?vid=cd524c23-8e03-49b5-9e87-7a247aea0e06","ios":"levelo://app?vid=cd524c23-8e03-49b5-9e87-7a247aea0e06"},"vehicle_type_id":"4","last_reported":1698008726,"current_range_meters":17600,"station_id":"ce4bh612rcd13ifvqe6g","pricing_plan_id":"free"},{"bike_id":"127985ef-5fd4-4b79-808f-5b62ebbc21c2","system_id":"levelo_inurba_marseille","lat":43.286039,"lon":5.370679,"is_reserved":false,"is_disabled":false,"rental_uris":{"android":"levelo://app?vid=127985ef-5fd4-4b79-808f-5b62ebbc21c2","ios":"levelo://app?vid=127985ef-5fd4-4b79-808f-5b62ebbc21c2"},"vehicle_type_id":"4","last_reported":1698008726,"current_range_meters":5200,"station_id":"ce4bht12rcd13ifvqi60","pricing_plan_id":"free"},{"bike_id":"24a2bc7d-a5ee-4dc4-a215-1c12dd4c5c15","system_id":"levelo_inurba_marseille","lat":43.335307,"lon":5.388143,"is_reserved":false,"is_disabled":false,"rental_uris":{"android":"levelo://app?vid=24a2bc7d-a5ee-4dc4-a215-1c12dd4c5c15","ios":"levelo://app?vid=24a2bc7d-a5ee-4dc4-a215-1c12dd4c5c15"},"vehicle_type_id":"4","last_reported":1698008726,"current_range_meters":13200,"station_id":"","pricing_plan_id":"free"},{"bike_id":"b7765660-80dd-4198-8e67-d3db2866bf84","system_id":"levelo_inurba_marseille","lat":43.285457,"lon":5.369963,"is_reserved":false,"is_disabled":false,"rental_uris":{"android":"levelo://app?vid=b7765660-80dd-4198-8e67-d3db2866bf84","ios":"levelo://app?vid=b7765660-80dd-4198-8e67-d3db2866bf84"},"vehicle_type_id":"4","last_reported":1698008726,"current_range_meters":11600,"station_id":"","pricing_plan_id":"free"},{"bike_id":"a149d710-0518-4756-bec5-5565d7a846fe","system_id":"levelo_inurba_marseille","lat":43.291994,"lon":5.392907,"is_reserved":false,"is_disabled":false,"rental_uris":{"android":"levelo://app?vid=a149d710-0518-4756-bec5-5565d7a846fe","ios":"levelo://app?vid=a149d710-0518-4756-bec5-5565d7a846fe"},"vehicle_type_id":"4","last_reported":1698008726,"current_range_meters":29200,"station_id":"ce4bh192rcd13ifvqdd0","pricing_plan_id":"free"},{"bike_id":"df841797-ce54-48a8-9d76-310abce4e3dd","system_id":"levelo_inurba_marseille","lat":43.291994,"lon":5.392907,"is_reserved":false,"is_disabled":false,"rental_uris":{"android":"levelo://app?vid=df841797-ce54-48a8-9d76-310abce4e3dd","ios":"levelo://app?vid=df841797-ce54-48a8-9d76-310abce4e3dd"},"vehicle_type_id":"4","last_reported":1698008726,"current_range_meters":17600,"station_id":"ce4bh192rcd13ifvqdd0","pricing_plan_id":"free"},{"bike_id":"26127bd2-3e52-427f-aa56-70a6eab54396","system_id":"levelo_inurba_marseille","lat":43.291994,"lon":5.392907,"is_reserved":false,"is_disabled":false,"rental_uris":{"android":"levelo://app?vid=26127bd2-3e52-427f-aa56-70a6eab54396","ios":"levelo://app?vid=26127bd2-3e52-427f-aa56-70a6eab54396"},"vehicle_type_id":"4","last_reported":1698008726,"current_range_meters":20800,"station_id":"ce4bh192rcd13ifvqdd0","pricing_plan_id":"free"},{"bike_id":"2a163d4d-8df1-49a6-87a5-1c4d9306b931","system_id":"levelo_inurba_marseille","lat":43.291994,"lon":5.392907,"is_reserved":false,"is_disabled":false,"rental_uris":{"android":"levelo://app?vid=2a163d4d-8df1-49a6-87a5-1c4d9306b931","ios":"levelo://app?vid=2a163d4d-8df1-49a6-87a5-1c4d9306b931"},"vehicle_type_id":"4","last_reported":1698008726,"current_range_meters":18800,"station_id":"ce4bh192rcd13ifvqdd0","pricing_plan_id":"free"},{"bike_id":"54da937e-3c7c-42d1-9307-bbcc45deba9d","system_id":"levelo_inurba_marseille","lat":43.284538,"lon":5.358657,"is_reserved":false,"is_disabled":false,"rental_uris":{"android":"levelo://app?vid=54da937e-3c7c-42d1-9307-bbcc45deba9d","ios":"levelo://app?vid=54da937e-3c7c-42d1-9307-bbcc45deba9d"},"vehicle_type_id":"4","last_reported":1698008726,"current_range_meters":2000,"station_id":"ce4bhah2rcd13ifvqei0","pricing_plan_id":"free"},{"bike_id":"3041b700-81b6-4ada-810a-3066eedace0d","system_id":"levelo_inurba_marseille","lat":43.294314,"lon":5.397498,"is_reserved":false,"is_disabled":false,"rental_uris":{"android":"levelo://app?vid=3041b700-81b6-4ada-810a-3066eedace0d","ios":"levelo://app?vid=3041b700-81b6-4ada-810a-3066eedace0d"},"vehicle_type_id":"4","last_reported":1698008726,"current_range_meters":25200,"station_id":"ce4bh3h2rcd13ifvqdo0","pricing_plan_id":"free"},{"bike_id":"ec368803-100f-4c2c-9a76-d09af30aadb0","system_id":"levelo_inurba_marseille","lat":43.284538,"lon":5.358657,"is_reserved":false,"is_disabled":false,"rental_uris":{"android":"levelo://app?vid=ec368803-100f-4c2c-9a76-d09af30aadb0","ios":"levelo://app?vid=ec368803-100f-4c2c-9a76-d09af30aadb0"},"vehicle_type_id":"4","last_reported":1698008726,"current_range_meters":4400,"station_id":"ce4bhah2rcd13ifvqei0","pricing_plan_id":"free"},{"bike_id":"29ffdd63-2d0b-4d57-b20f-bc8054465f9d","system_id":"levelo_inurba_marseille","lat":43.294314,"lon":5.397498,"is_reserved":false,"is_disabled":false,"rental_uris":{"android":"levelo://app?vid=29ffdd63-2d0b-4d57-b20f-bc8054465f9d","ios":"levelo://app?vid=29ffdd63-2d0b-4d57-b20f-bc8054465f9d"},"vehicle_type_id":"4","last_reported":1698008726,"current_range_meters":1200,"station_id":"ce4bh3h2rcd13ifvqdo0","pricing_plan_id":"free"},{"bike_id":"7bdad6b4-b93e-4aee-8fe8-330c9261843c","system_id":"levelo_inurba_marseille","lat":43.294314,"lon":5.397498,"is_reserved":false,"is_disabled":false,"rental_uris":{"android":"levelo://app?vid=7bdad6b4-b93e-4aee-8fe8-330c9261843c","ios":"levelo://app?vid=7bdad6b4-b93e-4aee-8fe8-330c9261843c"},"vehicle_type_id":"4","last_reported":1698008726,"current_range_meters":25600,"station_id":"ce4bh3h2rcd13ifvqdo0","pricing_plan_id":"free"},{"bike_id":"9911a2f4-ec36-4f71-be4c-a90139d687b3","system_id":"levelo_inurba_marseille","lat":43.284534,"lon":5.358662,"is_reserved":false,"is_disabled":false,"rental_uris":{"android":"levelo://app?vid=9911a2f4-ec36-4f71-be4c-a90139d687b3","ios":"levelo://app?vid=9911a2f4-ec36-4f71-be4c-a90139d687b3"},"vehicle_type_id":"4","last_reported":1698008726,"current_range_meters":1200,"station_id":"ce4bhah2rcd13ifvqei0","pricing_plan_id":"free"},{"bike_id":"056c1aae-7313-4ffa-a411-c526bcc09679","system_id":"levelo_inurba_marseille","lat":43.284534,"lon":5.358662,"is_reserved":false,"is_disabled":false,"rental_uris":{"android":"levelo://app?vid=056c1aae-7313-4ffa-a411-c526bcc09679","ios":"levelo://app?vid=056c1aae-7313-4ffa-a411-c526bcc09679"},"vehicle_type_id":"4","last_reported":1698008726,"current_range_meters":16400,"station_id":"ce4bhah2rcd13ifvqei0","pricing_plan_id":"free"},{"bike_id":"69711b64-6a3b-446e-aa07-077b6246d471","system_id":"levelo_inurba_marseille","lat":43.294314,"lon":5.397498,"is_reserved":false,"is_disabled":false,"rental_uris":{"android":"levelo://app?vid=69711b64-6a3b-446e-aa07-077b6246d471","ios":"levelo://app?vid=69711b64-6a3b-446e-aa07-077b6246d471"},"vehicle_type_id":"4","last_reported":1698008726,"current_range_meters":19200,"station_id":"ce4bh3h2rcd13ifvqdo0","pricing_plan_id":"free"},{"bike_id":"1e5f3807-7b20-4a91-ae31-4ed9f335f703","system_id":"levelo_inurba_marseille","lat":43.283998,"lon":5.375062,"is_reserved":false,"is_disabled":false,"rental_uris":{"android":"levelo://app?vid=1e5f3807-7b20-4a91-ae31-4ed9f335f703","ios":"levelo://app?vid=1e5f3807-7b20-4a91-ae31-4ed9f335f703"},"vehicle_type_id":"4","last_reported":1698008726,"current_range_meters":9200,"station_id":"ce4bh412rcd13ifvqds0","pricing_plan_id":"free"},{"bike_id":"5f9dc5dd-b170-4efa-8bdf-4cab504e2962","system_id":"levelo_inurba_marseille","lat":43.283998,"lon":5.375062,"is_reserved":false,"is_disabled":false,"rental_uris":{"android":"levelo://app?vid=5f9dc5dd-b170-4efa-8bdf-4cab504e2962","ios":"levelo://app?vid=5f9dc5dd-b170-4efa-8bdf-4cab504e2962"},"vehicle_type_id":"4","last_reported":1698008726,"current_range_meters":8400,"station_id":"ce4bh412rcd13ifvqds0","pricing_plan_id":"free"},{"bike_id":"e7e6dad7-4eeb-48f3-9bac-b1c20927830c","system_id":"levelo_inurba_marseille","lat":43.295713,"lon":5.399639,"is_reserved":false,"is_disabled":false,"rental_uris":{"android":"levelo://app?vid=e7e6dad7-4eeb-48f3-9bac-b1c20927830c","ios":"levelo://app?vid=e7e6dad7-4eeb-48f3-9bac-b1c20927830c"},"vehicle_type_id":"4","last_reported":1698008726,"current_range_meters":29200,"station_id":"ce4bh312rcd13ifvqdj0","pricing_plan_id":"free"},{"bike_id":"9565b157-6805-4c82-943a-2146e9ddfa5b","system_id":"levelo_inurba_marseille","lat":43.295713,"lon":5.399639,"is_reserved":false,"is_disabled":false,"rental_uris":{"android":"levelo://app?vid=9565b157-6805-4c82-943a-2146e9ddfa5b","ios":"levelo://app?vid=9565b157-6805-4c82-943a-2146e9ddfa5b"},"vehicle_type_id":"4","last_reported":1698008726,"current_range_meters":28800,"station_id":"ce4bh312rcd13ifvqdj0","pricing_plan_id":"free"},{"bike_id":"03c3d640-5a00-4ed0-8259-b3fffc9ba244","system_id":"levelo_inurba_marseille","lat":43.29566,"lon":5.399748,"is_reserved":false,"is_disabled":false,"rental_uris":{"android":"levelo://app?vid=03c3d640-5a00-4ed0-8259-b3fffc9ba244","ios":"levelo://app?vid=03c3d640-5a00-4ed0-8259-b3fffc9ba244"},"vehicle_type_id":"4","last_reported":1698008726,"current_range_meters":0,"station_id":"ce4bh312rcd13ifvqdj0","pricing_plan_id":"free"},{"bike_id":"aaa81be9-673a-4ef8-932a-c45c210946ec","system_id":"levelo_inurba_marseille","lat":43.28674,"lon":5.386655,"is_reserved":false,"is_disabled":false,"rental_uris":{"android":"levelo://app?vid=aaa81be9-673a-4ef8-932a-c45c210946ec","ios":"levelo://app?vid=aaa81be9-673a-4ef8-932a-c45c210946ec"},"vehicle_type_id":"4","last_reported":1698008726,"current_range_meters":0,"station_id":"ce4bh492rcd13ifvqdug","pricing_plan_id":"free"},{"bike_id":"dbef50f6-f7c1-4f51-83de-376af45968a1","system_id":"levelo_inurba_marseille","lat":43.33717,"lon":5.391857,"is_reserved":false,"is_disabled":false,"rental_uris":{"android":"levelo://app?vid=dbef50f6-f7c1-4f51-83de-376af45968a1","ios":"levelo://app?vid=dbef50f6-f7c1-4f51-83de-376af45968a1"},"vehicle_type_id":"4","last_reported":1698008726,"current_range_meters":28000,"station_id":"ce4bhr92rcd13ifvqhsg","pricing_plan_id":"free"},{"bike_id":"48a2d742-773d-4ca5-a149-b462897a4fa8","system_id":"levelo_inurba_marseille","lat":43.323464,"lon":5.406297,"is_reserved":false,"is_disabled":false,"rental_uris":{"android":"levelo://app?vid=48a2d742-773d-4ca5-a149-b462897a4fa8","ios":"levelo://app?vid=48a2d742-773d-4ca5-a149-b462897a4fa8"},"vehicle_type_id":"4","last_reported":1698008726,"current_range_meters":30400,"station_id":"ce4bhq92rcd13ifvqhjg","pricing_plan_id":"free"},{"bike_id":"146d70c3-1033-43bd-97bd-5b2e2ee2639a","system_id":"levelo_inurba_marseille","lat":43.33717,"lon":5.391857,"is_reserved":false,"is_disabled":false,"rental_uris":{"android":"levelo://app?vid=146d70c3-1033-43bd-97bd-5b2e2ee2639a","ios":"levelo://app?vid=146d70c3-1033-43bd-97bd-5b2e2ee2639a"},"vehicle_type_id":"4","last_reported":1698008726,"current_range_meters":31200,"station_id":"ce4bhr92rcd13ifvqhsg","pricing_plan_id":"free"},{"bike_id":"917f3b1e-9c3d-44da-8ef3-f05244700836","system_id":"levelo_inurba_marseille","lat":43.323464,"lon":5.406297,"is_reserved":false,"is_disabled":false,"rental_uris":{"android":"levelo://app?vid=917f3b1e-9c3d-44da-8ef3-f05244700836","ios":"levelo://app?vid=917f3b1e-9c3d-44da-8ef3-f05244700836"},"vehicle_type_id":"4","last_reported":1698008726,"current_range_meters":6400,"station_id":"ce4bhq92rcd13ifvqhjg","pricing_plan_id":"free"},{"bike_id":"430f1eda-985a-49d4-89b8-72366cc921ca","system_id":"levelo_inurba_marseille","lat":43.33332,"lon":5.39849,"is_reserved":false,"is_disabled":false,"rental_uris":{"android":"levelo://app?vid=430f1eda-985a-49d4-89b8-72366cc921ca","ios":"levelo://app?vid=430f1eda-985a-49d4-89b8-72366cc921ca"},"vehicle_type_id":"4","last_reported":1698008726,"current_range_meters":0,"station_id":"","pricing_plan_id":"free"},{"bike_id":"d9b8e566-b357-45c6-900c-dd1cb173cda9","system_id":"levelo_inurba_marseille","lat":43.28848,"lon":5.39322,"is_reserved":false,"is_disabled":false,"rental_uris":{"android":"levelo://app?vid=d9b8e566-b357-45c6-900c-dd1cb173cda9","ios":"levelo://app?vid=d9b8e566-b357-45c6-900c-dd1cb173cda9"},"vehicle_type_id":"4","last_reported":1698008726,"current_range_meters":24000,"station_id":"ce4bh2p2rcd13ifvqdi0","pricing_plan_id":"free"},{"bike_id":"cc1e47cf-8950-46a5-8016-2fa244361252","system_id":"levelo_inurba_marseille","lat":43.334129,"lon":5.397588,"is_reserved":false,"is_disabled":false,"rental_uris":{"android":"levelo://app?vid=cc1e47cf-8950-46a5-8016-2fa244361252","ios":"levelo://app?vid=cc1e47cf-8950-46a5-8016-2fa244361252"},"vehicle_type_id":"4","last_reported":1698008726,"current_range_meters":11200,"station_id":"","pricing_plan_id":"free"},{"bike_id":"4466f92c-3384-4601-9c90-c073926057e3","system_id":"levelo_inurba_marseille","lat":43.288501,"lon":5.393087,"is_reserved":false,"is_disabled":false,"rental_uris":{"android":"levelo://app?vid=4466f92c-3384-4601-9c90-c073926057e3","ios":"levelo://app?vid=4466f92c-3384-4601-9c90-c073926057e3"},"vehicle_type_id":"4","last_reported":1698008726,"current_range_meters":0,"station_id":"ce4bh2p2rcd13ifvqdi0","pricing_plan_id":"free"},{"bike_id":"1fa9019d-67b7-46ab-a857-496c2588b1ae","system_id":"levelo_inurba_marseille","lat":43.288501,"lon":5.393087,"is_reserved":false,"is_disabled":false,"rental_uris":{"android":"levelo://app?vid=1fa9019d-67b7-46ab-a857-496c2588b1ae","ios":"levelo://app?vid=1fa9019d-67b7-46ab-a857-496c2588b1ae"},"vehicle_type_id":"4","last_reported":1698008726,"current_range_meters":5600,"station_id":"ce4bh2p2rcd13ifvqdi0","pricing_plan_id":"free"},{"bike_id":"ab51481c-c253-4695-ae26-9aab8b8aeabb","system_id":"levelo_inurba_marseille","lat":43.2882,"lon":5.39324,"is_reserved":false,"is_disabled":false,"rental_uris":{"android":"levelo://app?vid=ab51481c-c253-4695-ae26-9aab8b8aeabb","ios":"levelo://app?vid=ab51481c-c253-4695-ae26-9aab8b8aeabb"},"vehicle_type_id":"4","last_reported":1698008726,"current_range_meters":0,"station_id":"ce4bh2p2rcd13ifvqdi0","pricing_plan_id":"free"},{"bike_id":"dd1f501b-235b-4a39-a6de-9a63f82a786a","system_id":"levelo_inurba_marseille","lat":43.324401,"lon":5.407461,"is_reserved":false,"is_disabled":false,"rental_uris":{"android":"levelo://app?vid=dd1f501b-235b-4a39-a6de-9a63f82a786a","ios":"levelo://app?vid=dd1f501b-235b-4a39-a6de-9a63f82a786a"},"vehicle_type_id":"4","last_reported":1698008726,"current_range_meters":3200,"station_id":"","pricing_plan_id":"free"},{"bike_id":"d2f1fa2d-ad0d-47bb-8b6a-1119dade3aa9","system_id":"levelo_inurba_marseille","lat":43.32871,"lon":5.40509,"is_reserved":false,"is_disabled":false,"rental_uris":{"android":"levelo://app?vid=d2f1fa2d-ad0d-47bb-8b6a-1119dade3aa9","ios":"levelo://app?vid=d2f1fa2d-ad0d-47bb-8b6a-1119dade3aa9"},"vehicle_type_id":"4","last_reported":1698008726,"current_range_meters":0,"station_id":"","pricing_plan_id":"free"},{"bike_id":"eb028789-5112-4418-bf32-c34e8611be70","system_id":"levelo_inurba_marseille","lat":43.29041,"lon":5.399634,"is_reserved":false,"is_disabled":false,"rental_uris":{"android":"levelo://app?vid=eb028789-5112-4418-bf32-c34e8611be70","ios":"levelo://app?vid=eb028789-5112-4418-bf32-c34e8611be70"},"vehicle_type_id":"4","last_reported":1698008726,"current_range_meters":21600,"station_id":"ce4bh392rcd13ifvqdm0","pricing_plan_id":"free"},{"bike_id":"96f3bcd3-a681-4143-bbd4-2e91dcfd1898","system_id":"levelo_inurba_marseille","lat":43.283502,"lon":5.386471,"is_reserved":false,"is_disabled":false,"rental_uris":{"android":"levelo://app?vid=96f3bcd3-a681-4143-bbd4-2e91dcfd1898","ios":"levelo://app?vid=96f3bcd3-a681-4143-bbd4-2e91dcfd1898"},"vehicle_type_id":"4","last_reported":1698008726,"current_range_meters":15200,"station_id":"ce4bh492rcd13ifvqdvg","pricing_plan_id":"free"},{"bike_id":"77a777eb-3c97-4991-a45f-7b850943ae1a","system_id":"levelo_inurba_marseille","lat":43.336569,"lon":5.398701,"is_reserved":false,"is_disabled":false,"rental_uris":{"android":"levelo://app?vid=77a777eb-3c97-4991-a45f-7b850943ae1a","ios":"levelo://app?vid=77a777eb-3c97-4991-a45f-7b850943ae1a"},"vehicle_type_id":"4","last_reported":1698008726,"current_range_meters":9600,"station_id":"","pricing_plan_id":"free"},{"bike_id":"77039883-5d72-42f7-996f-1a646fe37ac3","system_id":"levelo_inurba_marseille","lat":43.325955,"lon":5.409314,"is_reserved":false,"is_disabled":false,"rental_uris":{"android":"levelo://app?vid=77039883-5d72-42f7-996f-1a646fe37ac3","ios":"levelo://app?vid=77039883-5d72-42f7-996f-1a646fe37ac3"},"vehicle_type_id":"4","last_reported":1698008726,"current_range_meters":0,"station_id":"","pricing_plan_id":"free"},{"bike_id":"9b3677db-ecf2-4a0a-8190-96941682e141","system_id":"levelo_inurba_marseille","lat":43.284462,"lon":5.392121,"is_reserved":false,"is_disabled":false,"rental_uris":{"android":"levelo://app?vid=9b3677db-ecf2-4a0a-8190-96941682e141","ios":"levelo://app?vid=9b3677db-ecf2-4a0a-8190-96941682e141"},"vehicle_type_id":"4","last_reported":1698008726,"current_range_meters":13200,"station_id":"ce4bhoh2rcd13ifvqh5g","pricing_plan_id":"free"},{"bike_id":"6bd5b0b9-8310-4437-96dd-a3a9dbee3da6","system_id":"levelo_inurba_marseille","lat":43.32632,"lon":5.40958,"is_reserved":false,"is_disabled":false,"rental_uris":{"android":"levelo://app?vid=6bd5b0b9-8310-4437-96dd-a3a9dbee3da6","ios":"levelo://app?vid=6bd5b0b9-8310-4437-96dd-a3a9dbee3da6"},"vehicle_type_id":"4","last_reported":1698008726,"current_range_meters":7200,"station_id":"ce4bhpp2rcd13ifvqhgg","pricing_plan_id":"free"},{"bike_id":"cc172e4c-82bf-4ff6-a796-c5ee61c41351","system_id":"levelo_inurba_marseille","lat":43.285742,"lon":5.395004,"is_reserved":false,"is_disabled":false,"rental_uris":{"android":"levelo://app?vid=cc172e4c-82bf-4ff6-a796-c5ee61c41351","ios":"levelo://app?vid=cc172e4c-82bf-4ff6-a796-c5ee61c41351"},"vehicle_type_id":"4","last_reported":1698008726,"current_range_meters":16000,"station_id":"ce4bh292rcd13ifvqdg0","pricing_plan_id":"free"},{"bike_id":"b4613750-a24e-49af-b793-06f35961f8df","system_id":"levelo_inurba_marseille","lat":43.28573,"lon":5.394992,"is_reserved":false,"is_disabled":false,"rental_uris":{"android":"levelo://app?vid=b4613750-a24e-49af-b793-06f35961f8df","ios":"levelo://app?vid=b4613750-a24e-49af-b793-06f35961f8df"},"vehicle_type_id":"4","last_reported":1698008726,"current_range_meters":20400,"station_id":"ce4bh292rcd13ifvqdg0","pricing_plan_id":"free"},{"bike_id":"8ca4883c-8657-4b1c-8e3e-4082bbfefc0f","system_id":"levelo_inurba_marseille","lat":43.28573,"lon":5.394992,"is_reserved":false,"is_disabled":false,"rental_uris":{"android":"levelo://app?vid=8ca4883c-8657-4b1c-8e3e-4082bbfefc0f","ios":"levelo://app?vid=8ca4883c-8657-4b1c-8e3e-4082bbfefc0f"},"vehicle_type_id":"4","last_reported":1698008726,"current_range_meters":20400,"station_id":"ce4bh292rcd13ifvqdg0","pricing_plan_id":"free"},{"bike_id":"df9a6da5-3d0d-4584-ad2f-5748ef40f2b8","system_id":"levelo_inurba_marseille","lat":43.285742,"lon":5.395004,"is_reserved":false,"is_disabled":false,"rental_uris":{"android":"levelo://app?vid=df9a6da5-3d0d-4584-ad2f-5748ef40f2b8","ios":"levelo://app?vid=df9a6da5-3d0d-4584-ad2f-5748ef40f2b8"},"vehicle_type_id":"4","last_reported":1698008726,"current_range_meters":10400,"station_id":"ce4bh292rcd13ifvqdg0","pricing_plan_id":"free"},{"bike_id":"1cae8170-40c9-494e-8ae7-9d19bf8ba5d9","system_id":"levelo_inurba_marseille","lat":43.327747,"lon":5.408848,"is_reserved":false,"is_disabled":false,"rental_uris":{"android":"levelo://app?vid=1cae8170-40c9-494e-8ae7-9d19bf8ba5d9","ios":"levelo://app?vid=1cae8170-40c9-494e-8ae7-9d19bf8ba5d9"},"vehicle_type_id":"4","last_reported":1698008726,"current_range_meters":13200,"station_id":"","pricing_plan_id":"free"},{"bike_id":"4f65bb35-50b6-4af2-8833-7e01a39fe34a","system_id":"levelo_inurba_marseille","lat":43.28194,"lon":5.38897,"is_reserved":false,"is_disabled":false,"rental_uris":{"android":"levelo://app?vid=4f65bb35-50b6-4af2-8833-7e01a39fe34a","ios":"levelo://app?vid=4f65bb35-50b6-4af2-8833-7e01a39fe34a"},"vehicle_type_id":"4","last_reported":1698008726,"current_range_meters":2800,"station_id":"","pricing_plan_id":"free"},{"bike_id":"1d7549ce-f4b1-41d5-97fc-dd5dc21be6cc","system_id":"levelo_inurba_marseille","lat":43.287154,"lon":5.399979,"is_reserved":false,"is_disabled":false,"rental_uris":{"android":"levelo://app?vid=1d7549ce-f4b1-41d5-97fc-dd5dc21be6cc","ios":"levelo://app?vid=1d7549ce-f4b1-41d5-97fc-dd5dc21be6cc"},"vehicle_type_id":"4","last_reported":1698008726,"current_range_meters":30800,"station_id":"ce4bho92rcd13ifvqh3g","pricing_plan_id":"free"},{"bike_id":"a231dca1-b49e-465f-bd14-98771991bbd2","system_id":"levelo_inurba_marseille","lat":43.287154,"lon":5.399979,"is_reserved":false,"is_disabled":false,"rental_uris":{"android":"levelo://app?vid=a231dca1-b49e-465f-bd14-98771991bbd2","ios":"levelo://app?vid=a231dca1-b49e-465f-bd14-98771991bbd2"},"vehicle_type_id":"4","last_reported":1698008726,"current_range_meters":26400,"station_id":"ce4bho92rcd13ifvqh3g","pricing_plan_id":"free"},{"bike_id":"2bc301b0-1724-4dfb-86f7-c36556ff2ad1","system_id":"levelo_inurba_marseille","lat":43.287056,"lon":5.399871,"is_reserved":false,"is_disabled":false,"rental_uris":{"android":"levelo://app?vid=2bc301b0-1724-4dfb-86f7-c36556ff2ad1","ios":"levelo://app?vid=2bc301b0-1724-4dfb-86f7-c36556ff2ad1"},"vehicle_type_id":"4","last_reported":1698008726,"current_range_meters":18400,"station_id":"ce4bho92rcd13ifvqh3g","pricing_plan_id":"free"},{"bike_id":"0d5cd4ce-d153-4f0e-9a4f-dad16c677cf3","system_id":"levelo_inurba_marseille","lat":43.287154,"lon":5.399979,"is_reserved":false,"is_disabled":false,"rental_uris":{"android":"levelo://app?vid=0d5cd4ce-d153-4f0e-9a4f-dad16c677cf3","ios":"levelo://app?vid=0d5cd4ce-d153-4f0e-9a4f-dad16c677cf3"},"vehicle_type_id":"4","last_reported":1698008726,"current_range_meters":31200,"station_id":"ce4bho92rcd13ifvqh3g","pricing_plan_id":"free"},{"bike_id":"1ca8487f-e3d3-4383-8dca-5aa33db41c3b","system_id":"levelo_inurba_marseille","lat":43.287154,"lon":5.399979,"is_reserved":false,"is_disabled":false,"rental_uris":{"android":"levelo://app?vid=1ca8487f-e3d3-4383-8dca-5aa33db41c3b","ios":"levelo://app?vid=1ca8487f-e3d3-4383-8dca-5aa33db41c3b"},"vehicle_type_id":"4","last_reported":1698008726,"current_range_meters":31200,"station_id":"ce4bho92rcd13ifvqh3g","pricing_plan_id":"free"},{"bike_id":"d3dad365-598e-4993-adae-a3b66fc46fbc","system_id":"levelo_inurba_marseille","lat":43.286992,"lon":5.399827,"is_reserved":false,"is_disabled":false,"rental_uris":{"android":"levelo://app?vid=d3dad365-598e-4993-adae-a3b66fc46fbc","ios":"levelo://app?vid=d3dad365-598e-4993-adae-a3b66fc46fbc"},"vehicle_type_id":"4","last_reported":1698008726,"current_range_meters":31200,"station_id":"ce4bho92rcd13ifvqh3g","pricing_plan_id":"free"},{"bike_id":"f279b92b-380c-4edc-87c9-0b11e4b753d9","system_id":"levelo_inurba_marseille","lat":43.287003,"lon":5.399871,"is_reserved":false,"is_disabled":false,"rental_uris":{"android":"levelo://app?vid=f279b92b-380c-4edc-87c9-0b11e4b753d9","ios":"levelo://app?vid=f279b92b-380c-4edc-87c9-0b11e4b753d9"},"vehicle_type_id":"4","last_reported":1698008726,"current_range_meters":18800,"station_id":"","pricing_plan_id":"free"},{"bike_id":"4263379a-4bcc-4197-aad6-c07b78a0b677","system_id":"levelo_inurba_marseille","lat":43.287154,"lon":5.399979,"is_reserved":false,"is_disabled":false,"rental_uris":{"android":"levelo://app?vid=4263379a-4bcc-4197-aad6-c07b78a0b677","ios":"levelo://app?vid=4263379a-4bcc-4197-aad6-c07b78a0b677"},"vehicle_type_id":"4","last_reported":1698008726,"current_range_meters":8800,"station_id":"ce4bho92rcd13ifvqh3g","pricing_plan_id":"free"},{"bike_id":"c7471cf1-f68e-4e04-a2bc-9fc09a1cf4a4","system_id":"levelo_inurba_marseille","lat":43.287154,"lon":5.399979,"is_reserved":false,"is_disabled":false,"rental_uris":{"android":"levelo://app?vid=c7471cf1-f68e-4e04-a2bc-9fc09a1cf4a4","ios":"levelo://app?vid=c7471cf1-f68e-4e04-a2bc-9fc09a1cf4a4"},"vehicle_type_id":"4","last_reported":1698008726,"current_range_meters":22800,"station_id":"ce4bho92rcd13ifvqh3g","pricing_plan_id":"free"},{"bike_id":"368f7b05-9333-4ecf-9627-874046c49cd4","system_id":"levelo_inurba_marseille","lat":43.287154,"lon":5.399979,"is_reserved":false,"is_disabled":false,"rental_uris":{"android":"levelo://app?vid=368f7b05-9333-4ecf-9627-874046c49cd4","ios":"levelo://app?vid=368f7b05-9333-4ecf-9627-874046c49cd4"},"vehicle_type_id":"4","last_reported":1698008726,"current_range_meters":12400,"station_id":"ce4bho92rcd13ifvqh3g","pricing_plan_id":"free"},{"bike_id":"b93d243d-a937-481d-b327-f0b255c84d27","system_id":"levelo_inurba_marseille","lat":43.287154,"lon":5.399979,"is_reserved":false,"is_disabled":false,"rental_uris":{"android":"levelo://app?vid=b93d243d-a937-481d-b327-f0b255c84d27","ios":"levelo://app?vid=b93d243d-a937-481d-b327-f0b255c84d27"},"vehicle_type_id":"4","last_reported":1698008726,"current_range_meters":31600,"station_id":"ce4bho92rcd13ifvqh3g","pricing_plan_id":"free"},{"bike_id":"8756ceba-28eb-46e6-88b3-3cc357fdae93","system_id":"levelo_inurba_marseille","lat":43.287154,"lon":5.399979,"is_reserved":false,"is_disabled":false,"rental_uris":{"android":"levelo://app?vid=8756ceba-28eb-46e6-88b3-3cc357fdae93","ios":"levelo://app?vid=8756ceba-28eb-46e6-88b3-3cc357fdae93"},"vehicle_type_id":"4","last_reported":1698008726,"current_range_meters":31200,"station_id":"ce4bho92rcd13ifvqh3g","pricing_plan_id":"free"},{"bike_id":"56c1be54-da5d-48de-a2e5-07d7dff67cf4","system_id":"levelo_inurba_marseille","lat":43.328815,"lon":5.410728,"is_reserved":false,"is_disabled":false,"rental_uris":{"android":"levelo://app?vid=56c1be54-da5d-48de-a2e5-07d7dff67cf4","ios":"levelo://app?vid=56c1be54-da5d-48de-a2e5-07d7dff67cf4"},"vehicle_type_id":"4","last_reported":1698008726,"current_range_meters":0,"station_id":"","pricing_plan_id":"free"},{"bike_id":"dbe4d064-3057-444b-84b7-189c418b0a33","system_id":"levelo_inurba_marseille","lat":43.292569,"lon":5.409107,"is_reserved":false,"is_disabled":false,"rental_uris":{"android":"levelo://app?vid=dbe4d064-3057-444b-84b7-189c418b0a33","ios":"levelo://app?vid=dbe4d064-3057-444b-84b7-189c418b0a33"},"vehicle_type_id":"4","last_reported":1698008726,"current_range_meters":1600,"station_id":"ce4bh192rcd13ifvqdc0","pricing_plan_id":"free"},{"bike_id":"f7c779cb-fb8d-42cd-a136-194f489dba08","system_id":"levelo_inurba_marseille","lat":43.292569,"lon":5.409107,"is_reserved":false,"is_disabled":false,"rental_uris":{"android":"levelo://app?vid=f7c779cb-fb8d-42cd-a136-194f489dba08","ios":"levelo://app?vid=f7c779cb-fb8d-42cd-a136-194f489dba08"},"vehicle_type_id":"4","last_reported":1698008726,"current_range_meters":1600,"station_id":"ce4bh192rcd13ifvqdc0","pricing_plan_id":"free"},{"bike_id":"9338ba03-d6e6-4dea-bb98-4f5bd6ced83d","system_id":"levelo_inurba_marseille","lat":43.292571,"lon":5.409107,"is_reserved":false,"is_disabled":false,"rental_uris":{"android":"levelo://app?vid=9338ba03-d6e6-4dea-bb98-4f5bd6ced83d","ios":"levelo://app?vid=9338ba03-d6e6-4dea-bb98-4f5bd6ced83d"},"vehicle_type_id":"4","last_reported":1698008726,"current_range_meters":3600,"station_id":"ce4bh192rcd13ifvqdc0","pricing_plan_id":"free"},{"bike_id":"85dd04cf-3c0f-46d6-a530-c89d9ca36cc0","system_id":"levelo_inurba_marseille","lat":43.34758,"lon":5.34884,"is_reserved":false,"is_disabled":false,"rental_uris":{"android":"levelo://app?vid=85dd04cf-3c0f-46d6-a530-c89d9ca36cc0","ios":"levelo://app?vid=85dd04cf-3c0f-46d6-a530-c89d9ca36cc0"},"vehicle_type_id":"4","last_reported":1698008726,"current_range_meters":0,"station_id":"","pricing_plan_id":"free"},{"bike_id":"6b853c06-cb22-4af7-8b65-b47db952d6df","system_id":"levelo_inurba_marseille","lat":43.280798,"lon":5.39659,"is_reserved":false,"is_disabled":false,"rental_uris":{"android":"levelo://app?vid=6b853c06-cb22-4af7-8b65-b47db952d6df","ios":"levelo://app?vid=6b853c06-cb22-4af7-8b65-b47db952d6df"},"vehicle_type_id":"4","last_reported":1698008726,"current_range_meters":22000,"station_id":"ce4bho12rcd13ifvqh2g","pricing_plan_id":"free"},{"bike_id":"473e9933-a2c3-4939-86dc-8578e4a43bbd","system_id":"levelo_inurba_marseille","lat":43.280773,"lon":5.396633,"is_reserved":false,"is_disabled":false,"rental_uris":{"android":"levelo://app?vid=473e9933-a2c3-4939-86dc-8578e4a43bbd","ios":"levelo://app?vid=473e9933-a2c3-4939-86dc-8578e4a43bbd"},"vehicle_type_id":"4","last_reported":1698008726,"current_range_meters":15600,"station_id":"ce4bho12rcd13ifvqh2g","pricing_plan_id":"free"},{"bike_id":"8cce5a65-c061-464f-98d4-a08130038750","system_id":"levelo_inurba_marseille","lat":43.303837,"lon":5.418724,"is_reserved":false,"is_disabled":false,"rental_uris":{"android":"levelo://app?vid=8cce5a65-c061-464f-98d4-a08130038750","ios":"levelo://app?vid=8cce5a65-c061-464f-98d4-a08130038750"},"vehicle_type_id":"4","last_reported":1698008726,"current_range_meters":28400,"station_id":"ce4bhop2rcd13ifvqh7g","pricing_plan_id":"free"},{"bike_id":"0116bc85-9ee6-43a3-a9b9-e92fb8bccb90","system_id":"levelo_inurba_marseille","lat":43.275625,"lon":5.384392,"is_reserved":false,"is_disabled":false,"rental_uris":{"android":"levelo://app?vid=0116bc85-9ee6-43a3-a9b9-e92fb8bccb90","ios":"levelo://app?vid=0116bc85-9ee6-43a3-a9b9-e92fb8bccb90"},"vehicle_type_id":"4","last_reported":1698008726,"current_range_meters":21600,"station_id":"ce4bhh92rcd13ifvqfi0","pricing_plan_id":"free"},{"bike_id":"7b152dba-8448-469b-9a8b-ae9507ec07ca","system_id":"levelo_inurba_marseille","lat":43.278399,"lon":5.392139,"is_reserved":false,"is_disabled":false,"rental_uris":{"android":"levelo://app?vid=7b152dba-8448-469b-9a8b-ae9507ec07ca","ios":"levelo://app?vid=7b152dba-8448-469b-9a8b-ae9507ec07ca"},"vehicle_type_id":"4","last_reported":1698008726,"current_range_meters":22000,"station_id":"ce4bhjp2rcd13ifvqga0","pricing_plan_id":"free"},{"bike_id":"fdc844b6-ccbc-4884-b3ba-2a3189fc1081","system_id":"levelo_inurba_marseille","lat":43.278326,"lon":5.392154,"is_reserved":false,"is_disabled":false,"rental_uris":{"android":"levelo://app?vid=fdc844b6-ccbc-4884-b3ba-2a3189fc1081","ios":"levelo://app?vid=fdc844b6-ccbc-4884-b3ba-2a3189fc1081"},"vehicle_type_id":"4","last_reported":1698008726,"current_range_meters":20800,"station_id":"ce4bhjp2rcd13ifvqga0","pricing_plan_id":"free"},{"bike_id":"a76e94e1-adce-415c-866d-a451bf7edfa7","system_id":"levelo_inurba_marseille","lat":43.278401,"lon":5.392152,"is_reserved":false,"is_disabled":false,"rental_uris":{"android":"levelo://app?vid=a76e94e1-adce-415c-866d-a451bf7edfa7","ios":"levelo://app?vid=a76e94e1-adce-415c-866d-a451bf7edfa7"},"vehicle_type_id":"4","last_reported":1698008726,"current_range_meters":13200,"station_id":"ce4bhjp2rcd13ifvqga0","pricing_plan_id":"free"},{"bike_id":"59a090c6-7499-4c70-9944-b2ed5956c1f5","system_id":"levelo_inurba_marseille","lat":43.27823,"lon":5.39212,"is_reserved":false,"is_disabled":false,"rental_uris":{"android":"levelo://app?vid=59a090c6-7499-4c70-9944-b2ed5956c1f5","ios":"levelo://app?vid=59a090c6-7499-4c70-9944-b2ed5956c1f5"},"vehicle_type_id":"4","last_reported":1698008726,"current_range_meters":28000,"station_id":"ce4bhjp2rcd13ifvqga0","pricing_plan_id":"free"},{"bike_id":"8484032e-9aa1-4710-9100-fdbfa0e7ca26","system_id":"levelo_inurba_marseille","lat":43.275625,"lon":5.384392,"is_reserved":false,"is_disabled":false,"rental_uris":{"android":"levelo://app?vid=8484032e-9aa1-4710-9100-fdbfa0e7ca26","ios":"levelo://app?vid=8484032e-9aa1-4710-9100-fdbfa0e7ca26"},"vehicle_type_id":"4","last_reported":1698008726,"current_range_meters":0,"station_id":"ce4bhh92rcd13ifvqfi0","pricing_plan_id":"free"},{"bike_id":"4b3c4e4e-bf6f-4bac-8c0c-00520a78112d","system_id":"levelo_inurba_marseille","lat":43.273609,"lon":5.362708,"is_reserved":false,"is_disabled":false,"rental_uris":{"android":"levelo://app?vid=4b3c4e4e-bf6f-4bac-8c0c-00520a78112d","ios":"levelo://app?vid=4b3c4e4e-bf6f-4bac-8c0c-00520a78112d"},"vehicle_type_id":"4","last_reported":1698008726,"current_range_meters":13200,"station_id":"ce4bhbh2rcd13ifvqeo0","pricing_plan_id":"free"},{"bike_id":"e8948c6a-6a62-43e2-947e-87fc3e6ab6cd","system_id":"levelo_inurba_marseille","lat":43.275625,"lon":5.384392,"is_reserved":false,"is_disabled":false,"rental_uris":{"android":"levelo://app?vid=e8948c6a-6a62-43e2-947e-87fc3e6ab6cd","ios":"levelo://app?vid=e8948c6a-6a62-43e2-947e-87fc3e6ab6cd"},"vehicle_type_id":"4","last_reported":1698008726,"current_range_meters":31600,"station_id":"ce4bhh92rcd13ifvqfi0","pricing_plan_id":"free"},{"bike_id":"db9dead8-975b-422a-a675-fb655f37d7d8","system_id":"levelo_inurba_marseille","lat":43.33612,"lon":5.410321,"is_reserved":false,"is_disabled":false,"rental_uris":{"android":"levelo://app?vid=db9dead8-975b-422a-a675-fb655f37d7d8","ios":"levelo://app?vid=db9dead8-975b-422a-a675-fb655f37d7d8"},"vehicle_type_id":"4","last_reported":1698008726,"current_range_meters":17200,"station_id":"ce4bhqh2rcd13ifvqhmg","pricing_plan_id":"free"},{"bike_id":"07c1f8af-da96-41d7-ae2d-8be8b7c213ab","system_id":"levelo_inurba_marseille","lat":43.33612,"lon":5.410321,"is_reserved":false,"is_disabled":false,"rental_uris":{"android":"levelo://app?vid=07c1f8af-da96-41d7-ae2d-8be8b7c213ab","ios":"levelo://app?vid=07c1f8af-da96-41d7-ae2d-8be8b7c213ab"},"vehicle_type_id":"4","last_reported":1698008726,"current_range_meters":10800,"station_id":"ce4bhqh2rcd13ifvqhmg","pricing_plan_id":"free"},{"bike_id":"a403106a-c416-429b-b418-396870c76e76","system_id":"levelo_inurba_marseille","lat":43.33612,"lon":5.410321,"is_reserved":false,"is_disabled":false,"rental_uris":{"android":"levelo://app?vid=a403106a-c416-429b-b418-396870c76e76","ios":"levelo://app?vid=a403106a-c416-429b-b418-396870c76e76"},"vehicle_type_id":"4","last_reported":1698008726,"current_range_meters":21200,"station_id":"ce4bhqh2rcd13ifvqhmg","pricing_plan_id":"free"},{"bike_id":"50906fe7-76b9-44d6-8e5f-416f2742dac3","system_id":"levelo_inurba_marseille","lat":43.275625,"lon":5.384392,"is_reserved":false,"is_disabled":false,"rental_uris":{"android":"levelo://app?vid=50906fe7-76b9-44d6-8e5f-416f2742dac3","ios":"levelo://app?vid=50906fe7-76b9-44d6-8e5f-416f2742dac3"},"vehicle_type_id":"4","last_reported":1698008726,"current_range_meters":27600,"station_id":"ce4bhh92rcd13ifvqfi0","pricing_plan_id":"free"},{"bike_id":"4b4bc6f2-9634-4ddf-be5e-d46e0a5676f9","system_id":"levelo_inurba_marseille","lat":43.27667,"lon":5.38898,"is_reserved":false,"is_disabled":false,"rental_uris":{"android":"levelo://app?vid=4b4bc6f2-9634-4ddf-be5e-d46e0a5676f9","ios":"levelo://app?vid=4b4bc6f2-9634-4ddf-be5e-d46e0a5676f9"},"vehicle_type_id":"4","last_reported":1698008726,"current_range_meters":6000,"station_id":"ce4bhi12rcd13ifvqfo0","pricing_plan_id":"free"},{"bike_id":"e5c11ea2-ac8f-4bc2-a069-021e61601a8d","system_id":"levelo_inurba_marseille","lat":43.27997,"lon":5.40013,"is_reserved":false,"is_disabled":false,"rental_uris":{"android":"levelo://app?vid=e5c11ea2-ac8f-4bc2-a069-021e61601a8d","ios":"levelo://app?vid=e5c11ea2-ac8f-4bc2-a069-021e61601a8d"},"vehicle_type_id":"4","last_reported":1698008726,"current_range_meters":16000,"station_id":"ce4bho92rcd13ifvqh4g","pricing_plan_id":"free"},{"bike_id":"1cc0430a-be4a-42bd-adec-fea198812354","system_id":"levelo_inurba_marseille","lat":43.317121,"lon":5.423936,"is_reserved":false,"is_disabled":false,"rental_uris":{"android":"levelo://app?vid=1cc0430a-be4a-42bd-adec-fea198812354","ios":"levelo://app?vid=1cc0430a-be4a-42bd-adec-fea198812354"},"vehicle_type_id":"4","last_reported":1698008726,"current_range_meters":22800,"station_id":"ce4bhp92rcd13ifvqhbg","pricing_plan_id":"free"},{"bike_id":"b0deb440-5cec-4d3f-beb6-c5972841ba8b","system_id":"levelo_inurba_marseille","lat":43.317121,"lon":5.423936,"is_reserved":false,"is_disabled":false,"rental_uris":{"android":"levelo://app?vid=b0deb440-5cec-4d3f-beb6-c5972841ba8b","ios":"levelo://app?vid=b0deb440-5cec-4d3f-beb6-c5972841ba8b"},"vehicle_type_id":"4","last_reported":1698008726,"current_range_meters":31600,"station_id":"ce4bhp92rcd13ifvqhbg","pricing_plan_id":"free"},{"bike_id":"3870a564-75e3-49f2-ae8d-dca04ef4591b","system_id":"levelo_inurba_marseille","lat":43.317121,"lon":5.423936,"is_reserved":false,"is_disabled":false,"rental_uris":{"android":"levelo://app?vid=3870a564-75e3-49f2-ae8d-dca04ef4591b","ios":"levelo://app?vid=3870a564-75e3-49f2-ae8d-dca04ef4591b"},"vehicle_type_id":"4","last_reported":1698008726,"current_range_meters":30800,"station_id":"ce4bhp92rcd13ifvqhbg","pricing_plan_id":"free"},{"bike_id":"18bf699c-680d-45de-90eb-7d8ca33a21d8","system_id":"levelo_inurba_marseille","lat":43.317121,"lon":5.423936,"is_reserved":false,"is_disabled":false,"rental_uris":{"android":"levelo://app?vid=18bf699c-680d-45de-90eb-7d8ca33a21d8","ios":"levelo://app?vid=18bf699c-680d-45de-90eb-7d8ca33a21d8"},"vehicle_type_id":"4","last_reported":1698008726,"current_range_meters":28400,"station_id":"ce4bhp92rcd13ifvqhbg","pricing_plan_id":"free"},{"bike_id":"ab12f15e-cde9-47e9-baad-1625bcfb7071","system_id":"levelo_inurba_marseille","lat":43.310785,"lon":5.424305,"is_reserved":false,"is_disabled":false,"rental_uris":{"android":"levelo://app?vid=ab12f15e-cde9-47e9-baad-1625bcfb7071","ios":"levelo://app?vid=ab12f15e-cde9-47e9-baad-1625bcfb7071"},"vehicle_type_id":"4","last_reported":1698008726,"current_range_meters":28400,"station_id":"ce4bhp92rcd13ifvqhag","pricing_plan_id":"free"},{"bike_id":"435abc85-f3ee-4aba-929c-126f806fc074","system_id":"levelo_inurba_marseille","lat":43.310785,"lon":5.424305,"is_reserved":false,"is_disabled":false,"rental_uris":{"android":"levelo://app?vid=435abc85-f3ee-4aba-929c-126f806fc074","ios":"levelo://app?vid=435abc85-f3ee-4aba-929c-126f806fc074"},"vehicle_type_id":"4","last_reported":1698008726,"current_range_meters":10400,"station_id":"ce4bhp92rcd13ifvqhag","pricing_plan_id":"free"},{"bike_id":"d7719643-b2ae-4ce3-978a-3c0733806b9a","system_id":"levelo_inurba_marseille","lat":43.310785,"lon":5.424305,"is_reserved":false,"is_disabled":false,"rental_uris":{"android":"levelo://app?vid=d7719643-b2ae-4ce3-978a-3c0733806b9a","ios":"levelo://app?vid=d7719643-b2ae-4ce3-978a-3c0733806b9a"},"vehicle_type_id":"4","last_reported":1698008726,"current_range_meters":16800,"station_id":"ce4bhp92rcd13ifvqhag","pricing_plan_id":"free"},{"bike_id":"32df3fbd-f674-439f-8867-7248d892814b","system_id":"levelo_inurba_marseille","lat":43.310785,"lon":5.424305,"is_reserved":false,"is_disabled":false,"rental_uris":{"android":"levelo://app?vid=32df3fbd-f674-439f-8867-7248d892814b","ios":"levelo://app?vid=32df3fbd-f674-439f-8867-7248d892814b"},"vehicle_type_id":"4","last_reported":1698008726,"current_range_meters":8800,"station_id":"ce4bhp92rcd13ifvqhag","pricing_plan_id":"free"},{"bike_id":"b8631c12-6fde-4708-94a5-f9f6761185c2","system_id":"levelo_inurba_marseille","lat":43.340804,"lon":5.410219,"is_reserved":false,"is_disabled":false,"rental_uris":{"android":"levelo://app?vid=b8631c12-6fde-4708-94a5-f9f6761185c2","ios":"levelo://app?vid=b8631c12-6fde-4708-94a5-f9f6761185c2"},"vehicle_type_id":"4","last_reported":1698008726,"current_range_meters":31600,"station_id":"ce4bhqh2rcd13ifvqhlg","pricing_plan_id":"free"},{"bike_id":"75630d19-fdfb-4f4a-a99e-ff91aa75f4c8","system_id":"levelo_inurba_marseille","lat":43.340804,"lon":5.410219,"is_reserved":false,"is_disabled":false,"rental_uris":{"android":"levelo://app?vid=75630d19-fdfb-4f4a-a99e-ff91aa75f4c8","ios":"levelo://app?vid=75630d19-fdfb-4f4a-a99e-ff91aa75f4c8"},"vehicle_type_id":"4","last_reported":1698008726,"current_range_meters":30000,"station_id":"ce4bhqh2rcd13ifvqhlg","pricing_plan_id":"free"},{"bike_id":"63002714-6050-40ad-8c13-d83dc0eddb08","system_id":"levelo_inurba_marseille","lat":43.27608,"lon":5.39498,"is_reserved":false,"is_disabled":false,"rental_uris":{"android":"levelo://app?vid=63002714-6050-40ad-8c13-d83dc0eddb08","ios":"levelo://app?vid=63002714-6050-40ad-8c13-d83dc0eddb08"},"vehicle_type_id":"4","last_reported":1698008726,"current_range_meters":17600,"station_id":"","pricing_plan_id":"free"},{"bike_id":"23ca2d25-b2d2-498f-bea6-d374343a94cd","system_id":"levelo_inurba_marseille","lat":43.30413,"lon":5.42547,"is_reserved":false,"is_disabled":false,"rental_uris":{"android":"levelo://app?vid=23ca2d25-b2d2-498f-bea6-d374343a94cd","ios":"levelo://app?vid=23ca2d25-b2d2-498f-bea6-d374343a94cd"},"vehicle_type_id":"4","last_reported":1698008726,"current_range_meters":5600,"station_id":"ce4bhoh2rcd13ifvqh6g","pricing_plan_id":"free"},{"bike_id":"1c4f7116-6873-4c2f-8e75-f002d4dc08d8","system_id":"levelo_inurba_marseille","lat":43.295511,"lon":5.422926,"is_reserved":false,"is_disabled":false,"rental_uris":{"android":"levelo://app?vid=1c4f7116-6873-4c2f-8e75-f002d4dc08d8","ios":"levelo://app?vid=1c4f7116-6873-4c2f-8e75-f002d4dc08d8"},"vehicle_type_id":"4","last_reported":1698008726,"current_range_meters":0,"station_id":"ce4bhph2rcd13ifvqhdg","pricing_plan_id":"free"},{"bike_id":"44e0aa1f-529c-4183-92d8-dd5c71a27db9","system_id":"levelo_inurba_marseille","lat":43.278128,"lon":5.407195,"is_reserved":false,"is_disabled":false,"rental_uris":{"android":"levelo://app?vid=44e0aa1f-529c-4183-92d8-dd5c71a27db9","ios":"levelo://app?vid=44e0aa1f-529c-4183-92d8-dd5c71a27db9"},"vehicle_type_id":"4","last_reported":1698008726,"current_range_meters":20000,"station_id":"ce4bhnh2rcd13ifvqgtg","pricing_plan_id":"free"},{"bike_id":"f09227d2-5ffe-4b34-93b5-c4e945cdbb25","system_id":"levelo_inurba_marseille","lat":43.278128,"lon":5.407195,"is_reserved":false,"is_disabled":false,"rental_uris":{"android":"levelo://app?vid=f09227d2-5ffe-4b34-93b5-c4e945cdbb25","ios":"levelo://app?vid=f09227d2-5ffe-4b34-93b5-c4e945cdbb25"},"vehicle_type_id":"4","last_reported":1698008726,"current_range_meters":10000,"station_id":"ce4bhnh2rcd13ifvqgtg","pricing_plan_id":"free"},{"bike_id":"8d86daf1-ac97-422c-846e-e957b0b28b44","system_id":"levelo_inurba_marseille","lat":43.278128,"lon":5.407195,"is_reserved":false,"is_disabled":false,"rental_uris":{"android":"levelo://app?vid=8d86daf1-ac97-422c-846e-e957b0b28b44","ios":"levelo://app?vid=8d86daf1-ac97-422c-846e-e957b0b28b44"},"vehicle_type_id":"4","last_reported":1698008726,"current_range_meters":5600,"station_id":"ce4bhnh2rcd13ifvqgtg","pricing_plan_id":"free"},{"bike_id":"7936ca91-6150-467e-aae4-9649d3b69f55","system_id":"levelo_inurba_marseille","lat":43.278128,"lon":5.407195,"is_reserved":false,"is_disabled":false,"rental_uris":{"android":"levelo://app?vid=7936ca91-6150-467e-aae4-9649d3b69f55","ios":"levelo://app?vid=7936ca91-6150-467e-aae4-9649d3b69f55"},"vehicle_type_id":"4","last_reported":1698008726,"current_range_meters":800,"station_id":"ce4bhnh2rcd13ifvqgtg","pricing_plan_id":"free"},{"bike_id":"4e39117e-8f8e-44fc-9ed2-a7a640375ca6","system_id":"levelo_inurba_marseille","lat":43.278128,"lon":5.407195,"is_reserved":false,"is_disabled":false,"rental_uris":{"android":"levelo://app?vid=4e39117e-8f8e-44fc-9ed2-a7a640375ca6","ios":"levelo://app?vid=4e39117e-8f8e-44fc-9ed2-a7a640375ca6"},"vehicle_type_id":"4","last_reported":1698008726,"current_range_meters":5600,"station_id":"ce4bhnh2rcd13ifvqgtg","pricing_plan_id":"free"},{"bike_id":"7e5b0f31-a931-430b-8ebc-04a4236bac5e","system_id":"levelo_inurba_marseille","lat":43.278128,"lon":5.407195,"is_reserved":false,"is_disabled":false,"rental_uris":{"android":"levelo://app?vid=7e5b0f31-a931-430b-8ebc-04a4236bac5e","ios":"levelo://app?vid=7e5b0f31-a931-430b-8ebc-04a4236bac5e"},"vehicle_type_id":"4","last_reported":1698008726,"current_range_meters":19200,"station_id":"ce4bhnh2rcd13ifvqgtg","pricing_plan_id":"free"},{"bike_id":"c0525a98-1aaf-4f71-b609-c2326cef2e3a","system_id":"levelo_inurba_marseille","lat":43.278128,"lon":5.407195,"is_reserved":false,"is_disabled":false,"rental_uris":{"android":"levelo://app?vid=c0525a98-1aaf-4f71-b609-c2326cef2e3a","ios":"levelo://app?vid=c0525a98-1aaf-4f71-b609-c2326cef2e3a"},"vehicle_type_id":"4","last_reported":1698008726,"current_range_meters":7200,"station_id":"ce4bhnh2rcd13ifvqgtg","pricing_plan_id":"free"},{"bike_id":"f98b5f10-6cc9-4d24-b362-b1c669410df0","system_id":"levelo_inurba_marseille","lat":43.27945,"lon":5.41047,"is_reserved":false,"is_disabled":false,"rental_uris":{"android":"levelo://app?vid=f98b5f10-6cc9-4d24-b362-b1c669410df0","ios":"levelo://app?vid=f98b5f10-6cc9-4d24-b362-b1c669410df0"},"vehicle_type_id":"4","last_reported":1698008726,"current_range_meters":27600,"station_id":"ce4bhnp2rcd13ifvqh0g","pricing_plan_id":"free"},{"bike_id":"36dfaa93-6331-4ac5-930f-e63016ee4d14","system_id":"levelo_inurba_marseille","lat":43.269319,"lon":5.389397,"is_reserved":false,"is_disabled":false,"rental_uris":{"android":"levelo://app?vid=36dfaa93-6331-4ac5-930f-e63016ee4d14","ios":"levelo://app?vid=36dfaa93-6331-4ac5-930f-e63016ee4d14"},"vehicle_type_id":"4","last_reported":1698008726,"current_range_meters":20400,"station_id":"ce4bhhh2rcd13ifvqfl0","pricing_plan_id":"free"},