{"last_updated":1718212025,"ttl":30,"version":"2.2","data":{"bikes":[{"bike_id":"b4257838-beba-4d73-852a-4db282d37a31","system_id":"levelo_inurba_marseille","lat":43.31436,"lon":5.3706,"is_reserved":false,"is_disabled":false,"rental_uris":{"android":"levelo://app?vid=b4257838-beba-4d73-852a-4db282d37a31","ios":"levelo://app?vid=b4257838-beba-4d73-852a-4db282d37a31"},"vehicle_type_id":"4","last_reported":1718212025,"current_range_meters":2400,"station_id":"","pricing_plan_id":"cebpf4jnsgd1na2vs0mg"},{"bike_id":"de27f82e-81d6-42cc-9854-7ad08b628ee0","system_id":"levelo_inurba_marseille","lat":43.3151,"lon":5.37119,"is_reserved":false,"is_disabled":false,"rental_uris":{"android":"levelo://app?vid=de27f82e-81d6-42cc-9854-7ad08b628ee0","ios":"levelo://app?vid=de27f82e-81d6-42cc-9854-7ad08b628ee0"},"vehicle_type_id":"4","last_reported":1718212025,"current_range_meters":20000,"station_id":"","pricing_plan_id":"cebpf4jnsgd1na2vs0mg"},{"bike_id":"f16f58b6-7f10-4e97-bb88-4a41188a6e0c","system_id":"levelo_inurba_marseille","lat":43.309039,"lon":5.371797,"is_reserved":false,"is_disabled":false,"rental_uris":{"android":"levelo://app?vid=f16f58b6-7f10-4e97-bb88-4a41188a6e0c","ios":"levelo://app?vid=f16f58b6-7f10-4e97-bb88-4a41188a6e0c"},"vehicle_type_id":"4","last_reported":1718212025,"current_range_meters":19600,"station_id":"ce4bguh2rcd13ifvqckg","pricing_plan_id":"cebpf4jnsgd1na2vs0mg"},{"bike_id":"322c464c-868f-4a14-b880-a762c4fa4670","system_id":"levelo_inurba_marseille","lat":43.309039,"lon":5.371797,"is_reserved":false,"is_disabled":false,"rental_uris":{"android":"levelo://app?vid=322c464c-868f-4a14-b880-a762c4fa4670","ios":"levelo://app?vid=322c464c-868f-4a14-b880-a762c4fa4670"},"vehicle_type_id":"4","last_reported":1718212025,"current_range_meters":16000,"station_id":"ce4bguh2rcd13ifvqckg","pricing_plan_id":"cebpf4jnsgd1na2vs0mg"},{"bike_id":"ff5b728b-3c7e-4bad-a7b2-6076708ffa29","system_id":"levelo_inurba_marseille","lat":43.309039,"lon":5.371797,"is_reserved":false,"is_disabled":false,"rental_uris":{"android":"levelo://app?vid=ff5b728b-3c7e-4bad-a7b2-6076708ffa29","ios":"levelo://app?vid=ff5b728b-3c7e-4bad-a7b2-6076708ffa29"},"vehicle_type_id":"4","last_reported":1718212025,"current_range_meters":20000,"station_id":"ce4bguh2rcd13ifvqckg","pricing_plan_id":"cebpf4jnsgd1na2vs0mg"},{"bike_id":"076719d7-e7e1-4ae7-a835-28fd4e9bc6a0","system_id":"levelo_inurba_marseille","lat":43.309039,"lon":5.371797,"is_reserved":false,"is_disabled":false,"rental_uris":{"android":"levelo://app?vid=076719d7-e7e1-4ae7-a835-28fd4e9bc6a0","ios":"levelo://app?vid=076719d7-e7e1-4ae7-a835-28fd4e9bc6a0"},"vehicle_type_id":"4","last_reported":1718212025,"current_range_meters":14400,"station_id":"ce4bguh2rcd13ifvqckg","pricing_plan_id":"cebpf4jnsgd1na2vs0mg"},{"bike_id":"6af8f7ae-e065-472c-8e5e-c50fa0eaeb68","system_id":"levelo_inurba_marseille","lat":43.30537,"lon":5.367345,"is_reserved":false,"is_disabled":false,"rental_uris":{"android":"levelo://app?vid=6af8f7ae-e065-472c-8e5e-c50fa0eaeb68","ios":"levelo://app?vid=6af8f7ae-e065-472c-8e5e-c50fa0eaeb68"},"vehicle_type_id":"4","last_reported":1718212025,"current_range_meters":0,"station_id":"ce4bgrp2rcd13ifvqc9g","pricing_plan_id":"cebpf4jnsgd1na2vs0mg"},{"bike_id":"b41d7a27-79aa-48dd-942d-1f61edd9c029","system_id":"levelo_inurba_marseille","lat":43.305989,"lon":5.37225,"is_reserved":false,"is_disabled":false,"rental_uris":{"android":"levelo://app?vid=b41d7a27-79aa-48dd-942d-1f61edd9c029","ios":"levelo://app?vid=b41d7a27-79aa-48dd-942d-1f61edd9c029"},"vehicle_type_id":"4","last_reported":1718212025,"current_range_meters":24400,"station_id":"ce4bgqh2rcd13ifvqc4g","pricing_plan_id":"cebpf4jnsgd1na2vs0mg"},{"bike_id":"c2894072-a50d-4fb9-8c3c-fad89a8c1431","system_id":"levelo_inurba_marseille","lat":43.311125,"lon":5.377624,"is_reserved":false,"is_disabled":false,"rental_uris":{"android":"levelo://app?vid=c2894072-a50d-4fb9-8c3c-fad89a8c1431","ios":"levelo://app?vid=c2894072-a50d-4fb9-8c3c-fad89a8c1431"},"vehicle_type_id":"4","last_reported":1718212025,"current_range_meters":11600,"station_id":"ce4bgt92rcd13ifvqcg0","pricing_plan_id":"cebpf4jnsgd1na2vs0mg"},{"bike_id":"42dec0bf-05e1-4854-accd-9a46f59607d2","system_id":"levelo_inurba_marseille","lat":43.311125,"lon":5.377624,"is_reserved":false,"is_disabled":false,"rental_uris":{"android":"levelo://app?vid=42dec0bf-05e1-4854-accd-9a46f59607d2","ios":"levelo://app?vid=42dec0bf-05e1-4854-accd-9a46f59607d2"},"vehicle_type_id":"4","last_reported":1718212025,"current_range_meters":29600,"station_id":"ce4bgt92rcd13ifvqcg0","pricing_plan_id":"cebpf4jnsgd1na2vs0mg"},{"bike_id":"07db1501-7f64-4d9e-b369-cafeaa5e1fcc","system_id":"levelo_inurba_marseille","lat":43.311125,"lon":5.377624,"is_reserved":false,"is_disabled":false,"rental_uris":{"android":"levelo://app?vid=07db1501-7f64-4d9e-b369-cafeaa5e1fcc","ios":"levelo://app?vid=07db1501-7f64-4d9e-b369-cafeaa5e1fcc"},"vehicle_type_id":"4","last_reported":1718212025,"current_range_meters":8800,"station_id":"ce4bgt92rcd13ifvqcg0","pricing_plan_id":"cebpf4jnsgd1na2vs0mg"},{"bike_id":"70732bf4-13dc-4d29-8b98-059ab90c057d","system_id":"levelo_inurba_marseille","lat":43.307945,"lon":5.376487,"is_reserved":false,"is_disabled":false,"rental_uris":{"android":"levelo://app?vid=70732bf4-13dc-4d29-8b98-059ab90c057d","ios":"levelo://app?vid=70732bf4-13dc-4d29-8b98-059ab90c057d"},"vehicle_type_id":"4","last_reported":1718212025,"current_range_meters":26800,"station_id":"ce4bgv92rcd13ifvqcq0","pricing_plan_id":"cebpf4jnsgd1na2vs0mg"},{"bike_id":"90b04fc2-d619-4f8f-8f7f-63c002eafc17","system_id":"levelo_inurba_marseille","lat":43.317075,"lon":5.377367,"is_reserved":false,"is_disabled":false,"rental_uris":{"android":"levelo://app?vid=90b04fc2-d619-4f8f-8f7f-63c002eafc17","ios":"levelo://app?vid=90b04fc2-d619-4f8f-8f7f-63c002eafc17"},"vehicle_type_id":"4","last_reported":1718212025,"current_range_meters":2800,"station_id":"ce4bgth2rcd13ifvqch0","pricing_plan_id":"cebpf4jnsgd1na2vs0mg"},{"bike_id":"01ca70b6-4e2c-42cb-9aed-a8b80d5ea29c","system_id":"levelo_inurba_marseille","lat":43.309287,"lon":5.379113,"is_reserved":false,"is_disabled":false,"rental_uris":{"android":"levelo://app?vid=01ca70b6-4e2c-42cb-9aed-a8b80d5ea29c","ios":"levelo://app?vid=01ca70b6-4e2c-42cb-9aed-a8b80d5ea29c"},"vehicle_type_id":"4","last_reported":1718212025,"current_range_meters":7200,"station_id":"","pricing_plan_id":"cebpf4jnsgd1na2vs0mg"},{"bike_id":"e6d000c1-dce7-4339-b96d-d31927f366dd","system_id":"levelo_inurba_marseille","lat":43.303046,"lon":5.368981,"is_reserved":false,"is_disabled":false,"rental_uris":{"android":"levelo://app?vid=e6d000c1-dce7-4339-b96d-d31927f366dd","ios":"levelo://app?vid=e6d000c1-dce7-4339-b96d-d31927f366dd"},"vehicle_type_id":"4","last_reported":1718212025,"current_range_meters":24000,"station_id":"ce4bgqh2rcd13ifvqc5g","pricing_plan_id":"cebpf4jnsgd1na2vs0mg"},{"bike_id":"0753991c-23c9-48a4-a509-5deb091c9d5c","system_id":"levelo_inurba_marseille","lat":43.315289,"lon":5.380349,"is_reserved":false,"is_disabled":false,"rental_uris":{"android":"levelo://app?vid=0753991c-23c9-48a4-a509-5deb091c9d5c","ios":"levelo://app?vid=0753991c-23c9-48a4-a509-5deb091c9d5c"},"vehicle_type_id":"4","last_reported":1718212025,"current_range_meters":30000,"station_id":"ce4bhsp2rcd13ifvqi50","pricing_plan_id":"cebpf4jnsgd1na2vs0mg"},{"bike_id":"4290ded3-9449-43c1-b406-2d41dc0b98f0","system_id":"levelo_inurba_marseille","lat":43.301939,"lon":5.366286,"is_reserved":false,"is_disabled":false,"rental_uris":{"android":"levelo://app?vid=4290ded3-9449-43c1-b406-2d41dc0b98f0","ios":"levelo://app?vid=4290ded3-9449-43c1-b406-2d41dc0b98f0"},"vehicle_type_id":"4","last_reported":1718212025,"current_range_meters":4400,"station_id":"ce4bgrh2rcd13ifvqc8g","pricing_plan_id":"cebpf4jnsgd1na2vs0mg"},{"bike_id":"30c5ada3-3b0b-4cd8-99a4-baede9082f5d","system_id":"levelo_inurba_marseille","lat":43.308012,"lon":5.381511,"is_reserved":false,"is_disabled":false,"rental_uris":{"android":"levelo://app?vid=30c5ada3-3b0b-4cd8-99a4-baede9082f5d","ios":"levelo://app?vid=30c5ada3-3b0b-4cd8-99a4-baede9082f5d"},"vehicle_type_id":"4","last_reported":1718212025,"current_range_meters":22800,"station_id":"ce4bgt12rcd13ifvqce0","pricing_plan_id":"cebpf4jnsgd1na2vs0mg"},{"bike_id":"87229c14-6aa8-43f4-8f59-37ee8b567805","system_id":"levelo_inurba_marseille","lat":43.30464,"lon":5.37895,"is_reserved":false,"is_disabled":false,"rental_uris":{"android":"levelo://app?vid=87229c14-6aa8-43f4-8f59-37ee8b567805","ios":"levelo://app?vid=87229c14-6aa8-43f4-8f59-37ee8b567805"},"vehicle_type_id":"4","last_reported":1718212025,"current_range_meters":0,"station_id":"ce4bgup2rcd13ifvqcn0","pricing_plan_id":"cebpf4jnsgd1na2vs0mg"},{"bike_id":"f12fe903-e430-4a5b-854f-91048e026aaf","system_id":"levelo_inurba_marseille","lat":43.32486,"lon":5.36563,"is_reserved":false,"is_disabled":false,"rental_uris":{"android":"levelo://app?vid=f12fe903-e430-4a5b-854f-91048e026aaf","ios":"levelo://app?vid=f12fe903-e430-4a5b-854f-91048e026aaf"},"vehicle_type_id":"4","last_reported":1718212025,"current_range_meters":7200,"station_id":"","pricing_plan_id":"cebpf4jnsgd1na2vs0mg"},{"bike_id":"27774651-2f61-426c-a249-fb29e44229e1","system_id":"levelo_inurba_marseille","lat":43.302784,"lon":5.377158,"is_reserved":false,"is_disabled":false,"rental_uris":{"android":"levelo://app?vid=27774651-2f61-426c-a249-fb29e44229e1","ios":"levelo://app?vid=27774651-2f61-426c-a249-fb29e44229e1"},"vehicle_type_id":"4","last_reported":1718212025,"current_range_meters":22400,"station_id":"ce4bguh2rcd13ifvqcj0","pricing_plan_id":"cebpf4jnsgd1na2vs0mg"},{"bike_id":"bf125ec9-3ac3-4c9b-9013-af8ae75534f2","system_id":"levelo_inurba_marseille","lat":43.319935,"lon":5.381699,"is_reserved":false,"is_disabled":false,"rental_uris":{"android":"levelo://app?vid=bf125ec9-3ac3-4c9b-9013-af8ae75534f2","ios":"levelo://app?vid=bf125ec9-3ac3-4c9b-9013-af8ae75534f2"},"vehicle_type_id":"4","last_reported":1718212025,"current_range_meters":17600,"station_id":"ce4bhr12rcd13ifvqhpg","pricing_plan_id":"cebpf4jnsgd1na2vs0mg"},{"bike_id":"c7a71ff6-57a7-4f36-8357-9c95cf42b41f","system_id":"levelo_inurba_marseille","lat":43.313571,"lon":5.384829,"is_reserved":false,"is_disabled":false,"rental_uris":{"android":"levelo://app?vid=c7a71ff6-57a7-4f36-8357-9c95cf42b41f","ios":"levelo://app?vid=c7a71ff6-57a7-4f36-8357-9c95cf42b41f"},"vehicle_type_id":"4","last_reported":1718212025,"current_range_meters":0,"station_id":"ce4bgt92rcd13ifvqcf0","pricing_plan_id":"cebpf4jnsgd1na2vs0mg"},{"bike_id":"51105a44-24dd-43fe-b7a4-5c856ef6dd56","system_id":"levelo_inurba_marseille","lat":43.313571,"lon":5.384829,"is_reserved":false,"is_disabled":false,"rental_uris":{"android":"levelo://app?vid=51105a44-24dd-43fe-b7a4-5c856ef6dd56","ios":"levelo://app?vid=51105a44-24dd-43fe-b7a4-5c856ef6dd56"},"vehicle_type_id":"4","last_reported":1718212025,"current_range_meters":20800,"station_id":"ce4bgt92rcd13ifvqcf0","pricing_plan_id":"cebpf4jnsgd1na2vs0mg"},{"bike_id":"a10206e1-cf1e-4aa2-aabc-0e2ef0db6a32","system_id":"levelo_inurba_marseille","lat":43.313571,"lon":5.384829,"is_reserved":false,"is_disabled":false,"rental_uris":{"android":"levelo://app?vid=a10206e1-cf1e-4aa2-aabc-0e2ef0db6a32","ios":"levelo://app?vid=a10206e1-cf1e-4aa2-aabc-0e2ef0db6a32"},"vehicle_type_id":"4","last_reported":1718212025,"current_range_meters":3200,"station_id":"ce4bgt92rcd13ifvqcf0","pricing_plan_id":"cebpf4jnsgd1na2vs0mg"},{"bike_id":"fcd21d01-8299-4b55-93be-cd4b21e31ada","system_id":"levelo_inurba_marseille","lat":43.299724,"lon":5.371829,"is_reserved":false,"is_disabled":false,"rental_uris":{"android":"levelo://app?vid=fcd21d01-8299-4b55-93be-cd4b21e31ada","ios":"levelo://app?vid=fcd21d01-8299-4b55-93be-cd4b21e31ada"},"vehicle_type_id":"4","last_reported":1718212025,"current_range_meters":2000,"station_id":"ce4bgr92rcd13ifvqc7g","pricing_plan_id":"cebpf4jnsgd1na2vs0mg"},{"bike_id":"2904b264-453a-4eff-9617-2dadf1037a43","system_id":"levelo_inurba_marseille","lat":43.305364,"lon":5.384119,"is_reserved":false,"is_disabled":false,"rental_uris":{"android":"levelo://app?vid=2904b264-453a-4eff-9617-2dadf1037a43","ios":"levelo://app?vid=2904b264-453a-4eff-9617-2dadf1037a43"},"vehicle_type_id":"4","last_reported":1718212025,"current_range_meters":4000,"station_id":"ce4bgg92rcd13ifvqb30","pricing_plan_id":"cebpf4jnsgd1na2vs0mg"},{"bike_id":"81fe772c-4a1f-456d-8747-1762f7e9834b","system_id":"levelo_inurba_marseille","lat":43.299243,"lon":5.374807,"is_reserved":false,"is_disabled":false,"rental_uris":{"android":"levelo://app?vid=81fe772c-4a1f-456d-8747-1762f7e9834b","ios":"levelo://app?vid=81fe772c-4a1f-456d-8747-1762f7e9834b"},"vehicle_type_id":"4","last_reported":1718212025,"current_range_meters":11200,"station_id":"ce4bgjh2rcd13ifvqbg0","pricing_plan_id":"cebpf4jnsgd1na2vs0mg"},{"bike_id":"a2e2161f-0b1a-4a08-98bf-04292f978e65","system_id":"levelo_inurba_marseille","lat":43.311722,"lon":5.387247,"is_reserved":false,"is_disabled":false,"rental_uris":{"android":"levelo://app?vid=a2e2161f-0b1a-4a08-98bf-04292f978e65","ios":"levelo://app?vid=a2e2161f-0b1a-4a08-98bf-04292f978e65"},"vehicle_type_id":"4","last_reported":1718212025,"current_range_meters":0,"station_id":"ce4bgv12rcd13ifvqcp0","pricing_plan_id":"cebpf4jnsgd1na2vs0mg"},{"bike_id":"dec2cb3a-b41a-40c9-b946-763f0ab179df","system_id":"levelo_inurba_marseille","lat":43.299243,"lon":5.37481,"is_reserved":false,"is_disabled":false,"rental_uris":{"android":"levelo://app?vid=dec2cb3a-b41a-40c9-b946-763f0ab179df","ios":"levelo://app?vid=dec2cb3a-b41a-40c9-b946-763f0ab179df"},"vehicle_type_id":"4","last_reported":1718212025,"current_range_meters":28800,"station_id":"ce4bgjh2rcd13ifvqbg0","pricing_plan_id":"cebpf4jnsgd1na2vs0mg"},{"bike_id":"8647e3d0-05cd-47de-a2e1-b507c43e3dec","system_id":"levelo_inurba_marseille","lat":43.299243,"lon":5.37481,"is_reserved":false,"is_disabled":false,"rental_uris":{"android":"levelo://app?vid=8647e3d0-05cd-47de-a2e1-b507c43e3dec","ios":"levelo://app?vid=8647e3d0-05cd-47de-a2e1-b507c43e3dec"},"vehicle_type_id":"4","last_reported":1718212025,"current_range_meters":28800,"station_id":"ce4bgjh2rcd13ifvqbg0","pricing_plan_id":"cebpf4jnsgd1na2vs0mg"},{"bike_id":"f2dd140d-6555-49db-8200-02868e966f47","system_id":"levelo_inurba_marseille","lat":43.3016,"lon":5.38076,"is_reserved":false,"is_disabled":false,"rental_uris":{"android":"levelo://app?vid=f2dd140d-6555-49db-8200-02868e966f47","ios":"levelo://app?vid=f2dd140d-6555-49db-8200-02868e966f47"},"vehicle_type_id":"4","last_reported":1718212025,"current_range_meters":3200,"station_id":"","pricing_plan_id":"cebpf4jnsgd1na2vs0mg"},{"bike_id":"2f9603fa-133f-4c78-90ab-94d8029171ae","system_id":"levelo_inurba_marseille","lat":43.297774,"lon":5.370875,"is_reserved":false,"is_disabled":false,"rental_uris":{"android":"levelo://app?vid=2f9603fa-133f-4c78-90ab-94d8029171ae","ios":"levelo://app?vid=2f9603fa-133f-4c78-90ab-94d8029171ae"},"vehicle_type_id":"4","last_reported":1718212025,"current_range_meters":4000,"station_id":"ce4bgop2rcd13ifvqc1g","pricing_plan_id":"cebpf4jnsgd1na2vs0mg"},{"bike_id":"cecb7f08-726e-4096-8a86-e22551304b6b","system_id":"levelo_inurba_marseille","lat":43.29777,"lon":5.37118,"is_reserved":false,"is_disabled":false,"rental_uris":{"android":"levelo://app?vid=cecb7f08-726e-4096-8a86-e22551304b6b","ios":"levelo://app?vid=cecb7f08-726e-4096-8a86-e22551304b6b"},"vehicle_type_id":"4","last_reported":1718212025,"current_range_meters":20800,"station_id":"ce4bgop2rcd13ifvqc1g","pricing_plan_id":"cebpf4jnsgd1na2vs0mg"},{"bike_id":"fd41aee6-8ead-46e3-8f89-5d045f681e86","system_id":"levelo_inurba_marseille","lat":43.297774,"lon":5.370875,"is_reserved":false,"is_disabled":false,"rental_uris":{"android":"levelo://app?vid=fd41aee6-8ead-46e3-8f89-5d045f681e86","ios":"levelo://app?vid=fd41aee6-8ead-46e3-8f89-5d045f681e86"},"vehicle_type_id":"4","last_reported":1718212025,"current_range_meters":24800,"station_id":"ce4bgop2rcd13ifvqc1g","pricing_plan_id":"cebpf4jnsgd1na2vs0mg"},{"bike_id":"6538e04f-ce5e-419c-8e4c-6ddd02f64a1e","system_id":"levelo_inurba_marseille","lat":43.322872,"lon":5.382756,"is_reserved":false,"is_disabled":false,"rental_uris":{"android":"levelo://app?vid=6538e04f-ce5e-419c-8e4c-6ddd02f64a1e","ios":"levelo://app?vid=6538e04f-ce5e-419c-8e4c-6ddd02f64a1e"},"vehicle_type_id":"4","last_reported":1718212025,"current_range_meters":19600,"station_id":"ce4bhr12rcd13ifvqhqg","pricing_plan_id":"cebpf4jnsgd1na2vs0mg"},{"bike_id":"6793ab27-7874-48a4-ba3a-00d5106a4e8a","system_id":"levelo_inurba_marseille","lat":43.322872,"lon":5.382756,"is_reserved":false,"is_disabled":false,"rental_uris":{"android":"levelo://app?vid=6793ab27-7874-48a4-ba3a-00d5106a4e8a","ios":"levelo://app?vid=6793ab27-7874-48a4-ba3a-00d5106a4e8a"},"vehicle_type_id":"4","last_reported":1718212025,"current_range_meters":16400,"station_id":"ce4bhr12rcd13ifvqhqg","pricing_plan_id":"cebpf4jnsgd1na2vs0mg"},{"bike_id":"c32123cd-eecc-4f9a-a83a-4ec57aa019d5","system_id":"levelo_inurba_marseille","lat":43.322872,"lon":5.382756,"is_reserved":false,"is_disabled":false,"rental_uris":{"android":"levelo://app?vid=c32123cd-eecc-4f9a-a83a-4ec57aa019d5","ios":"levelo://app?vid=c32123cd-eecc-4f9a-a83a-4ec57aa019d5"},"vehicle_type_id":"4","last_reported":1718212025,"current_range_meters":16800,"station_id":"ce4bhr12rcd13ifvqhqg","pricing_plan_id":"cebpf4jnsgd1na2vs0mg"},{"bike_id":"56ae48b9-cb8d-4d94-966b-b3be837fb22c","system_id":"levelo_inurba_marseille","lat":43.32289,"lon":5.38276,"is_reserved":false,"is_disabled":false,"rental_uris":{"android":"levelo://app?vid=56ae48b9-cb8d-4d94-966b-b3be837fb22c","ios":"levelo://app?vid=56ae48b9-cb8d-4d94-966b-b3be837fb22c"},"vehicle_type_id":"4","last_reported":1718212025,"current_range_meters":3200,"station_id":"ce4bhr12rcd13ifvqhqg","pricing_plan_id":"cebpf4jnsgd1na2vs0mg"},{"bike_id":"713be8d5-fb13-43a3-92ec-a77bb2f897f2","system_id":"levelo_inurba_marseille","lat":43.322872,"lon":5.382756,"is_reserved":false,"is_disabled":false,"rental_uris":{"android":"levelo://app?vid=713be8d5-fb13-43a3-92ec-a77bb2f897f2","ios":"levelo://app?vid=713be8d5-fb13-43a3-92ec-a77bb2f897f2"},"vehicle_type_id":"4","last_reported":1718212025,"current_range_meters":2000,"station_id":"ce4bhr12rcd13ifvqhqg","pricing_plan_id":"cebpf4jnsgd1na2vs0mg"},{"bike_id":"4f2afbcf-ffe7-4a2e-8e3e-be152f4cfb04","system_id":"levelo_inurba_marseille","lat":43.322872,"lon":5.382756,"is_reserved":false,"is_disabled":false,"rental_uris":{"android":"levelo://app?vid=4f2afbcf-ffe7-4a2e-8e3e-be152f4cfb04","ios":"levelo://app?vid=4f2afbcf-ffe7-4a2e-8e3e-be152f4cfb04"},"vehicle_type_id":"4","last_reported":1718212025,"current_range_meters":28800,"station_id":"ce4bhr12rcd13ifvqhqg","pricing_plan_id":"cebpf4jnsgd1na2vs0mg"},{"bike_id":"921f809f-b1c9-45c5-99db-16b7a5e1ee06","system_id":"levelo_inurba_marseille","lat":43.29706,"lon":5.36143,"is_reserved":false,"is_disabled":false,"rental_uris":{"android":"levelo://app?vid=921f809f-b1c9-45c5-99db-16b7a5e1ee06","ios":"levelo://app?vid=921f809f-b1c9-45c5-99db-16b7a5e1ee06"},"vehicle_type_id":"4","last_reported":1718212025,"current_range_meters":21200,"station_id":"","pricing_plan_id":"cebpf4jnsgd1na2vs0mg"},{"bike_id":"3ffb9209-c4c7-4fa9-81fc-b4643d4dc9d3","system_id":"levelo_inurba_marseille","lat":43.29573,"lon":5.367355,"is_reserved":false,"is_disabled":false,"rental_uris":{"android":"levelo://app?vid=3ffb9209-c4c7-4fa9-81fc-b4643d4dc9d3","ios":"levelo://app?vid=3ffb9209-c4c7-4fa9-81fc-b4643d4dc9d3"},"vehicle_type_id":"4","last_reported":1718212025,"current_range_meters":1200,"station_id":"ce4bgph2rcd13ifvqc2g","pricing_plan_id":"cebpf4jnsgd1na2vs0mg"},{"bike_id":"0dbd67c2-7749-4589-bd36-39ee68702582","system_id":"levelo_inurba_marseille","lat":43.29573,"lon":5.367355,"is_reserved":false,"is_disabled":false,"rental_uris":{"android":"levelo://app?vid=0dbd67c2-7749-4589-bd36-39ee68702582","ios":"levelo://app?vid=0dbd67c2-7749-4589-bd36-39ee68702582"},"vehicle_type_id":"4","last_reported":1718212025,"current_range_meters":1200,"station_id":"ce4bgph2rcd13ifvqc2g","pricing_plan_id":"cebpf4jnsgd1na2vs0mg"},{"bike_id":"25c75fb0-54aa-47c3-aeea-1d8176315d55","system_id":"levelo_inurba_marseille","lat":43.29609,"lon":5.3715,"is_reserved":false,"is_disabled":false,"rental_uris":{"android":"levelo://app?vid=25c75fb0-54aa-47c3-aeea-1d8176315d55","ios":"levelo://app?vid=25c75fb0-54aa-47c3-aeea-1d8176315d55"},"vehicle_type_id":"4","last_reported":1718212025,"current_range_meters":30800,"station_id":"ce4bgnh2rcd13ifvqc0g","pricing_plan_id":"cebpf4jnsgd1na2vs0mg"},{"bike_id":"cc94246c-0bfd-4be2-825a-2fb237455c8c","system_id":"levelo_inurba_marseille","lat":43.296921,"lon":5.376579,"is_reserved":false,"is_disabled":false,"rental_uris":{"android":"levelo://app?vid=cc94246c-0bfd-4be2-825a-2fb237455c8c","ios":"levelo://app?vid=cc94246c-0bfd-4be2-825a-2fb237455c8c"},"vehicle_type_id":"4","last_reported":1718212025,"current_range_meters":0,"station_id":"ce4bgkh2rcd13ifvqbl0","pricing_plan_id":"cebpf4jnsgd1na2vs0mg"},{"bike_id":"0212c496-aad9-4bb2-b900-a9c2cac12fa6","system_id":"levelo_inurba_marseille","lat":43.309589,"lon":5.390258,"is_reserved":false,"is_disabled":false,"rental_uris":{"android":"levelo://app?vid=0212c496-aad9-4bb2-b900-a9c2cac12fa6","ios":"levelo://app?vid=0212c496-aad9-4bb2-b900-a9c2cac12fa6"},"vehicle_type_id":"4","last_reported":1718212025,"current_range_meters":3600,"station_id":"ce4bgup2rcd13ifvqco0","pricing_plan_id":"cebpf4jnsgd1na2vs0mg"},{"bike_id":"396752d1-3dc0-436a-8651-7c3906097999","system_id":"levelo_inurba_marseille","lat":43.296935,"lon":5.376544,"is_reserved":false,"is_disabled":false,"rental_uris":{"android":"levelo://app?vid=396752d1-3dc0-436a-8651-7c3906097999","ios":"levelo://app?vid=396752d1-3dc0-436a-8651-7c3906097999"},"vehicle_type_id":"4","last_reported":1718212025,"current_range_meters":12400,"station_id":"ce4bgkh2rcd13ifvqbl0","pricing_plan_id":"cebpf4jnsgd1na2vs0mg"},{"bike_id":"958f10e9-bc8e-4cb1-a5ad-6049d4ed4d53","system_id":"levelo_inurba_marseille","lat":43.299028,"lon":5.381509,"is_reserved":false,"is_disabled":false,"rental_uris":{"android":"levelo://app?vid=958f10e9-bc8e-4cb1-a5ad-6049d4ed4d53","ios":"levelo://app?vid=958f10e9-bc8e-4cb1-a5ad-6049d4ed4d53"},"vehicle_type_id":"4","last_reported":1718212025,"current_range_meters":13200,"station_id":"ce4bgj12rcd13ifvqbc0","pricing_plan_id":"cebpf4jnsgd1na2vs0mg"},{"bike_id":"7d0bbb7b-5928-4550-8ac2-9e0a349467d9","system_id":"levelo_inurba_marseille","lat":43.299028,"lon":5.381509,"is_reserved":false,"is_disabled":false,"rental_uris":{"android":"levelo://app?vid=7d0bbb7b-5928-4550-8ac2-9e0a349467d9","ios":"levelo://app?vid=7d0bbb7b-5928-4550-8ac2-9e0a349467d9"},"vehicle_type_id":"4","last_reported":1718212025,"current_range_meters":22800,"station_id":"ce4bgj12rcd13ifvqbc0","pricing_plan_id":"cebpf4jnsgd1na2vs0mg"},{"bike_id":"f510c3c3-c571-4ef3-bcac-1abecff20e5a","system_id":"levelo_inurba_marseille","lat":43.296935,"lon":5.376544,"is_reserved":false,"is_disabled":false,"rental_uris":{"android":"levelo://app?vid=f510c3c3-c571-4ef3-bcac-1abecff20e5a","ios":"levelo://app?vid=f510c3c3-c571-4ef3-bcac-1abecff20e5a"},"vehicle_type_id":"4","last_reported":1718212025,"current_range_meters":2000,"station_id":"ce4bgkh2rcd13ifvqbl0","pricing_plan_id":"cebpf4jnsgd1na2vs0mg"},{"bike_id":"b9c4e96b-1aee-47ae-8017-6aed906ea98c","system_id":"levelo_inurba_marseille","lat":43.309589,"lon":5.390258,"is_reserved":false,"is_disabled":false,"rental_uris":{"android":"levelo://app?vid=b9c4e96b-1aee-47ae-8017-6aed906ea98c","ios":"levelo://app?vid=b9c4e96b-1aee-47ae-8017-6aed906ea98c"},"vehicle_type_id":"4","last_reported":1718212025,"current_range_meters":4400,"station_id":"ce4bgup2rcd13ifvqco0","pricing_plan_id":"cebpf4jnsgd1na2vs0mg"},{"bike_id":"b11381bc-10a3-4692-addd-0742d21eeb77","system_id":"levelo_inurba_marseille","lat":43.309589,"lon":5.390258,"is_reserved":false,"is_disabled":false,"rental_uris":{"android":"levelo://app?vid=b11381bc-10a3-4692-addd-0742d21eeb77","ios":"levelo://app?vid=b11381bc-10a3-4692-addd-0742d21eeb77"},"vehicle_type_id":"4","last_reported":1718212025,"current_range_meters":16800,"station_id":"ce4bgup2rcd13ifvqco0","pricing_plan_id":"cebpf4jnsgd1na2vs0mg"},{"bike_id":"2971afb9-b284-49c1-8f64-b92182c82b36","system_id":"levelo_inurba_marseille","lat":43.31757,"lon":5.39019,"is_reserved":false,"is_disabled":false,"rental_uris":{"android":"levelo://app?vid=2971afb9-b284-49c1-8f64-b92182c82b36","ios":"levelo://app?vid=2971afb9-b284-49c1-8f64-b92182c82b36"},"vehicle_type_id":"4","last_reported":1718212025,"current_range_meters":11200,"station_id":"ce4bhqp2rcd13ifvqhng","pricing_plan_id":"cebpf4jnsgd1na2vs0mg"},{"bike_id":"5b1b66b7-4692-46a0-b574-a99932976d2b","system_id":"levelo_inurba_marseille","lat":43.31759,"lon":5.39019,"is_reserved":false,"is_disabled":false,"rental_uris":{"android":"levelo://app?vid=5b1b66b7-4692-46a0-b574-a99932976d2b","ios":"levelo://app?vid=5b1b66b7-4692-46a0-b574-a99932976d2b"},"vehicle_type_id":"4","last_reported":1718212025,"current_range_meters":25600,"station_id":"ce4bhqp2rcd13ifvqhng","pricing_plan_id":"cebpf4jnsgd1na2vs0mg"},{"bike_id":"d51789ea-eb04-4e0b-b0d1-a567aa1af80c","system_id":"levelo_inurba_marseille","lat":43.304606,"lon":5.379026,"is_reserved":false,"is_disabled":false,"rental_uris":{"android":"levelo://app?vid=d51789ea-eb04-4e0b-b0d1-a567aa1af80c","ios":"levelo://app?vid=d51789ea-eb04-4e0b-b0d1-a567aa1af80c"},"vehicle_type_id":"4","last_reported":1718212025,"current_range_meters":10000,"station_id":"ce4bgup2rcd13ifvqcn0","pricing_plan_id":"cebpf4jnsgd1na2vs0mg"},{"bike_id":"f049759f-108b-46f4-bb22-88f360d7da4d","system_id":"levelo_inurba_marseille","lat":43.29801,"lon":5.38094,"is_reserved":false,"is_disabled":false,"rental_uris":{"android":"levelo://app?vid=f049759f-108b-46f4-bb22-88f360d7da4d","ios":"levelo://app?vid=f049759f-108b-46f4-bb22-88f360d7da4d"},"vehicle_type_id":"4","last_reported":1718212025,"current_range_meters":0,"station_id":"ce4bgip2rcd13ifvqbb0","pricing_plan_id":"cebpf4jnsgd1na2vs0mg"},{"bike_id":"3de90a4c-4634-4c24-afb6-fa0206248bb8","system_id":"levelo_inurba_marseille","lat":43.298037,"lon":5.381066,"is_reserved":false,"is_disabled":false,"rental_uris":{"android":"levelo://app?vid=3de90a4c-4634-4c24-afb6-fa0206248bb8","ios":"levelo://app?vid=3de90a4c-4634-4c24-afb6-fa0206248bb8"},"vehicle_type_id":"4","last_reported":1718212025,"current_range_meters":14400,"station_id":"ce4bgip2rcd13ifvqbb0","pricing_plan_id":"cebpf4jnsgd1na2vs0mg"},{"bike_id":"787354c9-d304-41a1-a390-55d7a02ce777","system_id":"levelo_inurba_marseille","lat":43.298037,"lon":5.381066,"is_reserved":false,"is_disabled":false,"rental_uris":{"android":"levelo://app?vid=787354c9-d304-41a1-a390-55d7a02ce777","ios":"levelo://app?vid=787354c9-d304-41a1-a390-55d7a02ce777"},"vehicle_type_id":"4","last_reported":1718212025,"current_range_meters":15600,"station_id":"ce4bgip2rcd13ifvqbb0","pricing_plan_id":"cebpf4jnsgd1na2vs0mg"},{"bike_id":"40c3314f-8693-4928-90dc-9230434ff91b","system_id":"levelo_inurba_marseille","lat":43.29574,"lon":5.37513,"is_reserved":false,"is_disabled":false,"rental_uris":{"android":"levelo://app?vid=40c3314f-8693-4928-90dc-9230434ff91b","ios":"levelo://app?vid=40c3314f-8693-4928-90dc-9230434ff91b"},"vehicle_type_id":"4","last_reported":1718212025,"current_range_meters":0,"station_id":"ce4bgh92rcd13ifvqb50","pricing_plan_id":"cebpf4jnsgd1na2vs0mg"},{"bike_id":"189d8192-0b24-42b8-b2cf-1009d0613a06","system_id":"levelo_inurba_marseille","lat":43.29572,"lon":5.37508,"is_reserved":false,"is_disabled":false,"rental_uris":{"android":"levelo://app?vid=189d8192-0b24-42b8-b2cf-1009d0613a06","ios":"levelo://app?vid=189d8192-0b24-42b8-b2cf-1009d0613a06"},"vehicle_type_id":"4","last_reported":1718212025,"current_range_meters":0,"station_id":"ce4bgh92rcd13ifvqb50","pricing_plan_id":"cebpf4jnsgd1na2vs0mg"},{"bike_id":"97fcd1af-14a4-41dd-adbc-c7fc825dd745","system_id":"levelo_inurba_marseille","lat":43.2957,"lon":5.3751,"is_reserved":false,"is_disabled":false,"rental_uris":{"android":"levelo://app?vid=97fcd1af-14a4-41dd-adbc-c7fc825dd745","ios":"levelo://app?vid=97fcd1af-14a4-41dd-adbc-c7fc825dd745"},"vehicle_type_id":"4","last_reported":1718212025,"current_range_meters":0,"station_id":"ce4bgh92rcd13ifvqb50","pricing_plan_id":"cebpf4jnsgd1na2vs0mg"},{"bike_id":"881c1f79-d7f6-4420-9b7c-d5567b51eeb0","system_id":"levelo_inurba_marseille","lat":43.298037,"lon":5.381066,"is_reserved":false,"is_disabled":false,"rental_uris":{"android":"levelo://app?vid=881c1f79-d7f6-4420-9b7c-d5567b51eeb0","ios":"levelo://app?vid=881c1f79-d7f6-4420-9b7c-d5567b51eeb0"},"vehicle_type_id":"4","last_reported":1718212025,"current_range_meters":6400,"station_id":"ce4bgip2rcd13ifvqbb0","pricing_plan_id":"cebpf4jnsgd1na2vs0mg"},{"bike_id":"d6af1fab-280e-4a81-9954-face465809ad","system_id":"levelo_inurba_marseille","lat":43.296277,"lon":5.377108,"is_reserved":false,"is_disabled":false,"rental_uris":{"android":"levelo://app?vid=d6af1fab-280e-4a81-9954-face465809ad","ios":"levelo://app?vid=d6af1fab-280e-4a81-9954-face465809ad"},"vehicle_type_id":"4","last_reported":1718212025,"current_range_meters":19600,"station_id":"ce4bgi92rcd13ifvqb90","pricing_plan_id":"cebpf4jnsgd1na2vs0mg"},{"bike_id":"9d1a66d7-6574-430f-9563-0e53bd72f886","system_id":"levelo_inurba_marseille","lat":43.29618,"lon":5.37694,"is_reserved":false,"is_disabled":false,"rental_uris":{"android":"levelo://app?vid=9d1a66d7-6574-430f-9563-0e53bd72f886","ios":"levelo://app?vid=9d1a66d7-6574-430f-9563-0e53bd72f886"},"vehicle_type_id":"4","last_reported":1718212025,"current_range_meters":10800,"station_id":"","pricing_plan_id":"cebpf4jnsgd1na2vs0mg"},{"bike_id":"067561f7-536f-4331-8e4d-c56ff41460bd","system_id":"levelo_inurba_marseille","lat":43.295169,"lon":5.390426,"is_reserved":false,"is_disabled":false,"rental_uris":{"android":"levelo://app?vid=067561f7-536f-4331-8e4d-c56ff41460bd","ios":"levelo://app?vid=067561f7-536f-4331-8e4d-c56ff41460bd"},"vehicle_type_id":"4","last_reported":1718212025,"current_range_meters":18000,"station_id":"ce4bh3p2rcd13ifvqdp0","pricing_plan_id":"cebpf4jnsgd1na2vs0mg"},{"bike_id":"a46596c5-4c71-47d8-9be3-57cc0f3f3027","system_id":"levelo_inurba_marseille","lat":43.304278,"lon":5.388868,"is_reserved":false,"is_disabled":false,"rental_uris":{"android":"levelo://app?vid=a46596c5-4c71-47d8-9be3-57cc0f3f3027","ios":"levelo://app?vid=a46596c5-4c71-47d8-9be3-57cc0f3f3027"},"vehicle_type_id":"4","last_reported":1718212025,"current_range_meters":27200,"station_id":"ce4bgk12rcd13ifvqbi0","pricing_plan_id":"cebpf4jnsgd1na2vs0mg"},{"bike_id":"eb71e2df-5fff-4beb-b0fa-8e68ca88444f","system_id":"levelo_inurba_marseille","lat":43.298037,"lon":5.381066,"is_reserved":false,"is_disabled":false,"rental_uris":{"android":"levelo://app?vid=eb71e2df-5fff-4beb-b0fa-8e68ca88444f","ios":"levelo://app?vid=eb71e2df-5fff-4beb-b0fa-8e68ca88444f"},"vehicle_type_id":"4","last_reported":1718212025,"current_range_meters":28800,"station_id":"ce4bgip2rcd13ifvqbb0","pricing_plan_id":"cebpf4jnsgd1na2vs0mg"},{"bike_id":"755b2786-a295-49d6-8b12-9e81d2de275f","system_id":"levelo_inurba_marseille","lat":43.296263,"lon":5.377094,"is_reserved":false,"is_disabled":false,"rental_uris":{"android":"levelo://app?vid=755b2786-a295-49d6-8b12-9e81d2de275f","ios":"levelo://app?vid=755b2786-a295-49d6-8b12-9e81d2de275f"},"vehicle_type_id":"4","last_reported":1718212025,"current_range_meters":6800,"station_id":"ce4bgi92rcd13ifvqb90","pricing_plan_id":"cebpf4jnsgd1na2vs0mg"},{"bike_id":"16a70c27-e8c6-4e79-9bde-ac6c8a68455a","system_id":"levelo_inurba_marseille","lat":43.299707,"lon":5.384859,"is_reserved":false,"is_disabled":false,"rental_uris":{"android":"levelo://app?vid=16a70c27-e8c6-4e79-9bde-ac6c8a68455a","ios":"levelo://app?vid=16a70c27-e8c6-4e79-9bde-ac6c8a68455a"},"vehicle_type_id":"4","last_reported":1718212025,"current_range_meters":29600,"station_id":"ce4bgj92rcd13ifvqbd0","pricing_plan_id":"cebpf4jnsgd1na2vs0mg"},{"bike_id":"5a047d27-46fb-4698-908d-e07ecbadaf6d","system_id":"levelo_inurba_marseille","lat":43.299717,"lon":5.384845,"is_reserved":false,"is_disabled":false,"rental_uris":{"android":"levelo://app?vid=5a047d27-46fb-4698-908d-e07ecbadaf6d","ios":"levelo://app?vid=5a047d27-46fb-4698-908d-e07ecbadaf6d"},"vehicle_type_id":"4","last_reported":1718212025,"current_range_meters":0,"station_id":"ce4bgj92rcd13ifvqbd0","pricing_plan_id":"cebpf4jnsgd1na2vs0mg"},{"bike_id":"94c2fa9f-3149-4c36-9d79-b118f6810868","system_id":"levelo_inurba_marseille","lat":43.29966,"lon":5.38497,"is_reserved":false,"is_disabled":false,"rental_uris":{"android":"levelo://app?vid=94c2fa9f-3149-4c36-9d79-b118f6810868","ios":"levelo://app?vid=94c2fa9f-3149-4c36-9d79-b118f6810868"},"vehicle_type_id":"4","last_reported":1718212025,"current_range_meters":0,"station_id":"ce4bgj92rcd13ifvqbd0","pricing_plan_id":"cebpf4jnsgd1na2vs0mg"},{"bike_id":"4de44ffa-1507-45b6-a588-3721db09f445","system_id":"levelo_inurba_marseille","lat":43.29586,"lon":5.37868,"is_reserved":false,"is_disabled":false,"rental_uris":{"android":"levelo://app?vid=4de44ffa-1507-45b6-a588-3721db09f445","ios":"levelo://app?vid=4de44ffa-1507-45b6-a588-3721db09f445"},"vehicle_type_id":"4","last_reported":1718212025,"current_range_meters":2400,"station_id":"","pricing_plan_id":"cebpf4jnsgd1na2vs0mg"},{"bike_id":"3aa2237d-9bb8-48c3-93a5-e422fece040a","system_id":"levelo_inurba_marseille","lat":43.32367,"lon":5.388836,"is_reserved":false,"is_disabled":false,"rental_uris":{"android":"levelo://app?vid=3aa2237d-9bb8-48c3-93a5-e422fece040a","ios":"levelo://app?vid=3aa2237d-9bb8-48c3-93a5-e422fece040a"},"vehicle_type_id":"4","last_reported":1718212025,"current_range_meters":20800,"station_id":"ce4bhqp2rcd13ifvqhog","pricing_plan_id":"cebpf4jnsgd1na2vs0mg"},{"bike_id":"f9233f2b-06d8-4ea1-9fb3-2d50e4b056e4","system_id":"levelo_inurba_marseille","lat":43.2941,"lon":5.37413,"is_reserved":false,"is_disabled":false,"rental_uris":{"android":"levelo://app?vid=f9233f2b-06d8-4ea1-9fb3-2d50e4b056e4","ios":"levelo://app?vid=f9233f2b-06d8-4ea1-9fb3-2d50e4b056e4"},"vehicle_type_id":"4","last_reported":1718212025,"current_range_meters":0,"station_id":"","pricing_plan_id":"cebpf4jnsgd1na2vs0mg"},{"bike_id":"6cabca35-526b-42e3-9acb-b38a9825f63e","system_id":"levelo_inurba_marseille","lat":43.29602,"lon":5.381084,"is_reserved":false,"is_disabled":false,"rental_uris":{"android":"levelo://app?vid=6cabca35-526b-42e3-9acb-b38a9825f63e","ios":"levelo://app?vid=6cabca35-526b-42e3-9acb-b38a9825f63e"},"vehicle_type_id":"4","last_reported":1718212025,"current_range_meters":16400,"station_id":"ce4bgl12rcd13ifvqbo0","pricing_plan_id":"cebpf4jnsgd1na2vs0mg"},{"bike_id":"f0e66573-3087-464c-845c-bbad563319f4","system_id":"levelo_inurba_marseille","lat":43.312961,"lon":5.393646,"is_reserved":false,"is_disabled":false,"rental_uris":{"android":"levelo://app?vid=f0e66573-3087-464c-845c-bbad563319f4","ios":"levelo://app?vid=f0e66573-3087-464c-845c-bbad563319f4"},"vehicle_type_id":"4","last_reported":1718212025,"current_range_meters":13600,"station_id":"ce4bhm12rcd13ifvqgkg","pricing_plan_id":"cebpf4jnsgd1na2vs0mg"},{"bike_id":"1f8c9158-1011-45f6-946a-811f4b31085c","system_id":"levelo_inurba_marseille","lat":43.29602,"lon":5.381084,"is_reserved":false,"is_disabled":false,"rental_uris":{"android":"levelo://app?vid=1f8c9158-1011-45f6-946a-811f4b31085c","ios":"levelo://app?vid=1f8c9158-1011-45f6-946a-811f4b31085c"},"vehicle_type_id":"4","last_reported":1718212025,"current_range_meters":17600,"station_id":"ce4bgl12rcd13ifvqbo0","pricing_plan_id":"cebpf4jnsgd1na2vs0mg"},{"bike_id":"42367143-9b85-44b8-8cc2-720f918ce2cc","system_id":"levelo_inurba_marseille","lat":43.29595,"lon":5.38111,"is_reserved":false,"is_disabled":false,"rental_uris":{"android":"levelo://app?vid=42367143-9b85-44b8-8cc2-720f918ce2cc","ios":"levelo://app?vid=42367143-9b85-44b8-8cc2-720f918ce2cc"},"vehicle_type_id":"4","last_reported":1718212025,"current_range_meters":2800,"station_id":"ce4bgl12rcd13ifvqbo0","pricing_plan_id":"cebpf4jnsgd1na2vs0mg"},{"bike_id":"118ba827-5b34-49ba-9866-5bbb4411f3a7","system_id":"levelo_inurba_marseille","lat":43.293259,"lon":5.371586,"is_reserved":false,"is_disabled":false,"rental_uris":{"android":"levelo://app?vid=118ba827-5b34-49ba-9866-5bbb4411f3a7","ios":"levelo://app?vid=118ba827-5b34-49ba-9866-5bbb4411f3a7"},"vehicle_type_id":"4","last_reported":1718212025,"current_range_meters":15600,"station_id":"ce4bgh92rcd13ifvqb40","pricing_plan_id":"cebpf4jnsgd1na2vs0mg"},{"bike_id":"f042edc8-13d3-40c0-8cb6-6b7e3b97dafc","system_id":"levelo_inurba_marseille","lat":43.293259,"lon":5.371586,"is_reserved":false,"is_disabled":false,"rental_uris":{"android":"levelo://app?vid=f042edc8-13d3-40c0-8cb6-6b7e3b97dafc","ios":"levelo://app?vid=f042edc8-13d3-40c0-8cb6-6b7e3b97dafc"},"vehicle_type_id":"4","last_reported":1718212025,"current_range_meters":16400,"station_id":"ce4bgh92rcd13ifvqb40","pricing_plan_id":"cebpf4jnsgd1na2vs0mg"},{"bike_id":"b5a368dd-1336-4810-9ca2-16852f3fab74","system_id":"levelo_inurba_marseille","lat":43.292749,"lon":5.368398,"is_reserved":false,"is_disabled":false,"rental_uris":{"android":"levelo://app?vid=b5a368dd-1336-4810-9ca2-16852f3fab74","ios":"levelo://app?vid=b5a368dd-1336-4810-9ca2-16852f3fab74"},"vehicle_type_id":"4","last_reported":1718212025,"current_range_meters":0,"station_id":"ce4bhbp2rcd13ifvqesg","pricing_plan_id":"cebpf4jnsgd1na2vs0mg"},{"bike_id":"2a752627-d824-4aee-b879-2686e3c473f3","system_id":"levelo_inurba_marseille","lat":43.292321,"lon":5.368337,"is_reserved":false,"is_disabled":false,"rental_uris":{"android":"levelo://app?vid=2a752627-d824-4aee-b879-2686e3c473f3","ios":"levelo://app?vid=2a752627-d824-4aee-b879-2686e3c473f3"},"vehicle_type_id":"4","last_reported":1718212025,"current_range_meters":9200,"station_id":"ce4bhbp2rcd13ifvqesg","pricing_plan_id":"cebpf4jnsgd1na2vs0mg"},{"bike_id":"ac106697-e9fc-48fc-91a8-28ee5b3d0edf","system_id":"levelo_inurba_marseille","lat":43.29304,"lon":5.37455,"is_reserved":false,"is_disabled":false,"rental_uris":{"android":"levelo://app?vid=ac106697-e9fc-48fc-91a8-28ee5b3d0edf","ios":"levelo://app?vid=ac106697-e9fc-48fc-91a8-28ee5b3d0edf"},"vehicle_type_id":"4","last_reported":1718212025,"current_range_meters":0,"station_id":"ce4bgi12rcd13ifvqb70","pricing_plan_id":"cebpf4jnsgd1na2vs0mg"},{"bike_id":"dd13acc7-b1b5-441a-a72e-7d5d24bfac2e","system_id":"levelo_inurba_marseille","lat":43.29299,"lon":5.37461,"is_reserved":false,"is_disabled":false,"rental_uris":{"android":"levelo://app?vid=dd13acc7-b1b5-441a-a72e-7d5d24bfac2e","ios":"levelo://app?vid=dd13acc7-b1b5-441a-a72e-7d5d24bfac2e"},"vehicle_type_id":"4","last_reported":1718212025,"current_range_meters":11600,"station_id":"ce4bgi12rcd13ifvqb70","pricing_plan_id":"cebpf4jnsgd1na2vs0mg"},{"bike_id":"516ad6b1-94dc-4146-9ebb-f7fd9e3358d8","system_id":"levelo_inurba_marseille","lat":43.293,"lon":5.37467,"is_reserved":false,"is_disabled":false,"rental_uris":{"android":"levelo://app?vid=516ad6b1-94dc-4146-9ebb-f7fd9e3358d8","ios":"levelo://app?vid=516ad6b1-94dc-4146-9ebb-f7fd9e3358d8"},"vehicle_type_id":"4","last_reported":1718212025,"current_range_meters":2000,"station_id":"ce4bgi12rcd13ifvqb70","pricing_plan_id":"cebpf4jnsgd1na2vs0mg"},{"bike_id":"9a11d829-5769-4b8f-9857-095d919e0e57","system_id":"levelo_inurba_marseille","lat":43.29297,"lon":5.37467,"is_reserved":false,"is_disabled":false,"rental_uris":{"android":"levelo://app?vid=9a11d829-5769-4b8f-9857-095d919e0e57","ios":"levelo://app?vid=9a11d829-5769-4b8f-9857-095d919e0e57"},"vehicle_type_id":"4","last_reported":1718212025,"current_range_meters":15600,"station_id":"ce4bgi12rcd13ifvqb70","pricing_plan_id":"cebpf4jnsgd1na2vs0mg"},{"bike_id":"35025a0e-1acd-4fe5-8e14-3fd081b6d8d9","system_id":"levelo_inurba_marseille","lat":43.29293,"lon":5.37456,"is_reserved":false,"is_disabled":false,"rental_uris":{"android":"levelo://app?vid=35025a0e-1acd-4fe5-8e14-3fd081b6d8d9","ios":"levelo://app?vid=35025a0e-1acd-4fe5-8e14-3fd081b6d8d9"},"vehicle_type_id":"4","last_reported":1718212025,"current_range_meters":0,"station_id":"ce4bgi12rcd13ifvqb70","pricing_plan_id":"cebpf4jnsgd1na2vs0mg"},{"bike_id":"23eb943c-060a-4111-ace8-0e2ca997886b","system_id":"levelo_inurba_marseille","lat":43.305994,"lon":5.393687,"is_reserved":false,"is_disabled":false,"rental_uris":{"android":"levelo://app?vid=23eb943c-060a-4111-ace8-0e2ca997886b","ios":"levelo://app?vid=23eb943c-060a-4111-ace8-0e2ca997886b"},"vehicle_type_id":"4","last_reported":1718212025,"current_range_meters":0,"station_id":"ce4bh0p2rcd13ifvqd80","pricing_plan_id":"cebpf4jnsgd1na2vs0mg"},{"bike_id":"96e5792d-a8dd-4760-b4f3-735b5a4e41eb","system_id":"levelo_inurba_marseille","lat":43.293009,"lon":5.374584,"is_reserved":false,"is_disabled":false,"rental_uris":{"android":"levelo://app?vid=96e5792d-a8dd-4760-b4f3-735b5a4e41eb","ios":"levelo://app?vid=96e5792d-a8dd-4760-b4f3-735b5a4e41eb"},"vehicle_type_id":"4","last_reported":1718212025,"current_range_meters":3600,"station_id":"ce4bgi12rcd13ifvqb70","pricing_plan_id":"cebpf4jnsgd1na2vs0mg"},{"bike_id":"8f1d5b1f-31a9-4271-9479-29d4845d3880","system_id":"levelo_inurba_marseille","lat":43.305994,"lon":5.393687,"is_reserved":false,"is_disabled":false,"rental_uris":{"android":"levelo://app?vid=8f1d5b1f-31a9-4271-9479-29d4845d3880","ios":"levelo://app?vid=8f1d5b1f-31a9-4271-9479-29d4845d3880"},"vehicle_type_id":"4","last_reported":1718212025,"current_range_meters":23200,"station_id":"ce4bh0p2rcd13ifvqd80","pricing_plan_id":"cebpf4jnsgd1na2vs0mg"},{"bike_id":"f6072a55-4cf0-46e6-8a45-f66753fc7fed","system_id":"levelo_inurba_marseille","lat":43.29291,"lon":5.37463,"is_reserved":false,"is_disabled":false,"rental_uris":{"android":"levelo://app?vid=f6072a55-4cf0-46e6-8a45-f66753fc7fed","ios":"levelo://app?vid=f6072a55-4cf0-46e6-8a45-f66753fc7fed"},"vehicle_type_id":"4","last_reported":1718212025,"current_range_meters":0,"station_id":"ce4bgi12rcd13ifvqb70","pricing_plan_id":"cebpf4jnsgd1na2vs0mg"},{"bike_id":"fdf06eb5-4eb5-4995-8e6c-5bcf19bce2f5","system_id":"levelo_inurba_marseille","lat":43.305994,"lon":5.393687,"is_reserved":false,"is_disabled":false,"rental_uris":{"android":"levelo://app?vid=fdf06eb5-4eb5-4995-8e6c-5bcf19bce2f5","ios":"levelo://app?vid=fdf06eb5-4eb5-4995-8e6c-5bcf19bce2f5"},"vehicle_type_id":"4","last_reported":1718212025,"current_range_meters":0,"station_id":"ce4bh0p2rcd13ifvqd80","pricing_plan_id":"cebpf4jnsgd1na2vs0mg"},{"bike_id":"21e0c45d-a21f-47e9-8dcb-a27d520f6cd9","system_id":"levelo_inurba_marseille","lat":43.303002,"lon":5.392142,"is_reserved":false,"is_disabled":false,"rental_uris":{"android":"levelo://app?vid=21e0c45d-a21f-47e9-8dcb-a27d520f6cd9","ios":"levelo://app?vid=21e0c45d-a21f-47e9-8dcb-a27d520f6cd9"},"vehicle_type_id":"4","last_reported":1718212025,"current_range_meters":6000,"station_id":"ce4bgkh2rcd13ifvqbk0","pricing_plan_id":"cebpf4jnsgd1na2vs0mg"},{"bike_id":"0fa80fa3-1d5f-49cf-9372-ae7882114297","system_id":"levelo_inurba_marseille","lat":43.302992,"lon":5.392136,"is_reserved":false,"is_disabled":false,"rental_uris":{"android":"levelo://app?vid=0fa80fa3-1d5f-49cf-9372-ae7882114297","ios":"levelo://app?vid=0fa80fa3-1d5f-49cf-9372-ae7882114297"},"vehicle_type_id":"4","last_reported":1718212025,"current_range_meters":8000,"station_id":"ce4bgkh2rcd13ifvqbk0","pricing_plan_id":"cebpf4jnsgd1na2vs0mg"},{"bike_id":"6e5344ce-43aa-4e98-8378-c244a04e49ba","system_id":"levelo_inurba_marseille","lat":43.303002,"lon":5.392142,"is_reserved":false,"is_disabled":false,"rental_uris":{"android":"levelo://app?vid=6e5344ce-43aa-4e98-8378-c244a04e49ba","ios":"levelo://app?vid=6e5344ce-43aa-4e98-8378-c244a04e49ba"},"vehicle_type_id":"4","last_reported":1718212025,"current_range_meters":4800,"station_id":"ce4bgkh2rcd13ifvqbk0","pricing_plan_id":"cebpf4jnsgd1na2vs0mg"},{"bike_id":"471affce-8ad1-4787-80ea-4c826d441da5","system_id":"levelo_inurba_marseille","lat":43.302992,"lon":5.392136,"is_reserved":false,"is_disabled":false,"rental_uris":{"android":"levelo://app?vid=471affce-8ad1-4787-80ea-4c826d441da5","ios":"levelo://app?vid=471affce-8ad1-4787-80ea-4c826d441da5"},"vehicle_type_id":"4","last_reported":1718212025,"current_range_meters":6400,"station_id":"ce4bgkh2rcd13ifvqbk0","pricing_plan_id":"cebpf4jnsgd1na2vs0mg"},{"bike_id":"fde6ba65-9e86-46cb-8e67-e9fb2ed6a958","system_id":"levelo_inurba_marseille","lat":43.303002,"lon":5.392142,"is_reserved":false,"is_disabled":false,"rental_uris":{"android":"levelo://app?vid=fde6ba65-9e86-46cb-8e67-e9fb2ed6a958","ios":"levelo://app?vid=fde6ba65-9e86-46cb-8e67-e9fb2ed6a958"},"vehicle_type_id":"4","last_reported":1718212025,"current_range_meters":21600,"station_id":"ce4bgkh2rcd13ifvqbk0","pricing_plan_id":"cebpf4jnsgd1na2vs0mg"},{"bike_id":"29975841-773b-444b-a8f2-bc77944af26f","system_id":"levelo_inurba_marseille","lat":43.2936,"lon":5.37835,"is_reserved":false,"is_disabled":false,"rental_uris":{"android":"levelo://app?vid=29975841-773b-444b-a8f2-bc77944af26f","ios":"levelo://app?vid=29975841-773b-444b-a8f2-bc77944af26f"},"vehicle_type_id":"4","last_reported":1718212025,"current_range_meters":18800,"station_id":"ce4bgjh2rcd13ifvqbf0","pricing_plan_id":"cebpf4jnsgd1na2vs0mg"},{"bike_id":"cd3e18e3-2c4c-42fa-89f5-6fb7c7785249","system_id":"levelo_inurba_marseille","lat":43.303002,"lon":5.392142,"is_reserved":false,"is_disabled":false,"rental_uris":{"android":"levelo://app?vid=cd3e18e3-2c4c-42fa-89f5-6fb7c7785249","ios":"levelo://app?vid=cd3e18e3-2c4c-42fa-89f5-6fb7c7785249"},"vehicle_type_id":"4","last_reported":1718212025,"current_range_meters":0,"station_id":"ce4bgkh2rcd13ifvqbk0","pricing_plan_id":"cebpf4jnsgd1na2vs0mg"},{"bike_id":"e03ec02e-ea1f-4389-a374-1258b1b5bea6","system_id":"levelo_inurba_marseille","lat":43.30299,"lon":5.39219,"is_reserved":false,"is_disabled":false,"rental_uris":{"android":"levelo://app?vid=e03ec02e-ea1f-4389-a374-1258b1b5bea6","ios":"levelo://app?vid=e03ec02e-ea1f-4389-a374-1258b1b5bea6"},"vehicle_type_id":"4","last_reported":1718212025,"current_range_meters":0,"station_id":"ce4bgkh2rcd13ifvqbk0","pricing_plan_id":"cebpf4jnsgd1na2vs0mg"},{"bike_id":"1d7cc6dc-1127-4098-b564-9fa50b92c06e","system_id":"levelo_inurba_marseille","lat":43.2936,"lon":5.37835,"is_reserved":false,"is_disabled":false,"rental_uris":{"android":"levelo://app?vid=1d7cc6dc-1127-4098-b564-9fa50b92c06e","ios":"levelo://app?vid=1d7cc6dc-1127-4098-b564-9fa50b92c06e"},"vehicle_type_id":"4","last_reported":1718212025,"current_range_meters":2800,"station_id":"ce4bgjh2rcd13ifvqbf0","pricing_plan_id":"cebpf4jnsgd1na2vs0mg"},{"bike_id":"e82fdab6-9619-417e-988b-606d023296b5","system_id":"levelo_inurba_marseille","lat":43.303002,"lon":5.392142,"is_reserved":false,"is_disabled":false,"rental_uris":{"android":"levelo://app?vid=e82fdab6-9619-417e-988b-606d023296b5","ios":"levelo://app?vid=e82fdab6-9619-417e-988b-606d023296b5"},"vehicle_type_id":"4","last_reported":1718212025,"current_range_meters":0,"station_id":"ce4bgkh2rcd13ifvqbk0","pricing_plan_id":"cebpf4jnsgd1na2vs0mg"},{"bike_id":"9f8ee9fd-f69d-48dd-9d01-623fa4c8c771","system_id":"levelo_inurba_marseille","lat":43.292311,"lon":5.360731,"is_reserved":false,"is_disabled":false,"rental_uris":{"android":"levelo://app?vid=9f8ee9fd-f69d-48dd-9d01-623fa4c8c771","ios":"levelo://app?vid=9f8ee9fd-f69d-48dd-9d01-623fa4c8c771"},"vehicle_type_id":"4","last_reported":1718212025,"current_range_meters":0,"station_id":"ce4bhbh2rcd13ifvqeqg","pricing_plan_id":"cebpf4jnsgd1na2vs0mg"},{"bike_id":"ea1d3507-26de-4968-9a76-984254f6301b","system_id":"levelo_inurba_marseille","lat":43.30085,"lon":5.390856,"is_reserved":false,"is_disabled":false,"rental_uris":{"android":"levelo://app?vid=ea1d3507-26de-4968-9a76-984254f6301b","ios":"levelo://app?vid=ea1d3507-26de-4968-9a76-984254f6301b"},"vehicle_type_id":"4","last_reported":1718212025,"current_range_meters":18800,"station_id":"ce4bh192rcd13ifvqdb0","pricing_plan_id":"cebpf4jnsgd1na2vs0mg"},{"bike_id":"e6d4e78b-2f4d-4347-94db-bb2f79ee013e","system_id":"levelo_inurba_marseille","lat":43.300852,"lon":5.390859,"is_reserved":false,"is_disabled":false,"rental_uris":{"android":"levelo://app?vid=e6d4e78b-2f4d-4347-94db-bb2f79ee013e","ios":"levelo://app?vid=e6d4e78b-2f4d-4347-94db-bb2f79ee013e"},"vehicle_type_id":"4","last_reported":1718212025,"current_range_meters":24400,"station_id":"ce4bh192rcd13ifvqdb0","pricing_plan_id":"cebpf4jnsgd1na2vs0mg"},{"bike_id":"32032717-c94d-45be-9495-5468f5291ac6","system_id":"levelo_inurba_marseille","lat":43.300852,"lon":5.390859,"is_reserved":false,"is_disabled":false,"rental_uris":{"android":"levelo://app?vid=32032717-c94d-45be-9495-5468f5291ac6","ios":"levelo://app?vid=32032717-c94d-45be-9495-5468f5291ac6"},"vehicle_type_id":"4","last_reported":1718212025,"current_range_meters":21200,"station_id":"ce4bh192rcd13ifvqdb0","pricing_plan_id":"cebpf4jnsgd1na2vs0mg"},{"bike_id":"c7263bd0-cddc-43e0-b778-805da8baeb45","system_id":"levelo_inurba_marseille","lat":43.29221,"lon":5.36051,"is_reserved":false,"is_disabled":false,"rental_uris":{"android":"levelo://app?vid=c7263bd0-cddc-43e0-b778-805da8baeb45","ios":"levelo://app?vid=c7263bd0-cddc-43e0-b778-805da8baeb45"},"vehicle_type_id":"4","last_reported":1718212025,"current_range_meters":29200,"station_id":"ce4bhbh2rcd13ifvqeqg","pricing_plan_id":"cebpf4jnsgd1na2vs0mg"},{"bike_id":"822f9e71-9f46-469b-8867-d1b8027c974b","system_id":"levelo_inurba_marseille","lat":43.29192,"lon":5.37143,"is_reserved":false,"is_disabled":false,"rental_uris":{"android":"levelo://app?vid=822f9e71-9f46-469b-8867-d1b8027c974b","ios":"levelo://app?vid=822f9e71-9f46-469b-8867-d1b8027c974b"},"vehicle_type_id":"4","last_reported":1718212025,"current_range_meters":22800,"station_id":"ce4bha92rcd13ifvqeh0","pricing_plan_id":"cebpf4jnsgd1na2vs0mg"},{"bike_id":"7a00011c-9937-42e8-b376-2d9eeec95047","system_id":"levelo_inurba_marseille","lat":43.298764,"lon":5.388973,"is_reserved":false,"is_disabled":false,"rental_uris":{"android":"levelo://app?vid=7a00011c-9937-42e8-b376-2d9eeec95047","ios":"levelo://app?vid=7a00011c-9937-42e8-b376-2d9eeec95047"},"vehicle_type_id":"4","last_reported":1718212025,"current_range_meters":27200,"station_id":"ce4bh392rcd13ifvqdl0","pricing_plan_id":"cebpf4jnsgd1na2vs0mg"},{"bike_id":"5603f5b7-bf2f-4b0a-af67-aafe2e72cdb5","system_id":"levelo_inurba_marseille","lat":43.29171,"lon":5.37138,"is_reserved":false,"is_disabled":false,"rental_uris":{"android":"levelo://app?vid=5603f5b7-bf2f-4b0a-af67-aafe2e72cdb5","ios":"levelo://app?vid=5603f5b7-bf2f-4b0a-af67-aafe2e72cdb5"},"vehicle_type_id":"4","last_reported":1718212025,"current_range_meters":31200,"station_id":"ce4bha92rcd13ifvqeh0","pricing_plan_id":"cebpf4jnsgd1na2vs0mg"},{"bike_id":"f17e900e-4749-4dff-a661-2e23e900040c","system_id":"levelo_inurba_marseille","lat":43.298764,"lon":5.388973,"is_reserved":false,"is_disabled":false,"rental_uris":{"android":"levelo://app?vid=f17e900e-4749-4dff-a661-2e23e900040c","ios":"levelo://app?vid=f17e900e-4749-4dff-a661-2e23e900040c"},"vehicle_type_id":"4","last_reported":1718212025,"current_range_meters":18400,"station_id":"ce4bh392rcd13ifvqdl0","pricing_plan_id":"cebpf4jnsgd1na2vs0mg"},{"bike_id":"3a86a45d-08a7-48bb-aeed-b8eac469e902","system_id":"levelo_inurba_marseille","lat":43.298764,"lon":5.388973,"is_reserved":false,"is_disabled":false,"rental_uris":{"android":"levelo://app?vid=3a86a45d-08a7-48bb-aeed-b8eac469e902","ios":"levelo://app?vid=3a86a45d-08a7-48bb-aeed-b8eac469e902"},"vehicle_type_id":"4","last_reported":1718212025,"current_range_meters":4400,"station_id":"ce4bh392rcd13ifvqdl0","pricing_plan_id":"cebpf4jnsgd1na2vs0mg"},{"bike_id":"bead312e-c3cc-475f-8739-ca5706a42fdb","system_id":"levelo_inurba_marseille","lat":43.29199,"lon":5.36018,"is_reserved":false,"is_disabled":false,"rental_uris":{"android":"levelo://app?vid=bead312e-c3cc-475f-8739-ca5706a42fdb","ios":"levelo://app?vid=bead312e-c3cc-475f-8739-ca5706a42fdb"},"vehicle_type_id":"4","last_reported":1718212025,"current_range_meters":30800,"station_id":"ce4bhbh2rcd13ifvqeqg","pricing_plan_id":"cebpf4jnsgd1na2vs0mg"},{"bike_id":"289eaa7a-06f4-4296-bdcd-6ec930a4550d","system_id":"levelo_inurba_marseille","lat":43.291994,"lon":5.357886,"is_reserved":false,"is_disabled":false,"rental_uris":{"android":"levelo://app?vid=289eaa7a-06f4-4296-bdcd-6ec930a4550d","ios":"levelo://app?vid=289eaa7a-06f4-4296-bdcd-6ec930a4550d"},"vehicle_type_id":"4","last_reported":1718212025,"current_range_meters":28000,"station_id":"ce4bhb12rcd13ifvqel0","pricing_plan_id":"cebpf4jnsgd1na2vs0mg"},{"bike_id":"88805bb5-094f-46b2-93bb-dac318b82552","system_id":"levelo_inurba_marseille","lat":43.30882,"lon":5.39635,"is_reserved":false,"is_disabled":false,"rental_uris":{"android":"levelo://app?vid=88805bb5-094f-46b2-93bb-dac318b82552","ios":"levelo://app?vid=88805bb5-094f-46b2-93bb-dac318b82552"},"vehicle_type_id":"4","last_reported":1718212025,"current_range_meters":0,"station_id":"","pricing_plan_id":"cebpf4jnsgd1na2vs0mg"},{"bike_id":"3a99ae9c-a92c-44b5-81bd-379dba317a8b","system_id":"levelo_inurba_marseille","lat":43.292005,"lon":5.357875,"is_reserved":false,"is_disabled":false,"rental_uris":{"android":"levelo://app?vid=3a99ae9c-a92c-44b5-81bd-379dba317a8b","ios":"levelo://app?vid=3a99ae9c-a92c-44b5-81bd-379dba317a8b"},"vehicle_type_id":"4","last_reported":1718212025,"current_range_meters":25200,"station_id":"ce4bhb12rcd13ifvqel0","pricing_plan_id":"cebpf4jnsgd1na2vs0mg"},{"bike_id":"8e59d413-b12a-4d1a-b92a-ae691af795df","system_id":"levelo_inurba_marseille","lat":43.313291,"lon":5.396838,"is_reserved":false,"is_disabled":false,"rental_uris":{"android":"levelo://app?vid=8e59d413-b12a-4d1a-b92a-ae691af795df","ios":"levelo://app?vid=8e59d413-b12a-4d1a-b92a-ae691af795df"},"vehicle_type_id":"4","last_reported":1718212025,"current_range_meters":11200,"station_id":"ce4bgvp2rcd13ifvqcu0","pricing_plan_id":"cebpf4jnsgd1na2vs0mg"},{"bike_id":"190e184e-cd53-4214-923a-1d939fc11c38","system_id":"levelo_inurba_marseille","lat":43.29192,"lon":5.35792,"is_reserved":false,"is_disabled":false,"rental_uris":{"android":"levelo://app?vid=190e184e-cd53-4214-923a-1d939fc11c38","ios":"levelo://app?vid=190e184e-cd53-4214-923a-1d939fc11c38"},"vehicle_type_id":"4","last_reported":1718212025,"current_range_meters":23200,"station_id":"ce4bhb12rcd13ifvqel0","pricing_plan_id":"cebpf4jnsgd1na2vs0mg"},{"bike_id":"8b7e2084-bc4b-4c32-9c8c-d17c7652e6fa","system_id":"levelo_inurba_marseille","lat":43.313291,"lon":5.396838,"is_reserved":false,"is_disabled":false,"rental_uris":{"android":"levelo://app?vid=8b7e2084-bc4b-4c32-9c8c-d17c7652e6fa","ios":"levelo://app?vid=8b7e2084-bc4b-4c32-9c8c-d17c7652e6fa"},"vehicle_type_id":"4","last_reported":1718212025,"current_range_meters":24800,"station_id":"ce4bgvp2rcd13ifvqcu0","pricing_plan_id":"cebpf4jnsgd1na2vs0mg"},{"bike_id":"0f3ede94-ff98-47bf-96a3-da22d364753e","system_id":"levelo_inurba_marseille","lat":43.29529,"lon":5.385581,"is_reserved":false,"is_disabled":false,"rental_uris":{"android":"levelo://app?vid=0f3ede94-ff98-47bf-96a3-da22d364753e","ios":"levelo://app?vid=0f3ede94-ff98-47bf-96a3-da22d364753e"},"vehicle_type_id":"4","last_reported":1718212025,"current_range_meters":18800,"station_id":"ce4bgih2rcd13ifvqba0","pricing_plan_id":"cebpf4jnsgd1na2vs0mg"},{"bike_id":"41f0788d-051f-45b4-a90b-dd129720bc72","system_id":"levelo_inurba_marseille","lat":43.29529,"lon":5.385581,"is_reserved":false,"is_disabled":false,"rental_uris":{"android":"levelo://app?vid=41f0788d-051f-45b4-a90b-dd129720bc72","ios":"levelo://app?vid=41f0788d-051f-45b4-a90b-dd129720bc72"},"vehicle_type_id":"4","last_reported":1718212025,"current_range_meters":30800,"station_id":"ce4bgih2rcd13ifvqba0","pricing_plan_id":"cebpf4jnsgd1na2vs0mg"},{"bike_id":"4044fc3c-a77d-4353-ae94-ac99a40caaa7","system_id":"levelo_inurba_marseille","lat":43.290624,"lon":5.359245,"is_reserved":false,"is_disabled":false,"rental_uris":{"android":"levelo://app?vid=4044fc3c-a77d-4353-ae94-ac99a40caaa7","ios":"levelo://app?vid=4044fc3c-a77d-4353-ae94-ac99a40caaa7"},"vehicle_type_id":"4","last_reported":1718212025,"current_range_meters":2800,"station_id":"ce4bha92rcd13ifvqeg0","pricing_plan_id":"cebpf4jnsgd1na2vs0mg"},{"bike_id":"f85bc6e6-d7bf-489c-bc81-f6d5eab57cb7","system_id":"levelo_inurba_marseille","lat":43.290631,"lon":5.359244,"is_reserved":false,"is_disabled":false,"rental_uris":{"android":"levelo://app?vid=f85bc6e6-d7bf-489c-bc81-f6d5eab57cb7","ios":"levelo://app?vid=f85bc6e6-d7bf-489c-bc81-f6d5eab57cb7"},"vehicle_type_id":"4","last_reported":1718212025,"current_range_meters":2800,"station_id":"ce4bha92rcd13ifvqeg0","pricing_plan_id":"cebpf4jnsgd1na2vs0mg"},{"bike_id":"92bc1f4b-9a3a-4ea0-9f05-ed5c51a006a7","system_id":"levelo_inurba_marseille","lat":43.294153,"lon":5.386305,"is_reserved":false,"is_disabled":false,"rental_uris":{"android":"levelo://app?vid=92bc1f4b-9a3a-4ea0-9f05-ed5c51a006a7","ios":"levelo://app?vid=92bc1f4b-9a3a-4ea0-9f05-ed5c51a006a7"},"vehicle_type_id":"4","last_reported":1718212025,"current_range_meters":0,"station_id":"ce4bh2h2rcd13ifvqdh0","pricing_plan_id":"cebpf4jnsgd1na2vs0mg"},{"bike_id":"19fdd787-2d85-40b3-9be8-6b2511695396","system_id":"levelo_inurba_marseille","lat":43.290319,"lon":5.375732,"is_reserved":false,"is_disabled":false,"rental_uris":{"android":"levelo://app?vid=19fdd787-2d85-40b3-9be8-6b2511695396","ios":"levelo://app?vid=19fdd787-2d85-40b3-9be8-6b2511695396"},"vehicle_type_id":"4","last_reported":1718212025,"current_range_meters":0,"station_id":"ce4bh692rcd13ifvqe90","pricing_plan_id":"cebpf4jnsgd1na2vs0mg"},{"bike_id":"ba4ebdef-7ad9-4eb9-954d-f86486712b73","system_id":"levelo_inurba_marseille","lat":43.29418,"lon":5.38619,"is_reserved":false,"is_disabled":false,"rental_uris":{"android":"levelo://app?vid=ba4ebdef-7ad9-4eb9-954d-f86486712b73","ios":"levelo://app?vid=ba4ebdef-7ad9-4eb9-954d-f86486712b73"},"vehicle_type_id":"4","last_reported":1718212025,"current_range_meters":0,"station_id":"ce4bh2h2rcd13ifvqdh0","pricing_plan_id":"cebpf4jnsgd1na2vs0mg"},{"bike_id":"a4b03945-a4f5-4c5b-8614-c8eec6873190","system_id":"levelo_inurba_marseille","lat":43.289184,"lon":5.366408,"is_reserved":false,"is_disabled":false,"rental_uris":{"android":"levelo://app?vid=a4b03945-a4f5-4c5b-8614-c8eec6873190","ios":"levelo://app?vid=a4b03945-a4f5-4c5b-8614-c8eec6873190"},"vehicle_type_id":"4","last_reported":1718212025,"current_range_meters":0,"station_id":"ce4bhap2rcd13ifvqek0","pricing_plan_id":"cebpf4jnsgd1na2vs0mg"},{"bike_id":"6a2fbb4c-22e6-4a20-9f0c-29c307b3b582","system_id":"levelo_inurba_marseille","lat":43.290327,"lon":5.375711,"is_reserved":false,"is_disabled":false,"rental_uris":{"android":"levelo://app?vid=6a2fbb4c-22e6-4a20-9f0c-29c307b3b582","ios":"levelo://app?vid=6a2fbb4c-22e6-4a20-9f0c-29c307b3b582"},"vehicle_type_id":"4","last_reported":1718212025,"current_range_meters":0,"station_id":"ce4bh692rcd13ifvqe90","pricing_plan_id":"cebpf4jnsgd1na2vs0mg"},{"bike_id":"4cf331ad-df4b-4e1b-b286-0e21331d7579","system_id":"levelo_inurba_marseille","lat":43.2942,"lon":5.38631,"is_reserved":false,"is_disabled":false,"rental_uris":{"android":"levelo://app?vid=4cf331ad-df4b-4e1b-b286-0e21331d7579","ios":"levelo://app?vid=4cf331ad-df4b-4e1b-b286-0e21331d7579"},"vehicle_type_id":"4","last_reported":1718212025,"current_range_meters":0,"station_id":"ce4bh2h2rcd13ifvqdh0","pricing_plan_id":"cebpf4jnsgd1na2vs0mg"},{"bike_id":"a1f02adb-e973-4c49-a481-ac101167caef","system_id":"levelo_inurba_marseille","lat":43.294162,"lon":5.386292,"is_reserved":false,"is_disabled":false,"rental_uris":{"android":"levelo://app?vid=a1f02adb-e973-4c49-a481-ac101167caef","ios":"levelo://app?vid=a1f02adb-e973-4c49-a481-ac101167caef"},"vehicle_type_id":"4","last_reported":1718212025,"current_range_meters":0,"station_id":"ce4bh2h2rcd13ifvqdh0","pricing_plan_id":"cebpf4jnsgd1na2vs0mg"},{"bike_id":"15c4bcbf-a782-4763-a0bb-5a731b00e073","system_id":"levelo_inurba_marseille","lat":43.289184,"lon":5.366408,"is_reserved":false,"is_disabled":false,"rental_uris":{"android":"levelo://app?vid=15c4bcbf-a782-4763-a0bb-5a731b00e073","ios":"levelo://app?vid=15c4bcbf-a782-4763-a0bb-5a731b00e073"},"vehicle_type_id":"4","last_reported":1718212025,"current_range_meters":18800,"station_id":"ce4bhap2rcd13ifvqek0","pricing_plan_id":"cebpf4jnsgd1na2vs0mg"},{"bike_id":"88ed3061-a688-44f9-9e56-433d4ca9bd32","system_id":"levelo_inurba_marseille","lat":43.289184,"lon":5.366408,"is_reserved":false,"is_disabled":false,"rental_uris":{"android":"levelo://app?vid=88ed3061-a688-44f9-9e56-433d4ca9bd32","ios":"levelo://app?vid=88ed3061-a688-44f9-9e56-433d4ca9bd32"},"vehicle_type_id":"4","last_reported":1718212025,"current_range_meters":0,"station_id":"ce4bhap2rcd13ifvqek0","pricing_plan_id":"cebpf4jnsgd1na2vs0mg"},{"bike_id":"e2c9a64f-9fdf-4619-9d77-49d82bcfae4b","system_id":"levelo_inurba_marseille","lat":43.289184,"lon":5.366408,"is_reserved":false,"is_disabled":false,"rental_uris":{"android":"levelo://app?vid=e2c9a64f-9fdf-4619-9d77-49d82bcfae4b","ios":"levelo://app?vid=e2c9a64f-9fdf-4619-9d77-49d82bcfae4b"},"vehicle_type_id":"4","last_reported":1718212025,"current_range_meters":26400,"station_id":"ce4bhap2rcd13ifvqek0","pricing_plan_id":"cebpf4jnsgd1na2vs0mg"},{"bike_id":"d02f4395-4ae7-45cf-bb7e-5c5a2c11105f","system_id":"levelo_inurba_marseille","lat":43.289184,"lon":5.366408,"is_reserved":false,"is_disabled":false,"rental_uris":{"android":"levelo://app?vid=d02f4395-4ae7-45cf-bb7e-5c5a2c11105f","ios":"levelo://app?vid=d02f4395-4ae7-45cf-bb7e-5c5a2c11105f"},"vehicle_type_id":"4","last_reported":1718212025,"current_range_meters":12400,"station_id":"ce4bhap2rcd13ifvqek0","pricing_plan_id":"cebpf4jnsgd1na2vs0mg"},{"bike_id":"02ac3ff5-ada2-46af-8b93-c7b04f8278b9","system_id":"levelo_inurba_marseille","lat":43.289184,"lon":5.366408,"is_reserved":false,"is_disabled":false,"rental_uris":{"android":"levelo://app?vid=02ac3ff5-ada2-46af-8b93-c7b04f8278b9","ios":"levelo://app?vid=02ac3ff5-ada2-46af-8b93-c7b04f8278b9"},"vehicle_type_id":"4","last_reported":1718212025,"current_range_meters":25200,"station_id":"ce4bhap2rcd13ifvqek0","pricing_plan_id":"cebpf4jnsgd1na2vs0mg"},{"bike_id":"02af044a-d32c-406f-a806-0b05a9d30dfc","system_id":"levelo_inurba_marseille","lat":43.289468,"lon":5.363719,"is_reserved":false,"is_disabled":false,"rental_uris":{"android":"levelo://app?vid=02af044a-d32c-406f-a806-0b05a9d30dfc","ios":"levelo://app?vid=02af044a-d32c-406f-a806-0b05a9d30dfc"},"vehicle_type_id":"4","last_reported":1718212025,"current_range_meters":2000,"station_id":"ce4bhc92rcd13ifvqetg","pricing_plan_id":"cebpf4jnsgd1na2vs0mg"},{"bike_id":"7bf525c0-91d9-4540-b621-084704668565","system_id":"levelo_inurba_marseille","lat":43.29267,"lon":5.38431,"is_reserved":false,"is_disabled":false,"rental_uris":{"android":"levelo://app?vid=7bf525c0-91d9-4540-b621-084704668565","ios":"levelo://app?vid=7bf525c0-91d9-4540-b621-084704668565"},"vehicle_type_id":"4","last_reported":1718212025,"current_range_meters":0,"station_id":"ce4bh692rcd13ifvqea0","pricing_plan_id":"cebpf4jnsgd1na2vs0mg"},{"bike_id":"7293626c-ded2-43a4-a52b-a29c34187325","system_id":"levelo_inurba_marseille","lat":43.292644,"lon":5.384257,"is_reserved":false,"is_disabled":false,"rental_uris":{"android":"levelo://app?vid=7293626c-ded2-43a4-a52b-a29c34187325","ios":"levelo://app?vid=7293626c-ded2-43a4-a52b-a29c34187325"},"vehicle_type_id":"4","last_reported":1718212025,"current_range_meters":13200,"station_id":"ce4bh692rcd13ifvqea0","pricing_plan_id":"cebpf4jnsgd1na2vs0mg"},{"bike_id":"e7118e92-d863-4632-baa4-ea75d888acea","system_id":"levelo_inurba_marseille","lat":43.304274,"lon":5.397513,"is_reserved":false,"is_disabled":false,"rental_uris":{"android":"levelo://app?vid=e7118e92-d863-4632-baa4-ea75d888acea","ios":"levelo://app?vid=e7118e92-d863-4632-baa4-ea75d888acea"},"vehicle_type_id":"4","last_reported":1718212025,"current_range_meters":0,"station_id":"ce4bh092rcd13ifvqd20","pricing_plan_id":"cebpf4jnsgd1na2vs0mg"},{"bike_id":"0b26721d-6e0d-4eb5-bffb-34c1b0677782","system_id":"levelo_inurba_marseille","lat":43.292644,"lon":5.384257,"is_reserved":false,"is_disabled":false,"rental_uris":{"android":"levelo://app?vid=0b26721d-6e0d-4eb5-bffb-34c1b0677782","ios":"levelo://app?vid=0b26721d-6e0d-4eb5-bffb-34c1b0677782"},"vehicle_type_id":"4","last_reported":1718212025,"current_range_meters":13600,"station_id":"ce4bh692rcd13ifvqea0","pricing_plan_id":"cebpf4jnsgd1na2vs0mg"},{"bike_id":"882efedc-d31d-4366-b410-adea3cee3f22","system_id":"levelo_inurba_marseille","lat":43.292644,"lon":5.384257,"is_reserved":false,"is_disabled":false,"rental_uris":{"android":"levelo://app?vid=882efedc-d31d-4366-b410-adea3cee3f22","ios":"levelo://app?vid=882efedc-d31d-4366-b410-adea3cee3f22"},"vehicle_type_id":"4","last_reported":1718212025,"current_range_meters":31600,"station_id":"ce4bh692rcd13ifvqea0","pricing_plan_id":"cebpf4jnsgd1na2vs0mg"},{"bike_id":"83151a8a-d303-415c-96c0-9cc763952ade","system_id":"levelo_inurba_marseille","lat":43.290104,"lon":5.356111,"is_reserved":false,"is_disabled":false,"rental_uris":{"android":"levelo://app?vid=83151a8a-d303-415c-96c0-9cc763952ade","ios":"levelo://app?vid=83151a8a-d303-415c-96c0-9cc763952ade"},"vehicle_type_id":"4","last_reported":1718212025,"current_range_meters":14400,"station_id":"ce4bhb92rcd13ifvqen0","pricing_plan_id":"cebpf4jnsgd1na2vs0mg"},{"bike_id":"23457091-40d0-44e1-9089-190f52f607b6","system_id":"levelo_inurba_marseille","lat":43.29007,"lon":5.35619,"is_reserved":false,"is_disabled":false,"rental_uris":{"android":"levelo://app?vid=23457091-40d0-44e1-9089-190f52f607b6","ios":"levelo://app?vid=23457091-40d0-44e1-9089-190f52f607b6"},"vehicle_type_id":"4","last_reported":1718212025,"current_range_meters":0,"station_id":"ce4bhb92rcd13ifvqen0","pricing_plan_id":"cebpf4jnsgd1na2vs0mg"},{"bike_id":"c9cba9a7-a6d6-42fd-9082-ccca9d6e93bc","system_id":"levelo_inurba_marseille","lat":43.290104,"lon":5.356111,"is_reserved":false,"is_disabled":false,"rental_uris":{"android":"levelo://app?vid=c9cba9a7-a6d6-42fd-9082-ccca9d6e93bc","ios":"levelo://app?vid=c9cba9a7-a6d6-42fd-9082-ccca9d6e93bc"},"vehicle_type_id":"4","last_reported":1718212025,"current_range_meters":22800,"station_id":"ce4bhb92rcd13ifvqen0","pricing_plan_id":"cebpf4jnsgd1na2vs0mg"},{"bike_id":"b143e1e6-f2fe-4ef0-bb65-77d24e62bea5","system_id":"levelo_inurba_marseille","lat":43.29003,"lon":5.35624,"is_reserved":false,"is_disabled":false,"rental_uris":{"android":"levelo://app?vid=b143e1e6-f2fe-4ef0-bb65-77d24e62bea5","ios":"levelo://app?vid=b143e1e6-f2fe-4ef0-bb65-77d24e62bea5"},"vehicle_type_id":"4","last_reported":1718212025,"current_range_meters":31200,"station_id":"ce4bhb92rcd13ifvqen0","pricing_plan_id":"cebpf4jnsgd1na2vs0mg"},{"bike_id":"720a432b-fe66-44ac-af9d-5b8f309d64be","system_id":"levelo_inurba_marseille","lat":43.290104,"lon":5.356111,"is_reserved":false,"is_disabled":false,"rental_uris":{"android":"levelo://app?vid=720a432b-fe66-44ac-af9d-5b8f309d64be","ios":"levelo://app?vid=720a432b-fe66-44ac-af9d-5b8f309d64be"},"vehicle_type_id":"4","last_reported":1718212025,"current_range_meters":10000,"station_id":"ce4bhb92rcd13ifvqen0","pricing_plan_id":"cebpf4jnsgd1na2vs0mg"},{"bike_id":"cf54e046-316c-4f16-8f8b-601e9b12e314","system_id":"levelo_inurba_marseille","lat":43.29003,"lon":5.35612,"is_reserved":false,"is_disabled":false,"rental_uris":{"android":"levelo://app?vid=cf54e046-316c-4f16-8f8b-601e9b12e314","ios":"levelo://app?vid=cf54e046-316c-4f16-8f8b-601e9b12e314"},"vehicle_type_id":"4","last_reported":1718212025,"current_range_meters":31200,"station_id":"ce4bhb92rcd13ifvqen0","pricing_plan_id":"cebpf4jnsgd1na2vs0mg"},{"bike_id":"bf79ec2d-91de-48dd-b45a-6fe719296345","system_id":"levelo_inurba_marseille","lat":43.29004,"lon":5.35605,"is_reserved":false,"is_disabled":false,"rental_uris":{"android":"levelo://app?vid=bf79ec2d-91de-48dd-b45a-6fe719296345","ios":"levelo://app?vid=bf79ec2d-91de-48dd-b45a-6fe719296345"},"vehicle_type_id":"4","last_reported":1718212025,"current_range_meters":25200,"station_id":"ce4bhb92rcd13ifvqen0","pricing_plan_id":"cebpf4jnsgd1na2vs0mg"},{"bike_id":"b186d590-c36c-4f48-b745-08e2fa3054b3","system_id":"levelo_inurba_marseille","lat":43.290104,"lon":5.356111,"is_reserved":false,"is_disabled":false,"rental_uris":{"android":"levelo://app?vid=b186d590-c36c-4f48-b745-08e2fa3054b3","ios":"levelo://app?vid=b186d590-c36c-4f48-b745-08e2fa3054b3"},"vehicle_type_id":"4","last_reported":1718212025,"current_range_meters":7600,"station_id":"ce4bhb92rcd13ifvqen0","pricing_plan_id":"cebpf4jnsgd1na2vs0mg"},{"bike_id":"bdbf2a0f-f99e-4a7d-bbe7-8e7d0808b917","system_id":"levelo_inurba_marseille","lat":43.290104,"lon":5.356111,"is_reserved":false,"is_disabled":false,"rental_uris":{"android":"levelo://app?vid=bdbf2a0f-f99e-4a7d-bbe7-8e7d0808b917","ios":"levelo://app?vid=bdbf2a0f-f99e-4a7d-bbe7-8e7d0808b917"},"vehicle_type_id":"4","last_reported":1718212025,"current_range_meters":5600,"station_id":"ce4bhb92rcd13ifvqen0","pricing_plan_id":"cebpf4jnsgd1na2vs0mg"},{"bike_id":"2fa18516-978d-4692-9739-89b5736eaa1d","system_id":"levelo_inurba_marseille","lat":43.290995,"lon":5.381361,"is_reserved":false,"is_disabled":false,"rental_uris":{"android":"levelo://app?vid=2fa18516-978d-4692-9739-89b5736eaa1d","ios":"levelo://app?vid=2fa18516-978d-4692-9739-89b5736eaa1d"},"vehicle_type_id":"4","last_reported":1718212025,"current_range_meters":25200,"station_id":"ce4bh512rcd13ifvqe2g","pricing_plan_id":"cebpf4jnsgd1na2vs0mg"},{"bike_id":"6e63197d-c394-4e69-aac6-a60a43d16842","system_id":"levelo_inurba_marseille","lat":43.290995,"lon":5.381361,"is_reserved":false,"is_disabled":false,"rental_uris":{"android":"levelo://app?vid=6e63197d-c394-4e69-aac6-a60a43d16842","ios":"levelo://app?vid=6e63197d-c394-4e69-aac6-a60a43d16842"},"vehicle_type_id":"4","last_reported":1718212025,"current_range_meters":6800,"station_id":"ce4bh512rcd13ifvqe2g","pricing_plan_id":"cebpf4jnsgd1na2vs0mg"},{"bike_id":"645d1a1c-743b-454c-a1b2-d78b01634211","system_id":"levelo_inurba_marseille","lat":43.290995,"lon":5.381361,"is_reserved":false,"is_disabled":false,"rental_uris":{"android":"levelo://app?vid=645d1a1c-743b-454c-a1b2-d78b01634211","ios":"levelo://app?vid=645d1a1c-743b-454c-a1b2-d78b01634211"},"vehicle_type_id":"4","last_reported":1718212025,"current_range_meters":800,"station_id":"ce4bh512rcd13ifvqe2g","pricing_plan_id":"cebpf4jnsgd1na2vs0mg"},{"bike_id":"4b3c7257-37a7-4a88-b05b-4f500ae4afce","system_id":"levelo_inurba_marseille","lat":43.289743,"lon":5.378304,"is_reserved":false,"is_disabled":false,"rental_uris":{"android":"levelo://app?vid=4b3c7257-37a7-4a88-b05b-4f500ae4afce","ios":"levelo://app?vid=4b3c7257-37a7-4a88-b05b-4f500ae4afce"},"vehicle_type_id":"4","last_reported":1718212025,"current_range_meters":31200,"station_id":"ce4bh9p2rcd13ifvqed0","pricing_plan_id":"cebpf4jnsgd1na2vs0mg"},{"bike_id":"88224511-ad72-4d7c-a2c1-7d4114e887d4","system_id":"levelo_inurba_marseille","lat":43.289743,"lon":5.378304,"is_reserved":false,"is_disabled":false,"rental_uris":{"android":"levelo://app?vid=88224511-ad72-4d7c-a2c1-7d4114e887d4","ios":"levelo://app?vid=88224511-ad72-4d7c-a2c1-7d4114e887d4"},"vehicle_type_id":"4","last_reported":1718212025,"current_range_meters":26400,"station_id":"ce4bh9p2rcd13ifvqed0","pricing_plan_id":"cebpf4jnsgd1na2vs0mg"},{"bike_id":"2c271d0d-e7a9-4f0e-a15b-639ffeb1f8ce","system_id":"levelo_inurba_marseille","lat":43.295212,"lon":5.390152,"is_reserved":false,"is_disabled":false,"rental_uris":{"android":"levelo://app?vid=2c271d0d-e7a9-4f0e-a15b-639ffeb1f8ce","ios":"levelo://app?vid=2c271d0d-e7a9-4f0e-a15b-639ffeb1f8ce"},"vehicle_type_id":"4","last_reported":1718212025,"current_range_meters":8000,"station_id":"ce4bh3p2rcd13ifvqdp0","pricing_plan_id":"cebpf4jnsgd1na2vs0mg"},{"bike_id":"8ce72bd3-f2f5-4837-8d58-1c1426ac27f8","system_id":"levelo_inurba_marseille","lat":43.295169,"lon":5.390426,"is_reserved":false,"is_disabled":false,"rental_uris":{"android":"levelo://app?vid=8ce72bd3-f2f5-4837-8d58-1c1426ac27f8","ios":"levelo://app?vid=8ce72bd3-f2f5-4837-8d58-1c1426ac27f8"},"vehicle_type_id":"4","last_reported":1718212025,"current_range_meters":0,"station_id":"ce4bh3p2rcd13ifvqdp0","pricing_plan_id":"cebpf4jnsgd1na2vs0mg"},{"bike_id":"cb2ba5a8-7180-43c4-8d72-a38b4284bc9e","system_id":"levelo_inurba_marseille","lat":43.295169,"lon":5.390426,"is_reserved":false,"is_disabled":false,"rental_uris":{"android":"levelo://app?vid=cb2ba5a8-7180-43c4-8d72-a38b4284bc9e","ios":"levelo://app?vid=cb2ba5a8-7180-43c4-8d72-a38b4284bc9e"},"vehicle_type_id":"4","last_reported":1718212025,"current_range_meters":22000,"station_id":"ce4bh3p2rcd13ifvqdp0","pricing_plan_id":"cebpf4jnsgd1na2vs0mg"},{"bike_id":"b02812ba-0139-48c4-ae91-dca3ee423c3f","system_id":"levelo_inurba_marseille","lat":43.295169,"lon":5.390426,"is_reserved":false,"is_disabled":false,"rental_uris":{"android":"levelo://app?vid=b02812ba-0139-48c4-ae91-dca3ee423c3f","ios":"levelo://app?vid=b02812ba-0139-48c4-ae91-dca3ee423c3f"},"vehicle_type_id":"4","last_reported":1718212025,"current_range_meters":2800,"station_id":"ce4bh3p2rcd13ifvqdp0","pricing_plan_id":"cebpf4jnsgd1na2vs0mg"},{"bike_id":"1636e837-3e9f-4a84-8ce8-15fdcb1b86b5","system_id":"levelo_inurba_marseille","lat":43.29522,"lon":5.39026,"is_reserved":false,"is_disabled":false,"rental_uris":{"android":"levelo://app?vid=1636e837-3e9f-4a84-8ce8-15fdcb1b86b5","ios":"levelo://app?vid=1636e837-3e9f-4a84-8ce8-15fdcb1b86b5"},"vehicle_type_id":"4","last_reported":1718212025,"current_range_meters":4800,"station_id":"ce4bh3p2rcd13ifvqdp0","pricing_plan_id":"cebpf4jnsgd1na2vs0mg"},{"bike_id":"e39b38e1-8e43-48ee-a64c-12e9685acf51","system_id":"levelo_inurba_marseille","lat":43.297815,"lon":5.393548,"is_reserved":false,"is_disabled":false,"rental_uris":{"android":"levelo://app?vid=e39b38e1-8e43-48ee-a64c-12e9685acf51","ios":"levelo://app?vid=e39b38e1-8e43-48ee-a64c-12e9685acf51"},"vehicle_type_id":"4","last_reported":1718212025,"current_range_meters":14800,"station_id":"chh1huq6cuj3fo74tm60","pricing_plan_id":"cebpf4jnsgd1na2vs0mg"},{"bike_id":"00c97944-b30f-41c6-8853-b601afca4d3e","system_id":"levelo_inurba_marseille","lat":43.289741,"lon":5.378306,"is_reserved":false,"is_disabled":false,"rental_uris":{"android":"levelo://app?vid=00c97944-b30f-41c6-8853-b601afca4d3e","ios":"levelo://app?vid=00c97944-b30f-41c6-8853-b601afca4d3e"},"vehicle_type_id":"4","last_reported":1718212025,"current_range_meters":800,"station_id":"ce4bh9p2rcd13ifvqed0","pricing_plan_id":"cebpf4jnsgd1na2vs0mg"},{"bike_id":"6805d9b9-f6a2-4f3d-99a0-b95b2a6435c4","system_id":"levelo_inurba_marseille","lat":43.295169,"lon":5.390426,"is_reserved":false,"is_disabled":false,"rental_uris":{"android":"levelo://app?vid=6805d9b9-f6a2-4f3d-99a0-b95b2a6435c4","ios":"levelo://app?vid=6805d9b9-f6a2-4f3d-99a0-b95b2a6435c4"},"vehicle_type_id":"4","last_reported":1718212025,"current_range_meters":0,"station_id":"ce4bh3p2rcd13ifvqdp0","pricing_plan_id":"cebpf4jnsgd1na2vs0mg"},{"bike_id":"db3b4966-f285-4614-8bf6-d357363af5e8","system_id":"levelo_inurba_marseille","lat":43.29518,"lon":5.39027,"is_reserved":false,"is_disabled":false,"rental_uris":{"android":"levelo://app?vid=db3b4966-f285-4614-8bf6-d357363af5e8","ios":"levelo://app?vid=db3b4966-f285-4614-8bf6-d357363af5e8"},"vehicle_type_id":"4","last_reported":1718212025,"current_range_meters":26800,"station_id":"ce4bh3p2rcd13ifvqdp0","pricing_plan_id":"cebpf4jnsgd1na2vs0mg"},{"bike_id":"ef544fcd-a247-44d5-aa6a-83ef55478b1d","system_id":"levelo_inurba_marseille","lat":43.33024,"lon":5.39037,"is_reserved":false,"is_disabled":false,"rental_uris":{"android":"levelo://app?vid=ef544fcd-a247-44d5-aa6a-83ef55478b1d","ios":"levelo://app?vid=ef544fcd-a247-44d5-aa6a-83ef55478b1d"},"vehicle_type_id":"4","last_reported":1718212025,"current_range_meters":4000,"station_id":"ce4bhr92rcd13ifvqhrg","pricing_plan_id":"cebpf4jnsgd1na2vs0mg"},{"bike_id":"14bd2a95-3021-423c-b799-cd6adb7ebbd3","system_id":"levelo_inurba_marseille","lat":43.33023,"lon":5.39039,"is_reserved":false,"is_disabled":false,"rental_uris":{"android":"levelo://app?vid=14bd2a95-3021-423c-b799-cd6adb7ebbd3","ios":"levelo://app?vid=14bd2a95-3021-423c-b799-cd6adb7ebbd3"},"vehicle_type_id":"4","last_reported":1718212025,"current_range_meters":400,"station_id":"","pricing_plan_id":"cebpf4jnsgd1na2vs0mg"},{"bike_id":"1b0abbfd-ac0c-40c1-a60c-e06cd0f0520b","system_id":"levelo_inurba_marseille","lat":43.295169,"lon":5.390426,"is_reserved":false,"is_disabled":false,"rental_uris":{"android":"levelo://app?vid=1b0abbfd-ac0c-40c1-a60c-e06cd0f0520b","ios":"levelo://app?vid=1b0abbfd-ac0c-40c1-a60c-e06cd0f0520b"},"vehicle_type_id":"4","last_reported":1718212025,"current_range_meters":0,"station_id":"ce4bh3p2rcd13ifvqdp0","pricing_plan_id":"cebpf4jnsgd1na2vs0mg"},{"bike_id":"239d8f3f-365c-4a6d-86a0-7f769c4fba7b","system_id":"levelo_inurba_marseille","lat":43.330442,"lon":5.389148,"is_reserved":false,"is_disabled":false,"rental_uris":{"android":"levelo://app?vid=239d8f3f-365c-4a6d-86a0-7f769c4fba7b","ios":"levelo://app?vid=239d8f3f-365c-4a6d-86a0-7f769c4fba7b"},"vehicle_type_id":"4","last_reported":1718212025,"current_range_meters":2000,"station_id":"ce4bhr92rcd13ifvqhrg","pricing_plan_id":"cebpf4jnsgd1na2vs0mg"},{"bike_id":"61840db6-716f-4188-9194-de6cad4b59a9","system_id":"levelo_inurba_marseille","lat":43.29526,"lon":5.39046,"is_reserved":false,"is_disabled":false,"rental_uris":{"android":"levelo://app?vid=61840db6-716f-4188-9194-de6cad4b59a9","ios":"levelo://app?vid=61840db6-716f-4188-9194-de6cad4b59a9"},"vehicle_type_id":"4","last_reported":1718212025,"current_range_meters":400,"station_id":"ce4bh3p2rcd13ifvqdp0","pricing_plan_id":"cebpf4jnsgd1na2vs0mg"},{"bike_id":"7510c193-a68e-4113-af3c-71f8cc384d7e","system_id":"levelo_inurba_marseille","lat":43.330442,"lon":5.389148,"is_reserved":false,"is_disabled":false,"rental_uris":{"android":"levelo://app?vid=7510c193-a68e-4113-af3c-71f8cc384d7e","ios":"levelo://app?vid=7510c193-a68e-4113-af3c-71f8cc384d7e"},"vehicle_type_id":"4","last_reported":1718212025,"current_range_meters":27200,"station_id":"ce4bhr92rcd13ifvqhrg","pricing_plan_id":"cebpf4jnsgd1na2vs0mg"},{"bike_id":"653e0593-4d01-4da3-bdad-055baf1e66e6","system_id":"levelo_inurba_marseille","lat":43.330442,"lon":5.389148,"is_reserved":false,"is_disabled":false,"rental_uris":{"android":"levelo://app?vid=653e0593-4d01-4da3-bdad-055baf1e66e6","ios":"levelo://app?vid=653e0593-4d01-4da3-bdad-055baf1e66e6"},"vehicle_type_id":"4","last_reported":1718212025,"current_range_meters":12800,"station_id":"ce4bhr92rcd13ifvqhrg","pricing_plan_id":"cebpf4jnsgd1na2vs0mg"},{"bike_id":"1ccaadf5-79d0-4875-907f-ea5366281843","system_id":"levelo_inurba_marseille","lat":43.33027,"lon":5.39042,"is_reserved":false,"is_disabled":false,"rental_uris":{"android":"levelo://app?vid=1ccaadf5-79d0-4875-907f-ea5366281843","ios":"levelo://app?vid=1ccaadf5-79d0-4875-907f-ea5366281843"},"vehicle_type_id":"4","last_reported":1718212025,"current_range_meters":18400,"station_id":"ce4bhr92rcd13ifvqhrg","pricing_plan_id":"cebpf4jnsgd1na2vs0mg"},{"bike_id":"87607f48-04dd-4463-9b79-a7ba8b9706b3","system_id":"levelo_inurba_marseille","lat":43.33029,"lon":5.39041,"is_reserved":false,"is_disabled":false,"rental_uris":{"android":"levelo://app?vid=87607f48-04dd-4463-9b79-a7ba8b9706b3","ios":"levelo://app?vid=87607f48-04dd-4463-9b79-a7ba8b9706b3"},"vehicle_type_id":"4","last_reported":1718212025,"current_range_meters":12800,"station_id":"ce4bhr92rcd13ifvqhrg","pricing_plan_id":"cebpf4jnsgd1na2vs0mg"},{"bike_id":"fde61b44-144d-452e-b75a-6c07fb2c91d6","system_id":"levelo_inurba_marseille","lat":43.295169,"lon":5.390426,"is_reserved":false,"is_disabled":false,"rental_uris":{"android":"levelo://app?vid=fde61b44-144d-452e-b75a-6c07fb2c91d6","ios":"levelo://app?vid=fde61b44-144d-452e-b75a-6c07fb2c91d6"},"vehicle_type_id":"4","last_reported":1718212025,"current_range_meters":3200,"station_id":"ce4bh3p2rcd13ifvqdp0","pricing_plan_id":"cebpf4jnsgd1na2vs0mg"},{"bike_id":"34955f64-e9e9-4909-bfc9-e0c8cecfdc53","system_id":"levelo_inurba_marseille","lat":43.295169,"lon":5.390426,"is_reserved":false,"is_disabled":false,"rental_uris":{"android":"levelo://app?vid=34955f64-e9e9-4909-bfc9-e0c8cecfdc53","ios":"levelo://app?vid=34955f64-e9e9-4909-bfc9-e0c8cecfdc53"},"vehicle_type_id":"4","last_reported":1718212025,"current_range_meters":24400,"station_id":"ce4bh3p2rcd13ifvqdp0","pricing_plan_id":"cebpf4jnsgd1na2vs0mg"},{"bike_id":"c2393794-6303-458c-bb9f-778379649b62","system_id":"levelo_inurba_marseille","lat":43.33028,"lon":5.39045,"is_reserved":false,"is_disabled":false,"rental_uris":{"android":"levelo://app?vid=c2393794-6303-458c-bb9f-778379649b62","ios":"levelo://app?vid=c2393794-6303-458c-bb9f-778379649b62"},"vehicle_type_id":"4","last_reported":1718212025,"current_range_meters":18800,"station_id":"ce4bhr92rcd13ifvqhrg","pricing_plan_id":"cebpf4jnsgd1na2vs0mg"},{"bike_id":"6d5c1ba1-30b7-4293-bdfe-2f5f2a145f52","system_id":"levelo_inurba_marseille","lat":43.33029,"lon":5.39046,"is_reserved":false,"is_disabled":false,"rental_uris":{"android":"levelo://app?vid=6d5c1ba1-30b7-4293-bdfe-2f5f2a145f52","ios":"levelo://app?vid=6d5c1ba1-30b7-4293-bdfe-2f5f2a145f52"},"vehicle_type_id":"4","last_reported":1718212025,"current_range_meters":22000,"station_id":"ce4bhr92rcd13ifvqhrg","pricing_plan_id":"cebpf4jnsgd1na2vs0mg"},{"bike_id":"35990f28-4620-492d-a552-ba4a49806606","system_id":"levelo_inurba_marseille","lat":43.295169,"lon":5.390426,"is_reserved":false,"is_disabled":false,"rental_uris":{"android":"levelo://app?vid=35990f28-4620-492d-a552-ba4a49806606","ios":"levelo://app?vid=35990f28-4620-492d-a552-ba4a49806606"},"vehicle_type_id":"4","last_reported":1718212025,"current_range_meters":13200,"station_id":"ce4bh3p2rcd13ifvqdp0","pricing_plan_id":"cebpf4jnsgd1na2vs0mg"},{"bike_id":"82385019-b075-4ada-9edd-db95a77ae121","system_id":"levelo_inurba_marseille","lat":43.33029,"lon":5.39047,"is_reserved":false,"is_disabled":false,"rental_uris":{"android":"levelo://app?vid=82385019-b075-4ada-9edd-db95a77ae121","ios":"levelo://app?vid=82385019-b075-4ada-9edd-db95a77ae121"},"vehicle_type_id":"4","last_reported":1718212025,"current_range_meters":8400,"station_id":"ce4bhr92rcd13ifvqhrg","pricing_plan_id":"cebpf4jnsgd1na2vs0mg"},{"bike_id":"99c516a9-20be-4020-90bb-4f07627ab0e6","system_id":"levelo_inurba_marseille","lat":43.29513,"lon":5.39047,"is_reserved":false,"is_disabled":false,"rental_uris":{"android":"levelo://app?vid=99c516a9-20be-4020-90bb-4f07627ab0e6","ios":"levelo://app?vid=99c516a9-20be-4020-90bb-4f07627ab0e6"},"vehicle_type_id":"4","last_reported":1718212025,"current_range_meters":14800,"station_id":"ce4bh3p2rcd13ifvqdp0","pricing_plan_id":"cebpf4jnsgd1na2vs0mg"},{"bike_id":"1dbd9df5-b573-44c7-83f2-bc64896c5cf8","system_id":"levelo_inurba_marseille","lat":43.295169,"lon":5.390426,"is_reserved":false,"is_disabled":false,"rental_uris":{"android":"levelo://app?vid=1dbd9df5-b573-44c7-83f2-bc64896c5cf8","ios":"levelo://app?vid=1dbd9df5-b573-44c7-83f2-bc64896c5cf8"},"vehicle_type_id":"4","last_reported":1718212025,"current_range_meters":12800,"station_id":"ce4bh3p2rcd13ifvqdp0","pricing_plan_id":"cebpf4jnsgd1na2vs0mg"},{"bike_id":"fd7f7ef9-42ce-44b6-993d-8f158bdca3f1","system_id":"levelo_inurba_marseille","lat":43.290094,"lon":5.381264,"is_reserved":false,"is_disabled":false,"rental_uris":{"android":"levelo://app?vid=fd7f7ef9-42ce-44b6-993d-8f158bdca3f1","ios":"levelo://app?vid=fd7f7ef9-42ce-44b6-993d-8f158bdca3f1"},"vehicle_type_id":"4","last_reported":1718212025,"current_range_meters":0,"station_id":"ce4bh4p2rcd13ifvqe1g","pricing_plan_id":"cebpf4jnsgd1na2vs0mg"},{"bike_id":"b860a93c-70bf-45fa-94ab-f0d211a252fd","system_id":"levelo_inurba_marseille","lat":43.31063,"lon":5.40094,"is_reserved":false,"is_disabled":false,"rental_uris":{"android":"levelo://app?vid=b860a93c-70bf-45fa-94ab-f0d211a252fd","ios":"levelo://app?vid=b860a93c-70bf-45fa-94ab-f0d211a252fd"},"vehicle_type_id":"4","last_reported":1718212025,"current_range_meters":18400,"station_id":"","pricing_plan_id":"cebpf4jnsgd1na2vs0mg"},{"bike_id":"52103a4f-0b8f-4c98-a24d-887e8ded760c","system_id":"levelo_inurba_marseille","lat":43.28856,"lon":5.358371,"is_reserved":false,"is_disabled":false,"rental_uris":{"android":"levelo://app?vid=52103a4f-0b8f-4c98-a24d-887e8ded760c","ios":"levelo://app?vid=52103a4f-0b8f-4c98-a24d-887e8ded760c"},"vehicle_type_id":"4","last_reported":1718212025,"current_range_meters":18800,"station_id":"ce4bhb12rcd13ifvqem0","pricing_plan_id":"cebpf4jnsgd1na2vs0mg"},{"bike_id":"61a58ad3-9854-4407-b495-d398a6a34c76","system_id":"levelo_inurba_marseille","lat":43.28856,"lon":5.358371,"is_reserved":false,"is_disabled":false,"rental_uris":{"android":"levelo://app?vid=61a58ad3-9854-4407-b495-d398a6a34c76","ios":"levelo://app?vid=61a58ad3-9854-4407-b495-d398a6a34c76"},"vehicle_type_id":"4","last_reported":1718212025,"current_range_meters":800,"station_id":"ce4bhb12rcd13ifvqem0","pricing_plan_id":"cebpf4jnsgd1na2vs0mg"},{"bike_id":"0db34cce-5ca0-4484-a280-c16eff17877c","system_id":"levelo_inurba_marseille","lat":43.28856,"lon":5.358371,"is_reserved":false,"is_disabled":false,"rental_uris":{"android":"levelo://app?vid=0db34cce-5ca0-4484-a280-c16eff17877c","ios":"levelo://app?vid=0db34cce-5ca0-4484-a280-c16eff17877c"},"vehicle_type_id":"4","last_reported":1718212025,"current_range_meters":20000,"station_id":"ce4bhb12rcd13ifvqem0","pricing_plan_id":"cebpf4jnsgd1na2vs0mg"},{"bike_id":"609336e9-a573-48a2-ab0b-3e7246f59b3e","system_id":"levelo_inurba_marseille","lat":43.28856,"lon":5.358371,"is_reserved":false,"is_disabled":false,"rental_uris":{"android":"levelo://app?vid=609336e9-a573-48a2-ab0b-3e7246f59b3e","ios":"levelo://app?vid=609336e9-a573-48a2-ab0b-3e7246f59b3e"},"vehicle_type_id":"4","last_reported":1718212025,"current_range_meters":2000,"station_id":"ce4bhb12rcd13ifvqem0","pricing_plan_id":"cebpf4jnsgd1na2vs0mg"},{"bike_id":"3d1b303b-e43d-4b4f-a519-326027dcef9f","system_id":"levelo_inurba_marseille","lat":43.28856,"lon":5.358371,"is_reserved":false,"is_disabled":false,"rental_uris":{"android":"levelo://app?vid=3d1b303b-e43d-4b4f-a519-326027dcef9f","ios":"levelo://app?vid=3d1b303b-e43d-4b4f-a519-326027dcef9f"},"vehicle_type_id":"4","last_reported":1718212025,"current_range_meters":29600,"station_id":"ce4bhb12rcd13ifvqem0","pricing_plan_id":"cebpf4jnsgd1na2vs0mg"},{"bike_id":"9f046759-e024-46ad-a869-591dab655366","system_id":"levelo_inurba_marseille","lat":43.28856,"lon":5.358371,"is_reserved":false,"is_disabled":false,"rental_uris":{"android":"levelo://app?vid=9f046759-e024-46ad-a869-591dab655366","ios":"levelo://app?vid=9f046759-e024-46ad-a869-591dab655366"},"vehicle_type_id":"4","last_reported":1718212025,"current_range_meters":16800,"station_id":"ce4bhb12rcd13ifvqem0","pricing_plan_id":"cebpf4jnsgd1na2vs0mg"},{"bike_id":"872c9cd9-c41f-4c5f-a61f-29eba9194f01","system_id":"levelo_inurba_marseille","lat":43.312609,"lon":5.401662,"is_reserved":false,"is_disabled":false,"rental_uris":{"android":"levelo://app?vid=872c9cd9-c41f-4c5f-a61f-29eba9194f01","ios":"levelo://app?vid=872c9cd9-c41f-4c5f-a61f-29eba9194f01"},"vehicle_type_id":"4","last_reported":1718212025,"current_range_meters":29200,"station_id":"ce4bh092rcd13ifvqd30","pricing_plan_id":"cebpf4jnsgd1na2vs0mg"},{"bike_id":"38747978-69bb-43ab-9210-3d833571b037","system_id":"levelo_inurba_marseille","lat":43.312609,"lon":5.401662,"is_reserved":false,"is_disabled":false,"rental_uris":{"android":"levelo://app?vid=38747978-69bb-43ab-9210-3d833571b037","ios":"levelo://app?vid=38747978-69bb-43ab-9210-3d833571b037"},"vehicle_type_id":"4","last_reported":1718212025,"current_range_meters":0,"station_id":"ce4bh092rcd13ifvqd30","pricing_plan_id":"cebpf4jnsgd1na2vs0mg"},{"bike_id":"674438e2-4add-4a21-bc2e-d64f7b8eacf9","system_id":"levelo_inurba_marseille","lat":43.33745,"lon":5.37435,"is_reserved":false,"is_disabled":false,"rental_uris":{"android":"levelo://app?vid=674438e2-4add-4a21-bc2e-d64f7b8eacf9","ios":"levelo://app?vid=674438e2-4add-4a21-bc2e-d64f7b8eacf9"},"vehicle_type_id":"4","last_reported":1718212025,"current_range_meters":25200,"station_id":"","pricing_plan_id":"cebpf4jnsgd1na2vs0mg"},{"bike_id":"0b986efd-837c-4935-a404-bde4c90d2957","system_id":"levelo_inurba_marseille","lat":43.30934,"lon":5.40138,"is_reserved":false,"is_disabled":false,"rental_uris":{"android":"levelo://app?vid=0b986efd-837c-4935-a404-bde4c90d2957","ios":"levelo://app?vid=0b986efd-837c-4935-a404-bde4c90d2957"},"vehicle_type_id":"4","last_reported":1718212025,"current_range_meters":400,"station_id":"ce4bgvp2rcd13ifvqct0","pricing_plan_id":"cebpf4jnsgd1na2vs0mg"},{"bike_id":"688db2e9-450a-4ebc-81e0-665ec27c1a4c","system_id":"levelo_inurba_marseille","lat":43.337444,"lon":5.374475,"is_reserved":false,"is_disabled":false,"rental_uris":{"android":"levelo://app?vid=688db2e9-450a-4ebc-81e0-665ec27c1a4c","ios":"levelo://app?vid=688db2e9-450a-4ebc-81e0-665ec27c1a4c"},"vehicle_type_id":"4","last_reported":1718212025,"current_range_meters":5600,"station_id":"","pricing_plan_id":"cebpf4jnsgd1na2vs0mg"},{"bike_id":"4b47ad47-624f-45d9-938a-1d99b690bf49","system_id":"levelo_inurba_marseille","lat":43.312609,"lon":5.401662,"is_reserved":false,"is_disabled":false,"rental_uris":{"android":"levelo://app?vid=4b47ad47-624f-45d9-938a-1d99b690bf49","ios":"levelo://app?vid=4b47ad47-624f-45d9-938a-1d99b690bf49"},"vehicle_type_id":"4","last_reported":1718212025,"current_range_meters":2800,"station_id":"ce4bh092rcd13ifvqd30","pricing_plan_id":"cebpf4jnsgd1na2vs0mg"},{"bike_id":"102e168f-d5ec-482b-9e4f-07de15e28594","system_id":"levelo_inurba_marseille","lat":43.337474,"lon":5.374546,"is_reserved":false,"is_disabled":false,"rental_uris":{"android":"levelo://app?vid=102e168f-d5ec-482b-9e4f-07de15e28594","ios":"levelo://app?vid=102e168f-d5ec-482b-9e4f-07de15e28594"},"vehicle_type_id":"4","last_reported":1718212025,"current_range_meters":3200,"station_id":"","pricing_plan_id":"cebpf4jnsgd1na2vs0mg"},{"bike_id":"f6ad5a38-da1c-40a5-8ba5-a219615f39cb","system_id":"levelo_inurba_marseille","lat":43.33753,"lon":5.3745,"is_reserved":false,"is_disabled":false,"rental_uris":{"android":"levelo://app?vid=f6ad5a38-da1c-40a5-8ba5-a219615f39cb","ios":"levelo://app?vid=f6ad5a38-da1c-40a5-8ba5-a219615f39cb"},"vehicle_type_id":"4","last_reported":1718212025,"current_range_meters":17600,"station_id":"","pricing_plan_id":"cebpf4jnsgd1na2vs0mg"},{"bike_id":"d1849cda-65d1-466c-89f7-e72de50cdd6f","system_id":"levelo_inurba_marseille","lat":43.33755,"lon":5.37457,"is_reserved":false,"is_disabled":false,"rental_uris":{"android":"levelo://app?vid=d1849cda-65d1-466c-89f7-e72de50cdd6f","ios":"levelo://app?vid=d1849cda-65d1-466c-89f7-e72de50cdd6f"},"vehicle_type_id":"4","last_reported":1718212025,"current_range_meters":25200,"station_id":"","pricing_plan_id":"cebpf4jnsgd1na2vs0mg"},{"bike_id":"cd6fbaa0-3f8c-4b29-beaf-56075c0662d6","system_id":"levelo_inurba_marseille","lat":43.30928,"lon":5.40156,"is_reserved":false,"is_disabled":false,"rental_uris":{"android":"levelo://app?vid=cd6fbaa0-3f8c-4b29-beaf-56075c0662d6","ios":"levelo://app?vid=cd6fbaa0-3f8c-4b29-beaf-56075c0662d6"},"vehicle_type_id":"4","last_reported":1718212025,"current_range_meters":0,"station_id":"ce4bgvp2rcd13ifvqct0","pricing_plan_id":"cebpf4jnsgd1na2vs0mg"},{"bike_id":"1c134042-d32c-4020-b20f-87fa77c7f504","system_id":"levelo_inurba_marseille","lat":43.28785,"lon":5.35968,"is_reserved":false,"is_disabled":false,"rental_uris":{"android":"levelo://app?vid=1c134042-d32c-4020-b20f-87fa77c7f504","ios":"levelo://app?vid=1c134042-d32c-4020-b20f-87fa77c7f504"},"vehicle_type_id":"4","last_reported":1718212025,"current_range_meters":2400,"station_id":"","pricing_plan_id":"cebpf4jnsgd1na2vs0mg"},{"bike_id":"32ccdf7b-051d-4d4e-a00e-ff99cb2afccb","system_id":"levelo_inurba_marseille","lat":43.33757,"lon":5.37472,"is_reserved":false,"is_disabled":false,"rental_uris":{"android":"levelo://app?vid=32ccdf7b-051d-4d4e-a00e-ff99cb2afccb","ios":"levelo://app?vid=32ccdf7b-051d-4d4e-a00e-ff99cb2afccb"},"vehicle_type_id":"4","last_reported":1718212025,"current_range_meters":28000,"station_id":"","pricing_plan_id":"cebpf4jnsgd1na2vs0mg"},{"bike_id":"b2818424-3c05-4d91-b5b9-91badc882201","system_id":"levelo_inurba_marseille","lat":43.30644,"lon":5.40088,"is_reserved":false,"is_disabled":false,"rental_uris":{"android":"levelo://app?vid=b2818424-3c05-4d91-b5b9-91badc882201","ios":"levelo://app?vid=b2818424-3c05-4d91-b5b9-91badc882201"},"vehicle_type_id":"4","last_reported":1718212025,"current_range_meters":0,"station_id":"ce4bh112rcd13ifvqda0","pricing_plan_id":"cebpf4jnsgd1na2vs0mg"},{"bike_id":"ad66a201-6efe-4d73-836a-976caef4a30e","system_id":"levelo_inurba_marseille","lat":43.3376,"lon":5.37486,"is_reserved":false,"is_disabled":false,"rental_uris":{"android":"levelo://app?vid=ad66a201-6efe-4d73-836a-976caef4a30e","ios":"levelo://app?vid=ad66a201-6efe-4d73-836a-976caef4a30e"},"vehicle_type_id":"4","last_reported":1718212025,"current_range_meters":15600,"station_id":"","pricing_plan_id":"cebpf4jnsgd1na2vs0mg"},{"bike_id":"404c9df7-7854-41bb-a8ee-894a3e656a74","system_id":"levelo_inurba_marseille","lat":43.306509,"lon":5.400956,"is_reserved":false,"is_disabled":false,"rental_uris":{"android":"levelo://app?vid=404c9df7-7854-41bb-a8ee-894a3e656a74","ios":"levelo://app?vid=404c9df7-7854-41bb-a8ee-894a3e656a74"},"vehicle_type_id":"4","last_reported":1718212025,"current_range_meters":0,"station_id":"ce4bh112rcd13ifvqda0","pricing_plan_id":"cebpf4jnsgd1na2vs0mg"},{"bike_id":"e5c1ae88-32ca-4edb-94c6-9c0a6bc1931d","system_id":"levelo_inurba_marseille","lat":43.337673,"lon":5.374566,"is_reserved":false,"is_disabled":false,"rental_uris":{"android":"levelo://app?vid=e5c1ae88-32ca-4edb-94c6-9c0a6bc1931d","ios":"levelo://app?vid=e5c1ae88-32ca-4edb-94c6-9c0a6bc1931d"},"vehicle_type_id":"4","last_reported":1718212025,"current_range_meters":16400,"station_id":"","pricing_plan_id":"cebpf4jnsgd1na2vs0mg"},{"bike_id":"b3fce125-a8f8-4703-a4ce-bdfaec74c15a","system_id":"levelo_inurba_marseille","lat":43.30642,"lon":5.401031,"is_reserved":false,"is_disabled":false,"rental_uris":{"android":"levelo://app?vid=b3fce125-a8f8-4703-a4ce-bdfaec74c15a","ios":"levelo://app?vid=b3fce125-a8f8-4703-a4ce-bdfaec74c15a"},"vehicle_type_id":"4","last_reported":1718212025,"current_range_meters":29200,"station_id":"ce4bh112rcd13ifvqda0","pricing_plan_id":"cebpf4jnsgd1na2vs0mg"},{"bike_id":"781fd6ed-47c9-45bd-8eea-0c6d91679c81","system_id":"levelo_inurba_marseille","lat":43.306412,"lon":5.401035,"is_reserved":false,"is_disabled":false,"rental_uris":{"android":"levelo://app?vid=781fd6ed-47c9-45bd-8eea-0c6d91679c81","ios":"levelo://app?vid=781fd6ed-47c9-45bd-8eea-0c6d91679c81"},"vehicle_type_id":"4","last_reported":1718212025,"current_range_meters":0,"station_id":"ce4bh112rcd13ifvqda0","pricing_plan_id":"cebpf4jnsgd1na2vs0mg"},{"bike_id":"326f907f-bfdf-4ef7-969b-f0f1e7131338","system_id":"levelo_inurba_marseille","lat":43.301117,"lon":5.398795,"is_reserved":false,"is_disabled":false,"rental_uris":{"android":"levelo://app?vid=326f907f-bfdf-4ef7-969b-f0f1e7131338","ios":"levelo://app?vid=326f907f-bfdf-4ef7-969b-f0f1e7131338"},"vehicle_type_id":"4","last_reported":1718212025,"current_range_meters":7600,"station_id":"ce4bh0h2rcd13ifvqd40","pricing_plan_id":"cebpf4jnsgd1na2vs0mg"},{"bike_id":"e723d1c6-8a0d-440f-8a8b-97c111336564","system_id":"levelo_inurba_marseille","lat":43.28726,"lon":5.36087,"is_reserved":false,"is_disabled":false,"rental_uris":{"android":"levelo://app?vid=e723d1c6-8a0d-440f-8a8b-97c111336564","ios":"levelo://app?vid=e723d1c6-8a0d-440f-8a8b-97c111336564"},"vehicle_type_id":"4","last_reported":1718212025,"current_range_meters":0,"station_id":"cki0cbj6b192h4jlfktg","pricing_plan_id":"cebpf4jnsgd1na2vs0mg"},{"bike_id":"c4cacfa1-e8ff-4944-9341-2e3f191f705d","system_id":"levelo_inurba_marseille","lat":43.28725,"lon":5.36084,"is_reserved":false,"is_disabled":false,"rental_uris":{"android":"levelo://app?vid=c4cacfa1-e8ff-4944-9341-2e3f191f705d","ios":"levelo://app?vid=c4cacfa1-e8ff-4944-9341-2e3f191f705d"},"vehicle_type_id":"4","last_reported":1718212025,"current_range_meters":0,"station_id":"cki0cbj6b192h4jlfktg","pricing_plan_id":"cebpf4jnsgd1na2vs0mg"},{"bike_id":"46c92120-1436-48dd-b199-ed1fa6cc5c41","system_id":"levelo_inurba_marseille","lat":43.286695,"lon":5.36352,"is_reserved":false,"is_disabled":false,"rental_uris":{"android":"levelo://app?vid=46c92120-1436-48dd-b199-ed1fa6cc5c41","ios":"levelo://app?vid=46c92120-1436-48dd-b199-ed1fa6cc5c41"},"vehicle_type_id":"4","last_reported":1718212025,"current_range_meters":0,"station_id":"ce4bhah2rcd13ifvqej0","pricing_plan_id":"cebpf4jnsgd1na2vs0mg"},{"bike_id":"0069a776-4203-42f4-b003-8bc0556f930a","system_id":"levelo_inurba_marseille","lat":43.298681,"lon":5.397225,"is_reserved":false,"is_disabled":false,"rental_uris":{"android":"levelo://app?vid=0069a776-4203-42f4-b003-8bc0556f930a","ios":"levelo://app?vid=0069a776-4203-42f4-b003-8bc0556f930a"},"vehicle_type_id":"4","last_reported":1718212025,"current_range_meters":0,"station_id":"ce4bh0h2rcd13ifvqd50","pricing_plan_id":"cebpf4jnsgd1na2vs0mg"},{"bike_id":"07d5ad85-ddf6-41fb-8211-d6edb890a93b","system_id":"levelo_inurba_marseille","lat":43.286961,"lon":5.373785,"is_reserved":false,"is_disabled":false,"rental_uris":{"android":"levelo://app?vid=07d5ad85-ddf6-41fb-8211-d6edb890a93b","ios":"levelo://app?vid=07d5ad85-ddf6-41fb-8211-d6edb890a93b"},"vehicle_type_id":"4","last_reported":1718212025,"current_range_meters":31600,"station_id":"ce4bh3p2rcd13ifvqdq0","pricing_plan_id":"cebpf4jnsgd1na2vs0mg"},{"bike_id":"613a013b-c85a-4916-9e14-8196e5c1fa59","system_id":"levelo_inurba_marseille","lat":43.286961,"lon":5.373785,"is_reserved":false,"is_disabled":false,"rental_uris":{"android":"levelo://app?vid=613a013b-c85a-4916-9e14-8196e5c1fa59","ios":"levelo://app?vid=613a013b-c85a-4916-9e14-8196e5c1fa59"},"vehicle_type_id":"4","last_reported":1718212025,"current_range_meters":31200,"station_id":"ce4bh3p2rcd13ifvqdq0","pricing_plan_id":"cebpf4jnsgd1na2vs0mg"},{"bike_id":"1911fe96-c90f-48ea-9966-2fbc7c24975b","system_id":"levelo_inurba_marseille","lat":43.286961,"lon":5.373785,"is_reserved":false,"is_disabled":false,"rental_uris":{"android":"levelo://app?vid=1911fe96-c90f-48ea-9966-2fbc7c24975b","ios":"levelo://app?vid=1911fe96-c90f-48ea-9966-2fbc7c24975b"},"vehicle_type_id":"4","last_reported":1718212025,"current_range_meters":2800,"station_id":"ce4bh3p2rcd13ifvqdq0","pricing_plan_id":"cebpf4jnsgd1na2vs0mg"},{"bike_id":"82965ca6-d547-432f-b2f2-d3d59ce96ecf","system_id":"levelo_inurba_marseille","lat":43.286961,"lon":5.373785,"is_reserved":false,"is_disabled":false,"rental_uris":{"android":"levelo://app?vid=82965ca6-d547-432f-b2f2-d3d59ce96ecf","ios":"levelo://app?vid=82965ca6-d547-432f-b2f2-d3d59ce96ecf"},"vehicle_type_id":"4","last_reported":1718212025,"current_range_meters":22400,"station_id":"ce4bh3p2rcd13ifvqdq0","pricing_plan_id":"cebpf4jnsgd1na2vs0mg"},{"bike_id":"4f907d99-7f60-47b3-8f97-94d2d7f965d8","system_id":"levelo_inurba_marseille","lat":43.286961,"lon":5.373785,"is_reserved":false,"is_disabled":false,"rental_uris":{"android":"levelo://app?vid=4f907d99-7f60-47b3-8f97-94d2d7f965d8","ios":"levelo://app?vid=4f907d99-7f60-47b3-8f97-94d2d7f965d8"},"vehicle_type_id":"4","last_reported":1718212025,"current_range_meters":22400,"station_id":"ce4bh3p2rcd13ifvqdq0","pricing_plan_id":"cebpf4jnsgd1na2vs0mg"},{"bike_id":"de0f0c47-1f20-4fc8-9bb0-f7637dfe2a30","system_id":"levelo_inurba_marseille","lat":43.298681,"lon":5.397225,"is_reserved":false,"is_disabled":false,"rental_uris":{"android":"levelo://app?vid=de0f0c47-1f20-4fc8-9bb0-f7637dfe2a30","ios":"levelo://app?vid=de0f0c47-1f20-4fc8-9bb0-f7637dfe2a30"},"vehicle_type_id":"4","last_reported":1718212025,"current_range_meters":6400,"station_id":"ce4bh0h2rcd13ifvqd50","pricing_plan_id":"cebpf4jnsgd1na2vs0mg"},