{"last_updated":1745230240,"ttl":60,"version":"2.2","data":{"bikes":[{"bike_id":"e6f5b796-f008-4d98-8755-7f3cdd59d851","system_id":"levelo_inurba_marseille","lat":43.29883,"lon":5.36285,"is_reserved":false,"is_disabled":false,"rental_uris":{"android":"levelo://app?vid=e6f5b796-f008-4d98-8755-7f3cdd59d851","ios":"levelo://app?vid=e6f5b796-f008-4d98-8755-7f3cdd59d851"},"vehicle_type_id":"4","last_reported":1745230240,"current_range_meters":2800,"station_id":"ce4bgpp2rcd13ifvqc3g","pricing_plan_id":"cebpf4jnsgd1na2vs0mg"},{"bike_id":"b157dc81-51c5-45f3-a677-9e9c3cf6283b","system_id":"levelo_inurba_marseille","lat":43.30874,"lon":5.37095,"is_reserved":false,"is_disabled":false,"rental_uris":{"android":"levelo://app?vid=b157dc81-51c5-45f3-a677-9e9c3cf6283b","ios":"levelo://app?vid=b157dc81-51c5-45f3-a677-9e9c3cf6283b"},"vehicle_type_id":"4","last_reported":1745230240,"current_range_meters":2800,"station_id":"","pricing_plan_id":"cebpf4jnsgd1na2vs0mg"},{"bike_id":"91b2ab4b-438d-40ce-bddd-f102f5860f24","system_id":"levelo_inurba_marseille","lat":43.279404,"lon":5.387706,"is_reserved":false,"is_disabled":true,"rental_uris":{"android":"levelo://app?vid=91b2ab4b-438d-40ce-bddd-f102f5860f24","ios":"levelo://app?vid=91b2ab4b-438d-40ce-bddd-f102f5860f24"},"vehicle_type_id":"4","last_reported":1745230240,"current_range_meters":2800,"station_id":"","pricing_plan_id":"cebpf4jnsgd1na2vs0mg"},{"bike_id":"3921e034-2b13-419f-9aad-fed780a2d8af","system_id":"levelo_inurba_marseille","lat":43.27372,"lon":5.36259,"is_reserved":false,"is_disabled":false,"rental_uris":{"android":"levelo://app?vid=3921e034-2b13-419f-9aad-fed780a2d8af","ios":"levelo://app?vid=3921e034-2b13-419f-9aad-fed780a2d8af"},"vehicle_type_id":"4","last_reported":1745230240,"current_range_meters":3600,"station_id":"ce4bhbh2rcd13ifvqeo0","pricing_plan_id":"cebpf4jnsgd1na2vs0mg"},{"bike_id":"dd7fd6a6-52ac-45c1-8e01-2942eb49bd75","system_id":"levelo_inurba_marseille","lat":43.29886,"lon":5.38897,"is_reserved":false,"is_disabled":false,"rental_uris":{"android":"levelo://app?vid=dd7fd6a6-52ac-45c1-8e01-2942eb49bd75","ios":"levelo://app?vid=dd7fd6a6-52ac-45c1-8e01-2942eb49bd75"},"vehicle_type_id":"4","last_reported":1745230240,"current_range_meters":3200,"station_id":"ce4bh392rcd13ifvqdl0","pricing_plan_id":"cebpf4jnsgd1na2vs0mg"},{"bike_id":"1b4a8f9d-2faa-464e-b7a7-813f9c13d848","system_id":"levelo_inurba_marseille","lat":43.24177,"lon":5.36386,"is_reserved":false,"is_disabled":true,"rental_uris":{"android":"levelo://app?vid=1b4a8f9d-2faa-464e-b7a7-813f9c13d848","ios":"levelo://app?vid=1b4a8f9d-2faa-464e-b7a7-813f9c13d848"},"vehicle_type_id":"4","last_reported":1745230240,"current_range_meters":3200,"station_id":"cpo36qri1sfpv3e86is0","pricing_plan_id":"cebpf4jnsgd1na2vs0mg"},{"bike_id":"f528ad9f-35ff-49c0-a9a7-2699d3d31476","system_id":"levelo_inurba_marseille","lat":43.29975,"lon":5.37188,"is_reserved":false,"is_disabled":false,"rental_uris":{"android":"levelo://app?vid=f528ad9f-35ff-49c0-a9a7-2699d3d31476","ios":"levelo://app?vid=f528ad9f-35ff-49c0-a9a7-2699d3d31476"},"vehicle_type_id":"4","last_reported":1745230240,"current_range_meters":4400,"station_id":"ce4bgr92rcd13ifvqc7g","pricing_plan_id":"cebpf4jnsgd1na2vs0mg"},{"bike_id":"e1f146bd-8432-433b-9b90-53de818538ab","system_id":"levelo_inurba_marseille","lat":43.2957,"lon":5.39988,"is_reserved":false,"is_disabled":false,"rental_uris":{"android":"levelo://app?vid=e1f146bd-8432-433b-9b90-53de818538ab","ios":"levelo://app?vid=e1f146bd-8432-433b-9b90-53de818538ab"},"vehicle_type_id":"4","last_reported":1745230240,"current_range_meters":4000,"station_id":"ce4bh312rcd13ifvqdj0","pricing_plan_id":"cebpf4jnsgd1na2vs0mg"},{"bike_id":"f0b6af0d-1cbf-47a3-af07-dab09fabbbf0","system_id":"levelo_inurba_marseille","lat":43.23194,"lon":5.35559,"is_reserved":false,"is_disabled":false,"rental_uris":{"android":"levelo://app?vid=f0b6af0d-1cbf-47a3-af07-dab09fabbbf0","ios":"levelo://app?vid=f0b6af0d-1cbf-47a3-af07-dab09fabbbf0"},"vehicle_type_id":"4","last_reported":1745230240,"current_range_meters":4800,"station_id":"ce4bhu92rcd13ifvqi70","pricing_plan_id":"cebpf4jnsgd1na2vs0mg"},{"bike_id":"6565ca44-2e63-4f42-a847-09fa2bdb37f3","system_id":"levelo_inurba_marseille","lat":43.31998,"lon":5.38144,"is_reserved":false,"is_disabled":false,"rental_uris":{"android":"levelo://app?vid=6565ca44-2e63-4f42-a847-09fa2bdb37f3","ios":"levelo://app?vid=6565ca44-2e63-4f42-a847-09fa2bdb37f3"},"vehicle_type_id":"4","last_reported":1745230240,"current_range_meters":4800,"station_id":"ce4bhr12rcd13ifvqhpg","pricing_plan_id":"cebpf4jnsgd1na2vs0mg"},{"bike_id":"138d6608-886e-4863-a664-7df6e5cc9a47","system_id":"levelo_inurba_marseille","lat":43.3263,"lon":5.42213,"is_reserved":false,"is_disabled":false,"rental_uris":{"android":"levelo://app?vid=138d6608-886e-4863-a664-7df6e5cc9a47","ios":"levelo://app?vid=138d6608-886e-4863-a664-7df6e5cc9a47"},"vehicle_type_id":"4","last_reported":1745230240,"current_range_meters":4800,"station_id":"","pricing_plan_id":"cebpf4jnsgd1na2vs0mg"},{"bike_id":"ab9be9a2-b412-4e12-b774-0ac14e1c75f2","system_id":"levelo_inurba_marseille","lat":43.23131,"lon":5.43708,"is_reserved":false,"is_disabled":false,"rental_uris":{"android":"levelo://app?vid=ab9be9a2-b412-4e12-b774-0ac14e1c75f2","ios":"levelo://app?vid=ab9be9a2-b412-4e12-b774-0ac14e1c75f2"},"vehicle_type_id":"4","last_reported":1745230240,"current_range_meters":6000,"station_id":"ce4bhmp2rcd13ifvqgog","pricing_plan_id":"cebpf4jnsgd1na2vs0mg"},{"bike_id":"9810eab0-14d5-401c-ae8f-b57e44462930","system_id":"levelo_inurba_marseille","lat":43.23176,"lon":5.40004,"is_reserved":false,"is_disabled":false,"rental_uris":{"android":"levelo://app?vid=9810eab0-14d5-401c-ae8f-b57e44462930","ios":"levelo://app?vid=9810eab0-14d5-401c-ae8f-b57e44462930"},"vehicle_type_id":"4","last_reported":1745230240,"current_range_meters":6000,"station_id":"ce4bhn12rcd13ifvqgqg","pricing_plan_id":"cebpf4jnsgd1na2vs0mg"},{"bike_id":"7afeef51-2056-4d06-b296-c2c124d55600","system_id":"levelo_inurba_marseille","lat":43.31728,"lon":5.42414,"is_reserved":false,"is_disabled":false,"rental_uris":{"android":"levelo://app?vid=7afeef51-2056-4d06-b296-c2c124d55600","ios":"levelo://app?vid=7afeef51-2056-4d06-b296-c2c124d55600"},"vehicle_type_id":"4","last_reported":1745230240,"current_range_meters":6000,"station_id":"ce4bhp92rcd13ifvqhbg","pricing_plan_id":"cebpf4jnsgd1na2vs0mg"},{"bike_id":"3c34764c-0cbc-4a47-8a48-12177dc7fbf3","system_id":"levelo_inurba_marseille","lat":43.23147,"lon":5.43721,"is_reserved":false,"is_disabled":false,"rental_uris":{"android":"levelo://app?vid=3c34764c-0cbc-4a47-8a48-12177dc7fbf3","ios":"levelo://app?vid=3c34764c-0cbc-4a47-8a48-12177dc7fbf3"},"vehicle_type_id":"4","last_reported":1745230240,"current_range_meters":6400,"station_id":"ce4bhmp2rcd13ifvqgog","pricing_plan_id":"cebpf4jnsgd1na2vs0mg"},{"bike_id":"c4615b90-f6e7-460d-bcba-4dd7200b5200","system_id":"levelo_inurba_marseille","lat":43.31708,"lon":5.37749,"is_reserved":false,"is_disabled":false,"rental_uris":{"android":"levelo://app?vid=c4615b90-f6e7-460d-bcba-4dd7200b5200","ios":"levelo://app?vid=c4615b90-f6e7-460d-bcba-4dd7200b5200"},"vehicle_type_id":"4","last_reported":1745230240,"current_range_meters":6800,"station_id":"ce4bgth2rcd13ifvqch0","pricing_plan_id":"cebpf4jnsgd1na2vs0mg"},{"bike_id":"527fac75-0783-4b2c-bd4e-07f2f2fee902","system_id":"levelo_inurba_marseille","lat":43.31232,"lon":5.37718,"is_reserved":false,"is_disabled":false,"rental_uris":{"android":"levelo://app?vid=527fac75-0783-4b2c-bd4e-07f2f2fee902","ios":"levelo://app?vid=527fac75-0783-4b2c-bd4e-07f2f2fee902"},"vehicle_type_id":"4","last_reported":1745230240,"current_range_meters":6800,"station_id":"","pricing_plan_id":"cebpf4jnsgd1na2vs0mg"},{"bike_id":"928f08d3-b192-458a-853b-5c4ad47db73b","system_id":"levelo_inurba_marseille","lat":43.24667,"lon":5.38163,"is_reserved":false,"is_disabled":false,"rental_uris":{"android":"levelo://app?vid=928f08d3-b192-458a-853b-5c4ad47db73b","ios":"levelo://app?vid=928f08d3-b192-458a-853b-5c4ad47db73b"},"vehicle_type_id":"4","last_reported":1745230240,"current_range_meters":6400,"station_id":"ce4bhih2rcd13ifvqfr0","pricing_plan_id":"cebpf4jnsgd1na2vs0mg"},{"bike_id":"b59fc538-dcff-4529-af5a-086f5122f549","system_id":"levelo_inurba_marseille","lat":43.2315,"lon":5.437,"is_reserved":false,"is_disabled":false,"rental_uris":{"android":"levelo://app?vid=b59fc538-dcff-4529-af5a-086f5122f549","ios":"levelo://app?vid=b59fc538-dcff-4529-af5a-086f5122f549"},"vehicle_type_id":"4","last_reported":1745230240,"current_range_meters":7200,"station_id":"ce4bhmp2rcd13ifvqgog","pricing_plan_id":"cebpf4jnsgd1na2vs0mg"},{"bike_id":"4e6892ef-dbe3-43e4-bc69-b2da5d802c90","system_id":"levelo_inurba_marseille","lat":43.27378,"lon":5.36252,"is_reserved":false,"is_disabled":true,"rental_uris":{"android":"levelo://app?vid=4e6892ef-dbe3-43e4-bc69-b2da5d802c90","ios":"levelo://app?vid=4e6892ef-dbe3-43e4-bc69-b2da5d802c90"},"vehicle_type_id":"4","last_reported":1745230240,"current_range_meters":7200,"station_id":"ce4bhbh2rcd13ifvqeo0","pricing_plan_id":"cebpf4jnsgd1na2vs0mg"},{"bike_id":"1886fb80-2895-40f7-844d-7933f5d904dc","system_id":"levelo_inurba_marseille","lat":43.27868,"lon":5.39289,"is_reserved":false,"is_disabled":false,"rental_uris":{"android":"levelo://app?vid=1886fb80-2895-40f7-844d-7933f5d904dc","ios":"levelo://app?vid=1886fb80-2895-40f7-844d-7933f5d904dc"},"vehicle_type_id":"4","last_reported":1745230240,"current_range_meters":7200,"station_id":"","pricing_plan_id":"cebpf4jnsgd1na2vs0mg"},{"bike_id":"b0c6cbd6-dd9d-4667-b3f5-63abe942265c","system_id":"levelo_inurba_marseille","lat":43.27373,"lon":5.3625,"is_reserved":false,"is_disabled":false,"rental_uris":{"android":"levelo://app?vid=b0c6cbd6-dd9d-4667-b3f5-63abe942265c","ios":"levelo://app?vid=b0c6cbd6-dd9d-4667-b3f5-63abe942265c"},"vehicle_type_id":"4","last_reported":1745230240,"current_range_meters":7200,"station_id":"ce4bhbh2rcd13ifvqeo0","pricing_plan_id":"cebpf4jnsgd1na2vs0mg"},{"bike_id":"cb9127a5-76f8-4cfa-9e72-3f333449e26a","system_id":"levelo_inurba_marseille","lat":43.27953,"lon":5.41034,"is_reserved":false,"is_disabled":false,"rental_uris":{"android":"levelo://app?vid=cb9127a5-76f8-4cfa-9e72-3f333449e26a","ios":"levelo://app?vid=cb9127a5-76f8-4cfa-9e72-3f333449e26a"},"vehicle_type_id":"4","last_reported":1745230240,"current_range_meters":8000,"station_id":"ce4bhnp2rcd13ifvqh0g","pricing_plan_id":"cebpf4jnsgd1na2vs0mg"},{"bike_id":"fbc8a746-3995-42fb-bb5e-a6b13a26055d","system_id":"levelo_inurba_marseille","lat":43.303124,"lon":5.368937,"is_reserved":false,"is_disabled":false,"rental_uris":{"android":"levelo://app?vid=fbc8a746-3995-42fb-bb5e-a6b13a26055d","ios":"levelo://app?vid=fbc8a746-3995-42fb-bb5e-a6b13a26055d"},"vehicle_type_id":"4","last_reported":1745230240,"current_range_meters":8000,"station_id":"ce4bhhh2rcd13ifvqfk0","pricing_plan_id":"cebpf4jnsgd1na2vs0mg"},{"bike_id":"d8754dce-3ce6-4f68-ba47-f64cfc8b26ab","system_id":"levelo_inurba_marseille","lat":43.23187,"lon":5.35556,"is_reserved":false,"is_disabled":false,"rental_uris":{"android":"levelo://app?vid=d8754dce-3ce6-4f68-ba47-f64cfc8b26ab","ios":"levelo://app?vid=d8754dce-3ce6-4f68-ba47-f64cfc8b26ab"},"vehicle_type_id":"4","last_reported":1745230240,"current_range_meters":8000,"station_id":"ce4bhu92rcd13ifvqi70","pricing_plan_id":"cebpf4jnsgd1na2vs0mg"},{"bike_id":"8859f58f-6b81-4e3f-bf32-dd3b0ca7be5e","system_id":"levelo_inurba_marseille","lat":43.24388,"lon":5.37065,"is_reserved":false,"is_disabled":false,"rental_uris":{"android":"levelo://app?vid=8859f58f-6b81-4e3f-bf32-dd3b0ca7be5e","ios":"levelo://app?vid=8859f58f-6b81-4e3f-bf32-dd3b0ca7be5e"},"vehicle_type_id":"4","last_reported":1745230240,"current_range_meters":8000,"station_id":"ce4bhhh2rcd13ifvqfk0","pricing_plan_id":"cebpf4jnsgd1na2vs0mg"},{"bike_id":"d177bdcb-ba4d-4c2e-8899-f6b0f9af395c","system_id":"levelo_inurba_marseille","lat":43.25906,"lon":5.40935,"is_reserved":false,"is_disabled":true,"rental_uris":{"android":"levelo://app?vid=d177bdcb-ba4d-4c2e-8899-f6b0f9af395c","ios":"levelo://app?vid=d177bdcb-ba4d-4c2e-8899-f6b0f9af395c"},"vehicle_type_id":"4","last_reported":1745230240,"current_range_meters":8400,"station_id":"ce4bhm92rcd13ifvqglg","pricing_plan_id":"cebpf4jnsgd1na2vs0mg"},{"bike_id":"5e77d5f0-5cf3-488a-a892-97962bf41264","system_id":"levelo_inurba_marseille","lat":43.2315,"lon":5.43714,"is_reserved":false,"is_disabled":false,"rental_uris":{"android":"levelo://app?vid=5e77d5f0-5cf3-488a-a892-97962bf41264","ios":"levelo://app?vid=5e77d5f0-5cf3-488a-a892-97962bf41264"},"vehicle_type_id":"4","last_reported":1745230240,"current_range_meters":8400,"station_id":"ce4bhmp2rcd13ifvqgog","pricing_plan_id":"cebpf4jnsgd1na2vs0mg"},{"bike_id":"33399c5a-7b71-4ae2-a964-55b2f2e618d0","system_id":"levelo_inurba_marseille","lat":43.3021,"lon":5.36596,"is_reserved":false,"is_disabled":false,"rental_uris":{"android":"levelo://app?vid=33399c5a-7b71-4ae2-a964-55b2f2e618d0","ios":"levelo://app?vid=33399c5a-7b71-4ae2-a964-55b2f2e618d0"},"vehicle_type_id":"4","last_reported":1745230240,"current_range_meters":8400,"station_id":"ce4bgrh2rcd13ifvqc8g","pricing_plan_id":"cebpf4jnsgd1na2vs0mg"},{"bike_id":"07147dae-f543-4f4b-a869-c5ff0465e230","system_id":"levelo_inurba_marseille","lat":43.24386,"lon":5.37068,"is_reserved":false,"is_disabled":false,"rental_uris":{"android":"levelo://app?vid=07147dae-f543-4f4b-a869-c5ff0465e230","ios":"levelo://app?vid=07147dae-f543-4f4b-a869-c5ff0465e230"},"vehicle_type_id":"4","last_reported":1745230240,"current_range_meters":8400,"station_id":"ce4bhhh2rcd13ifvqfk0","pricing_plan_id":"cebpf4jnsgd1na2vs0mg"},{"bike_id":"2430e82e-e81e-438e-a4d8-bf6e3aa1b3e1","system_id":"levelo_inurba_marseille","lat":43.29785,"lon":5.39346,"is_reserved":false,"is_disabled":false,"rental_uris":{"android":"levelo://app?vid=2430e82e-e81e-438e-a4d8-bf6e3aa1b3e1","ios":"levelo://app?vid=2430e82e-e81e-438e-a4d8-bf6e3aa1b3e1"},"vehicle_type_id":"4","last_reported":1745230240,"current_range_meters":8400,"station_id":"chh1huq6cuj3fo74tm60","pricing_plan_id":"cebpf4jnsgd1na2vs0mg"},{"bike_id":"a0ea4537-292b-46da-8ac7-a08a68f78cf7","system_id":"levelo_inurba_marseille","lat":43.2316,"lon":5.43715,"is_reserved":false,"is_disabled":false,"rental_uris":{"android":"levelo://app?vid=a0ea4537-292b-46da-8ac7-a08a68f78cf7","ios":"levelo://app?vid=a0ea4537-292b-46da-8ac7-a08a68f78cf7"},"vehicle_type_id":"4","last_reported":1745230240,"current_range_meters":8800,"station_id":"ce4bhmp2rcd13ifvqgog","pricing_plan_id":"cebpf4jnsgd1na2vs0mg"},{"bike_id":"3f9b351e-24c7-4831-949f-a89b33917557","system_id":"levelo_inurba_marseille","lat":43.24048,"lon":5.37742,"is_reserved":false,"is_disabled":true,"rental_uris":{"android":"levelo://app?vid=3f9b351e-24c7-4831-949f-a89b33917557","ios":"levelo://app?vid=3f9b351e-24c7-4831-949f-a89b33917557"},"vehicle_type_id":"4","last_reported":1745230240,"current_range_meters":8800,"station_id":"ce4bhnp2rcd13ifvqgvg","pricing_plan_id":"cebpf4jnsgd1na2vs0mg"},{"bike_id":"2f938840-ab84-498c-9868-8672d8fa7f17","system_id":"levelo_inurba_marseille","lat":43.23145,"lon":5.43707,"is_reserved":false,"is_disabled":true,"rental_uris":{"android":"levelo://app?vid=2f938840-ab84-498c-9868-8672d8fa7f17","ios":"levelo://app?vid=2f938840-ab84-498c-9868-8672d8fa7f17"},"vehicle_type_id":"4","last_reported":1745230240,"current_range_meters":8800,"station_id":"ce4bhmp2rcd13ifvqgog","pricing_plan_id":"cebpf4jnsgd1na2vs0mg"},{"bike_id":"69575f9d-5400-4393-8dfd-2ae3afeaf431","system_id":"levelo_inurba_marseille","lat":43.21189,"lon":5.35076,"is_reserved":false,"is_disabled":false,"rental_uris":{"android":"levelo://app?vid=69575f9d-5400-4393-8dfd-2ae3afeaf431","ios":"levelo://app?vid=69575f9d-5400-4393-8dfd-2ae3afeaf431"},"vehicle_type_id":"4","last_reported":1745230240,"current_range_meters":9200,"station_id":"st_cvj6sg6p6f1abm77japg","pricing_plan_id":"cebpf4jnsgd1na2vs0mg"},{"bike_id":"dd5a16f6-791f-4176-8bf0-ef7fd217c118","system_id":"levelo_inurba_marseille","lat":43.31549,"lon":5.37285,"is_reserved":false,"is_disabled":false,"rental_uris":{"android":"levelo://app?vid=dd5a16f6-791f-4176-8bf0-ef7fd217c118","ios":"levelo://app?vid=dd5a16f6-791f-4176-8bf0-ef7fd217c118"},"vehicle_type_id":"4","last_reported":1745230240,"current_range_meters":9200,"station_id":"","pricing_plan_id":"cebpf4jnsgd1na2vs0mg"},{"bike_id":"d2a0714f-36ee-40ec-85c1-6c76ab748610","system_id":"levelo_inurba_marseille","lat":43.29792,"lon":5.40409,"is_reserved":false,"is_disabled":false,"rental_uris":{"android":"levelo://app?vid=d2a0714f-36ee-40ec-85c1-6c76ab748610","ios":"levelo://app?vid=d2a0714f-36ee-40ec-85c1-6c76ab748610"},"vehicle_type_id":"4","last_reported":1745230240,"current_range_meters":9200,"station_id":"ce4bh112rcd13ifvqd90","pricing_plan_id":"cebpf4jnsgd1na2vs0mg"},{"bike_id":"087c77c7-1a9a-42b9-90e9-ba9edc162708","system_id":"levelo_inurba_marseille","lat":43.31721,"lon":5.37768,"is_reserved":false,"is_disabled":false,"rental_uris":{"android":"levelo://app?vid=087c77c7-1a9a-42b9-90e9-ba9edc162708","ios":"levelo://app?vid=087c77c7-1a9a-42b9-90e9-ba9edc162708"},"vehicle_type_id":"4","last_reported":1745230240,"current_range_meters":9200,"station_id":"ce4bgth2rcd13ifvqch0","pricing_plan_id":"cebpf4jnsgd1na2vs0mg"},{"bike_id":"478adf2f-07e1-4396-965c-e1a74e1fa681","system_id":"levelo_inurba_marseille","lat":43.27886,"lon":5.38012,"is_reserved":false,"is_disabled":false,"rental_uris":{"android":"levelo://app?vid=478adf2f-07e1-4396-965c-e1a74e1fa681","ios":"levelo://app?vid=478adf2f-07e1-4396-965c-e1a74e1fa681"},"vehicle_type_id":"4","last_reported":1745230240,"current_range_meters":9200,"station_id":"ce4bhf92rcd13ifvqf50","pricing_plan_id":"cebpf4jnsgd1na2vs0mg"},{"bike_id":"67b3db4c-e51e-4a06-9880-5ce4dc18f8ad","system_id":"levelo_inurba_marseille","lat":43.29796,"lon":5.40395,"is_reserved":false,"is_disabled":false,"rental_uris":{"android":"levelo://app?vid=67b3db4c-e51e-4a06-9880-5ce4dc18f8ad","ios":"levelo://app?vid=67b3db4c-e51e-4a06-9880-5ce4dc18f8ad"},"vehicle_type_id":"4","last_reported":1745230240,"current_range_meters":9600,"station_id":"ce4bh112rcd13ifvqd90","pricing_plan_id":"cebpf4jnsgd1na2vs0mg"},{"bike_id":"50720bbe-5512-41d7-86e0-3df313b565c6","system_id":"levelo_inurba_marseille","lat":43.32364,"lon":5.38919,"is_reserved":false,"is_disabled":true,"rental_uris":{"android":"levelo://app?vid=50720bbe-5512-41d7-86e0-3df313b565c6","ios":"levelo://app?vid=50720bbe-5512-41d7-86e0-3df313b565c6"},"vehicle_type_id":"4","last_reported":1745230240,"current_range_meters":9600,"station_id":"ce4bhqp2rcd13ifvqhog","pricing_plan_id":"cebpf4jnsgd1na2vs0mg"},{"bike_id":"0a370939-c239-4e4d-98de-682ba3485850","system_id":"levelo_inurba_marseille","lat":43.23961,"lon":5.36628,"is_reserved":false,"is_disabled":false,"rental_uris":{"android":"levelo://app?vid=0a370939-c239-4e4d-98de-682ba3485850","ios":"levelo://app?vid=0a370939-c239-4e4d-98de-682ba3485850"},"vehicle_type_id":"4","last_reported":1745230240,"current_range_meters":9600,"station_id":"ce4bhi12rcd13ifvqfp0","pricing_plan_id":"cebpf4jnsgd1na2vs0mg"},{"bike_id":"87680c1e-23cd-4eab-9308-a4bde5330d01","system_id":"levelo_inurba_marseille","lat":43.26581,"lon":5.39029,"is_reserved":false,"is_disabled":false,"rental_uris":{"android":"levelo://app?vid=87680c1e-23cd-4eab-9308-a4bde5330d01","ios":"levelo://app?vid=87680c1e-23cd-4eab-9308-a4bde5330d01"},"vehicle_type_id":"4","last_reported":1745230240,"current_range_meters":9600,"station_id":"ce4bhe12rcd13ifvqf30","pricing_plan_id":"cebpf4jnsgd1na2vs0mg"},{"bike_id":"33af5d0c-850d-46d9-a068-6554a3d65bf7","system_id":"levelo_inurba_marseille","lat":43.29538,"lon":5.39388,"is_reserved":false,"is_disabled":false,"rental_uris":{"android":"levelo://app?vid=33af5d0c-850d-46d9-a068-6554a3d65bf7","ios":"levelo://app?vid=33af5d0c-850d-46d9-a068-6554a3d65bf7"},"vehicle_type_id":"4","last_reported":1745230240,"current_range_meters":9600,"station_id":"ce4bh292rcd13ifvqdf0","pricing_plan_id":"cebpf4jnsgd1na2vs0mg"},{"bike_id":"bfec61ec-c078-4926-9591-78b8dd16df0a","system_id":"levelo_inurba_marseille","lat":43.25491,"lon":5.37647,"is_reserved":false,"is_disabled":false,"rental_uris":{"android":"levelo://app?vid=bfec61ec-c078-4926-9591-78b8dd16df0a","ios":"levelo://app?vid=bfec61ec-c078-4926-9591-78b8dd16df0a"},"vehicle_type_id":"4","last_reported":1745230240,"current_range_meters":9200,"station_id":"ce4bhh12rcd13ifvqff0","pricing_plan_id":"cebpf4jnsgd1na2vs0mg"},{"bike_id":"735a0ca0-15ff-41e7-a2f7-fed46518485e","system_id":"levelo_inurba_marseille","lat":43.23186,"lon":5.39987,"is_reserved":false,"is_disabled":false,"rental_uris":{"android":"levelo://app?vid=735a0ca0-15ff-41e7-a2f7-fed46518485e","ios":"levelo://app?vid=735a0ca0-15ff-41e7-a2f7-fed46518485e"},"vehicle_type_id":"4","last_reported":1745230240,"current_range_meters":9600,"station_id":"ce4bhn12rcd13ifvqgqg","pricing_plan_id":"cebpf4jnsgd1na2vs0mg"},{"bike_id":"a51e8b3f-499b-4fd5-8942-23d15e32dcb9","system_id":"levelo_inurba_marseille","lat":43.28418,"lon":5.37528,"is_reserved":false,"is_disabled":false,"rental_uris":{"android":"levelo://app?vid=a51e8b3f-499b-4fd5-8942-23d15e32dcb9","ios":"levelo://app?vid=a51e8b3f-499b-4fd5-8942-23d15e32dcb9"},"vehicle_type_id":"4","last_reported":1745230240,"current_range_meters":9600,"station_id":"ce4bh412rcd13ifvqds0","pricing_plan_id":"cebpf4jnsgd1na2vs0mg"},{"bike_id":"9214992b-50ac-4a9b-99d6-b592607f9ebd","system_id":"levelo_inurba_marseille","lat":43.23963,"lon":5.36629,"is_reserved":false,"is_disabled":false,"rental_uris":{"android":"levelo://app?vid=9214992b-50ac-4a9b-99d6-b592607f9ebd","ios":"levelo://app?vid=9214992b-50ac-4a9b-99d6-b592607f9ebd"},"vehicle_type_id":"4","last_reported":1745230240,"current_range_meters":9600,"station_id":"ce4bhi12rcd13ifvqfp0","pricing_plan_id":"cebpf4jnsgd1na2vs0mg"},{"bike_id":"1184e7cb-97e6-48bd-84cd-8e59c100c07b","system_id":"levelo_inurba_marseille","lat":43.29273,"lon":5.36846,"is_reserved":false,"is_disabled":false,"rental_uris":{"android":"levelo://app?vid=1184e7cb-97e6-48bd-84cd-8e59c100c07b","ios":"levelo://app?vid=1184e7cb-97e6-48bd-84cd-8e59c100c07b"},"vehicle_type_id":"4","last_reported":1745230240,"current_range_meters":10000,"station_id":"ce4bhbp2rcd13ifvqesg","pricing_plan_id":"cebpf4jnsgd1na2vs0mg"},{"bike_id":"d53e964c-f934-484c-a259-3e8f23cdd819","system_id":"levelo_inurba_marseille","lat":43.33727,"lon":5.39193,"is_reserved":false,"is_disabled":false,"rental_uris":{"android":"levelo://app?vid=d53e964c-f934-484c-a259-3e8f23cdd819","ios":"levelo://app?vid=d53e964c-f934-484c-a259-3e8f23cdd819"},"vehicle_type_id":"4","last_reported":1745230240,"current_range_meters":10000,"station_id":"ce4bhr92rcd13ifvqhsg","pricing_plan_id":"cebpf4jnsgd1na2vs0mg"},{"bike_id":"1737dea4-541f-4bc8-9731-1ab03c2deae6","system_id":"levelo_inurba_marseille","lat":43.23956,"lon":5.36638,"is_reserved":false,"is_disabled":true,"rental_uris":{"android":"levelo://app?vid=1737dea4-541f-4bc8-9731-1ab03c2deae6","ios":"levelo://app?vid=1737dea4-541f-4bc8-9731-1ab03c2deae6"},"vehicle_type_id":"4","last_reported":1745230240,"current_range_meters":10000,"station_id":"ce4bhi12rcd13ifvqfp0","pricing_plan_id":"cebpf4jnsgd1na2vs0mg"},{"bike_id":"cb1906e0-eddc-4a43-b28c-29be8c0aa51a","system_id":"levelo_inurba_marseille","lat":43.27497,"lon":5.42461,"is_reserved":false,"is_disabled":false,"rental_uris":{"android":"levelo://app?vid=cb1906e0-eddc-4a43-b28c-29be8c0aa51a","ios":"levelo://app?vid=cb1906e0-eddc-4a43-b28c-29be8c0aa51a"},"vehicle_type_id":"4","last_reported":1745230240,"current_range_meters":10800,"station_id":"ce4bhn92rcd13ifvqgrg","pricing_plan_id":"cebpf4jnsgd1na2vs0mg"},{"bike_id":"0e9c1402-fcc3-47f8-b0a6-111a1f05deed","system_id":"levelo_inurba_marseille","lat":43.21608,"lon":5.34665,"is_reserved":false,"is_disabled":false,"rental_uris":{"android":"levelo://app?vid=0e9c1402-fcc3-47f8-b0a6-111a1f05deed","ios":"levelo://app?vid=0e9c1402-fcc3-47f8-b0a6-111a1f05deed"},"vehicle_type_id":"4","last_reported":1745230240,"current_range_meters":10800,"station_id":"","pricing_plan_id":"cebpf4jnsgd1na2vs0mg"},{"bike_id":"4d8ee2c5-8346-4b66-ae86-f443b6bdd2d9","system_id":"levelo_inurba_marseille","lat":43.24548,"lon":5.41298,"is_reserved":false,"is_disabled":false,"rental_uris":{"android":"levelo://app?vid=4d8ee2c5-8346-4b66-ae86-f443b6bdd2d9","ios":"levelo://app?vid=4d8ee2c5-8346-4b66-ae86-f443b6bdd2d9"},"vehicle_type_id":"4","last_reported":1745230240,"current_range_meters":10800,"station_id":"","pricing_plan_id":"cebpf4jnsgd1na2vs0mg"},{"bike_id":"ddf08875-1592-475b-ae64-af5865607585","system_id":"levelo_inurba_marseille","lat":43.30432,"lon":5.41272,"is_reserved":false,"is_disabled":false,"rental_uris":{"android":"levelo://app?vid=ddf08875-1592-475b-ae64-af5865607585","ios":"levelo://app?vid=ddf08875-1592-475b-ae64-af5865607585"},"vehicle_type_id":"4","last_reported":1745230240,"current_range_meters":10000,"station_id":"ce4bhop2rcd13ifvqh8g","pricing_plan_id":"cebpf4jnsgd1na2vs0mg"},{"bike_id":"b25b6470-ff43-4d6b-b299-0f21ec070f27","system_id":"levelo_inurba_marseille","lat":43.29911,"lon":5.3815,"is_reserved":false,"is_disabled":true,"rental_uris":{"android":"levelo://app?vid=b25b6470-ff43-4d6b-b299-0f21ec070f27","ios":"levelo://app?vid=b25b6470-ff43-4d6b-b299-0f21ec070f27"},"vehicle_type_id":"4","last_reported":1745230240,"current_range_meters":10800,"station_id":"ce4bgj12rcd13ifvqbc0","pricing_plan_id":"cebpf4jnsgd1na2vs0mg"},{"bike_id":"c6f51156-6a52-40ab-95b1-46e4b904f3ef","system_id":"levelo_inurba_marseille","lat":43.291766,"lon":5.372247,"is_reserved":false,"is_disabled":false,"rental_uris":{"android":"levelo://app?vid=c6f51156-6a52-40ab-95b1-46e4b904f3ef","ios":"levelo://app?vid=c6f51156-6a52-40ab-95b1-46e4b904f3ef"},"vehicle_type_id":"4","last_reported":1745230240,"current_range_meters":10000,"station_id":"ce4bha92rcd13ifvqeh0","pricing_plan_id":"cebpf4jnsgd1na2vs0mg"},{"bike_id":"71ac8e66-7bca-4f63-8eac-83591d00110a","system_id":"levelo_inurba_marseille","lat":43.23964,"lon":5.36628,"is_reserved":false,"is_disabled":false,"rental_uris":{"android":"levelo://app?vid=71ac8e66-7bca-4f63-8eac-83591d00110a","ios":"levelo://app?vid=71ac8e66-7bca-4f63-8eac-83591d00110a"},"vehicle_type_id":"4","last_reported":1745230240,"current_range_meters":11200,"station_id":"ce4bhi12rcd13ifvqfp0","pricing_plan_id":"cebpf4jnsgd1na2vs0mg"},{"bike_id":"7fd754bf-6e9e-4d63-b05b-4d5eab42acde","system_id":"levelo_inurba_marseille","lat":43.30647,"lon":5.40068,"is_reserved":false,"is_disabled":false,"rental_uris":{"android":"levelo://app?vid=7fd754bf-6e9e-4d63-b05b-4d5eab42acde","ios":"levelo://app?vid=7fd754bf-6e9e-4d63-b05b-4d5eab42acde"},"vehicle_type_id":"4","last_reported":1745230240,"current_range_meters":11600,"station_id":"ce4bh112rcd13ifvqda0","pricing_plan_id":"cebpf4jnsgd1na2vs0mg"},{"bike_id":"a030ed3c-806c-478a-8c76-99060a7fbe1c","system_id":"levelo_inurba_marseille","lat":43.23137,"lon":5.43731,"is_reserved":false,"is_disabled":true,"rental_uris":{"android":"levelo://app?vid=a030ed3c-806c-478a-8c76-99060a7fbe1c","ios":"levelo://app?vid=a030ed3c-806c-478a-8c76-99060a7fbe1c"},"vehicle_type_id":"4","last_reported":1745230240,"current_range_meters":11600,"station_id":"ce4bhmp2rcd13ifvqgog","pricing_plan_id":"cebpf4jnsgd1na2vs0mg"},{"bike_id":"9cd66f20-0974-44a3-a00c-3af08e74ebf2","system_id":"levelo_inurba_marseille","lat":43.26035,"lon":5.41735,"is_reserved":false,"is_disabled":false,"rental_uris":{"android":"levelo://app?vid=9cd66f20-0974-44a3-a00c-3af08e74ebf2","ios":"levelo://app?vid=9cd66f20-0974-44a3-a00c-3af08e74ebf2"},"vehicle_type_id":"4","last_reported":1745230240,"current_range_meters":11600,"station_id":"","pricing_plan_id":"cebpf4jnsgd1na2vs0mg"},{"bike_id":"57187986-c919-4fb6-a125-0312e1965a84","system_id":"levelo_inurba_marseille","lat":43.248032,"lon":5.374561,"is_reserved":false,"is_disabled":false,"rental_uris":{"android":"levelo://app?vid=57187986-c919-4fb6-a125-0312e1965a84","ios":"levelo://app?vid=57187986-c919-4fb6-a125-0312e1965a84"},"vehicle_type_id":"4","last_reported":1745230240,"current_range_meters":11600,"station_id":"ce4bhgh2rcd13ifvqfb0","pricing_plan_id":"cebpf4jnsgd1na2vs0mg"},{"bike_id":"0cf55608-90fc-41d4-b1b6-6603a33f1275","system_id":"levelo_inurba_marseille","lat":43.30551,"lon":5.36553,"is_reserved":false,"is_disabled":false,"rental_uris":{"android":"levelo://app?vid=0cf55608-90fc-41d4-b1b6-6603a33f1275","ios":"levelo://app?vid=0cf55608-90fc-41d4-b1b6-6603a33f1275"},"vehicle_type_id":"4","last_reported":1745230240,"current_range_meters":11200,"station_id":"ce4bgs12rcd13ifvqcag","pricing_plan_id":"cebpf4jnsgd1na2vs0mg"},{"bike_id":"079c800c-5424-4929-8994-db61dad4e4b8","system_id":"levelo_inurba_marseille","lat":43.23152,"lon":5.43714,"is_reserved":false,"is_disabled":false,"rental_uris":{"android":"levelo://app?vid=079c800c-5424-4929-8994-db61dad4e4b8","ios":"levelo://app?vid=079c800c-5424-4929-8994-db61dad4e4b8"},"vehicle_type_id":"4","last_reported":1745230240,"current_range_meters":12000,"station_id":"ce4bhmp2rcd13ifvqgog","pricing_plan_id":"cebpf4jnsgd1na2vs0mg"},{"bike_id":"02507c29-9403-4046-ad5b-a9fcd1a2d6ed","system_id":"levelo_inurba_marseille","lat":43.275662,"lon":5.384281,"is_reserved":false,"is_disabled":false,"rental_uris":{"android":"levelo://app?vid=02507c29-9403-4046-ad5b-a9fcd1a2d6ed","ios":"levelo://app?vid=02507c29-9403-4046-ad5b-a9fcd1a2d6ed"},"vehicle_type_id":"4","last_reported":1745230240,"current_range_meters":12000,"station_id":"ce4bhip2rcd13ifvqft0","pricing_plan_id":"cebpf4jnsgd1na2vs0mg"},{"bike_id":"87a6991c-b0c9-438e-8100-239a31a23e76","system_id":"levelo_inurba_marseille","lat":43.2319,"lon":5.35554,"is_reserved":false,"is_disabled":false,"rental_uris":{"android":"levelo://app?vid=87a6991c-b0c9-438e-8100-239a31a23e76","ios":"levelo://app?vid=87a6991c-b0c9-438e-8100-239a31a23e76"},"vehicle_type_id":"4","last_reported":1745230240,"current_range_meters":12000,"station_id":"ce4bhu92rcd13ifvqi70","pricing_plan_id":"cebpf4jnsgd1na2vs0mg"},{"bike_id":"a8c30e33-a061-479b-be2f-c19f1a1a4a93","system_id":"levelo_inurba_marseille","lat":43.21616,"lon":5.34663,"is_reserved":false,"is_disabled":false,"rental_uris":{"android":"levelo://app?vid=a8c30e33-a061-479b-be2f-c19f1a1a4a93","ios":"levelo://app?vid=a8c30e33-a061-479b-be2f-c19f1a1a4a93"},"vehicle_type_id":"4","last_reported":1745230240,"current_range_meters":12400,"station_id":"","pricing_plan_id":"cebpf4jnsgd1na2vs0mg"},{"bike_id":"cacb40c6-d68a-4699-b3c9-f307bac683f8","system_id":"levelo_inurba_marseille","lat":43.29303,"lon":5.37459,"is_reserved":false,"is_disabled":false,"rental_uris":{"android":"levelo://app?vid=cacb40c6-d68a-4699-b3c9-f307bac683f8","ios":"levelo://app?vid=cacb40c6-d68a-4699-b3c9-f307bac683f8"},"vehicle_type_id":"4","last_reported":1745230240,"current_range_meters":12400,"station_id":"ce4bgi12rcd13ifvqb70","pricing_plan_id":"cebpf4jnsgd1na2vs0mg"},{"bike_id":"c1c14c33-943c-44de-9171-c62272c1edbb","system_id":"levelo_inurba_marseille","lat":43.23965,"lon":5.3663,"is_reserved":false,"is_disabled":true,"rental_uris":{"android":"levelo://app?vid=c1c14c33-943c-44de-9171-c62272c1edbb","ios":"levelo://app?vid=c1c14c33-943c-44de-9171-c62272c1edbb"},"vehicle_type_id":"4","last_reported":1745230240,"current_range_meters":12400,"station_id":"ce4bhi12rcd13ifvqfp0","pricing_plan_id":"cebpf4jnsgd1na2vs0mg"},{"bike_id":"c2308cfb-2d0e-493c-8fcb-add4ff2bc4b7","system_id":"levelo_inurba_marseille","lat":43.28266,"lon":5.35057,"is_reserved":false,"is_disabled":false,"rental_uris":{"android":"levelo://app?vid=c2308cfb-2d0e-493c-8fcb-add4ff2bc4b7","ios":"levelo://app?vid=c2308cfb-2d0e-493c-8fcb-add4ff2bc4b7"},"vehicle_type_id":"4","last_reported":1745230240,"current_range_meters":16800,"station_id":"","pricing_plan_id":"cebpf4jnsgd1na2vs0mg"},{"bike_id":"a049c569-0294-4594-b06b-589d19df1531","system_id":"levelo_inurba_marseille","lat":43.248527,"lon":5.382104,"is_reserved":false,"is_disabled":false,"rental_uris":{"android":"levelo://app?vid=a049c569-0294-4594-b06b-589d19df1531","ios":"levelo://app?vid=a049c569-0294-4594-b06b-589d19df1531"},"vehicle_type_id":"4","last_reported":1745230240,"current_range_meters":12800,"station_id":"","pricing_plan_id":"cebpf4jnsgd1na2vs0mg"},{"bike_id":"1286e238-6fc0-4f7c-b5ce-7b1bbfe63b95","system_id":"levelo_inurba_marseille","lat":43.265489,"lon":5.372867,"is_reserved":false,"is_disabled":false,"rental_uris":{"android":"levelo://app?vid=1286e238-6fc0-4f7c-b5ce-7b1bbfe63b95","ios":"levelo://app?vid=1286e238-6fc0-4f7c-b5ce-7b1bbfe63b95"},"vehicle_type_id":"4","last_reported":1745230240,"current_range_meters":12800,"station_id":"ce4bhip2rcd13ifvqft0","pricing_plan_id":"cebpf4jnsgd1na2vs0mg"},{"bike_id":"39e0fce9-c660-4f95-9d0b-6d73d91d5f26","system_id":"levelo_inurba_marseille","lat":43.27436,"lon":5.3941,"is_reserved":false,"is_disabled":false,"rental_uris":{"android":"levelo://app?vid=39e0fce9-c660-4f95-9d0b-6d73d91d5f26","ios":"levelo://app?vid=39e0fce9-c660-4f95-9d0b-6d73d91d5f26"},"vehicle_type_id":"4","last_reported":1745230240,"current_range_meters":12800,"station_id":"ce4bhdp2rcd13ifvqf20","pricing_plan_id":"cebpf4jnsgd1na2vs0mg"},{"bike_id":"a2930f69-1611-43d2-b122-0bce32419437","system_id":"levelo_inurba_marseille","lat":43.23155,"lon":5.43709,"is_reserved":false,"is_disabled":false,"rental_uris":{"android":"levelo://app?vid=a2930f69-1611-43d2-b122-0bce32419437","ios":"levelo://app?vid=a2930f69-1611-43d2-b122-0bce32419437"},"vehicle_type_id":"4","last_reported":1745230240,"current_range_meters":14400,"station_id":"ce4bhmp2rcd13ifvqgog","pricing_plan_id":"cebpf4jnsgd1na2vs0mg"},{"bike_id":"63ee47f1-6350-4dfa-88bf-7f596b221c22","system_id":"levelo_inurba_marseille","lat":43.27937,"lon":5.41054,"is_reserved":false,"is_disabled":false,"rental_uris":{"android":"levelo://app?vid=63ee47f1-6350-4dfa-88bf-7f596b221c22","ios":"levelo://app?vid=63ee47f1-6350-4dfa-88bf-7f596b221c22"},"vehicle_type_id":"4","last_reported":1745230240,"current_range_meters":13600,"station_id":"ce4bhnp2rcd13ifvqh0g","pricing_plan_id":"cebpf4jnsgd1na2vs0mg"},{"bike_id":"d4588e10-e89f-4361-9890-c26cb40b9e6f","system_id":"levelo_inurba_marseille","lat":43.32352,"lon":5.40617,"is_reserved":false,"is_disabled":false,"rental_uris":{"android":"levelo://app?vid=d4588e10-e89f-4361-9890-c26cb40b9e6f","ios":"levelo://app?vid=d4588e10-e89f-4361-9890-c26cb40b9e6f"},"vehicle_type_id":"4","last_reported":1745230240,"current_range_meters":14000,"station_id":"ce4bhq92rcd13ifvqhjg","pricing_plan_id":"cebpf4jnsgd1na2vs0mg"},{"bike_id":"c3298298-1a2d-4531-a35e-0098086f45ea","system_id":"levelo_inurba_marseille","lat":43.24071,"lon":5.37766,"is_reserved":false,"is_disabled":false,"rental_uris":{"android":"levelo://app?vid=c3298298-1a2d-4531-a35e-0098086f45ea","ios":"levelo://app?vid=c3298298-1a2d-4531-a35e-0098086f45ea"},"vehicle_type_id":"4","last_reported":1745230240,"current_range_meters":14400,"station_id":"ce4bhnp2rcd13ifvqgvg","pricing_plan_id":"cebpf4jnsgd1na2vs0mg"},{"bike_id":"4d0c211d-cc3b-4460-a3c4-121acaf031ae","system_id":"levelo_inurba_marseille","lat":43.337385,"lon":5.391881,"is_reserved":false,"is_disabled":false,"rental_uris":{"android":"levelo://app?vid=4d0c211d-cc3b-4460-a3c4-121acaf031ae","ios":"levelo://app?vid=4d0c211d-cc3b-4460-a3c4-121acaf031ae"},"vehicle_type_id":"4","last_reported":1745230240,"current_range_meters":14400,"station_id":"ce4bhr92rcd13ifvqhsg","pricing_plan_id":"cebpf4jnsgd1na2vs0mg"},{"bike_id":"158f71ce-f85f-4153-ae9d-46f7b467c11c","system_id":"levelo_inurba_marseille","lat":43.281047,"lon":5.378256,"is_reserved":false,"is_disabled":false,"rental_uris":{"android":"levelo://app?vid=158f71ce-f85f-4153-ae9d-46f7b467c11c","ios":"levelo://app?vid=158f71ce-f85f-4153-ae9d-46f7b467c11c"},"vehicle_type_id":"4","last_reported":1745230240,"current_range_meters":14000,"station_id":"ce4bha12rcd13ifvqee0","pricing_plan_id":"cebpf4jnsgd1na2vs0mg"},{"bike_id":"37c2bca0-8d17-4681-b908-adafbea4e0d8","system_id":"levelo_inurba_marseille","lat":43.292531,"lon":5.376171,"is_reserved":false,"is_disabled":false,"rental_uris":{"android":"levelo://app?vid=37c2bca0-8d17-4681-b908-adafbea4e0d8","ios":"levelo://app?vid=37c2bca0-8d17-4681-b908-adafbea4e0d8"},"vehicle_type_id":"4","last_reported":1745230240,"current_range_meters":14400,"station_id":"ce4bgi12rcd13ifvqb80","pricing_plan_id":"cebpf4jnsgd1na2vs0mg"},{"bike_id":"5421f91f-c5b9-4312-b8b1-ba44221bb5c0","system_id":"levelo_inurba_marseille","lat":43.26196,"lon":5.37924,"is_reserved":false,"is_disabled":false,"rental_uris":{"android":"levelo://app?vid=5421f91f-c5b9-4312-b8b1-ba44221bb5c0","ios":"levelo://app?vid=5421f91f-c5b9-4312-b8b1-ba44221bb5c0"},"vehicle_type_id":"4","last_reported":1745230240,"current_range_meters":14400,"station_id":"ce4bhjp2rcd13ifvqg90","pricing_plan_id":"cebpf4jnsgd1na2vs0mg"},{"bike_id":"878b7bad-6baa-4a9a-97e3-cb147f9aea9b","system_id":"levelo_inurba_marseille","lat":43.2397,"lon":5.36636,"is_reserved":false,"is_disabled":false,"rental_uris":{"android":"levelo://app?vid=878b7bad-6baa-4a9a-97e3-cb147f9aea9b","ios":"levelo://app?vid=878b7bad-6baa-4a9a-97e3-cb147f9aea9b"},"vehicle_type_id":"4","last_reported":1745230240,"current_range_meters":14400,"station_id":"ce4bhi12rcd13ifvqfp0","pricing_plan_id":"cebpf4jnsgd1na2vs0mg"},{"bike_id":"61e440dc-109f-4a59-8077-fad7383fd363","system_id":"levelo_inurba_marseille","lat":43.2602,"lon":5.37555,"is_reserved":false,"is_disabled":false,"rental_uris":{"android":"levelo://app?vid=61e440dc-109f-4a59-8077-fad7383fd363","ios":"levelo://app?vid=61e440dc-109f-4a59-8077-fad7383fd363"},"vehicle_type_id":"4","last_reported":1745230240,"current_range_meters":14400,"station_id":"ce4bhgh2rcd13ifvqfa0","pricing_plan_id":"cebpf4jnsgd1na2vs0mg"},{"bike_id":"a969d1ed-77d3-4189-b5a7-0bf8cf90d349","system_id":"levelo_inurba_marseille","lat":43.23148,"lon":5.43702,"is_reserved":false,"is_disabled":false,"rental_uris":{"android":"levelo://app?vid=a969d1ed-77d3-4189-b5a7-0bf8cf90d349","ios":"levelo://app?vid=a969d1ed-77d3-4189-b5a7-0bf8cf90d349"},"vehicle_type_id":"4","last_reported":1745230240,"current_range_meters":14800,"station_id":"ce4bhmp2rcd13ifvqgog","pricing_plan_id":"cebpf4jnsgd1na2vs0mg"},{"bike_id":"a7f91fb8-2846-493f-a68f-69867197cfa1","system_id":"levelo_inurba_marseille","lat":43.33659,"lon":5.39766,"is_reserved":false,"is_disabled":false,"rental_uris":{"android":"levelo://app?vid=a7f91fb8-2846-493f-a68f-69867197cfa1","ios":"levelo://app?vid=a7f91fb8-2846-493f-a68f-69867197cfa1"},"vehicle_type_id":"4","last_reported":1745230240,"current_range_meters":15200,"station_id":"","pricing_plan_id":"cebpf4jnsgd1na2vs0mg"},{"bike_id":"b468da50-1fa1-4880-b0e8-89dd6e667ded","system_id":"levelo_inurba_marseille","lat":43.22209,"lon":5.34585,"is_reserved":false,"is_disabled":false,"rental_uris":{"android":"levelo://app?vid=b468da50-1fa1-4880-b0e8-89dd6e667ded","ios":"levelo://app?vid=b468da50-1fa1-4880-b0e8-89dd6e667ded"},"vehicle_type_id":"4","last_reported":1745230240,"current_range_meters":15200,"station_id":"","pricing_plan_id":"cebpf4jnsgd1na2vs0mg"},{"bike_id":"76ba0f9e-b1e6-4111-a8a4-5a8979d2d0bc","system_id":"levelo_inurba_marseille","lat":43.26211,"lon":5.3744,"is_reserved":false,"is_disabled":false,"rental_uris":{"android":"levelo://app?vid=76ba0f9e-b1e6-4111-a8a4-5a8979d2d0bc","ios":"levelo://app?vid=76ba0f9e-b1e6-4111-a8a4-5a8979d2d0bc"},"vehicle_type_id":"4","last_reported":1745230240,"current_range_meters":15200,"station_id":"ce4bhgp2rcd13ifvqfc0","pricing_plan_id":"cebpf4jnsgd1na2vs0mg"},{"bike_id":"57c8e291-612d-4316-abb0-25d02f3be416","system_id":"levelo_inurba_marseille","lat":43.27378,"lon":5.36256,"is_reserved":false,"is_disabled":false,"rental_uris":{"android":"levelo://app?vid=57c8e291-612d-4316-abb0-25d02f3be416","ios":"levelo://app?vid=57c8e291-612d-4316-abb0-25d02f3be416"},"vehicle_type_id":"4","last_reported":1745230240,"current_range_meters":15200,"station_id":"ce4bhbh2rcd13ifvqeo0","pricing_plan_id":"cebpf4jnsgd1na2vs0mg"},{"bike_id":"d4480705-1f78-4efc-a0fc-2e6d1ac803fd","system_id":"levelo_inurba_marseille","lat":43.265633,"lon":5.390296,"is_reserved":false,"is_disabled":false,"rental_uris":{"android":"levelo://app?vid=d4480705-1f78-4efc-a0fc-2e6d1ac803fd","ios":"levelo://app?vid=d4480705-1f78-4efc-a0fc-2e6d1ac803fd"},"vehicle_type_id":"4","last_reported":1745230240,"current_range_meters":15200,"station_id":"ce4bhe12rcd13ifvqf30","pricing_plan_id":"cebpf4jnsgd1na2vs0mg"},{"bike_id":"0df66e0a-9fc8-4b65-8ac4-cdbc9cef329a","system_id":"levelo_inurba_marseille","lat":43.31065,"lon":5.38358,"is_reserved":false,"is_disabled":false,"rental_uris":{"android":"levelo://app?vid=0df66e0a-9fc8-4b65-8ac4-cdbc9cef329a","ios":"levelo://app?vid=0df66e0a-9fc8-4b65-8ac4-cdbc9cef329a"},"vehicle_type_id":"4","last_reported":1745230240,"current_range_meters":15200,"station_id":"ce4bgv92rcd13ifvqcr0","pricing_plan_id":"cebpf4jnsgd1na2vs0mg"},{"bike_id":"af5ba08c-0730-4dda-a43c-3e08ff505b3c","system_id":"levelo_inurba_marseille","lat":43.231943,"lon":5.355479,"is_reserved":false,"is_disabled":false,"rental_uris":{"android":"levelo://app?vid=af5ba08c-0730-4dda-a43c-3e08ff505b3c","ios":"levelo://app?vid=af5ba08c-0730-4dda-a43c-3e08ff505b3c"},"vehicle_type_id":"4","last_reported":1745230240,"current_range_meters":16000,"station_id":"ce4bhu92rcd13ifvqi70","pricing_plan_id":"cebpf4jnsgd1na2vs0mg"},{"bike_id":"d3d302e5-b37d-428c-aacb-1c955ce00601","system_id":"levelo_inurba_marseille","lat":43.27615,"lon":5.36111,"is_reserved":false,"is_disabled":false,"rental_uris":{"android":"levelo://app?vid=d3d302e5-b37d-428c-aacb-1c955ce00601","ios":"levelo://app?vid=d3d302e5-b37d-428c-aacb-1c955ce00601"},"vehicle_type_id":"4","last_reported":1745230240,"current_range_meters":16000,"station_id":"ce4bgj92rcd13ifvqbe0","pricing_plan_id":"cebpf4jnsgd1na2vs0mg"},{"bike_id":"68501225-8cea-4f95-ae47-484785f78e68","system_id":"levelo_inurba_marseille","lat":43.32369,"lon":5.3887,"is_reserved":false,"is_disabled":true,"rental_uris":{"android":"levelo://app?vid=68501225-8cea-4f95-ae47-484785f78e68","ios":"levelo://app?vid=68501225-8cea-4f95-ae47-484785f78e68"},"vehicle_type_id":"4","last_reported":1745230240,"current_range_meters":16000,"station_id":"ce4bhqp2rcd13ifvqhog","pricing_plan_id":"cebpf4jnsgd1na2vs0mg"},{"bike_id":"1d1b5669-61de-43f8-9246-9fe7bcdf2453","system_id":"levelo_inurba_marseille","lat":43.292242,"lon":5.360599,"is_reserved":false,"is_disabled":false,"rental_uris":{"android":"levelo://app?vid=1d1b5669-61de-43f8-9246-9fe7bcdf2453","ios":"levelo://app?vid=1d1b5669-61de-43f8-9246-9fe7bcdf2453"},"vehicle_type_id":"4","last_reported":1745230240,"current_range_meters":16000,"station_id":"ce4bhhh2rcd13ifvqfk0","pricing_plan_id":"cebpf4jnsgd1na2vs0mg"},{"bike_id":"3cb8f175-120c-4d3e-884d-8051b1bbeadd","system_id":"levelo_inurba_marseille","lat":43.241638,"lon":5.363924,"is_reserved":false,"is_disabled":false,"rental_uris":{"android":"levelo://app?vid=3cb8f175-120c-4d3e-884d-8051b1bbeadd","ios":"levelo://app?vid=3cb8f175-120c-4d3e-884d-8051b1bbeadd"},"vehicle_type_id":"4","last_reported":1745230240,"current_range_meters":16000,"station_id":"cpo36qri1sfpv3e86is0","pricing_plan_id":"cebpf4jnsgd1na2vs0mg"},{"bike_id":"2b9dc3a3-9ca1-4379-9bb7-4b8dbd4e17cf","system_id":"levelo_inurba_marseille","lat":43.2396,"lon":5.36615,"is_reserved":false,"is_disabled":true,"rental_uris":{"android":"levelo://app?vid=2b9dc3a3-9ca1-4379-9bb7-4b8dbd4e17cf","ios":"levelo://app?vid=2b9dc3a3-9ca1-4379-9bb7-4b8dbd4e17cf"},"vehicle_type_id":"4","last_reported":1745230240,"current_range_meters":16400,"station_id":"ce4bhi12rcd13ifvqfp0","pricing_plan_id":"cebpf4jnsgd1na2vs0mg"},{"bike_id":"6c4129a3-aa17-426e-a40a-1c561711a1ab","system_id":"levelo_inurba_marseille","lat":43.29296,"lon":5.37464,"is_reserved":false,"is_disabled":false,"rental_uris":{"android":"levelo://app?vid=6c4129a3-aa17-426e-a40a-1c561711a1ab","ios":"levelo://app?vid=6c4129a3-aa17-426e-a40a-1c561711a1ab"},"vehicle_type_id":"4","last_reported":1745230240,"current_range_meters":16400,"station_id":"ce4bgi12rcd13ifvqb70","pricing_plan_id":"cebpf4jnsgd1na2vs0mg"},{"bike_id":"4c25054e-0f83-449c-9a20-8e464677246f","system_id":"levelo_inurba_marseille","lat":43.28422,"lon":5.34973,"is_reserved":false,"is_disabled":false,"rental_uris":{"android":"levelo://app?vid=4c25054e-0f83-449c-9a20-8e464677246f","ios":"levelo://app?vid=4c25054e-0f83-449c-9a20-8e464677246f"},"vehicle_type_id":"4","last_reported":1745230240,"current_range_meters":16400,"station_id":"ce4bhbh2rcd13ifvqepg","pricing_plan_id":"cebpf4jnsgd1na2vs0mg"},{"bike_id":"599e3597-1ce3-40cc-ac1e-84c6c45291b1","system_id":"levelo_inurba_marseille","lat":43.28861,"lon":5.40963,"is_reserved":false,"is_disabled":false,"rental_uris":{"android":"levelo://app?vid=599e3597-1ce3-40cc-ac1e-84c6c45291b1","ios":"levelo://app?vid=599e3597-1ce3-40cc-ac1e-84c6c45291b1"},"vehicle_type_id":"4","last_reported":1745230240,"current_range_meters":16400,"station_id":"","pricing_plan_id":"cebpf4jnsgd1na2vs0mg"},{"bike_id":"495096e8-215c-4369-b42a-f8123bca3e0d","system_id":"levelo_inurba_marseille","lat":43.26181,"lon":5.40411,"is_reserved":false,"is_disabled":false,"rental_uris":{"android":"levelo://app?vid=495096e8-215c-4369-b42a-f8123bca3e0d","ios":"levelo://app?vid=495096e8-215c-4369-b42a-f8123bca3e0d"},"vehicle_type_id":"4","last_reported":1745230240,"current_range_meters":16400,"station_id":"ce4bhmh2rcd13ifvqgmg","pricing_plan_id":"cebpf4jnsgd1na2vs0mg"},{"bike_id":"3cd6e764-35d0-4055-a8a2-3896bb09f920","system_id":"levelo_inurba_marseille","lat":43.3365,"lon":5.39746,"is_reserved":false,"is_disabled":false,"rental_uris":{"android":"levelo://app?vid=3cd6e764-35d0-4055-a8a2-3896bb09f920","ios":"levelo://app?vid=3cd6e764-35d0-4055-a8a2-3896bb09f920"},"vehicle_type_id":"4","last_reported":1745230240,"current_range_meters":16800,"station_id":"","pricing_plan_id":"cebpf4jnsgd1na2vs0mg"},{"bike_id":"d7026fdd-384a-47a2-82e4-90ed490ec2ab","system_id":"levelo_inurba_marseille","lat":43.27379,"lon":5.36259,"is_reserved":false,"is_disabled":false,"rental_uris":{"android":"levelo://app?vid=d7026fdd-384a-47a2-82e4-90ed490ec2ab","ios":"levelo://app?vid=d7026fdd-384a-47a2-82e4-90ed490ec2ab"},"vehicle_type_id":"4","last_reported":1745230240,"current_range_meters":16800,"station_id":"ce4bhbh2rcd13ifvqeo0","pricing_plan_id":"cebpf4jnsgd1na2vs0mg"},{"bike_id":"815228c1-b05e-49cf-9e82-cf6be4d5757f","system_id":"levelo_inurba_marseille","lat":43.30383,"lon":5.42441,"is_reserved":false,"is_disabled":false,"rental_uris":{"android":"levelo://app?vid=815228c1-b05e-49cf-9e82-cf6be4d5757f","ios":"levelo://app?vid=815228c1-b05e-49cf-9e82-cf6be4d5757f"},"vehicle_type_id":"4","last_reported":1745230240,"current_range_meters":16800,"station_id":"ce4bhoh2rcd13ifvqh6g","pricing_plan_id":"cebpf4jnsgd1na2vs0mg"},{"bike_id":"68916cdb-ace9-4fa6-a174-8fa1ab716b18","system_id":"levelo_inurba_marseille","lat":43.21189,"lon":5.35076,"is_reserved":false,"is_disabled":false,"rental_uris":{"android":"levelo://app?vid=68916cdb-ace9-4fa6-a174-8fa1ab716b18","ios":"levelo://app?vid=68916cdb-ace9-4fa6-a174-8fa1ab716b18"},"vehicle_type_id":"4","last_reported":1745230240,"current_range_meters":16800,"station_id":"st_cvj6sg6p6f1abm77japg","pricing_plan_id":"cebpf4jnsgd1na2vs0mg"},{"bike_id":"4e40ddfd-8dee-48bb-91b7-0311080b0ac8","system_id":"levelo_inurba_marseille","lat":43.29624,"lon":5.37168,"is_reserved":false,"is_disabled":false,"rental_uris":{"android":"levelo://app?vid=4e40ddfd-8dee-48bb-91b7-0311080b0ac8","ios":"levelo://app?vid=4e40ddfd-8dee-48bb-91b7-0311080b0ac8"},"vehicle_type_id":"4","last_reported":1745230240,"current_range_meters":16800,"station_id":"ce4bgnh2rcd13ifvqc0g","pricing_plan_id":"cebpf4jnsgd1na2vs0mg"},{"bike_id":"d8fedef9-207e-48be-a03c-36efea066f01","system_id":"levelo_inurba_marseille","lat":43.27368,"lon":5.3627,"is_reserved":false,"is_disabled":false,"rental_uris":{"android":"levelo://app?vid=d8fedef9-207e-48be-a03c-36efea066f01","ios":"levelo://app?vid=d8fedef9-207e-48be-a03c-36efea066f01"},"vehicle_type_id":"4","last_reported":1745230240,"current_range_meters":16800,"station_id":"ce4bhbh2rcd13ifvqeo0","pricing_plan_id":"cebpf4jnsgd1na2vs0mg"},{"bike_id":"c5e3d54c-a3b9-49be-b43b-87868e82f29e","system_id":"levelo_inurba_marseille","lat":43.26213,"lon":5.40453,"is_reserved":false,"is_disabled":false,"rental_uris":{"android":"levelo://app?vid=c5e3d54c-a3b9-49be-b43b-87868e82f29e","ios":"levelo://app?vid=c5e3d54c-a3b9-49be-b43b-87868e82f29e"},"vehicle_type_id":"4","last_reported":1745230240,"current_range_meters":16800,"station_id":"ce4bhmh2rcd13ifvqgmg","pricing_plan_id":"cebpf4jnsgd1na2vs0mg"},{"bike_id":"18711f74-4a0a-438e-9099-5a3df79d3f8a","system_id":"levelo_inurba_marseille","lat":43.30729,"lon":5.42447,"is_reserved":false,"is_disabled":false,"rental_uris":{"android":"levelo://app?vid=18711f74-4a0a-438e-9099-5a3df79d3f8a","ios":"levelo://app?vid=18711f74-4a0a-438e-9099-5a3df79d3f8a"},"vehicle_type_id":"4","last_reported":1745230240,"current_range_meters":16800,"station_id":"st_cvj6ca6bvosntc0bfgr0","pricing_plan_id":"cebpf4jnsgd1na2vs0mg"},{"bike_id":"6d5e89a5-0b9e-4c47-a7cb-72554401ff71","system_id":"levelo_inurba_marseille","lat":43.23153,"lon":5.43706,"is_reserved":false,"is_disabled":false,"rental_uris":{"android":"levelo://app?vid=6d5e89a5-0b9e-4c47-a7cb-72554401ff71","ios":"levelo://app?vid=6d5e89a5-0b9e-4c47-a7cb-72554401ff71"},"vehicle_type_id":"4","last_reported":1745230240,"current_range_meters":16800,"station_id":"ce4bhmp2rcd13ifvqgog","pricing_plan_id":"cebpf4jnsgd1na2vs0mg"},{"bike_id":"9235e989-b644-4df1-b668-556e4921b40e","system_id":"levelo_inurba_marseille","lat":43.241772,"lon":5.39708,"is_reserved":false,"is_disabled":true,"rental_uris":{"android":"levelo://app?vid=9235e989-b644-4df1-b668-556e4921b40e","ios":"levelo://app?vid=9235e989-b644-4df1-b668-556e4921b40e"},"vehicle_type_id":"4","last_reported":1745230240,"current_range_meters":17200,"station_id":"ce4bhn12rcd13ifvqgpg","pricing_plan_id":"cebpf4jnsgd1na2vs0mg"},{"bike_id":"2950eb8d-1e1e-458e-8d71-f1aafc6dad87","system_id":"levelo_inurba_marseille","lat":43.23152,"lon":5.437,"is_reserved":false,"is_disabled":false,"rental_uris":{"android":"levelo://app?vid=2950eb8d-1e1e-458e-8d71-f1aafc6dad87","ios":"levelo://app?vid=2950eb8d-1e1e-458e-8d71-f1aafc6dad87"},"vehicle_type_id":"4","last_reported":1745230240,"current_range_meters":17200,"station_id":"ce4bhmp2rcd13ifvqgog","pricing_plan_id":"cebpf4jnsgd1na2vs0mg"},{"bike_id":"ff70ae6c-ee6e-4eed-8bdb-74898e28bee6","system_id":"levelo_inurba_marseille","lat":43.27953,"lon":5.41026,"is_reserved":false,"is_disabled":false,"rental_uris":{"android":"levelo://app?vid=ff70ae6c-ee6e-4eed-8bdb-74898e28bee6","ios":"levelo://app?vid=ff70ae6c-ee6e-4eed-8bdb-74898e28bee6"},"vehicle_type_id":"4","last_reported":1745230240,"current_range_meters":17200,"station_id":"ce4bhnp2rcd13ifvqh0g","pricing_plan_id":"cebpf4jnsgd1na2vs0mg"},{"bike_id":"51829883-6e13-4715-bb4a-9103da405c82","system_id":"levelo_inurba_marseille","lat":43.21748,"lon":5.34606,"is_reserved":false,"is_disabled":false,"rental_uris":{"android":"levelo://app?vid=51829883-6e13-4715-bb4a-9103da405c82","ios":"levelo://app?vid=51829883-6e13-4715-bb4a-9103da405c82"},"vehicle_type_id":"4","last_reported":1745230240,"current_range_meters":17200,"station_id":"st_cvj6r9ubvosntc0bgbag","pricing_plan_id":"cebpf4jnsgd1na2vs0mg"},{"bike_id":"be50d9e9-9220-4b03-b5f8-ab9c114715d6","system_id":"levelo_inurba_marseille","lat":43.29894,"lon":5.43663,"is_reserved":false,"is_disabled":false,"rental_uris":{"android":"levelo://app?vid=be50d9e9-9220-4b03-b5f8-ab9c114715d6","ios":"levelo://app?vid=be50d9e9-9220-4b03-b5f8-ab9c114715d6"},"vehicle_type_id":"4","last_reported":1745230240,"current_range_meters":17200,"station_id":"ce4bhpp2rcd13ifvqhfg","pricing_plan_id":"cebpf4jnsgd1na2vs0mg"},{"bike_id":"c1952699-634f-4465-808c-10f6311f2bed","system_id":"levelo_inurba_marseille","lat":43.29847,"lon":5.36279,"is_reserved":false,"is_disabled":false,"rental_uris":{"android":"levelo://app?vid=c1952699-634f-4465-808c-10f6311f2bed","ios":"levelo://app?vid=c1952699-634f-4465-808c-10f6311f2bed"},"vehicle_type_id":"4","last_reported":1745230240,"current_range_meters":17200,"station_id":"ce4bgpp2rcd13ifvqc3g","pricing_plan_id":"cebpf4jnsgd1na2vs0mg"},{"bike_id":"d2d8242b-de1d-4ffc-ba3a-73a9291ee3c9","system_id":"levelo_inurba_marseille","lat":43.24397,"lon":5.37061,"is_reserved":false,"is_disabled":false,"rental_uris":{"android":"levelo://app?vid=d2d8242b-de1d-4ffc-ba3a-73a9291ee3c9","ios":"levelo://app?vid=d2d8242b-de1d-4ffc-ba3a-73a9291ee3c9"},"vehicle_type_id":"4","last_reported":1745230240,"current_range_meters":17200,"station_id":"ce4bhhh2rcd13ifvqfk0","pricing_plan_id":"cebpf4jnsgd1na2vs0mg"},{"bike_id":"13463fce-1b11-4c9b-b473-2ed8636f2675","system_id":"levelo_inurba_marseille","lat":43.21743,"lon":5.34603,"is_reserved":false,"is_disabled":false,"rental_uris":{"android":"levelo://app?vid=13463fce-1b11-4c9b-b473-2ed8636f2675","ios":"levelo://app?vid=13463fce-1b11-4c9b-b473-2ed8636f2675"},"vehicle_type_id":"4","last_reported":1745230240,"current_range_meters":17200,"station_id":"st_cvj6r9ubvosntc0bgbag","pricing_plan_id":"cebpf4jnsgd1na2vs0mg"},{"bike_id":"9ebb9e31-b181-4120-a985-5579f166c1c4","system_id":"levelo_inurba_marseille","lat":43.28014,"lon":5.39984,"is_reserved":false,"is_disabled":false,"rental_uris":{"android":"levelo://app?vid=9ebb9e31-b181-4120-a985-5579f166c1c4","ios":"levelo://app?vid=9ebb9e31-b181-4120-a985-5579f166c1c4"},"vehicle_type_id":"4","last_reported":1745230240,"current_range_meters":17600,"station_id":"ce4bho92rcd13ifvqh4g","pricing_plan_id":"cebpf4jnsgd1na2vs0mg"},{"bike_id":"243b5a71-3457-4681-8dfa-047e07691b03","system_id":"levelo_inurba_marseille","lat":43.24661,"lon":5.38158,"is_reserved":false,"is_disabled":false,"rental_uris":{"android":"levelo://app?vid=243b5a71-3457-4681-8dfa-047e07691b03","ios":"levelo://app?vid=243b5a71-3457-4681-8dfa-047e07691b03"},"vehicle_type_id":"4","last_reported":1745230240,"current_range_meters":17600,"station_id":"ce4bhih2rcd13ifvqfr0","pricing_plan_id":"cebpf4jnsgd1na2vs0mg"},{"bike_id":"5a3f0393-6da3-42d0-955e-039c24250048","system_id":"levelo_inurba_marseille","lat":43.292,"lon":5.39316,"is_reserved":false,"is_disabled":false,"rental_uris":{"android":"levelo://app?vid=5a3f0393-6da3-42d0-955e-039c24250048","ios":"levelo://app?vid=5a3f0393-6da3-42d0-955e-039c24250048"},"vehicle_type_id":"4","last_reported":1745230240,"current_range_meters":17200,"station_id":"ce4bh192rcd13ifvqdd0","pricing_plan_id":"cebpf4jnsgd1na2vs0mg"},{"bike_id":"64533dff-2b65-44b3-9f5b-8515b0edd10f","system_id":"levelo_inurba_marseille","lat":43.23062,"lon":5.35489,"is_reserved":false,"is_disabled":false,"rental_uris":{"android":"levelo://app?vid=64533dff-2b65-44b3-9f5b-8515b0edd10f","ios":"levelo://app?vid=64533dff-2b65-44b3-9f5b-8515b0edd10f"},"vehicle_type_id":"4","last_reported":1745230240,"current_range_meters":17600,"station_id":"cpo3342slgdg3j2ifvpg","pricing_plan_id":"cebpf4jnsgd1na2vs0mg"},{"bike_id":"da12a936-18fd-4cef-bde1-14ba30917661","system_id":"levelo_inurba_marseille","lat":43.323569,"lon":5.406192,"is_reserved":false,"is_disabled":false,"rental_uris":{"android":"levelo://app?vid=da12a936-18fd-4cef-bde1-14ba30917661","ios":"levelo://app?vid=da12a936-18fd-4cef-bde1-14ba30917661"},"vehicle_type_id":"4","last_reported":1745230240,"current_range_meters":17600,"station_id":"ce4bhq92rcd13ifvqhjg","pricing_plan_id":"cebpf4jnsgd1na2vs0mg"},{"bike_id":"19b012c2-0439-4117-9a4e-f949f6023a6f","system_id":"levelo_inurba_marseille","lat":43.217467,"lon":5.346032,"is_reserved":false,"is_disabled":false,"rental_uris":{"android":"levelo://app?vid=19b012c2-0439-4117-9a4e-f949f6023a6f","ios":"levelo://app?vid=19b012c2-0439-4117-9a4e-f949f6023a6f"},"vehicle_type_id":"4","last_reported":1745230240,"current_range_meters":17600,"station_id":"st_cvj6r9ubvosntc0bgbag","pricing_plan_id":"cebpf4jnsgd1na2vs0mg"},{"bike_id":"b8733fee-e487-4ddc-bd56-be765f1f1240","system_id":"levelo_inurba_marseille","lat":43.21745,"lon":5.34593,"is_reserved":false,"is_disabled":false,"rental_uris":{"android":"levelo://app?vid=b8733fee-e487-4ddc-bd56-be765f1f1240","ios":"levelo://app?vid=b8733fee-e487-4ddc-bd56-be765f1f1240"},"vehicle_type_id":"4","last_reported":1745230240,"current_range_meters":18000,"station_id":"st_cvj6r9ubvosntc0bgbag","pricing_plan_id":"cebpf4jnsgd1na2vs0mg"},{"bike_id":"4ba7267b-219e-40e7-8c5d-4faa478b824d","system_id":"levelo_inurba_marseille","lat":43.24162,"lon":5.36406,"is_reserved":false,"is_disabled":false,"rental_uris":{"android":"levelo://app?vid=4ba7267b-219e-40e7-8c5d-4faa478b824d","ios":"levelo://app?vid=4ba7267b-219e-40e7-8c5d-4faa478b824d"},"vehicle_type_id":"4","last_reported":1745230240,"current_range_meters":18000,"station_id":"cpo36qri1sfpv3e86is0","pricing_plan_id":"cebpf4jnsgd1na2vs0mg"},{"bike_id":"7ebedc7b-2bce-45cd-8613-0a33eb40ca3f","system_id":"levelo_inurba_marseille","lat":43.26951,"lon":5.38646,"is_reserved":false,"is_disabled":true,"rental_uris":{"android":"levelo://app?vid=7ebedc7b-2bce-45cd-8613-0a33eb40ca3f","ios":"levelo://app?vid=7ebedc7b-2bce-45cd-8613-0a33eb40ca3f"},"vehicle_type_id":"4","last_reported":1745230240,"current_range_meters":18000,"station_id":"ce4bhh92rcd13ifvqfh0","pricing_plan_id":"cebpf4jnsgd1na2vs0mg"},{"bike_id":"1acfafe7-850e-4a2d-b08f-d1ac70c876c9","system_id":"levelo_inurba_marseille","lat":43.27054,"lon":5.40359,"is_reserved":false,"is_disabled":false,"rental_uris":{"android":"levelo://app?vid=1acfafe7-850e-4a2d-b08f-d1ac70c876c9","ios":"levelo://app?vid=1acfafe7-850e-4a2d-b08f-d1ac70c876c9"},"vehicle_type_id":"4","last_reported":1745230240,"current_range_meters":18000,"station_id":"","pricing_plan_id":"cebpf4jnsgd1na2vs0mg"},{"bike_id":"f0f4bb4c-d025-4338-b60b-f956e5296544","system_id":"levelo_inurba_marseille","lat":43.2315,"lon":5.43703,"is_reserved":false,"is_disabled":false,"rental_uris":{"android":"levelo://app?vid=f0f4bb4c-d025-4338-b60b-f956e5296544","ios":"levelo://app?vid=f0f4bb4c-d025-4338-b60b-f956e5296544"},"vehicle_type_id":"4","last_reported":1745230240,"current_range_meters":18800,"station_id":"ce4bhmp2rcd13ifvqgog","pricing_plan_id":"cebpf4jnsgd1na2vs0mg"},{"bike_id":"60799a7c-9c66-472e-ae7c-2c7e0972a713","system_id":"levelo_inurba_marseille","lat":43.28266,"lon":5.35061,"is_reserved":false,"is_disabled":false,"rental_uris":{"android":"levelo://app?vid=60799a7c-9c66-472e-ae7c-2c7e0972a713","ios":"levelo://app?vid=60799a7c-9c66-472e-ae7c-2c7e0972a713"},"vehicle_type_id":"4","last_reported":1745230240,"current_range_meters":18800,"station_id":"ce4bhbp2rcd13ifvqerg","pricing_plan_id":"cebpf4jnsgd1na2vs0mg"},{"bike_id":"a469f22d-ebf8-4d62-8a22-ccce853fcbed","system_id":"levelo_inurba_marseille","lat":43.28419,"lon":5.34972,"is_reserved":false,"is_disabled":false,"rental_uris":{"android":"levelo://app?vid=a469f22d-ebf8-4d62-8a22-ccce853fcbed","ios":"levelo://app?vid=a469f22d-ebf8-4d62-8a22-ccce853fcbed"},"vehicle_type_id":"4","last_reported":1745230240,"current_range_meters":18800,"station_id":"ce4bhbh2rcd13ifvqepg","pricing_plan_id":"cebpf4jnsgd1na2vs0mg"},{"bike_id":"d56bf67d-0e61-45a9-bc6e-93172b7c9a23","system_id":"levelo_inurba_marseille","lat":43.286103,"lon":5.351047,"is_reserved":false,"is_disabled":false,"rental_uris":{"android":"levelo://app?vid=d56bf67d-0e61-45a9-bc6e-93172b7c9a23","ios":"levelo://app?vid=d56bf67d-0e61-45a9-bc6e-93172b7c9a23"},"vehicle_type_id":"4","last_reported":1745230240,"current_range_meters":18800,"station_id":"ce4bhch2rcd13ifvqeug","pricing_plan_id":"cebpf4jnsgd1na2vs0mg"},{"bike_id":"b261fe84-cd86-4730-b2ee-802177904fc1","system_id":"levelo_inurba_marseille","lat":43.31731,"lon":5.37776,"is_reserved":false,"is_disabled":false,"rental_uris":{"android":"levelo://app?vid=b261fe84-cd86-4730-b2ee-802177904fc1","ios":"levelo://app?vid=b261fe84-cd86-4730-b2ee-802177904fc1"},"vehicle_type_id":"4","last_reported":1745230240,"current_range_meters":19200,"station_id":"ce4bgth2rcd13ifvqch0","pricing_plan_id":"cebpf4jnsgd1na2vs0mg"},{"bike_id":"0ea403e7-0bae-4fc6-85cb-2bcadf8a0a3b","system_id":"levelo_inurba_marseille","lat":43.312,"lon":5.3774,"is_reserved":false,"is_disabled":false,"rental_uris":{"android":"levelo://app?vid=0ea403e7-0bae-4fc6-85cb-2bcadf8a0a3b","ios":"levelo://app?vid=0ea403e7-0bae-4fc6-85cb-2bcadf8a0a3b"},"vehicle_type_id":"4","last_reported":1745230240,"current_range_meters":19200,"station_id":"","pricing_plan_id":"cebpf4jnsgd1na2vs0mg"},{"bike_id":"153a84b6-5955-414b-8f48-157674aa798d","system_id":"levelo_inurba_marseille","lat":43.2314,"lon":5.43707,"is_reserved":false,"is_disabled":false,"rental_uris":{"android":"levelo://app?vid=153a84b6-5955-414b-8f48-157674aa798d","ios":"levelo://app?vid=153a84b6-5955-414b-8f48-157674aa798d"},"vehicle_type_id":"4","last_reported":1745230240,"current_range_meters":19200,"station_id":"ce4bhmp2rcd13ifvqgog","pricing_plan_id":"cebpf4jnsgd1na2vs0mg"},{"bike_id":"8180f083-26d6-4ed2-937a-949780364ddc","system_id":"levelo_inurba_marseille","lat":43.21192,"lon":5.35074,"is_reserved":false,"is_disabled":false,"rental_uris":{"android":"levelo://app?vid=8180f083-26d6-4ed2-937a-949780364ddc","ios":"levelo://app?vid=8180f083-26d6-4ed2-937a-949780364ddc"},"vehicle_type_id":"4","last_reported":1745230240,"current_range_meters":19200,"station_id":"st_cvj6sg6p6f1abm77japg","pricing_plan_id":"cebpf4jnsgd1na2vs0mg"},{"bike_id":"146e7c74-8ddd-4568-b707-934b9e40d5c4","system_id":"levelo_inurba_marseille","lat":43.295166,"lon":5.39046,"is_reserved":false,"is_disabled":false,"rental_uris":{"android":"levelo://app?vid=146e7c74-8ddd-4568-b707-934b9e40d5c4","ios":"levelo://app?vid=146e7c74-8ddd-4568-b707-934b9e40d5c4"},"vehicle_type_id":"4","last_reported":1745230240,"current_range_meters":19200,"station_id":"ce4bhgh2rcd13ifvqfb0","pricing_plan_id":"cebpf4jnsgd1na2vs0mg"},{"bike_id":"fc29c697-c8dc-4b48-8f04-ef505590e058","system_id":"levelo_inurba_marseille","lat":43.265892,"lon":5.389944,"is_reserved":false,"is_disabled":false,"rental_uris":{"android":"levelo://app?vid=fc29c697-c8dc-4b48-8f04-ef505590e058","ios":"levelo://app?vid=fc29c697-c8dc-4b48-8f04-ef505590e058"},"vehicle_type_id":"4","last_reported":1745230240,"current_range_meters":19200,"station_id":"","pricing_plan_id":"cebpf4jnsgd1na2vs0mg"},{"bike_id":"042b188b-d3ae-4558-b8fe-e7f4b57c6bc7","system_id":"levelo_inurba_marseille","lat":43.27169,"lon":5.385969,"is_reserved":false,"is_disabled":false,"rental_uris":{"android":"levelo://app?vid=042b188b-d3ae-4558-b8fe-e7f4b57c6bc7","ios":"levelo://app?vid=042b188b-d3ae-4558-b8fe-e7f4b57c6bc7"},"vehicle_type_id":"4","last_reported":1745230240,"current_range_meters":19600,"station_id":"ce4bhh92rcd13ifvqfh0","pricing_plan_id":"cebpf4jnsgd1na2vs0mg"},{"bike_id":"59e0332a-055c-4a55-bbe7-35149d5556ed","system_id":"levelo_inurba_marseille","lat":43.24064,"lon":5.37753,"is_reserved":false,"is_disabled":false,"rental_uris":{"android":"levelo://app?vid=59e0332a-055c-4a55-bbe7-35149d5556ed","ios":"levelo://app?vid=59e0332a-055c-4a55-bbe7-35149d5556ed"},"vehicle_type_id":"4","last_reported":1745230240,"current_range_meters":19600,"station_id":"ce4bhnp2rcd13ifvqgvg","pricing_plan_id":"cebpf4jnsgd1na2vs0mg"},{"bike_id":"ea8855bb-b20a-49e4-ac0f-a34c16e6aae9","system_id":"levelo_inurba_marseille","lat":43.24547,"lon":5.39528,"is_reserved":false,"is_disabled":false,"rental_uris":{"android":"levelo://app?vid=ea8855bb-b20a-49e4-ac0f-a34c16e6aae9","ios":"levelo://app?vid=ea8855bb-b20a-49e4-ac0f-a34c16e6aae9"},"vehicle_type_id":"4","last_reported":1745230240,"current_range_meters":19600,"station_id":"ce4bhlp2rcd13ifvqgjg","pricing_plan_id":"cebpf4jnsgd1na2vs0mg"},{"bike_id":"a79fb0f7-3487-47ce-865f-146ad377c1c2","system_id":"levelo_inurba_marseille","lat":43.24687,"lon":5.38147,"is_reserved":false,"is_disabled":false,"rental_uris":{"android":"levelo://app?vid=a79fb0f7-3487-47ce-865f-146ad377c1c2","ios":"levelo://app?vid=a79fb0f7-3487-47ce-865f-146ad377c1c2"},"vehicle_type_id":"4","last_reported":1745230240,"current_range_meters":19600,"station_id":"ce4bhih2rcd13ifvqfr0","pricing_plan_id":"cebpf4jnsgd1na2vs0mg"},{"bike_id":"167828f5-23db-45af-96ae-a388b64e8da7","system_id":"levelo_inurba_marseille","lat":43.251154,"lon":5.403251,"is_reserved":false,"is_disabled":false,"rental_uris":{"android":"levelo://app?vid=167828f5-23db-45af-96ae-a388b64e8da7","ios":"levelo://app?vid=167828f5-23db-45af-96ae-a388b64e8da7"},"vehicle_type_id":"4","last_reported":1745230240,"current_range_meters":19600,"station_id":"ce4bhlh2rcd13ifvqgig","pricing_plan_id":"cebpf4jnsgd1na2vs0mg"},{"bike_id":"b50ee86a-c2b6-48d4-b7d1-f2a0c87356c5","system_id":"levelo_inurba_marseille","lat":43.23964,"lon":5.36638,"is_reserved":false,"is_disabled":false,"rental_uris":{"android":"levelo://app?vid=b50ee86a-c2b6-48d4-b7d1-f2a0c87356c5","ios":"levelo://app?vid=b50ee86a-c2b6-48d4-b7d1-f2a0c87356c5"},"vehicle_type_id":"4","last_reported":1745230240,"current_range_meters":19600,"station_id":"ce4bhi12rcd13ifvqfp0","pricing_plan_id":"cebpf4jnsgd1na2vs0mg"},{"bike_id":"d2afc502-7c0e-4c30-953a-05089d63cf8f","system_id":"levelo_inurba_marseille","lat":43.30419,"lon":5.41284,"is_reserved":false,"is_disabled":false,"rental_uris":{"android":"levelo://app?vid=d2afc502-7c0e-4c30-953a-05089d63cf8f","ios":"levelo://app?vid=d2afc502-7c0e-4c30-953a-05089d63cf8f"},"vehicle_type_id":"4","last_reported":1745230240,"current_range_meters":19600,"station_id":"ce4bhop2rcd13ifvqh8g","pricing_plan_id":"cebpf4jnsgd1na2vs0mg"},{"bike_id":"f526e5c1-8e93-488d-a92e-0bcec7b169c5","system_id":"levelo_inurba_marseille","lat":43.30769,"lon":5.39289,"is_reserved":false,"is_disabled":false,"rental_uris":{"android":"levelo://app?vid=f526e5c1-8e93-488d-a92e-0bcec7b169c5","ios":"levelo://app?vid=f526e5c1-8e93-488d-a92e-0bcec7b169c5"},"vehicle_type_id":"4","last_reported":1745230240,"current_range_meters":19600,"station_id":"","pricing_plan_id":"cebpf4jnsgd1na2vs0mg"},{"bike_id":"dface6bc-51eb-4db2-8861-2c05ef654713","system_id":"levelo_inurba_marseille","lat":43.29904,"lon":5.43649,"is_reserved":false,"is_disabled":false,"rental_uris":{"android":"levelo://app?vid=dface6bc-51eb-4db2-8861-2c05ef654713","ios":"levelo://app?vid=dface6bc-51eb-4db2-8861-2c05ef654713"},"vehicle_type_id":"4","last_reported":1745230240,"current_range_meters":20000,"station_id":"ce4bhpp2rcd13ifvqhfg","pricing_plan_id":"cebpf4jnsgd1na2vs0mg"},{"bike_id":"4492d8af-4df2-48ba-8a7a-30a76a3055dd","system_id":"levelo_inurba_marseille","lat":43.31496,"lon":5.37291,"is_reserved":false,"is_disabled":false,"rental_uris":{"android":"levelo://app?vid=4492d8af-4df2-48ba-8a7a-30a76a3055dd","ios":"levelo://app?vid=4492d8af-4df2-48ba-8a7a-30a76a3055dd"},"vehicle_type_id":"4","last_reported":1745230240,"current_range_meters":20000,"station_id":"ce4bgt12rcd13ifvqcd0","pricing_plan_id":"cebpf4jnsgd1na2vs0mg"},{"bike_id":"aae3b670-41be-443f-bfcb-5cb1d906e0c1","system_id":"levelo_inurba_marseille","lat":43.23151,"lon":5.43716,"is_reserved":false,"is_disabled":false,"rental_uris":{"android":"levelo://app?vid=aae3b670-41be-443f-bfcb-5cb1d906e0c1","ios":"levelo://app?vid=aae3b670-41be-443f-bfcb-5cb1d906e0c1"},"vehicle_type_id":"4","last_reported":1745230240,"current_range_meters":20000,"station_id":"ce4bhmp2rcd13ifvqgog","pricing_plan_id":"cebpf4jnsgd1na2vs0mg"},{"bike_id":"68abba7b-f860-460a-b060-5f17ab480918","system_id":"levelo_inurba_marseille","lat":43.28715,"lon":5.36094,"is_reserved":false,"is_disabled":false,"rental_uris":{"android":"levelo://app?vid=68abba7b-f860-460a-b060-5f17ab480918","ios":"levelo://app?vid=68abba7b-f860-460a-b060-5f17ab480918"},"vehicle_type_id":"4","last_reported":1745230240,"current_range_meters":20000,"station_id":"cki0cbj6b192h4jlfktg","pricing_plan_id":"cebpf4jnsgd1na2vs0mg"},{"bike_id":"4c613dda-1b30-4978-95be-4a689c45f446","system_id":"levelo_inurba_marseille","lat":43.29296,"lon":5.37463,"is_reserved":false,"is_disabled":false,"rental_uris":{"android":"levelo://app?vid=4c613dda-1b30-4978-95be-4a689c45f446","ios":"levelo://app?vid=4c613dda-1b30-4978-95be-4a689c45f446"},"vehicle_type_id":"4","last_reported":1745230240,"current_range_meters":19600,"station_id":"ce4bgi12rcd13ifvqb70","pricing_plan_id":"cebpf4jnsgd1na2vs0mg"},{"bike_id":"cfde290e-eb1f-41f2-8764-c44c415e0110","system_id":"levelo_inurba_marseille","lat":43.26149,"lon":5.40438,"is_reserved":false,"is_disabled":false,"rental_uris":{"android":"levelo://app?vid=cfde290e-eb1f-41f2-8764-c44c415e0110","ios":"levelo://app?vid=cfde290e-eb1f-41f2-8764-c44c415e0110"},"vehicle_type_id":"4","last_reported":1745230240,"current_range_meters":20000,"station_id":"ce4bhmh2rcd13ifvqgmg","pricing_plan_id":"cebpf4jnsgd1na2vs0mg"},{"bike_id":"5b82dfa4-979b-4e82-a45a-c517324f2c12","system_id":"levelo_inurba_marseille","lat":43.28265,"lon":5.35083,"is_reserved":false,"is_disabled":false,"rental_uris":{"android":"levelo://app?vid=5b82dfa4-979b-4e82-a45a-c517324f2c12","ios":"levelo://app?vid=5b82dfa4-979b-4e82-a45a-c517324f2c12"},"vehicle_type_id":"4","last_reported":1745230240,"current_range_meters":20000,"station_id":"ce4bhbp2rcd13ifvqerg","pricing_plan_id":"cebpf4jnsgd1na2vs0mg"},{"bike_id":"08e59318-16da-4e61-b69e-67dd7f8afc09","system_id":"levelo_inurba_marseille","lat":43.25492,"lon":5.37663,"is_reserved":false,"is_disabled":false,"rental_uris":{"android":"levelo://app?vid=08e59318-16da-4e61-b69e-67dd7f8afc09","ios":"levelo://app?vid=08e59318-16da-4e61-b69e-67dd7f8afc09"},"vehicle_type_id":"4","last_reported":1745230240,"current_range_meters":20400,"station_id":"ce4bhh12rcd13ifvqff0","pricing_plan_id":"cebpf4jnsgd1na2vs0mg"},{"bike_id":"9509f5ce-db83-4562-b387-36bef7fbca3e","system_id":"levelo_inurba_marseille","lat":43.29843,"lon":5.36273,"is_reserved":false,"is_disabled":false,"rental_uris":{"android":"levelo://app?vid=9509f5ce-db83-4562-b387-36bef7fbca3e","ios":"levelo://app?vid=9509f5ce-db83-4562-b387-36bef7fbca3e"},"vehicle_type_id":"4","last_reported":1745230240,"current_range_meters":20400,"station_id":"ce4bgpp2rcd13ifvqc3g","pricing_plan_id":"cebpf4jnsgd1na2vs0mg"},{"bike_id":"ad3793e0-8e51-4052-bf17-28e649631fed","system_id":"levelo_inurba_marseille","lat":43.231781,"lon":5.399897,"is_reserved":false,"is_disabled":false,"rental_uris":{"android":"levelo://app?vid=ad3793e0-8e51-4052-bf17-28e649631fed","ios":"levelo://app?vid=ad3793e0-8e51-4052-bf17-28e649631fed"},"vehicle_type_id":"4","last_reported":1745230240,"current_range_meters":20000,"station_id":"ce4bhlp2rcd13ifvqgjg","pricing_plan_id":"cebpf4jnsgd1na2vs0mg"},{"bike_id":"7b184fcb-8493-418c-970a-b38700a9d83d","system_id":"levelo_inurba_marseille","lat":43.32116,"lon":5.36794,"is_reserved":false,"is_disabled":false,"rental_uris":{"android":"levelo://app?vid=7b184fcb-8493-418c-970a-b38700a9d83d","ios":"levelo://app?vid=7b184fcb-8493-418c-970a-b38700a9d83d"},"vehicle_type_id":"4","last_reported":1745230240,"current_range_meters":20400,"station_id":"ce4bhrh2rcd13ifvqhug","pricing_plan_id":"cebpf4jnsgd1na2vs0mg"},{"bike_id":"7b9daf91-e179-476c-a943-5a0760e1a416","system_id":"levelo_inurba_marseille","lat":43.31086,"lon":5.3834,"is_reserved":false,"is_disabled":false,"rental_uris":{"android":"levelo://app?vid=7b9daf91-e179-476c-a943-5a0760e1a416","ios":"levelo://app?vid=7b9daf91-e179-476c-a943-5a0760e1a416"},"vehicle_type_id":"4","last_reported":1745230240,"current_range_meters":20400,"station_id":"ce4bgv92rcd13ifvqcr0","pricing_plan_id":"cebpf4jnsgd1na2vs0mg"},{"bike_id":"34fecf7e-3781-4d9f-9063-cd9faed01508","system_id":"levelo_inurba_marseille","lat":43.21193,"lon":5.35088,"is_reserved":false,"is_disabled":false,"rental_uris":{"android":"levelo://app?vid=34fecf7e-3781-4d9f-9063-cd9faed01508","ios":"levelo://app?vid=34fecf7e-3781-4d9f-9063-cd9faed01508"},"vehicle_type_id":"4","last_reported":1745230240,"current_range_meters":20400,"station_id":"","pricing_plan_id":"cebpf4jnsgd1na2vs0mg"},{"bike_id":"1cb3675d-6269-487b-b802-0de315331f43","system_id":"levelo_inurba_marseille","lat":43.29969,"lon":5.38499,"is_reserved":false,"is_disabled":false,"rental_uris":{"android":"levelo://app?vid=1cb3675d-6269-487b-b802-0de315331f43","ios":"levelo://app?vid=1cb3675d-6269-487b-b802-0de315331f43"},"vehicle_type_id":"4","last_reported":1745230240,"current_range_meters":20000,"station_id":"ce4bgj92rcd13ifvqbd0","pricing_plan_id":"cebpf4jnsgd1na2vs0mg"},{"bike_id":"8b130a09-aaaf-4aa6-818b-7046c9a559b0","system_id":"levelo_inurba_marseille","lat":43.24678,"lon":5.3814,"is_reserved":false,"is_disabled":false,"rental_uris":{"android":"levelo://app?vid=8b130a09-aaaf-4aa6-818b-7046c9a559b0","ios":"levelo://app?vid=8b130a09-aaaf-4aa6-818b-7046c9a559b0"},"vehicle_type_id":"4","last_reported":1745230240,"current_range_meters":20400,"station_id":"ce4bhih2rcd13ifvqfr0","pricing_plan_id":"cebpf4jnsgd1na2vs0mg"},{"bike_id":"67f051ed-2d9c-4355-90d6-965013aae856","system_id":"levelo_inurba_marseille","lat":43.27984,"lon":5.41655,"is_reserved":false,"is_disabled":false,"rental_uris":{"android":"levelo://app?vid=67f051ed-2d9c-4355-90d6-965013aae856","ios":"levelo://app?vid=67f051ed-2d9c-4355-90d6-965013aae856"},"vehicle_type_id":"4","last_reported":1745230240,"current_range_meters":20400,"station_id":"ce4bho12rcd13ifvqh1g","pricing_plan_id":"cebpf4jnsgd1na2vs0mg"},{"bike_id":"2b5b43b0-736b-412c-bc6d-5cb292d4d992","system_id":"levelo_inurba_marseille","lat":43.30927,"lon":5.36827,"is_reserved":false,"is_disabled":false,"rental_uris":{"android":"levelo://app?vid=2b5b43b0-736b-412c-bc6d-5cb292d4d992","ios":"levelo://app?vid=2b5b43b0-736b-412c-bc6d-5cb292d4d992"},"vehicle_type_id":"4","last_reported":1745230240,"current_range_meters":20000,"station_id":"ce4bgn92rcd13ifvqbvg","pricing_plan_id":"cebpf4jnsgd1na2vs0mg"},{"bike_id":"cb9917fc-856e-4194-b94e-d83b0fe1bd27","system_id":"levelo_inurba_marseille","lat":43.31182,"lon":5.41629,"is_reserved":false,"is_disabled":false,"rental_uris":{"android":"levelo://app?vid=cb9917fc-856e-4194-b94e-d83b0fe1bd27","ios":"levelo://app?vid=cb9917fc-856e-4194-b94e-d83b0fe1bd27"},"vehicle_type_id":"4","last_reported":1745230240,"current_range_meters":20800,"station_id":"","pricing_plan_id":"cebpf4jnsgd1na2vs0mg"},{"bike_id":"4e0feb4b-9af5-4c5c-a215-eabded87c4f9","system_id":"levelo_inurba_marseille","lat":43.23149,"lon":5.43698,"is_reserved":false,"is_disabled":false,"rental_uris":{"android":"levelo://app?vid=4e0feb4b-9af5-4c5c-a215-eabded87c4f9","ios":"levelo://app?vid=4e0feb4b-9af5-4c5c-a215-eabded87c4f9"},"vehicle_type_id":"4","last_reported":1745230240,"current_range_meters":20800,"station_id":"ce4bhmp2rcd13ifvqgog","pricing_plan_id":"cebpf4jnsgd1na2vs0mg"},{"bike_id":"0c921051-6c2d-45c8-9aa1-91f47852b042","system_id":"levelo_inurba_marseille","lat":43.28272,"lon":5.35068,"is_reserved":false,"is_disabled":false,"rental_uris":{"android":"levelo://app?vid=0c921051-6c2d-45c8-9aa1-91f47852b042","ios":"levelo://app?vid=0c921051-6c2d-45c8-9aa1-91f47852b042"},"vehicle_type_id":"4","last_reported":1745230240,"current_range_meters":20800,"station_id":"","pricing_plan_id":"cebpf4jnsgd1na2vs0mg"},{"bike_id":"f2ef6f30-dd1c-4d66-ae9e-4ffb03391731","system_id":"levelo_inurba_marseille","lat":43.30954,"lon":5.39036,"is_reserved":false,"is_disabled":false,"rental_uris":{"android":"levelo://app?vid=f2ef6f30-dd1c-4d66-ae9e-4ffb03391731","ios":"levelo://app?vid=f2ef6f30-dd1c-4d66-ae9e-4ffb03391731"},"vehicle_type_id":"4","last_reported":1745230240,"current_range_meters":20800,"station_id":"ce4bgup2rcd13ifvqco0","pricing_plan_id":"cebpf4jnsgd1na2vs0mg"},{"bike_id":"92918a7f-df96-4c5a-8eb5-64b292a739f8","system_id":"levelo_inurba_marseille","lat":43.22488,"lon":5.34784,"is_reserved":false,"is_disabled":true,"rental_uris":{"android":"levelo://app?vid=92918a7f-df96-4c5a-8eb5-64b292a739f8","ios":"levelo://app?vid=92918a7f-df96-4c5a-8eb5-64b292a739f8"},"vehicle_type_id":"4","last_reported":1745230240,"current_range_meters":21600,"station_id":"st_cvj5dfep6f1abm77gieg","pricing_plan_id":"cebpf4jnsgd1na2vs0mg"},{"bike_id":"86c67ed9-36d4-40e7-aec5-b59795577a9e","system_id":"levelo_inurba_marseille","lat":43.280666,"lon":5.393438,"is_reserved":false,"is_disabled":false,"rental_uris":{"android":"levelo://app?vid=86c67ed9-36d4-40e7-aec5-b59795577a9e","ios":"levelo://app?vid=86c67ed9-36d4-40e7-aec5-b59795577a9e"},"vehicle_type_id":"4","last_reported":1745230240,"current_range_meters":20800,"station_id":"ce4bhoh2rcd13ifvqh5g","pricing_plan_id":"cebpf4jnsgd1na2vs0mg"},{"bike_id":"35949ab2-cec3-4d0f-a7a3-72d50df18ef0","system_id":"levelo_inurba_marseille","lat":43.28421,"lon":5.34974,"is_reserved":false,"is_disabled":false,"rental_uris":{"android":"levelo://app?vid=35949ab2-cec3-4d0f-a7a3-72d50df18ef0","ios":"levelo://app?vid=35949ab2-cec3-4d0f-a7a3-72d50df18ef0"},"vehicle_type_id":"4","last_reported":1745230240,"current_range_meters":21600,"station_id":"ce4bhbh2rcd13ifvqepg","pricing_plan_id":"cebpf4jnsgd1na2vs0mg"},{"bike_id":"166d77ae-8f4c-455d-9841-692a6645a869","system_id":"levelo_inurba_marseille","lat":43.25504,"lon":5.37641,"is_reserved":false,"is_disabled":false,"rental_uris":{"android":"levelo://app?vid=166d77ae-8f4c-455d-9841-692a6645a869","ios":"levelo://app?vid=166d77ae-8f4c-455d-9841-692a6645a869"},"vehicle_type_id":"4","last_reported":1745230240,"current_range_meters":20800,"station_id":"ce4bhh12rcd13ifvqff0","pricing_plan_id":"cebpf4jnsgd1na2vs0mg"},{"bike_id":"00f2f62d-78d1-4a01-bb22-cfc6c6d40bc5","system_id":"levelo_inurba_marseille","lat":43.28282,"lon":5.35085,"is_reserved":false,"is_disabled":false,"rental_uris":{"android":"levelo://app?vid=00f2f62d-78d1-4a01-bb22-cfc6c6d40bc5","ios":"levelo://app?vid=00f2f62d-78d1-4a01-bb22-cfc6c6d40bc5"},"vehicle_type_id":"4","last_reported":1745230240,"current_range_meters":21600,"station_id":"ce4bhbp2rcd13ifvqerg","pricing_plan_id":"cebpf4jnsgd1na2vs0mg"},{"bike_id":"cdd5db1d-b589-4ca1-94c1-202d30db1e56","system_id":"levelo_inurba_marseille","lat":43.23958,"lon":5.36663,"is_reserved":false,"is_disabled":true,"rental_uris":{"android":"levelo://app?vid=cdd5db1d-b589-4ca1-94c1-202d30db1e56","ios":"levelo://app?vid=cdd5db1d-b589-4ca1-94c1-202d30db1e56"},"vehicle_type_id":"4","last_reported":1745230240,"current_range_meters":21600,"station_id":"ce4bhi12rcd13ifvqfp0","pricing_plan_id":"cebpf4jnsgd1na2vs0mg"},{"bike_id":"e8e62d3d-e6b4-4ad6-8aec-55d5d0277531","system_id":"levelo_inurba_marseille","lat":43.23176,"lon":5.39991,"is_reserved":false,"is_disabled":false,"rental_uris":{"android":"levelo://app?vid=e8e62d3d-e6b4-4ad6-8aec-55d5d0277531","ios":"levelo://app?vid=e8e62d3d-e6b4-4ad6-8aec-55d5d0277531"},"vehicle_type_id":"4","last_reported":1745230240,"current_range_meters":21600,"station_id":"ce4bhn12rcd13ifvqgqg","pricing_plan_id":"cebpf4jnsgd1na2vs0mg"},{"bike_id":"278ee132-281e-4a56-a4a6-ae5a169037d3","system_id":"levelo_inurba_marseille","lat":43.23974,"lon":5.36636,"is_reserved":false,"is_disabled":false,"rental_uris":{"android":"levelo://app?vid=278ee132-281e-4a56-a4a6-ae5a169037d3","ios":"levelo://app?vid=278ee132-281e-4a56-a4a6-ae5a169037d3"},"vehicle_type_id":"4","last_reported":1745230240,"current_range_meters":21600,"station_id":"ce4bhi12rcd13ifvqfp0","pricing_plan_id":"cebpf4jnsgd1na2vs0mg"},{"bike_id":"82263c1b-d05d-4b56-80c1-775d3cf9404f","system_id":"levelo_inurba_marseille","lat":43.27897,"lon":5.38018,"is_reserved":false,"is_disabled":false,"rental_uris":{"android":"levelo://app?vid=82263c1b-d05d-4b56-80c1-775d3cf9404f","ios":"levelo://app?vid=82263c1b-d05d-4b56-80c1-775d3cf9404f"},"vehicle_type_id":"4","last_reported":1745230240,"current_range_meters":21600,"station_id":"ce4bhf92rcd13ifvqf50","pricing_plan_id":"cebpf4jnsgd1na2vs0mg"},{"bike_id":"f6919607-44fc-4060-9fb0-09ba314e9711","system_id":"levelo_inurba_marseille","lat":43.23153,"lon":5.43703,"is_reserved":false,"is_disabled":false,"rental_uris":{"android":"levelo://app?vid=f6919607-44fc-4060-9fb0-09ba314e9711","ios":"levelo://app?vid=f6919607-44fc-4060-9fb0-09ba314e9711"},"vehicle_type_id":"4","last_reported":1745230240,"current_range_meters":22000,"station_id":"ce4bhmp2rcd13ifvqgog","pricing_plan_id":"cebpf4jnsgd1na2vs0mg"},{"bike_id":"ad3cffc0-2004-490c-8473-8aa85f58e38a","system_id":"levelo_inurba_marseille","lat":43.29847,"lon":5.36286,"is_reserved":false,"is_disabled":false,"rental_uris":{"android":"levelo://app?vid=ad3cffc0-2004-490c-8473-8aa85f58e38a","ios":"levelo://app?vid=ad3cffc0-2004-490c-8473-8aa85f58e38a"},"vehicle_type_id":"4","last_reported":1745230240,"current_range_meters":22000,"station_id":"ce4bgpp2rcd13ifvqc3g","pricing_plan_id":"cebpf4jnsgd1na2vs0mg"},{"bike_id":"855a2842-6dff-4567-8eb2-be6b7cff1d08","system_id":"levelo_inurba_marseille","lat":43.21751,"lon":5.34597,"is_reserved":false,"is_disabled":false,"rental_uris":{"android":"levelo://app?vid=855a2842-6dff-4567-8eb2-be6b7cff1d08","ios":"levelo://app?vid=855a2842-6dff-4567-8eb2-be6b7cff1d08"},"vehicle_type_id":"4","last_reported":1745230240,"current_range_meters":22000,"station_id":"st_cvj6r9ubvosntc0bgbag","pricing_plan_id":"cebpf4jnsgd1na2vs0mg"},{"bike_id":"57a4cfc3-a4e5-40d4-b10b-70cd8c27ec4a","system_id":"levelo_inurba_marseille","lat":43.24659,"lon":5.38158,"is_reserved":false,"is_disabled":false,"rental_uris":{"android":"levelo://app?vid=57a4cfc3-a4e5-40d4-b10b-70cd8c27ec4a","ios":"levelo://app?vid=57a4cfc3-a4e5-40d4-b10b-70cd8c27ec4a"},"vehicle_type_id":"4","last_reported":1745230240,"current_range_meters":22000,"station_id":"ce4bhih2rcd13ifvqfr0","pricing_plan_id":"cebpf4jnsgd1na2vs0mg"},{"bike_id":"bd13e69a-fa4e-4201-add5-52d95e5308e0","system_id":"levelo_inurba_marseille","lat":43.24658,"lon":5.38161,"is_reserved":false,"is_disabled":false,"rental_uris":{"android":"levelo://app?vid=bd13e69a-fa4e-4201-add5-52d95e5308e0","ios":"levelo://app?vid=bd13e69a-fa4e-4201-add5-52d95e5308e0"},"vehicle_type_id":"4","last_reported":1745230240,"current_range_meters":22000,"station_id":"ce4bhih2rcd13ifvqfr0","pricing_plan_id":"cebpf4jnsgd1na2vs0mg"},{"bike_id":"d111e0ae-0e0d-49ca-9a46-a4904cd08bff","system_id":"levelo_inurba_marseille","lat":43.28673,"lon":5.38672,"is_reserved":false,"is_disabled":false,"rental_uris":{"android":"levelo://app?vid=d111e0ae-0e0d-49ca-9a46-a4904cd08bff","ios":"levelo://app?vid=d111e0ae-0e0d-49ca-9a46-a4904cd08bff"},"vehicle_type_id":"4","last_reported":1745230240,"current_range_meters":22000,"station_id":"ce4bh492rcd13ifvqdug","pricing_plan_id":"cebpf4jnsgd1na2vs0mg"},{"bike_id":"0012793a-a564-4313-88e6-187f4fcaef17","system_id":"levelo_inurba_marseille","lat":43.269601,"lon":5.366323,"is_reserved":false,"is_disabled":false,"rental_uris":{"android":"levelo://app?vid=0012793a-a564-4313-88e6-187f4fcaef17","ios":"levelo://app?vid=0012793a-a564-4313-88e6-187f4fcaef17"},"vehicle_type_id":"4","last_reported":1745230240,"current_range_meters":21600,"station_id":"ce4bh4p2rcd13ifvqe0g","pricing_plan_id":"cebpf4jnsgd1na2vs0mg"},{"bike_id":"ef588677-e937-4fb6-8359-89032b9d9c2e","system_id":"levelo_inurba_marseille","lat":43.2596,"lon":5.40913,"is_reserved":false,"is_disabled":false,"rental_uris":{"android":"levelo://app?vid=ef588677-e937-4fb6-8359-89032b9d9c2e","ios":"levelo://app?vid=ef588677-e937-4fb6-8359-89032b9d9c2e"},"vehicle_type_id":"4","last_reported":1745230240,"current_range_meters":22000,"station_id":"ce4bhm92rcd13ifvqglg","pricing_plan_id":"cebpf4jnsgd1na2vs0mg"},{"bike_id":"04c8951e-3a8b-40df-8ac4-0ebf1b70c9b4","system_id":"levelo_inurba_marseille","lat":43.247434,"lon":5.411824,"is_reserved":false,"is_disabled":false,"rental_uris":{"android":"levelo://app?vid=04c8951e-3a8b-40df-8ac4-0ebf1b70c9b4","ios":"levelo://app?vid=04c8951e-3a8b-40df-8ac4-0ebf1b70c9b4"},"vehicle_type_id":"4","last_reported":1745230240,"current_range_meters":22000,"station_id":"","pricing_plan_id":"cebpf4jnsgd1na2vs0mg"},{"bike_id":"bee65c0e-3969-4a3e-9a94-ddda99c1298d","system_id":"levelo_inurba_marseille","lat":43.30413,"lon":5.41286,"is_reserved":false,"is_disabled":false,"rental_uris":{"android":"levelo://app?vid=bee65c0e-3969-4a3e-9a94-ddda99c1298d","ios":"levelo://app?vid=bee65c0e-3969-4a3e-9a94-ddda99c1298d"},"vehicle_type_id":"4","last_reported":1745230240,"current_range_meters":22000,"station_id":"ce4bhop2rcd13ifvqh8g","pricing_plan_id":"cebpf4jnsgd1na2vs0mg"},{"bike_id":"b8940917-0b80-4572-b867-e4af3d449d32","system_id":"levelo_inurba_marseille","lat":43.21184,"lon":5.3508,"is_reserved":false,"is_disabled":false,"rental_uris":{"android":"levelo://app?vid=b8940917-0b80-4572-b867-e4af3d449d32","ios":"levelo://app?vid=b8940917-0b80-4572-b867-e4af3d449d32"},"vehicle_type_id":"4","last_reported":1745230240,"current_range_meters":22400,"station_id":"st_cvj6sg6p6f1abm77japg","pricing_plan_id":"cebpf4jnsgd1na2vs0mg"},{"bike_id":"ee4868f0-b3b2-4242-9970-c5b8a8297085","system_id":"levelo_inurba_marseille","lat":43.337444,"lon":5.374475,"is_reserved":false,"is_disabled":false,"rental_uris":{"android":"levelo://app?vid=ee4868f0-b3b2-4242-9970-c5b8a8297085","ios":"levelo://app?vid=ee4868f0-b3b2-4242-9970-c5b8a8297085"},"vehicle_type_id":"4","last_reported":1745230240,"current_range_meters":22400,"station_id":"","pricing_plan_id":"cebpf4jnsgd1na2vs0mg"},{"bike_id":"7ce7446d-e7fc-4f4e-b498-1cdc4944613c","system_id":"levelo_inurba_marseille","lat":43.2996,"lon":5.41326,"is_reserved":false,"is_disabled":false,"rental_uris":{"android":"levelo://app?vid=7ce7446d-e7fc-4f4e-b498-1cdc4944613c","ios":"levelo://app?vid=7ce7446d-e7fc-4f4e-b498-1cdc4944613c"},"vehicle_type_id":"4","last_reported":1745230240,"current_range_meters":22400,"station_id":"ce4bhp12rcd13ifvqh9g","pricing_plan_id":"cebpf4jnsgd1na2vs0mg"},{"bike_id":"aa578386-b3c9-4b0f-921f-60d661cbe893","system_id":"levelo_inurba_marseille","lat":43.21192,"lon":5.35071,"is_reserved":false,"is_disabled":false,"rental_uris":{"android":"levelo://app?vid=aa578386-b3c9-4b0f-921f-60d661cbe893","ios":"levelo://app?vid=aa578386-b3c9-4b0f-921f-60d661cbe893"},"vehicle_type_id":"4","last_reported":1745230240,"current_range_meters":22400,"station_id":"st_cvj6sg6p6f1abm77japg","pricing_plan_id":"cebpf4jnsgd1na2vs0mg"},{"bike_id":"36d23774-007b-492c-882e-5817475a3a79","system_id":"levelo_inurba_marseille","lat":43.23161,"lon":5.43704,"is_reserved":false,"is_disabled":true,"rental_uris":{"android":"levelo://app?vid=36d23774-007b-492c-882e-5817475a3a79","ios":"levelo://app?vid=36d23774-007b-492c-882e-5817475a3a79"},"vehicle_type_id":"4","last_reported":1745230240,"current_range_meters":22400,"station_id":"ce4bhmp2rcd13ifvqgog","pricing_plan_id":"cebpf4jnsgd1na2vs0mg"},{"bike_id":"842df924-ea5d-463c-94a9-3c3ce450183b","system_id":"levelo_inurba_marseille","lat":43.28279,"lon":5.35066,"is_reserved":false,"is_disabled":false,"rental_uris":{"android":"levelo://app?vid=842df924-ea5d-463c-94a9-3c3ce450183b","ios":"levelo://app?vid=842df924-ea5d-463c-94a9-3c3ce450183b"},"vehicle_type_id":"4","last_reported":1745230240,"current_range_meters":22400,"station_id":"ce4bhbp2rcd13ifvqerg","pricing_plan_id":"cebpf4jnsgd1na2vs0mg"},{"bike_id":"72fb13b8-35f9-409c-bb3f-5d8726d2f96f","system_id":"levelo_inurba_marseille","lat":43.2306,"lon":5.35493,"is_reserved":false,"is_disabled":false,"rental_uris":{"android":"levelo://app?vid=72fb13b8-35f9-409c-bb3f-5d8726d2f96f","ios":"levelo://app?vid=72fb13b8-35f9-409c-bb3f-5d8726d2f96f"},"vehicle_type_id":"4","last_reported":1745230240,"current_range_meters":22400,"station_id":"cpo3342slgdg3j2ifvpg","pricing_plan_id":"cebpf4jnsgd1na2vs0mg"},{"bike_id":"69577fef-7f26-4fb1-af97-a71b88990142","system_id":"levelo_inurba_marseille","lat":43.340189,"lon":5.375388,"is_reserved":false,"is_disabled":false,"rental_uris":{"android":"levelo://app?vid=69577fef-7f26-4fb1-af97-a71b88990142","ios":"levelo://app?vid=69577fef-7f26-4fb1-af97-a71b88990142"},"vehicle_type_id":"4","last_reported":1745230240,"current_range_meters":22800,"station_id":"","pricing_plan_id":"cebpf4jnsgd1na2vs0mg"},{"bike_id":"91e77937-0391-4e59-8edf-8196451822c7","system_id":"levelo_inurba_marseille","lat":43.217519,"lon":5.34601,"is_reserved":false,"is_disabled":false,"rental_uris":{"android":"levelo://app?vid=91e77937-0391-4e59-8edf-8196451822c7","ios":"levelo://app?vid=91e77937-0391-4e59-8edf-8196451822c7"},"vehicle_type_id":"4","last_reported":1745230240,"current_range_meters":22800,"station_id":"st_cvj6r9ubvosntc0bgbag","pricing_plan_id":"cebpf4jnsgd1na2vs0mg"},{"bike_id":"a29dbf01-7588-43b8-8eaf-15da94811583","system_id":"levelo_inurba_marseille","lat":43.28417,"lon":5.34983,"is_reserved":false,"is_disabled":false,"rental_uris":{"android":"levelo://app?vid=a29dbf01-7588-43b8-8eaf-15da94811583","ios":"levelo://app?vid=a29dbf01-7588-43b8-8eaf-15da94811583"},"vehicle_type_id":"4","last_reported":1745230240,"current_range_meters":22800,"station_id":"ce4bhbh2rcd13ifvqepg","pricing_plan_id":"cebpf4jnsgd1na2vs0mg"},{"bike_id":"31786861-6d9d-4412-a8d1-767539d23c98","system_id":"levelo_inurba_marseille","lat":43.27368,"lon":5.36261,"is_reserved":false,"is_disabled":false,"rental_uris":{"android":"levelo://app?vid=31786861-6d9d-4412-a8d1-767539d23c98","ios":"levelo://app?vid=31786861-6d9d-4412-a8d1-767539d23c98"},"vehicle_type_id":"4","last_reported":1745230240,"current_range_meters":22800,"station_id":"ce4bhbh2rcd13ifvqeo0","pricing_plan_id":"cebpf4jnsgd1na2vs0mg"},{"bike_id":"9d8d9f37-dcd0-4b42-a7d5-66f3905fd75d","system_id":"levelo_inurba_marseille","lat":43.24173,"lon":5.36393,"is_reserved":false,"is_disabled":false,"rental_uris":{"android":"levelo://app?vid=9d8d9f37-dcd0-4b42-a7d5-66f3905fd75d","ios":"levelo://app?vid=9d8d9f37-dcd0-4b42-a7d5-66f3905fd75d"},"vehicle_type_id":"4","last_reported":1745230240,"current_range_meters":22800,"station_id":"cpo36qri1sfpv3e86is0","pricing_plan_id":"cebpf4jnsgd1na2vs0mg"},{"bike_id":"01431caa-50c2-4f8e-86fd-39f7f5468ae9","system_id":"levelo_inurba_marseille","lat":43.217493,"lon":5.346005,"is_reserved":false,"is_disabled":false,"rental_uris":{"android":"levelo://app?vid=01431caa-50c2-4f8e-86fd-39f7f5468ae9","ios":"levelo://app?vid=01431caa-50c2-4f8e-86fd-39f7f5468ae9"},"vehicle_type_id":"4","last_reported":1745230240,"current_range_meters":22800,"station_id":"","pricing_plan_id":"cebpf4jnsgd1na2vs0mg"},{"bike_id":"13dc6508-0f4f-45b5-b48b-aef8fad79bbb","system_id":"levelo_inurba_marseille","lat":43.2985,"lon":5.36262,"is_reserved":false,"is_disabled":false,"rental_uris":{"android":"levelo://app?vid=13dc6508-0f4f-45b5-b48b-aef8fad79bbb","ios":"levelo://app?vid=13dc6508-0f4f-45b5-b48b-aef8fad79bbb"},"vehicle_type_id":"4","last_reported":1745230240,"current_range_meters":22800,"station_id":"ce4bgpp2rcd13ifvqc3g","pricing_plan_id":"cebpf4jnsgd1na2vs0mg"},{"bike_id":"7c5363c1-7ea6-443b-9a61-5fa660662bc0","system_id":"levelo_inurba_marseille","lat":43.23969,"lon":5.36625,"is_reserved":false,"is_disabled":false,"rental_uris":{"android":"levelo://app?vid=7c5363c1-7ea6-443b-9a61-5fa660662bc0","ios":"levelo://app?vid=7c5363c1-7ea6-443b-9a61-5fa660662bc0"},"vehicle_type_id":"4","last_reported":1745230240,"current_range_meters":22800,"station_id":"ce4bhi12rcd13ifvqfp0","pricing_plan_id":"cebpf4jnsgd1na2vs0mg"},{"bike_id":"fd17e20a-aff8-4d80-a102-1d589289c851","system_id":"levelo_inurba_marseille","lat":43.32102,"lon":5.36773,"is_reserved":false,"is_disabled":false,"rental_uris":{"android":"levelo://app?vid=fd17e20a-aff8-4d80-a102-1d589289c851","ios":"levelo://app?vid=fd17e20a-aff8-4d80-a102-1d589289c851"},"vehicle_type_id":"4","last_reported":1745230240,"current_range_meters":23200,"station_id":"ce4bhrh2rcd13ifvqhug","pricing_plan_id":"cebpf4jnsgd1na2vs0mg"},{"bike_id":"cf8523d1-f484-4a14-b596-37e4390077ef","system_id":"levelo_inurba_marseille","lat":43.23964,"lon":5.36635,"is_reserved":false,"is_disabled":false,"rental_uris":{"android":"levelo://app?vid=cf8523d1-f484-4a14-b596-37e4390077ef","ios":"levelo://app?vid=cf8523d1-f484-4a14-b596-37e4390077ef"},"vehicle_type_id":"4","last_reported":1745230240,"current_range_meters":23200,"station_id":"ce4bhi12rcd13ifvqfp0","pricing_plan_id":"cebpf4jnsgd1na2vs0mg"},{"bike_id":"2544f812-1abd-4e61-bf1f-36025cf4dcea","system_id":"levelo_inurba_marseille","lat":43.290183,"lon":5.38141,"is_reserved":false,"is_disabled":false,"rental_uris":{"android":"levelo://app?vid=2544f812-1abd-4e61-bf1f-36025cf4dcea","ios":"levelo://app?vid=2544f812-1abd-4e61-bf1f-36025cf4dcea"},"vehicle_type_id":"4","last_reported":1745230240,"current_range_meters":22800,"station_id":"ce4bh3h2rcd13ifvqdn0","pricing_plan_id":"cebpf4jnsgd1na2vs0mg"},{"bike_id":"33820412-47bd-4a30-9113-d51d8f4f5ec1","system_id":"levelo_inurba_marseille","lat":43.2906,"lon":5.37146,"is_reserved":false,"is_disabled":false,"rental_uris":{"android":"levelo://app?vid=33820412-47bd-4a30-9113-d51d8f4f5ec1","ios":"levelo://app?vid=33820412-47bd-4a30-9113-d51d8f4f5ec1"},"vehicle_type_id":"4","last_reported":1745230240,"current_range_meters":22800,"station_id":"ce4bh5p2rcd13ifvqe4g","pricing_plan_id":"cebpf4jnsgd1na2vs0mg"},{"bike_id":"3bc61d25-d2bb-4ba2-a09b-f131079cbcec","system_id":"levelo_inurba_marseille","lat":43.31718,"lon":5.37736,"is_reserved":false,"is_disabled":false,"rental_uris":{"android":"levelo://app?vid=3bc61d25-d2bb-4ba2-a09b-f131079cbcec","ios":"levelo://app?vid=3bc61d25-d2bb-4ba2-a09b-f131079cbcec"},"vehicle_type_id":"4","last_reported":1745230240,"current_range_meters":23200,"station_id":"ce4bgth2rcd13ifvqch0","pricing_plan_id":"cebpf4jnsgd1na2vs0mg"},{"bike_id":"f515ea15-ac40-455f-a94f-c7a73139c359","system_id":"levelo_inurba_marseille","lat":43.299,"lon":5.43682,"is_reserved":false,"is_disabled":false,"rental_uris":{"android":"levelo://app?vid=f515ea15-ac40-455f-a94f-c7a73139c359","ios":"levelo://app?vid=f515ea15-ac40-455f-a94f-c7a73139c359"},"vehicle_type_id":"4","last_reported":1745230240,"current_range_meters":23200,"station_id":"ce4bhpp2rcd13ifvqhfg","pricing_plan_id":"cebpf4jnsgd1na2vs0mg"},{"bike_id":"e736fc83-e9d2-4358-8f38-2a24b4c364bf","system_id":"levelo_inurba_marseille","lat":43.27373,"lon":5.36256,"is_reserved":false,"is_disabled":false,"rental_uris":{"android":"levelo://app?vid=e736fc83-e9d2-4358-8f38-2a24b4c364bf","ios":"levelo://app?vid=e736fc83-e9d2-4358-8f38-2a24b4c364bf"},"vehicle_type_id":"4","last_reported":1745230240,"current_range_meters":23200,"station_id":"ce4bhbh2rcd13ifvqeo0","pricing_plan_id":"cebpf4jnsgd1na2vs0mg"},{"bike_id":"3b37fa0b-8b92-4282-b97d-94ff95f98a5d","system_id":"levelo_inurba_marseille","lat":43.23956,"lon":5.36634,"is_reserved":false,"is_disabled":false,"rental_uris":{"android":"levelo://app?vid=3b37fa0b-8b92-4282-b97d-94ff95f98a5d","ios":"levelo://app?vid=3b37fa0b-8b92-4282-b97d-94ff95f98a5d"},"vehicle_type_id":"4","last_reported":1745230240,"current_range_meters":23200,"station_id":"ce4bhi12rcd13ifvqfp0","pricing_plan_id":"cebpf4jnsgd1na2vs0mg"},{"bike_id":"7fe7d677-4ad0-422d-97da-bf7fc39c6905","system_id":"levelo_inurba_marseille","lat":43.31712,"lon":5.437,"is_reserved":false,"is_disabled":true,"rental_uris":{"android":"levelo://app?vid=7fe7d677-4ad0-422d-97da-bf7fc39c6905","ios":"levelo://app?vid=7fe7d677-4ad0-422d-97da-bf7fc39c6905"},"vehicle_type_id":"4","last_reported":1745230240,"current_range_meters":23200,"station_id":"ce4bhp92rcd13ifvqhcg","pricing_plan_id":"cebpf4jnsgd1na2vs0mg"},{"bike_id":"a8074323-a5c1-420d-a422-1fc7b6469e61","system_id":"levelo_inurba_marseille","lat":43.30929,"lon":5.40147,"is_reserved":false,"is_disabled":false,"rental_uris":{"android":"levelo://app?vid=a8074323-a5c1-420d-a422-1fc7b6469e61","ios":"levelo://app?vid=a8074323-a5c1-420d-a422-1fc7b6469e61"},"vehicle_type_id":"4","last_reported":1745230240,"current_range_meters":22800,"station_id":"ce4bgvp2rcd13ifvqct0","pricing_plan_id":"cebpf4jnsgd1na2vs0mg"},{"bike_id":"698ef4f1-bf15-4fdb-9c77-c5da0c7a090f","system_id":"levelo_inurba_marseille","lat":43.23963,"lon":5.36625,"is_reserved":false,"is_disabled":false,"rental_uris":{"android":"levelo://app?vid=698ef4f1-bf15-4fdb-9c77-c5da0c7a090f","ios":"levelo://app?vid=698ef4f1-bf15-4fdb-9c77-c5da0c7a090f"},"vehicle_type_id":"4","last_reported":1745230240,"current_range_meters":24000,"station_id":"ce4bhi12rcd13ifvqfp0","pricing_plan_id":"cebpf4jnsgd1na2vs0mg"},{"bike_id":"c228713f-fda4-4bae-aced-6a54967e734a","system_id":"levelo_inurba_marseille","lat":43.265497,"lon":5.372836,"is_reserved":false,"is_disabled":false,"rental_uris":{"android":"levelo://app?vid=c228713f-fda4-4bae-aced-6a54967e734a","ios":"levelo://app?vid=c228713f-fda4-4bae-aced-6a54967e734a"},"vehicle_type_id":"4","last_reported":1745230240,"current_range_meters":24000,"station_id":"ce4bhg12rcd13ifvqf70","pricing_plan_id":"cebpf4jnsgd1na2vs0mg"},{"bike_id":"fb991021-8681-49e7-94ae-8f58a6da4ee5","system_id":"levelo_inurba_marseille","lat":43.32116,"lon":5.36779,"is_reserved":false,"is_disabled":false,"rental_uris":{"android":"levelo://app?vid=fb991021-8681-49e7-94ae-8f58a6da4ee5","ios":"levelo://app?vid=fb991021-8681-49e7-94ae-8f58a6da4ee5"},"vehicle_type_id":"4","last_reported":1745230240,"current_range_meters":24000,"station_id":"ce4bhrh2rcd13ifvqhug","pricing_plan_id":"cebpf4jnsgd1na2vs0mg"},{"bike_id":"53675b43-0808-4e0a-a08a-ac7c540623e0","system_id":"levelo_inurba_marseille","lat":43.29261,"lon":5.38439,"is_reserved":false,"is_disabled":false,"rental_uris":{"android":"levelo://app?vid=53675b43-0808-4e0a-a08a-ac7c540623e0","ios":"levelo://app?vid=53675b43-0808-4e0a-a08a-ac7c540623e0"},"vehicle_type_id":"4","last_reported":1745230240,"current_range_meters":24000,"station_id":"ce4bh692rcd13ifvqea0","pricing_plan_id":"cebpf4jnsgd1na2vs0mg"},{"bike_id":"33e9597a-3412-4ecd-9d63-289e53c68d5f","system_id":"levelo_inurba_marseille","lat":43.27619,"lon":5.36114,"is_reserved":false,"is_disabled":false,"rental_uris":{"android":"levelo://app?vid=33e9597a-3412-4ecd-9d63-289e53c68d5f","ios":"levelo://app?vid=33e9597a-3412-4ecd-9d63-289e53c68d5f"},"vehicle_type_id":"4","last_reported":1745230240,"current_range_meters":24000,"station_id":"ce4bgj92rcd13ifvqbe0","pricing_plan_id":"cebpf4jnsgd1na2vs0mg"},{"bike_id":"6406611e-cc35-4676-900c-5e95ddf12e0f","system_id":"levelo_inurba_marseille","lat":43.26793,"lon":5.38389,"is_reserved":false,"is_disabled":false,"rental_uris":{"android":"levelo://app?vid=6406611e-cc35-4676-900c-5e95ddf12e0f","ios":"levelo://app?vid=6406611e-cc35-4676-900c-5e95ddf12e0f"},"vehicle_type_id":"4","last_reported":1745230240,"current_range_meters":24400,"station_id":"","pricing_plan_id":"cebpf4jnsgd1na2vs0mg"},{"bike_id":"c668d3bf-2da5-4754-a2af-dc85abdf9179","system_id":"levelo_inurba_marseille","lat":43.24166,"lon":5.36393,"is_reserved":false,"is_disabled":false,"rental_uris":{"android":"levelo://app?vid=c668d3bf-2da5-4754-a2af-dc85abdf9179","ios":"levelo://app?vid=c668d3bf-2da5-4754-a2af-dc85abdf9179"},"vehicle_type_id":"4","last_reported":1745230240,"current_range_meters":24400,"station_id":"cpo36qri1sfpv3e86is0","pricing_plan_id":"cebpf4jnsgd1na2vs0mg"},{"bike_id":"6dbb0c2f-555e-4f25-b51e-6eccb8eec157","system_id":"levelo_inurba_marseille","lat":43.29061,"lon":5.39939,"is_reserved":false,"is_disabled":false,"rental_uris":{"android":"levelo://app?vid=6dbb0c2f-555e-4f25-b51e-6eccb8eec157","ios":"levelo://app?vid=6dbb0c2f-555e-4f25-b51e-6eccb8eec157"},"vehicle_type_id":"4","last_reported":1745230240,"current_range_meters":24400,"station_id":"ce4bh392rcd13ifvqdm0","pricing_plan_id":"cebpf4jnsgd1na2vs0mg"},{"bike_id":"5d8cc962-a906-41fb-854a-c674130cfb76","system_id":"levelo_inurba_marseille","lat":43.31358,"lon":5.38465,"is_reserved":false,"is_disabled":true,"rental_uris":{"android":"levelo://app?vid=5d8cc962-a906-41fb-854a-c674130cfb76","ios":"levelo://app?vid=5d8cc962-a906-41fb-854a-c674130cfb76"},"vehicle_type_id":"4","last_reported":1745230240,"current_range_meters":24400,"station_id":"ce4bgt92rcd13ifvqcf0","pricing_plan_id":"cebpf4jnsgd1na2vs0mg"},{"bike_id":"ce5a8cd1-d49a-4e05-953b-3a550482565e","system_id":"levelo_inurba_marseille","lat":43.27044,"lon":5.4027,"is_reserved":false,"is_disabled":false,"rental_uris":{"android":"levelo://app?vid=ce5a8cd1-d49a-4e05-953b-3a550482565e","ios":"levelo://app?vid=ce5a8cd1-d49a-4e05-953b-3a550482565e"},