{"last_updated":1735193600,"ttl":60,"version":"2.2","data":{"bikes":[{"bike_id":"5ebb1a0d-b940-42db-872d-a4e1cbd004a8","system_id":"levelo_inurba_marseille","lat":43.304386,"lon":5.388823,"is_reserved":false,"is_disabled":false,"rental_uris":{"android":"levelo://app?vid=5ebb1a0d-b940-42db-872d-a4e1cbd004a8","ios":"levelo://app?vid=5ebb1a0d-b940-42db-872d-a4e1cbd004a8"},"vehicle_type_id":"4","last_reported":1735193601,"current_range_meters":36000,"station_id":"ce4bgk12rcd13ifvqbi0","pricing_plan_id":"cebpf4jnsgd1na2vs0mg"},{"bike_id":"75c516d3-a5cc-4035-8666-739d671df90f","system_id":"levelo_inurba_marseille","lat":43.29944,"lon":5.38522,"is_reserved":false,"is_disabled":false,"rental_uris":{"android":"levelo://app?vid=75c516d3-a5cc-4035-8666-739d671df90f","ios":"levelo://app?vid=75c516d3-a5cc-4035-8666-739d671df90f"},"vehicle_type_id":"4","last_reported":1735193601,"current_range_meters":26800,"station_id":"ce4bgj92rcd13ifvqbd0","pricing_plan_id":"cebpf4jnsgd1na2vs0mg"},{"bike_id":"7ace0ab7-afd4-498e-afbf-17c39c8f1a00","system_id":"levelo_inurba_marseille","lat":43.287258,"lon":5.360851,"is_reserved":false,"is_disabled":false,"rental_uris":{"android":"levelo://app?vid=7ace0ab7-afd4-498e-afbf-17c39c8f1a00","ios":"levelo://app?vid=7ace0ab7-afd4-498e-afbf-17c39c8f1a00"},"vehicle_type_id":"4","last_reported":1735193601,"current_range_meters":38800,"station_id":"cki0cbj6b192h4jlfktg","pricing_plan_id":"cebpf4jnsgd1na2vs0mg"},{"bike_id":"61d02b61-4c48-4933-81d9-598a890b3f4b","system_id":"levelo_inurba_marseille","lat":43.262,"lon":5.379289,"is_reserved":false,"is_disabled":false,"rental_uris":{"android":"levelo://app?vid=61d02b61-4c48-4933-81d9-598a890b3f4b","ios":"levelo://app?vid=61d02b61-4c48-4933-81d9-598a890b3f4b"},"vehicle_type_id":"4","last_reported":1735193601,"current_range_meters":24000,"station_id":"ce4bhjp2rcd13ifvqg90","pricing_plan_id":"cebpf4jnsgd1na2vs0mg"},{"bike_id":"b055144e-d10b-49cc-8e36-02e1d52ebe8e","system_id":"levelo_inurba_marseille","lat":43.291944,"lon":5.393337,"is_reserved":false,"is_disabled":false,"rental_uris":{"android":"levelo://app?vid=b055144e-d10b-49cc-8e36-02e1d52ebe8e","ios":"levelo://app?vid=b055144e-d10b-49cc-8e36-02e1d52ebe8e"},"vehicle_type_id":"4","last_reported":1735193601,"current_range_meters":38000,"station_id":"ce4bh192rcd13ifvqdd0","pricing_plan_id":"cebpf4jnsgd1na2vs0mg"},{"bike_id":"5d27f906-1466-4a87-a8f4-d767e2a40285","system_id":"levelo_inurba_marseille","lat":43.30639,"lon":5.4007,"is_reserved":false,"is_disabled":false,"rental_uris":{"android":"levelo://app?vid=5d27f906-1466-4a87-a8f4-d767e2a40285","ios":"levelo://app?vid=5d27f906-1466-4a87-a8f4-d767e2a40285"},"vehicle_type_id":"4","last_reported":1735193601,"current_range_meters":24000,"station_id":"ce4bh112rcd13ifvqda0","pricing_plan_id":"cebpf4jnsgd1na2vs0mg"},{"bike_id":"1f14806d-ae11-4061-998c-72dada3be529","system_id":"levelo_inurba_marseille","lat":43.289348,"lon":5.366293,"is_reserved":false,"is_disabled":false,"rental_uris":{"android":"levelo://app?vid=1f14806d-ae11-4061-998c-72dada3be529","ios":"levelo://app?vid=1f14806d-ae11-4061-998c-72dada3be529"},"vehicle_type_id":"4","last_reported":1735193601,"current_range_meters":38800,"station_id":"ce4bhap2rcd13ifvqek0","pricing_plan_id":"cebpf4jnsgd1na2vs0mg"},{"bike_id":"c4104ae7-6d71-4ed6-97ba-cf7a171100c7","system_id":"levelo_inurba_marseille","lat":43.309289,"lon":5.401678,"is_reserved":false,"is_disabled":false,"rental_uris":{"android":"levelo://app?vid=c4104ae7-6d71-4ed6-97ba-cf7a171100c7","ios":"levelo://app?vid=c4104ae7-6d71-4ed6-97ba-cf7a171100c7"},"vehicle_type_id":"4","last_reported":1735193601,"current_range_meters":27200,"station_id":"ce4bgvp2rcd13ifvqct0","pricing_plan_id":"cebpf4jnsgd1na2vs0mg"},{"bike_id":"e466eb3a-3291-451c-abf2-2b0e751b4651","system_id":"levelo_inurba_marseille","lat":43.336111,"lon":5.410155,"is_reserved":false,"is_disabled":false,"rental_uris":{"android":"levelo://app?vid=e466eb3a-3291-451c-abf2-2b0e751b4651","ios":"levelo://app?vid=e466eb3a-3291-451c-abf2-2b0e751b4651"},"vehicle_type_id":"4","last_reported":1735193601,"current_range_meters":38400,"station_id":"ce4bhqh2rcd13ifvqhmg","pricing_plan_id":"cebpf4jnsgd1na2vs0mg"},{"bike_id":"fb546e02-2e09-44f7-9ea2-612c74d3db5e","system_id":"levelo_inurba_marseille","lat":43.25493,"lon":5.37648,"is_reserved":false,"is_disabled":false,"rental_uris":{"android":"levelo://app?vid=fb546e02-2e09-44f7-9ea2-612c74d3db5e","ios":"levelo://app?vid=fb546e02-2e09-44f7-9ea2-612c74d3db5e"},"vehicle_type_id":"4","last_reported":1735193601,"current_range_meters":36400,"station_id":"ce4bhh12rcd13ifvqff0","pricing_plan_id":"cebpf4jnsgd1na2vs0mg"},{"bike_id":"fb83f742-e90f-4d0b-ba4a-f0317cadcdd0","system_id":"levelo_inurba_marseille","lat":43.24649,"lon":5.38905,"is_reserved":false,"is_disabled":false,"rental_uris":{"android":"levelo://app?vid=fb83f742-e90f-4d0b-ba4a-f0317cadcdd0","ios":"levelo://app?vid=fb83f742-e90f-4d0b-ba4a-f0317cadcdd0"},"vehicle_type_id":"4","last_reported":1735193601,"current_range_meters":8800,"station_id":"ce4bhg12rcd13ifvqf60","pricing_plan_id":"cebpf4jnsgd1na2vs0mg"},{"bike_id":"78d6264e-d5eb-46cb-9b58-a70cc6bbf1e2","system_id":"levelo_inurba_marseille","lat":43.28712,"lon":5.39979,"is_reserved":false,"is_disabled":false,"rental_uris":{"android":"levelo://app?vid=78d6264e-d5eb-46cb-9b58-a70cc6bbf1e2","ios":"levelo://app?vid=78d6264e-d5eb-46cb-9b58-a70cc6bbf1e2"},"vehicle_type_id":"4","last_reported":1735193601,"current_range_meters":21600,"station_id":"ce4bho92rcd13ifvqh3g","pricing_plan_id":"cebpf4jnsgd1na2vs0mg"},{"bike_id":"a72c1683-84b7-4493-b3ed-4c14ea80ae93","system_id":"levelo_inurba_marseille","lat":43.2757,"lon":5.38432,"is_reserved":false,"is_disabled":false,"rental_uris":{"android":"levelo://app?vid=a72c1683-84b7-4493-b3ed-4c14ea80ae93","ios":"levelo://app?vid=a72c1683-84b7-4493-b3ed-4c14ea80ae93"},"vehicle_type_id":"4","last_reported":1735193601,"current_range_meters":38800,"station_id":"ce4bhh92rcd13ifvqfi0","pricing_plan_id":"cebpf4jnsgd1na2vs0mg"},{"bike_id":"c1fcc791-11ee-469d-a683-f03934309cdd","system_id":"levelo_inurba_marseille","lat":43.27549,"lon":5.38443,"is_reserved":false,"is_disabled":false,"rental_uris":{"android":"levelo://app?vid=c1fcc791-11ee-469d-a683-f03934309cdd","ios":"levelo://app?vid=c1fcc791-11ee-469d-a683-f03934309cdd"},"vehicle_type_id":"4","last_reported":1735193601,"current_range_meters":32400,"station_id":"ce4bhh92rcd13ifvqfi0","pricing_plan_id":"cebpf4jnsgd1na2vs0mg"},{"bike_id":"b9c83c83-cf96-4e57-b709-6459d0acaf9f","system_id":"levelo_inurba_marseille","lat":43.26802,"lon":5.40266,"is_reserved":false,"is_disabled":false,"rental_uris":{"android":"levelo://app?vid=b9c83c83-cf96-4e57-b709-6459d0acaf9f","ios":"levelo://app?vid=b9c83c83-cf96-4e57-b709-6459d0acaf9f"},"vehicle_type_id":"4","last_reported":1735193601,"current_range_meters":38800,"station_id":"ce501612rcd8frsf0b60","pricing_plan_id":"cebpf4jnsgd1na2vs0mg"},{"bike_id":"b39d118e-0b38-4674-81f0-fa618bd4105d","system_id":"levelo_inurba_marseille","lat":43.30349,"lon":5.41877,"is_reserved":false,"is_disabled":false,"rental_uris":{"android":"levelo://app?vid=b39d118e-0b38-4674-81f0-fa618bd4105d","ios":"levelo://app?vid=b39d118e-0b38-4674-81f0-fa618bd4105d"},"vehicle_type_id":"4","last_reported":1735193601,"current_range_meters":37600,"station_id":"ce4bhop2rcd13ifvqh7g","pricing_plan_id":"cebpf4jnsgd1na2vs0mg"},{"bike_id":"b6ee9d6c-d1bd-4127-85e6-8d4ce3209754","system_id":"levelo_inurba_marseille","lat":43.3129,"lon":5.36801,"is_reserved":false,"is_disabled":false,"rental_uris":{"android":"levelo://app?vid=b6ee9d6c-d1bd-4127-85e6-8d4ce3209754","ios":"levelo://app?vid=b6ee9d6c-d1bd-4127-85e6-8d4ce3209754"},"vehicle_type_id":"4","last_reported":1735193601,"current_range_meters":38400,"station_id":"ce4bgr92rcd13ifvqc6g","pricing_plan_id":"cebpf4jnsgd1na2vs0mg"},{"bike_id":"d4663405-bee1-476b-a9e6-b188d9eda682","system_id":"levelo_inurba_marseille","lat":43.305361,"lon":5.366876,"is_reserved":false,"is_disabled":false,"rental_uris":{"android":"levelo://app?vid=d4663405-bee1-476b-a9e6-b188d9eda682","ios":"levelo://app?vid=d4663405-bee1-476b-a9e6-b188d9eda682"},"vehicle_type_id":"4","last_reported":1735193601,"current_range_meters":37600,"station_id":"ce4bgrp2rcd13ifvqc9g","pricing_plan_id":"cebpf4jnsgd1na2vs0mg"},{"bike_id":"e76cd31c-9401-4f43-89ef-f5e42b0b572d","system_id":"levelo_inurba_marseille","lat":43.27914,"lon":5.3799,"is_reserved":false,"is_disabled":false,"rental_uris":{"android":"levelo://app?vid=e76cd31c-9401-4f43-89ef-f5e42b0b572d","ios":"levelo://app?vid=e76cd31c-9401-4f43-89ef-f5e42b0b572d"},"vehicle_type_id":"4","last_reported":1735193601,"current_range_meters":14400,"station_id":"ce4bhf92rcd13ifvqf50","pricing_plan_id":"cebpf4jnsgd1na2vs0mg"},{"bike_id":"86c790d9-7551-4ac7-a8b7-adf3b37d61d8","system_id":"levelo_inurba_marseille","lat":43.29786,"lon":5.39353,"is_reserved":false,"is_disabled":false,"rental_uris":{"android":"levelo://app?vid=86c790d9-7551-4ac7-a8b7-adf3b37d61d8","ios":"levelo://app?vid=86c790d9-7551-4ac7-a8b7-adf3b37d61d8"},"vehicle_type_id":"4","last_reported":1735193601,"current_range_meters":17200,"station_id":"chh1huq6cuj3fo74tm60","pricing_plan_id":"cebpf4jnsgd1na2vs0mg"},{"bike_id":"fae4ce0f-3f83-469f-8019-b63e7c084b20","system_id":"levelo_inurba_marseille","lat":43.3035,"lon":5.4188,"is_reserved":false,"is_disabled":false,"rental_uris":{"android":"levelo://app?vid=fae4ce0f-3f83-469f-8019-b63e7c084b20","ios":"levelo://app?vid=fae4ce0f-3f83-469f-8019-b63e7c084b20"},"vehicle_type_id":"4","last_reported":1735193601,"current_range_meters":38800,"station_id":"ce4bhop2rcd13ifvqh7g","pricing_plan_id":"cebpf4jnsgd1na2vs0mg"},{"bike_id":"7bf56867-f147-4165-89ee-4c8ea1ec9c93","system_id":"levelo_inurba_marseille","lat":43.29894,"lon":5.43667,"is_reserved":false,"is_disabled":false,"rental_uris":{"android":"levelo://app?vid=7bf56867-f147-4165-89ee-4c8ea1ec9c93","ios":"levelo://app?vid=7bf56867-f147-4165-89ee-4c8ea1ec9c93"},"vehicle_type_id":"4","last_reported":1735193601,"current_range_meters":38800,"station_id":"ce4bhpp2rcd13ifvqhfg","pricing_plan_id":"cebpf4jnsgd1na2vs0mg"},{"bike_id":"857344dd-6be1-4d34-90e7-6f62afbbef2e","system_id":"levelo_inurba_marseille","lat":43.32105,"lon":5.367781,"is_reserved":false,"is_disabled":false,"rental_uris":{"android":"levelo://app?vid=857344dd-6be1-4d34-90e7-6f62afbbef2e","ios":"levelo://app?vid=857344dd-6be1-4d34-90e7-6f62afbbef2e"},"vehicle_type_id":"4","last_reported":1735193601,"current_range_meters":12400,"station_id":"ce4bhrh2rcd13ifvqhug","pricing_plan_id":"cebpf4jnsgd1na2vs0mg"},{"bike_id":"34238580-2e87-4ced-a225-bbec73dfe5c9","system_id":"levelo_inurba_marseille","lat":43.29561,"lon":5.37527,"is_reserved":false,"is_disabled":false,"rental_uris":{"android":"levelo://app?vid=34238580-2e87-4ced-a225-bbec73dfe5c9","ios":"levelo://app?vid=34238580-2e87-4ced-a225-bbec73dfe5c9"},"vehicle_type_id":"4","last_reported":1735193601,"current_range_meters":19600,"station_id":"ce4bgh92rcd13ifvqb50","pricing_plan_id":"cebpf4jnsgd1na2vs0mg"},{"bike_id":"745ce371-2ca1-4678-bf88-0c9996911240","system_id":"levelo_inurba_marseille","lat":43.29022,"lon":5.39974,"is_reserved":false,"is_disabled":false,"rental_uris":{"android":"levelo://app?vid=745ce371-2ca1-4678-bf88-0c9996911240","ios":"levelo://app?vid=745ce371-2ca1-4678-bf88-0c9996911240"},"vehicle_type_id":"4","last_reported":1735193601,"current_range_meters":38800,"station_id":"ce4bh392rcd13ifvqdm0","pricing_plan_id":"cebpf4jnsgd1na2vs0mg"},{"bike_id":"f773e386-c12e-4e9e-99c4-5a80f712c912","system_id":"levelo_inurba_marseille","lat":43.30534,"lon":5.36537,"is_reserved":false,"is_disabled":false,"rental_uris":{"android":"levelo://app?vid=f773e386-c12e-4e9e-99c4-5a80f712c912","ios":"levelo://app?vid=f773e386-c12e-4e9e-99c4-5a80f712c912"},"vehicle_type_id":"4","last_reported":1735193601,"current_range_meters":20000,"station_id":"ce4bgs12rcd13ifvqcag","pricing_plan_id":"cebpf4jnsgd1na2vs0mg"},{"bike_id":"17f69080-e6b6-4183-bb1a-ec9e95dddeea","system_id":"levelo_inurba_marseille","lat":43.29883,"lon":5.39743,"is_reserved":false,"is_disabled":false,"rental_uris":{"android":"levelo://app?vid=17f69080-e6b6-4183-bb1a-ec9e95dddeea","ios":"levelo://app?vid=17f69080-e6b6-4183-bb1a-ec9e95dddeea"},"vehicle_type_id":"4","last_reported":1735193601,"current_range_meters":38800,"station_id":"ce4bh0h2rcd13ifvqd50","pricing_plan_id":"cebpf4jnsgd1na2vs0mg"},{"bike_id":"903f257e-fcef-45f9-913f-d5beaa30d8b1","system_id":"levelo_inurba_marseille","lat":43.24163,"lon":5.36394,"is_reserved":false,"is_disabled":false,"rental_uris":{"android":"levelo://app?vid=903f257e-fcef-45f9-913f-d5beaa30d8b1","ios":"levelo://app?vid=903f257e-fcef-45f9-913f-d5beaa30d8b1"},"vehicle_type_id":"4","last_reported":1735193601,"current_range_meters":8800,"station_id":"cpo36qri1sfpv3e86is0","pricing_plan_id":"cebpf4jnsgd1na2vs0mg"},{"bike_id":"5724f0f6-9272-4116-9e0d-527a54caccc1","system_id":"levelo_inurba_marseille","lat":43.30445,"lon":5.38895,"is_reserved":false,"is_disabled":false,"rental_uris":{"android":"levelo://app?vid=5724f0f6-9272-4116-9e0d-527a54caccc1","ios":"levelo://app?vid=5724f0f6-9272-4116-9e0d-527a54caccc1"},"vehicle_type_id":"4","last_reported":1735193601,"current_range_meters":8000,"station_id":"ce4bgk12rcd13ifvqbi0","pricing_plan_id":"cebpf4jnsgd1na2vs0mg"},{"bike_id":"ad66ce9d-e2b2-4064-ae7f-fe87403c632b","system_id":"levelo_inurba_marseille","lat":43.23071,"lon":5.35509,"is_reserved":false,"is_disabled":false,"rental_uris":{"android":"levelo://app?vid=ad66ce9d-e2b2-4064-ae7f-fe87403c632b","ios":"levelo://app?vid=ad66ce9d-e2b2-4064-ae7f-fe87403c632b"},"vehicle_type_id":"4","last_reported":1735193601,"current_range_meters":30000,"station_id":"cpo3342slgdg3j2ifvpg","pricing_plan_id":"cebpf4jnsgd1na2vs0mg"},{"bike_id":"b76cea7e-5025-4e14-a8c7-eebf31292c4c","system_id":"levelo_inurba_marseille","lat":43.26066,"lon":5.39385,"is_reserved":false,"is_disabled":false,"rental_uris":{"android":"levelo://app?vid=b76cea7e-5025-4e14-a8c7-eebf31292c4c","ios":"levelo://app?vid=b76cea7e-5025-4e14-a8c7-eebf31292c4c"},"vehicle_type_id":"4","last_reported":1735193601,"current_range_meters":16000,"station_id":"ce4bhh92rcd13ifvqfj0","pricing_plan_id":"cebpf4jnsgd1na2vs0mg"},{"bike_id":"d55d74e9-1e47-49af-ac93-3822e51c970c","system_id":"levelo_inurba_marseille","lat":43.295849,"lon":5.367448,"is_reserved":false,"is_disabled":false,"rental_uris":{"android":"levelo://app?vid=d55d74e9-1e47-49af-ac93-3822e51c970c","ios":"levelo://app?vid=d55d74e9-1e47-49af-ac93-3822e51c970c"},"vehicle_type_id":"4","last_reported":1735193601,"current_range_meters":36800,"station_id":"ce4bgph2rcd13ifvqc2g","pricing_plan_id":"cebpf4jnsgd1na2vs0mg"},{"bike_id":"7e6cba1e-3f1d-4bb6-9e51-53f794d9e7b1","system_id":"levelo_inurba_marseille","lat":43.31484,"lon":5.37311,"is_reserved":false,"is_disabled":false,"rental_uris":{"android":"levelo://app?vid=7e6cba1e-3f1d-4bb6-9e51-53f794d9e7b1","ios":"levelo://app?vid=7e6cba1e-3f1d-4bb6-9e51-53f794d9e7b1"},"vehicle_type_id":"4","last_reported":1735193601,"current_range_meters":36000,"station_id":"ce4bgt12rcd13ifvqcd0","pricing_plan_id":"cebpf4jnsgd1na2vs0mg"},{"bike_id":"85d789bc-1620-42d9-96a0-d409b4a85f5c","system_id":"levelo_inurba_marseille","lat":43.29557,"lon":5.42277,"is_reserved":false,"is_disabled":false,"rental_uris":{"android":"levelo://app?vid=85d789bc-1620-42d9-96a0-d409b4a85f5c","ios":"levelo://app?vid=85d789bc-1620-42d9-96a0-d409b4a85f5c"},"vehicle_type_id":"4","last_reported":1735193601,"current_range_meters":25600,"station_id":"ce4bhph2rcd13ifvqhdg","pricing_plan_id":"cebpf4jnsgd1na2vs0mg"},{"bike_id":"d0533ccb-11ce-46dc-9cca-daa9f7a4985a","system_id":"levelo_inurba_marseille","lat":43.29578,"lon":5.42272,"is_reserved":false,"is_disabled":false,"rental_uris":{"android":"levelo://app?vid=d0533ccb-11ce-46dc-9cca-daa9f7a4985a","ios":"levelo://app?vid=d0533ccb-11ce-46dc-9cca-daa9f7a4985a"},"vehicle_type_id":"4","last_reported":1735193601,"current_range_meters":38800,"station_id":"ce4bhph2rcd13ifvqhdg","pricing_plan_id":"cebpf4jnsgd1na2vs0mg"},{"bike_id":"c762c486-1d89-4854-afed-dd655f113adb","system_id":"levelo_inurba_marseille","lat":43.28463,"lon":5.35891,"is_reserved":false,"is_disabled":false,"rental_uris":{"android":"levelo://app?vid=c762c486-1d89-4854-afed-dd655f113adb","ios":"levelo://app?vid=c762c486-1d89-4854-afed-dd655f113adb"},"vehicle_type_id":"4","last_reported":1735193601,"current_range_meters":33600,"station_id":"ce4bhah2rcd13ifvqei0","pricing_plan_id":"cebpf4jnsgd1na2vs0mg"},{"bike_id":"cf518016-d1ce-4ace-8d0b-545e5b93f880","system_id":"levelo_inurba_marseille","lat":43.34155,"lon":5.40905,"is_reserved":false,"is_disabled":false,"rental_uris":{"android":"levelo://app?vid=cf518016-d1ce-4ace-8d0b-545e5b93f880","ios":"levelo://app?vid=cf518016-d1ce-4ace-8d0b-545e5b93f880"},"vehicle_type_id":"4","last_reported":1735193601,"current_range_meters":38800,"station_id":"ce4bhqh2rcd13ifvqhlg","pricing_plan_id":"cebpf4jnsgd1na2vs0mg"},{"bike_id":"5d29fc56-dbb2-4006-96bc-27e181f8d4f5","system_id":"levelo_inurba_marseille","lat":43.298529,"lon":5.362821,"is_reserved":false,"is_disabled":false,"rental_uris":{"android":"levelo://app?vid=5d29fc56-dbb2-4006-96bc-27e181f8d4f5","ios":"levelo://app?vid=5d29fc56-dbb2-4006-96bc-27e181f8d4f5"},"vehicle_type_id":"4","last_reported":1735193601,"current_range_meters":27600,"station_id":"ce4bgpp2rcd13ifvqc3g","pricing_plan_id":"cebpf4jnsgd1na2vs0mg"},{"bike_id":"b32fb18a-c8a8-4404-98aa-9a585746a89d","system_id":"levelo_inurba_marseille","lat":43.32063,"lon":5.41525,"is_reserved":false,"is_disabled":false,"rental_uris":{"android":"levelo://app?vid=b32fb18a-c8a8-4404-98aa-9a585746a89d","ios":"levelo://app?vid=b32fb18a-c8a8-4404-98aa-9a585746a89d"},"vehicle_type_id":"4","last_reported":1735193601,"current_range_meters":33600,"station_id":"ce4bhq92rcd13ifvqhkg","pricing_plan_id":"cebpf4jnsgd1na2vs0mg"},{"bike_id":"369cb1fc-6189-432f-850e-8f7243bebd08","system_id":"levelo_inurba_marseille","lat":43.299701,"lon":5.385026,"is_reserved":false,"is_disabled":true,"rental_uris":{"android":"levelo://app?vid=369cb1fc-6189-432f-850e-8f7243bebd08","ios":"levelo://app?vid=369cb1fc-6189-432f-850e-8f7243bebd08"},"vehicle_type_id":"4","last_reported":1735193601,"current_range_meters":38800,"station_id":"ce4bgj92rcd13ifvqbd0","pricing_plan_id":"cebpf4jnsgd1na2vs0mg"},{"bike_id":"249ae69f-0c4d-44b5-a674-a80b1a677100","system_id":"levelo_inurba_marseille","lat":43.231857,"lon":5.399792,"is_reserved":false,"is_disabled":false,"rental_uris":{"android":"levelo://app?vid=249ae69f-0c4d-44b5-a674-a80b1a677100","ios":"levelo://app?vid=249ae69f-0c4d-44b5-a674-a80b1a677100"},"vehicle_type_id":"4","last_reported":1735193601,"current_range_meters":12000,"station_id":"ce4bhn12rcd13ifvqgqg","pricing_plan_id":"cebpf4jnsgd1na2vs0mg"},{"bike_id":"7ca2e3d6-4ca3-4d99-b34e-9fb53337dde8","system_id":"levelo_inurba_marseille","lat":43.24162,"lon":5.36397,"is_reserved":false,"is_disabled":false,"rental_uris":{"android":"levelo://app?vid=7ca2e3d6-4ca3-4d99-b34e-9fb53337dde8","ios":"levelo://app?vid=7ca2e3d6-4ca3-4d99-b34e-9fb53337dde8"},"vehicle_type_id":"4","last_reported":1735193601,"current_range_meters":13600,"station_id":"cpo36qri1sfpv3e86is0","pricing_plan_id":"cebpf4jnsgd1na2vs0mg"},{"bike_id":"61b6d437-e950-46a2-8cbf-76c4bc393d6f","system_id":"levelo_inurba_marseille","lat":43.270744,"lon":5.42274,"is_reserved":false,"is_disabled":false,"rental_uris":{"android":"levelo://app?vid=61b6d437-e950-46a2-8cbf-76c4bc393d6f","ios":"levelo://app?vid=61b6d437-e950-46a2-8cbf-76c4bc393d6f"},"vehicle_type_id":"4","last_reported":1735193601,"current_range_meters":11200,"station_id":"ce4bhk92rcd13ifvqgb0","pricing_plan_id":"cebpf4jnsgd1na2vs0mg"},{"bike_id":"ee09bb5a-418e-4e4b-aa9d-02cb6f33df58","system_id":"levelo_inurba_marseille","lat":43.30209,"lon":5.39473,"is_reserved":false,"is_disabled":false,"rental_uris":{"android":"levelo://app?vid=ee09bb5a-418e-4e4b-aa9d-02cb6f33df58","ios":"levelo://app?vid=ee09bb5a-418e-4e4b-aa9d-02cb6f33df58"},"vehicle_type_id":"4","last_reported":1735193601,"current_range_meters":6800,"station_id":"ce4bh0p2rcd13ifvqd70","pricing_plan_id":"cebpf4jnsgd1na2vs0mg"},{"bike_id":"7ec3319e-e8cc-404b-a9a7-29fe820e2e42","system_id":"levelo_inurba_marseille","lat":43.2621,"lon":5.37449,"is_reserved":false,"is_disabled":false,"rental_uris":{"android":"levelo://app?vid=7ec3319e-e8cc-404b-a9a7-29fe820e2e42","ios":"levelo://app?vid=7ec3319e-e8cc-404b-a9a7-29fe820e2e42"},"vehicle_type_id":"4","last_reported":1735193601,"current_range_meters":22400,"station_id":"ce4bhgp2rcd13ifvqfc0","pricing_plan_id":"cebpf4jnsgd1na2vs0mg"},{"bike_id":"3c95ea0b-053a-4c01-af11-27d14bb38759","system_id":"levelo_inurba_marseille","lat":43.305544,"lon":5.367082,"is_reserved":false,"is_disabled":false,"rental_uris":{"android":"levelo://app?vid=3c95ea0b-053a-4c01-af11-27d14bb38759","ios":"levelo://app?vid=3c95ea0b-053a-4c01-af11-27d14bb38759"},"vehicle_type_id":"4","last_reported":1735193601,"current_range_meters":24400,"station_id":"ce4bgrp2rcd13ifvqc9g","pricing_plan_id":"cebpf4jnsgd1na2vs0mg"},{"bike_id":"23e25e04-dd29-4836-8ab5-f117edae0dca","system_id":"levelo_inurba_marseille","lat":43.30128,"lon":5.37417,"is_reserved":false,"is_disabled":false,"rental_uris":{"android":"levelo://app?vid=23e25e04-dd29-4836-8ab5-f117edae0dca","ios":"levelo://app?vid=23e25e04-dd29-4836-8ab5-f117edae0dca"},"vehicle_type_id":"4","last_reported":1735193601,"current_range_meters":38800,"station_id":"ce4bgs92rcd13ifvqcc0","pricing_plan_id":"cebpf4jnsgd1na2vs0mg"},{"bike_id":"2b32f2fd-c423-430c-8c50-af4c8ca4051b","system_id":"levelo_inurba_marseille","lat":43.308846,"lon":5.396449,"is_reserved":false,"is_disabled":false,"rental_uris":{"android":"levelo://app?vid=2b32f2fd-c423-430c-8c50-af4c8ca4051b","ios":"levelo://app?vid=2b32f2fd-c423-430c-8c50-af4c8ca4051b"},"vehicle_type_id":"4","last_reported":1735193601,"current_range_meters":28000,"station_id":"ce4bh012rcd13ifvqcv0","pricing_plan_id":"cebpf4jnsgd1na2vs0mg"},{"bike_id":"b83de0f4-e7b8-401e-80b8-8efd9a39b487","system_id":"levelo_inurba_marseille","lat":43.28433,"lon":5.39187,"is_reserved":false,"is_disabled":false,"rental_uris":{"android":"levelo://app?vid=b83de0f4-e7b8-401e-80b8-8efd9a39b487","ios":"levelo://app?vid=b83de0f4-e7b8-401e-80b8-8efd9a39b487"},"vehicle_type_id":"4","last_reported":1735193601,"current_range_meters":38800,"station_id":"ce4bhoh2rcd13ifvqh5g","pricing_plan_id":"cebpf4jnsgd1na2vs0mg"},{"bike_id":"40c0bad0-8626-4c9b-b59b-9fad04a61df9","system_id":"levelo_inurba_marseille","lat":43.28371,"lon":5.386324,"is_reserved":false,"is_disabled":false,"rental_uris":{"android":"levelo://app?vid=40c0bad0-8626-4c9b-b59b-9fad04a61df9","ios":"levelo://app?vid=40c0bad0-8626-4c9b-b59b-9fad04a61df9"},"vehicle_type_id":"4","last_reported":1735193601,"current_range_meters":38800,"station_id":"ce4bh492rcd13ifvqdvg","pricing_plan_id":"cebpf4jnsgd1na2vs0mg"},{"bike_id":"88a2a5ff-5c3d-48ce-96cd-d3b432d61753","system_id":"levelo_inurba_marseille","lat":43.31286,"lon":5.40164,"is_reserved":false,"is_disabled":false,"rental_uris":{"android":"levelo://app?vid=88a2a5ff-5c3d-48ce-96cd-d3b432d61753","ios":"levelo://app?vid=88a2a5ff-5c3d-48ce-96cd-d3b432d61753"},"vehicle_type_id":"4","last_reported":1735193601,"current_range_meters":32400,"station_id":"ce4bh092rcd13ifvqd30","pricing_plan_id":"cebpf4jnsgd1na2vs0mg"},{"bike_id":"23f223a7-cc44-4227-b5c8-9b31a8c11b36","system_id":"levelo_inurba_marseille","lat":43.32046,"lon":5.4156,"is_reserved":false,"is_disabled":false,"rental_uris":{"android":"levelo://app?vid=23f223a7-cc44-4227-b5c8-9b31a8c11b36","ios":"levelo://app?vid=23f223a7-cc44-4227-b5c8-9b31a8c11b36"},"vehicle_type_id":"4","last_reported":1735193601,"current_range_meters":27600,"station_id":"ce4bhq92rcd13ifvqhkg","pricing_plan_id":"cebpf4jnsgd1na2vs0mg"},{"bike_id":"fee3cbd0-df5a-47f8-89c6-147e1b7d89ec","system_id":"levelo_inurba_marseille","lat":43.3047,"lon":5.37909,"is_reserved":false,"is_disabled":false,"rental_uris":{"android":"levelo://app?vid=fee3cbd0-df5a-47f8-89c6-147e1b7d89ec","ios":"levelo://app?vid=fee3cbd0-df5a-47f8-89c6-147e1b7d89ec"},"vehicle_type_id":"4","last_reported":1735193601,"current_range_meters":32000,"station_id":"ce4bgup2rcd13ifvqcn0","pricing_plan_id":"cebpf4jnsgd1na2vs0mg"},{"bike_id":"e0e900c2-54ec-4c86-b19c-6bdbedf2d726","system_id":"levelo_inurba_marseille","lat":43.28479,"lon":5.38562,"is_reserved":false,"is_disabled":false,"rental_uris":{"android":"levelo://app?vid=e0e900c2-54ec-4c86-b19c-6bdbedf2d726","ios":"levelo://app?vid=e0e900c2-54ec-4c86-b19c-6bdbedf2d726"},"vehicle_type_id":"4","last_reported":1735193601,"current_range_meters":21600,"station_id":"ce4bh8p2rcd13ifvqeb0","pricing_plan_id":"cebpf4jnsgd1na2vs0mg"},{"bike_id":"19c0a0c0-9857-43fa-bca0-8d8e9d966de8","system_id":"levelo_inurba_marseille","lat":43.319,"lon":5.40737,"is_reserved":false,"is_disabled":false,"rental_uris":{"android":"levelo://app?vid=19c0a0c0-9857-43fa-bca0-8d8e9d966de8","ios":"levelo://app?vid=19c0a0c0-9857-43fa-bca0-8d8e9d966de8"},"vehicle_type_id":"4","last_reported":1735193601,"current_range_meters":38800,"station_id":"ce4bhq12rcd13ifvqhig","pricing_plan_id":"cebpf4jnsgd1na2vs0mg"},{"bike_id":"fa7b6f51-07ff-4e1f-ba75-2880fb9ee1b2","system_id":"levelo_inurba_marseille","lat":43.241706,"lon":5.364144,"is_reserved":false,"is_disabled":false,"rental_uris":{"android":"levelo://app?vid=fa7b6f51-07ff-4e1f-ba75-2880fb9ee1b2","ios":"levelo://app?vid=fa7b6f51-07ff-4e1f-ba75-2880fb9ee1b2"},"vehicle_type_id":"4","last_reported":1735193601,"current_range_meters":28000,"station_id":"cpo36qri1sfpv3e86is0","pricing_plan_id":"cebpf4jnsgd1na2vs0mg"},{"bike_id":"9ff763ff-e414-4d0e-8bb9-b34d48217a3e","system_id":"levelo_inurba_marseille","lat":43.23193,"lon":5.3998,"is_reserved":false,"is_disabled":false,"rental_uris":{"android":"levelo://app?vid=9ff763ff-e414-4d0e-8bb9-b34d48217a3e","ios":"levelo://app?vid=9ff763ff-e414-4d0e-8bb9-b34d48217a3e"},"vehicle_type_id":"4","last_reported":1735193601,"current_range_meters":10800,"station_id":"ce4bhn12rcd13ifvqgqg","pricing_plan_id":"cebpf4jnsgd1na2vs0mg"},{"bike_id":"ee50f761-bbef-4b74-be18-015802b7cf0f","system_id":"levelo_inurba_marseille","lat":43.33107,"lon":5.39222,"is_reserved":false,"is_disabled":false,"rental_uris":{"android":"levelo://app?vid=ee50f761-bbef-4b74-be18-015802b7cf0f","ios":"levelo://app?vid=ee50f761-bbef-4b74-be18-015802b7cf0f"},"vehicle_type_id":"4","last_reported":1735193601,"current_range_meters":15200,"station_id":"","pricing_plan_id":"cebpf4jnsgd1na2vs0mg"},{"bike_id":"50f50bdd-bdce-4362-a157-c43af826c5ff","system_id":"levelo_inurba_marseille","lat":43.28074,"lon":5.39641,"is_reserved":false,"is_disabled":false,"rental_uris":{"android":"levelo://app?vid=50f50bdd-bdce-4362-a157-c43af826c5ff","ios":"levelo://app?vid=50f50bdd-bdce-4362-a157-c43af826c5ff"},"vehicle_type_id":"4","last_reported":1735193601,"current_range_meters":28800,"station_id":"ce4bho12rcd13ifvqh2g","pricing_plan_id":"cebpf4jnsgd1na2vs0mg"},{"bike_id":"b6dc9db8-cf3c-4b13-ab92-e0518ea0faf7","system_id":"levelo_inurba_marseille","lat":43.231865,"lon":5.399911,"is_reserved":false,"is_disabled":false,"rental_uris":{"android":"levelo://app?vid=b6dc9db8-cf3c-4b13-ab92-e0518ea0faf7","ios":"levelo://app?vid=b6dc9db8-cf3c-4b13-ab92-e0518ea0faf7"},"vehicle_type_id":"4","last_reported":1735193601,"current_range_meters":7200,"station_id":"ce4bhn12rcd13ifvqgqg","pricing_plan_id":"cebpf4jnsgd1na2vs0mg"},{"bike_id":"81bec969-1a90-43d9-83c6-f89e1596bc17","system_id":"levelo_inurba_marseille","lat":43.301422,"lon":5.374303,"is_reserved":false,"is_disabled":false,"rental_uris":{"android":"levelo://app?vid=81bec969-1a90-43d9-83c6-f89e1596bc17","ios":"levelo://app?vid=81bec969-1a90-43d9-83c6-f89e1596bc17"},"vehicle_type_id":"4","last_reported":1735193601,"current_range_meters":28400,"station_id":"ce4bgs92rcd13ifvqcc0","pricing_plan_id":"cebpf4jnsgd1na2vs0mg"},{"bike_id":"72d44dec-5ce4-48f0-b9fc-11e019b5bce0","system_id":"levelo_inurba_marseille","lat":43.29598,"lon":5.38096,"is_reserved":false,"is_disabled":false,"rental_uris":{"android":"levelo://app?vid=72d44dec-5ce4-48f0-b9fc-11e019b5bce0","ios":"levelo://app?vid=72d44dec-5ce4-48f0-b9fc-11e019b5bce0"},"vehicle_type_id":"4","last_reported":1735193601,"current_range_meters":24800,"station_id":"ce4bgl12rcd13ifvqbo0","pricing_plan_id":"cebpf4jnsgd1na2vs0mg"},{"bike_id":"6158cb83-2d77-4dc9-bbd7-a123e9b17c67","system_id":"levelo_inurba_marseille","lat":43.285683,"lon":5.395013,"is_reserved":false,"is_disabled":false,"rental_uris":{"android":"levelo://app?vid=6158cb83-2d77-4dc9-bbd7-a123e9b17c67","ios":"levelo://app?vid=6158cb83-2d77-4dc9-bbd7-a123e9b17c67"},"vehicle_type_id":"4","last_reported":1735193601,"current_range_meters":38000,"station_id":"ce4bh292rcd13ifvqdg0","pricing_plan_id":"cebpf4jnsgd1na2vs0mg"},{"bike_id":"a75bbc23-aa3f-44bd-8bd9-1b76f294eba0","system_id":"levelo_inurba_marseille","lat":43.28488,"lon":5.38568,"is_reserved":false,"is_disabled":false,"rental_uris":{"android":"levelo://app?vid=a75bbc23-aa3f-44bd-8bd9-1b76f294eba0","ios":"levelo://app?vid=a75bbc23-aa3f-44bd-8bd9-1b76f294eba0"},"vehicle_type_id":"4","last_reported":1735193601,"current_range_meters":35200,"station_id":"ce4bh8p2rcd13ifvqeb0","pricing_plan_id":"cebpf4jnsgd1na2vs0mg"},{"bike_id":"1f9a219f-6771-4547-a412-3c103ad15f6d","system_id":"levelo_inurba_marseille","lat":43.292734,"lon":5.36841,"is_reserved":false,"is_disabled":false,"rental_uris":{"android":"levelo://app?vid=1f9a219f-6771-4547-a412-3c103ad15f6d","ios":"levelo://app?vid=1f9a219f-6771-4547-a412-3c103ad15f6d"},"vehicle_type_id":"4","last_reported":1735193601,"current_range_meters":8400,"station_id":"ce4bhbp2rcd13ifvqesg","pricing_plan_id":"cebpf4jnsgd1na2vs0mg"},{"bike_id":"21f1959c-9397-4e64-a030-86a94f9a2a3e","system_id":"levelo_inurba_marseille","lat":43.30099,"lon":5.39076,"is_reserved":false,"is_disabled":false,"rental_uris":{"android":"levelo://app?vid=21f1959c-9397-4e64-a030-86a94f9a2a3e","ios":"levelo://app?vid=21f1959c-9397-4e64-a030-86a94f9a2a3e"},"vehicle_type_id":"4","last_reported":1735193601,"current_range_meters":26800,"station_id":"ce4bh192rcd13ifvqdb0","pricing_plan_id":"cebpf4jnsgd1na2vs0mg"},{"bike_id":"fcaf1022-b8ca-4e5c-a198-375c8e01b7f0","system_id":"levelo_inurba_marseille","lat":43.29179,"lon":5.37173,"is_reserved":false,"is_disabled":false,"rental_uris":{"android":"levelo://app?vid=fcaf1022-b8ca-4e5c-a198-375c8e01b7f0","ios":"levelo://app?vid=fcaf1022-b8ca-4e5c-a198-375c8e01b7f0"},"vehicle_type_id":"4","last_reported":1735193601,"current_range_meters":38800,"station_id":"ce4bha92rcd13ifvqeh0","pricing_plan_id":"cebpf4jnsgd1na2vs0mg"},{"bike_id":"d2f0bcd7-d8c1-4482-89b0-acb7039bc842","system_id":"levelo_inurba_marseille","lat":43.30133,"lon":5.39866,"is_reserved":false,"is_disabled":false,"rental_uris":{"android":"levelo://app?vid=d2f0bcd7-d8c1-4482-89b0-acb7039bc842","ios":"levelo://app?vid=d2f0bcd7-d8c1-4482-89b0-acb7039bc842"},"vehicle_type_id":"4","last_reported":1735193601,"current_range_meters":27200,"station_id":"ce4bh0h2rcd13ifvqd40","pricing_plan_id":"cebpf4jnsgd1na2vs0mg"},{"bike_id":"3c079412-698a-4ad7-872c-5c56e449290c","system_id":"levelo_inurba_marseille","lat":43.23148,"lon":5.43725,"is_reserved":false,"is_disabled":false,"rental_uris":{"android":"levelo://app?vid=3c079412-698a-4ad7-872c-5c56e449290c","ios":"levelo://app?vid=3c079412-698a-4ad7-872c-5c56e449290c"},"vehicle_type_id":"4","last_reported":1735193601,"current_range_meters":28400,"station_id":"ce4bhmp2rcd13ifvqgog","pricing_plan_id":"cebpf4jnsgd1na2vs0mg"},{"bike_id":"fb13ffe1-d44f-4f0a-a9bd-d852e9a67074","system_id":"levelo_inurba_marseille","lat":43.31535,"lon":5.38025,"is_reserved":false,"is_disabled":false,"rental_uris":{"android":"levelo://app?vid=fb13ffe1-d44f-4f0a-a9bd-d852e9a67074","ios":"levelo://app?vid=fb13ffe1-d44f-4f0a-a9bd-d852e9a67074"},"vehicle_type_id":"4","last_reported":1735193601,"current_range_meters":38000,"station_id":"ce4bhsp2rcd13ifvqi50","pricing_plan_id":"cebpf4jnsgd1na2vs0mg"},{"bike_id":"86ae6257-84fd-4e32-b674-f23a136ab287","system_id":"levelo_inurba_marseille","lat":43.28939,"lon":5.39631,"is_reserved":false,"is_disabled":false,"rental_uris":{"android":"levelo://app?vid=86ae6257-84fd-4e32-b674-f23a136ab287","ios":"levelo://app?vid=86ae6257-84fd-4e32-b674-f23a136ab287"},"vehicle_type_id":"4","last_reported":1735193601,"current_range_meters":38800,"station_id":"ce4bh3h2rcd13ifvqdn0","pricing_plan_id":"cebpf4jnsgd1na2vs0mg"},{"bike_id":"09898dd2-84ad-4911-a21d-d1f0823964b3","system_id":"levelo_inurba_marseille","lat":43.29635,"lon":5.37729,"is_reserved":false,"is_disabled":false,"rental_uris":{"android":"levelo://app?vid=09898dd2-84ad-4911-a21d-d1f0823964b3","ios":"levelo://app?vid=09898dd2-84ad-4911-a21d-d1f0823964b3"},"vehicle_type_id":"4","last_reported":1735193601,"current_range_meters":38800,"station_id":"ce4bgi92rcd13ifvqb90","pricing_plan_id":"cebpf4jnsgd1na2vs0mg"},{"bike_id":"58c56aac-3eac-4d49-9d07-9220a6f69caf","system_id":"levelo_inurba_marseille","lat":43.28347,"lon":5.38107,"is_reserved":false,"is_disabled":false,"rental_uris":{"android":"levelo://app?vid=58c56aac-3eac-4d49-9d07-9220a6f69caf","ios":"levelo://app?vid=58c56aac-3eac-4d49-9d07-9220a6f69caf"},"vehicle_type_id":"4","last_reported":1735193601,"current_range_meters":33600,"station_id":"ce4bh412rcd13ifvqdr0","pricing_plan_id":"cebpf4jnsgd1na2vs0mg"},{"bike_id":"7608f1ad-6069-4760-9820-c5af492fd707","system_id":"levelo_inurba_marseille","lat":43.29582,"lon":5.36741,"is_reserved":false,"is_disabled":false,"rental_uris":{"android":"levelo://app?vid=7608f1ad-6069-4760-9820-c5af492fd707","ios":"levelo://app?vid=7608f1ad-6069-4760-9820-c5af492fd707"},"vehicle_type_id":"4","last_reported":1735193601,"current_range_meters":38000,"station_id":"ce4bgph2rcd13ifvqc2g","pricing_plan_id":"cebpf4jnsgd1na2vs0mg"},{"bike_id":"47a54073-9beb-4283-915b-53362887b984","system_id":"levelo_inurba_marseille","lat":43.28927,"lon":5.38395,"is_reserved":false,"is_disabled":false,"rental_uris":{"android":"levelo://app?vid=47a54073-9beb-4283-915b-53362887b984","ios":"levelo://app?vid=47a54073-9beb-4283-915b-53362887b984"},"vehicle_type_id":"4","last_reported":1735193601,"current_range_meters":28000,"station_id":"ce4bh612rcd13ifvqe6g","pricing_plan_id":"cebpf4jnsgd1na2vs0mg"},{"bike_id":"36e821ea-900d-4b10-9ad9-6e6d3167874a","system_id":"levelo_inurba_marseille","lat":43.293739,"lon":5.378364,"is_reserved":false,"is_disabled":false,"rental_uris":{"android":"levelo://app?vid=36e821ea-900d-4b10-9ad9-6e6d3167874a","ios":"levelo://app?vid=36e821ea-900d-4b10-9ad9-6e6d3167874a"},"vehicle_type_id":"4","last_reported":1735193601,"current_range_meters":38800,"station_id":"ce4bgjh2rcd13ifvqbf0","pricing_plan_id":"cebpf4jnsgd1na2vs0mg"},{"bike_id":"2ed0c379-21a4-416f-95e6-c6a4adae152d","system_id":"levelo_inurba_marseille","lat":43.299153,"lon":5.381514,"is_reserved":false,"is_disabled":false,"rental_uris":{"android":"levelo://app?vid=2ed0c379-21a4-416f-95e6-c6a4adae152d","ios":"levelo://app?vid=2ed0c379-21a4-416f-95e6-c6a4adae152d"},"vehicle_type_id":"4","last_reported":1735193601,"current_range_meters":28400,"station_id":"ce4bgj12rcd13ifvqbc0","pricing_plan_id":"cebpf4jnsgd1na2vs0mg"},{"bike_id":"6fc39219-982d-4feb-9b3b-e1ba4db40afe","system_id":"levelo_inurba_marseille","lat":43.296,"lon":5.38103,"is_reserved":false,"is_disabled":false,"rental_uris":{"android":"levelo://app?vid=6fc39219-982d-4feb-9b3b-e1ba4db40afe","ios":"levelo://app?vid=6fc39219-982d-4feb-9b3b-e1ba4db40afe"},"vehicle_type_id":"4","last_reported":1735193601,"current_range_meters":38800,"station_id":"ce4bgl12rcd13ifvqbo0","pricing_plan_id":"cebpf4jnsgd1na2vs0mg"},{"bike_id":"e73e6057-e6e9-407b-a17e-f4e119a96aba","system_id":"levelo_inurba_marseille","lat":43.32109,"lon":5.36777,"is_reserved":false,"is_disabled":false,"rental_uris":{"android":"levelo://app?vid=e73e6057-e6e9-407b-a17e-f4e119a96aba","ios":"levelo://app?vid=e73e6057-e6e9-407b-a17e-f4e119a96aba"},"vehicle_type_id":"4","last_reported":1735193601,"current_range_meters":28000,"station_id":"ce4bhrh2rcd13ifvqhug","pricing_plan_id":"cebpf4jnsgd1na2vs0mg"},{"bike_id":"ddd389e5-f1c8-42a2-8866-5a23cc53893c","system_id":"levelo_inurba_marseille","lat":43.24664,"lon":5.38158,"is_reserved":false,"is_disabled":false,"rental_uris":{"android":"levelo://app?vid=ddd389e5-f1c8-42a2-8866-5a23cc53893c","ios":"levelo://app?vid=ddd389e5-f1c8-42a2-8866-5a23cc53893c"},"vehicle_type_id":"4","last_reported":1735193601,"current_range_meters":38000,"station_id":"ce4bhih2rcd13ifvqfr0","pricing_plan_id":"cebpf4jnsgd1na2vs0mg"},{"bike_id":"565d5cd4-03a8-460c-93ea-b6f10798ede0","system_id":"levelo_inurba_marseille","lat":43.29839,"lon":5.36273,"is_reserved":false,"is_disabled":false,"rental_uris":{"android":"levelo://app?vid=565d5cd4-03a8-460c-93ea-b6f10798ede0","ios":"levelo://app?vid=565d5cd4-03a8-460c-93ea-b6f10798ede0"},"vehicle_type_id":"4","last_reported":1735193601,"current_range_meters":39200,"station_id":"ce4bgpp2rcd13ifvqc3g","pricing_plan_id":"cebpf4jnsgd1na2vs0mg"},{"bike_id":"5ea46888-81a7-43b6-94b8-06274ed4d4cf","system_id":"levelo_inurba_marseille","lat":43.30313,"lon":5.36904,"is_reserved":false,"is_disabled":true,"rental_uris":{"android":"levelo://app?vid=5ea46888-81a7-43b6-94b8-06274ed4d4cf","ios":"levelo://app?vid=5ea46888-81a7-43b6-94b8-06274ed4d4cf"},"vehicle_type_id":"4","last_reported":1735193601,"current_range_meters":37600,"station_id":"ce4bgqh2rcd13ifvqc5g","pricing_plan_id":"cebpf4jnsgd1na2vs0mg"},{"bike_id":"7229805d-820e-4381-aa07-8ea31958c18a","system_id":"levelo_inurba_marseille","lat":43.30886,"lon":5.39641,"is_reserved":false,"is_disabled":false,"rental_uris":{"android":"levelo://app?vid=7229805d-820e-4381-aa07-8ea31958c18a","ios":"levelo://app?vid=7229805d-820e-4381-aa07-8ea31958c18a"},"vehicle_type_id":"4","last_reported":1735193601,"current_range_meters":24000,"station_id":"ce4bh012rcd13ifvqcv0","pricing_plan_id":"cebpf4jnsgd1na2vs0mg"},{"bike_id":"8b592455-e35e-4b61-958e-d89bddddeca2","system_id":"levelo_inurba_marseille","lat":43.2954,"lon":5.38535,"is_reserved":false,"is_disabled":false,"rental_uris":{"android":"levelo://app?vid=8b592455-e35e-4b61-958e-d89bddddeca2","ios":"levelo://app?vid=8b592455-e35e-4b61-958e-d89bddddeca2"},"vehicle_type_id":"4","last_reported":1735193601,"current_range_meters":37600,"station_id":"ce4bgih2rcd13ifvqba0","pricing_plan_id":"cebpf4jnsgd1na2vs0mg"},{"bike_id":"76bdf9c0-a3eb-452e-a555-b96478b69568","system_id":"levelo_inurba_marseille","lat":43.2319,"lon":5.35554,"is_reserved":false,"is_disabled":false,"rental_uris":{"android":"levelo://app?vid=76bdf9c0-a3eb-452e-a555-b96478b69568","ios":"levelo://app?vid=76bdf9c0-a3eb-452e-a555-b96478b69568"},"vehicle_type_id":"4","last_reported":1735193601,"current_range_meters":6400,"station_id":"ce4bhu92rcd13ifvqi70","pricing_plan_id":"cebpf4jnsgd1na2vs0mg"},{"bike_id":"fa4aab2c-881d-426e-9895-68cab6a2f78f","system_id":"levelo_inurba_marseille","lat":43.320384,"lon":5.415704,"is_reserved":false,"is_disabled":false,"rental_uris":{"android":"levelo://app?vid=fa4aab2c-881d-426e-9895-68cab6a2f78f","ios":"levelo://app?vid=fa4aab2c-881d-426e-9895-68cab6a2f78f"},"vehicle_type_id":"4","last_reported":1735193601,"current_range_meters":37600,"station_id":"ce4bhq92rcd13ifvqhkg","pricing_plan_id":"cebpf4jnsgd1na2vs0mg"},{"bike_id":"a8e2fbb7-cae9-4f59-8af3-a6479dec5939","system_id":"levelo_inurba_marseille","lat":43.30799,"lon":5.38153,"is_reserved":false,"is_disabled":false,"rental_uris":{"android":"levelo://app?vid=a8e2fbb7-cae9-4f59-8af3-a6479dec5939","ios":"levelo://app?vid=a8e2fbb7-cae9-4f59-8af3-a6479dec5939"},"vehicle_type_id":"4","last_reported":1735193601,"current_range_meters":32400,"station_id":"ce4bgt12rcd13ifvqce0","pricing_plan_id":"cebpf4jnsgd1na2vs0mg"},{"bike_id":"e3055757-4e5c-471b-bc49-10de19223f16","system_id":"levelo_inurba_marseille","lat":43.320447,"lon":5.415619,"is_reserved":false,"is_disabled":false,"rental_uris":{"android":"levelo://app?vid=e3055757-4e5c-471b-bc49-10de19223f16","ios":"levelo://app?vid=e3055757-4e5c-471b-bc49-10de19223f16"},"vehicle_type_id":"4","last_reported":1735193601,"current_range_meters":38800,"station_id":"ce4bhq92rcd13ifvqhkg","pricing_plan_id":"cebpf4jnsgd1na2vs0mg"},{"bike_id":"2982268b-01aa-4533-a44c-f31fb83c217d","system_id":"levelo_inurba_marseille","lat":43.2794,"lon":5.41041,"is_reserved":false,"is_disabled":false,"rental_uris":{"android":"levelo://app?vid=2982268b-01aa-4533-a44c-f31fb83c217d","ios":"levelo://app?vid=2982268b-01aa-4533-a44c-f31fb83c217d"},"vehicle_type_id":"4","last_reported":1735193601,"current_range_meters":34000,"station_id":"ce4bhnp2rcd13ifvqh0g","pricing_plan_id":"cebpf4jnsgd1na2vs0mg"},{"bike_id":"2d6fd443-b22c-4c7f-b10d-c55270ef2355","system_id":"levelo_inurba_marseille","lat":43.291754,"lon":5.371533,"is_reserved":false,"is_disabled":false,"rental_uris":{"android":"levelo://app?vid=2d6fd443-b22c-4c7f-b10d-c55270ef2355","ios":"levelo://app?vid=2d6fd443-b22c-4c7f-b10d-c55270ef2355"},"vehicle_type_id":"4","last_reported":1735193601,"current_range_meters":12400,"station_id":"ce4bha92rcd13ifvqeh0","pricing_plan_id":"cebpf4jnsgd1na2vs0mg"},{"bike_id":"3a580331-9372-4bb5-b733-a8f2ad942a85","system_id":"levelo_inurba_marseille","lat":43.30217,"lon":5.3947,"is_reserved":false,"is_disabled":false,"rental_uris":{"android":"levelo://app?vid=3a580331-9372-4bb5-b733-a8f2ad942a85","ios":"levelo://app?vid=3a580331-9372-4bb5-b733-a8f2ad942a85"},"vehicle_type_id":"4","last_reported":1735193601,"current_range_meters":27600,"station_id":"ce4bh0p2rcd13ifvqd70","pricing_plan_id":"cebpf4jnsgd1na2vs0mg"},{"bike_id":"ccdd99ca-f8cb-4748-a6e0-bf4351600cd0","system_id":"levelo_inurba_marseille","lat":43.24999,"lon":5.38924,"is_reserved":false,"is_disabled":false,"rental_uris":{"android":"levelo://app?vid=ccdd99ca-f8cb-4748-a6e0-bf4351600cd0","ios":"levelo://app?vid=ccdd99ca-f8cb-4748-a6e0-bf4351600cd0"},"vehicle_type_id":"4","last_reported":1735193601,"current_range_meters":38800,"station_id":"ce4bhgp2rcd13ifvqfd0","pricing_plan_id":"cebpf4jnsgd1na2vs0mg"},{"bike_id":"50e9988d-8c66-43a7-82cb-9818dcb38114","system_id":"levelo_inurba_marseille","lat":43.304294,"lon":5.397504,"is_reserved":false,"is_disabled":false,"rental_uris":{"android":"levelo://app?vid=50e9988d-8c66-43a7-82cb-9818dcb38114","ios":"levelo://app?vid=50e9988d-8c66-43a7-82cb-9818dcb38114"},"vehicle_type_id":"4","last_reported":1735193601,"current_range_meters":39200,"station_id":"ce4bh092rcd13ifvqd20","pricing_plan_id":"cebpf4jnsgd1na2vs0mg"},{"bike_id":"7eebd94f-62dd-4f50-bd1c-4d930e067322","system_id":"levelo_inurba_marseille","lat":43.30884,"lon":5.372,"is_reserved":false,"is_disabled":false,"rental_uris":{"android":"levelo://app?vid=7eebd94f-62dd-4f50-bd1c-4d930e067322","ios":"levelo://app?vid=7eebd94f-62dd-4f50-bd1c-4d930e067322"},"vehicle_type_id":"4","last_reported":1735193601,"current_range_meters":33200,"station_id":"ce4bguh2rcd13ifvqckg","pricing_plan_id":"cebpf4jnsgd1na2vs0mg"},{"bike_id":"15bbec24-7186-42cd-b0e0-aa9b8e89e04a","system_id":"levelo_inurba_marseille","lat":43.30318,"lon":5.36899,"is_reserved":false,"is_disabled":false,"rental_uris":{"android":"levelo://app?vid=15bbec24-7186-42cd-b0e0-aa9b8e89e04a","ios":"levelo://app?vid=15bbec24-7186-42cd-b0e0-aa9b8e89e04a"},"vehicle_type_id":"4","last_reported":1735193601,"current_range_meters":35600,"station_id":"ce4bgqh2rcd13ifvqc5g","pricing_plan_id":"cebpf4jnsgd1na2vs0mg"},{"bike_id":"dad6db58-f5bc-4da2-b0b4-3d5d1002166b","system_id":"levelo_inurba_marseille","lat":43.321102,"lon":5.367785,"is_reserved":false,"is_disabled":false,"rental_uris":{"android":"levelo://app?vid=dad6db58-f5bc-4da2-b0b4-3d5d1002166b","ios":"levelo://app?vid=dad6db58-f5bc-4da2-b0b4-3d5d1002166b"},"vehicle_type_id":"4","last_reported":1735193601,"current_range_meters":24000,"station_id":"ce4bhrh2rcd13ifvqhug","pricing_plan_id":"cebpf4jnsgd1na2vs0mg"},{"bike_id":"d215e6a3-2dbb-4240-82c4-dbdd5ce5595f","system_id":"levelo_inurba_marseille","lat":43.29906,"lon":5.38151,"is_reserved":false,"is_disabled":false,"rental_uris":{"android":"levelo://app?vid=d215e6a3-2dbb-4240-82c4-dbdd5ce5595f","ios":"levelo://app?vid=d215e6a3-2dbb-4240-82c4-dbdd5ce5595f"},"vehicle_type_id":"4","last_reported":1735193601,"current_range_meters":38800,"station_id":"ce4bgj12rcd13ifvqbc0","pricing_plan_id":"cebpf4jnsgd1na2vs0mg"},{"bike_id":"5288de5a-7b5d-49f6-a273-76e383ab7ff0","system_id":"levelo_inurba_marseille","lat":43.302996,"lon":5.392085,"is_reserved":false,"is_disabled":false,"rental_uris":{"android":"levelo://app?vid=5288de5a-7b5d-49f6-a273-76e383ab7ff0","ios":"levelo://app?vid=5288de5a-7b5d-49f6-a273-76e383ab7ff0"},"vehicle_type_id":"4","last_reported":1735193601,"current_range_meters":17200,"station_id":"ce4bgkh2rcd13ifvqbk0","pricing_plan_id":"cebpf4jnsgd1na2vs0mg"},{"bike_id":"45095e46-efd3-4bf4-a7bd-194de4098578","system_id":"levelo_inurba_marseille","lat":43.29032,"lon":5.3996,"is_reserved":false,"is_disabled":false,"rental_uris":{"android":"levelo://app?vid=45095e46-efd3-4bf4-a7bd-194de4098578","ios":"levelo://app?vid=45095e46-efd3-4bf4-a7bd-194de4098578"},"vehicle_type_id":"4","last_reported":1735193601,"current_range_meters":38800,"station_id":"ce4bh392rcd13ifvqdm0","pricing_plan_id":"cebpf4jnsgd1na2vs0mg"},{"bike_id":"c880705e-1b0a-4ec8-9ef6-ece26fe220cc","system_id":"levelo_inurba_marseille","lat":43.30885,"lon":5.37192,"is_reserved":false,"is_disabled":false,"rental_uris":{"android":"levelo://app?vid=c880705e-1b0a-4ec8-9ef6-ece26fe220cc","ios":"levelo://app?vid=c880705e-1b0a-4ec8-9ef6-ece26fe220cc"},"vehicle_type_id":"4","last_reported":1735193601,"current_range_meters":32000,"station_id":"ce4bguh2rcd13ifvqckg","pricing_plan_id":"cebpf4jnsgd1na2vs0mg"},{"bike_id":"4ffd7b60-3c47-45bc-8928-6a2fd1f7ad0e","system_id":"levelo_inurba_marseille","lat":43.29739,"lon":5.37686,"is_reserved":false,"is_disabled":false,"rental_uris":{"android":"levelo://app?vid=4ffd7b60-3c47-45bc-8928-6a2fd1f7ad0e","ios":"levelo://app?vid=4ffd7b60-3c47-45bc-8928-6a2fd1f7ad0e"},"vehicle_type_id":"4","last_reported":1735193601,"current_range_meters":38800,"station_id":"ce4bgkh2rcd13ifvqbl0","pricing_plan_id":"cebpf4jnsgd1na2vs0mg"},{"bike_id":"e46f4ca1-3688-40b5-95cb-8d693edab363","system_id":"levelo_inurba_marseille","lat":43.290424,"lon":5.359188,"is_reserved":false,"is_disabled":false,"rental_uris":{"android":"levelo://app?vid=e46f4ca1-3688-40b5-95cb-8d693edab363","ios":"levelo://app?vid=e46f4ca1-3688-40b5-95cb-8d693edab363"},"vehicle_type_id":"4","last_reported":1735193601,"current_range_meters":38000,"station_id":"ce4bha92rcd13ifvqeg0","pricing_plan_id":"cebpf4jnsgd1na2vs0mg"},{"bike_id":"7a437b8a-6fc7-43cf-8f4d-686b538e40b6","system_id":"levelo_inurba_marseille","lat":43.30668,"lon":5.40063,"is_reserved":false,"is_disabled":false,"rental_uris":{"android":"levelo://app?vid=7a437b8a-6fc7-43cf-8f4d-686b538e40b6","ios":"levelo://app?vid=7a437b8a-6fc7-43cf-8f4d-686b538e40b6"},"vehicle_type_id":"4","last_reported":1735193601,"current_range_meters":38800,"station_id":"ce4bh112rcd13ifvqda0","pricing_plan_id":"cebpf4jnsgd1na2vs0mg"},{"bike_id":"d73ec0a9-d109-43b4-becb-9dca2330fd90","system_id":"levelo_inurba_marseille","lat":43.2558,"lon":5.3823,"is_reserved":false,"is_disabled":false,"rental_uris":{"android":"levelo://app?vid=d73ec0a9-d109-43b4-becb-9dca2330fd90","ios":"levelo://app?vid=d73ec0a9-d109-43b4-becb-9dca2330fd90"},"vehicle_type_id":"4","last_reported":1735193601,"current_range_meters":16800,"station_id":"ce4bhih2rcd13ifvqfs0","pricing_plan_id":"cebpf4jnsgd1na2vs0mg"},{"bike_id":"91238bbb-eea3-4270-bf51-ddf350b3ca13","system_id":"levelo_inurba_marseille","lat":43.28465,"lon":5.38538,"is_reserved":false,"is_disabled":false,"rental_uris":{"android":"levelo://app?vid=91238bbb-eea3-4270-bf51-ddf350b3ca13","ios":"levelo://app?vid=91238bbb-eea3-4270-bf51-ddf350b3ca13"},"vehicle_type_id":"4","last_reported":1735193601,"current_range_meters":33200,"station_id":"ce4bh8p2rcd13ifvqeb0","pricing_plan_id":"cebpf4jnsgd1na2vs0mg"},{"bike_id":"9edf034e-2879-4003-9a8c-1c31ecac6d1f","system_id":"levelo_inurba_marseille","lat":43.30795,"lon":5.43527,"is_reserved":false,"is_disabled":false,"rental_uris":{"android":"levelo://app?vid=9edf034e-2879-4003-9a8c-1c31ecac6d1f","ios":"levelo://app?vid=9edf034e-2879-4003-9a8c-1c31ecac6d1f"},"vehicle_type_id":"4","last_reported":1735193601,"current_range_meters":38400,"station_id":"ce4bhph2rcd13ifvqheg","pricing_plan_id":"cebpf4jnsgd1na2vs0mg"},{"bike_id":"1866340a-45b4-4bd2-ac73-392a4ecb2e72","system_id":"levelo_inurba_marseille","lat":43.298469,"lon":5.36272,"is_reserved":false,"is_disabled":false,"rental_uris":{"android":"levelo://app?vid=1866340a-45b4-4bd2-ac73-392a4ecb2e72","ios":"levelo://app?vid=1866340a-45b4-4bd2-ac73-392a4ecb2e72"},"vehicle_type_id":"4","last_reported":1735193601,"current_range_meters":39200,"station_id":"ce4bgpp2rcd13ifvqc3g","pricing_plan_id":"cebpf4jnsgd1na2vs0mg"},{"bike_id":"356fdf04-5389-4dea-9842-bb9771f47806","system_id":"levelo_inurba_marseille","lat":43.2961,"lon":5.37735,"is_reserved":false,"is_disabled":false,"rental_uris":{"android":"levelo://app?vid=356fdf04-5389-4dea-9842-bb9771f47806","ios":"levelo://app?vid=356fdf04-5389-4dea-9842-bb9771f47806"},"vehicle_type_id":"4","last_reported":1735193601,"current_range_meters":38800,"station_id":"ce4bgi92rcd13ifvqb90","pricing_plan_id":"cebpf4jnsgd1na2vs0mg"},{"bike_id":"46b95399-9dd0-4961-99e3-6dd64174c307","system_id":"levelo_inurba_marseille","lat":43.28693,"lon":5.37387,"is_reserved":false,"is_disabled":false,"rental_uris":{"android":"levelo://app?vid=46b95399-9dd0-4961-99e3-6dd64174c307","ios":"levelo://app?vid=46b95399-9dd0-4961-99e3-6dd64174c307"},"vehicle_type_id":"4","last_reported":1735193601,"current_range_meters":38800,"station_id":"ce4bh3p2rcd13ifvqdq0","pricing_plan_id":"cebpf4jnsgd1na2vs0mg"},{"bike_id":"a4662aba-26fa-4360-9dcc-7f1d2500cd3b","system_id":"levelo_inurba_marseille","lat":43.290292,"lon":5.386468,"is_reserved":false,"is_disabled":false,"rental_uris":{"android":"levelo://app?vid=a4662aba-26fa-4360-9dcc-7f1d2500cd3b","ios":"levelo://app?vid=a4662aba-26fa-4360-9dcc-7f1d2500cd3b"},"vehicle_type_id":"4","last_reported":1735193601,"current_range_meters":38800,"station_id":"ce4bh4p2rcd13ifvqe0g","pricing_plan_id":"cebpf4jnsgd1na2vs0mg"},{"bike_id":"ff152d6a-b6bc-406b-998e-dbf3ad51a72e","system_id":"levelo_inurba_marseille","lat":43.2558,"lon":5.38228,"is_reserved":false,"is_disabled":false,"rental_uris":{"android":"levelo://app?vid=ff152d6a-b6bc-406b-998e-dbf3ad51a72e","ios":"levelo://app?vid=ff152d6a-b6bc-406b-998e-dbf3ad51a72e"},"vehicle_type_id":"4","last_reported":1735193601,"current_range_meters":36400,"station_id":"ce4bhih2rcd13ifvqfs0","pricing_plan_id":"cebpf4jnsgd1na2vs0mg"},{"bike_id":"836d944f-6d75-4c17-b70a-d071158594dd","system_id":"levelo_inurba_marseille","lat":43.27434,"lon":5.39404,"is_reserved":false,"is_disabled":false,"rental_uris":{"android":"levelo://app?vid=836d944f-6d75-4c17-b70a-d071158594dd","ios":"levelo://app?vid=836d944f-6d75-4c17-b70a-d071158594dd"},"vehicle_type_id":"4","last_reported":1735193601,"current_range_meters":27600,"station_id":"ce4bhdp2rcd13ifvqf20","pricing_plan_id":"cebpf4jnsgd1na2vs0mg"},{"bike_id":"c6834b76-82f1-466a-8b2d-118839d142cc","system_id":"levelo_inurba_marseille","lat":43.29897,"lon":5.43661,"is_reserved":false,"is_disabled":true,"rental_uris":{"android":"levelo://app?vid=c6834b76-82f1-466a-8b2d-118839d142cc","ios":"levelo://app?vid=c6834b76-82f1-466a-8b2d-118839d142cc"},"vehicle_type_id":"4","last_reported":1735193601,"current_range_meters":2000,"station_id":"ce4bhpp2rcd13ifvqhfg","pricing_plan_id":"cebpf4jnsgd1na2vs0mg"},{"bike_id":"13c39096-92de-47dd-a9ee-5b5cda0c5bbc","system_id":"levelo_inurba_marseille","lat":43.246461,"lon":5.388998,"is_reserved":false,"is_disabled":false,"rental_uris":{"android":"levelo://app?vid=13c39096-92de-47dd-a9ee-5b5cda0c5bbc","ios":"levelo://app?vid=13c39096-92de-47dd-a9ee-5b5cda0c5bbc"},"vehicle_type_id":"4","last_reported":1735193601,"current_range_meters":24000,"station_id":"ce4bhg12rcd13ifvqf60","pricing_plan_id":"cebpf4jnsgd1na2vs0mg"},{"bike_id":"1107b56a-98a5-4a01-8449-9eba086fee5a","system_id":"levelo_inurba_marseille","lat":43.29068,"lon":5.39881,"is_reserved":false,"is_disabled":false,"rental_uris":{"android":"levelo://app?vid=1107b56a-98a5-4a01-8449-9eba086fee5a","ios":"levelo://app?vid=1107b56a-98a5-4a01-8449-9eba086fee5a"},"vehicle_type_id":"4","last_reported":1735193601,"current_range_meters":23200,"station_id":"","pricing_plan_id":"cebpf4jnsgd1na2vs0mg"},{"bike_id":"bbd9a8cf-84ab-493b-a045-b5d7598bfdb0","system_id":"levelo_inurba_marseille","lat":43.29027,"lon":5.38634,"is_reserved":false,"is_disabled":false,"rental_uris":{"android":"levelo://app?vid=bbd9a8cf-84ab-493b-a045-b5d7598bfdb0","ios":"levelo://app?vid=bbd9a8cf-84ab-493b-a045-b5d7598bfdb0"},"vehicle_type_id":"4","last_reported":1735193601,"current_range_meters":38800,"station_id":"ce4bh4p2rcd13ifvqe0g","pricing_plan_id":"cebpf4jnsgd1na2vs0mg"},{"bike_id":"4e4277ec-b79e-43a1-bae0-d0f951c20956","system_id":"levelo_inurba_marseille","lat":43.29791,"lon":5.39347,"is_reserved":false,"is_disabled":false,"rental_uris":{"android":"levelo://app?vid=4e4277ec-b79e-43a1-bae0-d0f951c20956","ios":"levelo://app?vid=4e4277ec-b79e-43a1-bae0-d0f951c20956"},"vehicle_type_id":"4","last_reported":1735193601,"current_range_meters":38800,"station_id":"chh1huq6cuj3fo74tm60","pricing_plan_id":"cebpf4jnsgd1na2vs0mg"},{"bike_id":"6f68edfd-fb24-4919-b968-971a44d10505","system_id":"levelo_inurba_marseille","lat":43.33729,"lon":5.39177,"is_reserved":false,"is_disabled":false,"rental_uris":{"android":"levelo://app?vid=6f68edfd-fb24-4919-b968-971a44d10505","ios":"levelo://app?vid=6f68edfd-fb24-4919-b968-971a44d10505"},"vehicle_type_id":"4","last_reported":1735193601,"current_range_meters":38000,"station_id":"ce4bhr92rcd13ifvqhsg","pricing_plan_id":"cebpf4jnsgd1na2vs0mg"},{"bike_id":"f0e6b4f0-be05-4b8b-8ba2-60433aadb5c9","system_id":"levelo_inurba_marseille","lat":43.311903,"lon":5.386218,"is_reserved":false,"is_disabled":false,"rental_uris":{"android":"levelo://app?vid=f0e6b4f0-be05-4b8b-8ba2-60433aadb5c9","ios":"levelo://app?vid=f0e6b4f0-be05-4b8b-8ba2-60433aadb5c9"},"vehicle_type_id":"4","last_reported":1735193601,"current_range_meters":31200,"station_id":"ce4bgv12rcd13ifvqcp0","pricing_plan_id":"cebpf4jnsgd1na2vs0mg"},{"bike_id":"57f726b3-8020-4342-803d-80211cba2fe5","system_id":"levelo_inurba_marseille","lat":43.28555,"lon":5.39506,"is_reserved":false,"is_disabled":false,"rental_uris":{"android":"levelo://app?vid=57f726b3-8020-4342-803d-80211cba2fe5","ios":"levelo://app?vid=57f726b3-8020-4342-803d-80211cba2fe5"},"vehicle_type_id":"4","last_reported":1735193601,"current_range_meters":29600,"station_id":"ce4bh292rcd13ifvqdg0","pricing_plan_id":"cebpf4jnsgd1na2vs0mg"},{"bike_id":"081617f2-352d-433d-abf2-e1c0c70491b7","system_id":"levelo_inurba_marseille","lat":43.2732,"lon":5.39103,"is_reserved":false,"is_disabled":false,"rental_uris":{"android":"levelo://app?vid=081617f2-352d-433d-abf2-e1c0c70491b7","ios":"levelo://app?vid=081617f2-352d-433d-abf2-e1c0c70491b7"},"vehicle_type_id":"4","last_reported":1735193601,"current_range_meters":38800,"station_id":"ce4bhgp2rcd13ifvqfe0","pricing_plan_id":"cebpf4jnsgd1na2vs0mg"},{"bike_id":"5608df94-b66e-460e-9f45-682a8f36b500","system_id":"levelo_inurba_marseille","lat":43.26948,"lon":5.38918,"is_reserved":false,"is_disabled":false,"rental_uris":{"android":"levelo://app?vid=5608df94-b66e-460e-9f45-682a8f36b500","ios":"levelo://app?vid=5608df94-b66e-460e-9f45-682a8f36b500"},"vehicle_type_id":"4","last_reported":1735193601,"current_range_meters":38800,"station_id":"ce4bhhh2rcd13ifvqfl0","pricing_plan_id":"cebpf4jnsgd1na2vs0mg"},{"bike_id":"4e6d0ca2-6374-490a-b48e-6cba90785a4f","system_id":"levelo_inurba_marseille","lat":43.24646,"lon":5.388955,"is_reserved":false,"is_disabled":false,"rental_uris":{"android":"levelo://app?vid=4e6d0ca2-6374-490a-b48e-6cba90785a4f","ios":"levelo://app?vid=4e6d0ca2-6374-490a-b48e-6cba90785a4f"},"vehicle_type_id":"4","last_reported":1735193601,"current_range_meters":12400,"station_id":"ce4bhg12rcd13ifvqf60","pricing_plan_id":"cebpf4jnsgd1na2vs0mg"},{"bike_id":"75dc6cdf-6b2f-4555-98ab-c0d955ac6c33","system_id":"levelo_inurba_marseille","lat":43.295707,"lon":5.375179,"is_reserved":false,"is_disabled":false,"rental_uris":{"android":"levelo://app?vid=75dc6cdf-6b2f-4555-98ab-c0d955ac6c33","ios":"levelo://app?vid=75dc6cdf-6b2f-4555-98ab-c0d955ac6c33"},"vehicle_type_id":"4","last_reported":1735193601,"current_range_meters":17600,"station_id":"ce4bgh92rcd13ifvqb50","pricing_plan_id":"cebpf4jnsgd1na2vs0mg"},{"bike_id":"cffdb5d9-706d-4270-8144-29c891a5788a","system_id":"levelo_inurba_marseille","lat":43.262136,"lon":5.421249,"is_reserved":false,"is_disabled":false,"rental_uris":{"android":"levelo://app?vid=cffdb5d9-706d-4270-8144-29c891a5788a","ios":"levelo://app?vid=cffdb5d9-706d-4270-8144-29c891a5788a"},"vehicle_type_id":"4","last_reported":1735193601,"current_range_meters":6000,"station_id":"","pricing_plan_id":"cebpf4jnsgd1na2vs0mg"},{"bike_id":"963b50d8-757b-4c39-84ed-9fb9fa9d8d9e","system_id":"levelo_inurba_marseille","lat":43.292209,"lon":5.360752,"is_reserved":false,"is_disabled":false,"rental_uris":{"android":"levelo://app?vid=963b50d8-757b-4c39-84ed-9fb9fa9d8d9e","ios":"levelo://app?vid=963b50d8-757b-4c39-84ed-9fb9fa9d8d9e"},"vehicle_type_id":"4","last_reported":1735193601,"current_range_meters":28800,"station_id":"ce4bhbh2rcd13ifvqeqg","pricing_plan_id":"cebpf4jnsgd1na2vs0mg"},{"bike_id":"140341f0-824e-441a-a46c-67019bc1a6e4","system_id":"levelo_inurba_marseille","lat":43.32288,"lon":5.38276,"is_reserved":false,"is_disabled":false,"rental_uris":{"android":"levelo://app?vid=140341f0-824e-441a-a46c-67019bc1a6e4","ios":"levelo://app?vid=140341f0-824e-441a-a46c-67019bc1a6e4"},"vehicle_type_id":"4","last_reported":1735193601,"current_range_meters":37600,"station_id":"ce4bhr12rcd13ifvqhqg","pricing_plan_id":"cebpf4jnsgd1na2vs0mg"},{"bike_id":"8e62a08d-61cf-4a81-8b25-a81ab6dfde52","system_id":"levelo_inurba_marseille","lat":43.30141,"lon":5.38781,"is_reserved":false,"is_disabled":false,"rental_uris":{"android":"levelo://app?vid=8e62a08d-61cf-4a81-8b25-a81ab6dfde52","ios":"levelo://app?vid=8e62a08d-61cf-4a81-8b25-a81ab6dfde52"},"vehicle_type_id":"4","last_reported":1735193601,"current_range_meters":33600,"station_id":"ce4bghh2rcd13ifvqb60","pricing_plan_id":"cebpf4jnsgd1na2vs0mg"},{"bike_id":"dacd740a-a9e6-4b26-b456-f9e4d5adf7ca","system_id":"levelo_inurba_marseille","lat":43.26937,"lon":5.40257,"is_reserved":false,"is_disabled":false,"rental_uris":{"android":"levelo://app?vid=dacd740a-a9e6-4b26-b456-f9e4d5adf7ca","ios":"levelo://app?vid=dacd740a-a9e6-4b26-b456-f9e4d5adf7ca"},"vehicle_type_id":"4","last_reported":1735193601,"current_range_meters":39200,"station_id":"cjm6bp8fraef2m0cb0m0","pricing_plan_id":"cebpf4jnsgd1na2vs0mg"},{"bike_id":"5ca093cb-437c-4e7d-bc7e-09c7ab1b0f93","system_id":"levelo_inurba_marseille","lat":43.29922,"lon":5.37465,"is_reserved":false,"is_disabled":false,"rental_uris":{"android":"levelo://app?vid=5ca093cb-437c-4e7d-bc7e-09c7ab1b0f93","ios":"levelo://app?vid=5ca093cb-437c-4e7d-bc7e-09c7ab1b0f93"},"vehicle_type_id":"4","last_reported":1735193601,"current_range_meters":38000,"station_id":"ce4bgjh2rcd13ifvqbg0","pricing_plan_id":"cebpf4jnsgd1na2vs0mg"},{"bike_id":"dcb87de2-ef9d-49cc-839c-62b44084804f","system_id":"levelo_inurba_marseille","lat":43.281492,"lon":5.426508,"is_reserved":false,"is_disabled":false,"rental_uris":{"android":"levelo://app?vid=dcb87de2-ef9d-49cc-839c-62b44084804f","ios":"levelo://app?vid=dcb87de2-ef9d-49cc-839c-62b44084804f"},"vehicle_type_id":"4","last_reported":1735193601,"current_range_meters":4800,"station_id":"ce4bhnh2rcd13ifvqgug","pricing_plan_id":"cebpf4jnsgd1na2vs0mg"},{"bike_id":"adeb9f24-5201-4746-a674-4bf30daf0224","system_id":"levelo_inurba_marseille","lat":43.29709,"lon":5.36578,"is_reserved":false,"is_disabled":false,"rental_uris":{"android":"levelo://app?vid=adeb9f24-5201-4746-a674-4bf30daf0224","ios":"levelo://app?vid=adeb9f24-5201-4746-a674-4bf30daf0224"},"vehicle_type_id":"4","last_reported":1735193601,"current_range_meters":38800,"station_id":"ce4bgn12rcd13ifvqbt0","pricing_plan_id":"cebpf4jnsgd1na2vs0mg"},{"bike_id":"5259df95-e7f7-4991-8a9f-c29c9264851b","system_id":"levelo_inurba_marseille","lat":43.260556,"lon":5.393878,"is_reserved":false,"is_disabled":false,"rental_uris":{"android":"levelo://app?vid=5259df95-e7f7-4991-8a9f-c29c9264851b","ios":"levelo://app?vid=5259df95-e7f7-4991-8a9f-c29c9264851b"},"vehicle_type_id":"4","last_reported":1735193601,"current_range_meters":34800,"station_id":"ce4bhh92rcd13ifvqfj0","pricing_plan_id":"cebpf4jnsgd1na2vs0mg"},{"bike_id":"6a8570d1-eb04-4587-aa7b-7e8a4cf28911","system_id":"levelo_inurba_marseille","lat":43.31331,"lon":5.3969,"is_reserved":false,"is_disabled":false,"rental_uris":{"android":"levelo://app?vid=6a8570d1-eb04-4587-aa7b-7e8a4cf28911","ios":"levelo://app?vid=6a8570d1-eb04-4587-aa7b-7e8a4cf28911"},"vehicle_type_id":"4","last_reported":1735193601,"current_range_meters":33600,"station_id":"ce4bgvp2rcd13ifvqcu0","pricing_plan_id":"cebpf4jnsgd1na2vs0mg"},{"bike_id":"4e04e3c8-bad8-47c2-a784-0c5eba8b5d4f","system_id":"levelo_inurba_marseille","lat":43.270709,"lon":5.422811,"is_reserved":false,"is_disabled":false,"rental_uris":{"android":"levelo://app?vid=4e04e3c8-bad8-47c2-a784-0c5eba8b5d4f","ios":"levelo://app?vid=4e04e3c8-bad8-47c2-a784-0c5eba8b5d4f"},"vehicle_type_id":"4","last_reported":1735193601,"current_range_meters":36000,"station_id":"ce4bhk92rcd13ifvqgb0","pricing_plan_id":"cebpf4jnsgd1na2vs0mg"},{"bike_id":"3964cc91-6b10-4fb9-9b4d-cbe3e8abef97","system_id":"levelo_inurba_marseille","lat":43.30098,"lon":5.39075,"is_reserved":false,"is_disabled":false,"rental_uris":{"android":"levelo://app?vid=3964cc91-6b10-4fb9-9b4d-cbe3e8abef97","ios":"levelo://app?vid=3964cc91-6b10-4fb9-9b4d-cbe3e8abef97"},"vehicle_type_id":"4","last_reported":1735193601,"current_range_meters":38400,"station_id":"ce4bh192rcd13ifvqdb0","pricing_plan_id":"cebpf4jnsgd1na2vs0mg"},{"bike_id":"6acd59a7-8f7c-4599-aa0b-64fd7d521194","system_id":"levelo_inurba_marseille","lat":43.304182,"lon":5.397544,"is_reserved":false,"is_disabled":false,"rental_uris":{"android":"levelo://app?vid=6acd59a7-8f7c-4599-aa0b-64fd7d521194","ios":"levelo://app?vid=6acd59a7-8f7c-4599-aa0b-64fd7d521194"},"vehicle_type_id":"4","last_reported":1735193601,"current_range_meters":38800,"station_id":"ce4bh092rcd13ifvqd20","pricing_plan_id":"cebpf4jnsgd1na2vs0mg"},{"bike_id":"1d566864-663a-4b46-a74a-c479e2e82e1e","system_id":"levelo_inurba_marseille","lat":43.29543,"lon":5.38545,"is_reserved":false,"is_disabled":true,"rental_uris":{"android":"levelo://app?vid=1d566864-663a-4b46-a74a-c479e2e82e1e","ios":"levelo://app?vid=1d566864-663a-4b46-a74a-c479e2e82e1e"},"vehicle_type_id":"4","last_reported":1735193601,"current_range_meters":38400,"station_id":"ce4bgih2rcd13ifvqba0","pricing_plan_id":"cebpf4jnsgd1na2vs0mg"},{"bike_id":"440e3196-84f0-46ce-9f51-f1d77928123c","system_id":"levelo_inurba_marseille","lat":43.23189,"lon":5.39978,"is_reserved":false,"is_disabled":false,"rental_uris":{"android":"levelo://app?vid=440e3196-84f0-46ce-9f51-f1d77928123c","ios":"levelo://app?vid=440e3196-84f0-46ce-9f51-f1d77928123c"},"vehicle_type_id":"4","last_reported":1735193601,"current_range_meters":29600,"station_id":"ce4bhn12rcd13ifvqgqg","pricing_plan_id":"cebpf4jnsgd1na2vs0mg"},{"bike_id":"fb0e6359-3fe6-4009-9014-99d06d5c7222","system_id":"levelo_inurba_marseille","lat":43.29629,"lon":5.37152,"is_reserved":false,"is_disabled":false,"rental_uris":{"android":"levelo://app?vid=fb0e6359-3fe6-4009-9014-99d06d5c7222","ios":"levelo://app?vid=fb0e6359-3fe6-4009-9014-99d06d5c7222"},"vehicle_type_id":"4","last_reported":1735193601,"current_range_meters":34000,"station_id":"ce4bgnh2rcd13ifvqc0g","pricing_plan_id":"cebpf4jnsgd1na2vs0mg"},{"bike_id":"f949e99e-d030-4c70-b600-40a4a8569a0c","system_id":"levelo_inurba_marseille","lat":43.296178,"lon":5.371685,"is_reserved":false,"is_disabled":false,"rental_uris":{"android":"levelo://app?vid=f949e99e-d030-4c70-b600-40a4a8569a0c","ios":"levelo://app?vid=f949e99e-d030-4c70-b600-40a4a8569a0c"},"vehicle_type_id":"4","last_reported":1735193601,"current_range_meters":24800,"station_id":"ce4bgnh2rcd13ifvqc0g","pricing_plan_id":"cebpf4jnsgd1na2vs0mg"},{"bike_id":"d755888a-393b-4457-9582-6450932bf24d","system_id":"levelo_inurba_marseille","lat":43.30131,"lon":5.3878,"is_reserved":false,"is_disabled":false,"rental_uris":{"android":"levelo://app?vid=d755888a-393b-4457-9582-6450932bf24d","ios":"levelo://app?vid=d755888a-393b-4457-9582-6450932bf24d"},"vehicle_type_id":"4","last_reported":1735193601,"current_range_meters":28800,"station_id":"ce4bghh2rcd13ifvqb60","pricing_plan_id":"cebpf4jnsgd1na2vs0mg"},{"bike_id":"02eac5a5-bd22-4f52-aa2f-0694ef430cb4","system_id":"levelo_inurba_marseille","lat":43.30429,"lon":5.39757,"is_reserved":false,"is_disabled":false,"rental_uris":{"android":"levelo://app?vid=02eac5a5-bd22-4f52-aa2f-0694ef430cb4","ios":"levelo://app?vid=02eac5a5-bd22-4f52-aa2f-0694ef430cb4"},"vehicle_type_id":"4","last_reported":1735193601,"current_range_meters":38800,"station_id":"ce4bh092rcd13ifvqd20","pricing_plan_id":"cebpf4jnsgd1na2vs0mg"},{"bike_id":"040e1d39-ccb5-4c39-9d18-96843aca88a2","system_id":"levelo_inurba_marseille","lat":43.26492,"lon":5.39562,"is_reserved":false,"is_disabled":false,"rental_uris":{"android":"levelo://app?vid=040e1d39-ccb5-4c39-9d18-96843aca88a2","ios":"levelo://app?vid=040e1d39-ccb5-4c39-9d18-96843aca88a2"},"vehicle_type_id":"4","last_reported":1735193601,"current_range_meters":8400,"station_id":"ce4bhi12rcd13ifvqfq0","pricing_plan_id":"cebpf4jnsgd1na2vs0mg"},{"bike_id":"723efac0-6490-43da-81e8-80d9bfedfa87","system_id":"levelo_inurba_marseille","lat":43.244,"lon":5.37047,"is_reserved":false,"is_disabled":false,"rental_uris":{"android":"levelo://app?vid=723efac0-6490-43da-81e8-80d9bfedfa87","ios":"levelo://app?vid=723efac0-6490-43da-81e8-80d9bfedfa87"},"vehicle_type_id":"4","last_reported":1735193601,"current_range_meters":38000,"station_id":"ce4bhhh2rcd13ifvqfk0","pricing_plan_id":"cebpf4jnsgd1na2vs0mg"},{"bike_id":"8c5da3bb-c2e6-43d4-b963-ad2d9b262d8f","system_id":"levelo_inurba_marseille","lat":43.279446,"lon":5.410415,"is_reserved":false,"is_disabled":false,"rental_uris":{"android":"levelo://app?vid=8c5da3bb-c2e6-43d4-b963-ad2d9b262d8f","ios":"levelo://app?vid=8c5da3bb-c2e6-43d4-b963-ad2d9b262d8f"},"vehicle_type_id":"4","last_reported":1735193601,"current_range_meters":37600,"station_id":"ce4bhnp2rcd13ifvqh0g","pricing_plan_id":"cebpf4jnsgd1na2vs0mg"},{"bike_id":"aa5d5d16-a2f6-4c81-8cd4-c9ee96949ae4","system_id":"levelo_inurba_marseille","lat":43.23185,"lon":5.39985,"is_reserved":false,"is_disabled":false,"rental_uris":{"android":"levelo://app?vid=aa5d5d16-a2f6-4c81-8cd4-c9ee96949ae4","ios":"levelo://app?vid=aa5d5d16-a2f6-4c81-8cd4-c9ee96949ae4"},"vehicle_type_id":"4","last_reported":1735193601,"current_range_meters":38400,"station_id":"ce4bhn12rcd13ifvqgqg","pricing_plan_id":"cebpf4jnsgd1na2vs0mg"},{"bike_id":"e3ef34f6-0bd5-4679-9355-cfd293dbf562","system_id":"levelo_inurba_marseille","lat":43.30094,"lon":5.39082,"is_reserved":false,"is_disabled":false,"rental_uris":{"android":"levelo://app?vid=e3ef34f6-0bd5-4679-9355-cfd293dbf562","ios":"levelo://app?vid=e3ef34f6-0bd5-4679-9355-cfd293dbf562"},"vehicle_type_id":"4","last_reported":1735193601,"current_range_meters":25200,"station_id":"ce4bh192rcd13ifvqdb0","pricing_plan_id":"cebpf4jnsgd1na2vs0mg"},{"bike_id":"509d6939-a055-4cab-b606-fdeee6645c66","system_id":"levelo_inurba_marseille","lat":43.26492,"lon":5.39548,"is_reserved":false,"is_disabled":false,"rental_uris":{"android":"levelo://app?vid=509d6939-a055-4cab-b606-fdeee6645c66","ios":"levelo://app?vid=509d6939-a055-4cab-b606-fdeee6645c66"},"vehicle_type_id":"4","last_reported":1735193601,"current_range_meters":28000,"station_id":"ce4bhi12rcd13ifvqfq0","pricing_plan_id":"cebpf4jnsgd1na2vs0mg"},{"bike_id":"e2a1c54a-16d0-4191-85fe-6c09043eaf12","system_id":"levelo_inurba_marseille","lat":43.27053,"lon":5.40258,"is_reserved":false,"is_disabled":false,"rental_uris":{"android":"levelo://app?vid=e2a1c54a-16d0-4191-85fe-6c09043eaf12","ios":"levelo://app?vid=e2a1c54a-16d0-4191-85fe-6c09043eaf12"},"vehicle_type_id":"4","last_reported":1735193601,"current_range_meters":29600,"station_id":"ce4bhk92rcd13ifvqgc0","pricing_plan_id":"cebpf4jnsgd1na2vs0mg"},{"bike_id":"360332b9-e614-4783-9874-93f13a5e8049","system_id":"levelo_inurba_marseille","lat":43.30808,"lon":5.38161,"is_reserved":false,"is_disabled":false,"rental_uris":{"android":"levelo://app?vid=360332b9-e614-4783-9874-93f13a5e8049","ios":"levelo://app?vid=360332b9-e614-4783-9874-93f13a5e8049"},"vehicle_type_id":"4","last_reported":1735193601,"current_range_meters":38400,"station_id":"ce4bgt12rcd13ifvqce0","pricing_plan_id":"cebpf4jnsgd1na2vs0mg"},{"bike_id":"673ed0fe-3027-4e1f-9efc-2804b0e32190","system_id":"levelo_inurba_marseille","lat":43.26684,"lon":5.38268,"is_reserved":false,"is_disabled":false,"rental_uris":{"android":"levelo://app?vid=673ed0fe-3027-4e1f-9efc-2804b0e32190","ios":"levelo://app?vid=673ed0fe-3027-4e1f-9efc-2804b0e32190"},"vehicle_type_id":"4","last_reported":1735193601,"current_range_meters":25600,"station_id":"ce4bhg92rcd13ifvqf90","pricing_plan_id":"cebpf4jnsgd1na2vs0mg"},{"bike_id":"bd5379fa-575f-4147-880f-27f6dc893dfd","system_id":"levelo_inurba_marseille","lat":43.3045,"lon":5.38889,"is_reserved":false,"is_disabled":false,"rental_uris":{"android":"levelo://app?vid=bd5379fa-575f-4147-880f-27f6dc893dfd","ios":"levelo://app?vid=bd5379fa-575f-4147-880f-27f6dc893dfd"},"vehicle_type_id":"4","last_reported":1735193601,"current_range_meters":28800,"station_id":"ce4bgk12rcd13ifvqbi0","pricing_plan_id":"cebpf4jnsgd1na2vs0mg"},{"bike_id":"2e48270a-c773-45cd-b6b6-1f931f6c2627","system_id":"levelo_inurba_marseille","lat":43.298789,"lon":5.389172,"is_reserved":false,"is_disabled":false,"rental_uris":{"android":"levelo://app?vid=2e48270a-c773-45cd-b6b6-1f931f6c2627","ios":"levelo://app?vid=2e48270a-c773-45cd-b6b6-1f931f6c2627"},"vehicle_type_id":"4","last_reported":1735193601,"current_range_meters":38800,"station_id":"ce4bh392rcd13ifvqdl0","pricing_plan_id":"cebpf4jnsgd1na2vs0mg"},{"bike_id":"02e8cf79-1a2b-4805-9b9c-ae2b5a954d14","system_id":"levelo_inurba_marseille","lat":43.27919,"lon":5.39583,"is_reserved":false,"is_disabled":false,"rental_uris":{"android":"levelo://app?vid=02e8cf79-1a2b-4805-9b9c-ae2b5a954d14","ios":"levelo://app?vid=02e8cf79-1a2b-4805-9b9c-ae2b5a954d14"},"vehicle_type_id":"4","last_reported":1735193601,"current_range_meters":38400,"station_id":"ce4bhf92rcd13ifvqf40","pricing_plan_id":"cebpf4jnsgd1na2vs0mg"},{"bike_id":"37d2f0ec-ac54-41ea-b402-0cacdcd6105b","system_id":"levelo_inurba_marseille","lat":43.29617,"lon":5.37724,"is_reserved":false,"is_disabled":false,"rental_uris":{"android":"levelo://app?vid=37d2f0ec-ac54-41ea-b402-0cacdcd6105b","ios":"levelo://app?vid=37d2f0ec-ac54-41ea-b402-0cacdcd6105b"},"vehicle_type_id":"4","last_reported":1735193601,"current_range_meters":24400,"station_id":"ce4bgi92rcd13ifvqb90","pricing_plan_id":"cebpf4jnsgd1na2vs0mg"},{"bike_id":"6f699b48-96de-41b7-8197-cd5ab9f03e09","system_id":"levelo_inurba_marseille","lat":43.279853,"lon":5.416619,"is_reserved":false,"is_disabled":false,"rental_uris":{"android":"levelo://app?vid=6f699b48-96de-41b7-8197-cd5ab9f03e09","ios":"levelo://app?vid=6f699b48-96de-41b7-8197-cd5ab9f03e09"},"vehicle_type_id":"4","last_reported":1735193601,"current_range_meters":38800,"station_id":"ce4bho12rcd13ifvqh1g","pricing_plan_id":"cebpf4jnsgd1na2vs0mg"},{"bike_id":"fd25bbdd-e888-4359-8488-fdc91b50cf4d","system_id":"levelo_inurba_marseille","lat":43.31367,"lon":5.38502,"is_reserved":false,"is_disabled":false,"rental_uris":{"android":"levelo://app?vid=fd25bbdd-e888-4359-8488-fdc91b50cf4d","ios":"levelo://app?vid=fd25bbdd-e888-4359-8488-fdc91b50cf4d"},"vehicle_type_id":"4","last_reported":1735193601,"current_range_meters":9600,"station_id":"ce4bgt92rcd13ifvqcf0","pricing_plan_id":"cebpf4jnsgd1na2vs0mg"},{"bike_id":"a71c35f4-2efe-4724-8661-9e91e75f58a5","system_id":"levelo_inurba_marseille","lat":43.31994,"lon":5.38146,"is_reserved":false,"is_disabled":false,"rental_uris":{"android":"levelo://app?vid=a71c35f4-2efe-4724-8661-9e91e75f58a5","ios":"levelo://app?vid=a71c35f4-2efe-4724-8661-9e91e75f58a5"},"vehicle_type_id":"4","last_reported":1735193601,"current_range_meters":21600,"station_id":"ce4bhr12rcd13ifvqhpg","pricing_plan_id":"cebpf4jnsgd1na2vs0mg"},{"bike_id":"cf9ebf9c-f7cc-4de0-a198-b9838d585b70","system_id":"levelo_inurba_marseille","lat":43.29018,"lon":5.35595,"is_reserved":false,"is_disabled":true,"rental_uris":{"android":"levelo://app?vid=cf9ebf9c-f7cc-4de0-a198-b9838d585b70","ios":"levelo://app?vid=cf9ebf9c-f7cc-4de0-a198-b9838d585b70"},"vehicle_type_id":"4","last_reported":1735193601,"current_range_meters":0,"station_id":"ce4bhb92rcd13ifvqen0","pricing_plan_id":"cebpf4jnsgd1na2vs0mg"},{"bike_id":"9537f047-7765-4389-ba54-cede393d57fd","system_id":"levelo_inurba_marseille","lat":43.31711,"lon":5.43711,"is_reserved":false,"is_disabled":false,"rental_uris":{"android":"levelo://app?vid=9537f047-7765-4389-ba54-cede393d57fd","ios":"levelo://app?vid=9537f047-7765-4389-ba54-cede393d57fd"},"vehicle_type_id":"4","last_reported":1735193601,"current_range_meters":36000,"station_id":"ce4bhp92rcd13ifvqhcg","pricing_plan_id":"cebpf4jnsgd1na2vs0mg"},{"bike_id":"82719b16-0394-44a1-963a-3161d6b762b8","system_id":"levelo_inurba_marseille","lat":43.296231,"lon":5.371551,"is_reserved":false,"is_disabled":false,"rental_uris":{"android":"levelo://app?vid=82719b16-0394-44a1-963a-3161d6b762b8","ios":"levelo://app?vid=82719b16-0394-44a1-963a-3161d6b762b8"},"vehicle_type_id":"4","last_reported":1735193601,"current_range_meters":33600,"station_id":"ce4bgnh2rcd13ifvqc0g","pricing_plan_id":"cebpf4jnsgd1na2vs0mg"},{"bike_id":"a5b95a5f-98a9-4995-beea-39b6756268a8","system_id":"levelo_inurba_marseille","lat":43.27074,"lon":5.42278,"is_reserved":false,"is_disabled":false,"rental_uris":{"android":"levelo://app?vid=a5b95a5f-98a9-4995-beea-39b6756268a8","ios":"levelo://app?vid=a5b95a5f-98a9-4995-beea-39b6756268a8"},"vehicle_type_id":"4","last_reported":1735193601,"current_range_meters":38000,"station_id":"ce4bhk92rcd13ifvqgb0","pricing_plan_id":"cebpf4jnsgd1na2vs0mg"},{"bike_id":"404c76f4-073b-4c7a-98c9-f501d75d4769","system_id":"levelo_inurba_marseille","lat":43.31995,"lon":5.38139,"is_reserved":false,"is_disabled":false,"rental_uris":{"android":"levelo://app?vid=404c76f4-073b-4c7a-98c9-f501d75d4769","ios":"levelo://app?vid=404c76f4-073b-4c7a-98c9-f501d75d4769"},"vehicle_type_id":"4","last_reported":1735193601,"current_range_meters":38800,"station_id":"ce4bhr12rcd13ifvqhpg","pricing_plan_id":"cebpf4jnsgd1na2vs0mg"},{"bike_id":"d2239e2e-0410-46ba-bc11-f5eed116a9a6","system_id":"levelo_inurba_marseille","lat":43.30541,"lon":5.38436,"is_reserved":false,"is_disabled":false,"rental_uris":{"android":"levelo://app?vid=d2239e2e-0410-46ba-bc11-f5eed116a9a6","ios":"levelo://app?vid=d2239e2e-0410-46ba-bc11-f5eed116a9a6"},"vehicle_type_id":"4","last_reported":1735193601,"current_range_meters":14800,"station_id":"ce4bgg92rcd13ifvqb30","pricing_plan_id":"cebpf4jnsgd1na2vs0mg"},{"bike_id":"4dbac046-8f9a-4500-85b8-75203039eb07","system_id":"levelo_inurba_marseille","lat":43.280957,"lon":5.378554,"is_reserved":false,"is_disabled":false,"rental_uris":{"android":"levelo://app?vid=4dbac046-8f9a-4500-85b8-75203039eb07","ios":"levelo://app?vid=4dbac046-8f9a-4500-85b8-75203039eb07"},"vehicle_type_id":"4","last_reported":1735193601,"current_range_meters":38000,"station_id":"ce4bha12rcd13ifvqee0","pricing_plan_id":"cebpf4jnsgd1na2vs0mg"},{"bike_id":"9fe7e9d1-94e1-4140-a183-19a205a8e7df","system_id":"levelo_inurba_marseille","lat":43.27177,"lon":5.42871,"is_reserved":false,"is_disabled":true,"rental_uris":{"android":"levelo://app?vid=9fe7e9d1-94e1-4140-a183-19a205a8e7df","ios":"levelo://app?vid=9fe7e9d1-94e1-4140-a183-19a205a8e7df"},"vehicle_type_id":"4","last_reported":1735193601,"current_range_meters":0,"station_id":"","pricing_plan_id":"cebpf4jnsgd1na2vs0mg"},{"bike_id":"cb03cf66-d2b9-453d-8ff0-a05157d6006a","system_id":"levelo_inurba_marseille","lat":43.269423,"lon":5.389158,"is_reserved":false,"is_disabled":false,"rental_uris":{"android":"levelo://app?vid=cb03cf66-d2b9-453d-8ff0-a05157d6006a","ios":"levelo://app?vid=cb03cf66-d2b9-453d-8ff0-a05157d6006a"},"vehicle_type_id":"4","last_reported":1735193601,"current_range_meters":38800,"station_id":"ce4bhhh2rcd13ifvqfl0","pricing_plan_id":"cebpf4jnsgd1na2vs0mg"},{"bike_id":"4f5db02c-99f9-460e-a880-3ca7100df048","system_id":"levelo_inurba_marseille","lat":43.27397,"lon":5.39412,"is_reserved":false,"is_disabled":false,"rental_uris":{"android":"levelo://app?vid=4f5db02c-99f9-460e-a880-3ca7100df048","ios":"levelo://app?vid=4f5db02c-99f9-460e-a880-3ca7100df048"},"vehicle_type_id":"4","last_reported":1735193601,"current_range_meters":38400,"station_id":"ce4bhdp2rcd13ifvqf20","pricing_plan_id":"cebpf4jnsgd1na2vs0mg"},{"bike_id":"320f6186-7cff-4a7e-a03b-ae2fdce24669","system_id":"levelo_inurba_marseille","lat":43.286896,"lon":5.386644,"is_reserved":false,"is_disabled":false,"rental_uris":{"android":"levelo://app?vid=320f6186-7cff-4a7e-a03b-ae2fdce24669","ios":"levelo://app?vid=320f6186-7cff-4a7e-a03b-ae2fdce24669"},"vehicle_type_id":"4","last_reported":1735193601,"current_range_meters":12800,"station_id":"ce4bh492rcd13ifvqdug","pricing_plan_id":"cebpf4jnsgd1na2vs0mg"},{"bike_id":"22513807-c9e6-4543-9326-9e632d88e775","system_id":"levelo_inurba_marseille","lat":43.30303,"lon":5.36905,"is_reserved":false,"is_disabled":false,"rental_uris":{"android":"levelo://app?vid=22513807-c9e6-4543-9326-9e632d88e775","ios":"levelo://app?vid=22513807-c9e6-4543-9326-9e632d88e775"},"vehicle_type_id":"4","last_reported":1735193601,"current_range_meters":12800,"station_id":"ce4bgqh2rcd13ifvqc5g","pricing_plan_id":"cebpf4jnsgd1na2vs0mg"},{"bike_id":"b2c9ce57-2dc4-49aa-9988-425179a13ce1","system_id":"levelo_inurba_marseille","lat":43.295795,"lon":5.367419,"is_reserved":false,"is_disabled":false,"rental_uris":{"android":"levelo://app?vid=b2c9ce57-2dc4-49aa-9988-425179a13ce1","ios":"levelo://app?vid=b2c9ce57-2dc4-49aa-9988-425179a13ce1"},"vehicle_type_id":"4","last_reported":1735193601,"current_range_meters":16400,"station_id":"ce4bgph2rcd13ifvqc2g","pricing_plan_id":"cebpf4jnsgd1na2vs0mg"},{"bike_id":"dc5e7ea0-a412-4de9-92c3-6b61b2cc2423","system_id":"levelo_inurba_marseille","lat":43.309302,"lon":5.401641,"is_reserved":false,"is_disabled":false,"rental_uris":{"android":"levelo://app?vid=dc5e7ea0-a412-4de9-92c3-6b61b2cc2423","ios":"levelo://app?vid=dc5e7ea0-a412-4de9-92c3-6b61b2cc2423"},"vehicle_type_id":"4","last_reported":1735193601,"current_range_meters":38800,"station_id":"ce4bgvp2rcd13ifvqct0","pricing_plan_id":"cebpf4jnsgd1na2vs0mg"},{"bike_id":"114dad4b-be77-462b-a5c1-90cced0fb73d","system_id":"levelo_inurba_marseille","lat":43.2835,"lon":5.38111,"is_reserved":false,"is_disabled":false,"rental_uris":{"android":"levelo://app?vid=114dad4b-be77-462b-a5c1-90cced0fb73d","ios":"levelo://app?vid=114dad4b-be77-462b-a5c1-90cced0fb73d"},"vehicle_type_id":"4","last_reported":1735193601,"current_range_meters":28000,"station_id":"ce4bh412rcd13ifvqdr0","pricing_plan_id":"cebpf4jnsgd1na2vs0mg"},{"bike_id":"5cf9081b-ff30-4039-8995-bc8e978f0dec","system_id":"levelo_inurba_marseille","lat":43.29283,"lon":5.40125,"is_reserved":false,"is_disabled":false,"rental_uris":{"android":"levelo://app?vid=5cf9081b-ff30-4039-8995-bc8e978f0dec","ios":"levelo://app?vid=5cf9081b-ff30-4039-8995-bc8e978f0dec"},"vehicle_type_id":"4","last_reported":1735193601,"current_range_meters":38000,"station_id":"ce4bh312rcd13ifvqdk0","pricing_plan_id":"cebpf4jnsgd1na2vs0mg"},{"bike_id":"b07e0204-2c57-49d1-a1f7-320de8610e25","system_id":"levelo_inurba_marseille","lat":43.29402,"lon":5.37344,"is_reserved":false,"is_disabled":true,"rental_uris":{"android":"levelo://app?vid=b07e0204-2c57-49d1-a1f7-320de8610e25","ios":"levelo://app?vid=b07e0204-2c57-49d1-a1f7-320de8610e25"},"vehicle_type_id":"4","last_reported":1735193601,"current_range_meters":12000,"station_id":"","pricing_plan_id":"cebpf4jnsgd1na2vs0mg"},{"bike_id":"ca8ae58d-7cde-4450-9687-184913a7560e","system_id":"levelo_inurba_marseille","lat":43.30917,"lon":5.36862,"is_reserved":false,"is_disabled":false,"rental_uris":{"android":"levelo://app?vid=ca8ae58d-7cde-4450-9687-184913a7560e","ios":"levelo://app?vid=ca8ae58d-7cde-4450-9687-184913a7560e"},"vehicle_type_id":"4","last_reported":1735193601,"current_range_meters":38000,"station_id":"ce4bgn92rcd13ifvqbvg","pricing_plan_id":"cebpf4jnsgd1na2vs0mg"},{"bike_id":"54d837e0-9e19-48a3-a8be-03c3df89c0b0","system_id":"levelo_inurba_marseille","lat":43.29026,"lon":5.38131,"is_reserved":false,"is_disabled":false,"rental_uris":{"android":"levelo://app?vid=54d837e0-9e19-48a3-a8be-03c3df89c0b0","ios":"levelo://app?vid=54d837e0-9e19-48a3-a8be-03c3df89c0b0"},"vehicle_type_id":"4","last_reported":1735193601,"current_range_meters":38400,"station_id":"ce4bh4p2rcd13ifvqe1g","pricing_plan_id":"cebpf4jnsgd1na2vs0mg"},{"bike_id":"416b9ac0-b983-483b-83d4-fcaecff4da1e","system_id":"levelo_inurba_marseille","lat":43.30133,"lon":5.38776,"is_reserved":false,"is_disabled":false,"rental_uris":{"android":"levelo://app?vid=416b9ac0-b983-483b-83d4-fcaecff4da1e","ios":"levelo://app?vid=416b9ac0-b983-483b-83d4-fcaecff4da1e"},"vehicle_type_id":"4","last_reported":1735193601,"current_range_meters":36800,"station_id":"ce4bhoh2rcd13ifvqh6g","pricing_plan_id":"cebpf4jnsgd1na2vs0mg"},{"bike_id":"d051bf13-7445-45ad-86d7-0bc2c858622c","system_id":"levelo_inurba_marseille","lat":43.29192,"lon":5.35796,"is_reserved":false,"is_disabled":false,"rental_uris":{"android":"levelo://app?vid=d051bf13-7445-45ad-86d7-0bc2c858622c","ios":"levelo://app?vid=d051bf13-7445-45ad-86d7-0bc2c858622c"},"vehicle_type_id":"4","last_reported":1735193601,"current_range_meters":29600,"station_id":"ce4bhb12rcd13ifvqel0","pricing_plan_id":"cebpf4jnsgd1na2vs0mg"},{"bike_id":"0fe68c31-9b64-4dab-973a-b0ae7a3f2dc3","system_id":"levelo_inurba_marseille","lat":43.295268,"lon":5.37505,"is_reserved":false,"is_disabled":false,"rental_uris":{"android":"levelo://app?vid=0fe68c31-9b64-4dab-973a-b0ae7a3f2dc3","ios":"levelo://app?vid=0fe68c31-9b64-4dab-973a-b0ae7a3f2dc3"},"vehicle_type_id":"4","last_reported":1735193601,"current_range_meters":37600,"station_id":"ce4bgkp2rcd13ifvqbmg","pricing_plan_id":"cebpf4jnsgd1na2vs0mg"},{"bike_id":"cfa26b98-e2e5-4b41-9d5d-452042618ade","system_id":"levelo_inurba_marseille","lat":43.28714,"lon":5.37382,"is_reserved":false,"is_disabled":false,"rental_uris":{"android":"levelo://app?vid=cfa26b98-e2e5-4b41-9d5d-452042618ade","ios":"levelo://app?vid=cfa26b98-e2e5-4b41-9d5d-452042618ade"},"vehicle_type_id":"4","last_reported":1735193601,"current_range_meters":30400,"station_id":"ce4bh3p2rcd13ifvqdq0","pricing_plan_id":"cebpf4jnsgd1na2vs0mg"},{"bike_id":"6d4ed78f-6fd2-4452-87fa-0a236cb7ec15","system_id":"levelo_inurba_marseille","lat":43.27212,"lon":5.39178,"is_reserved":false,"is_disabled":false,"rental_uris":{"android":"levelo://app?vid=6d4ed78f-6fd2-4452-87fa-0a236cb7ec15","ios":"levelo://app?vid=6d4ed78f-6fd2-4452-87fa-0a236cb7ec15"},"vehicle_type_id":"4","last_reported":1735193601,"current_range_meters":26000,"station_id":"ce4bhhp2rcd13ifvqfm0","pricing_plan_id":"cebpf4jnsgd1na2vs0mg"},{"bike_id":"664eb482-5a4d-4571-97ec-457bdbf3f2b3","system_id":"levelo_inurba_marseille","lat":43.27948,"lon":5.41057,"is_reserved":false,"is_disabled":false,"rental_uris":{"android":"levelo://app?vid=664eb482-5a4d-4571-97ec-457bdbf3f2b3","ios":"levelo://app?vid=664eb482-5a4d-4571-97ec-457bdbf3f2b3"},"vehicle_type_id":"4","last_reported":1735193601,"current_range_meters":35600,"station_id":"ce4bhnp2rcd13ifvqh0g","pricing_plan_id":"cebpf4jnsgd1na2vs0mg"},{"bike_id":"d05e567c-c259-4bef-aaec-2b74975b96c4","system_id":"levelo_inurba_marseille","lat":43.28475,"lon":5.3841,"is_reserved":false,"is_disabled":false,"rental_uris":{"android":"levelo://app?vid=d05e567c-c259-4bef-aaec-2b74975b96c4","ios":"levelo://app?vid=d05e567c-c259-4bef-aaec-2b74975b96c4"},"vehicle_type_id":"4","last_reported":1735193601,"current_range_meters":38800,"station_id":"ce4bh512rcd13ifvqe3g","pricing_plan_id":"cebpf4jnsgd1na2vs0mg"},{"bike_id":"661c9c03-d158-4336-ab9c-5e12b162be7d","system_id":"levelo_inurba_marseille","lat":43.30427,"lon":5.38889,"is_reserved":false,"is_disabled":false,"rental_uris":{"android":"levelo://app?vid=661c9c03-d158-4336-ab9c-5e12b162be7d","ios":"levelo://app?vid=661c9c03-d158-4336-ab9c-5e12b162be7d"},"vehicle_type_id":"4","last_reported":1735193601,"current_range_meters":28800,"station_id":"ce4bgk12rcd13ifvqbi0","pricing_plan_id":"cebpf4jnsgd1na2vs0mg"},{"bike_id":"e87c3b99-5e71-4722-af07-f1b0e4f84d7a","system_id":"levelo_inurba_marseille","lat":43.29838,"lon":5.36268,"is_reserved":false,"is_disabled":false,"rental_uris":{"android":"levelo://app?vid=e87c3b99-5e71-4722-af07-f1b0e4f84d7a","ios":"levelo://app?vid=e87c3b99-5e71-4722-af07-f1b0e4f84d7a"},"vehicle_type_id":"4","last_reported":1735193601,"current_range_meters":16000,"station_id":"ce4bgpp2rcd13ifvqc3g","pricing_plan_id":"cebpf4jnsgd1na2vs0mg"},{"bike_id":"dda65ac8-8d64-45c8-923b-7c11f156fdc0","system_id":"levelo_inurba_marseille","lat":43.241746,"lon":5.397371,"is_reserved":false,"is_disabled":false,"rental_uris":{"android":"levelo://app?vid=dda65ac8-8d64-45c8-923b-7c11f156fdc0","ios":"levelo://app?vid=dda65ac8-8d64-45c8-923b-7c11f156fdc0"},"vehicle_type_id":"4","last_reported":1735193601,"current_range_meters":38400,"station_id":"ce4bhn12rcd13ifvqgpg","pricing_plan_id":"cebpf4jnsgd1na2vs0mg"},{"bike_id":"10e5cf7c-9cab-4395-9a5f-8fc6dbe65db2","system_id":"levelo_inurba_marseille","lat":43.27922,"lon":5.39598,"is_reserved":false,"is_disabled":false,"rental_uris":{"android":"levelo://app?vid=10e5cf7c-9cab-4395-9a5f-8fc6dbe65db2","ios":"levelo://app?vid=10e5cf7c-9cab-4395-9a5f-8fc6dbe65db2"},"vehicle_type_id":"4","last_reported":1735193601,"current_range_meters":19200,"station_id":"ce4bhf92rcd13ifvqf40","pricing_plan_id":"cebpf4jnsgd1na2vs0mg"},{"bike_id":"022eb417-3899-4e9c-a3fa-64e526f93978","system_id":"levelo_inurba_marseille","lat":43.296137,"lon":5.377119,"is_reserved":false,"is_disabled":false,"rental_uris":{"android":"levelo://app?vid=022eb417-3899-4e9c-a3fa-64e526f93978","ios":"levelo://app?vid=022eb417-3899-4e9c-a3fa-64e526f93978"},"vehicle_type_id":"4","last_reported":1735193601,"current_range_meters":24800,"station_id":"ce4bgi92rcd13ifvqb90","pricing_plan_id":"cebpf4jnsgd1na2vs0mg"},{"bike_id":"c9751a8a-79d3-40c3-84a6-e2e10badf950","system_id":"levelo_inurba_marseille","lat":43.299091,"lon":5.381546,"is_reserved":false,"is_disabled":false,"rental_uris":{"android":"levelo://app?vid=c9751a8a-79d3-40c3-84a6-e2e10badf950","ios":"levelo://app?vid=c9751a8a-79d3-40c3-84a6-e2e10badf950"},"vehicle_type_id":"4","last_reported":1735193601,"current_range_meters":38800,"station_id":"ce4bgj12rcd13ifvqbc0","pricing_plan_id":"cebpf4jnsgd1na2vs0mg"},{"bike_id":"f812ca46-32dc-406a-a4e4-9398bc42559a","system_id":"levelo_inurba_marseille","lat":43.31495,"lon":5.37311,"is_reserved":false,"is_disabled":false,"rental_uris":{"android":"levelo://app?vid=f812ca46-32dc-406a-a4e4-9398bc42559a","ios":"levelo://app?vid=f812ca46-32dc-406a-a4e4-9398bc42559a"},"vehicle_type_id":"4","last_reported":1735193601,"current_range_meters":35200,"station_id":"ce4bgt12rcd13ifvqcd0","pricing_plan_id":"cebpf4jnsgd1na2vs0mg"},{"bike_id":"00f2299e-6e78-4b67-898f-d05e3c74d6f8","system_id":"levelo_inurba_marseille","lat":43.274289,"lon":5.394087,"is_reserved":false,"is_disabled":false,"rental_uris":{"android":"levelo://app?vid=00f2299e-6e78-4b67-898f-d05e3c74d6f8","ios":"levelo://app?vid=00f2299e-6e78-4b67-898f-d05e3c74d6f8"},"vehicle_type_id":"4","last_reported":1735193601,"current_range_meters":9600,"station_id":"ce4bhdp2rcd13ifvqf20","pricing_plan_id":"cebpf4jnsgd1na2vs0mg"},{"bike_id":"526c3b21-f659-466e-a14d-5675dcf072b5","system_id":"levelo_inurba_marseille","lat":43.27068,"lon":5.42273,"is_reserved":false,"is_disabled":false,"rental_uris":{"android":"levelo://app?vid=526c3b21-f659-466e-a14d-5675dcf072b5","ios":"levelo://app?vid=526c3b21-f659-466e-a14d-5675dcf072b5"},"vehicle_type_id":"4","last_reported":1735193601,"current_range_meters":32400,"station_id":"ce4bhk92rcd13ifvqgb0","pricing_plan_id":"cebpf4jnsgd1na2vs0mg"},{"bike_id":"6bca16b1-3eb4-4299-91bc-9740eea99592","system_id":"levelo_inurba_marseille","lat":43.298409,"lon":5.362686,"is_reserved":false,"is_disabled":false,"rental_uris":{"android":"levelo://app?vid=6bca16b1-3eb4-4299-91bc-9740eea99592","ios":"levelo://app?vid=6bca16b1-3eb4-4299-91bc-9740eea99592"},"vehicle_type_id":"4","last_reported":1735193601,"current_range_meters":39200,"station_id":"ce4bgpp2rcd13ifvqc3g","pricing_plan_id":"cebpf4jnsgd1na2vs0mg"},{"bike_id":"583fcf16-6215-467b-9284-03c60009d588","system_id":"levelo_inurba_marseille","lat":43.31162,"lon":5.38706,"is_reserved":false,"is_disabled":false,"rental_uris":{"android":"levelo://app?vid=583fcf16-6215-467b-9284-03c60009d588","ios":"levelo://app?vid=583fcf16-6215-467b-9284-03c60009d588"},"vehicle_type_id":"4","last_reported":1735193601,"current_range_meters":32000,"station_id":"ce4bgv12rcd13ifvqcp0","pricing_plan_id":"cebpf4jnsgd1na2vs0mg"},{"bike_id":"66c4cea7-6706-4a03-a4e2-6dd2841453fb","system_id":"levelo_inurba_marseille","lat":43.32247,"lon":5.39491,"is_reserved":false,"is_disabled":false,"rental_uris":{"android":"levelo://app?vid=66c4cea7-6706-4a03-a4e2-6dd2841453fb","ios":"levelo://app?vid=66c4cea7-6706-4a03-a4e2-6dd2841453fb"},"vehicle_type_id":"4","last_reported":1735193601,"current_range_meters":26800,"station_id":"","pricing_plan_id":"cebpf4jnsgd1na2vs0mg"},{"bike_id":"812d61de-c0d1-4794-bdbf-49937c5fb339","system_id":"levelo_inurba_marseille","lat":43.28442,"lon":5.39184,"is_reserved":false,"is_disabled":false,"rental_uris":{"android":"levelo://app?vid=812d61de-c0d1-4794-bdbf-49937c5fb339","ios":"levelo://app?vid=812d61de-c0d1-4794-bdbf-49937c5fb339"},"vehicle_type_id":"4","last_reported":1735193601,"current_range_meters":38000,"station_id":"ce4bhoh2rcd13ifvqh5g","pricing_plan_id":"cebpf4jnsgd1na2vs0mg"},{"bike_id":"b2caa9c6-c390-48a3-9ad3-d74f863e92a7","system_id":"levelo_inurba_marseille","lat":43.30143,"lon":5.37428,"is_reserved":false,"is_disabled":false,"rental_uris":{"android":"levelo://app?vid=b2caa9c6-c390-48a3-9ad3-d74f863e92a7","ios":"levelo://app?vid=b2caa9c6-c390-48a3-9ad3-d74f863e92a7"},"vehicle_type_id":"4","last_reported":1735193601,"current_range_meters":27600,"station_id":"ce4bgs92rcd13ifvqcc0","pricing_plan_id":"cebpf4jnsgd1na2vs0mg"},{"bike_id":"6a20fe92-f0bd-49b0-8390-7d71a4ed4c83","system_id":"levelo_inurba_marseille","lat":43.308039,"lon":5.381518,"is_reserved":false,"is_disabled":false,"rental_uris":{"android":"levelo://app?vid=6a20fe92-f0bd-49b0-8390-7d71a4ed4c83","ios":"levelo://app?vid=6a20fe92-f0bd-49b0-8390-7d71a4ed4c83"},"vehicle_type_id":"4","last_reported":1735193601,"current_range_meters":38800,"station_id":"ce4bgt12rcd13ifvqce0","pricing_plan_id":"cebpf4jnsgd1na2vs0mg"},{"bike_id":"1695f27a-9e40-44de-aae6-2b016129c621","system_id":"levelo_inurba_marseille","lat":43.32656,"lon":5.40992,"is_reserved":false,"is_disabled":false,"rental_uris":{"android":"levelo://app?vid=1695f27a-9e40-44de-aae6-2b016129c621","ios":"levelo://app?vid=1695f27a-9e40-44de-aae6-2b016129c621"},"vehicle_type_id":"4","last_reported":1735193601,"current_range_meters":38400,"station_id":"ce4bhpp2rcd13ifvqhgg","pricing_plan_id":"cebpf4jnsgd1na2vs0mg"},{"bike_id":"7dcc5de2-c5e5-4846-a6ca-2d339b822766","system_id":"levelo_inurba_marseille","lat":43.27907,"lon":5.41237,"is_reserved":false,"is_disabled":false,"rental_uris":{"android":"levelo://app?vid=7dcc5de2-c5e5-4846-a6ca-2d339b822766","ios":"levelo://app?vid=7dcc5de2-c5e5-4846-a6ca-2d339b822766"},"vehicle_type_id":"4","last_reported":1735193601,"current_range_meters":26800,"station_id":"","pricing_plan_id":"cebpf4jnsgd1na2vs0mg"},{"bike_id":"25d2bc58-f6d3-4508-aa97-5261c6aa48a4","system_id":"levelo_inurba_marseille","lat":43.300935,"lon":5.390873,"is_reserved":false,"is_disabled":false,"rental_uris":{"android":"levelo://app?vid=25d2bc58-f6d3-4508-aa97-5261c6aa48a4","ios":"levelo://app?vid=25d2bc58-f6d3-4508-aa97-5261c6aa48a4"},"vehicle_type_id":"4","last_reported":1735193601,"current_range_meters":25600,"station_id":"ce4bh192rcd13ifvqdb0","pricing_plan_id":"cebpf4jnsgd1na2vs0mg"},{"bike_id":"8879d58d-570f-466c-bff6-20496b018051","system_id":"levelo_inurba_marseille","lat":43.30921,"lon":5.37196,"is_reserved":false,"is_disabled":false,"rental_uris":{"android":"levelo://app?vid=8879d58d-570f-466c-bff6-20496b018051","ios":"levelo://app?vid=8879d58d-570f-466c-bff6-20496b018051"},"vehicle_type_id":"4","last_reported":1735193601,"current_range_meters":8800,"station_id":"ce4bguh2rcd13ifvqckg","pricing_plan_id":"cebpf4jnsgd1na2vs0mg"},{"bike_id":"d24bcf9e-7df9-4fc0-9736-a88fb5d67669","system_id":"levelo_inurba_marseille","lat":43.31123,"lon":5.3776,"is_reserved":false,"is_disabled":false,"rental_uris":{"android":"levelo://app?vid=d24bcf9e-7df9-4fc0-9736-a88fb5d67669","ios":"levelo://app?vid=d24bcf9e-7df9-4fc0-9736-a88fb5d67669"},"vehicle_type_id":"4","last_reported":1735193601,"current_range_meters":20000,"station_id":"ce4bgt92rcd13ifvqcg0","pricing_plan_id":"cebpf4jnsgd1na2vs0mg"},{"bike_id":"85b18234-eb11-4d52-9803-31ba5886e8c1","system_id":"levelo_inurba_marseille","lat":43.284573,"lon":5.358832,"is_reserved":false,"is_disabled":false,"rental_uris":{"android":"levelo://app?vid=85b18234-eb11-4d52-9803-31ba5886e8c1","ios":"levelo://app?vid=85b18234-eb11-4d52-9803-31ba5886e8c1"},"vehicle_type_id":"4","last_reported":1735193601,"current_range_meters":24800,"station_id":"ce4bhah2rcd13ifvqei0","pricing_plan_id":"cebpf4jnsgd1na2vs0mg"},{"bike_id":"eb94956d-a37a-47d9-bfab-17deeb9d48aa","system_id":"levelo_inurba_marseille","lat":43.28619,"lon":5.3707,"is_reserved":false,"is_disabled":false,"rental_uris":{"android":"levelo://app?vid=eb94956d-a37a-47d9-bfab-17deeb9d48aa","ios":"levelo://app?vid=eb94956d-a37a-47d9-bfab-17deeb9d48aa"},"vehicle_type_id":"4","last_reported":1735193601,"current_range_meters":38400,"station_id":"ce4bht12rcd13ifvqi60","pricing_plan_id":"cebpf4jnsgd1na2vs0mg"},{"bike_id":"5991145c-5e0e-4e64-83cf-1350c07ccc56","system_id":"levelo_inurba_marseille","lat":43.264926,"lon":5.395375,"is_reserved":false,"is_disabled":false,"rental_uris":{"android":"levelo://app?vid=5991145c-5e0e-4e64-83cf-1350c07ccc56","ios":"levelo://app?vid=5991145c-5e0e-4e64-83cf-1350c07ccc56"},"vehicle_type_id":"4","last_reported":1735193601,"current_range_meters":10800,"station_id":"ce4bhi12rcd13ifvqfq0","pricing_plan_id":"cebpf4jnsgd1na2vs0mg"},{"bike_id":"9da590cf-9e0b-4ae4-a009-5d750badc2c9","system_id":"levelo_inurba_marseille","lat":43.28937,"lon":5.36636,"is_reserved":false,"is_disabled":false,"rental_uris":{"android":"levelo://app?vid=9da590cf-9e0b-4ae4-a009-5d750badc2c9","ios":"levelo://app?vid=9da590cf-9e0b-4ae4-a009-5d750badc2c9"},"vehicle_type_id":"4","last_reported":1735193601,"current_range_meters":37600,"station_id":"ce4bhap2rcd13ifvqek0","pricing_plan_id":"cebpf4jnsgd1na2vs0mg"},{"bike_id":"4e80fb69-89fc-4bc8-b1e4-f13a99f2e910","system_id":"levelo_inurba_marseille","lat":43.285041,"lon":5.385421,"is_reserved":false,"is_disabled":false,"rental_uris":{"android":"levelo://app?vid=4e80fb69-89fc-4bc8-b1e4-f13a99f2e910","ios":"levelo://app?vid=4e80fb69-89fc-4bc8-b1e4-f13a99f2e910"},"vehicle_type_id":"4","last_reported":1735193601,"current_range_meters":38400,"station_id":"ce4bh8p2rcd13ifvqeb0","pricing_plan_id":"cebpf4jnsgd1na2vs0mg"},{"bike_id":"8735588c-f2a4-4884-b541-d6b7b88e92d8","system_id":"levelo_inurba_marseille","lat":43.30135,"lon":5.39851,"is_reserved":false,"is_disabled":false,"rental_uris":{"android":"levelo://app?vid=8735588c-f2a4-4884-b541-d6b7b88e92d8","ios":"levelo://app?vid=8735588c-f2a4-4884-b541-d6b7b88e92d8"},"vehicle_type_id":"4","last_reported":1735193601,"current_range_meters":22000,"station_id":"ce4bh0h2rcd13ifvqd40","pricing_plan_id":"cebpf4jnsgd1na2vs0mg"},{"bike_id":"4f0978bb-2568-4421-9860-b196c4f6425f","system_id":"levelo_inurba_marseille","lat":43.29272,"lon":5.36846,"is_reserved":false,"is_disabled":false,"rental_uris":{"android":"levelo://app?vid=4f0978bb-2568-4421-9860-b196c4f6425f","ios":"levelo://app?vid=4f0978bb-2568-4421-9860-b196c4f6425f"},"vehicle_type_id":"4","last_reported":1735193601,"current_range_meters":27200,"station_id":"ce4bhbp2rcd13ifvqesg","pricing_plan_id":"cebpf4jnsgd1na2vs0mg"},{"bike_id":"db547829-6919-49e6-b858-45b4f2090ef8","system_id":"levelo_inurba_marseille","lat":43.29299,"lon":5.37471,"is_reserved":false,"is_disabled":false,"rental_uris":{"android":"levelo://app?vid=db547829-6919-49e6-b858-45b4f2090ef8","ios":"levelo://app?vid=db547829-6919-49e6-b858-45b4f2090ef8"},"vehicle_type_id":"4","last_reported":1735193601,"current_range_meters":31200,"station_id":"ce4bgi12rcd13ifvqb70","pricing_plan_id":"cebpf4jnsgd1na2vs0mg"},{"bike_id":"dc104f9a-1826-4977-9415-2e0325ffdd78","system_id":"levelo_inurba_marseille","lat":43.28077,"lon":5.39665,"is_reserved":false,"is_disabled":false,"rental_uris":{"android":"levelo://app?vid=dc104f9a-1826-4977-9415-2e0325ffdd78","ios":"levelo://app?vid=dc104f9a-1826-4977-9415-2e0325ffdd78"},"vehicle_type_id":"4","last_reported":1735193601,"current_range_meters":37600,"station_id":"ce4bho12rcd13ifvqh2g","pricing_plan_id":"cebpf4jnsgd1na2vs0mg"},{"bike_id":"30a2f515-e594-409d-8eaf-f89d300b2f1b","system_id":"levelo_inurba_marseille","lat":43.310775,"lon":5.383677,"is_reserved":false,"is_disabled":false,"rental_uris":{"android":"levelo://app?vid=30a2f515-e594-409d-8eaf-f89d300b2f1b","ios":"levelo://app?vid=30a2f515-e594-409d-8eaf-f89d300b2f1b"},"vehicle_type_id":"4","last_reported":1735193601,"current_range_meters":16000,"station_id":"ce4bgv92rcd13ifvqcr0","pricing_plan_id":"cebpf4jnsgd1na2vs0mg"},{"bike_id":"cba3e2e0-c1c7-42ac-8b31-d37cde6c0794","system_id":"levelo_inurba_marseille","lat":43.292246,"lon":5.360579,"is_reserved":false,"is_disabled":false,"rental_uris":{"android":"levelo://app?vid=cba3e2e0-c1c7-42ac-8b31-d37cde6c0794","ios":"levelo://app?vid=cba3e2e0-c1c7-42ac-8b31-d37cde6c0794"},"vehicle_type_id":"4","last_reported":1735193601,"current_range_meters":38000,"station_id":"ce4bhbh2rcd13ifvqeqg","pricing_plan_id":"cebpf4jnsgd1na2vs0mg"},{"bike_id":"730c5a7f-2181-4dfc-ac1e-bda49a5cba1c","system_id":"levelo_inurba_marseille","lat":43.26931,"lon":5.38661,"is_reserved":false,"is_disabled":false,"rental_uris":{"android":"levelo://app?vid=730c5a7f-2181-4dfc-ac1e-bda49a5cba1c","ios":"levelo://app?vid=730c5a7f-2181-4dfc-ac1e-bda49a5cba1c"},"vehicle_type_id":"4","last_reported":1735193601,"current_range_meters":38000,"station_id":"ce4bhh92rcd13ifvqfh0","pricing_plan_id":"cebpf4jnsgd1na2vs0mg"},{"bike_id":"6ebbe7ab-549c-41f2-a10d-c204ccee451d","system_id":"levelo_inurba_marseille","lat":43.29604,"lon":5.38099,"is_reserved":false,"is_disabled":false,"rental_uris":{"android":"levelo://app?vid=6ebbe7ab-549c-41f2-a10d-c204ccee451d","ios":"levelo://app?vid=6ebbe7ab-549c-41f2-a10d-c204ccee451d"},"vehicle_type_id":"4","last_reported":1735193601,"current_range_meters":13600,"station_id":"ce4bgl12rcd13ifvqbo0","pricing_plan_id":"cebpf4jnsgd1na2vs0mg"},{"bike_id":"89c31185-79e8-41ba-aeec-7ee23fd07219","system_id":"levelo_inurba_marseille","lat":43.269529,"lon":5.386263,"is_reserved":false,"is_disabled":false,"rental_uris":{"android":"levelo://app?vid=89c31185-79e8-41ba-aeec-7ee23fd07219","ios":"levelo://app?vid=89c31185-79e8-41ba-aeec-7ee23fd07219"},