{"last_updated":1726085308,"ttl":30,"version":"2.2","data":{"bikes":[{"bike_id":"8cbb0dca-1962-40a9-a883-65f1a15edf23","system_id":"levelo_inurba_marseille","lat":43.29012,"lon":5.38112,"is_reserved":false,"is_disabled":false,"rental_uris":{"android":"levelo://app?vid=8cbb0dca-1962-40a9-a883-65f1a15edf23","ios":"levelo://app?vid=8cbb0dca-1962-40a9-a883-65f1a15edf23"},"vehicle_type_id":"4","last_reported":1726085308,"current_range_meters":30800,"station_id":"ce4bh4p2rcd13ifvqe1g","pricing_plan_id":"cebpf4jnsgd1na2vs0mg"},{"bike_id":"2e4787fb-289c-4d26-9cf5-9d43dc019d88","system_id":"levelo_inurba_marseille","lat":43.27823,"lon":5.39219,"is_reserved":false,"is_disabled":false,"rental_uris":{"android":"levelo://app?vid=2e4787fb-289c-4d26-9cf5-9d43dc019d88","ios":"levelo://app?vid=2e4787fb-289c-4d26-9cf5-9d43dc019d88"},"vehicle_type_id":"4","last_reported":1726085308,"current_range_meters":11600,"station_id":"ce4bhjp2rcd13ifvqga0","pricing_plan_id":"cebpf4jnsgd1na2vs0mg"},{"bike_id":"a85d2524-270b-4a56-8aee-7a41a1e4e1b6","system_id":"levelo_inurba_marseille","lat":43.31333,"lon":5.39699,"is_reserved":false,"is_disabled":false,"rental_uris":{"android":"levelo://app?vid=a85d2524-270b-4a56-8aee-7a41a1e4e1b6","ios":"levelo://app?vid=a85d2524-270b-4a56-8aee-7a41a1e4e1b6"},"vehicle_type_id":"4","last_reported":1726085308,"current_range_meters":6400,"station_id":"ce4bgvp2rcd13ifvqcu0","pricing_plan_id":"cebpf4jnsgd1na2vs0mg"},{"bike_id":"367794c3-8625-4d26-858f-3e3dc187bee7","system_id":"levelo_inurba_marseille","lat":43.301386,"lon":5.374009,"is_reserved":false,"is_disabled":false,"rental_uris":{"android":"levelo://app?vid=367794c3-8625-4d26-858f-3e3dc187bee7","ios":"levelo://app?vid=367794c3-8625-4d26-858f-3e3dc187bee7"},"vehicle_type_id":"4","last_reported":1726085308,"current_range_meters":22000,"station_id":"ce4bgs92rcd13ifvqcc0","pricing_plan_id":"cebpf4jnsgd1na2vs0mg"},{"bike_id":"c8d8b2c1-e873-4901-b875-5672f75af04f","system_id":"levelo_inurba_marseille","lat":43.28989,"lon":5.35607,"is_reserved":false,"is_disabled":false,"rental_uris":{"android":"levelo://app?vid=c8d8b2c1-e873-4901-b875-5672f75af04f","ios":"levelo://app?vid=c8d8b2c1-e873-4901-b875-5672f75af04f"},"vehicle_type_id":"4","last_reported":1726085308,"current_range_meters":39200,"station_id":"ce4bhb92rcd13ifvqen0","pricing_plan_id":"cebpf4jnsgd1na2vs0mg"},{"bike_id":"59a275ca-7032-43f1-a52d-c4b3f8fbb374","system_id":"levelo_inurba_marseille","lat":43.29882,"lon":5.39732,"is_reserved":false,"is_disabled":false,"rental_uris":{"android":"levelo://app?vid=59a275ca-7032-43f1-a52d-c4b3f8fbb374","ios":"levelo://app?vid=59a275ca-7032-43f1-a52d-c4b3f8fbb374"},"vehicle_type_id":"4","last_reported":1726085308,"current_range_meters":11200,"station_id":"ce4bh0h2rcd13ifvqd50","pricing_plan_id":"cebpf4jnsgd1na2vs0mg"},{"bike_id":"87d742ef-c9db-4604-89f5-6aec595f740f","system_id":"levelo_inurba_marseille","lat":43.27825,"lon":5.40709,"is_reserved":false,"is_disabled":false,"rental_uris":{"android":"levelo://app?vid=87d742ef-c9db-4604-89f5-6aec595f740f","ios":"levelo://app?vid=87d742ef-c9db-4604-89f5-6aec595f740f"},"vehicle_type_id":"4","last_reported":1726085308,"current_range_meters":39200,"station_id":"ce4bhnh2rcd13ifvqgtg","pricing_plan_id":"cebpf4jnsgd1na2vs0mg"},{"bike_id":"fffd6d98-9aa9-4c52-8fec-a8c210be0600","system_id":"levelo_inurba_marseille","lat":43.30803,"lon":5.43527,"is_reserved":false,"is_disabled":false,"rental_uris":{"android":"levelo://app?vid=fffd6d98-9aa9-4c52-8fec-a8c210be0600","ios":"levelo://app?vid=fffd6d98-9aa9-4c52-8fec-a8c210be0600"},"vehicle_type_id":"4","last_reported":1726085308,"current_range_meters":22400,"station_id":"ce4bhph2rcd13ifvqheg","pricing_plan_id":"cebpf4jnsgd1na2vs0mg"},{"bike_id":"daebafbe-8982-46d6-9073-8d62cf0035d8","system_id":"levelo_inurba_marseille","lat":43.30302,"lon":5.39221,"is_reserved":false,"is_disabled":false,"rental_uris":{"android":"levelo://app?vid=daebafbe-8982-46d6-9073-8d62cf0035d8","ios":"levelo://app?vid=daebafbe-8982-46d6-9073-8d62cf0035d8"},"vehicle_type_id":"4","last_reported":1726085308,"current_range_meters":34000,"station_id":"ce4bgkh2rcd13ifvqbk0","pricing_plan_id":"cebpf4jnsgd1na2vs0mg"},{"bike_id":"dda2e646-2c4f-4797-9db7-2e1991024ed4","system_id":"levelo_inurba_marseille","lat":43.28996,"lon":5.35619,"is_reserved":false,"is_disabled":false,"rental_uris":{"android":"levelo://app?vid=dda2e646-2c4f-4797-9db7-2e1991024ed4","ios":"levelo://app?vid=dda2e646-2c4f-4797-9db7-2e1991024ed4"},"vehicle_type_id":"4","last_reported":1726085308,"current_range_meters":38800,"station_id":"ce4bhb92rcd13ifvqen0","pricing_plan_id":"cebpf4jnsgd1na2vs0mg"},{"bike_id":"4a36f624-934a-49c6-8d82-beb2e7aa8fd3","system_id":"levelo_inurba_marseille","lat":43.31282,"lon":5.40175,"is_reserved":false,"is_disabled":false,"rental_uris":{"android":"levelo://app?vid=4a36f624-934a-49c6-8d82-beb2e7aa8fd3","ios":"levelo://app?vid=4a36f624-934a-49c6-8d82-beb2e7aa8fd3"},"vehicle_type_id":"4","last_reported":1726085308,"current_range_meters":38800,"station_id":"ce4bh092rcd13ifvqd30","pricing_plan_id":"cebpf4jnsgd1na2vs0mg"},{"bike_id":"9e0b801e-5e69-49f7-9046-a0346f58d51e","system_id":"levelo_inurba_marseille","lat":43.27066,"lon":5.42286,"is_reserved":false,"is_disabled":false,"rental_uris":{"android":"levelo://app?vid=9e0b801e-5e69-49f7-9046-a0346f58d51e","ios":"levelo://app?vid=9e0b801e-5e69-49f7-9046-a0346f58d51e"},"vehicle_type_id":"4","last_reported":1726085308,"current_range_meters":37600,"station_id":"ce4bhk92rcd13ifvqgb0","pricing_plan_id":"cebpf4jnsgd1na2vs0mg"},{"bike_id":"b3be17d8-c440-49f0-8452-97666668cbf6","system_id":"levelo_inurba_marseille","lat":43.28039,"lon":5.36952,"is_reserved":false,"is_disabled":false,"rental_uris":{"android":"levelo://app?vid=b3be17d8-c440-49f0-8452-97666668cbf6","ios":"levelo://app?vid=b3be17d8-c440-49f0-8452-97666668cbf6"},"vehicle_type_id":"4","last_reported":1726085308,"current_range_meters":19600,"station_id":"ce4bha12rcd13ifvqef0","pricing_plan_id":"cebpf4jnsgd1na2vs0mg"},{"bike_id":"693d4565-6060-4b49-b940-b7ddd059cb2b","system_id":"levelo_inurba_marseille","lat":43.28702,"lon":5.37393,"is_reserved":false,"is_disabled":false,"rental_uris":{"android":"levelo://app?vid=693d4565-6060-4b49-b940-b7ddd059cb2b","ios":"levelo://app?vid=693d4565-6060-4b49-b940-b7ddd059cb2b"},"vehicle_type_id":"4","last_reported":1726085308,"current_range_meters":14000,"station_id":"ce4bh3p2rcd13ifvqdq0","pricing_plan_id":"cebpf4jnsgd1na2vs0mg"},{"bike_id":"5ce6cd8b-eaf4-4670-977f-004d099d9e83","system_id":"levelo_inurba_marseille","lat":43.31333,"lon":5.39699,"is_reserved":false,"is_disabled":false,"rental_uris":{"android":"levelo://app?vid=5ce6cd8b-eaf4-4670-977f-004d099d9e83","ios":"levelo://app?vid=5ce6cd8b-eaf4-4670-977f-004d099d9e83"},"vehicle_type_id":"4","last_reported":1726085308,"current_range_meters":8000,"station_id":"ce4bgvp2rcd13ifvqcu0","pricing_plan_id":"cebpf4jnsgd1na2vs0mg"},{"bike_id":"f4ef82a8-1bfb-4228-ab2a-3b51a4b8fcd4","system_id":"levelo_inurba_marseille","lat":43.29872,"lon":5.38905,"is_reserved":false,"is_disabled":false,"rental_uris":{"android":"levelo://app?vid=f4ef82a8-1bfb-4228-ab2a-3b51a4b8fcd4","ios":"levelo://app?vid=f4ef82a8-1bfb-4228-ab2a-3b51a4b8fcd4"},"vehicle_type_id":"4","last_reported":1726085308,"current_range_meters":31200,"station_id":"ce4bh392rcd13ifvqdl0","pricing_plan_id":"cebpf4jnsgd1na2vs0mg"},{"bike_id":"91df47d9-9dbf-4e2c-a1a6-0daa0ee3a853","system_id":"levelo_inurba_marseille","lat":43.26791,"lon":5.39414,"is_reserved":false,"is_disabled":false,"rental_uris":{"android":"levelo://app?vid=91df47d9-9dbf-4e2c-a1a6-0daa0ee3a853","ios":"levelo://app?vid=91df47d9-9dbf-4e2c-a1a6-0daa0ee3a853"},"vehicle_type_id":"4","last_reported":1726085308,"current_range_meters":4400,"station_id":"ce4bhh12rcd13ifvqfg0","pricing_plan_id":"cebpf4jnsgd1na2vs0mg"},{"bike_id":"8f1994d1-01e1-4dd7-98fe-ffede7321f06","system_id":"levelo_inurba_marseille","lat":43.3229,"lon":5.38276,"is_reserved":false,"is_disabled":false,"rental_uris":{"android":"levelo://app?vid=8f1994d1-01e1-4dd7-98fe-ffede7321f06","ios":"levelo://app?vid=8f1994d1-01e1-4dd7-98fe-ffede7321f06"},"vehicle_type_id":"4","last_reported":1726085308,"current_range_meters":35200,"station_id":"ce4bhr12rcd13ifvqhqg","pricing_plan_id":"cebpf4jnsgd1na2vs0mg"},{"bike_id":"52fab483-8ee3-4a31-b738-42b2ad293f1a","system_id":"levelo_inurba_marseille","lat":43.30888,"lon":5.37202,"is_reserved":false,"is_disabled":false,"rental_uris":{"android":"levelo://app?vid=52fab483-8ee3-4a31-b738-42b2ad293f1a","ios":"levelo://app?vid=52fab483-8ee3-4a31-b738-42b2ad293f1a"},"vehicle_type_id":"4","last_reported":1726085308,"current_range_meters":36000,"station_id":"ce4bguh2rcd13ifvqckg","pricing_plan_id":"cebpf4jnsgd1na2vs0mg"},{"bike_id":"0b66cdfc-f8b0-4c62-9794-1288c6183e7b","system_id":"levelo_inurba_marseille","lat":43.26954,"lon":5.38634,"is_reserved":false,"is_disabled":false,"rental_uris":{"android":"levelo://app?vid=0b66cdfc-f8b0-4c62-9794-1288c6183e7b","ios":"levelo://app?vid=0b66cdfc-f8b0-4c62-9794-1288c6183e7b"},"vehicle_type_id":"4","last_reported":1726085308,"current_range_meters":26800,"station_id":"ce4bhh92rcd13ifvqfh0","pricing_plan_id":"cebpf4jnsgd1na2vs0mg"},{"bike_id":"592d9992-7adc-4f13-aca5-e57764690bad","system_id":"levelo_inurba_marseille","lat":43.28619,"lon":5.35109,"is_reserved":false,"is_disabled":false,"rental_uris":{"android":"levelo://app?vid=592d9992-7adc-4f13-aca5-e57764690bad","ios":"levelo://app?vid=592d9992-7adc-4f13-aca5-e57764690bad"},"vehicle_type_id":"4","last_reported":1726085308,"current_range_meters":7200,"station_id":"ce4bhch2rcd13ifvqeug","pricing_plan_id":"cebpf4jnsgd1na2vs0mg"},{"bike_id":"e7a5839c-8fe9-4805-a0e8-ec1c242be023","system_id":"levelo_inurba_marseille","lat":43.29873,"lon":5.38092,"is_reserved":false,"is_disabled":false,"rental_uris":{"android":"levelo://app?vid=e7a5839c-8fe9-4805-a0e8-ec1c242be023","ios":"levelo://app?vid=e7a5839c-8fe9-4805-a0e8-ec1c242be023"},"vehicle_type_id":"4","last_reported":1726085308,"current_range_meters":9600,"station_id":"ce4bgj12rcd13ifvqbc0","pricing_plan_id":"cebpf4jnsgd1na2vs0mg"},{"bike_id":"f421d1a0-98ff-4014-b51a-532f52a6354a","system_id":"levelo_inurba_marseille","lat":43.30327,"lon":5.40455,"is_reserved":false,"is_disabled":false,"rental_uris":{"android":"levelo://app?vid=f421d1a0-98ff-4014-b51a-532f52a6354a","ios":"levelo://app?vid=f421d1a0-98ff-4014-b51a-532f52a6354a"},"vehicle_type_id":"4","last_reported":1726085308,"current_range_meters":27200,"station_id":"ce4bh012rcd13ifvqd10","pricing_plan_id":"cebpf4jnsgd1na2vs0mg"},{"bike_id":"8ee7f493-74c2-4529-b4cf-9de3dca9cba5","system_id":"levelo_inurba_marseille","lat":43.28848,"lon":5.39297,"is_reserved":false,"is_disabled":false,"rental_uris":{"android":"levelo://app?vid=8ee7f493-74c2-4529-b4cf-9de3dca9cba5","ios":"levelo://app?vid=8ee7f493-74c2-4529-b4cf-9de3dca9cba5"},"vehicle_type_id":"4","last_reported":1726085308,"current_range_meters":19600,"station_id":"ce4bh2p2rcd13ifvqdi0","pricing_plan_id":"cebpf4jnsgd1na2vs0mg"},{"bike_id":"e64b47bd-45fc-471e-b9df-2f68effde955","system_id":"levelo_inurba_marseille","lat":43.29054,"lon":5.35908,"is_reserved":false,"is_disabled":false,"rental_uris":{"android":"levelo://app?vid=e64b47bd-45fc-471e-b9df-2f68effde955","ios":"levelo://app?vid=e64b47bd-45fc-471e-b9df-2f68effde955"},"vehicle_type_id":"4","last_reported":1726085308,"current_range_meters":24400,"station_id":"ce4bha92rcd13ifvqeg0","pricing_plan_id":"cebpf4jnsgd1na2vs0mg"},{"bike_id":"cd8bf60f-2b65-4439-96b7-961b277bab9b","system_id":"levelo_inurba_marseille","lat":43.297203,"lon":5.393645,"is_reserved":false,"is_disabled":false,"rental_uris":{"android":"levelo://app?vid=cd8bf60f-2b65-4439-96b7-961b277bab9b","ios":"levelo://app?vid=cd8bf60f-2b65-4439-96b7-961b277bab9b"},"vehicle_type_id":"4","last_reported":1726085308,"current_range_meters":22800,"station_id":"chh1huq6cuj3fo74tm60","pricing_plan_id":"cebpf4jnsgd1na2vs0mg"},{"bike_id":"b0af54d1-a7ee-48fb-b3e6-0eb7ce098886","system_id":"levelo_inurba_marseille","lat":43.27993,"lon":5.40011,"is_reserved":false,"is_disabled":false,"rental_uris":{"android":"levelo://app?vid=b0af54d1-a7ee-48fb-b3e6-0eb7ce098886","ios":"levelo://app?vid=b0af54d1-a7ee-48fb-b3e6-0eb7ce098886"},"vehicle_type_id":"4","last_reported":1726085308,"current_range_meters":20000,"station_id":"ce4bho92rcd13ifvqh4g","pricing_plan_id":"cebpf4jnsgd1na2vs0mg"},{"bike_id":"4c80c41f-a2e3-4963-9a80-cef4bf3c291f","system_id":"levelo_inurba_marseille","lat":43.27817,"lon":5.40729,"is_reserved":false,"is_disabled":false,"rental_uris":{"android":"levelo://app?vid=4c80c41f-a2e3-4963-9a80-cef4bf3c291f","ios":"levelo://app?vid=4c80c41f-a2e3-4963-9a80-cef4bf3c291f"},"vehicle_type_id":"4","last_reported":1726085308,"current_range_meters":39200,"station_id":"ce4bhnh2rcd13ifvqgtg","pricing_plan_id":"cebpf4jnsgd1na2vs0mg"},{"bike_id":"a43d7bc1-29c7-45be-879b-2f514a75edc2","system_id":"levelo_inurba_marseille","lat":43.23182,"lon":5.39998,"is_reserved":false,"is_disabled":false,"rental_uris":{"android":"levelo://app?vid=a43d7bc1-29c7-45be-879b-2f514a75edc2","ios":"levelo://app?vid=a43d7bc1-29c7-45be-879b-2f514a75edc2"},"vehicle_type_id":"4","last_reported":1726085308,"current_range_meters":2000,"station_id":"ce4bhn12rcd13ifvqgqg","pricing_plan_id":"cebpf4jnsgd1na2vs0mg"},{"bike_id":"f3f52201-60d6-4160-8ac3-3d21324e107d","system_id":"levelo_inurba_marseille","lat":43.28847,"lon":5.39315,"is_reserved":false,"is_disabled":false,"rental_uris":{"android":"levelo://app?vid=f3f52201-60d6-4160-8ac3-3d21324e107d","ios":"levelo://app?vid=f3f52201-60d6-4160-8ac3-3d21324e107d"},"vehicle_type_id":"4","last_reported":1726085308,"current_range_meters":20400,"station_id":"ce4bh2p2rcd13ifvqdi0","pricing_plan_id":"cebpf4jnsgd1na2vs0mg"},{"bike_id":"ba15a6b6-bf5f-469a-84d8-43b119d7a0b2","system_id":"levelo_inurba_marseille","lat":43.2994,"lon":5.36557,"is_reserved":false,"is_disabled":false,"rental_uris":{"android":"levelo://app?vid=ba15a6b6-bf5f-469a-84d8-43b119d7a0b2","ios":"levelo://app?vid=ba15a6b6-bf5f-469a-84d8-43b119d7a0b2"},"vehicle_type_id":"4","last_reported":1726085308,"current_range_meters":38800,"station_id":"ce4bgm92rcd13ifvqbr0","pricing_plan_id":"cebpf4jnsgd1na2vs0mg"},{"bike_id":"96f76945-9546-4b69-acf4-cf27cbf0afdf","system_id":"levelo_inurba_marseille","lat":43.31756,"lon":5.39016,"is_reserved":false,"is_disabled":false,"rental_uris":{"android":"levelo://app?vid=96f76945-9546-4b69-acf4-cf27cbf0afdf","ios":"levelo://app?vid=96f76945-9546-4b69-acf4-cf27cbf0afdf"},"vehicle_type_id":"4","last_reported":1726085308,"current_range_meters":24800,"station_id":"ce4bhqp2rcd13ifvqhng","pricing_plan_id":"cebpf4jnsgd1na2vs0mg"},{"bike_id":"aa17ee77-2921-476f-b116-9ff37dcb2ade","system_id":"levelo_inurba_marseille","lat":43.303216,"lon":5.368933,"is_reserved":false,"is_disabled":false,"rental_uris":{"android":"levelo://app?vid=aa17ee77-2921-476f-b116-9ff37dcb2ade","ios":"levelo://app?vid=aa17ee77-2921-476f-b116-9ff37dcb2ade"},"vehicle_type_id":"4","last_reported":1726085308,"current_range_meters":32000,"station_id":"ce4bgqh2rcd13ifvqc5g","pricing_plan_id":"cebpf4jnsgd1na2vs0mg"},{"bike_id":"d77efda1-4cde-4de0-a036-77d5d7aadb03","system_id":"levelo_inurba_marseille","lat":43.29171,"lon":5.37161,"is_reserved":false,"is_disabled":false,"rental_uris":{"android":"levelo://app?vid=d77efda1-4cde-4de0-a036-77d5d7aadb03","ios":"levelo://app?vid=d77efda1-4cde-4de0-a036-77d5d7aadb03"},"vehicle_type_id":"4","last_reported":1726085308,"current_range_meters":33200,"station_id":"ce4bha92rcd13ifvqeh0","pricing_plan_id":"cebpf4jnsgd1na2vs0mg"},{"bike_id":"c3a84de0-e074-45d2-96a4-3ff17abba9fe","system_id":"levelo_inurba_marseille","lat":43.2408,"lon":5.3774,"is_reserved":false,"is_disabled":false,"rental_uris":{"android":"levelo://app?vid=c3a84de0-e074-45d2-96a4-3ff17abba9fe","ios":"levelo://app?vid=c3a84de0-e074-45d2-96a4-3ff17abba9fe"},"vehicle_type_id":"4","last_reported":1726085308,"current_range_meters":12800,"station_id":"ce4bhnp2rcd13ifvqgvg","pricing_plan_id":"cebpf4jnsgd1na2vs0mg"},{"bike_id":"c62bfb1c-0174-4256-a6d3-9b9b288f6ffb","system_id":"levelo_inurba_marseille","lat":43.25084,"lon":5.39526,"is_reserved":false,"is_disabled":false,"rental_uris":{"android":"levelo://app?vid=c62bfb1c-0174-4256-a6d3-9b9b288f6ffb","ios":"levelo://app?vid=c62bfb1c-0174-4256-a6d3-9b9b288f6ffb"},"vehicle_type_id":"4","last_reported":1726085308,"current_range_meters":17200,"station_id":"ce4bhm12rcd13ifvqgkg","pricing_plan_id":"cebpf4jnsgd1na2vs0mg"},{"bike_id":"a27030f2-3550-4b89-848c-de01ba435523","system_id":"levelo_inurba_marseille","lat":43.28745,"lon":5.36087,"is_reserved":false,"is_disabled":false,"rental_uris":{"android":"levelo://app?vid=a27030f2-3550-4b89-848c-de01ba435523","ios":"levelo://app?vid=a27030f2-3550-4b89-848c-de01ba435523"},"vehicle_type_id":"4","last_reported":1726085308,"current_range_meters":16400,"station_id":"cki0cbj6b192h4jlfktg","pricing_plan_id":"cebpf4jnsgd1na2vs0mg"},{"bike_id":"d3a5f002-2183-4c80-bedc-a5abe5536c68","system_id":"levelo_inurba_marseille","lat":43.29512,"lon":5.39405,"is_reserved":false,"is_disabled":false,"rental_uris":{"android":"levelo://app?vid=d3a5f002-2183-4c80-bedc-a5abe5536c68","ios":"levelo://app?vid=d3a5f002-2183-4c80-bedc-a5abe5536c68"},"vehicle_type_id":"4","last_reported":1726085308,"current_range_meters":18800,"station_id":"ce4bh292rcd13ifvqdf0","pricing_plan_id":"cebpf4jnsgd1na2vs0mg"},{"bike_id":"4d29a796-463d-4460-b015-62369c7a97b6","system_id":"levelo_inurba_marseille","lat":43.24548,"lon":5.39526,"is_reserved":false,"is_disabled":false,"rental_uris":{"android":"levelo://app?vid=4d29a796-463d-4460-b015-62369c7a97b6","ios":"levelo://app?vid=4d29a796-463d-4460-b015-62369c7a97b6"},"vehicle_type_id":"4","last_reported":1726085308,"current_range_meters":35600,"station_id":"ce4bhlp2rcd13ifvqgjg","pricing_plan_id":"cebpf4jnsgd1na2vs0mg"},{"bike_id":"0eeb4de0-fed0-4908-a175-5ca6c52e7139","system_id":"levelo_inurba_marseille","lat":43.28671,"lon":5.36362,"is_reserved":false,"is_disabled":false,"rental_uris":{"android":"levelo://app?vid=0eeb4de0-fed0-4908-a175-5ca6c52e7139","ios":"levelo://app?vid=0eeb4de0-fed0-4908-a175-5ca6c52e7139"},"vehicle_type_id":"4","last_reported":1726085308,"current_range_meters":23200,"station_id":"ce4bhah2rcd13ifvqej0","pricing_plan_id":"cebpf4jnsgd1na2vs0mg"},{"bike_id":"90278c2d-9707-4ab3-853f-34fa9f89acf0","system_id":"levelo_inurba_marseille","lat":43.27937,"lon":5.41034,"is_reserved":false,"is_disabled":false,"rental_uris":{"android":"levelo://app?vid=90278c2d-9707-4ab3-853f-34fa9f89acf0","ios":"levelo://app?vid=90278c2d-9707-4ab3-853f-34fa9f89acf0"},"vehicle_type_id":"4","last_reported":1726085308,"current_range_meters":38000,"station_id":"ce4bhnp2rcd13ifvqh0g","pricing_plan_id":"cebpf4jnsgd1na2vs0mg"},{"bike_id":"0133b2cd-39f4-42f8-a493-f14fe56d8a7c","system_id":"levelo_inurba_marseille","lat":43.30791,"lon":5.38155,"is_reserved":false,"is_disabled":false,"rental_uris":{"android":"levelo://app?vid=0133b2cd-39f4-42f8-a493-f14fe56d8a7c","ios":"levelo://app?vid=0133b2cd-39f4-42f8-a493-f14fe56d8a7c"},"vehicle_type_id":"4","last_reported":1726085308,"current_range_meters":14800,"station_id":"ce4bgt12rcd13ifvqce0","pricing_plan_id":"cebpf4jnsgd1na2vs0mg"},{"bike_id":"399ac478-604a-4a4d-8571-c3f918ab8cde","system_id":"levelo_inurba_marseille","lat":43.26193,"lon":5.3745,"is_reserved":false,"is_disabled":false,"rental_uris":{"android":"levelo://app?vid=399ac478-604a-4a4d-8571-c3f918ab8cde","ios":"levelo://app?vid=399ac478-604a-4a4d-8571-c3f918ab8cde"},"vehicle_type_id":"4","last_reported":1726085308,"current_range_meters":14000,"station_id":"ce4bhgp2rcd13ifvqfc0","pricing_plan_id":"cebpf4jnsgd1na2vs0mg"},{"bike_id":"c90ae6a8-0a7e-4f94-9f87-606e1bede55f","system_id":"levelo_inurba_marseille","lat":43.300837,"lon":5.374153,"is_reserved":false,"is_disabled":false,"rental_uris":{"android":"levelo://app?vid=c90ae6a8-0a7e-4f94-9f87-606e1bede55f","ios":"levelo://app?vid=c90ae6a8-0a7e-4f94-9f87-606e1bede55f"},"vehicle_type_id":"4","last_reported":1726085308,"current_range_meters":34000,"station_id":"ce4bgs92rcd13ifvqcc0","pricing_plan_id":"cebpf4jnsgd1na2vs0mg"},{"bike_id":"dd6d94c7-f35e-4acc-863e-4063ec5abc48","system_id":"levelo_inurba_marseille","lat":43.32361,"lon":5.38849,"is_reserved":false,"is_disabled":false,"rental_uris":{"android":"levelo://app?vid=dd6d94c7-f35e-4acc-863e-4063ec5abc48","ios":"levelo://app?vid=dd6d94c7-f35e-4acc-863e-4063ec5abc48"},"vehicle_type_id":"4","last_reported":1726085308,"current_range_meters":38800,"station_id":"ce4bhqp2rcd13ifvqhog","pricing_plan_id":"cebpf4jnsgd1na2vs0mg"},{"bike_id":"b526b8ca-d8c0-4898-abd7-8235f4fb1c53","system_id":"levelo_inurba_marseille","lat":43.26507,"lon":5.39537,"is_reserved":false,"is_disabled":false,"rental_uris":{"android":"levelo://app?vid=b526b8ca-d8c0-4898-abd7-8235f4fb1c53","ios":"levelo://app?vid=b526b8ca-d8c0-4898-abd7-8235f4fb1c53"},"vehicle_type_id":"4","last_reported":1726085308,"current_range_meters":4400,"station_id":"ce4bhi12rcd13ifvqfq0","pricing_plan_id":"cebpf4jnsgd1na2vs0mg"},{"bike_id":"cf5a6d6a-12c1-45cd-b415-051d5156920d","system_id":"levelo_inurba_marseille","lat":43.33613,"lon":5.41027,"is_reserved":false,"is_disabled":false,"rental_uris":{"android":"levelo://app?vid=cf5a6d6a-12c1-45cd-b415-051d5156920d","ios":"levelo://app?vid=cf5a6d6a-12c1-45cd-b415-051d5156920d"},"vehicle_type_id":"4","last_reported":1726085308,"current_range_meters":37600,"station_id":"ce4bhqh2rcd13ifvqhmg","pricing_plan_id":"cebpf4jnsgd1na2vs0mg"},{"bike_id":"2a1335ff-5cdf-446d-a6f1-2adb4b451aa0","system_id":"levelo_inurba_marseille","lat":43.26955,"lon":5.38632,"is_reserved":false,"is_disabled":false,"rental_uris":{"android":"levelo://app?vid=2a1335ff-5cdf-446d-a6f1-2adb4b451aa0","ios":"levelo://app?vid=2a1335ff-5cdf-446d-a6f1-2adb4b451aa0"},"vehicle_type_id":"4","last_reported":1726085308,"current_range_meters":10800,"station_id":"ce4bhh92rcd13ifvqfh0","pricing_plan_id":"cebpf4jnsgd1na2vs0mg"},{"bike_id":"ef48b925-3958-405c-b326-49eb70fc4325","system_id":"levelo_inurba_marseille","lat":43.28728,"lon":5.3795,"is_reserved":false,"is_disabled":false,"rental_uris":{"android":"levelo://app?vid=ef48b925-3958-405c-b326-49eb70fc4325","ios":"levelo://app?vid=ef48b925-3958-405c-b326-49eb70fc4325"},"vehicle_type_id":"4","last_reported":1726085308,"current_range_meters":32400,"station_id":"ce4bh9p2rcd13ifvqec0","pricing_plan_id":"cebpf4jnsgd1na2vs0mg"},{"bike_id":"a36a6131-7175-4d21-afcf-16a3b952996a","system_id":"levelo_inurba_marseille","lat":43.30817,"lon":5.37659,"is_reserved":false,"is_disabled":false,"rental_uris":{"android":"levelo://app?vid=a36a6131-7175-4d21-afcf-16a3b952996a","ios":"levelo://app?vid=a36a6131-7175-4d21-afcf-16a3b952996a"},"vehicle_type_id":"4","last_reported":1726085308,"current_range_meters":8400,"station_id":"ce4bgv92rcd13ifvqcq0","pricing_plan_id":"cebpf4jnsgd1na2vs0mg"},{"bike_id":"9b44caca-60f5-4121-900d-17ef84be31ac","system_id":"levelo_inurba_marseille","lat":43.31279,"lon":5.37402,"is_reserved":false,"is_disabled":false,"rental_uris":{"android":"levelo://app?vid=9b44caca-60f5-4121-900d-17ef84be31ac","ios":"levelo://app?vid=9b44caca-60f5-4121-900d-17ef84be31ac"},"vehicle_type_id":"4","last_reported":1726085308,"current_range_meters":10000,"station_id":"","pricing_plan_id":"cebpf4jnsgd1na2vs0mg"},{"bike_id":"e9cee468-d8ec-437a-b77c-2bb05679786e","system_id":"levelo_inurba_marseille","lat":43.28073,"lon":5.3966,"is_reserved":false,"is_disabled":false,"rental_uris":{"android":"levelo://app?vid=e9cee468-d8ec-437a-b77c-2bb05679786e","ios":"levelo://app?vid=e9cee468-d8ec-437a-b77c-2bb05679786e"},"vehicle_type_id":"4","last_reported":1726085308,"current_range_meters":11600,"station_id":"ce4bho12rcd13ifvqh2g","pricing_plan_id":"cebpf4jnsgd1na2vs0mg"},{"bike_id":"c92bb75c-e8eb-4287-9a69-617ebf12d718","system_id":"levelo_inurba_marseille","lat":43.312317,"lon":5.368684,"is_reserved":false,"is_disabled":false,"rental_uris":{"android":"levelo://app?vid=c92bb75c-e8eb-4287-9a69-617ebf12d718","ios":"levelo://app?vid=c92bb75c-e8eb-4287-9a69-617ebf12d718"},"vehicle_type_id":"4","last_reported":1726085308,"current_range_meters":14800,"station_id":"ce4bgl92rcd13ifvqbq0","pricing_plan_id":"cebpf4jnsgd1na2vs0mg"},{"bike_id":"257df995-474c-489e-93e6-1898def2a181","system_id":"levelo_inurba_marseille","lat":43.31061,"lon":5.40112,"is_reserved":false,"is_disabled":false,"rental_uris":{"android":"levelo://app?vid=257df995-474c-489e-93e6-1898def2a181","ios":"levelo://app?vid=257df995-474c-489e-93e6-1898def2a181"},"vehicle_type_id":"4","last_reported":1726085308,"current_range_meters":14400,"station_id":"","pricing_plan_id":"cebpf4jnsgd1na2vs0mg"},{"bike_id":"afe38ed7-fe42-4ad9-a058-284074bea4e6","system_id":"levelo_inurba_marseille","lat":43.27997,"lon":5.41656,"is_reserved":false,"is_disabled":false,"rental_uris":{"android":"levelo://app?vid=afe38ed7-fe42-4ad9-a058-284074bea4e6","ios":"levelo://app?vid=afe38ed7-fe42-4ad9-a058-284074bea4e6"},"vehicle_type_id":"4","last_reported":1726085308,"current_range_meters":14000,"station_id":"ce4bho12rcd13ifvqh1g","pricing_plan_id":"cebpf4jnsgd1na2vs0mg"},{"bike_id":"521ac9eb-aeb3-4716-a5c7-40c1c5dfc1ab","system_id":"levelo_inurba_marseille","lat":43.28035,"lon":5.36947,"is_reserved":false,"is_disabled":false,"rental_uris":{"android":"levelo://app?vid=521ac9eb-aeb3-4716-a5c7-40c1c5dfc1ab","ios":"levelo://app?vid=521ac9eb-aeb3-4716-a5c7-40c1c5dfc1ab"},"vehicle_type_id":"4","last_reported":1726085308,"current_range_meters":36400,"station_id":"ce4bha12rcd13ifvqef0","pricing_plan_id":"cebpf4jnsgd1na2vs0mg"},{"bike_id":"f47b1677-9f6c-43f1-88b5-82b60d3a6b15","system_id":"levelo_inurba_marseille","lat":43.2919,"lon":5.35807,"is_reserved":false,"is_disabled":false,"rental_uris":{"android":"levelo://app?vid=f47b1677-9f6c-43f1-88b5-82b60d3a6b15","ios":"levelo://app?vid=f47b1677-9f6c-43f1-88b5-82b60d3a6b15"},"vehicle_type_id":"4","last_reported":1726085308,"current_range_meters":33200,"station_id":"ce4bhb12rcd13ifvqel0","pricing_plan_id":"cebpf4jnsgd1na2vs0mg"},{"bike_id":"ecca6509-f0ec-44bb-a9ea-81382cf67e4e","system_id":"levelo_inurba_marseille","lat":43.28857,"lon":5.35848,"is_reserved":false,"is_disabled":false,"rental_uris":{"android":"levelo://app?vid=ecca6509-f0ec-44bb-a9ea-81382cf67e4e","ios":"levelo://app?vid=ecca6509-f0ec-44bb-a9ea-81382cf67e4e"},"vehicle_type_id":"4","last_reported":1726085308,"current_range_meters":38800,"station_id":"ce4bhb12rcd13ifvqem0","pricing_plan_id":"cebpf4jnsgd1na2vs0mg"},{"bike_id":"003b1cc7-9136-4dfc-b9bf-1124dbe99a52","system_id":"levelo_inurba_marseille","lat":43.28858,"lon":5.39318,"is_reserved":false,"is_disabled":false,"rental_uris":{"android":"levelo://app?vid=003b1cc7-9136-4dfc-b9bf-1124dbe99a52","ios":"levelo://app?vid=003b1cc7-9136-4dfc-b9bf-1124dbe99a52"},"vehicle_type_id":"4","last_reported":1726085308,"current_range_meters":19600,"station_id":"ce4bh2p2rcd13ifvqdi0","pricing_plan_id":"cebpf4jnsgd1na2vs0mg"},{"bike_id":"94f6c337-6484-4cc8-a69a-39e5832a27d9","system_id":"levelo_inurba_marseille","lat":43.2846,"lon":5.35896,"is_reserved":false,"is_disabled":false,"rental_uris":{"android":"levelo://app?vid=94f6c337-6484-4cc8-a69a-39e5832a27d9","ios":"levelo://app?vid=94f6c337-6484-4cc8-a69a-39e5832a27d9"},"vehicle_type_id":"4","last_reported":1726085308,"current_range_meters":37600,"station_id":"ce4bhah2rcd13ifvqei0","pricing_plan_id":"cebpf4jnsgd1na2vs0mg"},{"bike_id":"7c31be2a-ff4e-4ac4-8b30-123094e38268","system_id":"levelo_inurba_marseille","lat":43.29039,"lon":5.35918,"is_reserved":false,"is_disabled":false,"rental_uris":{"android":"levelo://app?vid=7c31be2a-ff4e-4ac4-8b30-123094e38268","ios":"levelo://app?vid=7c31be2a-ff4e-4ac4-8b30-123094e38268"},"vehicle_type_id":"4","last_reported":1726085308,"current_range_meters":36000,"station_id":"ce4bha92rcd13ifvqeg0","pricing_plan_id":"cebpf4jnsgd1na2vs0mg"},{"bike_id":"78a74e8e-a0fa-4c01-bdb3-d4cb8b6944a2","system_id":"levelo_inurba_marseille","lat":43.28697,"lon":5.37395,"is_reserved":false,"is_disabled":false,"rental_uris":{"android":"levelo://app?vid=78a74e8e-a0fa-4c01-bdb3-d4cb8b6944a2","ios":"levelo://app?vid=78a74e8e-a0fa-4c01-bdb3-d4cb8b6944a2"},"vehicle_type_id":"4","last_reported":1726085308,"current_range_meters":23200,"station_id":"ce4bh3p2rcd13ifvqdq0","pricing_plan_id":"cebpf4jnsgd1na2vs0mg"},{"bike_id":"28ecc454-85cf-4381-ae43-36b68d2a49c4","system_id":"levelo_inurba_marseille","lat":43.29536,"lon":5.38541,"is_reserved":false,"is_disabled":false,"rental_uris":{"android":"levelo://app?vid=28ecc454-85cf-4381-ae43-36b68d2a49c4","ios":"levelo://app?vid=28ecc454-85cf-4381-ae43-36b68d2a49c4"},"vehicle_type_id":"4","last_reported":1726085308,"current_range_meters":38800,"station_id":"ce4bgih2rcd13ifvqba0","pricing_plan_id":"cebpf4jnsgd1na2vs0mg"},{"bike_id":"ca33d2bf-c9f2-4944-aec8-d1b6204ec37b","system_id":"levelo_inurba_marseille","lat":43.29553,"lon":5.4228,"is_reserved":false,"is_disabled":false,"rental_uris":{"android":"levelo://app?vid=ca33d2bf-c9f2-4944-aec8-d1b6204ec37b","ios":"levelo://app?vid=ca33d2bf-c9f2-4944-aec8-d1b6204ec37b"},"vehicle_type_id":"4","last_reported":1726085308,"current_range_meters":26000,"station_id":"ce4bhph2rcd13ifvqhdg","pricing_plan_id":"cebpf4jnsgd1na2vs0mg"},{"bike_id":"4243a25d-7b76-4234-830d-95bb2228f8cb","system_id":"levelo_inurba_marseille","lat":43.298589,"lon":5.391821,"is_reserved":false,"is_disabled":false,"rental_uris":{"android":"levelo://app?vid=4243a25d-7b76-4234-830d-95bb2228f8cb","ios":"levelo://app?vid=4243a25d-7b76-4234-830d-95bb2228f8cb"},"vehicle_type_id":"4","last_reported":1726085308,"current_range_meters":28400,"station_id":"chh1huq6cuj3fo74tm60","pricing_plan_id":"cebpf4jnsgd1na2vs0mg"},{"bike_id":"8e118b2d-c24e-48c9-9681-52323f5e84b7","system_id":"levelo_inurba_marseille","lat":43.28461,"lon":5.35888,"is_reserved":false,"is_disabled":false,"rental_uris":{"android":"levelo://app?vid=8e118b2d-c24e-48c9-9681-52323f5e84b7","ios":"levelo://app?vid=8e118b2d-c24e-48c9-9681-52323f5e84b7"},"vehicle_type_id":"4","last_reported":1726085308,"current_range_meters":16400,"station_id":"ce4bhah2rcd13ifvqei0","pricing_plan_id":"cebpf4jnsgd1na2vs0mg"},{"bike_id":"cbccffca-fad5-48ed-b993-98702f1e3c32","system_id":"levelo_inurba_marseille","lat":43.30324,"lon":5.40452,"is_reserved":false,"is_disabled":false,"rental_uris":{"android":"levelo://app?vid=cbccffca-fad5-48ed-b993-98702f1e3c32","ios":"levelo://app?vid=cbccffca-fad5-48ed-b993-98702f1e3c32"},"vehicle_type_id":"4","last_reported":1726085308,"current_range_meters":25600,"station_id":"ce4bh012rcd13ifvqd10","pricing_plan_id":"cebpf4jnsgd1na2vs0mg"},{"bike_id":"8a3075b8-1b9b-48a9-9df3-b52b60a36057","system_id":"levelo_inurba_marseille","lat":43.27375,"lon":5.36264,"is_reserved":false,"is_disabled":false,"rental_uris":{"android":"levelo://app?vid=8a3075b8-1b9b-48a9-9df3-b52b60a36057","ios":"levelo://app?vid=8a3075b8-1b9b-48a9-9df3-b52b60a36057"},"vehicle_type_id":"4","last_reported":1726085308,"current_range_meters":26800,"station_id":"ce4bhbh2rcd13ifvqeo0","pricing_plan_id":"cebpf4jnsgd1na2vs0mg"},{"bike_id":"66aacd5b-f53e-41d8-9077-a4ee96205f3d","system_id":"levelo_inurba_marseille","lat":43.28462,"lon":5.35896,"is_reserved":false,"is_disabled":false,"rental_uris":{"android":"levelo://app?vid=66aacd5b-f53e-41d8-9077-a4ee96205f3d","ios":"levelo://app?vid=66aacd5b-f53e-41d8-9077-a4ee96205f3d"},"vehicle_type_id":"4","last_reported":1726085308,"current_range_meters":38800,"station_id":"ce4bhah2rcd13ifvqei0","pricing_plan_id":"cebpf4jnsgd1na2vs0mg"},{"bike_id":"b7d80a4a-02c8-45b6-926f-d5ccf7f3a797","system_id":"levelo_inurba_marseille","lat":43.2953,"lon":5.38543,"is_reserved":false,"is_disabled":false,"rental_uris":{"android":"levelo://app?vid=b7d80a4a-02c8-45b6-926f-d5ccf7f3a797","ios":"levelo://app?vid=b7d80a4a-02c8-45b6-926f-d5ccf7f3a797"},"vehicle_type_id":"4","last_reported":1726085308,"current_range_meters":22000,"station_id":"","pricing_plan_id":"cebpf4jnsgd1na2vs0mg"},{"bike_id":"4cf868cb-673f-46a3-ab0b-19bafdd95b2e","system_id":"levelo_inurba_marseille","lat":43.29521,"lon":5.39044,"is_reserved":false,"is_disabled":false,"rental_uris":{"android":"levelo://app?vid=4cf868cb-673f-46a3-ab0b-19bafdd95b2e","ios":"levelo://app?vid=4cf868cb-673f-46a3-ab0b-19bafdd95b2e"},"vehicle_type_id":"4","last_reported":1726085308,"current_range_meters":32000,"station_id":"ce4bh3p2rcd13ifvqdp0","pricing_plan_id":"cebpf4jnsgd1na2vs0mg"},{"bike_id":"d2fb6048-f7c1-4585-bf2c-a2363cbad570","system_id":"levelo_inurba_marseille","lat":43.29877,"lon":5.38916,"is_reserved":false,"is_disabled":false,"rental_uris":{"android":"levelo://app?vid=d2fb6048-f7c1-4585-bf2c-a2363cbad570","ios":"levelo://app?vid=d2fb6048-f7c1-4585-bf2c-a2363cbad570"},"vehicle_type_id":"4","last_reported":1726085308,"current_range_meters":8400,"station_id":"ce4bh392rcd13ifvqdl0","pricing_plan_id":"cebpf4jnsgd1na2vs0mg"},{"bike_id":"8e06870f-59b1-4019-8c4e-0fd97a649554","system_id":"levelo_inurba_marseille","lat":43.27999,"lon":5.40023,"is_reserved":false,"is_disabled":false,"rental_uris":{"android":"levelo://app?vid=8e06870f-59b1-4019-8c4e-0fd97a649554","ios":"levelo://app?vid=8e06870f-59b1-4019-8c4e-0fd97a649554"},"vehicle_type_id":"4","last_reported":1726085308,"current_range_meters":13600,"station_id":"ce4bho92rcd13ifvqh4g","pricing_plan_id":"cebpf4jnsgd1na2vs0mg"},{"bike_id":"cb98ae19-59cf-4791-b9f4-cdb169ed7749","system_id":"levelo_inurba_marseille","lat":43.29035,"lon":5.38633,"is_reserved":false,"is_disabled":false,"rental_uris":{"android":"levelo://app?vid=cb98ae19-59cf-4791-b9f4-cdb169ed7749","ios":"levelo://app?vid=cb98ae19-59cf-4791-b9f4-cdb169ed7749"},"vehicle_type_id":"4","last_reported":1726085308,"current_range_meters":8400,"station_id":"ce4bh4p2rcd13ifvqe0g","pricing_plan_id":"cebpf4jnsgd1na2vs0mg"},{"bike_id":"c3baa9f4-1a80-441e-aae4-6876a6aba553","system_id":"levelo_inurba_marseille","lat":43.32292,"lon":5.38251,"is_reserved":false,"is_disabled":false,"rental_uris":{"android":"levelo://app?vid=c3baa9f4-1a80-441e-aae4-6876a6aba553","ios":"levelo://app?vid=c3baa9f4-1a80-441e-aae4-6876a6aba553"},"vehicle_type_id":"4","last_reported":1726085308,"current_range_meters":38800,"station_id":"ce4bhr12rcd13ifvqhqg","pricing_plan_id":"cebpf4jnsgd1na2vs0mg"},{"bike_id":"ffdfe252-ccc5-4a14-ab97-266e217d230c","system_id":"levelo_inurba_marseille","lat":43.30419,"lon":5.41291,"is_reserved":false,"is_disabled":false,"rental_uris":{"android":"levelo://app?vid=ffdfe252-ccc5-4a14-ab97-266e217d230c","ios":"levelo://app?vid=ffdfe252-ccc5-4a14-ab97-266e217d230c"},"vehicle_type_id":"4","last_reported":1726085308,"current_range_meters":35600,"station_id":"ce4bhop2rcd13ifvqh8g","pricing_plan_id":"cebpf4jnsgd1na2vs0mg"},{"bike_id":"4537addb-8470-4f0f-9eea-56b017d37d11","system_id":"levelo_inurba_marseille","lat":43.28459,"lon":5.35892,"is_reserved":false,"is_disabled":false,"rental_uris":{"android":"levelo://app?vid=4537addb-8470-4f0f-9eea-56b017d37d11","ios":"levelo://app?vid=4537addb-8470-4f0f-9eea-56b017d37d11"},"vehicle_type_id":"4","last_reported":1726085308,"current_range_meters":38800,"station_id":"ce4bhah2rcd13ifvqei0","pricing_plan_id":"cebpf4jnsgd1na2vs0mg"},{"bike_id":"cf556c10-8298-4e7b-996a-26eaad4467f9","system_id":"levelo_inurba_marseille","lat":43.30657,"lon":5.40095,"is_reserved":false,"is_disabled":false,"rental_uris":{"android":"levelo://app?vid=cf556c10-8298-4e7b-996a-26eaad4467f9","ios":"levelo://app?vid=cf556c10-8298-4e7b-996a-26eaad4467f9"},"vehicle_type_id":"4","last_reported":1726085308,"current_range_meters":20800,"station_id":"ce4bh112rcd13ifvqda0","pricing_plan_id":"cebpf4jnsgd1na2vs0mg"},{"bike_id":"b3858c1d-4314-4750-a8b7-b9cd7cba5a18","system_id":"levelo_inurba_marseille","lat":43.2936,"lon":5.37829,"is_reserved":false,"is_disabled":false,"rental_uris":{"android":"levelo://app?vid=b3858c1d-4314-4750-a8b7-b9cd7cba5a18","ios":"levelo://app?vid=b3858c1d-4314-4750-a8b7-b9cd7cba5a18"},"vehicle_type_id":"4","last_reported":1726085308,"current_range_meters":6000,"station_id":"ce4bgjh2rcd13ifvqbf0","pricing_plan_id":"cebpf4jnsgd1na2vs0mg"},{"bike_id":"f657fd88-6956-4b9e-987b-07745f983ac4","system_id":"levelo_inurba_marseille","lat":43.28859,"lon":5.35833,"is_reserved":false,"is_disabled":false,"rental_uris":{"android":"levelo://app?vid=f657fd88-6956-4b9e-987b-07745f983ac4","ios":"levelo://app?vid=f657fd88-6956-4b9e-987b-07745f983ac4"},"vehicle_type_id":"4","last_reported":1726085308,"current_range_meters":28800,"station_id":"ce4bhb12rcd13ifvqem0","pricing_plan_id":"cebpf4jnsgd1na2vs0mg"},{"bike_id":"92675b8e-66c8-4168-873d-70d65424518b","system_id":"levelo_inurba_marseille","lat":43.25013,"lon":5.38919,"is_reserved":false,"is_disabled":false,"rental_uris":{"android":"levelo://app?vid=92675b8e-66c8-4168-873d-70d65424518b","ios":"levelo://app?vid=92675b8e-66c8-4168-873d-70d65424518b"},"vehicle_type_id":"4","last_reported":1726085308,"current_range_meters":10800,"station_id":"ce4bhgp2rcd13ifvqfd0","pricing_plan_id":"cebpf4jnsgd1na2vs0mg"},{"bike_id":"1218d328-fdf6-45d1-9541-091fda7f65d0","system_id":"levelo_inurba_marseille","lat":43.30885,"lon":5.39651,"is_reserved":false,"is_disabled":false,"rental_uris":{"android":"levelo://app?vid=1218d328-fdf6-45d1-9541-091fda7f65d0","ios":"levelo://app?vid=1218d328-fdf6-45d1-9541-091fda7f65d0"},"vehicle_type_id":"4","last_reported":1726085308,"current_range_meters":12400,"station_id":"ce4bh012rcd13ifvqcv0","pricing_plan_id":"cebpf4jnsgd1na2vs0mg"},{"bike_id":"661e1689-1569-4281-9515-d3f5f8fda053","system_id":"levelo_inurba_marseille","lat":43.25728,"lon":5.41108,"is_reserved":false,"is_disabled":false,"rental_uris":{"android":"levelo://app?vid=661e1689-1569-4281-9515-d3f5f8fda053","ios":"levelo://app?vid=661e1689-1569-4281-9515-d3f5f8fda053"},"vehicle_type_id":"4","last_reported":1726085308,"current_range_meters":8800,"station_id":"ce4bhkp2rcd13ifvqgd0","pricing_plan_id":"cebpf4jnsgd1na2vs0mg"},{"bike_id":"9ea75891-ddb9-475e-a47f-d7b3718ad426","system_id":"levelo_inurba_marseille","lat":43.29306,"lon":5.37175,"is_reserved":false,"is_disabled":false,"rental_uris":{"android":"levelo://app?vid=9ea75891-ddb9-475e-a47f-d7b3718ad426","ios":"levelo://app?vid=9ea75891-ddb9-475e-a47f-d7b3718ad426"},"vehicle_type_id":"4","last_reported":1726085308,"current_range_meters":33200,"station_id":"ce4bgh92rcd13ifvqb40","pricing_plan_id":"cebpf4jnsgd1na2vs0mg"},{"bike_id":"f4facf6c-dacb-43ff-b41c-7b9cb68b8d05","system_id":"levelo_inurba_marseille","lat":43.25828,"lon":5.39441,"is_reserved":false,"is_disabled":false,"rental_uris":{"android":"levelo://app?vid=f4facf6c-dacb-43ff-b41c-7b9cb68b8d05","ios":"levelo://app?vid=f4facf6c-dacb-43ff-b41c-7b9cb68b8d05"},"vehicle_type_id":"4","last_reported":1726085308,"current_range_meters":26000,"station_id":"ce4bhip2rcd13ifvqft0","pricing_plan_id":"cebpf4jnsgd1na2vs0mg"},{"bike_id":"c61e69cf-4f70-430c-86d1-9e3fc9354735","system_id":"levelo_inurba_marseille","lat":43.29537,"lon":5.38542,"is_reserved":false,"is_disabled":false,"rental_uris":{"android":"levelo://app?vid=c61e69cf-4f70-430c-86d1-9e3fc9354735","ios":"levelo://app?vid=c61e69cf-4f70-430c-86d1-9e3fc9354735"},"vehicle_type_id":"4","last_reported":1726085308,"current_range_meters":39200,"station_id":"ce4bgih2rcd13ifvqba0","pricing_plan_id":"cebpf4jnsgd1na2vs0mg"},{"bike_id":"58448de1-ab2f-443d-b40a-a5ff14b7b895","system_id":"levelo_inurba_marseille","lat":43.2509,"lon":5.39522,"is_reserved":false,"is_disabled":false,"rental_uris":{"android":"levelo://app?vid=58448de1-ab2f-443d-b40a-a5ff14b7b895","ios":"levelo://app?vid=58448de1-ab2f-443d-b40a-a5ff14b7b895"},"vehicle_type_id":"4","last_reported":1726085308,"current_range_meters":7200,"station_id":"ce4bhm12rcd13ifvqgkg","pricing_plan_id":"cebpf4jnsgd1na2vs0mg"},{"bike_id":"f897b9ff-80b5-4586-9364-348a3fa019c1","system_id":"levelo_inurba_marseille","lat":43.31271,"lon":5.40174,"is_reserved":false,"is_disabled":false,"rental_uris":{"android":"levelo://app?vid=f897b9ff-80b5-4586-9364-348a3fa019c1","ios":"levelo://app?vid=f897b9ff-80b5-4586-9364-348a3fa019c1"},"vehicle_type_id":"4","last_reported":1726085308,"current_range_meters":38000,"station_id":"ce4bh092rcd13ifvqd30","pricing_plan_id":"cebpf4jnsgd1na2vs0mg"},{"bike_id":"8b10a4fb-cb05-4a75-8329-6b62bfdf91e7","system_id":"levelo_inurba_marseille","lat":43.23967,"lon":5.36637,"is_reserved":false,"is_disabled":false,"rental_uris":{"android":"levelo://app?vid=8b10a4fb-cb05-4a75-8329-6b62bfdf91e7","ios":"levelo://app?vid=8b10a4fb-cb05-4a75-8329-6b62bfdf91e7"},"vehicle_type_id":"4","last_reported":1726085308,"current_range_meters":5600,"station_id":"ce4bhi12rcd13ifvqfp0","pricing_plan_id":"cebpf4jnsgd1na2vs0mg"},{"bike_id":"7f4ad056-691f-47bc-b0eb-c67654ab666b","system_id":"levelo_inurba_marseille","lat":43.28493,"lon":5.38432,"is_reserved":false,"is_disabled":false,"rental_uris":{"android":"levelo://app?vid=7f4ad056-691f-47bc-b0eb-c67654ab666b","ios":"levelo://app?vid=7f4ad056-691f-47bc-b0eb-c67654ab666b"},"vehicle_type_id":"4","last_reported":1726085308,"current_range_meters":19200,"station_id":"ce4bh512rcd13ifvqe3g","pricing_plan_id":"cebpf4jnsgd1na2vs0mg"},{"bike_id":"57e3657d-c929-4eec-a6f1-6c3ca93323c6","system_id":"levelo_inurba_marseille","lat":43.28705,"lon":5.3998,"is_reserved":false,"is_disabled":false,"rental_uris":{"android":"levelo://app?vid=57e3657d-c929-4eec-a6f1-6c3ca93323c6","ios":"levelo://app?vid=57e3657d-c929-4eec-a6f1-6c3ca93323c6"},"vehicle_type_id":"4","last_reported":1726085308,"current_range_meters":36400,"station_id":"ce4bho92rcd13ifvqh3g","pricing_plan_id":"cebpf4jnsgd1na2vs0mg"},{"bike_id":"93323f62-227d-4360-9df3-2e5b3fdf1fba","system_id":"levelo_inurba_marseille","lat":43.28936,"lon":5.38395,"is_reserved":false,"is_disabled":false,"rental_uris":{"android":"levelo://app?vid=93323f62-227d-4360-9df3-2e5b3fdf1fba","ios":"levelo://app?vid=93323f62-227d-4360-9df3-2e5b3fdf1fba"},"vehicle_type_id":"4","last_reported":1726085308,"current_range_meters":38000,"station_id":"ce4bh612rcd13ifvqe6g","pricing_plan_id":"cebpf4jnsgd1na2vs0mg"},{"bike_id":"f67f6f2d-2a1d-4a47-b16c-fbcff4218b90","system_id":"levelo_inurba_marseille","lat":43.26569,"lon":5.39004,"is_reserved":false,"is_disabled":false,"rental_uris":{"android":"levelo://app?vid=f67f6f2d-2a1d-4a47-b16c-fbcff4218b90","ios":"levelo://app?vid=f67f6f2d-2a1d-4a47-b16c-fbcff4218b90"},"vehicle_type_id":"4","last_reported":1726085308,"current_range_meters":38400,"station_id":"ce4bhe12rcd13ifvqf30","pricing_plan_id":"cebpf4jnsgd1na2vs0mg"},{"bike_id":"dc834dcf-b07c-4210-a9f0-0e5dd0747a55","system_id":"levelo_inurba_marseille","lat":43.30309,"lon":5.39212,"is_reserved":false,"is_disabled":false,"rental_uris":{"android":"levelo://app?vid=dc834dcf-b07c-4210-a9f0-0e5dd0747a55","ios":"levelo://app?vid=dc834dcf-b07c-4210-a9f0-0e5dd0747a55"},"vehicle_type_id":"4","last_reported":1726085308,"current_range_meters":30000,"station_id":"ce4bgkh2rcd13ifvqbk0","pricing_plan_id":"cebpf4jnsgd1na2vs0mg"},{"bike_id":"25d29fcc-1ea5-43f8-a10d-b2f0737d4ae8","system_id":"levelo_inurba_marseille","lat":43.29001,"lon":5.35615,"is_reserved":false,"is_disabled":false,"rental_uris":{"android":"levelo://app?vid=25d29fcc-1ea5-43f8-a10d-b2f0737d4ae8","ios":"levelo://app?vid=25d29fcc-1ea5-43f8-a10d-b2f0737d4ae8"},"vehicle_type_id":"4","last_reported":1726085308,"current_range_meters":16400,"station_id":"ce4bhb92rcd13ifvqen0","pricing_plan_id":"cebpf4jnsgd1na2vs0mg"},{"bike_id":"fe440cf0-fe95-46c1-86aa-409bfd6b0113","system_id":"levelo_inurba_marseille","lat":43.30656,"lon":5.40109,"is_reserved":false,"is_disabled":false,"rental_uris":{"android":"levelo://app?vid=fe440cf0-fe95-46c1-86aa-409bfd6b0113","ios":"levelo://app?vid=fe440cf0-fe95-46c1-86aa-409bfd6b0113"},"vehicle_type_id":"4","last_reported":1726085308,"current_range_meters":8000,"station_id":"ce4bh112rcd13ifvqda0","pricing_plan_id":"cebpf4jnsgd1na2vs0mg"},{"bike_id":"23dd40db-11b2-4466-ac94-32064395d882","system_id":"levelo_inurba_marseille","lat":43.30425,"lon":5.3889,"is_reserved":false,"is_disabled":false,"rental_uris":{"android":"levelo://app?vid=23dd40db-11b2-4466-ac94-32064395d882","ios":"levelo://app?vid=23dd40db-11b2-4466-ac94-32064395d882"},"vehicle_type_id":"4","last_reported":1726085308,"current_range_meters":17200,"station_id":"ce4bgk12rcd13ifvqbi0","pricing_plan_id":"cebpf4jnsgd1na2vs0mg"},{"bike_id":"88fd0741-25f8-4923-8756-1ae911492f6a","system_id":"levelo_inurba_marseille","lat":43.29,"lon":5.3562,"is_reserved":false,"is_disabled":false,"rental_uris":{"android":"levelo://app?vid=88fd0741-25f8-4923-8756-1ae911492f6a","ios":"levelo://app?vid=88fd0741-25f8-4923-8756-1ae911492f6a"},"vehicle_type_id":"4","last_reported":1726085308,"current_range_meters":36400,"station_id":"ce4bhb92rcd13ifvqen0","pricing_plan_id":"cebpf4jnsgd1na2vs0mg"},{"bike_id":"bd54f45c-ee79-46cf-b4c1-c934e5dec5e4","system_id":"levelo_inurba_marseille","lat":43.25817,"lon":5.39434,"is_reserved":false,"is_disabled":false,"rental_uris":{"android":"levelo://app?vid=bd54f45c-ee79-46cf-b4c1-c934e5dec5e4","ios":"levelo://app?vid=bd54f45c-ee79-46cf-b4c1-c934e5dec5e4"},"vehicle_type_id":"4","last_reported":1726085308,"current_range_meters":38800,"station_id":"ce4bhip2rcd13ifvqft0","pricing_plan_id":"cebpf4jnsgd1na2vs0mg"},{"bike_id":"1313402d-e00d-4778-873f-b9c505bf9a45","system_id":"levelo_inurba_marseille","lat":43.295532,"lon":5.422955,"is_reserved":false,"is_disabled":false,"rental_uris":{"android":"levelo://app?vid=1313402d-e00d-4778-873f-b9c505bf9a45","ios":"levelo://app?vid=1313402d-e00d-4778-873f-b9c505bf9a45"},"vehicle_type_id":"4","last_reported":1726085308,"current_range_meters":30400,"station_id":"ce4bhph2rcd13ifvqhdg","pricing_plan_id":"cebpf4jnsgd1na2vs0mg"},{"bike_id":"7388bcdf-c056-430d-a30d-fc38727e4671","system_id":"levelo_inurba_marseille","lat":43.31532,"lon":5.38033,"is_reserved":false,"is_disabled":false,"rental_uris":{"android":"levelo://app?vid=7388bcdf-c056-430d-a30d-fc38727e4671","ios":"levelo://app?vid=7388bcdf-c056-430d-a30d-fc38727e4671"},"vehicle_type_id":"4","last_reported":1726085308,"current_range_meters":10800,"station_id":"ce4bhsp2rcd13ifvqi50","pricing_plan_id":"cebpf4jnsgd1na2vs0mg"},{"bike_id":"95bcb544-7f1c-4b2a-b990-3fadd6fce4c4","system_id":"levelo_inurba_marseille","lat":43.24649,"lon":5.38896,"is_reserved":false,"is_disabled":false,"rental_uris":{"android":"levelo://app?vid=95bcb544-7f1c-4b2a-b990-3fadd6fce4c4","ios":"levelo://app?vid=95bcb544-7f1c-4b2a-b990-3fadd6fce4c4"},"vehicle_type_id":"4","last_reported":1726085308,"current_range_meters":18800,"station_id":"ce4bhg12rcd13ifvqf60","pricing_plan_id":"cebpf4jnsgd1na2vs0mg"},{"bike_id":"732a2560-5687-44cf-91e4-2bd0f3001508","system_id":"levelo_inurba_marseille","lat":43.28375,"lon":5.38636,"is_reserved":false,"is_disabled":false,"rental_uris":{"android":"levelo://app?vid=732a2560-5687-44cf-91e4-2bd0f3001508","ios":"levelo://app?vid=732a2560-5687-44cf-91e4-2bd0f3001508"},"vehicle_type_id":"4","last_reported":1726085308,"current_range_meters":26800,"station_id":"ce4bh492rcd13ifvqdvg","pricing_plan_id":"cebpf4jnsgd1na2vs0mg"},{"bike_id":"729f692d-02cf-40a7-81c2-6c7c7fd098f7","system_id":"levelo_inurba_marseille","lat":43.27926,"lon":5.39582,"is_reserved":false,"is_disabled":false,"rental_uris":{"android":"levelo://app?vid=729f692d-02cf-40a7-81c2-6c7c7fd098f7","ios":"levelo://app?vid=729f692d-02cf-40a7-81c2-6c7c7fd098f7"},"vehicle_type_id":"4","last_reported":1726085308,"current_range_meters":28000,"station_id":"ce4bhf92rcd13ifvqf40","pricing_plan_id":"cebpf4jnsgd1na2vs0mg"},{"bike_id":"7febc141-5a04-4a2c-a79e-f05574b041f1","system_id":"levelo_inurba_marseille","lat":43.24666,"lon":5.38155,"is_reserved":false,"is_disabled":false,"rental_uris":{"android":"levelo://app?vid=7febc141-5a04-4a2c-a79e-f05574b041f1","ios":"levelo://app?vid=7febc141-5a04-4a2c-a79e-f05574b041f1"},"vehicle_type_id":"4","last_reported":1726085308,"current_range_meters":30400,"station_id":"ce4bhih2rcd13ifvqfr0","pricing_plan_id":"cebpf4jnsgd1na2vs0mg"},{"bike_id":"4e97ccb7-37de-49db-a383-46e475838c1e","system_id":"levelo_inurba_marseille","lat":43.32044,"lon":5.41554,"is_reserved":false,"is_disabled":false,"rental_uris":{"android":"levelo://app?vid=4e97ccb7-37de-49db-a383-46e475838c1e","ios":"levelo://app?vid=4e97ccb7-37de-49db-a383-46e475838c1e"},"vehicle_type_id":"4","last_reported":1726085308,"current_range_meters":3200,"station_id":"ce4bhq92rcd13ifvqhkg","pricing_plan_id":"cebpf4jnsgd1na2vs0mg"},{"bike_id":"c72987df-9cde-4744-87c6-8da2241c8ac7","system_id":"levelo_inurba_marseille","lat":43.248032,"lon":5.3746,"is_reserved":false,"is_disabled":false,"rental_uris":{"android":"levelo://app?vid=c72987df-9cde-4744-87c6-8da2241c8ac7","ios":"levelo://app?vid=c72987df-9cde-4744-87c6-8da2241c8ac7"},"vehicle_type_id":"4","last_reported":1726085308,"current_range_meters":2000,"station_id":"ce4bhgh2rcd13ifvqfb0","pricing_plan_id":"cebpf4jnsgd1na2vs0mg"},{"bike_id":"f91ccea4-e9c9-40e1-880c-5f8eddc6e16f","system_id":"levelo_inurba_marseille","lat":43.29417,"lon":5.38635,"is_reserved":false,"is_disabled":false,"rental_uris":{"android":"levelo://app?vid=f91ccea4-e9c9-40e1-880c-5f8eddc6e16f","ios":"levelo://app?vid=f91ccea4-e9c9-40e1-880c-5f8eddc6e16f"},"vehicle_type_id":"4","last_reported":1726085308,"current_range_meters":38400,"station_id":"ce4bh2h2rcd13ifvqdh0","pricing_plan_id":"cebpf4jnsgd1na2vs0mg"},{"bike_id":"709360dd-870e-441e-a49c-8f06ebc850af","system_id":"levelo_inurba_marseille","lat":43.27173,"lon":5.40991,"is_reserved":false,"is_disabled":false,"rental_uris":{"android":"levelo://app?vid=709360dd-870e-441e-a49c-8f06ebc850af","ios":"levelo://app?vid=709360dd-870e-441e-a49c-8f06ebc850af"},"vehicle_type_id":"4","last_reported":1726085308,"current_range_meters":3200,"station_id":"ce4bhl12rcd13ifvqgf0","pricing_plan_id":"cebpf4jnsgd1na2vs0mg"},{"bike_id":"356ecb38-4cb2-475a-b8fa-9912d5de4fc4","system_id":"levelo_inurba_marseille","lat":43.29636,"lon":5.40592,"is_reserved":false,"is_disabled":false,"rental_uris":{"android":"levelo://app?vid=356ecb38-4cb2-475a-b8fa-9912d5de4fc4","ios":"levelo://app?vid=356ecb38-4cb2-475a-b8fa-9912d5de4fc4"},"vehicle_type_id":"4","last_reported":1726085308,"current_range_meters":36800,"station_id":"ce4bh0h2rcd13ifvqd60","pricing_plan_id":"cebpf4jnsgd1na2vs0mg"},{"bike_id":"71ebbd81-a14b-483d-a86a-498562200b6a","system_id":"levelo_inurba_marseille","lat":43.28855,"lon":5.39298,"is_reserved":false,"is_disabled":false,"rental_uris":{"android":"levelo://app?vid=71ebbd81-a14b-483d-a86a-498562200b6a","ios":"levelo://app?vid=71ebbd81-a14b-483d-a86a-498562200b6a"},"vehicle_type_id":"4","last_reported":1726085308,"current_range_meters":27600,"station_id":"ce4bh2p2rcd13ifvqdi0","pricing_plan_id":"cebpf4jnsgd1na2vs0mg"},{"bike_id":"bd93ad96-3d66-4dab-a975-716363825001","system_id":"levelo_inurba_marseille","lat":43.3172,"lon":5.42409,"is_reserved":false,"is_disabled":false,"rental_uris":{"android":"levelo://app?vid=bd93ad96-3d66-4dab-a975-716363825001","ios":"levelo://app?vid=bd93ad96-3d66-4dab-a975-716363825001"},"vehicle_type_id":"4","last_reported":1726085308,"current_range_meters":34800,"station_id":"ce4bhp92rcd13ifvqhbg","pricing_plan_id":"cebpf4jnsgd1na2vs0mg"},{"bike_id":"20830e58-6dfa-4d74-b146-cb3e5ad772ce","system_id":"levelo_inurba_marseille","lat":43.29003,"lon":5.35617,"is_reserved":false,"is_disabled":false,"rental_uris":{"android":"levelo://app?vid=20830e58-6dfa-4d74-b146-cb3e5ad772ce","ios":"levelo://app?vid=20830e58-6dfa-4d74-b146-cb3e5ad772ce"},"vehicle_type_id":"4","last_reported":1726085308,"current_range_meters":30400,"station_id":"ce4bhb92rcd13ifvqen0","pricing_plan_id":"cebpf4jnsgd1na2vs0mg"},{"bike_id":"bb75b410-b4dc-4f52-84e0-29894fcaecdf","system_id":"levelo_inurba_marseille","lat":43.33027,"lon":5.3904,"is_reserved":false,"is_disabled":false,"rental_uris":{"android":"levelo://app?vid=bb75b410-b4dc-4f52-84e0-29894fcaecdf","ios":"levelo://app?vid=bb75b410-b4dc-4f52-84e0-29894fcaecdf"},"vehicle_type_id":"4","last_reported":1726085308,"current_range_meters":32400,"station_id":"ce4bhr92rcd13ifvqhrg","pricing_plan_id":"cebpf4jnsgd1na2vs0mg"},{"bike_id":"614da7e0-b835-4afe-8cf7-e4b7336be744","system_id":"levelo_inurba_marseille","lat":43.30553,"lon":5.38429,"is_reserved":false,"is_disabled":false,"rental_uris":{"android":"levelo://app?vid=614da7e0-b835-4afe-8cf7-e4b7336be744","ios":"levelo://app?vid=614da7e0-b835-4afe-8cf7-e4b7336be744"},"vehicle_type_id":"4","last_reported":1726085308,"current_range_meters":12000,"station_id":"ce4bgg92rcd13ifvqb30","pricing_plan_id":"cebpf4jnsgd1na2vs0mg"},{"bike_id":"f030c1e7-ecb4-4320-baa2-65ab98aff5bf","system_id":"levelo_inurba_marseille","lat":43.29006,"lon":5.3562,"is_reserved":false,"is_disabled":false,"rental_uris":{"android":"levelo://app?vid=f030c1e7-ecb4-4320-baa2-65ab98aff5bf","ios":"levelo://app?vid=f030c1e7-ecb4-4320-baa2-65ab98aff5bf"},"vehicle_type_id":"4","last_reported":1726085308,"current_range_meters":38800,"station_id":"ce4bhb92rcd13ifvqen0","pricing_plan_id":"cebpf4jnsgd1na2vs0mg"},{"bike_id":"88158577-c5b2-4cce-a4b8-24b4bb6fcb60","system_id":"levelo_inurba_marseille","lat":43.2901,"lon":5.3561,"is_reserved":false,"is_disabled":false,"rental_uris":{"android":"levelo://app?vid=88158577-c5b2-4cce-a4b8-24b4bb6fcb60","ios":"levelo://app?vid=88158577-c5b2-4cce-a4b8-24b4bb6fcb60"},"vehicle_type_id":"4","last_reported":1726085308,"current_range_meters":32000,"station_id":"ce4bhb92rcd13ifvqen0","pricing_plan_id":"cebpf4jnsgd1na2vs0mg"},{"bike_id":"708978b1-af26-486f-810c-fbf08c534275","system_id":"levelo_inurba_marseille","lat":43.27926,"lon":5.3958,"is_reserved":false,"is_disabled":false,"rental_uris":{"android":"levelo://app?vid=708978b1-af26-486f-810c-fbf08c534275","ios":"levelo://app?vid=708978b1-af26-486f-810c-fbf08c534275"},"vehicle_type_id":"4","last_reported":1726085308,"current_range_meters":6800,"station_id":"ce4bhf92rcd13ifvqf40","pricing_plan_id":"cebpf4jnsgd1na2vs0mg"},{"bike_id":"dd2d66a6-976d-43e6-83be-d6211ff78acc","system_id":"levelo_inurba_marseille","lat":43.33723,"lon":5.39187,"is_reserved":false,"is_disabled":false,"rental_uris":{"android":"levelo://app?vid=dd2d66a6-976d-43e6-83be-d6211ff78acc","ios":"levelo://app?vid=dd2d66a6-976d-43e6-83be-d6211ff78acc"},"vehicle_type_id":"4","last_reported":1726085308,"current_range_meters":15200,"station_id":"ce4bhr92rcd13ifvqhsg","pricing_plan_id":"cebpf4jnsgd1na2vs0mg"},{"bike_id":"8a605714-f43f-4f78-8f78-2c646a323ff5","system_id":"levelo_inurba_marseille","lat":43.28859,"lon":5.35842,"is_reserved":false,"is_disabled":false,"rental_uris":{"android":"levelo://app?vid=8a605714-f43f-4f78-8f78-2c646a323ff5","ios":"levelo://app?vid=8a605714-f43f-4f78-8f78-2c646a323ff5"},"vehicle_type_id":"4","last_reported":1726085308,"current_range_meters":23200,"station_id":"ce4bhb12rcd13ifvqem0","pricing_plan_id":"cebpf4jnsgd1na2vs0mg"},{"bike_id":"b9b42d3b-54fa-4d2d-85e9-27c5eaebba64","system_id":"levelo_inurba_marseille","lat":43.299591,"lon":5.39747,"is_reserved":false,"is_disabled":false,"rental_uris":{"android":"levelo://app?vid=b9b42d3b-54fa-4d2d-85e9-27c5eaebba64","ios":"levelo://app?vid=b9b42d3b-54fa-4d2d-85e9-27c5eaebba64"},"vehicle_type_id":"4","last_reported":1726085308,"current_range_meters":24000,"station_id":"ce4bh0h2rcd13ifvqd40","pricing_plan_id":"cebpf4jnsgd1na2vs0mg"},{"bike_id":"9c99abf4-ddb2-47ea-a3eb-652558b42316","system_id":"levelo_inurba_marseille","lat":43.29197,"lon":5.39322,"is_reserved":false,"is_disabled":false,"rental_uris":{"android":"levelo://app?vid=9c99abf4-ddb2-47ea-a3eb-652558b42316","ios":"levelo://app?vid=9c99abf4-ddb2-47ea-a3eb-652558b42316"},"vehicle_type_id":"4","last_reported":1726085308,"current_range_meters":24000,"station_id":"ce4bh192rcd13ifvqdd0","pricing_plan_id":"cebpf4jnsgd1na2vs0mg"},{"bike_id":"01906d26-6cb4-4012-8836-890840694aea","system_id":"levelo_inurba_marseille","lat":43.28422,"lon":5.3752,"is_reserved":false,"is_disabled":false,"rental_uris":{"android":"levelo://app?vid=01906d26-6cb4-4012-8836-890840694aea","ios":"levelo://app?vid=01906d26-6cb4-4012-8836-890840694aea"},"vehicle_type_id":"4","last_reported":1726085308,"current_range_meters":35600,"station_id":"ce4bh412rcd13ifvqds0","pricing_plan_id":"cebpf4jnsgd1na2vs0mg"},{"bike_id":"921d9313-1c02-4f5f-a1d8-3fcdaf7192d7","system_id":"levelo_inurba_marseille","lat":43.29539,"lon":5.38544,"is_reserved":false,"is_disabled":false,"rental_uris":{"android":"levelo://app?vid=921d9313-1c02-4f5f-a1d8-3fcdaf7192d7","ios":"levelo://app?vid=921d9313-1c02-4f5f-a1d8-3fcdaf7192d7"},"vehicle_type_id":"4","last_reported":1726085308,"current_range_meters":37600,"station_id":"ce4bgih2rcd13ifvqba0","pricing_plan_id":"cebpf4jnsgd1na2vs0mg"},{"bike_id":"4a282d71-450f-4989-b74e-1c4c3761e4ea","system_id":"levelo_inurba_marseille","lat":43.29527,"lon":5.39043,"is_reserved":false,"is_disabled":false,"rental_uris":{"android":"levelo://app?vid=4a282d71-450f-4989-b74e-1c4c3761e4ea","ios":"levelo://app?vid=4a282d71-450f-4989-b74e-1c4c3761e4ea"},"vehicle_type_id":"4","last_reported":1726085308,"current_range_meters":30000,"station_id":"ce4bh3p2rcd13ifvqdp0","pricing_plan_id":"cebpf4jnsgd1na2vs0mg"},{"bike_id":"5876c5ef-9fac-478d-bd3c-ea1780c21005","system_id":"levelo_inurba_marseille","lat":43.33755,"lon":5.37446,"is_reserved":false,"is_disabled":false,"rental_uris":{"android":"levelo://app?vid=5876c5ef-9fac-478d-bd3c-ea1780c21005","ios":"levelo://app?vid=5876c5ef-9fac-478d-bd3c-ea1780c21005"},"vehicle_type_id":"4","last_reported":1726085308,"current_range_meters":38000,"station_id":"","pricing_plan_id":"cebpf4jnsgd1na2vs0mg"},{"bike_id":"e677b515-5319-4216-9c4c-b1dda00cce1f","system_id":"levelo_inurba_marseille","lat":43.24802,"lon":5.37459,"is_reserved":false,"is_disabled":false,"rental_uris":{"android":"levelo://app?vid=e677b515-5319-4216-9c4c-b1dda00cce1f","ios":"levelo://app?vid=e677b515-5319-4216-9c4c-b1dda00cce1f"},"vehicle_type_id":"4","last_reported":1726085308,"current_range_meters":32400,"station_id":"ce4bhgh2rcd13ifvqfb0","pricing_plan_id":"cebpf4jnsgd1na2vs0mg"},{"bike_id":"c74261a9-01ce-4042-8d2b-81c82ad12f19","system_id":"levelo_inurba_marseille","lat":43.29006,"lon":5.35615,"is_reserved":false,"is_disabled":false,"rental_uris":{"android":"levelo://app?vid=c74261a9-01ce-4042-8d2b-81c82ad12f19","ios":"levelo://app?vid=c74261a9-01ce-4042-8d2b-81c82ad12f19"},"vehicle_type_id":"4","last_reported":1726085308,"current_range_meters":27200,"station_id":"ce4bhb92rcd13ifvqen0","pricing_plan_id":"cebpf4jnsgd1na2vs0mg"},{"bike_id":"e20384af-8b3b-48fb-abc2-fd8be3046420","system_id":"levelo_inurba_marseille","lat":43.28942,"lon":5.39634,"is_reserved":false,"is_disabled":false,"rental_uris":{"android":"levelo://app?vid=e20384af-8b3b-48fb-abc2-fd8be3046420","ios":"levelo://app?vid=e20384af-8b3b-48fb-abc2-fd8be3046420"},"vehicle_type_id":"4","last_reported":1726085308,"current_range_meters":14000,"station_id":"ce4bh3h2rcd13ifvqdn0","pricing_plan_id":"cebpf4jnsgd1na2vs0mg"},{"bike_id":"6eddef9d-b65f-41bc-ac84-5ea2a73bcc6e","system_id":"levelo_inurba_marseille","lat":43.32289,"lon":5.38274,"is_reserved":false,"is_disabled":false,"rental_uris":{"android":"levelo://app?vid=6eddef9d-b65f-41bc-ac84-5ea2a73bcc6e","ios":"levelo://app?vid=6eddef9d-b65f-41bc-ac84-5ea2a73bcc6e"},"vehicle_type_id":"4","last_reported":1726085308,"current_range_meters":35600,"station_id":"ce4bhr12rcd13ifvqhqg","pricing_plan_id":"cebpf4jnsgd1na2vs0mg"},{"bike_id":"926b2a48-8dd8-4764-aca3-bab40b5d8bd7","system_id":"levelo_inurba_marseille","lat":43.30424,"lon":5.38849,"is_reserved":false,"is_disabled":false,"rental_uris":{"android":"levelo://app?vid=926b2a48-8dd8-4764-aca3-bab40b5d8bd7","ios":"levelo://app?vid=926b2a48-8dd8-4764-aca3-bab40b5d8bd7"},"vehicle_type_id":"4","last_reported":1726085308,"current_range_meters":24400,"station_id":"ce4bgk12rcd13ifvqbi0","pricing_plan_id":"cebpf4jnsgd1na2vs0mg"},{"bike_id":"a8c3daed-6901-4506-9e90-00e8db4eb319","system_id":"levelo_inurba_marseille","lat":43.29029,"lon":5.38133,"is_reserved":false,"is_disabled":false,"rental_uris":{"android":"levelo://app?vid=a8c3daed-6901-4506-9e90-00e8db4eb319","ios":"levelo://app?vid=a8c3daed-6901-4506-9e90-00e8db4eb319"},"vehicle_type_id":"4","last_reported":1726085308,"current_range_meters":35200,"station_id":"ce4bh4p2rcd13ifvqe1g","pricing_plan_id":"cebpf4jnsgd1na2vs0mg"},{"bike_id":"dccadc39-7e75-4ff6-801e-d97b0e1812f2","system_id":"levelo_inurba_marseille","lat":43.33027,"lon":5.39036,"is_reserved":false,"is_disabled":false,"rental_uris":{"android":"levelo://app?vid=dccadc39-7e75-4ff6-801e-d97b0e1812f2","ios":"levelo://app?vid=dccadc39-7e75-4ff6-801e-d97b0e1812f2"},"vehicle_type_id":"4","last_reported":1726085308,"current_range_meters":32800,"station_id":"ce4bhr92rcd13ifvqhrg","pricing_plan_id":"cebpf4jnsgd1na2vs0mg"},{"bike_id":"e5ef79c4-2877-4125-853c-6727f52f6f35","system_id":"levelo_inurba_marseille","lat":43.309519,"lon":5.39056,"is_reserved":false,"is_disabled":false,"rental_uris":{"android":"levelo://app?vid=e5ef79c4-2877-4125-853c-6727f52f6f35","ios":"levelo://app?vid=e5ef79c4-2877-4125-853c-6727f52f6f35"},"vehicle_type_id":"4","last_reported":1726085308,"current_range_meters":18800,"station_id":"ce4bgup2rcd13ifvqco0","pricing_plan_id":"cebpf4jnsgd1na2vs0mg"},{"bike_id":"9ec21d34-7b90-4a8a-a838-a99011bc093b","system_id":"levelo_inurba_marseille","lat":43.28115,"lon":5.37843,"is_reserved":false,"is_disabled":false,"rental_uris":{"android":"levelo://app?vid=9ec21d34-7b90-4a8a-a838-a99011bc093b","ios":"levelo://app?vid=9ec21d34-7b90-4a8a-a838-a99011bc093b"},"vehicle_type_id":"4","last_reported":1726085308,"current_range_meters":14000,"station_id":"ce4bha12rcd13ifvqee0","pricing_plan_id":"cebpf4jnsgd1na2vs0mg"},{"bike_id":"a7016953-646e-4f03-a618-9dc2f28c3e53","system_id":"levelo_inurba_marseille","lat":43.24809,"lon":5.37457,"is_reserved":false,"is_disabled":false,"rental_uris":{"android":"levelo://app?vid=a7016953-646e-4f03-a618-9dc2f28c3e53","ios":"levelo://app?vid=a7016953-646e-4f03-a618-9dc2f28c3e53"},"vehicle_type_id":"4","last_reported":1726085308,"current_range_meters":33600,"station_id":"ce4bhgh2rcd13ifvqfb0","pricing_plan_id":"cebpf4jnsgd1na2vs0mg"},{"bike_id":"4b02a7e9-8265-4f92-8a5b-523194dc96fe","system_id":"levelo_inurba_marseille","lat":43.25829,"lon":5.39438,"is_reserved":false,"is_disabled":false,"rental_uris":{"android":"levelo://app?vid=4b02a7e9-8265-4f92-8a5b-523194dc96fe","ios":"levelo://app?vid=4b02a7e9-8265-4f92-8a5b-523194dc96fe"},"vehicle_type_id":"4","last_reported":1726085308,"current_range_meters":30800,"station_id":"ce4bhip2rcd13ifvqft0","pricing_plan_id":"cebpf4jnsgd1na2vs0mg"},{"bike_id":"4a5e3fd3-f0d3-4421-9132-64c9602b5812","system_id":"levelo_inurba_marseille","lat":43.32062,"lon":5.41549,"is_reserved":false,"is_disabled":false,"rental_uris":{"android":"levelo://app?vid=4a5e3fd3-f0d3-4421-9132-64c9602b5812","ios":"levelo://app?vid=4a5e3fd3-f0d3-4421-9132-64c9602b5812"},"vehicle_type_id":"4","last_reported":1726085308,"current_range_meters":6000,"station_id":"ce4bhq92rcd13ifvqhkg","pricing_plan_id":"cebpf4jnsgd1na2vs0mg"},{"bike_id":"19fc74b2-0977-409b-9d38-b0cf563ca0ec","system_id":"levelo_inurba_marseille","lat":43.30323,"lon":5.40452,"is_reserved":false,"is_disabled":false,"rental_uris":{"android":"levelo://app?vid=19fc74b2-0977-409b-9d38-b0cf563ca0ec","ios":"levelo://app?vid=19fc74b2-0977-409b-9d38-b0cf563ca0ec"},"vehicle_type_id":"4","last_reported":1726085308,"current_range_meters":38800,"station_id":"ce4bh012rcd13ifvqd10","pricing_plan_id":"cebpf4jnsgd1na2vs0mg"},{"bike_id":"5f496e81-63cb-4e63-8056-10225544c09f","system_id":"levelo_inurba_marseille","lat":43.30888,"lon":5.372,"is_reserved":false,"is_disabled":false,"rental_uris":{"android":"levelo://app?vid=5f496e81-63cb-4e63-8056-10225544c09f","ios":"levelo://app?vid=5f496e81-63cb-4e63-8056-10225544c09f"},"vehicle_type_id":"4","last_reported":1726085308,"current_range_meters":28400,"station_id":"ce4bguh2rcd13ifvqckg","pricing_plan_id":"cebpf4jnsgd1na2vs0mg"},{"bike_id":"7551d42d-8659-416d-896d-f767a7f37efa","system_id":"levelo_inurba_marseille","lat":43.24541,"lon":5.39519,"is_reserved":false,"is_disabled":false,"rental_uris":{"android":"levelo://app?vid=7551d42d-8659-416d-896d-f767a7f37efa","ios":"levelo://app?vid=7551d42d-8659-416d-896d-f767a7f37efa"},"vehicle_type_id":"4","last_reported":1726085308,"current_range_meters":38800,"station_id":"ce4bhlp2rcd13ifvqgjg","pricing_plan_id":"cebpf4jnsgd1na2vs0mg"},{"bike_id":"a1015601-7969-4f27-9596-a92a4ce659f1","system_id":"levelo_inurba_marseille","lat":43.29958,"lon":5.4132,"is_reserved":false,"is_disabled":false,"rental_uris":{"android":"levelo://app?vid=a1015601-7969-4f27-9596-a92a4ce659f1","ios":"levelo://app?vid=a1015601-7969-4f27-9596-a92a4ce659f1"},"vehicle_type_id":"4","last_reported":1726085308,"current_range_meters":22400,"station_id":"ce4bhp12rcd13ifvqh9g","pricing_plan_id":"cebpf4jnsgd1na2vs0mg"},{"bike_id":"65dd273f-e251-45b4-842a-5d4fd73163d9","system_id":"levelo_inurba_marseille","lat":43.28699,"lon":5.37395,"is_reserved":false,"is_disabled":false,"rental_uris":{"android":"levelo://app?vid=65dd273f-e251-45b4-842a-5d4fd73163d9","ios":"levelo://app?vid=65dd273f-e251-45b4-842a-5d4fd73163d9"},"vehicle_type_id":"4","last_reported":1726085308,"current_range_meters":9200,"station_id":"ce4bh3p2rcd13ifvqdq0","pricing_plan_id":"cebpf4jnsgd1na2vs0mg"},{"bike_id":"39c1b11c-22b3-4985-bc06-759eab3d9453","system_id":"levelo_inurba_marseille","lat":43.29574,"lon":5.39986,"is_reserved":false,"is_disabled":false,"rental_uris":{"android":"levelo://app?vid=39c1b11c-22b3-4985-bc06-759eab3d9453","ios":"levelo://app?vid=39c1b11c-22b3-4985-bc06-759eab3d9453"},"vehicle_type_id":"4","last_reported":1726085308,"current_range_meters":5600,"station_id":"ce4bh312rcd13ifvqdj0","pricing_plan_id":"cebpf4jnsgd1na2vs0mg"},{"bike_id":"be45a701-ee67-4928-b7e1-4e1546c93241","system_id":"levelo_inurba_marseille","lat":43.2919,"lon":5.35808,"is_reserved":false,"is_disabled":false,"rental_uris":{"android":"levelo://app?vid=be45a701-ee67-4928-b7e1-4e1546c93241","ios":"levelo://app?vid=be45a701-ee67-4928-b7e1-4e1546c93241"},"vehicle_type_id":"4","last_reported":1726085308,"current_range_meters":31200,"station_id":"ce4bhb12rcd13ifvqel0","pricing_plan_id":"cebpf4jnsgd1na2vs0mg"},{"bike_id":"01a35e6e-72c8-4166-9b5e-1b74a9241a20","system_id":"levelo_inurba_marseille","lat":43.26784,"lon":5.39411,"is_reserved":false,"is_disabled":false,"rental_uris":{"android":"levelo://app?vid=01a35e6e-72c8-4166-9b5e-1b74a9241a20","ios":"levelo://app?vid=01a35e6e-72c8-4166-9b5e-1b74a9241a20"},"vehicle_type_id":"4","last_reported":1726085308,"current_range_meters":6000,"station_id":"ce4bhh12rcd13ifvqfg0","pricing_plan_id":"cebpf4jnsgd1na2vs0mg"},{"bike_id":"679bff76-880f-4d16-8ed8-ee663c6802cc","system_id":"levelo_inurba_marseille","lat":43.2922,"lon":5.38024,"is_reserved":false,"is_disabled":false,"rental_uris":{"android":"levelo://app?vid=679bff76-880f-4d16-8ed8-ee663c6802cc","ios":"levelo://app?vid=679bff76-880f-4d16-8ed8-ee663c6802cc"},"vehicle_type_id":"4","last_reported":1726085308,"current_range_meters":19200,"station_id":"ce4bgi92rcd13ifvqb90","pricing_plan_id":"cebpf4jnsgd1na2vs0mg"},{"bike_id":"4c386efd-d18a-4ef4-bea2-49d99e7c4947","system_id":"levelo_inurba_marseille","lat":43.28015,"lon":5.40007,"is_reserved":false,"is_disabled":false,"rental_uris":{"android":"levelo://app?vid=4c386efd-d18a-4ef4-bea2-49d99e7c4947","ios":"levelo://app?vid=4c386efd-d18a-4ef4-bea2-49d99e7c4947"},"vehicle_type_id":"4","last_reported":1726085308,"current_range_meters":12000,"station_id":"ce4bho92rcd13ifvqh4g","pricing_plan_id":"cebpf4jnsgd1na2vs0mg"},{"bike_id":"e06bfd01-c40b-47c2-94ca-ace2b2ea2d8f","system_id":"levelo_inurba_marseille","lat":43.25109,"lon":5.40327,"is_reserved":false,"is_disabled":false,"rental_uris":{"android":"levelo://app?vid=e06bfd01-c40b-47c2-94ca-ace2b2ea2d8f","ios":"levelo://app?vid=e06bfd01-c40b-47c2-94ca-ace2b2ea2d8f"},"vehicle_type_id":"4","last_reported":1726085308,"current_range_meters":12000,"station_id":"ce4bhlh2rcd13ifvqgig","pricing_plan_id":"cebpf4jnsgd1na2vs0mg"},{"bike_id":"d9801c90-8b53-4137-8fc1-ec3b156705bb","system_id":"levelo_inurba_marseille","lat":43.26954,"lon":5.38633,"is_reserved":false,"is_disabled":false,"rental_uris":{"android":"levelo://app?vid=d9801c90-8b53-4137-8fc1-ec3b156705bb","ios":"levelo://app?vid=d9801c90-8b53-4137-8fc1-ec3b156705bb"},"vehicle_type_id":"4","last_reported":1726085308,"current_range_meters":39200,"station_id":"ce4bhh92rcd13ifvqfh0","pricing_plan_id":"cebpf4jnsgd1na2vs0mg"},{"bike_id":"201264b9-bf7a-49b2-a7f3-fabac44b2803","system_id":"levelo_inurba_marseille","lat":43.28111,"lon":5.37835,"is_reserved":false,"is_disabled":false,"rental_uris":{"android":"levelo://app?vid=201264b9-bf7a-49b2-a7f3-fabac44b2803","ios":"levelo://app?vid=201264b9-bf7a-49b2-a7f3-fabac44b2803"},"vehicle_type_id":"4","last_reported":1726085308,"current_range_meters":38800,"station_id":"ce4bha12rcd13ifvqee0","pricing_plan_id":"cebpf4jnsgd1na2vs0mg"},{"bike_id":"9afdd98c-1ad6-42a9-ba81-507dcd50520d","system_id":"levelo_inurba_marseille","lat":43.2511,"lon":5.40324,"is_reserved":false,"is_disabled":false,"rental_uris":{"android":"levelo://app?vid=9afdd98c-1ad6-42a9-ba81-507dcd50520d","ios":"levelo://app?vid=9afdd98c-1ad6-42a9-ba81-507dcd50520d"},"vehicle_type_id":"4","last_reported":1726085308,"current_range_meters":17600,"station_id":"ce4bhlh2rcd13ifvqgig","pricing_plan_id":"cebpf4jnsgd1na2vs0mg"},{"bike_id":"f496ad62-51ea-4198-8413-dc7549e63542","system_id":"levelo_inurba_marseille","lat":43.2901,"lon":5.35619,"is_reserved":false,"is_disabled":false,"rental_uris":{"android":"levelo://app?vid=f496ad62-51ea-4198-8413-dc7549e63542","ios":"levelo://app?vid=f496ad62-51ea-4198-8413-dc7549e63542"},"vehicle_type_id":"4","last_reported":1726085308,"current_range_meters":36400,"station_id":"ce4bhb92rcd13ifvqen0","pricing_plan_id":"cebpf4jnsgd1na2vs0mg"},{"bike_id":"217b12d7-0655-4772-b8b6-d4b4b765627c","system_id":"levelo_inurba_marseille","lat":43.25582,"lon":5.38235,"is_reserved":false,"is_disabled":false,"rental_uris":{"android":"levelo://app?vid=217b12d7-0655-4772-b8b6-d4b4b765627c","ios":"levelo://app?vid=217b12d7-0655-4772-b8b6-d4b4b765627c"},"vehicle_type_id":"4","last_reported":1726085308,"current_range_meters":11200,"station_id":"ce4bhih2rcd13ifvqfs0","pricing_plan_id":"cebpf4jnsgd1na2vs0mg"},{"bike_id":"758477df-2f5f-429c-85cb-c996e19f24fa","system_id":"levelo_inurba_marseille","lat":43.27987,"lon":5.41659,"is_reserved":false,"is_disabled":false,"rental_uris":{"android":"levelo://app?vid=758477df-2f5f-429c-85cb-c996e19f24fa","ios":"levelo://app?vid=758477df-2f5f-429c-85cb-c996e19f24fa"},"vehicle_type_id":"4","last_reported":1726085308,"current_range_meters":38800,"station_id":"ce4bho12rcd13ifvqh1g","pricing_plan_id":"cebpf4jnsgd1na2vs0mg"},{"bike_id":"913b0980-9af3-414f-93d0-679a03b5ff67","system_id":"levelo_inurba_marseille","lat":43.30422,"lon":5.38893,"is_reserved":false,"is_disabled":false,"rental_uris":{"android":"levelo://app?vid=913b0980-9af3-414f-93d0-679a03b5ff67","ios":"levelo://app?vid=913b0980-9af3-414f-93d0-679a03b5ff67"},"vehicle_type_id":"4","last_reported":1726085308,"current_range_meters":14400,"station_id":"ce4bgk12rcd13ifvqbi0","pricing_plan_id":"cebpf4jnsgd1na2vs0mg"},{"bike_id":"e07fa6d2-2d1f-44f3-905c-c692618ea56b","system_id":"levelo_inurba_marseille","lat":43.27491,"lon":5.39535,"is_reserved":false,"is_disabled":false,"rental_uris":{"android":"levelo://app?vid=e07fa6d2-2d1f-44f3-905c-c692618ea56b","ios":"levelo://app?vid=e07fa6d2-2d1f-44f3-905c-c692618ea56b"},"vehicle_type_id":"4","last_reported":1726085308,"current_range_meters":22400,"station_id":"","pricing_plan_id":"cebpf4jnsgd1na2vs0mg"},{"bike_id":"f0ab1e44-8ac5-4033-a7ac-b3e3da389903","system_id":"levelo_inurba_marseille","lat":43.27072,"lon":5.42283,"is_reserved":false,"is_disabled":false,"rental_uris":{"android":"levelo://app?vid=f0ab1e44-8ac5-4033-a7ac-b3e3da389903","ios":"levelo://app?vid=f0ab1e44-8ac5-4033-a7ac-b3e3da389903"},"vehicle_type_id":"4","last_reported":1726085308,"current_range_meters":27200,"station_id":"ce4bhk92rcd13ifvqgb0","pricing_plan_id":"cebpf4jnsgd1na2vs0mg"},{"bike_id":"0c511aa2-dfea-41af-91ae-be84664efb23","system_id":"levelo_inurba_marseille","lat":43.30547,"lon":5.36713,"is_reserved":false,"is_disabled":false,"rental_uris":{"android":"levelo://app?vid=0c511aa2-dfea-41af-91ae-be84664efb23","ios":"levelo://app?vid=0c511aa2-dfea-41af-91ae-be84664efb23"},"vehicle_type_id":"4","last_reported":1726085308,"current_range_meters":36400,"station_id":"ce4bgrp2rcd13ifvqc9g","pricing_plan_id":"cebpf4jnsgd1na2vs0mg"},{"bike_id":"4107f8e6-0a6e-44c8-9a74-b6289ad851f4","system_id":"levelo_inurba_marseille","lat":43.29804,"lon":5.38101,"is_reserved":false,"is_disabled":false,"rental_uris":{"android":"levelo://app?vid=4107f8e6-0a6e-44c8-9a74-b6289ad851f4","ios":"levelo://app?vid=4107f8e6-0a6e-44c8-9a74-b6289ad851f4"},"vehicle_type_id":"4","last_reported":1726085308,"current_range_meters":8800,"station_id":"ce4bgip2rcd13ifvqbb0","pricing_plan_id":"cebpf4jnsgd1na2vs0mg"},{"bike_id":"c8e0fcb6-1d3f-4d83-b861-1f56e6b3ab2c","system_id":"levelo_inurba_marseille","lat":43.32282,"lon":5.38709,"is_reserved":false,"is_disabled":false,"rental_uris":{"android":"levelo://app?vid=c8e0fcb6-1d3f-4d83-b861-1f56e6b3ab2c","ios":"levelo://app?vid=c8e0fcb6-1d3f-4d83-b861-1f56e6b3ab2c"},"vehicle_type_id":"4","last_reported":1726085308,"current_range_meters":32400,"station_id":"","pricing_plan_id":"cebpf4jnsgd1na2vs0mg"},{"bike_id":"78acf389-8e62-4eb1-a9d9-4acb4ddc40ba","system_id":"levelo_inurba_marseille","lat":43.30805,"lon":5.38165,"is_reserved":false,"is_disabled":false,"rental_uris":{"android":"levelo://app?vid=78acf389-8e62-4eb1-a9d9-4acb4ddc40ba","ios":"levelo://app?vid=78acf389-8e62-4eb1-a9d9-4acb4ddc40ba"},"vehicle_type_id":"4","last_reported":1726085308,"current_range_meters":35600,"station_id":"ce4bgt12rcd13ifvqce0","pricing_plan_id":"cebpf4jnsgd1na2vs0mg"},{"bike_id":"d5992e5a-6bbf-4d9e-81d5-e6aa3743b2c8","system_id":"levelo_inurba_marseille","lat":43.30527,"lon":5.36713,"is_reserved":false,"is_disabled":false,"rental_uris":{"android":"levelo://app?vid=d5992e5a-6bbf-4d9e-81d5-e6aa3743b2c8","ios":"levelo://app?vid=d5992e5a-6bbf-4d9e-81d5-e6aa3743b2c8"},"vehicle_type_id":"4","last_reported":1726085308,"current_range_meters":24000,"station_id":"ce4bgrp2rcd13ifvqc9g","pricing_plan_id":"cebpf4jnsgd1na2vs0mg"},{"bike_id":"309a7169-56f1-4c44-a45e-96df3696fc7d","system_id":"levelo_inurba_marseille","lat":43.311141,"lon":5.377725,"is_reserved":false,"is_disabled":false,"rental_uris":{"android":"levelo://app?vid=309a7169-56f1-4c44-a45e-96df3696fc7d","ios":"levelo://app?vid=309a7169-56f1-4c44-a45e-96df3696fc7d"},"vehicle_type_id":"4","last_reported":1726085308,"current_range_meters":35600,"station_id":"ce4bgt92rcd13ifvqcg0","pricing_plan_id":"cebpf4jnsgd1na2vs0mg"},{"bike_id":"24990dba-cb5c-44e3-b39e-9413cf954095","system_id":"levelo_inurba_marseille","lat":43.2319,"lon":5.39986,"is_reserved":false,"is_disabled":false,"rental_uris":{"android":"levelo://app?vid=24990dba-cb5c-44e3-b39e-9413cf954095","ios":"levelo://app?vid=24990dba-cb5c-44e3-b39e-9413cf954095"},"vehicle_type_id":"4","last_reported":1726085308,"current_range_meters":22000,"station_id":"ce4bhn12rcd13ifvqgqg","pricing_plan_id":"cebpf4jnsgd1na2vs0mg"},{"bike_id":"36a991a0-2c39-4f40-8c8e-380d339d17d7","system_id":"levelo_inurba_marseille","lat":43.30898,"lon":5.37183,"is_reserved":false,"is_disabled":false,"rental_uris":{"android":"levelo://app?vid=36a991a0-2c39-4f40-8c8e-380d339d17d7","ios":"levelo://app?vid=36a991a0-2c39-4f40-8c8e-380d339d17d7"},"vehicle_type_id":"4","last_reported":1726085308,"current_range_meters":20400,"station_id":"ce4bguh2rcd13ifvqckg","pricing_plan_id":"cebpf4jnsgd1na2vs0mg"},{"bike_id":"f7383583-f6d9-4a1f-9651-744703bbb837","system_id":"levelo_inurba_marseille","lat":43.30796,"lon":5.43527,"is_reserved":false,"is_disabled":false,"rental_uris":{"android":"levelo://app?vid=f7383583-f6d9-4a1f-9651-744703bbb837","ios":"levelo://app?vid=f7383583-f6d9-4a1f-9651-744703bbb837"},"vehicle_type_id":"4","last_reported":1726085308,"current_range_meters":8400,"station_id":"ce4bhph2rcd13ifvqheg","pricing_plan_id":"cebpf4jnsgd1na2vs0mg"},{"bike_id":"ff4f60d0-2f47-42df-af7a-52a06324408c","system_id":"levelo_inurba_marseille","lat":43.28869,"lon":5.39314,"is_reserved":false,"is_disabled":false,"rental_uris":{"android":"levelo://app?vid=ff4f60d0-2f47-42df-af7a-52a06324408c","ios":"levelo://app?vid=ff4f60d0-2f47-42df-af7a-52a06324408c"},"vehicle_type_id":"4","last_reported":1726085308,"current_range_meters":3600,"station_id":"ce4bh2p2rcd13ifvqdi0","pricing_plan_id":"cebpf4jnsgd1na2vs0mg"},{"bike_id":"9c41fa6a-d2b7-415d-b113-5f6699e19e92","system_id":"levelo_inurba_marseille","lat":43.29865,"lon":5.379,"is_reserved":false,"is_disabled":false,"rental_uris":{"android":"levelo://app?vid=9c41fa6a-d2b7-415d-b113-5f6699e19e92","ios":"levelo://app?vid=9c41fa6a-d2b7-415d-b113-5f6699e19e92"},"vehicle_type_id":"4","last_reported":1726085308,"current_range_meters":3600,"station_id":"","pricing_plan_id":"cebpf4jnsgd1na2vs0mg"},{"bike_id":"54fc95fd-2852-4c59-8eea-f3f9eada4067","system_id":"levelo_inurba_marseille","lat":43.28449,"lon":5.35902,"is_reserved":false,"is_disabled":false,"rental_uris":{"android":"levelo://app?vid=54fc95fd-2852-4c59-8eea-f3f9eada4067","ios":"levelo://app?vid=54fc95fd-2852-4c59-8eea-f3f9eada4067"},"vehicle_type_id":"4","last_reported":1726085308,"current_range_meters":26800,"station_id":"ce4bhah2rcd13ifvqei0","pricing_plan_id":"cebpf4jnsgd1na2vs0mg"},{"bike_id":"2cf6c505-4850-445d-aa79-fecfcf094308","system_id":"levelo_inurba_marseille","lat":43.34147,"lon":5.40902,"is_reserved":false,"is_disabled":false,"rental_uris":{"android":"levelo://app?vid=2cf6c505-4850-445d-aa79-fecfcf094308","ios":"levelo://app?vid=2cf6c505-4850-445d-aa79-fecfcf094308"},"vehicle_type_id":"4","last_reported":1726085308,"current_range_meters":38800,"station_id":"ce4bhqh2rcd13ifvqhlg","pricing_plan_id":"cebpf4jnsgd1na2vs0mg"},{"bike_id":"5f8714c2-4691-49c6-af6f-ae88c4dd369a","system_id":"levelo_inurba_marseille","lat":43.27996,"lon":5.40024,"is_reserved":false,"is_disabled":false,"rental_uris":{"android":"levelo://app?vid=5f8714c2-4691-49c6-af6f-ae88c4dd369a","ios":"levelo://app?vid=5f8714c2-4691-49c6-af6f-ae88c4dd369a"},"vehicle_type_id":"4","last_reported":1726085308,"current_range_meters":4800,"station_id":"ce4bho92rcd13ifvqh4g","pricing_plan_id":"cebpf4jnsgd1na2vs0mg"},{"bike_id":"2990fcc6-d23e-44af-b42a-9273d54dc1da","system_id":"levelo_inurba_marseille","lat":43.28943,"lon":5.36399,"is_reserved":false,"is_disabled":false,"rental_uris":{"android":"levelo://app?vid=2990fcc6-d23e-44af-b42a-9273d54dc1da","ios":"levelo://app?vid=2990fcc6-d23e-44af-b42a-9273d54dc1da"},"vehicle_type_id":"4","last_reported":1726085308,"current_range_meters":36000,"station_id":"ce4bhc92rcd13ifvqetg","pricing_plan_id":"cebpf4jnsgd1na2vs0mg"},{"bike_id":"51774a63-e7e6-4deb-b0c6-86c7c36edf31","system_id":"levelo_inurba_marseille","lat":43.28725,"lon":5.36085,"is_reserved":false,"is_disabled":false,"rental_uris":{"android":"levelo://app?vid=51774a63-e7e6-4deb-b0c6-86c7c36edf31","ios":"levelo://app?vid=51774a63-e7e6-4deb-b0c6-86c7c36edf31"},"vehicle_type_id":"4","last_reported":1726085308,"current_range_meters":27200,"station_id":"cki0cbj6b192h4jlfktg","pricing_plan_id":"cebpf4jnsgd1na2vs0mg"},{"bike_id":"86d21319-ada4-4299-badf-61cf71e8f4f7","system_id":"levelo_inurba_marseille","lat":43.26794,"lon":5.39408,"is_reserved":false,"is_disabled":false,"rental_uris":{"android":"levelo://app?vid=86d21319-ada4-4299-badf-61cf71e8f4f7","ios":"levelo://app?vid=86d21319-ada4-4299-badf-61cf71e8f4f7"},"vehicle_type_id":"4","last_reported":1726085308,"current_range_meters":38400,"station_id":"ce4bhh12rcd13ifvqfg0","pricing_plan_id":"cebpf4jnsgd1na2vs0mg"},{"bike_id":"9b15142b-69cb-4281-994a-95134ce6d619","system_id":"levelo_inurba_marseille","lat":43.27417,"lon":5.39415,"is_reserved":false,"is_disabled":false,"rental_uris":{"android":"levelo://app?vid=9b15142b-69cb-4281-994a-95134ce6d619","ios":"levelo://app?vid=9b15142b-69cb-4281-994a-95134ce6d619"},"vehicle_type_id":"4","last_reported":1726085308,"current_range_meters":11600,"station_id":"ce4bhdp2rcd13ifvqf20","pricing_plan_id":"cebpf4jnsgd1na2vs0mg"},{"bike_id":"2cd888bf-ec36-424b-a743-7b998951e41e","system_id":"levelo_inurba_marseille","lat":43.25832,"lon":5.39447,"is_reserved":false,"is_disabled":false,"rental_uris":{"android":"levelo://app?vid=2cd888bf-ec36-424b-a743-7b998951e41e","ios":"levelo://app?vid=2cd888bf-ec36-424b-a743-7b998951e41e"},"vehicle_type_id":"4","last_reported":1726085308,"current_range_meters":39200,"station_id":"ce4bhip2rcd13ifvqft0","pricing_plan_id":"cebpf4jnsgd1na2vs0mg"},{"bike_id":"dc346b80-33dd-4e8d-bd17-85fcf95d706f","system_id":"levelo_inurba_marseille","lat":43.33607,"lon":5.41033,"is_reserved":false,"is_disabled":false,"rental_uris":{"android":"levelo://app?vid=dc346b80-33dd-4e8d-bd17-85fcf95d706f","ios":"levelo://app?vid=dc346b80-33dd-4e8d-bd17-85fcf95d706f"},"vehicle_type_id":"4","last_reported":1726085308,"current_range_meters":27600,"station_id":"ce4bhqh2rcd13ifvqhmg","pricing_plan_id":"cebpf4jnsgd1na2vs0mg"},{"bike_id":"c097fc37-870d-4768-ab94-ae87094395af","system_id":"levelo_inurba_marseille","lat":43.31758,"lon":5.39025,"is_reserved":false,"is_disabled":false,"rental_uris":{"android":"levelo://app?vid=c097fc37-870d-4768-ab94-ae87094395af","ios":"levelo://app?vid=c097fc37-870d-4768-ab94-ae87094395af"},"vehicle_type_id":"4","last_reported":1726085308,"current_range_meters":21600,"station_id":"ce4bhqp2rcd13ifvqhng","pricing_plan_id":"cebpf4jnsgd1na2vs0mg"},{"bike_id":"2d00abd8-6131-4a2a-8ce1-4f64b5e97d45","system_id":"levelo_inurba_marseille","lat":43.24667,"lon":5.38158,"is_reserved":false,"is_disabled":false,"rental_uris":{"android":"levelo://app?vid=2d00abd8-6131-4a2a-8ce1-4f64b5e97d45","ios":"levelo://app?vid=2d00abd8-6131-4a2a-8ce1-4f64b5e97d45"},"vehicle_type_id":"4","last_reported":1726085308,"current_range_meters":17200,"station_id":"ce4bhih2rcd13ifvqfr0","pricing_plan_id":"cebpf4jnsgd1na2vs0mg"},{"bike_id":"f400d370-a20e-4ced-86f0-64f62510749c","system_id":"levelo_inurba_marseille","lat":43.3237,"lon":5.38926,"is_reserved":false,"is_disabled":false,"rental_uris":{"android":"levelo://app?vid=f400d370-a20e-4ced-86f0-64f62510749c","ios":"levelo://app?vid=f400d370-a20e-4ced-86f0-64f62510749c"},"vehicle_type_id":"4","last_reported":1726085308,"current_range_meters":12400,"station_id":"","pricing_plan_id":"cebpf4jnsgd1na2vs0mg"},{"bike_id":"b5e980e2-3619-401e-bbd1-349e3aaf8a12","system_id":"levelo_inurba_marseille","lat":43.24663,"lon":5.38168,"is_reserved":false,"is_disabled":false,"rental_uris":{"android":"levelo://app?vid=b5e980e2-3619-401e-bbd1-349e3aaf8a12","ios":"levelo://app?vid=b5e980e2-3619-401e-bbd1-349e3aaf8a12"},"vehicle_type_id":"4","last_reported":1726085308,"current_range_meters":36400,"station_id":"ce4bhih2rcd13ifvqfr0","pricing_plan_id":"cebpf4jnsgd1na2vs0mg"},{"bike_id":"3c7e2569-50e4-43f2-a3c4-8e919a6856b2","system_id":"levelo_inurba_marseille","lat":43.28035,"lon":5.36958,"is_reserved":false,"is_disabled":false,"rental_uris":{"android":"levelo://app?vid=3c7e2569-50e4-43f2-a3c4-8e919a6856b2","ios":"levelo://app?vid=3c7e2569-50e4-43f2-a3c4-8e919a6856b2"},"vehicle_type_id":"4","last_reported":1726085308,"current_range_meters":25200,"station_id":"ce4bha12rcd13ifvqef0","pricing_plan_id":"cebpf4jnsgd1na2vs0mg"},{"bike_id":"693a8a68-24a2-4859-9697-adff1b55320a","system_id":"levelo_inurba_marseille","lat":43.31332,"lon":5.39695,"is_reserved":false,"is_disabled":false,"rental_uris":{"android":"levelo://app?vid=693a8a68-24a2-4859-9697-adff1b55320a","ios":"levelo://app?vid=693a8a68-24a2-4859-9697-adff1b55320a"},"vehicle_type_id":"4","last_reported":1726085308,"current_range_meters":28800,"station_id":"ce4bgvp2rcd13ifvqcu0","pricing_plan_id":"cebpf4jnsgd1na2vs0mg"},{"bike_id":"97cca100-b7ea-49f8-b0e4-c382f5e136de","system_id":"levelo_inurba_marseille","lat":43.29973,"lon":5.37179,"is_reserved":false,"is_disabled":false,"rental_uris":{"android":"levelo://app?vid=97cca100-b7ea-49f8-b0e4-c382f5e136de","ios":"levelo://app?vid=97cca100-b7ea-49f8-b0e4-c382f5e136de"},"vehicle_type_id":"4","last_reported":1726085308,"current_range_meters":13600,"station_id":"ce4bgr92rcd13ifvqc7g","pricing_plan_id":"cebpf4jnsgd1na2vs0mg"},{"bike_id":"109c0077-7dcb-4af3-8996-3dc7be5e60ff","system_id":"levelo_inurba_marseille","lat":43.25117,"lon":5.40324,"is_reserved":false,"is_disabled":false,"rental_uris":{"android":"levelo://app?vid=109c0077-7dcb-4af3-8996-3dc7be5e60ff","ios":"levelo://app?vid=109c0077-7dcb-4af3-8996-3dc7be5e60ff"},"vehicle_type_id":"4","last_reported":1726085308,"current_range_meters":38800,"station_id":"ce4bhlh2rcd13ifvqgig","pricing_plan_id":"cebpf4jnsgd1na2vs0mg"},{"bike_id":"143049cf-4830-4219-a121-2a60df83aa5d","system_id":"levelo_inurba_marseille","lat":43.337444,"lon":5.374475,"is_reserved":false,"is_disabled":false,"rental_uris":{"android":"levelo://app?vid=143049cf-4830-4219-a121-2a60df83aa5d","ios":"levelo://app?vid=143049cf-4830-4219-a121-2a60df83aa5d"},"vehicle_type_id":"4","last_reported":1726085308,"current_range_meters":30800,"station_id":"","pricing_plan_id":"cebpf4jnsgd1na2vs0mg"},{"bike_id":"a7e7422c-1f60-44de-8a1a-16176eb7e9bb","system_id":"levelo_inurba_marseille","lat":43.3127,"lon":5.40171,"is_reserved":false,"is_disabled":false,"rental_uris":{"android":"levelo://app?vid=a7e7422c-1f60-44de-8a1a-16176eb7e9bb","ios":"levelo://app?vid=a7e7422c-1f60-44de-8a1a-16176eb7e9bb"},"vehicle_type_id":"4","last_reported":1726085308,"current_range_meters":36800,"station_id":"ce4bh092rcd13ifvqd30","pricing_plan_id":"cebpf4jnsgd1na2vs0mg"},{"bike_id":"6933a479-ea6f-4d62-bdb5-a05f3b2e8c32","system_id":"levelo_inurba_marseille","lat":43.31085,"lon":5.42432,"is_reserved":false,"is_disabled":false,"rental_uris":{"android":"levelo://app?vid=6933a479-ea6f-4d62-bdb5-a05f3b2e8c32","ios":"levelo://app?vid=6933a479-ea6f-4d62-bdb5-a05f3b2e8c32"},"vehicle_type_id":"4","last_reported":1726085308,"current_range_meters":8000,"station_id":"ce4bhp92rcd13ifvqhag","pricing_plan_id":"cebpf4jnsgd1na2vs0mg"},{"bike_id":"3b3bee2d-7053-4676-8fc4-7bcf9f853937","system_id":"levelo_inurba_marseille","lat":43.32286,"lon":5.38286,"is_reserved":false,"is_disabled":false,"rental_uris":{"android":"levelo://app?vid=3b3bee2d-7053-4676-8fc4-7bcf9f853937","ios":"levelo://app?vid=3b3bee2d-7053-4676-8fc4-7bcf9f853937"},"vehicle_type_id":"4","last_reported":1726085308,"current_range_meters":38800,"station_id":"ce4bhr12rcd13ifvqhqg","pricing_plan_id":"cebpf4jnsgd1na2vs0mg"},{"bike_id":"047ad47f-12d9-4e34-a265-8098020725b2","system_id":"levelo_inurba_marseille","lat":43.24807,"lon":5.3746,"is_reserved":false,"is_disabled":false,"rental_uris":{"android":"levelo://app?vid=047ad47f-12d9-4e34-a265-8098020725b2","ios":"levelo://app?vid=047ad47f-12d9-4e34-a265-8098020725b2"},"vehicle_type_id":"4","last_reported":1726085308,"current_range_meters":39200,"station_id":"ce4bhgh2rcd13ifvqfb0","pricing_plan_id":"cebpf4jnsgd1na2vs0mg"},{"bike_id":"a5f48931-9a6a-4a11-90e6-c1f6abc70d4c","system_id":"levelo_inurba_marseille","lat":43.29526,"lon":5.3854,"is_reserved":false,"is_disabled":false,"rental_uris":{"android":"levelo://app?vid=a5f48931-9a6a-4a11-90e6-c1f6abc70d4c","ios":"levelo://app?vid=a5f48931-9a6a-4a11-90e6-c1f6abc70d4c"},"vehicle_type_id":"4","last_reported":1726085308,"current_range_meters":22400,"station_id":"ce4bgih2rcd13ifvqba0","pricing_plan_id":"cebpf4jnsgd1na2vs0mg"},{"bike_id":"4d801d30-664d-4075-a602-3948f9fa7911","system_id":"levelo_inurba_marseille","lat":43.27812,"lon":5.40717,"is_reserved":false,"is_disabled":false,"rental_uris":{"android":"levelo://app?vid=4d801d30-664d-4075-a602-3948f9fa7911","ios":"levelo://app?vid=4d801d30-664d-4075-a602-3948f9fa7911"},"vehicle_type_id":"4","last_reported":1726085308,"current_range_meters":37600,"station_id":"ce4bhnh2rcd13ifvqgtg","pricing_plan_id":"cebpf4jnsgd1na2vs0mg"},{"bike_id":"d95f91b3-685d-40d4-b9e1-0282665758c8","system_id":"levelo_inurba_marseille","lat":43.24663,"lon":5.38166,"is_reserved":false,"is_disabled":false,"rental_uris":{"android":"levelo://app?vid=d95f91b3-685d-40d4-b9e1-0282665758c8","ios":"levelo://app?vid=d95f91b3-685d-40d4-b9e1-0282665758c8"},"vehicle_type_id":"4","last_reported":1726085308,"current_range_meters":4400,"station_id":"ce4bhih2rcd13ifvqfr0","pricing_plan_id":"cebpf4jnsgd1na2vs0mg"},{"bike_id":"a0886e4c-9e92-41d1-98a8-edeea3cec731","system_id":"levelo_inurba_marseille","lat":43.33614,"lon":5.4104,"is_reserved":false,"is_disabled":false,"rental_uris":{"android":"levelo://app?vid=a0886e4c-9e92-41d1-98a8-edeea3cec731","ios":"levelo://app?vid=a0886e4c-9e92-41d1-98a8-edeea3cec731"},"vehicle_type_id":"4","last_reported":1726085308,"current_range_meters":21600,"station_id":"ce4bhqh2rcd13ifvqhmg","pricing_plan_id":"cebpf4jnsgd1na2vs0mg"},{"bike_id":"7e69a9b1-91d8-4da8-9704-0a66866aae08","system_id":"levelo_inurba_marseille","lat":43.25728,"lon":5.41109,"is_reserved":false,"is_disabled":false,"rental_uris":{"android":"levelo://app?vid=7e69a9b1-91d8-4da8-9704-0a66866aae08","ios":"levelo://app?vid=7e69a9b1-91d8-4da8-9704-0a66866aae08"},"vehicle_type_id":"4","last_reported":1726085308,"current_range_meters":25600,"station_id":"ce4bhkp2rcd13ifvqgd0","pricing_plan_id":"cebpf4jnsgd1na2vs0mg"},{"bike_id":"3d298cd3-4bd7-44eb-8726-ca29b59c9eb2","system_id":"levelo_inurba_marseille","lat":43.28103,"lon":5.37844,"is_reserved":false,"is_disabled":false,"rental_uris":{"android":"levelo://app?vid=3d298cd3-4bd7-44eb-8726-ca29b59c9eb2","ios":"levelo://app?vid=3d298cd3-4bd7-44eb-8726-ca29b59c9eb2"},"vehicle_type_id":"4","last_reported":1726085308,"current_range_meters":39200,"station_id":"ce4bha12rcd13ifvqee0","pricing_plan_id":"cebpf4jnsgd1na2vs0mg"},{"bike_id":"cec131b6-6c84-4899-9723-159f4b060af5","system_id":"levelo_inurba_marseille","lat":43.31712,"lon":5.37666,"is_reserved":false,"is_disabled":false,"rental_uris":{"android":"levelo://app?vid=cec131b6-6c84-4899-9723-159f4b060af5","ios":"levelo://app?vid=cec131b6-6c84-4899-9723-159f4b060af5"},"vehicle_type_id":"4","last_reported":1726085308,"current_range_meters":6000,"station_id":"","pricing_plan_id":"cebpf4jnsgd1na2vs0mg"},{"bike_id":"f2b3b549-7f8a-4eae-b464-4b6623533f44","system_id":"levelo_inurba_marseille","lat":43.33749,"lon":5.37451,"is_reserved":false,"is_disabled":false,"rental_uris":{"android":"levelo://app?vid=f2b3b549-7f8a-4eae-b464-4b6623533f44","ios":"levelo://app?vid=f2b3b549-7f8a-4eae-b464-4b6623533f44"},"vehicle_type_id":"4","last_reported":1726085308,"current_range_meters":31200,"station_id":"","pricing_plan_id":"cebpf4jnsgd1na2vs0mg"},{"bike_id":"5506403e-5d36-43e7-bcdf-c4f77af02653","system_id":"levelo_inurba_marseille","lat":43.30241,"lon":5.40037,"is_reserved":false,"is_disabled":false,"rental_uris":{"android":"levelo://app?vid=5506403e-5d36-43e7-bcdf-c4f77af02653","ios":"levelo://app?vid=5506403e-5d36-43e7-bcdf-c4f77af02653"},"vehicle_type_id":"4","last_reported":1726085308,"current_range_meters":31200,"station_id":"ce4bgvh2rcd13ifvqcs0","pricing_plan_id":"cebpf4jnsgd1na2vs0mg"},{"bike_id":"c3e1dafc-4267-4cb7-95bf-481c0201e229","system_id":"levelo_inurba_marseille","lat":43.25831,"lon":5.3943,"is_reserved":false,"is_disabled":false,"rental_uris":{"android":"levelo://app?vid=c3e1dafc-4267-4cb7-95bf-481c0201e229","ios":"levelo://app?vid=c3e1dafc-4267-4cb7-95bf-481c0201e229"},"vehicle_type_id":"4","last_reported":1726085308,"current_range_meters":20800,"station_id":"ce4bhip2rcd13ifvqft0","pricing_plan_id":"cebpf4jnsgd1na2vs0mg"},{"bike_id":"7758185f-0c4e-46ce-9ac8-147614b78430","system_id":"levelo_inurba_marseille","lat":43.29035,"lon":5.37554,"is_reserved":false,"is_disabled":false,"rental_uris":{"android":"levelo://app?vid=7758185f-0c4e-46ce-9ac8-147614b78430","ios":"levelo://app?vid=7758185f-0c4e-46ce-9ac8-147614b78430"},"vehicle_type_id":"4","last_reported":1726085308,"current_range_meters":31200,"station_id":"ce4bh692rcd13ifvqe90","pricing_plan_id":"cebpf4jnsgd1na2vs0mg"},{"bike_id":"beac5734-e1a9-4bf5-bd98-5a5aa5d81d2b","system_id":"levelo_inurba_marseille","lat":43.29201,"lon":5.39323,"is_reserved":false,"is_disabled":false,"rental_uris":{"android":"levelo://app?vid=beac5734-e1a9-4bf5-bd98-5a5aa5d81d2b","ios":"levelo://app?vid=beac5734-e1a9-4bf5-bd98-5a5aa5d81d2b"},"vehicle_type_id":"4","last_reported":1726085308,"current_range_meters":37600,"station_id":"ce4bh192rcd13ifvqdd0","pricing_plan_id":"cebpf4jnsgd1na2vs0mg"},{"bike_id":"fffbd652-9d9a-47e9-892c-68dc09e02ddb","system_id":"levelo_inurba_marseille","lat":43.24088,"lon":5.37757,"is_reserved":false,"is_disabled":false,"rental_uris":{"android":"levelo://app?vid=fffbd652-9d9a-47e9-892c-68dc09e02ddb","ios":"levelo://app?vid=fffbd652-9d9a-47e9-892c-68dc09e02ddb"},"vehicle_type_id":"4","last_reported":1726085308,"current_range_meters":31200,"station_id":"ce4bhnp2rcd13ifvqgvg","pricing_plan_id":"cebpf4jnsgd1na2vs0mg"},{"bike_id":"a0a148a0-3ff4-4c3e-b861-f993675c022d","system_id":"levelo_inurba_marseille","lat":43.24075,"lon":5.37764,"is_reserved":false,"is_disabled":false,"rental_uris":{"android":"levelo://app?vid=a0a148a0-3ff4-4c3e-b861-f993675c022d","ios":"levelo://app?vid=a0a148a0-3ff4-4c3e-b861-f993675c022d"},"vehicle_type_id":"4","last_reported":1726085308,"current_range_meters":8400,"station_id":"ce4bhnp2rcd13ifvqgvg","pricing_plan_id":"cebpf4jnsgd1na2vs0mg"},{"bike_id":"b5c6c76e-03fc-4943-960a-3378f76aecf2","system_id":"levelo_inurba_marseille","lat":43.29448,"lon":5.39758,"is_reserved":false,"is_disabled":false,"rental_uris":{"android":"levelo://app?vid=b5c6c76e-03fc-4943-960a-3378f76aecf2","ios":"levelo://app?vid=b5c6c76e-03fc-4943-960a-3378f76aecf2"},"vehicle_type_id":"4","last_reported":1726085308,"current_range_meters":4400,"station_id":"ce4bh3h2rcd13ifvqdo0","pricing_plan_id":"cebpf4jnsgd1na2vs0mg"},{"bike_id":"efc56ccd-19c8-4639-83af-656ebbe55a0b","system_id":"levelo_inurba_marseille","lat":43.29188,"lon":5.35808,"is_reserved":false,"is_disabled":false,"rental_uris":{"android":"levelo://app?vid=efc56ccd-19c8-4639-83af-656ebbe55a0b","ios":"levelo://app?vid=efc56ccd-19c8-4639-83af-656ebbe55a0b"},"vehicle_type_id":"4","last_reported":1726085308,"current_range_meters":35600,"station_id":"ce4bhb12rcd13ifvqel0","pricing_plan_id":"cebpf4jnsgd1na2vs0mg"},{"bike_id":"4117507e-3a1e-4f09-a0cc-8939534bd6dd","system_id":"levelo_inurba_marseille","lat":43.306096,"lon":5.372314,"is_reserved":false,"is_disabled":false,"rental_uris":{"android":"levelo://app?vid=4117507e-3a1e-4f09-a0cc-8939534bd6dd","ios":"levelo://app?vid=4117507e-3a1e-4f09-a0cc-8939534bd6dd"},"vehicle_type_id":"4","last_reported":1726085308,"current_range_meters":28000,"station_id":"ce4bgvp2rcd13ifvqct0","pricing_plan_id":"cebpf4jnsgd1na2vs0mg"},{"bike_id":"fe9bd51e-9904-43a3-8a46-63210ae4c021","system_id":"levelo_inurba_marseille","lat":43.2992,"lon":5.37469,"is_reserved":false,"is_disabled":false,"rental_uris":{"android":"levelo://app?vid=fe9bd51e-9904-43a3-8a46-63210ae4c021","ios":"levelo://app?vid=fe9bd51e-9904-43a3-8a46-63210ae4c021"},"vehicle_type_id":"4","last_reported":1726085308,"current_range_meters":10800,"station_id":"ce4bgjh2rcd13ifvqbg0","pricing_plan_id":"cebpf4jnsgd1na2vs0mg"},{"bike_id":"c1a52399-72f6-43f3-a209-526627a73018","system_id":"levelo_inurba_marseille","lat":43.28365,"lon":5.38637,"is_reserved":false,"is_disabled":false,"rental_uris":{"android":"levelo://app?vid=c1a52399-72f6-43f3-a209-526627a73018","ios":"levelo://app?vid=c1a52399-72f6-43f3-a209-526627a73018"},"vehicle_type_id":"4","last_reported":1726085308,"current_range_meters":9200,"station_id":"ce4bh492rcd13ifvqdvg","pricing_plan_id":"cebpf4jnsgd1na2vs0mg"},{"bike_id":"1b798f21-a5c3-4d13-b023-b90a7963bd8b","system_id":"levelo_inurba_marseille","lat":43.29197,"lon":5.39323,"is_reserved":false,"is_disabled":false,"rental_uris":{"android":"levelo://app?vid=1b798f21-a5c3-4d13-b023-b90a7963bd8b","ios":"levelo://app?vid=1b798f21-a5c3-4d13-b023-b90a7963bd8b"},"vehicle_type_id":"4","last_reported":1726085308,"current_range_meters":6800,"station_id":"ce4bh192rcd13ifvqdd0","pricing_plan_id":"cebpf4jnsgd1na2vs0mg"},{"bike_id":"2ac1ce92-e83f-48c1-8be0-35e4da4cb98f","system_id":"levelo_inurba_marseille","lat":43.24185,"lon":5.39733,"is_reserved":false,"is_disabled":false,"rental_uris":{"android":"levelo://app?vid=2ac1ce92-e83f-48c1-8be0-35e4da4cb98f","ios":"levelo://app?vid=2ac1ce92-e83f-48c1-8be0-35e4da4cb98f"},"vehicle_type_id":"4","last_reported":1726085308,"current_range_meters":20800,"station_id":"ce4bhn12rcd13ifvqgpg","pricing_plan_id":"cebpf4jnsgd1na2vs0mg"},{"bike_id":"39a8f548-b837-4270-b538-c9947c89ff37","system_id":"levelo_inurba_marseille","lat":43.2455,"lon":5.39525,"is_reserved":false,"is_disabled":false,"rental_uris":{"android":"levelo://app?vid=39a8f548-b837-4270-b538-c9947c89ff37","ios":"levelo://app?vid=39a8f548-b837-4270-b538-c9947c89ff37"},"vehicle_type_id":"4","last_reported":1726085308,"current_range_meters":20800,"station_id":"ce4bhlp2rcd13ifvqgjg","pricing_plan_id":"cebpf4jnsgd1na2vs0mg"},{"bike_id":"f6c4ffe5-87c0-4e71-8b8b-9b7c6baf12f6","system_id":"levelo_inurba_marseille","lat":43.27661,"lon":5.38892,"is_reserved":false,"is_disabled":false,"rental_uris":{"android":"levelo://app?vid=f6c4ffe5-87c0-4e71-8b8b-9b7c6baf12f6","ios":"levelo://app?vid=f6c4ffe5-87c0-4e71-8b8b-9b7c6baf12f6"},"vehicle_type_id":"4","last_reported":1726085308,"current_range_meters":31200,"station_id":"ce4bhi12rcd13ifvqfo0","pricing_plan_id":"cebpf4jnsgd1na2vs0mg"},{"bike_id":"8e2df5db-b727-4bdf-9e3c-79ebfcae4bd3","system_id":"levelo_inurba_marseille","lat":43.28689,"lon":5.37393,"is_reserved":false,"is_disabled":false,"rental_uris":{"android":"levelo://app?vid=8e2df5db-b727-4bdf-9e3c-79ebfcae4bd3","ios":"levelo://app?vid=8e2df5db-b727-4bdf-9e3c-79ebfcae4bd3"},"vehicle_type_id":"4","last_reported":1726085308,"current_range_meters":14800,"station_id":"ce4bh3p2rcd13ifvqdq0","pricing_plan_id":"cebpf4jnsgd1na2vs0mg"},{"bike_id":"cff5ea14-b83a-4d11-97cc-f2b7851ea25e","system_id":"levelo_inurba_marseille","lat":43.27988,"lon":5.41657,"is_reserved":false,"is_disabled":false,"rental_uris":{"android":"levelo://app?vid=cff5ea14-b83a-4d11-97cc-f2b7851ea25e","ios":"levelo://app?vid=cff5ea14-b83a-4d11-97cc-f2b7851ea25e"},"vehicle_type_id":"4","last_reported":1726085308,"current_range_meters":38800,"station_id":"ce4bho12rcd13ifvqh1g","pricing_plan_id":"cebpf4jnsgd1na2vs0mg"},{"bike_id":"c6f1bbdf-fd4d-491a-bfde-f4fbfb9518ed","system_id":"levelo_inurba_marseille","lat":43.28032,"lon":5.36956,"is_reserved":false,"is_disabled":false,"rental_uris":{"android":"levelo://app?vid=c6f1bbdf-fd4d-491a-bfde-f4fbfb9518ed","ios":"levelo://app?vid=c6f1bbdf-fd4d-491a-bfde-f4fbfb9518ed"},"vehicle_type_id":"4","last_reported":1726085308,"current_range_meters":28000,"station_id":"ce4bha12rcd13ifvqef0","pricing_plan_id":"cebpf4jnsgd1na2vs0mg"},{"bike_id":"b1f483f2-0632-4136-85ac-97302a95e5b4","system_id":"levelo_inurba_marseille","lat":43.27173,"lon":5.40995,"is_reserved":false,"is_disabled":false,"rental_uris":{"android":"levelo://app?vid=b1f483f2-0632-4136-85ac-97302a95e5b4","ios":"levelo://app?vid=b1f483f2-0632-4136-85ac-97302a95e5b4"},"vehicle_type_id":"4","last_reported":1726085308,"current_range_meters":33600,"station_id":"ce4bhl12rcd13ifvqgf0","pricing_plan_id":"cebpf4jnsgd1na2vs0mg"},{"bike_id":"f3dd58dc-ab4b-4ec7-8d1b-661fa0880a62","system_id":"levelo_inurba_marseille","lat":43.29561,"lon":5.42296,"is_reserved":false,"is_disabled":false,"rental_uris":{"android":"levelo://app?vid=f3dd58dc-ab4b-4ec7-8d1b-661fa0880a62","ios":"levelo://app?vid=f3dd58dc-ab4b-4ec7-8d1b-661fa0880a62"},"vehicle_type_id":"4","last_reported":1726085308,"current_range_meters":24800,"station_id":"ce4bhph2rcd13ifvqhdg","pricing_plan_id":"cebpf4jnsgd1na2vs0mg"},