{"last_updated":1769288968,"ttl":60,"version":"2.2","data":{"bikes":[{"bike_id":"718d5db1-dc44-4b74-8e82-1e977ee8f15e","system_id":"levelo_inurba_marseille","lat":43.25098,"lon":5.40445,"is_reserved":false,"is_disabled":false,"rental_uris":{"android":"levelo://app?vid=718d5db1-dc44-4b74-8e82-1e977ee8f15e","ios":"levelo://app?vid=718d5db1-dc44-4b74-8e82-1e977ee8f15e"},"vehicle_type_id":"4","last_reported":1769288969,"current_range_meters":2800,"station_id":"","pricing_plan_id":"cebpf4jnsgd1na2vs0mg"},{"bike_id":"d2dd2bd5-35c6-4cf8-86dc-87c4bf274249","system_id":"levelo_inurba_marseille","lat":43.24643,"lon":5.38891,"is_reserved":false,"is_disabled":false,"rental_uris":{"android":"levelo://app?vid=d2dd2bd5-35c6-4cf8-86dc-87c4bf274249","ios":"levelo://app?vid=d2dd2bd5-35c6-4cf8-86dc-87c4bf274249"},"vehicle_type_id":"4","last_reported":1769288969,"current_range_meters":2800,"station_id":"ce4bhg12rcd13ifvqf60","pricing_plan_id":"cebpf4jnsgd1na2vs0mg"},{"bike_id":"4d6c9847-fd2d-409c-b0fe-f478938c3007","system_id":"levelo_inurba_marseille","lat":43.30127,"lon":5.43113,"is_reserved":false,"is_disabled":false,"rental_uris":{"android":"levelo://app?vid=4d6c9847-fd2d-409c-b0fe-f478938c3007","ios":"levelo://app?vid=4d6c9847-fd2d-409c-b0fe-f478938c3007"},"vehicle_type_id":"4","last_reported":1769288969,"current_range_meters":2800,"station_id":"st_d3js3co5814s73ftftug","pricing_plan_id":"cebpf4jnsgd1na2vs0mg"},{"bike_id":"d1248e4b-c241-4185-9668-62cef44fb4ea","system_id":"levelo_inurba_marseille","lat":43.32341,"lon":5.36754,"is_reserved":false,"is_disabled":false,"rental_uris":{"android":"levelo://app?vid=d1248e4b-c241-4185-9668-62cef44fb4ea","ios":"levelo://app?vid=d1248e4b-c241-4185-9668-62cef44fb4ea"},"vehicle_type_id":"4","last_reported":1769288969,"current_range_meters":2800,"station_id":"ce4bhsh2rcd13ifvqi2g","pricing_plan_id":"cebpf4jnsgd1na2vs0mg"},{"bike_id":"5560fc7f-1e40-4887-b56f-d8792953a489","system_id":"levelo_inurba_marseille","lat":43.2417,"lon":5.36389,"is_reserved":false,"is_disabled":false,"rental_uris":{"android":"levelo://app?vid=5560fc7f-1e40-4887-b56f-d8792953a489","ios":"levelo://app?vid=5560fc7f-1e40-4887-b56f-d8792953a489"},"vehicle_type_id":"4","last_reported":1769288969,"current_range_meters":2800,"station_id":"cpo36qri1sfpv3e86is0","pricing_plan_id":"cebpf4jnsgd1na2vs0mg"},{"bike_id":"2125c7aa-ada1-4380-ad7b-ed24b6dc3897","system_id":"levelo_inurba_marseille","lat":43.28417,"lon":5.37498,"is_reserved":false,"is_disabled":false,"rental_uris":{"android":"levelo://app?vid=2125c7aa-ada1-4380-ad7b-ed24b6dc3897","ios":"levelo://app?vid=2125c7aa-ada1-4380-ad7b-ed24b6dc3897"},"vehicle_type_id":"4","last_reported":1769288969,"current_range_meters":2800,"station_id":"ce4bh412rcd13ifvqds0","pricing_plan_id":"cebpf4jnsgd1na2vs0mg"},{"bike_id":"a406e8a4-835e-4d37-afdc-cc2038bc8238","system_id":"levelo_inurba_marseille","lat":43.3017,"lon":5.38099,"is_reserved":false,"is_disabled":false,"rental_uris":{"android":"levelo://app?vid=a406e8a4-835e-4d37-afdc-cc2038bc8238","ios":"levelo://app?vid=a406e8a4-835e-4d37-afdc-cc2038bc8238"},"vehicle_type_id":"4","last_reported":1769288969,"current_range_meters":3200,"station_id":"ce4bgjp2rcd13ifvqbh0","pricing_plan_id":"cebpf4jnsgd1na2vs0mg"},{"bike_id":"42e07818-1b39-4532-9657-17361bba031a","system_id":"levelo_inurba_marseille","lat":43.30861,"lon":5.37727,"is_reserved":false,"is_disabled":true,"rental_uris":{"android":"levelo://app?vid=42e07818-1b39-4532-9657-17361bba031a","ios":"levelo://app?vid=42e07818-1b39-4532-9657-17361bba031a"},"vehicle_type_id":"4","last_reported":1769288969,"current_range_meters":3200,"station_id":"ce4bgv92rcd13ifvqcq0","pricing_plan_id":"cebpf4jnsgd1na2vs0mg"},{"bike_id":"3f2251c2-5185-4cac-808a-d69526c32cf1","system_id":"levelo_inurba_marseille","lat":43.24946,"lon":5.40491,"is_reserved":false,"is_disabled":false,"rental_uris":{"android":"levelo://app?vid=3f2251c2-5185-4cac-808a-d69526c32cf1","ios":"levelo://app?vid=3f2251c2-5185-4cac-808a-d69526c32cf1"},"vehicle_type_id":"4","last_reported":1769288969,"current_range_meters":3200,"station_id":"st_d2ngiaodas8pm72gd1h0","pricing_plan_id":"cebpf4jnsgd1na2vs0mg"},{"bike_id":"17a88ffa-bff1-4fe3-9faa-89fa827e7200","system_id":"levelo_inurba_marseille","lat":43.26546,"lon":5.37301,"is_reserved":false,"is_disabled":false,"rental_uris":{"android":"levelo://app?vid=17a88ffa-bff1-4fe3-9faa-89fa827e7200","ios":"levelo://app?vid=17a88ffa-bff1-4fe3-9faa-89fa827e7200"},"vehicle_type_id":"4","last_reported":1769288969,"current_range_meters":3200,"station_id":"ce4bhg12rcd13ifvqf70","pricing_plan_id":"cebpf4jnsgd1na2vs0mg"},{"bike_id":"15ce2f7b-e27b-4b73-b1d7-521910c86f00","system_id":"levelo_inurba_marseille","lat":43.28479,"lon":5.48384,"is_reserved":false,"is_disabled":false,"rental_uris":{"android":"levelo://app?vid=15ce2f7b-e27b-4b73-b1d7-521910c86f00","ios":"levelo://app?vid=15ce2f7b-e27b-4b73-b1d7-521910c86f00"},"vehicle_type_id":"4","last_reported":1769288969,"current_range_meters":3200,"station_id":"","pricing_plan_id":"cebpf4jnsgd1na2vs0mg"},{"bike_id":"42258f14-4722-4aac-b949-245a1ef55bb3","system_id":"levelo_inurba_marseille","lat":43.22934,"lon":5.35374,"is_reserved":false,"is_disabled":false,"rental_uris":{"android":"levelo://app?vid=42258f14-4722-4aac-b949-245a1ef55bb3","ios":"levelo://app?vid=42258f14-4722-4aac-b949-245a1ef55bb3"},"vehicle_type_id":"4","last_reported":1769288969,"current_range_meters":3200,"station_id":"cpo3532slgdg3j2ikp40","pricing_plan_id":"cebpf4jnsgd1na2vs0mg"},{"bike_id":"bd0f9bc0-6156-4400-927b-952d068ec1fa","system_id":"levelo_inurba_marseille","lat":43.29808,"lon":5.38086,"is_reserved":false,"is_disabled":false,"rental_uris":{"android":"levelo://app?vid=bd0f9bc0-6156-4400-927b-952d068ec1fa","ios":"levelo://app?vid=bd0f9bc0-6156-4400-927b-952d068ec1fa"},"vehicle_type_id":"4","last_reported":1769288969,"current_range_meters":3200,"station_id":"ce4bgip2rcd13ifvqbb0","pricing_plan_id":"cebpf4jnsgd1na2vs0mg"},{"bike_id":"f9a9942f-2b8c-4b2e-91ad-50a9e46645a4","system_id":"levelo_inurba_marseille","lat":43.30944,"lon":5.3781,"is_reserved":false,"is_disabled":false,"rental_uris":{"android":"levelo://app?vid=f9a9942f-2b8c-4b2e-91ad-50a9e46645a4","ios":"levelo://app?vid=f9a9942f-2b8c-4b2e-91ad-50a9e46645a4"},"vehicle_type_id":"4","last_reported":1769288969,"current_range_meters":3200,"station_id":"","pricing_plan_id":"cebpf4jnsgd1na2vs0mg"},{"bike_id":"d3746757-64c0-4deb-8ffa-a59c72b048ff","system_id":"levelo_inurba_marseille","lat":43.29703,"lon":5.373,"is_reserved":false,"is_disabled":false,"rental_uris":{"android":"levelo://app?vid=d3746757-64c0-4deb-8ffa-a59c72b048ff","ios":"levelo://app?vid=d3746757-64c0-4deb-8ffa-a59c72b048ff"},"vehicle_type_id":"4","last_reported":1769288969,"current_range_meters":3200,"station_id":"ce4bgk12rcd13ifvqbj0","pricing_plan_id":"cebpf4jnsgd1na2vs0mg"},{"bike_id":"3c027bfc-a8fd-4a6a-b180-6ea155442f6e","system_id":"levelo_inurba_marseille","lat":43.29826,"lon":5.38116,"is_reserved":false,"is_disabled":false,"rental_uris":{"android":"levelo://app?vid=3c027bfc-a8fd-4a6a-b180-6ea155442f6e","ios":"levelo://app?vid=3c027bfc-a8fd-4a6a-b180-6ea155442f6e"},"vehicle_type_id":"4","last_reported":1769288969,"current_range_meters":3200,"station_id":"ce4bgip2rcd13ifvqbb0","pricing_plan_id":"cebpf4jnsgd1na2vs0mg"},{"bike_id":"ce91f19c-6b5f-4475-ac98-6aba43530cf5","system_id":"levelo_inurba_marseille","lat":43.25015,"lon":5.38903,"is_reserved":false,"is_disabled":false,"rental_uris":{"android":"levelo://app?vid=ce91f19c-6b5f-4475-ac98-6aba43530cf5","ios":"levelo://app?vid=ce91f19c-6b5f-4475-ac98-6aba43530cf5"},"vehicle_type_id":"4","last_reported":1769288969,"current_range_meters":3600,"station_id":"ce4bhgp2rcd13ifvqfd0","pricing_plan_id":"cebpf4jnsgd1na2vs0mg"},{"bike_id":"651915f3-ebc5-4ef3-a2ae-2742ff4a9c5f","system_id":"levelo_inurba_marseille","lat":43.28162,"lon":5.42674,"is_reserved":false,"is_disabled":false,"rental_uris":{"android":"levelo://app?vid=651915f3-ebc5-4ef3-a2ae-2742ff4a9c5f","ios":"levelo://app?vid=651915f3-ebc5-4ef3-a2ae-2742ff4a9c5f"},"vehicle_type_id":"4","last_reported":1769288969,"current_range_meters":3600,"station_id":"ce4bhnh2rcd13ifvqgug","pricing_plan_id":"cebpf4jnsgd1na2vs0mg"},{"bike_id":"17ed46bf-b051-47fc-a887-339e35ccca50","system_id":"levelo_inurba_marseille","lat":43.29041,"lon":5.37565,"is_reserved":false,"is_disabled":false,"rental_uris":{"android":"levelo://app?vid=17ed46bf-b051-47fc-a887-339e35ccca50","ios":"levelo://app?vid=17ed46bf-b051-47fc-a887-339e35ccca50"},"vehicle_type_id":"4","last_reported":1769288969,"current_range_meters":3600,"station_id":"ce4bh692rcd13ifvqe90","pricing_plan_id":"cebpf4jnsgd1na2vs0mg"},{"bike_id":"423bf7b2-6764-427f-a8b0-87b91bdf1b02","system_id":"levelo_inurba_marseille","lat":43.27997,"lon":5.41658,"is_reserved":false,"is_disabled":false,"rental_uris":{"android":"levelo://app?vid=423bf7b2-6764-427f-a8b0-87b91bdf1b02","ios":"levelo://app?vid=423bf7b2-6764-427f-a8b0-87b91bdf1b02"},"vehicle_type_id":"4","last_reported":1769288969,"current_range_meters":3600,"station_id":"ce4bho12rcd13ifvqh1g","pricing_plan_id":"cebpf4jnsgd1na2vs0mg"},{"bike_id":"5a2669d1-252f-43bd-8e23-f0790f03fb51","system_id":"levelo_inurba_marseille","lat":43.28918,"lon":5.38382,"is_reserved":false,"is_disabled":false,"rental_uris":{"android":"levelo://app?vid=5a2669d1-252f-43bd-8e23-f0790f03fb51","ios":"levelo://app?vid=5a2669d1-252f-43bd-8e23-f0790f03fb51"},"vehicle_type_id":"4","last_reported":1769288969,"current_range_meters":3600,"station_id":"ce4bh612rcd13ifvqe6g","pricing_plan_id":"cebpf4jnsgd1na2vs0mg"},{"bike_id":"8249b795-1399-4a9c-bbc0-1737c461790c","system_id":"levelo_inurba_marseille","lat":43.24546,"lon":5.39526,"is_reserved":false,"is_disabled":false,"rental_uris":{"android":"levelo://app?vid=8249b795-1399-4a9c-bbc0-1737c461790c","ios":"levelo://app?vid=8249b795-1399-4a9c-bbc0-1737c461790c"},"vehicle_type_id":"4","last_reported":1769288969,"current_range_meters":3600,"station_id":"ce4bhlp2rcd13ifvqgjg","pricing_plan_id":"cebpf4jnsgd1na2vs0mg"},{"bike_id":"bfbadc7d-f2c8-461c-bd13-8cfb8a815c13","system_id":"levelo_inurba_marseille","lat":43.26943,"lon":5.40283,"is_reserved":false,"is_disabled":false,"rental_uris":{"android":"levelo://app?vid=bfbadc7d-f2c8-461c-bd13-8cfb8a815c13","ios":"levelo://app?vid=bfbadc7d-f2c8-461c-bd13-8cfb8a815c13"},"vehicle_type_id":"4","last_reported":1769288969,"current_range_meters":3600,"station_id":"cjm6bp8fraef2m0cb0m0","pricing_plan_id":"cebpf4jnsgd1na2vs0mg"},{"bike_id":"76e4e959-c8b5-417c-9d59-dd54818015b8","system_id":"levelo_inurba_marseille","lat":43.2981,"lon":5.38106,"is_reserved":false,"is_disabled":false,"rental_uris":{"android":"levelo://app?vid=76e4e959-c8b5-417c-9d59-dd54818015b8","ios":"levelo://app?vid=76e4e959-c8b5-417c-9d59-dd54818015b8"},"vehicle_type_id":"4","last_reported":1769288969,"current_range_meters":3600,"station_id":"ce4bgip2rcd13ifvqbb0","pricing_plan_id":"cebpf4jnsgd1na2vs0mg"},{"bike_id":"212f6a4d-aa83-4ba9-b199-4df89b6aab44","system_id":"levelo_inurba_marseille","lat":43.29264,"lon":5.38438,"is_reserved":false,"is_disabled":false,"rental_uris":{"android":"levelo://app?vid=212f6a4d-aa83-4ba9-b199-4df89b6aab44","ios":"levelo://app?vid=212f6a4d-aa83-4ba9-b199-4df89b6aab44"},"vehicle_type_id":"4","last_reported":1769288969,"current_range_meters":4000,"station_id":"ce4bh692rcd13ifvqea0","pricing_plan_id":"cebpf4jnsgd1na2vs0mg"},{"bike_id":"7c7cc252-7f4f-4ac1-8175-44f20e46ac77","system_id":"levelo_inurba_marseille","lat":43.2673,"lon":5.40192,"is_reserved":false,"is_disabled":false,"rental_uris":{"android":"levelo://app?vid=7c7cc252-7f4f-4ac1-8175-44f20e46ac77","ios":"levelo://app?vid=7c7cc252-7f4f-4ac1-8175-44f20e46ac77"},"vehicle_type_id":"4","last_reported":1769288969,"current_range_meters":4000,"station_id":"","pricing_plan_id":"cebpf4jnsgd1na2vs0mg"},{"bike_id":"88bfa311-94c0-4341-96c1-792f5ba36ea1","system_id":"levelo_inurba_marseille","lat":43.28112,"lon":5.37833,"is_reserved":false,"is_disabled":false,"rental_uris":{"android":"levelo://app?vid=88bfa311-94c0-4341-96c1-792f5ba36ea1","ios":"levelo://app?vid=88bfa311-94c0-4341-96c1-792f5ba36ea1"},"vehicle_type_id":"4","last_reported":1769288969,"current_range_meters":4000,"station_id":"ce4bha12rcd13ifvqee0","pricing_plan_id":"cebpf4jnsgd1na2vs0mg"},{"bike_id":"04277308-a34e-4e95-b328-d631095696cf","system_id":"levelo_inurba_marseille","lat":43.240778,"lon":5.377482,"is_reserved":false,"is_disabled":false,"rental_uris":{"android":"levelo://app?vid=04277308-a34e-4e95-b328-d631095696cf","ios":"levelo://app?vid=04277308-a34e-4e95-b328-d631095696cf"},"vehicle_type_id":"4","last_reported":1769288969,"current_range_meters":4000,"station_id":"ce4bhnp2rcd13ifvqgvg","pricing_plan_id":"cebpf4jnsgd1na2vs0mg"},{"bike_id":"325d6000-e7a8-417c-aa29-6d5b58f2d9fb","system_id":"levelo_inurba_marseille","lat":43.29607,"lon":5.37183,"is_reserved":false,"is_disabled":false,"rental_uris":{"android":"levelo://app?vid=325d6000-e7a8-417c-aa29-6d5b58f2d9fb","ios":"levelo://app?vid=325d6000-e7a8-417c-aa29-6d5b58f2d9fb"},"vehicle_type_id":"4","last_reported":1769288969,"current_range_meters":4000,"station_id":"ce4bgnh2rcd13ifvqc0g","pricing_plan_id":"cebpf4jnsgd1na2vs0mg"},{"bike_id":"2b16ff9b-1532-4a37-9b9d-95bb7d5a2516","system_id":"levelo_inurba_marseille","lat":43.28145,"lon":5.42669,"is_reserved":false,"is_disabled":true,"rental_uris":{"android":"levelo://app?vid=2b16ff9b-1532-4a37-9b9d-95bb7d5a2516","ios":"levelo://app?vid=2b16ff9b-1532-4a37-9b9d-95bb7d5a2516"},"vehicle_type_id":"4","last_reported":1769288969,"current_range_meters":4000,"station_id":"ce4bhnh2rcd13ifvqgug","pricing_plan_id":"cebpf4jnsgd1na2vs0mg"},{"bike_id":"b51a0388-c74b-42ac-a687-03a2a2236348","system_id":"levelo_inurba_marseille","lat":43.3095,"lon":5.39027,"is_reserved":false,"is_disabled":false,"rental_uris":{"android":"levelo://app?vid=b51a0388-c74b-42ac-a687-03a2a2236348","ios":"levelo://app?vid=b51a0388-c74b-42ac-a687-03a2a2236348"},"vehicle_type_id":"4","last_reported":1769288969,"current_range_meters":4000,"station_id":"ce4bgup2rcd13ifvqco0","pricing_plan_id":"cebpf4jnsgd1na2vs0mg"},{"bike_id":"824c621c-a202-476e-adb4-d2ef81fa6574","system_id":"levelo_inurba_marseille","lat":43.24471,"lon":5.4254,"is_reserved":false,"is_disabled":false,"rental_uris":{"android":"levelo://app?vid=824c621c-a202-476e-adb4-d2ef81fa6574","ios":"levelo://app?vid=824c621c-a202-476e-adb4-d2ef81fa6574"},"vehicle_type_id":"4","last_reported":1769288969,"current_range_meters":4000,"station_id":"st_d4a3vfp97mjs738cd8kg","pricing_plan_id":"cebpf4jnsgd1na2vs0mg"},{"bike_id":"82d506ee-5e24-4752-b487-081284455b28","system_id":"levelo_inurba_marseille","lat":43.29968,"lon":5.38505,"is_reserved":false,"is_disabled":false,"rental_uris":{"android":"levelo://app?vid=82d506ee-5e24-4752-b487-081284455b28","ios":"levelo://app?vid=82d506ee-5e24-4752-b487-081284455b28"},"vehicle_type_id":"4","last_reported":1769288969,"current_range_meters":4400,"station_id":"ce4bgj92rcd13ifvqbd0","pricing_plan_id":"cebpf4jnsgd1na2vs0mg"},{"bike_id":"10c585ec-0d69-49bc-a403-a71e7446105a","system_id":"levelo_inurba_marseille","lat":43.24933,"lon":5.39686,"is_reserved":false,"is_disabled":false,"rental_uris":{"android":"levelo://app?vid=10c585ec-0d69-49bc-a403-a71e7446105a","ios":"levelo://app?vid=10c585ec-0d69-49bc-a403-a71e7446105a"},"vehicle_type_id":"4","last_reported":1769288969,"current_range_meters":4400,"station_id":"","pricing_plan_id":"cebpf4jnsgd1na2vs0mg"},{"bike_id":"8f72bfe4-ee21-4ee8-b70c-bdb39befee0d","system_id":"levelo_inurba_marseille","lat":43.25335,"lon":5.42165,"is_reserved":false,"is_disabled":false,"rental_uris":{"android":"levelo://app?vid=8f72bfe4-ee21-4ee8-b70c-bdb39befee0d","ios":"levelo://app?vid=8f72bfe4-ee21-4ee8-b70c-bdb39befee0d"},"vehicle_type_id":"4","last_reported":1769288969,"current_range_meters":4400,"station_id":"st_d2m65c5bi1j21697t3ng","pricing_plan_id":"cebpf4jnsgd1na2vs0mg"},{"bike_id":"43d8293a-9fd8-4a91-99e9-93bcd2e88730","system_id":"levelo_inurba_marseille","lat":43.22955,"lon":5.35354,"is_reserved":false,"is_disabled":false,"rental_uris":{"android":"levelo://app?vid=43d8293a-9fd8-4a91-99e9-93bcd2e88730","ios":"levelo://app?vid=43d8293a-9fd8-4a91-99e9-93bcd2e88730"},"vehicle_type_id":"4","last_reported":1769288969,"current_range_meters":4400,"station_id":"cpo3532slgdg3j2ikp40","pricing_plan_id":"cebpf4jnsgd1na2vs0mg"},{"bike_id":"1ee07084-a0a9-43af-bdb4-955f248e5678","system_id":"levelo_inurba_marseille","lat":43.28388,"lon":5.387533,"is_reserved":false,"is_disabled":false,"rental_uris":{"android":"levelo://app?vid=1ee07084-a0a9-43af-bdb4-955f248e5678","ios":"levelo://app?vid=1ee07084-a0a9-43af-bdb4-955f248e5678"},"vehicle_type_id":"4","last_reported":1769288969,"current_range_meters":4400,"station_id":"","pricing_plan_id":"cebpf4jnsgd1na2vs0mg"},{"bike_id":"8d651ce5-2af6-4d67-a695-d29bc342bb83","system_id":"levelo_inurba_marseille","lat":43.2293,"lon":5.35392,"is_reserved":false,"is_disabled":false,"rental_uris":{"android":"levelo://app?vid=8d651ce5-2af6-4d67-a695-d29bc342bb83","ios":"levelo://app?vid=8d651ce5-2af6-4d67-a695-d29bc342bb83"},"vehicle_type_id":"4","last_reported":1769288969,"current_range_meters":4400,"station_id":"cpo3532slgdg3j2ikp40","pricing_plan_id":"cebpf4jnsgd1na2vs0mg"},{"bike_id":"92d6dea2-bbbf-416e-ad7c-18828f1e2f5c","system_id":"levelo_inurba_marseille","lat":43.29036,"lon":5.37565,"is_reserved":false,"is_disabled":false,"rental_uris":{"android":"levelo://app?vid=92d6dea2-bbbf-416e-ad7c-18828f1e2f5c","ios":"levelo://app?vid=92d6dea2-bbbf-416e-ad7c-18828f1e2f5c"},"vehicle_type_id":"4","last_reported":1769288969,"current_range_meters":4400,"station_id":"ce4bh692rcd13ifvqe90","pricing_plan_id":"cebpf4jnsgd1na2vs0mg"},{"bike_id":"83861104-e47e-48d9-bc33-8c944f459528","system_id":"levelo_inurba_marseille","lat":43.30423,"lon":5.39746,"is_reserved":false,"is_disabled":false,"rental_uris":{"android":"levelo://app?vid=83861104-e47e-48d9-bc33-8c944f459528","ios":"levelo://app?vid=83861104-e47e-48d9-bc33-8c944f459528"},"vehicle_type_id":"4","last_reported":1769288969,"current_range_meters":4400,"station_id":"ce4bh092rcd13ifvqd20","pricing_plan_id":"cebpf4jnsgd1na2vs0mg"},{"bike_id":"baab0e10-ea32-40b1-8345-dd563e57b7cf","system_id":"levelo_inurba_marseille","lat":43.308797,"lon":5.396471,"is_reserved":false,"is_disabled":false,"rental_uris":{"android":"levelo://app?vid=baab0e10-ea32-40b1-8345-dd563e57b7cf","ios":"levelo://app?vid=baab0e10-ea32-40b1-8345-dd563e57b7cf"},"vehicle_type_id":"4","last_reported":1769288969,"current_range_meters":4400,"station_id":"ce4bh012rcd13ifvqcv0","pricing_plan_id":"cebpf4jnsgd1na2vs0mg"},{"bike_id":"9fbd82ae-6a1c-4713-b016-e7c642e50725","system_id":"levelo_inurba_marseille","lat":43.3011,"lon":5.38784,"is_reserved":false,"is_disabled":false,"rental_uris":{"android":"levelo://app?vid=9fbd82ae-6a1c-4713-b016-e7c642e50725","ios":"levelo://app?vid=9fbd82ae-6a1c-4713-b016-e7c642e50725"},"vehicle_type_id":"4","last_reported":1769288969,"current_range_meters":4400,"station_id":"ce4bghh2rcd13ifvqb60","pricing_plan_id":"cebpf4jnsgd1na2vs0mg"},{"bike_id":"d6bcc36c-0988-4104-853c-6ca0cbca9b29","system_id":"levelo_inurba_marseille","lat":43.28862,"lon":5.42514,"is_reserved":false,"is_disabled":false,"rental_uris":{"android":"levelo://app?vid=d6bcc36c-0988-4104-853c-6ca0cbca9b29","ios":"levelo://app?vid=d6bcc36c-0988-4104-853c-6ca0cbca9b29"},"vehicle_type_id":"4","last_reported":1769288969,"current_range_meters":4400,"station_id":"st_d3b462108ojc7389ooeg","pricing_plan_id":"cebpf4jnsgd1na2vs0mg"},{"bike_id":"2e2ce66a-3f89-4c21-a9df-34056a5a5860","system_id":"levelo_inurba_marseille","lat":43.22557,"lon":5.41626,"is_reserved":false,"is_disabled":false,"rental_uris":{"android":"levelo://app?vid=2e2ce66a-3f89-4c21-a9df-34056a5a5860","ios":"levelo://app?vid=2e2ce66a-3f89-4c21-a9df-34056a5a5860"},"vehicle_type_id":"4","last_reported":1769288969,"current_range_meters":4400,"station_id":"st_d2o4gvlbi1j2169b742g","pricing_plan_id":"cebpf4jnsgd1na2vs0mg"},{"bike_id":"e4c4f5dd-c80d-4d75-801c-35c973416425","system_id":"levelo_inurba_marseille","lat":43.26553,"lon":5.373,"is_reserved":false,"is_disabled":false,"rental_uris":{"android":"levelo://app?vid=e4c4f5dd-c80d-4d75-801c-35c973416425","ios":"levelo://app?vid=e4c4f5dd-c80d-4d75-801c-35c973416425"},"vehicle_type_id":"4","last_reported":1769288969,"current_range_meters":4800,"station_id":"ce4bhg12rcd13ifvqf70","pricing_plan_id":"cebpf4jnsgd1na2vs0mg"},{"bike_id":"0dc9dc39-9a79-4974-b3ae-9c8631cf059e","system_id":"levelo_inurba_marseille","lat":43.23991,"lon":5.39584,"is_reserved":false,"is_disabled":false,"rental_uris":{"android":"levelo://app?vid=0dc9dc39-9a79-4974-b3ae-9c8631cf059e","ios":"levelo://app?vid=0dc9dc39-9a79-4974-b3ae-9c8631cf059e"},"vehicle_type_id":"4","last_reported":1769288969,"current_range_meters":4800,"station_id":"","pricing_plan_id":"cebpf4jnsgd1na2vs0mg"},{"bike_id":"71d3d1bf-2396-432f-a9d4-0f03fb0e9eff","system_id":"levelo_inurba_marseille","lat":43.26082,"lon":5.39368,"is_reserved":false,"is_disabled":false,"rental_uris":{"android":"levelo://app?vid=71d3d1bf-2396-432f-a9d4-0f03fb0e9eff","ios":"levelo://app?vid=71d3d1bf-2396-432f-a9d4-0f03fb0e9eff"},"vehicle_type_id":"4","last_reported":1769288969,"current_range_meters":4800,"station_id":"ce4bhh92rcd13ifvqfj0","pricing_plan_id":"cebpf4jnsgd1na2vs0mg"},{"bike_id":"e9b9f3ff-8a24-44cd-b430-0167d4979aba","system_id":"levelo_inurba_marseille","lat":43.273183,"lon":5.391146,"is_reserved":false,"is_disabled":false,"rental_uris":{"android":"levelo://app?vid=e9b9f3ff-8a24-44cd-b430-0167d4979aba","ios":"levelo://app?vid=e9b9f3ff-8a24-44cd-b430-0167d4979aba"},"vehicle_type_id":"4","last_reported":1769288969,"current_range_meters":4800,"station_id":"ce4bhgp2rcd13ifvqfe0","pricing_plan_id":"cebpf4jnsgd1na2vs0mg"},{"bike_id":"f95f1b41-c459-4716-90e0-3945d441d261","system_id":"levelo_inurba_marseille","lat":43.29707,"lon":5.36611,"is_reserved":false,"is_disabled":false,"rental_uris":{"android":"levelo://app?vid=f95f1b41-c459-4716-90e0-3945d441d261","ios":"levelo://app?vid=f95f1b41-c459-4716-90e0-3945d441d261"},"vehicle_type_id":"4","last_reported":1769288969,"current_range_meters":4800,"station_id":"ce4bgn12rcd13ifvqbt0","pricing_plan_id":"cebpf4jnsgd1na2vs0mg"},{"bike_id":"cb426dde-9dde-46c0-a6eb-acbf6dc9546a","system_id":"levelo_inurba_marseille","lat":43.2958,"lon":5.37513,"is_reserved":false,"is_disabled":false,"rental_uris":{"android":"levelo://app?vid=cb426dde-9dde-46c0-a6eb-acbf6dc9546a","ios":"levelo://app?vid=cb426dde-9dde-46c0-a6eb-acbf6dc9546a"},"vehicle_type_id":"4","last_reported":1769288969,"current_range_meters":4800,"station_id":"ce4bgh92rcd13ifvqb50","pricing_plan_id":"cebpf4jnsgd1na2vs0mg"},{"bike_id":"e3bf064c-53bb-4e5e-a214-36779e2347bf","system_id":"levelo_inurba_marseille","lat":43.27986,"lon":5.41652,"is_reserved":false,"is_disabled":false,"rental_uris":{"android":"levelo://app?vid=e3bf064c-53bb-4e5e-a214-36779e2347bf","ios":"levelo://app?vid=e3bf064c-53bb-4e5e-a214-36779e2347bf"},"vehicle_type_id":"4","last_reported":1769288969,"current_range_meters":4800,"station_id":"ce4bho12rcd13ifvqh1g","pricing_plan_id":"cebpf4jnsgd1na2vs0mg"},{"bike_id":"c6d7d6a7-9942-4d20-b186-d739489af7b7","system_id":"levelo_inurba_marseille","lat":43.29562,"lon":5.37475,"is_reserved":false,"is_disabled":false,"rental_uris":{"android":"levelo://app?vid=c6d7d6a7-9942-4d20-b186-d739489af7b7","ios":"levelo://app?vid=c6d7d6a7-9942-4d20-b186-d739489af7b7"},"vehicle_type_id":"4","last_reported":1769288969,"current_range_meters":4800,"station_id":"ce4bgh92rcd13ifvqb50","pricing_plan_id":"cebpf4jnsgd1na2vs0mg"},{"bike_id":"16525725-a4c4-4bd9-9925-eb9b950936aa","system_id":"levelo_inurba_marseille","lat":43.26937,"lon":5.39096,"is_reserved":false,"is_disabled":false,"rental_uris":{"android":"levelo://app?vid=16525725-a4c4-4bd9-9925-eb9b950936aa","ios":"levelo://app?vid=16525725-a4c4-4bd9-9925-eb9b950936aa"},"vehicle_type_id":"4","last_reported":1769288969,"current_range_meters":4800,"station_id":"","pricing_plan_id":"cebpf4jnsgd1na2vs0mg"},{"bike_id":"90eb59c1-95bd-4176-a950-4d1901929c06","system_id":"levelo_inurba_marseille","lat":43.292715,"lon":5.384283,"is_reserved":false,"is_disabled":false,"rental_uris":{"android":"levelo://app?vid=90eb59c1-95bd-4176-a950-4d1901929c06","ios":"levelo://app?vid=90eb59c1-95bd-4176-a950-4d1901929c06"},"vehicle_type_id":"4","last_reported":1769288969,"current_range_meters":4800,"station_id":"","pricing_plan_id":"cebpf4jnsgd1na2vs0mg"},{"bike_id":"0067e0af-5ba0-4b0d-a268-ed0ed9e19547","system_id":"levelo_inurba_marseille","lat":43.32359,"lon":5.36755,"is_reserved":false,"is_disabled":false,"rental_uris":{"android":"levelo://app?vid=0067e0af-5ba0-4b0d-a268-ed0ed9e19547","ios":"levelo://app?vid=0067e0af-5ba0-4b0d-a268-ed0ed9e19547"},"vehicle_type_id":"4","last_reported":1769288969,"current_range_meters":5600,"station_id":"ce4bhsh2rcd13ifvqi2g","pricing_plan_id":"cebpf4jnsgd1na2vs0mg"},{"bike_id":"19c9b524-76f1-4e5d-8be9-000b11a19079","system_id":"levelo_inurba_marseille","lat":43.250108,"lon":5.389138,"is_reserved":false,"is_disabled":false,"rental_uris":{"android":"levelo://app?vid=19c9b524-76f1-4e5d-8be9-000b11a19079","ios":"levelo://app?vid=19c9b524-76f1-4e5d-8be9-000b11a19079"},"vehicle_type_id":"4","last_reported":1769288969,"current_range_meters":5600,"station_id":"ce4bhgp2rcd13ifvqfd0","pricing_plan_id":"cebpf4jnsgd1na2vs0mg"},{"bike_id":"10d9e279-fe7a-471e-97ab-fc14b4dd07f8","system_id":"levelo_inurba_marseille","lat":43.26546,"lon":5.37288,"is_reserved":false,"is_disabled":false,"rental_uris":{"android":"levelo://app?vid=10d9e279-fe7a-471e-97ab-fc14b4dd07f8","ios":"levelo://app?vid=10d9e279-fe7a-471e-97ab-fc14b4dd07f8"},"vehicle_type_id":"4","last_reported":1769288969,"current_range_meters":5600,"station_id":"ce4bhg12rcd13ifvqf70","pricing_plan_id":"cebpf4jnsgd1na2vs0mg"},{"bike_id":"d73b984a-15de-4015-ac28-29e3b1459003","system_id":"levelo_inurba_marseille","lat":43.30149,"lon":5.38092,"is_reserved":false,"is_disabled":false,"rental_uris":{"android":"levelo://app?vid=d73b984a-15de-4015-ac28-29e3b1459003","ios":"levelo://app?vid=d73b984a-15de-4015-ac28-29e3b1459003"},"vehicle_type_id":"4","last_reported":1769288969,"current_range_meters":5600,"station_id":"ce4bgjp2rcd13ifvqbh0","pricing_plan_id":"cebpf4jnsgd1na2vs0mg"},{"bike_id":"514778f3-cb3c-44e7-bfaa-f93fb491b5fc","system_id":"levelo_inurba_marseille","lat":43.2501,"lon":5.38925,"is_reserved":false,"is_disabled":false,"rental_uris":{"android":"levelo://app?vid=514778f3-cb3c-44e7-bfaa-f93fb491b5fc","ios":"levelo://app?vid=514778f3-cb3c-44e7-bfaa-f93fb491b5fc"},"vehicle_type_id":"4","last_reported":1769288969,"current_range_meters":5600,"station_id":"ce4bhgp2rcd13ifvqfd0","pricing_plan_id":"cebpf4jnsgd1na2vs0mg"},{"bike_id":"f9b330f3-188f-4241-b131-04d52afbc95a","system_id":"levelo_inurba_marseille","lat":43.31709,"lon":5.43696,"is_reserved":false,"is_disabled":false,"rental_uris":{"android":"levelo://app?vid=f9b330f3-188f-4241-b131-04d52afbc95a","ios":"levelo://app?vid=f9b330f3-188f-4241-b131-04d52afbc95a"},"vehicle_type_id":"4","last_reported":1769288969,"current_range_meters":5600,"station_id":"ce4bhp92rcd13ifvqhcg","pricing_plan_id":"cebpf4jnsgd1na2vs0mg"},{"bike_id":"f3db34b3-ba2e-48a9-9a3b-d9d786e23b7e","system_id":"levelo_inurba_marseille","lat":43.29531,"lon":5.39033,"is_reserved":false,"is_disabled":false,"rental_uris":{"android":"levelo://app?vid=f3db34b3-ba2e-48a9-9a3b-d9d786e23b7e","ios":"levelo://app?vid=f3db34b3-ba2e-48a9-9a3b-d9d786e23b7e"},"vehicle_type_id":"4","last_reported":1769288969,"current_range_meters":5600,"station_id":"ce4bh3p2rcd13ifvqdp0","pricing_plan_id":"cebpf4jnsgd1na2vs0mg"},{"bike_id":"8e10ca4a-d962-4318-8f21-9c292cae2aca","system_id":"levelo_inurba_marseille","lat":43.24187,"lon":5.36372,"is_reserved":false,"is_disabled":false,"rental_uris":{"android":"levelo://app?vid=8e10ca4a-d962-4318-8f21-9c292cae2aca","ios":"levelo://app?vid=8e10ca4a-d962-4318-8f21-9c292cae2aca"},"vehicle_type_id":"4","last_reported":1769288969,"current_range_meters":5600,"station_id":"cpo36qri1sfpv3e86is0","pricing_plan_id":"cebpf4jnsgd1na2vs0mg"},{"bike_id":"5fc384e4-f0b4-4c89-a573-763b54aad41c","system_id":"levelo_inurba_marseille","lat":43.2857,"lon":5.39506,"is_reserved":false,"is_disabled":false,"rental_uris":{"android":"levelo://app?vid=5fc384e4-f0b4-4c89-a573-763b54aad41c","ios":"levelo://app?vid=5fc384e4-f0b4-4c89-a573-763b54aad41c"},"vehicle_type_id":"4","last_reported":1769288969,"current_range_meters":6000,"station_id":"","pricing_plan_id":"cebpf4jnsgd1na2vs0mg"},{"bike_id":"b019e1a9-e9bb-4a00-b8fa-7bb78b5700ac","system_id":"levelo_inurba_marseille","lat":43.32363,"lon":5.36692,"is_reserved":false,"is_disabled":false,"rental_uris":{"android":"levelo://app?vid=b019e1a9-e9bb-4a00-b8fa-7bb78b5700ac","ios":"levelo://app?vid=b019e1a9-e9bb-4a00-b8fa-7bb78b5700ac"},"vehicle_type_id":"4","last_reported":1769288969,"current_range_meters":6000,"station_id":"","pricing_plan_id":"cebpf4jnsgd1na2vs0mg"},{"bike_id":"3f54973b-be71-4736-ae3e-5ec35607fc29","system_id":"levelo_inurba_marseille","lat":43.28884,"lon":5.38296,"is_reserved":false,"is_disabled":false,"rental_uris":{"android":"levelo://app?vid=3f54973b-be71-4736-ae3e-5ec35607fc29","ios":"levelo://app?vid=3f54973b-be71-4736-ae3e-5ec35607fc29"},"vehicle_type_id":"4","last_reported":1769288969,"current_range_meters":6000,"station_id":"ce4bh612rcd13ifvqe6g","pricing_plan_id":"cebpf4jnsgd1na2vs0mg"},{"bike_id":"6252b5bc-7f21-4a5c-90b2-fb54de33b122","system_id":"levelo_inurba_marseille","lat":43.243865,"lon":5.370753,"is_reserved":false,"is_disabled":false,"rental_uris":{"android":"levelo://app?vid=6252b5bc-7f21-4a5c-90b2-fb54de33b122","ios":"levelo://app?vid=6252b5bc-7f21-4a5c-90b2-fb54de33b122"},"vehicle_type_id":"4","last_reported":1769288969,"current_range_meters":6000,"station_id":"ce4bhhh2rcd13ifvqfk0","pricing_plan_id":"cebpf4jnsgd1na2vs0mg"},{"bike_id":"3dc327f4-e8d5-43a3-b4e6-944c33e6eea4","system_id":"levelo_inurba_marseille","lat":43.25567,"lon":5.3823,"is_reserved":false,"is_disabled":false,"rental_uris":{"android":"levelo://app?vid=3dc327f4-e8d5-43a3-b4e6-944c33e6eea4","ios":"levelo://app?vid=3dc327f4-e8d5-43a3-b4e6-944c33e6eea4"},"vehicle_type_id":"4","last_reported":1769288969,"current_range_meters":6000,"station_id":"ce4bhih2rcd13ifvqfs0","pricing_plan_id":"cebpf4jnsgd1na2vs0mg"},{"bike_id":"589eebb0-c0cf-4d19-afe3-eff9c648d5c0","system_id":"levelo_inurba_marseille","lat":43.26239,"lon":5.40433,"is_reserved":false,"is_disabled":false,"rental_uris":{"android":"levelo://app?vid=589eebb0-c0cf-4d19-afe3-eff9c648d5c0","ios":"levelo://app?vid=589eebb0-c0cf-4d19-afe3-eff9c648d5c0"},"vehicle_type_id":"4","last_reported":1769288969,"current_range_meters":6000,"station_id":"ce4bhmh2rcd13ifvqgmg","pricing_plan_id":"cebpf4jnsgd1na2vs0mg"},{"bike_id":"532e07ca-6ffb-4fb1-85b2-a4e5dabd1b17","system_id":"levelo_inurba_marseille","lat":43.24063,"lon":5.37704,"is_reserved":false,"is_disabled":true,"rental_uris":{"android":"levelo://app?vid=532e07ca-6ffb-4fb1-85b2-a4e5dabd1b17","ios":"levelo://app?vid=532e07ca-6ffb-4fb1-85b2-a4e5dabd1b17"},"vehicle_type_id":"4","last_reported":1769288969,"current_range_meters":6000,"station_id":"ce4bhnp2rcd13ifvqgvg","pricing_plan_id":"cebpf4jnsgd1na2vs0mg"},{"bike_id":"e1d27491-b72b-4ef0-a0bb-689c46d99a28","system_id":"levelo_inurba_marseille","lat":43.28488,"lon":5.48391,"is_reserved":false,"is_disabled":false,"rental_uris":{"android":"levelo://app?vid=e1d27491-b72b-4ef0-a0bb-689c46d99a28","ios":"levelo://app?vid=e1d27491-b72b-4ef0-a0bb-689c46d99a28"},"vehicle_type_id":"4","last_reported":1769288969,"current_range_meters":6000,"station_id":"st_d3svhcjqgbts73a3dn0g","pricing_plan_id":"cebpf4jnsgd1na2vs0mg"},{"bike_id":"478d0946-d2b1-482f-ac5e-d37a7c92584b","system_id":"levelo_inurba_marseille","lat":43.22543,"lon":5.34857,"is_reserved":false,"is_disabled":false,"rental_uris":{"android":"levelo://app?vid=478d0946-d2b1-482f-ac5e-d37a7c92584b","ios":"levelo://app?vid=478d0946-d2b1-482f-ac5e-d37a7c92584b"},"vehicle_type_id":"4","last_reported":1769288969,"current_range_meters":6000,"station_id":"st_cvj5dfep6f1abm77gieg","pricing_plan_id":"cebpf4jnsgd1na2vs0mg"},{"bike_id":"424d688c-c8b8-4626-a702-361ed2d6a67f","system_id":"levelo_inurba_marseille","lat":43.29607,"lon":5.37694,"is_reserved":false,"is_disabled":false,"rental_uris":{"android":"levelo://app?vid=424d688c-c8b8-4626-a702-361ed2d6a67f","ios":"levelo://app?vid=424d688c-c8b8-4626-a702-361ed2d6a67f"},"vehicle_type_id":"4","last_reported":1769288969,"current_range_meters":6000,"station_id":"ce4bgi92rcd13ifvqb90","pricing_plan_id":"cebpf4jnsgd1na2vs0mg"},{"bike_id":"f9f6d96b-5aa8-45c5-b53c-8310d2ddc276","system_id":"levelo_inurba_marseille","lat":43.28449,"lon":5.38476,"is_reserved":false,"is_disabled":false,"rental_uris":{"android":"levelo://app?vid=f9f6d96b-5aa8-45c5-b53c-8310d2ddc276","ios":"levelo://app?vid=f9f6d96b-5aa8-45c5-b53c-8310d2ddc276"},"vehicle_type_id":"4","last_reported":1769288969,"current_range_meters":6000,"station_id":"ce4bh512rcd13ifvqe3g","pricing_plan_id":"cebpf4jnsgd1na2vs0mg"},{"bike_id":"54247625-5421-4985-8cfb-4f29ba1ac252","system_id":"levelo_inurba_marseille","lat":43.31696,"lon":5.37618,"is_reserved":false,"is_disabled":false,"rental_uris":{"android":"levelo://app?vid=54247625-5421-4985-8cfb-4f29ba1ac252","ios":"levelo://app?vid=54247625-5421-4985-8cfb-4f29ba1ac252"},"vehicle_type_id":"4","last_reported":1769288969,"current_range_meters":6000,"station_id":"","pricing_plan_id":"cebpf4jnsgd1na2vs0mg"},{"bike_id":"434b641b-efdf-4119-a3f0-ef96eacb4d52","system_id":"levelo_inurba_marseille","lat":43.29398,"lon":5.38889,"is_reserved":false,"is_disabled":false,"rental_uris":{"android":"levelo://app?vid=434b641b-efdf-4119-a3f0-ef96eacb4d52","ios":"levelo://app?vid=434b641b-efdf-4119-a3f0-ef96eacb4d52"},"vehicle_type_id":"4","last_reported":1769288969,"current_range_meters":6000,"station_id":"","pricing_plan_id":"cebpf4jnsgd1na2vs0mg"},{"bike_id":"5c44d9da-a9f7-4333-ab1c-8bd91f24f729","system_id":"levelo_inurba_marseille","lat":43.22567,"lon":5.41637,"is_reserved":false,"is_disabled":false,"rental_uris":{"android":"levelo://app?vid=5c44d9da-a9f7-4333-ab1c-8bd91f24f729","ios":"levelo://app?vid=5c44d9da-a9f7-4333-ab1c-8bd91f24f729"},"vehicle_type_id":"4","last_reported":1769288969,"current_range_meters":6000,"station_id":"st_d2o4gvlbi1j2169b742g","pricing_plan_id":"cebpf4jnsgd1na2vs0mg"},{"bike_id":"004d525a-b890-46fe-93f4-de234fb9b130","system_id":"levelo_inurba_marseille","lat":43.2931,"lon":5.37128,"is_reserved":false,"is_disabled":false,"rental_uris":{"android":"levelo://app?vid=004d525a-b890-46fe-93f4-de234fb9b130","ios":"levelo://app?vid=004d525a-b890-46fe-93f4-de234fb9b130"},"vehicle_type_id":"4","last_reported":1769288969,"current_range_meters":6000,"station_id":"ce4bgh92rcd13ifvqb40","pricing_plan_id":"cebpf4jnsgd1na2vs0mg"},{"bike_id":"7a1b6b69-5f61-4e11-91d3-12cf02858ca8","system_id":"levelo_inurba_marseille","lat":43.24397,"lon":5.37074,"is_reserved":false,"is_disabled":false,"rental_uris":{"android":"levelo://app?vid=7a1b6b69-5f61-4e11-91d3-12cf02858ca8","ios":"levelo://app?vid=7a1b6b69-5f61-4e11-91d3-12cf02858ca8"},"vehicle_type_id":"4","last_reported":1769288969,"current_range_meters":6400,"station_id":"ce4bhhh2rcd13ifvqfk0","pricing_plan_id":"cebpf4jnsgd1na2vs0mg"},{"bike_id":"f50ab09b-5d0e-47a7-a8be-db0e252af394","system_id":"levelo_inurba_marseille","lat":43.225658,"lon":5.416267,"is_reserved":false,"is_disabled":false,"rental_uris":{"android":"levelo://app?vid=f50ab09b-5d0e-47a7-a8be-db0e252af394","ios":"levelo://app?vid=f50ab09b-5d0e-47a7-a8be-db0e252af394"},"vehicle_type_id":"4","last_reported":1769288969,"current_range_meters":6400,"station_id":"st_d2o4gvlbi1j2169b742g","pricing_plan_id":"cebpf4jnsgd1na2vs0mg"},{"bike_id":"8b4c0911-c0b8-4518-9cf2-b63c564ba230","system_id":"levelo_inurba_marseille","lat":43.29026,"lon":5.38184,"is_reserved":false,"is_disabled":false,"rental_uris":{"android":"levelo://app?vid=8b4c0911-c0b8-4518-9cf2-b63c564ba230","ios":"levelo://app?vid=8b4c0911-c0b8-4518-9cf2-b63c564ba230"},"vehicle_type_id":"4","last_reported":1769288969,"current_range_meters":6400,"station_id":"ce4bh4p2rcd13ifvqe1g","pricing_plan_id":"cebpf4jnsgd1na2vs0mg"},{"bike_id":"08962946-fb02-4f38-815e-994eda782353","system_id":"levelo_inurba_marseille","lat":43.28383,"lon":5.39456,"is_reserved":false,"is_disabled":false,"rental_uris":{"android":"levelo://app?vid=08962946-fb02-4f38-815e-994eda782353","ios":"levelo://app?vid=08962946-fb02-4f38-815e-994eda782353"},"vehicle_type_id":"4","last_reported":1769288969,"current_range_meters":6400,"station_id":"","pricing_plan_id":"cebpf4jnsgd1na2vs0mg"},{"bike_id":"5b91b93d-b3ae-4751-8498-b1dabc506a1f","system_id":"levelo_inurba_marseille","lat":43.244691,"lon":5.425313,"is_reserved":false,"is_disabled":false,"rental_uris":{"android":"levelo://app?vid=5b91b93d-b3ae-4751-8498-b1dabc506a1f","ios":"levelo://app?vid=5b91b93d-b3ae-4751-8498-b1dabc506a1f"},"vehicle_type_id":"4","last_reported":1769288969,"current_range_meters":6400,"station_id":"st_d4a3vfp97mjs738cd8kg","pricing_plan_id":"cebpf4jnsgd1na2vs0mg"},{"bike_id":"abaa43d4-f43e-4a03-9203-d59c5f7bc0a1","system_id":"levelo_inurba_marseille","lat":43.302993,"lon":5.39199,"is_reserved":false,"is_disabled":false,"rental_uris":{"android":"levelo://app?vid=abaa43d4-f43e-4a03-9203-d59c5f7bc0a1","ios":"levelo://app?vid=abaa43d4-f43e-4a03-9203-d59c5f7bc0a1"},"vehicle_type_id":"4","last_reported":1769288969,"current_range_meters":6400,"station_id":"ce4bgkh2rcd13ifvqbk0","pricing_plan_id":"cebpf4jnsgd1na2vs0mg"},{"bike_id":"933bd7dc-b27d-40db-936f-112f66d04e37","system_id":"levelo_inurba_marseille","lat":43.27622,"lon":5.36115,"is_reserved":false,"is_disabled":false,"rental_uris":{"android":"levelo://app?vid=933bd7dc-b27d-40db-936f-112f66d04e37","ios":"levelo://app?vid=933bd7dc-b27d-40db-936f-112f66d04e37"},"vehicle_type_id":"4","last_reported":1769288969,"current_range_meters":6400,"station_id":"ce4bgj92rcd13ifvqbe0","pricing_plan_id":"cebpf4jnsgd1na2vs0mg"},{"bike_id":"b1b24ff6-a16a-49d4-8c80-da38825e8615","system_id":"levelo_inurba_marseille","lat":43.24396,"lon":5.37039,"is_reserved":false,"is_disabled":false,"rental_uris":{"android":"levelo://app?vid=b1b24ff6-a16a-49d4-8c80-da38825e8615","ios":"levelo://app?vid=b1b24ff6-a16a-49d4-8c80-da38825e8615"},"vehicle_type_id":"4","last_reported":1769288969,"current_range_meters":6400,"station_id":"ce4bhhh2rcd13ifvqfk0","pricing_plan_id":"cebpf4jnsgd1na2vs0mg"},{"bike_id":"d2d53e0f-af2d-4a18-8781-8f93386bbf13","system_id":"levelo_inurba_marseille","lat":43.29566,"lon":5.37533,"is_reserved":false,"is_disabled":false,"rental_uris":{"android":"levelo://app?vid=d2d53e0f-af2d-4a18-8781-8f93386bbf13","ios":"levelo://app?vid=d2d53e0f-af2d-4a18-8781-8f93386bbf13"},"vehicle_type_id":"4","last_reported":1769288969,"current_range_meters":6400,"station_id":"ce4bgh92rcd13ifvqb50","pricing_plan_id":"cebpf4jnsgd1na2vs0mg"},{"bike_id":"a8902eb9-1e79-43bf-8303-145a87f0ae15","system_id":"levelo_inurba_marseille","lat":43.21751,"lon":5.34599,"is_reserved":false,"is_disabled":false,"rental_uris":{"android":"levelo://app?vid=a8902eb9-1e79-43bf-8303-145a87f0ae15","ios":"levelo://app?vid=a8902eb9-1e79-43bf-8303-145a87f0ae15"},"vehicle_type_id":"4","last_reported":1769288969,"current_range_meters":6400,"station_id":"st_cvj6r9ubvosntc0bgbag","pricing_plan_id":"cebpf4jnsgd1na2vs0mg"},{"bike_id":"b09b1361-457f-41a9-8d0f-135e88227a1b","system_id":"levelo_inurba_marseille","lat":43.27331,"lon":5.39113,"is_reserved":false,"is_disabled":false,"rental_uris":{"android":"levelo://app?vid=b09b1361-457f-41a9-8d0f-135e88227a1b","ios":"levelo://app?vid=b09b1361-457f-41a9-8d0f-135e88227a1b"},"vehicle_type_id":"4","last_reported":1769288969,"current_range_meters":6400,"station_id":"ce4bhgp2rcd13ifvqfe0","pricing_plan_id":"cebpf4jnsgd1na2vs0mg"},{"bike_id":"60bef872-05bf-4251-9fbb-5033acce15f9","system_id":"levelo_inurba_marseille","lat":43.27847,"lon":5.39218,"is_reserved":false,"is_disabled":false,"rental_uris":{"android":"levelo://app?vid=60bef872-05bf-4251-9fbb-5033acce15f9","ios":"levelo://app?vid=60bef872-05bf-4251-9fbb-5033acce15f9"},"vehicle_type_id":"4","last_reported":1769288969,"current_range_meters":6400,"station_id":"ce4bhjp2rcd13ifvqga0","pricing_plan_id":"cebpf4jnsgd1na2vs0mg"},{"bike_id":"903ed6fb-e30d-426f-a862-93953b3b0883","system_id":"levelo_inurba_marseille","lat":43.32371,"lon":5.36739,"is_reserved":false,"is_disabled":false,"rental_uris":{"android":"levelo://app?vid=903ed6fb-e30d-426f-a862-93953b3b0883","ios":"levelo://app?vid=903ed6fb-e30d-426f-a862-93953b3b0883"},"vehicle_type_id":"4","last_reported":1769288969,"current_range_meters":6800,"station_id":"ce4bhsh2rcd13ifvqi2g","pricing_plan_id":"cebpf4jnsgd1na2vs0mg"},{"bike_id":"994cd074-f869-4813-80d0-fd8e13f5f341","system_id":"levelo_inurba_marseille","lat":43.30004,"lon":5.36489,"is_reserved":false,"is_disabled":false,"rental_uris":{"android":"levelo://app?vid=994cd074-f869-4813-80d0-fd8e13f5f341","ios":"levelo://app?vid=994cd074-f869-4813-80d0-fd8e13f5f341"},"vehicle_type_id":"4","last_reported":1769288969,"current_range_meters":6800,"station_id":"","pricing_plan_id":"cebpf4jnsgd1na2vs0mg"},{"bike_id":"9af51f60-0147-47d1-9c59-680e0d02c35a","system_id":"levelo_inurba_marseille","lat":43.21743,"lon":5.34605,"is_reserved":false,"is_disabled":false,"rental_uris":{"android":"levelo://app?vid=9af51f60-0147-47d1-9c59-680e0d02c35a","ios":"levelo://app?vid=9af51f60-0147-47d1-9c59-680e0d02c35a"},"vehicle_type_id":"4","last_reported":1769288969,"current_range_meters":6800,"station_id":"st_cvj6r9ubvosntc0bgbag","pricing_plan_id":"cebpf4jnsgd1na2vs0mg"},{"bike_id":"21f6fd5f-51e0-4ace-adf3-8e7223e07642","system_id":"levelo_inurba_marseille","lat":43.298938,"lon":5.436559,"is_reserved":false,"is_disabled":false,"rental_uris":{"android":"levelo://app?vid=21f6fd5f-51e0-4ace-adf3-8e7223e07642","ios":"levelo://app?vid=21f6fd5f-51e0-4ace-adf3-8e7223e07642"},"vehicle_type_id":"4","last_reported":1769288969,"current_range_meters":6800,"station_id":"ce4bhpp2rcd13ifvqhfg","pricing_plan_id":"cebpf4jnsgd1na2vs0mg"},{"bike_id":"12c4af30-fcff-43b0-8fdd-c6f4317b2cf6","system_id":"levelo_inurba_marseille","lat":43.31122,"lon":5.37758,"is_reserved":false,"is_disabled":false,"rental_uris":{"android":"levelo://app?vid=12c4af30-fcff-43b0-8fdd-c6f4317b2cf6","ios":"levelo://app?vid=12c4af30-fcff-43b0-8fdd-c6f4317b2cf6"},"vehicle_type_id":"4","last_reported":1769288969,"current_range_meters":6800,"station_id":"ce4bgt92rcd13ifvqcg0","pricing_plan_id":"cebpf4jnsgd1na2vs0mg"},{"bike_id":"33375b7b-1d58-47f3-81bb-abd7d093dc69","system_id":"levelo_inurba_marseille","lat":43.29613,"lon":5.37681,"is_reserved":false,"is_disabled":false,"rental_uris":{"android":"levelo://app?vid=33375b7b-1d58-47f3-81bb-abd7d093dc69","ios":"levelo://app?vid=33375b7b-1d58-47f3-81bb-abd7d093dc69"},"vehicle_type_id":"4","last_reported":1769288969,"current_range_meters":6800,"station_id":"ce4bgi92rcd13ifvqb90","pricing_plan_id":"cebpf4jnsgd1na2vs0mg"},{"bike_id":"ae71a52e-3d46-4289-a470-4e64eab9ff51","system_id":"levelo_inurba_marseille","lat":43.28526,"lon":5.44089,"is_reserved":false,"is_disabled":false,"rental_uris":{"android":"levelo://app?vid=ae71a52e-3d46-4289-a470-4e64eab9ff51","ios":"levelo://app?vid=ae71a52e-3d46-4289-a470-4e64eab9ff51"},"vehicle_type_id":"4","last_reported":1769288969,"current_range_meters":6800,"station_id":"st_d3j3df2ikq2c7380ej80","pricing_plan_id":"cebpf4jnsgd1na2vs0mg"},{"bike_id":"ad323744-06fd-45f0-8106-c7e6ac5566c6","system_id":"levelo_inurba_marseille","lat":43.2956,"lon":5.42304,"is_reserved":false,"is_disabled":false,"rental_uris":{"android":"levelo://app?vid=ad323744-06fd-45f0-8106-c7e6ac5566c6","ios":"levelo://app?vid=ad323744-06fd-45f0-8106-c7e6ac5566c6"},"vehicle_type_id":"4","last_reported":1769288969,"current_range_meters":6800,"station_id":"ce4bhph2rcd13ifvqhdg","pricing_plan_id":"cebpf4jnsgd1na2vs0mg"},{"bike_id":"49208718-4763-495e-944d-0d3acc9a003f","system_id":"levelo_inurba_marseille","lat":43.288632,"lon":5.425169,"is_reserved":false,"is_disabled":false,"rental_uris":{"android":"levelo://app?vid=49208718-4763-495e-944d-0d3acc9a003f","ios":"levelo://app?vid=49208718-4763-495e-944d-0d3acc9a003f"},"vehicle_type_id":"4","last_reported":1769288969,"current_range_meters":6800,"station_id":"st_d3b462108ojc7389ooeg","pricing_plan_id":"cebpf4jnsgd1na2vs0mg"},{"bike_id":"89d2f176-9210-47d4-8e8a-9009973231fc","system_id":"levelo_inurba_marseille","lat":43.31369,"lon":5.3668,"is_reserved":false,"is_disabled":false,"rental_uris":{"android":"levelo://app?vid=89d2f176-9210-47d4-8e8a-9009973231fc","ios":"levelo://app?vid=89d2f176-9210-47d4-8e8a-9009973231fc"},"vehicle_type_id":"4","last_reported":1769288969,"current_range_meters":6800,"station_id":"ce4bgr92rcd13ifvqc6g","pricing_plan_id":"cebpf4jnsgd1na2vs0mg"},{"bike_id":"819d554d-33ee-4abe-894a-dc86ff277d52","system_id":"levelo_inurba_marseille","lat":43.22962,"lon":5.35361,"is_reserved":false,"is_disabled":false,"rental_uris":{"android":"levelo://app?vid=819d554d-33ee-4abe-894a-dc86ff277d52","ios":"levelo://app?vid=819d554d-33ee-4abe-894a-dc86ff277d52"},"vehicle_type_id":"4","last_reported":1769288969,"current_range_meters":6800,"station_id":"cpo3532slgdg3j2ikp40","pricing_plan_id":"cebpf4jnsgd1na2vs0mg"},{"bike_id":"5a626986-ad66-468c-a8b6-d68cc0ed79d7","system_id":"levelo_inurba_marseille","lat":43.29929,"lon":5.36522,"is_reserved":false,"is_disabled":false,"rental_uris":{"android":"levelo://app?vid=5a626986-ad66-468c-a8b6-d68cc0ed79d7","ios":"levelo://app?vid=5a626986-ad66-468c-a8b6-d68cc0ed79d7"},"vehicle_type_id":"4","last_reported":1769288969,"current_range_meters":6800,"station_id":"ce4bgm92rcd13ifvqbr0","pricing_plan_id":"cebpf4jnsgd1na2vs0mg"},{"bike_id":"faa8663e-e142-45fc-9484-7a181dc4e401","system_id":"levelo_inurba_marseille","lat":43.27492,"lon":5.42449,"is_reserved":false,"is_disabled":false,"rental_uris":{"android":"levelo://app?vid=faa8663e-e142-45fc-9484-7a181dc4e401","ios":"levelo://app?vid=faa8663e-e142-45fc-9484-7a181dc4e401"},"vehicle_type_id":"4","last_reported":1769288969,"current_range_meters":6800,"station_id":"ce4bhn92rcd13ifvqgrg","pricing_plan_id":"cebpf4jnsgd1na2vs0mg"},{"bike_id":"c7bb1e75-854e-4b91-9eb4-49c4f9db6d4d","system_id":"levelo_inurba_marseille","lat":43.249543,"lon":5.404935,"is_reserved":false,"is_disabled":false,"rental_uris":{"android":"levelo://app?vid=c7bb1e75-854e-4b91-9eb4-49c4f9db6d4d","ios":"levelo://app?vid=c7bb1e75-854e-4b91-9eb4-49c4f9db6d4d"},"vehicle_type_id":"4","last_reported":1769288969,"current_range_meters":6800,"station_id":"st_d2ngiaodas8pm72gd1h0","pricing_plan_id":"cebpf4jnsgd1na2vs0mg"},{"bike_id":"86f63ab3-e846-4448-8035-b7a7a841c9c4","system_id":"levelo_inurba_marseille","lat":43.28699,"lon":5.37382,"is_reserved":false,"is_disabled":false,"rental_uris":{"android":"levelo://app?vid=86f63ab3-e846-4448-8035-b7a7a841c9c4","ios":"levelo://app?vid=86f63ab3-e846-4448-8035-b7a7a841c9c4"},"vehicle_type_id":"4","last_reported":1769288969,"current_range_meters":6800,"station_id":"ce4bh3p2rcd13ifvqdq0","pricing_plan_id":"cebpf4jnsgd1na2vs0mg"},{"bike_id":"fe6247c0-8b4c-45a3-872a-698b7c53d002","system_id":"levelo_inurba_marseille","lat":43.2962,"lon":5.3717,"is_reserved":false,"is_disabled":false,"rental_uris":{"android":"levelo://app?vid=fe6247c0-8b4c-45a3-872a-698b7c53d002","ios":"levelo://app?vid=fe6247c0-8b4c-45a3-872a-698b7c53d002"},"vehicle_type_id":"4","last_reported":1769288969,"current_range_meters":6800,"station_id":"ce4bgnh2rcd13ifvqc0g","pricing_plan_id":"cebpf4jnsgd1na2vs0mg"},{"bike_id":"0ca50414-b22f-4e75-aa54-cfd808d06083","system_id":"levelo_inurba_marseille","lat":43.33161,"lon":5.37686,"is_reserved":false,"is_disabled":false,"rental_uris":{"android":"levelo://app?vid=0ca50414-b22f-4e75-aa54-cfd808d06083","ios":"levelo://app?vid=0ca50414-b22f-4e75-aa54-cfd808d06083"},"vehicle_type_id":"4","last_reported":1769288969,"current_range_meters":6800,"station_id":"st_d46cu089ee8s73dldbu0","pricing_plan_id":"cebpf4jnsgd1na2vs0mg"},{"bike_id":"461590ec-e40b-4152-9dae-8f948fb069ad","system_id":"levelo_inurba_marseille","lat":43.29529,"lon":5.37514,"is_reserved":false,"is_disabled":false,"rental_uris":{"android":"levelo://app?vid=461590ec-e40b-4152-9dae-8f948fb069ad","ios":"levelo://app?vid=461590ec-e40b-4152-9dae-8f948fb069ad"},"vehicle_type_id":"4","last_reported":1769288969,"current_range_meters":6800,"station_id":"ce4bgkp2rcd13ifvqbmg","pricing_plan_id":"cebpf4jnsgd1na2vs0mg"},{"bike_id":"7fbd08ac-4873-40ce-8348-00e50d4fd738","system_id":"levelo_inurba_marseille","lat":43.27171,"lon":5.40978,"is_reserved":false,"is_disabled":false,"rental_uris":{"android":"levelo://app?vid=7fbd08ac-4873-40ce-8348-00e50d4fd738","ios":"levelo://app?vid=7fbd08ac-4873-40ce-8348-00e50d4fd738"},"vehicle_type_id":"4","last_reported":1769288969,"current_range_meters":7200,"station_id":"ce4bhl12rcd13ifvqgf0","pricing_plan_id":"cebpf4jnsgd1na2vs0mg"},{"bike_id":"3f444b80-42a5-44cb-ab46-d7a22aca5751","system_id":"levelo_inurba_marseille","lat":43.26542,"lon":5.37306,"is_reserved":false,"is_disabled":false,"rental_uris":{"android":"levelo://app?vid=3f444b80-42a5-44cb-ab46-d7a22aca5751","ios":"levelo://app?vid=3f444b80-42a5-44cb-ab46-d7a22aca5751"},"vehicle_type_id":"4","last_reported":1769288969,"current_range_meters":7200,"station_id":"ce4bhg12rcd13ifvqf70","pricing_plan_id":"cebpf4jnsgd1na2vs0mg"},{"bike_id":"d3809040-335d-41e0-882d-c4069e0593d6","system_id":"levelo_inurba_marseille","lat":43.26231,"lon":5.37445,"is_reserved":false,"is_disabled":false,"rental_uris":{"android":"levelo://app?vid=d3809040-335d-41e0-882d-c4069e0593d6","ios":"levelo://app?vid=d3809040-335d-41e0-882d-c4069e0593d6"},"vehicle_type_id":"4","last_reported":1769288969,"current_range_meters":7200,"station_id":"ce4bhgp2rcd13ifvqfc0","pricing_plan_id":"cebpf4jnsgd1na2vs0mg"},{"bike_id":"c4b9fb50-c1c1-45e2-a420-d27b5fd55927","system_id":"levelo_inurba_marseille","lat":43.23185,"lon":5.39976,"is_reserved":false,"is_disabled":false,"rental_uris":{"android":"levelo://app?vid=c4b9fb50-c1c1-45e2-a420-d27b5fd55927","ios":"levelo://app?vid=c4b9fb50-c1c1-45e2-a420-d27b5fd55927"},"vehicle_type_id":"4","last_reported":1769288969,"current_range_meters":7200,"station_id":"ce4bhn12rcd13ifvqgqg","pricing_plan_id":"cebpf4jnsgd1na2vs0mg"},{"bike_id":"2762ef31-30af-4622-8a7b-f8bc59330d3d","system_id":"levelo_inurba_marseille","lat":43.30191,"lon":5.37489,"is_reserved":false,"is_disabled":false,"rental_uris":{"android":"levelo://app?vid=2762ef31-30af-4622-8a7b-f8bc59330d3d","ios":"levelo://app?vid=2762ef31-30af-4622-8a7b-f8bc59330d3d"},"vehicle_type_id":"4","last_reported":1769288969,"current_range_meters":7200,"station_id":"","pricing_plan_id":"cebpf4jnsgd1na2vs0mg"},{"bike_id":"695ba03e-aa60-4a16-ad44-0d1b43b21bd5","system_id":"levelo_inurba_marseille","lat":43.2257,"lon":5.41636,"is_reserved":false,"is_disabled":false,"rental_uris":{"android":"levelo://app?vid=695ba03e-aa60-4a16-ad44-0d1b43b21bd5","ios":"levelo://app?vid=695ba03e-aa60-4a16-ad44-0d1b43b21bd5"},"vehicle_type_id":"4","last_reported":1769288969,"current_range_meters":7200,"station_id":"st_d2o4gvlbi1j2169b742g","pricing_plan_id":"cebpf4jnsgd1na2vs0mg"},{"bike_id":"9f3c3c2b-e4a8-4bfd-9222-bbcb11a650e6","system_id":"levelo_inurba_marseille","lat":43.30554,"lon":5.36528,"is_reserved":false,"is_disabled":false,"rental_uris":{"android":"levelo://app?vid=9f3c3c2b-e4a8-4bfd-9222-bbcb11a650e6","ios":"levelo://app?vid=9f3c3c2b-e4a8-4bfd-9222-bbcb11a650e6"},"vehicle_type_id":"4","last_reported":1769288969,"current_range_meters":7200,"station_id":"ce4bgs12rcd13ifvqcag","pricing_plan_id":"cebpf4jnsgd1na2vs0mg"},{"bike_id":"dc3bd017-a36c-437c-a91a-6cab42202242","system_id":"levelo_inurba_marseille","lat":43.28539,"lon":5.44102,"is_reserved":false,"is_disabled":false,"rental_uris":{"android":"levelo://app?vid=dc3bd017-a36c-437c-a91a-6cab42202242","ios":"levelo://app?vid=dc3bd017-a36c-437c-a91a-6cab42202242"},"vehicle_type_id":"4","last_reported":1769288969,"current_range_meters":7200,"station_id":"st_d3j3df2ikq2c7380ej80","pricing_plan_id":"cebpf4jnsgd1na2vs0mg"},{"bike_id":"aefbe97f-f700-4dcf-94aa-2baf409b3f3e","system_id":"levelo_inurba_marseille","lat":43.28481,"lon":5.38434,"is_reserved":false,"is_disabled":false,"rental_uris":{"android":"levelo://app?vid=aefbe97f-f700-4dcf-94aa-2baf409b3f3e","ios":"levelo://app?vid=aefbe97f-f700-4dcf-94aa-2baf409b3f3e"},"vehicle_type_id":"4","last_reported":1769288969,"current_range_meters":7200,"station_id":"ce4bh512rcd13ifvqe3g","pricing_plan_id":"cebpf4jnsgd1na2vs0mg"},{"bike_id":"f5ac4918-0ec2-4761-b7b6-0929b50d8bfd","system_id":"levelo_inurba_marseille","lat":43.28484,"lon":5.48384,"is_reserved":false,"is_disabled":false,"rental_uris":{"android":"levelo://app?vid=f5ac4918-0ec2-4761-b7b6-0929b50d8bfd","ios":"levelo://app?vid=f5ac4918-0ec2-4761-b7b6-0929b50d8bfd"},"vehicle_type_id":"4","last_reported":1769288969,"current_range_meters":7200,"station_id":"","pricing_plan_id":"cebpf4jnsgd1na2vs0mg"},{"bike_id":"65ad21e5-e042-481e-b065-1292c675c00a","system_id":"levelo_inurba_marseille","lat":43.26953,"lon":5.40243,"is_reserved":false,"is_disabled":false,"rental_uris":{"android":"levelo://app?vid=65ad21e5-e042-481e-b065-1292c675c00a","ios":"levelo://app?vid=65ad21e5-e042-481e-b065-1292c675c00a"},"vehicle_type_id":"4","last_reported":1769288969,"current_range_meters":7200,"station_id":"cjm6bp8fraef2m0cb0m0","pricing_plan_id":"cebpf4jnsgd1na2vs0mg"},{"bike_id":"00da3708-e459-4447-91e4-64d1b9a20866","system_id":"levelo_inurba_marseille","lat":43.28263,"lon":5.35058,"is_reserved":false,"is_disabled":false,"rental_uris":{"android":"levelo://app?vid=00da3708-e459-4447-91e4-64d1b9a20866","ios":"levelo://app?vid=00da3708-e459-4447-91e4-64d1b9a20866"},"vehicle_type_id":"4","last_reported":1769288969,"current_range_meters":7200,"station_id":"ce4bhbp2rcd13ifvqerg","pricing_plan_id":"cebpf4jnsgd1na2vs0mg"},{"bike_id":"58d2ae64-d77b-49b0-aa64-83302e76931b","system_id":"levelo_inurba_marseille","lat":43.24642,"lon":5.43133,"is_reserved":false,"is_disabled":false,"rental_uris":{"android":"levelo://app?vid=58d2ae64-d77b-49b0-aa64-83302e76931b","ios":"levelo://app?vid=58d2ae64-d77b-49b0-aa64-83302e76931b"},"vehicle_type_id":"4","last_reported":1769288969,"current_range_meters":7200,"station_id":"st_d2m6c4gdas8pm72e190g","pricing_plan_id":"cebpf4jnsgd1na2vs0mg"},{"bike_id":"810615af-4dfc-4ff9-8fd7-15ca4401249a","system_id":"levelo_inurba_marseille","lat":43.241766,"lon":5.397188,"is_reserved":false,"is_disabled":false,"rental_uris":{"android":"levelo://app?vid=810615af-4dfc-4ff9-8fd7-15ca4401249a","ios":"levelo://app?vid=810615af-4dfc-4ff9-8fd7-15ca4401249a"},"vehicle_type_id":"4","last_reported":1769288969,"current_range_meters":7200,"station_id":"ce4bhn12rcd13ifvqgpg","pricing_plan_id":"cebpf4jnsgd1na2vs0mg"},{"bike_id":"2866fb61-925b-47cb-ad30-ede99341e9de","system_id":"levelo_inurba_marseille","lat":43.24171,"lon":5.36411,"is_reserved":false,"is_disabled":false,"rental_uris":{"android":"levelo://app?vid=2866fb61-925b-47cb-ad30-ede99341e9de","ios":"levelo://app?vid=2866fb61-925b-47cb-ad30-ede99341e9de"},"vehicle_type_id":"4","last_reported":1769288969,"current_range_meters":7200,"station_id":"cpo36qri1sfpv3e86is0","pricing_plan_id":"cebpf4jnsgd1na2vs0mg"},{"bike_id":"ba883ae6-41d0-430b-b2c5-fa8f015c672b","system_id":"levelo_inurba_marseille","lat":43.3049,"lon":5.41047,"is_reserved":false,"is_disabled":false,"rental_uris":{"android":"levelo://app?vid=ba883ae6-41d0-430b-b2c5-fa8f015c672b","ios":"levelo://app?vid=ba883ae6-41d0-430b-b2c5-fa8f015c672b"},"vehicle_type_id":"4","last_reported":1769288969,"current_range_meters":7200,"station_id":"","pricing_plan_id":"cebpf4jnsgd1na2vs0mg"},{"bike_id":"f4d5846c-646c-4d8e-923f-075604db61e5","system_id":"levelo_inurba_marseille","lat":43.24668,"lon":5.38168,"is_reserved":false,"is_disabled":false,"rental_uris":{"android":"levelo://app?vid=f4d5846c-646c-4d8e-923f-075604db61e5","ios":"levelo://app?vid=f4d5846c-646c-4d8e-923f-075604db61e5"},"vehicle_type_id":"4","last_reported":1769288969,"current_range_meters":7200,"station_id":"ce4bhih2rcd13ifvqfr0","pricing_plan_id":"cebpf4jnsgd1na2vs0mg"},{"bike_id":"42a9072c-20ae-4f3e-9a38-771201cc3731","system_id":"levelo_inurba_marseille","lat":43.26541,"lon":5.37304,"is_reserved":false,"is_disabled":false,"rental_uris":{"android":"levelo://app?vid=42a9072c-20ae-4f3e-9a38-771201cc3731","ios":"levelo://app?vid=42a9072c-20ae-4f3e-9a38-771201cc3731"},"vehicle_type_id":"4","last_reported":1769288969,"current_range_meters":8000,"station_id":"ce4bhg12rcd13ifvqf70","pricing_plan_id":"cebpf4jnsgd1na2vs0mg"},{"bike_id":"04662cae-e48a-4774-ab4c-133cf4ecd1ad","system_id":"levelo_inurba_marseille","lat":43.30962,"lon":5.39042,"is_reserved":false,"is_disabled":false,"rental_uris":{"android":"levelo://app?vid=04662cae-e48a-4774-ab4c-133cf4ecd1ad","ios":"levelo://app?vid=04662cae-e48a-4774-ab4c-133cf4ecd1ad"},"vehicle_type_id":"4","last_reported":1769288969,"current_range_meters":8000,"station_id":"ce4bgup2rcd13ifvqco0","pricing_plan_id":"cebpf4jnsgd1na2vs0mg"},{"bike_id":"e46d8a17-af5a-42e0-b036-cb3c86080336","system_id":"levelo_inurba_marseille","lat":43.24483,"lon":5.42534,"is_reserved":false,"is_disabled":false,"rental_uris":{"android":"levelo://app?vid=e46d8a17-af5a-42e0-b036-cb3c86080336","ios":"levelo://app?vid=e46d8a17-af5a-42e0-b036-cb3c86080336"},"vehicle_type_id":"4","last_reported":1769288969,"current_range_meters":8000,"station_id":"st_d4a3vfp97mjs738cd8kg","pricing_plan_id":"cebpf4jnsgd1na2vs0mg"},{"bike_id":"531078e9-e6ae-426d-a507-48f287cdb17b","system_id":"levelo_inurba_marseille","lat":43.24651,"lon":5.38201,"is_reserved":false,"is_disabled":false,"rental_uris":{"android":"levelo://app?vid=531078e9-e6ae-426d-a507-48f287cdb17b","ios":"levelo://app?vid=531078e9-e6ae-426d-a507-48f287cdb17b"},"vehicle_type_id":"4","last_reported":1769288969,"current_range_meters":8000,"station_id":"ce4bhih2rcd13ifvqfr0","pricing_plan_id":"cebpf4jnsgd1na2vs0mg"},{"bike_id":"955b7b58-85d0-4b70-9dc4-029feb0cc2bd","system_id":"levelo_inurba_marseille","lat":43.297048,"lon":5.366266,"is_reserved":false,"is_disabled":false,"rental_uris":{"android":"levelo://app?vid=955b7b58-85d0-4b70-9dc4-029feb0cc2bd","ios":"levelo://app?vid=955b7b58-85d0-4b70-9dc4-029feb0cc2bd"},"vehicle_type_id":"4","last_reported":1769288969,"current_range_meters":8000,"station_id":"ce4bgn12rcd13ifvqbt0","pricing_plan_id":"cebpf4jnsgd1na2vs0mg"},{"bike_id":"3b781fc0-785a-46db-80a2-c41d552c10df","system_id":"levelo_inurba_marseille","lat":43.23783,"lon":5.36634,"is_reserved":false,"is_disabled":false,"rental_uris":{"android":"levelo://app?vid=3b781fc0-785a-46db-80a2-c41d552c10df","ios":"levelo://app?vid=3b781fc0-785a-46db-80a2-c41d552c10df"},"vehicle_type_id":"4","last_reported":1769288969,"current_range_meters":8000,"station_id":"st_d3nk18o9ro0c73en2l3g","pricing_plan_id":"cebpf4jnsgd1na2vs0mg"},{"bike_id":"c8f043c8-a1cd-4533-8ac5-09a3aac34519","system_id":"levelo_inurba_marseille","lat":43.26579,"lon":5.37317,"is_reserved":false,"is_disabled":false,"rental_uris":{"android":"levelo://app?vid=c8f043c8-a1cd-4533-8ac5-09a3aac34519","ios":"levelo://app?vid=c8f043c8-a1cd-4533-8ac5-09a3aac34519"},"vehicle_type_id":"4","last_reported":1769288969,"current_range_meters":8000,"station_id":"ce4bhg12rcd13ifvqf70","pricing_plan_id":"cebpf4jnsgd1na2vs0mg"},{"bike_id":"3018bd0f-1eb9-47af-8fda-422f2be35d9a","system_id":"levelo_inurba_marseille","lat":43.21205,"lon":5.35066,"is_reserved":false,"is_disabled":false,"rental_uris":{"android":"levelo://app?vid=3018bd0f-1eb9-47af-8fda-422f2be35d9a","ios":"levelo://app?vid=3018bd0f-1eb9-47af-8fda-422f2be35d9a"},"vehicle_type_id":"4","last_reported":1769288969,"current_range_meters":8000,"station_id":"st_cvj6sg6p6f1abm77japg","pricing_plan_id":"cebpf4jnsgd1na2vs0mg"},{"bike_id":"0554af7b-4d97-4b09-bc8a-ccbbde3b5abf","system_id":"levelo_inurba_marseille","lat":43.24079,"lon":5.37731,"is_reserved":false,"is_disabled":false,"rental_uris":{"android":"levelo://app?vid=0554af7b-4d97-4b09-bc8a-ccbbde3b5abf","ios":"levelo://app?vid=0554af7b-4d97-4b09-bc8a-ccbbde3b5abf"},"vehicle_type_id":"4","last_reported":1769288969,"current_range_meters":8000,"station_id":"ce4bhnp2rcd13ifvqgvg","pricing_plan_id":"cebpf4jnsgd1na2vs0mg"},{"bike_id":"0e275fec-900e-4db0-a6c0-278777080123","system_id":"levelo_inurba_marseille","lat":43.29267,"lon":5.38447,"is_reserved":false,"is_disabled":false,"rental_uris":{"android":"levelo://app?vid=0e275fec-900e-4db0-a6c0-278777080123","ios":"levelo://app?vid=0e275fec-900e-4db0-a6c0-278777080123"},"vehicle_type_id":"4","last_reported":1769288969,"current_range_meters":8000,"station_id":"ce4bh692rcd13ifvqea0","pricing_plan_id":"cebpf4jnsgd1na2vs0mg"},{"bike_id":"3770c2e9-8904-416b-a171-2857d4f07466","system_id":"levelo_inurba_marseille","lat":43.243921,"lon":5.370739,"is_reserved":false,"is_disabled":false,"rental_uris":{"android":"levelo://app?vid=3770c2e9-8904-416b-a171-2857d4f07466","ios":"levelo://app?vid=3770c2e9-8904-416b-a171-2857d4f07466"},"vehicle_type_id":"4","last_reported":1769288969,"current_range_meters":8000,"station_id":"ce4bhhh2rcd13ifvqfk0","pricing_plan_id":"cebpf4jnsgd1na2vs0mg"},{"bike_id":"711b6451-3b81-4dd2-8591-37e710d5b943","system_id":"levelo_inurba_marseille","lat":43.28484,"lon":5.48392,"is_reserved":false,"is_disabled":false,"rental_uris":{"android":"levelo://app?vid=711b6451-3b81-4dd2-8591-37e710d5b943","ios":"levelo://app?vid=711b6451-3b81-4dd2-8591-37e710d5b943"},"vehicle_type_id":"4","last_reported":1769288969,"current_range_meters":8000,"station_id":"","pricing_plan_id":"cebpf4jnsgd1na2vs0mg"},{"bike_id":"4aebcdeb-417a-440b-b951-898b7cee3fad","system_id":"levelo_inurba_marseille","lat":43.26919,"lon":5.40275,"is_reserved":false,"is_disabled":false,"rental_uris":{"android":"levelo://app?vid=4aebcdeb-417a-440b-b951-898b7cee3fad","ios":"levelo://app?vid=4aebcdeb-417a-440b-b951-898b7cee3fad"},"vehicle_type_id":"4","last_reported":1769288969,"current_range_meters":8000,"station_id":"cjm6bp8fraef2m0cb0m0","pricing_plan_id":"cebpf4jnsgd1na2vs0mg"},{"bike_id":"808f4e53-a8b8-4744-be76-00d5bcf647cd","system_id":"levelo_inurba_marseille","lat":43.29776,"lon":5.42783,"is_reserved":false,"is_disabled":false,"rental_uris":{"android":"levelo://app?vid=808f4e53-a8b8-4744-be76-00d5bcf647cd","ios":"levelo://app?vid=808f4e53-a8b8-4744-be76-00d5bcf647cd"},"vehicle_type_id":"4","last_reported":1769288969,"current_range_meters":8000,"station_id":"st_d3md5207bmas73dh9klg","pricing_plan_id":"cebpf4jnsgd1na2vs0mg"},{"bike_id":"d23e957b-30e5-4310-998d-191d81d5f962","system_id":"levelo_inurba_marseille","lat":43.28431,"lon":5.38872,"is_reserved":false,"is_disabled":false,"rental_uris":{"android":"levelo://app?vid=d23e957b-30e5-4310-998d-191d81d5f962","ios":"levelo://app?vid=d23e957b-30e5-4310-998d-191d81d5f962"},"vehicle_type_id":"4","last_reported":1769288969,"current_range_meters":8000,"station_id":"","pricing_plan_id":"cebpf4jnsgd1na2vs0mg"},{"bike_id":"681f153b-2e79-4966-814b-395618de6377","system_id":"levelo_inurba_marseille","lat":43.28921,"lon":5.3841,"is_reserved":false,"is_disabled":false,"rental_uris":{"android":"levelo://app?vid=681f153b-2e79-4966-814b-395618de6377","ios":"levelo://app?vid=681f153b-2e79-4966-814b-395618de6377"},"vehicle_type_id":"4","last_reported":1769288969,"current_range_meters":8000,"station_id":"ce4bh612rcd13ifvqe6g","pricing_plan_id":"cebpf4jnsgd1na2vs0mg"},{"bike_id":"4e8ceb26-dcda-41c9-b988-c7429cb4d9cf","system_id":"levelo_inurba_marseille","lat":43.284873,"lon":5.384359,"is_reserved":false,"is_disabled":false,"rental_uris":{"android":"levelo://app?vid=4e8ceb26-dcda-41c9-b988-c7429cb4d9cf","ios":"levelo://app?vid=4e8ceb26-dcda-41c9-b988-c7429cb4d9cf"},"vehicle_type_id":"4","last_reported":1769288969,"current_range_meters":8400,"station_id":"ce4bh512rcd13ifvqe3g","pricing_plan_id":"cebpf4jnsgd1na2vs0mg"},{"bike_id":"f9f84c03-f090-46ce-8d68-078d46085df1","system_id":"levelo_inurba_marseille","lat":43.24181,"lon":5.39728,"is_reserved":false,"is_disabled":false,"rental_uris":{"android":"levelo://app?vid=f9f84c03-f090-46ce-8d68-078d46085df1","ios":"levelo://app?vid=f9f84c03-f090-46ce-8d68-078d46085df1"},"vehicle_type_id":"4","last_reported":1769288969,"current_range_meters":8400,"station_id":"ce4bhn12rcd13ifvqgpg","pricing_plan_id":"cebpf4jnsgd1na2vs0mg"},{"bike_id":"c95e6f4f-dea5-4c8f-900f-ccf591c989cb","system_id":"levelo_inurba_marseille","lat":43.25831,"lon":5.3944,"is_reserved":false,"is_disabled":false,"rental_uris":{"android":"levelo://app?vid=c95e6f4f-dea5-4c8f-900f-ccf591c989cb","ios":"levelo://app?vid=c95e6f4f-dea5-4c8f-900f-ccf591c989cb"},"vehicle_type_id":"4","last_reported":1769288969,"current_range_meters":8400,"station_id":"ce4bhip2rcd13ifvqft0","pricing_plan_id":"cebpf4jnsgd1na2vs0mg"},{"bike_id":"7a4e3005-837e-4425-a268-ddb5f45bb9f3","system_id":"levelo_inurba_marseille","lat":43.24594,"lon":5.43079,"is_reserved":false,"is_disabled":false,"rental_uris":{"android":"levelo://app?vid=7a4e3005-837e-4425-a268-ddb5f45bb9f3","ios":"levelo://app?vid=7a4e3005-837e-4425-a268-ddb5f45bb9f3"},"vehicle_type_id":"4","last_reported":1769288969,"current_range_meters":8400,"station_id":"","pricing_plan_id":"cebpf4jnsgd1na2vs0mg"},{"bike_id":"f8d6a6e0-1d68-4650-a94d-f633bf8c4370","system_id":"levelo_inurba_marseille","lat":43.23783,"lon":5.36614,"is_reserved":false,"is_disabled":false,"rental_uris":{"android":"levelo://app?vid=f8d6a6e0-1d68-4650-a94d-f633bf8c4370","ios":"levelo://app?vid=f8d6a6e0-1d68-4650-a94d-f633bf8c4370"},"vehicle_type_id":"4","last_reported":1769288969,"current_range_meters":8400,"station_id":"st_d3nk18o9ro0c73en2l3g","pricing_plan_id":"cebpf4jnsgd1na2vs0mg"},{"bike_id":"0c1db0f6-04c1-4e73-b12d-3dd98c0a03f3","system_id":"levelo_inurba_marseille","lat":43.31051,"lon":5.37123,"is_reserved":false,"is_disabled":false,"rental_uris":{"android":"levelo://app?vid=0c1db0f6-04c1-4e73-b12d-3dd98c0a03f3","ios":"levelo://app?vid=0c1db0f6-04c1-4e73-b12d-3dd98c0a03f3"},"vehicle_type_id":"4","last_reported":1769288969,"current_range_meters":8400,"station_id":"st_d4kl2rp97mjs73e7tdfg","pricing_plan_id":"cebpf4jnsgd1na2vs0mg"},{"bike_id":"5d5ffbbb-74c0-43cf-b09c-4df4c0347781","system_id":"levelo_inurba_marseille","lat":43.26202,"lon":5.37926,"is_reserved":false,"is_disabled":false,"rental_uris":{"android":"levelo://app?vid=5d5ffbbb-74c0-43cf-b09c-4df4c0347781","ios":"levelo://app?vid=5d5ffbbb-74c0-43cf-b09c-4df4c0347781"},"vehicle_type_id":"4","last_reported":1769288969,"current_range_meters":8400,"station_id":"ce4bhjp2rcd13ifvqg90","pricing_plan_id":"cebpf4jnsgd1na2vs0mg"},{"bike_id":"5e973b9f-bab0-46bc-bdb3-50ab000bf111","system_id":"levelo_inurba_marseille","lat":43.29907,"lon":5.38324,"is_reserved":false,"is_disabled":false,"rental_uris":{"android":"levelo://app?vid=5e973b9f-bab0-46bc-bdb3-50ab000bf111","ios":"levelo://app?vid=5e973b9f-bab0-46bc-bdb3-50ab000bf111"},"vehicle_type_id":"4","last_reported":1769288969,"current_range_meters":8400,"station_id":"","pricing_plan_id":"cebpf4jnsgd1na2vs0mg"},{"bike_id":"e07e68dd-c898-432c-ba3f-2dae4d6b1eb0","system_id":"levelo_inurba_marseille","lat":43.2606,"lon":5.39417,"is_reserved":false,"is_disabled":false,"rental_uris":{"android":"levelo://app?vid=e07e68dd-c898-432c-ba3f-2dae4d6b1eb0","ios":"levelo://app?vid=e07e68dd-c898-432c-ba3f-2dae4d6b1eb0"},"vehicle_type_id":"4","last_reported":1769288969,"current_range_meters":8400,"station_id":"ce4bhh92rcd13ifvqfj0","pricing_plan_id":"cebpf4jnsgd1na2vs0mg"},{"bike_id":"d694351b-078b-4468-aedf-6c13e4472712","system_id":"levelo_inurba_marseille","lat":43.26924,"lon":5.40272,"is_reserved":false,"is_disabled":false,"rental_uris":{"android":"levelo://app?vid=d694351b-078b-4468-aedf-6c13e4472712","ios":"levelo://app?vid=d694351b-078b-4468-aedf-6c13e4472712"},"vehicle_type_id":"4","last_reported":1769288969,"current_range_meters":8400,"station_id":"cjm6bp8fraef2m0cb0m0","pricing_plan_id":"cebpf4jnsgd1na2vs0mg"},{"bike_id":"e74dd9b3-b6b2-4ded-9217-8e7bda3955d4","system_id":"levelo_inurba_marseille","lat":43.24391,"lon":5.37039,"is_reserved":false,"is_disabled":false,"rental_uris":{"android":"levelo://app?vid=e74dd9b3-b6b2-4ded-9217-8e7bda3955d4","ios":"levelo://app?vid=e74dd9b3-b6b2-4ded-9217-8e7bda3955d4"},"vehicle_type_id":"4","last_reported":1769288969,"current_range_meters":8400,"station_id":"ce4bhhh2rcd13ifvqfk0","pricing_plan_id":"cebpf4jnsgd1na2vs0mg"},{"bike_id":"48f40c82-bbad-4ae0-9613-f836906f3c71","system_id":"levelo_inurba_marseille","lat":43.2812,"lon":5.43218,"is_reserved":false,"is_disabled":false,"rental_uris":{"android":"levelo://app?vid=48f40c82-bbad-4ae0-9613-f836906f3c71","ios":"levelo://app?vid=48f40c82-bbad-4ae0-9613-f836906f3c71"},"vehicle_type_id":"4","last_reported":1769288969,"current_range_meters":8400,"station_id":"","pricing_plan_id":"cebpf4jnsgd1na2vs0mg"},{"bike_id":"60b6fefc-4fad-4e17-b7b7-9a9bb822d822","system_id":"levelo_inurba_marseille","lat":43.31714,"lon":5.42403,"is_reserved":false,"is_disabled":false,"rental_uris":{"android":"levelo://app?vid=60b6fefc-4fad-4e17-b7b7-9a9bb822d822","ios":"levelo://app?vid=60b6fefc-4fad-4e17-b7b7-9a9bb822d822"},"vehicle_type_id":"4","last_reported":1769288969,"current_range_meters":8400,"station_id":"ce4bhp92rcd13ifvqhbg","pricing_plan_id":"cebpf4jnsgd1na2vs0mg"},{"bike_id":"090d68fd-b8f6-42aa-a688-f39ed4d39c2d","system_id":"levelo_inurba_marseille","lat":43.22566,"lon":5.41643,"is_reserved":false,"is_disabled":false,"rental_uris":{"android":"levelo://app?vid=090d68fd-b8f6-42aa-a688-f39ed4d39c2d","ios":"levelo://app?vid=090d68fd-b8f6-42aa-a688-f39ed4d39c2d"},"vehicle_type_id":"4","last_reported":1769288969,"current_range_meters":8400,"station_id":"st_d2o4gvlbi1j2169b742g","pricing_plan_id":"cebpf4jnsgd1na2vs0mg"},{"bike_id":"afa37d5c-0ffd-40b5-8069-9610a9f9bab4","system_id":"levelo_inurba_marseille","lat":43.29537,"lon":5.38555,"is_reserved":false,"is_disabled":false,"rental_uris":{"android":"levelo://app?vid=afa37d5c-0ffd-40b5-8069-9610a9f9bab4","ios":"levelo://app?vid=afa37d5c-0ffd-40b5-8069-9610a9f9bab4"},"vehicle_type_id":"4","last_reported":1769288969,"current_range_meters":8400,"station_id":"ce4bgih2rcd13ifvqba0","pricing_plan_id":"cebpf4jnsgd1na2vs0mg"},{"bike_id":"e8cede09-25d9-464a-9863-7fcad8ebfe34","system_id":"levelo_inurba_marseille","lat":43.29928,"lon":5.36544,"is_reserved":false,"is_disabled":false,"rental_uris":{"android":"levelo://app?vid=e8cede09-25d9-464a-9863-7fcad8ebfe34","ios":"levelo://app?vid=e8cede09-25d9-464a-9863-7fcad8ebfe34"},"vehicle_type_id":"4","last_reported":1769288969,"current_range_meters":8400,"station_id":"ce4bgm92rcd13ifvqbr0","pricing_plan_id":"cebpf4jnsgd1na2vs0mg"},{"bike_id":"8d270819-adc1-49e1-abc4-b636cf1a9812","system_id":"levelo_inurba_marseille","lat":43.305466,"lon":5.367043,"is_reserved":false,"is_disabled":false,"rental_uris":{"android":"levelo://app?vid=8d270819-adc1-49e1-abc4-b636cf1a9812","ios":"levelo://app?vid=8d270819-adc1-49e1-abc4-b636cf1a9812"},"vehicle_type_id":"4","last_reported":1769288969,"current_range_meters":8400,"station_id":"ce4bgrp2rcd13ifvqc9g","pricing_plan_id":"cebpf4jnsgd1na2vs0mg"},{"bike_id":"655bd777-1439-41cf-b1e8-61377b5a3625","system_id":"levelo_inurba_marseille","lat":43.2965,"lon":5.37585,"is_reserved":false,"is_disabled":false,"rental_uris":{"android":"levelo://app?vid=655bd777-1439-41cf-b1e8-61377b5a3625","ios":"levelo://app?vid=655bd777-1439-41cf-b1e8-61377b5a3625"},"vehicle_type_id":"4","last_reported":1769288969,"current_range_meters":8400,"station_id":"","pricing_plan_id":"cebpf4jnsgd1na2vs0mg"},{"bike_id":"dd369fb3-6a29-4c8b-9c32-c4dbeada70f4","system_id":"levelo_inurba_marseille","lat":43.22557,"lon":5.41628,"is_reserved":false,"is_disabled":false,"rental_uris":{"android":"levelo://app?vid=dd369fb3-6a29-4c8b-9c32-c4dbeada70f4","ios":"levelo://app?vid=dd369fb3-6a29-4c8b-9c32-c4dbeada70f4"},"vehicle_type_id":"4","last_reported":1769288969,"current_range_meters":8400,"station_id":"st_d2o4gvlbi1j2169b742g","pricing_plan_id":"cebpf4jnsgd1na2vs0mg"},{"bike_id":"71da8860-67fd-467d-ab47-bcfee6c132db","system_id":"levelo_inurba_marseille","lat":43.27373,"lon":5.36235,"is_reserved":false,"is_disabled":false,"rental_uris":{"android":"levelo://app?vid=71da8860-67fd-467d-ab47-bcfee6c132db","ios":"levelo://app?vid=71da8860-67fd-467d-ab47-bcfee6c132db"},"vehicle_type_id":"4","last_reported":1769288969,"current_range_meters":8400,"station_id":"ce4bhbh2rcd13ifvqeo0","pricing_plan_id":"cebpf4jnsgd1na2vs0mg"},{"bike_id":"0e7abf9a-d113-4f84-833a-ed90bc702e38","system_id":"levelo_inurba_marseille","lat":43.29629,"lon":5.40608,"is_reserved":false,"is_disabled":false,"rental_uris":{"android":"levelo://app?vid=0e7abf9a-d113-4f84-833a-ed90bc702e38","ios":"levelo://app?vid=0e7abf9a-d113-4f84-833a-ed90bc702e38"},"vehicle_type_id":"4","last_reported":1769288969,"current_range_meters":8400,"station_id":"ce4bh0h2rcd13ifvqd60","pricing_plan_id":"cebpf4jnsgd1na2vs0mg"},{"bike_id":"43ace758-19e2-45f5-81d3-4d0e67cb2c4e","system_id":"levelo_inurba_marseille","lat":43.238,"lon":5.3663,"is_reserved":false,"is_disabled":false,"rental_uris":{"android":"levelo://app?vid=43ace758-19e2-45f5-81d3-4d0e67cb2c4e","ios":"levelo://app?vid=43ace758-19e2-45f5-81d3-4d0e67cb2c4e"},"vehicle_type_id":"4","last_reported":1769288969,"current_range_meters":8400,"station_id":"st_d3nk18o9ro0c73en2l3g","pricing_plan_id":"cebpf4jnsgd1na2vs0mg"},{"bike_id":"66e2db6e-199d-473b-a0ad-7077acb0bbdc","system_id":"levelo_inurba_marseille","lat":43.2655,"lon":5.37301,"is_reserved":false,"is_disabled":false,"rental_uris":{"android":"levelo://app?vid=66e2db6e-199d-473b-a0ad-7077acb0bbdc","ios":"levelo://app?vid=66e2db6e-199d-473b-a0ad-7077acb0bbdc"},"vehicle_type_id":"4","last_reported":1769288969,"current_range_meters":8400,"station_id":"ce4bhg12rcd13ifvqf70","pricing_plan_id":"cebpf4jnsgd1na2vs0mg"},{"bike_id":"acb7cfb5-c429-4bdf-a8aa-c19c7a57d3cf","system_id":"levelo_inurba_marseille","lat":43.23146,"lon":5.43712,"is_reserved":false,"is_disabled":false,"rental_uris":{"android":"levelo://app?vid=acb7cfb5-c429-4bdf-a8aa-c19c7a57d3cf","ios":"levelo://app?vid=acb7cfb5-c429-4bdf-a8aa-c19c7a57d3cf"},"vehicle_type_id":"4","last_reported":1769288969,"current_range_meters":8400,"station_id":"ce4bhmp2rcd13ifvqgog","pricing_plan_id":"cebpf4jnsgd1na2vs0mg"},{"bike_id":"c0bc2852-f707-4be0-bf2e-f4824af48c53","system_id":"levelo_inurba_marseille","lat":43.2319,"lon":5.39989,"is_reserved":false,"is_disabled":false,"rental_uris":{"android":"levelo://app?vid=c0bc2852-f707-4be0-bf2e-f4824af48c53","ios":"levelo://app?vid=c0bc2852-f707-4be0-bf2e-f4824af48c53"},"vehicle_type_id":"4","last_reported":1769288969,"current_range_meters":8800,"station_id":"ce4bhn12rcd13ifvqgqg","pricing_plan_id":"cebpf4jnsgd1na2vs0mg"},{"bike_id":"bfad4fe9-de3e-43c4-a41e-9324488c84ff","system_id":"levelo_inurba_marseille","lat":43.24813,"lon":5.40141,"is_reserved":false,"is_disabled":false,"rental_uris":{"android":"levelo://app?vid=bfad4fe9-de3e-43c4-a41e-9324488c84ff","ios":"levelo://app?vid=bfad4fe9-de3e-43c4-a41e-9324488c84ff"},"vehicle_type_id":"4","last_reported":1769288969,"current_range_meters":8800,"station_id":"","pricing_plan_id":"cebpf4jnsgd1na2vs0mg"},{"bike_id":"6ebd8131-5347-4093-8c87-e0c7d5276e14","system_id":"levelo_inurba_marseille","lat":43.2256,"lon":5.41624,"is_reserved":false,"is_disabled":false,"rental_uris":{"android":"levelo://app?vid=6ebd8131-5347-4093-8c87-e0c7d5276e14","ios":"levelo://app?vid=6ebd8131-5347-4093-8c87-e0c7d5276e14"},"vehicle_type_id":"4","last_reported":1769288969,"current_range_meters":8800,"station_id":"st_d2o4gvlbi1j2169b742g","pricing_plan_id":"cebpf4jnsgd1na2vs0mg"},{"bike_id":"d23a99a3-e7b4-4b17-9ce7-d45cbdf6db89","system_id":"levelo_inurba_marseille","lat":43.32897,"lon":5.36697,"is_reserved":false,"is_disabled":false,"rental_uris":{"android":"levelo://app?vid=d23a99a3-e7b4-4b17-9ce7-d45cbdf6db89","ios":"levelo://app?vid=d23a99a3-e7b4-4b17-9ce7-d45cbdf6db89"},"vehicle_type_id":"4","last_reported":1769288969,"current_range_meters":8800,"station_id":"","pricing_plan_id":"cebpf4jnsgd1na2vs0mg"},{"bike_id":"7d0461be-78f7-48f2-819c-69235bf9b7f1","system_id":"levelo_inurba_marseille","lat":43.29139,"lon":5.40798,"is_reserved":false,"is_disabled":false,"rental_uris":{"android":"levelo://app?vid=7d0461be-78f7-48f2-819c-69235bf9b7f1","ios":"levelo://app?vid=7d0461be-78f7-48f2-819c-69235bf9b7f1"},"vehicle_type_id":"4","last_reported":1769288969,"current_range_meters":8800,"station_id":"","pricing_plan_id":"cebpf4jnsgd1na2vs0mg"},{"bike_id":"a0465d4f-9ced-4178-ad4c-29e5c29e87ff","system_id":"levelo_inurba_marseille","lat":43.28474,"lon":5.48388,"is_reserved":false,"is_disabled":false,"rental_uris":{"android":"levelo://app?vid=a0465d4f-9ced-4178-ad4c-29e5c29e87ff","ios":"levelo://app?vid=a0465d4f-9ced-4178-ad4c-29e5c29e87ff"},"vehicle_type_id":"4","last_reported":1769288969,"current_range_meters":8800,"station_id":"","pricing_plan_id":"cebpf4jnsgd1na2vs0mg"},{"bike_id":"de5dd849-e4b4-4886-8230-06f684e730a5","system_id":"levelo_inurba_marseille","lat":43.24165,"lon":5.39712,"is_reserved":false,"is_disabled":false,"rental_uris":{"android":"levelo://app?vid=de5dd849-e4b4-4886-8230-06f684e730a5","ios":"levelo://app?vid=de5dd849-e4b4-4886-8230-06f684e730a5"},"vehicle_type_id":"4","last_reported":1769288969,"current_range_meters":8800,"station_id":"ce4bhn12rcd13ifvqgpg","pricing_plan_id":"cebpf4jnsgd1na2vs0mg"},{"bike_id":"abc3a781-f3d6-481a-9f61-a5b4b605dfec","system_id":"levelo_inurba_marseille","lat":43.32352,"lon":5.36732,"is_reserved":false,"is_disabled":false,"rental_uris":{"android":"levelo://app?vid=abc3a781-f3d6-481a-9f61-a5b4b605dfec","ios":"levelo://app?vid=abc3a781-f3d6-481a-9f61-a5b4b605dfec"},"vehicle_type_id":"4","last_reported":1769288969,"current_range_meters":8800,"station_id":"ce4bhsh2rcd13ifvqi2g","pricing_plan_id":"cebpf4jnsgd1na2vs0mg"},{"bike_id":"6c29796b-91a7-4fca-91ba-1f981077ace9","system_id":"levelo_inurba_marseille","lat":43.23162,"lon":5.4371,"is_reserved":false,"is_disabled":false,"rental_uris":{"android":"levelo://app?vid=6c29796b-91a7-4fca-91ba-1f981077ace9","ios":"levelo://app?vid=6c29796b-91a7-4fca-91ba-1f981077ace9"},"vehicle_type_id":"4","last_reported":1769288969,"current_range_meters":8800,"station_id":"ce4bhmp2rcd13ifvqgog","pricing_plan_id":"cebpf4jnsgd1na2vs0mg"},{"bike_id":"c5e8c251-7672-4b82-9ddd-b6ed033d1bea","system_id":"levelo_inurba_marseille","lat":43.26936,"lon":5.40272,"is_reserved":false,"is_disabled":false,"rental_uris":{"android":"levelo://app?vid=c5e8c251-7672-4b82-9ddd-b6ed033d1bea","ios":"levelo://app?vid=c5e8c251-7672-4b82-9ddd-b6ed033d1bea"},"vehicle_type_id":"4","last_reported":1769288969,"current_range_meters":8800,"station_id":"cjm6bp8fraef2m0cb0m0","pricing_plan_id":"cebpf4jnsgd1na2vs0mg"},{"bike_id":"226d3c41-d7c1-48ba-ad9c-f08f2a67ff91","system_id":"levelo_inurba_marseille","lat":43.29099,"lon":5.38139,"is_reserved":false,"is_disabled":false,"rental_uris":{"android":"levelo://app?vid=226d3c41-d7c1-48ba-ad9c-f08f2a67ff91","ios":"levelo://app?vid=226d3c41-d7c1-48ba-ad9c-f08f2a67ff91"},"vehicle_type_id":"4","last_reported":1769288969,"current_range_meters":8800,"station_id":"ce4bh512rcd13ifvqe2g","pricing_plan_id":"cebpf4jnsgd1na2vs0mg"},{"bike_id":"b9917ecd-02a8-40e9-a0d0-4758759eb040","system_id":"levelo_inurba_marseille","lat":43.24571,"lon":5.37321,"is_reserved":false,"is_disabled":false,"rental_uris":{"android":"levelo://app?vid=b9917ecd-02a8-40e9-a0d0-4758759eb040","ios":"levelo://app?vid=b9917ecd-02a8-40e9-a0d0-4758759eb040"},"vehicle_type_id":"4","last_reported":1769288969,"current_range_meters":8800,"station_id":"","pricing_plan_id":"cebpf4jnsgd1na2vs0mg"},{"bike_id":"798430a1-4be7-4114-9304-b01cd395a8e5","system_id":"levelo_inurba_marseille","lat":43.29317,"lon":5.37169,"is_reserved":false,"is_disabled":false,"rental_uris":{"android":"levelo://app?vid=798430a1-4be7-4114-9304-b01cd395a8e5","ios":"levelo://app?vid=798430a1-4be7-4114-9304-b01cd395a8e5"},"vehicle_type_id":"4","last_reported":1769288969,"current_range_meters":8800,"station_id":"ce4bgh92rcd13ifvqb40","pricing_plan_id":"cebpf4jnsgd1na2vs0mg"},{"bike_id":"bad91b1d-a96f-4305-ad07-6c37e885ca70","system_id":"levelo_inurba_marseille","lat":43.23163,"lon":5.43699,"is_reserved":false,"is_disabled":false,"rental_uris":{"android":"levelo://app?vid=bad91b1d-a96f-4305-ad07-6c37e885ca70","ios":"levelo://app?vid=bad91b1d-a96f-4305-ad07-6c37e885ca70"},"vehicle_type_id":"4","last_reported":1769288969,"current_range_meters":8800,"station_id":"ce4bhmp2rcd13ifvqgog","pricing_plan_id":"cebpf4jnsgd1na2vs0mg"},{"bike_id":"07e64c0a-8153-47c6-83e2-2e049e2bc39b","system_id":"levelo_inurba_marseille","lat":43.31988,"lon":5.38149,"is_reserved":false,"is_disabled":false,"rental_uris":{"android":"levelo://app?vid=07e64c0a-8153-47c6-83e2-2e049e2bc39b","ios":"levelo://app?vid=07e64c0a-8153-47c6-83e2-2e049e2bc39b"},"vehicle_type_id":"4","last_reported":1769288969,"current_range_meters":8800,"station_id":"ce4bhr12rcd13ifvqhpg","pricing_plan_id":"cebpf4jnsgd1na2vs0mg"},{"bike_id":"b63362d9-5612-4ee2-9f31-83089fb30059","system_id":"levelo_inurba_marseille","lat":43.29999,"lon":5.37194,"is_reserved":false,"is_disabled":false,"rental_uris":{"android":"levelo://app?vid=b63362d9-5612-4ee2-9f31-83089fb30059","ios":"levelo://app?vid=b63362d9-5612-4ee2-9f31-83089fb30059"},"vehicle_type_id":"4","last_reported":1769288969,"current_range_meters":8800,"station_id":"ce4bgr92rcd13ifvqc7g","pricing_plan_id":"cebpf4jnsgd1na2vs0mg"},{"bike_id":"f9d8313d-bb4d-4428-b469-f4ffc1309d87","system_id":"levelo_inurba_marseille","lat":43.29972,"lon":5.38506,"is_reserved":false,"is_disabled":false,"rental_uris":{"android":"levelo://app?vid=f9d8313d-bb4d-4428-b469-f4ffc1309d87","ios":"levelo://app?vid=f9d8313d-bb4d-4428-b469-f4ffc1309d87"},"vehicle_type_id":"4","last_reported":1769288969,"current_range_meters":9200,"station_id":"ce4bgj92rcd13ifvqbd0","pricing_plan_id":"cebpf4jnsgd1na2vs0mg"},{"bike_id":"52ddcb57-474d-4a7a-88a9-256796aedc84","system_id":"levelo_inurba_marseille","lat":43.2732,"lon":5.39117,"is_reserved":false,"is_disabled":false,"rental_uris":{"android":"levelo://app?vid=52ddcb57-474d-4a7a-88a9-256796aedc84","ios":"levelo://app?vid=52ddcb57-474d-4a7a-88a9-256796aedc84"},"vehicle_type_id":"4","last_reported":1769288969,"current_range_meters":9200,"station_id":"ce4bhgp2rcd13ifvqfe0","pricing_plan_id":"cebpf4jnsgd1na2vs0mg"},{"bike_id":"e959911e-39b6-4aef-9393-4a25cfa3f98f","system_id":"levelo_inurba_marseille","lat":43.25503,"lon":5.37673,"is_reserved":false,"is_disabled":false,"rental_uris":{"android":"levelo://app?vid=e959911e-39b6-4aef-9393-4a25cfa3f98f","ios":"levelo://app?vid=e959911e-39b6-4aef-9393-4a25cfa3f98f"},"vehicle_type_id":"4","last_reported":1769288969,"current_range_meters":9200,"station_id":"ce4bhh12rcd13ifvqff0","pricing_plan_id":"cebpf4jnsgd1na2vs0mg"},{"bike_id":"912fe4a2-57c3-42ed-a356-1c2317e45cd9","system_id":"levelo_inurba_marseille","lat":43.24148,"lon":5.39696,"is_reserved":false,"is_disabled":false,"rental_uris":{"android":"levelo://app?vid=912fe4a2-57c3-42ed-a356-1c2317e45cd9","ios":"levelo://app?vid=912fe4a2-57c3-42ed-a356-1c2317e45cd9"},"vehicle_type_id":"4","last_reported":1769288969,"current_range_meters":9200,"station_id":"ce4bhn12rcd13ifvqgpg","pricing_plan_id":"cebpf4jnsgd1na2vs0mg"},{"bike_id":"77a8d6f7-8520-4e5a-a0e7-89573d4a6a77","system_id":"levelo_inurba_marseille","lat":43.23786,"lon":5.36616,"is_reserved":false,"is_disabled":false,"rental_uris":{"android":"levelo://app?vid=77a8d6f7-8520-4e5a-a0e7-89573d4a6a77","ios":"levelo://app?vid=77a8d6f7-8520-4e5a-a0e7-89573d4a6a77"},"vehicle_type_id":"4","last_reported":1769288969,"current_range_meters":9200,"station_id":"st_d3nk18o9ro0c73en2l3g","pricing_plan_id":"cebpf4jnsgd1na2vs0mg"},{"bike_id":"2dfa7e03-78b3-4522-8f54-3c70061ea8cf","system_id":"levelo_inurba_marseille","lat":43.27374,"lon":5.36258,"is_reserved":false,"is_disabled":false,"rental_uris":{"android":"levelo://app?vid=2dfa7e03-78b3-4522-8f54-3c70061ea8cf","ios":"levelo://app?vid=2dfa7e03-78b3-4522-8f54-3c70061ea8cf"},"vehicle_type_id":"4","last_reported":1769288969,"current_range_meters":9200,"station_id":"ce4bhbh2rcd13ifvqeo0","pricing_plan_id":"cebpf4jnsgd1na2vs0mg"},{"bike_id":"b18b7c7b-dbe2-44bf-813a-828aad8a41bb","system_id":"levelo_inurba_marseille","lat":43.28264,"lon":5.35042,"is_reserved":false,"is_disabled":false,"rental_uris":{"android":"levelo://app?vid=b18b7c7b-dbe2-44bf-813a-828aad8a41bb","ios":"levelo://app?vid=b18b7c7b-dbe2-44bf-813a-828aad8a41bb"},"vehicle_type_id":"4","last_reported":1769288969,"current_range_meters":9200,"station_id":"","pricing_plan_id":"cebpf4jnsgd1na2vs0mg"},{"bike_id":"5cfd7260-21a3-4346-b554-3744fc7c6072","system_id":"levelo_inurba_marseille","lat":43.29569,"lon":5.42306,"is_reserved":false,"is_disabled":false,"rental_uris":{"android":"levelo://app?vid=5cfd7260-21a3-4346-b554-3744fc7c6072","ios":"levelo://app?vid=5cfd7260-21a3-4346-b554-3744fc7c6072"},"vehicle_type_id":"4","last_reported":1769288969,"current_range_meters":9200,"station_id":"ce4bhph2rcd13ifvqhdg","pricing_plan_id":"cebpf4jnsgd1na2vs0mg"},{"bike_id":"b3542536-97a8-459c-8c23-1c1cf6a8cd15","system_id":"levelo_inurba_marseille","lat":43.295158,"lon":5.375022,"is_reserved":false,"is_disabled":false,"rental_uris":{"android":"levelo://app?vid=b3542536-97a8-459c-8c23-1c1cf6a8cd15","ios":"levelo://app?vid=b3542536-97a8-459c-8c23-1c1cf6a8cd15"},"vehicle_type_id":"4","last_reported":1769288969,"current_range_meters":9200,"station_id":"ce4bgkp2rcd13ifvqbmg","pricing_plan_id":"cebpf4jnsgd1na2vs0mg"},{"bike_id":"7b00d9e2-e293-43ab-b9fa-7309e2a99a35","system_id":"levelo_inurba_marseille","lat":43.26928,"lon":5.40269,"is_reserved":false,"is_disabled":false,"rental_uris":{"android":"levelo://app?vid=7b00d9e2-e293-43ab-b9fa-7309e2a99a35","ios":"levelo://app?vid=7b00d9e2-e293-43ab-b9fa-7309e2a99a35"},"vehicle_type_id":"4","last_reported":1769288969,"current_range_meters":9200,"station_id":"cjm6bp8fraef2m0cb0m0","pricing_plan_id":"cebpf4jnsgd1na2vs0mg"},{"bike_id":"3acd5e62-3c65-4415-bcb0-7f611786b59c","system_id":"levelo_inurba_marseille","lat":43.2738,"lon":5.36246,"is_reserved":false,"is_disabled":false,"rental_uris":{"android":"levelo://app?vid=3acd5e62-3c65-4415-bcb0-7f611786b59c","ios":"levelo://app?vid=3acd5e62-3c65-4415-bcb0-7f611786b59c"},"vehicle_type_id":"4","last_reported":1769288969,"current_range_meters":9200,"station_id":"ce4bhbh2rcd13ifvqeo0","pricing_plan_id":"cebpf4jnsgd1na2vs0mg"},{"bike_id":"cefc0408-08b4-45e0-8592-a44786197f49","system_id":"levelo_inurba_marseille","lat":43.22569,"lon":5.41637,"is_reserved":false,"is_disabled":false,"rental_uris":{"android":"levelo://app?vid=cefc0408-08b4-45e0-8592-a44786197f49","ios":"levelo://app?vid=cefc0408-08b4-45e0-8592-a44786197f49"},"vehicle_type_id":"4","last_reported":1769288969,"current_range_meters":9200,"station_id":"st_d2o4gvlbi1j2169b742g","pricing_plan_id":"cebpf4jnsgd1na2vs0mg"},{"bike_id":"857024a2-b8bf-41e1-bec2-9e4e60b79c0e","system_id":"levelo_inurba_marseille","lat":43.29518,"lon":5.37511,"is_reserved":false,"is_disabled":false,"rental_uris":{"android":"levelo://app?vid=857024a2-b8bf-41e1-bec2-9e4e60b79c0e","ios":"levelo://app?vid=857024a2-b8bf-41e1-bec2-9e4e60b79c0e"},"vehicle_type_id":"4","last_reported":1769288969,"current_range_meters":9200,"station_id":"ce4bgkp2rcd13ifvqbmg","pricing_plan_id":"cebpf4jnsgd1na2vs0mg"},{"bike_id":"a0c33308-b90a-484c-a006-c19b20a52375","system_id":"levelo_inurba_marseille","lat":43.26179,"lon":5.40373,"is_reserved":false,"is_disabled":false,"rental_uris":{"android":"levelo://app?vid=a0c33308-b90a-484c-a006-c19b20a52375","ios":"levelo://app?vid=a0c33308-b90a-484c-a006-c19b20a52375"},"vehicle_type_id":"4","last_reported":1769288969,"current_range_meters":9200,"station_id":"","pricing_plan_id":"cebpf4jnsgd1na2vs0mg"},{"bike_id":"911f0371-0df0-45e8-a323-aedfe8ac7407","system_id":"levelo_inurba_marseille","lat":43.33161,"lon":5.3773,"is_reserved":false,"is_disabled":false,"rental_uris":{"android":"levelo://app?vid=911f0371-0df0-45e8-a323-aedfe8ac7407","ios":"levelo://app?vid=911f0371-0df0-45e8-a323-aedfe8ac7407"},"vehicle_type_id":"4","last_reported":1769288969,"current_range_meters":9200,"station_id":"st_d46cu089ee8s73dldbu0","pricing_plan_id":"cebpf4jnsgd1na2vs0mg"},{"bike_id":"9313abb2-b4dd-4478-8ad1-082ec047c3ed","system_id":"levelo_inurba_marseille","lat":43.26551,"lon":5.37308,"is_reserved":false,"is_disabled":false,"rental_uris":{"android":"levelo://app?vid=9313abb2-b4dd-4478-8ad1-082ec047c3ed","ios":"levelo://app?vid=9313abb2-b4dd-4478-8ad1-082ec047c3ed"},"vehicle_type_id":"4","last_reported":1769288969,"current_range_meters":9200,"station_id":"ce4bhg12rcd13ifvqf70","pricing_plan_id":"cebpf4jnsgd1na2vs0mg"},{"bike_id":"c1eb6e5d-e603-4baf-9e1a-9451b46aa176","system_id":"levelo_inurba_marseille","lat":43.29937,"lon":5.36528,"is_reserved":false,"is_disabled":false,"rental_uris":{"android":"levelo://app?vid=c1eb6e5d-e603-4baf-9e1a-9451b46aa176","ios":"levelo://app?vid=c1eb6e5d-e603-4baf-9e1a-9451b46aa176"},"vehicle_type_id":"4","last_reported":1769288969,"current_range_meters":9200,"station_id":"ce4bgm92rcd13ifvqbr0","pricing_plan_id":"cebpf4jnsgd1na2vs0mg"},{"bike_id":"2183c868-18bc-43ee-94a6-b4cdb3d84f43","system_id":"levelo_inurba_marseille","lat":43.29035,"lon":5.38154,"is_reserved":false,"is_disabled":true,"rental_uris":{"android":"levelo://app?vid=2183c868-18bc-43ee-94a6-b4cdb3d84f43","ios":"levelo://app?vid=2183c868-18bc-43ee-94a6-b4cdb3d84f43"},"vehicle_type_id":"4","last_reported":1769288969,"current_range_meters":9200,"station_id":"ce4bh4p2rcd13ifvqe1g","pricing_plan_id":"cebpf4jnsgd1na2vs0mg"},{"bike_id":"0837d65f-ee92-4610-a9ad-56457e360035","system_id":"levelo_inurba_marseille","lat":43.29031,"lon":5.38647,"is_reserved":false,"is_disabled":false,"rental_uris":{"android":"levelo://app?vid=0837d65f-ee92-4610-a9ad-56457e360035","ios":"levelo://app?vid=0837d65f-ee92-4610-a9ad-56457e360035"},"vehicle_type_id":"4","last_reported":1769288969,"current_range_meters":9200,"station_id":"ce4bh4p2rcd13ifvqe0g","pricing_plan_id":"cebpf4jnsgd1na2vs0mg"},{"bike_id":"ad50f9ab-2ec1-4d25-b540-dc86a023b91f","system_id":"levelo_inurba_marseille","lat":43.293524,"lon":5.40284,"is_reserved":false,"is_disabled":false,"rental_uris":{"android":"levelo://app?vid=ad50f9ab-2ec1-4d25-b540-dc86a023b91f","ios":"levelo://app?vid=ad50f9ab-2ec1-4d25-b540-dc86a023b91f"},"vehicle_type_id":"4","last_reported":1769288969,"current_range_meters":9200,"station_id":"","pricing_plan_id":"cebpf4jnsgd1na2vs0mg"},{"bike_id":"99bc9e46-2a2d-4354-b606-97e38b1b91d7","system_id":"levelo_inurba_marseille","lat":43.23938,"lon":5.37587,"is_reserved":false,"is_disabled":false,"rental_uris":{"android":"levelo://app?vid=99bc9e46-2a2d-4354-b606-97e38b1b91d7","ios":"levelo://app?vid=99bc9e46-2a2d-4354-b606-97e38b1b91d7"},"vehicle_type_id":"4","last_reported":1769288969,"current_range_meters":9200,"station_id":"","pricing_plan_id":"cebpf4jnsgd1na2vs0mg"},{"bike_id":"a646072a-fa73-4383-afeb-7969ad030c56","system_id":"levelo_inurba_marseille","lat":43.30154,"lon":5.38093,"is_reserved":false,"is_disabled":true,"rental_uris":{"android":"levelo://app?vid=a646072a-fa73-4383-afeb-7969ad030c56","ios":"levelo://app?vid=a646072a-fa73-4383-afeb-7969ad030c56"},"vehicle_type_id":"4","last_reported":1769288969,"current_range_meters":9600,"station_id":"ce4bgjp2rcd13ifvqbh0","pricing_plan_id":"cebpf4jnsgd1na2vs0mg"},{"bike_id":"d0af4d20-3c48-4668-9aff-200f42b9cf6d","system_id":"levelo_inurba_marseille","lat":43.28987,"lon":5.37219,"is_reserved":false,"is_disabled":false,"rental_uris":{"android":"levelo://app?vid=d0af4d20-3c48-4668-9aff-200f42b9cf6d","ios":"levelo://app?vid=d0af4d20-3c48-4668-9aff-200f42b9cf6d"},"vehicle_type_id":"4","last_reported":1769288969,"current_range_meters":9600,"station_id":"","pricing_plan_id":"cebpf4jnsgd1na2vs0mg"},{"bike_id":"965df6b7-673a-4e5d-9ee5-eda9741e28cb","system_id":"levelo_inurba_marseille","lat":43.30316,"lon":5.36903,"is_reserved":false,"is_disabled":false,"rental_uris":{"android":"levelo://app?vid=965df6b7-673a-4e5d-9ee5-eda9741e28cb","ios":"levelo://app?vid=965df6b7-673a-4e5d-9ee5-eda9741e28cb"},"vehicle_type_id":"4","last_reported":1769288969,"current_range_meters":9600,"station_id":"ce4bgqh2rcd13ifvqc5g","pricing_plan_id":"cebpf4jnsgd1na2vs0mg"},{"bike_id":"f7871c9a-41ca-46a0-b28f-114e4cd8fd3f","system_id":"levelo_inurba_marseille","lat":43.29255,"lon":5.37722,"is_reserved":false,"is_disabled":false,"rental_uris":{"android":"levelo://app?vid=f7871c9a-41ca-46a0-b28f-114e4cd8fd3f","ios":"levelo://app?vid=f7871c9a-41ca-46a0-b28f-114e4cd8fd3f"},"vehicle_type_id":"4","last_reported":1769288969,"current_range_meters":9600,"station_id":"","pricing_plan_id":"cebpf4jnsgd1na2vs0mg"},{"bike_id":"de6516f2-4721-4f5c-a175-d199fc08e695","system_id":"levelo_inurba_marseille","lat":43.23191,"lon":5.39984,"is_reserved":false,"is_disabled":false,"rental_uris":{"android":"levelo://app?vid=de6516f2-4721-4f5c-a175-d199fc08e695","ios":"levelo://app?vid=de6516f2-4721-4f5c-a175-d199fc08e695"},"vehicle_type_id":"4","last_reported":1769288969,"current_range_meters":9600,"station_id":"ce4bhn12rcd13ifvqgqg","pricing_plan_id":"cebpf4jnsgd1na2vs0mg"},{"bike_id":"1beef04b-4086-4fc6-b6f2-b17b1d293024","system_id":"levelo_inurba_marseille","lat":43.296206,"lon":5.377134,"is_reserved":false,"is_disabled":false,"rental_uris":{"android":"levelo://app?vid=1beef04b-4086-4fc6-b6f2-b17b1d293024","ios":"levelo://app?vid=1beef04b-4086-4fc6-b6f2-b17b1d293024"},"vehicle_type_id":"4","last_reported":1769288969,"current_range_meters":9600,"station_id":"ce4bgi92rcd13ifvqb90","pricing_plan_id":"cebpf4jnsgd1na2vs0mg"},{"bike_id":"a8c7adad-ae27-467b-936e-e5e482408cf3","system_id":"levelo_inurba_marseille","lat":43.31048,"lon":5.39336,"is_reserved":false,"is_disabled":false,"rental_uris":{"android":"levelo://app?vid=a8c7adad-ae27-467b-936e-e5e482408cf3","ios":"levelo://app?vid=a8c7adad-ae27-467b-936e-e5e482408cf3"},"vehicle_type_id":"4","last_reported":1769288969,"current_range_meters":9600,"station_id":"","pricing_plan_id":"cebpf4jnsgd1na2vs0mg"},{"bike_id":"50032767-8484-4cbc-98a8-809f5b4fe8e9","system_id":"levelo_inurba_marseille","lat":43.2886,"lon":5.42511,"is_reserved":false,"is_disabled":false,"rental_uris":{"android":"levelo://app?vid=50032767-8484-4cbc-98a8-809f5b4fe8e9","ios":"levelo://app?vid=50032767-8484-4cbc-98a8-809f5b4fe8e9"},"vehicle_type_id":"4","last_reported":1769288969,"current_range_meters":9600,"station_id":"st_d3b462108ojc7389ooeg","pricing_plan_id":"cebpf4jnsgd1na2vs0mg"},{"bike_id":"55313c3a-9d21-4013-8636-b70e1d8d8cb4","system_id":"levelo_inurba_marseille","lat":43.29038,"lon":5.38652,"is_reserved":false,"is_disabled":false,"rental_uris":{"android":"levelo://app?vid=55313c3a-9d21-4013-8636-b70e1d8d8cb4","ios":"levelo://app?vid=55313c3a-9d21-4013-8636-b70e1d8d8cb4"},"vehicle_type_id":"4","last_reported":1769288969,"current_range_meters":9600,"station_id":"","pricing_plan_id":"cebpf4jnsgd1na2vs0mg"},{"bike_id":"6eeab53c-5023-45f0-9519-102acd601982","system_id":"levelo_inurba_marseille","lat":43.29295,"lon":5.37437,"is_reserved":false,"is_disabled":false,"rental_uris":{"android":"levelo://app?vid=6eeab53c-5023-45f0-9519-102acd601982","ios":"levelo://app?vid=6eeab53c-5023-45f0-9519-102acd601982"},"vehicle_type_id":"4","last_reported":1769288969,"current_range_meters":9600,"station_id":"ce4bgi12rcd13ifvqb70","pricing_plan_id":"cebpf4jnsgd1na2vs0mg"},{"bike_id":"4aade3c0-5e93-41cd-864f-289395d6e581","system_id":"levelo_inurba_marseille","lat":43.31171,"lon":5.38718,"is_reserved":false,"is_disabled":false,"rental_uris":{"android":"levelo://app?vid=4aade3c0-5e93-41cd-864f-289395d6e581","ios":"levelo://app?vid=4aade3c0-5e93-41cd-864f-289395d6e581"},"vehicle_type_id":"4","last_reported":1769288969,"current_range_meters":9600,"station_id":"ce4bgv12rcd13ifvqcp0","pricing_plan_id":"cebpf4jnsgd1na2vs0mg"},{"bike_id":"9536a92a-01ab-4017-8488-26a8fa6880af","system_id":"levelo_inurba_marseille","lat":43.25933,"lon":5.40901,"is_reserved":false,"is_disabled":false,"rental_uris":{"android":"levelo://app?vid=9536a92a-01ab-4017-8488-26a8fa6880af","ios":"levelo://app?vid=9536a92a-01ab-4017-8488-26a8fa6880af"},"vehicle_type_id":"4","last_reported":1769288969,"current_range_meters":9600,"station_id":"ce4bhm92rcd13ifvqglg","pricing_plan_id":"cebpf4jnsgd1na2vs0mg"},{"bike_id":"0c11bc30-1254-4e35-b530-31f7fd6a4b39","system_id":"levelo_inurba_marseille","lat":43.30003,"lon":5.3736,"is_reserved":false,"is_disabled":false,"rental_uris":{"android":"levelo://app?vid=0c11bc30-1254-4e35-b530-31f7fd6a4b39","ios":"levelo://app?vid=0c11bc30-1254-4e35-b530-31f7fd6a4b39"},"vehicle_type_id":"4","last_reported":1769288969,"current_range_meters":9600,"station_id":"","pricing_plan_id":"cebpf4jnsgd1na2vs0mg"},{"bike_id":"5dfc7d33-8364-45f9-863b-4d733de72506","system_id":"levelo_inurba_marseille","lat":43.30193,"lon":5.3662,"is_reserved":false,"is_disabled":false,"rental_uris":{"android":"levelo://app?vid=5dfc7d33-8364-45f9-863b-4d733de72506","ios":"levelo://app?vid=5dfc7d33-8364-45f9-863b-4d733de72506"},"vehicle_type_id":"4","last_reported":1769288969,"current_range_meters":9600,"station_id":"ce4bgrh2rcd13ifvqc8g","pricing_plan_id":"cebpf4jnsgd1na2vs0mg"},{"bike_id":"ba275051-9e15-4ea0-a6e1-ba5eb68c57b0","system_id":"levelo_inurba_marseille","lat":43.29574,"lon":5.36755,"is_reserved":false,"is_disabled":false,"rental_uris":{"android":"levelo://app?vid=ba275051-9e15-4ea0-a6e1-ba5eb68c57b0","ios":"levelo://app?vid=ba275051-9e15-4ea0-a6e1-ba5eb68c57b0"},"vehicle_type_id":"4","last_reported":1769288969,"current_range_meters":9600,"station_id":"ce4bgph2rcd13ifvqc2g","pricing_plan_id":"cebpf4jnsgd1na2vs0mg"},{"bike_id":"202f1104-5acd-4ad3-972a-1bdbd896c535","system_id":"levelo_inurba_marseille","lat":43.32387,"lon":5.36736,"is_reserved":false,"is_disabled":false,"rental_uris":{"android":"levelo://app?vid=202f1104-5acd-4ad3-972a-1bdbd896c535","ios":"levelo://app?vid=202f1104-5acd-4ad3-972a-1bdbd896c535"},"vehicle_type_id":"4","last_reported":1769288969,"current_range_meters":9600,"station_id":"ce4bhsh2rcd13ifvqi2g","pricing_plan_id":"cebpf4jnsgd1na2vs0mg"},{"bike_id":"d5ea324e-bace-4c01-9812-40ca3a979c75","system_id":"levelo_inurba_marseille","lat":43.29543,"lon":5.38538,"is_reserved":false,"is_disabled":false,"rental_uris":{"android":"levelo://app?vid=d5ea324e-bace-4c01-9812-40ca3a979c75","ios":"levelo://app?vid=d5ea324e-bace-4c01-9812-40ca3a979c75"},"vehicle_type_id":"4","last_reported":1769288969,"current_range_meters":9600,"station_id":"ce4bgih2rcd13ifvqba0","pricing_plan_id":"cebpf4jnsgd1na2vs0mg"},{"bike_id":"c7c98177-370a-43ee-9ce4-edaf985c2999","system_id":"levelo_inurba_marseille","lat":43.27075,"lon":5.42279,"is_reserved":false,"is_disabled":false,"rental_uris":{"android":"levelo://app?vid=c7c98177-370a-43ee-9ce4-edaf985c2999","ios":"levelo://app?vid=c7c98177-370a-43ee-9ce4-edaf985c2999"},"vehicle_type_id":"4","last_reported":1769288969,"current_range_meters":9600,"station_id":"ce4bhk92rcd13ifvqgb0","pricing_plan_id":"cebpf4jnsgd1na2vs0mg"},{"bike_id":"9bbac3b6-c0d2-4b53-8c35-0cd5ce33f3a6","system_id":"levelo_inurba_marseille","lat":43.295878,"lon":5.375249,"is_reserved":false,"is_disabled":false,"rental_uris":{"android":"levelo://app?vid=9bbac3b6-c0d2-4b53-8c35-0cd5ce33f3a6","ios":"levelo://app?vid=9bbac3b6-c0d2-4b53-8c35-0cd5ce33f3a6"},"vehicle_type_id":"4","last_reported":1769288969,"current_range_meters":9600,"station_id":"","pricing_plan_id":"cebpf4jnsgd1na2vs0mg"},