{"last_updated":1751300019,"ttl":60,"version":"2.2","data":{"bikes":[{"bike_id":"3da29fb8-fc97-44c6-b9ac-31dd456b2fd4","system_id":"levelo_inurba_marseille","lat":43.33771,"lon":5.37424,"is_reserved":false,"is_disabled":true,"rental_uris":{"android":"levelo://app?vid=3da29fb8-fc97-44c6-b9ac-31dd456b2fd4","ios":"levelo://app?vid=3da29fb8-fc97-44c6-b9ac-31dd456b2fd4"},"vehicle_type_id":"4","last_reported":1751300019,"current_range_meters":0,"station_id":"","pricing_plan_id":"cebpf4jnsgd1na2vs0mg"},{"bike_id":"01861ad8-a8d7-4be6-816e-651927c87584","system_id":"levelo_inurba_marseille","lat":43.33751,"lon":5.37456,"is_reserved":false,"is_disabled":true,"rental_uris":{"android":"levelo://app?vid=01861ad8-a8d7-4be6-816e-651927c87584","ios":"levelo://app?vid=01861ad8-a8d7-4be6-816e-651927c87584"},"vehicle_type_id":"4","last_reported":1751300019,"current_range_meters":0,"station_id":"","pricing_plan_id":"cebpf4jnsgd1na2vs0mg"},{"bike_id":"29e697ca-26a6-4412-8107-f2c74b259edc","system_id":"levelo_inurba_marseille","lat":43.24179,"lon":5.38369,"is_reserved":false,"is_disabled":true,"rental_uris":{"android":"levelo://app?vid=29e697ca-26a6-4412-8107-f2c74b259edc","ios":"levelo://app?vid=29e697ca-26a6-4412-8107-f2c74b259edc"},"vehicle_type_id":"4","last_reported":1751300019,"current_range_meters":0,"station_id":"","pricing_plan_id":"cebpf4jnsgd1na2vs0mg"},{"bike_id":"f1483ff6-ae8a-4286-a635-7d40887e3e92","system_id":"levelo_inurba_marseille","lat":43.26971,"lon":5.36625,"is_reserved":false,"is_disabled":true,"rental_uris":{"android":"levelo://app?vid=f1483ff6-ae8a-4286-a635-7d40887e3e92","ios":"levelo://app?vid=f1483ff6-ae8a-4286-a635-7d40887e3e92"},"vehicle_type_id":"4","last_reported":1751300019,"current_range_meters":0,"station_id":"","pricing_plan_id":"cebpf4jnsgd1na2vs0mg"},{"bike_id":"69f3e486-7ece-4da3-bef1-7e43be44cf97","system_id":"levelo_inurba_marseille","lat":43.25629,"lon":5.41972,"is_reserved":false,"is_disabled":true,"rental_uris":{"android":"levelo://app?vid=69f3e486-7ece-4da3-bef1-7e43be44cf97","ios":"levelo://app?vid=69f3e486-7ece-4da3-bef1-7e43be44cf97"},"vehicle_type_id":"4","last_reported":1751300019,"current_range_meters":0,"station_id":"","pricing_plan_id":"cebpf4jnsgd1na2vs0mg"},{"bike_id":"aa6c1647-1ec8-42c9-91a4-38cc1052cdf1","system_id":"levelo_inurba_marseille","lat":43.25553,"lon":5.37679,"is_reserved":false,"is_disabled":true,"rental_uris":{"android":"levelo://app?vid=aa6c1647-1ec8-42c9-91a4-38cc1052cdf1","ios":"levelo://app?vid=aa6c1647-1ec8-42c9-91a4-38cc1052cdf1"},"vehicle_type_id":"4","last_reported":1751300019,"current_range_meters":0,"station_id":"","pricing_plan_id":"cebpf4jnsgd1na2vs0mg"},{"bike_id":"3a59e824-d21f-4543-8138-0c36275b7390","system_id":"levelo_inurba_marseille","lat":43.295809,"lon":5.375094,"is_reserved":false,"is_disabled":true,"rental_uris":{"android":"levelo://app?vid=3a59e824-d21f-4543-8138-0c36275b7390","ios":"levelo://app?vid=3a59e824-d21f-4543-8138-0c36275b7390"},"vehicle_type_id":"4","last_reported":1751300019,"current_range_meters":0,"station_id":"ce4bgh92rcd13ifvqb50","pricing_plan_id":"cebpf4jnsgd1na2vs0mg"},{"bike_id":"a4c42554-fc58-4e8f-8d21-8f607f41107a","system_id":"levelo_inurba_marseille","lat":43.30536,"lon":5.36556,"is_reserved":false,"is_disabled":true,"rental_uris":{"android":"levelo://app?vid=a4c42554-fc58-4e8f-8d21-8f607f41107a","ios":"levelo://app?vid=a4c42554-fc58-4e8f-8d21-8f607f41107a"},"vehicle_type_id":"4","last_reported":1751300019,"current_range_meters":0,"station_id":"ce4bgs12rcd13ifvqcag","pricing_plan_id":"cebpf4jnsgd1na2vs0mg"},{"bike_id":"ac838f69-6b56-4603-a050-30b78f72e425","system_id":"levelo_inurba_marseille","lat":43.27378,"lon":5.36252,"is_reserved":false,"is_disabled":true,"rental_uris":{"android":"levelo://app?vid=ac838f69-6b56-4603-a050-30b78f72e425","ios":"levelo://app?vid=ac838f69-6b56-4603-a050-30b78f72e425"},"vehicle_type_id":"4","last_reported":1751300019,"current_range_meters":0,"station_id":"ce4bhbh2rcd13ifvqeo0","pricing_plan_id":"cebpf4jnsgd1na2vs0mg"},{"bike_id":"de8629c5-e9e3-46b9-b58d-11aeedcd7b56","system_id":"levelo_inurba_marseille","lat":43.26192,"lon":5.37448,"is_reserved":false,"is_disabled":true,"rental_uris":{"android":"levelo://app?vid=de8629c5-e9e3-46b9-b58d-11aeedcd7b56","ios":"levelo://app?vid=de8629c5-e9e3-46b9-b58d-11aeedcd7b56"},"vehicle_type_id":"4","last_reported":1751300019,"current_range_meters":0,"station_id":"ce4bhgp2rcd13ifvqfc0","pricing_plan_id":"cebpf4jnsgd1na2vs0mg"},{"bike_id":"8be03bc6-6da3-45df-b873-1a462301510b","system_id":"levelo_inurba_marseille","lat":43.31709,"lon":5.43713,"is_reserved":false,"is_disabled":true,"rental_uris":{"android":"levelo://app?vid=8be03bc6-6da3-45df-b873-1a462301510b","ios":"levelo://app?vid=8be03bc6-6da3-45df-b873-1a462301510b"},"vehicle_type_id":"4","last_reported":1751300019,"current_range_meters":0,"station_id":"ce4bhp92rcd13ifvqhcg","pricing_plan_id":"cebpf4jnsgd1na2vs0mg"},{"bike_id":"8233db61-1d36-41a5-a985-c98b6a5f0fb4","system_id":"levelo_inurba_marseille","lat":43.2175,"lon":5.34605,"is_reserved":false,"is_disabled":true,"rental_uris":{"android":"levelo://app?vid=8233db61-1d36-41a5-a985-c98b6a5f0fb4","ios":"levelo://app?vid=8233db61-1d36-41a5-a985-c98b6a5f0fb4"},"vehicle_type_id":"4","last_reported":1751300019,"current_range_meters":0,"station_id":"st_cvj6r9ubvosntc0bgbag","pricing_plan_id":"cebpf4jnsgd1na2vs0mg"},{"bike_id":"85eb80f1-fdf8-4910-9983-416402de22ff","system_id":"levelo_inurba_marseille","lat":43.27701,"lon":5.4155,"is_reserved":false,"is_disabled":true,"rental_uris":{"android":"levelo://app?vid=85eb80f1-fdf8-4910-9983-416402de22ff","ios":"levelo://app?vid=85eb80f1-fdf8-4910-9983-416402de22ff"},"vehicle_type_id":"4","last_reported":1751300019,"current_range_meters":400,"station_id":"","pricing_plan_id":"cebpf4jnsgd1na2vs0mg"},{"bike_id":"2f4b2e69-1aaa-43df-8bc8-4ec53b053e3e","system_id":"levelo_inurba_marseille","lat":43.229723,"lon":5.354226,"is_reserved":false,"is_disabled":true,"rental_uris":{"android":"levelo://app?vid=2f4b2e69-1aaa-43df-8bc8-4ec53b053e3e","ios":"levelo://app?vid=2f4b2e69-1aaa-43df-8bc8-4ec53b053e3e"},"vehicle_type_id":"4","last_reported":1751300019,"current_range_meters":400,"station_id":"","pricing_plan_id":"cebpf4jnsgd1na2vs0mg"},{"bike_id":"4bb4a733-a9bd-4772-9320-a8c7885ff73b","system_id":"levelo_inurba_marseille","lat":43.27781,"lon":5.35565,"is_reserved":false,"is_disabled":true,"rental_uris":{"android":"levelo://app?vid=4bb4a733-a9bd-4772-9320-a8c7885ff73b","ios":"levelo://app?vid=4bb4a733-a9bd-4772-9320-a8c7885ff73b"},"vehicle_type_id":"4","last_reported":1751300019,"current_range_meters":800,"station_id":"","pricing_plan_id":"cebpf4jnsgd1na2vs0mg"},{"bike_id":"189ddd12-1770-4461-b9ac-8aa17d44d891","system_id":"levelo_inurba_marseille","lat":43.30595,"lon":5.39361,"is_reserved":false,"is_disabled":true,"rental_uris":{"android":"levelo://app?vid=189ddd12-1770-4461-b9ac-8aa17d44d891","ios":"levelo://app?vid=189ddd12-1770-4461-b9ac-8aa17d44d891"},"vehicle_type_id":"4","last_reported":1751300019,"current_range_meters":800,"station_id":"ce4bh0p2rcd13ifvqd80","pricing_plan_id":"cebpf4jnsgd1na2vs0mg"},{"bike_id":"fbb8d127-0fa5-416b-91e9-f7f57d285062","system_id":"levelo_inurba_marseille","lat":43.26561,"lon":5.37278,"is_reserved":false,"is_disabled":true,"rental_uris":{"android":"levelo://app?vid=fbb8d127-0fa5-416b-91e9-f7f57d285062","ios":"levelo://app?vid=fbb8d127-0fa5-416b-91e9-f7f57d285062"},"vehicle_type_id":"4","last_reported":1751300019,"current_range_meters":800,"station_id":"ce4bhg12rcd13ifvqf70","pricing_plan_id":"cebpf4jnsgd1na2vs0mg"},{"bike_id":"9953bef6-505a-44c8-9f26-32fa1e3aad64","system_id":"levelo_inurba_marseille","lat":43.29309,"lon":5.37465,"is_reserved":false,"is_disabled":true,"rental_uris":{"android":"levelo://app?vid=9953bef6-505a-44c8-9f26-32fa1e3aad64","ios":"levelo://app?vid=9953bef6-505a-44c8-9f26-32fa1e3aad64"},"vehicle_type_id":"4","last_reported":1751300019,"current_range_meters":1200,"station_id":"ce4bgi12rcd13ifvqb70","pricing_plan_id":"cebpf4jnsgd1na2vs0mg"},{"bike_id":"98775f4e-7bf0-4480-9890-9dac8ccb8d90","system_id":"levelo_inurba_marseille","lat":43.25005,"lon":5.38925,"is_reserved":false,"is_disabled":true,"rental_uris":{"android":"levelo://app?vid=98775f4e-7bf0-4480-9890-9dac8ccb8d90","ios":"levelo://app?vid=98775f4e-7bf0-4480-9890-9dac8ccb8d90"},"vehicle_type_id":"4","last_reported":1751300019,"current_range_meters":1200,"station_id":"ce4bhgp2rcd13ifvqfd0","pricing_plan_id":"cebpf4jnsgd1na2vs0mg"},{"bike_id":"da468c56-e93e-4164-ab74-bf02c7eb1eaf","system_id":"levelo_inurba_marseille","lat":43.27941,"lon":5.41045,"is_reserved":false,"is_disabled":true,"rental_uris":{"android":"levelo://app?vid=da468c56-e93e-4164-ab74-bf02c7eb1eaf","ios":"levelo://app?vid=da468c56-e93e-4164-ab74-bf02c7eb1eaf"},"vehicle_type_id":"4","last_reported":1751300019,"current_range_meters":1200,"station_id":"ce4bhnp2rcd13ifvqh0g","pricing_plan_id":"cebpf4jnsgd1na2vs0mg"},{"bike_id":"a37e8def-144c-4d8d-aabf-950aca51f939","system_id":"levelo_inurba_marseille","lat":43.297702,"lon":5.38121,"is_reserved":false,"is_disabled":true,"rental_uris":{"android":"levelo://app?vid=a37e8def-144c-4d8d-aabf-950aca51f939","ios":"levelo://app?vid=a37e8def-144c-4d8d-aabf-950aca51f939"},"vehicle_type_id":"4","last_reported":1751300019,"current_range_meters":1600,"station_id":"","pricing_plan_id":"cebpf4jnsgd1na2vs0mg"},{"bike_id":"b9c391a1-bbfb-4b9f-a5fd-74b559adfb50","system_id":"levelo_inurba_marseille","lat":43.28712,"lon":5.39991,"is_reserved":false,"is_disabled":true,"rental_uris":{"android":"levelo://app?vid=b9c391a1-bbfb-4b9f-a5fd-74b559adfb50","ios":"levelo://app?vid=b9c391a1-bbfb-4b9f-a5fd-74b559adfb50"},"vehicle_type_id":"4","last_reported":1751300019,"current_range_meters":1600,"station_id":"ce4bho92rcd13ifvqh3g","pricing_plan_id":"cebpf4jnsgd1na2vs0mg"},{"bike_id":"9e163c86-36ef-4269-bcd8-6c9e6f4075a0","system_id":"levelo_inurba_marseille","lat":43.30281,"lon":5.37175,"is_reserved":false,"is_disabled":true,"rental_uris":{"android":"levelo://app?vid=9e163c86-36ef-4269-bcd8-6c9e6f4075a0","ios":"levelo://app?vid=9e163c86-36ef-4269-bcd8-6c9e6f4075a0"},"vehicle_type_id":"4","last_reported":1751300019,"current_range_meters":2000,"station_id":"","pricing_plan_id":"cebpf4jnsgd1na2vs0mg"},{"bike_id":"663b9972-4e03-420e-8082-3e2db20e9bca","system_id":"levelo_inurba_marseille","lat":43.290221,"lon":5.381363,"is_reserved":false,"is_disabled":true,"rental_uris":{"android":"levelo://app?vid=663b9972-4e03-420e-8082-3e2db20e9bca","ios":"levelo://app?vid=663b9972-4e03-420e-8082-3e2db20e9bca"},"vehicle_type_id":"4","last_reported":1751300019,"current_range_meters":2000,"station_id":"ce4bh4p2rcd13ifvqe1g","pricing_plan_id":"cebpf4jnsgd1na2vs0mg"},{"bike_id":"14c283f3-aa3e-4dc4-af6e-1f49a29b12a5","system_id":"levelo_inurba_marseille","lat":43.2898,"lon":5.37836,"is_reserved":false,"is_disabled":true,"rental_uris":{"android":"levelo://app?vid=14c283f3-aa3e-4dc4-af6e-1f49a29b12a5","ios":"levelo://app?vid=14c283f3-aa3e-4dc4-af6e-1f49a29b12a5"},"vehicle_type_id":"4","last_reported":1751300019,"current_range_meters":2000,"station_id":"ce4bh9p2rcd13ifvqed0","pricing_plan_id":"cebpf4jnsgd1na2vs0mg"},{"bike_id":"d5b5bc74-aaeb-40c0-b979-fb1a262527de","system_id":"levelo_inurba_marseille","lat":43.3323,"lon":5.35859,"is_reserved":false,"is_disabled":false,"rental_uris":{"android":"levelo://app?vid=d5b5bc74-aaeb-40c0-b979-fb1a262527de","ios":"levelo://app?vid=d5b5bc74-aaeb-40c0-b979-fb1a262527de"},"vehicle_type_id":"4","last_reported":1751300019,"current_range_meters":2800,"station_id":"","pricing_plan_id":"cebpf4jnsgd1na2vs0mg"},{"bike_id":"77e12d30-d5cd-4e0f-a247-10b3b84cc3c8","system_id":"levelo_inurba_marseille","lat":43.31847,"lon":5.4245,"is_reserved":false,"is_disabled":false,"rental_uris":{"android":"levelo://app?vid=77e12d30-d5cd-4e0f-a247-10b3b84cc3c8","ios":"levelo://app?vid=77e12d30-d5cd-4e0f-a247-10b3b84cc3c8"},"vehicle_type_id":"4","last_reported":1751300019,"current_range_meters":2800,"station_id":"","pricing_plan_id":"cebpf4jnsgd1na2vs0mg"},{"bike_id":"3b85fdb1-7745-4d91-9286-f0dec7e845eb","system_id":"levelo_inurba_marseille","lat":43.25868,"lon":5.3991,"is_reserved":false,"is_disabled":false,"rental_uris":{"android":"levelo://app?vid=3b85fdb1-7745-4d91-9286-f0dec7e845eb","ios":"levelo://app?vid=3b85fdb1-7745-4d91-9286-f0dec7e845eb"},"vehicle_type_id":"4","last_reported":1751300019,"current_range_meters":2800,"station_id":"ce4bhl92rcd13ifvqghg","pricing_plan_id":"cebpf4jnsgd1na2vs0mg"},{"bike_id":"14d9fd99-9b30-4153-ba8e-87760ef8d31a","system_id":"levelo_inurba_marseille","lat":43.270061,"lon":5.387468,"is_reserved":false,"is_disabled":false,"rental_uris":{"android":"levelo://app?vid=14d9fd99-9b30-4153-ba8e-87760ef8d31a","ios":"levelo://app?vid=14d9fd99-9b30-4153-ba8e-87760ef8d31a"},"vehicle_type_id":"4","last_reported":1751300019,"current_range_meters":3200,"station_id":"","pricing_plan_id":"cebpf4jnsgd1na2vs0mg"},{"bike_id":"a8f6d465-70c5-4cf1-80d9-454fe9f7ab9b","system_id":"levelo_inurba_marseille","lat":43.29891,"lon":5.38898,"is_reserved":false,"is_disabled":false,"rental_uris":{"android":"levelo://app?vid=a8f6d465-70c5-4cf1-80d9-454fe9f7ab9b","ios":"levelo://app?vid=a8f6d465-70c5-4cf1-80d9-454fe9f7ab9b"},"vehicle_type_id":"4","last_reported":1751300019,"current_range_meters":3200,"station_id":"ce4bh392rcd13ifvqdl0","pricing_plan_id":"cebpf4jnsgd1na2vs0mg"},{"bike_id":"721165c1-ef6f-40cc-8d33-af3a7999864b","system_id":"levelo_inurba_marseille","lat":43.32613,"lon":5.37862,"is_reserved":false,"is_disabled":false,"rental_uris":{"android":"levelo://app?vid=721165c1-ef6f-40cc-8d33-af3a7999864b","ios":"levelo://app?vid=721165c1-ef6f-40cc-8d33-af3a7999864b"},"vehicle_type_id":"4","last_reported":1751300019,"current_range_meters":3600,"station_id":"","pricing_plan_id":"cebpf4jnsgd1na2vs0mg"},{"bike_id":"3f8ae395-1855-4806-aae4-d95b7f30fe8d","system_id":"levelo_inurba_marseille","lat":43.250397,"lon":5.388649,"is_reserved":false,"is_disabled":false,"rental_uris":{"android":"levelo://app?vid=3f8ae395-1855-4806-aae4-d95b7f30fe8d","ios":"levelo://app?vid=3f8ae395-1855-4806-aae4-d95b7f30fe8d"},"vehicle_type_id":"4","last_reported":1751300019,"current_range_meters":4000,"station_id":"ce4bhgp2rcd13ifvqfd0","pricing_plan_id":"cebpf4jnsgd1na2vs0mg"},{"bike_id":"8c3e1ad6-6fdc-475c-8694-c6ab52a1d798","system_id":"levelo_inurba_marseille","lat":43.24393,"lon":5.37057,"is_reserved":false,"is_disabled":false,"rental_uris":{"android":"levelo://app?vid=8c3e1ad6-6fdc-475c-8694-c6ab52a1d798","ios":"levelo://app?vid=8c3e1ad6-6fdc-475c-8694-c6ab52a1d798"},"vehicle_type_id":"4","last_reported":1751300019,"current_range_meters":4000,"station_id":"ce4bhhh2rcd13ifvqfk0","pricing_plan_id":"cebpf4jnsgd1na2vs0mg"},{"bike_id":"87985e62-2823-4157-8a35-599ee9a377ab","system_id":"levelo_inurba_marseille","lat":43.21183,"lon":5.3508,"is_reserved":false,"is_disabled":false,"rental_uris":{"android":"levelo://app?vid=87985e62-2823-4157-8a35-599ee9a377ab","ios":"levelo://app?vid=87985e62-2823-4157-8a35-599ee9a377ab"},"vehicle_type_id":"4","last_reported":1751300019,"current_range_meters":4000,"station_id":"st_cvj6sg6p6f1abm77japg","pricing_plan_id":"cebpf4jnsgd1na2vs0mg"},{"bike_id":"613636b7-2a19-4014-b5e6-4c565ffd4a5b","system_id":"levelo_inurba_marseille","lat":43.281547,"lon":5.426363,"is_reserved":false,"is_disabled":false,"rental_uris":{"android":"levelo://app?vid=613636b7-2a19-4014-b5e6-4c565ffd4a5b","ios":"levelo://app?vid=613636b7-2a19-4014-b5e6-4c565ffd4a5b"},"vehicle_type_id":"4","last_reported":1751300019,"current_range_meters":4800,"station_id":"ce4bhnh2rcd13ifvqgug","pricing_plan_id":"cebpf4jnsgd1na2vs0mg"},{"bike_id":"2dc56f5a-0918-42fe-986b-4389cd4b8b51","system_id":"levelo_inurba_marseille","lat":43.24077,"lon":5.37759,"is_reserved":false,"is_disabled":false,"rental_uris":{"android":"levelo://app?vid=2dc56f5a-0918-42fe-986b-4389cd4b8b51","ios":"levelo://app?vid=2dc56f5a-0918-42fe-986b-4389cd4b8b51"},"vehicle_type_id":"4","last_reported":1751300019,"current_range_meters":4800,"station_id":"ce4bhnp2rcd13ifvqgvg","pricing_plan_id":"cebpf4jnsgd1na2vs0mg"},{"bike_id":"c91f5bbb-cd26-4bf3-85b6-8786a4476baf","system_id":"levelo_inurba_marseille","lat":43.28461,"lon":5.35892,"is_reserved":false,"is_disabled":false,"rental_uris":{"android":"levelo://app?vid=c91f5bbb-cd26-4bf3-85b6-8786a4476baf","ios":"levelo://app?vid=c91f5bbb-cd26-4bf3-85b6-8786a4476baf"},"vehicle_type_id":"4","last_reported":1751300019,"current_range_meters":5600,"station_id":"ce4bhah2rcd13ifvqei0","pricing_plan_id":"cebpf4jnsgd1na2vs0mg"},{"bike_id":"be97c34b-8f6b-49c3-8438-eee8c202b544","system_id":"levelo_inurba_marseille","lat":43.24808,"lon":5.37458,"is_reserved":false,"is_disabled":false,"rental_uris":{"android":"levelo://app?vid=be97c34b-8f6b-49c3-8438-eee8c202b544","ios":"levelo://app?vid=be97c34b-8f6b-49c3-8438-eee8c202b544"},"vehicle_type_id":"4","last_reported":1751300019,"current_range_meters":5600,"station_id":"ce4bhgh2rcd13ifvqfb0","pricing_plan_id":"cebpf4jnsgd1na2vs0mg"},{"bike_id":"3df7b1ad-f931-4fa6-8b4f-1f0d8b6f789b","system_id":"levelo_inurba_marseille","lat":43.255884,"lon":5.382136,"is_reserved":false,"is_disabled":false,"rental_uris":{"android":"levelo://app?vid=3df7b1ad-f931-4fa6-8b4f-1f0d8b6f789b","ios":"levelo://app?vid=3df7b1ad-f931-4fa6-8b4f-1f0d8b6f789b"},"vehicle_type_id":"4","last_reported":1751300019,"current_range_meters":5600,"station_id":"ce4bhih2rcd13ifvqfs0","pricing_plan_id":"cebpf4jnsgd1na2vs0mg"},{"bike_id":"8ac83e83-ce51-4a2e-87b8-6fed3130a2b6","system_id":"levelo_inurba_marseille","lat":43.325661,"lon":5.410675,"is_reserved":false,"is_disabled":false,"rental_uris":{"android":"levelo://app?vid=8ac83e83-ce51-4a2e-87b8-6fed3130a2b6","ios":"levelo://app?vid=8ac83e83-ce51-4a2e-87b8-6fed3130a2b6"},"vehicle_type_id":"4","last_reported":1751300019,"current_range_meters":6000,"station_id":"ce4bhpp2rcd13ifvqhgg","pricing_plan_id":"cebpf4jnsgd1na2vs0mg"},{"bike_id":"56f45266-e004-4f96-b7c7-d242f764268c","system_id":"levelo_inurba_marseille","lat":43.29912,"lon":5.37486,"is_reserved":false,"is_disabled":false,"rental_uris":{"android":"levelo://app?vid=56f45266-e004-4f96-b7c7-d242f764268c","ios":"levelo://app?vid=56f45266-e004-4f96-b7c7-d242f764268c"},"vehicle_type_id":"4","last_reported":1751300019,"current_range_meters":6400,"station_id":"ce4bgjh2rcd13ifvqbg0","pricing_plan_id":"cebpf4jnsgd1na2vs0mg"},{"bike_id":"e51f8863-feb4-46b5-9014-efb2971f3ef5","system_id":"levelo_inurba_marseille","lat":43.23199,"lon":5.35543,"is_reserved":false,"is_disabled":false,"rental_uris":{"android":"levelo://app?vid=e51f8863-feb4-46b5-9014-efb2971f3ef5","ios":"levelo://app?vid=e51f8863-feb4-46b5-9014-efb2971f3ef5"},"vehicle_type_id":"4","last_reported":1751300019,"current_range_meters":6400,"station_id":"ce4bhu92rcd13ifvqi70","pricing_plan_id":"cebpf4jnsgd1na2vs0mg"},{"bike_id":"7b28ebac-3c6a-43aa-aca9-7bd954b07205","system_id":"levelo_inurba_marseille","lat":43.29657,"lon":5.37929,"is_reserved":false,"is_disabled":false,"rental_uris":{"android":"levelo://app?vid=7b28ebac-3c6a-43aa-aca9-7bd954b07205","ios":"levelo://app?vid=7b28ebac-3c6a-43aa-aca9-7bd954b07205"},"vehicle_type_id":"4","last_reported":1751300019,"current_range_meters":7200,"station_id":"","pricing_plan_id":"cebpf4jnsgd1na2vs0mg"},{"bike_id":"cbe8cf16-ee4d-44dc-af26-2dea0d93d494","system_id":"levelo_inurba_marseille","lat":43.337444,"lon":5.374475,"is_reserved":false,"is_disabled":false,"rental_uris":{"android":"levelo://app?vid=cbe8cf16-ee4d-44dc-af26-2dea0d93d494","ios":"levelo://app?vid=cbe8cf16-ee4d-44dc-af26-2dea0d93d494"},"vehicle_type_id":"4","last_reported":1751300019,"current_range_meters":7200,"station_id":"","pricing_plan_id":"cebpf4jnsgd1na2vs0mg"},{"bike_id":"d5b9b357-a5ca-4f14-9171-44b82b26179d","system_id":"levelo_inurba_marseille","lat":43.29847,"lon":5.36276,"is_reserved":false,"is_disabled":false,"rental_uris":{"android":"levelo://app?vid=d5b9b357-a5ca-4f14-9171-44b82b26179d","ios":"levelo://app?vid=d5b9b357-a5ca-4f14-9171-44b82b26179d"},"vehicle_type_id":"4","last_reported":1751300019,"current_range_meters":7200,"station_id":"ce4bgpp2rcd13ifvqc3g","pricing_plan_id":"cebpf4jnsgd1na2vs0mg"},{"bike_id":"bc7be6e4-54e4-4eb5-a2b5-ceb10389ccb9","system_id":"levelo_inurba_marseille","lat":43.30425,"lon":5.39734,"is_reserved":false,"is_disabled":false,"rental_uris":{"android":"levelo://app?vid=bc7be6e4-54e4-4eb5-a2b5-ceb10389ccb9","ios":"levelo://app?vid=bc7be6e4-54e4-4eb5-a2b5-ceb10389ccb9"},"vehicle_type_id":"4","last_reported":1751300019,"current_range_meters":7200,"station_id":"ce4bh092rcd13ifvqd20","pricing_plan_id":"cebpf4jnsgd1na2vs0mg"},{"bike_id":"1665462a-4536-49b8-a4a9-1fcda22c3f15","system_id":"levelo_inurba_marseille","lat":43.28041,"lon":5.36941,"is_reserved":false,"is_disabled":false,"rental_uris":{"android":"levelo://app?vid=1665462a-4536-49b8-a4a9-1fcda22c3f15","ios":"levelo://app?vid=1665462a-4536-49b8-a4a9-1fcda22c3f15"},"vehicle_type_id":"4","last_reported":1751300019,"current_range_meters":7200,"station_id":"ce4bha12rcd13ifvqef0","pricing_plan_id":"cebpf4jnsgd1na2vs0mg"},{"bike_id":"67fd0fb9-5daa-414e-bc5b-859a6c7a1d3f","system_id":"levelo_inurba_marseille","lat":43.28938,"lon":5.36403,"is_reserved":false,"is_disabled":false,"rental_uris":{"android":"levelo://app?vid=67fd0fb9-5daa-414e-bc5b-859a6c7a1d3f","ios":"levelo://app?vid=67fd0fb9-5daa-414e-bc5b-859a6c7a1d3f"},"vehicle_type_id":"4","last_reported":1751300019,"current_range_meters":7200,"station_id":"ce4bhc92rcd13ifvqetg","pricing_plan_id":"cebpf4jnsgd1na2vs0mg"},{"bike_id":"e2d27a83-1288-431f-a70c-18bc8267e356","system_id":"levelo_inurba_marseille","lat":43.31758,"lon":5.39012,"is_reserved":false,"is_disabled":false,"rental_uris":{"android":"levelo://app?vid=e2d27a83-1288-431f-a70c-18bc8267e356","ios":"levelo://app?vid=e2d27a83-1288-431f-a70c-18bc8267e356"},"vehicle_type_id":"4","last_reported":1751300019,"current_range_meters":7200,"station_id":"ce4bhqp2rcd13ifvqhng","pricing_plan_id":"cebpf4jnsgd1na2vs0mg"},{"bike_id":"9fc6b39a-5532-40ac-8f58-975bced56a19","system_id":"levelo_inurba_marseille","lat":43.32577,"lon":5.40472,"is_reserved":false,"is_disabled":false,"rental_uris":{"android":"levelo://app?vid=9fc6b39a-5532-40ac-8f58-975bced56a19","ios":"levelo://app?vid=9fc6b39a-5532-40ac-8f58-975bced56a19"},"vehicle_type_id":"4","last_reported":1751300019,"current_range_meters":8000,"station_id":"","pricing_plan_id":"cebpf4jnsgd1na2vs0mg"},{"bike_id":"d308c658-b19c-49c0-8014-5506ff26f69a","system_id":"levelo_inurba_marseille","lat":43.23131,"lon":5.40555,"is_reserved":false,"is_disabled":false,"rental_uris":{"android":"levelo://app?vid=d308c658-b19c-49c0-8014-5506ff26f69a","ios":"levelo://app?vid=d308c658-b19c-49c0-8014-5506ff26f69a"},"vehicle_type_id":"4","last_reported":1751300019,"current_range_meters":8000,"station_id":"","pricing_plan_id":"cebpf4jnsgd1na2vs0mg"},{"bike_id":"1bef6d45-2c49-4ec4-a230-2b0206a4a653","system_id":"levelo_inurba_marseille","lat":43.29009,"lon":5.35605,"is_reserved":false,"is_disabled":false,"rental_uris":{"android":"levelo://app?vid=1bef6d45-2c49-4ec4-a230-2b0206a4a653","ios":"levelo://app?vid=1bef6d45-2c49-4ec4-a230-2b0206a4a653"},"vehicle_type_id":"4","last_reported":1751300019,"current_range_meters":8000,"station_id":"ce4bhb92rcd13ifvqen0","pricing_plan_id":"cebpf4jnsgd1na2vs0mg"},{"bike_id":"9732b731-4e56-4d91-8f14-0c6262cdf328","system_id":"levelo_inurba_marseille","lat":43.27373,"lon":5.36257,"is_reserved":false,"is_disabled":false,"rental_uris":{"android":"levelo://app?vid=9732b731-4e56-4d91-8f14-0c6262cdf328","ios":"levelo://app?vid=9732b731-4e56-4d91-8f14-0c6262cdf328"},"vehicle_type_id":"4","last_reported":1751300019,"current_range_meters":8000,"station_id":"ce4bhbh2rcd13ifvqeo0","pricing_plan_id":"cebpf4jnsgd1na2vs0mg"},{"bike_id":"07dce2cd-fdd5-46bc-ba1f-6ebfa74ea8d8","system_id":"levelo_inurba_marseille","lat":43.248015,"lon":5.374547,"is_reserved":false,"is_disabled":false,"rental_uris":{"android":"levelo://app?vid=07dce2cd-fdd5-46bc-ba1f-6ebfa74ea8d8","ios":"levelo://app?vid=07dce2cd-fdd5-46bc-ba1f-6ebfa74ea8d8"},"vehicle_type_id":"4","last_reported":1751300019,"current_range_meters":8000,"station_id":"ce4bhgh2rcd13ifvqfb0","pricing_plan_id":"cebpf4jnsgd1na2vs0mg"},{"bike_id":"8c9df26e-e038-45cb-819f-a738666e1f80","system_id":"levelo_inurba_marseille","lat":43.31115,"lon":5.37778,"is_reserved":false,"is_disabled":false,"rental_uris":{"android":"levelo://app?vid=8c9df26e-e038-45cb-819f-a738666e1f80","ios":"levelo://app?vid=8c9df26e-e038-45cb-819f-a738666e1f80"},"vehicle_type_id":"4","last_reported":1751300019,"current_range_meters":8400,"station_id":"ce4bgt92rcd13ifvqcg0","pricing_plan_id":"cebpf4jnsgd1na2vs0mg"},{"bike_id":"2630b0d7-8518-44a1-b41d-4305f5c2b588","system_id":"levelo_inurba_marseille","lat":43.288553,"lon":5.393204,"is_reserved":false,"is_disabled":false,"rental_uris":{"android":"levelo://app?vid=2630b0d7-8518-44a1-b41d-4305f5c2b588","ios":"levelo://app?vid=2630b0d7-8518-44a1-b41d-4305f5c2b588"},"vehicle_type_id":"4","last_reported":1751300019,"current_range_meters":8400,"station_id":"ce4bh492rcd13ifvqdug","pricing_plan_id":"cebpf4jnsgd1na2vs0mg"},{"bike_id":"c24b6ed1-3f50-447a-9e18-b5c3d337785f","system_id":"levelo_inurba_marseille","lat":43.280757,"lon":5.39659,"is_reserved":false,"is_disabled":false,"rental_uris":{"android":"levelo://app?vid=c24b6ed1-3f50-447a-9e18-b5c3d337785f","ios":"levelo://app?vid=c24b6ed1-3f50-447a-9e18-b5c3d337785f"},"vehicle_type_id":"4","last_reported":1751300019,"current_range_meters":8400,"station_id":"ce4bho12rcd13ifvqh2g","pricing_plan_id":"cebpf4jnsgd1na2vs0mg"},{"bike_id":"c595d0e1-c778-4abe-9c79-a9dd74f54e27","system_id":"levelo_inurba_marseille","lat":43.2448,"lon":5.37216,"is_reserved":false,"is_disabled":false,"rental_uris":{"android":"levelo://app?vid=c595d0e1-c778-4abe-9c79-a9dd74f54e27","ios":"levelo://app?vid=c595d0e1-c778-4abe-9c79-a9dd74f54e27"},"vehicle_type_id":"4","last_reported":1751300019,"current_range_meters":8800,"station_id":"","pricing_plan_id":"cebpf4jnsgd1na2vs0mg"},{"bike_id":"971e0c25-120b-4116-b56a-c7863b5bacae","system_id":"levelo_inurba_marseille","lat":43.28272,"lon":5.35065,"is_reserved":false,"is_disabled":false,"rental_uris":{"android":"levelo://app?vid=971e0c25-120b-4116-b56a-c7863b5bacae","ios":"levelo://app?vid=971e0c25-120b-4116-b56a-c7863b5bacae"},"vehicle_type_id":"4","last_reported":1751300019,"current_range_meters":8800,"station_id":"ce4bhbp2rcd13ifvqerg","pricing_plan_id":"cebpf4jnsgd1na2vs0mg"},{"bike_id":"59a074fc-769e-4d5d-a6d4-002d8e573dd6","system_id":"levelo_inurba_marseille","lat":43.211788,"lon":5.35069,"is_reserved":false,"is_disabled":false,"rental_uris":{"android":"levelo://app?vid=59a074fc-769e-4d5d-a6d4-002d8e573dd6","ios":"levelo://app?vid=59a074fc-769e-4d5d-a6d4-002d8e573dd6"},"vehicle_type_id":"4","last_reported":1751300019,"current_range_meters":8800,"station_id":"st_cvj6sg6p6f1abm77japg","pricing_plan_id":"cebpf4jnsgd1na2vs0mg"},{"bike_id":"05d3d448-235e-4ac7-88df-050f15d5a616","system_id":"levelo_inurba_marseille","lat":43.27916,"lon":5.422263,"is_reserved":false,"is_disabled":false,"rental_uris":{"android":"levelo://app?vid=05d3d448-235e-4ac7-88df-050f15d5a616","ios":"levelo://app?vid=05d3d448-235e-4ac7-88df-050f15d5a616"},"vehicle_type_id":"4","last_reported":1751300019,"current_range_meters":9200,"station_id":"","pricing_plan_id":"cebpf4jnsgd1na2vs0mg"},{"bike_id":"3035be0e-7c3d-4f7d-a1cb-7a1af59e497b","system_id":"levelo_inurba_marseille","lat":43.29664,"lon":5.36002,"is_reserved":false,"is_disabled":false,"rental_uris":{"android":"levelo://app?vid=3035be0e-7c3d-4f7d-a1cb-7a1af59e497b","ios":"levelo://app?vid=3035be0e-7c3d-4f7d-a1cb-7a1af59e497b"},"vehicle_type_id":"4","last_reported":1751300019,"current_range_meters":9200,"station_id":"","pricing_plan_id":"cebpf4jnsgd1na2vs0mg"},{"bike_id":"b8526d51-20e3-443a-a3a6-055971e3a5b8","system_id":"levelo_inurba_marseille","lat":43.28942,"lon":5.36638,"is_reserved":false,"is_disabled":false,"rental_uris":{"android":"levelo://app?vid=b8526d51-20e3-443a-a3a6-055971e3a5b8","ios":"levelo://app?vid=b8526d51-20e3-443a-a3a6-055971e3a5b8"},"vehicle_type_id":"4","last_reported":1751300019,"current_range_meters":9200,"station_id":"ce4bhap2rcd13ifvqek0","pricing_plan_id":"cebpf4jnsgd1na2vs0mg"},{"bike_id":"ed9efb98-63fe-4f4b-b359-3d9b9ad7a2a0","system_id":"levelo_inurba_marseille","lat":43.28158,"lon":5.42642,"is_reserved":false,"is_disabled":false,"rental_uris":{"android":"levelo://app?vid=ed9efb98-63fe-4f4b-b359-3d9b9ad7a2a0","ios":"levelo://app?vid=ed9efb98-63fe-4f4b-b359-3d9b9ad7a2a0"},"vehicle_type_id":"4","last_reported":1751300019,"current_range_meters":9200,"station_id":"ce4bhnh2rcd13ifvqgug","pricing_plan_id":"cebpf4jnsgd1na2vs0mg"},{"bike_id":"120036e1-945c-4ddf-ba61-047361af53a6","system_id":"levelo_inurba_marseille","lat":43.21194,"lon":5.3509,"is_reserved":false,"is_disabled":false,"rental_uris":{"android":"levelo://app?vid=120036e1-945c-4ddf-ba61-047361af53a6","ios":"levelo://app?vid=120036e1-945c-4ddf-ba61-047361af53a6"},"vehicle_type_id":"4","last_reported":1751300019,"current_range_meters":9200,"station_id":"st_cvj6sg6p6f1abm77japg","pricing_plan_id":"cebpf4jnsgd1na2vs0mg"},{"bike_id":"8c17d133-39c7-4917-9f1e-5dea3f8e59e6","system_id":"levelo_inurba_marseille","lat":43.21199,"lon":5.35069,"is_reserved":false,"is_disabled":false,"rental_uris":{"android":"levelo://app?vid=8c17d133-39c7-4917-9f1e-5dea3f8e59e6","ios":"levelo://app?vid=8c17d133-39c7-4917-9f1e-5dea3f8e59e6"},"vehicle_type_id":"4","last_reported":1751300019,"current_range_meters":9200,"station_id":"st_cvj6sg6p6f1abm77japg","pricing_plan_id":"cebpf4jnsgd1na2vs0mg"},{"bike_id":"1af08e4d-dedc-478e-b829-39b3bcb06991","system_id":"levelo_inurba_marseille","lat":43.23206,"lon":5.35543,"is_reserved":false,"is_disabled":false,"rental_uris":{"android":"levelo://app?vid=1af08e4d-dedc-478e-b829-39b3bcb06991","ios":"levelo://app?vid=1af08e4d-dedc-478e-b829-39b3bcb06991"},"vehicle_type_id":"4","last_reported":1751300019,"current_range_meters":9600,"station_id":"ce4bhu92rcd13ifvqi70","pricing_plan_id":"cebpf4jnsgd1na2vs0mg"},{"bike_id":"019ed5af-0819-4999-8810-9783988062ce","system_id":"levelo_inurba_marseille","lat":43.2836,"lon":5.38635,"is_reserved":false,"is_disabled":false,"rental_uris":{"android":"levelo://app?vid=019ed5af-0819-4999-8810-9783988062ce","ios":"levelo://app?vid=019ed5af-0819-4999-8810-9783988062ce"},"vehicle_type_id":"4","last_reported":1751300019,"current_range_meters":10000,"station_id":"ce4bh492rcd13ifvqdvg","pricing_plan_id":"cebpf4jnsgd1na2vs0mg"},{"bike_id":"04b0d27a-6e47-4673-b011-9eac4a9fd16b","system_id":"levelo_inurba_marseille","lat":43.28614,"lon":5.35107,"is_reserved":false,"is_disabled":false,"rental_uris":{"android":"levelo://app?vid=04b0d27a-6e47-4673-b011-9eac4a9fd16b","ios":"levelo://app?vid=04b0d27a-6e47-4673-b011-9eac4a9fd16b"},"vehicle_type_id":"4","last_reported":1751300019,"current_range_meters":10000,"station_id":"ce4bhch2rcd13ifvqeug","pricing_plan_id":"cebpf4jnsgd1na2vs0mg"},{"bike_id":"2c8d9a15-40e4-443b-8826-9d8d7e3bd7d6","system_id":"levelo_inurba_marseille","lat":43.28618,"lon":5.35106,"is_reserved":false,"is_disabled":false,"rental_uris":{"android":"levelo://app?vid=2c8d9a15-40e4-443b-8826-9d8d7e3bd7d6","ios":"levelo://app?vid=2c8d9a15-40e4-443b-8826-9d8d7e3bd7d6"},"vehicle_type_id":"4","last_reported":1751300019,"current_range_meters":10000,"station_id":"ce4bhch2rcd13ifvqeug","pricing_plan_id":"cebpf4jnsgd1na2vs0mg"},{"bike_id":"b05733ac-e333-4bae-a385-6c30ebf06450","system_id":"levelo_inurba_marseille","lat":43.27506,"lon":5.42456,"is_reserved":false,"is_disabled":false,"rental_uris":{"android":"levelo://app?vid=b05733ac-e333-4bae-a385-6c30ebf06450","ios":"levelo://app?vid=b05733ac-e333-4bae-a385-6c30ebf06450"},"vehicle_type_id":"4","last_reported":1751300019,"current_range_meters":10000,"station_id":"ce4bhn92rcd13ifvqgrg","pricing_plan_id":"cebpf4jnsgd1na2vs0mg"},{"bike_id":"7cd73daf-6410-4b72-a872-e5224e9d29ff","system_id":"levelo_inurba_marseille","lat":43.274032,"lon":5.411628,"is_reserved":false,"is_disabled":false,"rental_uris":{"android":"levelo://app?vid=7cd73daf-6410-4b72-a872-e5224e9d29ff","ios":"levelo://app?vid=7cd73daf-6410-4b72-a872-e5224e9d29ff"},"vehicle_type_id":"4","last_reported":1751300019,"current_range_meters":10800,"station_id":"","pricing_plan_id":"cebpf4jnsgd1na2vs0mg"},{"bike_id":"6b6a646f-e1ae-4138-9055-a2e578c870cb","system_id":"levelo_inurba_marseille","lat":43.21781,"lon":5.3462,"is_reserved":false,"is_disabled":false,"rental_uris":{"android":"levelo://app?vid=6b6a646f-e1ae-4138-9055-a2e578c870cb","ios":"levelo://app?vid=6b6a646f-e1ae-4138-9055-a2e578c870cb"},"vehicle_type_id":"4","last_reported":1751300019,"current_range_meters":10800,"station_id":"","pricing_plan_id":"cebpf4jnsgd1na2vs0mg"},{"bike_id":"b05ac08d-847b-4f20-ac36-038a0d69d167","system_id":"levelo_inurba_marseille","lat":43.28137,"lon":5.35874,"is_reserved":false,"is_disabled":false,"rental_uris":{"android":"levelo://app?vid=b05ac08d-847b-4f20-ac36-038a0d69d167","ios":"levelo://app?vid=b05ac08d-847b-4f20-ac36-038a0d69d167"},"vehicle_type_id":"4","last_reported":1751300019,"current_range_meters":10800,"station_id":"","pricing_plan_id":"cebpf4jnsgd1na2vs0mg"},{"bike_id":"769168bf-90ed-42c5-900c-06b5152373d1","system_id":"levelo_inurba_marseille","lat":43.30255,"lon":5.40058,"is_reserved":false,"is_disabled":false,"rental_uris":{"android":"levelo://app?vid=769168bf-90ed-42c5-900c-06b5152373d1","ios":"levelo://app?vid=769168bf-90ed-42c5-900c-06b5152373d1"},"vehicle_type_id":"4","last_reported":1751300019,"current_range_meters":10800,"station_id":"ce4bgvh2rcd13ifvqcs0","pricing_plan_id":"cebpf4jnsgd1na2vs0mg"},{"bike_id":"5cbc56ed-aaea-468e-9db1-c7485c5d7e92","system_id":"levelo_inurba_marseille","lat":43.28699,"lon":5.37384,"is_reserved":false,"is_disabled":false,"rental_uris":{"android":"levelo://app?vid=5cbc56ed-aaea-468e-9db1-c7485c5d7e92","ios":"levelo://app?vid=5cbc56ed-aaea-468e-9db1-c7485c5d7e92"},"vehicle_type_id":"4","last_reported":1751300019,"current_range_meters":10800,"station_id":"ce4bh3p2rcd13ifvqdq0","pricing_plan_id":"cebpf4jnsgd1na2vs0mg"},{"bike_id":"53b838d2-2f5f-49af-b405-80606f70f4b4","system_id":"levelo_inurba_marseille","lat":43.27991,"lon":5.41659,"is_reserved":false,"is_disabled":false,"rental_uris":{"android":"levelo://app?vid=53b838d2-2f5f-49af-b405-80606f70f4b4","ios":"levelo://app?vid=53b838d2-2f5f-49af-b405-80606f70f4b4"},"vehicle_type_id":"4","last_reported":1751300019,"current_range_meters":10800,"station_id":"ce4bho12rcd13ifvqh1g","pricing_plan_id":"cebpf4jnsgd1na2vs0mg"},{"bike_id":"478096db-4dcc-493c-934e-2d07de5a0811","system_id":"levelo_inurba_marseille","lat":43.28075,"lon":5.39661,"is_reserved":false,"is_disabled":false,"rental_uris":{"android":"levelo://app?vid=478096db-4dcc-493c-934e-2d07de5a0811","ios":"levelo://app?vid=478096db-4dcc-493c-934e-2d07de5a0811"},"vehicle_type_id":"4","last_reported":1751300019,"current_range_meters":10800,"station_id":"ce4bho12rcd13ifvqh2g","pricing_plan_id":"cebpf4jnsgd1na2vs0mg"},{"bike_id":"0bd7052c-bca1-4dac-bc7d-20a3b3b1a623","system_id":"levelo_inurba_marseille","lat":43.23197,"lon":5.35558,"is_reserved":false,"is_disabled":false,"rental_uris":{"android":"levelo://app?vid=0bd7052c-bca1-4dac-bc7d-20a3b3b1a623","ios":"levelo://app?vid=0bd7052c-bca1-4dac-bc7d-20a3b3b1a623"},"vehicle_type_id":"4","last_reported":1751300019,"current_range_meters":10800,"station_id":"ce4bhu92rcd13ifvqi70","pricing_plan_id":"cebpf4jnsgd1na2vs0mg"},{"bike_id":"786f230b-598f-4e58-bbc2-1e0a419e9de2","system_id":"levelo_inurba_marseille","lat":43.264706,"lon":5.392049,"is_reserved":false,"is_disabled":false,"rental_uris":{"android":"levelo://app?vid=786f230b-598f-4e58-bbc2-1e0a419e9de2","ios":"levelo://app?vid=786f230b-598f-4e58-bbc2-1e0a419e9de2"},"vehicle_type_id":"4","last_reported":1751300019,"current_range_meters":11200,"station_id":"","pricing_plan_id":"cebpf4jnsgd1na2vs0mg"},{"bike_id":"7dc148e5-fd7e-4677-bce3-55c94c6ee080","system_id":"levelo_inurba_marseille","lat":43.30666,"lon":5.40935,"is_reserved":false,"is_disabled":false,"rental_uris":{"android":"levelo://app?vid=7dc148e5-fd7e-4677-bce3-55c94c6ee080","ios":"levelo://app?vid=7dc148e5-fd7e-4677-bce3-55c94c6ee080"},"vehicle_type_id":"4","last_reported":1751300019,"current_range_meters":11200,"station_id":"","pricing_plan_id":"cebpf4jnsgd1na2vs0mg"},{"bike_id":"f5c16f07-bc6f-4121-91a7-5ad90eec4f34","system_id":"levelo_inurba_marseille","lat":43.31238,"lon":5.37324,"is_reserved":false,"is_disabled":false,"rental_uris":{"android":"levelo://app?vid=f5c16f07-bc6f-4121-91a7-5ad90eec4f34","ios":"levelo://app?vid=f5c16f07-bc6f-4121-91a7-5ad90eec4f34"},"vehicle_type_id":"4","last_reported":1751300019,"current_range_meters":11200,"station_id":"","pricing_plan_id":"cebpf4jnsgd1na2vs0mg"},{"bike_id":"d925d016-df19-4391-be70-409a54b9cc08","system_id":"levelo_inurba_marseille","lat":43.298648,"lon":5.397294,"is_reserved":false,"is_disabled":false,"rental_uris":{"android":"levelo://app?vid=d925d016-df19-4391-be70-409a54b9cc08","ios":"levelo://app?vid=d925d016-df19-4391-be70-409a54b9cc08"},"vehicle_type_id":"4","last_reported":1751300019,"current_range_meters":11200,"station_id":"ce4bh0h2rcd13ifvqd50","pricing_plan_id":"cebpf4jnsgd1na2vs0mg"},{"bike_id":"12ca1b36-41e1-4bce-8609-f05b0e1ad494","system_id":"levelo_inurba_marseille","lat":43.2621,"lon":5.3743,"is_reserved":false,"is_disabled":false,"rental_uris":{"android":"levelo://app?vid=12ca1b36-41e1-4bce-8609-f05b0e1ad494","ios":"levelo://app?vid=12ca1b36-41e1-4bce-8609-f05b0e1ad494"},"vehicle_type_id":"4","last_reported":1751300019,"current_range_meters":11200,"station_id":"ce4bhgp2rcd13ifvqfc0","pricing_plan_id":"cebpf4jnsgd1na2vs0mg"},{"bike_id":"b8a2518d-c13d-4fe2-985a-6fdb1711b7b7","system_id":"levelo_inurba_marseille","lat":43.2293,"lon":5.35375,"is_reserved":false,"is_disabled":false,"rental_uris":{"android":"levelo://app?vid=b8a2518d-c13d-4fe2-985a-6fdb1711b7b7","ios":"levelo://app?vid=b8a2518d-c13d-4fe2-985a-6fdb1711b7b7"},"vehicle_type_id":"4","last_reported":1751300019,"current_range_meters":11200,"station_id":"cpo3532slgdg3j2ikp40","pricing_plan_id":"cebpf4jnsgd1na2vs0mg"},{"bike_id":"e245ea00-c68a-475b-a902-5a5d4d3b2940","system_id":"levelo_inurba_marseille","lat":43.21194,"lon":5.35074,"is_reserved":false,"is_disabled":false,"rental_uris":{"android":"levelo://app?vid=e245ea00-c68a-475b-a902-5a5d4d3b2940","ios":"levelo://app?vid=e245ea00-c68a-475b-a902-5a5d4d3b2940"},"vehicle_type_id":"4","last_reported":1751300019,"current_range_meters":11200,"station_id":"st_cvj6sg6p6f1abm77japg","pricing_plan_id":"cebpf4jnsgd1na2vs0mg"},{"bike_id":"813ea3bb-2d9b-485f-b30b-894fd9a7283d","system_id":"levelo_inurba_marseille","lat":43.3112,"lon":5.37772,"is_reserved":false,"is_disabled":false,"rental_uris":{"android":"levelo://app?vid=813ea3bb-2d9b-485f-b30b-894fd9a7283d","ios":"levelo://app?vid=813ea3bb-2d9b-485f-b30b-894fd9a7283d"},"vehicle_type_id":"4","last_reported":1751300019,"current_range_meters":11600,"station_id":"ce4bgt92rcd13ifvqcg0","pricing_plan_id":"cebpf4jnsgd1na2vs0mg"},{"bike_id":"0ea0f3f1-48ca-41c5-9c5c-084ecdcf3076","system_id":"levelo_inurba_marseille","lat":43.28266,"lon":5.35081,"is_reserved":false,"is_disabled":false,"rental_uris":{"android":"levelo://app?vid=0ea0f3f1-48ca-41c5-9c5c-084ecdcf3076","ios":"levelo://app?vid=0ea0f3f1-48ca-41c5-9c5c-084ecdcf3076"},"vehicle_type_id":"4","last_reported":1751300019,"current_range_meters":11600,"station_id":"ce4bhbp2rcd13ifvqerg","pricing_plan_id":"cebpf4jnsgd1na2vs0mg"},{"bike_id":"96f0e0de-6b79-4c93-8dc3-23c2f9b2c100","system_id":"levelo_inurba_marseille","lat":43.25492,"lon":5.3765,"is_reserved":false,"is_disabled":false,"rental_uris":{"android":"levelo://app?vid=96f0e0de-6b79-4c93-8dc3-23c2f9b2c100","ios":"levelo://app?vid=96f0e0de-6b79-4c93-8dc3-23c2f9b2c100"},"vehicle_type_id":"4","last_reported":1751300019,"current_range_meters":11600,"station_id":"ce4bhh12rcd13ifvqff0","pricing_plan_id":"cebpf4jnsgd1na2vs0mg"},{"bike_id":"cc2072bb-8d8a-4b05-afe9-dea26f8d03be","system_id":"levelo_inurba_marseille","lat":43.287082,"lon":5.373743,"is_reserved":false,"is_disabled":false,"rental_uris":{"android":"levelo://app?vid=cc2072bb-8d8a-4b05-afe9-dea26f8d03be","ios":"levelo://app?vid=cc2072bb-8d8a-4b05-afe9-dea26f8d03be"},"vehicle_type_id":"4","last_reported":1751300019,"current_range_meters":12000,"station_id":"ce4bh3p2rcd13ifvqdq0","pricing_plan_id":"cebpf4jnsgd1na2vs0mg"},{"bike_id":"b47d542d-2bd8-495c-b369-561cbdbf90b2","system_id":"levelo_inurba_marseille","lat":43.26193,"lon":5.37445,"is_reserved":false,"is_disabled":false,"rental_uris":{"android":"levelo://app?vid=b47d542d-2bd8-495c-b369-561cbdbf90b2","ios":"levelo://app?vid=b47d542d-2bd8-495c-b369-561cbdbf90b2"},"vehicle_type_id":"4","last_reported":1751300019,"current_range_meters":12000,"station_id":"ce4bhgp2rcd13ifvqfc0","pricing_plan_id":"cebpf4jnsgd1na2vs0mg"},{"bike_id":"52d06d36-63d6-44ad-a203-ba44370943b6","system_id":"levelo_inurba_marseille","lat":43.23181,"lon":5.3998,"is_reserved":false,"is_disabled":false,"rental_uris":{"android":"levelo://app?vid=52d06d36-63d6-44ad-a203-ba44370943b6","ios":"levelo://app?vid=52d06d36-63d6-44ad-a203-ba44370943b6"},"vehicle_type_id":"4","last_reported":1751300019,"current_range_meters":12000,"station_id":"ce4bhn12rcd13ifvqgqg","pricing_plan_id":"cebpf4jnsgd1na2vs0mg"},{"bike_id":"04d1b9e5-555c-44b9-b6e9-b5658c384e67","system_id":"levelo_inurba_marseille","lat":43.31717,"lon":5.42394,"is_reserved":false,"is_disabled":false,"rental_uris":{"android":"levelo://app?vid=04d1b9e5-555c-44b9-b6e9-b5658c384e67","ios":"levelo://app?vid=04d1b9e5-555c-44b9-b6e9-b5658c384e67"},"vehicle_type_id":"4","last_reported":1751300019,"current_range_meters":12000,"station_id":"ce4bhp92rcd13ifvqhbg","pricing_plan_id":"cebpf4jnsgd1na2vs0mg"},{"bike_id":"cb500ca7-1f8c-459d-9d0f-3400b4a234a7","system_id":"levelo_inurba_marseille","lat":43.26214,"lon":5.37448,"is_reserved":false,"is_disabled":false,"rental_uris":{"android":"levelo://app?vid=cb500ca7-1f8c-459d-9d0f-3400b4a234a7","ios":"levelo://app?vid=cb500ca7-1f8c-459d-9d0f-3400b4a234a7"},"vehicle_type_id":"4","last_reported":1751300019,"current_range_meters":12400,"station_id":"ce4bhgp2rcd13ifvqfc0","pricing_plan_id":"cebpf4jnsgd1na2vs0mg"},{"bike_id":"ea3d6cab-de34-4d69-9c23-d3e2b6233884","system_id":"levelo_inurba_marseille","lat":43.26223,"lon":5.37451,"is_reserved":false,"is_disabled":false,"rental_uris":{"android":"levelo://app?vid=ea3d6cab-de34-4d69-9c23-d3e2b6233884","ios":"levelo://app?vid=ea3d6cab-de34-4d69-9c23-d3e2b6233884"},"vehicle_type_id":"4","last_reported":1751300019,"current_range_meters":12400,"station_id":"ce4bhgp2rcd13ifvqfc0","pricing_plan_id":"cebpf4jnsgd1na2vs0mg"},{"bike_id":"5f2ecf48-70e0-44d0-ad93-5c8120e56be8","system_id":"levelo_inurba_marseille","lat":43.24663,"lon":5.38165,"is_reserved":false,"is_disabled":false,"rental_uris":{"android":"levelo://app?vid=5f2ecf48-70e0-44d0-ad93-5c8120e56be8","ios":"levelo://app?vid=5f2ecf48-70e0-44d0-ad93-5c8120e56be8"},"vehicle_type_id":"4","last_reported":1751300019,"current_range_meters":12400,"station_id":"ce4bhih2rcd13ifvqfr0","pricing_plan_id":"cebpf4jnsgd1na2vs0mg"},{"bike_id":"ceb818d5-6a0e-45de-8d40-c9c1b19d5e60","system_id":"levelo_inurba_marseille","lat":43.3237,"lon":5.36764,"is_reserved":false,"is_disabled":false,"rental_uris":{"android":"levelo://app?vid=ceb818d5-6a0e-45de-8d40-c9c1b19d5e60","ios":"levelo://app?vid=ceb818d5-6a0e-45de-8d40-c9c1b19d5e60"},"vehicle_type_id":"4","last_reported":1751300019,"current_range_meters":12400,"station_id":"ce4bhsh2rcd13ifvqi2g","pricing_plan_id":"cebpf4jnsgd1na2vs0mg"},{"bike_id":"d97fb146-df52-454f-9826-e3f143dab8fc","system_id":"levelo_inurba_marseille","lat":43.21194,"lon":5.3508,"is_reserved":false,"is_disabled":false,"rental_uris":{"android":"levelo://app?vid=d97fb146-df52-454f-9826-e3f143dab8fc","ios":"levelo://app?vid=d97fb146-df52-454f-9826-e3f143dab8fc"},"vehicle_type_id":"4","last_reported":1751300019,"current_range_meters":12400,"station_id":"st_cvj6sg6p6f1abm77japg","pricing_plan_id":"cebpf4jnsgd1na2vs0mg"},{"bike_id":"3899f65c-c265-4cb3-91cc-a75b8d1c2f10","system_id":"levelo_inurba_marseille","lat":43.297827,"lon":5.37097,"is_reserved":false,"is_disabled":false,"rental_uris":{"android":"levelo://app?vid=3899f65c-c265-4cb3-91cc-a75b8d1c2f10","ios":"levelo://app?vid=3899f65c-c265-4cb3-91cc-a75b8d1c2f10"},"vehicle_type_id":"4","last_reported":1751300019,"current_range_meters":12800,"station_id":"ce4bgop2rcd13ifvqc1g","pricing_plan_id":"cebpf4jnsgd1na2vs0mg"},{"bike_id":"8ead6618-d506-419b-bf48-8503495a13e0","system_id":"levelo_inurba_marseille","lat":43.30426,"lon":5.39745,"is_reserved":false,"is_disabled":false,"rental_uris":{"android":"levelo://app?vid=8ead6618-d506-419b-bf48-8503495a13e0","ios":"levelo://app?vid=8ead6618-d506-419b-bf48-8503495a13e0"},"vehicle_type_id":"4","last_reported":1751300019,"current_range_meters":12800,"station_id":"ce4bh092rcd13ifvqd20","pricing_plan_id":"cebpf4jnsgd1na2vs0mg"},{"bike_id":"e3740c9a-4046-4a60-bf65-1bd67e3fe120","system_id":"levelo_inurba_marseille","lat":43.27372,"lon":5.3626,"is_reserved":false,"is_disabled":false,"rental_uris":{"android":"levelo://app?vid=e3740c9a-4046-4a60-bf65-1bd67e3fe120","ios":"levelo://app?vid=e3740c9a-4046-4a60-bf65-1bd67e3fe120"},"vehicle_type_id":"4","last_reported":1751300019,"current_range_meters":12800,"station_id":"ce4bhbh2rcd13ifvqeo0","pricing_plan_id":"cebpf4jnsgd1na2vs0mg"},{"bike_id":"de108592-346c-467b-9fda-e07e847324be","system_id":"levelo_inurba_marseille","lat":43.31993,"lon":5.38162,"is_reserved":false,"is_disabled":false,"rental_uris":{"android":"levelo://app?vid=de108592-346c-467b-9fda-e07e847324be","ios":"levelo://app?vid=de108592-346c-467b-9fda-e07e847324be"},"vehicle_type_id":"4","last_reported":1751300019,"current_range_meters":12800,"station_id":"ce4bhr12rcd13ifvqhpg","pricing_plan_id":"cebpf4jnsgd1na2vs0mg"},{"bike_id":"3dd281be-cdaa-48b3-a4c3-9f2f7c547cfc","system_id":"levelo_inurba_marseille","lat":43.28462,"lon":5.35882,"is_reserved":false,"is_disabled":false,"rental_uris":{"android":"levelo://app?vid=3dd281be-cdaa-48b3-a4c3-9f2f7c547cfc","ios":"levelo://app?vid=3dd281be-cdaa-48b3-a4c3-9f2f7c547cfc"},"vehicle_type_id":"4","last_reported":1751300019,"current_range_meters":13600,"station_id":"ce4bhah2rcd13ifvqei0","pricing_plan_id":"cebpf4jnsgd1na2vs0mg"},{"bike_id":"1b3128b9-ac7f-477b-98a5-c0ec05aca513","system_id":"levelo_inurba_marseille","lat":43.27376,"lon":5.36261,"is_reserved":false,"is_disabled":false,"rental_uris":{"android":"levelo://app?vid=1b3128b9-ac7f-477b-98a5-c0ec05aca513","ios":"levelo://app?vid=1b3128b9-ac7f-477b-98a5-c0ec05aca513"},"vehicle_type_id":"4","last_reported":1751300019,"current_range_meters":13600,"station_id":"ce4bhbh2rcd13ifvqeo0","pricing_plan_id":"cebpf4jnsgd1na2vs0mg"},{"bike_id":"a038fb56-4c0e-4b94-ba69-5870a8870465","system_id":"levelo_inurba_marseille","lat":43.28615,"lon":5.35103,"is_reserved":false,"is_disabled":false,"rental_uris":{"android":"levelo://app?vid=a038fb56-4c0e-4b94-ba69-5870a8870465","ios":"levelo://app?vid=a038fb56-4c0e-4b94-ba69-5870a8870465"},"vehicle_type_id":"4","last_reported":1751300019,"current_range_meters":13600,"station_id":"ce4bhch2rcd13ifvqeug","pricing_plan_id":"cebpf4jnsgd1na2vs0mg"},{"bike_id":"07ddf3f2-7e29-480c-9052-31ba82bd9b41","system_id":"levelo_inurba_marseille","lat":43.262098,"lon":5.374395,"is_reserved":false,"is_disabled":false,"rental_uris":{"android":"levelo://app?vid=07ddf3f2-7e29-480c-9052-31ba82bd9b41","ios":"levelo://app?vid=07ddf3f2-7e29-480c-9052-31ba82bd9b41"},"vehicle_type_id":"4","last_reported":1751300019,"current_range_meters":13600,"station_id":"ce4bhgp2rcd13ifvqfc0","pricing_plan_id":"cebpf4jnsgd1na2vs0mg"},{"bike_id":"7300cda5-fc4d-4410-a39e-4ca64694a6fa","system_id":"levelo_inurba_marseille","lat":43.26931,"lon":5.38917,"is_reserved":false,"is_disabled":false,"rental_uris":{"android":"levelo://app?vid=7300cda5-fc4d-4410-a39e-4ca64694a6fa","ios":"levelo://app?vid=7300cda5-fc4d-4410-a39e-4ca64694a6fa"},"vehicle_type_id":"4","last_reported":1751300019,"current_range_meters":13600,"station_id":"ce4bhhh2rcd13ifvqfl0","pricing_plan_id":"cebpf4jnsgd1na2vs0mg"},{"bike_id":"c13c93ac-6b62-443c-9e36-caf61b27325a","system_id":"levelo_inurba_marseille","lat":43.21182,"lon":5.35091,"is_reserved":false,"is_disabled":false,"rental_uris":{"android":"levelo://app?vid=c13c93ac-6b62-443c-9e36-caf61b27325a","ios":"levelo://app?vid=c13c93ac-6b62-443c-9e36-caf61b27325a"},"vehicle_type_id":"4","last_reported":1751300019,"current_range_meters":13600,"station_id":"st_cvj6sg6p6f1abm77japg","pricing_plan_id":"cebpf4jnsgd1na2vs0mg"},{"bike_id":"07960eb1-de65-4ab0-945c-4f9428a687b4","system_id":"levelo_inurba_marseille","lat":43.29247,"lon":5.40903,"is_reserved":false,"is_disabled":false,"rental_uris":{"android":"levelo://app?vid=07960eb1-de65-4ab0-945c-4f9428a687b4","ios":"levelo://app?vid=07960eb1-de65-4ab0-945c-4f9428a687b4"},"vehicle_type_id":"4","last_reported":1751300019,"current_range_meters":14000,"station_id":"ce4bh192rcd13ifvqdc0","pricing_plan_id":"cebpf4jnsgd1na2vs0mg"},{"bike_id":"dbdc2b95-31b2-4216-a5ed-61b477fc1500","system_id":"levelo_inurba_marseille","lat":43.29538,"lon":5.39389,"is_reserved":false,"is_disabled":false,"rental_uris":{"android":"levelo://app?vid=dbdc2b95-31b2-4216-a5ed-61b477fc1500","ios":"levelo://app?vid=dbdc2b95-31b2-4216-a5ed-61b477fc1500"},"vehicle_type_id":"4","last_reported":1751300019,"current_range_meters":14000,"station_id":"ce4bh292rcd13ifvqdf0","pricing_plan_id":"cebpf4jnsgd1na2vs0mg"},{"bike_id":"b1c00bad-47a5-4274-b6f4-3455e2141ec0","system_id":"levelo_inurba_marseille","lat":43.28613,"lon":5.35106,"is_reserved":false,"is_disabled":false,"rental_uris":{"android":"levelo://app?vid=b1c00bad-47a5-4274-b6f4-3455e2141ec0","ios":"levelo://app?vid=b1c00bad-47a5-4274-b6f4-3455e2141ec0"},"vehicle_type_id":"4","last_reported":1751300019,"current_range_meters":14000,"station_id":"ce4bhch2rcd13ifvqeug","pricing_plan_id":"cebpf4jnsgd1na2vs0mg"},{"bike_id":"96e785d3-0c2a-4bec-b011-c91b6e4e90c3","system_id":"levelo_inurba_marseille","lat":43.26209,"lon":5.37438,"is_reserved":false,"is_disabled":false,"rental_uris":{"android":"levelo://app?vid=96e785d3-0c2a-4bec-b011-c91b6e4e90c3","ios":"levelo://app?vid=96e785d3-0c2a-4bec-b011-c91b6e4e90c3"},"vehicle_type_id":"4","last_reported":1751300019,"current_range_meters":14000,"station_id":"ce4bhgp2rcd13ifvqfc0","pricing_plan_id":"cebpf4jnsgd1na2vs0mg"},{"bike_id":"75ef9225-60a0-4b65-a9a2-605c1cea526a","system_id":"levelo_inurba_marseille","lat":43.25117,"lon":5.40317,"is_reserved":false,"is_disabled":false,"rental_uris":{"android":"levelo://app?vid=75ef9225-60a0-4b65-a9a2-605c1cea526a","ios":"levelo://app?vid=75ef9225-60a0-4b65-a9a2-605c1cea526a"},"vehicle_type_id":"4","last_reported":1751300019,"current_range_meters":14000,"station_id":"ce4bhlh2rcd13ifvqgig","pricing_plan_id":"cebpf4jnsgd1na2vs0mg"},{"bike_id":"58bd3f83-8d43-432e-a389-948938190aea","system_id":"levelo_inurba_marseille","lat":43.27496,"lon":5.42445,"is_reserved":false,"is_disabled":false,"rental_uris":{"android":"levelo://app?vid=58bd3f83-8d43-432e-a389-948938190aea","ios":"levelo://app?vid=58bd3f83-8d43-432e-a389-948938190aea"},"vehicle_type_id":"4","last_reported":1751300019,"current_range_meters":14000,"station_id":"ce4bhn92rcd13ifvqgrg","pricing_plan_id":"cebpf4jnsgd1na2vs0mg"},{"bike_id":"6b04a8db-f012-4ea9-88f5-d59ff3f24fd9","system_id":"levelo_inurba_marseille","lat":43.299051,"lon":5.436666,"is_reserved":false,"is_disabled":false,"rental_uris":{"android":"levelo://app?vid=6b04a8db-f012-4ea9-88f5-d59ff3f24fd9","ios":"levelo://app?vid=6b04a8db-f012-4ea9-88f5-d59ff3f24fd9"},"vehicle_type_id":"4","last_reported":1751300019,"current_range_meters":14000,"station_id":"ce4bhpp2rcd13ifvqhfg","pricing_plan_id":"cebpf4jnsgd1na2vs0mg"},{"bike_id":"7f447ca4-cf9e-4a32-ba7c-0791c050c9ca","system_id":"levelo_inurba_marseille","lat":43.246612,"lon":5.381611,"is_reserved":false,"is_disabled":false,"rental_uris":{"android":"levelo://app?vid=7f447ca4-cf9e-4a32-ba7c-0791c050c9ca","ios":"levelo://app?vid=7f447ca4-cf9e-4a32-ba7c-0791c050c9ca"},"vehicle_type_id":"4","last_reported":1751300019,"current_range_meters":14400,"station_id":"ce4bhih2rcd13ifvqfr0","pricing_plan_id":"cebpf4jnsgd1na2vs0mg"},{"bike_id":"3f4fd4f1-c5eb-4fc5-9efb-4d98d5a57d4d","system_id":"levelo_inurba_marseille","lat":43.23176,"lon":5.39986,"is_reserved":false,"is_disabled":false,"rental_uris":{"android":"levelo://app?vid=3f4fd4f1-c5eb-4fc5-9efb-4d98d5a57d4d","ios":"levelo://app?vid=3f4fd4f1-c5eb-4fc5-9efb-4d98d5a57d4d"},"vehicle_type_id":"4","last_reported":1751300019,"current_range_meters":14400,"station_id":"ce4bhn12rcd13ifvqgqg","pricing_plan_id":"cebpf4jnsgd1na2vs0mg"},{"bike_id":"4e47abe4-6598-4756-807d-26ba558e3c39","system_id":"levelo_inurba_marseille","lat":43.29904,"lon":5.43673,"is_reserved":false,"is_disabled":false,"rental_uris":{"android":"levelo://app?vid=4e47abe4-6598-4756-807d-26ba558e3c39","ios":"levelo://app?vid=4e47abe4-6598-4756-807d-26ba558e3c39"},"vehicle_type_id":"4","last_reported":1751300019,"current_range_meters":14400,"station_id":"ce4bhpp2rcd13ifvqhfg","pricing_plan_id":"cebpf4jnsgd1na2vs0mg"},{"bike_id":"d6827940-fa2c-4f70-afe4-6cec23966e75","system_id":"levelo_inurba_marseille","lat":43.31271,"lon":5.40164,"is_reserved":false,"is_disabled":false,"rental_uris":{"android":"levelo://app?vid=d6827940-fa2c-4f70-afe4-6cec23966e75","ios":"levelo://app?vid=d6827940-fa2c-4f70-afe4-6cec23966e75"},"vehicle_type_id":"4","last_reported":1751300019,"current_range_meters":14800,"station_id":"ce4bh092rcd13ifvqd30","pricing_plan_id":"cebpf4jnsgd1na2vs0mg"},{"bike_id":"5d96a96c-871e-41b5-b662-f1cf5c07696a","system_id":"levelo_inurba_marseille","lat":43.28267,"lon":5.35072,"is_reserved":false,"is_disabled":false,"rental_uris":{"android":"levelo://app?vid=5d96a96c-871e-41b5-b662-f1cf5c07696a","ios":"levelo://app?vid=5d96a96c-871e-41b5-b662-f1cf5c07696a"},"vehicle_type_id":"4","last_reported":1751300019,"current_range_meters":14800,"station_id":"ce4bhbp2rcd13ifvqerg","pricing_plan_id":"cebpf4jnsgd1na2vs0mg"},{"bike_id":"19986930-0efa-460e-ac63-59cb48628f9e","system_id":"levelo_inurba_marseille","lat":43.29964,"lon":5.41322,"is_reserved":false,"is_disabled":false,"rental_uris":{"android":"levelo://app?vid=19986930-0efa-460e-ac63-59cb48628f9e","ios":"levelo://app?vid=19986930-0efa-460e-ac63-59cb48628f9e"},"vehicle_type_id":"4","last_reported":1751300019,"current_range_meters":14800,"station_id":"ce4bhp12rcd13ifvqh9g","pricing_plan_id":"cebpf4jnsgd1na2vs0mg"},{"bike_id":"aad466d4-9058-4038-a189-895fae6f1c28","system_id":"levelo_inurba_marseille","lat":43.212153,"lon":5.350663,"is_reserved":false,"is_disabled":false,"rental_uris":{"android":"levelo://app?vid=aad466d4-9058-4038-a189-895fae6f1c28","ios":"levelo://app?vid=aad466d4-9058-4038-a189-895fae6f1c28"},"vehicle_type_id":"4","last_reported":1751300019,"current_range_meters":14800,"station_id":"st_cvj6sg6p6f1abm77japg","pricing_plan_id":"cebpf4jnsgd1na2vs0mg"},{"bike_id":"d8facb10-b967-4a32-9b5c-8cfed4bbd05b","system_id":"levelo_inurba_marseille","lat":43.321132,"lon":5.367714,"is_reserved":false,"is_disabled":false,"rental_uris":{"android":"levelo://app?vid=d8facb10-b967-4a32-9b5c-8cfed4bbd05b","ios":"levelo://app?vid=d8facb10-b967-4a32-9b5c-8cfed4bbd05b"},"vehicle_type_id":"4","last_reported":1751300019,"current_range_meters":15200,"station_id":"ce4bhrh2rcd13ifvqhug","pricing_plan_id":"cebpf4jnsgd1na2vs0mg"},{"bike_id":"4f97e136-2006-43b5-84b8-8ce28f4647e9","system_id":"levelo_inurba_marseille","lat":43.211911,"lon":5.350685,"is_reserved":false,"is_disabled":false,"rental_uris":{"android":"levelo://app?vid=4f97e136-2006-43b5-84b8-8ce28f4647e9","ios":"levelo://app?vid=4f97e136-2006-43b5-84b8-8ce28f4647e9"},"vehicle_type_id":"4","last_reported":1751300019,"current_range_meters":15200,"station_id":"st_cvj6sg6p6f1abm77japg","pricing_plan_id":"cebpf4jnsgd1na2vs0mg"},{"bike_id":"8ceb2860-ca09-420a-8aab-fcf0c529a0d3","system_id":"levelo_inurba_marseille","lat":43.211792,"lon":5.350745,"is_reserved":false,"is_disabled":false,"rental_uris":{"android":"levelo://app?vid=8ceb2860-ca09-420a-8aab-fcf0c529a0d3","ios":"levelo://app?vid=8ceb2860-ca09-420a-8aab-fcf0c529a0d3"},"vehicle_type_id":"4","last_reported":1751300019,"current_range_meters":15200,"station_id":"st_cvj6sg6p6f1abm77japg","pricing_plan_id":"cebpf4jnsgd1na2vs0mg"},{"bike_id":"fa16bbec-3211-49bd-a8b0-90a3ace4afe6","system_id":"levelo_inurba_marseille","lat":43.316,"lon":5.38444,"is_reserved":false,"is_disabled":false,"rental_uris":{"android":"levelo://app?vid=fa16bbec-3211-49bd-a8b0-90a3ace4afe6","ios":"levelo://app?vid=fa16bbec-3211-49bd-a8b0-90a3ace4afe6"},"vehicle_type_id":"4","last_reported":1751300019,"current_range_meters":16000,"station_id":"","pricing_plan_id":"cebpf4jnsgd1na2vs0mg"},{"bike_id":"682ae697-32f6-461d-819c-d518815f9f6a","system_id":"levelo_inurba_marseille","lat":43.313634,"lon":5.383866,"is_reserved":false,"is_disabled":false,"rental_uris":{"android":"levelo://app?vid=682ae697-32f6-461d-819c-d518815f9f6a","ios":"levelo://app?vid=682ae697-32f6-461d-819c-d518815f9f6a"},"vehicle_type_id":"4","last_reported":1751300019,"current_range_meters":16000,"station_id":"ce4bgt92rcd13ifvqcf0","pricing_plan_id":"cebpf4jnsgd1na2vs0mg"},{"bike_id":"cf89ec82-348e-4040-94f9-7b756e45f5a1","system_id":"levelo_inurba_marseille","lat":43.28035,"lon":5.36946,"is_reserved":false,"is_disabled":false,"rental_uris":{"android":"levelo://app?vid=cf89ec82-348e-4040-94f9-7b756e45f5a1","ios":"levelo://app?vid=cf89ec82-348e-4040-94f9-7b756e45f5a1"},"vehicle_type_id":"4","last_reported":1751300019,"current_range_meters":16000,"station_id":"ce4bha12rcd13ifvqef0","pricing_plan_id":"cebpf4jnsgd1na2vs0mg"},{"bike_id":"0019be01-9199-40c8-80e8-ef5e082a6be8","system_id":"levelo_inurba_marseille","lat":43.28266,"lon":5.35081,"is_reserved":false,"is_disabled":false,"rental_uris":{"android":"levelo://app?vid=0019be01-9199-40c8-80e8-ef5e082a6be8","ios":"levelo://app?vid=0019be01-9199-40c8-80e8-ef5e082a6be8"},"vehicle_type_id":"4","last_reported":1751300019,"current_range_meters":16000,"station_id":"ce4bhbp2rcd13ifvqerg","pricing_plan_id":"cebpf4jnsgd1na2vs0mg"},{"bike_id":"239773a6-b5da-4137-b48b-245fc6c0b817","system_id":"levelo_inurba_marseille","lat":43.23192,"lon":5.35554,"is_reserved":false,"is_disabled":false,"rental_uris":{"android":"levelo://app?vid=239773a6-b5da-4137-b48b-245fc6c0b817","ios":"levelo://app?vid=239773a6-b5da-4137-b48b-245fc6c0b817"},"vehicle_type_id":"4","last_reported":1751300019,"current_range_meters":16000,"station_id":"ce4bhu92rcd13ifvqi70","pricing_plan_id":"cebpf4jnsgd1na2vs0mg"},{"bike_id":"ef56af2f-739b-4071-a865-2862ea606449","system_id":"levelo_inurba_marseille","lat":43.27387,"lon":5.36254,"is_reserved":false,"is_disabled":false,"rental_uris":{"android":"levelo://app?vid=ef56af2f-739b-4071-a865-2862ea606449","ios":"levelo://app?vid=ef56af2f-739b-4071-a865-2862ea606449"},"vehicle_type_id":"4","last_reported":1751300019,"current_range_meters":16400,"station_id":"ce4bhbh2rcd13ifvqeo0","pricing_plan_id":"cebpf4jnsgd1na2vs0mg"},{"bike_id":"0e1fd179-f6dc-4047-8ba7-96fc9adce901","system_id":"levelo_inurba_marseille","lat":43.28614,"lon":5.35109,"is_reserved":false,"is_disabled":false,"rental_uris":{"android":"levelo://app?vid=0e1fd179-f6dc-4047-8ba7-96fc9adce901","ios":"levelo://app?vid=0e1fd179-f6dc-4047-8ba7-96fc9adce901"},"vehicle_type_id":"4","last_reported":1751300019,"current_range_meters":16400,"station_id":"ce4bhch2rcd13ifvqeug","pricing_plan_id":"cebpf4jnsgd1na2vs0mg"},{"bike_id":"a02396c2-fef3-41f1-bfd5-094fd4acc6d5","system_id":"levelo_inurba_marseille","lat":43.28077,"lon":5.39657,"is_reserved":false,"is_disabled":false,"rental_uris":{"android":"levelo://app?vid=a02396c2-fef3-41f1-bfd5-094fd4acc6d5","ios":"levelo://app?vid=a02396c2-fef3-41f1-bfd5-094fd4acc6d5"},"vehicle_type_id":"4","last_reported":1751300019,"current_range_meters":16400,"station_id":"ce4bho12rcd13ifvqh2g","pricing_plan_id":"cebpf4jnsgd1na2vs0mg"},{"bike_id":"048ec6e9-5fd9-4256-ae6a-a72856ab2acf","system_id":"levelo_inurba_marseille","lat":43.212,"lon":5.35064,"is_reserved":false,"is_disabled":false,"rental_uris":{"android":"levelo://app?vid=048ec6e9-5fd9-4256-ae6a-a72856ab2acf","ios":"levelo://app?vid=048ec6e9-5fd9-4256-ae6a-a72856ab2acf"},"vehicle_type_id":"4","last_reported":1751300019,"current_range_meters":16400,"station_id":"st_cvj6sg6p6f1abm77japg","pricing_plan_id":"cebpf4jnsgd1na2vs0mg"},{"bike_id":"d5da5bd9-7c2a-48e5-92aa-fa21076cad13","system_id":"levelo_inurba_marseille","lat":43.21219,"lon":5.35064,"is_reserved":false,"is_disabled":false,"rental_uris":{"android":"levelo://app?vid=d5da5bd9-7c2a-48e5-92aa-fa21076cad13","ios":"levelo://app?vid=d5da5bd9-7c2a-48e5-92aa-fa21076cad13"},"vehicle_type_id":"4","last_reported":1751300019,"current_range_meters":16400,"station_id":"st_cvj6sg6p6f1abm77japg","pricing_plan_id":"cebpf4jnsgd1na2vs0mg"},{"bike_id":"c28e39dc-72cd-4fd8-89b7-00c27c125c16","system_id":"levelo_inurba_marseille","lat":43.28421,"lon":5.34988,"is_reserved":false,"is_disabled":false,"rental_uris":{"android":"levelo://app?vid=c28e39dc-72cd-4fd8-89b7-00c27c125c16","ios":"levelo://app?vid=c28e39dc-72cd-4fd8-89b7-00c27c125c16"},"vehicle_type_id":"4","last_reported":1751300019,"current_range_meters":16800,"station_id":"ce4bhbh2rcd13ifvqepg","pricing_plan_id":"cebpf4jnsgd1na2vs0mg"},{"bike_id":"e3be0bae-c457-417e-b637-2edfbaf52fd0","system_id":"levelo_inurba_marseille","lat":43.28266,"lon":5.35059,"is_reserved":false,"is_disabled":false,"rental_uris":{"android":"levelo://app?vid=e3be0bae-c457-417e-b637-2edfbaf52fd0","ios":"levelo://app?vid=e3be0bae-c457-417e-b637-2edfbaf52fd0"},"vehicle_type_id":"4","last_reported":1751300019,"current_range_meters":16800,"station_id":"ce4bhbp2rcd13ifvqerg","pricing_plan_id":"cebpf4jnsgd1na2vs0mg"},{"bike_id":"d8f73793-e3e9-4b33-b4e9-88de07786df1","system_id":"levelo_inurba_marseille","lat":43.28617,"lon":5.35104,"is_reserved":false,"is_disabled":false,"rental_uris":{"android":"levelo://app?vid=d8f73793-e3e9-4b33-b4e9-88de07786df1","ios":"levelo://app?vid=d8f73793-e3e9-4b33-b4e9-88de07786df1"},"vehicle_type_id":"4","last_reported":1751300019,"current_range_meters":16800,"station_id":"ce4bhch2rcd13ifvqeug","pricing_plan_id":"cebpf4jnsgd1na2vs0mg"},{"bike_id":"737a2d59-03f1-461d-9876-2d1d9e4fbcd3","system_id":"levelo_inurba_marseille","lat":43.241598,"lon":5.364115,"is_reserved":false,"is_disabled":false,"rental_uris":{"android":"levelo://app?vid=737a2d59-03f1-461d-9876-2d1d9e4fbcd3","ios":"levelo://app?vid=737a2d59-03f1-461d-9876-2d1d9e4fbcd3"},"vehicle_type_id":"4","last_reported":1751300019,"current_range_meters":16800,"station_id":"ce4bhi12rcd13ifvqfp0","pricing_plan_id":"cebpf4jnsgd1na2vs0mg"},{"bike_id":"d90daeb2-baa5-4f84-8ba2-ffc1dcd4b96b","system_id":"levelo_inurba_marseille","lat":43.24171,"lon":5.36427,"is_reserved":false,"is_disabled":false,"rental_uris":{"android":"levelo://app?vid=d90daeb2-baa5-4f84-8ba2-ffc1dcd4b96b","ios":"levelo://app?vid=d90daeb2-baa5-4f84-8ba2-ffc1dcd4b96b"},"vehicle_type_id":"4","last_reported":1751300019,"current_range_meters":16800,"station_id":"cpo36qri1sfpv3e86is0","pricing_plan_id":"cebpf4jnsgd1na2vs0mg"},{"bike_id":"e891d413-f511-44d4-9ddd-90f57509289b","system_id":"levelo_inurba_marseille","lat":43.317105,"lon":5.367862,"is_reserved":false,"is_disabled":false,"rental_uris":{"android":"levelo://app?vid=e891d413-f511-44d4-9ddd-90f57509289b","ios":"levelo://app?vid=e891d413-f511-44d4-9ddd-90f57509289b"},"vehicle_type_id":"4","last_reported":1751300019,"current_range_meters":17200,"station_id":"","pricing_plan_id":"cebpf4jnsgd1na2vs0mg"},{"bike_id":"c2b72fe0-bae6-4c7b-ad48-9e771b203dc8","system_id":"levelo_inurba_marseille","lat":43.3136,"lon":5.38501,"is_reserved":false,"is_disabled":false,"rental_uris":{"android":"levelo://app?vid=c2b72fe0-bae6-4c7b-ad48-9e771b203dc8","ios":"levelo://app?vid=c2b72fe0-bae6-4c7b-ad48-9e771b203dc8"},"vehicle_type_id":"4","last_reported":1751300019,"current_range_meters":17200,"station_id":"ce4bgt92rcd13ifvqcf0","pricing_plan_id":"cebpf4jnsgd1na2vs0mg"},{"bike_id":"714e81cc-0a88-4f76-a904-b1c3a28974fe","system_id":"levelo_inurba_marseille","lat":43.28627,"lon":5.3509,"is_reserved":false,"is_disabled":false,"rental_uris":{"android":"levelo://app?vid=714e81cc-0a88-4f76-a904-b1c3a28974fe","ios":"levelo://app?vid=714e81cc-0a88-4f76-a904-b1c3a28974fe"},"vehicle_type_id":"4","last_reported":1751300019,"current_range_meters":17200,"station_id":"ce4bhch2rcd13ifvqeug","pricing_plan_id":"cebpf4jnsgd1na2vs0mg"},{"bike_id":"f3e66dad-0467-41c7-94d7-b784c396a9ac","system_id":"levelo_inurba_marseille","lat":43.25876,"lon":5.38183,"is_reserved":false,"is_disabled":false,"rental_uris":{"android":"levelo://app?vid=f3e66dad-0467-41c7-94d7-b784c396a9ac","ios":"levelo://app?vid=f3e66dad-0467-41c7-94d7-b784c396a9ac"},"vehicle_type_id":"4","last_reported":1751300019,"current_range_meters":17200,"station_id":"ce4bhgh2rcd13ifvqfb0","pricing_plan_id":"cebpf4jnsgd1na2vs0mg"},{"bike_id":"0d839b5e-baaf-4b32-8658-bb0d20744629","system_id":"levelo_inurba_marseille","lat":43.21192,"lon":5.35074,"is_reserved":false,"is_disabled":false,"rental_uris":{"android":"levelo://app?vid=0d839b5e-baaf-4b32-8658-bb0d20744629","ios":"levelo://app?vid=0d839b5e-baaf-4b32-8658-bb0d20744629"},"vehicle_type_id":"4","last_reported":1751300019,"current_range_meters":17200,"station_id":"st_cvj6sg6p6f1abm77japg","pricing_plan_id":"cebpf4jnsgd1na2vs0mg"},{"bike_id":"e552832c-7ca2-4106-b0f9-92bbabda27d1","system_id":"levelo_inurba_marseille","lat":43.21214,"lon":5.35092,"is_reserved":false,"is_disabled":false,"rental_uris":{"android":"levelo://app?vid=e552832c-7ca2-4106-b0f9-92bbabda27d1","ios":"levelo://app?vid=e552832c-7ca2-4106-b0f9-92bbabda27d1"},"vehicle_type_id":"4","last_reported":1751300019,"current_range_meters":17200,"station_id":"st_cvj6sg6p6f1abm77japg","pricing_plan_id":"cebpf4jnsgd1na2vs0mg"},{"bike_id":"b13877a6-4825-4d82-b46b-67fa8ad66c5d","system_id":"levelo_inurba_marseille","lat":43.21187,"lon":5.3507,"is_reserved":false,"is_disabled":false,"rental_uris":{"android":"levelo://app?vid=b13877a6-4825-4d82-b46b-67fa8ad66c5d","ios":"levelo://app?vid=b13877a6-4825-4d82-b46b-67fa8ad66c5d"},"vehicle_type_id":"4","last_reported":1751300019,"current_range_meters":17200,"station_id":"st_cvj6sg6p6f1abm77japg","pricing_plan_id":"cebpf4jnsgd1na2vs0mg"},{"bike_id":"1c1e0436-c990-4c38-b11e-d6968f287975","system_id":"levelo_inurba_marseille","lat":43.29584,"lon":5.36753,"is_reserved":false,"is_disabled":false,"rental_uris":{"android":"levelo://app?vid=1c1e0436-c990-4c38-b11e-d6968f287975","ios":"levelo://app?vid=1c1e0436-c990-4c38-b11e-d6968f287975"},"vehicle_type_id":"4","last_reported":1751300019,"current_range_meters":17600,"station_id":"ce4bgph2rcd13ifvqc2g","pricing_plan_id":"cebpf4jnsgd1na2vs0mg"},{"bike_id":"66c63381-180b-4c97-8d45-dc01c6fdfa6b","system_id":"levelo_inurba_marseille","lat":43.27373,"lon":5.36259,"is_reserved":false,"is_disabled":false,"rental_uris":{"android":"levelo://app?vid=66c63381-180b-4c97-8d45-dc01c6fdfa6b","ios":"levelo://app?vid=66c63381-180b-4c97-8d45-dc01c6fdfa6b"},"vehicle_type_id":"4","last_reported":1751300019,"current_range_meters":17600,"station_id":"ce4bhbh2rcd13ifvqeo0","pricing_plan_id":"cebpf4jnsgd1na2vs0mg"},{"bike_id":"e25ba395-2bc9-44d2-8b95-073fe9e7fe66","system_id":"levelo_inurba_marseille","lat":43.286183,"lon":5.351042,"is_reserved":false,"is_disabled":false,"rental_uris":{"android":"levelo://app?vid=e25ba395-2bc9-44d2-8b95-073fe9e7fe66","ios":"levelo://app?vid=e25ba395-2bc9-44d2-8b95-073fe9e7fe66"},"vehicle_type_id":"4","last_reported":1751300019,"current_range_meters":17600,"station_id":"ce4bhch2rcd13ifvqeug","pricing_plan_id":"cebpf4jnsgd1na2vs0mg"},{"bike_id":"733007d7-2ff5-425f-8e1e-06af6ab9d482","system_id":"levelo_inurba_marseille","lat":43.24073,"lon":5.3776,"is_reserved":false,"is_disabled":false,"rental_uris":{"android":"levelo://app?vid=733007d7-2ff5-425f-8e1e-06af6ab9d482","ios":"levelo://app?vid=733007d7-2ff5-425f-8e1e-06af6ab9d482"},"vehicle_type_id":"4","last_reported":1751300019,"current_range_meters":17600,"station_id":"ce4bhnp2rcd13ifvqgvg","pricing_plan_id":"cebpf4jnsgd1na2vs0mg"},{"bike_id":"ec59dc73-efec-49fb-a623-8c210bcd8f9c","system_id":"levelo_inurba_marseille","lat":43.21755,"lon":5.34601,"is_reserved":false,"is_disabled":false,"rental_uris":{"android":"levelo://app?vid=ec59dc73-efec-49fb-a623-8c210bcd8f9c","ios":"levelo://app?vid=ec59dc73-efec-49fb-a623-8c210bcd8f9c"},"vehicle_type_id":"4","last_reported":1751300019,"current_range_meters":17600,"station_id":"st_cvj6r9ubvosntc0bgbag","pricing_plan_id":"cebpf4jnsgd1na2vs0mg"},{"bike_id":"f603f3aa-5bf7-4a19-a8a1-b47909f854c7","system_id":"levelo_inurba_marseille","lat":43.211935,"lon":5.350732,"is_reserved":false,"is_disabled":false,"rental_uris":{"android":"levelo://app?vid=f603f3aa-5bf7-4a19-a8a1-b47909f854c7","ios":"levelo://app?vid=f603f3aa-5bf7-4a19-a8a1-b47909f854c7"},"vehicle_type_id":"4","last_reported":1751300019,"current_range_meters":17600,"station_id":"st_cvj6sg6p6f1abm77japg","pricing_plan_id":"cebpf4jnsgd1na2vs0mg"},{"bike_id":"65890312-b4a6-463f-9b81-132ee12a3ed0","system_id":"levelo_inurba_marseille","lat":43.27376,"lon":5.36259,"is_reserved":false,"is_disabled":false,"rental_uris":{"android":"levelo://app?vid=65890312-b4a6-463f-9b81-132ee12a3ed0","ios":"levelo://app?vid=65890312-b4a6-463f-9b81-132ee12a3ed0"},"vehicle_type_id":"4","last_reported":1751300019,"current_range_meters":18000,"station_id":"ce4bhbh2rcd13ifvqeo0","pricing_plan_id":"cebpf4jnsgd1na2vs0mg"},{"bike_id":"cbd65d27-088b-445e-aa09-31ae3ca5d1a7","system_id":"levelo_inurba_marseille","lat":43.28617,"lon":5.351,"is_reserved":false,"is_disabled":false,"rental_uris":{"android":"levelo://app?vid=cbd65d27-088b-445e-aa09-31ae3ca5d1a7","ios":"levelo://app?vid=cbd65d27-088b-445e-aa09-31ae3ca5d1a7"},"vehicle_type_id":"4","last_reported":1751300019,"current_range_meters":18000,"station_id":"ce4bhch2rcd13ifvqeug","pricing_plan_id":"cebpf4jnsgd1na2vs0mg"},{"bike_id":"e56fc24a-ab61-412b-a208-b20cf4c3f3e0","system_id":"levelo_inurba_marseille","lat":43.30391,"lon":5.42487,"is_reserved":false,"is_disabled":false,"rental_uris":{"android":"levelo://app?vid=e56fc24a-ab61-412b-a208-b20cf4c3f3e0","ios":"levelo://app?vid=e56fc24a-ab61-412b-a208-b20cf4c3f3e0"},"vehicle_type_id":"4","last_reported":1751300019,"current_range_meters":18000,"station_id":"ce4bhoh2rcd13ifvqh6g","pricing_plan_id":"cebpf4jnsgd1na2vs0mg"},{"bike_id":"a0cef316-ad95-4855-8f78-a31341a2b90e","system_id":"levelo_inurba_marseille","lat":43.3302,"lon":5.390415,"is_reserved":false,"is_disabled":false,"rental_uris":{"android":"levelo://app?vid=a0cef316-ad95-4855-8f78-a31341a2b90e","ios":"levelo://app?vid=a0cef316-ad95-4855-8f78-a31341a2b90e"},"vehicle_type_id":"4","last_reported":1751300019,"current_range_meters":18000,"station_id":"ce4bhr92rcd13ifvqhrg","pricing_plan_id":"cebpf4jnsgd1na2vs0mg"},{"bike_id":"c8cbb534-a6b4-45fb-8cf6-753f68d0cf1c","system_id":"levelo_inurba_marseille","lat":43.23195,"lon":5.35555,"is_reserved":false,"is_disabled":false,"rental_uris":{"android":"levelo://app?vid=c8cbb534-a6b4-45fb-8cf6-753f68d0cf1c","ios":"levelo://app?vid=c8cbb534-a6b4-45fb-8cf6-753f68d0cf1c"},"vehicle_type_id":"4","last_reported":1751300019,"current_range_meters":18000,"station_id":"ce4bhu92rcd13ifvqi70","pricing_plan_id":"cebpf4jnsgd1na2vs0mg"},{"bike_id":"d57c7dc5-2344-4834-9a88-d804e9c85375","system_id":"levelo_inurba_marseille","lat":43.21207,"lon":5.35097,"is_reserved":false,"is_disabled":false,"rental_uris":{"android":"levelo://app?vid=d57c7dc5-2344-4834-9a88-d804e9c85375","ios":"levelo://app?vid=d57c7dc5-2344-4834-9a88-d804e9c85375"},"vehicle_type_id":"4","last_reported":1751300019,"current_range_meters":18000,"station_id":"st_cvj6sg6p6f1abm77japg","pricing_plan_id":"cebpf4jnsgd1na2vs0mg"},{"bike_id":"cc00e40a-c5cc-4f6a-acb6-8fdcb4bdc87a","system_id":"levelo_inurba_marseille","lat":43.21191,"lon":5.35076,"is_reserved":false,"is_disabled":false,"rental_uris":{"android":"levelo://app?vid=cc00e40a-c5cc-4f6a-acb6-8fdcb4bdc87a","ios":"levelo://app?vid=cc00e40a-c5cc-4f6a-acb6-8fdcb4bdc87a"},"vehicle_type_id":"4","last_reported":1751300019,"current_range_meters":18000,"station_id":"st_cvj6sg6p6f1abm77japg","pricing_plan_id":"cebpf4jnsgd1na2vs0mg"},{"bike_id":"c0228700-5312-4a39-89af-ec53a5d729c5","system_id":"levelo_inurba_marseille","lat":43.28316,"lon":5.43254,"is_reserved":false,"is_disabled":false,"rental_uris":{"android":"levelo://app?vid=c0228700-5312-4a39-89af-ec53a5d729c5","ios":"levelo://app?vid=c0228700-5312-4a39-89af-ec53a5d729c5"},"vehicle_type_id":"4","last_reported":1751300019,"current_range_meters":18800,"station_id":"","pricing_plan_id":"cebpf4jnsgd1na2vs0mg"},{"bike_id":"566cdaf1-8ce7-454a-aec9-c370e2c0ae71","system_id":"levelo_inurba_marseille","lat":43.29041,"lon":5.38124,"is_reserved":false,"is_disabled":false,"rental_uris":{"android":"levelo://app?vid=566cdaf1-8ce7-454a-aec9-c370e2c0ae71","ios":"levelo://app?vid=566cdaf1-8ce7-454a-aec9-c370e2c0ae71"},"vehicle_type_id":"4","last_reported":1751300019,"current_range_meters":18800,"station_id":"ce4bh4p2rcd13ifvqe1g","pricing_plan_id":"cebpf4jnsgd1na2vs0mg"},{"bike_id":"0a24663d-7c62-458e-8d52-c21c6564ba2b","system_id":"levelo_inurba_marseille","lat":43.292133,"lon":5.360613,"is_reserved":false,"is_disabled":false,"rental_uris":{"android":"levelo://app?vid=0a24663d-7c62-458e-8d52-c21c6564ba2b","ios":"levelo://app?vid=0a24663d-7c62-458e-8d52-c21c6564ba2b"},"vehicle_type_id":"4","last_reported":1751300019,"current_range_meters":18800,"station_id":"ce4bhbh2rcd13ifvqeqg","pricing_plan_id":"cebpf4jnsgd1na2vs0mg"},{"bike_id":"ac79c26e-e52a-495c-b02c-9040c5a9829c","system_id":"levelo_inurba_marseille","lat":43.27908,"lon":5.38009,"is_reserved":false,"is_disabled":false,"rental_uris":{"android":"levelo://app?vid=ac79c26e-e52a-495c-b02c-9040c5a9829c","ios":"levelo://app?vid=ac79c26e-e52a-495c-b02c-9040c5a9829c"},"vehicle_type_id":"4","last_reported":1751300019,"current_range_meters":18800,"station_id":"ce4bhf92rcd13ifvqf50","pricing_plan_id":"cebpf4jnsgd1na2vs0mg"},{"bike_id":"d0b2f4a7-e242-4703-926d-40f0be1abcaa","system_id":"levelo_inurba_marseille","lat":43.24675,"lon":5.38143,"is_reserved":false,"is_disabled":false,"rental_uris":{"android":"levelo://app?vid=d0b2f4a7-e242-4703-926d-40f0be1abcaa","ios":"levelo://app?vid=d0b2f4a7-e242-4703-926d-40f0be1abcaa"},"vehicle_type_id":"4","last_reported":1751300019,"current_range_meters":18800,"station_id":"ce4bhih2rcd13ifvqfr0","pricing_plan_id":"cebpf4jnsgd1na2vs0mg"},{"bike_id":"1caca1fc-4911-4e37-9aeb-383803780faf","system_id":"levelo_inurba_marseille","lat":43.32104,"lon":5.36773,"is_reserved":false,"is_disabled":false,"rental_uris":{"android":"levelo://app?vid=1caca1fc-4911-4e37-9aeb-383803780faf","ios":"levelo://app?vid=1caca1fc-4911-4e37-9aeb-383803780faf"},"vehicle_type_id":"4","last_reported":1751300019,"current_range_meters":18800,"station_id":"ce4bhrh2rcd13ifvqhug","pricing_plan_id":"cebpf4jnsgd1na2vs0mg"},{"bike_id":"518354b5-8405-430c-bbfc-0e30bc76b92d","system_id":"levelo_inurba_marseille","lat":43.21766,"lon":5.34611,"is_reserved":false,"is_disabled":false,"rental_uris":{"android":"levelo://app?vid=518354b5-8405-430c-bbfc-0e30bc76b92d","ios":"levelo://app?vid=518354b5-8405-430c-bbfc-0e30bc76b92d"},"vehicle_type_id":"4","last_reported":1751300019,"current_range_meters":19200,"station_id":"","pricing_plan_id":"cebpf4jnsgd1na2vs0mg"},{"bike_id":"49875ce1-f4a0-45c0-b030-6af975ade5db","system_id":"levelo_inurba_marseille","lat":43.27616,"lon":5.36113,"is_reserved":false,"is_disabled":false,"rental_uris":{"android":"levelo://app?vid=49875ce1-f4a0-45c0-b030-6af975ade5db","ios":"levelo://app?vid=49875ce1-f4a0-45c0-b030-6af975ade5db"},"vehicle_type_id":"4","last_reported":1751300019,"current_range_meters":19200,"station_id":"ce4bgj92rcd13ifvqbe0","pricing_plan_id":"cebpf4jnsgd1na2vs0mg"},{"bike_id":"8ad59c67-0522-4a27-b27e-6901ce6dbc2c","system_id":"levelo_inurba_marseille","lat":43.29717,"lon":5.36608,"is_reserved":false,"is_disabled":false,"rental_uris":{"android":"levelo://app?vid=8ad59c67-0522-4a27-b27e-6901ce6dbc2c","ios":"levelo://app?vid=8ad59c67-0522-4a27-b27e-6901ce6dbc2c"},"vehicle_type_id":"4","last_reported":1751300019,"current_range_meters":19200,"station_id":"ce4bgn12rcd13ifvqbt0","pricing_plan_id":"cebpf4jnsgd1na2vs0mg"},{"bike_id":"ec3ab89c-eebb-440c-90ca-69c8966d00e3","system_id":"levelo_inurba_marseille","lat":43.292632,"lon":5.384513,"is_reserved":false,"is_disabled":false,"rental_uris":{"android":"levelo://app?vid=ec3ab89c-eebb-440c-90ca-69c8966d00e3","ios":"levelo://app?vid=ec3ab89c-eebb-440c-90ca-69c8966d00e3"},"vehicle_type_id":"4","last_reported":1751300019,"current_range_meters":19200,"station_id":"ce4bgv92rcd13ifvqcr0","pricing_plan_id":"cebpf4jnsgd1na2vs0mg"},{"bike_id":"3a861d3d-7063-401c-ba03-d89cfd0edda7","system_id":"levelo_inurba_marseille","lat":43.30125,"lon":5.39862,"is_reserved":false,"is_disabled":false,"rental_uris":{"android":"levelo://app?vid=3a861d3d-7063-401c-ba03-d89cfd0edda7","ios":"levelo://app?vid=3a861d3d-7063-401c-ba03-d89cfd0edda7"},"vehicle_type_id":"4","last_reported":1751300019,"current_range_meters":19200,"station_id":"ce4bh0h2rcd13ifvqd40","pricing_plan_id":"cebpf4jnsgd1na2vs0mg"},{"bike_id":"1a7fb9ec-8eb9-4480-80fa-23b5e7c605f8","system_id":"levelo_inurba_marseille","lat":43.28935,"lon":5.36389,"is_reserved":false,"is_disabled":false,"rental_uris":{"android":"levelo://app?vid=1a7fb9ec-8eb9-4480-80fa-23b5e7c605f8","ios":"levelo://app?vid=1a7fb9ec-8eb9-4480-80fa-23b5e7c605f8"},"vehicle_type_id":"4","last_reported":1751300019,"current_range_meters":19200,"station_id":"ce4bhc92rcd13ifvqetg","pricing_plan_id":"cebpf4jnsgd1na2vs0mg"},{"bike_id":"6f5d2221-9b3c-4480-b1a5-0e1a4cf0a187","system_id":"levelo_inurba_marseille","lat":43.2865,"lon":5.35116,"is_reserved":false,"is_disabled":false,"rental_uris":{"android":"levelo://app?vid=6f5d2221-9b3c-4480-b1a5-0e1a4cf0a187","ios":"levelo://app?vid=6f5d2221-9b3c-4480-b1a5-0e1a4cf0a187"},"vehicle_type_id":"4","last_reported":1751300019,"current_range_meters":19200,"station_id":"ce4bhch2rcd13ifvqeug","pricing_plan_id":"cebpf4jnsgd1na2vs0mg"},{"bike_id":"5767b9e4-81ec-40bf-bccc-db289ba35b4e","system_id":"levelo_inurba_marseille","lat":43.274,"lon":5.41226,"is_reserved":false,"is_disabled":false,"rental_uris":{"android":"levelo://app?vid=5767b9e4-81ec-40bf-bccc-db289ba35b4e","ios":"levelo://app?vid=5767b9e4-81ec-40bf-bccc-db289ba35b4e"},"vehicle_type_id":"4","last_reported":1751300019,"current_range_meters":19600,"station_id":"","pricing_plan_id":"cebpf4jnsgd1na2vs0mg"},{"bike_id":"ad752f2a-7386-4756-9f32-c112e83762bc","system_id":"levelo_inurba_marseille","lat":43.302489,"lon":5.400841,"is_reserved":false,"is_disabled":false,"rental_uris":{"android":"levelo://app?vid=ad752f2a-7386-4756-9f32-c112e83762bc","ios":"levelo://app?vid=ad752f2a-7386-4756-9f32-c112e83762bc"},"vehicle_type_id":"4","last_reported":1751300019,"current_range_meters":19600,"station_id":"ce4bgvh2rcd13ifvqcs0","pricing_plan_id":"cebpf4jnsgd1na2vs0mg"},{"bike_id":"c119c410-2a7d-4817-9e3b-136d106da361","system_id":"levelo_inurba_marseille","lat":43.28451,"lon":5.35883,"is_reserved":false,"is_disabled":false,"rental_uris":{"android":"levelo://app?vid=c119c410-2a7d-4817-9e3b-136d106da361","ios":"levelo://app?vid=c119c410-2a7d-4817-9e3b-136d106da361"},"vehicle_type_id":"4","last_reported":1751300019,"current_range_meters":19600,"station_id":"ce4bhah2rcd13ifvqei0","pricing_plan_id":"cebpf4jnsgd1na2vs0mg"},{"bike_id":"4321e867-21b7-4f79-8f6a-15f230449598","system_id":"levelo_inurba_marseille","lat":43.2902,"lon":5.35608,"is_reserved":false,"is_disabled":false,"rental_uris":{"android":"levelo://app?vid=4321e867-21b7-4f79-8f6a-15f230449598","ios":"levelo://app?vid=4321e867-21b7-4f79-8f6a-15f230449598"},"vehicle_type_id":"4","last_reported":1751300019,"current_range_meters":19600,"station_id":"ce4bhb92rcd13ifvqen0","pricing_plan_id":"cebpf4jnsgd1na2vs0mg"},{"bike_id":"9fa747cf-7c7e-4401-b119-29552b418a37","system_id":"levelo_inurba_marseille","lat":43.27384,"lon":5.36251,"is_reserved":false,"is_disabled":false,"rental_uris":{"android":"levelo://app?vid=9fa747cf-7c7e-4401-b119-29552b418a37","ios":"levelo://app?vid=9fa747cf-7c7e-4401-b119-29552b418a37"},"vehicle_type_id":"4","last_reported":1751300019,"current_range_meters":19600,"station_id":"ce4bhbh2rcd13ifvqeo0","pricing_plan_id":"cebpf4jnsgd1na2vs0mg"},{"bike_id":"86fa6ce7-8cbe-47ff-b5d3-c2b4938fd05c","system_id":"levelo_inurba_marseille","lat":43.21193,"lon":5.35076,"is_reserved":false,"is_disabled":false,"rental_uris":{"android":"levelo://app?vid=86fa6ce7-8cbe-47ff-b5d3-c2b4938fd05c","ios":"levelo://app?vid=86fa6ce7-8cbe-47ff-b5d3-c2b4938fd05c"},"vehicle_type_id":"4","last_reported":1751300019,"current_range_meters":19600,"station_id":"st_cvj6sg6p6f1abm77japg","pricing_plan_id":"cebpf4jnsgd1na2vs0mg"},{"bike_id":"a27a065a-3578-41d9-b352-a728a7861edf","system_id":"levelo_inurba_marseille","lat":43.284578,"lon":5.358874,"is_reserved":false,"is_disabled":false,"rental_uris":{"android":"levelo://app?vid=a27a065a-3578-41d9-b352-a728a7861edf","ios":"levelo://app?vid=a27a065a-3578-41d9-b352-a728a7861edf"},"vehicle_type_id":"4","last_reported":1751300019,"current_range_meters":20000,"station_id":"ce4bhah2rcd13ifvqei0","pricing_plan_id":"cebpf4jnsgd1na2vs0mg"},{"bike_id":"d18eb9d7-9592-46fc-b5a0-f6dfaa4f31f1","system_id":"levelo_inurba_marseille","lat":43.28415,"lon":5.34992,"is_reserved":false,"is_disabled":false,"rental_uris":{"android":"levelo://app?vid=d18eb9d7-9592-46fc-b5a0-f6dfaa4f31f1","ios":"levelo://app?vid=d18eb9d7-9592-46fc-b5a0-f6dfaa4f31f1"},"vehicle_type_id":"4","last_reported":1751300019,"current_range_meters":20000,"station_id":"ce4bhbh2rcd13ifvqepg","pricing_plan_id":"cebpf4jnsgd1na2vs0mg"},{"bike_id":"d2f72e45-6b0c-4b36-9924-deef3cd98510","system_id":"levelo_inurba_marseille","lat":43.27487,"lon":5.42455,"is_reserved":false,"is_disabled":false,"rental_uris":{"android":"levelo://app?vid=d2f72e45-6b0c-4b36-9924-deef3cd98510","ios":"levelo://app?vid=d2f72e45-6b0c-4b36-9924-deef3cd98510"},"vehicle_type_id":"4","last_reported":1751300019,"current_range_meters":20000,"station_id":"ce4bhn92rcd13ifvqgrg","pricing_plan_id":"cebpf4jnsgd1na2vs0mg"},{"bike_id":"d2019eb4-f450-4e51-abec-b5191e2306d5","system_id":"levelo_inurba_marseille","lat":43.29907,"lon":5.43661,"is_reserved":false,"is_disabled":false,"rental_uris":{"android":"levelo://app?vid=d2019eb4-f450-4e51-abec-b5191e2306d5","ios":"levelo://app?vid=d2019eb4-f450-4e51-abec-b5191e2306d5"},"vehicle_type_id":"4","last_reported":1751300019,"current_range_meters":20000,"station_id":"ce4bhpp2rcd13ifvqhfg","pricing_plan_id":"cebpf4jnsgd1na2vs0mg"},{"bike_id":"e4378b9b-c357-4073-a884-d7f0e8af5276","system_id":"levelo_inurba_marseille","lat":43.32658,"lon":5.40996,"is_reserved":false,"is_disabled":false,"rental_uris":{"android":"levelo://app?vid=e4378b9b-c357-4073-a884-d7f0e8af5276","ios":"levelo://app?vid=e4378b9b-c357-4073-a884-d7f0e8af5276"},"vehicle_type_id":"4","last_reported":1751300019,"current_range_meters":20000,"station_id":"ce4bhpp2rcd13ifvqhgg","pricing_plan_id":"cebpf4jnsgd1na2vs0mg"},{"bike_id":"f794af5c-25e7-4a7b-a632-da814efb8753","system_id":"levelo_inurba_marseille","lat":43.28728,"lon":5.36081,"is_reserved":false,"is_disabled":false,"rental_uris":{"android":"levelo://app?vid=f794af5c-25e7-4a7b-a632-da814efb8753","ios":"levelo://app?vid=f794af5c-25e7-4a7b-a632-da814efb8753"},"vehicle_type_id":"4","last_reported":1751300019,"current_range_meters":20000,"station_id":"cki0cbj6b192h4jlfktg","pricing_plan_id":"cebpf4jnsgd1na2vs0mg"},{"bike_id":"3f86ed72-0f4f-4cff-9bf2-8aa907919a06","system_id":"levelo_inurba_marseille","lat":43.24169,"lon":5.36397,"is_reserved":false,"is_disabled":false,"rental_uris":{"android":"levelo://app?vid=3f86ed72-0f4f-4cff-9bf2-8aa907919a06","ios":"levelo://app?vid=3f86ed72-0f4f-4cff-9bf2-8aa907919a06"},"vehicle_type_id":"4","last_reported":1751300019,"current_range_meters":20000,"station_id":"cpo36qri1sfpv3e86is0","pricing_plan_id":"cebpf4jnsgd1na2vs0mg"},{"bike_id":"e0c4211a-662e-4f11-90b6-981ca029649d","system_id":"levelo_inurba_marseille","lat":43.22504,"lon":5.34787,"is_reserved":false,"is_disabled":false,"rental_uris":{"android":"levelo://app?vid=e0c4211a-662e-4f11-90b6-981ca029649d","ios":"levelo://app?vid=e0c4211a-662e-4f11-90b6-981ca029649d"},"vehicle_type_id":"4","last_reported":1751300019,"current_range_meters":20000,"station_id":"st_cvj5dfep6f1abm77gieg","pricing_plan_id":"cebpf4jnsgd1na2vs0mg"},{"bike_id":"3a33ebd2-49a2-4e39-92d7-f09d7dd08672","system_id":"levelo_inurba_marseille","lat":43.21218,"lon":5.35067,"is_reserved":false,"is_disabled":false,"rental_uris":{"android":"levelo://app?vid=3a33ebd2-49a2-4e39-92d7-f09d7dd08672","ios":"levelo://app?vid=3a33ebd2-49a2-4e39-92d7-f09d7dd08672"},"vehicle_type_id":"4","last_reported":1751300019,"current_range_meters":20000,"station_id":"st_cvj6sg6p6f1abm77japg","pricing_plan_id":"cebpf4jnsgd1na2vs0mg"},{"bike_id":"569afbd4-da57-4911-aecb-840950c33922","system_id":"levelo_inurba_marseille","lat":43.21207,"lon":5.35061,"is_reserved":false,"is_disabled":false,"rental_uris":{"android":"levelo://app?vid=569afbd4-da57-4911-aecb-840950c33922","ios":"levelo://app?vid=569afbd4-da57-4911-aecb-840950c33922"},"vehicle_type_id":"4","last_reported":1751300019,"current_range_meters":20000,"station_id":"st_cvj6sg6p6f1abm77japg","pricing_plan_id":"cebpf4jnsgd1na2vs0mg"},{"bike_id":"fceb16de-6a79-427a-b828-bfdb30836d2e","system_id":"levelo_inurba_marseille","lat":43.23186,"lon":5.39987,"is_reserved":false,"is_disabled":false,"rental_uris":{"android":"levelo://app?vid=fceb16de-6a79-427a-b828-bfdb30836d2e","ios":"levelo://app?vid=fceb16de-6a79-427a-b828-bfdb30836d2e"},"vehicle_type_id":"4","last_reported":1751300019,"current_range_meters":20400,"station_id":"ce4bhn12rcd13ifvqgqg","pricing_plan_id":"cebpf4jnsgd1na2vs0mg"},{"bike_id":"d11fe4c9-c130-42ee-bb73-8c70d6efcfc0","system_id":"levelo_inurba_marseille","lat":43.28985,"lon":5.36658,"is_reserved":false,"is_disabled":false,"rental_uris":{"android":"levelo://app?vid=d11fe4c9-c130-42ee-bb73-8c70d6efcfc0","ios":"levelo://app?vid=d11fe4c9-c130-42ee-bb73-8c70d6efcfc0"},"vehicle_type_id":"4","last_reported":1751300019,"current_range_meters":20800,"station_id":"","pricing_plan_id":"cebpf4jnsgd1na2vs0mg"},{"bike_id":"539ed013-9e80-448a-999f-a7819f54786a","system_id":"levelo_inurba_marseille","lat":43.290309,"lon":5.375668,"is_reserved":false,"is_disabled":false,"rental_uris":{"android":"levelo://app?vid=539ed013-9e80-448a-999f-a7819f54786a","ios":"levelo://app?vid=539ed013-9e80-448a-999f-a7819f54786a"},"vehicle_type_id":"4","last_reported":1751300019,"current_range_meters":20800,"station_id":"","pricing_plan_id":"cebpf4jnsgd1na2vs0mg"},{"bike_id":"85f36bd1-c0e9-4bab-9497-daea01970b89","system_id":"levelo_inurba_marseille","lat":43.29259,"lon":5.40902,"is_reserved":false,"is_disabled":false,"rental_uris":{"android":"levelo://app?vid=85f36bd1-c0e9-4bab-9497-daea01970b89","ios":"levelo://app?vid=85f36bd1-c0e9-4bab-9497-daea01970b89"},"vehicle_type_id":"4","last_reported":1751300019,"current_range_meters":20800,"station_id":"ce4bh192rcd13ifvqdc0","pricing_plan_id":"cebpf4jnsgd1na2vs0mg"},{"bike_id":"14e4ffdf-219f-465c-a84d-1505f04105fe","system_id":"levelo_inurba_marseille","lat":43.29528,"lon":5.39409,"is_reserved":false,"is_disabled":false,"rental_uris":{"android":"levelo://app?vid=14e4ffdf-219f-465c-a84d-1505f04105fe","ios":"levelo://app?vid=14e4ffdf-219f-465c-a84d-1505f04105fe"},"vehicle_type_id":"4","last_reported":1751300019,"current_range_meters":20800,"station_id":"ce4bh292rcd13ifvqdf0","pricing_plan_id":"cebpf4jnsgd1na2vs0mg"},{"bike_id":"01bd36de-fcad-491e-a758-ffd27de4fcfc","system_id":"levelo_inurba_marseille","lat":43.28264,"lon":5.35094,"is_reserved":false,"is_disabled":false,"rental_uris":{"android":"levelo://app?vid=01bd36de-fcad-491e-a758-ffd27de4fcfc","ios":"levelo://app?vid=01bd36de-fcad-491e-a758-ffd27de4fcfc"},"vehicle_type_id":"4","last_reported":1751300019,"current_range_meters":20800,"station_id":"ce4bhbp2rcd13ifvqerg","pricing_plan_id":"cebpf4jnsgd1na2vs0mg"},{"bike_id":"09f4eeca-0b73-4a4d-b7ec-9e1647808114","system_id":"levelo_inurba_marseille","lat":43.28613,"lon":5.35103,"is_reserved":false,"is_disabled":false,"rental_uris":{"android":"levelo://app?vid=09f4eeca-0b73-4a4d-b7ec-9e1647808114","ios":"levelo://app?vid=09f4eeca-0b73-4a4d-b7ec-9e1647808114"},"vehicle_type_id":"4","last_reported":1751300019,"current_range_meters":20800,"station_id":"ce4bhch2rcd13ifvqeug","pricing_plan_id":"cebpf4jnsgd1na2vs0mg"},{"bike_id":"5adf7d3a-d807-4a63-94f2-6c67529222ed","system_id":"levelo_inurba_marseille","lat":43.255065,"lon":5.37645,"is_reserved":false,"is_disabled":false,"rental_uris":{"android":"levelo://app?vid=5adf7d3a-d807-4a63-94f2-6c67529222ed","ios":"levelo://app?vid=5adf7d3a-d807-4a63-94f2-6c67529222ed"},"vehicle_type_id":"4","last_reported":1751300019,"current_range_meters":20800,"station_id":"ce4bhh12rcd13ifvqff0","pricing_plan_id":"cebpf4jnsgd1na2vs0mg"},{"bike_id":"6c0c31a4-4df6-42f0-8b9c-b0e9665f1426","system_id":"levelo_inurba_marseille","lat":43.28085,"lon":5.3966,"is_reserved":false,"is_disabled":false,"rental_uris":{"android":"levelo://app?vid=6c0c31a4-4df6-42f0-8b9c-b0e9665f1426","ios":"levelo://app?vid=6c0c31a4-4df6-42f0-8b9c-b0e9665f1426"},"vehicle_type_id":"4","last_reported":1751300019,"current_range_meters":20800,"station_id":"ce4bho12rcd13ifvqh2g","pricing_plan_id":"cebpf4jnsgd1na2vs0mg"},{"bike_id":"934beea3-881e-4441-a5ff-95e7b68ba97b","system_id":"levelo_inurba_marseille","lat":43.34484,"lon":5.35981,"is_reserved":false,"is_disabled":false,"rental_uris":{"android":"levelo://app?vid=934beea3-881e-4441-a5ff-95e7b68ba97b","ios":"levelo://app?vid=934beea3-881e-4441-a5ff-95e7b68ba97b"},"vehicle_type_id":"4","last_reported":1751300019,"current_range_meters":21600,"station_id":"","pricing_plan_id":"cebpf4jnsgd1na2vs0mg"},{"bike_id":"0b8dc25d-44a0-4ddb-8573-d41c410ec892","system_id":"levelo_inurba_marseille","lat":43.27609,"lon":5.36117,"is_reserved":false,"is_disabled":false,"rental_uris":{"android":"levelo://app?vid=0b8dc25d-44a0-4ddb-8573-d41c410ec892","ios":"levelo://app?vid=0b8dc25d-44a0-4ddb-8573-d41c410ec892"},"vehicle_type_id":"4","last_reported":1751300019,"current_range_meters":21600,"station_id":"ce4bgj92rcd13ifvqbe0","pricing_plan_id":"cebpf4jnsgd1na2vs0mg"},{"bike_id":"4910c3cc-e2f9-4aea-a49e-fc3183f7d422","system_id":"levelo_inurba_marseille","lat":43.29606,"lon":5.38103,"is_reserved":false,"is_disabled":false,"rental_uris":{"android":"levelo://app?vid=4910c3cc-e2f9-4aea-a49e-fc3183f7d422","ios":"levelo://app?vid=4910c3cc-e2f9-4aea-a49e-fc3183f7d422"},"vehicle_type_id":"4","last_reported":1751300019,"current_range_meters":21600,"station_id":"ce4bgl12rcd13ifvqbo0","pricing_plan_id":"cebpf4jnsgd1na2vs0mg"},{"bike_id":"f287cbce-2971-4a2e-be82-af6945429236","system_id":"levelo_inurba_marseille","lat":43.28455,"lon":5.35889,"is_reserved":false,"is_disabled":false,"rental_uris":{"android":"levelo://app?vid=f287cbce-2971-4a2e-be82-af6945429236","ios":"levelo://app?vid=f287cbce-2971-4a2e-be82-af6945429236"},"vehicle_type_id":"4","last_reported":1751300019,"current_range_meters":21600,"station_id":"ce4bhah2rcd13ifvqei0","pricing_plan_id":"cebpf4jnsgd1na2vs0mg"},{"bike_id":"4fab5e56-f85c-495f-9f68-c5f907cffb50","system_id":"levelo_inurba_marseille","lat":43.290059,"lon":5.356127,"is_reserved":false,"is_disabled":false,"rental_uris":{"android":"levelo://app?vid=4fab5e56-f85c-495f-9f68-c5f907cffb50","ios":"levelo://app?vid=4fab5e56-f85c-495f-9f68-c5f907cffb50"},"vehicle_type_id":"4","last_reported":1751300019,"current_range_meters":21600,"station_id":"ce4bhb92rcd13ifvqen0","pricing_plan_id":"cebpf4jnsgd1na2vs0mg"},{"bike_id":"dda8b503-29c5-44b8-a106-b42fae2c066a","system_id":"levelo_inurba_marseille","lat":43.28615,"lon":5.35103,"is_reserved":false,"is_disabled":false,"rental_uris":{"android":"levelo://app?vid=dda8b503-29c5-44b8-a106-b42fae2c066a","ios":"levelo://app?vid=dda8b503-29c5-44b8-a106-b42fae2c066a"},"vehicle_type_id":"4","last_reported":1751300019,"current_range_meters":21600,"station_id":"ce4bhch2rcd13ifvqeug","pricing_plan_id":"cebpf4jnsgd1na2vs0mg"},{"bike_id":"c2cc3873-3136-4ba7-984d-6514f2a6bcc2","system_id":"levelo_inurba_marseille","lat":43.26692,"lon":5.3827,"is_reserved":false,"is_disabled":false,"rental_uris":{"android":"levelo://app?vid=c2cc3873-3136-4ba7-984d-6514f2a6bcc2","ios":"levelo://app?vid=c2cc3873-3136-4ba7-984d-6514f2a6bcc2"},"vehicle_type_id":"4","last_reported":1751300019,"current_range_meters":21600,"station_id":"ce4bhg92rcd13ifvqf90","pricing_plan_id":"cebpf4jnsgd1na2vs0mg"},{"bike_id":"00eb960e-f023-4187-b97a-788630413b5b","system_id":"levelo_inurba_marseille","lat":43.24806,"lon":5.37464,"is_reserved":false,"is_disabled":false,"rental_uris":{"android":"levelo://app?vid=00eb960e-f023-4187-b97a-788630413b5b","ios":"levelo://app?vid=00eb960e-f023-4187-b97a-788630413b5b"},"vehicle_type_id":"4","last_reported":1751300019,"current_range_meters":21600,"station_id":"ce4bhgh2rcd13ifvqfb0","pricing_plan_id":"cebpf4jnsgd1na2vs0mg"},{"bike_id":"cfca074a-bc49-4361-86a1-2cb3f63c4b70","system_id":"levelo_inurba_marseille","lat":43.26212,"lon":5.37438,"is_reserved":false,"is_disabled":false,"rental_uris":{"android":"levelo://app?vid=cfca074a-bc49-4361-86a1-2cb3f63c4b70","ios":"levelo://app?vid=cfca074a-bc49-4361-86a1-2cb3f63c4b70"},"vehicle_type_id":"4","last_reported":1751300019,"current_range_meters":21600,"station_id":"ce4bhgp2rcd13ifvqfc0","pricing_plan_id":"cebpf4jnsgd1na2vs0mg"},{"bike_id":"3622a24e-65a6-4e6e-970d-e1971b399efa","system_id":"levelo_inurba_marseille","lat":43.265,"lon":5.39535,"is_reserved":false,"is_disabled":false,"rental_uris":{"android":"levelo://app?vid=3622a24e-65a6-4e6e-970d-e1971b399efa","ios":"levelo://app?vid=3622a24e-65a6-4e6e-970d-e1971b399efa"},"vehicle_type_id":"4","last_reported":1751300019,"current_range_meters":21600,"station_id":"ce4bhi12rcd13ifvqfq0","pricing_plan_id":"cebpf4jnsgd1na2vs0mg"},{"bike_id":"874e5190-254e-4176-a11d-a66952072c83","system_id":"levelo_inurba_marseille","lat":43.28436,"lon":5.3497,"is_reserved":false,"is_disabled":false,"rental_uris":{"android":"levelo://app?vid=874e5190-254e-4176-a11d-a66952072c83","ios":"levelo://app?vid=874e5190-254e-4176-a11d-a66952072c83"},"vehicle_type_id":"4","last_reported":1751300019,"current_range_meters":22000,"station_id":"ce4bhbh2rcd13ifvqepg","pricing_plan_id":"cebpf4jnsgd1na2vs0mg"},{"bike_id":"a80d9353-6c34-4fd7-a37b-f40ae1124040","system_id":"levelo_inurba_marseille","lat":43.28421,"lon":5.34975,"is_reserved":false,"is_disabled":false,"rental_uris":{"android":"levelo://app?vid=a80d9353-6c34-4fd7-a37b-f40ae1124040","ios":"levelo://app?vid=a80d9353-6c34-4fd7-a37b-f40ae1124040"},"vehicle_type_id":"4","last_reported":1751300019,"current_range_meters":22000,"station_id":"ce4bhbh2rcd13ifvqepg","pricing_plan_id":"cebpf4jnsgd1na2vs0mg"},{"bike_id":"e2d9ef8b-956c-4179-b03b-e05c74cba074","system_id":"levelo_inurba_marseille","lat":43.33724,"lon":5.39179,"is_reserved":false,"is_disabled":false,"rental_uris":{"android":"levelo://app?vid=e2d9ef8b-956c-4179-b03b-e05c74cba074","ios":"levelo://app?vid=e2d9ef8b-956c-4179-b03b-e05c74cba074"},"vehicle_type_id":"4","last_reported":1751300019,"current_range_meters":22000,"station_id":"ce4bhr92rcd13ifvqhsg","pricing_plan_id":"cebpf4jnsgd1na2vs0mg"},{"bike_id":"2a838ed7-7c88-4bbf-88e5-6f3212e5fe7b","system_id":"levelo_inurba_marseille","lat":43.23194,"lon":5.3555,"is_reserved":false,"is_disabled":false,"rental_uris":{"android":"levelo://app?vid=2a838ed7-7c88-4bbf-88e5-6f3212e5fe7b","ios":"levelo://app?vid=2a838ed7-7c88-4bbf-88e5-6f3212e5fe7b"},"vehicle_type_id":"4","last_reported":1751300019,"current_range_meters":22000,"station_id":"ce4bhu92rcd13ifvqi70","pricing_plan_id":"cebpf4jnsgd1na2vs0mg"},{"bike_id":"8a74f5cd-9efa-4362-bea7-a32db4dcc85c","system_id":"levelo_inurba_marseille","lat":43.211943,"lon":5.350748,"is_reserved":false,"is_disabled":false,"rental_uris":{"android":"levelo://app?vid=8a74f5cd-9efa-4362-bea7-a32db4dcc85c","ios":"levelo://app?vid=8a74f5cd-9efa-4362-bea7-a32db4dcc85c"},"vehicle_type_id":"4","last_reported":1751300019,"current_range_meters":22000,"station_id":"st_cvj6sg6p6f1abm77japg","pricing_plan_id":"cebpf4jnsgd1na2vs0mg"},{"bike_id":"1e2efc2a-eb3a-477f-abd7-5ff64a88dba7","system_id":"levelo_inurba_marseille","lat":43.29933,"lon":5.37664,"is_reserved":false,"is_disabled":false,"rental_uris":{"android":"levelo://app?vid=1e2efc2a-eb3a-477f-abd7-5ff64a88dba7","ios":"levelo://app?vid=1e2efc2a-eb3a-477f-abd7-5ff64a88dba7"},"vehicle_type_id":"4","last_reported":1751300019,"current_range_meters":22400,"station_id":"","pricing_plan_id":"cebpf4jnsgd1na2vs0mg"},{"bike_id":"94cff9fc-c2c1-458b-8eb9-98cb393f196c","system_id":"levelo_inurba_marseille","lat":43.29718,"lon":5.36606,"is_reserved":false,"is_disabled":false,"rental_uris":{"android":"levelo://app?vid=94cff9fc-c2c1-458b-8eb9-98cb393f196c","ios":"levelo://app?vid=94cff9fc-c2c1-458b-8eb9-98cb393f196c"},"vehicle_type_id":"4","last_reported":1751300019,"current_range_meters":22400,"station_id":"ce4bgn12rcd13ifvqbt0","pricing_plan_id":"cebpf4jnsgd1na2vs0mg"},{"bike_id":"e96de8ee-994d-4ec2-8aa9-626f0fbc2dda","system_id":"levelo_inurba_marseille","lat":43.30949,"lon":5.39042,"is_reserved":false,"is_disabled":false,"rental_uris":{"android":"levelo://app?vid=e96de8ee-994d-4ec2-8aa9-626f0fbc2dda","ios":"levelo://app?vid=e96de8ee-994d-4ec2-8aa9-626f0fbc2dda"},"vehicle_type_id":"4","last_reported":1751300019,"current_range_meters":22400,"station_id":"ce4bgup2rcd13ifvqco0","pricing_plan_id":"cebpf4jnsgd1na2vs0mg"},{"bike_id":"25a302c0-0e0c-4aa1-a41f-2302957ce1e6","system_id":"levelo_inurba_marseille","lat":43.302512,"lon":5.369018,"is_reserved":false,"is_disabled":false,"rental_uris":{"android":"levelo://app?vid=25a302c0-0e0c-4aa1-a41f-2302957ce1e6","ios":"levelo://app?vid=25a302c0-0e0c-4aa1-a41f-2302957ce1e6"},"vehicle_type_id":"4","last_reported":1751300019,"current_range_meters":22400,"station_id":"ce4bhb12rcd13ifvqel0","pricing_plan_id":"cebpf4jnsgd1na2vs0mg"},{"bike_id":"9a39e028-1f77-45a6-9a4d-df0e0c9363a6","system_id":"levelo_inurba_marseille","lat":43.28408,"lon":5.3498,"is_reserved":false,"is_disabled":false,"rental_uris":{"android":"levelo://app?vid=9a39e028-1f77-45a6-9a4d-df0e0c9363a6","ios":"levelo://app?vid=9a39e028-1f77-45a6-9a4d-df0e0c9363a6"},"vehicle_type_id":"4","last_reported":1751300019,"current_range_meters":22400,"station_id":"ce4bhbh2rcd13ifvqepg","pricing_plan_id":"cebpf4jnsgd1na2vs0mg"},{"bike_id":"2dc9ee18-d5a2-4015-ac93-3a0bd410d3f1","system_id":"levelo_inurba_marseille","lat":43.23184,"lon":5.39982,"is_reserved":false,"is_disabled":false,"rental_uris":{"android":"levelo://app?vid=2dc9ee18-d5a2-4015-ac93-3a0bd410d3f1","ios":"levelo://app?vid=2dc9ee18-d5a2-4015-ac93-3a0bd410d3f1"},"vehicle_type_id":"4","last_reported":1751300019,"current_range_meters":22400,"station_id":"ce4bhn12rcd13ifvqgqg","pricing_plan_id":"cebpf4jnsgd1na2vs0mg"},{"bike_id":"b56883d2-5bbf-4cee-ba7f-39476abdc3be","system_id":"levelo_inurba_marseille","lat":43.23181,"lon":5.39986,"is_reserved":false,"is_disabled":false,"rental_uris":{"android":"levelo://app?vid=b56883d2-5bbf-4cee-ba7f-39476abdc3be","ios":"levelo://app?vid=b56883d2-5bbf-4cee-ba7f-39476abdc3be"},"vehicle_type_id":"4","last_reported":1751300019,"current_range_meters":22400,"station_id":"ce4bhn12rcd13ifvqgqg","pricing_plan_id":"cebpf4jnsgd1na2vs0mg"},