{"last_updated":1737450561,"ttl":60,"version":"2.2","data":{"bikes":[{"bike_id":"b74b855a-0a8e-44e1-aa63-99dc34613857","system_id":"levelo_inurba_marseille","lat":43.29897,"lon":5.43672,"is_reserved":false,"is_disabled":false,"rental_uris":{"android":"levelo://app?vid=b74b855a-0a8e-44e1-aa63-99dc34613857","ios":"levelo://app?vid=b74b855a-0a8e-44e1-aa63-99dc34613857"},"vehicle_type_id":"4","last_reported":1737450561,"current_range_meters":28000,"station_id":"ce4bhpp2rcd13ifvqhfg","pricing_plan_id":"cebpf4jnsgd1na2vs0mg"},{"bike_id":"b35cfe77-c215-418b-b426-ecaffb61c8e9","system_id":"levelo_inurba_marseille","lat":43.30957,"lon":5.39064,"is_reserved":false,"is_disabled":false,"rental_uris":{"android":"levelo://app?vid=b35cfe77-c215-418b-b426-ecaffb61c8e9","ios":"levelo://app?vid=b35cfe77-c215-418b-b426-ecaffb61c8e9"},"vehicle_type_id":"4","last_reported":1737450561,"current_range_meters":36400,"station_id":"ce4bgup2rcd13ifvqco0","pricing_plan_id":"cebpf4jnsgd1na2vs0mg"},{"bike_id":"4494fd7f-0fd7-43e9-b3b0-b1d616d3bd72","system_id":"levelo_inurba_marseille","lat":43.29036,"lon":5.37571,"is_reserved":false,"is_disabled":false,"rental_uris":{"android":"levelo://app?vid=4494fd7f-0fd7-43e9-b3b0-b1d616d3bd72","ios":"levelo://app?vid=4494fd7f-0fd7-43e9-b3b0-b1d616d3bd72"},"vehicle_type_id":"4","last_reported":1737450561,"current_range_meters":8400,"station_id":"ce4bh692rcd13ifvqe90","pricing_plan_id":"cebpf4jnsgd1na2vs0mg"},{"bike_id":"8403688e-2cae-47f8-a0e0-0d97b3fd96bd","system_id":"levelo_inurba_marseille","lat":43.2925,"lon":5.38436,"is_reserved":false,"is_disabled":false,"rental_uris":{"android":"levelo://app?vid=8403688e-2cae-47f8-a0e0-0d97b3fd96bd","ios":"levelo://app?vid=8403688e-2cae-47f8-a0e0-0d97b3fd96bd"},"vehicle_type_id":"4","last_reported":1737450561,"current_range_meters":29600,"station_id":"ce4bh692rcd13ifvqea0","pricing_plan_id":"cebpf4jnsgd1na2vs0mg"},{"bike_id":"19ab77b4-671c-4d05-aa42-ad5f7c338f06","system_id":"levelo_inurba_marseille","lat":43.28266,"lon":5.35065,"is_reserved":false,"is_disabled":true,"rental_uris":{"android":"levelo://app?vid=19ab77b4-671c-4d05-aa42-ad5f7c338f06","ios":"levelo://app?vid=19ab77b4-671c-4d05-aa42-ad5f7c338f06"},"vehicle_type_id":"4","last_reported":1737450561,"current_range_meters":38800,"station_id":"ce4bhbp2rcd13ifvqerg","pricing_plan_id":"cebpf4jnsgd1na2vs0mg"},{"bike_id":"b3441528-b46d-47b6-b76c-3fd84aa20027","system_id":"levelo_inurba_marseille","lat":43.30455,"lon":5.3891,"is_reserved":false,"is_disabled":true,"rental_uris":{"android":"levelo://app?vid=b3441528-b46d-47b6-b76c-3fd84aa20027","ios":"levelo://app?vid=b3441528-b46d-47b6-b76c-3fd84aa20027"},"vehicle_type_id":"4","last_reported":1737450561,"current_range_meters":1600,"station_id":"ce4bgk12rcd13ifvqbi0","pricing_plan_id":"cebpf4jnsgd1na2vs0mg"},{"bike_id":"9c4d7857-d69e-4ad9-9b0d-52d873fddadc","system_id":"levelo_inurba_marseille","lat":43.30955,"lon":5.3913,"is_reserved":false,"is_disabled":false,"rental_uris":{"android":"levelo://app?vid=9c4d7857-d69e-4ad9-9b0d-52d873fddadc","ios":"levelo://app?vid=9c4d7857-d69e-4ad9-9b0d-52d873fddadc"},"vehicle_type_id":"4","last_reported":1737450561,"current_range_meters":22800,"station_id":"","pricing_plan_id":"cebpf4jnsgd1na2vs0mg"},{"bike_id":"ff6917e2-8605-43ce-83c7-f422febc73a7","system_id":"levelo_inurba_marseille","lat":43.23155,"lon":5.43706,"is_reserved":false,"is_disabled":false,"rental_uris":{"android":"levelo://app?vid=ff6917e2-8605-43ce-83c7-f422febc73a7","ios":"levelo://app?vid=ff6917e2-8605-43ce-83c7-f422febc73a7"},"vehicle_type_id":"4","last_reported":1737450561,"current_range_meters":10000,"station_id":"ce4bhmp2rcd13ifvqgog","pricing_plan_id":"cebpf4jnsgd1na2vs0mg"},{"bike_id":"0efcb19d-a5d5-4cbb-a0ba-146fb16ac38e","system_id":"levelo_inurba_marseille","lat":43.3055,"lon":5.36562,"is_reserved":false,"is_disabled":false,"rental_uris":{"android":"levelo://app?vid=0efcb19d-a5d5-4cbb-a0ba-146fb16ac38e","ios":"levelo://app?vid=0efcb19d-a5d5-4cbb-a0ba-146fb16ac38e"},"vehicle_type_id":"4","last_reported":1737450561,"current_range_meters":32800,"station_id":"ce4bgs12rcd13ifvqcag","pricing_plan_id":"cebpf4jnsgd1na2vs0mg"},{"bike_id":"e65f406c-7f67-45a7-aa82-f802c824546f","system_id":"levelo_inurba_marseille","lat":43.24073,"lon":5.3776,"is_reserved":false,"is_disabled":false,"rental_uris":{"android":"levelo://app?vid=e65f406c-7f67-45a7-aa82-f802c824546f","ios":"levelo://app?vid=e65f406c-7f67-45a7-aa82-f802c824546f"},"vehicle_type_id":"4","last_reported":1737450561,"current_range_meters":18000,"station_id":"ce4bhnp2rcd13ifvqgvg","pricing_plan_id":"cebpf4jnsgd1na2vs0mg"},{"bike_id":"447a1b0e-7a1c-48af-849f-df437627c8e9","system_id":"levelo_inurba_marseille","lat":43.29268,"lon":5.40901,"is_reserved":false,"is_disabled":false,"rental_uris":{"android":"levelo://app?vid=447a1b0e-7a1c-48af-849f-df437627c8e9","ios":"levelo://app?vid=447a1b0e-7a1c-48af-849f-df437627c8e9"},"vehicle_type_id":"4","last_reported":1737450561,"current_range_meters":21600,"station_id":"ce4bh192rcd13ifvqdc0","pricing_plan_id":"cebpf4jnsgd1na2vs0mg"},{"bike_id":"7388954d-535f-4c1a-960e-18bf9ca31df7","system_id":"levelo_inurba_marseille","lat":43.3015,"lon":5.37444,"is_reserved":false,"is_disabled":false,"rental_uris":{"android":"levelo://app?vid=7388954d-535f-4c1a-960e-18bf9ca31df7","ios":"levelo://app?vid=7388954d-535f-4c1a-960e-18bf9ca31df7"},"vehicle_type_id":"4","last_reported":1737450561,"current_range_meters":38800,"station_id":"ce4bgs92rcd13ifvqcc0","pricing_plan_id":"cebpf4jnsgd1na2vs0mg"},{"bike_id":"5c85ec9b-2544-4827-aaa8-3980c8898987","system_id":"levelo_inurba_marseille","lat":43.31295,"lon":5.36905,"is_reserved":false,"is_disabled":false,"rental_uris":{"android":"levelo://app?vid=5c85ec9b-2544-4827-aaa8-3980c8898987","ios":"levelo://app?vid=5c85ec9b-2544-4827-aaa8-3980c8898987"},"vehicle_type_id":"4","last_reported":1737450561,"current_range_meters":10800,"station_id":"ce4bgl92rcd13ifvqbq0","pricing_plan_id":"cebpf4jnsgd1na2vs0mg"},{"bike_id":"48a4db89-2f72-4ee8-b0ea-b0bc6e5aab84","system_id":"levelo_inurba_marseille","lat":43.26054,"lon":5.39384,"is_reserved":false,"is_disabled":false,"rental_uris":{"android":"levelo://app?vid=48a4db89-2f72-4ee8-b0ea-b0bc6e5aab84","ios":"levelo://app?vid=48a4db89-2f72-4ee8-b0ea-b0bc6e5aab84"},"vehicle_type_id":"4","last_reported":1737450561,"current_range_meters":34800,"station_id":"ce4bhh92rcd13ifvqfj0","pricing_plan_id":"cebpf4jnsgd1na2vs0mg"},{"bike_id":"48d60ac7-a2bd-44ea-8ae7-f8e68106fc06","system_id":"levelo_inurba_marseille","lat":43.29254,"lon":5.38434,"is_reserved":false,"is_disabled":true,"rental_uris":{"android":"levelo://app?vid=48d60ac7-a2bd-44ea-8ae7-f8e68106fc06","ios":"levelo://app?vid=48d60ac7-a2bd-44ea-8ae7-f8e68106fc06"},"vehicle_type_id":"4","last_reported":1737450561,"current_range_meters":32400,"station_id":"ce4bh692rcd13ifvqea0","pricing_plan_id":"cebpf4jnsgd1na2vs0mg"},{"bike_id":"8d4dc421-5df3-4fe4-b312-dbdb8204cfb8","system_id":"levelo_inurba_marseille","lat":43.2961,"lon":5.37733,"is_reserved":false,"is_disabled":false,"rental_uris":{"android":"levelo://app?vid=8d4dc421-5df3-4fe4-b312-dbdb8204cfb8","ios":"levelo://app?vid=8d4dc421-5df3-4fe4-b312-dbdb8204cfb8"},"vehicle_type_id":"4","last_reported":1737450561,"current_range_meters":14000,"station_id":"ce4bgi92rcd13ifvqb90","pricing_plan_id":"cebpf4jnsgd1na2vs0mg"},{"bike_id":"54e47bbf-d358-4fc6-9623-23d2eb6b92a9","system_id":"levelo_inurba_marseille","lat":43.276747,"lon":5.388474,"is_reserved":false,"is_disabled":true,"rental_uris":{"android":"levelo://app?vid=54e47bbf-d358-4fc6-9623-23d2eb6b92a9","ios":"levelo://app?vid=54e47bbf-d358-4fc6-9623-23d2eb6b92a9"},"vehicle_type_id":"4","last_reported":1737450561,"current_range_meters":12800,"station_id":"","pricing_plan_id":"cebpf4jnsgd1na2vs0mg"},{"bike_id":"a2771881-b956-4a9a-9bc9-a89642d437c9","system_id":"levelo_inurba_marseille","lat":43.23195,"lon":5.35572,"is_reserved":false,"is_disabled":false,"rental_uris":{"android":"levelo://app?vid=a2771881-b956-4a9a-9bc9-a89642d437c9","ios":"levelo://app?vid=a2771881-b956-4a9a-9bc9-a89642d437c9"},"vehicle_type_id":"4","last_reported":1737450561,"current_range_meters":37600,"station_id":"ce4bhu92rcd13ifvqi70","pricing_plan_id":"cebpf4jnsgd1na2vs0mg"},{"bike_id":"3b26ab37-3b51-49df-bcb5-b23c8b5b2a76","system_id":"levelo_inurba_marseille","lat":43.3212,"lon":5.36824,"is_reserved":false,"is_disabled":false,"rental_uris":{"android":"levelo://app?vid=3b26ab37-3b51-49df-bcb5-b23c8b5b2a76","ios":"levelo://app?vid=3b26ab37-3b51-49df-bcb5-b23c8b5b2a76"},"vehicle_type_id":"4","last_reported":1737450561,"current_range_meters":14000,"station_id":"","pricing_plan_id":"cebpf4jnsgd1na2vs0mg"},{"bike_id":"a0b6907a-1e1a-4e71-8881-c6aaf1bfce9b","system_id":"levelo_inurba_marseille","lat":43.30303,"lon":5.36891,"is_reserved":false,"is_disabled":false,"rental_uris":{"android":"levelo://app?vid=a0b6907a-1e1a-4e71-8881-c6aaf1bfce9b","ios":"levelo://app?vid=a0b6907a-1e1a-4e71-8881-c6aaf1bfce9b"},"vehicle_type_id":"4","last_reported":1737450561,"current_range_meters":12000,"station_id":"ce4bgqh2rcd13ifvqc5g","pricing_plan_id":"cebpf4jnsgd1na2vs0mg"},{"bike_id":"29221ab9-b812-48ff-a6ad-e94a2a1d307f","system_id":"levelo_inurba_marseille","lat":43.2749,"lon":5.42456,"is_reserved":false,"is_disabled":false,"rental_uris":{"android":"levelo://app?vid=29221ab9-b812-48ff-a6ad-e94a2a1d307f","ios":"levelo://app?vid=29221ab9-b812-48ff-a6ad-e94a2a1d307f"},"vehicle_type_id":"4","last_reported":1737450561,"current_range_meters":16400,"station_id":"ce4bhn92rcd13ifvqgrg","pricing_plan_id":"cebpf4jnsgd1na2vs0mg"},{"bike_id":"8278550a-d2bd-4df6-b67d-28b29e493b15","system_id":"levelo_inurba_marseille","lat":43.29595,"lon":5.38105,"is_reserved":false,"is_disabled":false,"rental_uris":{"android":"levelo://app?vid=8278550a-d2bd-4df6-b67d-28b29e493b15","ios":"levelo://app?vid=8278550a-d2bd-4df6-b67d-28b29e493b15"},"vehicle_type_id":"4","last_reported":1737450561,"current_range_meters":32000,"station_id":"ce4bgl12rcd13ifvqbo0","pricing_plan_id":"cebpf4jnsgd1na2vs0mg"},{"bike_id":"7e3dd897-1500-42f4-8825-2e88d80b5039","system_id":"levelo_inurba_marseille","lat":43.2996,"lon":5.38496,"is_reserved":false,"is_disabled":false,"rental_uris":{"android":"levelo://app?vid=7e3dd897-1500-42f4-8825-2e88d80b5039","ios":"levelo://app?vid=7e3dd897-1500-42f4-8825-2e88d80b5039"},"vehicle_type_id":"4","last_reported":1737450561,"current_range_meters":36000,"station_id":"ce4bgj92rcd13ifvqbd0","pricing_plan_id":"cebpf4jnsgd1na2vs0mg"},{"bike_id":"fced83d2-ee12-4832-920f-c4720f2a7190","system_id":"levelo_inurba_marseille","lat":43.30466,"lon":5.379,"is_reserved":false,"is_disabled":false,"rental_uris":{"android":"levelo://app?vid=fced83d2-ee12-4832-920f-c4720f2a7190","ios":"levelo://app?vid=fced83d2-ee12-4832-920f-c4720f2a7190"},"vehicle_type_id":"4","last_reported":1737450561,"current_range_meters":26000,"station_id":"ce4bgup2rcd13ifvqcn0","pricing_plan_id":"cebpf4jnsgd1na2vs0mg"},{"bike_id":"79246c68-7de1-4555-9cf4-39bd1625183d","system_id":"levelo_inurba_marseille","lat":43.25487,"lon":5.37642,"is_reserved":false,"is_disabled":false,"rental_uris":{"android":"levelo://app?vid=79246c68-7de1-4555-9cf4-39bd1625183d","ios":"levelo://app?vid=79246c68-7de1-4555-9cf4-39bd1625183d"},"vehicle_type_id":"4","last_reported":1737450561,"current_range_meters":9600,"station_id":"ce4bhh12rcd13ifvqff0","pricing_plan_id":"cebpf4jnsgd1na2vs0mg"},{"bike_id":"e3cecdc0-c790-4056-8409-75b7f8668c23","system_id":"levelo_inurba_marseille","lat":43.2902,"lon":5.38131,"is_reserved":false,"is_disabled":false,"rental_uris":{"android":"levelo://app?vid=e3cecdc0-c790-4056-8409-75b7f8668c23","ios":"levelo://app?vid=e3cecdc0-c790-4056-8409-75b7f8668c23"},"vehicle_type_id":"4","last_reported":1737450561,"current_range_meters":20800,"station_id":"ce4bh4p2rcd13ifvqe1g","pricing_plan_id":"cebpf4jnsgd1na2vs0mg"},{"bike_id":"02da9480-e0bb-4089-86ef-36d062565380","system_id":"levelo_inurba_marseille","lat":43.32542,"lon":5.41448,"is_reserved":false,"is_disabled":false,"rental_uris":{"android":"levelo://app?vid=02da9480-e0bb-4089-86ef-36d062565380","ios":"levelo://app?vid=02da9480-e0bb-4089-86ef-36d062565380"},"vehicle_type_id":"4","last_reported":1737450561,"current_range_meters":32000,"station_id":"ce4bhq12rcd13ifvqhhg","pricing_plan_id":"cebpf4jnsgd1na2vs0mg"},{"bike_id":"ab7b1d7a-8ae0-4c4a-9611-7e663b41825a","system_id":"levelo_inurba_marseille","lat":43.3228,"lon":5.38288,"is_reserved":false,"is_disabled":false,"rental_uris":{"android":"levelo://app?vid=ab7b1d7a-8ae0-4c4a-9611-7e663b41825a","ios":"levelo://app?vid=ab7b1d7a-8ae0-4c4a-9611-7e663b41825a"},"vehicle_type_id":"4","last_reported":1737450561,"current_range_meters":38800,"station_id":"ce4bhr12rcd13ifvqhqg","pricing_plan_id":"cebpf4jnsgd1na2vs0mg"},{"bike_id":"d4a18e16-6eb1-455f-9f8d-52c212244e83","system_id":"levelo_inurba_marseille","lat":43.27809,"lon":5.40503,"is_reserved":false,"is_disabled":true,"rental_uris":{"android":"levelo://app?vid=d4a18e16-6eb1-455f-9f8d-52c212244e83","ios":"levelo://app?vid=d4a18e16-6eb1-455f-9f8d-52c212244e83"},"vehicle_type_id":"4","last_reported":1737450561,"current_range_meters":0,"station_id":"","pricing_plan_id":"cebpf4jnsgd1na2vs0mg"},{"bike_id":"9a46fc70-7cd3-48e2-808e-3b382fbb61cd","system_id":"levelo_inurba_marseille","lat":43.2314,"lon":5.43713,"is_reserved":false,"is_disabled":false,"rental_uris":{"android":"levelo://app?vid=9a46fc70-7cd3-48e2-808e-3b382fbb61cd","ios":"levelo://app?vid=9a46fc70-7cd3-48e2-808e-3b382fbb61cd"},"vehicle_type_id":"4","last_reported":1737450561,"current_range_meters":16000,"station_id":"ce4bhmp2rcd13ifvqgog","pricing_plan_id":"cebpf4jnsgd1na2vs0mg"},{"bike_id":"4a31d953-a351-4e4b-a04e-ac11058ef623","system_id":"levelo_inurba_marseille","lat":43.27796,"lon":5.40727,"is_reserved":false,"is_disabled":false,"rental_uris":{"android":"levelo://app?vid=4a31d953-a351-4e4b-a04e-ac11058ef623","ios":"levelo://app?vid=4a31d953-a351-4e4b-a04e-ac11058ef623"},"vehicle_type_id":"4","last_reported":1737450561,"current_range_meters":27600,"station_id":"ce4bhnh2rcd13ifvqgtg","pricing_plan_id":"cebpf4jnsgd1na2vs0mg"},{"bike_id":"3cdae501-d533-4bc4-8409-6212e9542676","system_id":"levelo_inurba_marseille","lat":43.24064,"lon":5.37754,"is_reserved":false,"is_disabled":false,"rental_uris":{"android":"levelo://app?vid=3cdae501-d533-4bc4-8409-6212e9542676","ios":"levelo://app?vid=3cdae501-d533-4bc4-8409-6212e9542676"},"vehicle_type_id":"4","last_reported":1737450561,"current_range_meters":28800,"station_id":"ce4bhnp2rcd13ifvqgvg","pricing_plan_id":"cebpf4jnsgd1na2vs0mg"},{"bike_id":"d91be513-c350-4df2-80c9-9eac41eaf470","system_id":"levelo_inurba_marseille","lat":43.27977,"lon":5.38733,"is_reserved":false,"is_disabled":true,"rental_uris":{"android":"levelo://app?vid=d91be513-c350-4df2-80c9-9eac41eaf470","ios":"levelo://app?vid=d91be513-c350-4df2-80c9-9eac41eaf470"},"vehicle_type_id":"4","last_reported":1737450561,"current_range_meters":0,"station_id":"ce4bhg12rcd13ifvqf80","pricing_plan_id":"cebpf4jnsgd1na2vs0mg"},{"bike_id":"87ebad09-65a6-4770-9b00-958e02f13d23","system_id":"levelo_inurba_marseille","lat":43.27491,"lon":5.42467,"is_reserved":false,"is_disabled":false,"rental_uris":{"android":"levelo://app?vid=87ebad09-65a6-4770-9b00-958e02f13d23","ios":"levelo://app?vid=87ebad09-65a6-4770-9b00-958e02f13d23"},"vehicle_type_id":"4","last_reported":1737450561,"current_range_meters":35600,"station_id":"ce4bhn92rcd13ifvqgrg","pricing_plan_id":"cebpf4jnsgd1na2vs0mg"},{"bike_id":"a3212914-fc49-41cd-bcee-c129fc7ffd9b","system_id":"levelo_inurba_marseille","lat":43.29735,"lon":5.39912,"is_reserved":false,"is_disabled":false,"rental_uris":{"android":"levelo://app?vid=a3212914-fc49-41cd-bcee-c129fc7ffd9b","ios":"levelo://app?vid=a3212914-fc49-41cd-bcee-c129fc7ffd9b"},"vehicle_type_id":"4","last_reported":1737450561,"current_range_meters":14800,"station_id":"","pricing_plan_id":"cebpf4jnsgd1na2vs0mg"},{"bike_id":"fdf71a43-702e-4145-9342-d227b8b5522a","system_id":"levelo_inurba_marseille","lat":43.26229,"lon":5.40452,"is_reserved":false,"is_disabled":false,"rental_uris":{"android":"levelo://app?vid=fdf71a43-702e-4145-9342-d227b8b5522a","ios":"levelo://app?vid=fdf71a43-702e-4145-9342-d227b8b5522a"},"vehicle_type_id":"4","last_reported":1737450561,"current_range_meters":27600,"station_id":"","pricing_plan_id":"cebpf4jnsgd1na2vs0mg"},{"bike_id":"7c981f3d-d8ae-413a-bc44-55e9cce45c22","system_id":"levelo_inurba_marseille","lat":43.30904,"lon":5.36876,"is_reserved":false,"is_disabled":false,"rental_uris":{"android":"levelo://app?vid=7c981f3d-d8ae-413a-bc44-55e9cce45c22","ios":"levelo://app?vid=7c981f3d-d8ae-413a-bc44-55e9cce45c22"},"vehicle_type_id":"4","last_reported":1737450561,"current_range_meters":34000,"station_id":"ce4bgn92rcd13ifvqbvg","pricing_plan_id":"cebpf4jnsgd1na2vs0mg"},{"bike_id":"db090fa3-42a7-4621-ba95-24031c78cef7","system_id":"levelo_inurba_marseille","lat":43.26495,"lon":5.39569,"is_reserved":false,"is_disabled":true,"rental_uris":{"android":"levelo://app?vid=db090fa3-42a7-4621-ba95-24031c78cef7","ios":"levelo://app?vid=db090fa3-42a7-4621-ba95-24031c78cef7"},"vehicle_type_id":"4","last_reported":1737450561,"current_range_meters":0,"station_id":"ce4bhi12rcd13ifvqfq0","pricing_plan_id":"cebpf4jnsgd1na2vs0mg"},{"bike_id":"c35f2a56-0945-408c-ab7b-059d91aadb6e","system_id":"levelo_inurba_marseille","lat":43.25944,"lon":5.40891,"is_reserved":false,"is_disabled":false,"rental_uris":{"android":"levelo://app?vid=c35f2a56-0945-408c-ab7b-059d91aadb6e","ios":"levelo://app?vid=c35f2a56-0945-408c-ab7b-059d91aadb6e"},"vehicle_type_id":"4","last_reported":1737450561,"current_range_meters":22400,"station_id":"ce4bhm92rcd13ifvqglg","pricing_plan_id":"cebpf4jnsgd1na2vs0mg"},{"bike_id":"e9a130dc-806e-49a7-80a8-0ae869a1a749","system_id":"levelo_inurba_marseille","lat":43.31251,"lon":5.36866,"is_reserved":false,"is_disabled":false,"rental_uris":{"android":"levelo://app?vid=e9a130dc-806e-49a7-80a8-0ae869a1a749","ios":"levelo://app?vid=e9a130dc-806e-49a7-80a8-0ae869a1a749"},"vehicle_type_id":"4","last_reported":1737450561,"current_range_meters":6400,"station_id":"ce4bgl92rcd13ifvqbq0","pricing_plan_id":"cebpf4jnsgd1na2vs0mg"},{"bike_id":"53e56092-bf59-4d37-8073-3e35714bc05d","system_id":"levelo_inurba_marseille","lat":43.23151,"lon":5.4372,"is_reserved":false,"is_disabled":false,"rental_uris":{"android":"levelo://app?vid=53e56092-bf59-4d37-8073-3e35714bc05d","ios":"levelo://app?vid=53e56092-bf59-4d37-8073-3e35714bc05d"},"vehicle_type_id":"4","last_reported":1737450561,"current_range_meters":14000,"station_id":"ce4bhmp2rcd13ifvqgog","pricing_plan_id":"cebpf4jnsgd1na2vs0mg"},{"bike_id":"89e5d999-b64a-4894-b233-fbd2ca840386","system_id":"levelo_inurba_marseille","lat":43.30911,"lon":5.36853,"is_reserved":false,"is_disabled":false,"rental_uris":{"android":"levelo://app?vid=89e5d999-b64a-4894-b233-fbd2ca840386","ios":"levelo://app?vid=89e5d999-b64a-4894-b233-fbd2ca840386"},"vehicle_type_id":"4","last_reported":1737450561,"current_range_meters":32400,"station_id":"ce4bgn92rcd13ifvqbvg","pricing_plan_id":"cebpf4jnsgd1na2vs0mg"},{"bike_id":"94bf42df-87b9-4b7c-944b-0255417e271a","system_id":"levelo_inurba_marseille","lat":43.286479,"lon":5.399575,"is_reserved":false,"is_disabled":false,"rental_uris":{"android":"levelo://app?vid=94bf42df-87b9-4b7c-944b-0255417e271a","ios":"levelo://app?vid=94bf42df-87b9-4b7c-944b-0255417e271a"},"vehicle_type_id":"4","last_reported":1737450561,"current_range_meters":36000,"station_id":"ce4bho92rcd13ifvqh3g","pricing_plan_id":"cebpf4jnsgd1na2vs0mg"},{"bike_id":"7c867417-7cf7-428f-831a-a3df803b5c37","system_id":"levelo_inurba_marseille","lat":43.30151,"lon":5.38093,"is_reserved":false,"is_disabled":false,"rental_uris":{"android":"levelo://app?vid=7c867417-7cf7-428f-831a-a3df803b5c37","ios":"levelo://app?vid=7c867417-7cf7-428f-831a-a3df803b5c37"},"vehicle_type_id":"4","last_reported":1737450561,"current_range_meters":32800,"station_id":"ce4bgjp2rcd13ifvqbh0","pricing_plan_id":"cebpf4jnsgd1na2vs0mg"},{"bike_id":"61a7c792-f70f-4282-923e-9494260e6175","system_id":"levelo_inurba_marseille","lat":43.305937,"lon":5.393555,"is_reserved":false,"is_disabled":true,"rental_uris":{"android":"levelo://app?vid=61a7c792-f70f-4282-923e-9494260e6175","ios":"levelo://app?vid=61a7c792-f70f-4282-923e-9494260e6175"},"vehicle_type_id":"4","last_reported":1737450561,"current_range_meters":0,"station_id":"ce4bh0p2rcd13ifvqd80","pricing_plan_id":"cebpf4jnsgd1na2vs0mg"},{"bike_id":"31254844-cf96-4069-8c0f-e219c1d8caa3","system_id":"levelo_inurba_marseille","lat":43.29099,"lon":5.40093,"is_reserved":false,"is_disabled":false,"rental_uris":{"android":"levelo://app?vid=31254844-cf96-4069-8c0f-e219c1d8caa3","ios":"levelo://app?vid=31254844-cf96-4069-8c0f-e219c1d8caa3"},"vehicle_type_id":"4","last_reported":1737450561,"current_range_meters":38000,"station_id":"","pricing_plan_id":"cebpf4jnsgd1na2vs0mg"},{"bike_id":"4a95da1b-b6c5-4a4e-9930-21a2e0b47b1d","system_id":"levelo_inurba_marseille","lat":43.27996,"lon":5.41668,"is_reserved":false,"is_disabled":false,"rental_uris":{"android":"levelo://app?vid=4a95da1b-b6c5-4a4e-9930-21a2e0b47b1d","ios":"levelo://app?vid=4a95da1b-b6c5-4a4e-9930-21a2e0b47b1d"},"vehicle_type_id":"4","last_reported":1737450561,"current_range_meters":8000,"station_id":"ce4bho12rcd13ifvqh1g","pricing_plan_id":"cebpf4jnsgd1na2vs0mg"},{"bike_id":"c6aec08a-95b2-468e-b6ba-3552b798296e","system_id":"levelo_inurba_marseille","lat":43.33625,"lon":5.41022,"is_reserved":false,"is_disabled":false,"rental_uris":{"android":"levelo://app?vid=c6aec08a-95b2-468e-b6ba-3552b798296e","ios":"levelo://app?vid=c6aec08a-95b2-468e-b6ba-3552b798296e"},"vehicle_type_id":"4","last_reported":1737450561,"current_range_meters":28800,"station_id":"ce4bhqh2rcd13ifvqhmg","pricing_plan_id":"cebpf4jnsgd1na2vs0mg"},{"bike_id":"c5b30ff3-a055-4ec4-836d-1e81f89e5f14","system_id":"levelo_inurba_marseille","lat":43.31361,"lon":5.38496,"is_reserved":false,"is_disabled":true,"rental_uris":{"android":"levelo://app?vid=c5b30ff3-a055-4ec4-836d-1e81f89e5f14","ios":"levelo://app?vid=c5b30ff3-a055-4ec4-836d-1e81f89e5f14"},"vehicle_type_id":"4","last_reported":1737450561,"current_range_meters":400,"station_id":"ce4bgt92rcd13ifvqcf0","pricing_plan_id":"cebpf4jnsgd1na2vs0mg"},{"bike_id":"57089681-4dfb-4ed4-9d3a-5124dafb4159","system_id":"levelo_inurba_marseille","lat":43.27069,"lon":5.42281,"is_reserved":false,"is_disabled":false,"rental_uris":{"android":"levelo://app?vid=57089681-4dfb-4ed4-9d3a-5124dafb4159","ios":"levelo://app?vid=57089681-4dfb-4ed4-9d3a-5124dafb4159"},"vehicle_type_id":"4","last_reported":1737450561,"current_range_meters":28000,"station_id":"ce4bhk92rcd13ifvqgb0","pricing_plan_id":"cebpf4jnsgd1na2vs0mg"},{"bike_id":"9a9a36ce-1da4-40bc-95da-645d86ed77b6","system_id":"levelo_inurba_marseille","lat":43.29562,"lon":5.3753,"is_reserved":false,"is_disabled":false,"rental_uris":{"android":"levelo://app?vid=9a9a36ce-1da4-40bc-95da-645d86ed77b6","ios":"levelo://app?vid=9a9a36ce-1da4-40bc-95da-645d86ed77b6"},"vehicle_type_id":"4","last_reported":1737450561,"current_range_meters":13600,"station_id":"ce4bgh92rcd13ifvqb50","pricing_plan_id":"cebpf4jnsgd1na2vs0mg"},{"bike_id":"97f55e19-1091-473c-8b95-622d27bf6a7f","system_id":"levelo_inurba_marseille","lat":43.29385,"lon":5.37856,"is_reserved":false,"is_disabled":false,"rental_uris":{"android":"levelo://app?vid=97f55e19-1091-473c-8b95-622d27bf6a7f","ios":"levelo://app?vid=97f55e19-1091-473c-8b95-622d27bf6a7f"},"vehicle_type_id":"4","last_reported":1737450561,"current_range_meters":36000,"station_id":"ce4bgjh2rcd13ifvqbf0","pricing_plan_id":"cebpf4jnsgd1na2vs0mg"},{"bike_id":"580fd682-a63d-4470-bd40-a527c3d7e682","system_id":"levelo_inurba_marseille","lat":43.250037,"lon":5.389257,"is_reserved":false,"is_disabled":false,"rental_uris":{"android":"levelo://app?vid=580fd682-a63d-4470-bd40-a527c3d7e682","ios":"levelo://app?vid=580fd682-a63d-4470-bd40-a527c3d7e682"},"vehicle_type_id":"4","last_reported":1737450561,"current_range_meters":39200,"station_id":"ce4bhgp2rcd13ifvqfd0","pricing_plan_id":"cebpf4jnsgd1na2vs0mg"},{"bike_id":"c0efec32-c7b6-4692-9f6a-8e083c92eb4b","system_id":"levelo_inurba_marseille","lat":43.2843,"lon":5.34987,"is_reserved":false,"is_disabled":false,"rental_uris":{"android":"levelo://app?vid=c0efec32-c7b6-4692-9f6a-8e083c92eb4b","ios":"levelo://app?vid=c0efec32-c7b6-4692-9f6a-8e083c92eb4b"},"vehicle_type_id":"4","last_reported":1737450561,"current_range_meters":31200,"station_id":"ce4bhbh2rcd13ifvqepg","pricing_plan_id":"cebpf4jnsgd1na2vs0mg"},{"bike_id":"0b72ae28-e367-40e7-b143-161a650d22e6","system_id":"levelo_inurba_marseille","lat":43.29319,"lon":5.37182,"is_reserved":false,"is_disabled":false,"rental_uris":{"android":"levelo://app?vid=0b72ae28-e367-40e7-b143-161a650d22e6","ios":"levelo://app?vid=0b72ae28-e367-40e7-b143-161a650d22e6"},"vehicle_type_id":"4","last_reported":1737450561,"current_range_meters":32800,"station_id":"ce4bgh92rcd13ifvqb40","pricing_plan_id":"cebpf4jnsgd1na2vs0mg"},{"bike_id":"78ead62c-8e6d-4caa-b268-759e0d7ac090","system_id":"levelo_inurba_marseille","lat":43.27486,"lon":5.42467,"is_reserved":false,"is_disabled":false,"rental_uris":{"android":"levelo://app?vid=78ead62c-8e6d-4caa-b268-759e0d7ac090","ios":"levelo://app?vid=78ead62c-8e6d-4caa-b268-759e0d7ac090"},"vehicle_type_id":"4","last_reported":1737450561,"current_range_meters":23200,"station_id":"ce4bhn92rcd13ifvqgrg","pricing_plan_id":"cebpf4jnsgd1na2vs0mg"},{"bike_id":"cc958890-0ed5-44c2-a0d9-92928b491c54","system_id":"levelo_inurba_marseille","lat":43.27206,"lon":5.39182,"is_reserved":false,"is_disabled":false,"rental_uris":{"android":"levelo://app?vid=cc958890-0ed5-44c2-a0d9-92928b491c54","ios":"levelo://app?vid=cc958890-0ed5-44c2-a0d9-92928b491c54"},"vehicle_type_id":"4","last_reported":1737450561,"current_range_meters":38800,"station_id":"ce4bhhp2rcd13ifvqfm0","pricing_plan_id":"cebpf4jnsgd1na2vs0mg"},{"bike_id":"8015219e-1fe8-43fa-80f1-781ff00a08b2","system_id":"levelo_inurba_marseille","lat":43.25924,"lon":5.40909,"is_reserved":false,"is_disabled":false,"rental_uris":{"android":"levelo://app?vid=8015219e-1fe8-43fa-80f1-781ff00a08b2","ios":"levelo://app?vid=8015219e-1fe8-43fa-80f1-781ff00a08b2"},"vehicle_type_id":"4","last_reported":1737450561,"current_range_meters":30400,"station_id":"ce4bhm92rcd13ifvqglg","pricing_plan_id":"cebpf4jnsgd1na2vs0mg"},{"bike_id":"ea4936bb-a020-48d0-ad34-8742c0d8a98c","system_id":"levelo_inurba_marseille","lat":43.30913,"lon":5.368673,"is_reserved":false,"is_disabled":false,"rental_uris":{"android":"levelo://app?vid=ea4936bb-a020-48d0-ad34-8742c0d8a98c","ios":"levelo://app?vid=ea4936bb-a020-48d0-ad34-8742c0d8a98c"},"vehicle_type_id":"4","last_reported":1737450561,"current_range_meters":31200,"station_id":"ce4bgn92rcd13ifvqbvg","pricing_plan_id":"cebpf4jnsgd1na2vs0mg"},{"bike_id":"31257c94-14b2-42e2-9664-77ef70ea51d9","system_id":"levelo_inurba_marseille","lat":43.32489,"lon":5.36577,"is_reserved":false,"is_disabled":false,"rental_uris":{"android":"levelo://app?vid=31257c94-14b2-42e2-9664-77ef70ea51d9","ios":"levelo://app?vid=31257c94-14b2-42e2-9664-77ef70ea51d9"},"vehicle_type_id":"4","last_reported":1737450561,"current_range_meters":9200,"station_id":"ce4bhs12rcd13ifvqhvg","pricing_plan_id":"cebpf4jnsgd1na2vs0mg"},{"bike_id":"bc44b838-5e20-4546-8ae8-e1fd2cf0cd3c","system_id":"levelo_inurba_marseille","lat":43.27563,"lon":5.38432,"is_reserved":false,"is_disabled":false,"rental_uris":{"android":"levelo://app?vid=bc44b838-5e20-4546-8ae8-e1fd2cf0cd3c","ios":"levelo://app?vid=bc44b838-5e20-4546-8ae8-e1fd2cf0cd3c"},"vehicle_type_id":"4","last_reported":1737450561,"current_range_meters":38800,"station_id":"ce4bhh92rcd13ifvqfi0","pricing_plan_id":"cebpf4jnsgd1na2vs0mg"},{"bike_id":"d6da2584-b3dd-457b-8a6a-58d03381838a","system_id":"levelo_inurba_marseille","lat":43.30141,"lon":5.37419,"is_reserved":false,"is_disabled":false,"rental_uris":{"android":"levelo://app?vid=d6da2584-b3dd-457b-8a6a-58d03381838a","ios":"levelo://app?vid=d6da2584-b3dd-457b-8a6a-58d03381838a"},"vehicle_type_id":"4","last_reported":1737450561,"current_range_meters":30000,"station_id":"ce4bgs92rcd13ifvqcc0","pricing_plan_id":"cebpf4jnsgd1na2vs0mg"},{"bike_id":"a3f90777-1b74-4cb6-afca-03f80d642831","system_id":"levelo_inurba_marseille","lat":43.26948,"lon":5.38634,"is_reserved":false,"is_disabled":false,"rental_uris":{"android":"levelo://app?vid=a3f90777-1b74-4cb6-afca-03f80d642831","ios":"levelo://app?vid=a3f90777-1b74-4cb6-afca-03f80d642831"},"vehicle_type_id":"4","last_reported":1737450561,"current_range_meters":38800,"station_id":"ce4bhh92rcd13ifvqfh0","pricing_plan_id":"cebpf4jnsgd1na2vs0mg"},{"bike_id":"b6cc31be-151e-4d56-8839-e71a9cd45b18","system_id":"levelo_inurba_marseille","lat":43.23194,"lon":5.35549,"is_reserved":false,"is_disabled":false,"rental_uris":{"android":"levelo://app?vid=b6cc31be-151e-4d56-8839-e71a9cd45b18","ios":"levelo://app?vid=b6cc31be-151e-4d56-8839-e71a9cd45b18"},"vehicle_type_id":"4","last_reported":1737450561,"current_range_meters":38000,"station_id":"ce4bhu92rcd13ifvqi70","pricing_plan_id":"cebpf4jnsgd1na2vs0mg"},{"bike_id":"1a0a2514-1dbf-4be6-9e23-d2b90daf2f22","system_id":"levelo_inurba_marseille","lat":43.23147,"lon":5.43702,"is_reserved":false,"is_disabled":false,"rental_uris":{"android":"levelo://app?vid=1a0a2514-1dbf-4be6-9e23-d2b90daf2f22","ios":"levelo://app?vid=1a0a2514-1dbf-4be6-9e23-d2b90daf2f22"},"vehicle_type_id":"4","last_reported":1737450561,"current_range_meters":9200,"station_id":"ce4bhmp2rcd13ifvqgog","pricing_plan_id":"cebpf4jnsgd1na2vs0mg"},{"bike_id":"51ef1423-7a3e-4cca-ae71-2b6e28f69bdf","system_id":"levelo_inurba_marseille","lat":43.30464,"lon":5.37891,"is_reserved":false,"is_disabled":false,"rental_uris":{"android":"levelo://app?vid=51ef1423-7a3e-4cca-ae71-2b6e28f69bdf","ios":"levelo://app?vid=51ef1423-7a3e-4cca-ae71-2b6e28f69bdf"},"vehicle_type_id":"4","last_reported":1737450561,"current_range_meters":36800,"station_id":"ce4bgup2rcd13ifvqcn0","pricing_plan_id":"cebpf4jnsgd1na2vs0mg"},{"bike_id":"e769477c-b503-4bb8-b7d3-b7f7ff9ddf2d","system_id":"levelo_inurba_marseille","lat":43.29237,"lon":5.36944,"is_reserved":false,"is_disabled":false,"rental_uris":{"android":"levelo://app?vid=e769477c-b503-4bb8-b7d3-b7f7ff9ddf2d","ios":"levelo://app?vid=e769477c-b503-4bb8-b7d3-b7f7ff9ddf2d"},"vehicle_type_id":"4","last_reported":1737450561,"current_range_meters":10800,"station_id":"","pricing_plan_id":"cebpf4jnsgd1na2vs0mg"},{"bike_id":"28ef1c1e-dd89-43e8-817b-9b489831397b","system_id":"levelo_inurba_marseille","lat":43.27134,"lon":5.39608,"is_reserved":false,"is_disabled":true,"rental_uris":{"android":"levelo://app?vid=28ef1c1e-dd89-43e8-817b-9b489831397b","ios":"levelo://app?vid=28ef1c1e-dd89-43e8-817b-9b489831397b"},"vehicle_type_id":"4","last_reported":1737450561,"current_range_meters":0,"station_id":"","pricing_plan_id":"cebpf4jnsgd1na2vs0mg"},{"bike_id":"bf04cb94-1bb7-4539-a87b-98c1f139ab50","system_id":"levelo_inurba_marseille","lat":43.29913,"lon":5.37485,"is_reserved":false,"is_disabled":false,"rental_uris":{"android":"levelo://app?vid=bf04cb94-1bb7-4539-a87b-98c1f139ab50","ios":"levelo://app?vid=bf04cb94-1bb7-4539-a87b-98c1f139ab50"},"vehicle_type_id":"4","last_reported":1737450561,"current_range_meters":25200,"station_id":"ce4bgjh2rcd13ifvqbg0","pricing_plan_id":"cebpf4jnsgd1na2vs0mg"},{"bike_id":"4b45f1b4-a81e-44c8-bf48-de599fb7389e","system_id":"levelo_inurba_marseille","lat":43.30329,"lon":5.40432,"is_reserved":false,"is_disabled":false,"rental_uris":{"android":"levelo://app?vid=4b45f1b4-a81e-44c8-bf48-de599fb7389e","ios":"levelo://app?vid=4b45f1b4-a81e-44c8-bf48-de599fb7389e"},"vehicle_type_id":"4","last_reported":1737450561,"current_range_meters":17600,"station_id":"ce4bh012rcd13ifvqd10","pricing_plan_id":"cebpf4jnsgd1na2vs0mg"},{"bike_id":"973357c8-dead-42ca-92e9-500225bc994c","system_id":"levelo_inurba_marseille","lat":43.33015,"lon":5.39058,"is_reserved":false,"is_disabled":false,"rental_uris":{"android":"levelo://app?vid=973357c8-dead-42ca-92e9-500225bc994c","ios":"levelo://app?vid=973357c8-dead-42ca-92e9-500225bc994c"},"vehicle_type_id":"4","last_reported":1737450561,"current_range_meters":38800,"station_id":"ce4bhr92rcd13ifvqhrg","pricing_plan_id":"cebpf4jnsgd1na2vs0mg"},{"bike_id":"db201745-e3f3-42da-b0cf-128a516abc9f","system_id":"levelo_inurba_marseille","lat":43.26198,"lon":5.37934,"is_reserved":false,"is_disabled":false,"rental_uris":{"android":"levelo://app?vid=db201745-e3f3-42da-b0cf-128a516abc9f","ios":"levelo://app?vid=db201745-e3f3-42da-b0cf-128a516abc9f"},"vehicle_type_id":"4","last_reported":1737450561,"current_range_meters":32400,"station_id":"ce4bhjp2rcd13ifvqg90","pricing_plan_id":"cebpf4jnsgd1na2vs0mg"},{"bike_id":"3126cfa9-7c24-476d-8681-f22494faa237","system_id":"levelo_inurba_marseille","lat":43.30558,"lon":5.36735,"is_reserved":false,"is_disabled":false,"rental_uris":{"android":"levelo://app?vid=3126cfa9-7c24-476d-8681-f22494faa237","ios":"levelo://app?vid=3126cfa9-7c24-476d-8681-f22494faa237"},"vehicle_type_id":"4","last_reported":1737450561,"current_range_meters":38800,"station_id":"ce4bgrp2rcd13ifvqc9g","pricing_plan_id":"cebpf4jnsgd1na2vs0mg"},{"bike_id":"526c1d72-da5c-48b1-b724-d5230cfe22b0","system_id":"levelo_inurba_marseille","lat":43.27222,"lon":5.39186,"is_reserved":false,"is_disabled":false,"rental_uris":{"android":"levelo://app?vid=526c1d72-da5c-48b1-b724-d5230cfe22b0","ios":"levelo://app?vid=526c1d72-da5c-48b1-b724-d5230cfe22b0"},"vehicle_type_id":"4","last_reported":1737450561,"current_range_meters":15200,"station_id":"ce4bhhp2rcd13ifvqfm0","pricing_plan_id":"cebpf4jnsgd1na2vs0mg"},{"bike_id":"c9b964ea-792b-4dcf-98bb-e87b1f509f5a","system_id":"levelo_inurba_marseille","lat":43.29604,"lon":5.37527,"is_reserved":false,"is_disabled":false,"rental_uris":{"android":"levelo://app?vid=c9b964ea-792b-4dcf-98bb-e87b1f509f5a","ios":"levelo://app?vid=c9b964ea-792b-4dcf-98bb-e87b1f509f5a"},"vehicle_type_id":"4","last_reported":1737450561,"current_range_meters":28000,"station_id":"ce4bgh92rcd13ifvqb50","pricing_plan_id":"cebpf4jnsgd1na2vs0mg"},{"bike_id":"06420bc6-4d76-4156-bb82-d96f34b22052","system_id":"levelo_inurba_marseille","lat":43.29797,"lon":5.3809,"is_reserved":false,"is_disabled":false,"rental_uris":{"android":"levelo://app?vid=06420bc6-4d76-4156-bb82-d96f34b22052","ios":"levelo://app?vid=06420bc6-4d76-4156-bb82-d96f34b22052"},"vehicle_type_id":"4","last_reported":1737450561,"current_range_meters":27600,"station_id":"ce4bgip2rcd13ifvqbb0","pricing_plan_id":"cebpf4jnsgd1na2vs0mg"},{"bike_id":"58ddb32d-8842-4a66-a127-bc0e5b7ffb60","system_id":"levelo_inurba_marseille","lat":43.30296,"lon":5.37712,"is_reserved":false,"is_disabled":false,"rental_uris":{"android":"levelo://app?vid=58ddb32d-8842-4a66-a127-bc0e5b7ffb60","ios":"levelo://app?vid=58ddb32d-8842-4a66-a127-bc0e5b7ffb60"},"vehicle_type_id":"4","last_reported":1737450561,"current_range_meters":34800,"station_id":"ce4bguh2rcd13ifvqcj0","pricing_plan_id":"cebpf4jnsgd1na2vs0mg"},{"bike_id":"d1f26ac1-0feb-4438-9c5e-5814fefe5dd2","system_id":"levelo_inurba_marseille","lat":43.29905,"lon":5.37484,"is_reserved":false,"is_disabled":false,"rental_uris":{"android":"levelo://app?vid=d1f26ac1-0feb-4438-9c5e-5814fefe5dd2","ios":"levelo://app?vid=d1f26ac1-0feb-4438-9c5e-5814fefe5dd2"},"vehicle_type_id":"4","last_reported":1737450561,"current_range_meters":30400,"station_id":"ce4bgjh2rcd13ifvqbg0","pricing_plan_id":"cebpf4jnsgd1na2vs0mg"},{"bike_id":"03e42273-2f99-4a80-973f-076d50849b56","system_id":"levelo_inurba_marseille","lat":43.24176,"lon":5.39744,"is_reserved":false,"is_disabled":false,"rental_uris":{"android":"levelo://app?vid=03e42273-2f99-4a80-973f-076d50849b56","ios":"levelo://app?vid=03e42273-2f99-4a80-973f-076d50849b56"},"vehicle_type_id":"4","last_reported":1737450561,"current_range_meters":28800,"station_id":"ce4bhn12rcd13ifvqgpg","pricing_plan_id":"cebpf4jnsgd1na2vs0mg"},{"bike_id":"6d170c43-ed25-40d3-b88a-cefadd58002d","system_id":"levelo_inurba_marseille","lat":43.33593,"lon":5.41021,"is_reserved":false,"is_disabled":false,"rental_uris":{"android":"levelo://app?vid=6d170c43-ed25-40d3-b88a-cefadd58002d","ios":"levelo://app?vid=6d170c43-ed25-40d3-b88a-cefadd58002d"},"vehicle_type_id":"4","last_reported":1737450561,"current_range_meters":25200,"station_id":"ce4bhqh2rcd13ifvqhmg","pricing_plan_id":"cebpf4jnsgd1na2vs0mg"},{"bike_id":"1bc4f972-1eb6-4a1e-8920-bbde83f7ed86","system_id":"levelo_inurba_marseille","lat":43.30909,"lon":5.36869,"is_reserved":false,"is_disabled":false,"rental_uris":{"android":"levelo://app?vid=1bc4f972-1eb6-4a1e-8920-bbde83f7ed86","ios":"levelo://app?vid=1bc4f972-1eb6-4a1e-8920-bbde83f7ed86"},"vehicle_type_id":"4","last_reported":1737450561,"current_range_meters":38800,"station_id":"ce4bgn92rcd13ifvqbvg","pricing_plan_id":"cebpf4jnsgd1na2vs0mg"},{"bike_id":"3253430c-8ab8-4f57-9490-ce1bba126de6","system_id":"levelo_inurba_marseille","lat":43.28713,"lon":5.37937,"is_reserved":false,"is_disabled":false,"rental_uris":{"android":"levelo://app?vid=3253430c-8ab8-4f57-9490-ce1bba126de6","ios":"levelo://app?vid=3253430c-8ab8-4f57-9490-ce1bba126de6"},"vehicle_type_id":"4","last_reported":1737450561,"current_range_meters":16000,"station_id":"ce4bh9p2rcd13ifvqec0","pricing_plan_id":"cebpf4jnsgd1na2vs0mg"},{"bike_id":"39c5321a-3c58-496a-827f-06fa19935fa7","system_id":"levelo_inurba_marseille","lat":43.25821,"lon":5.3944,"is_reserved":false,"is_disabled":false,"rental_uris":{"android":"levelo://app?vid=39c5321a-3c58-496a-827f-06fa19935fa7","ios":"levelo://app?vid=39c5321a-3c58-496a-827f-06fa19935fa7"},"vehicle_type_id":"4","last_reported":1737450561,"current_range_meters":35200,"station_id":"ce4bhip2rcd13ifvqft0","pricing_plan_id":"cebpf4jnsgd1na2vs0mg"},{"bike_id":"77ff5724-d727-4cb9-9e22-72b1fa336373","system_id":"levelo_inurba_marseille","lat":43.23062,"lon":5.35497,"is_reserved":false,"is_disabled":false,"rental_uris":{"android":"levelo://app?vid=77ff5724-d727-4cb9-9e22-72b1fa336373","ios":"levelo://app?vid=77ff5724-d727-4cb9-9e22-72b1fa336373"},"vehicle_type_id":"4","last_reported":1737450561,"current_range_meters":9200,"station_id":"cpo3342slgdg3j2ifvpg","pricing_plan_id":"cebpf4jnsgd1na2vs0mg"},{"bike_id":"5c553694-e398-4681-9126-df5bb320f912","system_id":"levelo_inurba_marseille","lat":43.2958,"lon":5.36738,"is_reserved":false,"is_disabled":false,"rental_uris":{"android":"levelo://app?vid=5c553694-e398-4681-9126-df5bb320f912","ios":"levelo://app?vid=5c553694-e398-4681-9126-df5bb320f912"},"vehicle_type_id":"4","last_reported":1737450561,"current_range_meters":36800,"station_id":"ce4bgph2rcd13ifvqc2g","pricing_plan_id":"cebpf4jnsgd1na2vs0mg"},{"bike_id":"b9a085cb-bb5b-4cc1-84ad-d76baa6c959d","system_id":"levelo_inurba_marseille","lat":43.30169,"lon":5.38071,"is_reserved":false,"is_disabled":false,"rental_uris":{"android":"levelo://app?vid=b9a085cb-bb5b-4cc1-84ad-d76baa6c959d","ios":"levelo://app?vid=b9a085cb-bb5b-4cc1-84ad-d76baa6c959d"},"vehicle_type_id":"4","last_reported":1737450561,"current_range_meters":36400,"station_id":"ce4bgjp2rcd13ifvqbh0","pricing_plan_id":"cebpf4jnsgd1na2vs0mg"},{"bike_id":"b0977a80-6e3f-461c-8852-5c7538e5b942","system_id":"levelo_inurba_marseille","lat":43.30334,"lon":5.37735,"is_reserved":false,"is_disabled":false,"rental_uris":{"android":"levelo://app?vid=b0977a80-6e3f-461c-8852-5c7538e5b942","ios":"levelo://app?vid=b0977a80-6e3f-461c-8852-5c7538e5b942"},"vehicle_type_id":"4","last_reported":1737450561,"current_range_meters":38800,"station_id":"ce4bguh2rcd13ifvqcj0","pricing_plan_id":"cebpf4jnsgd1na2vs0mg"},{"bike_id":"b1e7c0e3-f276-47c4-8832-08cec6a6eeae","system_id":"levelo_inurba_marseille","lat":43.3052,"lon":5.36784,"is_reserved":false,"is_disabled":false,"rental_uris":{"android":"levelo://app?vid=b1e7c0e3-f276-47c4-8832-08cec6a6eeae","ios":"levelo://app?vid=b1e7c0e3-f276-47c4-8832-08cec6a6eeae"},"vehicle_type_id":"4","last_reported":1737450561,"current_range_meters":38800,"station_id":"ce4bgrp2rcd13ifvqc9g","pricing_plan_id":"cebpf4jnsgd1na2vs0mg"},{"bike_id":"69c5f992-b640-46d6-bd55-6c4390105b36","system_id":"levelo_inurba_marseille","lat":43.29841,"lon":5.36261,"is_reserved":false,"is_disabled":false,"rental_uris":{"android":"levelo://app?vid=69c5f992-b640-46d6-bd55-6c4390105b36","ios":"levelo://app?vid=69c5f992-b640-46d6-bd55-6c4390105b36"},"vehicle_type_id":"4","last_reported":1737450561,"current_range_meters":24400,"station_id":"ce4bgpp2rcd13ifvqc3g","pricing_plan_id":"cebpf4jnsgd1na2vs0mg"},{"bike_id":"64b66824-f064-4903-8358-094ea3275fbf","system_id":"levelo_inurba_marseille","lat":43.30292,"lon":5.37718,"is_reserved":false,"is_disabled":false,"rental_uris":{"android":"levelo://app?vid=64b66824-f064-4903-8358-094ea3275fbf","ios":"levelo://app?vid=64b66824-f064-4903-8358-094ea3275fbf"},"vehicle_type_id":"4","last_reported":1737450561,"current_range_meters":38800,"station_id":"ce4bguh2rcd13ifvqcj0","pricing_plan_id":"cebpf4jnsgd1na2vs0mg"},{"bike_id":"ea132db6-d856-41cc-92b1-260415fee602","system_id":"levelo_inurba_marseille","lat":43.29419,"lon":5.38613,"is_reserved":false,"is_disabled":false,"rental_uris":{"android":"levelo://app?vid=ea132db6-d856-41cc-92b1-260415fee602","ios":"levelo://app?vid=ea132db6-d856-41cc-92b1-260415fee602"},"vehicle_type_id":"4","last_reported":1737450561,"current_range_meters":30800,"station_id":"ce4bh2h2rcd13ifvqdh0","pricing_plan_id":"cebpf4jnsgd1na2vs0mg"},{"bike_id":"1b1acf8d-54ac-4efe-96ff-66c901f3aba1","system_id":"levelo_inurba_marseille","lat":43.30525,"lon":5.36518,"is_reserved":false,"is_disabled":false,"rental_uris":{"android":"levelo://app?vid=1b1acf8d-54ac-4efe-96ff-66c901f3aba1","ios":"levelo://app?vid=1b1acf8d-54ac-4efe-96ff-66c901f3aba1"},"vehicle_type_id":"4","last_reported":1737450561,"current_range_meters":38800,"station_id":"ce4bgs12rcd13ifvqcag","pricing_plan_id":"cebpf4jnsgd1na2vs0mg"},{"bike_id":"aa720aaf-80a4-4d1e-a239-c9eefeb2c46d","system_id":"levelo_inurba_marseille","lat":43.30362,"lon":5.41888,"is_reserved":false,"is_disabled":false,"rental_uris":{"android":"levelo://app?vid=aa720aaf-80a4-4d1e-a239-c9eefeb2c46d","ios":"levelo://app?vid=aa720aaf-80a4-4d1e-a239-c9eefeb2c46d"},"vehicle_type_id":"4","last_reported":1737450561,"current_range_meters":38800,"station_id":"ce4bhop2rcd13ifvqh7g","pricing_plan_id":"cebpf4jnsgd1na2vs0mg"},{"bike_id":"d1c0ae1b-2227-4d30-b950-063d288cef29","system_id":"levelo_inurba_marseille","lat":43.2408,"lon":5.37756,"is_reserved":false,"is_disabled":false,"rental_uris":{"android":"levelo://app?vid=d1c0ae1b-2227-4d30-b950-063d288cef29","ios":"levelo://app?vid=d1c0ae1b-2227-4d30-b950-063d288cef29"},"vehicle_type_id":"4","last_reported":1737450561,"current_range_meters":39200,"station_id":"ce4bhnp2rcd13ifvqgvg","pricing_plan_id":"cebpf4jnsgd1na2vs0mg"},{"bike_id":"d9a21e48-72dd-414c-a6ba-3f528de3c67f","system_id":"levelo_inurba_marseille","lat":43.27492,"lon":5.42454,"is_reserved":false,"is_disabled":false,"rental_uris":{"android":"levelo://app?vid=d9a21e48-72dd-414c-a6ba-3f528de3c67f","ios":"levelo://app?vid=d9a21e48-72dd-414c-a6ba-3f528de3c67f"},"vehicle_type_id":"4","last_reported":1737450561,"current_range_meters":30000,"station_id":"ce4bhn92rcd13ifvqgrg","pricing_plan_id":"cebpf4jnsgd1na2vs0mg"},{"bike_id":"2089036c-5db7-48b8-83e7-b7fbc7dff2e5","system_id":"levelo_inurba_marseille","lat":43.26681,"lon":5.38269,"is_reserved":false,"is_disabled":false,"rental_uris":{"android":"levelo://app?vid=2089036c-5db7-48b8-83e7-b7fbc7dff2e5","ios":"levelo://app?vid=2089036c-5db7-48b8-83e7-b7fbc7dff2e5"},"vehicle_type_id":"4","last_reported":1737450561,"current_range_meters":34000,"station_id":"ce4bhg92rcd13ifvqf90","pricing_plan_id":"cebpf4jnsgd1na2vs0mg"},{"bike_id":"437527dc-ddbf-4b91-b8bc-f0eeb992a7ff","system_id":"levelo_inurba_marseille","lat":43.24176,"lon":5.39743,"is_reserved":false,"is_disabled":false,"rental_uris":{"android":"levelo://app?vid=437527dc-ddbf-4b91-b8bc-f0eeb992a7ff","ios":"levelo://app?vid=437527dc-ddbf-4b91-b8bc-f0eeb992a7ff"},"vehicle_type_id":"4","last_reported":1737450561,"current_range_meters":30800,"station_id":"ce4bhn12rcd13ifvqgpg","pricing_plan_id":"cebpf4jnsgd1na2vs0mg"},{"bike_id":"6a502e5f-4226-4cdb-a3bf-d9aed4688d05","system_id":"levelo_inurba_marseille","lat":43.25856,"lon":5.39904,"is_reserved":false,"is_disabled":false,"rental_uris":{"android":"levelo://app?vid=6a502e5f-4226-4cdb-a3bf-d9aed4688d05","ios":"levelo://app?vid=6a502e5f-4226-4cdb-a3bf-d9aed4688d05"},"vehicle_type_id":"4","last_reported":1737450561,"current_range_meters":30400,"station_id":"ce4bhl92rcd13ifvqghg","pricing_plan_id":"cebpf4jnsgd1na2vs0mg"},{"bike_id":"80bcc3e7-77de-44a5-8965-f19acb6d7452","system_id":"levelo_inurba_marseille","lat":43.33002,"lon":5.39058,"is_reserved":false,"is_disabled":false,"rental_uris":{"android":"levelo://app?vid=80bcc3e7-77de-44a5-8965-f19acb6d7452","ios":"levelo://app?vid=80bcc3e7-77de-44a5-8965-f19acb6d7452"},"vehicle_type_id":"4","last_reported":1737450561,"current_range_meters":38800,"station_id":"ce4bhr92rcd13ifvqhrg","pricing_plan_id":"cebpf4jnsgd1na2vs0mg"},{"bike_id":"b8e67c99-6b85-48bc-9187-dec9ed848b5c","system_id":"levelo_inurba_marseille","lat":43.26215,"lon":5.37885,"is_reserved":false,"is_disabled":false,"rental_uris":{"android":"levelo://app?vid=b8e67c99-6b85-48bc-9187-dec9ed848b5c","ios":"levelo://app?vid=b8e67c99-6b85-48bc-9187-dec9ed848b5c"},"vehicle_type_id":"4","last_reported":1737450561,"current_range_meters":26800,"station_id":"ce4bhjp2rcd13ifvqg90","pricing_plan_id":"cebpf4jnsgd1na2vs0mg"},{"bike_id":"9ca4de9a-cfca-4937-bf4d-f360d7c8f7f5","system_id":"levelo_inurba_marseille","lat":43.30525,"lon":5.3652,"is_reserved":false,"is_disabled":false,"rental_uris":{"android":"levelo://app?vid=9ca4de9a-cfca-4937-bf4d-f360d7c8f7f5","ios":"levelo://app?vid=9ca4de9a-cfca-4937-bf4d-f360d7c8f7f5"},"vehicle_type_id":"4","last_reported":1737450561,"current_range_meters":38000,"station_id":"ce4bgs12rcd13ifvqcag","pricing_plan_id":"cebpf4jnsgd1na2vs0mg"},{"bike_id":"316e765f-7779-4439-b8ba-f0cefdc3402e","system_id":"levelo_inurba_marseille","lat":43.31981,"lon":5.38143,"is_reserved":false,"is_disabled":false,"rental_uris":{"android":"levelo://app?vid=316e765f-7779-4439-b8ba-f0cefdc3402e","ios":"levelo://app?vid=316e765f-7779-4439-b8ba-f0cefdc3402e"},"vehicle_type_id":"4","last_reported":1737450561,"current_range_meters":18000,"station_id":"ce4bhr12rcd13ifvqhpg","pricing_plan_id":"cebpf4jnsgd1na2vs0mg"},{"bike_id":"72907924-f2de-43d9-88d7-314cf1d8cd1e","system_id":"levelo_inurba_marseille","lat":43.30309,"lon":5.36884,"is_reserved":false,"is_disabled":false,"rental_uris":{"android":"levelo://app?vid=72907924-f2de-43d9-88d7-314cf1d8cd1e","ios":"levelo://app?vid=72907924-f2de-43d9-88d7-314cf1d8cd1e"},"vehicle_type_id":"4","last_reported":1737450561,"current_range_meters":17200,"station_id":"ce4bgqh2rcd13ifvqc5g","pricing_plan_id":"cebpf4jnsgd1na2vs0mg"},{"bike_id":"2b1e95cc-4743-4250-8e1f-97ad00416d93","system_id":"levelo_inurba_marseille","lat":43.29272,"lon":5.36845,"is_reserved":false,"is_disabled":false,"rental_uris":{"android":"levelo://app?vid=2b1e95cc-4743-4250-8e1f-97ad00416d93","ios":"levelo://app?vid=2b1e95cc-4743-4250-8e1f-97ad00416d93"},"vehicle_type_id":"4","last_reported":1737450561,"current_range_meters":14400,"station_id":"ce4bhbp2rcd13ifvqesg","pricing_plan_id":"cebpf4jnsgd1na2vs0mg"},{"bike_id":"ca5ebe5c-d696-4d10-94b0-99fa9093db2a","system_id":"levelo_inurba_marseille","lat":43.3248,"lon":5.36583,"is_reserved":false,"is_disabled":false,"rental_uris":{"android":"levelo://app?vid=ca5ebe5c-d696-4d10-94b0-99fa9093db2a","ios":"levelo://app?vid=ca5ebe5c-d696-4d10-94b0-99fa9093db2a"},"vehicle_type_id":"4","last_reported":1737450561,"current_range_meters":24800,"station_id":"ce4bhs12rcd13ifvqhvg","pricing_plan_id":"cebpf4jnsgd1na2vs0mg"},{"bike_id":"c90ffd17-4082-43c2-8c46-021b3cdedd99","system_id":"levelo_inurba_marseille","lat":43.26067,"lon":5.39409,"is_reserved":false,"is_disabled":false,"rental_uris":{"android":"levelo://app?vid=c90ffd17-4082-43c2-8c46-021b3cdedd99","ios":"levelo://app?vid=c90ffd17-4082-43c2-8c46-021b3cdedd99"},"vehicle_type_id":"4","last_reported":1737450561,"current_range_meters":27600,"station_id":"ce4bhh92rcd13ifvqfj0","pricing_plan_id":"cebpf4jnsgd1na2vs0mg"},{"bike_id":"751968b9-3f67-45de-aadc-83a067946788","system_id":"levelo_inurba_marseille","lat":43.33573,"lon":5.40922,"is_reserved":false,"is_disabled":false,"rental_uris":{"android":"levelo://app?vid=751968b9-3f67-45de-aadc-83a067946788","ios":"levelo://app?vid=751968b9-3f67-45de-aadc-83a067946788"},"vehicle_type_id":"4","last_reported":1737450561,"current_range_meters":31200,"station_id":"","pricing_plan_id":"cebpf4jnsgd1na2vs0mg"},{"bike_id":"b39f6109-7f56-4b17-b737-eaa8ed0334b8","system_id":"levelo_inurba_marseille","lat":43.30465,"lon":5.37135,"is_reserved":false,"is_disabled":true,"rental_uris":{"android":"levelo://app?vid=b39f6109-7f56-4b17-b737-eaa8ed0334b8","ios":"levelo://app?vid=b39f6109-7f56-4b17-b737-eaa8ed0334b8"},"vehicle_type_id":"4","last_reported":1737450561,"current_range_meters":26800,"station_id":"","pricing_plan_id":"cebpf4jnsgd1na2vs0mg"},{"bike_id":"db9233a0-541f-470e-96f3-96db6f81cf0f","system_id":"levelo_inurba_marseille","lat":43.27819,"lon":5.40723,"is_reserved":false,"is_disabled":false,"rental_uris":{"android":"levelo://app?vid=db9233a0-541f-470e-96f3-96db6f81cf0f","ios":"levelo://app?vid=db9233a0-541f-470e-96f3-96db6f81cf0f"},"vehicle_type_id":"4","last_reported":1737450561,"current_range_meters":22800,"station_id":"ce4bhnh2rcd13ifvqgtg","pricing_plan_id":"cebpf4jnsgd1na2vs0mg"},{"bike_id":"1c55422b-da70-439b-bce1-830182dc761c","system_id":"levelo_inurba_marseille","lat":43.28942,"lon":5.36632,"is_reserved":false,"is_disabled":true,"rental_uris":{"android":"levelo://app?vid=1c55422b-da70-439b-bce1-830182dc761c","ios":"levelo://app?vid=1c55422b-da70-439b-bce1-830182dc761c"},"vehicle_type_id":"4","last_reported":1737450561,"current_range_meters":32000,"station_id":"ce4bhap2rcd13ifvqek0","pricing_plan_id":"cebpf4jnsgd1na2vs0mg"},{"bike_id":"d4d85449-ee98-4fe1-81ca-52f7835499ad","system_id":"levelo_inurba_marseille","lat":43.29354,"lon":5.37853,"is_reserved":false,"is_disabled":false,"rental_uris":{"android":"levelo://app?vid=d4d85449-ee98-4fe1-81ca-52f7835499ad","ios":"levelo://app?vid=d4d85449-ee98-4fe1-81ca-52f7835499ad"},"vehicle_type_id":"4","last_reported":1737450561,"current_range_meters":38800,"station_id":"ce4bgjh2rcd13ifvqbf0","pricing_plan_id":"cebpf4jnsgd1na2vs0mg"},{"bike_id":"8e37d5a1-5a26-42a5-8fbe-c99733a808dd","system_id":"levelo_inurba_marseille","lat":43.26068,"lon":5.39402,"is_reserved":false,"is_disabled":false,"rental_uris":{"android":"levelo://app?vid=8e37d5a1-5a26-42a5-8fbe-c99733a808dd","ios":"levelo://app?vid=8e37d5a1-5a26-42a5-8fbe-c99733a808dd"},"vehicle_type_id":"4","last_reported":1737450561,"current_range_meters":38000,"station_id":"ce4bhh92rcd13ifvqfj0","pricing_plan_id":"cebpf4jnsgd1na2vs0mg"},{"bike_id":"1de5a59e-6003-46f4-b37d-86002ff1c5e7","system_id":"levelo_inurba_marseille","lat":43.24164,"lon":5.36394,"is_reserved":false,"is_disabled":false,"rental_uris":{"android":"levelo://app?vid=1de5a59e-6003-46f4-b37d-86002ff1c5e7","ios":"levelo://app?vid=1de5a59e-6003-46f4-b37d-86002ff1c5e7"},"vehicle_type_id":"4","last_reported":1737450561,"current_range_meters":22400,"station_id":"cpo36qri1sfpv3e86is0","pricing_plan_id":"cebpf4jnsgd1na2vs0mg"},{"bike_id":"22c3b3f3-6835-405e-9c28-a86f29f70685","system_id":"levelo_inurba_marseille","lat":43.25002,"lon":5.3893,"is_reserved":false,"is_disabled":false,"rental_uris":{"android":"levelo://app?vid=22c3b3f3-6835-405e-9c28-a86f29f70685","ios":"levelo://app?vid=22c3b3f3-6835-405e-9c28-a86f29f70685"},"vehicle_type_id":"4","last_reported":1737450561,"current_range_meters":23200,"station_id":"ce4bhgp2rcd13ifvqfd0","pricing_plan_id":"cebpf4jnsgd1na2vs0mg"},{"bike_id":"0d9ea08f-aadb-4135-b4c8-0d91cd810588","system_id":"levelo_inurba_marseille","lat":43.27491,"lon":5.42467,"is_reserved":false,"is_disabled":false,"rental_uris":{"android":"levelo://app?vid=0d9ea08f-aadb-4135-b4c8-0d91cd810588","ios":"levelo://app?vid=0d9ea08f-aadb-4135-b4c8-0d91cd810588"},"vehicle_type_id":"4","last_reported":1737450561,"current_range_meters":24000,"station_id":"ce4bhn92rcd13ifvqgrg","pricing_plan_id":"cebpf4jnsgd1na2vs0mg"},{"bike_id":"64dd059b-ecf7-48ee-8d07-a03165f684e7","system_id":"levelo_inurba_marseille","lat":43.29906,"lon":5.37465,"is_reserved":false,"is_disabled":false,"rental_uris":{"android":"levelo://app?vid=64dd059b-ecf7-48ee-8d07-a03165f684e7","ios":"levelo://app?vid=64dd059b-ecf7-48ee-8d07-a03165f684e7"},"vehicle_type_id":"4","last_reported":1737450561,"current_range_meters":32000,"station_id":"ce4bgjh2rcd13ifvqbg0","pricing_plan_id":"cebpf4jnsgd1na2vs0mg"},{"bike_id":"6f19aa10-6849-4bef-aac4-a64a004c470b","system_id":"levelo_inurba_marseille","lat":43.2844,"lon":5.39181,"is_reserved":false,"is_disabled":false,"rental_uris":{"android":"levelo://app?vid=6f19aa10-6849-4bef-aac4-a64a004c470b","ios":"levelo://app?vid=6f19aa10-6849-4bef-aac4-a64a004c470b"},"vehicle_type_id":"4","last_reported":1737450561,"current_range_meters":29600,"station_id":"ce4bhoh2rcd13ifvqh5g","pricing_plan_id":"cebpf4jnsgd1na2vs0mg"},{"bike_id":"9504b7e0-2f20-49ea-814e-e380f0d8ec79","system_id":"levelo_inurba_marseille","lat":43.32123,"lon":5.36786,"is_reserved":false,"is_disabled":false,"rental_uris":{"android":"levelo://app?vid=9504b7e0-2f20-49ea-814e-e380f0d8ec79","ios":"levelo://app?vid=9504b7e0-2f20-49ea-814e-e380f0d8ec79"},"vehicle_type_id":"4","last_reported":1737450561,"current_range_meters":38400,"station_id":"ce4bhrh2rcd13ifvqhug","pricing_plan_id":"cebpf4jnsgd1na2vs0mg"},{"bike_id":"6360fbac-968c-4504-9149-b94ed7bc1ff6","system_id":"levelo_inurba_marseille","lat":43.26678,"lon":5.38278,"is_reserved":false,"is_disabled":false,"rental_uris":{"android":"levelo://app?vid=6360fbac-968c-4504-9149-b94ed7bc1ff6","ios":"levelo://app?vid=6360fbac-968c-4504-9149-b94ed7bc1ff6"},"vehicle_type_id":"4","last_reported":1737450561,"current_range_meters":32000,"station_id":"ce4bhg92rcd13ifvqf90","pricing_plan_id":"cebpf4jnsgd1na2vs0mg"},{"bike_id":"97c52603-515a-40d4-9ab1-1af335cf2fbd","system_id":"levelo_inurba_marseille","lat":43.30914,"lon":5.36868,"is_reserved":false,"is_disabled":false,"rental_uris":{"android":"levelo://app?vid=97c52603-515a-40d4-9ab1-1af335cf2fbd","ios":"levelo://app?vid=97c52603-515a-40d4-9ab1-1af335cf2fbd"},"vehicle_type_id":"4","last_reported":1737450561,"current_range_meters":33600,"station_id":"ce4bgn92rcd13ifvqbvg","pricing_plan_id":"cebpf4jnsgd1na2vs0mg"},{"bike_id":"2e391245-990a-489f-b7cc-387a1c7f1479","system_id":"levelo_inurba_marseille","lat":43.30509,"lon":5.36753,"is_reserved":false,"is_disabled":false,"rental_uris":{"android":"levelo://app?vid=2e391245-990a-489f-b7cc-387a1c7f1479","ios":"levelo://app?vid=2e391245-990a-489f-b7cc-387a1c7f1479"},"vehicle_type_id":"4","last_reported":1737450561,"current_range_meters":26800,"station_id":"ce4bgrp2rcd13ifvqc9g","pricing_plan_id":"cebpf4jnsgd1na2vs0mg"},{"bike_id":"9c39b2db-f260-4eaa-b168-9da145377189","system_id":"levelo_inurba_marseille","lat":43.30468,"lon":5.3792,"is_reserved":false,"is_disabled":false,"rental_uris":{"android":"levelo://app?vid=9c39b2db-f260-4eaa-b168-9da145377189","ios":"levelo://app?vid=9c39b2db-f260-4eaa-b168-9da145377189"},"vehicle_type_id":"4","last_reported":1737450561,"current_range_meters":24800,"station_id":"ce4bgup2rcd13ifvqcn0","pricing_plan_id":"cebpf4jnsgd1na2vs0mg"},{"bike_id":"028aceea-6958-4c15-bce2-3cece9d00f25","system_id":"levelo_inurba_marseille","lat":43.29317,"lon":5.37177,"is_reserved":false,"is_disabled":false,"rental_uris":{"android":"levelo://app?vid=028aceea-6958-4c15-bce2-3cece9d00f25","ios":"levelo://app?vid=028aceea-6958-4c15-bce2-3cece9d00f25"},"vehicle_type_id":"4","last_reported":1737450561,"current_range_meters":9600,"station_id":"ce4bgh92rcd13ifvqb40","pricing_plan_id":"cebpf4jnsgd1na2vs0mg"},{"bike_id":"da3a7eb9-5fa6-49b3-9e5b-6452969eedf1","system_id":"levelo_inurba_marseille","lat":43.24386,"lon":5.370625,"is_reserved":false,"is_disabled":true,"rental_uris":{"android":"levelo://app?vid=da3a7eb9-5fa6-49b3-9e5b-6452969eedf1","ios":"levelo://app?vid=da3a7eb9-5fa6-49b3-9e5b-6452969eedf1"},"vehicle_type_id":"4","last_reported":1737450561,"current_range_meters":20800,"station_id":"ce4bhhh2rcd13ifvqfk0","pricing_plan_id":"cebpf4jnsgd1na2vs0mg"},{"bike_id":"13eb1080-0165-43df-ba68-3da74a387126","system_id":"levelo_inurba_marseille","lat":43.31267,"lon":5.3687,"is_reserved":false,"is_disabled":false,"rental_uris":{"android":"levelo://app?vid=13eb1080-0165-43df-ba68-3da74a387126","ios":"levelo://app?vid=13eb1080-0165-43df-ba68-3da74a387126"},"vehicle_type_id":"4","last_reported":1737450561,"current_range_meters":39200,"station_id":"ce4bgl92rcd13ifvqbq0","pricing_plan_id":"cebpf4jnsgd1na2vs0mg"},{"bike_id":"06f9398d-e006-4557-bd03-71cc21447599","system_id":"levelo_inurba_marseille","lat":43.29267,"lon":5.38449,"is_reserved":false,"is_disabled":false,"rental_uris":{"android":"levelo://app?vid=06f9398d-e006-4557-bd03-71cc21447599","ios":"levelo://app?vid=06f9398d-e006-4557-bd03-71cc21447599"},"vehicle_type_id":"4","last_reported":1737450561,"current_range_meters":30800,"station_id":"ce4bh692rcd13ifvqea0","pricing_plan_id":"cebpf4jnsgd1na2vs0mg"},{"bike_id":"026c5cbe-081d-480e-8260-80cc91166677","system_id":"levelo_inurba_marseille","lat":43.28724,"lon":5.39992,"is_reserved":false,"is_disabled":true,"rental_uris":{"android":"levelo://app?vid=026c5cbe-081d-480e-8260-80cc91166677","ios":"levelo://app?vid=026c5cbe-081d-480e-8260-80cc91166677"},"vehicle_type_id":"4","last_reported":1737450561,"current_range_meters":0,"station_id":"ce4bho92rcd13ifvqh3g","pricing_plan_id":"cebpf4jnsgd1na2vs0mg"},{"bike_id":"538dda5a-d3e7-4dcf-a470-d88f65afcff1","system_id":"levelo_inurba_marseille","lat":43.29629,"lon":5.37736,"is_reserved":false,"is_disabled":false,"rental_uris":{"android":"levelo://app?vid=538dda5a-d3e7-4dcf-a470-d88f65afcff1","ios":"levelo://app?vid=538dda5a-d3e7-4dcf-a470-d88f65afcff1"},"vehicle_type_id":"4","last_reported":1737450561,"current_range_meters":28000,"station_id":"ce4bgi92rcd13ifvqb90","pricing_plan_id":"cebpf4jnsgd1na2vs0mg"},{"bike_id":"55e9e33f-65d7-4114-a3b6-94916cdab4b2","system_id":"levelo_inurba_marseille","lat":43.26488,"lon":5.3954,"is_reserved":false,"is_disabled":false,"rental_uris":{"android":"levelo://app?vid=55e9e33f-65d7-4114-a3b6-94916cdab4b2","ios":"levelo://app?vid=55e9e33f-65d7-4114-a3b6-94916cdab4b2"},"vehicle_type_id":"4","last_reported":1737450561,"current_range_meters":17600,"station_id":"ce4bhi12rcd13ifvqfq0","pricing_plan_id":"cebpf4jnsgd1na2vs0mg"},{"bike_id":"7d27045b-8156-426b-a009-337a61172034","system_id":"levelo_inurba_marseille","lat":43.26781,"lon":5.39416,"is_reserved":false,"is_disabled":false,"rental_uris":{"android":"levelo://app?vid=7d27045b-8156-426b-a009-337a61172034","ios":"levelo://app?vid=7d27045b-8156-426b-a009-337a61172034"},"vehicle_type_id":"4","last_reported":1737450561,"current_range_meters":38800,"station_id":"ce4bhh12rcd13ifvqfg0","pricing_plan_id":"cebpf4jnsgd1na2vs0mg"},{"bike_id":"4870b6d1-d2b5-4d7f-857f-64659f3ada17","system_id":"levelo_inurba_marseille","lat":43.24164,"lon":5.36424,"is_reserved":false,"is_disabled":false,"rental_uris":{"android":"levelo://app?vid=4870b6d1-d2b5-4d7f-857f-64659f3ada17","ios":"levelo://app?vid=4870b6d1-d2b5-4d7f-857f-64659f3ada17"},"vehicle_type_id":"4","last_reported":1737450561,"current_range_meters":16400,"station_id":"cpo36qri1sfpv3e86is0","pricing_plan_id":"cebpf4jnsgd1na2vs0mg"},{"bike_id":"7aa9710a-b7e3-4890-81ca-654444a2204c","system_id":"levelo_inurba_marseille","lat":43.25933,"lon":5.4091,"is_reserved":false,"is_disabled":false,"rental_uris":{"android":"levelo://app?vid=7aa9710a-b7e3-4890-81ca-654444a2204c","ios":"levelo://app?vid=7aa9710a-b7e3-4890-81ca-654444a2204c"},"vehicle_type_id":"4","last_reported":1737450561,"current_range_meters":17600,"station_id":"ce4bhm92rcd13ifvqglg","pricing_plan_id":"cebpf4jnsgd1na2vs0mg"},{"bike_id":"a8a68a08-c628-497b-bfe5-57204ba5cc39","system_id":"levelo_inurba_marseille","lat":43.28136,"lon":5.42643,"is_reserved":false,"is_disabled":false,"rental_uris":{"android":"levelo://app?vid=a8a68a08-c628-497b-bfe5-57204ba5cc39","ios":"levelo://app?vid=a8a68a08-c628-497b-bfe5-57204ba5cc39"},"vehicle_type_id":"4","last_reported":1737450561,"current_range_meters":38800,"station_id":"ce4bhnh2rcd13ifvqgug","pricing_plan_id":"cebpf4jnsgd1na2vs0mg"},{"bike_id":"6a99ea2d-f694-4e1f-a14c-d9e385a5a4ad","system_id":"levelo_inurba_marseille","lat":43.24193,"lon":5.39723,"is_reserved":false,"is_disabled":false,"rental_uris":{"android":"levelo://app?vid=6a99ea2d-f694-4e1f-a14c-d9e385a5a4ad","ios":"levelo://app?vid=6a99ea2d-f694-4e1f-a14c-d9e385a5a4ad"},"vehicle_type_id":"4","last_reported":1737450561,"current_range_meters":29600,"station_id":"ce4bhn12rcd13ifvqgpg","pricing_plan_id":"cebpf4jnsgd1na2vs0mg"},{"bike_id":"bb2aa27c-d314-433f-a134-98756fdc47bc","system_id":"levelo_inurba_marseille","lat":43.31369,"lon":5.36706,"is_reserved":false,"is_disabled":false,"rental_uris":{"android":"levelo://app?vid=bb2aa27c-d314-433f-a134-98756fdc47bc","ios":"levelo://app?vid=bb2aa27c-d314-433f-a134-98756fdc47bc"},"vehicle_type_id":"4","last_reported":1737450561,"current_range_meters":18800,"station_id":"ce4bgr92rcd13ifvqc6g","pricing_plan_id":"cebpf4jnsgd1na2vs0mg"},{"bike_id":"aaf3beee-7178-4027-9df8-0d7f0453f726","system_id":"levelo_inurba_marseille","lat":43.29843,"lon":5.36278,"is_reserved":false,"is_disabled":false,"rental_uris":{"android":"levelo://app?vid=aaf3beee-7178-4027-9df8-0d7f0453f726","ios":"levelo://app?vid=aaf3beee-7178-4027-9df8-0d7f0453f726"},"vehicle_type_id":"4","last_reported":1737450561,"current_range_meters":30000,"station_id":"ce4bgpp2rcd13ifvqc3g","pricing_plan_id":"cebpf4jnsgd1na2vs0mg"},{"bike_id":"e74789ca-b0e5-4949-a7c4-507c382d1652","system_id":"levelo_inurba_marseille","lat":43.31274,"lon":5.40166,"is_reserved":false,"is_disabled":false,"rental_uris":{"android":"levelo://app?vid=e74789ca-b0e5-4949-a7c4-507c382d1652","ios":"levelo://app?vid=e74789ca-b0e5-4949-a7c4-507c382d1652"},"vehicle_type_id":"4","last_reported":1737450561,"current_range_meters":33200,"station_id":"ce4bh092rcd13ifvqd30","pricing_plan_id":"cebpf4jnsgd1na2vs0mg"},{"bike_id":"7c4b9d70-e01e-49f4-bcc2-da404f462a85","system_id":"levelo_inurba_marseille","lat":43.29329,"lon":5.37153,"is_reserved":false,"is_disabled":false,"rental_uris":{"android":"levelo://app?vid=7c4b9d70-e01e-49f4-bcc2-da404f462a85","ios":"levelo://app?vid=7c4b9d70-e01e-49f4-bcc2-da404f462a85"},"vehicle_type_id":"4","last_reported":1737450561,"current_range_meters":38800,"station_id":"ce4bgh92rcd13ifvqb40","pricing_plan_id":"cebpf4jnsgd1na2vs0mg"},{"bike_id":"8c071b1b-846e-4de8-b971-0bda4c6b8fdc","system_id":"levelo_inurba_marseille","lat":43.33588,"lon":5.41024,"is_reserved":false,"is_disabled":false,"rental_uris":{"android":"levelo://app?vid=8c071b1b-846e-4de8-b971-0bda4c6b8fdc","ios":"levelo://app?vid=8c071b1b-846e-4de8-b971-0bda4c6b8fdc"},"vehicle_type_id":"4","last_reported":1737450561,"current_range_meters":14800,"station_id":"ce4bhqh2rcd13ifvqhmg","pricing_plan_id":"cebpf4jnsgd1na2vs0mg"},{"bike_id":"1a3b29b3-17e8-4775-8d86-74e3b8c314ae","system_id":"levelo_inurba_marseille","lat":43.3055,"lon":5.36713,"is_reserved":false,"is_disabled":false,"rental_uris":{"android":"levelo://app?vid=1a3b29b3-17e8-4775-8d86-74e3b8c314ae","ios":"levelo://app?vid=1a3b29b3-17e8-4775-8d86-74e3b8c314ae"},"vehicle_type_id":"4","last_reported":1737450561,"current_range_meters":39200,"station_id":"ce4bgrp2rcd13ifvqc9g","pricing_plan_id":"cebpf4jnsgd1na2vs0mg"},{"bike_id":"ca74e526-580c-493e-b181-17fe0bc8eae8","system_id":"levelo_inurba_marseille","lat":43.25938,"lon":5.40913,"is_reserved":false,"is_disabled":false,"rental_uris":{"android":"levelo://app?vid=ca74e526-580c-493e-b181-17fe0bc8eae8","ios":"levelo://app?vid=ca74e526-580c-493e-b181-17fe0bc8eae8"},"vehicle_type_id":"4","last_reported":1737450561,"current_range_meters":38800,"station_id":"ce4bhm92rcd13ifvqglg","pricing_plan_id":"cebpf4jnsgd1na2vs0mg"},{"bike_id":"ce348ecb-e6da-4256-ae38-a3cca0ccf065","system_id":"levelo_inurba_marseille","lat":43.30523,"lon":5.36724,"is_reserved":false,"is_disabled":false,"rental_uris":{"android":"levelo://app?vid=ce348ecb-e6da-4256-ae38-a3cca0ccf065","ios":"levelo://app?vid=ce348ecb-e6da-4256-ae38-a3cca0ccf065"},"vehicle_type_id":"4","last_reported":1737450561,"current_range_meters":38800,"station_id":"ce4bgrp2rcd13ifvqc9g","pricing_plan_id":"cebpf4jnsgd1na2vs0mg"},{"bike_id":"b8416c98-fa54-486a-8ff3-f14278176db6","system_id":"levelo_inurba_marseille","lat":43.29028,"lon":5.38649,"is_reserved":false,"is_disabled":false,"rental_uris":{"android":"levelo://app?vid=b8416c98-fa54-486a-8ff3-f14278176db6","ios":"levelo://app?vid=b8416c98-fa54-486a-8ff3-f14278176db6"},"vehicle_type_id":"4","last_reported":1737450561,"current_range_meters":24800,"station_id":"ce4bh4p2rcd13ifvqe0g","pricing_plan_id":"cebpf4jnsgd1na2vs0mg"},{"bike_id":"7570aa25-ca97-489e-b331-ffe3c03d78d4","system_id":"levelo_inurba_marseille","lat":43.30466,"lon":5.37906,"is_reserved":false,"is_disabled":false,"rental_uris":{"android":"levelo://app?vid=7570aa25-ca97-489e-b331-ffe3c03d78d4","ios":"levelo://app?vid=7570aa25-ca97-489e-b331-ffe3c03d78d4"},"vehicle_type_id":"4","last_reported":1737450561,"current_range_meters":37600,"station_id":"ce4bgup2rcd13ifvqcn0","pricing_plan_id":"cebpf4jnsgd1na2vs0mg"},{"bike_id":"54f17643-86bb-494f-8b67-4a9bf8a4e466","system_id":"levelo_inurba_marseille","lat":43.26685,"lon":5.38272,"is_reserved":false,"is_disabled":false,"rental_uris":{"android":"levelo://app?vid=54f17643-86bb-494f-8b67-4a9bf8a4e466","ios":"levelo://app?vid=54f17643-86bb-494f-8b67-4a9bf8a4e466"},"vehicle_type_id":"4","last_reported":1737450561,"current_range_meters":27600,"station_id":"ce4bhg92rcd13ifvqf90","pricing_plan_id":"cebpf4jnsgd1na2vs0mg"},{"bike_id":"efbc7e30-fde0-41e4-b401-9eef753ab243","system_id":"levelo_inurba_marseille","lat":43.25578,"lon":5.3824,"is_reserved":false,"is_disabled":false,"rental_uris":{"android":"levelo://app?vid=efbc7e30-fde0-41e4-b401-9eef753ab243","ios":"levelo://app?vid=efbc7e30-fde0-41e4-b401-9eef753ab243"},"vehicle_type_id":"4","last_reported":1737450561,"current_range_meters":38800,"station_id":"ce4bhih2rcd13ifvqfs0","pricing_plan_id":"cebpf4jnsgd1na2vs0mg"},{"bike_id":"f5b4c7d1-4223-40f8-9a73-988b3580d305","system_id":"levelo_inurba_marseille","lat":43.30949,"lon":5.39037,"is_reserved":false,"is_disabled":false,"rental_uris":{"android":"levelo://app?vid=f5b4c7d1-4223-40f8-9a73-988b3580d305","ios":"levelo://app?vid=f5b4c7d1-4223-40f8-9a73-988b3580d305"},"vehicle_type_id":"4","last_reported":1737450561,"current_range_meters":7200,"station_id":"ce4bgup2rcd13ifvqco0","pricing_plan_id":"cebpf4jnsgd1na2vs0mg"},{"bike_id":"40e5a64d-65b5-4754-b8f6-3564af0d8c58","system_id":"levelo_inurba_marseille","lat":43.23151,"lon":5.43727,"is_reserved":false,"is_disabled":false,"rental_uris":{"android":"levelo://app?vid=40e5a64d-65b5-4754-b8f6-3564af0d8c58","ios":"levelo://app?vid=40e5a64d-65b5-4754-b8f6-3564af0d8c58"},"vehicle_type_id":"4","last_reported":1737450561,"current_range_meters":6400,"station_id":"ce4bhmp2rcd13ifvqgog","pricing_plan_id":"cebpf4jnsgd1na2vs0mg"},{"bike_id":"2eeb9544-f50a-4f44-8eaa-63b01b7ac06e","system_id":"levelo_inurba_marseille","lat":43.27207,"lon":5.3918,"is_reserved":false,"is_disabled":false,"rental_uris":{"android":"levelo://app?vid=2eeb9544-f50a-4f44-8eaa-63b01b7ac06e","ios":"levelo://app?vid=2eeb9544-f50a-4f44-8eaa-63b01b7ac06e"},"vehicle_type_id":"4","last_reported":1737450561,"current_range_meters":38800,"station_id":"ce4bhhp2rcd13ifvqfm0","pricing_plan_id":"cebpf4jnsgd1na2vs0mg"},{"bike_id":"23379a95-72b4-449c-abbd-5871cdaaa4bd","system_id":"levelo_inurba_marseille","lat":43.30546,"lon":5.36703,"is_reserved":false,"is_disabled":false,"rental_uris":{"android":"levelo://app?vid=23379a95-72b4-449c-abbd-5871cdaaa4bd","ios":"levelo://app?vid=23379a95-72b4-449c-abbd-5871cdaaa4bd"},"vehicle_type_id":"4","last_reported":1737450561,"current_range_meters":37600,"station_id":"ce4bgrp2rcd13ifvqc9g","pricing_plan_id":"cebpf4jnsgd1na2vs0mg"},{"bike_id":"43e995f9-55d3-437f-9d0a-c9ae5529f39e","system_id":"levelo_inurba_marseille","lat":43.27225,"lon":5.39181,"is_reserved":false,"is_disabled":false,"rental_uris":{"android":"levelo://app?vid=43e995f9-55d3-437f-9d0a-c9ae5529f39e","ios":"levelo://app?vid=43e995f9-55d3-437f-9d0a-c9ae5529f39e"},"vehicle_type_id":"4","last_reported":1737450561,"current_range_meters":29600,"station_id":"ce4bhhp2rcd13ifvqfm0","pricing_plan_id":"cebpf4jnsgd1na2vs0mg"},{"bike_id":"f58cef01-a6fb-428e-a949-b05605543af9","system_id":"levelo_inurba_marseille","lat":43.29035,"lon":5.37567,"is_reserved":false,"is_disabled":false,"rental_uris":{"android":"levelo://app?vid=f58cef01-a6fb-428e-a949-b05605543af9","ios":"levelo://app?vid=f58cef01-a6fb-428e-a949-b05605543af9"},"vehicle_type_id":"4","last_reported":1737450561,"current_range_meters":27200,"station_id":"ce4bh692rcd13ifvqe90","pricing_plan_id":"cebpf4jnsgd1na2vs0mg"},{"bike_id":"97682b3c-41ab-40c7-ad48-ab7f68012cc0","system_id":"levelo_inurba_marseille","lat":43.26209,"lon":5.37929,"is_reserved":false,"is_disabled":false,"rental_uris":{"android":"levelo://app?vid=97682b3c-41ab-40c7-ad48-ab7f68012cc0","ios":"levelo://app?vid=97682b3c-41ab-40c7-ad48-ab7f68012cc0"},"vehicle_type_id":"4","last_reported":1737450561,"current_range_meters":23200,"station_id":"ce4bhjp2rcd13ifvqg90","pricing_plan_id":"cebpf4jnsgd1na2vs0mg"},{"bike_id":"b98d1ee6-d9b6-4436-8256-e6796817c6db","system_id":"levelo_inurba_marseille","lat":43.27206,"lon":5.39211,"is_reserved":false,"is_disabled":false,"rental_uris":{"android":"levelo://app?vid=b98d1ee6-d9b6-4436-8256-e6796817c6db","ios":"levelo://app?vid=b98d1ee6-d9b6-4436-8256-e6796817c6db"},"vehicle_type_id":"4","last_reported":1737450561,"current_range_meters":20000,"station_id":"ce4bhhp2rcd13ifvqfm0","pricing_plan_id":"cebpf4jnsgd1na2vs0mg"},{"bike_id":"5957b55c-bbf3-4d79-a9fa-182e34bda710","system_id":"levelo_inurba_marseille","lat":43.266769,"lon":5.402834,"is_reserved":false,"is_disabled":false,"rental_uris":{"android":"levelo://app?vid=5957b55c-bbf3-4d79-a9fa-182e34bda710","ios":"levelo://app?vid=5957b55c-bbf3-4d79-a9fa-182e34bda710"},"vehicle_type_id":"4","last_reported":1737450561,"current_range_meters":7200,"station_id":"","pricing_plan_id":"cebpf4jnsgd1na2vs0mg"},{"bike_id":"6324b599-cd8e-46d5-b67f-d4286c6903ee","system_id":"levelo_inurba_marseille","lat":43.29584,"lon":5.3752,"is_reserved":false,"is_disabled":false,"rental_uris":{"android":"levelo://app?vid=6324b599-cd8e-46d5-b67f-d4286c6903ee","ios":"levelo://app?vid=6324b599-cd8e-46d5-b67f-d4286c6903ee"},"vehicle_type_id":"4","last_reported":1737450561,"current_range_meters":38800,"station_id":"ce4bgh92rcd13ifvqb50","pricing_plan_id":"cebpf4jnsgd1na2vs0mg"},{"bike_id":"668f9767-c78d-438a-96bb-c0760f782967","system_id":"levelo_inurba_marseille","lat":43.26202,"lon":5.37912,"is_reserved":false,"is_disabled":false,"rental_uris":{"android":"levelo://app?vid=668f9767-c78d-438a-96bb-c0760f782967","ios":"levelo://app?vid=668f9767-c78d-438a-96bb-c0760f782967"},"vehicle_type_id":"4","last_reported":1737450561,"current_range_meters":28400,"station_id":"ce4bhjp2rcd13ifvqg90","pricing_plan_id":"cebpf4jnsgd1na2vs0mg"},{"bike_id":"18fe3aba-021a-44a6-b68e-2807901f7eac","system_id":"levelo_inurba_marseille","lat":43.30949,"lon":5.39036,"is_reserved":false,"is_disabled":false,"rental_uris":{"android":"levelo://app?vid=18fe3aba-021a-44a6-b68e-2807901f7eac","ios":"levelo://app?vid=18fe3aba-021a-44a6-b68e-2807901f7eac"},"vehicle_type_id":"4","last_reported":1737450561,"current_range_meters":32800,"station_id":"ce4bgup2rcd13ifvqco0","pricing_plan_id":"cebpf4jnsgd1na2vs0mg"},{"bike_id":"5b9fa318-2313-429a-968b-705fe81af405","system_id":"levelo_inurba_marseille","lat":43.25582,"lon":5.382283,"is_reserved":false,"is_disabled":false,"rental_uris":{"android":"levelo://app?vid=5b9fa318-2313-429a-968b-705fe81af405","ios":"levelo://app?vid=5b9fa318-2313-429a-968b-705fe81af405"},"vehicle_type_id":"4","last_reported":1737450561,"current_range_meters":37600,"station_id":"ce4bhih2rcd13ifvqfs0","pricing_plan_id":"cebpf4jnsgd1na2vs0mg"},{"bike_id":"d8bf33b4-27b7-46fe-8212-911531f44026","system_id":"levelo_inurba_marseille","lat":43.30644,"lon":5.40102,"is_reserved":false,"is_disabled":false,"rental_uris":{"android":"levelo://app?vid=d8bf33b4-27b7-46fe-8212-911531f44026","ios":"levelo://app?vid=d8bf33b4-27b7-46fe-8212-911531f44026"},"vehicle_type_id":"4","last_reported":1737450561,"current_range_meters":26800,"station_id":"ce4bh112rcd13ifvqda0","pricing_plan_id":"cebpf4jnsgd1na2vs0mg"},{"bike_id":"301a7c28-f84f-44f3-9078-f1912c12c75e","system_id":"levelo_inurba_marseille","lat":43.33599,"lon":5.41027,"is_reserved":false,"is_disabled":true,"rental_uris":{"android":"levelo://app?vid=301a7c28-f84f-44f3-9078-f1912c12c75e","ios":"levelo://app?vid=301a7c28-f84f-44f3-9078-f1912c12c75e"},"vehicle_type_id":"4","last_reported":1737450561,"current_range_meters":36800,"station_id":"ce4bhqh2rcd13ifvqhmg","pricing_plan_id":"cebpf4jnsgd1na2vs0mg"},{"bike_id":"5af06b04-a3b4-4f6a-8253-054b460c72db","system_id":"levelo_inurba_marseille","lat":43.26499,"lon":5.39545,"is_reserved":false,"is_disabled":false,"rental_uris":{"android":"levelo://app?vid=5af06b04-a3b4-4f6a-8253-054b460c72db","ios":"levelo://app?vid=5af06b04-a3b4-4f6a-8253-054b460c72db"},"vehicle_type_id":"4","last_reported":1737450561,"current_range_meters":24800,"station_id":"ce4bhi12rcd13ifvqfq0","pricing_plan_id":"cebpf4jnsgd1na2vs0mg"},{"bike_id":"686a45c4-240c-42ac-8f87-187e1593f8b7","system_id":"levelo_inurba_marseille","lat":43.32107,"lon":5.36788,"is_reserved":false,"is_disabled":true,"rental_uris":{"android":"levelo://app?vid=686a45c4-240c-42ac-8f87-187e1593f8b7","ios":"levelo://app?vid=686a45c4-240c-42ac-8f87-187e1593f8b7"},"vehicle_type_id":"4","last_reported":1737450561,"current_range_meters":28400,"station_id":"","pricing_plan_id":"cebpf4jnsgd1na2vs0mg"},{"bike_id":"477448eb-f60c-4a0c-8e7d-6fa92b99483b","system_id":"levelo_inurba_marseille","lat":43.30954,"lon":5.39035,"is_reserved":false,"is_disabled":false,"rental_uris":{"android":"levelo://app?vid=477448eb-f60c-4a0c-8e7d-6fa92b99483b","ios":"levelo://app?vid=477448eb-f60c-4a0c-8e7d-6fa92b99483b"},"vehicle_type_id":"4","last_reported":1737450561,"current_range_meters":30000,"station_id":"ce4bgup2rcd13ifvqco0","pricing_plan_id":"cebpf4jnsgd1na2vs0mg"},{"bike_id":"fbfac967-06f9-4925-86d5-635778b2684e","system_id":"levelo_inurba_marseille","lat":43.26682,"lon":5.38272,"is_reserved":false,"is_disabled":false,"rental_uris":{"android":"levelo://app?vid=fbfac967-06f9-4925-86d5-635778b2684e","ios":"levelo://app?vid=fbfac967-06f9-4925-86d5-635778b2684e"},"vehicle_type_id":"4","last_reported":1737450561,"current_range_meters":28400,"station_id":"ce4bhg92rcd13ifvqf90","pricing_plan_id":"cebpf4jnsgd1na2vs0mg"},{"bike_id":"5b4a5c93-c345-4b32-961a-b6e3d1fd64a4","system_id":"levelo_inurba_marseille","lat":43.29217,"lon":5.36086,"is_reserved":false,"is_disabled":false,"rental_uris":{"android":"levelo://app?vid=5b4a5c93-c345-4b32-961a-b6e3d1fd64a4","ios":"levelo://app?vid=5b4a5c93-c345-4b32-961a-b6e3d1fd64a4"},"vehicle_type_id":"4","last_reported":1737450561,"current_range_meters":38000,"station_id":"ce4bhbh2rcd13ifvqeqg","pricing_plan_id":"cebpf4jnsgd1na2vs0mg"},{"bike_id":"478d2080-b9a4-4e97-b051-06829c0b3ab5","system_id":"levelo_inurba_marseille","lat":43.2905,"lon":5.39978,"is_reserved":false,"is_disabled":false,"rental_uris":{"android":"levelo://app?vid=478d2080-b9a4-4e97-b051-06829c0b3ab5","ios":"levelo://app?vid=478d2080-b9a4-4e97-b051-06829c0b3ab5"},"vehicle_type_id":"4","last_reported":1737450561,"current_range_meters":29600,"station_id":"ce4bh392rcd13ifvqdm0","pricing_plan_id":"cebpf4jnsgd1na2vs0mg"},{"bike_id":"ae499c25-5c1c-4468-bd51-d261c45adf8c","system_id":"levelo_inurba_marseille","lat":43.29527,"lon":5.39064,"is_reserved":false,"is_disabled":false,"rental_uris":{"android":"levelo://app?vid=ae499c25-5c1c-4468-bd51-d261c45adf8c","ios":"levelo://app?vid=ae499c25-5c1c-4468-bd51-d261c45adf8c"},"vehicle_type_id":"4","last_reported":1737450561,"current_range_meters":30000,"station_id":"ce4bh3p2rcd13ifvqdp0","pricing_plan_id":"cebpf4jnsgd1na2vs0mg"},{"bike_id":"17aa36d7-06ff-4d76-a49f-dc7b2eb24cff","system_id":"levelo_inurba_marseille","lat":43.2868,"lon":5.38658,"is_reserved":false,"is_disabled":false,"rental_uris":{"android":"levelo://app?vid=17aa36d7-06ff-4d76-a49f-dc7b2eb24cff","ios":"levelo://app?vid=17aa36d7-06ff-4d76-a49f-dc7b2eb24cff"},"vehicle_type_id":"4","last_reported":1737450561,"current_range_meters":11200,"station_id":"ce4bh492rcd13ifvqdug","pricing_plan_id":"cebpf4jnsgd1na2vs0mg"},{"bike_id":"f29197b7-892b-4656-99c5-484d8091a1b7","system_id":"levelo_inurba_marseille","lat":43.30545,"lon":5.367,"is_reserved":false,"is_disabled":false,"rental_uris":{"android":"levelo://app?vid=f29197b7-892b-4656-99c5-484d8091a1b7","ios":"levelo://app?vid=f29197b7-892b-4656-99c5-484d8091a1b7"},"vehicle_type_id":"4","last_reported":1737450561,"current_range_meters":36800,"station_id":"ce4bgrp2rcd13ifvqc9g","pricing_plan_id":"cebpf4jnsgd1na2vs0mg"},{"bike_id":"ba834d37-a138-4e00-bc01-7355fbf3fb3d","system_id":"levelo_inurba_marseille","lat":43.24645,"lon":5.3819,"is_reserved":false,"is_disabled":false,"rental_uris":{"android":"levelo://app?vid=ba834d37-a138-4e00-bc01-7355fbf3fb3d","ios":"levelo://app?vid=ba834d37-a138-4e00-bc01-7355fbf3fb3d"},"vehicle_type_id":"4","last_reported":1737450561,"current_range_meters":21600,"station_id":"ce4bhih2rcd13ifvqfr0","pricing_plan_id":"cebpf4jnsgd1na2vs0mg"},{"bike_id":"5434439c-80a7-45ef-8e7d-a897cb833684","system_id":"levelo_inurba_marseille","lat":43.32419,"lon":5.36757,"is_reserved":false,"is_disabled":false,"rental_uris":{"android":"levelo://app?vid=5434439c-80a7-45ef-8e7d-a897cb833684","ios":"levelo://app?vid=5434439c-80a7-45ef-8e7d-a897cb833684"},"vehicle_type_id":"4","last_reported":1737450561,"current_range_meters":3200,"station_id":"","pricing_plan_id":"cebpf4jnsgd1na2vs0mg"},{"bike_id":"b657b8fa-52de-4162-ac69-a8afdfa103bb","system_id":"levelo_inurba_marseille","lat":43.29169,"lon":5.37157,"is_reserved":false,"is_disabled":false,"rental_uris":{"android":"levelo://app?vid=b657b8fa-52de-4162-ac69-a8afdfa103bb","ios":"levelo://app?vid=b657b8fa-52de-4162-ac69-a8afdfa103bb"},"vehicle_type_id":"4","last_reported":1737450561,"current_range_meters":38800,"station_id":"ce4bha92rcd13ifvqeh0","pricing_plan_id":"cebpf4jnsgd1na2vs0mg"},{"bike_id":"64899030-1386-4f33-8aa8-3daa0b76ca1f","system_id":"levelo_inurba_marseille","lat":43.33612,"lon":5.41035,"is_reserved":false,"is_disabled":false,"rental_uris":{"android":"levelo://app?vid=64899030-1386-4f33-8aa8-3daa0b76ca1f","ios":"levelo://app?vid=64899030-1386-4f33-8aa8-3daa0b76ca1f"},"vehicle_type_id":"4","last_reported":1737450561,"current_range_meters":11600,"station_id":"ce4bhqh2rcd13ifvqhmg","pricing_plan_id":"cebpf4jnsgd1na2vs0mg"},{"bike_id":"4edbc7f6-9375-45bd-9266-773feb063211","system_id":"levelo_inurba_marseille","lat":43.28116,"lon":5.37849,"is_reserved":false,"is_disabled":false,"rental_uris":{"android":"levelo://app?vid=4edbc7f6-9375-45bd-9266-773feb063211","ios":"levelo://app?vid=4edbc7f6-9375-45bd-9266-773feb063211"},"vehicle_type_id":"4","last_reported":1737450561,"current_range_meters":38800,"station_id":"ce4bha12rcd13ifvqee0","pricing_plan_id":"cebpf4jnsgd1na2vs0mg"},{"bike_id":"50267a36-8428-4ee1-ac27-ac6a771a71af","system_id":"levelo_inurba_marseille","lat":43.33691,"lon":5.35551,"is_reserved":false,"is_disabled":true,"rental_uris":{"android":"levelo://app?vid=50267a36-8428-4ee1-ac27-ac6a771a71af","ios":"levelo://app?vid=50267a36-8428-4ee1-ac27-ac6a771a71af"},"vehicle_type_id":"4","last_reported":1737450561,"current_range_meters":0,"station_id":"","pricing_plan_id":"cebpf4jnsgd1na2vs0mg"},{"bike_id":"f5863b18-13a1-4c6e-92de-5668ea912ad3","system_id":"levelo_inurba_marseille","lat":43.26234,"lon":5.40439,"is_reserved":false,"is_disabled":true,"rental_uris":{"android":"levelo://app?vid=f5863b18-13a1-4c6e-92de-5668ea912ad3","ios":"levelo://app?vid=f5863b18-13a1-4c6e-92de-5668ea912ad3"},"vehicle_type_id":"4","last_reported":1737450561,"current_range_meters":0,"station_id":"","pricing_plan_id":"cebpf4jnsgd1na2vs0mg"},{"bike_id":"3dd094e6-7b23-41d2-9e4a-a9cfaaac6a3e","system_id":"levelo_inurba_marseille","lat":43.33612,"lon":5.40983,"is_reserved":false,"is_disabled":false,"rental_uris":{"android":"levelo://app?vid=3dd094e6-7b23-41d2-9e4a-a9cfaaac6a3e","ios":"levelo://app?vid=3dd094e6-7b23-41d2-9e4a-a9cfaaac6a3e"},"vehicle_type_id":"4","last_reported":1737450561,"current_range_meters":38400,"station_id":"ce4bhqh2rcd13ifvqhmg","pricing_plan_id":"cebpf4jnsgd1na2vs0mg"},{"bike_id":"5c2eada5-c12f-4d4e-9ffe-40deaf6410ea","system_id":"levelo_inurba_marseille","lat":43.29738,"lon":5.37677,"is_reserved":false,"is_disabled":false,"rental_uris":{"android":"levelo://app?vid=5c2eada5-c12f-4d4e-9ffe-40deaf6410ea","ios":"levelo://app?vid=5c2eada5-c12f-4d4e-9ffe-40deaf6410ea"},"vehicle_type_id":"4","last_reported":1737450561,"current_range_meters":38800,"station_id":"ce4bgkh2rcd13ifvqbl0","pricing_plan_id":"cebpf4jnsgd1na2vs0mg"},{"bike_id":"594c1384-39b6-427b-8b4d-615a1da41d12","system_id":"levelo_inurba_marseille","lat":43.27985,"lon":5.40031,"is_reserved":false,"is_disabled":false,"rental_uris":{"android":"levelo://app?vid=594c1384-39b6-427b-8b4d-615a1da41d12","ios":"levelo://app?vid=594c1384-39b6-427b-8b4d-615a1da41d12"},"vehicle_type_id":"4","last_reported":1737450561,"current_range_meters":37600,"station_id":"ce4bho92rcd13ifvqh4g","pricing_plan_id":"cebpf4jnsgd1na2vs0mg"},{"bike_id":"7e15284e-3aba-4da6-9122-46b9d68738ef","system_id":"levelo_inurba_marseille","lat":43.26061,"lon":5.39397,"is_reserved":false,"is_disabled":false,"rental_uris":{"android":"levelo://app?vid=7e15284e-3aba-4da6-9122-46b9d68738ef","ios":"levelo://app?vid=7e15284e-3aba-4da6-9122-46b9d68738ef"},"vehicle_type_id":"4","last_reported":1737450561,"current_range_meters":26000,"station_id":"ce4bhh92rcd13ifvqfj0","pricing_plan_id":"cebpf4jnsgd1na2vs0mg"},{"bike_id":"c396952d-f1f3-4edb-a785-472f1ff281a7","system_id":"levelo_inurba_marseille","lat":43.26179,"lon":5.37472,"is_reserved":false,"is_disabled":false,"rental_uris":{"android":"levelo://app?vid=c396952d-f1f3-4edb-a785-472f1ff281a7","ios":"levelo://app?vid=c396952d-f1f3-4edb-a785-472f1ff281a7"},"vehicle_type_id":"4","last_reported":1737450561,"current_range_meters":33200,"station_id":"ce4bhgp2rcd13ifvqfc0","pricing_plan_id":"cebpf4jnsgd1na2vs0mg"},{"bike_id":"8b10e647-7504-4c12-b2df-8acd91216653","system_id":"levelo_inurba_marseille","lat":43.30948,"lon":5.39038,"is_reserved":false,"is_disabled":false,"rental_uris":{"android":"levelo://app?vid=8b10e647-7504-4c12-b2df-8acd91216653","ios":"levelo://app?vid=8b10e647-7504-4c12-b2df-8acd91216653"},"vehicle_type_id":"4","last_reported":1737450561,"current_range_meters":38800,"station_id":"ce4bgup2rcd13ifvqco0","pricing_plan_id":"cebpf4jnsgd1na2vs0mg"},{"bike_id":"4fe58642-8ec3-4f25-a4fc-eb5dc3dc47a8","system_id":"levelo_inurba_marseille","lat":43.33529,"lon":5.36124,"is_reserved":false,"is_disabled":true,"rental_uris":{"android":"levelo://app?vid=4fe58642-8ec3-4f25-a4fc-eb5dc3dc47a8","ios":"levelo://app?vid=4fe58642-8ec3-4f25-a4fc-eb5dc3dc47a8"},"vehicle_type_id":"4","last_reported":1737450561,"current_range_meters":22000,"station_id":"","pricing_plan_id":"cebpf4jnsgd1na2vs0mg"},{"bike_id":"9cccd2ff-b864-466b-83c6-b52ec2815836","system_id":"levelo_inurba_marseille","lat":43.256523,"lon":5.411254,"is_reserved":false,"is_disabled":false,"rental_uris":{"android":"levelo://app?vid=9cccd2ff-b864-466b-83c6-b52ec2815836","ios":"levelo://app?vid=9cccd2ff-b864-466b-83c6-b52ec2815836"},"vehicle_type_id":"4","last_reported":1737450561,"current_range_meters":28400,"station_id":"","pricing_plan_id":"cebpf4jnsgd1na2vs0mg"},{"bike_id":"9e6b4737-0d93-45cc-bb18-333843ee4aff","system_id":"levelo_inurba_marseille","lat":43.27491,"lon":5.4246,"is_reserved":false,"is_disabled":false,"rental_uris":{"android":"levelo://app?vid=9e6b4737-0d93-45cc-bb18-333843ee4aff","ios":"levelo://app?vid=9e6b4737-0d93-45cc-bb18-333843ee4aff"},"vehicle_type_id":"4","last_reported":1737450561,"current_range_meters":22800,"station_id":"ce4bhn92rcd13ifvqgrg","pricing_plan_id":"cebpf4jnsgd1na2vs0mg"},{"bike_id":"91205cd1-594e-404b-8d00-894de72b18ca","system_id":"levelo_inurba_marseille","lat":43.24058,"lon":5.37751,"is_reserved":false,"is_disabled":false,"rental_uris":{"android":"levelo://app?vid=91205cd1-594e-404b-8d00-894de72b18ca","ios":"levelo://app?vid=91205cd1-594e-404b-8d00-894de72b18ca"},"vehicle_type_id":"4","last_reported":1737450561,"current_range_meters":36800,"station_id":"ce4bhnp2rcd13ifvqgvg","pricing_plan_id":"cebpf4jnsgd1na2vs0mg"},{"bike_id":"5bc669ac-d025-4cd8-811c-a7c83bdeba88","system_id":"levelo_inurba_marseille","lat":43.3092,"lon":5.36854,"is_reserved":false,"is_disabled":false,"rental_uris":{"android":"levelo://app?vid=5bc669ac-d025-4cd8-811c-a7c83bdeba88","ios":"levelo://app?vid=5bc669ac-d025-4cd8-811c-a7c83bdeba88"},"vehicle_type_id":"4","last_reported":1737450561,"current_range_meters":19600,"station_id":"ce4bgn92rcd13ifvqbvg","pricing_plan_id":"cebpf4jnsgd1na2vs0mg"},{"bike_id":"b5b91842-f1aa-4bba-964f-7a9484225fb0","system_id":"levelo_inurba_marseille","lat":43.25859,"lon":5.39917,"is_reserved":false,"is_disabled":false,"rental_uris":{"android":"levelo://app?vid=b5b91842-f1aa-4bba-964f-7a9484225fb0","ios":"levelo://app?vid=b5b91842-f1aa-4bba-964f-7a9484225fb0"},"vehicle_type_id":"4","last_reported":1737450561,"current_range_meters":38800,"station_id":"ce4bhl92rcd13ifvqghg","pricing_plan_id":"cebpf4jnsgd1na2vs0mg"},{"bike_id":"b7a4a0f3-c911-478a-baaf-19b00bb62afe","system_id":"levelo_inurba_marseille","lat":43.30462,"lon":5.37912,"is_reserved":false,"is_disabled":false,"rental_uris":{"android":"levelo://app?vid=b7a4a0f3-c911-478a-baaf-19b00bb62afe","ios":"levelo://app?vid=b7a4a0f3-c911-478a-baaf-19b00bb62afe"},"vehicle_type_id":"4","last_reported":1737450561,"current_range_meters":16400,"station_id":"ce4bgup2rcd13ifvqcn0","pricing_plan_id":"cebpf4jnsgd1na2vs0mg"},{"bike_id":"60b7d049-237a-4dbd-ad0c-436ecde1802f","system_id":"levelo_inurba_marseille","lat":43.231891,"lon":5.355554,"is_reserved":false,"is_disabled":false,"rental_uris":{"android":"levelo://app?vid=60b7d049-237a-4dbd-ad0c-436ecde1802f","ios":"levelo://app?vid=60b7d049-237a-4dbd-ad0c-436ecde1802f"},"vehicle_type_id":"4","last_reported":1737450561,"current_range_meters":22000,"station_id":"ce4bhu92rcd13ifvqi70","pricing_plan_id":"cebpf4jnsgd1na2vs0mg"},{"bike_id":"6100bcb5-a461-4554-9f22-a895aa9c40a0","system_id":"levelo_inurba_marseille","lat":43.30462,"lon":5.37905,"is_reserved":false,"is_disabled":false,"rental_uris":{"android":"levelo://app?vid=6100bcb5-a461-4554-9f22-a895aa9c40a0","ios":"levelo://app?vid=6100bcb5-a461-4554-9f22-a895aa9c40a0"},"vehicle_type_id":"4","last_reported":1737450561,"current_range_meters":14800,"station_id":"ce4bgup2rcd13ifvqcn0","pricing_plan_id":"cebpf4jnsgd1na2vs0mg"},{"bike_id":"cb25fe4d-6d90-4a12-8821-0d572709ed4b","system_id":"levelo_inurba_marseille","lat":43.28718,"lon":5.37951,"is_reserved":false,"is_disabled":false,"rental_uris":{"android":"levelo://app?vid=cb25fe4d-6d90-4a12-8821-0d572709ed4b","ios":"levelo://app?vid=cb25fe4d-6d90-4a12-8821-0d572709ed4b"},"vehicle_type_id":"4","last_reported":1737450561,"current_range_meters":31200,"station_id":"ce4bh9p2rcd13ifvqec0","pricing_plan_id":"cebpf4jnsgd1na2vs0mg"},{"bike_id":"ac3b4d19-9b24-43ce-861b-b5eefc2ce508","system_id":"levelo_inurba_marseille","lat":43.27485,"lon":5.42467,"is_reserved":false,"is_disabled":false,"rental_uris":{"android":"levelo://app?vid=ac3b4d19-9b24-43ce-861b-b5eefc2ce508","ios":"levelo://app?vid=ac3b4d19-9b24-43ce-861b-b5eefc2ce508"},"vehicle_type_id":"4","last_reported":1737450561,"current_range_meters":8400,"station_id":"ce4bhn92rcd13ifvqgrg","pricing_plan_id":"cebpf4jnsgd1na2vs0mg"},{"bike_id":"86d67274-3f7f-4b7f-936e-b73e7a0da0d3","system_id":"levelo_inurba_marseille","lat":43.30494,"lon":5.36721,"is_reserved":false,"is_disabled":false,"rental_uris":{"android":"levelo://app?vid=86d67274-3f7f-4b7f-936e-b73e7a0da0d3","ios":"levelo://app?vid=86d67274-3f7f-4b7f-936e-b73e7a0da0d3"},"vehicle_type_id":"4","last_reported":1737450561,"current_range_meters":39200,"station_id":"ce4bgrp2rcd13ifvqc9g","pricing_plan_id":"cebpf4jnsgd1na2vs0mg"},{"bike_id":"77684ce8-bf21-4b8e-a435-19a79d2f18c5","system_id":"levelo_inurba_marseille","lat":43.296811,"lon":5.405428,"is_reserved":false,"is_disabled":false,"rental_uris":{"android":"levelo://app?vid=77684ce8-bf21-4b8e-a435-19a79d2f18c5","ios":"levelo://app?vid=77684ce8-bf21-4b8e-a435-19a79d2f18c5"},"vehicle_type_id":"4","last_reported":1737450561,"current_range_meters":23200,"station_id":"ce4bh0h2rcd13ifvqd60","pricing_plan_id":"cebpf4jnsgd1na2vs0mg"},{"bike_id":"f2b8aeab-8c5b-4c5c-8520-4e486493b3b3","system_id":"levelo_inurba_marseille","lat":43.29911,"lon":5.38152,"is_reserved":false,"is_disabled":false,"rental_uris":{"android":"levelo://app?vid=f2b8aeab-8c5b-4c5c-8520-4e486493b3b3","ios":"levelo://app?vid=f2b8aeab-8c5b-4c5c-8520-4e486493b3b3"},"vehicle_type_id":"4","last_reported":1737450561,"current_range_meters":8800,"station_id":"","pricing_plan_id":"cebpf4jnsgd1na2vs0mg"},{"bike_id":"afea45a2-e876-4dc4-9454-c54dc84a68c9","system_id":"levelo_inurba_marseille","lat":43.2705,"lon":5.40278,"is_reserved":false,"is_disabled":false,"rental_uris":{"android":"levelo://app?vid=afea45a2-e876-4dc4-9454-c54dc84a68c9","ios":"levelo://app?vid=afea45a2-e876-4dc4-9454-c54dc84a68c9"},"vehicle_type_id":"4","last_reported":1737450561,"current_range_meters":36800,"station_id":"ce4bhk92rcd13ifvqgc0","pricing_plan_id":"cebpf4jnsgd1na2vs0mg"},{"bike_id":"5f332c0c-02d1-4eb7-a43a-51173c240f7e","system_id":"levelo_inurba_marseille","lat":43.26949,"lon":5.38634,"is_reserved":false,"is_disabled":false,"rental_uris":{"android":"levelo://app?vid=5f332c0c-02d1-4eb7-a43a-51173c240f7e","ios":"levelo://app?vid=5f332c0c-02d1-4eb7-a43a-51173c240f7e"},"vehicle_type_id":"4","last_reported":1737450561,"current_range_meters":39200,"station_id":"ce4bhh92rcd13ifvqfh0","pricing_plan_id":"cebpf4jnsgd1na2vs0mg"},{"bike_id":"35adf1d8-47b5-45fe-8849-bfdf88141725","system_id":"levelo_inurba_marseille","lat":43.24096,"lon":5.37792,"is_reserved":false,"is_disabled":false,"rental_uris":{"android":"levelo://app?vid=35adf1d8-47b5-45fe-8849-bfdf88141725","ios":"levelo://app?vid=35adf1d8-47b5-45fe-8849-bfdf88141725"},"vehicle_type_id":"4","last_reported":1737450561,"current_range_meters":28400,"station_id":"ce4bhnp2rcd13ifvqgvg","pricing_plan_id":"cebpf4jnsgd1na2vs0mg"},{"bike_id":"95b517d0-9dcf-47f9-8053-773bec6e6a69","system_id":"levelo_inurba_marseille","lat":43.26557,"lon":5.39504,"is_reserved":false,"is_disabled":false,"rental_uris":{"android":"levelo://app?vid=95b517d0-9dcf-47f9-8053-773bec6e6a69","ios":"levelo://app?vid=95b517d0-9dcf-47f9-8053-773bec6e6a69"},"vehicle_type_id":"4","last_reported":1737450561,"current_range_meters":4800,"station_id":"","pricing_plan_id":"cebpf4jnsgd1na2vs0mg"},{"bike_id":"c1ec84ac-90b7-443e-a1e0-0762b4eadd65","system_id":"levelo_inurba_marseille","lat":43.24078,"lon":5.37753,"is_reserved":false,"is_disabled":false,"rental_uris":{"android":"levelo://app?vid=c1ec84ac-90b7-443e-a1e0-0762b4eadd65","ios":"levelo://app?vid=c1ec84ac-90b7-443e-a1e0-0762b4eadd65"},"vehicle_type_id":"4","last_reported":1737450561,"current_range_meters":32800,"station_id":"ce4bhnp2rcd13ifvqgvg","pricing_plan_id":"cebpf4jnsgd1na2vs0mg"},{"bike_id":"f3ce7fd6-1233-4a2d-aed1-e16c85ebea2e","system_id":"levelo_inurba_marseille","lat":43.32536,"lon":5.41448,"is_reserved":false,"is_disabled":true,"rental_uris":{"android":"levelo://app?vid=f3ce7fd6-1233-4a2d-aed1-e16c85ebea2e","ios":"levelo://app?vid=f3ce7fd6-1233-4a2d-aed1-e16c85ebea2e"},"vehicle_type_id":"4","last_reported":1737450561,"current_range_meters":27600,"station_id":"ce4bhq12rcd13ifvqhhg","pricing_plan_id":"cebpf4jnsgd1na2vs0mg"},{"bike_id":"4f990209-04d5-4ce5-bcf6-1abc31b5d30d","system_id":"levelo_inurba_marseille","lat":43.30536,"lon":5.36533,"is_reserved":false,"is_disabled":false,"rental_uris":{"android":"levelo://app?vid=4f990209-04d5-4ce5-bcf6-1abc31b5d30d","ios":"levelo://app?vid=4f990209-04d5-4ce5-bcf6-1abc31b5d30d"},"vehicle_type_id":"4","last_reported":1737450561,"current_range_meters":39200,"station_id":"ce4bgs12rcd13ifvqcag","pricing_plan_id":"cebpf4jnsgd1na2vs0mg"},{"bike_id":"a2665873-ff7d-4ec2-9a56-ebacf8c35007","system_id":"levelo_inurba_marseille","lat":43.2923,"lon":5.36088,"is_reserved":false,"is_disabled":false,"rental_uris":{"android":"levelo://app?vid=a2665873-ff7d-4ec2-9a56-ebacf8c35007","ios":"levelo://app?vid=a2665873-ff7d-4ec2-9a56-ebacf8c35007"},"vehicle_type_id":"4","last_reported":1737450561,"current_range_meters":28800,"station_id":"ce4bhbh2rcd13ifvqeqg","pricing_plan_id":"cebpf4jnsgd1na2vs0mg"},{"bike_id":"786757ae-b10f-40c4-b380-0b2af1144c2a","system_id":"levelo_inurba_marseille","lat":43.24085,"lon":5.3776,"is_reserved":false,"is_disabled":false,"rental_uris":{"android":"levelo://app?vid=786757ae-b10f-40c4-b380-0b2af1144c2a","ios":"levelo://app?vid=786757ae-b10f-40c4-b380-0b2af1144c2a"},"vehicle_type_id":"4","last_reported":1737450561,"current_range_meters":24800,"station_id":"ce4bhnp2rcd13ifvqgvg","pricing_plan_id":"cebpf4jnsgd1na2vs0mg"},{"bike_id":"c051be54-5d4c-4959-9efb-1367b12aa141","system_id":"levelo_inurba_marseille","lat":43.3095,"lon":5.3906,"is_reserved":false,"is_disabled":false,"rental_uris":{"android":"levelo://app?vid=c051be54-5d4c-4959-9efb-1367b12aa141","ios":"levelo://app?vid=c051be54-5d4c-4959-9efb-1367b12aa141"},"vehicle_type_id":"4","last_reported":1737450561,"current_range_meters":29600,"station_id":"ce4bgup2rcd13ifvqco0","pricing_plan_id":"cebpf4jnsgd1na2vs0mg"},{"bike_id":"09271c13-bc57-4a1b-ad60-73ddd2d0ee51","system_id":"levelo_inurba_marseille","lat":43.31358,"lon":5.36715,"is_reserved":false,"is_disabled":false,"rental_uris":{"android":"levelo://app?vid=09271c13-bc57-4a1b-ad60-73ddd2d0ee51","ios":"levelo://app?vid=09271c13-bc57-4a1b-ad60-73ddd2d0ee51"},"vehicle_type_id":"4","last_reported":1737450561,"current_range_meters":37600,"station_id":"ce4bgr92rcd13ifvqc6g","pricing_plan_id":"cebpf4jnsgd1na2vs0mg"},{"bike_id":"748bbd26-8b84-4deb-b770-fde9bed33d14","system_id":"levelo_inurba_marseille","lat":43.33229,"lon":5.39626,"is_reserved":false,"is_disabled":false,"rental_uris":{"android":"levelo://app?vid=748bbd26-8b84-4deb-b770-fde9bed33d14","ios":"levelo://app?vid=748bbd26-8b84-4deb-b770-fde9bed33d14"},"vehicle_type_id":"4","last_reported":1737450561,"current_range_meters":35600,"station_id":"","pricing_plan_id":"cebpf4jnsgd1na2vs0mg"},{"bike_id":"b1a46948-81d2-400d-9bf4-0b3e2669de72","system_id":"levelo_inurba_marseille","lat":43.23173,"lon":5.39986,"is_reserved":false,"is_disabled":false,"rental_uris":{"android":"levelo://app?vid=b1a46948-81d2-400d-9bf4-0b3e2669de72","ios":"levelo://app?vid=b1a46948-81d2-400d-9bf4-0b3e2669de72"},"vehicle_type_id":"4","last_reported":1737450561,"current_range_meters":25200,"station_id":"ce4bhn12rcd13ifvqgqg","pricing_plan_id":"cebpf4jnsgd1na2vs0mg"},{"bike_id":"c2099609-4a49-4e8a-a489-d46f71e09ff5","system_id":"levelo_inurba_marseille","lat":43.29062,"lon":5.37588,"is_reserved":false,"is_disabled":false,"rental_uris":{"android":"levelo://app?vid=c2099609-4a49-4e8a-a489-d46f71e09ff5","ios":"levelo://app?vid=c2099609-4a49-4e8a-a489-d46f71e09ff5"},"vehicle_type_id":"4","last_reported":1737450561,"current_range_meters":8400,"station_id":"ce4bh692rcd13ifvqe90","pricing_plan_id":"cebpf4jnsgd1na2vs0mg"},{"bike_id":"2eea250c-7981-4879-aad3-348bb0c2781d","system_id":"levelo_inurba_marseille","lat":43.28612,"lon":5.351037,"is_reserved":false,"is_disabled":true,"rental_uris":{"android":"levelo://app?vid=2eea250c-7981-4879-aad3-348bb0c2781d","ios":"levelo://app?vid=2eea250c-7981-4879-aad3-348bb0c2781d"},"vehicle_type_id":"4","last_reported":1737450561,"current_range_meters":2000,"station_id":"ce4bhch2rcd13ifvqeug","pricing_plan_id":"cebpf4jnsgd1na2vs0mg"},{"bike_id":"2ccc0676-ed58-4b7f-a896-37d4c6cb7dea","system_id":"levelo_inurba_marseille","lat":43.3047,"lon":5.37914,"is_reserved":false,"is_disabled":false,"rental_uris":{"android":"levelo://app?vid=2ccc0676-ed58-4b7f-a896-37d4c6cb7dea","ios":"levelo://app?vid=2ccc0676-ed58-4b7f-a896-37d4c6cb7dea"},"vehicle_type_id":"4","last_reported":1737450561,"current_range_meters":8000,"station_id":"ce4bgup2rcd13ifvqcn0","pricing_plan_id":"cebpf4jnsgd1na2vs0mg"},{"bike_id":"0aaedd18-95c7-458b-bb63-6504ef2e11ba","system_id":"levelo_inurba_marseille","lat":43.32115,"lon":5.36795,"is_reserved":false,"is_disabled":false,"rental_uris":{"android":"levelo://app?vid=0aaedd18-95c7-458b-bb63-6504ef2e11ba","ios":"levelo://app?vid=0aaedd18-95c7-458b-bb63-6504ef2e11ba"},"vehicle_type_id":"4","last_reported":1737450561,"current_range_meters":34800,"station_id":"ce4bhrh2rcd13ifvqhug","pricing_plan_id":"cebpf4jnsgd1na2vs0mg"},{"bike_id":"b4b8d306-3fcb-4285-9db5-3958f77c2583","system_id":"levelo_inurba_marseille","lat":43.26069,"lon":5.39402,"is_reserved":false,"is_disabled":true,"rental_uris":{"android":"levelo://app?vid=b4b8d306-3fcb-4285-9db5-3958f77c2583","ios":"levelo://app?vid=b4b8d306-3fcb-4285-9db5-3958f77c2583"},"vehicle_type_id":"4","last_reported":1737450561,"current_range_meters":36800,"station_id":"ce4bhh92rcd13ifvqfj0","pricing_plan_id":"cebpf4jnsgd1na2vs0mg"},{"bike_id":"65fcb8a3-8566-4bb4-ac4f-ce96a267683e","system_id":"levelo_inurba_marseille","lat":43.30145,"lon":5.37424,"is_reserved":false,"is_disabled":false,"rental_uris":{"android":"levelo://app?vid=65fcb8a3-8566-4bb4-ac4f-ce96a267683e","ios":"levelo://app?vid=65fcb8a3-8566-4bb4-ac4f-ce96a267683e"},"vehicle_type_id":"4","last_reported":1737450561,"current_range_meters":24400,"station_id":"ce4bgs92rcd13ifvqcc0","pricing_plan_id":"cebpf4jnsgd1na2vs0mg"},{"bike_id":"3b5d5d11-a35c-423c-93d0-a2dcf2f39188","system_id":"levelo_inurba_marseille","lat":43.31279,"lon":5.3683,"is_reserved":false,"is_disabled":false,"rental_uris":{"android":"levelo://app?vid=3b5d5d11-a35c-423c-93d0-a2dcf2f39188","ios":"levelo://app?vid=3b5d5d11-a35c-423c-93d0-a2dcf2f39188"},"vehicle_type_id":"4","last_reported":1737450561,"current_range_meters":20000,"station_id":"ce4bgl92rcd13ifvqbq0","pricing_plan_id":"cebpf4jnsgd1na2vs0mg"},{"bike_id":"a00f9d10-2df3-4a8a-9537-639a60aaa7db","system_id":"levelo_inurba_marseille","lat":43.32473,"lon":5.36604,"is_reserved":false,"is_disabled":false,"rental_uris":{"android":"levelo://app?vid=a00f9d10-2df3-4a8a-9537-639a60aaa7db","ios":"levelo://app?vid=a00f9d10-2df3-4a8a-9537-639a60aaa7db"},"vehicle_type_id":"4","last_reported":1737450561,"current_range_meters":36400,"station_id":"ce4bhs12rcd13ifvqhvg","pricing_plan_id":"cebpf4jnsgd1na2vs0mg"},{"bike_id":"9c5218bd-e69e-4bfe-9156-8e33d7f058cc","system_id":"levelo_inurba_marseille","lat":43.29298,"lon":5.37179,"is_reserved":false,"is_disabled":false,"rental_uris":{"android":"levelo://app?vid=9c5218bd-e69e-4bfe-9156-8e33d7f058cc","ios":"levelo://app?vid=9c5218bd-e69e-4bfe-9156-8e33d7f058cc"},"vehicle_type_id":"4","last_reported":1737450561,"current_range_meters":36800,"station_id":"ce4bgh92rcd13ifvqb40","pricing_plan_id":"cebpf4jnsgd1na2vs0mg"},{"bike_id":"e26d020d-1350-48bb-82bc-1b0761eb6af5","system_id":"levelo_inurba_marseille","lat":43.2319,"lon":5.39998,"is_reserved":false,"is_disabled":false,"rental_uris":{"android":"levelo://app?vid=e26d020d-1350-48bb-82bc-1b0761eb6af5","ios":"levelo://app?vid=e26d020d-1350-48bb-82bc-1b0761eb6af5"},