{"last_updated":1723309584,"ttl":30,"version":"2.2","data":{"bikes":[{"bike_id":"8d987465-18d9-4ef7-b293-c30f9e1210ad","system_id":"levelo_inurba_marseille","lat":43.31341,"lon":5.367098,"is_reserved":false,"is_disabled":false,"rental_uris":{"android":"levelo://app?vid=8d987465-18d9-4ef7-b293-c30f9e1210ad","ios":"levelo://app?vid=8d987465-18d9-4ef7-b293-c30f9e1210ad"},"vehicle_type_id":"4","last_reported":1723309584,"current_range_meters":0,"station_id":"ce4bgr92rcd13ifvqc6g","pricing_plan_id":"cebpf4jnsgd1na2vs0mg"},{"bike_id":"f5968ac0-d664-4727-93df-60d258c3bef7","system_id":"levelo_inurba_marseille","lat":43.31341,"lon":5.367098,"is_reserved":false,"is_disabled":false,"rental_uris":{"android":"levelo://app?vid=f5968ac0-d664-4727-93df-60d258c3bef7","ios":"levelo://app?vid=f5968ac0-d664-4727-93df-60d258c3bef7"},"vehicle_type_id":"4","last_reported":1723309584,"current_range_meters":12800,"station_id":"ce4bgr92rcd13ifvqc6g","pricing_plan_id":"cebpf4jnsgd1na2vs0mg"},{"bike_id":"6a4730c8-4cba-4285-814a-37dda2862f07","system_id":"levelo_inurba_marseille","lat":43.314811,"lon":5.373103,"is_reserved":false,"is_disabled":false,"rental_uris":{"android":"levelo://app?vid=6a4730c8-4cba-4285-814a-37dda2862f07","ios":"levelo://app?vid=6a4730c8-4cba-4285-814a-37dda2862f07"},"vehicle_type_id":"4","last_reported":1723309584,"current_range_meters":29600,"station_id":"ce4bgt12rcd13ifvqcd0","pricing_plan_id":"cebpf4jnsgd1na2vs0mg"},{"bike_id":"a7f90412-d518-4cf7-99f0-60cf00dfa3f9","system_id":"levelo_inurba_marseille","lat":43.314811,"lon":5.373104,"is_reserved":false,"is_disabled":false,"rental_uris":{"android":"levelo://app?vid=a7f90412-d518-4cf7-99f0-60cf00dfa3f9","ios":"levelo://app?vid=a7f90412-d518-4cf7-99f0-60cf00dfa3f9"},"vehicle_type_id":"4","last_reported":1723309584,"current_range_meters":0,"station_id":"ce4bgt12rcd13ifvqcd0","pricing_plan_id":"cebpf4jnsgd1na2vs0mg"},{"bike_id":"3471a87c-2167-4ec0-a11b-ab98712e4c31","system_id":"levelo_inurba_marseille","lat":43.305706,"lon":5.365654,"is_reserved":false,"is_disabled":false,"rental_uris":{"android":"levelo://app?vid=3471a87c-2167-4ec0-a11b-ab98712e4c31","ios":"levelo://app?vid=3471a87c-2167-4ec0-a11b-ab98712e4c31"},"vehicle_type_id":"4","last_reported":1723309584,"current_range_meters":7600,"station_id":"ce4bgs12rcd13ifvqcag","pricing_plan_id":"cebpf4jnsgd1na2vs0mg"},{"bike_id":"9319951f-ac54-48ba-a881-38837b9a9855","system_id":"levelo_inurba_marseille","lat":43.32,"lon":5.36988,"is_reserved":false,"is_disabled":false,"rental_uris":{"android":"levelo://app?vid=9319951f-ac54-48ba-a881-38837b9a9855","ios":"levelo://app?vid=9319951f-ac54-48ba-a881-38837b9a9855"},"vehicle_type_id":"4","last_reported":1723309584,"current_range_meters":16400,"station_id":"","pricing_plan_id":"cebpf4jnsgd1na2vs0mg"},{"bike_id":"e80dbec5-0284-4efb-b3a6-5a5f65aef5e4","system_id":"levelo_inurba_marseille","lat":43.3112,"lon":5.37759,"is_reserved":false,"is_disabled":false,"rental_uris":{"android":"levelo://app?vid=e80dbec5-0284-4efb-b3a6-5a5f65aef5e4","ios":"levelo://app?vid=e80dbec5-0284-4efb-b3a6-5a5f65aef5e4"},"vehicle_type_id":"4","last_reported":1723309584,"current_range_meters":0,"station_id":"ce4bgt92rcd13ifvqcg0","pricing_plan_id":"cebpf4jnsgd1na2vs0mg"},{"bike_id":"1d8cd8ae-7f98-4be9-8378-a49954575452","system_id":"levelo_inurba_marseille","lat":43.31716,"lon":5.3764,"is_reserved":false,"is_disabled":false,"rental_uris":{"android":"levelo://app?vid=1d8cd8ae-7f98-4be9-8378-a49954575452","ios":"levelo://app?vid=1d8cd8ae-7f98-4be9-8378-a49954575452"},"vehicle_type_id":"4","last_reported":1723309584,"current_range_meters":19600,"station_id":"","pricing_plan_id":"cebpf4jnsgd1na2vs0mg"},{"bike_id":"674b0071-6c50-4a72-a8ad-fc264cfb8b30","system_id":"levelo_inurba_marseille","lat":43.307945,"lon":5.376487,"is_reserved":false,"is_disabled":false,"rental_uris":{"android":"levelo://app?vid=674b0071-6c50-4a72-a8ad-fc264cfb8b30","ios":"levelo://app?vid=674b0071-6c50-4a72-a8ad-fc264cfb8b30"},"vehicle_type_id":"4","last_reported":1723309584,"current_range_meters":800,"station_id":"ce4bgv92rcd13ifvqcq0","pricing_plan_id":"cebpf4jnsgd1na2vs0mg"},{"bike_id":"9058d338-53c0-4093-8eb2-bdff7360ed24","system_id":"levelo_inurba_marseille","lat":43.317075,"lon":5.377367,"is_reserved":false,"is_disabled":false,"rental_uris":{"android":"levelo://app?vid=9058d338-53c0-4093-8eb2-bdff7360ed24","ios":"levelo://app?vid=9058d338-53c0-4093-8eb2-bdff7360ed24"},"vehicle_type_id":"4","last_reported":1723309584,"current_range_meters":3600,"station_id":"ce4bgth2rcd13ifvqch0","pricing_plan_id":"cebpf4jnsgd1na2vs0mg"},{"bike_id":"933f491e-8e34-4341-a8d9-5bc14bb43e6a","system_id":"levelo_inurba_marseille","lat":43.30315,"lon":5.369,"is_reserved":false,"is_disabled":false,"rental_uris":{"android":"levelo://app?vid=933f491e-8e34-4341-a8d9-5bc14bb43e6a","ios":"levelo://app?vid=933f491e-8e34-4341-a8d9-5bc14bb43e6a"},"vehicle_type_id":"4","last_reported":1723309584,"current_range_meters":0,"station_id":"ce4bgqh2rcd13ifvqc5g","pricing_plan_id":"cebpf4jnsgd1na2vs0mg"},{"bike_id":"192bc778-be1f-402d-b1df-16d7172e5519","system_id":"levelo_inurba_marseille","lat":43.31359,"lon":5.38283,"is_reserved":false,"is_disabled":false,"rental_uris":{"android":"levelo://app?vid=192bc778-be1f-402d-b1df-16d7172e5519","ios":"levelo://app?vid=192bc778-be1f-402d-b1df-16d7172e5519"},"vehicle_type_id":"4","last_reported":1723309584,"current_range_meters":0,"station_id":"","pricing_plan_id":"cebpf4jnsgd1na2vs0mg"},{"bike_id":"acf5f1e8-de2b-41ca-8aa3-96936cfef668","system_id":"levelo_inurba_marseille","lat":43.31132,"lon":5.38323,"is_reserved":false,"is_disabled":false,"rental_uris":{"android":"levelo://app?vid=acf5f1e8-de2b-41ca-8aa3-96936cfef668","ios":"levelo://app?vid=acf5f1e8-de2b-41ca-8aa3-96936cfef668"},"vehicle_type_id":"4","last_reported":1723309584,"current_range_meters":0,"station_id":"","pricing_plan_id":"cebpf4jnsgd1na2vs0mg"},{"bike_id":"8d62cf42-ded4-40b6-a339-928240cb973a","system_id":"levelo_inurba_marseille","lat":43.324771,"lon":5.36557,"is_reserved":false,"is_disabled":false,"rental_uris":{"android":"levelo://app?vid=8d62cf42-ded4-40b6-a339-928240cb973a","ios":"levelo://app?vid=8d62cf42-ded4-40b6-a339-928240cb973a"},"vehicle_type_id":"4","last_reported":1723309584,"current_range_meters":2000,"station_id":"ce4bhs12rcd13ifvqhvg","pricing_plan_id":"cebpf4jnsgd1na2vs0mg"},{"bike_id":"42a7a05a-7245-4d27-bbcf-27be7c3dfa5f","system_id":"levelo_inurba_marseille","lat":43.30284,"lon":5.37705,"is_reserved":false,"is_disabled":false,"rental_uris":{"android":"levelo://app?vid=42a7a05a-7245-4d27-bbcf-27be7c3dfa5f","ios":"levelo://app?vid=42a7a05a-7245-4d27-bbcf-27be7c3dfa5f"},"vehicle_type_id":"4","last_reported":1723309584,"current_range_meters":0,"station_id":"ce4bguh2rcd13ifvqcj0","pricing_plan_id":"cebpf4jnsgd1na2vs0mg"},{"bike_id":"16dac5a0-2fc9-4445-a1d5-6ba86b7ec2b8","system_id":"levelo_inurba_marseille","lat":43.30146,"lon":5.37414,"is_reserved":false,"is_disabled":false,"rental_uris":{"android":"levelo://app?vid=16dac5a0-2fc9-4445-a1d5-6ba86b7ec2b8","ios":"levelo://app?vid=16dac5a0-2fc9-4445-a1d5-6ba86b7ec2b8"},"vehicle_type_id":"4","last_reported":1723309584,"current_range_meters":8800,"station_id":"ce4bgs92rcd13ifvqcc0","pricing_plan_id":"cebpf4jnsgd1na2vs0mg"},{"bike_id":"6d127af6-1ab9-4e1f-8ae2-82acf888e5cf","system_id":"levelo_inurba_marseille","lat":43.319935,"lon":5.381699,"is_reserved":false,"is_disabled":false,"rental_uris":{"android":"levelo://app?vid=6d127af6-1ab9-4e1f-8ae2-82acf888e5cf","ios":"levelo://app?vid=6d127af6-1ab9-4e1f-8ae2-82acf888e5cf"},"vehicle_type_id":"4","last_reported":1723309584,"current_range_meters":28400,"station_id":"ce4bhr12rcd13ifvqhpg","pricing_plan_id":"cebpf4jnsgd1na2vs0mg"},{"bike_id":"e0903b21-5140-4fe0-a536-a40f550986cc","system_id":"levelo_inurba_marseille","lat":43.319935,"lon":5.381699,"is_reserved":false,"is_disabled":false,"rental_uris":{"android":"levelo://app?vid=e0903b21-5140-4fe0-a536-a40f550986cc","ios":"levelo://app?vid=e0903b21-5140-4fe0-a536-a40f550986cc"},"vehicle_type_id":"4","last_reported":1723309584,"current_range_meters":4400,"station_id":"ce4bhr12rcd13ifvqhpg","pricing_plan_id":"cebpf4jnsgd1na2vs0mg"},{"bike_id":"41598aff-7486-4b78-b5b0-f67a76fc3110","system_id":"levelo_inurba_marseille","lat":43.319935,"lon":5.381699,"is_reserved":false,"is_disabled":false,"rental_uris":{"android":"levelo://app?vid=41598aff-7486-4b78-b5b0-f67a76fc3110","ios":"levelo://app?vid=41598aff-7486-4b78-b5b0-f67a76fc3110"},"vehicle_type_id":"4","last_reported":1723309584,"current_range_meters":2800,"station_id":"ce4bhr12rcd13ifvqhpg","pricing_plan_id":"cebpf4jnsgd1na2vs0mg"},{"bike_id":"c301dc63-7d6d-4abc-9dc5-dac03df778e8","system_id":"levelo_inurba_marseille","lat":43.313571,"lon":5.384829,"is_reserved":false,"is_disabled":false,"rental_uris":{"android":"levelo://app?vid=c301dc63-7d6d-4abc-9dc5-dac03df778e8","ios":"levelo://app?vid=c301dc63-7d6d-4abc-9dc5-dac03df778e8"},"vehicle_type_id":"4","last_reported":1723309584,"current_range_meters":9200,"station_id":"ce4bgt92rcd13ifvqcf0","pricing_plan_id":"cebpf4jnsgd1na2vs0mg"},{"bike_id":"7e260d7a-3e38-466b-9c53-1d6e050ed0ed","system_id":"levelo_inurba_marseille","lat":43.299222,"lon":5.365554,"is_reserved":false,"is_disabled":false,"rental_uris":{"android":"levelo://app?vid=7e260d7a-3e38-466b-9c53-1d6e050ed0ed","ios":"levelo://app?vid=7e260d7a-3e38-466b-9c53-1d6e050ed0ed"},"vehicle_type_id":"4","last_reported":1723309584,"current_range_meters":0,"station_id":"ce4bgm92rcd13ifvqbr0","pricing_plan_id":"cebpf4jnsgd1na2vs0mg"},{"bike_id":"da7156b2-7d97-46d1-b7b3-b8d72da8439b","system_id":"levelo_inurba_marseille","lat":43.299724,"lon":5.371829,"is_reserved":false,"is_disabled":false,"rental_uris":{"android":"levelo://app?vid=da7156b2-7d97-46d1-b7b3-b8d72da8439b","ios":"levelo://app?vid=da7156b2-7d97-46d1-b7b3-b8d72da8439b"},"vehicle_type_id":"4","last_reported":1723309584,"current_range_meters":5600,"station_id":"ce4bgr92rcd13ifvqc7g","pricing_plan_id":"cebpf4jnsgd1na2vs0mg"},{"bike_id":"336dd26c-3f95-4bb8-9af3-c2c90b3ff6a0","system_id":"levelo_inurba_marseille","lat":43.299724,"lon":5.371829,"is_reserved":false,"is_disabled":false,"rental_uris":{"android":"levelo://app?vid=336dd26c-3f95-4bb8-9af3-c2c90b3ff6a0","ios":"levelo://app?vid=336dd26c-3f95-4bb8-9af3-c2c90b3ff6a0"},"vehicle_type_id":"4","last_reported":1723309584,"current_range_meters":0,"station_id":"ce4bgr92rcd13ifvqc7g","pricing_plan_id":"cebpf4jnsgd1na2vs0mg"},{"bike_id":"9d2ae365-f7b0-4075-8f20-0940ffd35bea","system_id":"levelo_inurba_marseille","lat":43.298433,"lon":5.362774,"is_reserved":false,"is_disabled":false,"rental_uris":{"android":"levelo://app?vid=9d2ae365-f7b0-4075-8f20-0940ffd35bea","ios":"levelo://app?vid=9d2ae365-f7b0-4075-8f20-0940ffd35bea"},"vehicle_type_id":"4","last_reported":1723309584,"current_range_meters":8400,"station_id":"ce4bgpp2rcd13ifvqc3g","pricing_plan_id":"cebpf4jnsgd1na2vs0mg"},{"bike_id":"53101329-05dc-4ae6-ba50-3118060c3f81","system_id":"levelo_inurba_marseille","lat":43.305364,"lon":5.384119,"is_reserved":false,"is_disabled":false,"rental_uris":{"android":"levelo://app?vid=53101329-05dc-4ae6-ba50-3118060c3f81","ios":"levelo://app?vid=53101329-05dc-4ae6-ba50-3118060c3f81"},"vehicle_type_id":"4","last_reported":1723309584,"current_range_meters":14400,"station_id":"ce4bgg92rcd13ifvqb30","pricing_plan_id":"cebpf4jnsgd1na2vs0mg"},{"bike_id":"c8e3fbf8-f16e-44c8-8dfc-2c89f4a934e4","system_id":"levelo_inurba_marseille","lat":43.299243,"lon":5.374807,"is_reserved":false,"is_disabled":false,"rental_uris":{"android":"levelo://app?vid=c8e3fbf8-f16e-44c8-8dfc-2c89f4a934e4","ios":"levelo://app?vid=c8e3fbf8-f16e-44c8-8dfc-2c89f4a934e4"},"vehicle_type_id":"4","last_reported":1723309584,"current_range_meters":0,"station_id":"ce4bgjh2rcd13ifvqbg0","pricing_plan_id":"cebpf4jnsgd1na2vs0mg"},{"bike_id":"02600353-497e-4006-bb06-13e236dd8d11","system_id":"levelo_inurba_marseille","lat":43.299243,"lon":5.374807,"is_reserved":false,"is_disabled":false,"rental_uris":{"android":"levelo://app?vid=02600353-497e-4006-bb06-13e236dd8d11","ios":"levelo://app?vid=02600353-497e-4006-bb06-13e236dd8d11"},"vehicle_type_id":"4","last_reported":1723309584,"current_range_meters":17200,"station_id":"ce4bgjh2rcd13ifvqbg0","pricing_plan_id":"cebpf4jnsgd1na2vs0mg"},{"bike_id":"151a06cf-580f-4851-9e33-83409b929c5a","system_id":"levelo_inurba_marseille","lat":43.311722,"lon":5.387247,"is_reserved":false,"is_disabled":false,"rental_uris":{"android":"levelo://app?vid=151a06cf-580f-4851-9e33-83409b929c5a","ios":"levelo://app?vid=151a06cf-580f-4851-9e33-83409b929c5a"},"vehicle_type_id":"4","last_reported":1723309584,"current_range_meters":23600,"station_id":"ce4bgv12rcd13ifvqcp0","pricing_plan_id":"cebpf4jnsgd1na2vs0mg"},{"bike_id":"7bfce34d-a724-4867-b7e5-b42231868fd8","system_id":"levelo_inurba_marseille","lat":43.299243,"lon":5.37481,"is_reserved":false,"is_disabled":false,"rental_uris":{"android":"levelo://app?vid=7bfce34d-a724-4867-b7e5-b42231868fd8","ios":"levelo://app?vid=7bfce34d-a724-4867-b7e5-b42231868fd8"},"vehicle_type_id":"4","last_reported":1723309584,"current_range_meters":0,"station_id":"ce4bgjh2rcd13ifvqbg0","pricing_plan_id":"cebpf4jnsgd1na2vs0mg"},{"bike_id":"d708d818-1992-4f87-b1d4-bd5c387bce49","system_id":"levelo_inurba_marseille","lat":43.311722,"lon":5.387247,"is_reserved":false,"is_disabled":false,"rental_uris":{"android":"levelo://app?vid=d708d818-1992-4f87-b1d4-bd5c387bce49","ios":"levelo://app?vid=d708d818-1992-4f87-b1d4-bd5c387bce49"},"vehicle_type_id":"4","last_reported":1723309584,"current_range_meters":4400,"station_id":"ce4bgv12rcd13ifvqcp0","pricing_plan_id":"cebpf4jnsgd1na2vs0mg"},{"bike_id":"15f6a5e3-24fd-4ae6-b1ca-c5519041bbec","system_id":"levelo_inurba_marseille","lat":43.299243,"lon":5.374807,"is_reserved":false,"is_disabled":false,"rental_uris":{"android":"levelo://app?vid=15f6a5e3-24fd-4ae6-b1ca-c5519041bbec","ios":"levelo://app?vid=15f6a5e3-24fd-4ae6-b1ca-c5519041bbec"},"vehicle_type_id":"4","last_reported":1723309584,"current_range_meters":2400,"station_id":"ce4bgjh2rcd13ifvqbg0","pricing_plan_id":"cebpf4jnsgd1na2vs0mg"},{"bike_id":"8797a035-80af-4a3b-8300-947149b42823","system_id":"levelo_inurba_marseille","lat":43.311722,"lon":5.387247,"is_reserved":false,"is_disabled":false,"rental_uris":{"android":"levelo://app?vid=8797a035-80af-4a3b-8300-947149b42823","ios":"levelo://app?vid=8797a035-80af-4a3b-8300-947149b42823"},"vehicle_type_id":"4","last_reported":1723309584,"current_range_meters":3200,"station_id":"ce4bgv12rcd13ifvqcp0","pricing_plan_id":"cebpf4jnsgd1na2vs0mg"},{"bike_id":"c30afed9-af68-4726-8063-f30054d89dd8","system_id":"levelo_inurba_marseille","lat":43.321909,"lon":5.382966,"is_reserved":false,"is_disabled":false,"rental_uris":{"android":"levelo://app?vid=c30afed9-af68-4726-8063-f30054d89dd8","ios":"levelo://app?vid=c30afed9-af68-4726-8063-f30054d89dd8"},"vehicle_type_id":"4","last_reported":1723309584,"current_range_meters":18000,"station_id":"ce4bhr12rcd13ifvqhqg","pricing_plan_id":"cebpf4jnsgd1na2vs0mg"},{"bike_id":"93410153-bbe8-4868-803c-c23846cd5ae4","system_id":"levelo_inurba_marseille","lat":43.297794,"lon":5.370888,"is_reserved":false,"is_disabled":false,"rental_uris":{"android":"levelo://app?vid=93410153-bbe8-4868-803c-c23846cd5ae4","ios":"levelo://app?vid=93410153-bbe8-4868-803c-c23846cd5ae4"},"vehicle_type_id":"4","last_reported":1723309584,"current_range_meters":1200,"station_id":"ce4bgop2rcd13ifvqc1g","pricing_plan_id":"cebpf4jnsgd1na2vs0mg"},{"bike_id":"6976cc5f-a770-4979-86d9-62b7b1c2c0cf","system_id":"levelo_inurba_marseille","lat":43.32263,"lon":5.38277,"is_reserved":false,"is_disabled":false,"rental_uris":{"android":"levelo://app?vid=6976cc5f-a770-4979-86d9-62b7b1c2c0cf","ios":"levelo://app?vid=6976cc5f-a770-4979-86d9-62b7b1c2c0cf"},"vehicle_type_id":"4","last_reported":1723309584,"current_range_meters":11600,"station_id":"ce4bhr12rcd13ifvqhqg","pricing_plan_id":"cebpf4jnsgd1na2vs0mg"},{"bike_id":"f1e85753-47e5-45ba-a742-3ff06e39fbd5","system_id":"levelo_inurba_marseille","lat":43.32261,"lon":5.38284,"is_reserved":false,"is_disabled":false,"rental_uris":{"android":"levelo://app?vid=f1e85753-47e5-45ba-a742-3ff06e39fbd5","ios":"levelo://app?vid=f1e85753-47e5-45ba-a742-3ff06e39fbd5"},"vehicle_type_id":"4","last_reported":1723309584,"current_range_meters":14400,"station_id":"ce4bhr12rcd13ifvqhqg","pricing_plan_id":"cebpf4jnsgd1na2vs0mg"},{"bike_id":"80f9f110-4ffc-4297-bf57-2bf2a710da39","system_id":"levelo_inurba_marseille","lat":43.32264,"lon":5.38283,"is_reserved":false,"is_disabled":false,"rental_uris":{"android":"levelo://app?vid=80f9f110-4ffc-4297-bf57-2bf2a710da39","ios":"levelo://app?vid=80f9f110-4ffc-4297-bf57-2bf2a710da39"},"vehicle_type_id":"4","last_reported":1723309584,"current_range_meters":14800,"station_id":"ce4bhr12rcd13ifvqhqg","pricing_plan_id":"cebpf4jnsgd1na2vs0mg"},{"bike_id":"3ad6af9a-05df-4296-b5fd-8643ffd2d271","system_id":"levelo_inurba_marseille","lat":43.297794,"lon":5.370888,"is_reserved":false,"is_disabled":false,"rental_uris":{"android":"levelo://app?vid=3ad6af9a-05df-4296-b5fd-8643ffd2d271","ios":"levelo://app?vid=3ad6af9a-05df-4296-b5fd-8643ffd2d271"},"vehicle_type_id":"4","last_reported":1723309584,"current_range_meters":2400,"station_id":"ce4bgop2rcd13ifvqc1g","pricing_plan_id":"cebpf4jnsgd1na2vs0mg"},{"bike_id":"216240ef-238f-48ba-bd26-5d1c9cf540df","system_id":"levelo_inurba_marseille","lat":43.31456,"lon":5.38784,"is_reserved":false,"is_disabled":false,"rental_uris":{"android":"levelo://app?vid=216240ef-238f-48ba-bd26-5d1c9cf540df","ios":"levelo://app?vid=216240ef-238f-48ba-bd26-5d1c9cf540df"},"vehicle_type_id":"4","last_reported":1723309584,"current_range_meters":0,"station_id":"","pricing_plan_id":"cebpf4jnsgd1na2vs0mg"},{"bike_id":"2a86115d-6e3a-4ab7-8bf1-3241a84f6549","system_id":"levelo_inurba_marseille","lat":43.322872,"lon":5.382756,"is_reserved":false,"is_disabled":false,"rental_uris":{"android":"levelo://app?vid=2a86115d-6e3a-4ab7-8bf1-3241a84f6549","ios":"levelo://app?vid=2a86115d-6e3a-4ab7-8bf1-3241a84f6549"},"vehicle_type_id":"4","last_reported":1723309584,"current_range_meters":0,"station_id":"ce4bhr12rcd13ifvqhqg","pricing_plan_id":"cebpf4jnsgd1na2vs0mg"},{"bike_id":"09e5d79b-31ea-46c7-be26-3ef693448c5b","system_id":"levelo_inurba_marseille","lat":43.32541,"lon":5.37892,"is_reserved":false,"is_disabled":false,"rental_uris":{"android":"levelo://app?vid=09e5d79b-31ea-46c7-be26-3ef693448c5b","ios":"levelo://app?vid=09e5d79b-31ea-46c7-be26-3ef693448c5b"},"vehicle_type_id":"4","last_reported":1723309584,"current_range_meters":19200,"station_id":"","pricing_plan_id":"cebpf4jnsgd1na2vs0mg"},{"bike_id":"361ce332-fd30-4239-8ff3-0967f080322a","system_id":"levelo_inurba_marseille","lat":43.29573,"lon":5.367355,"is_reserved":false,"is_disabled":false,"rental_uris":{"android":"levelo://app?vid=361ce332-fd30-4239-8ff3-0967f080322a","ios":"levelo://app?vid=361ce332-fd30-4239-8ff3-0967f080322a"},"vehicle_type_id":"4","last_reported":1723309584,"current_range_meters":19200,"station_id":"ce4bgph2rcd13ifvqc2g","pricing_plan_id":"cebpf4jnsgd1na2vs0mg"},{"bike_id":"d837da98-ced1-4234-8fc6-46ffa5886293","system_id":"levelo_inurba_marseille","lat":43.296935,"lon":5.376544,"is_reserved":false,"is_disabled":false,"rental_uris":{"android":"levelo://app?vid=d837da98-ced1-4234-8fc6-46ffa5886293","ios":"levelo://app?vid=d837da98-ced1-4234-8fc6-46ffa5886293"},"vehicle_type_id":"4","last_reported":1723309584,"current_range_meters":1600,"station_id":"ce4bgkh2rcd13ifvqbl0","pricing_plan_id":"cebpf4jnsgd1na2vs0mg"},{"bike_id":"02bd59b2-0cc9-464e-9adf-abc944e42f7c","system_id":"levelo_inurba_marseille","lat":43.30952,"lon":5.39029,"is_reserved":false,"is_disabled":false,"rental_uris":{"android":"levelo://app?vid=02bd59b2-0cc9-464e-9adf-abc944e42f7c","ios":"levelo://app?vid=02bd59b2-0cc9-464e-9adf-abc944e42f7c"},"vehicle_type_id":"4","last_reported":1723309584,"current_range_meters":0,"station_id":"ce4bgup2rcd13ifvqco0","pricing_plan_id":"cebpf4jnsgd1na2vs0mg"},{"bike_id":"6e68c242-3583-4036-894b-e3bb0627bc13","system_id":"levelo_inurba_marseille","lat":43.30961,"lon":5.39034,"is_reserved":false,"is_disabled":false,"rental_uris":{"android":"levelo://app?vid=6e68c242-3583-4036-894b-e3bb0627bc13","ios":"levelo://app?vid=6e68c242-3583-4036-894b-e3bb0627bc13"},"vehicle_type_id":"4","last_reported":1723309584,"current_range_meters":16800,"station_id":"ce4bgup2rcd13ifvqco0","pricing_plan_id":"cebpf4jnsgd1na2vs0mg"},{"bike_id":"fc052c91-9521-4070-b000-46062fc75bf5","system_id":"levelo_inurba_marseille","lat":43.30956,"lon":5.39034,"is_reserved":false,"is_disabled":false,"rental_uris":{"android":"levelo://app?vid=fc052c91-9521-4070-b000-46062fc75bf5","ios":"levelo://app?vid=fc052c91-9521-4070-b000-46062fc75bf5"},"vehicle_type_id":"4","last_reported":1723309584,"current_range_meters":1600,"station_id":"ce4bgup2rcd13ifvqco0","pricing_plan_id":"cebpf4jnsgd1na2vs0mg"},{"bike_id":"6f75c397-82b2-415c-8077-0081787b1a97","system_id":"levelo_inurba_marseille","lat":43.30948,"lon":5.39042,"is_reserved":false,"is_disabled":false,"rental_uris":{"android":"levelo://app?vid=6f75c397-82b2-415c-8077-0081787b1a97","ios":"levelo://app?vid=6f75c397-82b2-415c-8077-0081787b1a97"},"vehicle_type_id":"4","last_reported":1723309584,"current_range_meters":23600,"station_id":"ce4bgup2rcd13ifvqco0","pricing_plan_id":"cebpf4jnsgd1na2vs0mg"},{"bike_id":"1c4a3508-4d2f-4b4b-9a94-ae45ee6b176f","system_id":"levelo_inurba_marseille","lat":43.317557,"lon":5.390173,"is_reserved":false,"is_disabled":false,"rental_uris":{"android":"levelo://app?vid=1c4a3508-4d2f-4b4b-9a94-ae45ee6b176f","ios":"levelo://app?vid=1c4a3508-4d2f-4b4b-9a94-ae45ee6b176f"},"vehicle_type_id":"4","last_reported":1723309584,"current_range_meters":13200,"station_id":"ce4bhqp2rcd13ifvqhng","pricing_plan_id":"cebpf4jnsgd1na2vs0mg"},{"bike_id":"f02fb737-c1b6-42dc-91a8-4e3d9188fa10","system_id":"levelo_inurba_marseille","lat":43.298037,"lon":5.381066,"is_reserved":false,"is_disabled":false,"rental_uris":{"android":"levelo://app?vid=f02fb737-c1b6-42dc-91a8-4e3d9188fa10","ios":"levelo://app?vid=f02fb737-c1b6-42dc-91a8-4e3d9188fa10"},"vehicle_type_id":"4","last_reported":1723309584,"current_range_meters":4400,"station_id":"ce4bgip2rcd13ifvqbb0","pricing_plan_id":"cebpf4jnsgd1na2vs0mg"},{"bike_id":"01a849ce-665f-423d-b91b-7298d150231f","system_id":"levelo_inurba_marseille","lat":43.29578,"lon":5.37503,"is_reserved":false,"is_disabled":false,"rental_uris":{"android":"levelo://app?vid=01a849ce-665f-423d-b91b-7298d150231f","ios":"levelo://app?vid=01a849ce-665f-423d-b91b-7298d150231f"},"vehicle_type_id":"4","last_reported":1723309584,"current_range_meters":31600,"station_id":"ce4bgh92rcd13ifvqb50","pricing_plan_id":"cebpf4jnsgd1na2vs0mg"},{"bike_id":"b0b5cb27-98db-4886-ac6f-999aceb0908a","system_id":"levelo_inurba_marseille","lat":43.298037,"lon":5.381066,"is_reserved":false,"is_disabled":false,"rental_uris":{"android":"levelo://app?vid=b0b5cb27-98db-4886-ac6f-999aceb0908a","ios":"levelo://app?vid=b0b5cb27-98db-4886-ac6f-999aceb0908a"},"vehicle_type_id":"4","last_reported":1723309584,"current_range_meters":0,"station_id":"ce4bgip2rcd13ifvqbb0","pricing_plan_id":"cebpf4jnsgd1na2vs0mg"},{"bike_id":"5d17f8e1-a0b3-4d88-9491-162fbf8ee4fa","system_id":"levelo_inurba_marseille","lat":43.295748,"lon":5.37522,"is_reserved":false,"is_disabled":false,"rental_uris":{"android":"levelo://app?vid=5d17f8e1-a0b3-4d88-9491-162fbf8ee4fa","ios":"levelo://app?vid=5d17f8e1-a0b3-4d88-9491-162fbf8ee4fa"},"vehicle_type_id":"4","last_reported":1723309584,"current_range_meters":31200,"station_id":"ce4bgh92rcd13ifvqb50","pricing_plan_id":"cebpf4jnsgd1na2vs0mg"},{"bike_id":"ac61f640-483a-4fe5-b987-cce6e228dc3a","system_id":"levelo_inurba_marseille","lat":43.29613,"lon":5.37703,"is_reserved":false,"is_disabled":false,"rental_uris":{"android":"levelo://app?vid=ac61f640-483a-4fe5-b987-cce6e228dc3a","ios":"levelo://app?vid=ac61f640-483a-4fe5-b987-cce6e228dc3a"},"vehicle_type_id":"4","last_reported":1723309584,"current_range_meters":27200,"station_id":"ce4bgi92rcd13ifvqb90","pricing_plan_id":"cebpf4jnsgd1na2vs0mg"},{"bike_id":"7e1fe4ce-ab38-4654-8ff8-63e7c579a355","system_id":"levelo_inurba_marseille","lat":43.296372,"lon":5.378514,"is_reserved":false,"is_disabled":false,"rental_uris":{"android":"levelo://app?vid=7e1fe4ce-ab38-4654-8ff8-63e7c579a355","ios":"levelo://app?vid=7e1fe4ce-ab38-4654-8ff8-63e7c579a355"},"vehicle_type_id":"4","last_reported":1723309584,"current_range_meters":14400,"station_id":"","pricing_plan_id":"cebpf4jnsgd1na2vs0mg"},{"bike_id":"e3201a85-5419-4638-af84-5a7909486569","system_id":"levelo_inurba_marseille","lat":43.32367,"lon":5.388836,"is_reserved":false,"is_disabled":false,"rental_uris":{"android":"levelo://app?vid=e3201a85-5419-4638-af84-5a7909486569","ios":"levelo://app?vid=e3201a85-5419-4638-af84-5a7909486569"},"vehicle_type_id":"4","last_reported":1723309584,"current_range_meters":16800,"station_id":"ce4bhqp2rcd13ifvqhog","pricing_plan_id":"cebpf4jnsgd1na2vs0mg"},{"bike_id":"663588b5-3f30-4d06-99ef-07896cfa4e4e","system_id":"levelo_inurba_marseille","lat":43.32367,"lon":5.388836,"is_reserved":false,"is_disabled":false,"rental_uris":{"android":"levelo://app?vid=663588b5-3f30-4d06-99ef-07896cfa4e4e","ios":"levelo://app?vid=663588b5-3f30-4d06-99ef-07896cfa4e4e"},"vehicle_type_id":"4","last_reported":1723309584,"current_range_meters":20400,"station_id":"ce4bhqp2rcd13ifvqhog","pricing_plan_id":"cebpf4jnsgd1na2vs0mg"},{"bike_id":"595acfe0-7233-44c6-b617-43c2c00cd7b5","system_id":"levelo_inurba_marseille","lat":43.29602,"lon":5.381084,"is_reserved":false,"is_disabled":false,"rental_uris":{"android":"levelo://app?vid=595acfe0-7233-44c6-b617-43c2c00cd7b5","ios":"levelo://app?vid=595acfe0-7233-44c6-b617-43c2c00cd7b5"},"vehicle_type_id":"4","last_reported":1723309584,"current_range_meters":0,"station_id":"ce4bgl12rcd13ifvqbo0","pricing_plan_id":"cebpf4jnsgd1na2vs0mg"},{"bike_id":"41b5e306-d22a-4bfa-8130-4f0f7e291f94","system_id":"levelo_inurba_marseille","lat":43.29602,"lon":5.381084,"is_reserved":false,"is_disabled":false,"rental_uris":{"android":"levelo://app?vid=41b5e306-d22a-4bfa-8130-4f0f7e291f94","ios":"levelo://app?vid=41b5e306-d22a-4bfa-8130-4f0f7e291f94"},"vehicle_type_id":"4","last_reported":1723309584,"current_range_meters":14400,"station_id":"ce4bgl12rcd13ifvqbo0","pricing_plan_id":"cebpf4jnsgd1na2vs0mg"},{"bike_id":"b7ffafb7-3b66-4ebc-9a60-f029a5b14b76","system_id":"levelo_inurba_marseille","lat":43.29602,"lon":5.381084,"is_reserved":false,"is_disabled":false,"rental_uris":{"android":"levelo://app?vid=b7ffafb7-3b66-4ebc-9a60-f029a5b14b76","ios":"levelo://app?vid=b7ffafb7-3b66-4ebc-9a60-f029a5b14b76"},"vehicle_type_id":"4","last_reported":1723309584,"current_range_meters":4400,"station_id":"ce4bgl12rcd13ifvqbo0","pricing_plan_id":"cebpf4jnsgd1na2vs0mg"},{"bike_id":"23949995-c082-4641-b949-9d2000457f7a","system_id":"levelo_inurba_marseille","lat":43.32385,"lon":5.38923,"is_reserved":false,"is_disabled":false,"rental_uris":{"android":"levelo://app?vid=23949995-c082-4641-b949-9d2000457f7a","ios":"levelo://app?vid=23949995-c082-4641-b949-9d2000457f7a"},"vehicle_type_id":"4","last_reported":1723309584,"current_range_meters":0,"station_id":"ce4bhqp2rcd13ifvqhog","pricing_plan_id":"cebpf4jnsgd1na2vs0mg"},{"bike_id":"9b552e8d-d000-4cb8-b4a4-e2048a3097b6","system_id":"levelo_inurba_marseille","lat":43.292749,"lon":5.368402,"is_reserved":false,"is_disabled":false,"rental_uris":{"android":"levelo://app?vid=9b552e8d-d000-4cb8-b4a4-e2048a3097b6","ios":"levelo://app?vid=9b552e8d-d000-4cb8-b4a4-e2048a3097b6"},"vehicle_type_id":"4","last_reported":1723309584,"current_range_meters":0,"station_id":"ce4bhbp2rcd13ifvqesg","pricing_plan_id":"cebpf4jnsgd1na2vs0mg"},{"bike_id":"93ab8ce2-70f8-4e78-940a-34a7d0b7995e","system_id":"levelo_inurba_marseille","lat":43.293009,"lon":5.374584,"is_reserved":false,"is_disabled":false,"rental_uris":{"android":"levelo://app?vid=93ab8ce2-70f8-4e78-940a-34a7d0b7995e","ios":"levelo://app?vid=93ab8ce2-70f8-4e78-940a-34a7d0b7995e"},"vehicle_type_id":"4","last_reported":1723309584,"current_range_meters":2800,"station_id":"ce4bgi12rcd13ifvqb70","pricing_plan_id":"cebpf4jnsgd1na2vs0mg"},{"bike_id":"5dbaf730-8f1b-4e96-b678-39d942fb357e","system_id":"levelo_inurba_marseille","lat":43.305994,"lon":5.393687,"is_reserved":false,"is_disabled":false,"rental_uris":{"android":"levelo://app?vid=5dbaf730-8f1b-4e96-b678-39d942fb357e","ios":"levelo://app?vid=5dbaf730-8f1b-4e96-b678-39d942fb357e"},"vehicle_type_id":"4","last_reported":1723309584,"current_range_meters":1600,"station_id":"ce4bh0p2rcd13ifvqd80","pricing_plan_id":"cebpf4jnsgd1na2vs0mg"},{"bike_id":"da47d889-6fe6-4065-a6b0-61f5f75a17a0","system_id":"levelo_inurba_marseille","lat":43.293009,"lon":5.374584,"is_reserved":false,"is_disabled":false,"rental_uris":{"android":"levelo://app?vid=da47d889-6fe6-4065-a6b0-61f5f75a17a0","ios":"levelo://app?vid=da47d889-6fe6-4065-a6b0-61f5f75a17a0"},"vehicle_type_id":"4","last_reported":1723309584,"current_range_meters":1600,"station_id":"ce4bgi12rcd13ifvqb70","pricing_plan_id":"cebpf4jnsgd1na2vs0mg"},{"bike_id":"01f47961-09ff-41b8-a792-e2bed88a0447","system_id":"levelo_inurba_marseille","lat":43.305994,"lon":5.393687,"is_reserved":false,"is_disabled":false,"rental_uris":{"android":"levelo://app?vid=01f47961-09ff-41b8-a792-e2bed88a0447","ios":"levelo://app?vid=01f47961-09ff-41b8-a792-e2bed88a0447"},"vehicle_type_id":"4","last_reported":1723309584,"current_range_meters":12800,"station_id":"ce4bh0p2rcd13ifvqd80","pricing_plan_id":"cebpf4jnsgd1na2vs0mg"},{"bike_id":"9e294e92-f9de-4cd0-bf6a-23a334662852","system_id":"levelo_inurba_marseille","lat":43.305994,"lon":5.393687,"is_reserved":false,"is_disabled":false,"rental_uris":{"android":"levelo://app?vid=9e294e92-f9de-4cd0-bf6a-23a334662852","ios":"levelo://app?vid=9e294e92-f9de-4cd0-bf6a-23a334662852"},"vehicle_type_id":"4","last_reported":1723309584,"current_range_meters":11600,"station_id":"ce4bh0p2rcd13ifvqd80","pricing_plan_id":"cebpf4jnsgd1na2vs0mg"},{"bike_id":"8d37495d-9961-45f8-ba67-ee81725ae3ae","system_id":"levelo_inurba_marseille","lat":43.29228,"lon":5.36363,"is_reserved":false,"is_disabled":false,"rental_uris":{"android":"levelo://app?vid=8d37495d-9961-45f8-ba67-ee81725ae3ae","ios":"levelo://app?vid=8d37495d-9961-45f8-ba67-ee81725ae3ae"},"vehicle_type_id":"4","last_reported":1723309584,"current_range_meters":8400,"station_id":"","pricing_plan_id":"cebpf4jnsgd1na2vs0mg"},{"bike_id":"0cef5b1d-7e73-499e-ac3f-18d46cc5716b","system_id":"levelo_inurba_marseille","lat":43.292916,"lon":5.374762,"is_reserved":false,"is_disabled":false,"rental_uris":{"android":"levelo://app?vid=0cef5b1d-7e73-499e-ac3f-18d46cc5716b","ios":"levelo://app?vid=0cef5b1d-7e73-499e-ac3f-18d46cc5716b"},"vehicle_type_id":"4","last_reported":1723309584,"current_range_meters":0,"station_id":"ce4bgi12rcd13ifvqb70","pricing_plan_id":"cebpf4jnsgd1na2vs0mg"},{"bike_id":"e06f52c4-e650-4569-a5ba-6452201ecbf9","system_id":"levelo_inurba_marseille","lat":43.30298,"lon":5.39205,"is_reserved":false,"is_disabled":false,"rental_uris":{"android":"levelo://app?vid=e06f52c4-e650-4569-a5ba-6452201ecbf9","ios":"levelo://app?vid=e06f52c4-e650-4569-a5ba-6452201ecbf9"},"vehicle_type_id":"4","last_reported":1723309584,"current_range_meters":31200,"station_id":"ce4bgkh2rcd13ifvqbk0","pricing_plan_id":"cebpf4jnsgd1na2vs0mg"},{"bike_id":"62a13a6b-8768-4563-84c9-2b7d1120bd5e","system_id":"levelo_inurba_marseille","lat":43.292311,"lon":5.360731,"is_reserved":false,"is_disabled":false,"rental_uris":{"android":"levelo://app?vid=62a13a6b-8768-4563-84c9-2b7d1120bd5e","ios":"levelo://app?vid=62a13a6b-8768-4563-84c9-2b7d1120bd5e"},"vehicle_type_id":"4","last_reported":1723309584,"current_range_meters":21200,"station_id":"ce4bhbh2rcd13ifvqeqg","pricing_plan_id":"cebpf4jnsgd1na2vs0mg"},{"bike_id":"ef4933a6-600f-4b57-9fc2-76ce69bedc0c","system_id":"levelo_inurba_marseille","lat":43.292311,"lon":5.360731,"is_reserved":false,"is_disabled":false,"rental_uris":{"android":"levelo://app?vid=ef4933a6-600f-4b57-9fc2-76ce69bedc0c","ios":"levelo://app?vid=ef4933a6-600f-4b57-9fc2-76ce69bedc0c"},"vehicle_type_id":"4","last_reported":1723309584,"current_range_meters":0,"station_id":"ce4bhbh2rcd13ifvqeqg","pricing_plan_id":"cebpf4jnsgd1na2vs0mg"},{"bike_id":"5deb6e7b-991e-4669-a6b2-50a0b233255a","system_id":"levelo_inurba_marseille","lat":43.29222,"lon":5.36061,"is_reserved":false,"is_disabled":false,"rental_uris":{"android":"levelo://app?vid=5deb6e7b-991e-4669-a6b2-50a0b233255a","ios":"levelo://app?vid=5deb6e7b-991e-4669-a6b2-50a0b233255a"},"vehicle_type_id":"4","last_reported":1723309584,"current_range_meters":0,"station_id":"ce4bhbh2rcd13ifvqeqg","pricing_plan_id":"cebpf4jnsgd1na2vs0mg"},{"bike_id":"d3e2dbfb-0e28-4547-a410-e95c365db12b","system_id":"levelo_inurba_marseille","lat":43.292311,"lon":5.360731,"is_reserved":false,"is_disabled":false,"rental_uris":{"android":"levelo://app?vid=d3e2dbfb-0e28-4547-a410-e95c365db12b","ios":"levelo://app?vid=d3e2dbfb-0e28-4547-a410-e95c365db12b"},"vehicle_type_id":"4","last_reported":1723309584,"current_range_meters":25200,"station_id":"ce4bhbh2rcd13ifvqeqg","pricing_plan_id":"cebpf4jnsgd1na2vs0mg"},{"bike_id":"8d549378-7796-438a-8564-77b59b106460","system_id":"levelo_inurba_marseille","lat":43.29216,"lon":5.36046,"is_reserved":false,"is_disabled":false,"rental_uris":{"android":"levelo://app?vid=8d549378-7796-438a-8564-77b59b106460","ios":"levelo://app?vid=8d549378-7796-438a-8564-77b59b106460"},"vehicle_type_id":"4","last_reported":1723309584,"current_range_meters":0,"station_id":"ce4bhbh2rcd13ifvqeqg","pricing_plan_id":"cebpf4jnsgd1na2vs0mg"},{"bike_id":"8669c215-f64f-4991-918a-38e605b47e3d","system_id":"levelo_inurba_marseille","lat":43.29285,"lon":5.355534,"is_reserved":false,"is_disabled":false,"rental_uris":{"android":"levelo://app?vid=8669c215-f64f-4991-918a-38e605b47e3d","ios":"levelo://app?vid=8669c215-f64f-4991-918a-38e605b47e3d"},"vehicle_type_id":"4","last_reported":1723309584,"current_range_meters":7200,"station_id":"","pricing_plan_id":"cebpf4jnsgd1na2vs0mg"},{"bike_id":"fcef3275-bd5a-46b9-b4a6-ee9e70fb0960","system_id":"levelo_inurba_marseille","lat":43.291994,"lon":5.357886,"is_reserved":false,"is_disabled":false,"rental_uris":{"android":"levelo://app?vid=fcef3275-bd5a-46b9-b4a6-ee9e70fb0960","ios":"levelo://app?vid=fcef3275-bd5a-46b9-b4a6-ee9e70fb0960"},"vehicle_type_id":"4","last_reported":1723309584,"current_range_meters":8400,"station_id":"ce4bhb12rcd13ifvqel0","pricing_plan_id":"cebpf4jnsgd1na2vs0mg"},{"bike_id":"f4abee27-7d02-4dbf-90d1-1ed07e4a42c5","system_id":"levelo_inurba_marseille","lat":43.292005,"lon":5.357875,"is_reserved":false,"is_disabled":false,"rental_uris":{"android":"levelo://app?vid=f4abee27-7d02-4dbf-90d1-1ed07e4a42c5","ios":"levelo://app?vid=f4abee27-7d02-4dbf-90d1-1ed07e4a42c5"},"vehicle_type_id":"4","last_reported":1723309584,"current_range_meters":0,"station_id":"ce4bhb12rcd13ifvqel0","pricing_plan_id":"cebpf4jnsgd1na2vs0mg"},{"bike_id":"9d4b68a5-c93f-4844-a235-5ff4a055b660","system_id":"levelo_inurba_marseille","lat":43.292385,"lon":5.37767,"is_reserved":false,"is_disabled":false,"rental_uris":{"android":"levelo://app?vid=9d4b68a5-c93f-4844-a235-5ff4a055b660","ios":"levelo://app?vid=9d4b68a5-c93f-4844-a235-5ff4a055b660"},"vehicle_type_id":"4","last_reported":1723309584,"current_range_meters":11200,"station_id":"","pricing_plan_id":"cebpf4jnsgd1na2vs0mg"},{"bike_id":"8631ca5a-d262-4ca5-8c20-9f4c0ece3885","system_id":"levelo_inurba_marseille","lat":43.309038,"lon":5.396546,"is_reserved":false,"is_disabled":false,"rental_uris":{"android":"levelo://app?vid=8631ca5a-d262-4ca5-8c20-9f4c0ece3885","ios":"levelo://app?vid=8631ca5a-d262-4ca5-8c20-9f4c0ece3885"},"vehicle_type_id":"4","last_reported":1723309584,"current_range_meters":0,"station_id":"ce4bh012rcd13ifvqcv0","pricing_plan_id":"cebpf4jnsgd1na2vs0mg"},{"bike_id":"e1b63c02-c227-47d8-9fa7-af54a4d5a054","system_id":"levelo_inurba_marseille","lat":43.313291,"lon":5.396838,"is_reserved":false,"is_disabled":false,"rental_uris":{"android":"levelo://app?vid=e1b63c02-c227-47d8-9fa7-af54a4d5a054","ios":"levelo://app?vid=e1b63c02-c227-47d8-9fa7-af54a4d5a054"},"vehicle_type_id":"4","last_reported":1723309584,"current_range_meters":25600,"station_id":"ce4bgvp2rcd13ifvqcu0","pricing_plan_id":"cebpf4jnsgd1na2vs0mg"},{"bike_id":"495e681e-8cc2-4287-b790-5f03281e8ffe","system_id":"levelo_inurba_marseille","lat":43.2907,"lon":5.37163,"is_reserved":false,"is_disabled":false,"rental_uris":{"android":"levelo://app?vid=495e681e-8cc2-4287-b790-5f03281e8ffe","ios":"levelo://app?vid=495e681e-8cc2-4287-b790-5f03281e8ffe"},"vehicle_type_id":"4","last_reported":1723309584,"current_range_meters":0,"station_id":"ce4bh5p2rcd13ifvqe4g","pricing_plan_id":"cebpf4jnsgd1na2vs0mg"},{"bike_id":"862eff69-9cfd-429f-a4b0-20eee22905c1","system_id":"levelo_inurba_marseille","lat":43.29062,"lon":5.37157,"is_reserved":false,"is_disabled":false,"rental_uris":{"android":"levelo://app?vid=862eff69-9cfd-429f-a4b0-20eee22905c1","ios":"levelo://app?vid=862eff69-9cfd-429f-a4b0-20eee22905c1"},"vehicle_type_id":"4","last_reported":1723309584,"current_range_meters":10800,"station_id":"ce4bh5p2rcd13ifvqe4g","pricing_plan_id":"cebpf4jnsgd1na2vs0mg"},{"bike_id":"04bcbfa5-1c89-48c5-ba3d-130c05ed8dc6","system_id":"levelo_inurba_marseille","lat":43.302008,"lon":5.394694,"is_reserved":false,"is_disabled":false,"rental_uris":{"android":"levelo://app?vid=04bcbfa5-1c89-48c5-ba3d-130c05ed8dc6","ios":"levelo://app?vid=04bcbfa5-1c89-48c5-ba3d-130c05ed8dc6"},"vehicle_type_id":"4","last_reported":1723309584,"current_range_meters":1600,"station_id":"ce4bh0p2rcd13ifvqd70","pricing_plan_id":"cebpf4jnsgd1na2vs0mg"},{"bike_id":"59288063-ffd9-4c4c-9f70-0d6952c666ce","system_id":"levelo_inurba_marseille","lat":43.290631,"lon":5.359244,"is_reserved":false,"is_disabled":false,"rental_uris":{"android":"levelo://app?vid=59288063-ffd9-4c4c-9f70-0d6952c666ce","ios":"levelo://app?vid=59288063-ffd9-4c4c-9f70-0d6952c666ce"},"vehicle_type_id":"4","last_reported":1723309584,"current_range_meters":0,"station_id":"ce4bha92rcd13ifvqeg0","pricing_plan_id":"cebpf4jnsgd1na2vs0mg"},{"bike_id":"f9bd6006-322f-42ab-bcc5-e0e227ee2fd2","system_id":"levelo_inurba_marseille","lat":43.290624,"lon":5.359245,"is_reserved":false,"is_disabled":false,"rental_uris":{"android":"levelo://app?vid=f9bd6006-322f-42ab-bcc5-e0e227ee2fd2","ios":"levelo://app?vid=f9bd6006-322f-42ab-bcc5-e0e227ee2fd2"},"vehicle_type_id":"4","last_reported":1723309584,"current_range_meters":7600,"station_id":"ce4bha92rcd13ifvqeg0","pricing_plan_id":"cebpf4jnsgd1na2vs0mg"},{"bike_id":"c01eaa5c-c187-4555-b3e6-b5820a7ee17a","system_id":"levelo_inurba_marseille","lat":43.29038,"lon":5.35911,"is_reserved":false,"is_disabled":false,"rental_uris":{"android":"levelo://app?vid=c01eaa5c-c187-4555-b3e6-b5820a7ee17a","ios":"levelo://app?vid=c01eaa5c-c187-4555-b3e6-b5820a7ee17a"},"vehicle_type_id":"4","last_reported":1723309584,"current_range_meters":24400,"station_id":"ce4bha92rcd13ifvqeg0","pricing_plan_id":"cebpf4jnsgd1na2vs0mg"},{"bike_id":"e3b7fa79-8608-4637-afe5-244d36147315","system_id":"levelo_inurba_marseille","lat":43.29033,"lon":5.35922,"is_reserved":false,"is_disabled":false,"rental_uris":{"android":"levelo://app?vid=e3b7fa79-8608-4637-afe5-244d36147315","ios":"levelo://app?vid=e3b7fa79-8608-4637-afe5-244d36147315"},"vehicle_type_id":"4","last_reported":1723309584,"current_range_meters":0,"station_id":"ce4bha92rcd13ifvqeg0","pricing_plan_id":"cebpf4jnsgd1na2vs0mg"},{"bike_id":"fb253835-29de-4412-9477-0ba3849766ce","system_id":"levelo_inurba_marseille","lat":43.294162,"lon":5.386292,"is_reserved":false,"is_disabled":false,"rental_uris":{"android":"levelo://app?vid=fb253835-29de-4412-9477-0ba3849766ce","ios":"levelo://app?vid=fb253835-29de-4412-9477-0ba3849766ce"},"vehicle_type_id":"4","last_reported":1723309584,"current_range_meters":0,"station_id":"ce4bh2h2rcd13ifvqdh0","pricing_plan_id":"cebpf4jnsgd1na2vs0mg"},{"bike_id":"d9032287-480d-421e-9648-c3d68f552f75","system_id":"levelo_inurba_marseille","lat":43.29418,"lon":5.38617,"is_reserved":false,"is_disabled":false,"rental_uris":{"android":"levelo://app?vid=d9032287-480d-421e-9648-c3d68f552f75","ios":"levelo://app?vid=d9032287-480d-421e-9648-c3d68f552f75"},"vehicle_type_id":"4","last_reported":1723309584,"current_range_meters":0,"station_id":"ce4bh2h2rcd13ifvqdh0","pricing_plan_id":"cebpf4jnsgd1na2vs0mg"},{"bike_id":"71306595-9bb5-4a74-88b2-6606adb43e2d","system_id":"levelo_inurba_marseille","lat":43.28947,"lon":5.36635,"is_reserved":false,"is_disabled":false,"rental_uris":{"android":"levelo://app?vid=71306595-9bb5-4a74-88b2-6606adb43e2d","ios":"levelo://app?vid=71306595-9bb5-4a74-88b2-6606adb43e2d"},"vehicle_type_id":"4","last_reported":1723309584,"current_range_meters":0,"station_id":"ce4bhap2rcd13ifvqek0","pricing_plan_id":"cebpf4jnsgd1na2vs0mg"},{"bike_id":"f987db55-b173-44f4-8c68-44c5225c8f02","system_id":"levelo_inurba_marseille","lat":43.294162,"lon":5.386292,"is_reserved":false,"is_disabled":false,"rental_uris":{"android":"levelo://app?vid=f987db55-b173-44f4-8c68-44c5225c8f02","ios":"levelo://app?vid=f987db55-b173-44f4-8c68-44c5225c8f02"},"vehicle_type_id":"4","last_reported":1723309584,"current_range_meters":0,"station_id":"ce4bh2h2rcd13ifvqdh0","pricing_plan_id":"cebpf4jnsgd1na2vs0mg"},{"bike_id":"5252dee4-c159-40a3-abde-df1337414bd3","system_id":"levelo_inurba_marseille","lat":43.294162,"lon":5.386292,"is_reserved":false,"is_disabled":false,"rental_uris":{"android":"levelo://app?vid=5252dee4-c159-40a3-abde-df1337414bd3","ios":"levelo://app?vid=5252dee4-c159-40a3-abde-df1337414bd3"},"vehicle_type_id":"4","last_reported":1723309584,"current_range_meters":2000,"station_id":"ce4bh2h2rcd13ifvqdh0","pricing_plan_id":"cebpf4jnsgd1na2vs0mg"},{"bike_id":"2fe4fed9-fd89-4517-83d8-fb338befe9bf","system_id":"levelo_inurba_marseille","lat":43.289184,"lon":5.366408,"is_reserved":false,"is_disabled":false,"rental_uris":{"android":"levelo://app?vid=2fe4fed9-fd89-4517-83d8-fb338befe9bf","ios":"levelo://app?vid=2fe4fed9-fd89-4517-83d8-fb338befe9bf"},"vehicle_type_id":"4","last_reported":1723309584,"current_range_meters":13600,"station_id":"ce4bhap2rcd13ifvqek0","pricing_plan_id":"cebpf4jnsgd1na2vs0mg"},{"bike_id":"85d729e7-de1a-4b67-8496-d9fa51e44a7f","system_id":"levelo_inurba_marseille","lat":43.290327,"lon":5.375711,"is_reserved":false,"is_disabled":false,"rental_uris":{"android":"levelo://app?vid=85d729e7-de1a-4b67-8496-d9fa51e44a7f","ios":"levelo://app?vid=85d729e7-de1a-4b67-8496-d9fa51e44a7f"},"vehicle_type_id":"4","last_reported":1723309584,"current_range_meters":0,"station_id":"ce4bh692rcd13ifvqe90","pricing_plan_id":"cebpf4jnsgd1na2vs0mg"},{"bike_id":"1e023bb7-0cc9-4e4b-84d8-18ffdbbe3b76","system_id":"levelo_inurba_marseille","lat":43.289184,"lon":5.366408,"is_reserved":false,"is_disabled":false,"rental_uris":{"android":"levelo://app?vid=1e023bb7-0cc9-4e4b-84d8-18ffdbbe3b76","ios":"levelo://app?vid=1e023bb7-0cc9-4e4b-84d8-18ffdbbe3b76"},"vehicle_type_id":"4","last_reported":1723309584,"current_range_meters":16400,"station_id":"ce4bhap2rcd13ifvqek0","pricing_plan_id":"cebpf4jnsgd1na2vs0mg"},{"bike_id":"95d3b122-3f09-4187-a8de-8af109748549","system_id":"levelo_inurba_marseille","lat":43.289468,"lon":5.363719,"is_reserved":false,"is_disabled":false,"rental_uris":{"android":"levelo://app?vid=95d3b122-3f09-4187-a8de-8af109748549","ios":"levelo://app?vid=95d3b122-3f09-4187-a8de-8af109748549"},"vehicle_type_id":"4","last_reported":1723309584,"current_range_meters":6800,"station_id":"ce4bhc92rcd13ifvqetg","pricing_plan_id":"cebpf4jnsgd1na2vs0mg"},{"bike_id":"b09b0101-fadf-4949-b4da-09098ddca3c4","system_id":"levelo_inurba_marseille","lat":43.292644,"lon":5.384257,"is_reserved":false,"is_disabled":false,"rental_uris":{"android":"levelo://app?vid=b09b0101-fadf-4949-b4da-09098ddca3c4","ios":"levelo://app?vid=b09b0101-fadf-4949-b4da-09098ddca3c4"},"vehicle_type_id":"4","last_reported":1723309584,"current_range_meters":0,"station_id":"ce4bh692rcd13ifvqea0","pricing_plan_id":"cebpf4jnsgd1na2vs0mg"},{"bike_id":"5a669269-1afd-42d8-bce6-80332da2fd92","system_id":"levelo_inurba_marseille","lat":43.292642,"lon":5.384254,"is_reserved":false,"is_disabled":false,"rental_uris":{"android":"levelo://app?vid=5a669269-1afd-42d8-bce6-80332da2fd92","ios":"levelo://app?vid=5a669269-1afd-42d8-bce6-80332da2fd92"},"vehicle_type_id":"4","last_reported":1723309584,"current_range_meters":800,"station_id":"ce4bh692rcd13ifvqea0","pricing_plan_id":"cebpf4jnsgd1na2vs0mg"},{"bike_id":"72e547d3-a581-43db-ad52-a42dcb097774","system_id":"levelo_inurba_marseille","lat":43.292644,"lon":5.384257,"is_reserved":false,"is_disabled":false,"rental_uris":{"android":"levelo://app?vid=72e547d3-a581-43db-ad52-a42dcb097774","ios":"levelo://app?vid=72e547d3-a581-43db-ad52-a42dcb097774"},"vehicle_type_id":"4","last_reported":1723309584,"current_range_meters":0,"station_id":"ce4bh692rcd13ifvqea0","pricing_plan_id":"cebpf4jnsgd1na2vs0mg"},{"bike_id":"9889e814-cb86-4129-9185-2f90b4f06ca8","system_id":"levelo_inurba_marseille","lat":43.292644,"lon":5.384257,"is_reserved":false,"is_disabled":false,"rental_uris":{"android":"levelo://app?vid=9889e814-cb86-4129-9185-2f90b4f06ca8","ios":"levelo://app?vid=9889e814-cb86-4129-9185-2f90b4f06ca8"},"vehicle_type_id":"4","last_reported":1723309584,"current_range_meters":0,"station_id":"ce4bh692rcd13ifvqea0","pricing_plan_id":"cebpf4jnsgd1na2vs0mg"},{"bike_id":"fadd045e-b98e-4d89-8db4-6ae590f32978","system_id":"levelo_inurba_marseille","lat":43.304296,"lon":5.397513,"is_reserved":false,"is_disabled":false,"rental_uris":{"android":"levelo://app?vid=fadd045e-b98e-4d89-8db4-6ae590f32978","ios":"levelo://app?vid=fadd045e-b98e-4d89-8db4-6ae590f32978"},"vehicle_type_id":"4","last_reported":1723309584,"current_range_meters":5200,"station_id":"ce4bh092rcd13ifvqd20","pricing_plan_id":"cebpf4jnsgd1na2vs0mg"},{"bike_id":"8b0516a0-02a7-4537-bada-4c1ff41ee09c","system_id":"levelo_inurba_marseille","lat":43.29264,"lon":5.38449,"is_reserved":false,"is_disabled":false,"rental_uris":{"android":"levelo://app?vid=8b0516a0-02a7-4537-bada-4c1ff41ee09c","ios":"levelo://app?vid=8b0516a0-02a7-4537-bada-4c1ff41ee09c"},"vehicle_type_id":"4","last_reported":1723309584,"current_range_meters":0,"station_id":"ce4bh692rcd13ifvqea0","pricing_plan_id":"cebpf4jnsgd1na2vs0mg"},{"bike_id":"e44786fa-bf30-4cb7-ae63-0b698d3701b6","system_id":"levelo_inurba_marseille","lat":43.304296,"lon":5.397513,"is_reserved":false,"is_disabled":false,"rental_uris":{"android":"levelo://app?vid=e44786fa-bf30-4cb7-ae63-0b698d3701b6","ios":"levelo://app?vid=e44786fa-bf30-4cb7-ae63-0b698d3701b6"},"vehicle_type_id":"4","last_reported":1723309584,"current_range_meters":12400,"station_id":"ce4bh092rcd13ifvqd20","pricing_plan_id":"cebpf4jnsgd1na2vs0mg"},{"bike_id":"e4c0c972-9f47-49e4-a9f0-7c856997ab9f","system_id":"levelo_inurba_marseille","lat":43.29008,"lon":5.35619,"is_reserved":false,"is_disabled":false,"rental_uris":{"android":"levelo://app?vid=e4c0c972-9f47-49e4-a9f0-7c856997ab9f","ios":"levelo://app?vid=e4c0c972-9f47-49e4-a9f0-7c856997ab9f"},"vehicle_type_id":"4","last_reported":1723309584,"current_range_meters":0,"station_id":"ce4bhb92rcd13ifvqen0","pricing_plan_id":"cebpf4jnsgd1na2vs0mg"},{"bike_id":"cc10e16f-483a-40cb-bdbe-747fe4097d0d","system_id":"levelo_inurba_marseille","lat":43.29008,"lon":5.35614,"is_reserved":false,"is_disabled":false,"rental_uris":{"android":"levelo://app?vid=cc10e16f-483a-40cb-bdbe-747fe4097d0d","ios":"levelo://app?vid=cc10e16f-483a-40cb-bdbe-747fe4097d0d"},"vehicle_type_id":"4","last_reported":1723309584,"current_range_meters":0,"station_id":"ce4bhb92rcd13ifvqen0","pricing_plan_id":"cebpf4jnsgd1na2vs0mg"},{"bike_id":"583acfd7-a5ed-4d2e-bfab-21a8a4defb15","system_id":"levelo_inurba_marseille","lat":43.29007,"lon":5.35611,"is_reserved":false,"is_disabled":false,"rental_uris":{"android":"levelo://app?vid=583acfd7-a5ed-4d2e-bfab-21a8a4defb15","ios":"levelo://app?vid=583acfd7-a5ed-4d2e-bfab-21a8a4defb15"},"vehicle_type_id":"4","last_reported":1723309584,"current_range_meters":0,"station_id":"ce4bhb92rcd13ifvqen0","pricing_plan_id":"cebpf4jnsgd1na2vs0mg"},{"bike_id":"7e08a2a3-c16b-4f73-a682-61dea90cf593","system_id":"levelo_inurba_marseille","lat":43.29003,"lon":5.35622,"is_reserved":false,"is_disabled":false,"rental_uris":{"android":"levelo://app?vid=7e08a2a3-c16b-4f73-a682-61dea90cf593","ios":"levelo://app?vid=7e08a2a3-c16b-4f73-a682-61dea90cf593"},"vehicle_type_id":"4","last_reported":1723309584,"current_range_meters":0,"station_id":"ce4bhb92rcd13ifvqen0","pricing_plan_id":"cebpf4jnsgd1na2vs0mg"},{"bike_id":"3c574183-cade-4ed5-a43c-f3841ec38171","system_id":"levelo_inurba_marseille","lat":43.29001,"lon":5.35613,"is_reserved":false,"is_disabled":false,"rental_uris":{"android":"levelo://app?vid=3c574183-cade-4ed5-a43c-f3841ec38171","ios":"levelo://app?vid=3c574183-cade-4ed5-a43c-f3841ec38171"},"vehicle_type_id":"4","last_reported":1723309584,"current_range_meters":0,"station_id":"ce4bhb92rcd13ifvqen0","pricing_plan_id":"cebpf4jnsgd1na2vs0mg"},{"bike_id":"018d3bcc-2361-48dd-ae51-34794829b97b","system_id":"levelo_inurba_marseille","lat":43.29001,"lon":5.3561,"is_reserved":false,"is_disabled":false,"rental_uris":{"android":"levelo://app?vid=018d3bcc-2361-48dd-ae51-34794829b97b","ios":"levelo://app?vid=018d3bcc-2361-48dd-ae51-34794829b97b"},"vehicle_type_id":"4","last_reported":1723309584,"current_range_meters":0,"station_id":"ce4bhb92rcd13ifvqen0","pricing_plan_id":"cebpf4jnsgd1na2vs0mg"},{"bike_id":"aa9884d1-37e2-4eb2-87d2-70d3dd298fdc","system_id":"levelo_inurba_marseille","lat":43.290989,"lon":5.381553,"is_reserved":false,"is_disabled":false,"rental_uris":{"android":"levelo://app?vid=aa9884d1-37e2-4eb2-87d2-70d3dd298fdc","ios":"levelo://app?vid=aa9884d1-37e2-4eb2-87d2-70d3dd298fdc"},"vehicle_type_id":"4","last_reported":1723309584,"current_range_meters":0,"station_id":"ce4bh512rcd13ifvqe2g","pricing_plan_id":"cebpf4jnsgd1na2vs0mg"},{"bike_id":"24b77020-dd04-4ad4-8e5a-d5c410513a45","system_id":"levelo_inurba_marseille","lat":43.290995,"lon":5.381361,"is_reserved":false,"is_disabled":false,"rental_uris":{"android":"levelo://app?vid=24b77020-dd04-4ad4-8e5a-d5c410513a45","ios":"levelo://app?vid=24b77020-dd04-4ad4-8e5a-d5c410513a45"},"vehicle_type_id":"4","last_reported":1723309584,"current_range_meters":9600,"station_id":"ce4bh512rcd13ifvqe2g","pricing_plan_id":"cebpf4jnsgd1na2vs0mg"},{"bike_id":"5d07b028-ea05-4457-bb0d-78c8e31c24f4","system_id":"levelo_inurba_marseille","lat":43.3302,"lon":5.39043,"is_reserved":false,"is_disabled":false,"rental_uris":{"android":"levelo://app?vid=5d07b028-ea05-4457-bb0d-78c8e31c24f4","ios":"levelo://app?vid=5d07b028-ea05-4457-bb0d-78c8e31c24f4"},"vehicle_type_id":"4","last_reported":1723309584,"current_range_meters":13600,"station_id":"ce4bhr92rcd13ifvqhrg","pricing_plan_id":"cebpf4jnsgd1na2vs0mg"},{"bike_id":"922c9ae2-ed0e-47d7-af60-0d7738e769b0","system_id":"levelo_inurba_marseille","lat":43.289741,"lon":5.378306,"is_reserved":false,"is_disabled":false,"rental_uris":{"android":"levelo://app?vid=922c9ae2-ed0e-47d7-af60-0d7738e769b0","ios":"levelo://app?vid=922c9ae2-ed0e-47d7-af60-0d7738e769b0"},"vehicle_type_id":"4","last_reported":1723309584,"current_range_meters":15200,"station_id":"ce4bh9p2rcd13ifvqed0","pricing_plan_id":"cebpf4jnsgd1na2vs0mg"},{"bike_id":"eb950615-e61f-45ab-a601-4960d01e92e7","system_id":"levelo_inurba_marseille","lat":43.33027,"lon":5.39037,"is_reserved":false,"is_disabled":false,"rental_uris":{"android":"levelo://app?vid=eb950615-e61f-45ab-a601-4960d01e92e7","ios":"levelo://app?vid=eb950615-e61f-45ab-a601-4960d01e92e7"},"vehicle_type_id":"4","last_reported":1723309584,"current_range_meters":0,"station_id":"ce4bhr92rcd13ifvqhrg","pricing_plan_id":"cebpf4jnsgd1na2vs0mg"},{"bike_id":"35002121-fb81-4afd-9964-234fc301c38c","system_id":"levelo_inurba_marseille","lat":43.33026,"lon":5.3904,"is_reserved":false,"is_disabled":false,"rental_uris":{"android":"levelo://app?vid=35002121-fb81-4afd-9964-234fc301c38c","ios":"levelo://app?vid=35002121-fb81-4afd-9964-234fc301c38c"},"vehicle_type_id":"4","last_reported":1723309584,"current_range_meters":10000,"station_id":"ce4bhr92rcd13ifvqhrg","pricing_plan_id":"cebpf4jnsgd1na2vs0mg"},{"bike_id":"ced608d2-5cb1-4dde-8b01-840f4f7734a7","system_id":"levelo_inurba_marseille","lat":43.33026,"lon":5.39045,"is_reserved":false,"is_disabled":false,"rental_uris":{"android":"levelo://app?vid=ced608d2-5cb1-4dde-8b01-840f4f7734a7","ios":"levelo://app?vid=ced608d2-5cb1-4dde-8b01-840f4f7734a7"},"vehicle_type_id":"4","last_reported":1723309584,"current_range_meters":3600,"station_id":"ce4bhr92rcd13ifvqhrg","pricing_plan_id":"cebpf4jnsgd1na2vs0mg"},{"bike_id":"681d9f12-9703-4d9b-b1fc-1e5dc0061c4c","system_id":"levelo_inurba_marseille","lat":43.289741,"lon":5.378306,"is_reserved":false,"is_disabled":false,"rental_uris":{"android":"levelo://app?vid=681d9f12-9703-4d9b-b1fc-1e5dc0061c4c","ios":"levelo://app?vid=681d9f12-9703-4d9b-b1fc-1e5dc0061c4c"},"vehicle_type_id":"4","last_reported":1723309584,"current_range_meters":30400,"station_id":"ce4bh9p2rcd13ifvqed0","pricing_plan_id":"cebpf4jnsgd1na2vs0mg"},{"bike_id":"2aa035e2-53f3-4926-90cc-5510cb47701a","system_id":"levelo_inurba_marseille","lat":43.290307,"lon":5.381397,"is_reserved":false,"is_disabled":false,"rental_uris":{"android":"levelo://app?vid=2aa035e2-53f3-4926-90cc-5510cb47701a","ios":"levelo://app?vid=2aa035e2-53f3-4926-90cc-5510cb47701a"},"vehicle_type_id":"4","last_reported":1723309584,"current_range_meters":0,"station_id":"ce4bh4p2rcd13ifvqe1g","pricing_plan_id":"cebpf4jnsgd1na2vs0mg"},{"bike_id":"84f5f4e1-90bc-40e1-90db-3103c4ac0d5e","system_id":"levelo_inurba_marseille","lat":43.2901,"lon":5.381269,"is_reserved":false,"is_disabled":false,"rental_uris":{"android":"levelo://app?vid=84f5f4e1-90bc-40e1-90db-3103c4ac0d5e","ios":"levelo://app?vid=84f5f4e1-90bc-40e1-90db-3103c4ac0d5e"},"vehicle_type_id":"4","last_reported":1723309584,"current_range_meters":0,"station_id":"ce4bh4p2rcd13ifvqe1g","pricing_plan_id":"cebpf4jnsgd1na2vs0mg"},{"bike_id":"93f9b2c5-ff3d-4ce5-bf55-702747d02108","system_id":"levelo_inurba_marseille","lat":43.28856,"lon":5.358371,"is_reserved":false,"is_disabled":false,"rental_uris":{"android":"levelo://app?vid=93f9b2c5-ff3d-4ce5-bf55-702747d02108","ios":"levelo://app?vid=93f9b2c5-ff3d-4ce5-bf55-702747d02108"},"vehicle_type_id":"4","last_reported":1723309584,"current_range_meters":6400,"station_id":"ce4bhb12rcd13ifvqem0","pricing_plan_id":"cebpf4jnsgd1na2vs0mg"},{"bike_id":"f3810ea6-0092-4e51-85cd-01d9321a590e","system_id":"levelo_inurba_marseille","lat":43.28856,"lon":5.358371,"is_reserved":false,"is_disabled":false,"rental_uris":{"android":"levelo://app?vid=f3810ea6-0092-4e51-85cd-01d9321a590e","ios":"levelo://app?vid=f3810ea6-0092-4e51-85cd-01d9321a590e"},"vehicle_type_id":"4","last_reported":1723309584,"current_range_meters":0,"station_id":"ce4bhb12rcd13ifvqem0","pricing_plan_id":"cebpf4jnsgd1na2vs0mg"},{"bike_id":"37347407-a77b-49ed-bde0-4664cad081cd","system_id":"levelo_inurba_marseille","lat":43.28856,"lon":5.358371,"is_reserved":false,"is_disabled":false,"rental_uris":{"android":"levelo://app?vid=37347407-a77b-49ed-bde0-4664cad081cd","ios":"levelo://app?vid=37347407-a77b-49ed-bde0-4664cad081cd"},"vehicle_type_id":"4","last_reported":1723309584,"current_range_meters":0,"station_id":"ce4bhb12rcd13ifvqem0","pricing_plan_id":"cebpf4jnsgd1na2vs0mg"},{"bike_id":"5ceddecc-85be-4383-af7a-665e1255889b","system_id":"levelo_inurba_marseille","lat":43.28856,"lon":5.358371,"is_reserved":false,"is_disabled":false,"rental_uris":{"android":"levelo://app?vid=5ceddecc-85be-4383-af7a-665e1255889b","ios":"levelo://app?vid=5ceddecc-85be-4383-af7a-665e1255889b"},"vehicle_type_id":"4","last_reported":1723309584,"current_range_meters":0,"station_id":"ce4bhb12rcd13ifvqem0","pricing_plan_id":"cebpf4jnsgd1na2vs0mg"},{"bike_id":"8b5f6228-3582-497c-9919-c849c8ef0c9b","system_id":"levelo_inurba_marseille","lat":43.337404,"lon":5.374621,"is_reserved":false,"is_disabled":false,"rental_uris":{"android":"levelo://app?vid=8b5f6228-3582-497c-9919-c849c8ef0c9b","ios":"levelo://app?vid=8b5f6228-3582-497c-9919-c849c8ef0c9b"},"vehicle_type_id":"4","last_reported":1723309584,"current_range_meters":1600,"station_id":"","pricing_plan_id":"cebpf4jnsgd1na2vs0mg"},{"bike_id":"ac75d8e5-5139-4e43-a64e-51e7994c2517","system_id":"levelo_inurba_marseille","lat":43.337444,"lon":5.374475,"is_reserved":false,"is_disabled":false,"rental_uris":{"android":"levelo://app?vid=ac75d8e5-5139-4e43-a64e-51e7994c2517","ios":"levelo://app?vid=ac75d8e5-5139-4e43-a64e-51e7994c2517"},"vehicle_type_id":"3","last_reported":1723309584,"current_range_meters":24800,"station_id":"","pricing_plan_id":"cebpf4jnsgd1na2vs0mg"},{"bike_id":"99ff80d6-767c-4ca9-81b5-c19f253f3bd3","system_id":"levelo_inurba_marseille","lat":43.337447,"lon":5.374508,"is_reserved":false,"is_disabled":false,"rental_uris":{"android":"levelo://app?vid=99ff80d6-767c-4ca9-81b5-c19f253f3bd3","ios":"levelo://app?vid=99ff80d6-767c-4ca9-81b5-c19f253f3bd3"},"vehicle_type_id":"4","last_reported":1723309584,"current_range_meters":3200,"station_id":"","pricing_plan_id":"cebpf4jnsgd1na2vs0mg"},{"bike_id":"1c4fe54a-32cc-470b-8de3-4b795ae2c394","system_id":"levelo_inurba_marseille","lat":43.309371,"lon":5.401449,"is_reserved":false,"is_disabled":false,"rental_uris":{"android":"levelo://app?vid=1c4fe54a-32cc-470b-8de3-4b795ae2c394","ios":"levelo://app?vid=1c4fe54a-32cc-470b-8de3-4b795ae2c394"},"vehicle_type_id":"4","last_reported":1723309584,"current_range_meters":13600,"station_id":"ce4bgvp2rcd13ifvqct0","pricing_plan_id":"cebpf4jnsgd1na2vs0mg"},{"bike_id":"43f21911-683d-4ba4-93d3-8a7e20e1c78c","system_id":"levelo_inurba_marseille","lat":43.33744,"lon":5.374657,"is_reserved":false,"is_disabled":false,"rental_uris":{"android":"levelo://app?vid=43f21911-683d-4ba4-93d3-8a7e20e1c78c","ios":"levelo://app?vid=43f21911-683d-4ba4-93d3-8a7e20e1c78c"},"vehicle_type_id":"4","last_reported":1723309584,"current_range_meters":30400,"station_id":"","pricing_plan_id":"cebpf4jnsgd1na2vs0mg"},{"bike_id":"7553d7c6-8eef-4b21-9dca-534ec43256a6","system_id":"levelo_inurba_marseille","lat":43.33746,"lon":5.37454,"is_reserved":false,"is_disabled":false,"rental_uris":{"android":"levelo://app?vid=7553d7c6-8eef-4b21-9dca-534ec43256a6","ios":"levelo://app?vid=7553d7c6-8eef-4b21-9dca-534ec43256a6"},"vehicle_type_id":"4","last_reported":1723309584,"current_range_meters":14000,"station_id":"","pricing_plan_id":"cebpf4jnsgd1na2vs0mg"},{"bike_id":"a99690a8-3e4f-41a1-9b6a-5b43249a269f","system_id":"levelo_inurba_marseille","lat":43.33746,"lon":5.37457,"is_reserved":false,"is_disabled":false,"rental_uris":{"android":"levelo://app?vid=a99690a8-3e4f-41a1-9b6a-5b43249a269f","ios":"levelo://app?vid=a99690a8-3e4f-41a1-9b6a-5b43249a269f"},"vehicle_type_id":"4","last_reported":1723309584,"current_range_meters":4400,"station_id":"","pricing_plan_id":"cebpf4jnsgd1na2vs0mg"},{"bike_id":"c3cf305c-692c-41ed-b07c-7ebbc13f240d","system_id":"levelo_inurba_marseille","lat":43.33746,"lon":5.374616,"is_reserved":false,"is_disabled":false,"rental_uris":{"android":"levelo://app?vid=c3cf305c-692c-41ed-b07c-7ebbc13f240d","ios":"levelo://app?vid=c3cf305c-692c-41ed-b07c-7ebbc13f240d"},"vehicle_type_id":"4","last_reported":1723309584,"current_range_meters":13600,"station_id":"","pricing_plan_id":"cebpf4jnsgd1na2vs0mg"},{"bike_id":"6137b86e-8de9-4c4f-94ef-bfa372175031","system_id":"levelo_inurba_marseille","lat":43.337513,"lon":5.37454,"is_reserved":false,"is_disabled":false,"rental_uris":{"android":"levelo://app?vid=6137b86e-8de9-4c4f-94ef-bfa372175031","ios":"levelo://app?vid=6137b86e-8de9-4c4f-94ef-bfa372175031"},"vehicle_type_id":"4","last_reported":1723309584,"current_range_meters":15200,"station_id":"","pricing_plan_id":"cebpf4jnsgd1na2vs0mg"},{"bike_id":"1ece39e8-5ec5-465b-b0d5-bdea3554c74d","system_id":"levelo_inurba_marseille","lat":43.337613,"lon":5.374504,"is_reserved":false,"is_disabled":false,"rental_uris":{"android":"levelo://app?vid=1ece39e8-5ec5-465b-b0d5-bdea3554c74d","ios":"levelo://app?vid=1ece39e8-5ec5-465b-b0d5-bdea3554c74d"},"vehicle_type_id":"4","last_reported":1723309584,"current_range_meters":24800,"station_id":"","pricing_plan_id":"cebpf4jnsgd1na2vs0mg"},{"bike_id":"ea1cc1bc-b3f0-4093-8f5f-6dfff1fa63d9","system_id":"levelo_inurba_marseille","lat":43.33757,"lon":5.37485,"is_reserved":false,"is_disabled":false,"rental_uris":{"android":"levelo://app?vid=ea1cc1bc-b3f0-4093-8f5f-6dfff1fa63d9","ios":"levelo://app?vid=ea1cc1bc-b3f0-4093-8f5f-6dfff1fa63d9"},"vehicle_type_id":"4","last_reported":1723309584,"current_range_meters":28800,"station_id":"","pricing_plan_id":"cebpf4jnsgd1na2vs0mg"},{"bike_id":"e0da458e-1309-458b-956b-aab617b2ea05","system_id":"levelo_inurba_marseille","lat":43.3376,"lon":5.37473,"is_reserved":false,"is_disabled":false,"rental_uris":{"android":"levelo://app?vid=e0da458e-1309-458b-956b-aab617b2ea05","ios":"levelo://app?vid=e0da458e-1309-458b-956b-aab617b2ea05"},"vehicle_type_id":"4","last_reported":1723309584,"current_range_meters":26800,"station_id":"","pricing_plan_id":"cebpf4jnsgd1na2vs0mg"},{"bike_id":"6f8a75ef-cfde-4da5-99c7-85f9ae9b026b","system_id":"levelo_inurba_marseille","lat":43.33769,"lon":5.37435,"is_reserved":false,"is_disabled":false,"rental_uris":{"android":"levelo://app?vid=6f8a75ef-cfde-4da5-99c7-85f9ae9b026b","ios":"levelo://app?vid=6f8a75ef-cfde-4da5-99c7-85f9ae9b026b"},"vehicle_type_id":"4","last_reported":1723309584,"current_range_meters":30400,"station_id":"","pricing_plan_id":"cebpf4jnsgd1na2vs0mg"},{"bike_id":"a7e71684-8757-4c0e-98c0-cd5b05cd0ba7","system_id":"levelo_inurba_marseille","lat":43.337595,"lon":5.374939,"is_reserved":false,"is_disabled":false,"rental_uris":{"android":"levelo://app?vid=a7e71684-8757-4c0e-98c0-cd5b05cd0ba7","ios":"levelo://app?vid=a7e71684-8757-4c0e-98c0-cd5b05cd0ba7"},"vehicle_type_id":"4","last_reported":1723309584,"current_range_meters":30000,"station_id":"","pricing_plan_id":"cebpf4jnsgd1na2vs0mg"},{"bike_id":"5cb0d0f3-eacc-40eb-a46e-542fc59e15f6","system_id":"levelo_inurba_marseille","lat":43.33759,"lon":5.37499,"is_reserved":false,"is_disabled":false,"rental_uris":{"android":"levelo://app?vid=5cb0d0f3-eacc-40eb-a46e-542fc59e15f6","ios":"levelo://app?vid=5cb0d0f3-eacc-40eb-a46e-542fc59e15f6"},"vehicle_type_id":"4","last_reported":1723309584,"current_range_meters":30000,"station_id":"","pricing_plan_id":"cebpf4jnsgd1na2vs0mg"},{"bike_id":"475ed14f-5d86-4ce1-9e44-9d4d1bef7035","system_id":"levelo_inurba_marseille","lat":43.33765,"lon":5.37486,"is_reserved":false,"is_disabled":false,"rental_uris":{"android":"levelo://app?vid=475ed14f-5d86-4ce1-9e44-9d4d1bef7035","ios":"levelo://app?vid=475ed14f-5d86-4ce1-9e44-9d4d1bef7035"},"vehicle_type_id":"4","last_reported":1723309584,"current_range_meters":24800,"station_id":"","pricing_plan_id":"cebpf4jnsgd1na2vs0mg"},{"bike_id":"57da0337-159a-4148-be4f-fc6e9aca3c31","system_id":"levelo_inurba_marseille","lat":43.3373,"lon":5.35547,"is_reserved":false,"is_disabled":false,"rental_uris":{"android":"levelo://app?vid=57da0337-159a-4148-be4f-fc6e9aca3c31","ios":"levelo://app?vid=57da0337-159a-4148-be4f-fc6e9aca3c31"},"vehicle_type_id":"4","last_reported":1723309584,"current_range_meters":8400,"station_id":"","pricing_plan_id":"cebpf4jnsgd1na2vs0mg"},{"bike_id":"b6a11582-15f7-4e59-8176-db8a78bad23a","system_id":"levelo_inurba_marseille","lat":43.298681,"lon":5.397225,"is_reserved":false,"is_disabled":false,"rental_uris":{"android":"levelo://app?vid=b6a11582-15f7-4e59-8176-db8a78bad23a","ios":"levelo://app?vid=b6a11582-15f7-4e59-8176-db8a78bad23a"},"vehicle_type_id":"4","last_reported":1723309584,"current_range_meters":400,"station_id":"ce4bh0h2rcd13ifvqd50","pricing_plan_id":"cebpf4jnsgd1na2vs0mg"},{"bike_id":"b02d1312-2bb0-49e9-9f55-b86b080616c9","system_id":"levelo_inurba_marseille","lat":43.298681,"lon":5.397225,"is_reserved":false,"is_disabled":false,"rental_uris":{"android":"levelo://app?vid=b02d1312-2bb0-49e9-9f55-b86b080616c9","ios":"levelo://app?vid=b02d1312-2bb0-49e9-9f55-b86b080616c9"},"vehicle_type_id":"4","last_reported":1723309584,"current_range_meters":11600,"station_id":"ce4bh0h2rcd13ifvqd50","pricing_plan_id":"cebpf4jnsgd1na2vs0mg"},{"bike_id":"dbf57e1b-e03f-4c1a-b90b-214bb2fd5c28","system_id":"levelo_inurba_marseille","lat":43.28921,"lon":5.38382,"is_reserved":false,"is_disabled":false,"rental_uris":{"android":"levelo://app?vid=dbf57e1b-e03f-4c1a-b90b-214bb2fd5c28","ios":"levelo://app?vid=dbf57e1b-e03f-4c1a-b90b-214bb2fd5c28"},"vehicle_type_id":"4","last_reported":1723309584,"current_range_meters":0,"station_id":"ce4bh612rcd13ifvqe6g","pricing_plan_id":"cebpf4jnsgd1na2vs0mg"},{"bike_id":"9b07d4c3-058a-4d18-8a3e-35fc69220cc0","system_id":"levelo_inurba_marseille","lat":43.28919,"lon":5.38387,"is_reserved":false,"is_disabled":false,"rental_uris":{"android":"levelo://app?vid=9b07d4c3-058a-4d18-8a3e-35fc69220cc0","ios":"levelo://app?vid=9b07d4c3-058a-4d18-8a3e-35fc69220cc0"},"vehicle_type_id":"4","last_reported":1723309584,"current_range_meters":0,"station_id":"ce4bh612rcd13ifvqe6g","pricing_plan_id":"cebpf4jnsgd1na2vs0mg"},{"bike_id":"09139520-d204-4299-8648-e283db53465c","system_id":"levelo_inurba_marseille","lat":43.286039,"lon":5.370679,"is_reserved":false,"is_disabled":false,"rental_uris":{"android":"levelo://app?vid=09139520-d204-4299-8648-e283db53465c","ios":"levelo://app?vid=09139520-d204-4299-8648-e283db53465c"},"vehicle_type_id":"4","last_reported":1723309584,"current_range_meters":29200,"station_id":"ce4bht12rcd13ifvqi60","pricing_plan_id":"cebpf4jnsgd1na2vs0mg"},{"bike_id":"34a68a10-ebd1-47bc-bab5-4dd3801d3233","system_id":"levelo_inurba_marseille","lat":43.286039,"lon":5.370681,"is_reserved":false,"is_disabled":false,"rental_uris":{"android":"levelo://app?vid=34a68a10-ebd1-47bc-bab5-4dd3801d3233","ios":"levelo://app?vid=34a68a10-ebd1-47bc-bab5-4dd3801d3233"},"vehicle_type_id":"4","last_reported":1723309584,"current_range_meters":18800,"station_id":"ce4bht12rcd13ifvqi60","pricing_plan_id":"cebpf4jnsgd1na2vs0mg"},{"bike_id":"61bafdc8-f272-4779-b418-5366ae79204e","system_id":"levelo_inurba_marseille","lat":43.287184,"lon":5.37937,"is_reserved":false,"is_disabled":false,"rental_uris":{"android":"levelo://app?vid=61bafdc8-f272-4779-b418-5366ae79204e","ios":"levelo://app?vid=61bafdc8-f272-4779-b418-5366ae79204e"},"vehicle_type_id":"4","last_reported":1723309584,"current_range_meters":4800,"station_id":"ce4bh9p2rcd13ifvqec0","pricing_plan_id":"cebpf4jnsgd1na2vs0mg"},{"bike_id":"3e559535-e7f0-4fd1-8830-7eeb4e0a66d5","system_id":"levelo_inurba_marseille","lat":43.287185,"lon":5.379373,"is_reserved":false,"is_disabled":false,"rental_uris":{"android":"levelo://app?vid=3e559535-e7f0-4fd1-8830-7eeb4e0a66d5","ios":"levelo://app?vid=3e559535-e7f0-4fd1-8830-7eeb4e0a66d5"},"vehicle_type_id":"4","last_reported":1723309584,"current_range_meters":23600,"station_id":"ce4bh9p2rcd13ifvqec0","pricing_plan_id":"cebpf4jnsgd1na2vs0mg"},{"bike_id":"70758005-277f-4dd7-a96d-094278030f5c","system_id":"levelo_inurba_marseille","lat":43.28862,"lon":5.38434,"is_reserved":false,"is_disabled":false,"rental_uris":{"android":"levelo://app?vid=70758005-277f-4dd7-a96d-094278030f5c","ios":"levelo://app?vid=70758005-277f-4dd7-a96d-094278030f5c"},"vehicle_type_id":"4","last_reported":1723309584,"current_range_meters":0,"station_id":"","pricing_plan_id":"cebpf4jnsgd1na2vs0mg"},{"bike_id":"258ebe42-8ce3-4ee5-a87a-9e1fb0d86e8b","system_id":"levelo_inurba_marseille","lat":43.283998,"lon":5.375062,"is_reserved":false,"is_disabled":false,"rental_uris":{"android":"levelo://app?vid=258ebe42-8ce3-4ee5-a87a-9e1fb0d86e8b","ios":"levelo://app?vid=258ebe42-8ce3-4ee5-a87a-9e1fb0d86e8b"},"vehicle_type_id":"4","last_reported":1723309584,"current_range_meters":0,"station_id":"ce4bh412rcd13ifvqds0","pricing_plan_id":"cebpf4jnsgd1na2vs0mg"},{"bike_id":"3290eed4-6818-43b2-be77-461992874b6e","system_id":"levelo_inurba_marseille","lat":43.2846,"lon":5.35882,"is_reserved":false,"is_disabled":false,"rental_uris":{"android":"levelo://app?vid=3290eed4-6818-43b2-be77-461992874b6e","ios":"levelo://app?vid=3290eed4-6818-43b2-be77-461992874b6e"},"vehicle_type_id":"4","last_reported":1723309584,"current_range_meters":0,"station_id":"ce4bhah2rcd13ifvqei0","pricing_plan_id":"cebpf4jnsgd1na2vs0mg"},{"bike_id":"5679bd13-4cf7-4d28-b518-ec3268d09d9e","system_id":"levelo_inurba_marseille","lat":43.338684,"lon":5.385557,"is_reserved":false,"is_disabled":false,"rental_uris":{"android":"levelo://app?vid=5679bd13-4cf7-4d28-b518-ec3268d09d9e","ios":"levelo://app?vid=5679bd13-4cf7-4d28-b518-ec3268d09d9e"},"vehicle_type_id":"4","last_reported":1723309584,"current_range_meters":0,"station_id":"","pricing_plan_id":"cebpf4jnsgd1na2vs0mg"},{"bike_id":"07148ba5-ef7d-4efa-b5c9-9efe486cbc17","system_id":"levelo_inurba_marseille","lat":43.283998,"lon":5.375062,"is_reserved":false,"is_disabled":false,"rental_uris":{"android":"levelo://app?vid=07148ba5-ef7d-4efa-b5c9-9efe486cbc17","ios":"levelo://app?vid=07148ba5-ef7d-4efa-b5c9-9efe486cbc17"},"vehicle_type_id":"4","last_reported":1723309584,"current_range_meters":0,"station_id":"ce4bh412rcd13ifvqds0","pricing_plan_id":"cebpf4jnsgd1na2vs0mg"},{"bike_id":"48efb11e-6c1d-4c41-9b65-65f166dc2146","system_id":"levelo_inurba_marseille","lat":43.33717,"lon":5.391857,"is_reserved":false,"is_disabled":false,"rental_uris":{"android":"levelo://app?vid=48efb11e-6c1d-4c41-9b65-65f166dc2146","ios":"levelo://app?vid=48efb11e-6c1d-4c41-9b65-65f166dc2146"},"vehicle_type_id":"4","last_reported":1723309584,"current_range_meters":15600,"station_id":"ce4bhr92rcd13ifvqhsg","pricing_plan_id":"cebpf4jnsgd1na2vs0mg"},{"bike_id":"65abe69a-a210-4d6d-ad52-252d4e616eb8","system_id":"levelo_inurba_marseille","lat":43.284793,"lon":5.384113,"is_reserved":false,"is_disabled":false,"rental_uris":{"android":"levelo://app?vid=65abe69a-a210-4d6d-ad52-252d4e616eb8","ios":"levelo://app?vid=65abe69a-a210-4d6d-ad52-252d4e616eb8"},"vehicle_type_id":"4","last_reported":1723309584,"current_range_meters":30000,"station_id":"ce4bh512rcd13ifvqe3g","pricing_plan_id":"cebpf4jnsgd1na2vs0mg"},{"bike_id":"9c8915e6-a89c-4217-97d5-c3e3cb120cfc","system_id":"levelo_inurba_marseille","lat":43.284793,"lon":5.384113,"is_reserved":false,"is_disabled":false,"rental_uris":{"android":"levelo://app?vid=9c8915e6-a89c-4217-97d5-c3e3cb120cfc","ios":"levelo://app?vid=9c8915e6-a89c-4217-97d5-c3e3cb120cfc"},"vehicle_type_id":"4","last_reported":1723309584,"current_range_meters":13600,"station_id":"ce4bh512rcd13ifvqe3g","pricing_plan_id":"cebpf4jnsgd1na2vs0mg"},{"bike_id":"2e434cc6-dfa7-418f-8f4a-5a7069b92f9b","system_id":"levelo_inurba_marseille","lat":43.28467,"lon":5.38423,"is_reserved":false,"is_disabled":false,"rental_uris":{"android":"levelo://app?vid=2e434cc6-dfa7-418f-8f4a-5a7069b92f9b","ios":"levelo://app?vid=2e434cc6-dfa7-418f-8f4a-5a7069b92f9b"},"vehicle_type_id":"4","last_reported":1723309584,"current_range_meters":0,"station_id":"ce4bh512rcd13ifvqe3g","pricing_plan_id":"cebpf4jnsgd1na2vs0mg"},{"bike_id":"f1fda2a9-4f64-4063-b82c-8cca3f93c29a","system_id":"levelo_inurba_marseille","lat":43.288501,"lon":5.393087,"is_reserved":false,"is_disabled":false,"rental_uris":{"android":"levelo://app?vid=f1fda2a9-4f64-4063-b82c-8cca3f93c29a","ios":"levelo://app?vid=f1fda2a9-4f64-4063-b82c-8cca3f93c29a"},"vehicle_type_id":"4","last_reported":1723309584,"current_range_meters":17200,"station_id":"ce4bh2p2rcd13ifvqdi0","pricing_plan_id":"cebpf4jnsgd1na2vs0mg"},{"bike_id":"e9b56fb5-5e09-433f-95b9-db434eeac152","system_id":"levelo_inurba_marseille","lat":43.283498,"lon":5.380948,"is_reserved":false,"is_disabled":false,"rental_uris":{"android":"levelo://app?vid=e9b56fb5-5e09-433f-95b9-db434eeac152","ios":"levelo://app?vid=e9b56fb5-5e09-433f-95b9-db434eeac152"},"vehicle_type_id":"4","last_reported":1723309584,"current_range_meters":13200,"station_id":"ce4bh412rcd13ifvqdr0","pricing_plan_id":"cebpf4jnsgd1na2vs0mg"},{"bike_id":"a22d2975-84e7-4731-ac24-8ac147b1da21","system_id":"levelo_inurba_marseille","lat":43.283494,"lon":5.380945,"is_reserved":false,"is_disabled":false,"rental_uris":{"android":"levelo://app?vid=a22d2975-84e7-4731-ac24-8ac147b1da21","ios":"levelo://app?vid=a22d2975-84e7-4731-ac24-8ac147b1da21"},"vehicle_type_id":"4","last_reported":1723309584,"current_range_meters":27600,"station_id":"ce4bh412rcd13ifvqdr0","pricing_plan_id":"cebpf4jnsgd1na2vs0mg"},{"bike_id":"b618497c-fc13-48be-aaca-c0638f758b25","system_id":"levelo_inurba_marseille","lat":43.283498,"lon":5.380948,"is_reserved":false,"is_disabled":false,"rental_uris":{"android":"levelo://app?vid=b618497c-fc13-48be-aaca-c0638f758b25","ios":"levelo://app?vid=b618497c-fc13-48be-aaca-c0638f758b25"},"vehicle_type_id":"4","last_reported":1723309584,"current_range_meters":13200,"station_id":"ce4bh412rcd13ifvqdr0","pricing_plan_id":"cebpf4jnsgd1na2vs0mg"},{"bike_id":"0647766e-56f1-430c-b3f8-a5e5ed8933d1","system_id":"levelo_inurba_marseille","lat":43.283494,"lon":5.380945,"is_reserved":false,"is_disabled":false,"rental_uris":{"android":"levelo://app?vid=0647766e-56f1-430c-b3f8-a5e5ed8933d1","ios":"levelo://app?vid=0647766e-56f1-430c-b3f8-a5e5ed8933d1"},"vehicle_type_id":"4","last_reported":1723309584,"current_range_meters":0,"station_id":"ce4bh412rcd13ifvqdr0","pricing_plan_id":"cebpf4jnsgd1na2vs0mg"},{"bike_id":"1aebf774-fe48-483e-aaa7-f9932446bd96","system_id":"levelo_inurba_marseille","lat":43.284217,"lon":5.349697,"is_reserved":false,"is_disabled":false,"rental_uris":{"android":"levelo://app?vid=1aebf774-fe48-483e-aaa7-f9932446bd96","ios":"levelo://app?vid=1aebf774-fe48-483e-aaa7-f9932446bd96"},"vehicle_type_id":"4","last_reported":1723309584,"current_range_meters":400,"station_id":"ce4bhbh2rcd13ifvqepg","pricing_plan_id":"cebpf4jnsgd1na2vs0mg"},{"bike_id":"af35cc1e-a601-444f-8182-e2e52be36e8e","system_id":"levelo_inurba_marseille","lat":43.289363,"lon":5.396322,"is_reserved":false,"is_disabled":false,"rental_uris":{"android":"levelo://app?vid=af35cc1e-a601-444f-8182-e2e52be36e8e","ios":"levelo://app?vid=af35cc1e-a601-444f-8182-e2e52be36e8e"},"vehicle_type_id":"4","last_reported":1723309584,"current_range_meters":24400,"station_id":"ce4bh3h2rcd13ifvqdn0","pricing_plan_id":"cebpf4jnsgd1na2vs0mg"},{"bike_id":"5367a230-9508-4862-a8da-8d3f45d36d91","system_id":"levelo_inurba_marseille","lat":43.2894,"lon":5.39644,"is_reserved":false,"is_disabled":false,"rental_uris":{"android":"levelo://app?vid=5367a230-9508-4862-a8da-8d3f45d36d91","ios":"levelo://app?vid=5367a230-9508-4862-a8da-8d3f45d36d91"},"vehicle_type_id":"4","last_reported":1723309584,"current_range_meters":0,"station_id":"ce4bh3h2rcd13ifvqdn0","pricing_plan_id":"cebpf4jnsgd1na2vs0mg"},{"bike_id":"ba0226c8-ecaf-40e7-8ffa-f21cdaba82e7","system_id":"levelo_inurba_marseille","lat":43.292724,"lon":5.401131,"is_reserved":false,"is_disabled":false,"rental_uris":{"android":"levelo://app?vid=ba0226c8-ecaf-40e7-8ffa-f21cdaba82e7","ios":"levelo://app?vid=ba0226c8-ecaf-40e7-8ffa-f21cdaba82e7"},"vehicle_type_id":"4","last_reported":1723309584,"current_range_meters":1200,"station_id":"ce4bh312rcd13ifvqdk0","pricing_plan_id":"cebpf4jnsgd1na2vs0mg"},{"bike_id":"68923833-bb4e-410d-8eb6-4df89cf7fd43","system_id":"levelo_inurba_marseille","lat":43.28272,"lon":5.35058,"is_reserved":false,"is_disabled":false,"rental_uris":{"android":"levelo://app?vid=68923833-bb4e-410d-8eb6-4df89cf7fd43","ios":"levelo://app?vid=68923833-bb4e-410d-8eb6-4df89cf7fd43"},"vehicle_type_id":"4","last_reported":1723309584,"current_range_meters":0,"station_id":"ce4bhbp2rcd13ifvqerg","pricing_plan_id":"cebpf4jnsgd1na2vs0mg"},{"bike_id":"c8daf1be-c0d6-4e59-8f10-0ea050352c46","system_id":"levelo_inurba_marseille","lat":43.28269,"lon":5.35065,"is_reserved":false,"is_disabled":false,"rental_uris":{"android":"levelo://app?vid=c8daf1be-c0d6-4e59-8f10-0ea050352c46","ios":"levelo://app?vid=c8daf1be-c0d6-4e59-8f10-0ea050352c46"},"vehicle_type_id":"4","last_reported":1723309584,"current_range_meters":0,"station_id":"ce4bhbp2rcd13ifvqerg","pricing_plan_id":"cebpf4jnsgd1na2vs0mg"},{"bike_id":"42bd66f8-b47d-4955-b171-5c3bae958411","system_id":"levelo_inurba_marseille","lat":43.28263,"lon":5.35063,"is_reserved":false,"is_disabled":false,"rental_uris":{"android":"levelo://app?vid=42bd66f8-b47d-4955-b171-5c3bae958411","ios":"levelo://app?vid=42bd66f8-b47d-4955-b171-5c3bae958411"},"vehicle_type_id":"4","last_reported":1723309584,"current_range_meters":0,"station_id":"ce4bhbp2rcd13ifvqerg","pricing_plan_id":"cebpf4jnsgd1na2vs0mg"},{"bike_id":"a082c653-9346-4916-8cdf-c821270050e5","system_id":"levelo_inurba_marseille","lat":43.28259,"lon":5.35067,"is_reserved":false,"is_disabled":false,"rental_uris":{"android":"levelo://app?vid=a082c653-9346-4916-8cdf-c821270050e5","ios":"levelo://app?vid=a082c653-9346-4916-8cdf-c821270050e5"},"vehicle_type_id":"4","last_reported":1723309584,"current_range_meters":0,"station_id":"ce4bhbp2rcd13ifvqerg","pricing_plan_id":"cebpf4jnsgd1na2vs0mg"},{"bike_id":"926ad2f2-e447-4610-9282-c75499f0d51a","system_id":"levelo_inurba_marseille","lat":43.28039,"lon":5.369297,"is_reserved":false,"is_disabled":false,"rental_uris":{"android":"levelo://app?vid=926ad2f2-e447-4610-9282-c75499f0d51a","ios":"levelo://app?vid=926ad2f2-e447-4610-9282-c75499f0d51a"},"vehicle_type_id":"4","last_reported":1723309584,"current_range_meters":19200,"station_id":"ce4bha12rcd13ifvqef0","pricing_plan_id":"cebpf4jnsgd1na2vs0mg"},{"bike_id":"b64506fa-ad3a-4e81-a421-2a414ce7c4bb","system_id":"levelo_inurba_marseille","lat":43.28039,"lon":5.369297,"is_reserved":false,"is_disabled":false,"rental_uris":{"android":"levelo://app?vid=b64506fa-ad3a-4e81-a421-2a414ce7c4bb","ios":"levelo://app?vid=b64506fa-ad3a-4e81-a421-2a414ce7c4bb"},"vehicle_type_id":"4","last_reported":1723309584,"current_range_meters":6400,"station_id":"ce4bha12rcd13ifvqef0","pricing_plan_id":"cebpf4jnsgd1na2vs0mg"},{"bike_id":"76b22081-5e6a-4f31-8572-30f8f4e389ad","system_id":"levelo_inurba_marseille","lat":43.28039,"lon":5.369297,"is_reserved":false,"is_disabled":false,"rental_uris":{"android":"levelo://app?vid=76b22081-5e6a-4f31-8572-30f8f4e389ad","ios":"levelo://app?vid=76b22081-5e6a-4f31-8572-30f8f4e389ad"},"vehicle_type_id":"4","last_reported":1723309584,"current_range_meters":5600,"station_id":"ce4bha12rcd13ifvqef0","pricing_plan_id":"cebpf4jnsgd1na2vs0mg"},{"bike_id":"0d67be5e-867f-4951-955e-ea019a32a56f","system_id":"levelo_inurba_marseille","lat":43.28038,"lon":5.36938,"is_reserved":false,"is_disabled":false,"rental_uris":{"android":"levelo://app?vid=0d67be5e-867f-4951-955e-ea019a32a56f","ios":"levelo://app?vid=0d67be5e-867f-4951-955e-ea019a32a56f"},"vehicle_type_id":"4","last_reported":1723309584,"current_range_meters":0,"station_id":"ce4bha12rcd13ifvqef0","pricing_plan_id":"cebpf4jnsgd1na2vs0mg"},{"bike_id":"e7e9bd0b-02c7-43bc-8d39-4f366b643d6f","system_id":"levelo_inurba_marseille","lat":43.28039,"lon":5.369297,"is_reserved":false,"is_disabled":false,"rental_uris":{"android":"levelo://app?vid=e7e9bd0b-02c7-43bc-8d39-4f366b643d6f","ios":"levelo://app?vid=e7e9bd0b-02c7-43bc-8d39-4f366b643d6f"},"vehicle_type_id":"4","last_reported":1723309584,"current_range_meters":5200,"station_id":"ce4bha12rcd13ifvqef0","pricing_plan_id":"cebpf4jnsgd1na2vs0mg"},{"bike_id":"f38f597b-2af0-429a-8457-bdbf5367345b","system_id":"levelo_inurba_marseille","lat":43.28039,"lon":5.369297,"is_reserved":false,"is_disabled":false,"rental_uris":{"android":"levelo://app?vid=f38f597b-2af0-429a-8457-bdbf5367345b","ios":"levelo://app?vid=f38f597b-2af0-429a-8457-bdbf5367345b"},"vehicle_type_id":"4","last_reported":1723309584,"current_range_meters":4400,"station_id":"ce4bha12rcd13ifvqef0","pricing_plan_id":"cebpf4jnsgd1na2vs0mg"},{"bike_id":"11c28ae3-8760-4f30-9559-71a973c27737","system_id":"levelo_inurba_marseille","lat":43.29049,"lon":5.39962,"is_reserved":false,"is_disabled":false,"rental_uris":{"android":"levelo://app?vid=11c28ae3-8760-4f30-9559-71a973c27737","ios":"levelo://app?vid=11c28ae3-8760-4f30-9559-71a973c27737"},"vehicle_type_id":"4","last_reported":1723309584,"current_range_meters":2800,"station_id":"ce4bh392rcd13ifvqdm0","pricing_plan_id":"cebpf4jnsgd1na2vs0mg"},{"bike_id":"a66f5a78-5b80-40bd-bef9-7e456d0df61a","system_id":"levelo_inurba_marseille","lat":43.29042,"lon":5.39964,"is_reserved":false,"is_disabled":false,"rental_uris":{"android":"levelo://app?vid=a66f5a78-5b80-40bd-bef9-7e456d0df61a","ios":"levelo://app?vid=a66f5a78-5b80-40bd-bef9-7e456d0df61a"},"vehicle_type_id":"4","last_reported":1723309584,"current_range_meters":0,"station_id":"ce4bh392rcd13ifvqdm0","pricing_plan_id":"cebpf4jnsgd1na2vs0mg"},{"bike_id":"9095f2bd-4686-42b5-9f9e-963eb77e413f","system_id":"levelo_inurba_marseille","lat":43.290444,"lon":5.399748,"is_reserved":false,"is_disabled":false,"rental_uris":{"android":"levelo://app?vid=9095f2bd-4686-42b5-9f9e-963eb77e413f","ios":"levelo://app?vid=9095f2bd-4686-42b5-9f9e-963eb77e413f"},"vehicle_type_id":"4","last_reported":1723309584,"current_range_meters":0,"station_id":"ce4bh392rcd13ifvqdm0","pricing_plan_id":"cebpf4jnsgd1na2vs0mg"},{"bike_id":"f1ae0fd5-09b8-4d87-a5bd-95ab60bdb566","system_id":"levelo_inurba_marseille","lat":43.281044,"lon":5.378308,"is_reserved":false,"is_disabled":false,"rental_uris":{"android":"levelo://app?vid=f1ae0fd5-09b8-4d87-a5bd-95ab60bdb566","ios":"levelo://app?vid=f1ae0fd5-09b8-4d87-a5bd-95ab60bdb566"},"vehicle_type_id":"4","last_reported":1723309584,"current_range_meters":14400,"station_id":"ce4bha12rcd13ifvqee0","pricing_plan_id":"cebpf4jnsgd1na2vs0mg"},{"bike_id":"cd76ed52-8f18-4000-bb89-bdd46668db64","system_id":"levelo_inurba_marseille","lat":43.281044,"lon":5.378308,"is_reserved":false,"is_disabled":false,"rental_uris":{"android":"levelo://app?vid=cd76ed52-8f18-4000-bb89-bdd46668db64","ios":"levelo://app?vid=cd76ed52-8f18-4000-bb89-bdd46668db64"},"vehicle_type_id":"4","last_reported":1723309584,"current_range_meters":800,"station_id":"ce4bha12rcd13ifvqee0","pricing_plan_id":"cebpf4jnsgd1na2vs0mg"},{"bike_id":"8b565b4f-2a64-43f4-bdd0-fd2fd3eb4b71","system_id":"levelo_inurba_marseille","lat":43.284462,"lon":5.392121,"is_reserved":false,"is_disabled":false,"rental_uris":{"android":"levelo://app?vid=8b565b4f-2a64-43f4-bdd0-fd2fd3eb4b71","ios":"levelo://app?vid=8b565b4f-2a64-43f4-bdd0-fd2fd3eb4b71"},"vehicle_type_id":"4","last_reported":1723309584,"current_range_meters":4400,"station_id":"ce4bhoh2rcd13ifvqh5g","pricing_plan_id":"cebpf4jnsgd1na2vs0mg"},{"bike_id":"f1f7d382-218c-4226-bae0-44fa784cef4e","system_id":"levelo_inurba_marseille","lat":43.30421,"lon":5.4128,"is_reserved":false,"is_disabled":false,"rental_uris":{"android":"levelo://app?vid=f1f7d382-218c-4226-bae0-44fa784cef4e","ios":"levelo://app?vid=f1f7d382-218c-4226-bae0-44fa784cef4e"},"vehicle_type_id":"4","last_reported":1723309584,"current_range_meters":0,"station_id":"ce4bhop2rcd13ifvqh8g","pricing_plan_id":"cebpf4jnsgd1na2vs0mg"},{"bike_id":"0a76cd60-3905-4524-9d16-ca0360a790ac","system_id":"levelo_inurba_marseille","lat":43.280719,"lon":5.384763,"is_reserved":false,"is_disabled":false,"rental_uris":{"android":"levelo://app?vid=0a76cd60-3905-4524-9d16-ca0360a790ac","ios":"levelo://app?vid=0a76cd60-3905-4524-9d16-ca0360a790ac"},"vehicle_type_id":"4","last_reported":1723309584,"current_range_meters":0,"station_id":"","pricing_plan_id":"cebpf4jnsgd1na2vs0mg"},{"bike_id":"da143e69-4edd-43e3-a141-7cc7fba7f18b","system_id":"levelo_inurba_marseille","lat":43.28081,"lon":5.38614,"is_reserved":false,"is_disabled":false,"rental_uris":{"android":"levelo://app?vid=da143e69-4edd-43e3-a141-7cc7fba7f18b","ios":"levelo://app?vid=da143e69-4edd-43e3-a141-7cc7fba7f18b"},"vehicle_type_id":"4","last_reported":1723309584,"current_range_meters":0,"station_id":"","pricing_plan_id":"cebpf4jnsgd1na2vs0mg"},{"bike_id":"ca11dd35-66aa-4154-b688-b28ef9b2bbd2","system_id":"levelo_inurba_marseille","lat":43.287154,"lon":5.399979,"is_reserved":false,"is_disabled":false,"rental_uris":{"android":"levelo://app?vid=ca11dd35-66aa-4154-b688-b28ef9b2bbd2","ios":"levelo://app?vid=ca11dd35-66aa-4154-b688-b28ef9b2bbd2"},"vehicle_type_id":"4","last_reported":1723309584,"current_range_meters":14400,"station_id":"ce4bho92rcd13ifvqh3g","pricing_plan_id":"cebpf4jnsgd1na2vs0mg"},{"bike_id":"4446ccd5-79d0-4bb6-a8e2-2667143af4c5","system_id":"levelo_inurba_marseille","lat":43.287154,"lon":5.399979,"is_reserved":false,"is_disabled":false,"rental_uris":{"android":"levelo://app?vid=4446ccd5-79d0-4bb6-a8e2-2667143af4c5","ios":"levelo://app?vid=4446ccd5-79d0-4bb6-a8e2-2667143af4c5"},"vehicle_type_id":"4","last_reported":1723309584,"current_range_meters":10000,"station_id":"ce4bho92rcd13ifvqh3g","pricing_plan_id":"cebpf4jnsgd1na2vs0mg"},{"bike_id":"ba00a34f-0afe-4bf8-96ef-22197c55fec5","system_id":"levelo_inurba_marseille","lat":43.287154,"lon":5.399979,"is_reserved":false,"is_disabled":false,"rental_uris":{"android":"levelo://app?vid=ba00a34f-0afe-4bf8-96ef-22197c55fec5","ios":"levelo://app?vid=ba00a34f-0afe-4bf8-96ef-22197c55fec5"},"vehicle_type_id":"4","last_reported":1723309584,"current_range_meters":5600,"station_id":"ce4bho92rcd13ifvqh3g","pricing_plan_id":"cebpf4jnsgd1na2vs0mg"},{"bike_id":"0e217051-11d9-43ed-817d-ea5f9a654ecc","system_id":"levelo_inurba_marseille","lat":43.320045,"lon":5.415046,"is_reserved":false,"is_disabled":false,"rental_uris":{"android":"levelo://app?vid=0e217051-11d9-43ed-817d-ea5f9a654ecc","ios":"levelo://app?vid=0e217051-11d9-43ed-817d-ea5f9a654ecc"},"vehicle_type_id":"4","last_reported":1723309584,"current_range_meters":25600,"station_id":"ce4bhq92rcd13ifvqhkg","pricing_plan_id":"cebpf4jnsgd1na2vs0mg"},{"bike_id":"18818cd9-39ba-4020-8f6a-67f43f1fc9f9","system_id":"levelo_inurba_marseille","lat":43.279742,"lon":5.38744,"is_reserved":false,"is_disabled":false,"rental_uris":{"android":"levelo://app?vid=18818cd9-39ba-4020-8f6a-67f43f1fc9f9","ios":"levelo://app?vid=18818cd9-39ba-4020-8f6a-67f43f1fc9f9"},"vehicle_type_id":"4","last_reported":1723309584,"current_range_meters":25200,"station_id":"ce4bhg12rcd13ifvqf80","pricing_plan_id":"cebpf4jnsgd1na2vs0mg"},{"bike_id":"a6a3a942-5dc4-4ed3-b7c1-50337fd35fd0","system_id":"levelo_inurba_marseille","lat":43.320045,"lon":5.415046,"is_reserved":false,"is_disabled":false,"rental_uris":{"android":"levelo://app?vid=a6a3a942-5dc4-4ed3-b7c1-50337fd35fd0","ios":"levelo://app?vid=a6a3a942-5dc4-4ed3-b7c1-50337fd35fd0"},"vehicle_type_id":"4","last_reported":1723309584,"current_range_meters":30000,"station_id":"ce4bhq92rcd13ifvqhkg","pricing_plan_id":"cebpf4jnsgd1na2vs0mg"},{"bike_id":"2dc60b78-80b4-43f3-8a30-eda247bbde42","system_id":"levelo_inurba_marseille","lat":43.320348,"lon":5.415696,"is_reserved":false,"is_disabled":false,"rental_uris":{"android":"levelo://app?vid=2dc60b78-80b4-43f3-8a30-eda247bbde42","ios":"levelo://app?vid=2dc60b78-80b4-43f3-8a30-eda247bbde42"},"vehicle_type_id":"4","last_reported":1723309584,"current_range_meters":2000,"station_id":"ce4bhq92rcd13ifvqhkg","pricing_plan_id":"cebpf4jnsgd1na2vs0mg"},{"bike_id":"f3724011-226a-4812-a294-fd40aa93b24d","system_id":"levelo_inurba_marseille","lat":43.320045,"lon":5.415048,"is_reserved":false,"is_disabled":false,"rental_uris":{"android":"levelo://app?vid=f3724011-226a-4812-a294-fd40aa93b24d","ios":"levelo://app?vid=f3724011-226a-4812-a294-fd40aa93b24d"},"vehicle_type_id":"4","last_reported":1723309584,"current_range_meters":26800,"station_id":"ce4bhq92rcd13ifvqhkg","pricing_plan_id":"cebpf4jnsgd1na2vs0mg"},{"bike_id":"b82d858a-91a0-49bf-a6fc-8ae898ab18fa","system_id":"levelo_inurba_marseille","lat":43.27854,"lon":5.38491,"is_reserved":false,"is_disabled":false,"rental_uris":{"android":"levelo://app?vid=b82d858a-91a0-49bf-a6fc-8ae898ab18fa","ios":"levelo://app?vid=b82d858a-91a0-49bf-a6fc-8ae898ab18fa"},"vehicle_type_id":"4","last_reported":1723309584,"current_range_meters":27200,"station_id":"","pricing_plan_id":"cebpf4jnsgd1na2vs0mg"},{"bike_id":"c8d2d28e-e182-4eb0-982d-7ee46f93c390","system_id":"levelo_inurba_marseille","lat":43.292571,"lon":5.409107,"is_reserved":false,"is_disabled":false,"rental_uris":{"android":"levelo://app?vid=c8d2d28e-e182-4eb0-982d-7ee46f93c390","ios":"levelo://app?vid=c8d2d28e-e182-4eb0-982d-7ee46f93c390"},"vehicle_type_id":"4","last_reported":1723309584,"current_range_meters":0,"station_id":"ce4bh192rcd13ifvqdc0","pricing_plan_id":"cebpf4jnsgd1na2vs0mg"},{"bike_id":"91704d56-5c0a-458d-a970-254e1c039ee9","system_id":"levelo_inurba_marseille","lat":43.292569,"lon":5.409107,"is_reserved":false,"is_disabled":false,"rental_uris":{"android":"levelo://app?vid=91704d56-5c0a-458d-a970-254e1c039ee9","ios":"levelo://app?vid=91704d56-5c0a-458d-a970-254e1c039ee9"},"vehicle_type_id":"4","last_reported":1723309584,"current_range_meters":15600,"station_id":"ce4bh192rcd13ifvqdc0","pricing_plan_id":"cebpf4jnsgd1na2vs0mg"},{"bike_id":"ef0f49b7-1ca7-4563-8fdc-bd187e7f4cc1","system_id":"levelo_inurba_marseille","lat":43.292569,"lon":5.409107,"is_reserved":false,"is_disabled":false,"rental_uris":{"android":"levelo://app?vid=ef0f49b7-1ca7-4563-8fdc-bd187e7f4cc1","ios":"levelo://app?vid=ef0f49b7-1ca7-4563-8fdc-bd187e7f4cc1"},"vehicle_type_id":"4","last_reported":1723309584,"current_range_meters":6800,"station_id":"ce4bh192rcd13ifvqdc0","pricing_plan_id":"cebpf4jnsgd1na2vs0mg"},{"bike_id":"36df2c3f-54b8-4aff-96ec-7dde8e0a1429","system_id":"levelo_inurba_marseille","lat":43.292571,"lon":5.409107,"is_reserved":false,"is_disabled":false,"rental_uris":{"android":"levelo://app?vid=36df2c3f-54b8-4aff-96ec-7dde8e0a1429","ios":"levelo://app?vid=36df2c3f-54b8-4aff-96ec-7dde8e0a1429"},"vehicle_type_id":"4","last_reported":1723309584,"current_range_meters":8400,"station_id":"ce4bh192rcd13ifvqdc0","pricing_plan_id":"cebpf4jnsgd1na2vs0mg"},{"bike_id":"689283c8-e78c-4663-b263-eda273de5cab","system_id":"levelo_inurba_marseille","lat":43.325243,"lon":5.414326,"is_reserved":false,"is_disabled":false,"rental_uris":{"android":"levelo://app?vid=689283c8-e78c-4663-b263-eda273de5cab","ios":"levelo://app?vid=689283c8-e78c-4663-b263-eda273de5cab"},"vehicle_type_id":"4","last_reported":1723309584,"current_range_meters":14000,"station_id":"ce4bhq12rcd13ifvqhhg","pricing_plan_id":"cebpf4jnsgd1na2vs0mg"},{"bike_id":"585ef216-8642-4d13-a682-a45a9fdb0911","system_id":"levelo_inurba_marseille","lat":43.29252,"lon":5.40916,"is_reserved":false,"is_disabled":false,"rental_uris":{"android":"levelo://app?vid=585ef216-8642-4d13-a682-a45a9fdb0911","ios":"levelo://app?vid=585ef216-8642-4d13-a682-a45a9fdb0911"},"vehicle_type_id":"4","last_reported":1723309584,"current_range_meters":19600,"station_id":"ce4bh192rcd13ifvqdc0","pricing_plan_id":"cebpf4jnsgd1na2vs0mg"},{"bike_id":"e086eb72-f7bb-402a-b082-b838908976dd","system_id":"levelo_inurba_marseille","lat":43.2927,"lon":5.40933,"is_reserved":false,"is_disabled":false,"rental_uris":{"android":"levelo://app?vid=e086eb72-f7bb-402a-b082-b838908976dd","ios":"levelo://app?vid=e086eb72-f7bb-402a-b082-b838908976dd"},"vehicle_type_id":"4","last_reported":1723309584,"current_range_meters":0,"station_id":"ce4bh192rcd13ifvqdc0","pricing_plan_id":"cebpf4jnsgd1na2vs0mg"},{"bike_id":"ae05ea62-c415-4a1e-b27a-50ad56398c89","system_id":"levelo_inurba_marseille","lat":43.276179,"lon":5.361009,"is_reserved":false,"is_disabled":false,"rental_uris":{"android":"levelo://app?vid=ae05ea62-c415-4a1e-b27a-50ad56398c89","ios":"levelo://app?vid=ae05ea62-c415-4a1e-b27a-50ad56398c89"},"vehicle_type_id":"4","last_reported":1723309584,"current_range_meters":15200,"station_id":"ce4bgj92rcd13ifvqbe0","pricing_plan_id":"cebpf4jnsgd1na2vs0mg"},{"bike_id":"0b76824a-eab2-4e90-bbbc-21b8f9e11aa2","system_id":"levelo_inurba_marseille","lat":43.280784,"lon":5.396622,"is_reserved":false,"is_disabled":false,"rental_uris":{"android":"levelo://app?vid=0b76824a-eab2-4e90-bbbc-21b8f9e11aa2","ios":"levelo://app?vid=0b76824a-eab2-4e90-bbbc-21b8f9e11aa2"},"vehicle_type_id":"4","last_reported":1723309584,"current_range_meters":6800,"station_id":"ce4bho12rcd13ifvqh2g","pricing_plan_id":"cebpf4jnsgd1na2vs0mg"},{"bike_id":"39c12587-4af0-4a27-80b7-1aa19e704bdc","system_id":"levelo_inurba_marseille","lat":43.280784,"lon":5.396622,"is_reserved":false,"is_disabled":false,"rental_uris":{"android":"levelo://app?vid=39c12587-4af0-4a27-80b7-1aa19e704bdc","ios":"levelo://app?vid=39c12587-4af0-4a27-80b7-1aa19e704bdc"},"vehicle_type_id":"4","last_reported":1723309584,"current_range_meters":26800,"station_id":"ce4bho12rcd13ifvqh2g","pricing_plan_id":"cebpf4jnsgd1na2vs0mg"},{"bike_id":"c4f54eaf-20b8-4eea-9ddb-3a15bd4be52e","system_id":"levelo_inurba_marseille","lat":43.273613,"lon":5.362705,"is_reserved":false,"is_disabled":false,"rental_uris":{"android":"levelo://app?vid=c4f54eaf-20b8-4eea-9ddb-3a15bd4be52e","ios":"levelo://app?vid=c4f54eaf-20b8-4eea-9ddb-3a15bd4be52e"},"vehicle_type_id":"4","last_reported":1723309584,"current_range_meters":0,"station_id":"ce4bhbh2rcd13ifvqeo0","pricing_plan_id":"cebpf4jnsgd1na2vs0mg"},{"bike_id":"4b938230-cf71-442e-aa70-e5ed959abf8d","system_id":"levelo_inurba_marseille","lat":43.27373,"lon":5.36258,"is_reserved":false,"is_disabled":false,"rental_uris":{"android":"levelo://app?vid=4b938230-cf71-442e-aa70-e5ed959abf8d","ios":"levelo://app?vid=4b938230-cf71-442e-aa70-e5ed959abf8d"},"vehicle_type_id":"4","last_reported":1723309584,"current_range_meters":0,"station_id":"ce4bhbh2rcd13ifvqeo0","pricing_plan_id":"cebpf4jnsgd1na2vs0mg"},{"bike_id":"492b5e9f-cd58-462f-a6fb-fe2380d3c325","system_id":"levelo_inurba_marseille","lat":43.27372,"lon":5.36237,"is_reserved":false,"is_disabled":false,"rental_uris":{"android":"levelo://app?vid=492b5e9f-cd58-462f-a6fb-fe2380d3c325","ios":"levelo://app?vid=492b5e9f-cd58-462f-a6fb-fe2380d3c325"},"vehicle_type_id":"4","last_reported":1723309584,"current_range_meters":20800,"station_id":"ce4bhbh2rcd13ifvqeo0","pricing_plan_id":"cebpf4jnsgd1na2vs0mg"},{"bike_id":"a30617bf-8406-404a-8a62-bda7e7505a0c","system_id":"levelo_inurba_marseille","lat":43.336134,"lon":5.410341,"is_reserved":false,"is_disabled":false,"rental_uris":{"android":"levelo://app?vid=a30617bf-8406-404a-8a62-bda7e7505a0c","ios":"levelo://app?vid=a30617bf-8406-404a-8a62-bda7e7505a0c"},"vehicle_type_id":"4","last_reported":1723309584,"current_range_meters":26000,"station_id":"ce4bhqh2rcd13ifvqhmg","pricing_plan_id":"cebpf4jnsgd1na2vs0mg"},{"bike_id":"f42b01b3-d319-4f41-b955-aeee1689ddf0","system_id":"levelo_inurba_marseille","lat":43.336134,"lon":5.410341,"is_reserved":false,"is_disabled":false,"rental_uris":{"android":"levelo://app?vid=f42b01b3-d319-4f41-b955-aeee1689ddf0","ios":"levelo://app?vid=f42b01b3-d319-4f41-b955-aeee1689ddf0"},"vehicle_type_id":"4","last_reported":1723309584,"current_range_meters":21600,"station_id":"ce4bhqh2rcd13ifvqhmg","pricing_plan_id":"cebpf4jnsgd1na2vs0mg"},{"bike_id":"2e46b9ba-c1c8-4b31-8494-33ab368399d9","system_id":"levelo_inurba_marseille","lat":43.279185,"lon":5.395692,"is_reserved":false,"is_disabled":false,"rental_uris":{"android":"levelo://app?vid=2e46b9ba-c1c8-4b31-8494-33ab368399d9","ios":"levelo://app?vid=2e46b9ba-c1c8-4b31-8494-33ab368399d9"},"vehicle_type_id":"4","last_reported":1723309584,"current_range_meters":22000,"station_id":"ce4bhf92rcd13ifvqf40","pricing_plan_id":"cebpf4jnsgd1na2vs0mg"},{"bike_id":"aa6b0c27-3333-4590-8ee1-794a48792c9e","system_id":"levelo_inurba_marseille","lat":43.28001,"lon":5.40005,"is_reserved":false,"is_disabled":false,"rental_uris":{"android":"levelo://app?vid=aa6b0c27-3333-4590-8ee1-794a48792c9e","ios":"levelo://app?vid=aa6b0c27-3333-4590-8ee1-794a48792c9e"},"vehicle_type_id":"4","last_reported":1723309584,"current_range_meters":0,"station_id":"ce4bho92rcd13ifvqh4g","pricing_plan_id":"cebpf4jnsgd1na2vs0mg"},{"bike_id":"9f3e5f0a-3c67-4dba-b0b7-059cde196091","system_id":"levelo_inurba_marseille","lat":43.279975,"lon":5.40009,"is_reserved":false,"is_disabled":false,"rental_uris":{"android":"levelo://app?vid=9f3e5f0a-3c67-4dba-b0b7-059cde196091","ios":"levelo://app?vid=9f3e5f0a-3c67-4dba-b0b7-059cde196091"},"vehicle_type_id":"4","last_reported":1723309584,"current_range_meters":26000,"station_id":"ce4bho92rcd13ifvqh4g","pricing_plan_id":"cebpf4jnsgd1na2vs0mg"},{"bike_id":"3a032edc-cd6b-444c-aa99-79d06ec476dd","system_id":"levelo_inurba_marseille","lat":43.279975,"lon":5.40009,"is_reserved":false,"is_disabled":false,"rental_uris":{"android":"levelo://app?vid=3a032edc-cd6b-444c-aa99-79d06ec476dd","ios":"levelo://app?vid=3a032edc-cd6b-444c-aa99-79d06ec476dd"},"vehicle_type_id":"4","last_reported":1723309584,"current_range_meters":400,"station_id":"ce4bho92rcd13ifvqh4g","pricing_plan_id":"cebpf4jnsgd1na2vs0mg"},{"bike_id":"673f67fd-f47c-422c-a2e5-8f7095229168","system_id":"levelo_inurba_marseille","lat":43.271406,"lon":5.376423,"is_reserved":false,"is_disabled":false,"rental_uris":{"android":"levelo://app?vid=673f67fd-f47c-422c-a2e5-8f7095229168","ios":"levelo://app?vid=673f67fd-f47c-422c-a2e5-8f7095229168"},"vehicle_type_id":"4","last_reported":1723309584,"current_range_meters":6000,"station_id":"","pricing_plan_id":"cebpf4jnsgd1na2vs0mg"},{"bike_id":"e581b755-7ef1-4862-9b70-d11549d9738e","system_id":"levelo_inurba_marseille","lat":43.340804,"lon":5.410219,"is_reserved":false,"is_disabled":false,"rental_uris":{"android":"levelo://app?vid=e581b755-7ef1-4862-9b70-d11549d9738e","ios":"levelo://app?vid=e581b755-7ef1-4862-9b70-d11549d9738e"},"vehicle_type_id":"4","last_reported":1723309584,"current_range_meters":26800,"station_id":"ce4bhqh2rcd13ifvqhlg","pricing_plan_id":"cebpf4jnsgd1na2vs0mg"},{"bike_id":"c4617a4c-cde1-411f-a472-e6b10eb8243c","system_id":"levelo_inurba_marseille","lat":43.273129,"lon":5.390725,"is_reserved":false,"is_disabled":false,"rental_uris":{"android":"levelo://app?vid=c4617a4c-cde1-411f-a472-e6b10eb8243c","ios":"levelo://app?vid=c4617a4c-cde1-411f-a472-e6b10eb8243c"},"vehicle_type_id":"4","last_reported":1723309584,"current_range_meters":8400,"station_id":"ce4bhgp2rcd13ifvqfe0","pricing_plan_id":"cebpf4jnsgd1na2vs0mg"},{"bike_id":"9c185370-0bbc-445e-8ad3-52fcdbdc5cfd","system_id":"levelo_inurba_marseille","lat":43.295511,"lon":5.422926,"is_reserved":false,"is_disabled":false,"rental_uris":{"android":"levelo://app?vid=9c185370-0bbc-445e-8ad3-52fcdbdc5cfd","ios":"levelo://app?vid=9c185370-0bbc-445e-8ad3-52fcdbdc5cfd"},"vehicle_type_id":"4","last_reported":1723309584,"current_range_meters":1200,"station_id":"ce4bhph2rcd13ifvqhdg","pricing_plan_id":"cebpf4jnsgd1na2vs0mg"},{"bike_id":"15a0b924-cb2c-4872-9cc6-864f93eeec31","system_id":"levelo_inurba_marseille","lat":43.29556,"lon":5.4229,"is_reserved":false,"is_disabled":false,"rental_uris":{"android":"levelo://app?vid=15a0b924-cb2c-4872-9cc6-864f93eeec31","ios":"levelo://app?vid=15a0b924-cb2c-4872-9cc6-864f93eeec31"},"vehicle_type_id":"4","last_reported":1723309584,"current_range_meters":26400,"station_id":"ce4bhph2rcd13ifvqhdg","pricing_plan_id":"cebpf4jnsgd1na2vs0mg"},{"bike_id":"9538d539-20aa-487b-b812-447eabeed658","system_id":"levelo_inurba_marseille","lat":43.295511,"lon":5.422926,"is_reserved":false,"is_disabled":false,"rental_uris":{"android":"levelo://app?vid=9538d539-20aa-487b-b812-447eabeed658","ios":"levelo://app?vid=9538d539-20aa-487b-b812-447eabeed658"},"vehicle_type_id":"4","last_reported":1723309584,"current_range_meters":12000,"station_id":"ce4bhph2rcd13ifvqhdg","pricing_plan_id":"cebpf4jnsgd1na2vs0mg"},{"bike_id":"948341f1-9b64-402a-81b5-cbac92e62a12","system_id":"levelo_inurba_marseille","lat":43.295523,"lon":5.4229,"is_reserved":false,"is_disabled":false,"rental_uris":{"android":"levelo://app?vid=948341f1-9b64-402a-81b5-cbac92e62a12","ios":"levelo://app?vid=948341f1-9b64-402a-81b5-cbac92e62a12"},"vehicle_type_id":"4","last_reported":1723309584,"current_range_meters":20000,"station_id":"ce4bhph2rcd13ifvqhdg","pricing_plan_id":"cebpf4jnsgd1na2vs0mg"},