{"last_updated":1779040106,"ttl":60,"version":"2.2","data":{"bikes":[{"bike_id":"447c9bf7-2fce-426d-9cd2-13a5b77f872a","system_id":"levelo_inurba_marseille","lat":43.28961,"lon":5.37846,"is_reserved":false,"is_disabled":false,"rental_uris":{"android":"levelo://app?vid=447c9bf7-2fce-426d-9cd2-13a5b77f872a","ios":"levelo://app?vid=447c9bf7-2fce-426d-9cd2-13a5b77f872a"},"vehicle_type_id":"4","last_reported":1779040107,"current_range_meters":2800,"station_id":"ce4bh9p2rcd13ifvqed0","pricing_plan_id":"cebpf4jnsgd1na2vs0mg"},{"bike_id":"57a8818b-6ba7-4617-8b68-22d76f3ed67d","system_id":"levelo_inurba_marseille","lat":43.323638,"lon":5.367685,"is_reserved":false,"is_disabled":false,"rental_uris":{"android":"levelo://app?vid=57a8818b-6ba7-4617-8b68-22d76f3ed67d","ios":"levelo://app?vid=57a8818b-6ba7-4617-8b68-22d76f3ed67d"},"vehicle_type_id":"4","last_reported":1779040107,"current_range_meters":2800,"station_id":"ce4bhsh2rcd13ifvqi2g","pricing_plan_id":"cebpf4jnsgd1na2vs0mg"},{"bike_id":"6dcaee60-eb35-4aad-b371-3f1ce3ad5df5","system_id":"levelo_inurba_marseille","lat":43.27956,"lon":5.38698,"is_reserved":false,"is_disabled":false,"rental_uris":{"android":"levelo://app?vid=6dcaee60-eb35-4aad-b371-3f1ce3ad5df5","ios":"levelo://app?vid=6dcaee60-eb35-4aad-b371-3f1ce3ad5df5"},"vehicle_type_id":"4","last_reported":1779040107,"current_range_meters":2800,"station_id":"ce4bhg12rcd13ifvqf80","pricing_plan_id":"cebpf4jnsgd1na2vs0mg"},{"bike_id":"310d9e84-292f-4abf-afb0-7457f91db7bb","system_id":"levelo_inurba_marseille","lat":43.29009,"lon":5.3561,"is_reserved":false,"is_disabled":false,"rental_uris":{"android":"levelo://app?vid=310d9e84-292f-4abf-afb0-7457f91db7bb","ios":"levelo://app?vid=310d9e84-292f-4abf-afb0-7457f91db7bb"},"vehicle_type_id":"4","last_reported":1779040107,"current_range_meters":2800,"station_id":"ce4bhb92rcd13ifvqen0","pricing_plan_id":"cebpf4jnsgd1na2vs0mg"},{"bike_id":"b5fa87f4-2e08-421e-aab3-166563c3d908","system_id":"levelo_inurba_marseille","lat":43.26952,"lon":5.40263,"is_reserved":false,"is_disabled":false,"rental_uris":{"android":"levelo://app?vid=b5fa87f4-2e08-421e-aab3-166563c3d908","ios":"levelo://app?vid=b5fa87f4-2e08-421e-aab3-166563c3d908"},"vehicle_type_id":"4","last_reported":1779040107,"current_range_meters":2800,"station_id":"cjm6bp8fraef2m0cb0m0","pricing_plan_id":"cebpf4jnsgd1na2vs0mg"},{"bike_id":"dfd00c25-3572-411e-9b30-e5ee65161520","system_id":"levelo_inurba_marseille","lat":43.2794,"lon":5.4104,"is_reserved":false,"is_disabled":false,"rental_uris":{"android":"levelo://app?vid=dfd00c25-3572-411e-9b30-e5ee65161520","ios":"levelo://app?vid=dfd00c25-3572-411e-9b30-e5ee65161520"},"vehicle_type_id":"4","last_reported":1779040107,"current_range_meters":2800,"station_id":"ce4bhnp2rcd13ifvqh0g","pricing_plan_id":"cebpf4jnsgd1na2vs0mg"},{"bike_id":"c4df9a32-2c02-41b7-b43b-8a5c21ed47ef","system_id":"levelo_inurba_marseille","lat":43.28713,"lon":5.46673,"is_reserved":false,"is_disabled":false,"rental_uris":{"android":"levelo://app?vid=c4df9a32-2c02-41b7-b43b-8a5c21ed47ef","ios":"levelo://app?vid=c4df9a32-2c02-41b7-b43b-8a5c21ed47ef"},"vehicle_type_id":"4","last_reported":1779040107,"current_range_meters":2800,"station_id":"st_d6tc3vkotcvc738tfjhg","pricing_plan_id":"cebpf4jnsgd1na2vs0mg"},{"bike_id":"dbe28cac-ed8b-484b-92db-28876b016a9e","system_id":"levelo_inurba_marseille","lat":43.29558,"lon":5.42295,"is_reserved":false,"is_disabled":false,"rental_uris":{"android":"levelo://app?vid=dbe28cac-ed8b-484b-92db-28876b016a9e","ios":"levelo://app?vid=dbe28cac-ed8b-484b-92db-28876b016a9e"},"vehicle_type_id":"4","last_reported":1779040107,"current_range_meters":2800,"station_id":"ce4bhph2rcd13ifvqhdg","pricing_plan_id":"cebpf4jnsgd1na2vs0mg"},{"bike_id":"d34e4908-c104-47b0-b3a9-d0187ab32b7e","system_id":"levelo_inurba_marseille","lat":43.260323,"lon":5.375496,"is_reserved":false,"is_disabled":false,"rental_uris":{"android":"levelo://app?vid=d34e4908-c104-47b0-b3a9-d0187ab32b7e","ios":"levelo://app?vid=d34e4908-c104-47b0-b3a9-d0187ab32b7e"},"vehicle_type_id":"4","last_reported":1779040107,"current_range_meters":2800,"station_id":"ce4bhgh2rcd13ifvqfa0","pricing_plan_id":"cebpf4jnsgd1na2vs0mg"},{"bike_id":"d8958b97-6998-476b-a807-5a987629bb25","system_id":"levelo_inurba_marseille","lat":43.23233,"lon":5.35614,"is_reserved":false,"is_disabled":false,"rental_uris":{"android":"levelo://app?vid=d8958b97-6998-476b-a807-5a987629bb25","ios":"levelo://app?vid=d8958b97-6998-476b-a807-5a987629bb25"},"vehicle_type_id":"4","last_reported":1779040107,"current_range_meters":2800,"station_id":"","pricing_plan_id":"cebpf4jnsgd1na2vs0mg"},{"bike_id":"c1f27724-6815-44b6-8ef1-3ec5c6f61258","system_id":"levelo_inurba_marseille","lat":43.27208,"lon":5.39182,"is_reserved":false,"is_disabled":false,"rental_uris":{"android":"levelo://app?vid=c1f27724-6815-44b6-8ef1-3ec5c6f61258","ios":"levelo://app?vid=c1f27724-6815-44b6-8ef1-3ec5c6f61258"},"vehicle_type_id":"4","last_reported":1779040107,"current_range_meters":2800,"station_id":"ce4bhhp2rcd13ifvqfm0","pricing_plan_id":"cebpf4jnsgd1na2vs0mg"},{"bike_id":"bf19b0b6-2abd-4cc7-8495-1655e5dc96ec","system_id":"levelo_inurba_marseille","lat":43.24178,"lon":5.39732,"is_reserved":false,"is_disabled":false,"rental_uris":{"android":"levelo://app?vid=bf19b0b6-2abd-4cc7-8495-1655e5dc96ec","ios":"levelo://app?vid=bf19b0b6-2abd-4cc7-8495-1655e5dc96ec"},"vehicle_type_id":"4","last_reported":1779040107,"current_range_meters":2800,"station_id":"ce4bhn12rcd13ifvqgpg","pricing_plan_id":"cebpf4jnsgd1na2vs0mg"},{"bike_id":"d1c1fead-fe04-4196-9748-3f6e20a96633","system_id":"levelo_inurba_marseille","lat":43.27602,"lon":5.36102,"is_reserved":false,"is_disabled":true,"rental_uris":{"android":"levelo://app?vid=d1c1fead-fe04-4196-9748-3f6e20a96633","ios":"levelo://app?vid=d1c1fead-fe04-4196-9748-3f6e20a96633"},"vehicle_type_id":"4","last_reported":1779040107,"current_range_meters":3200,"station_id":"ce4bgj92rcd13ifvqbe0","pricing_plan_id":"cebpf4jnsgd1na2vs0mg"},{"bike_id":"bffa2715-2a39-482a-a3f9-4abe122b7ddf","system_id":"levelo_inurba_marseille","lat":43.21211,"lon":5.35059,"is_reserved":false,"is_disabled":false,"rental_uris":{"android":"levelo://app?vid=bffa2715-2a39-482a-a3f9-4abe122b7ddf","ios":"levelo://app?vid=bffa2715-2a39-482a-a3f9-4abe122b7ddf"},"vehicle_type_id":"4","last_reported":1779040107,"current_range_meters":3200,"station_id":"st_cvj6sg6p6f1abm77japg","pricing_plan_id":"cebpf4jnsgd1na2vs0mg"},{"bike_id":"61c9b49a-b7a7-4944-b1ef-ae7b4f3816eb","system_id":"levelo_inurba_marseille","lat":43.28605,"lon":5.36396,"is_reserved":false,"is_disabled":false,"rental_uris":{"android":"levelo://app?vid=61c9b49a-b7a7-4944-b1ef-ae7b4f3816eb","ios":"levelo://app?vid=61c9b49a-b7a7-4944-b1ef-ae7b4f3816eb"},"vehicle_type_id":"4","last_reported":1779040107,"current_range_meters":3200,"station_id":"","pricing_plan_id":"cebpf4jnsgd1na2vs0mg"},{"bike_id":"d22e4ca3-f6f4-4580-b89a-0139e6ac4908","system_id":"levelo_inurba_marseille","lat":43.24658,"lon":5.41586,"is_reserved":false,"is_disabled":false,"rental_uris":{"android":"levelo://app?vid=d22e4ca3-f6f4-4580-b89a-0139e6ac4908","ios":"levelo://app?vid=d22e4ca3-f6f4-4580-b89a-0139e6ac4908"},"vehicle_type_id":"4","last_reported":1779040107,"current_range_meters":3200,"station_id":"","pricing_plan_id":"cebpf4jnsgd1na2vs0mg"},{"bike_id":"4e8d6a9f-b194-4a2f-95b1-e52973c65f50","system_id":"levelo_inurba_marseille","lat":43.29358,"lon":5.37863,"is_reserved":false,"is_disabled":false,"rental_uris":{"android":"levelo://app?vid=4e8d6a9f-b194-4a2f-95b1-e52973c65f50","ios":"levelo://app?vid=4e8d6a9f-b194-4a2f-95b1-e52973c65f50"},"vehicle_type_id":"4","last_reported":1779040107,"current_range_meters":3200,"station_id":"ce4bgjh2rcd13ifvqbf0","pricing_plan_id":"cebpf4jnsgd1na2vs0mg"},{"bike_id":"454f6a56-bd78-45d3-a830-65d016fa90f7","system_id":"levelo_inurba_marseille","lat":43.2945,"lon":5.38637,"is_reserved":false,"is_disabled":false,"rental_uris":{"android":"levelo://app?vid=454f6a56-bd78-45d3-a830-65d016fa90f7","ios":"levelo://app?vid=454f6a56-bd78-45d3-a830-65d016fa90f7"},"vehicle_type_id":"4","last_reported":1779040107,"current_range_meters":3200,"station_id":"","pricing_plan_id":"cebpf4jnsgd1na2vs0mg"},{"bike_id":"d712c6ad-51f6-437c-9555-6695df650f1e","system_id":"levelo_inurba_marseille","lat":43.31884,"lon":5.36818,"is_reserved":false,"is_disabled":false,"rental_uris":{"android":"levelo://app?vid=d712c6ad-51f6-437c-9555-6695df650f1e","ios":"levelo://app?vid=d712c6ad-51f6-437c-9555-6695df650f1e"},"vehicle_type_id":"4","last_reported":1779040107,"current_range_meters":3200,"station_id":"st_d6o2h0d0559c73evc1b0","pricing_plan_id":"cebpf4jnsgd1na2vs0mg"},{"bike_id":"4373774c-578b-4512-93b5-cfbc68f8fa68","system_id":"levelo_inurba_marseille","lat":43.29519,"lon":5.39409,"is_reserved":false,"is_disabled":false,"rental_uris":{"android":"levelo://app?vid=4373774c-578b-4512-93b5-cfbc68f8fa68","ios":"levelo://app?vid=4373774c-578b-4512-93b5-cfbc68f8fa68"},"vehicle_type_id":"4","last_reported":1779040107,"current_range_meters":3200,"station_id":"ce4bh292rcd13ifvqdf0","pricing_plan_id":"cebpf4jnsgd1na2vs0mg"},{"bike_id":"31d0d61d-ea57-4488-996c-c0fc08946edd","system_id":"levelo_inurba_marseille","lat":43.26569,"lon":5.38994,"is_reserved":false,"is_disabled":false,"rental_uris":{"android":"levelo://app?vid=31d0d61d-ea57-4488-996c-c0fc08946edd","ios":"levelo://app?vid=31d0d61d-ea57-4488-996c-c0fc08946edd"},"vehicle_type_id":"4","last_reported":1779040107,"current_range_meters":3200,"station_id":"ce4bhe12rcd13ifvqf30","pricing_plan_id":"cebpf4jnsgd1na2vs0mg"},{"bike_id":"3686cd93-ca6b-490b-8851-66fb19f1cbc1","system_id":"levelo_inurba_marseille","lat":43.27194,"lon":5.39112,"is_reserved":false,"is_disabled":false,"rental_uris":{"android":"levelo://app?vid=3686cd93-ca6b-490b-8851-66fb19f1cbc1","ios":"levelo://app?vid=3686cd93-ca6b-490b-8851-66fb19f1cbc1"},"vehicle_type_id":"4","last_reported":1779040107,"current_range_meters":3200,"station_id":"","pricing_plan_id":"cebpf4jnsgd1na2vs0mg"},{"bike_id":"224768a0-541e-4e4e-9034-60de35df4b5a","system_id":"levelo_inurba_marseille","lat":43.29566,"lon":5.39981,"is_reserved":false,"is_disabled":false,"rental_uris":{"android":"levelo://app?vid=224768a0-541e-4e4e-9034-60de35df4b5a","ios":"levelo://app?vid=224768a0-541e-4e4e-9034-60de35df4b5a"},"vehicle_type_id":"4","last_reported":1779040107,"current_range_meters":3200,"station_id":"ce4bh312rcd13ifvqdj0","pricing_plan_id":"cebpf4jnsgd1na2vs0mg"},{"bike_id":"46e6422a-afd7-4301-8768-9893d98d65e8","system_id":"levelo_inurba_marseille","lat":43.29041,"lon":5.399548,"is_reserved":false,"is_disabled":false,"rental_uris":{"android":"levelo://app?vid=46e6422a-afd7-4301-8768-9893d98d65e8","ios":"levelo://app?vid=46e6422a-afd7-4301-8768-9893d98d65e8"},"vehicle_type_id":"4","last_reported":1779040107,"current_range_meters":3200,"station_id":"ce4bh392rcd13ifvqdm0","pricing_plan_id":"cebpf4jnsgd1na2vs0mg"},{"bike_id":"83395a78-e9e9-4d05-b914-9cab090a7e41","system_id":"levelo_inurba_marseille","lat":43.2257,"lon":5.41633,"is_reserved":false,"is_disabled":false,"rental_uris":{"android":"levelo://app?vid=83395a78-e9e9-4d05-b914-9cab090a7e41","ios":"levelo://app?vid=83395a78-e9e9-4d05-b914-9cab090a7e41"},"vehicle_type_id":"4","last_reported":1779040107,"current_range_meters":3600,"station_id":"st_d2o4gvlbi1j2169b742g","pricing_plan_id":"cebpf4jnsgd1na2vs0mg"},{"bike_id":"74c5a63b-2f80-4bb3-9618-e60d8f59c76b","system_id":"levelo_inurba_marseille","lat":43.28767,"lon":5.46753,"is_reserved":false,"is_disabled":false,"rental_uris":{"android":"levelo://app?vid=74c5a63b-2f80-4bb3-9618-e60d8f59c76b","ios":"levelo://app?vid=74c5a63b-2f80-4bb3-9618-e60d8f59c76b"},"vehicle_type_id":"4","last_reported":1779040107,"current_range_meters":3600,"station_id":"st_d6tc3vkotcvc738tfjhg","pricing_plan_id":"cebpf4jnsgd1na2vs0mg"},{"bike_id":"cc4d3a9f-820b-4968-b146-a1e09c7d7b0c","system_id":"levelo_inurba_marseille","lat":43.25103,"lon":5.39546,"is_reserved":false,"is_disabled":false,"rental_uris":{"android":"levelo://app?vid=cc4d3a9f-820b-4968-b146-a1e09c7d7b0c","ios":"levelo://app?vid=cc4d3a9f-820b-4968-b146-a1e09c7d7b0c"},"vehicle_type_id":"4","last_reported":1779040107,"current_range_meters":3600,"station_id":"ce4bhm12rcd13ifvqgkg","pricing_plan_id":"cebpf4jnsgd1na2vs0mg"},{"bike_id":"45416c1e-83b2-4dd3-a46f-a2d8eb08a267","system_id":"levelo_inurba_marseille","lat":43.29756,"lon":5.37747,"is_reserved":false,"is_disabled":true,"rental_uris":{"android":"levelo://app?vid=45416c1e-83b2-4dd3-a46f-a2d8eb08a267","ios":"levelo://app?vid=45416c1e-83b2-4dd3-a46f-a2d8eb08a267"},"vehicle_type_id":"4","last_reported":1779040107,"current_range_meters":3600,"station_id":"ce4bgkh2rcd13ifvqbl0","pricing_plan_id":"cebpf4jnsgd1na2vs0mg"},{"bike_id":"14be98d9-f6f1-4e77-9898-d9b3e12137c2","system_id":"levelo_inurba_marseille","lat":43.21749,"lon":5.34611,"is_reserved":false,"is_disabled":true,"rental_uris":{"android":"levelo://app?vid=14be98d9-f6f1-4e77-9898-d9b3e12137c2","ios":"levelo://app?vid=14be98d9-f6f1-4e77-9898-d9b3e12137c2"},"vehicle_type_id":"4","last_reported":1779040107,"current_range_meters":3600,"station_id":"st_cvj6r9ubvosntc0bgbag","pricing_plan_id":"cebpf4jnsgd1na2vs0mg"},{"bike_id":"ddc3bf1a-99f5-4794-a812-95dc9e2e165b","system_id":"levelo_inurba_marseille","lat":43.23915,"lon":5.37462,"is_reserved":false,"is_disabled":true,"rental_uris":{"android":"levelo://app?vid=ddc3bf1a-99f5-4794-a812-95dc9e2e165b","ios":"levelo://app?vid=ddc3bf1a-99f5-4794-a812-95dc9e2e165b"},"vehicle_type_id":"4","last_reported":1779040107,"current_range_meters":3600,"station_id":"st_d6sm7csbq4hs73f8fpjg","pricing_plan_id":"cebpf4jnsgd1na2vs0mg"},{"bike_id":"745e5c03-61e2-43ba-8a12-c02f8816de13","system_id":"levelo_inurba_marseille","lat":43.21196,"lon":5.35082,"is_reserved":false,"is_disabled":false,"rental_uris":{"android":"levelo://app?vid=745e5c03-61e2-43ba-8a12-c02f8816de13","ios":"levelo://app?vid=745e5c03-61e2-43ba-8a12-c02f8816de13"},"vehicle_type_id":"4","last_reported":1779040107,"current_range_meters":3600,"station_id":"st_cvj6sg6p6f1abm77japg","pricing_plan_id":"cebpf4jnsgd1na2vs0mg"},{"bike_id":"1fcf1fe6-3a5b-42d2-bfcf-8d013b2941cc","system_id":"levelo_inurba_marseille","lat":43.33549,"lon":5.37445,"is_reserved":false,"is_disabled":false,"rental_uris":{"android":"levelo://app?vid=1fcf1fe6-3a5b-42d2-bfcf-8d013b2941cc","ios":"levelo://app?vid=1fcf1fe6-3a5b-42d2-bfcf-8d013b2941cc"},"vehicle_type_id":"4","last_reported":1779040107,"current_range_meters":3600,"station_id":"st_d46tts09ee8s73dlu43g","pricing_plan_id":"cebpf4jnsgd1na2vs0mg"},{"bike_id":"1f739346-4ae4-4ed7-afef-9ecf0ab6914e","system_id":"levelo_inurba_marseille","lat":43.25507,"lon":5.37654,"is_reserved":false,"is_disabled":true,"rental_uris":{"android":"levelo://app?vid=1f739346-4ae4-4ed7-afef-9ecf0ab6914e","ios":"levelo://app?vid=1f739346-4ae4-4ed7-afef-9ecf0ab6914e"},"vehicle_type_id":"4","last_reported":1779040107,"current_range_meters":3600,"station_id":"ce4bhh12rcd13ifvqff0","pricing_plan_id":"cebpf4jnsgd1na2vs0mg"},{"bike_id":"e852e4ed-0ce9-4cbd-aba0-cfc03203bcdf","system_id":"levelo_inurba_marseille","lat":43.27968,"lon":5.38721,"is_reserved":false,"is_disabled":false,"rental_uris":{"android":"levelo://app?vid=e852e4ed-0ce9-4cbd-aba0-cfc03203bcdf","ios":"levelo://app?vid=e852e4ed-0ce9-4cbd-aba0-cfc03203bcdf"},"vehicle_type_id":"4","last_reported":1779040107,"current_range_meters":3600,"station_id":"ce4bhg12rcd13ifvqf80","pricing_plan_id":"cebpf4jnsgd1na2vs0mg"},{"bike_id":"f28dc1d5-203e-4bde-a185-c38ae31f1741","system_id":"levelo_inurba_marseille","lat":43.29866,"lon":5.39744,"is_reserved":false,"is_disabled":false,"rental_uris":{"android":"levelo://app?vid=f28dc1d5-203e-4bde-a185-c38ae31f1741","ios":"levelo://app?vid=f28dc1d5-203e-4bde-a185-c38ae31f1741"},"vehicle_type_id":"4","last_reported":1779040107,"current_range_meters":3600,"station_id":"ce4bh0h2rcd13ifvqd50","pricing_plan_id":"cebpf4jnsgd1na2vs0mg"},{"bike_id":"3f4258db-dcae-4bbe-9322-cfeb70e4031c","system_id":"levelo_inurba_marseille","lat":43.23382,"lon":5.41238,"is_reserved":false,"is_disabled":false,"rental_uris":{"android":"levelo://app?vid=3f4258db-dcae-4bbe-9322-cfeb70e4031c","ios":"levelo://app?vid=3f4258db-dcae-4bbe-9322-cfeb70e4031c"},"vehicle_type_id":"4","last_reported":1779040107,"current_range_meters":3600,"station_id":"st_d75pvndhf9lc73cqq3eg","pricing_plan_id":"cebpf4jnsgd1na2vs0mg"},{"bike_id":"b1dd7dc7-192d-48f1-80c1-27794307c003","system_id":"levelo_inurba_marseille","lat":43.26227,"lon":5.4046,"is_reserved":false,"is_disabled":false,"rental_uris":{"android":"levelo://app?vid=b1dd7dc7-192d-48f1-80c1-27794307c003","ios":"levelo://app?vid=b1dd7dc7-192d-48f1-80c1-27794307c003"},"vehicle_type_id":"4","last_reported":1779040107,"current_range_meters":3600,"station_id":"ce4bhmh2rcd13ifvqgmg","pricing_plan_id":"cebpf4jnsgd1na2vs0mg"},{"bike_id":"967bf265-962f-4ea4-8b7e-fd5afbd016bc","system_id":"levelo_inurba_marseille","lat":43.2466,"lon":5.3816,"is_reserved":false,"is_disabled":false,"rental_uris":{"android":"levelo://app?vid=967bf265-962f-4ea4-8b7e-fd5afbd016bc","ios":"levelo://app?vid=967bf265-962f-4ea4-8b7e-fd5afbd016bc"},"vehicle_type_id":"4","last_reported":1779040107,"current_range_meters":3600,"station_id":"ce4bhih2rcd13ifvqfr0","pricing_plan_id":"cebpf4jnsgd1na2vs0mg"},{"bike_id":"6c2000d6-446d-407f-9c51-7f605fa9a7bc","system_id":"levelo_inurba_marseille","lat":43.31715,"lon":5.43704,"is_reserved":false,"is_disabled":false,"rental_uris":{"android":"levelo://app?vid=6c2000d6-446d-407f-9c51-7f605fa9a7bc","ios":"levelo://app?vid=6c2000d6-446d-407f-9c51-7f605fa9a7bc"},"vehicle_type_id":"4","last_reported":1779040107,"current_range_meters":3600,"station_id":"ce4bhp92rcd13ifvqhcg","pricing_plan_id":"cebpf4jnsgd1na2vs0mg"},{"bike_id":"a1e590af-4ebb-4d7d-a8d7-c709f66eaca6","system_id":"levelo_inurba_marseille","lat":43.2781,"lon":5.4071,"is_reserved":false,"is_disabled":false,"rental_uris":{"android":"levelo://app?vid=a1e590af-4ebb-4d7d-a8d7-c709f66eaca6","ios":"levelo://app?vid=a1e590af-4ebb-4d7d-a8d7-c709f66eaca6"},"vehicle_type_id":"4","last_reported":1779040107,"current_range_meters":3600,"station_id":"ce4bhnh2rcd13ifvqgtg","pricing_plan_id":"cebpf4jnsgd1na2vs0mg"},{"bike_id":"f3503de3-85a0-44c2-bcd0-ad37579a4ff3","system_id":"levelo_inurba_marseille","lat":43.29274,"lon":5.40167,"is_reserved":false,"is_disabled":false,"rental_uris":{"android":"levelo://app?vid=f3503de3-85a0-44c2-bcd0-ad37579a4ff3","ios":"levelo://app?vid=f3503de3-85a0-44c2-bcd0-ad37579a4ff3"},"vehicle_type_id":"4","last_reported":1779040107,"current_range_meters":3600,"station_id":"ce4bh312rcd13ifvqdk0","pricing_plan_id":"cebpf4jnsgd1na2vs0mg"},{"bike_id":"5f738f9e-6355-4fdf-892f-d462d8672222","system_id":"levelo_inurba_marseille","lat":43.26762,"lon":5.39452,"is_reserved":false,"is_disabled":false,"rental_uris":{"android":"levelo://app?vid=5f738f9e-6355-4fdf-892f-d462d8672222","ios":"levelo://app?vid=5f738f9e-6355-4fdf-892f-d462d8672222"},"vehicle_type_id":"4","last_reported":1779040107,"current_range_meters":3600,"station_id":"ce4bhh12rcd13ifvqfg0","pricing_plan_id":"cebpf4jnsgd1na2vs0mg"},{"bike_id":"042e6a03-1057-4e17-afc8-a9e1a3088174","system_id":"levelo_inurba_marseille","lat":43.28441,"lon":5.39186,"is_reserved":false,"is_disabled":false,"rental_uris":{"android":"levelo://app?vid=042e6a03-1057-4e17-afc8-a9e1a3088174","ios":"levelo://app?vid=042e6a03-1057-4e17-afc8-a9e1a3088174"},"vehicle_type_id":"4","last_reported":1779040107,"current_range_meters":4000,"station_id":"ce4bhoh2rcd13ifvqh5g","pricing_plan_id":"cebpf4jnsgd1na2vs0mg"},{"bike_id":"39da638a-63b0-4c5e-a781-262e1080ed5f","system_id":"levelo_inurba_marseille","lat":43.2801,"lon":5.40008,"is_reserved":false,"is_disabled":false,"rental_uris":{"android":"levelo://app?vid=39da638a-63b0-4c5e-a781-262e1080ed5f","ios":"levelo://app?vid=39da638a-63b0-4c5e-a781-262e1080ed5f"},"vehicle_type_id":"4","last_reported":1779040107,"current_range_meters":4000,"station_id":"ce4bho92rcd13ifvqh4g","pricing_plan_id":"cebpf4jnsgd1na2vs0mg"},{"bike_id":"0eec5137-cd05-4421-87a9-fdebbdb1c0f9","system_id":"levelo_inurba_marseille","lat":43.33539,"lon":5.37466,"is_reserved":false,"is_disabled":false,"rental_uris":{"android":"levelo://app?vid=0eec5137-cd05-4421-87a9-fdebbdb1c0f9","ios":"levelo://app?vid=0eec5137-cd05-4421-87a9-fdebbdb1c0f9"},"vehicle_type_id":"4","last_reported":1779040107,"current_range_meters":4000,"station_id":"st_d46tts09ee8s73dlu43g","pricing_plan_id":"cebpf4jnsgd1na2vs0mg"},{"bike_id":"57575a55-e9c7-4a72-8832-afd5e0062722","system_id":"levelo_inurba_marseille","lat":43.29262,"lon":5.38444,"is_reserved":false,"is_disabled":false,"rental_uris":{"android":"levelo://app?vid=57575a55-e9c7-4a72-8832-afd5e0062722","ios":"levelo://app?vid=57575a55-e9c7-4a72-8832-afd5e0062722"},"vehicle_type_id":"4","last_reported":1779040107,"current_range_meters":4000,"station_id":"ce4bh692rcd13ifvqea0","pricing_plan_id":"cebpf4jnsgd1na2vs0mg"},{"bike_id":"df7b503f-4bb6-44bd-aa33-dff6be9c7bd4","system_id":"levelo_inurba_marseille","lat":43.298812,"lon":5.388988,"is_reserved":false,"is_disabled":false,"rental_uris":{"android":"levelo://app?vid=df7b503f-4bb6-44bd-aa33-dff6be9c7bd4","ios":"levelo://app?vid=df7b503f-4bb6-44bd-aa33-dff6be9c7bd4"},"vehicle_type_id":"4","last_reported":1779040107,"current_range_meters":4000,"station_id":"ce4bh392rcd13ifvqdl0","pricing_plan_id":"cebpf4jnsgd1na2vs0mg"},{"bike_id":"084a15e1-5253-46ae-abb0-2123f63032d9","system_id":"levelo_inurba_marseille","lat":43.27667,"lon":5.41383,"is_reserved":false,"is_disabled":false,"rental_uris":{"android":"levelo://app?vid=084a15e1-5253-46ae-abb0-2123f63032d9","ios":"levelo://app?vid=084a15e1-5253-46ae-abb0-2123f63032d9"},"vehicle_type_id":"4","last_reported":1779040107,"current_range_meters":4000,"station_id":"","pricing_plan_id":"cebpf4jnsgd1na2vs0mg"},{"bike_id":"efec0f5e-de3c-4d58-bd6a-818ef4098bac","system_id":"levelo_inurba_marseille","lat":43.25591,"lon":5.38251,"is_reserved":false,"is_disabled":false,"rental_uris":{"android":"levelo://app?vid=efec0f5e-de3c-4d58-bd6a-818ef4098bac","ios":"levelo://app?vid=efec0f5e-de3c-4d58-bd6a-818ef4098bac"},"vehicle_type_id":"4","last_reported":1779040107,"current_range_meters":4000,"station_id":"ce4bhih2rcd13ifvqfs0","pricing_plan_id":"cebpf4jnsgd1na2vs0mg"},{"bike_id":"8396cec4-0d34-4d94-a454-895e6c420ef9","system_id":"levelo_inurba_marseille","lat":43.26539,"lon":5.39036,"is_reserved":false,"is_disabled":true,"rental_uris":{"android":"levelo://app?vid=8396cec4-0d34-4d94-a454-895e6c420ef9","ios":"levelo://app?vid=8396cec4-0d34-4d94-a454-895e6c420ef9"},"vehicle_type_id":"4","last_reported":1779040107,"current_range_meters":4000,"station_id":"ce4bhe12rcd13ifvqf30","pricing_plan_id":"cebpf4jnsgd1na2vs0mg"},{"bike_id":"45987a92-f964-4ab8-a689-b969c3b3e107","system_id":"levelo_inurba_marseille","lat":43.284762,"lon":5.384218,"is_reserved":false,"is_disabled":false,"rental_uris":{"android":"levelo://app?vid=45987a92-f964-4ab8-a689-b969c3b3e107","ios":"levelo://app?vid=45987a92-f964-4ab8-a689-b969c3b3e107"},"vehicle_type_id":"4","last_reported":1779040107,"current_range_meters":4000,"station_id":"ce4bh512rcd13ifvqe3g","pricing_plan_id":"cebpf4jnsgd1na2vs0mg"},{"bike_id":"8112da1c-b03d-49ad-91fa-d38c5c1a2c58","system_id":"levelo_inurba_marseille","lat":43.26225,"lon":5.37447,"is_reserved":false,"is_disabled":false,"rental_uris":{"android":"levelo://app?vid=8112da1c-b03d-49ad-91fa-d38c5c1a2c58","ios":"levelo://app?vid=8112da1c-b03d-49ad-91fa-d38c5c1a2c58"},"vehicle_type_id":"4","last_reported":1779040107,"current_range_meters":4000,"station_id":"","pricing_plan_id":"cebpf4jnsgd1na2vs0mg"},{"bike_id":"e21e19db-59df-42d7-b22f-d64fa7f835d0","system_id":"levelo_inurba_marseille","lat":43.21183,"lon":5.35076,"is_reserved":false,"is_disabled":false,"rental_uris":{"android":"levelo://app?vid=e21e19db-59df-42d7-b22f-d64fa7f835d0","ios":"levelo://app?vid=e21e19db-59df-42d7-b22f-d64fa7f835d0"},"vehicle_type_id":"4","last_reported":1779040107,"current_range_meters":4000,"station_id":"st_cvj6sg6p6f1abm77japg","pricing_plan_id":"cebpf4jnsgd1na2vs0mg"},{"bike_id":"84a343c7-92c0-42ee-869d-43310954b8b1","system_id":"levelo_inurba_marseille","lat":43.225281,"lon":5.348366,"is_reserved":false,"is_disabled":true,"rental_uris":{"android":"levelo://app?vid=84a343c7-92c0-42ee-869d-43310954b8b1","ios":"levelo://app?vid=84a343c7-92c0-42ee-869d-43310954b8b1"},"vehicle_type_id":"4","last_reported":1779040107,"current_range_meters":4000,"station_id":"st_cvj5dfep6f1abm77gieg","pricing_plan_id":"cebpf4jnsgd1na2vs0mg"},{"bike_id":"c4213db6-d80a-458c-896d-c0f83a19c9e5","system_id":"levelo_inurba_marseille","lat":43.26019,"lon":5.37558,"is_reserved":false,"is_disabled":true,"rental_uris":{"android":"levelo://app?vid=c4213db6-d80a-458c-896d-c0f83a19c9e5","ios":"levelo://app?vid=c4213db6-d80a-458c-896d-c0f83a19c9e5"},"vehicle_type_id":"4","last_reported":1779040107,"current_range_meters":4000,"station_id":"ce4bhgh2rcd13ifvqfa0","pricing_plan_id":"cebpf4jnsgd1na2vs0mg"},{"bike_id":"aa096572-57c1-4edc-a224-029db130a472","system_id":"levelo_inurba_marseille","lat":43.28029,"lon":5.36936,"is_reserved":false,"is_disabled":false,"rental_uris":{"android":"levelo://app?vid=aa096572-57c1-4edc-a224-029db130a472","ios":"levelo://app?vid=aa096572-57c1-4edc-a224-029db130a472"},"vehicle_type_id":"4","last_reported":1779040107,"current_range_meters":4000,"station_id":"ce4bha12rcd13ifvqef0","pricing_plan_id":"cebpf4jnsgd1na2vs0mg"},{"bike_id":"314ed82b-0e0d-4385-be6c-0a511711d36f","system_id":"levelo_inurba_marseille","lat":43.27495,"lon":5.42451,"is_reserved":false,"is_disabled":false,"rental_uris":{"android":"levelo://app?vid=314ed82b-0e0d-4385-be6c-0a511711d36f","ios":"levelo://app?vid=314ed82b-0e0d-4385-be6c-0a511711d36f"},"vehicle_type_id":"4","last_reported":1779040107,"current_range_meters":4000,"station_id":"ce4bhn92rcd13ifvqgrg","pricing_plan_id":"cebpf4jnsgd1na2vs0mg"},{"bike_id":"562b87d3-af90-43fb-9558-c81ce2168aa6","system_id":"levelo_inurba_marseille","lat":43.286108,"lon":5.370657,"is_reserved":false,"is_disabled":false,"rental_uris":{"android":"levelo://app?vid=562b87d3-af90-43fb-9558-c81ce2168aa6","ios":"levelo://app?vid=562b87d3-af90-43fb-9558-c81ce2168aa6"},"vehicle_type_id":"4","last_reported":1779040107,"current_range_meters":4000,"station_id":"ce4bht12rcd13ifvqi60","pricing_plan_id":"cebpf4jnsgd1na2vs0mg"},{"bike_id":"7018d291-db24-4937-bdb6-7a5e0d410594","system_id":"levelo_inurba_marseille","lat":43.23062,"lon":5.35496,"is_reserved":false,"is_disabled":false,"rental_uris":{"android":"levelo://app?vid=7018d291-db24-4937-bdb6-7a5e0d410594","ios":"levelo://app?vid=7018d291-db24-4937-bdb6-7a5e0d410594"},"vehicle_type_id":"4","last_reported":1779040107,"current_range_meters":4400,"station_id":"cpo3342slgdg3j2ifvpg","pricing_plan_id":"cebpf4jnsgd1na2vs0mg"},{"bike_id":"2bda3d52-eb88-438c-a8f8-3ab51be2eac2","system_id":"levelo_inurba_marseille","lat":43.31701,"lon":5.40461,"is_reserved":false,"is_disabled":false,"rental_uris":{"android":"levelo://app?vid=2bda3d52-eb88-438c-a8f8-3ab51be2eac2","ios":"levelo://app?vid=2bda3d52-eb88-438c-a8f8-3ab51be2eac2"},"vehicle_type_id":"4","last_reported":1779040107,"current_range_meters":4400,"station_id":"ce4bh012rcd13ifvqd00","pricing_plan_id":"cebpf4jnsgd1na2vs0mg"},{"bike_id":"45ea68c0-a4cc-422e-8504-16cfcabfc620","system_id":"levelo_inurba_marseille","lat":43.27815,"lon":5.40712,"is_reserved":false,"is_disabled":false,"rental_uris":{"android":"levelo://app?vid=45ea68c0-a4cc-422e-8504-16cfcabfc620","ios":"levelo://app?vid=45ea68c0-a4cc-422e-8504-16cfcabfc620"},"vehicle_type_id":"4","last_reported":1779040107,"current_range_meters":4400,"station_id":"ce4bhnh2rcd13ifvqgtg","pricing_plan_id":"cebpf4jnsgd1na2vs0mg"},{"bike_id":"754801e1-a83c-4a7b-934a-210994a36623","system_id":"levelo_inurba_marseille","lat":43.26592,"lon":5.38962,"is_reserved":false,"is_disabled":false,"rental_uris":{"android":"levelo://app?vid=754801e1-a83c-4a7b-934a-210994a36623","ios":"levelo://app?vid=754801e1-a83c-4a7b-934a-210994a36623"},"vehicle_type_id":"4","last_reported":1779040107,"current_range_meters":4400,"station_id":"ce4bhe12rcd13ifvqf30","pricing_plan_id":"cebpf4jnsgd1na2vs0mg"},{"bike_id":"521e7d8f-3d95-476b-8280-2b0810c35128","system_id":"levelo_inurba_marseille","lat":43.29963,"lon":5.3853,"is_reserved":false,"is_disabled":false,"rental_uris":{"android":"levelo://app?vid=521e7d8f-3d95-476b-8280-2b0810c35128","ios":"levelo://app?vid=521e7d8f-3d95-476b-8280-2b0810c35128"},"vehicle_type_id":"4","last_reported":1779040107,"current_range_meters":4400,"station_id":"ce4bgj92rcd13ifvqbd0","pricing_plan_id":"cebpf4jnsgd1na2vs0mg"},{"bike_id":"68f5e754-eab7-434a-b933-a53440a64142","system_id":"levelo_inurba_marseille","lat":43.29717,"lon":5.36599,"is_reserved":false,"is_disabled":false,"rental_uris":{"android":"levelo://app?vid=68f5e754-eab7-434a-b933-a53440a64142","ios":"levelo://app?vid=68f5e754-eab7-434a-b933-a53440a64142"},"vehicle_type_id":"4","last_reported":1779040107,"current_range_meters":4400,"station_id":"ce4bgn12rcd13ifvqbt0","pricing_plan_id":"cebpf4jnsgd1na2vs0mg"},{"bike_id":"c7234c5c-5d45-4d97-85cc-779e72ef56a5","system_id":"levelo_inurba_marseille","lat":43.29754,"lon":5.42763,"is_reserved":false,"is_disabled":false,"rental_uris":{"android":"levelo://app?vid=c7234c5c-5d45-4d97-85cc-779e72ef56a5","ios":"levelo://app?vid=c7234c5c-5d45-4d97-85cc-779e72ef56a5"},"vehicle_type_id":"4","last_reported":1779040107,"current_range_meters":4400,"station_id":"st_d3md5207bmas73dh9klg","pricing_plan_id":"cebpf4jnsgd1na2vs0mg"},{"bike_id":"dc25ded8-82bb-4a0b-9703-fc9339f28eae","system_id":"levelo_inurba_marseille","lat":43.27679,"lon":5.38868,"is_reserved":false,"is_disabled":false,"rental_uris":{"android":"levelo://app?vid=dc25ded8-82bb-4a0b-9703-fc9339f28eae","ios":"levelo://app?vid=dc25ded8-82bb-4a0b-9703-fc9339f28eae"},"vehicle_type_id":"4","last_reported":1779040107,"current_range_meters":4400,"station_id":"ce4bhi12rcd13ifvqfo0","pricing_plan_id":"cebpf4jnsgd1na2vs0mg"},{"bike_id":"b1c00839-5a8b-4a83-af96-6c0cb7235fea","system_id":"levelo_inurba_marseille","lat":43.28418,"lon":5.34985,"is_reserved":false,"is_disabled":false,"rental_uris":{"android":"levelo://app?vid=b1c00839-5a8b-4a83-af96-6c0cb7235fea","ios":"levelo://app?vid=b1c00839-5a8b-4a83-af96-6c0cb7235fea"},"vehicle_type_id":"4","last_reported":1779040107,"current_range_meters":4400,"station_id":"ce4bhbh2rcd13ifvqepg","pricing_plan_id":"cebpf4jnsgd1na2vs0mg"},{"bike_id":"25711a43-df4e-467e-8e16-065542f02483","system_id":"levelo_inurba_marseille","lat":43.27987,"lon":5.38747,"is_reserved":false,"is_disabled":true,"rental_uris":{"android":"levelo://app?vid=25711a43-df4e-467e-8e16-065542f02483","ios":"levelo://app?vid=25711a43-df4e-467e-8e16-065542f02483"},"vehicle_type_id":"4","last_reported":1779040107,"current_range_meters":4400,"station_id":"ce4bhg12rcd13ifvqf80","pricing_plan_id":"cebpf4jnsgd1na2vs0mg"},{"bike_id":"287c2c1d-c3ca-4819-b615-7cfb929d3b7c","system_id":"levelo_inurba_marseille","lat":43.30894,"lon":5.39657,"is_reserved":false,"is_disabled":false,"rental_uris":{"android":"levelo://app?vid=287c2c1d-c3ca-4819-b615-7cfb929d3b7c","ios":"levelo://app?vid=287c2c1d-c3ca-4819-b615-7cfb929d3b7c"},"vehicle_type_id":"4","last_reported":1779040107,"current_range_meters":4400,"station_id":"ce4bh012rcd13ifvqcv0","pricing_plan_id":"cebpf4jnsgd1na2vs0mg"},{"bike_id":"81965bb9-fc3c-424d-93c0-c8c252e3f88e","system_id":"levelo_inurba_marseille","lat":43.30941,"lon":5.39058,"is_reserved":false,"is_disabled":false,"rental_uris":{"android":"levelo://app?vid=81965bb9-fc3c-424d-93c0-c8c252e3f88e","ios":"levelo://app?vid=81965bb9-fc3c-424d-93c0-c8c252e3f88e"},"vehicle_type_id":"4","last_reported":1779040107,"current_range_meters":4400,"station_id":"ce4bgup2rcd13ifvqco0","pricing_plan_id":"cebpf4jnsgd1na2vs0mg"},{"bike_id":"fcfbaa59-ce32-42ed-9b12-f4e06295f40f","system_id":"levelo_inurba_marseille","lat":43.31908,"lon":5.40714,"is_reserved":false,"is_disabled":true,"rental_uris":{"android":"levelo://app?vid=fcfbaa59-ce32-42ed-9b12-f4e06295f40f","ios":"levelo://app?vid=fcfbaa59-ce32-42ed-9b12-f4e06295f40f"},"vehicle_type_id":"4","last_reported":1779040107,"current_range_meters":4400,"station_id":"ce4bhq12rcd13ifvqhig","pricing_plan_id":"cebpf4jnsgd1na2vs0mg"},{"bike_id":"99c2189d-db6e-43da-8213-ff0edafe0854","system_id":"levelo_inurba_marseille","lat":43.27568,"lon":5.38439,"is_reserved":false,"is_disabled":false,"rental_uris":{"android":"levelo://app?vid=99c2189d-db6e-43da-8213-ff0edafe0854","ios":"levelo://app?vid=99c2189d-db6e-43da-8213-ff0edafe0854"},"vehicle_type_id":"4","last_reported":1779040107,"current_range_meters":4400,"station_id":"ce4bhh92rcd13ifvqfi0","pricing_plan_id":"cebpf4jnsgd1na2vs0mg"},{"bike_id":"f0e02d49-6386-41b0-baa2-2c84cf0093df","system_id":"levelo_inurba_marseille","lat":43.28503,"lon":5.38433,"is_reserved":false,"is_disabled":false,"rental_uris":{"android":"levelo://app?vid=f0e02d49-6386-41b0-baa2-2c84cf0093df","ios":"levelo://app?vid=f0e02d49-6386-41b0-baa2-2c84cf0093df"},"vehicle_type_id":"4","last_reported":1779040107,"current_range_meters":4400,"station_id":"ce4bh512rcd13ifvqe3g","pricing_plan_id":"cebpf4jnsgd1na2vs0mg"},{"bike_id":"edbc47ff-3ed4-48c3-afcd-a3384172f684","system_id":"levelo_inurba_marseille","lat":43.29948,"lon":5.36506,"is_reserved":false,"is_disabled":false,"rental_uris":{"android":"levelo://app?vid=edbc47ff-3ed4-48c3-afcd-a3384172f684","ios":"levelo://app?vid=edbc47ff-3ed4-48c3-afcd-a3384172f684"},"vehicle_type_id":"4","last_reported":1779040107,"current_range_meters":4800,"station_id":"ce4bgm92rcd13ifvqbr0","pricing_plan_id":"cebpf4jnsgd1na2vs0mg"},{"bike_id":"e0d7b709-0281-4c85-bb8f-aee6dee5fc4a","system_id":"levelo_inurba_marseille","lat":43.24528,"lon":5.39503,"is_reserved":false,"is_disabled":false,"rental_uris":{"android":"levelo://app?vid=e0d7b709-0281-4c85-bb8f-aee6dee5fc4a","ios":"levelo://app?vid=e0d7b709-0281-4c85-bb8f-aee6dee5fc4a"},"vehicle_type_id":"4","last_reported":1779040107,"current_range_meters":4800,"station_id":"ce4bhlp2rcd13ifvqgjg","pricing_plan_id":"cebpf4jnsgd1na2vs0mg"},{"bike_id":"627f912b-2a5a-4555-96b9-7d245e531be0","system_id":"levelo_inurba_marseille","lat":43.30149,"lon":5.36626,"is_reserved":false,"is_disabled":false,"rental_uris":{"android":"levelo://app?vid=627f912b-2a5a-4555-96b9-7d245e531be0","ios":"levelo://app?vid=627f912b-2a5a-4555-96b9-7d245e531be0"},"vehicle_type_id":"4","last_reported":1779040107,"current_range_meters":4800,"station_id":"ce4bgrh2rcd13ifvqc8g","pricing_plan_id":"cebpf4jnsgd1na2vs0mg"},{"bike_id":"1e65d5ae-2425-485a-89d7-529a7bb576c6","system_id":"levelo_inurba_marseille","lat":43.28442,"lon":5.34994,"is_reserved":false,"is_disabled":false,"rental_uris":{"android":"levelo://app?vid=1e65d5ae-2425-485a-89d7-529a7bb576c6","ios":"levelo://app?vid=1e65d5ae-2425-485a-89d7-529a7bb576c6"},"vehicle_type_id":"4","last_reported":1779040107,"current_range_meters":4800,"station_id":"ce4bhbh2rcd13ifvqepg","pricing_plan_id":"cebpf4jnsgd1na2vs0mg"},{"bike_id":"2b39fe83-dc4f-402f-a609-a5128922291a","system_id":"levelo_inurba_marseille","lat":43.24391,"lon":5.37068,"is_reserved":false,"is_disabled":false,"rental_uris":{"android":"levelo://app?vid=2b39fe83-dc4f-402f-a609-a5128922291a","ios":"levelo://app?vid=2b39fe83-dc4f-402f-a609-a5128922291a"},"vehicle_type_id":"4","last_reported":1779040107,"current_range_meters":4800,"station_id":"ce4bhhh2rcd13ifvqfk0","pricing_plan_id":"cebpf4jnsgd1na2vs0mg"},{"bike_id":"558f6158-92da-4550-a641-6d92942e341a","system_id":"levelo_inurba_marseille","lat":43.290672,"lon":5.37572,"is_reserved":false,"is_disabled":false,"rental_uris":{"android":"levelo://app?vid=558f6158-92da-4550-a641-6d92942e341a","ios":"levelo://app?vid=558f6158-92da-4550-a641-6d92942e341a"},"vehicle_type_id":"4","last_reported":1779040107,"current_range_meters":4800,"station_id":"ce4bh692rcd13ifvqe90","pricing_plan_id":"cebpf4jnsgd1na2vs0mg"},{"bike_id":"1fd9de75-8fc6-4566-b4ca-12b503f39047","system_id":"levelo_inurba_marseille","lat":43.23891,"lon":5.37459,"is_reserved":false,"is_disabled":false,"rental_uris":{"android":"levelo://app?vid=1fd9de75-8fc6-4566-b4ca-12b503f39047","ios":"levelo://app?vid=1fd9de75-8fc6-4566-b4ca-12b503f39047"},"vehicle_type_id":"4","last_reported":1779040107,"current_range_meters":4800,"station_id":"st_d6sm7csbq4hs73f8fpjg","pricing_plan_id":"cebpf4jnsgd1na2vs0mg"},{"bike_id":"2ce0bdcd-e649-4562-8042-f308dcc19de7","system_id":"levelo_inurba_marseille","lat":43.295166,"lon":5.385449,"is_reserved":false,"is_disabled":false,"rental_uris":{"android":"levelo://app?vid=2ce0bdcd-e649-4562-8042-f308dcc19de7","ios":"levelo://app?vid=2ce0bdcd-e649-4562-8042-f308dcc19de7"},"vehicle_type_id":"4","last_reported":1779040107,"current_range_meters":4800,"station_id":"ce4bgih2rcd13ifvqba0","pricing_plan_id":"cebpf4jnsgd1na2vs0mg"},{"bike_id":"2900ac0b-ff12-48ee-a257-0c70083c0f6a","system_id":"levelo_inurba_marseille","lat":43.24681,"lon":5.38147,"is_reserved":false,"is_disabled":false,"rental_uris":{"android":"levelo://app?vid=2900ac0b-ff12-48ee-a257-0c70083c0f6a","ios":"levelo://app?vid=2900ac0b-ff12-48ee-a257-0c70083c0f6a"},"vehicle_type_id":"4","last_reported":1779040107,"current_range_meters":4800,"station_id":"ce4bhih2rcd13ifvqfr0","pricing_plan_id":"cebpf4jnsgd1na2vs0mg"},{"bike_id":"6d5c12e7-ee14-431f-90a1-7d378eb9ef4e","system_id":"levelo_inurba_marseille","lat":43.24023,"lon":5.36241,"is_reserved":false,"is_disabled":false,"rental_uris":{"android":"levelo://app?vid=6d5c12e7-ee14-431f-90a1-7d378eb9ef4e","ios":"levelo://app?vid=6d5c12e7-ee14-431f-90a1-7d378eb9ef4e"},"vehicle_type_id":"4","last_reported":1779040107,"current_range_meters":4800,"station_id":"","pricing_plan_id":"cebpf4jnsgd1na2vs0mg"},{"bike_id":"d71406e8-ea8e-4a21-8d01-2aee74bbb001","system_id":"levelo_inurba_marseille","lat":43.249952,"lon":5.389289,"is_reserved":false,"is_disabled":false,"rental_uris":{"android":"levelo://app?vid=d71406e8-ea8e-4a21-8d01-2aee74bbb001","ios":"levelo://app?vid=d71406e8-ea8e-4a21-8d01-2aee74bbb001"},"vehicle_type_id":"4","last_reported":1779040107,"current_range_meters":4800,"station_id":"ce4bhgp2rcd13ifvqfd0","pricing_plan_id":"cebpf4jnsgd1na2vs0mg"},{"bike_id":"a0589a7e-eb02-4112-96c2-faa05b8660b2","system_id":"levelo_inurba_marseille","lat":43.27051,"lon":5.40258,"is_reserved":false,"is_disabled":false,"rental_uris":{"android":"levelo://app?vid=a0589a7e-eb02-4112-96c2-faa05b8660b2","ios":"levelo://app?vid=a0589a7e-eb02-4112-96c2-faa05b8660b2"},"vehicle_type_id":"4","last_reported":1779040107,"current_range_meters":4800,"station_id":"ce4bhk92rcd13ifvqgc0","pricing_plan_id":"cebpf4jnsgd1na2vs0mg"},{"bike_id":"6d646e98-b4e6-4229-940f-9c736a0942fc","system_id":"levelo_inurba_marseille","lat":43.26939,"lon":5.40257,"is_reserved":false,"is_disabled":false,"rental_uris":{"android":"levelo://app?vid=6d646e98-b4e6-4229-940f-9c736a0942fc","ios":"levelo://app?vid=6d646e98-b4e6-4229-940f-9c736a0942fc"},"vehicle_type_id":"4","last_reported":1779040107,"current_range_meters":4800,"station_id":"cjm6bp8fraef2m0cb0m0","pricing_plan_id":"cebpf4jnsgd1na2vs0mg"},{"bike_id":"dea9e9e1-74e5-4a5e-8b6f-a9149ad99517","system_id":"levelo_inurba_marseille","lat":43.26777,"lon":5.39418,"is_reserved":false,"is_disabled":false,"rental_uris":{"android":"levelo://app?vid=dea9e9e1-74e5-4a5e-8b6f-a9149ad99517","ios":"levelo://app?vid=dea9e9e1-74e5-4a5e-8b6f-a9149ad99517"},"vehicle_type_id":"4","last_reported":1779040107,"current_range_meters":4800,"station_id":"ce4bhh12rcd13ifvqfg0","pricing_plan_id":"cebpf4jnsgd1na2vs0mg"},{"bike_id":"a944f44f-34bc-45f7-87af-c6890b6e2d51","system_id":"levelo_inurba_marseille","lat":43.30138,"lon":5.38779,"is_reserved":false,"is_disabled":false,"rental_uris":{"android":"levelo://app?vid=a944f44f-34bc-45f7-87af-c6890b6e2d51","ios":"levelo://app?vid=a944f44f-34bc-45f7-87af-c6890b6e2d51"},"vehicle_type_id":"4","last_reported":1779040107,"current_range_meters":4800,"station_id":"ce4bghh2rcd13ifvqb60","pricing_plan_id":"cebpf4jnsgd1na2vs0mg"},{"bike_id":"27f0a0e1-03b5-43d3-bc02-b8a8a2fdf6b3","system_id":"levelo_inurba_marseille","lat":43.26227,"lon":5.40443,"is_reserved":false,"is_disabled":false,"rental_uris":{"android":"levelo://app?vid=27f0a0e1-03b5-43d3-bc02-b8a8a2fdf6b3","ios":"levelo://app?vid=27f0a0e1-03b5-43d3-bc02-b8a8a2fdf6b3"},"vehicle_type_id":"4","last_reported":1779040107,"current_range_meters":4800,"station_id":"ce4bhmh2rcd13ifvqgmg","pricing_plan_id":"cebpf4jnsgd1na2vs0mg"},{"bike_id":"6759a002-ee3e-49d0-b782-db71494e95a1","system_id":"levelo_inurba_marseille","lat":43.32552,"lon":5.41428,"is_reserved":false,"is_disabled":false,"rental_uris":{"android":"levelo://app?vid=6759a002-ee3e-49d0-b782-db71494e95a1","ios":"levelo://app?vid=6759a002-ee3e-49d0-b782-db71494e95a1"},"vehicle_type_id":"4","last_reported":1779040107,"current_range_meters":5600,"station_id":"ce4bhq12rcd13ifvqhhg","pricing_plan_id":"cebpf4jnsgd1na2vs0mg"},{"bike_id":"c64d6a09-97d2-4f45-9210-692a5f5bdd0d","system_id":"levelo_inurba_marseille","lat":43.30306,"lon":5.40123,"is_reserved":false,"is_disabled":false,"rental_uris":{"android":"levelo://app?vid=c64d6a09-97d2-4f45-9210-692a5f5bdd0d","ios":"levelo://app?vid=c64d6a09-97d2-4f45-9210-692a5f5bdd0d"},"vehicle_type_id":"4","last_reported":1779040107,"current_range_meters":5600,"station_id":"ce4bgvh2rcd13ifvqcs0","pricing_plan_id":"cebpf4jnsgd1na2vs0mg"},{"bike_id":"536a31bb-a53b-44ed-a6a0-c2ae2f74d085","system_id":"levelo_inurba_marseille","lat":43.30131,"lon":5.39862,"is_reserved":false,"is_disabled":false,"rental_uris":{"android":"levelo://app?vid=536a31bb-a53b-44ed-a6a0-c2ae2f74d085","ios":"levelo://app?vid=536a31bb-a53b-44ed-a6a0-c2ae2f74d085"},"vehicle_type_id":"4","last_reported":1779040107,"current_range_meters":5600,"station_id":"ce4bh0h2rcd13ifvqd40","pricing_plan_id":"cebpf4jnsgd1na2vs0mg"},{"bike_id":"b7782631-b89e-4d72-89bb-e2f0c2dcf8e5","system_id":"levelo_inurba_marseille","lat":43.28454,"lon":5.35892,"is_reserved":false,"is_disabled":false,"rental_uris":{"android":"levelo://app?vid=b7782631-b89e-4d72-89bb-e2f0c2dcf8e5","ios":"levelo://app?vid=b7782631-b89e-4d72-89bb-e2f0c2dcf8e5"},"vehicle_type_id":"4","last_reported":1779040107,"current_range_meters":5600,"station_id":"ce4bhah2rcd13ifvqei0","pricing_plan_id":"cebpf4jnsgd1na2vs0mg"},{"bike_id":"cfa94f2a-ebb6-4d4a-8d6d-aa62bf78873a","system_id":"levelo_inurba_marseille","lat":43.31035,"lon":5.37162,"is_reserved":false,"is_disabled":false,"rental_uris":{"android":"levelo://app?vid=cfa94f2a-ebb6-4d4a-8d6d-aa62bf78873a","ios":"levelo://app?vid=cfa94f2a-ebb6-4d4a-8d6d-aa62bf78873a"},"vehicle_type_id":"4","last_reported":1779040107,"current_range_meters":5600,"station_id":"st_d4kl2rp97mjs73e7tdfg","pricing_plan_id":"cebpf4jnsgd1na2vs0mg"},{"bike_id":"aaaf2da1-9790-4af6-9df1-a98f9102aaa6","system_id":"levelo_inurba_marseille","lat":43.29513,"lon":5.39402,"is_reserved":false,"is_disabled":false,"rental_uris":{"android":"levelo://app?vid=aaaf2da1-9790-4af6-9df1-a98f9102aaa6","ios":"levelo://app?vid=aaaf2da1-9790-4af6-9df1-a98f9102aaa6"},"vehicle_type_id":"4","last_reported":1779040107,"current_range_meters":5600,"station_id":"ce4bh292rcd13ifvqdf0","pricing_plan_id":"cebpf4jnsgd1na2vs0mg"},{"bike_id":"b5d9497a-4684-46b2-ad68-72f8937b64e0","system_id":"levelo_inurba_marseille","lat":43.23956,"lon":5.36627,"is_reserved":false,"is_disabled":false,"rental_uris":{"android":"levelo://app?vid=b5d9497a-4684-46b2-ad68-72f8937b64e0","ios":"levelo://app?vid=b5d9497a-4684-46b2-ad68-72f8937b64e0"},"vehicle_type_id":"4","last_reported":1779040107,"current_range_meters":5600,"station_id":"ce4bhi12rcd13ifvqfp0","pricing_plan_id":"cebpf4jnsgd1na2vs0mg"},{"bike_id":"bf85cbf3-2868-4a5d-ae4b-a9c2549d1531","system_id":"levelo_inurba_marseille","lat":43.25102,"lon":5.39508,"is_reserved":false,"is_disabled":false,"rental_uris":{"android":"levelo://app?vid=bf85cbf3-2868-4a5d-ae4b-a9c2549d1531","ios":"levelo://app?vid=bf85cbf3-2868-4a5d-ae4b-a9c2549d1531"},"vehicle_type_id":"4","last_reported":1779040107,"current_range_meters":5600,"station_id":"ce4bhm12rcd13ifvqgkg","pricing_plan_id":"cebpf4jnsgd1na2vs0mg"},{"bike_id":"93fed3eb-6db5-4a7e-b141-09659f030fc6","system_id":"levelo_inurba_marseille","lat":43.28721,"lon":5.36094,"is_reserved":false,"is_disabled":false,"rental_uris":{"android":"levelo://app?vid=93fed3eb-6db5-4a7e-b141-09659f030fc6","ios":"levelo://app?vid=93fed3eb-6db5-4a7e-b141-09659f030fc6"},"vehicle_type_id":"4","last_reported":1779040107,"current_range_meters":5600,"station_id":"cki0cbj6b192h4jlfktg","pricing_plan_id":"cebpf4jnsgd1na2vs0mg"},{"bike_id":"36fa7180-a662-42a9-bdb9-b5e6ac572e74","system_id":"levelo_inurba_marseille","lat":43.28482,"lon":5.38464,"is_reserved":false,"is_disabled":false,"rental_uris":{"android":"levelo://app?vid=36fa7180-a662-42a9-bdb9-b5e6ac572e74","ios":"levelo://app?vid=36fa7180-a662-42a9-bdb9-b5e6ac572e74"},"vehicle_type_id":"4","last_reported":1779040107,"current_range_meters":5600,"station_id":"ce4bh512rcd13ifvqe3g","pricing_plan_id":"cebpf4jnsgd1na2vs0mg"},{"bike_id":"6fcf8acc-275b-4901-b471-534112fe731a","system_id":"levelo_inurba_marseille","lat":43.30356,"lon":5.42459,"is_reserved":false,"is_disabled":false,"rental_uris":{"android":"levelo://app?vid=6fcf8acc-275b-4901-b471-534112fe731a","ios":"levelo://app?vid=6fcf8acc-275b-4901-b471-534112fe731a"},"vehicle_type_id":"4","last_reported":1779040107,"current_range_meters":5600,"station_id":"ce4bhoh2rcd13ifvqh6g","pricing_plan_id":"cebpf4jnsgd1na2vs0mg"},{"bike_id":"fc7cd386-b72a-4b96-913b-bc9a9b502c65","system_id":"levelo_inurba_marseille","lat":43.24395,"lon":5.37062,"is_reserved":false,"is_disabled":false,"rental_uris":{"android":"levelo://app?vid=fc7cd386-b72a-4b96-913b-bc9a9b502c65","ios":"levelo://app?vid=fc7cd386-b72a-4b96-913b-bc9a9b502c65"},"vehicle_type_id":"4","last_reported":1779040107,"current_range_meters":5600,"station_id":"ce4bhhh2rcd13ifvqfk0","pricing_plan_id":"cebpf4jnsgd1na2vs0mg"},{"bike_id":"d5bb6abe-a29c-4c5f-9299-9b467806c965","system_id":"levelo_inurba_marseille","lat":43.29227,"lon":5.36062,"is_reserved":false,"is_disabled":false,"rental_uris":{"android":"levelo://app?vid=d5bb6abe-a29c-4c5f-9299-9b467806c965","ios":"levelo://app?vid=d5bb6abe-a29c-4c5f-9299-9b467806c965"},"vehicle_type_id":"4","last_reported":1779040107,"current_range_meters":5600,"station_id":"ce4bhbh2rcd13ifvqeqg","pricing_plan_id":"cebpf4jnsgd1na2vs0mg"},{"bike_id":"9dc4d4c6-49bf-4735-a8c9-9cabf224cf2d","system_id":"levelo_inurba_marseille","lat":43.299726,"lon":5.384886,"is_reserved":false,"is_disabled":false,"rental_uris":{"android":"levelo://app?vid=9dc4d4c6-49bf-4735-a8c9-9cabf224cf2d","ios":"levelo://app?vid=9dc4d4c6-49bf-4735-a8c9-9cabf224cf2d"},"vehicle_type_id":"4","last_reported":1779040107,"current_range_meters":5600,"station_id":"ce4bgj92rcd13ifvqbd0","pricing_plan_id":"cebpf4jnsgd1na2vs0mg"},{"bike_id":"22d0e8c9-dbc4-43c8-af79-922d36d85718","system_id":"levelo_inurba_marseille","lat":43.2782,"lon":5.40684,"is_reserved":false,"is_disabled":false,"rental_uris":{"android":"levelo://app?vid=22d0e8c9-dbc4-43c8-af79-922d36d85718","ios":"levelo://app?vid=22d0e8c9-dbc4-43c8-af79-922d36d85718"},"vehicle_type_id":"4","last_reported":1779040107,"current_range_meters":5600,"station_id":"ce4bhnh2rcd13ifvqgtg","pricing_plan_id":"cebpf4jnsgd1na2vs0mg"},{"bike_id":"c44f5603-79c5-489c-940c-e9a03c34a576","system_id":"levelo_inurba_marseille","lat":43.26809,"lon":5.40817,"is_reserved":false,"is_disabled":false,"rental_uris":{"android":"levelo://app?vid=c44f5603-79c5-489c-940c-e9a03c34a576","ios":"levelo://app?vid=c44f5603-79c5-489c-940c-e9a03c34a576"},"vehicle_type_id":"4","last_reported":1779040107,"current_range_meters":5600,"station_id":"","pricing_plan_id":"cebpf4jnsgd1na2vs0mg"},{"bike_id":"0e546e1b-381f-44fc-9f6a-118dba80db7e","system_id":"levelo_inurba_marseille","lat":43.24546,"lon":5.39526,"is_reserved":false,"is_disabled":false,"rental_uris":{"android":"levelo://app?vid=0e546e1b-381f-44fc-9f6a-118dba80db7e","ios":"levelo://app?vid=0e546e1b-381f-44fc-9f6a-118dba80db7e"},"vehicle_type_id":"4","last_reported":1779040107,"current_range_meters":5600,"station_id":"ce4bhlp2rcd13ifvqgjg","pricing_plan_id":"cebpf4jnsgd1na2vs0mg"},{"bike_id":"fc7d4a15-90c4-4a20-bffd-0e4d99545bed","system_id":"levelo_inurba_marseille","lat":43.27312,"lon":5.39065,"is_reserved":false,"is_disabled":false,"rental_uris":{"android":"levelo://app?vid=fc7d4a15-90c4-4a20-bffd-0e4d99545bed","ios":"levelo://app?vid=fc7d4a15-90c4-4a20-bffd-0e4d99545bed"},"vehicle_type_id":"4","last_reported":1779040107,"current_range_meters":5600,"station_id":"ce4bhgp2rcd13ifvqfe0","pricing_plan_id":"cebpf4jnsgd1na2vs0mg"},{"bike_id":"1bcbc339-267f-4a59-bd14-04887b570534","system_id":"levelo_inurba_marseille","lat":43.30543,"lon":5.38415,"is_reserved":false,"is_disabled":false,"rental_uris":{"android":"levelo://app?vid=1bcbc339-267f-4a59-bd14-04887b570534","ios":"levelo://app?vid=1bcbc339-267f-4a59-bd14-04887b570534"},"vehicle_type_id":"4","last_reported":1779040107,"current_range_meters":5600,"station_id":"ce4bgg92rcd13ifvqb30","pricing_plan_id":"cebpf4jnsgd1na2vs0mg"},{"bike_id":"174908e5-1a8a-4e75-9ffe-42c831b3d107","system_id":"levelo_inurba_marseille","lat":43.28691,"lon":5.46687,"is_reserved":false,"is_disabled":false,"rental_uris":{"android":"levelo://app?vid=174908e5-1a8a-4e75-9ffe-42c831b3d107","ios":"levelo://app?vid=174908e5-1a8a-4e75-9ffe-42c831b3d107"},"vehicle_type_id":"4","last_reported":1779040107,"current_range_meters":5600,"station_id":"st_d6tc3vkotcvc738tfjhg","pricing_plan_id":"cebpf4jnsgd1na2vs0mg"},{"bike_id":"55be906b-c469-4b4e-98e2-0ce0a6163e85","system_id":"levelo_inurba_marseille","lat":43.24828,"lon":5.3746,"is_reserved":false,"is_disabled":false,"rental_uris":{"android":"levelo://app?vid=55be906b-c469-4b4e-98e2-0ce0a6163e85","ios":"levelo://app?vid=55be906b-c469-4b4e-98e2-0ce0a6163e85"},"vehicle_type_id":"4","last_reported":1779040107,"current_range_meters":6000,"station_id":"ce4bhgh2rcd13ifvqfb0","pricing_plan_id":"cebpf4jnsgd1na2vs0mg"},{"bike_id":"e7863ee4-5f60-423b-8817-3fb9a1063a2f","system_id":"levelo_inurba_marseille","lat":43.30476,"lon":5.3662,"is_reserved":false,"is_disabled":false,"rental_uris":{"android":"levelo://app?vid=e7863ee4-5f60-423b-8817-3fb9a1063a2f","ios":"levelo://app?vid=e7863ee4-5f60-423b-8817-3fb9a1063a2f"},"vehicle_type_id":"4","last_reported":1779040107,"current_range_meters":6000,"station_id":"","pricing_plan_id":"cebpf4jnsgd1na2vs0mg"},{"bike_id":"ab869954-75c9-4ce0-91af-b0e811bbc3c2","system_id":"levelo_inurba_marseille","lat":43.26929,"lon":5.40253,"is_reserved":false,"is_disabled":false,"rental_uris":{"android":"levelo://app?vid=ab869954-75c9-4ce0-91af-b0e811bbc3c2","ios":"levelo://app?vid=ab869954-75c9-4ce0-91af-b0e811bbc3c2"},"vehicle_type_id":"4","last_reported":1779040107,"current_range_meters":6000,"station_id":"cjm6bp8fraef2m0cb0m0","pricing_plan_id":"cebpf4jnsgd1na2vs0mg"},{"bike_id":"1b877592-f0f4-44e4-a97a-83e44dbe498e","system_id":"levelo_inurba_marseille","lat":43.269213,"lon":5.389085,"is_reserved":false,"is_disabled":false,"rental_uris":{"android":"levelo://app?vid=1b877592-f0f4-44e4-a97a-83e44dbe498e","ios":"levelo://app?vid=1b877592-f0f4-44e4-a97a-83e44dbe498e"},"vehicle_type_id":"4","last_reported":1779040107,"current_range_meters":6000,"station_id":"ce4bhhh2rcd13ifvqfl0","pricing_plan_id":"cebpf4jnsgd1na2vs0mg"},{"bike_id":"068d39c8-a457-48e8-92f8-6a754e54b6ab","system_id":"levelo_inurba_marseille","lat":43.28458,"lon":5.34935,"is_reserved":false,"is_disabled":false,"rental_uris":{"android":"levelo://app?vid=068d39c8-a457-48e8-92f8-6a754e54b6ab","ios":"levelo://app?vid=068d39c8-a457-48e8-92f8-6a754e54b6ab"},"vehicle_type_id":"4","last_reported":1779040107,"current_range_meters":6000,"station_id":"ce4bhbh2rcd13ifvqepg","pricing_plan_id":"cebpf4jnsgd1na2vs0mg"},{"bike_id":"59f64eb1-92c1-4a8e-91f4-78ba5ad935c2","system_id":"levelo_inurba_marseille","lat":43.24814,"lon":5.37458,"is_reserved":false,"is_disabled":false,"rental_uris":{"android":"levelo://app?vid=59f64eb1-92c1-4a8e-91f4-78ba5ad935c2","ios":"levelo://app?vid=59f64eb1-92c1-4a8e-91f4-78ba5ad935c2"},"vehicle_type_id":"4","last_reported":1779040107,"current_range_meters":6000,"station_id":"ce4bhgh2rcd13ifvqfb0","pricing_plan_id":"cebpf4jnsgd1na2vs0mg"},{"bike_id":"28dd2322-00fd-4c18-a402-f017c0ef0300","system_id":"levelo_inurba_marseille","lat":43.2972,"lon":5.36609,"is_reserved":false,"is_disabled":false,"rental_uris":{"android":"levelo://app?vid=28dd2322-00fd-4c18-a402-f017c0ef0300","ios":"levelo://app?vid=28dd2322-00fd-4c18-a402-f017c0ef0300"},"vehicle_type_id":"4","last_reported":1779040107,"current_range_meters":6000,"station_id":"ce4bgn12rcd13ifvqbt0","pricing_plan_id":"cebpf4jnsgd1na2vs0mg"},{"bike_id":"54684aea-f90d-4a03-9c14-19c36e61187b","system_id":"levelo_inurba_marseille","lat":43.27683,"lon":5.38869,"is_reserved":false,"is_disabled":false,"rental_uris":{"android":"levelo://app?vid=54684aea-f90d-4a03-9c14-19c36e61187b","ios":"levelo://app?vid=54684aea-f90d-4a03-9c14-19c36e61187b"},"vehicle_type_id":"4","last_reported":1779040107,"current_range_meters":6000,"station_id":"ce4bhi12rcd13ifvqfo0","pricing_plan_id":"cebpf4jnsgd1na2vs0mg"},{"bike_id":"70307b5b-24a6-43c6-ab81-112ae3176821","system_id":"levelo_inurba_marseille","lat":43.24817,"lon":5.3745,"is_reserved":false,"is_disabled":false,"rental_uris":{"android":"levelo://app?vid=70307b5b-24a6-43c6-ab81-112ae3176821","ios":"levelo://app?vid=70307b5b-24a6-43c6-ab81-112ae3176821"},"vehicle_type_id":"4","last_reported":1779040107,"current_range_meters":6000,"station_id":"ce4bhgh2rcd13ifvqfb0","pricing_plan_id":"cebpf4jnsgd1na2vs0mg"},{"bike_id":"a30c4f60-9288-4152-9a37-65b4641b7552","system_id":"levelo_inurba_marseille","lat":43.29845,"lon":5.36247,"is_reserved":false,"is_disabled":false,"rental_uris":{"android":"levelo://app?vid=a30c4f60-9288-4152-9a37-65b4641b7552","ios":"levelo://app?vid=a30c4f60-9288-4152-9a37-65b4641b7552"},"vehicle_type_id":"4","last_reported":1779040107,"current_range_meters":6000,"station_id":"ce4bgpp2rcd13ifvqc3g","pricing_plan_id":"cebpf4jnsgd1na2vs0mg"},{"bike_id":"53bcec8f-d1b8-402e-b8f3-a6e4cd531c14","system_id":"levelo_inurba_marseille","lat":43.21188,"lon":5.35068,"is_reserved":false,"is_disabled":false,"rental_uris":{"android":"levelo://app?vid=53bcec8f-d1b8-402e-b8f3-a6e4cd531c14","ios":"levelo://app?vid=53bcec8f-d1b8-402e-b8f3-a6e4cd531c14"},"vehicle_type_id":"4","last_reported":1779040107,"current_range_meters":6000,"station_id":"st_cvj6sg6p6f1abm77japg","pricing_plan_id":"cebpf4jnsgd1na2vs0mg"},{"bike_id":"d8472712-34e6-4294-a1fa-094c561be0cf","system_id":"levelo_inurba_marseille","lat":43.24943,"lon":5.38921,"is_reserved":false,"is_disabled":false,"rental_uris":{"android":"levelo://app?vid=d8472712-34e6-4294-a1fa-094c561be0cf","ios":"levelo://app?vid=d8472712-34e6-4294-a1fa-094c561be0cf"},"vehicle_type_id":"4","last_reported":1779040107,"current_range_meters":6000,"station_id":"","pricing_plan_id":"cebpf4jnsgd1na2vs0mg"},{"bike_id":"763600bc-45c0-4cd2-92e1-e530effd9caf","system_id":"levelo_inurba_marseille","lat":43.28487,"lon":5.38429,"is_reserved":false,"is_disabled":false,"rental_uris":{"android":"levelo://app?vid=763600bc-45c0-4cd2-92e1-e530effd9caf","ios":"levelo://app?vid=763600bc-45c0-4cd2-92e1-e530effd9caf"},"vehicle_type_id":"4","last_reported":1779040107,"current_range_meters":6000,"station_id":"ce4bh512rcd13ifvqe3g","pricing_plan_id":"cebpf4jnsgd1na2vs0mg"},{"bike_id":"8beae2f9-cd65-4967-a43b-a0651bc73499","system_id":"levelo_inurba_marseille","lat":43.26685,"lon":5.38267,"is_reserved":false,"is_disabled":false,"rental_uris":{"android":"levelo://app?vid=8beae2f9-cd65-4967-a43b-a0651bc73499","ios":"levelo://app?vid=8beae2f9-cd65-4967-a43b-a0651bc73499"},"vehicle_type_id":"4","last_reported":1779040107,"current_range_meters":6000,"station_id":"ce4bhg92rcd13ifvqf90","pricing_plan_id":"cebpf4jnsgd1na2vs0mg"},{"bike_id":"b5297a02-24ae-4c45-98a2-b434be32c473","system_id":"levelo_inurba_marseille","lat":43.27178,"lon":5.40994,"is_reserved":false,"is_disabled":false,"rental_uris":{"android":"levelo://app?vid=b5297a02-24ae-4c45-98a2-b434be32c473","ios":"levelo://app?vid=b5297a02-24ae-4c45-98a2-b434be32c473"},"vehicle_type_id":"4","last_reported":1779040107,"current_range_meters":6000,"station_id":"ce4bhl12rcd13ifvqgf0","pricing_plan_id":"cebpf4jnsgd1na2vs0mg"},{"bike_id":"6cc1ef96-a5ad-49c0-b811-23047d9343ce","system_id":"levelo_inurba_marseille","lat":43.30104,"lon":5.39078,"is_reserved":false,"is_disabled":false,"rental_uris":{"android":"levelo://app?vid=6cc1ef96-a5ad-49c0-b811-23047d9343ce","ios":"levelo://app?vid=6cc1ef96-a5ad-49c0-b811-23047d9343ce"},"vehicle_type_id":"4","last_reported":1779040107,"current_range_meters":6000,"station_id":"ce4bh192rcd13ifvqdb0","pricing_plan_id":"cebpf4jnsgd1na2vs0mg"},{"bike_id":"0352eefe-467c-419c-b455-7caf64ee275f","system_id":"levelo_inurba_marseille","lat":43.31898,"lon":5.36795,"is_reserved":false,"is_disabled":false,"rental_uris":{"android":"levelo://app?vid=0352eefe-467c-419c-b455-7caf64ee275f","ios":"levelo://app?vid=0352eefe-467c-419c-b455-7caf64ee275f"},"vehicle_type_id":"4","last_reported":1779040107,"current_range_meters":6400,"station_id":"st_d6o2h0d0559c73evc1b0","pricing_plan_id":"cebpf4jnsgd1na2vs0mg"},{"bike_id":"68b40e57-e116-4f10-afe9-4a48761ea86e","system_id":"levelo_inurba_marseille","lat":43.292801,"lon":5.401149,"is_reserved":false,"is_disabled":true,"rental_uris":{"android":"levelo://app?vid=68b40e57-e116-4f10-afe9-4a48761ea86e","ios":"levelo://app?vid=68b40e57-e116-4f10-afe9-4a48761ea86e"},"vehicle_type_id":"4","last_reported":1779040107,"current_range_meters":6400,"station_id":"ce4bh312rcd13ifvqdk0","pricing_plan_id":"cebpf4jnsgd1na2vs0mg"},{"bike_id":"343a624a-22d8-46cc-8eb7-0d3563a064bd","system_id":"levelo_inurba_marseille","lat":43.27617,"lon":5.361,"is_reserved":false,"is_disabled":false,"rental_uris":{"android":"levelo://app?vid=343a624a-22d8-46cc-8eb7-0d3563a064bd","ios":"levelo://app?vid=343a624a-22d8-46cc-8eb7-0d3563a064bd"},"vehicle_type_id":"4","last_reported":1779040107,"current_range_meters":6400,"station_id":"ce4bhbh2rcd13ifvqeqg","pricing_plan_id":"cebpf4jnsgd1na2vs0mg"},{"bike_id":"ec5963a5-51da-4147-be9d-fb5c63c9acb3","system_id":"levelo_inurba_marseille","lat":43.29526,"lon":5.3904,"is_reserved":false,"is_disabled":false,"rental_uris":{"android":"levelo://app?vid=ec5963a5-51da-4147-be9d-fb5c63c9acb3","ios":"levelo://app?vid=ec5963a5-51da-4147-be9d-fb5c63c9acb3"},"vehicle_type_id":"4","last_reported":1779040107,"current_range_meters":6400,"station_id":"ce4bh3p2rcd13ifvqdp0","pricing_plan_id":"cebpf4jnsgd1na2vs0mg"},{"bike_id":"047f0c75-d9ad-41d2-ac86-c2b1e18da69b","system_id":"levelo_inurba_marseille","lat":43.28612,"lon":5.370665,"is_reserved":false,"is_disabled":false,"rental_uris":{"android":"levelo://app?vid=047f0c75-d9ad-41d2-ac86-c2b1e18da69b","ios":"levelo://app?vid=047f0c75-d9ad-41d2-ac86-c2b1e18da69b"},"vehicle_type_id":"4","last_reported":1779040107,"current_range_meters":6400,"station_id":"ce4bht12rcd13ifvqi60","pricing_plan_id":"cebpf4jnsgd1na2vs0mg"},{"bike_id":"85605534-12cb-4b8b-ae81-c18bab62a5d8","system_id":"levelo_inurba_marseille","lat":43.25196,"lon":5.37446,"is_reserved":false,"is_disabled":false,"rental_uris":{"android":"levelo://app?vid=85605534-12cb-4b8b-ae81-c18bab62a5d8","ios":"levelo://app?vid=85605534-12cb-4b8b-ae81-c18bab62a5d8"},"vehicle_type_id":"4","last_reported":1779040107,"current_range_meters":6400,"station_id":"","pricing_plan_id":"cebpf4jnsgd1na2vs0mg"},{"bike_id":"12a9a477-86ca-4581-b8f6-bb27b1a3410c","system_id":"levelo_inurba_marseille","lat":43.30325,"lon":5.36868,"is_reserved":false,"is_disabled":false,"rental_uris":{"android":"levelo://app?vid=12a9a477-86ca-4581-b8f6-bb27b1a3410c","ios":"levelo://app?vid=12a9a477-86ca-4581-b8f6-bb27b1a3410c"},"vehicle_type_id":"4","last_reported":1779040107,"current_range_meters":6400,"station_id":"ce4bgqh2rcd13ifvqc5g","pricing_plan_id":"cebpf4jnsgd1na2vs0mg"},{"bike_id":"3b12bd5e-e1a8-4bad-971d-90fc9a5d6737","system_id":"levelo_inurba_marseille","lat":43.24813,"lon":5.37442,"is_reserved":false,"is_disabled":false,"rental_uris":{"android":"levelo://app?vid=3b12bd5e-e1a8-4bad-971d-90fc9a5d6737","ios":"levelo://app?vid=3b12bd5e-e1a8-4bad-971d-90fc9a5d6737"},"vehicle_type_id":"4","last_reported":1779040107,"current_range_meters":6400,"station_id":"ce4bhgh2rcd13ifvqfb0","pricing_plan_id":"cebpf4jnsgd1na2vs0mg"},{"bike_id":"871000e2-0cb5-451a-9bc2-ec86a0102adf","system_id":"levelo_inurba_marseille","lat":43.31708,"lon":5.43707,"is_reserved":false,"is_disabled":false,"rental_uris":{"android":"levelo://app?vid=871000e2-0cb5-451a-9bc2-ec86a0102adf","ios":"levelo://app?vid=871000e2-0cb5-451a-9bc2-ec86a0102adf"},"vehicle_type_id":"4","last_reported":1779040107,"current_range_meters":6400,"station_id":"ce4bhp92rcd13ifvqhcg","pricing_plan_id":"cebpf4jnsgd1na2vs0mg"},{"bike_id":"d8771c96-65bf-40ae-b747-1fc40927b23d","system_id":"levelo_inurba_marseille","lat":43.31996,"lon":5.38156,"is_reserved":false,"is_disabled":false,"rental_uris":{"android":"levelo://app?vid=d8771c96-65bf-40ae-b747-1fc40927b23d","ios":"levelo://app?vid=d8771c96-65bf-40ae-b747-1fc40927b23d"},"vehicle_type_id":"4","last_reported":1779040107,"current_range_meters":6400,"station_id":"ce4bhr12rcd13ifvqhpg","pricing_plan_id":"cebpf4jnsgd1na2vs0mg"},{"bike_id":"29a74744-c670-4510-b578-36eab404572f","system_id":"levelo_inurba_marseille","lat":43.29455,"lon":5.39741,"is_reserved":false,"is_disabled":false,"rental_uris":{"android":"levelo://app?vid=29a74744-c670-4510-b578-36eab404572f","ios":"levelo://app?vid=29a74744-c670-4510-b578-36eab404572f"},"vehicle_type_id":"4","last_reported":1779040107,"current_range_meters":6400,"station_id":"ce4bh3h2rcd13ifvqdo0","pricing_plan_id":"cebpf4jnsgd1na2vs0mg"},{"bike_id":"cf4ffac1-8b70-4b56-a15e-a8aa3a708e81","system_id":"levelo_inurba_marseille","lat":43.27315,"lon":5.39071,"is_reserved":false,"is_disabled":false,"rental_uris":{"android":"levelo://app?vid=cf4ffac1-8b70-4b56-a15e-a8aa3a708e81","ios":"levelo://app?vid=cf4ffac1-8b70-4b56-a15e-a8aa3a708e81"},"vehicle_type_id":"4","last_reported":1779040107,"current_range_meters":6400,"station_id":"ce4bhgp2rcd13ifvqfe0","pricing_plan_id":"cebpf4jnsgd1na2vs0mg"},{"bike_id":"dd04efa2-455a-424f-9437-7214b6358585","system_id":"levelo_inurba_marseille","lat":43.29943,"lon":5.36552,"is_reserved":false,"is_disabled":false,"rental_uris":{"android":"levelo://app?vid=dd04efa2-455a-424f-9437-7214b6358585","ios":"levelo://app?vid=dd04efa2-455a-424f-9437-7214b6358585"},"vehicle_type_id":"4","last_reported":1779040107,"current_range_meters":6400,"station_id":"ce4bgm92rcd13ifvqbr0","pricing_plan_id":"cebpf4jnsgd1na2vs0mg"},{"bike_id":"225e5a16-def5-4343-9ace-2234590ffc86","system_id":"levelo_inurba_marseille","lat":43.29221,"lon":5.3606,"is_reserved":false,"is_disabled":false,"rental_uris":{"android":"levelo://app?vid=225e5a16-def5-4343-9ace-2234590ffc86","ios":"levelo://app?vid=225e5a16-def5-4343-9ace-2234590ffc86"},"vehicle_type_id":"4","last_reported":1779040107,"current_range_meters":6400,"station_id":"ce4bhbh2rcd13ifvqeqg","pricing_plan_id":"cebpf4jnsgd1na2vs0mg"},{"bike_id":"5bd92aa3-317d-4b99-a12d-a3a6a414398c","system_id":"levelo_inurba_marseille","lat":43.24066,"lon":5.36401,"is_reserved":false,"is_disabled":false,"rental_uris":{"android":"levelo://app?vid=5bd92aa3-317d-4b99-a12d-a3a6a414398c","ios":"levelo://app?vid=5bd92aa3-317d-4b99-a12d-a3a6a414398c"},"vehicle_type_id":"4","last_reported":1779040107,"current_range_meters":6400,"station_id":"","pricing_plan_id":"cebpf4jnsgd1na2vs0mg"},{"bike_id":"95711da2-7823-43c8-a941-1a8f2f502f95","system_id":"levelo_inurba_marseille","lat":43.29273,"lon":5.38419,"is_reserved":false,"is_disabled":false,"rental_uris":{"android":"levelo://app?vid=95711da2-7823-43c8-a941-1a8f2f502f95","ios":"levelo://app?vid=95711da2-7823-43c8-a941-1a8f2f502f95"},"vehicle_type_id":"4","last_reported":1779040107,"current_range_meters":6400,"station_id":"ce4bh692rcd13ifvqea0","pricing_plan_id":"cebpf4jnsgd1na2vs0mg"},{"bike_id":"0d5c2e2c-9e8d-44a4-bda9-d1c6f403857d","system_id":"levelo_inurba_marseille","lat":43.27449,"lon":5.39424,"is_reserved":false,"is_disabled":true,"rental_uris":{"android":"levelo://app?vid=0d5c2e2c-9e8d-44a4-bda9-d1c6f403857d","ios":"levelo://app?vid=0d5c2e2c-9e8d-44a4-bda9-d1c6f403857d"},"vehicle_type_id":"4","last_reported":1779040107,"current_range_meters":6400,"station_id":"ce4bhdp2rcd13ifvqf20","pricing_plan_id":"cebpf4jnsgd1na2vs0mg"},{"bike_id":"8303a7b4-418f-48c7-b219-9635d8d57054","system_id":"levelo_inurba_marseille","lat":43.2906,"lon":5.37556,"is_reserved":false,"is_disabled":false,"rental_uris":{"android":"levelo://app?vid=8303a7b4-418f-48c7-b219-9635d8d57054","ios":"levelo://app?vid=8303a7b4-418f-48c7-b219-9635d8d57054"},"vehicle_type_id":"4","last_reported":1779040107,"current_range_meters":6400,"station_id":"ce4bh692rcd13ifvqe90","pricing_plan_id":"cebpf4jnsgd1na2vs0mg"},{"bike_id":"1dae63ef-4de2-49ef-8c70-0c66bd3e64af","system_id":"levelo_inurba_marseille","lat":43.24798,"lon":5.37454,"is_reserved":false,"is_disabled":false,"rental_uris":{"android":"levelo://app?vid=1dae63ef-4de2-49ef-8c70-0c66bd3e64af","ios":"levelo://app?vid=1dae63ef-4de2-49ef-8c70-0c66bd3e64af"},"vehicle_type_id":"4","last_reported":1779040107,"current_range_meters":6400,"station_id":"ce4bhgh2rcd13ifvqfb0","pricing_plan_id":"cebpf4jnsgd1na2vs0mg"},{"bike_id":"b4214ae5-7627-40af-a795-4150e1eb6d8f","system_id":"levelo_inurba_marseille","lat":43.238948,"lon":5.374546,"is_reserved":false,"is_disabled":false,"rental_uris":{"android":"levelo://app?vid=b4214ae5-7627-40af-a795-4150e1eb6d8f","ios":"levelo://app?vid=b4214ae5-7627-40af-a795-4150e1eb6d8f"},"vehicle_type_id":"4","last_reported":1779040107,"current_range_meters":6400,"station_id":"st_d6sm7csbq4hs73f8fpjg","pricing_plan_id":"cebpf4jnsgd1na2vs0mg"},{"bike_id":"debcd401-caf4-427c-ab46-557da66dc721","system_id":"levelo_inurba_marseille","lat":43.299766,"lon":5.371825,"is_reserved":false,"is_disabled":false,"rental_uris":{"android":"levelo://app?vid=debcd401-caf4-427c-ab46-557da66dc721","ios":"levelo://app?vid=debcd401-caf4-427c-ab46-557da66dc721"},"vehicle_type_id":"4","last_reported":1779040107,"current_range_meters":6400,"station_id":"ce4bgr92rcd13ifvqc7g","pricing_plan_id":"cebpf4jnsgd1na2vs0mg"},{"bike_id":"03cbf105-cf6b-4651-8454-43ef533cbb5e","system_id":"levelo_inurba_marseille","lat":43.27377,"lon":5.36243,"is_reserved":false,"is_disabled":false,"rental_uris":{"android":"levelo://app?vid=03cbf105-cf6b-4651-8454-43ef533cbb5e","ios":"levelo://app?vid=03cbf105-cf6b-4651-8454-43ef533cbb5e"},"vehicle_type_id":"4","last_reported":1779040107,"current_range_meters":6400,"station_id":"ce4bhbh2rcd13ifvqeo0","pricing_plan_id":"cebpf4jnsgd1na2vs0mg"},{"bike_id":"240b6286-4f4b-43f3-9331-e5d036f2ef14","system_id":"levelo_inurba_marseille","lat":43.28389,"lon":5.45976,"is_reserved":false,"is_disabled":false,"rental_uris":{"android":"levelo://app?vid=240b6286-4f4b-43f3-9331-e5d036f2ef14","ios":"levelo://app?vid=240b6286-4f4b-43f3-9331-e5d036f2ef14"},"vehicle_type_id":"4","last_reported":1779040107,"current_range_meters":6400,"station_id":"ce4bhgh2rcd13ifvqfa0","pricing_plan_id":"cebpf4jnsgd1na2vs0mg"},{"bike_id":"7ed66a56-9ed6-45a8-a74f-b7c6cd0edd73","system_id":"levelo_inurba_marseille","lat":43.27457,"lon":5.39362,"is_reserved":false,"is_disabled":false,"rental_uris":{"android":"levelo://app?vid=7ed66a56-9ed6-45a8-a74f-b7c6cd0edd73","ios":"levelo://app?vid=7ed66a56-9ed6-45a8-a74f-b7c6cd0edd73"},"vehicle_type_id":"4","last_reported":1779040107,"current_range_meters":6400,"station_id":"","pricing_plan_id":"cebpf4jnsgd1na2vs0mg"},{"bike_id":"496b4330-ccf0-482a-b7e0-31e4099ccaa0","system_id":"levelo_inurba_marseille","lat":43.2971,"lon":5.36607,"is_reserved":false,"is_disabled":false,"rental_uris":{"android":"levelo://app?vid=496b4330-ccf0-482a-b7e0-31e4099ccaa0","ios":"levelo://app?vid=496b4330-ccf0-482a-b7e0-31e4099ccaa0"},"vehicle_type_id":"4","last_reported":1779040107,"current_range_meters":6400,"station_id":"ce4bgn12rcd13ifvqbt0","pricing_plan_id":"cebpf4jnsgd1na2vs0mg"},{"bike_id":"4c973194-0cb8-4bb0-88bb-df8e8d1b722b","system_id":"levelo_inurba_marseille","lat":43.29617,"lon":5.37797,"is_reserved":false,"is_disabled":false,"rental_uris":{"android":"levelo://app?vid=4c973194-0cb8-4bb0-88bb-df8e8d1b722b","ios":"levelo://app?vid=4c973194-0cb8-4bb0-88bb-df8e8d1b722b"},"vehicle_type_id":"4","last_reported":1779040107,"current_range_meters":6800,"station_id":"","pricing_plan_id":"cebpf4jnsgd1na2vs0mg"},{"bike_id":"4dbaece0-a3ad-475d-8b05-ae022f5e7bb3","system_id":"levelo_inurba_marseille","lat":43.22554,"lon":5.41624,"is_reserved":false,"is_disabled":false,"rental_uris":{"android":"levelo://app?vid=4dbaece0-a3ad-475d-8b05-ae022f5e7bb3","ios":"levelo://app?vid=4dbaece0-a3ad-475d-8b05-ae022f5e7bb3"},"vehicle_type_id":"4","last_reported":1779040107,"current_range_meters":6800,"station_id":"st_d2o4gvlbi1j2169b742g","pricing_plan_id":"cebpf4jnsgd1na2vs0mg"},{"bike_id":"d0e54cc1-c946-4f1d-b462-74c31199a59b","system_id":"levelo_inurba_marseille","lat":43.288558,"lon":5.425144,"is_reserved":false,"is_disabled":false,"rental_uris":{"android":"levelo://app?vid=d0e54cc1-c946-4f1d-b462-74c31199a59b","ios":"levelo://app?vid=d0e54cc1-c946-4f1d-b462-74c31199a59b"},"vehicle_type_id":"4","last_reported":1779040107,"current_range_meters":6800,"station_id":"st_d3b462108ojc7389ooeg","pricing_plan_id":"cebpf4jnsgd1na2vs0mg"},{"bike_id":"b4af981f-f721-4e28-b70c-2d8275b8d785","system_id":"levelo_inurba_marseille","lat":43.2396,"lon":5.36629,"is_reserved":false,"is_disabled":false,"rental_uris":{"android":"levelo://app?vid=b4af981f-f721-4e28-b70c-2d8275b8d785","ios":"levelo://app?vid=b4af981f-f721-4e28-b70c-2d8275b8d785"},"vehicle_type_id":"4","last_reported":1779040107,"current_range_meters":6800,"station_id":"ce4bhi12rcd13ifvqfp0","pricing_plan_id":"cebpf4jnsgd1na2vs0mg"},{"bike_id":"56c720ba-bffe-4565-baf2-dce22a3b2511","system_id":"levelo_inurba_marseille","lat":43.28262,"lon":5.35107,"is_reserved":false,"is_disabled":true,"rental_uris":{"android":"levelo://app?vid=56c720ba-bffe-4565-baf2-dce22a3b2511","ios":"levelo://app?vid=56c720ba-bffe-4565-baf2-dce22a3b2511"},"vehicle_type_id":"4","last_reported":1779040107,"current_range_meters":6800,"station_id":"ce4bhbp2rcd13ifvqerg","pricing_plan_id":"cebpf4jnsgd1na2vs0mg"},{"bike_id":"a0d48bfc-0c46-4e18-abed-54a555e2c39a","system_id":"levelo_inurba_marseille","lat":43.27998,"lon":5.38686,"is_reserved":false,"is_disabled":true,"rental_uris":{"android":"levelo://app?vid=a0d48bfc-0c46-4e18-abed-54a555e2c39a","ios":"levelo://app?vid=a0d48bfc-0c46-4e18-abed-54a555e2c39a"},"vehicle_type_id":"4","last_reported":1779040107,"current_range_meters":6800,"station_id":"ce4bhg12rcd13ifvqf80","pricing_plan_id":"cebpf4jnsgd1na2vs0mg"},{"bike_id":"b43502c3-f0ae-4f17-ab07-9790ef8bb80d","system_id":"levelo_inurba_marseille","lat":43.24632,"lon":5.38778,"is_reserved":false,"is_disabled":false,"rental_uris":{"android":"levelo://app?vid=b43502c3-f0ae-4f17-ab07-9790ef8bb80d","ios":"levelo://app?vid=b43502c3-f0ae-4f17-ab07-9790ef8bb80d"},"vehicle_type_id":"4","last_reported":1779040107,"current_range_meters":6800,"station_id":"ce4bhg12rcd13ifvqf60","pricing_plan_id":"cebpf4jnsgd1na2vs0mg"},{"bike_id":"137b778a-b95c-4eee-800c-547a0fa54ea6","system_id":"levelo_inurba_marseille","lat":43.24326,"lon":5.3844,"is_reserved":false,"is_disabled":false,"rental_uris":{"android":"levelo://app?vid=137b778a-b95c-4eee-800c-547a0fa54ea6","ios":"levelo://app?vid=137b778a-b95c-4eee-800c-547a0fa54ea6"},"vehicle_type_id":"4","last_reported":1779040107,"current_range_meters":6800,"station_id":"","pricing_plan_id":"cebpf4jnsgd1na2vs0mg"},{"bike_id":"8d44d028-7a4e-4b2d-9a91-71920fe5a35d","system_id":"levelo_inurba_marseille","lat":43.21188,"lon":5.35077,"is_reserved":false,"is_disabled":false,"rental_uris":{"android":"levelo://app?vid=8d44d028-7a4e-4b2d-9a91-71920fe5a35d","ios":"levelo://app?vid=8d44d028-7a4e-4b2d-9a91-71920fe5a35d"},"vehicle_type_id":"4","last_reported":1779040107,"current_range_meters":6800,"station_id":"st_cvj6sg6p6f1abm77japg","pricing_plan_id":"cebpf4jnsgd1na2vs0mg"},{"bike_id":"4bd6cc61-2e1c-4984-a986-4585da8a6771","system_id":"levelo_inurba_marseille","lat":43.24166,"lon":5.36397,"is_reserved":false,"is_disabled":false,"rental_uris":{"android":"levelo://app?vid=4bd6cc61-2e1c-4984-a986-4585da8a6771","ios":"levelo://app?vid=4bd6cc61-2e1c-4984-a986-4585da8a6771"},"vehicle_type_id":"4","last_reported":1779040107,"current_range_meters":6800,"station_id":"cpo36qri1sfpv3e86is0","pricing_plan_id":"cebpf4jnsgd1na2vs0mg"},{"bike_id":"442645f2-be4b-4da3-a858-e110ec9f6bc1","system_id":"levelo_inurba_marseille","lat":43.2764,"lon":5.36096,"is_reserved":false,"is_disabled":false,"rental_uris":{"android":"levelo://app?vid=442645f2-be4b-4da3-a858-e110ec9f6bc1","ios":"levelo://app?vid=442645f2-be4b-4da3-a858-e110ec9f6bc1"},"vehicle_type_id":"4","last_reported":1779040107,"current_range_meters":6800,"station_id":"ce4bgj92rcd13ifvqbe0","pricing_plan_id":"cebpf4jnsgd1na2vs0mg"},{"bike_id":"87206411-f5cd-472f-8930-1e2456b2345b","system_id":"levelo_inurba_marseille","lat":43.29926,"lon":5.37465,"is_reserved":false,"is_disabled":false,"rental_uris":{"android":"levelo://app?vid=87206411-f5cd-472f-8930-1e2456b2345b","ios":"levelo://app?vid=87206411-f5cd-472f-8930-1e2456b2345b"},"vehicle_type_id":"4","last_reported":1779040107,"current_range_meters":6800,"station_id":"ce4bgjh2rcd13ifvqbg0","pricing_plan_id":"cebpf4jnsgd1na2vs0mg"},{"bike_id":"8a1b2e51-e2db-41c9-b093-247a1a3cb14e","system_id":"levelo_inurba_marseille","lat":43.29299,"lon":5.40324,"is_reserved":false,"is_disabled":false,"rental_uris":{"android":"levelo://app?vid=8a1b2e51-e2db-41c9-b093-247a1a3cb14e","ios":"levelo://app?vid=8a1b2e51-e2db-41c9-b093-247a1a3cb14e"},"vehicle_type_id":"4","last_reported":1779040107,"current_range_meters":6800,"station_id":"","pricing_plan_id":"cebpf4jnsgd1na2vs0mg"},{"bike_id":"7bf52e93-3c4a-4f79-92b9-9d58970aba60","system_id":"levelo_inurba_marseille","lat":43.24396,"lon":5.37063,"is_reserved":false,"is_disabled":false,"rental_uris":{"android":"levelo://app?vid=7bf52e93-3c4a-4f79-92b9-9d58970aba60","ios":"levelo://app?vid=7bf52e93-3c4a-4f79-92b9-9d58970aba60"},"vehicle_type_id":"4","last_reported":1779040107,"current_range_meters":6800,"station_id":"ce4bhhh2rcd13ifvqfk0","pricing_plan_id":"cebpf4jnsgd1na2vs0mg"},{"bike_id":"54ada953-ca41-49be-806e-9398c45e74b8","system_id":"levelo_inurba_marseille","lat":43.32126,"lon":5.36792,"is_reserved":false,"is_disabled":false,"rental_uris":{"android":"levelo://app?vid=54ada953-ca41-49be-806e-9398c45e74b8","ios":"levelo://app?vid=54ada953-ca41-49be-806e-9398c45e74b8"},"vehicle_type_id":"4","last_reported":1779040107,"current_range_meters":6800,"station_id":"ce4bhrh2rcd13ifvqhug","pricing_plan_id":"cebpf4jnsgd1na2vs0mg"},{"bike_id":"a40dda42-3edd-4425-ab25-e38db376426a","system_id":"levelo_inurba_marseille","lat":43.30257,"lon":5.40062,"is_reserved":false,"is_disabled":false,"rental_uris":{"android":"levelo://app?vid=a40dda42-3edd-4425-ab25-e38db376426a","ios":"levelo://app?vid=a40dda42-3edd-4425-ab25-e38db376426a"},"vehicle_type_id":"4","last_reported":1779040107,"current_range_meters":6800,"station_id":"ce4bgvh2rcd13ifvqcs0","pricing_plan_id":"cebpf4jnsgd1na2vs0mg"},{"bike_id":"f92f6fcd-9c41-4496-aa8c-376bbc87dfb4","system_id":"levelo_inurba_marseille","lat":43.23929,"lon":5.37464,"is_reserved":false,"is_disabled":true,"rental_uris":{"android":"levelo://app?vid=f92f6fcd-9c41-4496-aa8c-376bbc87dfb4","ios":"levelo://app?vid=f92f6fcd-9c41-4496-aa8c-376bbc87dfb4"},"vehicle_type_id":"4","last_reported":1779040107,"current_range_meters":6800,"station_id":"st_d6sm7csbq4hs73f8fpjg","pricing_plan_id":"cebpf4jnsgd1na2vs0mg"},{"bike_id":"c4b6d67e-5b39-4762-b24d-09d9e2e92434","system_id":"levelo_inurba_marseille","lat":43.27812,"lon":5.39216,"is_reserved":false,"is_disabled":false,"rental_uris":{"android":"levelo://app?vid=c4b6d67e-5b39-4762-b24d-09d9e2e92434","ios":"levelo://app?vid=c4b6d67e-5b39-4762-b24d-09d9e2e92434"},"vehicle_type_id":"4","last_reported":1779040107,"current_range_meters":6800,"station_id":"ce4bhjp2rcd13ifvqga0","pricing_plan_id":"cebpf4jnsgd1na2vs0mg"},{"bike_id":"b443c751-2d22-4a14-84a6-5fec3f48ab3e","system_id":"levelo_inurba_marseille","lat":43.24074,"lon":5.37765,"is_reserved":false,"is_disabled":false,"rental_uris":{"android":"levelo://app?vid=b443c751-2d22-4a14-84a6-5fec3f48ab3e","ios":"levelo://app?vid=b443c751-2d22-4a14-84a6-5fec3f48ab3e"},"vehicle_type_id":"4","last_reported":1779040107,"current_range_meters":6800,"station_id":"ce4bhnp2rcd13ifvqgvg","pricing_plan_id":"cebpf4jnsgd1na2vs0mg"},{"bike_id":"d0fbba3c-1fb7-4393-b804-e27ad9b0a91e","system_id":"levelo_inurba_marseille","lat":43.29058,"lon":5.37165,"is_reserved":false,"is_disabled":false,"rental_uris":{"android":"levelo://app?vid=d0fbba3c-1fb7-4393-b804-e27ad9b0a91e","ios":"levelo://app?vid=d0fbba3c-1fb7-4393-b804-e27ad9b0a91e"},"vehicle_type_id":"4","last_reported":1779040107,"current_range_meters":6800,"station_id":"ce4bh5p2rcd13ifvqe4g","pricing_plan_id":"cebpf4jnsgd1na2vs0mg"},{"bike_id":"d30b1dc5-9184-4410-9bb8-802c4f88446f","system_id":"levelo_inurba_marseille","lat":43.297193,"lon":5.366,"is_reserved":false,"is_disabled":false,"rental_uris":{"android":"levelo://app?vid=d30b1dc5-9184-4410-9bb8-802c4f88446f","ios":"levelo://app?vid=d30b1dc5-9184-4410-9bb8-802c4f88446f"},"vehicle_type_id":"4","last_reported":1779040107,"current_range_meters":6800,"station_id":"ce4bgn12rcd13ifvqbt0","pricing_plan_id":"cebpf4jnsgd1na2vs0mg"},{"bike_id":"9d258fa2-38bd-432a-b389-3947c9469e02","system_id":"levelo_inurba_marseille","lat":43.28415,"lon":5.34986,"is_reserved":false,"is_disabled":false,"rental_uris":{"android":"levelo://app?vid=9d258fa2-38bd-432a-b389-3947c9469e02","ios":"levelo://app?vid=9d258fa2-38bd-432a-b389-3947c9469e02"},"vehicle_type_id":"4","last_reported":1779040107,"current_range_meters":6800,"station_id":"ce4bhbh2rcd13ifvqepg","pricing_plan_id":"cebpf4jnsgd1na2vs0mg"},{"bike_id":"35f03423-e010-47cb-9228-91fc6affa5d8","system_id":"levelo_inurba_marseille","lat":43.265756,"lon":5.39013,"is_reserved":false,"is_disabled":false,"rental_uris":{"android":"levelo://app?vid=35f03423-e010-47cb-9228-91fc6affa5d8","ios":"levelo://app?vid=35f03423-e010-47cb-9228-91fc6affa5d8"},"vehicle_type_id":"4","last_reported":1779040107,"current_range_meters":6800,"station_id":"ce4bhe12rcd13ifvqf30","pricing_plan_id":"cebpf4jnsgd1na2vs0mg"},{"bike_id":"54d168f4-082e-46e5-ae25-8c28e25db536","system_id":"levelo_inurba_marseille","lat":43.26238,"lon":5.37585,"is_reserved":false,"is_disabled":false,"rental_uris":{"android":"levelo://app?vid=54d168f4-082e-46e5-ae25-8c28e25db536","ios":"levelo://app?vid=54d168f4-082e-46e5-ae25-8c28e25db536"},"vehicle_type_id":"4","last_reported":1779040107,"current_range_meters":6800,"station_id":"","pricing_plan_id":"cebpf4jnsgd1na2vs0mg"},{"bike_id":"182f56d1-c770-4bae-bf7a-b9a3a417c54c","system_id":"levelo_inurba_marseille","lat":43.32109,"lon":5.36764,"is_reserved":false,"is_disabled":false,"rental_uris":{"android":"levelo://app?vid=182f56d1-c770-4bae-bf7a-b9a3a417c54c","ios":"levelo://app?vid=182f56d1-c770-4bae-bf7a-b9a3a417c54c"},"vehicle_type_id":"4","last_reported":1779040107,"current_range_meters":6800,"station_id":"ce4bhrh2rcd13ifvqhug","pricing_plan_id":"cebpf4jnsgd1na2vs0mg"},{"bike_id":"ff75d43b-b9ae-447f-854f-ad7f05b22350","system_id":"levelo_inurba_marseille","lat":43.25595,"lon":5.38216,"is_reserved":false,"is_disabled":false,"rental_uris":{"android":"levelo://app?vid=ff75d43b-b9ae-447f-854f-ad7f05b22350","ios":"levelo://app?vid=ff75d43b-b9ae-447f-854f-ad7f05b22350"},"vehicle_type_id":"4","last_reported":1779040107,"current_range_meters":6800,"station_id":"ce4bhih2rcd13ifvqfs0","pricing_plan_id":"cebpf4jnsgd1na2vs0mg"},{"bike_id":"656f7c56-164d-4184-9440-28fab6d55f2d","system_id":"levelo_inurba_marseille","lat":43.24386,"lon":5.37035,"is_reserved":false,"is_disabled":false,"rental_uris":{"android":"levelo://app?vid=656f7c56-164d-4184-9440-28fab6d55f2d","ios":"levelo://app?vid=656f7c56-164d-4184-9440-28fab6d55f2d"},"vehicle_type_id":"4","last_reported":1779040107,"current_range_meters":7200,"station_id":"ce4bhhh2rcd13ifvqfk0","pricing_plan_id":"cebpf4jnsgd1na2vs0mg"},{"bike_id":"0335f9ce-a8e4-4f58-b0c9-592088e1f662","system_id":"levelo_inurba_marseille","lat":43.29894,"lon":5.37496,"is_reserved":false,"is_disabled":false,"rental_uris":{"android":"levelo://app?vid=0335f9ce-a8e4-4f58-b0c9-592088e1f662","ios":"levelo://app?vid=0335f9ce-a8e4-4f58-b0c9-592088e1f662"},"vehicle_type_id":"4","last_reported":1779040107,"current_range_meters":7200,"station_id":"ce4bgjh2rcd13ifvqbg0","pricing_plan_id":"cebpf4jnsgd1na2vs0mg"},{"bike_id":"b5ef37c8-ab81-490b-b48c-79f1ecfc667d","system_id":"levelo_inurba_marseille","lat":43.27069,"lon":5.383,"is_reserved":false,"is_disabled":false,"rental_uris":{"android":"levelo://app?vid=b5ef37c8-ab81-490b-b48c-79f1ecfc667d","ios":"levelo://app?vid=b5ef37c8-ab81-490b-b48c-79f1ecfc667d"},"vehicle_type_id":"4","last_reported":1779040107,"current_range_meters":7200,"station_id":"st_d3n2fo6cfp8s73cte1j0","pricing_plan_id":"cebpf4jnsgd1na2vs0mg"},{"bike_id":"08f2f3de-09e4-4451-8c67-d915318ee445","system_id":"levelo_inurba_marseille","lat":43.29088,"lon":5.37159,"is_reserved":false,"is_disabled":true,"rental_uris":{"android":"levelo://app?vid=08f2f3de-09e4-4451-8c67-d915318ee445","ios":"levelo://app?vid=08f2f3de-09e4-4451-8c67-d915318ee445"},"vehicle_type_id":"4","last_reported":1779040107,"current_range_meters":7200,"station_id":"ce4bh5p2rcd13ifvqe4g","pricing_plan_id":"cebpf4jnsgd1na2vs0mg"},{"bike_id":"d721118e-4169-4f8c-8cb7-94cd8f8380ce","system_id":"levelo_inurba_marseille","lat":43.21217,"lon":5.35056,"is_reserved":false,"is_disabled":false,"rental_uris":{"android":"levelo://app?vid=d721118e-4169-4f8c-8cb7-94cd8f8380ce","ios":"levelo://app?vid=d721118e-4169-4f8c-8cb7-94cd8f8380ce"},"vehicle_type_id":"4","last_reported":1779040107,"current_range_meters":7200,"station_id":"st_cvj6sg6p6f1abm77japg","pricing_plan_id":"cebpf4jnsgd1na2vs0mg"},{"bike_id":"bf6ef11e-a79f-44d0-b2a6-29c5f67dc201","system_id":"levelo_inurba_marseille","lat":43.24642,"lon":5.38897,"is_reserved":false,"is_disabled":false,"rental_uris":{"android":"levelo://app?vid=bf6ef11e-a79f-44d0-b2a6-29c5f67dc201","ios":"levelo://app?vid=bf6ef11e-a79f-44d0-b2a6-29c5f67dc201"},"vehicle_type_id":"4","last_reported":1779040107,"current_range_meters":7200,"station_id":"ce4bhg12rcd13ifvqf60","pricing_plan_id":"cebpf4jnsgd1na2vs0mg"},{"bike_id":"2fa8d4be-dae4-4c3a-9adc-e52d62c1bef4","system_id":"levelo_inurba_marseille","lat":43.32468,"lon":5.36579,"is_reserved":false,"is_disabled":false,"rental_uris":{"android":"levelo://app?vid=2fa8d4be-dae4-4c3a-9adc-e52d62c1bef4","ios":"levelo://app?vid=2fa8d4be-dae4-4c3a-9adc-e52d62c1bef4"},"vehicle_type_id":"4","last_reported":1779040107,"current_range_meters":7200,"station_id":"ce4bhs12rcd13ifvqhvg","pricing_plan_id":"cebpf4jnsgd1na2vs0mg"},{"bike_id":"96d1b7af-f895-4490-be19-b0f3d9010d6e","system_id":"levelo_inurba_marseille","lat":43.26825,"lon":5.40253,"is_reserved":false,"is_disabled":false,"rental_uris":{"android":"levelo://app?vid=96d1b7af-f895-4490-be19-b0f3d9010d6e","ios":"levelo://app?vid=96d1b7af-f895-4490-be19-b0f3d9010d6e"},"vehicle_type_id":"4","last_reported":1779040107,"current_range_meters":7200,"station_id":"ce501612rcd8frsf0b60","pricing_plan_id":"cebpf4jnsgd1na2vs0mg"},{"bike_id":"6aaadbf3-0599-49a3-a6f0-7b081fc3ee28","system_id":"levelo_inurba_marseille","lat":43.26869,"lon":5.39477,"is_reserved":false,"is_disabled":false,"rental_uris":{"android":"levelo://app?vid=6aaadbf3-0599-49a3-a6f0-7b081fc3ee28","ios":"levelo://app?vid=6aaadbf3-0599-49a3-a6f0-7b081fc3ee28"},"vehicle_type_id":"4","last_reported":1779040107,"current_range_meters":7200,"station_id":"","pricing_plan_id":"cebpf4jnsgd1na2vs0mg"},{"bike_id":"872c4a97-6a47-4733-8287-7f8b72c8243d","system_id":"levelo_inurba_marseille","lat":43.2902,"lon":5.38121,"is_reserved":false,"is_disabled":false,"rental_uris":{"android":"levelo://app?vid=872c4a97-6a47-4733-8287-7f8b72c8243d","ios":"levelo://app?vid=872c4a97-6a47-4733-8287-7f8b72c8243d"},"vehicle_type_id":"4","last_reported":1779040107,"current_range_meters":7200,"station_id":"ce4bh4p2rcd13ifvqe1g","pricing_plan_id":"cebpf4jnsgd1na2vs0mg"},{"bike_id":"2b074ea8-7a30-45a0-8ba4-dfec0b43bffd","system_id":"levelo_inurba_marseille","lat":43.25003,"lon":5.38931,"is_reserved":false,"is_disabled":false,"rental_uris":{"android":"levelo://app?vid=2b074ea8-7a30-45a0-8ba4-dfec0b43bffd","ios":"levelo://app?vid=2b074ea8-7a30-45a0-8ba4-dfec0b43bffd"},"vehicle_type_id":"4","last_reported":1779040107,"current_range_meters":7200,"station_id":"ce4bhgp2rcd13ifvqfd0","pricing_plan_id":"cebpf4jnsgd1na2vs0mg"},{"bike_id":"437d32ab-baaf-40a5-bfea-d429303d4b03","system_id":"levelo_inurba_marseille","lat":43.249506,"lon":5.404883,"is_reserved":false,"is_disabled":false,"rental_uris":{"android":"levelo://app?vid=437d32ab-baaf-40a5-bfea-d429303d4b03","ios":"levelo://app?vid=437d32ab-baaf-40a5-bfea-d429303d4b03"},"vehicle_type_id":"4","last_reported":1779040107,"current_range_meters":7200,"station_id":"st_d2ngiaodas8pm72gd1h0","pricing_plan_id":"cebpf4jnsgd1na2vs0mg"},{"bike_id":"a0c8d467-3652-4f28-b885-8caa09991022","system_id":"levelo_inurba_marseille","lat":43.29936,"lon":5.36534,"is_reserved":false,"is_disabled":false,"rental_uris":{"android":"levelo://app?vid=a0c8d467-3652-4f28-b885-8caa09991022","ios":"levelo://app?vid=a0c8d467-3652-4f28-b885-8caa09991022"},"vehicle_type_id":"4","last_reported":1779040107,"current_range_meters":7200,"station_id":"ce4bgm92rcd13ifvqbr0","pricing_plan_id":"cebpf4jnsgd1na2vs0mg"},{"bike_id":"5feb3f30-afde-4f82-8771-0ec8bc91deb3","system_id":"levelo_inurba_marseille","lat":43.26376,"lon":5.41054,"is_reserved":false,"is_disabled":false,"rental_uris":{"android":"levelo://app?vid=5feb3f30-afde-4f82-8771-0ec8bc91deb3","ios":"levelo://app?vid=5feb3f30-afde-4f82-8771-0ec8bc91deb3"},"vehicle_type_id":"4","last_reported":1779040107,"current_range_meters":7200,"station_id":"st_d4e5ca6na9uc73bfl5fg","pricing_plan_id":"cebpf4jnsgd1na2vs0mg"},{"bike_id":"33984465-0aad-49c1-bb00-df21964d86e5","system_id":"levelo_inurba_marseille","lat":43.2735,"lon":5.39052,"is_reserved":false,"is_disabled":false,"rental_uris":{"android":"levelo://app?vid=33984465-0aad-49c1-bb00-df21964d86e5","ios":"levelo://app?vid=33984465-0aad-49c1-bb00-df21964d86e5"},"vehicle_type_id":"4","last_reported":1779040107,"current_range_meters":7200,"station_id":"ce4bhgp2rcd13ifvqfe0","pricing_plan_id":"cebpf4jnsgd1na2vs0mg"},{"bike_id":"5f763788-3e54-45d2-ba90-2fea7ff0ff16","system_id":"levelo_inurba_marseille","lat":43.2721,"lon":5.39178,"is_reserved":false,"is_disabled":false,"rental_uris":{"android":"levelo://app?vid=5f763788-3e54-45d2-ba90-2fea7ff0ff16","ios":"levelo://app?vid=5f763788-3e54-45d2-ba90-2fea7ff0ff16"},"vehicle_type_id":"4","last_reported":1779040107,"current_range_meters":7200,"station_id":"ce4bhhp2rcd13ifvqfm0","pricing_plan_id":"cebpf4jnsgd1na2vs0mg"},{"bike_id":"f972c60d-70e3-4ef3-a7b0-9841689ff089","system_id":"levelo_inurba_marseille","lat":43.29515,"lon":5.37521,"is_reserved":false,"is_disabled":false,"rental_uris":{"android":"levelo://app?vid=f972c60d-70e3-4ef3-a7b0-9841689ff089","ios":"levelo://app?vid=f972c60d-70e3-4ef3-a7b0-9841689ff089"},"vehicle_type_id":"4","last_reported":1779040107,"current_range_meters":7200,"station_id":"ce4bgkp2rcd13ifvqbmg","pricing_plan_id":"cebpf4jnsgd1na2vs0mg"},{"bike_id":"d7950f57-2b46-4767-914d-35be4bed065d","system_id":"levelo_inurba_marseille","lat":43.24151,"lon":5.36419,"is_reserved":false,"is_disabled":false,"rental_uris":{"android":"levelo://app?vid=d7950f57-2b46-4767-914d-35be4bed065d","ios":"levelo://app?vid=d7950f57-2b46-4767-914d-35be4bed065d"},"vehicle_type_id":"4","last_reported":1779040107,"current_range_meters":7200,"station_id":"cpo36qri1sfpv3e86is0","pricing_plan_id":"cebpf4jnsgd1na2vs0mg"},{"bike_id":"374ee616-bc18-4978-8d89-1558f723db5a","system_id":"levelo_inurba_marseille","lat":43.2679,"lon":5.39424,"is_reserved":false,"is_disabled":false,"rental_uris":{"android":"levelo://app?vid=374ee616-bc18-4978-8d89-1558f723db5a","ios":"levelo://app?vid=374ee616-bc18-4978-8d89-1558f723db5a"},"vehicle_type_id":"4","last_reported":1779040107,"current_range_meters":7200,"station_id":"ce4bhh12rcd13ifvqfg0","pricing_plan_id":"cebpf4jnsgd1na2vs0mg"},{"bike_id":"cff76e20-e3ee-46b3-880c-12cb2683ae54","system_id":"levelo_inurba_marseille","lat":43.28408,"lon":5.34977,"is_reserved":false,"is_disabled":false,"rental_uris":{"android":"levelo://app?vid=cff76e20-e3ee-46b3-880c-12cb2683ae54","ios":"levelo://app?vid=cff76e20-e3ee-46b3-880c-12cb2683ae54"},"vehicle_type_id":"4","last_reported":1779040107,"current_range_meters":7200,"station_id":"ce4bhbh2rcd13ifvqepg","pricing_plan_id":"cebpf4jnsgd1na2vs0mg"},{"bike_id":"acaec752-e42a-4fa7-82cf-c9d33eeaf717","system_id":"levelo_inurba_marseille","lat":43.296302,"lon":5.405973,"is_reserved":false,"is_disabled":false,"rental_uris":{"android":"levelo://app?vid=acaec752-e42a-4fa7-82cf-c9d33eeaf717","ios":"levelo://app?vid=acaec752-e42a-4fa7-82cf-c9d33eeaf717"},"vehicle_type_id":"4","last_reported":1779040107,"current_range_meters":7200,"station_id":"ce4bh0h2rcd13ifvqd60","pricing_plan_id":"cebpf4jnsgd1na2vs0mg"},{"bike_id":"9bff024c-dcc8-4579-a86c-c33cb9c99199","system_id":"levelo_inurba_marseille","lat":43.30331,"lon":5.4043,"is_reserved":false,"is_disabled":false,"rental_uris":{"android":"levelo://app?vid=9bff024c-dcc8-4579-a86c-c33cb9c99199","ios":"levelo://app?vid=9bff024c-dcc8-4579-a86c-c33cb9c99199"},"vehicle_type_id":"4","last_reported":1779040107,"current_range_meters":7200,"station_id":"ce4bh012rcd13ifvqd10","pricing_plan_id":"cebpf4jnsgd1na2vs0mg"},{"bike_id":"1be2e1ea-e6bd-4d8a-a1d1-f02191f22dbe","system_id":"levelo_inurba_marseille","lat":43.2977,"lon":5.36569,"is_reserved":false,"is_disabled":false,"rental_uris":{"android":"levelo://app?vid=1be2e1ea-e6bd-4d8a-a1d1-f02191f22dbe","ios":"levelo://app?vid=1be2e1ea-e6bd-4d8a-a1d1-f02191f22dbe"},"vehicle_type_id":"4","last_reported":1779040107,"current_range_meters":8000,"station_id":"ce4bgn12rcd13ifvqbt0","pricing_plan_id":"cebpf4jnsgd1na2vs0mg"},{"bike_id":"0ca266b4-e43b-4acc-a0a9-ab242cc7399f","system_id":"levelo_inurba_marseille","lat":43.26562,"lon":5.39665,"is_reserved":false,"is_disabled":false,"rental_uris":{"android":"levelo://app?vid=0ca266b4-e43b-4acc-a0a9-ab242cc7399f","ios":"levelo://app?vid=0ca266b4-e43b-4acc-a0a9-ab242cc7399f"},"vehicle_type_id":"4","last_reported":1779040107,"current_range_meters":8000,"station_id":"","pricing_plan_id":"cebpf4jnsgd1na2vs0mg"},{"bike_id":"b87347bd-0e32-478d-b659-488fdba32135","system_id":"levelo_inurba_marseille","lat":43.21196,"lon":5.35063,"is_reserved":false,"is_disabled":false,"rental_uris":{"android":"levelo://app?vid=b87347bd-0e32-478d-b659-488fdba32135","ios":"levelo://app?vid=b87347bd-0e32-478d-b659-488fdba32135"},"vehicle_type_id":"4","last_reported":1779040107,"current_range_meters":8000,"station_id":"st_cvj6sg6p6f1abm77japg","pricing_plan_id":"cebpf4jnsgd1na2vs0mg"},{"bike_id":"091f5e46-a208-4c3a-bf11-e21787972028","system_id":"levelo_inurba_marseille","lat":43.26938,"lon":5.40274,"is_reserved":false,"is_disabled":false,"rental_uris":{"android":"levelo://app?vid=091f5e46-a208-4c3a-bf11-e21787972028","ios":"levelo://app?vid=091f5e46-a208-4c3a-bf11-e21787972028"},"vehicle_type_id":"4","last_reported":1779040107,"current_range_meters":8000,"station_id":"cjm6bp8fraef2m0cb0m0","pricing_plan_id":"cebpf4jnsgd1na2vs0mg"},{"bike_id":"f7909d33-2514-42ac-bbc5-feeb1f866dd4","system_id":"levelo_inurba_marseille","lat":43.28613,"lon":5.351,"is_reserved":false,"is_disabled":false,"rental_uris":{"android":"levelo://app?vid=f7909d33-2514-42ac-bbc5-feeb1f866dd4","ios":"levelo://app?vid=f7909d33-2514-42ac-bbc5-feeb1f866dd4"},"vehicle_type_id":"4","last_reported":1779040107,"current_range_meters":8000,"station_id":"ce4bhch2rcd13ifvqeug","pricing_plan_id":"cebpf4jnsgd1na2vs0mg"},{"bike_id":"6eb578a0-2499-4931-b256-efca24c61683","system_id":"levelo_inurba_marseille","lat":43.30949,"lon":5.39034,"is_reserved":false,"is_disabled":true,"rental_uris":{"android":"levelo://app?vid=6eb578a0-2499-4931-b256-efca24c61683","ios":"levelo://app?vid=6eb578a0-2499-4931-b256-efca24c61683"},"vehicle_type_id":"4","last_reported":1779040107,"current_range_meters":8000,"station_id":"ce4bgup2rcd13ifvqco0","pricing_plan_id":"cebpf4jnsgd1na2vs0mg"},{"bike_id":"0dde3bde-9472-4281-ba71-0a378afe8b6e","system_id":"levelo_inurba_marseille","lat":43.32474,"lon":5.36563,"is_reserved":false,"is_disabled":false,"rental_uris":{"android":"levelo://app?vid=0dde3bde-9472-4281-ba71-0a378afe8b6e","ios":"levelo://app?vid=0dde3bde-9472-4281-ba71-0a378afe8b6e"},"vehicle_type_id":"4","last_reported":1779040107,"current_range_meters":8000,"station_id":"ce4bhs12rcd13ifvqhvg","pricing_plan_id":"cebpf4jnsgd1na2vs0mg"},{"bike_id":"1cc97de6-596f-4dfb-8143-05772e538f98","system_id":"levelo_inurba_marseille","lat":43.27208,"lon":5.39171,"is_reserved":false,"is_disabled":true,"rental_uris":{"android":"levelo://app?vid=1cc97de6-596f-4dfb-8143-05772e538f98","ios":"levelo://app?vid=1cc97de6-596f-4dfb-8143-05772e538f98"},"vehicle_type_id":"4","last_reported":1779040107,"current_range_meters":8000,"station_id":"ce4bhhp2rcd13ifvqfm0","pricing_plan_id":"cebpf4jnsgd1na2vs0mg"},{"bike_id":"96282728-8c30-4705-9f44-b996a4ed3664","system_id":"levelo_inurba_marseille","lat":43.27814,"lon":5.39215,"is_reserved":false,"is_disabled":true,"rental_uris":{"android":"levelo://app?vid=96282728-8c30-4705-9f44-b996a4ed3664","ios":"levelo://app?vid=96282728-8c30-4705-9f44-b996a4ed3664"},"vehicle_type_id":"4","last_reported":1779040107,"current_range_meters":8000,"station_id":"ce4bhjp2rcd13ifvqga0","pricing_plan_id":"cebpf4jnsgd1na2vs0mg"},{"bike_id":"40ef02b1-c052-4599-9b8e-b943fbcee2d8","system_id":"levelo_inurba_marseille","lat":43.30792,"lon":5.3817,"is_reserved":false,"is_disabled":false,"rental_uris":{"android":"levelo://app?vid=40ef02b1-c052-4599-9b8e-b943fbcee2d8","ios":"levelo://app?vid=40ef02b1-c052-4599-9b8e-b943fbcee2d8"},"vehicle_type_id":"4","last_reported":1779040107,"current_range_meters":8000,"station_id":"ce4bgt12rcd13ifvqce0","pricing_plan_id":"cebpf4jnsgd1na2vs0mg"},{"bike_id":"761f4e06-8548-4f23-b7a1-e857d4fa498e","system_id":"levelo_inurba_marseille","lat":43.28643,"lon":5.37809,"is_reserved":false,"is_disabled":false,"rental_uris":{"android":"levelo://app?vid=761f4e06-8548-4f23-b7a1-e857d4fa498e","ios":"levelo://app?vid=761f4e06-8548-4f23-b7a1-e857d4fa498e"},"vehicle_type_id":"4","last_reported":1779040107,"current_range_meters":8000,"station_id":"","pricing_plan_id":"cebpf4jnsgd1na2vs0mg"},{"bike_id":"fb0fd09f-b9fb-49be-bd3b-d3d430925ce2","system_id":"levelo_inurba_marseille","lat":43.26546,"lon":5.37284,"is_reserved":false,"is_disabled":false,"rental_uris":{"android":"levelo://app?vid=fb0fd09f-b9fb-49be-bd3b-d3d430925ce2","ios":"levelo://app?vid=fb0fd09f-b9fb-49be-bd3b-d3d430925ce2"},"vehicle_type_id":"4","last_reported":1779040107,"current_range_meters":8000,"station_id":"ce4bhg12rcd13ifvqf70","pricing_plan_id":"cebpf4jnsgd1na2vs0mg"},{"bike_id":"6b9ebdf6-c4cd-49d3-a349-a2e0b5ae29fb","system_id":"levelo_inurba_marseille","lat":43.27298,"lon":5.39041,"is_reserved":false,"is_disabled":false,"rental_uris":{"android":"levelo://app?vid=6b9ebdf6-c4cd-49d3-a349-a2e0b5ae29fb","ios":"levelo://app?vid=6b9ebdf6-c4cd-49d3-a349-a2e0b5ae29fb"},"vehicle_type_id":"4","last_reported":1779040107,"current_range_meters":8000,"station_id":"ce4bhgp2rcd13ifvqfe0","pricing_plan_id":"cebpf4jnsgd1na2vs0mg"},{"bike_id":"84ae8992-54c6-43b3-8c6d-2292740fee0f","system_id":"levelo_inurba_marseille","lat":43.21185,"lon":5.35103,"is_reserved":false,"is_disabled":false,"rental_uris":{"android":"levelo://app?vid=84ae8992-54c6-43b3-8c6d-2292740fee0f","ios":"levelo://app?vid=84ae8992-54c6-43b3-8c6d-2292740fee0f"},"vehicle_type_id":"4","last_reported":1779040107,"current_range_meters":8000,"station_id":"st_cvj6sg6p6f1abm77japg","pricing_plan_id":"cebpf4jnsgd1na2vs0mg"},{"bike_id":"5f49c5f0-4c69-4cd2-870e-52ae13c28c58","system_id":"levelo_inurba_marseille","lat":43.28305,"lon":5.35071,"is_reserved":false,"is_disabled":true,"rental_uris":{"android":"levelo://app?vid=5f49c5f0-4c69-4cd2-870e-52ae13c28c58","ios":"levelo://app?vid=5f49c5f0-4c69-4cd2-870e-52ae13c28c58"},"vehicle_type_id":"4","last_reported":1779040107,"current_range_meters":8000,"station_id":"ce4bhbp2rcd13ifvqerg","pricing_plan_id":"cebpf4jnsgd1na2vs0mg"},{"bike_id":"8f4bb2f5-e2c4-4128-8671-5b69d12b922c","system_id":"levelo_inurba_marseille","lat":43.29555,"lon":5.42291,"is_reserved":false,"is_disabled":false,"rental_uris":{"android":"levelo://app?vid=8f4bb2f5-e2c4-4128-8671-5b69d12b922c","ios":"levelo://app?vid=8f4bb2f5-e2c4-4128-8671-5b69d12b922c"},"vehicle_type_id":"4","last_reported":1779040107,"current_range_meters":8000,"station_id":"ce4bhph2rcd13ifvqhdg","pricing_plan_id":"cebpf4jnsgd1na2vs0mg"},{"bike_id":"6195fbd7-1477-4015-9a73-556ab96e802b","system_id":"levelo_inurba_marseille","lat":43.29254,"lon":5.38445,"is_reserved":false,"is_disabled":false,"rental_uris":{"android":"levelo://app?vid=6195fbd7-1477-4015-9a73-556ab96e802b","ios":"levelo://app?vid=6195fbd7-1477-4015-9a73-556ab96e802b"},"vehicle_type_id":"4","last_reported":1779040107,"current_range_meters":8000,"station_id":"ce4bh692rcd13ifvqea0","pricing_plan_id":"cebpf4jnsgd1na2vs0mg"},{"bike_id":"b5f6a4e9-82b0-40b6-970a-97410de3e59c","system_id":"levelo_inurba_marseille","lat":43.276222,"lon":5.361069,"is_reserved":false,"is_disabled":false,"rental_uris":{"android":"levelo://app?vid=b5f6a4e9-82b0-40b6-970a-97410de3e59c","ios":"levelo://app?vid=b5f6a4e9-82b0-40b6-970a-97410de3e59c"},"vehicle_type_id":"4","last_reported":1779040107,"current_range_meters":8000,"station_id":"ce4bgj92rcd13ifvqbe0","pricing_plan_id":"cebpf4jnsgd1na2vs0mg"},{"bike_id":"4222e725-da41-4a6e-9bcc-22f0d0946dc4","system_id":"levelo_inurba_marseille","lat":43.29815,"lon":5.41665,"is_reserved":false,"is_disabled":false,"rental_uris":{"android":"levelo://app?vid=4222e725-da41-4a6e-9bcc-22f0d0946dc4","ios":"levelo://app?vid=4222e725-da41-4a6e-9bcc-22f0d0946dc4"},"vehicle_type_id":"4","last_reported":1779040107,"current_range_meters":8000,"station_id":"","pricing_plan_id":"cebpf4jnsgd1na2vs0mg"},{"bike_id":"0a0c99b1-62f3-4edd-ace9-bf05198710a7","system_id":"levelo_inurba_marseille","lat":43.26962,"lon":5.36629,"is_reserved":false,"is_disabled":false,"rental_uris":{"android":"levelo://app?vid=0a0c99b1-62f3-4edd-ace9-bf05198710a7","ios":"levelo://app?vid=0a0c99b1-62f3-4edd-ace9-bf05198710a7"},"vehicle_type_id":"4","last_reported":1779040107,"current_range_meters":8000,"station_id":"","pricing_plan_id":"cebpf4jnsgd1na2vs0mg"},{"bike_id":"f26a9947-e323-4c9e-8beb-d40817d71a4f","system_id":"levelo_inurba_marseille","lat":43.26575,"lon":5.38995,"is_reserved":false,"is_disabled":false,"rental_uris":{"android":"levelo://app?vid=f26a9947-e323-4c9e-8beb-d40817d71a4f","ios":"levelo://app?vid=f26a9947-e323-4c9e-8beb-d40817d71a4f"},"vehicle_type_id":"4","last_reported":1779040107,"current_range_meters":8000,"station_id":"ce4bhe12rcd13ifvqf30","pricing_plan_id":"cebpf4jnsgd1na2vs0mg"},{"bike_id":"79672de7-49b5-4301-a212-39ab1157026b","system_id":"levelo_inurba_marseille","lat":43.27334,"lon":5.39061,"is_reserved":false,"is_disabled":false,"rental_uris":{"android":"levelo://app?vid=79672de7-49b5-4301-a212-39ab1157026b","ios":"levelo://app?vid=79672de7-49b5-4301-a212-39ab1157026b"},"vehicle_type_id":"4","last_reported":1779040107,"current_range_meters":8000,"station_id":"ce4bhgp2rcd13ifvqfe0","pricing_plan_id":"cebpf4jnsgd1na2vs0mg"},