{"last_updated":1747235456,"ttl":60,"version":"2.2","data":{"bikes":[{"bike_id":"c0b9fd4f-e181-46ce-b0bf-f5119973334f","system_id":"levelo_inurba_marseille","lat":43.33771,"lon":5.37424,"is_reserved":false,"is_disabled":false,"rental_uris":{"android":"levelo://app?vid=c0b9fd4f-e181-46ce-b0bf-f5119973334f","ios":"levelo://app?vid=c0b9fd4f-e181-46ce-b0bf-f5119973334f"},"vehicle_type_id":"4","last_reported":1747235456,"current_range_meters":18800,"station_id":"","pricing_plan_id":"cebpf4jnsgd1na2vs0mg"},{"bike_id":"3fae8334-a9d0-4ed3-aa20-0276813b60f6","system_id":"levelo_inurba_marseille","lat":43.268355,"lon":5.384589,"is_reserved":false,"is_disabled":true,"rental_uris":{"android":"levelo://app?vid=3fae8334-a9d0-4ed3-aa20-0276813b60f6","ios":"levelo://app?vid=3fae8334-a9d0-4ed3-aa20-0276813b60f6"},"vehicle_type_id":"4","last_reported":1747235456,"current_range_meters":0,"station_id":"","pricing_plan_id":"cebpf4jnsgd1na2vs0mg"},{"bike_id":"fc2577e7-1497-425b-9d4f-ab8d7dc843c6","system_id":"levelo_inurba_marseille","lat":43.33771,"lon":5.37485,"is_reserved":false,"is_disabled":true,"rental_uris":{"android":"levelo://app?vid=fc2577e7-1497-425b-9d4f-ab8d7dc843c6","ios":"levelo://app?vid=fc2577e7-1497-425b-9d4f-ab8d7dc843c6"},"vehicle_type_id":"4","last_reported":1747235456,"current_range_meters":0,"station_id":"","pricing_plan_id":"cebpf4jnsgd1na2vs0mg"},{"bike_id":"bce6dd6c-5f15-4ae5-8f21-e71db397b253","system_id":"levelo_inurba_marseille","lat":43.305465,"lon":5.365433,"is_reserved":false,"is_disabled":true,"rental_uris":{"android":"levelo://app?vid=bce6dd6c-5f15-4ae5-8f21-e71db397b253","ios":"levelo://app?vid=bce6dd6c-5f15-4ae5-8f21-e71db397b253"},"vehicle_type_id":"4","last_reported":1747235456,"current_range_meters":0,"station_id":"","pricing_plan_id":"cebpf4jnsgd1na2vs0mg"},{"bike_id":"6347b4a4-5dba-428e-b8ac-9084a2f0a08b","system_id":"levelo_inurba_marseille","lat":43.30756,"lon":5.37249,"is_reserved":false,"is_disabled":true,"rental_uris":{"android":"levelo://app?vid=6347b4a4-5dba-428e-b8ac-9084a2f0a08b","ios":"levelo://app?vid=6347b4a4-5dba-428e-b8ac-9084a2f0a08b"},"vehicle_type_id":"4","last_reported":1747235456,"current_range_meters":0,"station_id":"","pricing_plan_id":"cebpf4jnsgd1na2vs0mg"},{"bike_id":"0fedde00-40eb-40d2-8fc2-e61ecce46b7b","system_id":"levelo_inurba_marseille","lat":43.28311,"lon":5.43272,"is_reserved":false,"is_disabled":true,"rental_uris":{"android":"levelo://app?vid=0fedde00-40eb-40d2-8fc2-e61ecce46b7b","ios":"levelo://app?vid=0fedde00-40eb-40d2-8fc2-e61ecce46b7b"},"vehicle_type_id":"4","last_reported":1747235456,"current_range_meters":0,"station_id":"","pricing_plan_id":"cebpf4jnsgd1na2vs0mg"},{"bike_id":"16e98c4e-da7f-4160-a41d-37f546e0efaa","system_id":"levelo_inurba_marseille","lat":43.29567,"lon":5.3621,"is_reserved":false,"is_disabled":true,"rental_uris":{"android":"levelo://app?vid=16e98c4e-da7f-4160-a41d-37f546e0efaa","ios":"levelo://app?vid=16e98c4e-da7f-4160-a41d-37f546e0efaa"},"vehicle_type_id":"4","last_reported":1747235456,"current_range_meters":0,"station_id":"","pricing_plan_id":"cebpf4jnsgd1na2vs0mg"},{"bike_id":"792567c6-0442-4011-aff0-9c05e25deb48","system_id":"levelo_inurba_marseille","lat":43.28071,"lon":5.44168,"is_reserved":false,"is_disabled":true,"rental_uris":{"android":"levelo://app?vid=792567c6-0442-4011-aff0-9c05e25deb48","ios":"levelo://app?vid=792567c6-0442-4011-aff0-9c05e25deb48"},"vehicle_type_id":"4","last_reported":1747235456,"current_range_meters":0,"station_id":"","pricing_plan_id":"cebpf4jnsgd1na2vs0mg"},{"bike_id":"7b15e121-5124-4a63-8f40-537f47d9937d","system_id":"levelo_inurba_marseille","lat":43.27613,"lon":5.3611,"is_reserved":false,"is_disabled":true,"rental_uris":{"android":"levelo://app?vid=7b15e121-5124-4a63-8f40-537f47d9937d","ios":"levelo://app?vid=7b15e121-5124-4a63-8f40-537f47d9937d"},"vehicle_type_id":"4","last_reported":1747235456,"current_range_meters":0,"station_id":"ce4bgj92rcd13ifvqbe0","pricing_plan_id":"cebpf4jnsgd1na2vs0mg"},{"bike_id":"094bb9a1-a9a1-4cc0-af3b-5810fef755fd","system_id":"levelo_inurba_marseille","lat":43.31078,"lon":5.38366,"is_reserved":false,"is_disabled":true,"rental_uris":{"android":"levelo://app?vid=094bb9a1-a9a1-4cc0-af3b-5810fef755fd","ios":"levelo://app?vid=094bb9a1-a9a1-4cc0-af3b-5810fef755fd"},"vehicle_type_id":"4","last_reported":1747235456,"current_range_meters":0,"station_id":"ce4bgv92rcd13ifvqcr0","pricing_plan_id":"cebpf4jnsgd1na2vs0mg"},{"bike_id":"a9e5ff4e-2624-4059-a693-d3585374d04a","system_id":"levelo_inurba_marseille","lat":43.30603,"lon":5.39347,"is_reserved":false,"is_disabled":true,"rental_uris":{"android":"levelo://app?vid=a9e5ff4e-2624-4059-a693-d3585374d04a","ios":"levelo://app?vid=a9e5ff4e-2624-4059-a693-d3585374d04a"},"vehicle_type_id":"4","last_reported":1747235456,"current_range_meters":0,"station_id":"ce4bh0p2rcd13ifvqd80","pricing_plan_id":"cebpf4jnsgd1na2vs0mg"},{"bike_id":"b565f841-0f11-48b7-b746-11c4eb43b83d","system_id":"levelo_inurba_marseille","lat":43.27382,"lon":5.36282,"is_reserved":false,"is_disabled":true,"rental_uris":{"android":"levelo://app?vid=b565f841-0f11-48b7-b746-11c4eb43b83d","ios":"levelo://app?vid=b565f841-0f11-48b7-b746-11c4eb43b83d"},"vehicle_type_id":"4","last_reported":1747235456,"current_range_meters":0,"station_id":"ce4bhbh2rcd13ifvqeo0","pricing_plan_id":"cebpf4jnsgd1na2vs0mg"},{"bike_id":"dfb7785a-060e-46db-82f7-a565084d2235","system_id":"levelo_inurba_marseille","lat":43.27372,"lon":5.36266,"is_reserved":false,"is_disabled":true,"rental_uris":{"android":"levelo://app?vid=dfb7785a-060e-46db-82f7-a565084d2235","ios":"levelo://app?vid=dfb7785a-060e-46db-82f7-a565084d2235"},"vehicle_type_id":"4","last_reported":1747235456,"current_range_meters":0,"station_id":"ce4bhbh2rcd13ifvqeo0","pricing_plan_id":"cebpf4jnsgd1na2vs0mg"},{"bike_id":"7f2294db-8a9e-40fc-9c29-f50e7c4666df","system_id":"levelo_inurba_marseille","lat":43.27911,"lon":5.39586,"is_reserved":false,"is_disabled":true,"rental_uris":{"android":"levelo://app?vid=7f2294db-8a9e-40fc-9c29-f50e7c4666df","ios":"levelo://app?vid=7f2294db-8a9e-40fc-9c29-f50e7c4666df"},"vehicle_type_id":"4","last_reported":1747235456,"current_range_meters":0,"station_id":"ce4bhf92rcd13ifvqf40","pricing_plan_id":"cebpf4jnsgd1na2vs0mg"},{"bike_id":"f3fd69d4-efb4-47cf-98ad-2a450a9fc845","system_id":"levelo_inurba_marseille","lat":43.27974,"lon":5.38701,"is_reserved":false,"is_disabled":true,"rental_uris":{"android":"levelo://app?vid=f3fd69d4-efb4-47cf-98ad-2a450a9fc845","ios":"levelo://app?vid=f3fd69d4-efb4-47cf-98ad-2a450a9fc845"},"vehicle_type_id":"4","last_reported":1747235456,"current_range_meters":0,"station_id":"ce4bhg12rcd13ifvqf80","pricing_plan_id":"cebpf4jnsgd1na2vs0mg"},{"bike_id":"7d648bb7-ab7e-409a-add7-d4a17f03de12","system_id":"levelo_inurba_marseille","lat":43.231544,"lon":5.437003,"is_reserved":false,"is_disabled":true,"rental_uris":{"android":"levelo://app?vid=7d648bb7-ab7e-409a-add7-d4a17f03de12","ios":"levelo://app?vid=7d648bb7-ab7e-409a-add7-d4a17f03de12"},"vehicle_type_id":"4","last_reported":1747235456,"current_range_meters":0,"station_id":"ce4bhmp2rcd13ifvqgog","pricing_plan_id":"cebpf4jnsgd1na2vs0mg"},{"bike_id":"8c702526-446f-4015-be13-217e9e47538e","system_id":"levelo_inurba_marseille","lat":43.28692,"lon":5.4001,"is_reserved":false,"is_disabled":true,"rental_uris":{"android":"levelo://app?vid=8c702526-446f-4015-be13-217e9e47538e","ios":"levelo://app?vid=8c702526-446f-4015-be13-217e9e47538e"},"vehicle_type_id":"4","last_reported":1747235456,"current_range_meters":0,"station_id":"ce4bho92rcd13ifvqh3g","pricing_plan_id":"cebpf4jnsgd1na2vs0mg"},{"bike_id":"3db8cc36-eeaf-4e1b-a0e8-95637a653626","system_id":"levelo_inurba_marseille","lat":43.30329,"lon":5.40434,"is_reserved":false,"is_disabled":true,"rental_uris":{"android":"levelo://app?vid=3db8cc36-eeaf-4e1b-a0e8-95637a653626","ios":"levelo://app?vid=3db8cc36-eeaf-4e1b-a0e8-95637a653626"},"vehicle_type_id":"4","last_reported":1747235456,"current_range_meters":400,"station_id":"ce4bh012rcd13ifvqd10","pricing_plan_id":"cebpf4jnsgd1na2vs0mg"},{"bike_id":"c38002f3-fc50-47b4-98f2-8da5192aa749","system_id":"levelo_inurba_marseille","lat":43.25006,"lon":5.38921,"is_reserved":false,"is_disabled":true,"rental_uris":{"android":"levelo://app?vid=c38002f3-fc50-47b4-98f2-8da5192aa749","ios":"levelo://app?vid=c38002f3-fc50-47b4-98f2-8da5192aa749"},"vehicle_type_id":"4","last_reported":1747235456,"current_range_meters":400,"station_id":"ce4bhgp2rcd13ifvqfd0","pricing_plan_id":"cebpf4jnsgd1na2vs0mg"},{"bike_id":"fd003cc7-da6f-4a28-b54a-b85f37d76e60","system_id":"levelo_inurba_marseille","lat":43.273155,"lon":5.390965,"is_reserved":false,"is_disabled":true,"rental_uris":{"android":"levelo://app?vid=fd003cc7-da6f-4a28-b54a-b85f37d76e60","ios":"levelo://app?vid=fd003cc7-da6f-4a28-b54a-b85f37d76e60"},"vehicle_type_id":"4","last_reported":1747235456,"current_range_meters":400,"station_id":"ce4bhgp2rcd13ifvqfe0","pricing_plan_id":"cebpf4jnsgd1na2vs0mg"},{"bike_id":"4d0761b2-2ed0-4076-9526-f26a3ca69fa8","system_id":"levelo_inurba_marseille","lat":43.27308,"lon":5.39084,"is_reserved":false,"is_disabled":true,"rental_uris":{"android":"levelo://app?vid=4d0761b2-2ed0-4076-9526-f26a3ca69fa8","ios":"levelo://app?vid=4d0761b2-2ed0-4076-9526-f26a3ca69fa8"},"vehicle_type_id":"4","last_reported":1747235456,"current_range_meters":400,"station_id":"ce4bhgp2rcd13ifvqfe0","pricing_plan_id":"cebpf4jnsgd1na2vs0mg"},{"bike_id":"784ebcd8-621e-42c3-a5a9-b58e0cad6fd1","system_id":"levelo_inurba_marseille","lat":43.23191,"lon":5.39995,"is_reserved":false,"is_disabled":true,"rental_uris":{"android":"levelo://app?vid=784ebcd8-621e-42c3-a5a9-b58e0cad6fd1","ios":"levelo://app?vid=784ebcd8-621e-42c3-a5a9-b58e0cad6fd1"},"vehicle_type_id":"4","last_reported":1747235456,"current_range_meters":400,"station_id":"ce4bhn12rcd13ifvqgqg","pricing_plan_id":"cebpf4jnsgd1na2vs0mg"},{"bike_id":"ff52dacd-d0bf-4b82-96c0-e870e1cb318f","system_id":"levelo_inurba_marseille","lat":43.287432,"lon":5.380606,"is_reserved":false,"is_disabled":true,"rental_uris":{"android":"levelo://app?vid=ff52dacd-d0bf-4b82-96c0-e870e1cb318f","ios":"levelo://app?vid=ff52dacd-d0bf-4b82-96c0-e870e1cb318f"},"vehicle_type_id":"4","last_reported":1747235456,"current_range_meters":800,"station_id":"ce4bh492rcd13ifvqdug","pricing_plan_id":"cebpf4jnsgd1na2vs0mg"},{"bike_id":"a7fd025e-830c-4be3-baf0-0b1484436c0f","system_id":"levelo_inurba_marseille","lat":43.28924,"lon":5.38397,"is_reserved":false,"is_disabled":true,"rental_uris":{"android":"levelo://app?vid=a7fd025e-830c-4be3-baf0-0b1484436c0f","ios":"levelo://app?vid=a7fd025e-830c-4be3-baf0-0b1484436c0f"},"vehicle_type_id":"4","last_reported":1747235456,"current_range_meters":800,"station_id":"ce4bh612rcd13ifvqe6g","pricing_plan_id":"cebpf4jnsgd1na2vs0mg"},{"bike_id":"264479de-e908-4475-8a25-17523ec3b09b","system_id":"levelo_inurba_marseille","lat":43.28446,"lon":5.39208,"is_reserved":false,"is_disabled":true,"rental_uris":{"android":"levelo://app?vid=264479de-e908-4475-8a25-17523ec3b09b","ios":"levelo://app?vid=264479de-e908-4475-8a25-17523ec3b09b"},"vehicle_type_id":"4","last_reported":1747235456,"current_range_meters":800,"station_id":"ce4bhoh2rcd13ifvqh5g","pricing_plan_id":"cebpf4jnsgd1na2vs0mg"},{"bike_id":"c5a81738-fbc2-40ae-9fd3-1b2bd9e268d8","system_id":"levelo_inurba_marseille","lat":43.27982,"lon":5.38743,"is_reserved":false,"is_disabled":true,"rental_uris":{"android":"levelo://app?vid=c5a81738-fbc2-40ae-9fd3-1b2bd9e268d8","ios":"levelo://app?vid=c5a81738-fbc2-40ae-9fd3-1b2bd9e268d8"},"vehicle_type_id":"4","last_reported":1747235456,"current_range_meters":1200,"station_id":"ce4bhg12rcd13ifvqf80","pricing_plan_id":"cebpf4jnsgd1na2vs0mg"},{"bike_id":"b375fb2e-1a0f-4e74-94b8-094c97766c9f","system_id":"levelo_inurba_marseille","lat":43.305286,"lon":5.384128,"is_reserved":false,"is_disabled":true,"rental_uris":{"android":"levelo://app?vid=b375fb2e-1a0f-4e74-94b8-094c97766c9f","ios":"levelo://app?vid=b375fb2e-1a0f-4e74-94b8-094c97766c9f"},"vehicle_type_id":"4","last_reported":1747235456,"current_range_meters":1600,"station_id":"ce4bgg92rcd13ifvqb30","pricing_plan_id":"cebpf4jnsgd1na2vs0mg"},{"bike_id":"80b3bfb4-d94d-4dbb-9107-62fb7f97afd9","system_id":"levelo_inurba_marseille","lat":43.29707,"lon":5.36603,"is_reserved":false,"is_disabled":true,"rental_uris":{"android":"levelo://app?vid=80b3bfb4-d94d-4dbb-9107-62fb7f97afd9","ios":"levelo://app?vid=80b3bfb4-d94d-4dbb-9107-62fb7f97afd9"},"vehicle_type_id":"4","last_reported":1747235456,"current_range_meters":1600,"station_id":"ce4bgn12rcd13ifvqbt0","pricing_plan_id":"cebpf4jnsgd1na2vs0mg"},{"bike_id":"e037ad04-8d90-4f32-af89-9c87028e7061","system_id":"levelo_inurba_marseille","lat":43.295279,"lon":5.390439,"is_reserved":false,"is_disabled":false,"rental_uris":{"android":"levelo://app?vid=e037ad04-8d90-4f32-af89-9c87028e7061","ios":"levelo://app?vid=e037ad04-8d90-4f32-af89-9c87028e7061"},"vehicle_type_id":"4","last_reported":1747235456,"current_range_meters":1600,"station_id":"ce4bh3p2rcd13ifvqdp0","pricing_plan_id":"cebpf4jnsgd1na2vs0mg"},{"bike_id":"35285fd3-f57f-4023-ba4a-44f54a819fe2","system_id":"levelo_inurba_marseille","lat":43.26564,"lon":5.3903,"is_reserved":false,"is_disabled":true,"rental_uris":{"android":"levelo://app?vid=35285fd3-f57f-4023-ba4a-44f54a819fe2","ios":"levelo://app?vid=35285fd3-f57f-4023-ba4a-44f54a819fe2"},"vehicle_type_id":"4","last_reported":1747235456,"current_range_meters":2000,"station_id":"ce4bhe12rcd13ifvqf30","pricing_plan_id":"cebpf4jnsgd1na2vs0mg"},{"bike_id":"57ddeb2b-38aa-457b-9ea6-1c47cf7c50f9","system_id":"levelo_inurba_marseille","lat":43.28797,"lon":5.38255,"is_reserved":false,"is_disabled":false,"rental_uris":{"android":"levelo://app?vid=57ddeb2b-38aa-457b-9ea6-1c47cf7c50f9","ios":"levelo://app?vid=57ddeb2b-38aa-457b-9ea6-1c47cf7c50f9"},"vehicle_type_id":"4","last_reported":1747235456,"current_range_meters":2800,"station_id":"","pricing_plan_id":"cebpf4jnsgd1na2vs0mg"},{"bike_id":"e2d7f8c8-f491-4e7c-b696-3d2e79807631","system_id":"levelo_inurba_marseille","lat":43.31352,"lon":5.38498,"is_reserved":false,"is_disabled":false,"rental_uris":{"android":"levelo://app?vid=e2d7f8c8-f491-4e7c-b696-3d2e79807631","ios":"levelo://app?vid=e2d7f8c8-f491-4e7c-b696-3d2e79807631"},"vehicle_type_id":"4","last_reported":1747235456,"current_range_meters":2800,"station_id":"ce4bgt92rcd13ifvqcf0","pricing_plan_id":"cebpf4jnsgd1na2vs0mg"},{"bike_id":"e30137bb-5652-40d5-bf80-0503a0478e6d","system_id":"levelo_inurba_marseille","lat":43.27379,"lon":5.36274,"is_reserved":false,"is_disabled":false,"rental_uris":{"android":"levelo://app?vid=e30137bb-5652-40d5-bf80-0503a0478e6d","ios":"levelo://app?vid=e30137bb-5652-40d5-bf80-0503a0478e6d"},"vehicle_type_id":"4","last_reported":1747235456,"current_range_meters":2800,"station_id":"ce4bhbh2rcd13ifvqeo0","pricing_plan_id":"cebpf4jnsgd1na2vs0mg"},{"bike_id":"7f33dbef-511e-4b68-a789-2e2683dc7810","system_id":"levelo_inurba_marseille","lat":43.26059,"lon":5.39402,"is_reserved":false,"is_disabled":false,"rental_uris":{"android":"levelo://app?vid=7f33dbef-511e-4b68-a789-2e2683dc7810","ios":"levelo://app?vid=7f33dbef-511e-4b68-a789-2e2683dc7810"},"vehicle_type_id":"4","last_reported":1747235456,"current_range_meters":2800,"station_id":"ce4bhh92rcd13ifvqfj0","pricing_plan_id":"cebpf4jnsgd1na2vs0mg"},{"bike_id":"88e54012-9891-4c9b-8595-4e8e516117cc","system_id":"levelo_inurba_marseille","lat":43.28081,"lon":5.39669,"is_reserved":false,"is_disabled":false,"rental_uris":{"android":"levelo://app?vid=88e54012-9891-4c9b-8595-4e8e516117cc","ios":"levelo://app?vid=88e54012-9891-4c9b-8595-4e8e516117cc"},"vehicle_type_id":"4","last_reported":1747235456,"current_range_meters":2800,"station_id":"ce4bho12rcd13ifvqh2g","pricing_plan_id":"cebpf4jnsgd1na2vs0mg"},{"bike_id":"8f83f254-465f-41be-8d72-5ea9b546a7e5","system_id":"levelo_inurba_marseille","lat":43.3134,"lon":5.38563,"is_reserved":false,"is_disabled":false,"rental_uris":{"android":"levelo://app?vid=8f83f254-465f-41be-8d72-5ea9b546a7e5","ios":"levelo://app?vid=8f83f254-465f-41be-8d72-5ea9b546a7e5"},"vehicle_type_id":"4","last_reported":1747235456,"current_range_meters":3200,"station_id":"","pricing_plan_id":"cebpf4jnsgd1na2vs0mg"},{"bike_id":"caa3fecf-2e7b-423d-ad3e-378e7d83f83f","system_id":"levelo_inurba_marseille","lat":43.31082,"lon":5.38355,"is_reserved":false,"is_disabled":false,"rental_uris":{"android":"levelo://app?vid=caa3fecf-2e7b-423d-ad3e-378e7d83f83f","ios":"levelo://app?vid=caa3fecf-2e7b-423d-ad3e-378e7d83f83f"},"vehicle_type_id":"4","last_reported":1747235456,"current_range_meters":3200,"station_id":"ce4bgv92rcd13ifvqcr0","pricing_plan_id":"cebpf4jnsgd1na2vs0mg"},{"bike_id":"80a47455-f9a2-4b4f-9f5a-b83d8feaa315","system_id":"levelo_inurba_marseille","lat":43.29264,"lon":5.38444,"is_reserved":false,"is_disabled":false,"rental_uris":{"android":"levelo://app?vid=80a47455-f9a2-4b4f-9f5a-b83d8feaa315","ios":"levelo://app?vid=80a47455-f9a2-4b4f-9f5a-b83d8feaa315"},"vehicle_type_id":"4","last_reported":1747235456,"current_range_meters":3200,"station_id":"ce4bh692rcd13ifvqea0","pricing_plan_id":"cebpf4jnsgd1na2vs0mg"},{"bike_id":"063b372a-1fa8-455e-b4a2-14913ed07705","system_id":"levelo_inurba_marseille","lat":43.33606,"lon":5.41038,"is_reserved":false,"is_disabled":false,"rental_uris":{"android":"levelo://app?vid=063b372a-1fa8-455e-b4a2-14913ed07705","ios":"levelo://app?vid=063b372a-1fa8-455e-b4a2-14913ed07705"},"vehicle_type_id":"4","last_reported":1747235456,"current_range_meters":3200,"station_id":"ce4bhqh2rcd13ifvqhmg","pricing_plan_id":"cebpf4jnsgd1na2vs0mg"},{"bike_id":"9ffed441-22c4-4cda-a9a8-0db2c3b06acb","system_id":"levelo_inurba_marseille","lat":43.2722,"lon":5.39112,"is_reserved":false,"is_disabled":false,"rental_uris":{"android":"levelo://app?vid=9ffed441-22c4-4cda-a9a8-0db2c3b06acb","ios":"levelo://app?vid=9ffed441-22c4-4cda-a9a8-0db2c3b06acb"},"vehicle_type_id":"4","last_reported":1747235456,"current_range_meters":3600,"station_id":"","pricing_plan_id":"cebpf4jnsgd1na2vs0mg"},{"bike_id":"8cc20667-8698-401d-be39-70ede348f626","system_id":"levelo_inurba_marseille","lat":43.30204,"lon":5.39477,"is_reserved":false,"is_disabled":false,"rental_uris":{"android":"levelo://app?vid=8cc20667-8698-401d-be39-70ede348f626","ios":"levelo://app?vid=8cc20667-8698-401d-be39-70ede348f626"},"vehicle_type_id":"4","last_reported":1747235456,"current_range_meters":3600,"station_id":"ce4bh0p2rcd13ifvqd70","pricing_plan_id":"cebpf4jnsgd1na2vs0mg"},{"bike_id":"95f24bce-6cb0-4d5f-a6c2-d3be41acf466","system_id":"levelo_inurba_marseille","lat":43.29632,"lon":5.40594,"is_reserved":false,"is_disabled":false,"rental_uris":{"android":"levelo://app?vid=95f24bce-6cb0-4d5f-a6c2-d3be41acf466","ios":"levelo://app?vid=95f24bce-6cb0-4d5f-a6c2-d3be41acf466"},"vehicle_type_id":"4","last_reported":1747235456,"current_range_meters":4000,"station_id":"ce4bh0h2rcd13ifvqd60","pricing_plan_id":"cebpf4jnsgd1na2vs0mg"},{"bike_id":"05d6a1a6-3766-4b57-87aa-afe58da45b58","system_id":"levelo_inurba_marseille","lat":43.29281,"lon":5.40115,"is_reserved":false,"is_disabled":false,"rental_uris":{"android":"levelo://app?vid=05d6a1a6-3766-4b57-87aa-afe58da45b58","ios":"levelo://app?vid=05d6a1a6-3766-4b57-87aa-afe58da45b58"},"vehicle_type_id":"4","last_reported":1747235456,"current_range_meters":4000,"station_id":"ce4bh312rcd13ifvqdk0","pricing_plan_id":"cebpf4jnsgd1na2vs0mg"},{"bike_id":"35a523e4-ba8e-471f-86d2-1ffcb7dca694","system_id":"levelo_inurba_marseille","lat":43.33604,"lon":5.41038,"is_reserved":false,"is_disabled":false,"rental_uris":{"android":"levelo://app?vid=35a523e4-ba8e-471f-86d2-1ffcb7dca694","ios":"levelo://app?vid=35a523e4-ba8e-471f-86d2-1ffcb7dca694"},"vehicle_type_id":"4","last_reported":1747235456,"current_range_meters":4000,"station_id":"ce4bhqh2rcd13ifvqhmg","pricing_plan_id":"cebpf4jnsgd1na2vs0mg"},{"bike_id":"c6c865c6-b670-4faf-aee3-72682aa69179","system_id":"levelo_inurba_marseille","lat":43.28441,"lon":5.392133,"is_reserved":false,"is_disabled":false,"rental_uris":{"android":"levelo://app?vid=c6c865c6-b670-4faf-aee3-72682aa69179","ios":"levelo://app?vid=c6c865c6-b670-4faf-aee3-72682aa69179"},"vehicle_type_id":"4","last_reported":1747235456,"current_range_meters":4400,"station_id":"ce4bhoh2rcd13ifvqh5g","pricing_plan_id":"cebpf4jnsgd1na2vs0mg"},{"bike_id":"a09d4f2f-fc6d-4290-8cc4-583c2a86f043","system_id":"levelo_inurba_marseille","lat":43.24382,"lon":5.36998,"is_reserved":false,"is_disabled":false,"rental_uris":{"android":"levelo://app?vid=a09d4f2f-fc6d-4290-8cc4-583c2a86f043","ios":"levelo://app?vid=a09d4f2f-fc6d-4290-8cc4-583c2a86f043"},"vehicle_type_id":"4","last_reported":1747235456,"current_range_meters":4800,"station_id":"","pricing_plan_id":"cebpf4jnsgd1na2vs0mg"},{"bike_id":"39f40186-b53a-4a97-a3fc-e431cc41b89e","system_id":"levelo_inurba_marseille","lat":43.24161,"lon":5.36404,"is_reserved":false,"is_disabled":false,"rental_uris":{"android":"levelo://app?vid=39f40186-b53a-4a97-a3fc-e431cc41b89e","ios":"levelo://app?vid=39f40186-b53a-4a97-a3fc-e431cc41b89e"},"vehicle_type_id":"4","last_reported":1747235456,"current_range_meters":4800,"station_id":"cpo36qri1sfpv3e86is0","pricing_plan_id":"cebpf4jnsgd1na2vs0mg"},{"bike_id":"e837d5c3-af01-4dd8-ae03-6791adac4047","system_id":"levelo_inurba_marseille","lat":43.290307,"lon":5.386503,"is_reserved":false,"is_disabled":false,"rental_uris":{"android":"levelo://app?vid=e837d5c3-af01-4dd8-ae03-6791adac4047","ios":"levelo://app?vid=e837d5c3-af01-4dd8-ae03-6791adac4047"},"vehicle_type_id":"4","last_reported":1747235456,"current_range_meters":5600,"station_id":"ce4bh4p2rcd13ifvqe0g","pricing_plan_id":"cebpf4jnsgd1na2vs0mg"},{"bike_id":"ce4325af-2448-4172-bdec-81d552ee0b62","system_id":"levelo_inurba_marseille","lat":43.261791,"lon":5.420245,"is_reserved":false,"is_disabled":false,"rental_uris":{"android":"levelo://app?vid=ce4325af-2448-4172-bdec-81d552ee0b62","ios":"levelo://app?vid=ce4325af-2448-4172-bdec-81d552ee0b62"},"vehicle_type_id":"4","last_reported":1747235456,"current_range_meters":6000,"station_id":"","pricing_plan_id":"cebpf4jnsgd1na2vs0mg"},{"bike_id":"d22568c6-0622-4e2d-a227-a9fc2a7c9d4e","system_id":"levelo_inurba_marseille","lat":43.316914,"lon":5.404877,"is_reserved":false,"is_disabled":false,"rental_uris":{"android":"levelo://app?vid=d22568c6-0622-4e2d-a227-a9fc2a7c9d4e","ios":"levelo://app?vid=d22568c6-0622-4e2d-a227-a9fc2a7c9d4e"},"vehicle_type_id":"4","last_reported":1747235456,"current_range_meters":6000,"station_id":"ce4bh012rcd13ifvqd00","pricing_plan_id":"cebpf4jnsgd1na2vs0mg"},{"bike_id":"bb287a8d-89c1-4a44-a97f-e8d5f4f78927","system_id":"levelo_inurba_marseille","lat":43.28022,"lon":5.41631,"is_reserved":false,"is_disabled":false,"rental_uris":{"android":"levelo://app?vid=bb287a8d-89c1-4a44-a97f-e8d5f4f78927","ios":"levelo://app?vid=bb287a8d-89c1-4a44-a97f-e8d5f4f78927"},"vehicle_type_id":"4","last_reported":1747235456,"current_range_meters":6000,"station_id":"ce4bho12rcd13ifvqh1g","pricing_plan_id":"cebpf4jnsgd1na2vs0mg"},{"bike_id":"3165ae0c-ccad-43cc-aa1a-39c920f98288","system_id":"levelo_inurba_marseille","lat":43.31121,"lon":5.37759,"is_reserved":false,"is_disabled":false,"rental_uris":{"android":"levelo://app?vid=3165ae0c-ccad-43cc-aa1a-39c920f98288","ios":"levelo://app?vid=3165ae0c-ccad-43cc-aa1a-39c920f98288"},"vehicle_type_id":"4","last_reported":1747235456,"current_range_meters":6400,"station_id":"ce4bgt92rcd13ifvqcg0","pricing_plan_id":"cebpf4jnsgd1na2vs0mg"},{"bike_id":"765e0553-46f1-4b76-b79e-063ee5c6a467","system_id":"levelo_inurba_marseille","lat":43.23964,"lon":5.36637,"is_reserved":false,"is_disabled":false,"rental_uris":{"android":"levelo://app?vid=765e0553-46f1-4b76-b79e-063ee5c6a467","ios":"levelo://app?vid=765e0553-46f1-4b76-b79e-063ee5c6a467"},"vehicle_type_id":"4","last_reported":1747235456,"current_range_meters":6400,"station_id":"ce4bhi12rcd13ifvqfp0","pricing_plan_id":"cebpf4jnsgd1na2vs0mg"},{"bike_id":"134a89ce-f753-43dc-889c-6928be5ff929","system_id":"levelo_inurba_marseille","lat":43.25869,"lon":5.39902,"is_reserved":false,"is_disabled":false,"rental_uris":{"android":"levelo://app?vid=134a89ce-f753-43dc-889c-6928be5ff929","ios":"levelo://app?vid=134a89ce-f753-43dc-889c-6928be5ff929"},"vehicle_type_id":"4","last_reported":1747235456,"current_range_meters":6400,"station_id":"ce4bhl92rcd13ifvqghg","pricing_plan_id":"cebpf4jnsgd1na2vs0mg"},{"bike_id":"bb775958-b5f0-43ed-882c-5d8a0464a93a","system_id":"levelo_inurba_marseille","lat":43.3236,"lon":5.3676,"is_reserved":false,"is_disabled":false,"rental_uris":{"android":"levelo://app?vid=bb775958-b5f0-43ed-882c-5d8a0464a93a","ios":"levelo://app?vid=bb775958-b5f0-43ed-882c-5d8a0464a93a"},"vehicle_type_id":"4","last_reported":1747235456,"current_range_meters":6400,"station_id":"ce4bhsh2rcd13ifvqi2g","pricing_plan_id":"cebpf4jnsgd1na2vs0mg"},{"bike_id":"5d1e3926-8c1a-433d-889d-05140e632d11","system_id":"levelo_inurba_marseille","lat":43.30741,"lon":5.37198,"is_reserved":false,"is_disabled":false,"rental_uris":{"android":"levelo://app?vid=5d1e3926-8c1a-433d-889d-05140e632d11","ios":"levelo://app?vid=5d1e3926-8c1a-433d-889d-05140e632d11"},"vehicle_type_id":"4","last_reported":1747235456,"current_range_meters":6800,"station_id":"","pricing_plan_id":"cebpf4jnsgd1na2vs0mg"},{"bike_id":"5de1e8df-cec1-47cf-b554-41f6e726d337","system_id":"levelo_inurba_marseille","lat":43.27413,"lon":5.40615,"is_reserved":false,"is_disabled":false,"rental_uris":{"android":"levelo://app?vid=5de1e8df-cec1-47cf-b554-41f6e726d337","ios":"levelo://app?vid=5de1e8df-cec1-47cf-b554-41f6e726d337"},"vehicle_type_id":"4","last_reported":1747235456,"current_range_meters":7200,"station_id":"","pricing_plan_id":"cebpf4jnsgd1na2vs0mg"},{"bike_id":"2e24dfe1-af8f-4818-a5e0-c71264647310","system_id":"levelo_inurba_marseille","lat":43.3117,"lon":5.38724,"is_reserved":false,"is_disabled":false,"rental_uris":{"android":"levelo://app?vid=2e24dfe1-af8f-4818-a5e0-c71264647310","ios":"levelo://app?vid=2e24dfe1-af8f-4818-a5e0-c71264647310"},"vehicle_type_id":"4","last_reported":1747235456,"current_range_meters":7200,"station_id":"ce4bgv12rcd13ifvqcp0","pricing_plan_id":"cebpf4jnsgd1na2vs0mg"},{"bike_id":"49513294-ccea-499d-b001-7df97fc96be7","system_id":"levelo_inurba_marseille","lat":43.27375,"lon":5.36255,"is_reserved":false,"is_disabled":false,"rental_uris":{"android":"levelo://app?vid=49513294-ccea-499d-b001-7df97fc96be7","ios":"levelo://app?vid=49513294-ccea-499d-b001-7df97fc96be7"},"vehicle_type_id":"4","last_reported":1747235456,"current_range_meters":7200,"station_id":"ce4bhbh2rcd13ifvqeo0","pricing_plan_id":"cebpf4jnsgd1na2vs0mg"},{"bike_id":"38c58fdc-0752-4504-bcc1-4174bb46b154","system_id":"levelo_inurba_marseille","lat":43.27384,"lon":5.3627,"is_reserved":false,"is_disabled":false,"rental_uris":{"android":"levelo://app?vid=38c58fdc-0752-4504-bcc1-4174bb46b154","ios":"levelo://app?vid=38c58fdc-0752-4504-bcc1-4174bb46b154"},"vehicle_type_id":"4","last_reported":1747235456,"current_range_meters":7200,"station_id":"ce4bhbh2rcd13ifvqeo0","pricing_plan_id":"cebpf4jnsgd1na2vs0mg"},{"bike_id":"2de118d4-469e-4086-a5fc-e2f9314b03a8","system_id":"levelo_inurba_marseille","lat":43.27379,"lon":5.36264,"is_reserved":false,"is_disabled":false,"rental_uris":{"android":"levelo://app?vid=2de118d4-469e-4086-a5fc-e2f9314b03a8","ios":"levelo://app?vid=2de118d4-469e-4086-a5fc-e2f9314b03a8"},"vehicle_type_id":"4","last_reported":1747235456,"current_range_meters":7200,"station_id":"ce4bhbh2rcd13ifvqeo0","pricing_plan_id":"cebpf4jnsgd1na2vs0mg"},{"bike_id":"367b852d-7d5a-459c-a4fd-b7302e74b50f","system_id":"levelo_inurba_marseille","lat":43.26565,"lon":5.37276,"is_reserved":false,"is_disabled":false,"rental_uris":{"android":"levelo://app?vid=367b852d-7d5a-459c-a4fd-b7302e74b50f","ios":"levelo://app?vid=367b852d-7d5a-459c-a4fd-b7302e74b50f"},"vehicle_type_id":"4","last_reported":1747235456,"current_range_meters":7200,"station_id":"ce4bhg12rcd13ifvqf70","pricing_plan_id":"cebpf4jnsgd1na2vs0mg"},{"bike_id":"883f7fd7-3869-490b-b279-3a3e6fa16309","system_id":"levelo_inurba_marseille","lat":43.27557,"lon":5.38433,"is_reserved":false,"is_disabled":false,"rental_uris":{"android":"levelo://app?vid=883f7fd7-3869-490b-b279-3a3e6fa16309","ios":"levelo://app?vid=883f7fd7-3869-490b-b279-3a3e6fa16309"},"vehicle_type_id":"4","last_reported":1747235456,"current_range_meters":7200,"station_id":"ce4bhh92rcd13ifvqfi0","pricing_plan_id":"cebpf4jnsgd1na2vs0mg"},{"bike_id":"f37b7848-b34f-4203-8cd6-ee4ac88ff930","system_id":"levelo_inurba_marseille","lat":43.23946,"lon":5.3669,"is_reserved":false,"is_disabled":false,"rental_uris":{"android":"levelo://app?vid=f37b7848-b34f-4203-8cd6-ee4ac88ff930","ios":"levelo://app?vid=f37b7848-b34f-4203-8cd6-ee4ac88ff930"},"vehicle_type_id":"4","last_reported":1747235456,"current_range_meters":7200,"station_id":"ce4bhi12rcd13ifvqfp0","pricing_plan_id":"cebpf4jnsgd1na2vs0mg"},{"bike_id":"63a46c1f-1f6f-4920-8160-55e3842e65d0","system_id":"levelo_inurba_marseille","lat":43.24546,"lon":5.39537,"is_reserved":false,"is_disabled":false,"rental_uris":{"android":"levelo://app?vid=63a46c1f-1f6f-4920-8160-55e3842e65d0","ios":"levelo://app?vid=63a46c1f-1f6f-4920-8160-55e3842e65d0"},"vehicle_type_id":"4","last_reported":1747235456,"current_range_meters":7200,"station_id":"ce4bhlp2rcd13ifvqgjg","pricing_plan_id":"cebpf4jnsgd1na2vs0mg"},{"bike_id":"45e63a5b-939a-439a-a69d-14c5887e44ac","system_id":"levelo_inurba_marseille","lat":43.29785,"lon":5.381,"is_reserved":false,"is_disabled":false,"rental_uris":{"android":"levelo://app?vid=45e63a5b-939a-439a-a69d-14c5887e44ac","ios":"levelo://app?vid=45e63a5b-939a-439a-a69d-14c5887e44ac"},"vehicle_type_id":"4","last_reported":1747235456,"current_range_meters":8000,"station_id":"ce4bgip2rcd13ifvqbb0","pricing_plan_id":"cebpf4jnsgd1na2vs0mg"},{"bike_id":"75576a8f-9d63-4bf9-830f-2391eba1c9d2","system_id":"levelo_inurba_marseille","lat":43.31115,"lon":5.3777,"is_reserved":false,"is_disabled":false,"rental_uris":{"android":"levelo://app?vid=75576a8f-9d63-4bf9-830f-2391eba1c9d2","ios":"levelo://app?vid=75576a8f-9d63-4bf9-830f-2391eba1c9d2"},"vehicle_type_id":"4","last_reported":1747235456,"current_range_meters":8000,"station_id":"ce4bgt92rcd13ifvqcg0","pricing_plan_id":"cebpf4jnsgd1na2vs0mg"},{"bike_id":"978cf6bb-131f-4c89-90db-2e9f79cd93e8","system_id":"levelo_inurba_marseille","lat":43.29435,"lon":5.39753,"is_reserved":false,"is_disabled":false,"rental_uris":{"android":"levelo://app?vid=978cf6bb-131f-4c89-90db-2e9f79cd93e8","ios":"levelo://app?vid=978cf6bb-131f-4c89-90db-2e9f79cd93e8"},"vehicle_type_id":"4","last_reported":1747235456,"current_range_meters":8000,"station_id":"ce4bh3h2rcd13ifvqdo0","pricing_plan_id":"cebpf4jnsgd1na2vs0mg"},{"bike_id":"713cdf1f-c90c-442f-91b7-ed859860ab78","system_id":"levelo_inurba_marseille","lat":43.29205,"lon":5.35806,"is_reserved":false,"is_disabled":false,"rental_uris":{"android":"levelo://app?vid=713cdf1f-c90c-442f-91b7-ed859860ab78","ios":"levelo://app?vid=713cdf1f-c90c-442f-91b7-ed859860ab78"},"vehicle_type_id":"4","last_reported":1747235456,"current_range_meters":8000,"station_id":"ce4bhb12rcd13ifvqel0","pricing_plan_id":"cebpf4jnsgd1na2vs0mg"},{"bike_id":"300c8323-d64b-4d0c-b42b-dda92a46fdf7","system_id":"levelo_inurba_marseille","lat":43.28861,"lon":5.35849,"is_reserved":false,"is_disabled":false,"rental_uris":{"android":"levelo://app?vid=300c8323-d64b-4d0c-b42b-dda92a46fdf7","ios":"levelo://app?vid=300c8323-d64b-4d0c-b42b-dda92a46fdf7"},"vehicle_type_id":"4","last_reported":1747235456,"current_range_meters":8000,"station_id":"ce4bhb12rcd13ifvqem0","pricing_plan_id":"cebpf4jnsgd1na2vs0mg"},{"bike_id":"c4f287f2-9ec5-42ce-b2bf-1f7c1c390d84","system_id":"levelo_inurba_marseille","lat":43.272137,"lon":5.391848,"is_reserved":false,"is_disabled":false,"rental_uris":{"android":"levelo://app?vid=c4f287f2-9ec5-42ce-b2bf-1f7c1c390d84","ios":"levelo://app?vid=c4f287f2-9ec5-42ce-b2bf-1f7c1c390d84"},"vehicle_type_id":"4","last_reported":1747235456,"current_range_meters":8000,"station_id":"ce4bhn12rcd13ifvqgqg","pricing_plan_id":"cebpf4jnsgd1na2vs0mg"},{"bike_id":"6ec4bb85-84ec-4027-b206-4e608baac030","system_id":"levelo_inurba_marseille","lat":43.28067,"lon":5.396363,"is_reserved":false,"is_disabled":false,"rental_uris":{"android":"levelo://app?vid=6ec4bb85-84ec-4027-b206-4e608baac030","ios":"levelo://app?vid=6ec4bb85-84ec-4027-b206-4e608baac030"},"vehicle_type_id":"4","last_reported":1747235456,"current_range_meters":8000,"station_id":"ce4bho12rcd13ifvqh2g","pricing_plan_id":"cebpf4jnsgd1na2vs0mg"},{"bike_id":"6f1d53b9-01d6-4c18-9133-5e5c83a3e5a4","system_id":"levelo_inurba_marseille","lat":43.246618,"lon":5.381631,"is_reserved":false,"is_disabled":false,"rental_uris":{"android":"levelo://app?vid=6f1d53b9-01d6-4c18-9133-5e5c83a3e5a4","ios":"levelo://app?vid=6f1d53b9-01d6-4c18-9133-5e5c83a3e5a4"},"vehicle_type_id":"4","last_reported":1747235456,"current_range_meters":8400,"station_id":"","pricing_plan_id":"cebpf4jnsgd1na2vs0mg"},{"bike_id":"bf9a4507-0806-4935-903f-73e55376c212","system_id":"levelo_inurba_marseille","lat":43.30945,"lon":5.37273,"is_reserved":false,"is_disabled":false,"rental_uris":{"android":"levelo://app?vid=bf9a4507-0806-4935-903f-73e55376c212","ios":"levelo://app?vid=bf9a4507-0806-4935-903f-73e55376c212"},"vehicle_type_id":"4","last_reported":1747235456,"current_range_meters":8400,"station_id":"","pricing_plan_id":"cebpf4jnsgd1na2vs0mg"},{"bike_id":"b0c63a0c-0761-47b1-8473-c6c6fe9f169c","system_id":"levelo_inurba_marseille","lat":43.30083,"lon":5.39071,"is_reserved":false,"is_disabled":false,"rental_uris":{"android":"levelo://app?vid=b0c63a0c-0761-47b1-8473-c6c6fe9f169c","ios":"levelo://app?vid=b0c63a0c-0761-47b1-8473-c6c6fe9f169c"},"vehicle_type_id":"4","last_reported":1747235456,"current_range_meters":8400,"station_id":"ce4bh192rcd13ifvqdb0","pricing_plan_id":"cebpf4jnsgd1na2vs0mg"},{"bike_id":"4d9d5c0d-51eb-44ed-9e96-92ccc0965fcb","system_id":"levelo_inurba_marseille","lat":43.29437,"lon":5.39761,"is_reserved":false,"is_disabled":false,"rental_uris":{"android":"levelo://app?vid=4d9d5c0d-51eb-44ed-9e96-92ccc0965fcb","ios":"levelo://app?vid=4d9d5c0d-51eb-44ed-9e96-92ccc0965fcb"},"vehicle_type_id":"4","last_reported":1747235456,"current_range_meters":8400,"station_id":"ce4bh3h2rcd13ifvqdo0","pricing_plan_id":"cebpf4jnsgd1na2vs0mg"},{"bike_id":"89b9075d-5740-40ac-b44a-2cc6a3cecd65","system_id":"levelo_inurba_marseille","lat":43.26196,"lon":5.37449,"is_reserved":false,"is_disabled":false,"rental_uris":{"android":"levelo://app?vid=89b9075d-5740-40ac-b44a-2cc6a3cecd65","ios":"levelo://app?vid=89b9075d-5740-40ac-b44a-2cc6a3cecd65"},"vehicle_type_id":"4","last_reported":1747235456,"current_range_meters":8400,"station_id":"ce4bhgp2rcd13ifvqfc0","pricing_plan_id":"cebpf4jnsgd1na2vs0mg"},{"bike_id":"acd27b8b-3bec-4524-8e02-d52732903533","system_id":"levelo_inurba_marseille","lat":43.27209,"lon":5.39176,"is_reserved":false,"is_disabled":false,"rental_uris":{"android":"levelo://app?vid=acd27b8b-3bec-4524-8e02-d52732903533","ios":"levelo://app?vid=acd27b8b-3bec-4524-8e02-d52732903533"},"vehicle_type_id":"4","last_reported":1747235456,"current_range_meters":8400,"station_id":"ce4bhhp2rcd13ifvqfm0","pricing_plan_id":"cebpf4jnsgd1na2vs0mg"},{"bike_id":"c86fdec6-b85f-4e5c-91d9-d8809dd8ed22","system_id":"levelo_inurba_marseille","lat":43.23155,"lon":5.43719,"is_reserved":false,"is_disabled":false,"rental_uris":{"android":"levelo://app?vid=c86fdec6-b85f-4e5c-91d9-d8809dd8ed22","ios":"levelo://app?vid=c86fdec6-b85f-4e5c-91d9-d8809dd8ed22"},"vehicle_type_id":"4","last_reported":1747235456,"current_range_meters":8400,"station_id":"ce4bhmp2rcd13ifvqgog","pricing_plan_id":"cebpf4jnsgd1na2vs0mg"},{"bike_id":"6c5e2750-bf55-4812-bb81-a9df60873a61","system_id":"levelo_inurba_marseille","lat":43.29639,"lon":5.36185,"is_reserved":false,"is_disabled":false,"rental_uris":{"android":"levelo://app?vid=6c5e2750-bf55-4812-bb81-a9df60873a61","ios":"levelo://app?vid=6c5e2750-bf55-4812-bb81-a9df60873a61"},"vehicle_type_id":"4","last_reported":1747235456,"current_range_meters":8800,"station_id":"","pricing_plan_id":"cebpf4jnsgd1na2vs0mg"},{"bike_id":"00dfcdb9-32aa-4e26-a87c-86ffd4037f41","system_id":"levelo_inurba_marseille","lat":43.29028,"lon":5.38645,"is_reserved":false,"is_disabled":false,"rental_uris":{"android":"levelo://app?vid=00dfcdb9-32aa-4e26-a87c-86ffd4037f41","ios":"levelo://app?vid=00dfcdb9-32aa-4e26-a87c-86ffd4037f41"},"vehicle_type_id":"4","last_reported":1747235456,"current_range_meters":8800,"station_id":"ce4bh4p2rcd13ifvqe0g","pricing_plan_id":"cebpf4jnsgd1na2vs0mg"},{"bike_id":"4e84db6c-aa9f-42ba-b76a-0173373c1ec7","system_id":"levelo_inurba_marseille","lat":43.28036,"lon":5.36952,"is_reserved":false,"is_disabled":false,"rental_uris":{"android":"levelo://app?vid=4e84db6c-aa9f-42ba-b76a-0173373c1ec7","ios":"levelo://app?vid=4e84db6c-aa9f-42ba-b76a-0173373c1ec7"},"vehicle_type_id":"4","last_reported":1747235456,"current_range_meters":8800,"station_id":"ce4bha12rcd13ifvqef0","pricing_plan_id":"cebpf4jnsgd1na2vs0mg"},{"bike_id":"e722aa06-3d09-44a2-adbd-d9bfca2fdbf8","system_id":"levelo_inurba_marseille","lat":43.26556,"lon":5.37291,"is_reserved":false,"is_disabled":false,"rental_uris":{"android":"levelo://app?vid=e722aa06-3d09-44a2-adbd-d9bfca2fdbf8","ios":"levelo://app?vid=e722aa06-3d09-44a2-adbd-d9bfca2fdbf8"},"vehicle_type_id":"4","last_reported":1747235456,"current_range_meters":8800,"station_id":"ce4bhg12rcd13ifvqf70","pricing_plan_id":"cebpf4jnsgd1na2vs0mg"},{"bike_id":"192950fa-923b-4aea-88c1-c7f531ee56fa","system_id":"levelo_inurba_marseille","lat":43.26065,"lon":5.39397,"is_reserved":false,"is_disabled":false,"rental_uris":{"android":"levelo://app?vid=192950fa-923b-4aea-88c1-c7f531ee56fa","ios":"levelo://app?vid=192950fa-923b-4aea-88c1-c7f531ee56fa"},"vehicle_type_id":"4","last_reported":1747235456,"current_range_meters":8800,"station_id":"ce4bhh92rcd13ifvqfj0","pricing_plan_id":"cebpf4jnsgd1na2vs0mg"},{"bike_id":"badd74ee-b1c1-4ee6-8e4f-6c5f63838aec","system_id":"levelo_inurba_marseille","lat":43.25591,"lon":5.38235,"is_reserved":false,"is_disabled":false,"rental_uris":{"android":"levelo://app?vid=badd74ee-b1c1-4ee6-8e4f-6c5f63838aec","ios":"levelo://app?vid=badd74ee-b1c1-4ee6-8e4f-6c5f63838aec"},"vehicle_type_id":"4","last_reported":1747235456,"current_range_meters":8800,"station_id":"ce4bhih2rcd13ifvqfs0","pricing_plan_id":"cebpf4jnsgd1na2vs0mg"},{"bike_id":"b7203655-4d72-42cb-beee-d3ba46cf4077","system_id":"levelo_inurba_marseille","lat":43.32369,"lon":5.3889,"is_reserved":false,"is_disabled":false,"rental_uris":{"android":"levelo://app?vid=b7203655-4d72-42cb-beee-d3ba46cf4077","ios":"levelo://app?vid=b7203655-4d72-42cb-beee-d3ba46cf4077"},"vehicle_type_id":"4","last_reported":1747235456,"current_range_meters":8800,"station_id":"ce4bhqp2rcd13ifvqhog","pricing_plan_id":"cebpf4jnsgd1na2vs0mg"},{"bike_id":"55944756-c6d3-4091-a7ed-e3688bc62fa3","system_id":"levelo_inurba_marseille","lat":43.297886,"lon":5.393518,"is_reserved":false,"is_disabled":false,"rental_uris":{"android":"levelo://app?vid=55944756-c6d3-4091-a7ed-e3688bc62fa3","ios":"levelo://app?vid=55944756-c6d3-4091-a7ed-e3688bc62fa3"},"vehicle_type_id":"4","last_reported":1747235456,"current_range_meters":8800,"station_id":"chh1huq6cuj3fo74tm60","pricing_plan_id":"cebpf4jnsgd1na2vs0mg"},{"bike_id":"930fe77e-7292-45b9-8071-dbb8730eaa55","system_id":"levelo_inurba_marseille","lat":43.27391,"lon":5.3627,"is_reserved":false,"is_disabled":false,"rental_uris":{"android":"levelo://app?vid=930fe77e-7292-45b9-8071-dbb8730eaa55","ios":"levelo://app?vid=930fe77e-7292-45b9-8071-dbb8730eaa55"},"vehicle_type_id":"4","last_reported":1747235456,"current_range_meters":9200,"station_id":"ce4bhbh2rcd13ifvqeo0","pricing_plan_id":"cebpf4jnsgd1na2vs0mg"},{"bike_id":"872d1525-4891-4be7-aea9-f6eaea24c1cd","system_id":"levelo_inurba_marseille","lat":43.25498,"lon":5.3765,"is_reserved":false,"is_disabled":false,"rental_uris":{"android":"levelo://app?vid=872d1525-4891-4be7-aea9-f6eaea24c1cd","ios":"levelo://app?vid=872d1525-4891-4be7-aea9-f6eaea24c1cd"},"vehicle_type_id":"4","last_reported":1747235456,"current_range_meters":9200,"station_id":"ce4bhh12rcd13ifvqff0","pricing_plan_id":"cebpf4jnsgd1na2vs0mg"},{"bike_id":"d29741e1-4215-4ee3-94b5-611745cf509c","system_id":"levelo_inurba_marseille","lat":43.30522,"lon":5.38435,"is_reserved":false,"is_disabled":false,"rental_uris":{"android":"levelo://app?vid=d29741e1-4215-4ee3-94b5-611745cf509c","ios":"levelo://app?vid=d29741e1-4215-4ee3-94b5-611745cf509c"},"vehicle_type_id":"4","last_reported":1747235456,"current_range_meters":9600,"station_id":"ce4bgg92rcd13ifvqb30","pricing_plan_id":"cebpf4jnsgd1na2vs0mg"},{"bike_id":"b469be3b-49f6-4416-a44f-c6f8f9d6655c","system_id":"levelo_inurba_marseille","lat":43.2894,"lon":5.36655,"is_reserved":false,"is_disabled":false,"rental_uris":{"android":"levelo://app?vid=b469be3b-49f6-4416-a44f-c6f8f9d6655c","ios":"levelo://app?vid=b469be3b-49f6-4416-a44f-c6f8f9d6655c"},"vehicle_type_id":"4","last_reported":1747235456,"current_range_meters":9600,"station_id":"ce4bhap2rcd13ifvqek0","pricing_plan_id":"cebpf4jnsgd1na2vs0mg"},{"bike_id":"00e1d07f-8cd1-4b67-b271-d8a43b30f800","system_id":"levelo_inurba_marseille","lat":43.25503,"lon":5.37662,"is_reserved":false,"is_disabled":false,"rental_uris":{"android":"levelo://app?vid=00e1d07f-8cd1-4b67-b271-d8a43b30f800","ios":"levelo://app?vid=00e1d07f-8cd1-4b67-b271-d8a43b30f800"},"vehicle_type_id":"4","last_reported":1747235456,"current_range_meters":10000,"station_id":"ce4bhh12rcd13ifvqff0","pricing_plan_id":"cebpf4jnsgd1na2vs0mg"},{"bike_id":"2d9c08c0-bf40-45c9-b1a8-d15c183a79bf","system_id":"levelo_inurba_marseille","lat":43.241749,"lon":5.39726,"is_reserved":false,"is_disabled":false,"rental_uris":{"android":"levelo://app?vid=2d9c08c0-bf40-45c9-b1a8-d15c183a79bf","ios":"levelo://app?vid=2d9c08c0-bf40-45c9-b1a8-d15c183a79bf"},"vehicle_type_id":"4","last_reported":1747235456,"current_range_meters":10000,"station_id":"ce4bhn12rcd13ifvqgpg","pricing_plan_id":"cebpf4jnsgd1na2vs0mg"},{"bike_id":"d36ac27e-8633-4fe7-875b-ba5bb8c78142","system_id":"levelo_inurba_marseille","lat":43.274937,"lon":5.424543,"is_reserved":false,"is_disabled":false,"rental_uris":{"android":"levelo://app?vid=d36ac27e-8633-4fe7-875b-ba5bb8c78142","ios":"levelo://app?vid=d36ac27e-8633-4fe7-875b-ba5bb8c78142"},"vehicle_type_id":"4","last_reported":1747235456,"current_range_meters":10000,"station_id":"ce4bhn92rcd13ifvqgrg","pricing_plan_id":"cebpf4jnsgd1na2vs0mg"},{"bike_id":"3faf053c-e846-4d83-83ee-8fd51efc38bb","system_id":"levelo_inurba_marseille","lat":43.321067,"lon":5.367917,"is_reserved":false,"is_disabled":false,"rental_uris":{"android":"levelo://app?vid=3faf053c-e846-4d83-83ee-8fd51efc38bb","ios":"levelo://app?vid=3faf053c-e846-4d83-83ee-8fd51efc38bb"},"vehicle_type_id":"4","last_reported":1747235456,"current_range_meters":10000,"station_id":"ce4bhrh2rcd13ifvqhug","pricing_plan_id":"cebpf4jnsgd1na2vs0mg"},{"bike_id":"ac2d63e1-97f3-4ec1-b8b7-f1be48b399e7","system_id":"levelo_inurba_marseille","lat":43.31233,"lon":5.3679,"is_reserved":false,"is_disabled":false,"rental_uris":{"android":"levelo://app?vid=ac2d63e1-97f3-4ec1-b8b7-f1be48b399e7","ios":"levelo://app?vid=ac2d63e1-97f3-4ec1-b8b7-f1be48b399e7"},"vehicle_type_id":"4","last_reported":1747235456,"current_range_meters":10800,"station_id":"ce4bgl92rcd13ifvqbq0","pricing_plan_id":"cebpf4jnsgd1na2vs0mg"},{"bike_id":"cb6899e8-2598-4fcc-ae16-3a09a3a911a4","system_id":"levelo_inurba_marseille","lat":43.28415,"lon":5.34984,"is_reserved":false,"is_disabled":false,"rental_uris":{"android":"levelo://app?vid=cb6899e8-2598-4fcc-ae16-3a09a3a911a4","ios":"levelo://app?vid=cb6899e8-2598-4fcc-ae16-3a09a3a911a4"},"vehicle_type_id":"4","last_reported":1747235456,"current_range_meters":10800,"station_id":"ce4bhbh2rcd13ifvqepg","pricing_plan_id":"cebpf4jnsgd1na2vs0mg"},{"bike_id":"3f344018-7611-4a3b-8e68-15029cf82102","system_id":"levelo_inurba_marseille","lat":43.26554,"lon":5.37294,"is_reserved":false,"is_disabled":false,"rental_uris":{"android":"levelo://app?vid=3f344018-7611-4a3b-8e68-15029cf82102","ios":"levelo://app?vid=3f344018-7611-4a3b-8e68-15029cf82102"},"vehicle_type_id":"4","last_reported":1747235456,"current_range_meters":10800,"station_id":"ce4bhg12rcd13ifvqf70","pricing_plan_id":"cebpf4jnsgd1na2vs0mg"},{"bike_id":"81481a6e-cc0f-427a-b29f-2ae5a2826e5a","system_id":"levelo_inurba_marseille","lat":43.2316,"lon":5.43725,"is_reserved":false,"is_disabled":false,"rental_uris":{"android":"levelo://app?vid=81481a6e-cc0f-427a-b29f-2ae5a2826e5a","ios":"levelo://app?vid=81481a6e-cc0f-427a-b29f-2ae5a2826e5a"},"vehicle_type_id":"4","last_reported":1747235456,"current_range_meters":10800,"station_id":"ce4bhmp2rcd13ifvqgog","pricing_plan_id":"cebpf4jnsgd1na2vs0mg"},{"bike_id":"3e2545e8-4b1a-413c-8c69-6ace6a43b265","system_id":"levelo_inurba_marseille","lat":43.23188,"lon":5.40012,"is_reserved":false,"is_disabled":false,"rental_uris":{"android":"levelo://app?vid=3e2545e8-4b1a-413c-8c69-6ace6a43b265","ios":"levelo://app?vid=3e2545e8-4b1a-413c-8c69-6ace6a43b265"},"vehicle_type_id":"4","last_reported":1747235456,"current_range_meters":10800,"station_id":"ce4bhn12rcd13ifvqgqg","pricing_plan_id":"cebpf4jnsgd1na2vs0mg"},{"bike_id":"d185253e-6966-4bf1-bbb4-25bee1efbf82","system_id":"levelo_inurba_marseille","lat":43.30197,"lon":5.36597,"is_reserved":false,"is_disabled":false,"rental_uris":{"android":"levelo://app?vid=d185253e-6966-4bf1-bbb4-25bee1efbf82","ios":"levelo://app?vid=d185253e-6966-4bf1-bbb4-25bee1efbf82"},"vehicle_type_id":"4","last_reported":1747235456,"current_range_meters":11200,"station_id":"ce4bgrh2rcd13ifvqc8g","pricing_plan_id":"cebpf4jnsgd1na2vs0mg"},{"bike_id":"b24f2fec-9575-4810-bb6d-96a88649d3ae","system_id":"levelo_inurba_marseille","lat":43.28862,"lon":5.35858,"is_reserved":false,"is_disabled":false,"rental_uris":{"android":"levelo://app?vid=b24f2fec-9575-4810-bb6d-96a88649d3ae","ios":"levelo://app?vid=b24f2fec-9575-4810-bb6d-96a88649d3ae"},"vehicle_type_id":"4","last_reported":1747235456,"current_range_meters":11200,"station_id":"ce4bhb12rcd13ifvqem0","pricing_plan_id":"cebpf4jnsgd1na2vs0mg"},{"bike_id":"00c0b6ba-eb30-4345-a1fb-a8229a9d9d32","system_id":"levelo_inurba_marseille","lat":43.25584,"lon":5.38235,"is_reserved":false,"is_disabled":false,"rental_uris":{"android":"levelo://app?vid=00c0b6ba-eb30-4345-a1fb-a8229a9d9d32","ios":"levelo://app?vid=00c0b6ba-eb30-4345-a1fb-a8229a9d9d32"},"vehicle_type_id":"4","last_reported":1747235456,"current_range_meters":11200,"station_id":"ce4bhih2rcd13ifvqfs0","pricing_plan_id":"cebpf4jnsgd1na2vs0mg"},{"bike_id":"52eb101e-7655-4687-96bc-f31f7f56cb74","system_id":"levelo_inurba_marseille","lat":43.25111,"lon":5.40326,"is_reserved":false,"is_disabled":false,"rental_uris":{"android":"levelo://app?vid=52eb101e-7655-4687-96bc-f31f7f56cb74","ios":"levelo://app?vid=52eb101e-7655-4687-96bc-f31f7f56cb74"},"vehicle_type_id":"4","last_reported":1747235456,"current_range_meters":11200,"station_id":"ce4bhlh2rcd13ifvqgig","pricing_plan_id":"cebpf4jnsgd1na2vs0mg"},{"bike_id":"420edf44-1edb-4c49-b116-cddc6933f27a","system_id":"levelo_inurba_marseille","lat":43.28157,"lon":5.42646,"is_reserved":false,"is_disabled":false,"rental_uris":{"android":"levelo://app?vid=420edf44-1edb-4c49-b116-cddc6933f27a","ios":"levelo://app?vid=420edf44-1edb-4c49-b116-cddc6933f27a"},"vehicle_type_id":"4","last_reported":1747235456,"current_range_meters":11200,"station_id":"ce4bhnh2rcd13ifvqgug","pricing_plan_id":"cebpf4jnsgd1na2vs0mg"},{"bike_id":"e3faef6f-635a-4b6b-b2b3-c0b918604df6","system_id":"levelo_inurba_marseille","lat":43.29902,"lon":5.43671,"is_reserved":false,"is_disabled":false,"rental_uris":{"android":"levelo://app?vid=e3faef6f-635a-4b6b-b2b3-c0b918604df6","ios":"levelo://app?vid=e3faef6f-635a-4b6b-b2b3-c0b918604df6"},"vehicle_type_id":"4","last_reported":1747235456,"current_range_meters":11200,"station_id":"ce4bhpp2rcd13ifvqhfg","pricing_plan_id":"cebpf4jnsgd1na2vs0mg"},{"bike_id":"f6e26417-3a0d-48ce-b9e1-c4ad9fc09c21","system_id":"levelo_inurba_marseille","lat":43.33737,"lon":5.39184,"is_reserved":false,"is_disabled":false,"rental_uris":{"android":"levelo://app?vid=f6e26417-3a0d-48ce-b9e1-c4ad9fc09c21","ios":"levelo://app?vid=f6e26417-3a0d-48ce-b9e1-c4ad9fc09c21"},"vehicle_type_id":"4","last_reported":1747235456,"current_range_meters":11200,"station_id":"ce4bhr92rcd13ifvqhsg","pricing_plan_id":"cebpf4jnsgd1na2vs0mg"},{"bike_id":"39aa1628-822e-4ce2-a2a5-c0f8adefac2f","system_id":"levelo_inurba_marseille","lat":43.33743,"lon":5.39177,"is_reserved":false,"is_disabled":false,"rental_uris":{"android":"levelo://app?vid=39aa1628-822e-4ce2-a2a5-c0f8adefac2f","ios":"levelo://app?vid=39aa1628-822e-4ce2-a2a5-c0f8adefac2f"},"vehicle_type_id":"4","last_reported":1747235456,"current_range_meters":11200,"station_id":"ce4bhr92rcd13ifvqhsg","pricing_plan_id":"cebpf4jnsgd1na2vs0mg"},{"bike_id":"b73de8dd-4a53-4e42-b455-05d6ebeac809","system_id":"levelo_inurba_marseille","lat":43.30894,"lon":5.37199,"is_reserved":false,"is_disabled":false,"rental_uris":{"android":"levelo://app?vid=b73de8dd-4a53-4e42-b455-05d6ebeac809","ios":"levelo://app?vid=b73de8dd-4a53-4e42-b455-05d6ebeac809"},"vehicle_type_id":"4","last_reported":1747235456,"current_range_meters":11600,"station_id":"","pricing_plan_id":"cebpf4jnsgd1na2vs0mg"},{"bike_id":"278fa49d-e268-4b91-8793-1d68dde7e7b5","system_id":"levelo_inurba_marseille","lat":43.29312,"lon":5.37169,"is_reserved":false,"is_disabled":false,"rental_uris":{"android":"levelo://app?vid=278fa49d-e268-4b91-8793-1d68dde7e7b5","ios":"levelo://app?vid=278fa49d-e268-4b91-8793-1d68dde7e7b5"},"vehicle_type_id":"4","last_reported":1747235456,"current_range_meters":11600,"station_id":"ce4bgh92rcd13ifvqb40","pricing_plan_id":"cebpf4jnsgd1na2vs0mg"},{"bike_id":"40115fd5-f59f-4b0c-9552-a95b14ed5e7f","system_id":"levelo_inurba_marseille","lat":43.30902,"lon":5.36826,"is_reserved":false,"is_disabled":false,"rental_uris":{"android":"levelo://app?vid=40115fd5-f59f-4b0c-9552-a95b14ed5e7f","ios":"levelo://app?vid=40115fd5-f59f-4b0c-9552-a95b14ed5e7f"},"vehicle_type_id":"4","last_reported":1747235456,"current_range_meters":11600,"station_id":"ce4bgn92rcd13ifvqbvg","pricing_plan_id":"cebpf4jnsgd1na2vs0mg"},{"bike_id":"58ea4fc7-894b-4cf1-88db-6174a7a7f606","system_id":"levelo_inurba_marseille","lat":43.30602,"lon":5.39367,"is_reserved":false,"is_disabled":false,"rental_uris":{"android":"levelo://app?vid=58ea4fc7-894b-4cf1-88db-6174a7a7f606","ios":"levelo://app?vid=58ea4fc7-894b-4cf1-88db-6174a7a7f606"},"vehicle_type_id":"4","last_reported":1747235456,"current_range_meters":11600,"station_id":"ce4bh0p2rcd13ifvqd80","pricing_plan_id":"cebpf4jnsgd1na2vs0mg"},{"bike_id":"20a386a6-5c7c-40de-905a-bafecce681a0","system_id":"levelo_inurba_marseille","lat":43.26201,"lon":5.37926,"is_reserved":false,"is_disabled":false,"rental_uris":{"android":"levelo://app?vid=20a386a6-5c7c-40de-905a-bafecce681a0","ios":"levelo://app?vid=20a386a6-5c7c-40de-905a-bafecce681a0"},"vehicle_type_id":"4","last_reported":1747235456,"current_range_meters":11600,"station_id":"ce4bhjp2rcd13ifvqg90","pricing_plan_id":"cebpf4jnsgd1na2vs0mg"},{"bike_id":"d9a1b640-7a35-487c-a6e1-d04dd52561a1","system_id":"levelo_inurba_marseille","lat":43.25582,"lon":5.38236,"is_reserved":false,"is_disabled":false,"rental_uris":{"android":"levelo://app?vid=d9a1b640-7a35-487c-a6e1-d04dd52561a1","ios":"levelo://app?vid=d9a1b640-7a35-487c-a6e1-d04dd52561a1"},"vehicle_type_id":"4","last_reported":1747235456,"current_range_meters":12000,"station_id":"ce4bhih2rcd13ifvqfs0","pricing_plan_id":"cebpf4jnsgd1na2vs0mg"},{"bike_id":"054d5910-b044-41d9-9bf7-efcb23c0c88a","system_id":"levelo_inurba_marseille","lat":43.337444,"lon":5.374475,"is_reserved":false,"is_disabled":false,"rental_uris":{"android":"levelo://app?vid=054d5910-b044-41d9-9bf7-efcb23c0c88a","ios":"levelo://app?vid=054d5910-b044-41d9-9bf7-efcb23c0c88a"},"vehicle_type_id":"4","last_reported":1747235456,"current_range_meters":12400,"station_id":"","pricing_plan_id":"cebpf4jnsgd1na2vs0mg"},{"bike_id":"0781c0ba-ef27-4802-9e7a-f7f78bd5a1b9","system_id":"levelo_inurba_marseille","lat":43.3094,"lon":5.40144,"is_reserved":false,"is_disabled":false,"rental_uris":{"android":"levelo://app?vid=0781c0ba-ef27-4802-9e7a-f7f78bd5a1b9","ios":"levelo://app?vid=0781c0ba-ef27-4802-9e7a-f7f78bd5a1b9"},"vehicle_type_id":"4","last_reported":1747235456,"current_range_meters":12400,"station_id":"ce4bgvp2rcd13ifvqct0","pricing_plan_id":"cebpf4jnsgd1na2vs0mg"},{"bike_id":"c785d2a8-5acf-4d10-8783-b622fda4d2e4","system_id":"levelo_inurba_marseille","lat":43.26569,"lon":5.39011,"is_reserved":false,"is_disabled":false,"rental_uris":{"android":"levelo://app?vid=c785d2a8-5acf-4d10-8783-b622fda4d2e4","ios":"levelo://app?vid=c785d2a8-5acf-4d10-8783-b622fda4d2e4"},"vehicle_type_id":"4","last_reported":1747235456,"current_range_meters":12400,"station_id":"ce4bhe12rcd13ifvqf30","pricing_plan_id":"cebpf4jnsgd1na2vs0mg"},{"bike_id":"cce7b4b5-10d5-4611-b550-e255fe89c2f1","system_id":"levelo_inurba_marseille","lat":43.27943,"lon":5.41056,"is_reserved":false,"is_disabled":false,"rental_uris":{"android":"levelo://app?vid=cce7b4b5-10d5-4611-b550-e255fe89c2f1","ios":"levelo://app?vid=cce7b4b5-10d5-4611-b550-e255fe89c2f1"},"vehicle_type_id":"4","last_reported":1747235456,"current_range_meters":12400,"station_id":"ce4bhnp2rcd13ifvqh0g","pricing_plan_id":"cebpf4jnsgd1na2vs0mg"},{"bike_id":"c24721a6-7974-45a5-84e6-d28f2affd393","system_id":"levelo_inurba_marseille","lat":43.31717,"lon":5.43708,"is_reserved":false,"is_disabled":false,"rental_uris":{"android":"levelo://app?vid=c24721a6-7974-45a5-84e6-d28f2affd393","ios":"levelo://app?vid=c24721a6-7974-45a5-84e6-d28f2affd393"},"vehicle_type_id":"4","last_reported":1747235456,"current_range_meters":12400,"station_id":"ce4bhp92rcd13ifvqhcg","pricing_plan_id":"cebpf4jnsgd1na2vs0mg"},{"bike_id":"8b33b22f-85fb-4f3f-892f-6fe36ce09802","system_id":"levelo_inurba_marseille","lat":43.29947,"lon":5.3654,"is_reserved":false,"is_disabled":false,"rental_uris":{"android":"levelo://app?vid=8b33b22f-85fb-4f3f-892f-6fe36ce09802","ios":"levelo://app?vid=8b33b22f-85fb-4f3f-892f-6fe36ce09802"},"vehicle_type_id":"4","last_reported":1747235456,"current_range_meters":12800,"station_id":"ce4bgm92rcd13ifvqbr0","pricing_plan_id":"cebpf4jnsgd1na2vs0mg"},{"bike_id":"f8f06929-5bd1-469c-bb1a-88e044451b72","system_id":"levelo_inurba_marseille","lat":43.27833,"lon":5.39217,"is_reserved":false,"is_disabled":false,"rental_uris":{"android":"levelo://app?vid=f8f06929-5bd1-469c-bb1a-88e044451b72","ios":"levelo://app?vid=f8f06929-5bd1-469c-bb1a-88e044451b72"},"vehicle_type_id":"4","last_reported":1747235456,"current_range_meters":12800,"station_id":"ce4bhjp2rcd13ifvqga0","pricing_plan_id":"cebpf4jnsgd1na2vs0mg"},{"bike_id":"9fe8a4bc-04bc-49f5-af53-7ef48e8c0ddf","system_id":"levelo_inurba_marseille","lat":43.23183,"lon":5.39972,"is_reserved":false,"is_disabled":false,"rental_uris":{"android":"levelo://app?vid=9fe8a4bc-04bc-49f5-af53-7ef48e8c0ddf","ios":"levelo://app?vid=9fe8a4bc-04bc-49f5-af53-7ef48e8c0ddf"},"vehicle_type_id":"4","last_reported":1747235456,"current_range_meters":12800,"station_id":"ce4bhn12rcd13ifvqgqg","pricing_plan_id":"cebpf4jnsgd1na2vs0mg"},{"bike_id":"5d59e912-457b-4bb9-96fc-6e3a170035e6","system_id":"levelo_inurba_marseille","lat":43.29427,"lon":5.38635,"is_reserved":false,"is_disabled":false,"rental_uris":{"android":"levelo://app?vid=5d59e912-457b-4bb9-96fc-6e3a170035e6","ios":"levelo://app?vid=5d59e912-457b-4bb9-96fc-6e3a170035e6"},"vehicle_type_id":"4","last_reported":1747235456,"current_range_meters":13600,"station_id":"ce4bh2h2rcd13ifvqdh0","pricing_plan_id":"cebpf4jnsgd1na2vs0mg"},{"bike_id":"84ae95eb-efd3-4d97-80b8-38fff2bf29cc","system_id":"levelo_inurba_marseille","lat":43.28994,"lon":5.35638,"is_reserved":false,"is_disabled":false,"rental_uris":{"android":"levelo://app?vid=84ae95eb-efd3-4d97-80b8-38fff2bf29cc","ios":"levelo://app?vid=84ae95eb-efd3-4d97-80b8-38fff2bf29cc"},"vehicle_type_id":"4","last_reported":1747235456,"current_range_meters":13600,"station_id":"ce4bhb92rcd13ifvqen0","pricing_plan_id":"cebpf4jnsgd1na2vs0mg"},{"bike_id":"9f5d34f6-865f-4131-b7f3-9e5882d96b67","system_id":"levelo_inurba_marseille","lat":43.23181,"lon":5.39988,"is_reserved":false,"is_disabled":false,"rental_uris":{"android":"levelo://app?vid=9f5d34f6-865f-4131-b7f3-9e5882d96b67","ios":"levelo://app?vid=9f5d34f6-865f-4131-b7f3-9e5882d96b67"},"vehicle_type_id":"4","last_reported":1747235456,"current_range_meters":13600,"station_id":"ce4bhn12rcd13ifvqgqg","pricing_plan_id":"cebpf4jnsgd1na2vs0mg"},{"bike_id":"5ee564e0-e5ad-4c68-8fe3-8998d0e4783d","system_id":"levelo_inurba_marseille","lat":43.28156,"lon":5.4265,"is_reserved":false,"is_disabled":false,"rental_uris":{"android":"levelo://app?vid=5ee564e0-e5ad-4c68-8fe3-8998d0e4783d","ios":"levelo://app?vid=5ee564e0-e5ad-4c68-8fe3-8998d0e4783d"},"vehicle_type_id":"4","last_reported":1747235456,"current_range_meters":13600,"station_id":"ce4bhnh2rcd13ifvqgug","pricing_plan_id":"cebpf4jnsgd1na2vs0mg"},{"bike_id":"ba83e5ae-8b45-4251-b63f-d767e482e048","system_id":"levelo_inurba_marseille","lat":43.29016,"lon":5.38129,"is_reserved":false,"is_disabled":false,"rental_uris":{"android":"levelo://app?vid=ba83e5ae-8b45-4251-b63f-d767e482e048","ios":"levelo://app?vid=ba83e5ae-8b45-4251-b63f-d767e482e048"},"vehicle_type_id":"4","last_reported":1747235456,"current_range_meters":14000,"station_id":"ce4bh4p2rcd13ifvqe1g","pricing_plan_id":"cebpf4jnsgd1na2vs0mg"},{"bike_id":"f6d1d785-d657-4fe5-bc31-79b9f09593a3","system_id":"levelo_inurba_marseille","lat":43.29258,"lon":5.383901,"is_reserved":false,"is_disabled":false,"rental_uris":{"android":"levelo://app?vid=f6d1d785-d657-4fe5-bc31-79b9f09593a3","ios":"levelo://app?vid=f6d1d785-d657-4fe5-bc31-79b9f09593a3"},"vehicle_type_id":"4","last_reported":1747235456,"current_range_meters":14000,"station_id":"ce4bh692rcd13ifvqea0","pricing_plan_id":"cebpf4jnsgd1na2vs0mg"},{"bike_id":"1650302b-497b-4bbd-8c2a-9edef6b2a9c9","system_id":"levelo_inurba_marseille","lat":43.28428,"lon":5.34998,"is_reserved":false,"is_disabled":false,"rental_uris":{"android":"levelo://app?vid=1650302b-497b-4bbd-8c2a-9edef6b2a9c9","ios":"levelo://app?vid=1650302b-497b-4bbd-8c2a-9edef6b2a9c9"},"vehicle_type_id":"4","last_reported":1747235456,"current_range_meters":14000,"station_id":"ce4bhbh2rcd13ifvqepg","pricing_plan_id":"cebpf4jnsgd1na2vs0mg"},{"bike_id":"1feda3f1-70ba-4895-83be-f925da859e67","system_id":"levelo_inurba_marseille","lat":43.25877,"lon":5.39905,"is_reserved":false,"is_disabled":false,"rental_uris":{"android":"levelo://app?vid=1feda3f1-70ba-4895-83be-f925da859e67","ios":"levelo://app?vid=1feda3f1-70ba-4895-83be-f925da859e67"},"vehicle_type_id":"4","last_reported":1747235456,"current_range_meters":14000,"station_id":"ce4bhl92rcd13ifvqghg","pricing_plan_id":"cebpf4jnsgd1na2vs0mg"},{"bike_id":"ac65eac3-9acf-4a50-83dd-0f414a5427a2","system_id":"levelo_inurba_marseille","lat":43.24547,"lon":5.39527,"is_reserved":false,"is_disabled":false,"rental_uris":{"android":"levelo://app?vid=ac65eac3-9acf-4a50-83dd-0f414a5427a2","ios":"levelo://app?vid=ac65eac3-9acf-4a50-83dd-0f414a5427a2"},"vehicle_type_id":"4","last_reported":1747235456,"current_range_meters":14000,"station_id":"ce4bhlp2rcd13ifvqgjg","pricing_plan_id":"cebpf4jnsgd1na2vs0mg"},{"bike_id":"7338e374-f21c-40a5-9321-82dabc589c8b","system_id":"levelo_inurba_marseille","lat":43.28003,"lon":5.40014,"is_reserved":false,"is_disabled":false,"rental_uris":{"android":"levelo://app?vid=7338e374-f21c-40a5-9321-82dabc589c8b","ios":"levelo://app?vid=7338e374-f21c-40a5-9321-82dabc589c8b"},"vehicle_type_id":"4","last_reported":1747235456,"current_range_meters":14000,"station_id":"ce4bho92rcd13ifvqh4g","pricing_plan_id":"cebpf4jnsgd1na2vs0mg"},{"bike_id":"1e55b754-718a-4797-b5aa-d352d989a797","system_id":"levelo_inurba_marseille","lat":43.33029,"lon":5.3904,"is_reserved":false,"is_disabled":false,"rental_uris":{"android":"levelo://app?vid=1e55b754-718a-4797-b5aa-d352d989a797","ios":"levelo://app?vid=1e55b754-718a-4797-b5aa-d352d989a797"},"vehicle_type_id":"4","last_reported":1747235456,"current_range_meters":14000,"station_id":"ce4bhr92rcd13ifvqhrg","pricing_plan_id":"cebpf4jnsgd1na2vs0mg"},{"bike_id":"77cbceda-beb7-48b1-8301-432d24b9f4d5","system_id":"levelo_inurba_marseille","lat":43.29007,"lon":5.35637,"is_reserved":false,"is_disabled":false,"rental_uris":{"android":"levelo://app?vid=77cbceda-beb7-48b1-8301-432d24b9f4d5","ios":"levelo://app?vid=77cbceda-beb7-48b1-8301-432d24b9f4d5"},"vehicle_type_id":"4","last_reported":1747235456,"current_range_meters":14400,"station_id":"ce4bhb92rcd13ifvqen0","pricing_plan_id":"cebpf4jnsgd1na2vs0mg"},{"bike_id":"ac895849-5bf5-4bc2-9ccc-1d40d85b19aa","system_id":"levelo_inurba_marseille","lat":43.299077,"lon":5.381512,"is_reserved":false,"is_disabled":false,"rental_uris":{"android":"levelo://app?vid=ac895849-5bf5-4bc2-9ccc-1d40d85b19aa","ios":"levelo://app?vid=ac895849-5bf5-4bc2-9ccc-1d40d85b19aa"},"vehicle_type_id":"4","last_reported":1747235456,"current_range_meters":14800,"station_id":"ce4bgj12rcd13ifvqbc0","pricing_plan_id":"cebpf4jnsgd1na2vs0mg"},{"bike_id":"662524f8-545a-4e25-9808-f0bdf468b7f4","system_id":"levelo_inurba_marseille","lat":43.291666,"lon":5.371546,"is_reserved":false,"is_disabled":false,"rental_uris":{"android":"levelo://app?vid=662524f8-545a-4e25-9808-f0bdf468b7f4","ios":"levelo://app?vid=662524f8-545a-4e25-9808-f0bdf468b7f4"},"vehicle_type_id":"4","last_reported":1747235456,"current_range_meters":14800,"station_id":"ce4bha92rcd13ifvqeh0","pricing_plan_id":"cebpf4jnsgd1na2vs0mg"},{"bike_id":"cb449aeb-63bf-4e11-a01d-928c7eea1054","system_id":"levelo_inurba_marseille","lat":43.28617,"lon":5.35102,"is_reserved":false,"is_disabled":false,"rental_uris":{"android":"levelo://app?vid=cb449aeb-63bf-4e11-a01d-928c7eea1054","ios":"levelo://app?vid=cb449aeb-63bf-4e11-a01d-928c7eea1054"},"vehicle_type_id":"4","last_reported":1747235456,"current_range_meters":14800,"station_id":"ce4bhch2rcd13ifvqeug","pricing_plan_id":"cebpf4jnsgd1na2vs0mg"},{"bike_id":"f56d45ba-7adf-43a9-9c46-9a29fee49dea","system_id":"levelo_inurba_marseille","lat":43.25493,"lon":5.37661,"is_reserved":false,"is_disabled":false,"rental_uris":{"android":"levelo://app?vid=f56d45ba-7adf-43a9-9c46-9a29fee49dea","ios":"levelo://app?vid=f56d45ba-7adf-43a9-9c46-9a29fee49dea"},"vehicle_type_id":"4","last_reported":1747235456,"current_range_meters":14800,"station_id":"ce4bhh12rcd13ifvqff0","pricing_plan_id":"cebpf4jnsgd1na2vs0mg"},{"bike_id":"0ad919d9-16a7-4b30-98b2-7c6f06d753ae","system_id":"levelo_inurba_marseille","lat":43.29919,"lon":5.38139,"is_reserved":false,"is_disabled":false,"rental_uris":{"android":"levelo://app?vid=0ad919d9-16a7-4b30-98b2-7c6f06d753ae","ios":"levelo://app?vid=0ad919d9-16a7-4b30-98b2-7c6f06d753ae"},"vehicle_type_id":"4","last_reported":1747235456,"current_range_meters":15200,"station_id":"ce4bgj12rcd13ifvqbc0","pricing_plan_id":"cebpf4jnsgd1na2vs0mg"},{"bike_id":"beb102bf-5da5-46c2-9a0a-1f4e242016fe","system_id":"levelo_inurba_marseille","lat":43.24072,"lon":5.37765,"is_reserved":false,"is_disabled":false,"rental_uris":{"android":"levelo://app?vid=beb102bf-5da5-46c2-9a0a-1f4e242016fe","ios":"levelo://app?vid=beb102bf-5da5-46c2-9a0a-1f4e242016fe"},"vehicle_type_id":"4","last_reported":1747235456,"current_range_meters":15200,"station_id":"ce4bhnp2rcd13ifvqgvg","pricing_plan_id":"cebpf4jnsgd1na2vs0mg"},{"bike_id":"f06040fa-bc2c-4ac7-a868-973c074f8750","system_id":"levelo_inurba_marseille","lat":43.29874,"lon":5.39736,"is_reserved":false,"is_disabled":false,"rental_uris":{"android":"levelo://app?vid=f06040fa-bc2c-4ac7-a868-973c074f8750","ios":"levelo://app?vid=f06040fa-bc2c-4ac7-a868-973c074f8750"},"vehicle_type_id":"4","last_reported":1747235456,"current_range_meters":16000,"station_id":"ce4bh0h2rcd13ifvqd50","pricing_plan_id":"cebpf4jnsgd1na2vs0mg"},{"bike_id":"410551ce-94d4-4dd5-adb4-f861e5fe9519","system_id":"levelo_inurba_marseille","lat":43.29258,"lon":5.4091,"is_reserved":false,"is_disabled":false,"rental_uris":{"android":"levelo://app?vid=410551ce-94d4-4dd5-adb4-f861e5fe9519","ios":"levelo://app?vid=410551ce-94d4-4dd5-adb4-f861e5fe9519"},"vehicle_type_id":"4","last_reported":1747235456,"current_range_meters":16000,"station_id":"ce4bh192rcd13ifvqdc0","pricing_plan_id":"cebpf4jnsgd1na2vs0mg"},{"bike_id":"6b9e061f-2e3f-47d6-949b-d943273d2e54","system_id":"levelo_inurba_marseille","lat":43.29099,"lon":5.38155,"is_reserved":false,"is_disabled":false,"rental_uris":{"android":"levelo://app?vid=6b9e061f-2e3f-47d6-949b-d943273d2e54","ios":"levelo://app?vid=6b9e061f-2e3f-47d6-949b-d943273d2e54"},"vehicle_type_id":"4","last_reported":1747235456,"current_range_meters":16000,"station_id":"ce4bh512rcd13ifvqe2g","pricing_plan_id":"cebpf4jnsgd1na2vs0mg"},{"bike_id":"9d5afb3c-f65b-448d-87c7-27ca74bb18df","system_id":"levelo_inurba_marseille","lat":43.29,"lon":5.35614,"is_reserved":false,"is_disabled":false,"rental_uris":{"android":"levelo://app?vid=9d5afb3c-f65b-448d-87c7-27ca74bb18df","ios":"levelo://app?vid=9d5afb3c-f65b-448d-87c7-27ca74bb18df"},"vehicle_type_id":"4","last_reported":1747235456,"current_range_meters":16000,"station_id":"ce4bhb92rcd13ifvqen0","pricing_plan_id":"cebpf4jnsgd1na2vs0mg"},{"bike_id":"626f8d70-ba14-45ab-8cc0-611248241630","system_id":"levelo_inurba_marseille","lat":43.3211,"lon":5.36803,"is_reserved":false,"is_disabled":false,"rental_uris":{"android":"levelo://app?vid=626f8d70-ba14-45ab-8cc0-611248241630","ios":"levelo://app?vid=626f8d70-ba14-45ab-8cc0-611248241630"},"vehicle_type_id":"4","last_reported":1747235456,"current_range_meters":16000,"station_id":"ce4bhrh2rcd13ifvqhug","pricing_plan_id":"cebpf4jnsgd1na2vs0mg"},{"bike_id":"acaefc3f-8249-44a6-af50-3a546cc73c13","system_id":"levelo_inurba_marseille","lat":43.29709,"lon":5.37708,"is_reserved":false,"is_disabled":false,"rental_uris":{"android":"levelo://app?vid=acaefc3f-8249-44a6-af50-3a546cc73c13","ios":"levelo://app?vid=acaefc3f-8249-44a6-af50-3a546cc73c13"},"vehicle_type_id":"4","last_reported":1747235456,"current_range_meters":16400,"station_id":"ce4bgkh2rcd13ifvqbl0","pricing_plan_id":"cebpf4jnsgd1na2vs0mg"},{"bike_id":"7e36d6b9-ba7a-4451-8154-4ce6b6033214","system_id":"levelo_inurba_marseille","lat":43.295752,"lon":5.399846,"is_reserved":false,"is_disabled":false,"rental_uris":{"android":"levelo://app?vid=7e36d6b9-ba7a-4451-8154-4ce6b6033214","ios":"levelo://app?vid=7e36d6b9-ba7a-4451-8154-4ce6b6033214"},"vehicle_type_id":"4","last_reported":1747235456,"current_range_meters":16400,"station_id":"ce4bh312rcd13ifvqdj0","pricing_plan_id":"cebpf4jnsgd1na2vs0mg"},{"bike_id":"be499c17-4e8f-435f-aa13-d489714d2b23","system_id":"levelo_inurba_marseille","lat":43.27917,"lon":5.39578,"is_reserved":false,"is_disabled":false,"rental_uris":{"android":"levelo://app?vid=be499c17-4e8f-435f-aa13-d489714d2b23","ios":"levelo://app?vid=be499c17-4e8f-435f-aa13-d489714d2b23"},"vehicle_type_id":"4","last_reported":1747235456,"current_range_meters":16400,"station_id":"ce4bhf92rcd13ifvqf40","pricing_plan_id":"cebpf4jnsgd1na2vs0mg"},{"bike_id":"5b2bf2cc-e79c-4a99-a91f-20d49657d90b","system_id":"levelo_inurba_marseille","lat":43.2418,"lon":5.39733,"is_reserved":false,"is_disabled":false,"rental_uris":{"android":"levelo://app?vid=5b2bf2cc-e79c-4a99-a91f-20d49657d90b","ios":"levelo://app?vid=5b2bf2cc-e79c-4a99-a91f-20d49657d90b"},"vehicle_type_id":"4","last_reported":1747235456,"current_range_meters":16400,"station_id":"ce4bhn12rcd13ifvqgpg","pricing_plan_id":"cebpf4jnsgd1na2vs0mg"},{"bike_id":"a0fd54c0-4c17-41ee-9f2f-af0a81d9b4a1","system_id":"levelo_inurba_marseille","lat":43.33749,"lon":5.39184,"is_reserved":false,"is_disabled":false,"rental_uris":{"android":"levelo://app?vid=a0fd54c0-4c17-41ee-9f2f-af0a81d9b4a1","ios":"levelo://app?vid=a0fd54c0-4c17-41ee-9f2f-af0a81d9b4a1"},"vehicle_type_id":"4","last_reported":1747235456,"current_range_meters":16400,"station_id":"ce4bhr92rcd13ifvqhsg","pricing_plan_id":"cebpf4jnsgd1na2vs0mg"},{"bike_id":"2670bee4-73b2-4d5b-b45f-77375fee8c7b","system_id":"levelo_inurba_marseille","lat":43.30908,"lon":5.36836,"is_reserved":false,"is_disabled":false,"rental_uris":{"android":"levelo://app?vid=2670bee4-73b2-4d5b-b45f-77375fee8c7b","ios":"levelo://app?vid=2670bee4-73b2-4d5b-b45f-77375fee8c7b"},"vehicle_type_id":"4","last_reported":1747235456,"current_range_meters":16800,"station_id":"ce4bgn92rcd13ifvqbvg","pricing_plan_id":"cebpf4jnsgd1na2vs0mg"},{"bike_id":"ec6bbbee-b5c8-4c32-8786-91437bbd8f1f","system_id":"levelo_inurba_marseille","lat":43.29041,"lon":5.37562,"is_reserved":false,"is_disabled":false,"rental_uris":{"android":"levelo://app?vid=ec6bbbee-b5c8-4c32-8786-91437bbd8f1f","ios":"levelo://app?vid=ec6bbbee-b5c8-4c32-8786-91437bbd8f1f"},"vehicle_type_id":"4","last_reported":1747235456,"current_range_meters":16800,"station_id":"ce4bh692rcd13ifvqe90","pricing_plan_id":"cebpf4jnsgd1na2vs0mg"},{"bike_id":"4cc64465-6c97-4dba-9dd4-f3c8ed30da99","system_id":"levelo_inurba_marseille","lat":43.27382,"lon":5.36258,"is_reserved":false,"is_disabled":false,"rental_uris":{"android":"levelo://app?vid=4cc64465-6c97-4dba-9dd4-f3c8ed30da99","ios":"levelo://app?vid=4cc64465-6c97-4dba-9dd4-f3c8ed30da99"},"vehicle_type_id":"4","last_reported":1747235456,"current_range_meters":16800,"station_id":"ce4bhbh2rcd13ifvqeo0","pricing_plan_id":"cebpf4jnsgd1na2vs0mg"},{"bike_id":"ae236008-c91c-41b1-a45c-d8d61680b83e","system_id":"levelo_inurba_marseille","lat":43.27541,"lon":5.38451,"is_reserved":false,"is_disabled":false,"rental_uris":{"android":"levelo://app?vid=ae236008-c91c-41b1-a45c-d8d61680b83e","ios":"levelo://app?vid=ae236008-c91c-41b1-a45c-d8d61680b83e"},"vehicle_type_id":"4","last_reported":1747235456,"current_range_meters":16800,"station_id":"ce4bhh92rcd13ifvqfi0","pricing_plan_id":"cebpf4jnsgd1na2vs0mg"},{"bike_id":"94425245-09df-4108-9a30-610dbcaf2585","system_id":"levelo_inurba_marseille","lat":43.31725,"lon":5.42393,"is_reserved":false,"is_disabled":false,"rental_uris":{"android":"levelo://app?vid=94425245-09df-4108-9a30-610dbcaf2585","ios":"levelo://app?vid=94425245-09df-4108-9a30-610dbcaf2585"},"vehicle_type_id":"4","last_reported":1747235456,"current_range_meters":16800,"station_id":"ce4bhp92rcd13ifvqhbg","pricing_plan_id":"cebpf4jnsgd1na2vs0mg"},{"bike_id":"360b6431-c471-474a-b88e-7c592242508c","system_id":"levelo_inurba_marseille","lat":43.33029,"lon":5.39042,"is_reserved":false,"is_disabled":false,"rental_uris":{"android":"levelo://app?vid=360b6431-c471-474a-b88e-7c592242508c","ios":"levelo://app?vid=360b6431-c471-474a-b88e-7c592242508c"},"vehicle_type_id":"4","last_reported":1747235456,"current_range_meters":16800,"station_id":"ce4bhr92rcd13ifvqhrg","pricing_plan_id":"cebpf4jnsgd1na2vs0mg"},{"bike_id":"409daf9c-ad3f-4272-b2e2-7e7ea691c694","system_id":"levelo_inurba_marseille","lat":43.30601,"lon":5.37216,"is_reserved":false,"is_disabled":false,"rental_uris":{"android":"levelo://app?vid=409daf9c-ad3f-4272-b2e2-7e7ea691c694","ios":"levelo://app?vid=409daf9c-ad3f-4272-b2e2-7e7ea691c694"},"vehicle_type_id":"4","last_reported":1747235456,"current_range_meters":17200,"station_id":"ce4bgqh2rcd13ifvqc4g","pricing_plan_id":"cebpf4jnsgd1na2vs0mg"},{"bike_id":"4810f7bc-d24f-441b-8f93-109abc282ac8","system_id":"levelo_inurba_marseille","lat":43.27379,"lon":5.36256,"is_reserved":false,"is_disabled":false,"rental_uris":{"android":"levelo://app?vid=4810f7bc-d24f-441b-8f93-109abc282ac8","ios":"levelo://app?vid=4810f7bc-d24f-441b-8f93-109abc282ac8"},"vehicle_type_id":"4","last_reported":1747235456,"current_range_meters":17200,"station_id":"ce4bhbh2rcd13ifvqeo0","pricing_plan_id":"cebpf4jnsgd1na2vs0mg"},{"bike_id":"3cb7473a-42d3-43fe-8ba3-9e2d79b5b572","system_id":"levelo_inurba_marseille","lat":43.24077,"lon":5.37765,"is_reserved":false,"is_disabled":false,"rental_uris":{"android":"levelo://app?vid=3cb7473a-42d3-43fe-8ba3-9e2d79b5b572","ios":"levelo://app?vid=3cb7473a-42d3-43fe-8ba3-9e2d79b5b572"},"vehicle_type_id":"4","last_reported":1747235456,"current_range_meters":17200,"station_id":"ce4bhnp2rcd13ifvqgvg","pricing_plan_id":"cebpf4jnsgd1na2vs0mg"},{"bike_id":"60af0a7f-4cfd-4f77-8f2f-31f09c58ccf0","system_id":"levelo_inurba_marseille","lat":43.21747,"lon":5.34605,"is_reserved":false,"is_disabled":true,"rental_uris":{"android":"levelo://app?vid=60af0a7f-4cfd-4f77-8f2f-31f09c58ccf0","ios":"levelo://app?vid=60af0a7f-4cfd-4f77-8f2f-31f09c58ccf0"},"vehicle_type_id":"4","last_reported":1747235456,"current_range_meters":17200,"station_id":"st_cvj6r9ubvosntc0bgbag","pricing_plan_id":"cebpf4jnsgd1na2vs0mg"},{"bike_id":"d74dda0c-2ae8-4a20-aee3-80ba3b692d64","system_id":"levelo_inurba_marseille","lat":43.30469,"lon":5.37199,"is_reserved":false,"is_disabled":false,"rental_uris":{"android":"levelo://app?vid=d74dda0c-2ae8-4a20-aee3-80ba3b692d64","ios":"levelo://app?vid=d74dda0c-2ae8-4a20-aee3-80ba3b692d64"},"vehicle_type_id":"4","last_reported":1747235456,"current_range_meters":17600,"station_id":"","pricing_plan_id":"cebpf4jnsgd1na2vs0mg"},{"bike_id":"0a41f867-9e4f-4d2a-bc2e-ffc9fda63c73","system_id":"levelo_inurba_marseille","lat":43.26566,"lon":5.37298,"is_reserved":false,"is_disabled":false,"rental_uris":{"android":"levelo://app?vid=0a41f867-9e4f-4d2a-bc2e-ffc9fda63c73","ios":"levelo://app?vid=0a41f867-9e4f-4d2a-bc2e-ffc9fda63c73"},"vehicle_type_id":"4","last_reported":1747235456,"current_range_meters":17600,"station_id":"ce4bhg12rcd13ifvqf70","pricing_plan_id":"cebpf4jnsgd1na2vs0mg"},{"bike_id":"13be1556-c6f2-48ed-bf4e-e84c61e2ff42","system_id":"levelo_inurba_marseille","lat":43.23187,"lon":5.39999,"is_reserved":false,"is_disabled":false,"rental_uris":{"android":"levelo://app?vid=13be1556-c6f2-48ed-bf4e-e84c61e2ff42","ios":"levelo://app?vid=13be1556-c6f2-48ed-bf4e-e84c61e2ff42"},"vehicle_type_id":"4","last_reported":1747235456,"current_range_meters":17600,"station_id":"ce4bhn12rcd13ifvqgqg","pricing_plan_id":"cebpf4jnsgd1na2vs0mg"},{"bike_id":"ac0112c9-313e-422c-910b-a3523b05b0c9","system_id":"levelo_inurba_marseille","lat":43.23062,"lon":5.35476,"is_reserved":false,"is_disabled":false,"rental_uris":{"android":"levelo://app?vid=ac0112c9-313e-422c-910b-a3523b05b0c9","ios":"levelo://app?vid=ac0112c9-313e-422c-910b-a3523b05b0c9"},"vehicle_type_id":"4","last_reported":1747235456,"current_range_meters":17600,"station_id":"cpo3342slgdg3j2ifvpg","pricing_plan_id":"cebpf4jnsgd1na2vs0mg"},{"bike_id":"46538967-3968-4e16-bd88-7218ec6b9052","system_id":"levelo_inurba_marseille","lat":43.28357,"lon":5.38679,"is_reserved":false,"is_disabled":false,"rental_uris":{"android":"levelo://app?vid=46538967-3968-4e16-bd88-7218ec6b9052","ios":"levelo://app?vid=46538967-3968-4e16-bd88-7218ec6b9052"},"vehicle_type_id":"4","last_reported":1747235456,"current_range_meters":18000,"station_id":"ce4bh492rcd13ifvqdvg","pricing_plan_id":"cebpf4jnsgd1na2vs0mg"},{"bike_id":"fd4809c9-f232-46ea-9053-076c9743c2a6","system_id":"levelo_inurba_marseille","lat":43.23179,"lon":5.39988,"is_reserved":false,"is_disabled":false,"rental_uris":{"android":"levelo://app?vid=fd4809c9-f232-46ea-9053-076c9743c2a6","ios":"levelo://app?vid=fd4809c9-f232-46ea-9053-076c9743c2a6"},"vehicle_type_id":"4","last_reported":1747235456,"current_range_meters":18000,"station_id":"ce4bhn12rcd13ifvqgqg","pricing_plan_id":"cebpf4jnsgd1na2vs0mg"},{"bike_id":"a0899e2f-af25-4a72-befe-3b00ea1d12a6","system_id":"levelo_inurba_marseille","lat":43.31489,"lon":5.37304,"is_reserved":false,"is_disabled":false,"rental_uris":{"android":"levelo://app?vid=a0899e2f-af25-4a72-befe-3b00ea1d12a6","ios":"levelo://app?vid=a0899e2f-af25-4a72-befe-3b00ea1d12a6"},"vehicle_type_id":"4","last_reported":1747235456,"current_range_meters":18800,"station_id":"ce4bgt12rcd13ifvqcd0","pricing_plan_id":"cebpf4jnsgd1na2vs0mg"},{"bike_id":"eade3ae7-bac3-414b-9269-92f4d4d37633","system_id":"levelo_inurba_marseille","lat":43.290684,"lon":5.371553,"is_reserved":false,"is_disabled":false,"rental_uris":{"android":"levelo://app?vid=eade3ae7-bac3-414b-9269-92f4d4d37633","ios":"levelo://app?vid=eade3ae7-bac3-414b-9269-92f4d4d37633"},"vehicle_type_id":"4","last_reported":1747235456,"current_range_meters":18800,"station_id":"ce4bh5p2rcd13ifvqe4g","pricing_plan_id":"cebpf4jnsgd1na2vs0mg"},{"bike_id":"10b6d353-c6ca-4f7a-a114-6ed058dbb6f9","system_id":"levelo_inurba_marseille","lat":43.28861,"lon":5.35851,"is_reserved":false,"is_disabled":false,"rental_uris":{"android":"levelo://app?vid=10b6d353-c6ca-4f7a-a114-6ed058dbb6f9","ios":"levelo://app?vid=10b6d353-c6ca-4f7a-a114-6ed058dbb6f9"},"vehicle_type_id":"4","last_reported":1747235456,"current_range_meters":18800,"station_id":"ce4bhb12rcd13ifvqem0","pricing_plan_id":"cebpf4jnsgd1na2vs0mg"},{"bike_id":"297a85b0-fa8c-489e-bd98-6fd7f3aae510","system_id":"levelo_inurba_marseille","lat":43.241747,"lon":5.397347,"is_reserved":false,"is_disabled":false,"rental_uris":{"android":"levelo://app?vid=297a85b0-fa8c-489e-bd98-6fd7f3aae510","ios":"levelo://app?vid=297a85b0-fa8c-489e-bd98-6fd7f3aae510"},"vehicle_type_id":"4","last_reported":1747235456,"current_range_meters":18800,"station_id":"ce4bhn12rcd13ifvqgpg","pricing_plan_id":"cebpf4jnsgd1na2vs0mg"},{"bike_id":"1a0f08df-ff70-4227-82bc-f8cdb4a6d5a6","system_id":"levelo_inurba_marseille","lat":43.24073,"lon":5.37775,"is_reserved":false,"is_disabled":false,"rental_uris":{"android":"levelo://app?vid=1a0f08df-ff70-4227-82bc-f8cdb4a6d5a6","ios":"levelo://app?vid=1a0f08df-ff70-4227-82bc-f8cdb4a6d5a6"},"vehicle_type_id":"4","last_reported":1747235456,"current_range_meters":18800,"station_id":"ce4bhnp2rcd13ifvqgvg","pricing_plan_id":"cebpf4jnsgd1na2vs0mg"},{"bike_id":"74e465a6-62f1-45be-9144-40f0ae71c9e6","system_id":"levelo_inurba_marseille","lat":43.323545,"lon":5.367441,"is_reserved":false,"is_disabled":false,"rental_uris":{"android":"levelo://app?vid=74e465a6-62f1-45be-9144-40f0ae71c9e6","ios":"levelo://app?vid=74e465a6-62f1-45be-9144-40f0ae71c9e6"},"vehicle_type_id":"4","last_reported":1747235456,"current_range_meters":18800,"station_id":"ce4bhsh2rcd13ifvqi2g","pricing_plan_id":"cebpf4jnsgd1na2vs0mg"},{"bike_id":"1def4d9e-ba54-4554-8279-72b57c0de750","system_id":"levelo_inurba_marseille","lat":43.337444,"lon":5.374475,"is_reserved":false,"is_disabled":false,"rental_uris":{"android":"levelo://app?vid=1def4d9e-ba54-4554-8279-72b57c0de750","ios":"levelo://app?vid=1def4d9e-ba54-4554-8279-72b57c0de750"},"vehicle_type_id":"4","last_reported":1747235456,"current_range_meters":19200,"station_id":"","pricing_plan_id":"cebpf4jnsgd1na2vs0mg"},{"bike_id":"236fe8a1-bb49-4378-9a13-707d1ea97db2","system_id":"levelo_inurba_marseille","lat":43.32061,"lon":5.36856,"is_reserved":false,"is_disabled":false,"rental_uris":{"android":"levelo://app?vid=236fe8a1-bb49-4378-9a13-707d1ea97db2","ios":"levelo://app?vid=236fe8a1-bb49-4378-9a13-707d1ea97db2"},"vehicle_type_id":"4","last_reported":1747235456,"current_range_meters":19200,"station_id":"","pricing_plan_id":"cebpf4jnsgd1na2vs0mg"},{"bike_id":"c5534c98-3185-412b-bcce-b8ba1795764f","system_id":"levelo_inurba_marseille","lat":43.304271,"lon":5.388661,"is_reserved":false,"is_disabled":false,"rental_uris":{"android":"levelo://app?vid=c5534c98-3185-412b-bcce-b8ba1795764f","ios":"levelo://app?vid=c5534c98-3185-412b-bcce-b8ba1795764f"},"vehicle_type_id":"4","last_reported":1747235456,"current_range_meters":19200,"station_id":"ce4bgk12rcd13ifvqbi0","pricing_plan_id":"cebpf4jnsgd1na2vs0mg"},{"bike_id":"b1dd76cc-d6ea-4c1a-b3b5-ff14b059f2c5","system_id":"levelo_inurba_marseille","lat":43.304669,"lon":5.379018,"is_reserved":false,"is_disabled":false,"rental_uris":{"android":"levelo://app?vid=b1dd76cc-d6ea-4c1a-b3b5-ff14b059f2c5","ios":"levelo://app?vid=b1dd76cc-d6ea-4c1a-b3b5-ff14b059f2c5"},"vehicle_type_id":"4","last_reported":1747235456,"current_range_meters":19200,"station_id":"ce4bgup2rcd13ifvqcn0","pricing_plan_id":"cebpf4jnsgd1na2vs0mg"},{"bike_id":"30e7cf2d-8475-4930-a4f7-81ebd15182e0","system_id":"levelo_inurba_marseille","lat":43.31165,"lon":5.3873,"is_reserved":false,"is_disabled":false,"rental_uris":{"android":"levelo://app?vid=30e7cf2d-8475-4930-a4f7-81ebd15182e0","ios":"levelo://app?vid=30e7cf2d-8475-4930-a4f7-81ebd15182e0"},"vehicle_type_id":"4","last_reported":1747235456,"current_range_meters":19200,"station_id":"ce4bgv12rcd13ifvqcp0","pricing_plan_id":"cebpf4jnsgd1na2vs0mg"},{"bike_id":"b47b2f85-38d5-4cdc-9163-b94e93483127","system_id":"levelo_inurba_marseille","lat":43.30653,"lon":5.40101,"is_reserved":false,"is_disabled":false,"rental_uris":{"android":"levelo://app?vid=b47b2f85-38d5-4cdc-9163-b94e93483127","ios":"levelo://app?vid=b47b2f85-38d5-4cdc-9163-b94e93483127"},"vehicle_type_id":"4","last_reported":1747235456,"current_range_meters":19200,"station_id":"ce4bh112rcd13ifvqda0","pricing_plan_id":"cebpf4jnsgd1na2vs0mg"},{"bike_id":"2327d0fb-2f37-464d-97d4-8dbd4a6cea60","system_id":"levelo_inurba_marseille","lat":43.27382,"lon":5.3626,"is_reserved":false,"is_disabled":false,"rental_uris":{"android":"levelo://app?vid=2327d0fb-2f37-464d-97d4-8dbd4a6cea60","ios":"levelo://app?vid=2327d0fb-2f37-464d-97d4-8dbd4a6cea60"},"vehicle_type_id":"4","last_reported":1747235456,"current_range_meters":19200,"station_id":"ce4bhbh2rcd13ifvqeo0","pricing_plan_id":"cebpf4jnsgd1na2vs0mg"},{"bike_id":"39f031ff-a246-4807-9c86-a028ac86d833","system_id":"levelo_inurba_marseille","lat":43.2738,"lon":5.3626,"is_reserved":false,"is_disabled":false,"rental_uris":{"android":"levelo://app?vid=39f031ff-a246-4807-9c86-a028ac86d833","ios":"levelo://app?vid=39f031ff-a246-4807-9c86-a028ac86d833"},"vehicle_type_id":"4","last_reported":1747235456,"current_range_meters":19200,"station_id":"ce4bhbh2rcd13ifvqeo0","pricing_plan_id":"cebpf4jnsgd1na2vs0mg"},{"bike_id":"010c008b-3660-4b16-b861-8f8703f7bdde","system_id":"levelo_inurba_marseille","lat":43.24807,"lon":5.37457,"is_reserved":false,"is_disabled":false,"rental_uris":{"android":"levelo://app?vid=010c008b-3660-4b16-b861-8f8703f7bdde","ios":"levelo://app?vid=010c008b-3660-4b16-b861-8f8703f7bdde"},"vehicle_type_id":"4","last_reported":1747235456,"current_range_meters":19200,"station_id":"ce4bhgh2rcd13ifvqfb0","pricing_plan_id":"cebpf4jnsgd1na2vs0mg"},{"bike_id":"c8a41c94-e2b0-4958-85c4-f8d81a837534","system_id":"levelo_inurba_marseille","lat":43.24548,"lon":5.39528,"is_reserved":false,"is_disabled":false,"rental_uris":{"android":"levelo://app?vid=c8a41c94-e2b0-4958-85c4-f8d81a837534","ios":"levelo://app?vid=c8a41c94-e2b0-4958-85c4-f8d81a837534"},"vehicle_type_id":"4","last_reported":1747235456,"current_range_meters":19200,"station_id":"ce4bhlp2rcd13ifvqgjg","pricing_plan_id":"cebpf4jnsgd1na2vs0mg"},{"bike_id":"e85948bd-cc69-4d18-8d59-57169be267b7","system_id":"levelo_inurba_marseille","lat":43.30613,"lon":5.3723,"is_reserved":false,"is_disabled":false,"rental_uris":{"android":"levelo://app?vid=e85948bd-cc69-4d18-8d59-57169be267b7","ios":"levelo://app?vid=e85948bd-cc69-4d18-8d59-57169be267b7"},"vehicle_type_id":"4","last_reported":1747235456,"current_range_meters":19600,"station_id":"ce4bgqh2rcd13ifvqc4g","pricing_plan_id":"cebpf4jnsgd1na2vs0mg"},{"bike_id":"b89ad976-592a-4968-82f7-b2772b91ccc5","system_id":"levelo_inurba_marseille","lat":43.29974,"lon":5.37177,"is_reserved":false,"is_disabled":false,"rental_uris":{"android":"levelo://app?vid=b89ad976-592a-4968-82f7-b2772b91ccc5","ios":"levelo://app?vid=b89ad976-592a-4968-82f7-b2772b91ccc5"},"vehicle_type_id":"4","last_reported":1747235456,"current_range_meters":19600,"station_id":"ce4bgr92rcd13ifvqc7g","pricing_plan_id":"cebpf4jnsgd1na2vs0mg"},{"bike_id":"6f106923-e4a6-4cd6-8b4b-3f6fa2925f7b","system_id":"levelo_inurba_marseille","lat":43.28995,"lon":5.35586,"is_reserved":false,"is_disabled":false,"rental_uris":{"android":"levelo://app?vid=6f106923-e4a6-4cd6-8b4b-3f6fa2925f7b","ios":"levelo://app?vid=6f106923-e4a6-4cd6-8b4b-3f6fa2925f7b"},"vehicle_type_id":"4","last_reported":1747235456,"current_range_meters":19600,"station_id":"ce4bhb92rcd13ifvqen0","pricing_plan_id":"cebpf4jnsgd1na2vs0mg"},{"bike_id":"c2ebd2f1-7e68-4ddb-a45b-03d6986839c7","system_id":"levelo_inurba_marseille","lat":43.27547,"lon":5.38424,"is_reserved":false,"is_disabled":false,"rental_uris":{"android":"levelo://app?vid=c2ebd2f1-7e68-4ddb-a45b-03d6986839c7","ios":"levelo://app?vid=c2ebd2f1-7e68-4ddb-a45b-03d6986839c7"},"vehicle_type_id":"4","last_reported":1747235456,"current_range_meters":19600,"station_id":"ce4bhh92rcd13ifvqfi0","pricing_plan_id":"cebpf4jnsgd1na2vs0mg"},{"bike_id":"6e7a5e9d-8c3c-4d3b-ae4c-50c809433d80","system_id":"levelo_inurba_marseille","lat":43.25825,"lon":5.39446,"is_reserved":false,"is_disabled":false,"rental_uris":{"android":"levelo://app?vid=6e7a5e9d-8c3c-4d3b-ae4c-50c809433d80","ios":"levelo://app?vid=6e7a5e9d-8c3c-4d3b-ae4c-50c809433d80"},"vehicle_type_id":"4","last_reported":1747235456,"current_range_meters":19600,"station_id":"ce4bhip2rcd13ifvqft0","pricing_plan_id":"cebpf4jnsgd1na2vs0mg"},{"bike_id":"3eb37e7a-5933-41c5-9616-00dff0b0d705","system_id":"levelo_inurba_marseille","lat":43.24183,"lon":5.39732,"is_reserved":false,"is_disabled":false,"rental_uris":{"android":"levelo://app?vid=3eb37e7a-5933-41c5-9616-00dff0b0d705","ios":"levelo://app?vid=3eb37e7a-5933-41c5-9616-00dff0b0d705"},"vehicle_type_id":"4","last_reported":1747235456,"current_range_meters":19600,"station_id":"ce4bhn12rcd13ifvqgpg","pricing_plan_id":"cebpf4jnsgd1na2vs0mg"},{"bike_id":"02026fdc-69a7-4d88-a4de-3bff7d40bbab","system_id":"levelo_inurba_marseille","lat":43.3176,"lon":5.3902,"is_reserved":false,"is_disabled":false,"rental_uris":{"android":"levelo://app?vid=02026fdc-69a7-4d88-a4de-3bff7d40bbab","ios":"levelo://app?vid=02026fdc-69a7-4d88-a4de-3bff7d40bbab"},"vehicle_type_id":"4","last_reported":1747235456,"current_range_meters":19600,"station_id":"ce4bhqp2rcd13ifvqhng","pricing_plan_id":"cebpf4jnsgd1na2vs0mg"},{"bike_id":"1ae0b734-22b3-4b50-80d3-c63698279b7b","system_id":"levelo_inurba_marseille","lat":43.30581,"lon":5.37067,"is_reserved":false,"is_disabled":false,"rental_uris":{"android":"levelo://app?vid=1ae0b734-22b3-4b50-80d3-c63698279b7b","ios":"levelo://app?vid=1ae0b734-22b3-4b50-80d3-c63698279b7b"},"vehicle_type_id":"4","last_reported":1747235456,"current_range_meters":20000,"station_id":"","pricing_plan_id":"cebpf4jnsgd1na2vs0mg"},{"bike_id":"ce0253f1-679b-4218-a390-284a48a71520","system_id":"levelo_inurba_marseille","lat":43.31223,"lon":5.36865,"is_reserved":false,"is_disabled":false,"rental_uris":{"android":"levelo://app?vid=ce0253f1-679b-4218-a390-284a48a71520","ios":"levelo://app?vid=ce0253f1-679b-4218-a390-284a48a71520"},"vehicle_type_id":"4","last_reported":1747235456,"current_range_meters":20000,"station_id":"ce4bgl92rcd13ifvqbq0","pricing_plan_id":"cebpf4jnsgd1na2vs0mg"},{"bike_id":"4b07f347-be46-49a5-bbf7-64b4546e78f1","system_id":"levelo_inurba_marseille","lat":43.299446,"lon":5.371871,"is_reserved":false,"is_disabled":false,"rental_uris":{"android":"levelo://app?vid=4b07f347-be46-49a5-bbf7-64b4546e78f1","ios":"levelo://app?vid=4b07f347-be46-49a5-bbf7-64b4546e78f1"},"vehicle_type_id":"4","last_reported":1747235456,"current_range_meters":20000,"station_id":"ce4bgr92rcd13ifvqc7g","pricing_plan_id":"cebpf4jnsgd1na2vs0mg"},{"bike_id":"4486d209-d89c-40c3-8d06-4875670f74f7","system_id":"levelo_inurba_marseille","lat":43.28912,"lon":5.35868,"is_reserved":false,"is_disabled":false,"rental_uris":{"android":"levelo://app?vid=4486d209-d89c-40c3-8d06-4875670f74f7","ios":"levelo://app?vid=4486d209-d89c-40c3-8d06-4875670f74f7"},"vehicle_type_id":"4","last_reported":1747235456,"current_range_meters":20000,"station_id":"ce4bhb12rcd13ifvqem0","pricing_plan_id":"cebpf4jnsgd1na2vs0mg"},{"bike_id":"3510939f-7cd9-4aa4-b8cb-9520e70f17e7","system_id":"levelo_inurba_marseille","lat":43.28421,"lon":5.34982,"is_reserved":false,"is_disabled":false,"rental_uris":{"android":"levelo://app?vid=3510939f-7cd9-4aa4-b8cb-9520e70f17e7","ios":"levelo://app?vid=3510939f-7cd9-4aa4-b8cb-9520e70f17e7"},"vehicle_type_id":"4","last_reported":1747235456,"current_range_meters":20000,"station_id":"ce4bhbh2rcd13ifvqepg","pricing_plan_id":"cebpf4jnsgd1na2vs0mg"},{"bike_id":"9a3073dc-5a2e-4077-a920-6fe6567152fc","system_id":"levelo_inurba_marseille","lat":43.25584,"lon":5.38241,"is_reserved":false,"is_disabled":false,"rental_uris":{"android":"levelo://app?vid=9a3073dc-5a2e-4077-a920-6fe6567152fc","ios":"levelo://app?vid=9a3073dc-5a2e-4077-a920-6fe6567152fc"},"vehicle_type_id":"4","last_reported":1747235456,"current_range_meters":20000,"station_id":"ce4bhih2rcd13ifvqfs0","pricing_plan_id":"cebpf4jnsgd1na2vs0mg"},{"bike_id":"905a9a8c-c8b6-40d0-906d-aea339362cbe","system_id":"levelo_inurba_marseille","lat":43.25097,"lon":5.39528,"is_reserved":false,"is_disabled":false,"rental_uris":{"android":"levelo://app?vid=905a9a8c-c8b6-40d0-906d-aea339362cbe","ios":"levelo://app?vid=905a9a8c-c8b6-40d0-906d-aea339362cbe"},"vehicle_type_id":"4","last_reported":1747235456,"current_range_meters":20000,"station_id":"ce4bhm12rcd13ifvqgkg","pricing_plan_id":"cebpf4jnsgd1na2vs0mg"},{"bike_id":"a97e7f2f-a4bd-43dc-a4a3-f47c4b150cbd","system_id":"levelo_inurba_marseille","lat":43.24171,"lon":5.39745,"is_reserved":false,"is_disabled":false,"rental_uris":{"android":"levelo://app?vid=a97e7f2f-a4bd-43dc-a4a3-f47c4b150cbd","ios":"levelo://app?vid=a97e7f2f-a4bd-43dc-a4a3-f47c4b150cbd"},"vehicle_type_id":"4","last_reported":1747235456,"current_range_meters":20000,"station_id":"ce4bhn12rcd13ifvqgpg","pricing_plan_id":"cebpf4jnsgd1na2vs0mg"},{"bike_id":"9a402898-f116-408b-8709-c62dd77d2b5d","system_id":"levelo_inurba_marseille","lat":43.29361,"lon":5.42836,"is_reserved":false,"is_disabled":false,"rental_uris":{"android":"levelo://app?vid=9a402898-f116-408b-8709-c62dd77d2b5d","ios":"levelo://app?vid=9a402898-f116-408b-8709-c62dd77d2b5d"},"vehicle_type_id":"4","last_reported":1747235456,"current_range_meters":20400,"station_id":"","pricing_plan_id":"cebpf4jnsgd1na2vs0mg"},{"bike_id":"f160fbc1-d661-47ff-997b-08679cc45a85","system_id":"levelo_inurba_marseille","lat":43.295643,"lon":5.375391,"is_reserved":false,"is_disabled":false,"rental_uris":{"android":"levelo://app?vid=f160fbc1-d661-47ff-997b-08679cc45a85","ios":"levelo://app?vid=f160fbc1-d661-47ff-997b-08679cc45a85"},"vehicle_type_id":"4","last_reported":1747235456,"current_range_meters":20400,"station_id":"ce4bgh92rcd13ifvqb50","pricing_plan_id":"cebpf4jnsgd1na2vs0mg"},{"bike_id":"d129f76a-e822-405f-af0f-101f99945574","system_id":"levelo_inurba_marseille","lat":43.315894,"lon":5.373633,"is_reserved":false,"is_disabled":false,"rental_uris":{"android":"levelo://app?vid=d129f76a-e822-405f-af0f-101f99945574","ios":"levelo://app?vid=d129f76a-e822-405f-af0f-101f99945574"},"vehicle_type_id":"4","last_reported":1747235456,"current_range_meters":20400,"station_id":"ce4bgt12rcd13ifvqcd0","pricing_plan_id":"cebpf4jnsgd1na2vs0mg"},{"bike_id":"7922656e-2239-47c0-af52-f0f323542cc6","system_id":"levelo_inurba_marseille","lat":43.24138,"lon":5.36478,"is_reserved":false,"is_disabled":false,"rental_uris":{"android":"levelo://app?vid=7922656e-2239-47c0-af52-f0f323542cc6","ios":"levelo://app?vid=7922656e-2239-47c0-af52-f0f323542cc6"},"vehicle_type_id":"4","last_reported":1747235456,"current_range_meters":20400,"station_id":"cpo36qri1sfpv3e86is0","pricing_plan_id":"cebpf4jnsgd1na2vs0mg"},{"bike_id":"109d9723-76e0-4255-be7b-ac39d3cd0307","system_id":"levelo_inurba_marseille","lat":43.21185,"lon":5.35077,"is_reserved":false,"is_disabled":false,"rental_uris":{"android":"levelo://app?vid=109d9723-76e0-4255-be7b-ac39d3cd0307","ios":"levelo://app?vid=109d9723-76e0-4255-be7b-ac39d3cd0307"},"vehicle_type_id":"4","last_reported":1747235456,"current_range_meters":20400,"station_id":"st_cvj6sg6p6f1abm77japg","pricing_plan_id":"cebpf4jnsgd1na2vs0mg"},{"bike_id":"a9d31fe0-2508-42cc-8e0b-6f6a14799b08","system_id":"levelo_inurba_marseille","lat":43.3014,"lon":5.37225,"is_reserved":false,"is_disabled":false,"rental_uris":{"android":"levelo://app?vid=a9d31fe0-2508-42cc-8e0b-6f6a14799b08","ios":"levelo://app?vid=a9d31fe0-2508-42cc-8e0b-6f6a14799b08"},"vehicle_type_id":"4","last_reported":1747235456,"current_range_meters":20800,"station_id":"","pricing_plan_id":"cebpf4jnsgd1na2vs0mg"},{"bike_id":"cad3993f-6f80-4fc2-85c1-360c8015f726","system_id":"levelo_inurba_marseille","lat":43.29713,"lon":5.37699,"is_reserved":false,"is_disabled":false,"rental_uris":{"android":"levelo://app?vid=cad3993f-6f80-4fc2-85c1-360c8015f726","ios":"levelo://app?vid=cad3993f-6f80-4fc2-85c1-360c8015f726"},"vehicle_type_id":"4","last_reported":1747235456,"current_range_meters":20800,"station_id":"ce4bgkh2rcd13ifvqbl0","pricing_plan_id":"cebpf4jnsgd1na2vs0mg"},{"bike_id":"c40f5c00-6fa5-4b83-820a-3c48cd83e8b0","system_id":"levelo_inurba_marseille","lat":43.30886,"lon":5.37185,"is_reserved":false,"is_disabled":false,"rental_uris":{"android":"levelo://app?vid=c40f5c00-6fa5-4b83-820a-3c48cd83e8b0","ios":"levelo://app?vid=c40f5c00-6fa5-4b83-820a-3c48cd83e8b0"},"vehicle_type_id":"4","last_reported":1747235456,"current_range_meters":20800,"station_id":"ce4bguh2rcd13ifvqckg","pricing_plan_id":"cebpf4jnsgd1na2vs0mg"},{"bike_id":"8a958f48-f786-4acb-82d0-de2e93358eaf","system_id":"levelo_inurba_marseille","lat":43.30207,"lon":5.39465,"is_reserved":false,"is_disabled":false,"rental_uris":{"android":"levelo://app?vid=8a958f48-f786-4acb-82d0-de2e93358eaf","ios":"levelo://app?vid=8a958f48-f786-4acb-82d0-de2e93358eaf"},"vehicle_type_id":"4","last_reported":1747235456,"current_range_meters":20800,"station_id":"ce4bh0p2rcd13ifvqd70","pricing_plan_id":"cebpf4jnsgd1na2vs0mg"},{"bike_id":"29da195a-23e3-480c-b01e-b147eecbc0a4","system_id":"levelo_inurba_marseille","lat":43.27374,"lon":5.36235,"is_reserved":false,"is_disabled":false,"rental_uris":{"android":"levelo://app?vid=29da195a-23e3-480c-b01e-b147eecbc0a4","ios":"levelo://app?vid=29da195a-23e3-480c-b01e-b147eecbc0a4"},"vehicle_type_id":"4","last_reported":1747235456,"current_range_meters":20800,"station_id":"ce4bhbh2rcd13ifvqeo0","pricing_plan_id":"cebpf4jnsgd1na2vs0mg"},{"bike_id":"7b10275e-c069-4713-89a7-4555daa74fb1","system_id":"levelo_inurba_marseille","lat":43.275623,"lon":5.38405,"is_reserved":false,"is_disabled":false,"rental_uris":{"android":"levelo://app?vid=7b10275e-c069-4713-89a7-4555daa74fb1","ios":"levelo://app?vid=7b10275e-c069-4713-89a7-4555daa74fb1"},"vehicle_type_id":"4","last_reported":1747235456,"current_range_meters":20800,"station_id":"ce4bhh92rcd13ifvqfi0","pricing_plan_id":"cebpf4jnsgd1na2vs0mg"},{"bike_id":"e27ea69a-29f2-4116-b7cf-28c4ffa945c9","system_id":"levelo_inurba_marseille","lat":43.21753,"lon":5.34598,"is_reserved":false,"is_disabled":false,"rental_uris":{"android":"levelo://app?vid=e27ea69a-29f2-4116-b7cf-28c4ffa945c9","ios":"levelo://app?vid=e27ea69a-29f2-4116-b7cf-28c4ffa945c9"},"vehicle_type_id":"4","last_reported":1747235456,"current_range_meters":20800,"station_id":"st_cvj6r9ubvosntc0bgbag","pricing_plan_id":"cebpf4jnsgd1na2vs0mg"},{"bike_id":"a80fea69-d6fe-47e0-a796-c043f0ebe2ba","system_id":"levelo_inurba_marseille","lat":43.29675,"lon":5.37286,"is_reserved":false,"is_disabled":false,"rental_uris":{"android":"levelo://app?vid=a80fea69-d6fe-47e0-a796-c043f0ebe2ba","ios":"levelo://app?vid=a80fea69-d6fe-47e0-a796-c043f0ebe2ba"},"vehicle_type_id":"4","last_reported":1747235456,"current_range_meters":21600,"station_id":"ce4bgk12rcd13ifvqbj0","pricing_plan_id":"cebpf4jnsgd1na2vs0mg"},{"bike_id":"56b167ca-3de7-48eb-a8ce-59f21d3222ca","system_id":"levelo_inurba_marseille","lat":43.30311,"lon":5.39219,"is_reserved":false,"is_disabled":false,"rental_uris":{"android":"levelo://app?vid=56b167ca-3de7-48eb-a8ce-59f21d3222ca","ios":"levelo://app?vid=56b167ca-3de7-48eb-a8ce-59f21d3222ca"},"vehicle_type_id":"4","last_reported":1747235456,"current_range_meters":21600,"station_id":"ce4bgkh2rcd13ifvqbk0","pricing_plan_id":"cebpf4jnsgd1na2vs0mg"},{"bike_id":"7c9c1a31-3378-41ce-943c-39daca151539","system_id":"levelo_inurba_marseille","lat":43.30138,"lon":5.39872,"is_reserved":false,"is_disabled":false,"rental_uris":{"android":"levelo://app?vid=7c9c1a31-3378-41ce-943c-39daca151539","ios":"levelo://app?vid=7c9c1a31-3378-41ce-943c-39daca151539"},"vehicle_type_id":"4","last_reported":1747235456,"current_range_meters":21600,"station_id":"ce4bh0h2rcd13ifvqd40","pricing_plan_id":"cebpf4jnsgd1na2vs0mg"},{"bike_id":"d83b6d07-5425-46f1-92e7-2fb321e5d5b2","system_id":"levelo_inurba_marseille","lat":43.29267,"lon":5.38448,"is_reserved":false,"is_disabled":false,"rental_uris":{"android":"levelo://app?vid=d83b6d07-5425-46f1-92e7-2fb321e5d5b2","ios":"levelo://app?vid=d83b6d07-5425-46f1-92e7-2fb321e5d5b2"},"vehicle_type_id":"4","last_reported":1747235456,"current_range_meters":21600,"station_id":"ce4bh692rcd13ifvqea0","pricing_plan_id":"cebpf4jnsgd1na2vs0mg"},{"bike_id":"6bba6b06-f4a4-461c-a264-06b4db723daf","system_id":"levelo_inurba_marseille","lat":43.24191,"lon":5.39725,"is_reserved":false,"is_disabled":false,"rental_uris":{"android":"levelo://app?vid=6bba6b06-f4a4-461c-a264-06b4db723daf","ios":"levelo://app?vid=6bba6b06-f4a4-461c-a264-06b4db723daf"},"vehicle_type_id":"4","last_reported":1747235456,"current_range_meters":21600,"station_id":"ce4bhn12rcd13ifvqgpg","pricing_plan_id":"cebpf4jnsgd1na2vs0mg"},{"bike_id":"81731f7e-ff5e-43de-991d-7c1f47fee09f","system_id":"levelo_inurba_marseille","lat":43.32543,"lon":5.41426,"is_reserved":false,"is_disabled":false,"rental_uris":{"android":"levelo://app?vid=81731f7e-ff5e-43de-991d-7c1f47fee09f","ios":"levelo://app?vid=81731f7e-ff5e-43de-991d-7c1f47fee09f"},"vehicle_type_id":"4","last_reported":1747235456,"current_range_meters":21600,"station_id":"ce4bhq12rcd13ifvqhhg","pricing_plan_id":"cebpf4jnsgd1na2vs0mg"},{"bike_id":"817842b4-cb45-4c65-9684-9fb3ea028291","system_id":"levelo_inurba_marseille","lat":43.21752,"lon":5.34599,"is_reserved":false,"is_disabled":false,"rental_uris":{"android":"levelo://app?vid=817842b4-cb45-4c65-9684-9fb3ea028291","ios":"levelo://app?vid=817842b4-cb45-4c65-9684-9fb3ea028291"},"vehicle_type_id":"4","last_reported":1747235456,"current_range_meters":21600,"station_id":"st_cvj6r9ubvosntc0bgbag","pricing_plan_id":"cebpf4jnsgd1na2vs0mg"},{"bike_id":"39db93e9-8ad7-48ef-8da7-ad9259bed53f","system_id":"levelo_inurba_marseille","lat":43.21757,"lon":5.34594,"is_reserved":false,"is_disabled":false,"rental_uris":{"android":"levelo://app?vid=39db93e9-8ad7-48ef-8da7-ad9259bed53f","ios":"levelo://app?vid=39db93e9-8ad7-48ef-8da7-ad9259bed53f"},"vehicle_type_id":"4","last_reported":1747235456,"current_range_meters":21600,"station_id":"st_cvj6r9ubvosntc0bgbag","pricing_plan_id":"cebpf4jnsgd1na2vs0mg"},{"bike_id":"dff64e53-5202-49d6-b3e6-59738b5d9cb4","system_id":"levelo_inurba_marseille","lat":43.29789,"lon":5.37122,"is_reserved":false,"is_disabled":false,"rental_uris":{"android":"levelo://app?vid=dff64e53-5202-49d6-b3e6-59738b5d9cb4","ios":"levelo://app?vid=dff64e53-5202-49d6-b3e6-59738b5d9cb4"},"vehicle_type_id":"4","last_reported":1747235456,"current_range_meters":22000,"station_id":"ce4bgop2rcd13ifvqc1g","pricing_plan_id":"cebpf4jnsgd1na2vs0mg"},{"bike_id":"fc2b2f3c-0f49-451c-8343-b4b6b4dd9761","system_id":"levelo_inurba_marseille","lat":43.30565,"lon":5.36545,"is_reserved":false,"is_disabled":false,"rental_uris":{"android":"levelo://app?vid=fc2b2f3c-0f49-451c-8343-b4b6b4dd9761","ios":"levelo://app?vid=fc2b2f3c-0f49-451c-8343-b4b6b4dd9761"},"vehicle_type_id":"4","last_reported":1747235456,"current_range_meters":22000,"station_id":"ce4bgs12rcd13ifvqcag","pricing_plan_id":"cebpf4jnsgd1na2vs0mg"},{"bike_id":"a05a9126-7d8a-4071-bfae-43f345087cdb","system_id":"levelo_inurba_marseille","lat":43.29261,"lon":5.40906,"is_reserved":false,"is_disabled":false,"rental_uris":{"android":"levelo://app?vid=a05a9126-7d8a-4071-bfae-43f345087cdb","ios":"levelo://app?vid=a05a9126-7d8a-4071-bfae-43f345087cdb"},"vehicle_type_id":"4","last_reported":1747235456,"current_range_meters":22000,"station_id":"ce4bh192rcd13ifvqdc0","pricing_plan_id":"cebpf4jnsgd1na2vs0mg"},