{"last_updated":1700676545,"ttl":30,"version":"2.2","data":{"bikes":[{"bike_id":"eeef4dbc-7602-4f26-b2c1-c3771c9b5dae","system_id":"levelo_inurba_marseille","lat":43.31159,"lon":5.36883,"is_reserved":false,"is_disabled":false,"rental_uris":{"android":"levelo://app?vid=eeef4dbc-7602-4f26-b2c1-c3771c9b5dae","ios":"levelo://app?vid=eeef4dbc-7602-4f26-b2c1-c3771c9b5dae"},"vehicle_type_id":"4","last_reported":1700676545,"current_range_meters":0,"station_id":"","pricing_plan_id":"free"},{"bike_id":"7f877648-365c-47c7-af22-7ea7753f4d6c","system_id":"levelo_inurba_marseille","lat":43.309076,"lon":5.368465,"is_reserved":false,"is_disabled":false,"rental_uris":{"android":"levelo://app?vid=7f877648-365c-47c7-af22-7ea7753f4d6c","ios":"levelo://app?vid=7f877648-365c-47c7-af22-7ea7753f4d6c"},"vehicle_type_id":"4","last_reported":1700676545,"current_range_meters":17600,"station_id":"ce4bgn92rcd13ifvqbvg","pricing_plan_id":"free"},{"bike_id":"51d400da-668a-430f-9e1c-e056129f3580","system_id":"levelo_inurba_marseille","lat":43.309039,"lon":5.371797,"is_reserved":false,"is_disabled":false,"rental_uris":{"android":"levelo://app?vid=51d400da-668a-430f-9e1c-e056129f3580","ios":"levelo://app?vid=51d400da-668a-430f-9e1c-e056129f3580"},"vehicle_type_id":"4","last_reported":1700676545,"current_range_meters":14400,"station_id":"ce4bguh2rcd13ifvqckg","pricing_plan_id":"free"},{"bike_id":"2bc311dc-da0b-403e-8cae-84f8764bc67c","system_id":"levelo_inurba_marseille","lat":43.30679,"lon":5.3679,"is_reserved":false,"is_disabled":false,"rental_uris":{"android":"levelo://app?vid=2bc311dc-da0b-403e-8cae-84f8764bc67c","ios":"levelo://app?vid=2bc311dc-da0b-403e-8cae-84f8764bc67c"},"vehicle_type_id":"4","last_reported":1700676545,"current_range_meters":0,"station_id":"","pricing_plan_id":"free"},{"bike_id":"95583d67-b9fc-4ff1-93fd-5e2fbf3996b7","system_id":"levelo_inurba_marseille","lat":43.31961,"lon":5.3706,"is_reserved":false,"is_disabled":false,"rental_uris":{"android":"levelo://app?vid=95583d67-b9fc-4ff1-93fd-5e2fbf3996b7","ios":"levelo://app?vid=95583d67-b9fc-4ff1-93fd-5e2fbf3996b7"},"vehicle_type_id":"4","last_reported":1700676545,"current_range_meters":0,"station_id":"","pricing_plan_id":"free"},{"bike_id":"77350912-8ff1-4cba-b6b4-68fbd0427e4f","system_id":"levelo_inurba_marseille","lat":43.305989,"lon":5.37225,"is_reserved":false,"is_disabled":false,"rental_uris":{"android":"levelo://app?vid=77350912-8ff1-4cba-b6b4-68fbd0427e4f","ios":"levelo://app?vid=77350912-8ff1-4cba-b6b4-68fbd0427e4f"},"vehicle_type_id":"4","last_reported":1700676545,"current_range_meters":24000,"station_id":"ce4bgqh2rcd13ifvqc4g","pricing_plan_id":"free"},{"bike_id":"c56233b5-c76a-421b-8b89-6133271110d7","system_id":"levelo_inurba_marseille","lat":43.311131,"lon":5.377651,"is_reserved":false,"is_disabled":false,"rental_uris":{"android":"levelo://app?vid=c56233b5-c76a-421b-8b89-6133271110d7","ios":"levelo://app?vid=c56233b5-c76a-421b-8b89-6133271110d7"},"vehicle_type_id":"4","last_reported":1700676545,"current_range_meters":24800,"station_id":"ce4bgt92rcd13ifvqcg0","pricing_plan_id":"free"},{"bike_id":"4c1e0277-ce6e-4d4c-a4b0-c0645b9210da","system_id":"levelo_inurba_marseille","lat":43.311294,"lon":5.377858,"is_reserved":false,"is_disabled":false,"rental_uris":{"android":"levelo://app?vid=4c1e0277-ce6e-4d4c-a4b0-c0645b9210da","ios":"levelo://app?vid=4c1e0277-ce6e-4d4c-a4b0-c0645b9210da"},"vehicle_type_id":"4","last_reported":1700676545,"current_range_meters":0,"station_id":"ce4bgt92rcd13ifvqcg0","pricing_plan_id":"free"},{"bike_id":"e09d0bd4-96ac-44ba-96a7-8298f55b5927","system_id":"levelo_inurba_marseille","lat":43.31235,"lon":5.37862,"is_reserved":false,"is_disabled":false,"rental_uris":{"android":"levelo://app?vid=e09d0bd4-96ac-44ba-96a7-8298f55b5927","ios":"levelo://app?vid=e09d0bd4-96ac-44ba-96a7-8298f55b5927"},"vehicle_type_id":"4","last_reported":1700676545,"current_range_meters":4000,"station_id":"","pricing_plan_id":"free"},{"bike_id":"003de3f6-f360-4a55-9470-fdcc06fefde2","system_id":"levelo_inurba_marseille","lat":43.317075,"lon":5.377367,"is_reserved":false,"is_disabled":false,"rental_uris":{"android":"levelo://app?vid=003de3f6-f360-4a55-9470-fdcc06fefde2","ios":"levelo://app?vid=003de3f6-f360-4a55-9470-fdcc06fefde2"},"vehicle_type_id":"4","last_reported":1700676545,"current_range_meters":15600,"station_id":"ce4bgth2rcd13ifvqch0","pricing_plan_id":"free"},{"bike_id":"a01947ce-d3f1-4178-a24b-0cddef23cdbe","system_id":"levelo_inurba_marseille","lat":43.30323,"lon":5.36622,"is_reserved":false,"is_disabled":false,"rental_uris":{"android":"levelo://app?vid=a01947ce-d3f1-4178-a24b-0cddef23cdbe","ios":"levelo://app?vid=a01947ce-d3f1-4178-a24b-0cddef23cdbe"},"vehicle_type_id":"4","last_reported":1700676545,"current_range_meters":0,"station_id":"","pricing_plan_id":"free"},{"bike_id":"dc8eed7b-f83a-4f39-a50e-6b8f478a13d1","system_id":"levelo_inurba_marseille","lat":43.30304,"lon":5.368987,"is_reserved":false,"is_disabled":false,"rental_uris":{"android":"levelo://app?vid=dc8eed7b-f83a-4f39-a50e-6b8f478a13d1","ios":"levelo://app?vid=dc8eed7b-f83a-4f39-a50e-6b8f478a13d1"},"vehicle_type_id":"4","last_reported":1700676545,"current_range_meters":18000,"station_id":"ce4bgqh2rcd13ifvqc5g","pricing_plan_id":"free"},{"bike_id":"ce83841c-2854-4375-811a-3ef81e74540e","system_id":"levelo_inurba_marseille","lat":43.30304,"lon":5.368987,"is_reserved":false,"is_disabled":false,"rental_uris":{"android":"levelo://app?vid=ce83841c-2854-4375-811a-3ef81e74540e","ios":"levelo://app?vid=ce83841c-2854-4375-811a-3ef81e74540e"},"vehicle_type_id":"4","last_reported":1700676545,"current_range_meters":20800,"station_id":"ce4bgqh2rcd13ifvqc5g","pricing_plan_id":"free"},{"bike_id":"2df3a68b-7139-4a38-84fb-f187cdd080c3","system_id":"levelo_inurba_marseille","lat":43.30186,"lon":5.3662,"is_reserved":false,"is_disabled":false,"rental_uris":{"android":"levelo://app?vid=2df3a68b-7139-4a38-84fb-f187cdd080c3","ios":"levelo://app?vid=2df3a68b-7139-4a38-84fb-f187cdd080c3"},"vehicle_type_id":"4","last_reported":1700676545,"current_range_meters":0,"station_id":"ce4bgrh2rcd13ifvqc8g","pricing_plan_id":"free"},{"bike_id":"a8e4eae6-35be-465b-8dd6-c6d1fcf1565b","system_id":"levelo_inurba_marseille","lat":43.301939,"lon":5.366286,"is_reserved":false,"is_disabled":false,"rental_uris":{"android":"levelo://app?vid=a8e4eae6-35be-465b-8dd6-c6d1fcf1565b","ios":"levelo://app?vid=a8e4eae6-35be-465b-8dd6-c6d1fcf1565b"},"vehicle_type_id":"4","last_reported":1700676545,"current_range_meters":400,"station_id":"ce4bgrh2rcd13ifvqc8g","pricing_plan_id":"free"},{"bike_id":"0327687b-f51e-4077-bf49-2ec73a6de092","system_id":"levelo_inurba_marseille","lat":43.32235,"lon":5.3756,"is_reserved":false,"is_disabled":false,"rental_uris":{"android":"levelo://app?vid=0327687b-f51e-4077-bf49-2ec73a6de092","ios":"levelo://app?vid=0327687b-f51e-4077-bf49-2ec73a6de092"},"vehicle_type_id":"4","last_reported":1700676545,"current_range_meters":15200,"station_id":"","pricing_plan_id":"free"},{"bike_id":"5fd17d5f-5486-4c5d-b871-a293496ea281","system_id":"levelo_inurba_marseille","lat":43.304606,"lon":5.379026,"is_reserved":false,"is_disabled":false,"rental_uris":{"android":"levelo://app?vid=5fd17d5f-5486-4c5d-b871-a293496ea281","ios":"levelo://app?vid=5fd17d5f-5486-4c5d-b871-a293496ea281"},"vehicle_type_id":"4","last_reported":1700676545,"current_range_meters":800,"station_id":"ce4bgup2rcd13ifvqcn0","pricing_plan_id":"free"},{"bike_id":"133b29c0-8984-4c32-aedd-ae99c5a9d9b7","system_id":"levelo_inurba_marseille","lat":43.302784,"lon":5.377158,"is_reserved":false,"is_disabled":false,"rental_uris":{"android":"levelo://app?vid=133b29c0-8984-4c32-aedd-ae99c5a9d9b7","ios":"levelo://app?vid=133b29c0-8984-4c32-aedd-ae99c5a9d9b7"},"vehicle_type_id":"4","last_reported":1700676545,"current_range_meters":2800,"station_id":"ce4bguh2rcd13ifvqcj0","pricing_plan_id":"free"},{"bike_id":"2c0a4e1a-1237-4007-8257-22db1aa3aa3b","system_id":"levelo_inurba_marseille","lat":43.301429,"lon":5.37413,"is_reserved":false,"is_disabled":false,"rental_uris":{"android":"levelo://app?vid=2c0a4e1a-1237-4007-8257-22db1aa3aa3b","ios":"levelo://app?vid=2c0a4e1a-1237-4007-8257-22db1aa3aa3b"},"vehicle_type_id":"4","last_reported":1700676545,"current_range_meters":6400,"station_id":"ce4bgs92rcd13ifvqcc0","pricing_plan_id":"free"},{"bike_id":"e4e1514f-5a65-49f3-9196-d305427e1c27","system_id":"levelo_inurba_marseille","lat":43.31367,"lon":5.38488,"is_reserved":false,"is_disabled":false,"rental_uris":{"android":"levelo://app?vid=e4e1514f-5a65-49f3-9196-d305427e1c27","ios":"levelo://app?vid=e4e1514f-5a65-49f3-9196-d305427e1c27"},"vehicle_type_id":"4","last_reported":1700676545,"current_range_meters":0,"station_id":"ce4bgt92rcd13ifvqcf0","pricing_plan_id":"free"},{"bike_id":"c9a43a87-4d67-4fef-a7da-eab0efd6b916","system_id":"levelo_inurba_marseille","lat":43.32241,"lon":5.37914,"is_reserved":false,"is_disabled":false,"rental_uris":{"android":"levelo://app?vid=c9a43a87-4d67-4fef-a7da-eab0efd6b916","ios":"levelo://app?vid=c9a43a87-4d67-4fef-a7da-eab0efd6b916"},"vehicle_type_id":"4","last_reported":1700676545,"current_range_meters":4400,"station_id":"","pricing_plan_id":"free"},{"bike_id":"85334618-ca1f-4648-af0b-571ac99f02ad","system_id":"levelo_inurba_marseille","lat":43.311722,"lon":5.387247,"is_reserved":false,"is_disabled":false,"rental_uris":{"android":"levelo://app?vid=85334618-ca1f-4648-af0b-571ac99f02ad","ios":"levelo://app?vid=85334618-ca1f-4648-af0b-571ac99f02ad"},"vehicle_type_id":"4","last_reported":1700676545,"current_range_meters":6000,"station_id":"ce4bgv12rcd13ifvqcp0","pricing_plan_id":"free"},{"bike_id":"a23c7ac0-c4d1-4400-84d9-889a388cc2b0","system_id":"levelo_inurba_marseille","lat":43.322872,"lon":5.382756,"is_reserved":false,"is_disabled":false,"rental_uris":{"android":"levelo://app?vid=a23c7ac0-c4d1-4400-84d9-889a388cc2b0","ios":"levelo://app?vid=a23c7ac0-c4d1-4400-84d9-889a388cc2b0"},"vehicle_type_id":"4","last_reported":1700676545,"current_range_meters":20800,"station_id":"ce4bhr12rcd13ifvqhqg","pricing_plan_id":"free"},{"bike_id":"6721af4b-9b69-42e6-b350-f62968a3d0df","system_id":"levelo_inurba_marseille","lat":43.322872,"lon":5.382756,"is_reserved":false,"is_disabled":false,"rental_uris":{"android":"levelo://app?vid=6721af4b-9b69-42e6-b350-f62968a3d0df","ios":"levelo://app?vid=6721af4b-9b69-42e6-b350-f62968a3d0df"},"vehicle_type_id":"4","last_reported":1700676545,"current_range_meters":0,"station_id":"ce4bhr12rcd13ifvqhqg","pricing_plan_id":"free"},{"bike_id":"dae1bdda-7fb1-4e55-99ca-c47c67199878","system_id":"levelo_inurba_marseille","lat":43.322872,"lon":5.382756,"is_reserved":false,"is_disabled":false,"rental_uris":{"android":"levelo://app?vid=dae1bdda-7fb1-4e55-99ca-c47c67199878","ios":"levelo://app?vid=dae1bdda-7fb1-4e55-99ca-c47c67199878"},"vehicle_type_id":"4","last_reported":1700676545,"current_range_meters":7200,"station_id":"ce4bhr12rcd13ifvqhqg","pricing_plan_id":"free"},{"bike_id":"83ddb481-a269-484d-bb6c-2b6551d09a24","system_id":"levelo_inurba_marseille","lat":43.322872,"lon":5.382756,"is_reserved":false,"is_disabled":false,"rental_uris":{"android":"levelo://app?vid=83ddb481-a269-484d-bb6c-2b6551d09a24","ios":"levelo://app?vid=83ddb481-a269-484d-bb6c-2b6551d09a24"},"vehicle_type_id":"4","last_reported":1700676545,"current_range_meters":10800,"station_id":"ce4bhr12rcd13ifvqhqg","pricing_plan_id":"free"},{"bike_id":"7f3b0f74-ec8d-430c-9db3-dadf1a213a41","system_id":"levelo_inurba_marseille","lat":43.328371,"lon":5.366912,"is_reserved":false,"is_disabled":false,"rental_uris":{"android":"levelo://app?vid=7f3b0f74-ec8d-430c-9db3-dadf1a213a41","ios":"levelo://app?vid=7f3b0f74-ec8d-430c-9db3-dadf1a213a41"},"vehicle_type_id":"4","last_reported":1700676545,"current_range_meters":1600,"station_id":"ce4bhs92rcd13ifvqi0g","pricing_plan_id":"free"},{"bike_id":"de1d5a02-5626-4db5-9a08-0d5f2526401d","system_id":"levelo_inurba_marseille","lat":43.297163,"lon":5.365866,"is_reserved":false,"is_disabled":false,"rental_uris":{"android":"levelo://app?vid=de1d5a02-5626-4db5-9a08-0d5f2526401d","ios":"levelo://app?vid=de1d5a02-5626-4db5-9a08-0d5f2526401d"},"vehicle_type_id":"4","last_reported":1700676545,"current_range_meters":3200,"station_id":"ce4bgn12rcd13ifvqbt0","pricing_plan_id":"free"},{"bike_id":"4d7509f5-9559-42ca-a60d-bef9e80f0981","system_id":"levelo_inurba_marseille","lat":43.299592,"lon":5.379118,"is_reserved":false,"is_disabled":false,"rental_uris":{"android":"levelo://app?vid=4d7509f5-9559-42ca-a60d-bef9e80f0981","ios":"levelo://app?vid=4d7509f5-9559-42ca-a60d-bef9e80f0981"},"vehicle_type_id":"4","last_reported":1700676545,"current_range_meters":0,"station_id":"","pricing_plan_id":"free"},{"bike_id":"f2e29894-d678-42aa-87e5-1b70dec5c0b1","system_id":"levelo_inurba_marseille","lat":43.296028,"lon":5.361382,"is_reserved":false,"is_disabled":false,"rental_uris":{"android":"levelo://app?vid=f2e29894-d678-42aa-87e5-1b70dec5c0b1","ios":"levelo://app?vid=f2e29894-d678-42aa-87e5-1b70dec5c0b1"},"vehicle_type_id":"4","last_reported":1700676545,"current_range_meters":2000,"station_id":"","pricing_plan_id":"free"},{"bike_id":"cbe2f919-f1ff-4ce7-9b06-28e49273b272","system_id":"levelo_inurba_marseille","lat":43.297165,"lon":5.377008,"is_reserved":false,"is_disabled":false,"rental_uris":{"android":"levelo://app?vid=cbe2f919-f1ff-4ce7-9b06-28e49273b272","ios":"levelo://app?vid=cbe2f919-f1ff-4ce7-9b06-28e49273b272"},"vehicle_type_id":"4","last_reported":1700676545,"current_range_meters":22000,"station_id":"","pricing_plan_id":"free"},{"bike_id":"66f85502-2583-46be-ae7b-98cf19db37c3","system_id":"levelo_inurba_marseille","lat":43.309589,"lon":5.390258,"is_reserved":false,"is_disabled":false,"rental_uris":{"android":"levelo://app?vid=66f85502-2583-46be-ae7b-98cf19db37c3","ios":"levelo://app?vid=66f85502-2583-46be-ae7b-98cf19db37c3"},"vehicle_type_id":"4","last_reported":1700676545,"current_range_meters":21600,"station_id":"ce4bgup2rcd13ifvqco0","pricing_plan_id":"free"},{"bike_id":"9fb402a7-7a41-4473-81d2-1fec663a6035","system_id":"levelo_inurba_marseille","lat":43.305578,"lon":5.388717,"is_reserved":false,"is_disabled":false,"rental_uris":{"android":"levelo://app?vid=9fb402a7-7a41-4473-81d2-1fec663a6035","ios":"levelo://app?vid=9fb402a7-7a41-4473-81d2-1fec663a6035"},"vehicle_type_id":"4","last_reported":1700676545,"current_range_meters":24000,"station_id":"","pricing_plan_id":"free"},{"bike_id":"ceda2171-3d7a-441b-80be-556839646e1b","system_id":"levelo_inurba_marseille","lat":43.313425,"lon":5.39101,"is_reserved":false,"is_disabled":false,"rental_uris":{"android":"levelo://app?vid=ceda2171-3d7a-441b-80be-556839646e1b","ios":"levelo://app?vid=ceda2171-3d7a-441b-80be-556839646e1b"},"vehicle_type_id":"4","last_reported":1700676545,"current_range_meters":13600,"station_id":"ce4bgvp2rcd13ifvqcu0","pricing_plan_id":"free"},{"bike_id":"43d19bb5-c3bf-44be-a6ca-6a657b5271a7","system_id":"levelo_inurba_marseille","lat":43.298037,"lon":5.381066,"is_reserved":false,"is_disabled":false,"rental_uris":{"android":"levelo://app?vid=43d19bb5-c3bf-44be-a6ca-6a657b5271a7","ios":"levelo://app?vid=43d19bb5-c3bf-44be-a6ca-6a657b5271a7"},"vehicle_type_id":"4","last_reported":1700676545,"current_range_meters":2400,"station_id":"ce4bgip2rcd13ifvqbb0","pricing_plan_id":"free"},{"bike_id":"1a8d4be3-e262-4caf-ba98-8f1e8f43deff","system_id":"levelo_inurba_marseille","lat":43.30434,"lon":5.38893,"is_reserved":false,"is_disabled":false,"rental_uris":{"android":"levelo://app?vid=1a8d4be3-e262-4caf-ba98-8f1e8f43deff","ios":"levelo://app?vid=1a8d4be3-e262-4caf-ba98-8f1e8f43deff"},"vehicle_type_id":"4","last_reported":1700676545,"current_range_meters":5200,"station_id":"","pricing_plan_id":"free"},{"bike_id":"3059d4c1-3d42-4321-a339-0fea9a03ef82","system_id":"levelo_inurba_marseille","lat":43.328154,"lon":5.380034,"is_reserved":false,"is_disabled":false,"rental_uris":{"android":"levelo://app?vid=3059d4c1-3d42-4321-a339-0fea9a03ef82","ios":"levelo://app?vid=3059d4c1-3d42-4321-a339-0fea9a03ef82"},"vehicle_type_id":"4","last_reported":1700676545,"current_range_meters":0,"station_id":"","pricing_plan_id":"free"},{"bike_id":"59184520-29c5-45a0-aae6-d4b040268e0d","system_id":"levelo_inurba_marseille","lat":43.29608,"lon":5.37715,"is_reserved":false,"is_disabled":false,"rental_uris":{"android":"levelo://app?vid=59184520-29c5-45a0-aae6-d4b040268e0d","ios":"levelo://app?vid=59184520-29c5-45a0-aae6-d4b040268e0d"},"vehicle_type_id":"4","last_reported":1700676545,"current_range_meters":0,"station_id":"ce4bgi92rcd13ifvqb90","pricing_plan_id":"free"},{"bike_id":"f6225e42-082b-4f05-81cf-36f2e772f06d","system_id":"levelo_inurba_marseille","lat":43.299717,"lon":5.384845,"is_reserved":false,"is_disabled":false,"rental_uris":{"android":"levelo://app?vid=f6225e42-082b-4f05-81cf-36f2e772f06d","ios":"levelo://app?vid=f6225e42-082b-4f05-81cf-36f2e772f06d"},"vehicle_type_id":"4","last_reported":1700676545,"current_range_meters":16000,"station_id":"ce4bgj92rcd13ifvqbd0","pricing_plan_id":"free"},{"bike_id":"6b621983-5e9e-42f7-990d-ad5a093820d2","system_id":"levelo_inurba_marseille","lat":43.293801,"lon":5.363066,"is_reserved":false,"is_disabled":false,"rental_uris":{"android":"levelo://app?vid=6b621983-5e9e-42f7-990d-ad5a093820d2","ios":"levelo://app?vid=6b621983-5e9e-42f7-990d-ad5a093820d2"},"vehicle_type_id":"4","last_reported":1700676545,"current_range_meters":11200,"station_id":"","pricing_plan_id":"free"},{"bike_id":"d08f04bf-d1cb-49fb-9aa7-04e7f7676b3c","system_id":"levelo_inurba_marseille","lat":43.323405,"lon":5.389588,"is_reserved":false,"is_disabled":false,"rental_uris":{"android":"levelo://app?vid=d08f04bf-d1cb-49fb-9aa7-04e7f7676b3c","ios":"levelo://app?vid=d08f04bf-d1cb-49fb-9aa7-04e7f7676b3c"},"vehicle_type_id":"4","last_reported":1700676545,"current_range_meters":0,"station_id":"","pricing_plan_id":"free"},{"bike_id":"3dcf3825-aff0-4bc7-86e3-8fa83d7c8bf4","system_id":"levelo_inurba_marseille","lat":43.29601,"lon":5.381084,"is_reserved":false,"is_disabled":false,"rental_uris":{"android":"levelo://app?vid=3dcf3825-aff0-4bc7-86e3-8fa83d7c8bf4","ios":"levelo://app?vid=3dcf3825-aff0-4bc7-86e3-8fa83d7c8bf4"},"vehicle_type_id":"4","last_reported":1700676545,"current_range_meters":0,"station_id":"ce4bgl12rcd13ifvqbo0","pricing_plan_id":"free"},{"bike_id":"fb647bd6-c351-452d-9827-67da5dd6479b","system_id":"levelo_inurba_marseille","lat":43.293259,"lon":5.371586,"is_reserved":false,"is_disabled":false,"rental_uris":{"android":"levelo://app?vid=fb647bd6-c351-452d-9827-67da5dd6479b","ios":"levelo://app?vid=fb647bd6-c351-452d-9827-67da5dd6479b"},"vehicle_type_id":"4","last_reported":1700676545,"current_range_meters":12400,"station_id":"ce4bgh92rcd13ifvqb40","pricing_plan_id":"free"},{"bike_id":"b3b7be47-f513-4cf0-9dd8-dcd3a07cc831","system_id":"levelo_inurba_marseille","lat":43.292707,"lon":5.368386,"is_reserved":false,"is_disabled":false,"rental_uris":{"android":"levelo://app?vid=b3b7be47-f513-4cf0-9dd8-dcd3a07cc831","ios":"levelo://app?vid=b3b7be47-f513-4cf0-9dd8-dcd3a07cc831"},"vehicle_type_id":"4","last_reported":1700676545,"current_range_meters":0,"station_id":"ce4bhbp2rcd13ifvqesg","pricing_plan_id":"free"},{"bike_id":"9cfc21c3-c8de-4a45-8a04-fedcc6af3a99","system_id":"levelo_inurba_marseille","lat":43.293259,"lon":5.371586,"is_reserved":false,"is_disabled":false,"rental_uris":{"android":"levelo://app?vid=9cfc21c3-c8de-4a45-8a04-fedcc6af3a99","ios":"levelo://app?vid=9cfc21c3-c8de-4a45-8a04-fedcc6af3a99"},"vehicle_type_id":"4","last_reported":1700676545,"current_range_meters":4800,"station_id":"ce4bgh92rcd13ifvqb40","pricing_plan_id":"free"},{"bike_id":"f2ea264a-9685-4038-a4b8-8996d79c942e","system_id":"levelo_inurba_marseille","lat":43.293009,"lon":5.374584,"is_reserved":false,"is_disabled":false,"rental_uris":{"android":"levelo://app?vid=f2ea264a-9685-4038-a4b8-8996d79c942e","ios":"levelo://app?vid=f2ea264a-9685-4038-a4b8-8996d79c942e"},"vehicle_type_id":"4","last_reported":1700676545,"current_range_meters":18800,"station_id":"ce4bgi12rcd13ifvqb70","pricing_plan_id":"free"},{"bike_id":"89d3167a-7d86-4e15-9293-fde0eb0cff0e","system_id":"levelo_inurba_marseille","lat":43.30304,"lon":5.39209,"is_reserved":false,"is_disabled":false,"rental_uris":{"android":"levelo://app?vid=89d3167a-7d86-4e15-9293-fde0eb0cff0e","ios":"levelo://app?vid=89d3167a-7d86-4e15-9293-fde0eb0cff0e"},"vehicle_type_id":"4","last_reported":1700676545,"current_range_meters":0,"station_id":"ce4bgkh2rcd13ifvqbk0","pricing_plan_id":"free"},{"bike_id":"0fa3b6e3-732a-4abf-82c2-442deebf7d4a","system_id":"levelo_inurba_marseille","lat":43.30085,"lon":5.390856,"is_reserved":false,"is_disabled":false,"rental_uris":{"android":"levelo://app?vid=0fa3b6e3-732a-4abf-82c2-442deebf7d4a","ios":"levelo://app?vid=0fa3b6e3-732a-4abf-82c2-442deebf7d4a"},"vehicle_type_id":"4","last_reported":1700676545,"current_range_meters":2800,"station_id":"ce4bh192rcd13ifvqdb0","pricing_plan_id":"free"},{"bike_id":"56d1efc9-84c4-4701-9333-80bc1d719228","system_id":"levelo_inurba_marseille","lat":43.298764,"lon":5.388973,"is_reserved":false,"is_disabled":false,"rental_uris":{"android":"levelo://app?vid=56d1efc9-84c4-4701-9333-80bc1d719228","ios":"levelo://app?vid=56d1efc9-84c4-4701-9333-80bc1d719228"},"vehicle_type_id":"4","last_reported":1700676545,"current_range_meters":6400,"station_id":"ce4bh392rcd13ifvqdl0","pricing_plan_id":"free"},{"bike_id":"bf2de81b-8bce-487a-a292-e8870de505dc","system_id":"levelo_inurba_marseille","lat":43.291671,"lon":5.371575,"is_reserved":false,"is_disabled":false,"rental_uris":{"android":"levelo://app?vid=bf2de81b-8bce-487a-a292-e8870de505dc","ios":"levelo://app?vid=bf2de81b-8bce-487a-a292-e8870de505dc"},"vehicle_type_id":"4","last_reported":1700676545,"current_range_meters":13600,"station_id":"ce4bha92rcd13ifvqeh0","pricing_plan_id":"free"},{"bike_id":"0acc0ea9-239e-4de3-bbf5-6f906184d0f8","system_id":"levelo_inurba_marseille","lat":43.2925,"lon":5.37634,"is_reserved":false,"is_disabled":false,"rental_uris":{"android":"levelo://app?vid=0acc0ea9-239e-4de3-bbf5-6f906184d0f8","ios":"levelo://app?vid=0acc0ea9-239e-4de3-bbf5-6f906184d0f8"},"vehicle_type_id":"4","last_reported":1700676545,"current_range_meters":26400,"station_id":"","pricing_plan_id":"free"},{"bike_id":"38b77b65-c388-47bd-802f-4c431d400c3d","system_id":"levelo_inurba_marseille","lat":43.298764,"lon":5.388973,"is_reserved":false,"is_disabled":false,"rental_uris":{"android":"levelo://app?vid=38b77b65-c388-47bd-802f-4c431d400c3d","ios":"levelo://app?vid=38b77b65-c388-47bd-802f-4c431d400c3d"},"vehicle_type_id":"4","last_reported":1700676545,"current_range_meters":0,"station_id":"ce4bh392rcd13ifvqdl0","pricing_plan_id":"free"},{"bike_id":"95bdc769-31b8-4df0-93e6-3de54ebd8f23","system_id":"levelo_inurba_marseille","lat":43.29194,"lon":5.35807,"is_reserved":false,"is_disabled":false,"rental_uris":{"android":"levelo://app?vid=95bdc769-31b8-4df0-93e6-3de54ebd8f23","ios":"levelo://app?vid=95bdc769-31b8-4df0-93e6-3de54ebd8f23"},"vehicle_type_id":"4","last_reported":1700676545,"current_range_meters":0,"station_id":"ce4bhb12rcd13ifvqel0","pricing_plan_id":"free"},{"bike_id":"51a7f504-8310-4973-bad9-a538a932adb2","system_id":"levelo_inurba_marseille","lat":43.313291,"lon":5.396838,"is_reserved":false,"is_disabled":false,"rental_uris":{"android":"levelo://app?vid=51a7f504-8310-4973-bad9-a538a932adb2","ios":"levelo://app?vid=51a7f504-8310-4973-bad9-a538a932adb2"},"vehicle_type_id":"4","last_reported":1700676545,"current_range_meters":17200,"station_id":"ce4bgvp2rcd13ifvqcu0","pricing_plan_id":"free"},{"bike_id":"e12605b2-cdb5-490b-8634-eaae33de1f41","system_id":"levelo_inurba_marseille","lat":43.31328,"lon":5.39693,"is_reserved":false,"is_disabled":false,"rental_uris":{"android":"levelo://app?vid=e12605b2-cdb5-490b-8634-eaae33de1f41","ios":"levelo://app?vid=e12605b2-cdb5-490b-8634-eaae33de1f41"},"vehicle_type_id":"4","last_reported":1700676545,"current_range_meters":24800,"station_id":"ce4bgvp2rcd13ifvqcu0","pricing_plan_id":"free"},{"bike_id":"4d211f07-2e5e-40af-a4b2-e49cf4e1ad14","system_id":"levelo_inurba_marseille","lat":43.313291,"lon":5.396838,"is_reserved":false,"is_disabled":false,"rental_uris":{"android":"levelo://app?vid=4d211f07-2e5e-40af-a4b2-e49cf4e1ad14","ios":"levelo://app?vid=4d211f07-2e5e-40af-a4b2-e49cf4e1ad14"},"vehicle_type_id":"4","last_reported":1700676545,"current_range_meters":20000,"station_id":"ce4bgvp2rcd13ifvqcu0","pricing_plan_id":"free"},{"bike_id":"68216e3e-776b-4384-8d1c-e21abbc6e86a","system_id":"levelo_inurba_marseille","lat":43.31329,"lon":5.39695,"is_reserved":false,"is_disabled":false,"rental_uris":{"android":"levelo://app?vid=68216e3e-776b-4384-8d1c-e21abbc6e86a","ios":"levelo://app?vid=68216e3e-776b-4384-8d1c-e21abbc6e86a"},"vehicle_type_id":"4","last_reported":1700676545,"current_range_meters":0,"station_id":"ce4bgvp2rcd13ifvqcu0","pricing_plan_id":"free"},{"bike_id":"13f2ff10-f6c2-43ee-b957-49e495641f53","system_id":"levelo_inurba_marseille","lat":43.30889,"lon":5.39654,"is_reserved":false,"is_disabled":false,"rental_uris":{"android":"levelo://app?vid=13f2ff10-f6c2-43ee-b957-49e495641f53","ios":"levelo://app?vid=13f2ff10-f6c2-43ee-b957-49e495641f53"},"vehicle_type_id":"4","last_reported":1700676545,"current_range_meters":0,"station_id":"","pricing_plan_id":"free"},{"bike_id":"1d10a1b1-d55f-4279-928a-9c6858f32ca9","system_id":"levelo_inurba_marseille","lat":43.33211,"lon":5.38112,"is_reserved":false,"is_disabled":false,"rental_uris":{"android":"levelo://app?vid=1d10a1b1-d55f-4279-928a-9c6858f32ca9","ios":"levelo://app?vid=1d10a1b1-d55f-4279-928a-9c6858f32ca9"},"vehicle_type_id":"4","last_reported":1700676545,"current_range_meters":2800,"station_id":"","pricing_plan_id":"free"},{"bike_id":"884ccb19-0981-4be9-a4f8-e224f0e92ef0","system_id":"levelo_inurba_marseille","lat":43.309047,"lon":5.396551,"is_reserved":false,"is_disabled":false,"rental_uris":{"android":"levelo://app?vid=884ccb19-0981-4be9-a4f8-e224f0e92ef0","ios":"levelo://app?vid=884ccb19-0981-4be9-a4f8-e224f0e92ef0"},"vehicle_type_id":"4","last_reported":1700676545,"current_range_meters":1200,"station_id":"ce4bh012rcd13ifvqcv0","pricing_plan_id":"free"},{"bike_id":"6ce32e98-97eb-4a03-8b05-3a7ca8644c65","system_id":"levelo_inurba_marseille","lat":43.29533,"lon":5.38538,"is_reserved":false,"is_disabled":false,"rental_uris":{"android":"levelo://app?vid=6ce32e98-97eb-4a03-8b05-3a7ca8644c65","ios":"levelo://app?vid=6ce32e98-97eb-4a03-8b05-3a7ca8644c65"},"vehicle_type_id":"4","last_reported":1700676545,"current_range_meters":17600,"station_id":"ce4bgih2rcd13ifvqba0","pricing_plan_id":"free"},{"bike_id":"e43dd7f5-1d5c-4f28-bc26-6a8c09000212","system_id":"levelo_inurba_marseille","lat":43.29529,"lon":5.385581,"is_reserved":false,"is_disabled":false,"rental_uris":{"android":"levelo://app?vid=e43dd7f5-1d5c-4f28-bc26-6a8c09000212","ios":"levelo://app?vid=e43dd7f5-1d5c-4f28-bc26-6a8c09000212"},"vehicle_type_id":"4","last_reported":1700676545,"current_range_meters":4400,"station_id":"ce4bgih2rcd13ifvqba0","pricing_plan_id":"free"},{"bike_id":"6bdf30da-fcf2-4e7e-82fa-0c5b8984d308","system_id":"levelo_inurba_marseille","lat":43.29529,"lon":5.385581,"is_reserved":false,"is_disabled":false,"rental_uris":{"android":"levelo://app?vid=6bdf30da-fcf2-4e7e-82fa-0c5b8984d308","ios":"levelo://app?vid=6bdf30da-fcf2-4e7e-82fa-0c5b8984d308"},"vehicle_type_id":"4","last_reported":1700676545,"current_range_meters":26400,"station_id":"ce4bgih2rcd13ifvqba0","pricing_plan_id":"free"},{"bike_id":"8bc93741-92d3-417d-9747-bd7cb4edd9ca","system_id":"levelo_inurba_marseille","lat":43.29529,"lon":5.385581,"is_reserved":false,"is_disabled":false,"rental_uris":{"android":"levelo://app?vid=8bc93741-92d3-417d-9747-bd7cb4edd9ca","ios":"levelo://app?vid=8bc93741-92d3-417d-9747-bd7cb4edd9ca"},"vehicle_type_id":"4","last_reported":1700676545,"current_range_meters":0,"station_id":"ce4bgih2rcd13ifvqba0","pricing_plan_id":"free"},{"bike_id":"fea4caa8-ca8f-4f4e-ad15-f10b4437c5ea","system_id":"levelo_inurba_marseille","lat":43.29529,"lon":5.385581,"is_reserved":false,"is_disabled":false,"rental_uris":{"android":"levelo://app?vid=fea4caa8-ca8f-4f4e-ad15-f10b4437c5ea","ios":"levelo://app?vid=fea4caa8-ca8f-4f4e-ad15-f10b4437c5ea"},"vehicle_type_id":"4","last_reported":1700676545,"current_range_meters":400,"station_id":"ce4bgih2rcd13ifvqba0","pricing_plan_id":"free"},{"bike_id":"9f6642bd-7efc-4586-8b56-1e431fd0ec8a","system_id":"levelo_inurba_marseille","lat":43.290779,"lon":5.371482,"is_reserved":false,"is_disabled":false,"rental_uris":{"android":"levelo://app?vid=9f6642bd-7efc-4586-8b56-1e431fd0ec8a","ios":"levelo://app?vid=9f6642bd-7efc-4586-8b56-1e431fd0ec8a"},"vehicle_type_id":"4","last_reported":1700676545,"current_range_meters":26000,"station_id":"ce4bh5p2rcd13ifvqe4g","pricing_plan_id":"free"},{"bike_id":"ed5ac465-c520-4157-9ebd-4821b5e02fe0","system_id":"levelo_inurba_marseille","lat":43.302008,"lon":5.394694,"is_reserved":false,"is_disabled":false,"rental_uris":{"android":"levelo://app?vid=ed5ac465-c520-4157-9ebd-4821b5e02fe0","ios":"levelo://app?vid=ed5ac465-c520-4157-9ebd-4821b5e02fe0"},"vehicle_type_id":"4","last_reported":1700676545,"current_range_meters":12000,"station_id":"ce4bh0p2rcd13ifvqd70","pricing_plan_id":"free"},{"bike_id":"daf40a14-d483-4fb1-ba6c-217aca551583","system_id":"levelo_inurba_marseille","lat":43.302008,"lon":5.394694,"is_reserved":false,"is_disabled":false,"rental_uris":{"android":"levelo://app?vid=daf40a14-d483-4fb1-ba6c-217aca551583","ios":"levelo://app?vid=daf40a14-d483-4fb1-ba6c-217aca551583"},"vehicle_type_id":"4","last_reported":1700676545,"current_range_meters":2400,"station_id":"ce4bh0p2rcd13ifvqd70","pricing_plan_id":"free"},{"bike_id":"989424b9-fba9-4871-ad3f-37799da83b8d","system_id":"levelo_inurba_marseille","lat":43.302008,"lon":5.394694,"is_reserved":false,"is_disabled":false,"rental_uris":{"android":"levelo://app?vid=989424b9-fba9-4871-ad3f-37799da83b8d","ios":"levelo://app?vid=989424b9-fba9-4871-ad3f-37799da83b8d"},"vehicle_type_id":"4","last_reported":1700676545,"current_range_meters":15200,"station_id":"ce4bh0p2rcd13ifvqd70","pricing_plan_id":"free"},{"bike_id":"bf0406ea-e4e6-4c57-abeb-53e1c1936d3a","system_id":"levelo_inurba_marseille","lat":43.294153,"lon":5.386305,"is_reserved":false,"is_disabled":false,"rental_uris":{"android":"levelo://app?vid=bf0406ea-e4e6-4c57-abeb-53e1c1936d3a","ios":"levelo://app?vid=bf0406ea-e4e6-4c57-abeb-53e1c1936d3a"},"vehicle_type_id":"4","last_reported":1700676545,"current_range_meters":0,"station_id":"ce4bh2h2rcd13ifvqdh0","pricing_plan_id":"free"},{"bike_id":"2a8ff758-5fc0-432f-902d-573c10f627b9","system_id":"levelo_inurba_marseille","lat":43.294153,"lon":5.386305,"is_reserved":false,"is_disabled":false,"rental_uris":{"android":"levelo://app?vid=2a8ff758-5fc0-432f-902d-573c10f627b9","ios":"levelo://app?vid=2a8ff758-5fc0-432f-902d-573c10f627b9"},"vehicle_type_id":"4","last_reported":1700676545,"current_range_meters":0,"station_id":"ce4bh2h2rcd13ifvqdh0","pricing_plan_id":"free"},{"bike_id":"2c6ae690-a3a8-49e1-a555-6c70c6d95892","system_id":"levelo_inurba_marseille","lat":43.294153,"lon":5.386305,"is_reserved":false,"is_disabled":false,"rental_uris":{"android":"levelo://app?vid=2c6ae690-a3a8-49e1-a555-6c70c6d95892","ios":"levelo://app?vid=2c6ae690-a3a8-49e1-a555-6c70c6d95892"},"vehicle_type_id":"4","last_reported":1700676545,"current_range_meters":24800,"station_id":"ce4bh2h2rcd13ifvqdh0","pricing_plan_id":"free"},{"bike_id":"46bb14ee-3d4b-48b0-95d1-e72900b4d80d","system_id":"levelo_inurba_marseille","lat":43.294153,"lon":5.386305,"is_reserved":false,"is_disabled":false,"rental_uris":{"android":"levelo://app?vid=46bb14ee-3d4b-48b0-95d1-e72900b4d80d","ios":"levelo://app?vid=46bb14ee-3d4b-48b0-95d1-e72900b4d80d"},"vehicle_type_id":"4","last_reported":1700676545,"current_range_meters":1200,"station_id":"ce4bh2h2rcd13ifvqdh0","pricing_plan_id":"free"},{"bike_id":"524ef3c2-4e9b-452a-af27-abc31a2961f1","system_id":"levelo_inurba_marseille","lat":43.294153,"lon":5.386305,"is_reserved":false,"is_disabled":false,"rental_uris":{"android":"levelo://app?vid=524ef3c2-4e9b-452a-af27-abc31a2961f1","ios":"levelo://app?vid=524ef3c2-4e9b-452a-af27-abc31a2961f1"},"vehicle_type_id":"4","last_reported":1700676545,"current_range_meters":1200,"station_id":"ce4bh2h2rcd13ifvqdh0","pricing_plan_id":"free"},{"bike_id":"7214ab04-0c33-4cd8-85fc-f8728fc1e7cc","system_id":"levelo_inurba_marseille","lat":43.2894,"lon":5.36628,"is_reserved":false,"is_disabled":false,"rental_uris":{"android":"levelo://app?vid=7214ab04-0c33-4cd8-85fc-f8728fc1e7cc","ios":"levelo://app?vid=7214ab04-0c33-4cd8-85fc-f8728fc1e7cc"},"vehicle_type_id":"4","last_reported":1700676545,"current_range_meters":28400,"station_id":"ce4bhap2rcd13ifvqek0","pricing_plan_id":"free"},{"bike_id":"44086df1-8419-46e9-8252-add1bba268d9","system_id":"levelo_inurba_marseille","lat":43.289184,"lon":5.366408,"is_reserved":false,"is_disabled":false,"rental_uris":{"android":"levelo://app?vid=44086df1-8419-46e9-8252-add1bba268d9","ios":"levelo://app?vid=44086df1-8419-46e9-8252-add1bba268d9"},"vehicle_type_id":"4","last_reported":1700676545,"current_range_meters":0,"station_id":"ce4bhap2rcd13ifvqek0","pricing_plan_id":"free"},{"bike_id":"8e967bb7-1c5a-4433-b54c-87a2899c9e86","system_id":"levelo_inurba_marseille","lat":43.292644,"lon":5.384257,"is_reserved":false,"is_disabled":false,"rental_uris":{"android":"levelo://app?vid=8e967bb7-1c5a-4433-b54c-87a2899c9e86","ios":"levelo://app?vid=8e967bb7-1c5a-4433-b54c-87a2899c9e86"},"vehicle_type_id":"4","last_reported":1700676545,"current_range_meters":5200,"station_id":"ce4bh692rcd13ifvqea0","pricing_plan_id":"free"},{"bike_id":"2e2fbac9-f1a2-4b6c-a4f8-702a1531f2a7","system_id":"levelo_inurba_marseille","lat":43.292644,"lon":5.384257,"is_reserved":false,"is_disabled":false,"rental_uris":{"android":"levelo://app?vid=2e2fbac9-f1a2-4b6c-a4f8-702a1531f2a7","ios":"levelo://app?vid=2e2fbac9-f1a2-4b6c-a4f8-702a1531f2a7"},"vehicle_type_id":"4","last_reported":1700676545,"current_range_meters":0,"station_id":"ce4bh692rcd13ifvqea0","pricing_plan_id":"free"},{"bike_id":"4f612498-1be7-4e05-8054-591e64082b0a","system_id":"levelo_inurba_marseille","lat":43.29265,"lon":5.38446,"is_reserved":false,"is_disabled":false,"rental_uris":{"android":"levelo://app?vid=4f612498-1be7-4e05-8054-591e64082b0a","ios":"levelo://app?vid=4f612498-1be7-4e05-8054-591e64082b0a"},"vehicle_type_id":"4","last_reported":1700676545,"current_range_meters":0,"station_id":"ce4bh692rcd13ifvqea0","pricing_plan_id":"free"},{"bike_id":"b426b438-fe95-410b-a56d-46bd91834810","system_id":"levelo_inurba_marseille","lat":43.292644,"lon":5.384257,"is_reserved":false,"is_disabled":false,"rental_uris":{"android":"levelo://app?vid=b426b438-fe95-410b-a56d-46bd91834810","ios":"levelo://app?vid=b426b438-fe95-410b-a56d-46bd91834810"},"vehicle_type_id":"4","last_reported":1700676545,"current_range_meters":0,"station_id":"ce4bh692rcd13ifvqea0","pricing_plan_id":"free"},{"bike_id":"8b7a3e28-c178-4397-92fb-94933d51cf9c","system_id":"levelo_inurba_marseille","lat":43.290049,"lon":5.356269,"is_reserved":false,"is_disabled":false,"rental_uris":{"android":"levelo://app?vid=8b7a3e28-c178-4397-92fb-94933d51cf9c","ios":"levelo://app?vid=8b7a3e28-c178-4397-92fb-94933d51cf9c"},"vehicle_type_id":"4","last_reported":1700676545,"current_range_meters":18800,"station_id":"ce4bhb92rcd13ifvqen0","pricing_plan_id":"free"},{"bike_id":"c9b32912-5078-43bd-ab66-ea4f54bea2e0","system_id":"levelo_inurba_marseille","lat":43.330442,"lon":5.389148,"is_reserved":false,"is_disabled":false,"rental_uris":{"android":"levelo://app?vid=c9b32912-5078-43bd-ab66-ea4f54bea2e0","ios":"levelo://app?vid=c9b32912-5078-43bd-ab66-ea4f54bea2e0"},"vehicle_type_id":"4","last_reported":1700676545,"current_range_meters":2800,"station_id":"ce4bhr92rcd13ifvqhrg","pricing_plan_id":"free"},{"bike_id":"4c7d32b8-cfe6-400b-bf25-61684580d27e","system_id":"levelo_inurba_marseille","lat":43.33042,"lon":5.38924,"is_reserved":false,"is_disabled":false,"rental_uris":{"android":"levelo://app?vid=4c7d32b8-cfe6-400b-bf25-61684580d27e","ios":"levelo://app?vid=4c7d32b8-cfe6-400b-bf25-61684580d27e"},"vehicle_type_id":"4","last_reported":1700676545,"current_range_meters":3600,"station_id":"ce4bhr92rcd13ifvqhrg","pricing_plan_id":"free"},{"bike_id":"99bba90a-0e44-438c-a8c5-c3b07eb9d188","system_id":"levelo_inurba_marseille","lat":43.33046,"lon":5.38918,"is_reserved":false,"is_disabled":false,"rental_uris":{"android":"levelo://app?vid=99bba90a-0e44-438c-a8c5-c3b07eb9d188","ios":"levelo://app?vid=99bba90a-0e44-438c-a8c5-c3b07eb9d188"},"vehicle_type_id":"4","last_reported":1700676545,"current_range_meters":12400,"station_id":"ce4bhr92rcd13ifvqhrg","pricing_plan_id":"free"},{"bike_id":"35d39870-373f-4e29-b148-1b8766a0e122","system_id":"levelo_inurba_marseille","lat":43.295169,"lon":5.390426,"is_reserved":false,"is_disabled":false,"rental_uris":{"android":"levelo://app?vid=35d39870-373f-4e29-b148-1b8766a0e122","ios":"levelo://app?vid=35d39870-373f-4e29-b148-1b8766a0e122"},"vehicle_type_id":"4","last_reported":1700676545,"current_range_meters":0,"station_id":"ce4bh3p2rcd13ifvqdp0","pricing_plan_id":"free"},{"bike_id":"669bf03e-cce9-46a6-be56-19b1e8dc01d9","system_id":"levelo_inurba_marseille","lat":43.295169,"lon":5.390426,"is_reserved":false,"is_disabled":false,"rental_uris":{"android":"levelo://app?vid=669bf03e-cce9-46a6-be56-19b1e8dc01d9","ios":"levelo://app?vid=669bf03e-cce9-46a6-be56-19b1e8dc01d9"},"vehicle_type_id":"4","last_reported":1700676545,"current_range_meters":21600,"station_id":"ce4bh3p2rcd13ifvqdp0","pricing_plan_id":"free"},{"bike_id":"5137ebdf-a28d-4e47-b077-9390c209b7e1","system_id":"levelo_inurba_marseille","lat":43.28856,"lon":5.358371,"is_reserved":false,"is_disabled":false,"rental_uris":{"android":"levelo://app?vid=5137ebdf-a28d-4e47-b077-9390c209b7e1","ios":"levelo://app?vid=5137ebdf-a28d-4e47-b077-9390c209b7e1"},"vehicle_type_id":"4","last_reported":1700676545,"current_range_meters":4000,"station_id":"ce4bhb12rcd13ifvqem0","pricing_plan_id":"free"},{"bike_id":"aad9a792-6976-4183-919a-aef819ff2e25","system_id":"levelo_inurba_marseille","lat":43.31251,"lon":5.40162,"is_reserved":false,"is_disabled":false,"rental_uris":{"android":"levelo://app?vid=aad9a792-6976-4183-919a-aef819ff2e25","ios":"levelo://app?vid=aad9a792-6976-4183-919a-aef819ff2e25"},"vehicle_type_id":"4","last_reported":1700676545,"current_range_meters":0,"station_id":"","pricing_plan_id":"free"},{"bike_id":"43e74dbc-ba23-4abc-9c65-2ed303dc3f37","system_id":"levelo_inurba_marseille","lat":43.312609,"lon":5.401662,"is_reserved":false,"is_disabled":false,"rental_uris":{"android":"levelo://app?vid=43e74dbc-ba23-4abc-9c65-2ed303dc3f37","ios":"levelo://app?vid=43e74dbc-ba23-4abc-9c65-2ed303dc3f37"},"vehicle_type_id":"4","last_reported":1700676545,"current_range_meters":0,"station_id":"ce4bh092rcd13ifvqd30","pricing_plan_id":"free"},{"bike_id":"20044df1-fad4-4e20-a2ba-60b71c9f7167","system_id":"levelo_inurba_marseille","lat":43.33748,"lon":5.37448,"is_reserved":false,"is_disabled":false,"rental_uris":{"android":"levelo://app?vid=20044df1-fad4-4e20-a2ba-60b71c9f7167","ios":"levelo://app?vid=20044df1-fad4-4e20-a2ba-60b71c9f7167"},"vehicle_type_id":"4","last_reported":1700676545,"current_range_meters":27600,"station_id":"","pricing_plan_id":"free"},{"bike_id":"d7ab60fb-4107-4fa2-a4d2-fefdbdb06e34","system_id":"levelo_inurba_marseille","lat":43.30934,"lon":5.40149,"is_reserved":false,"is_disabled":false,"rental_uris":{"android":"levelo://app?vid=d7ab60fb-4107-4fa2-a4d2-fefdbdb06e34","ios":"levelo://app?vid=d7ab60fb-4107-4fa2-a4d2-fefdbdb06e34"},"vehicle_type_id":"4","last_reported":1700676545,"current_range_meters":0,"station_id":"ce4bgvp2rcd13ifvqct0","pricing_plan_id":"free"},{"bike_id":"950e4fde-8e87-4eb1-9956-1d0987779329","system_id":"levelo_inurba_marseille","lat":43.337546,"lon":5.3746,"is_reserved":false,"is_disabled":false,"rental_uris":{"android":"levelo://app?vid=950e4fde-8e87-4eb1-9956-1d0987779329","ios":"levelo://app?vid=950e4fde-8e87-4eb1-9956-1d0987779329"},"vehicle_type_id":"4","last_reported":1700676545,"current_range_meters":0,"station_id":"","pricing_plan_id":"free"},{"bike_id":"a5e23852-272e-4bf0-926f-90631096197d","system_id":"levelo_inurba_marseille","lat":43.33755,"lon":5.37461,"is_reserved":false,"is_disabled":false,"rental_uris":{"android":"levelo://app?vid=a5e23852-272e-4bf0-926f-90631096197d","ios":"levelo://app?vid=a5e23852-272e-4bf0-926f-90631096197d"},"vehicle_type_id":"4","last_reported":1700676545,"current_range_meters":21200,"station_id":"","pricing_plan_id":"free"},{"bike_id":"45c50b00-798d-4d73-a32e-8aa52fed9e79","system_id":"levelo_inurba_marseille","lat":43.337535,"lon":5.374844,"is_reserved":false,"is_disabled":false,"rental_uris":{"android":"levelo://app?vid=45c50b00-798d-4d73-a32e-8aa52fed9e79","ios":"levelo://app?vid=45c50b00-798d-4d73-a32e-8aa52fed9e79"},"vehicle_type_id":"4","last_reported":1700676545,"current_range_meters":29600,"station_id":"","pricing_plan_id":"free"},{"bike_id":"09be5a93-39fc-4416-b827-ef0e3eae0e7d","system_id":"levelo_inurba_marseille","lat":43.337642,"lon":5.374324,"is_reserved":false,"is_disabled":false,"rental_uris":{"android":"levelo://app?vid=09be5a93-39fc-4416-b827-ef0e3eae0e7d","ios":"levelo://app?vid=09be5a93-39fc-4416-b827-ef0e3eae0e7d"},"vehicle_type_id":"4","last_reported":1700676545,"current_range_meters":31200,"station_id":"","pricing_plan_id":"free"},{"bike_id":"5ca1769b-9d48-478e-b544-da316599e94d","system_id":"levelo_inurba_marseille","lat":43.337643,"lon":5.374376,"is_reserved":false,"is_disabled":false,"rental_uris":{"android":"levelo://app?vid=5ca1769b-9d48-478e-b544-da316599e94d","ios":"levelo://app?vid=5ca1769b-9d48-478e-b544-da316599e94d"},"vehicle_type_id":"4","last_reported":1700676545,"current_range_meters":22400,"station_id":"","pricing_plan_id":"free"},{"bike_id":"6b64ffb3-5882-4c04-ac6b-c6a9baa631c2","system_id":"levelo_inurba_marseille","lat":43.311722,"lon":5.387247,"is_reserved":false,"is_disabled":false,"rental_uris":{"android":"levelo://app?vid=6b64ffb3-5882-4c04-ac6b-c6a9baa631c2","ios":"levelo://app?vid=6b64ffb3-5882-4c04-ac6b-c6a9baa631c2"},"vehicle_type_id":"4","last_reported":1700676545,"current_range_meters":24800,"station_id":"ce4bgv12rcd13ifvqcp0","pricing_plan_id":"free"},{"bike_id":"cf5fec52-c431-455c-92ea-e279253d1c42","system_id":"levelo_inurba_marseille","lat":43.306412,"lon":5.401035,"is_reserved":false,"is_disabled":false,"rental_uris":{"android":"levelo://app?vid=cf5fec52-c431-455c-92ea-e279253d1c42","ios":"levelo://app?vid=cf5fec52-c431-455c-92ea-e279253d1c42"},"vehicle_type_id":"4","last_reported":1700676545,"current_range_meters":16800,"station_id":"ce4bh112rcd13ifvqda0","pricing_plan_id":"free"},{"bike_id":"565184c7-4d4a-43d0-ac93-202563faf996","system_id":"levelo_inurba_marseille","lat":43.337676,"lon":5.374369,"is_reserved":false,"is_disabled":false,"rental_uris":{"android":"levelo://app?vid=565184c7-4d4a-43d0-ac93-202563faf996","ios":"levelo://app?vid=565184c7-4d4a-43d0-ac93-202563faf996"},"vehicle_type_id":"4","last_reported":1700676545,"current_range_meters":30800,"station_id":"","pricing_plan_id":"free"},{"bike_id":"a64e2e92-e9f4-47f5-a45e-85e68b98a86a","system_id":"levelo_inurba_marseille","lat":43.337697,"lon":5.374267,"is_reserved":false,"is_disabled":false,"rental_uris":{"android":"levelo://app?vid=a64e2e92-e9f4-47f5-a45e-85e68b98a86a","ios":"levelo://app?vid=a64e2e92-e9f4-47f5-a45e-85e68b98a86a"},"vehicle_type_id":"4","last_reported":1700676545,"current_range_meters":28000,"station_id":"","pricing_plan_id":"free"},{"bike_id":"25ee5b3a-cc3c-4fea-97c8-44c14f3b26e9","system_id":"levelo_inurba_marseille","lat":43.33759,"lon":5.37493,"is_reserved":false,"is_disabled":false,"rental_uris":{"android":"levelo://app?vid=25ee5b3a-cc3c-4fea-97c8-44c14f3b26e9","ios":"levelo://app?vid=25ee5b3a-cc3c-4fea-97c8-44c14f3b26e9"},"vehicle_type_id":"4","last_reported":1700676545,"current_range_meters":24800,"station_id":"","pricing_plan_id":"free"},{"bike_id":"d42732ee-3d1a-47b1-9598-db3afd7b4663","system_id":"levelo_inurba_marseille","lat":43.3377,"lon":5.37429,"is_reserved":false,"is_disabled":false,"rental_uris":{"android":"levelo://app?vid=d42732ee-3d1a-47b1-9598-db3afd7b4663","ios":"levelo://app?vid=d42732ee-3d1a-47b1-9598-db3afd7b4663"},"vehicle_type_id":"4","last_reported":1700676545,"current_range_meters":26000,"station_id":"","pricing_plan_id":"free"},{"bike_id":"55305c92-9c13-4dde-ad57-ab451e6146f6","system_id":"levelo_inurba_marseille","lat":43.337687,"lon":5.374414,"is_reserved":false,"is_disabled":false,"rental_uris":{"android":"levelo://app?vid=55305c92-9c13-4dde-ad57-ab451e6146f6","ios":"levelo://app?vid=55305c92-9c13-4dde-ad57-ab451e6146f6"},"vehicle_type_id":"4","last_reported":1700676545,"current_range_meters":30400,"station_id":"","pricing_plan_id":"free"},{"bike_id":"86958b31-2db6-4ad8-bb7b-d755eba13bbb","system_id":"levelo_inurba_marseille","lat":43.3377,"lon":5.374385,"is_reserved":false,"is_disabled":false,"rental_uris":{"android":"levelo://app?vid=86958b31-2db6-4ad8-bb7b-d755eba13bbb","ios":"levelo://app?vid=86958b31-2db6-4ad8-bb7b-d755eba13bbb"},"vehicle_type_id":"4","last_reported":1700676545,"current_range_meters":14400,"station_id":"","pricing_plan_id":"free"},{"bike_id":"1dc31cca-5f71-4a9e-a8f1-d3d67550d989","system_id":"levelo_inurba_marseille","lat":43.337707,"lon":5.37435,"is_reserved":false,"is_disabled":false,"rental_uris":{"android":"levelo://app?vid=1dc31cca-5f71-4a9e-a8f1-d3d67550d989","ios":"levelo://app?vid=1dc31cca-5f71-4a9e-a8f1-d3d67550d989"},"vehicle_type_id":"4","last_reported":1700676545,"current_range_meters":21200,"station_id":"","pricing_plan_id":"free"},{"bike_id":"d0469251-bd13-41e5-8440-38f7192a7550","system_id":"levelo_inurba_marseille","lat":43.337703,"lon":5.37442,"is_reserved":false,"is_disabled":false,"rental_uris":{"android":"levelo://app?vid=d0469251-bd13-41e5-8440-38f7192a7550","ios":"levelo://app?vid=d0469251-bd13-41e5-8440-38f7192a7550"},"vehicle_type_id":"4","last_reported":1700676545,"current_range_meters":29200,"station_id":"","pricing_plan_id":"free"},{"bike_id":"ca5f450e-15ff-4f17-88ea-e68935cedb16","system_id":"levelo_inurba_marseille","lat":43.337727,"lon":5.374307,"is_reserved":false,"is_disabled":false,"rental_uris":{"android":"levelo://app?vid=ca5f450e-15ff-4f17-88ea-e68935cedb16","ios":"levelo://app?vid=ca5f450e-15ff-4f17-88ea-e68935cedb16"},"vehicle_type_id":"4","last_reported":1700676545,"current_range_meters":28800,"station_id":"","pricing_plan_id":"free"},{"bike_id":"98c22089-e58c-4aad-93ed-cedeb596bab1","system_id":"levelo_inurba_marseille","lat":43.30642,"lon":5.401031,"is_reserved":false,"is_disabled":false,"rental_uris":{"android":"levelo://app?vid=98c22089-e58c-4aad-93ed-cedeb596bab1","ios":"levelo://app?vid=98c22089-e58c-4aad-93ed-cedeb596bab1"},"vehicle_type_id":"4","last_reported":1700676545,"current_range_meters":7200,"station_id":"ce4bh112rcd13ifvqda0","pricing_plan_id":"free"},{"bike_id":"59f380e2-3fad-41ca-819a-159561a0ca80","system_id":"levelo_inurba_marseille","lat":43.33774,"lon":5.374397,"is_reserved":false,"is_disabled":false,"rental_uris":{"android":"levelo://app?vid=59f380e2-3fad-41ca-819a-159561a0ca80","ios":"levelo://app?vid=59f380e2-3fad-41ca-819a-159561a0ca80"},"vehicle_type_id":"4","last_reported":1700676545,"current_range_meters":17600,"station_id":"","pricing_plan_id":"free"},{"bike_id":"839a245a-7d50-49d7-ae97-18e2fc4a7cc7","system_id":"levelo_inurba_marseille","lat":43.301117,"lon":5.398795,"is_reserved":false,"is_disabled":false,"rental_uris":{"android":"levelo://app?vid=839a245a-7d50-49d7-ae97-18e2fc4a7cc7","ios":"levelo://app?vid=839a245a-7d50-49d7-ae97-18e2fc4a7cc7"},"vehicle_type_id":"4","last_reported":1700676545,"current_range_meters":10800,"station_id":"ce4bh0h2rcd13ifvqd40","pricing_plan_id":"free"},{"bike_id":"525f8e82-9fd5-4ad6-a764-8079bd9cbb79","system_id":"levelo_inurba_marseille","lat":43.33795,"lon":5.37432,"is_reserved":false,"is_disabled":false,"rental_uris":{"android":"levelo://app?vid=525f8e82-9fd5-4ad6-a764-8079bd9cbb79","ios":"levelo://app?vid=525f8e82-9fd5-4ad6-a764-8079bd9cbb79"},"vehicle_type_id":"4","last_reported":1700676545,"current_range_meters":28800,"station_id":"","pricing_plan_id":"free"},{"bike_id":"27951505-f3e8-451d-b70e-23dd4a98c0e6","system_id":"levelo_inurba_marseille","lat":43.28727,"lon":5.36078,"is_reserved":false,"is_disabled":false,"rental_uris":{"android":"levelo://app?vid=27951505-f3e8-451d-b70e-23dd4a98c0e6","ios":"levelo://app?vid=27951505-f3e8-451d-b70e-23dd4a98c0e6"},"vehicle_type_id":"4","last_reported":1700676545,"current_range_meters":1200,"station_id":"cki0cbj6b192h4jlfktg","pricing_plan_id":"free"},{"bike_id":"249234fe-28fa-454a-ada5-c7a269ecd31b","system_id":"levelo_inurba_marseille","lat":43.28727,"lon":5.36078,"is_reserved":false,"is_disabled":false,"rental_uris":{"android":"levelo://app?vid=249234fe-28fa-454a-ada5-c7a269ecd31b","ios":"levelo://app?vid=249234fe-28fa-454a-ada5-c7a269ecd31b"},"vehicle_type_id":"4","last_reported":1700676545,"current_range_meters":11600,"station_id":"cki0cbj6b192h4jlfktg","pricing_plan_id":"free"},{"bike_id":"b87784bd-7320-44ad-81d5-8b1b216eb8e7","system_id":"levelo_inurba_marseille","lat":43.287,"lon":5.37388,"is_reserved":false,"is_disabled":false,"rental_uris":{"android":"levelo://app?vid=b87784bd-7320-44ad-81d5-8b1b216eb8e7","ios":"levelo://app?vid=b87784bd-7320-44ad-81d5-8b1b216eb8e7"},"vehicle_type_id":"4","last_reported":1700676545,"current_range_meters":13600,"station_id":"ce4bh3p2rcd13ifvqdq0","pricing_plan_id":"free"},{"bike_id":"eab79ebf-1262-4ab4-946a-96f2a543773c","system_id":"levelo_inurba_marseille","lat":43.29519,"lon":5.39406,"is_reserved":false,"is_disabled":false,"rental_uris":{"android":"levelo://app?vid=eab79ebf-1262-4ab4-946a-96f2a543773c","ios":"levelo://app?vid=eab79ebf-1262-4ab4-946a-96f2a543773c"},"vehicle_type_id":"4","last_reported":1700676545,"current_range_meters":0,"station_id":"ce4bh292rcd13ifvqdf0","pricing_plan_id":"free"},{"bike_id":"731f0b96-495a-43f1-b5dc-e5f16e0ee080","system_id":"levelo_inurba_marseille","lat":43.302759,"lon":5.400793,"is_reserved":false,"is_disabled":false,"rental_uris":{"android":"levelo://app?vid=731f0b96-495a-43f1-b5dc-e5f16e0ee080","ios":"levelo://app?vid=731f0b96-495a-43f1-b5dc-e5f16e0ee080"},"vehicle_type_id":"4","last_reported":1700676545,"current_range_meters":15200,"station_id":"ce4bgvh2rcd13ifvqcs0","pricing_plan_id":"free"},{"bike_id":"2340f072-9c43-4ed0-9e5e-a1699171a2ab","system_id":"levelo_inurba_marseille","lat":43.302759,"lon":5.400793,"is_reserved":false,"is_disabled":false,"rental_uris":{"android":"levelo://app?vid=2340f072-9c43-4ed0-9e5e-a1699171a2ab","ios":"levelo://app?vid=2340f072-9c43-4ed0-9e5e-a1699171a2ab"},"vehicle_type_id":"4","last_reported":1700676545,"current_range_meters":0,"station_id":"ce4bgvh2rcd13ifvqcs0","pricing_plan_id":"free"},{"bike_id":"51831997-924b-408d-889a-5d816928eeea","system_id":"levelo_inurba_marseille","lat":43.289307,"lon":5.38406,"is_reserved":false,"is_disabled":false,"rental_uris":{"android":"levelo://app?vid=51831997-924b-408d-889a-5d816928eeea","ios":"levelo://app?vid=51831997-924b-408d-889a-5d816928eeea"},"vehicle_type_id":"4","last_reported":1700676545,"current_range_meters":6400,"station_id":"ce4bh612rcd13ifvqe6g","pricing_plan_id":"free"},{"bike_id":"ded4d183-1813-4d7a-a874-6f93de7f277e","system_id":"levelo_inurba_marseille","lat":43.29027,"lon":5.386555,"is_reserved":false,"is_disabled":false,"rental_uris":{"android":"levelo://app?vid=ded4d183-1813-4d7a-a874-6f93de7f277e","ios":"levelo://app?vid=ded4d183-1813-4d7a-a874-6f93de7f277e"},"vehicle_type_id":"4","last_reported":1700676545,"current_range_meters":10800,"station_id":"","pricing_plan_id":"free"},{"bike_id":"ee9dffe4-1a92-404b-8d9e-69ad8b0294c6","system_id":"levelo_inurba_marseille","lat":43.302759,"lon":5.400793,"is_reserved":false,"is_disabled":false,"rental_uris":{"android":"levelo://app?vid=ee9dffe4-1a92-404b-8d9e-69ad8b0294c6","ios":"levelo://app?vid=ee9dffe4-1a92-404b-8d9e-69ad8b0294c6"},"vehicle_type_id":"4","last_reported":1700676545,"current_range_meters":18000,"station_id":"ce4bgvh2rcd13ifvqcs0","pricing_plan_id":"free"},{"bike_id":"19d3dd33-a48f-42c5-9f69-5d36ef692f71","system_id":"levelo_inurba_marseille","lat":43.316517,"lon":5.404375,"is_reserved":false,"is_disabled":false,"rental_uris":{"android":"levelo://app?vid=19d3dd33-a48f-42c5-9f69-5d36ef692f71","ios":"levelo://app?vid=19d3dd33-a48f-42c5-9f69-5d36ef692f71"},"vehicle_type_id":"4","last_reported":1700676545,"current_range_meters":7200,"station_id":"ce4bh012rcd13ifvqd00","pricing_plan_id":"free"},{"bike_id":"8c4d2160-240a-47d3-928a-56e9092f08bd","system_id":"levelo_inurba_marseille","lat":43.288717,"lon":5.387821,"is_reserved":false,"is_disabled":false,"rental_uris":{"android":"levelo://app?vid=8c4d2160-240a-47d3-928a-56e9092f08bd","ios":"levelo://app?vid=8c4d2160-240a-47d3-928a-56e9092f08bd"},"vehicle_type_id":"4","last_reported":1700676545,"current_range_meters":0,"station_id":"","pricing_plan_id":"free"},{"bike_id":"adbd441f-44c4-4168-877a-9278b4bd7ceb","system_id":"levelo_inurba_marseille","lat":43.33104,"lon":5.39727,"is_reserved":false,"is_disabled":false,"rental_uris":{"android":"levelo://app?vid=adbd441f-44c4-4168-877a-9278b4bd7ceb","ios":"levelo://app?vid=adbd441f-44c4-4168-877a-9278b4bd7ceb"},"vehicle_type_id":"4","last_reported":1700676545,"current_range_meters":18400,"station_id":"","pricing_plan_id":"free"},{"bike_id":"d2604030-81b2-431c-ab42-4a9c0c2e1bb8","system_id":"levelo_inurba_marseille","lat":43.284534,"lon":5.358662,"is_reserved":false,"is_disabled":false,"rental_uris":{"android":"levelo://app?vid=d2604030-81b2-431c-ab42-4a9c0c2e1bb8","ios":"levelo://app?vid=d2604030-81b2-431c-ab42-4a9c0c2e1bb8"},"vehicle_type_id":"4","last_reported":1700676545,"current_range_meters":16800,"station_id":"ce4bhah2rcd13ifvqei0","pricing_plan_id":"free"},{"bike_id":"2de562fe-4db9-4744-9eb2-ca7400d0219d","system_id":"levelo_inurba_marseille","lat":43.284538,"lon":5.358657,"is_reserved":false,"is_disabled":false,"rental_uris":{"android":"levelo://app?vid=2de562fe-4db9-4744-9eb2-ca7400d0219d","ios":"levelo://app?vid=2de562fe-4db9-4744-9eb2-ca7400d0219d"},"vehicle_type_id":"4","last_reported":1700676545,"current_range_meters":11200,"station_id":"ce4bhah2rcd13ifvqei0","pricing_plan_id":"free"},{"bike_id":"1ed0edd0-8c29-4625-bedc-c41650955f5a","system_id":"levelo_inurba_marseille","lat":43.284935,"lon":5.378058,"is_reserved":false,"is_disabled":false,"rental_uris":{"android":"levelo://app?vid=1ed0edd0-8c29-4625-bedc-c41650955f5a","ios":"levelo://app?vid=1ed0edd0-8c29-4625-bedc-c41650955f5a"},"vehicle_type_id":"4","last_reported":1700676545,"current_range_meters":25200,"station_id":"","pricing_plan_id":"free"},{"bike_id":"415582a9-9866-49ba-8fec-9a58d3d51842","system_id":"levelo_inurba_marseille","lat":43.28616,"lon":5.35106,"is_reserved":false,"is_disabled":false,"rental_uris":{"android":"levelo://app?vid=415582a9-9866-49ba-8fec-9a58d3d51842","ios":"levelo://app?vid=415582a9-9866-49ba-8fec-9a58d3d51842"},"vehicle_type_id":"4","last_reported":1700676545,"current_range_meters":18800,"station_id":"ce4bhch2rcd13ifvqeug","pricing_plan_id":"free"},{"bike_id":"76688d86-909b-41a5-bfcb-c81260f06331","system_id":"levelo_inurba_marseille","lat":43.283998,"lon":5.375062,"is_reserved":false,"is_disabled":false,"rental_uris":{"android":"levelo://app?vid=76688d86-909b-41a5-bfcb-c81260f06331","ios":"levelo://app?vid=76688d86-909b-41a5-bfcb-c81260f06331"},"vehicle_type_id":"4","last_reported":1700676545,"current_range_meters":0,"station_id":"ce4bh412rcd13ifvqds0","pricing_plan_id":"free"},{"bike_id":"83c78afc-84dd-4b9a-b829-edff5c1ff808","system_id":"levelo_inurba_marseille","lat":43.295713,"lon":5.399639,"is_reserved":false,"is_disabled":false,"rental_uris":{"android":"levelo://app?vid=83c78afc-84dd-4b9a-b829-edff5c1ff808","ios":"levelo://app?vid=83c78afc-84dd-4b9a-b829-edff5c1ff808"},"vehicle_type_id":"4","last_reported":1700676545,"current_range_meters":10000,"station_id":"ce4bh312rcd13ifvqdj0","pricing_plan_id":"free"},{"bike_id":"30c5a8f0-2d73-444d-be65-776ebd8122a8","system_id":"levelo_inurba_marseille","lat":43.315654,"lon":5.407032,"is_reserved":false,"is_disabled":false,"rental_uris":{"android":"levelo://app?vid=30c5a8f0-2d73-444d-be65-776ebd8122a8","ios":"levelo://app?vid=30c5a8f0-2d73-444d-be65-776ebd8122a8"},"vehicle_type_id":"4","last_reported":1700676545,"current_range_meters":6000,"station_id":"","pricing_plan_id":"free"},{"bike_id":"c627d406-d150-47a8-ad1e-c5d3d0de2398","system_id":"levelo_inurba_marseille","lat":43.295713,"lon":5.399639,"is_reserved":false,"is_disabled":false,"rental_uris":{"android":"levelo://app?vid=c627d406-d150-47a8-ad1e-c5d3d0de2398","ios":"levelo://app?vid=c627d406-d150-47a8-ad1e-c5d3d0de2398"},"vehicle_type_id":"4","last_reported":1700676545,"current_range_meters":400,"station_id":"ce4bh312rcd13ifvqdj0","pricing_plan_id":"free"},{"bike_id":"6166d87c-f665-4504-852b-875a508e57c5","system_id":"levelo_inurba_marseille","lat":43.286595,"lon":5.386795,"is_reserved":false,"is_disabled":false,"rental_uris":{"android":"levelo://app?vid=6166d87c-f665-4504-852b-875a508e57c5","ios":"levelo://app?vid=6166d87c-f665-4504-852b-875a508e57c5"},"vehicle_type_id":"4","last_reported":1700676545,"current_range_meters":1600,"station_id":"ce4bh492rcd13ifvqdug","pricing_plan_id":"free"},{"bike_id":"e06c4700-0845-42d1-b2cf-9930d5218347","system_id":"levelo_inurba_marseille","lat":43.319179,"lon":5.407725,"is_reserved":false,"is_disabled":false,"rental_uris":{"android":"levelo://app?vid=e06c4700-0845-42d1-b2cf-9930d5218347","ios":"levelo://app?vid=e06c4700-0845-42d1-b2cf-9930d5218347"},"vehicle_type_id":"4","last_reported":1700676545,"current_range_meters":18800,"station_id":"ce4bhq12rcd13ifvqhig","pricing_plan_id":"free"},{"bike_id":"35e27979-8ed7-471b-972f-ff0e75a72a85","system_id":"levelo_inurba_marseille","lat":43.319179,"lon":5.407725,"is_reserved":false,"is_disabled":false,"rental_uris":{"android":"levelo://app?vid=35e27979-8ed7-471b-972f-ff0e75a72a85","ios":"levelo://app?vid=35e27979-8ed7-471b-972f-ff0e75a72a85"},"vehicle_type_id":"4","last_reported":1700676545,"current_range_meters":16800,"station_id":"ce4bhq12rcd13ifvqhig","pricing_plan_id":"free"},{"bike_id":"17bc1805-71cf-40cb-864b-fdf370f2073f","system_id":"levelo_inurba_marseille","lat":43.33717,"lon":5.391857,"is_reserved":false,"is_disabled":false,"rental_uris":{"android":"levelo://app?vid=17bc1805-71cf-40cb-864b-fdf370f2073f","ios":"levelo://app?vid=17bc1805-71cf-40cb-864b-fdf370f2073f"},"vehicle_type_id":"4","last_reported":1700676545,"current_range_meters":29600,"station_id":"ce4bhr92rcd13ifvqhsg","pricing_plan_id":"free"},{"bike_id":"9e3db835-b88b-4655-a3bf-029f71b57233","system_id":"levelo_inurba_marseille","lat":43.284793,"lon":5.384119,"is_reserved":false,"is_disabled":false,"rental_uris":{"android":"levelo://app?vid=9e3db835-b88b-4655-a3bf-029f71b57233","ios":"levelo://app?vid=9e3db835-b88b-4655-a3bf-029f71b57233"},"vehicle_type_id":"4","last_reported":1700676545,"current_range_meters":27200,"station_id":"ce4bh512rcd13ifvqe3g","pricing_plan_id":"free"},{"bike_id":"1d37ccbc-1a89-4cfb-b2a6-5df721b43d45","system_id":"levelo_inurba_marseille","lat":43.29795,"lon":5.404086,"is_reserved":false,"is_disabled":false,"rental_uris":{"android":"levelo://app?vid=1d37ccbc-1a89-4cfb-b2a6-5df721b43d45","ios":"levelo://app?vid=1d37ccbc-1a89-4cfb-b2a6-5df721b43d45"},"vehicle_type_id":"4","last_reported":1700676545,"current_range_meters":23200,"station_id":"ce4bh112rcd13ifvqd90","pricing_plan_id":"free"},{"bike_id":"640ae025-72cc-4685-b689-f16560527ea3","system_id":"levelo_inurba_marseille","lat":43.28349,"lon":5.38101,"is_reserved":false,"is_disabled":false,"rental_uris":{"android":"levelo://app?vid=640ae025-72cc-4685-b689-f16560527ea3","ios":"levelo://app?vid=640ae025-72cc-4685-b689-f16560527ea3"},"vehicle_type_id":"4","last_reported":1700676545,"current_range_meters":0,"station_id":"ce4bh412rcd13ifvqdr0","pricing_plan_id":"free"},{"bike_id":"e2284003-4e46-4e0a-93e7-73d05c3666d9","system_id":"levelo_inurba_marseille","lat":43.33495,"lon":5.398,"is_reserved":false,"is_disabled":false,"rental_uris":{"android":"levelo://app?vid=e2284003-4e46-4e0a-93e7-73d05c3666d9","ios":"levelo://app?vid=e2284003-4e46-4e0a-93e7-73d05c3666d9"},"vehicle_type_id":"4","last_reported":1700676545,"current_range_meters":26400,"station_id":"","pricing_plan_id":"free"},{"bike_id":"c84d09ba-094d-4347-beb3-a1f6ada150f4","system_id":"levelo_inurba_marseille","lat":43.292724,"lon":5.401131,"is_reserved":false,"is_disabled":false,"rental_uris":{"android":"levelo://app?vid=c84d09ba-094d-4347-beb3-a1f6ada150f4","ios":"levelo://app?vid=c84d09ba-094d-4347-beb3-a1f6ada150f4"},"vehicle_type_id":"4","last_reported":1700676545,"current_range_meters":0,"station_id":"ce4bh312rcd13ifvqdk0","pricing_plan_id":"free"},{"bike_id":"0eab1058-3dbf-491f-8655-154d82c30a9c","system_id":"levelo_inurba_marseille","lat":43.28264,"lon":5.35058,"is_reserved":false,"is_disabled":false,"rental_uris":{"android":"levelo://app?vid=0eab1058-3dbf-491f-8655-154d82c30a9c","ios":"levelo://app?vid=0eab1058-3dbf-491f-8655-154d82c30a9c"},"vehicle_type_id":"4","last_reported":1700676545,"current_range_meters":4000,"station_id":"","pricing_plan_id":"free"},{"bike_id":"ce800d2e-91fe-49b9-a22f-c0304979018a","system_id":"levelo_inurba_marseille","lat":43.2904,"lon":5.39966,"is_reserved":false,"is_disabled":false,"rental_uris":{"android":"levelo://app?vid=ce800d2e-91fe-49b9-a22f-c0304979018a","ios":"levelo://app?vid=ce800d2e-91fe-49b9-a22f-c0304979018a"},"vehicle_type_id":"4","last_reported":1700676545,"current_range_meters":14000,"station_id":"ce4bh392rcd13ifvqdm0","pricing_plan_id":"free"},{"bike_id":"8e0b0c3a-2d16-4ebe-8d32-934fe00a0c45","system_id":"levelo_inurba_marseille","lat":43.281044,"lon":5.378308,"is_reserved":false,"is_disabled":false,"rental_uris":{"android":"levelo://app?vid=8e0b0c3a-2d16-4ebe-8d32-934fe00a0c45","ios":"levelo://app?vid=8e0b0c3a-2d16-4ebe-8d32-934fe00a0c45"},"vehicle_type_id":"4","last_reported":1700676545,"current_range_meters":800,"station_id":"ce4bha12rcd13ifvqee0","pricing_plan_id":"free"},{"bike_id":"db7c3cc4-2f62-402f-8cd8-1c434b626476","system_id":"levelo_inurba_marseille","lat":43.28099,"lon":5.37835,"is_reserved":false,"is_disabled":false,"rental_uris":{"android":"levelo://app?vid=db7c3cc4-2f62-402f-8cd8-1c434b626476","ios":"levelo://app?vid=db7c3cc4-2f62-402f-8cd8-1c434b626476"},"vehicle_type_id":"4","last_reported":1700676545,"current_range_meters":0,"station_id":"ce4bha12rcd13ifvqee0","pricing_plan_id":"free"},{"bike_id":"591f6e32-718a-48d0-97cf-831d5b299e6a","system_id":"levelo_inurba_marseille","lat":43.28101,"lon":5.37848,"is_reserved":false,"is_disabled":false,"rental_uris":{"android":"levelo://app?vid=591f6e32-718a-48d0-97cf-831d5b299e6a","ios":"levelo://app?vid=591f6e32-718a-48d0-97cf-831d5b299e6a"},"vehicle_type_id":"4","last_reported":1700676545,"current_range_meters":0,"station_id":"ce4bha12rcd13ifvqee0","pricing_plan_id":"free"},{"bike_id":"e6d362b4-34b2-47ca-a0a0-cbb9a6b27d89","system_id":"levelo_inurba_marseille","lat":43.281044,"lon":5.378308,"is_reserved":false,"is_disabled":false,"rental_uris":{"android":"levelo://app?vid=e6d362b4-34b2-47ca-a0a0-cbb9a6b27d89","ios":"levelo://app?vid=e6d362b4-34b2-47ca-a0a0-cbb9a6b27d89"},"vehicle_type_id":"4","last_reported":1700676545,"current_range_meters":12000,"station_id":"ce4bha12rcd13ifvqee0","pricing_plan_id":"free"},{"bike_id":"3330f35e-5173-42eb-a90c-9c090a49a71d","system_id":"levelo_inurba_marseille","lat":43.28445,"lon":5.39204,"is_reserved":false,"is_disabled":false,"rental_uris":{"android":"levelo://app?vid=3330f35e-5173-42eb-a90c-9c090a49a71d","ios":"levelo://app?vid=3330f35e-5173-42eb-a90c-9c090a49a71d"},"vehicle_type_id":"4","last_reported":1700676545,"current_range_meters":25600,"station_id":"","pricing_plan_id":"free"},{"bike_id":"19004ad1-2f2b-435d-ac60-73bb12121f3c","system_id":"levelo_inurba_marseille","lat":43.284462,"lon":5.392121,"is_reserved":false,"is_disabled":false,"rental_uris":{"android":"levelo://app?vid=19004ad1-2f2b-435d-ac60-73bb12121f3c","ios":"levelo://app?vid=19004ad1-2f2b-435d-ac60-73bb12121f3c"},"vehicle_type_id":"4","last_reported":1700676545,"current_range_meters":14400,"station_id":"ce4bhoh2rcd13ifvqh5g","pricing_plan_id":"free"},{"bike_id":"6e2c2465-4e40-4aae-912b-ca1fbcdf1978","system_id":"levelo_inurba_marseille","lat":43.325212,"lon":5.41103,"is_reserved":false,"is_disabled":false,"rental_uris":{"android":"levelo://app?vid=6e2c2465-4e40-4aae-912b-ca1fbcdf1978","ios":"levelo://app?vid=6e2c2465-4e40-4aae-912b-ca1fbcdf1978"},"vehicle_type_id":"4","last_reported":1700676545,"current_range_meters":0,"station_id":"","pricing_plan_id":"free"},{"bike_id":"ae87adcf-328d-4bdd-aa24-80282c158c58","system_id":"levelo_inurba_marseille","lat":43.287154,"lon":5.399979,"is_reserved":false,"is_disabled":false,"rental_uris":{"android":"levelo://app?vid=ae87adcf-328d-4bdd-aa24-80282c158c58","ios":"levelo://app?vid=ae87adcf-328d-4bdd-aa24-80282c158c58"},"vehicle_type_id":"4","last_reported":1700676545,"current_range_meters":21600,"station_id":"ce4bho92rcd13ifvqh3g","pricing_plan_id":"free"},{"bike_id":"a99f3c80-051c-4e76-a096-a88100f9449a","system_id":"levelo_inurba_marseille","lat":43.287154,"lon":5.399979,"is_reserved":false,"is_disabled":false,"rental_uris":{"android":"levelo://app?vid=a99f3c80-051c-4e76-a096-a88100f9449a","ios":"levelo://app?vid=a99f3c80-051c-4e76-a096-a88100f9449a"},"vehicle_type_id":"4","last_reported":1700676545,"current_range_meters":2400,"station_id":"ce4bho92rcd13ifvqh3g","pricing_plan_id":"free"},{"bike_id":"232d3d42-a256-4d35-9d7e-9d706ce36ccf","system_id":"levelo_inurba_marseille","lat":43.299579,"lon":5.413255,"is_reserved":false,"is_disabled":false,"rental_uris":{"android":"levelo://app?vid=232d3d42-a256-4d35-9d7e-9d706ce36ccf","ios":"levelo://app?vid=232d3d42-a256-4d35-9d7e-9d706ce36ccf"},"vehicle_type_id":"4","last_reported":1700676545,"current_range_meters":27600,"station_id":"ce4bhp12rcd13ifvqh9g","pricing_plan_id":"free"},{"bike_id":"c27e8796-c3d3-4534-a76f-73c53b9539f5","system_id":"levelo_inurba_marseille","lat":43.27965,"lon":5.38717,"is_reserved":false,"is_disabled":false,"rental_uris":{"android":"levelo://app?vid=c27e8796-c3d3-4534-a76f-73c53b9539f5","ios":"levelo://app?vid=c27e8796-c3d3-4534-a76f-73c53b9539f5"},"vehicle_type_id":"4","last_reported":1700676545,"current_range_meters":0,"station_id":"ce4bhg12rcd13ifvqf80","pricing_plan_id":"free"},{"bike_id":"6555c6f5-c855-4e74-afae-c9b6a0ea6f2c","system_id":"levelo_inurba_marseille","lat":43.279627,"lon":5.38724,"is_reserved":false,"is_disabled":false,"rental_uris":{"android":"levelo://app?vid=6555c6f5-c855-4e74-afae-c9b6a0ea6f2c","ios":"levelo://app?vid=6555c6f5-c855-4e74-afae-c9b6a0ea6f2c"},"vehicle_type_id":"4","last_reported":1700676545,"current_range_meters":0,"station_id":"ce4bhg12rcd13ifvqf80","pricing_plan_id":"free"},{"bike_id":"0ad1fb59-7687-4e04-8847-26094579f253","system_id":"levelo_inurba_marseille","lat":43.279742,"lon":5.38744,"is_reserved":false,"is_disabled":false,"rental_uris":{"android":"levelo://app?vid=0ad1fb59-7687-4e04-8847-26094579f253","ios":"levelo://app?vid=0ad1fb59-7687-4e04-8847-26094579f253"},"vehicle_type_id":"4","last_reported":1700676545,"current_range_meters":12800,"station_id":"ce4bhg12rcd13ifvqf80","pricing_plan_id":"free"},{"bike_id":"cf7c6503-d761-4e4a-b826-f55f74848caf","system_id":"levelo_inurba_marseille","lat":43.34879,"lon":5.3751,"is_reserved":false,"is_disabled":false,"rental_uris":{"android":"levelo://app?vid=cf7c6503-d761-4e4a-b826-f55f74848caf","ios":"levelo://app?vid=cf7c6503-d761-4e4a-b826-f55f74848caf"},"vehicle_type_id":"4","last_reported":1700676545,"current_range_meters":4800,"station_id":"","pricing_plan_id":"free"},{"bike_id":"006cff8e-71f8-4b40-9b23-256bb65e79b2","system_id":"levelo_inurba_marseille","lat":43.292571,"lon":5.409107,"is_reserved":false,"is_disabled":false,"rental_uris":{"android":"levelo://app?vid=006cff8e-71f8-4b40-9b23-256bb65e79b2","ios":"levelo://app?vid=006cff8e-71f8-4b40-9b23-256bb65e79b2"},"vehicle_type_id":"4","last_reported":1700676545,"current_range_meters":17200,"station_id":"ce4bh192rcd13ifvqdc0","pricing_plan_id":"free"},{"bike_id":"707a9357-d820-4f04-abee-3f37a2c89415","system_id":"levelo_inurba_marseille","lat":43.29266,"lon":5.40917,"is_reserved":false,"is_disabled":false,"rental_uris":{"android":"levelo://app?vid=707a9357-d820-4f04-abee-3f37a2c89415","ios":"levelo://app?vid=707a9357-d820-4f04-abee-3f37a2c89415"},"vehicle_type_id":"4","last_reported":1700676545,"current_range_meters":7200,"station_id":"ce4bh192rcd13ifvqdc0","pricing_plan_id":"free"},{"bike_id":"1f1af817-21b5-4504-a85f-269498a1b05e","system_id":"levelo_inurba_marseille","lat":43.29256,"lon":5.4091,"is_reserved":false,"is_disabled":false,"rental_uris":{"android":"levelo://app?vid=1f1af817-21b5-4504-a85f-269498a1b05e","ios":"levelo://app?vid=1f1af817-21b5-4504-a85f-269498a1b05e"},"vehicle_type_id":"4","last_reported":1700676545,"current_range_meters":9600,"station_id":"ce4bh192rcd13ifvqdc0","pricing_plan_id":"free"},{"bike_id":"47f86c16-40e7-4b1f-b4e9-8e9ba5d52b48","system_id":"levelo_inurba_marseille","lat":43.27619,"lon":5.36105,"is_reserved":false,"is_disabled":false,"rental_uris":{"android":"levelo://app?vid=47f86c16-40e7-4b1f-b4e9-8e9ba5d52b48","ios":"levelo://app?vid=47f86c16-40e7-4b1f-b4e9-8e9ba5d52b48"},"vehicle_type_id":"4","last_reported":1700676545,"current_range_meters":0,"station_id":"ce4bgj92rcd13ifvqbe0","pricing_plan_id":"free"},{"bike_id":"99b7b3e2-fb47-4e03-b5b8-5bf5b8fd0d6c","system_id":"levelo_inurba_marseille","lat":43.29367,"lon":5.41261,"is_reserved":false,"is_disabled":false,"rental_uris":{"android":"levelo://app?vid=99b7b3e2-fb47-4e03-b5b8-5bf5b8fd0d6c","ios":"levelo://app?vid=99b7b3e2-fb47-4e03-b5b8-5bf5b8fd0d6c"},"vehicle_type_id":"4","last_reported":1700676545,"current_range_meters":0,"station_id":"","pricing_plan_id":"free"},{"bike_id":"2b5452c0-e2c9-4b71-a050-277746131afc","system_id":"levelo_inurba_marseille","lat":43.28092,"lon":5.39662,"is_reserved":false,"is_disabled":false,"rental_uris":{"android":"levelo://app?vid=2b5452c0-e2c9-4b71-a050-277746131afc","ios":"levelo://app?vid=2b5452c0-e2c9-4b71-a050-277746131afc"},"vehicle_type_id":"4","last_reported":1700676545,"current_range_meters":4000,"station_id":"ce4bho12rcd13ifvqh2g","pricing_plan_id":"free"},{"bike_id":"178db833-8ac2-4bcd-887b-29fbb0fcefbf","system_id":"levelo_inurba_marseille","lat":43.280784,"lon":5.396622,"is_reserved":false,"is_disabled":false,"rental_uris":{"android":"levelo://app?vid=178db833-8ac2-4bcd-887b-29fbb0fcefbf","ios":"levelo://app?vid=178db833-8ac2-4bcd-887b-29fbb0fcefbf"},"vehicle_type_id":"4","last_reported":1700676545,"current_range_meters":4400,"station_id":"ce4bho12rcd13ifvqh2g","pricing_plan_id":"free"},{"bike_id":"a18fdb5b-e208-4bb6-bcb4-76f22bac93fc","system_id":"levelo_inurba_marseille","lat":43.280784,"lon":5.396622,"is_reserved":false,"is_disabled":false,"rental_uris":{"android":"levelo://app?vid=a18fdb5b-e208-4bb6-bcb4-76f22bac93fc","ios":"levelo://app?vid=a18fdb5b-e208-4bb6-bcb4-76f22bac93fc"},"vehicle_type_id":"4","last_reported":1700676545,"current_range_meters":27600,"station_id":"ce4bho12rcd13ifvqh2g","pricing_plan_id":"free"},{"bike_id":"05ccb1b2-1ef6-479b-bd90-643a0164d87e","system_id":"levelo_inurba_marseille","lat":43.280784,"lon":5.396622,"is_reserved":false,"is_disabled":false,"rental_uris":{"android":"levelo://app?vid=05ccb1b2-1ef6-479b-bd90-643a0164d87e","ios":"levelo://app?vid=05ccb1b2-1ef6-479b-bd90-643a0164d87e"},"vehicle_type_id":"4","last_reported":1700676545,"current_range_meters":6400,"station_id":"ce4bho12rcd13ifvqh2g","pricing_plan_id":"free"},{"bike_id":"d6425aaf-0ce3-47df-9360-b38a300794d5","system_id":"levelo_inurba_marseille","lat":43.303837,"lon":5.418724,"is_reserved":false,"is_disabled":false,"rental_uris":{"android":"levelo://app?vid=d6425aaf-0ce3-47df-9360-b38a300794d5","ios":"levelo://app?vid=d6425aaf-0ce3-47df-9360-b38a300794d5"},"vehicle_type_id":"4","last_reported":1700676545,"current_range_meters":13200,"station_id":"ce4bhop2rcd13ifvqh7g","pricing_plan_id":"free"},{"bike_id":"a06346aa-4e6d-41a4-9dd0-74d13d1ecc2f","system_id":"levelo_inurba_marseille","lat":43.27841,"lon":5.39203,"is_reserved":false,"is_disabled":false,"rental_uris":{"android":"levelo://app?vid=a06346aa-4e6d-41a4-9dd0-74d13d1ecc2f","ios":"levelo://app?vid=a06346aa-4e6d-41a4-9dd0-74d13d1ecc2f"},"vehicle_type_id":"4","last_reported":1700676545,"current_range_meters":0,"station_id":"ce4bhjp2rcd13ifvqga0","pricing_plan_id":"free"},{"bike_id":"a2c999ac-06d6-4dd6-8a07-c1894a7f7cde","system_id":"levelo_inurba_marseille","lat":43.27843,"lon":5.39209,"is_reserved":false,"is_disabled":false,"rental_uris":{"android":"levelo://app?vid=a2c999ac-06d6-4dd6-8a07-c1894a7f7cde","ios":"levelo://app?vid=a2c999ac-06d6-4dd6-8a07-c1894a7f7cde"},"vehicle_type_id":"4","last_reported":1700676545,"current_range_meters":17600,"station_id":"ce4bhjp2rcd13ifvqga0","pricing_plan_id":"free"},{"bike_id":"c53273b3-7c87-46ec-8caf-e1784a65ad47","system_id":"levelo_inurba_marseille","lat":43.278401,"lon":5.392152,"is_reserved":false,"is_disabled":false,"rental_uris":{"android":"levelo://app?vid=c53273b3-7c87-46ec-8caf-e1784a65ad47","ios":"levelo://app?vid=c53273b3-7c87-46ec-8caf-e1784a65ad47"},"vehicle_type_id":"4","last_reported":1700676545,"current_range_meters":15600,"station_id":"ce4bhjp2rcd13ifvqga0","pricing_plan_id":"free"},{"bike_id":"9e1439d6-217c-4ded-a837-c8ce1454ba7f","system_id":"levelo_inurba_marseille","lat":43.278401,"lon":5.392152,"is_reserved":false,"is_disabled":false,"rental_uris":{"android":"levelo://app?vid=9e1439d6-217c-4ded-a837-c8ce1454ba7f","ios":"levelo://app?vid=9e1439d6-217c-4ded-a837-c8ce1454ba7f"},"vehicle_type_id":"4","last_reported":1700676545,"current_range_meters":4000,"station_id":"ce4bhjp2rcd13ifvqga0","pricing_plan_id":"free"},{"bike_id":"74404322-036c-4352-a0ea-15056baa8b1b","system_id":"levelo_inurba_marseille","lat":43.27837,"lon":5.39209,"is_reserved":false,"is_disabled":false,"rental_uris":{"android":"levelo://app?vid=74404322-036c-4352-a0ea-15056baa8b1b","ios":"levelo://app?vid=74404322-036c-4352-a0ea-15056baa8b1b"},"vehicle_type_id":"4","last_reported":1700676545,"current_range_meters":0,"station_id":"ce4bhjp2rcd13ifvqga0","pricing_plan_id":"free"},{"bike_id":"ef72fb2a-de07-4a2c-b9aa-dcba611cf655","system_id":"levelo_inurba_marseille","lat":43.27832,"lon":5.39201,"is_reserved":false,"is_disabled":false,"rental_uris":{"android":"levelo://app?vid=ef72fb2a-de07-4a2c-b9aa-dcba611cf655","ios":"levelo://app?vid=ef72fb2a-de07-4a2c-b9aa-dcba611cf655"},"vehicle_type_id":"4","last_reported":1700676545,"current_range_meters":0,"station_id":"ce4bhjp2rcd13ifvqga0","pricing_plan_id":"free"},{"bike_id":"609893ec-e93c-4dbb-9126-32fd29679dab","system_id":"levelo_inurba_marseille","lat":43.275625,"lon":5.384392,"is_reserved":false,"is_disabled":false,"rental_uris":{"android":"levelo://app?vid=609893ec-e93c-4dbb-9126-32fd29679dab","ios":"levelo://app?vid=609893ec-e93c-4dbb-9126-32fd29679dab"},"vehicle_type_id":"4","last_reported":1700676545,"current_range_meters":24000,"station_id":"ce4bhh92rcd13ifvqfi0","pricing_plan_id":"free"},{"bike_id":"44b0fa31-0056-401c-963d-cdf4dcbada0f","system_id":"levelo_inurba_marseille","lat":43.27373,"lon":5.36256,"is_reserved":false,"is_disabled":false,"rental_uris":{"android":"levelo://app?vid=44b0fa31-0056-401c-963d-cdf4dcbada0f","ios":"levelo://app?vid=44b0fa31-0056-401c-963d-cdf4dcbada0f"},"vehicle_type_id":"4","last_reported":1700676545,"current_range_meters":0,"station_id":"ce4bhbh2rcd13ifvqeo0","pricing_plan_id":"free"},{"bike_id":"10a32f5a-0486-40de-a1b9-45263a6b2b27","system_id":"levelo_inurba_marseille","lat":43.273609,"lon":5.362708,"is_reserved":false,"is_disabled":false,"rental_uris":{"android":"levelo://app?vid=10a32f5a-0486-40de-a1b9-45263a6b2b27","ios":"levelo://app?vid=10a32f5a-0486-40de-a1b9-45263a6b2b27"},"vehicle_type_id":"4","last_reported":1700676545,"current_range_meters":8400,"station_id":"ce4bhbh2rcd13ifvqeo0","pricing_plan_id":"free"},{"bike_id":"7aa0b987-2515-47e9-ab94-c9c1ebf36079","system_id":"levelo_inurba_marseille","lat":43.276771,"lon":5.388799,"is_reserved":false,"is_disabled":false,"rental_uris":{"android":"levelo://app?vid=7aa0b987-2515-47e9-ab94-c9c1ebf36079","ios":"levelo://app?vid=7aa0b987-2515-47e9-ab94-c9c1ebf36079"},"vehicle_type_id":"4","last_reported":1700676545,"current_range_meters":0,"station_id":"ce4bhi12rcd13ifvqfo0","pricing_plan_id":"free"},{"bike_id":"c57c57f0-1353-4673-b552-0d685067ee87","system_id":"levelo_inurba_marseille","lat":43.27999,"lon":5.4001,"is_reserved":false,"is_disabled":false,"rental_uris":{"android":"levelo://app?vid=c57c57f0-1353-4673-b552-0d685067ee87","ios":"levelo://app?vid=c57c57f0-1353-4673-b552-0d685067ee87"},"vehicle_type_id":"4","last_reported":1700676545,"current_range_meters":30000,"station_id":"ce4bho92rcd13ifvqh4g","pricing_plan_id":"free"},{"bike_id":"2996f450-c884-4ae7-9100-5bab1939f4ee","system_id":"levelo_inurba_marseille","lat":43.279952,"lon":5.400085,"is_reserved":false,"is_disabled":false,"rental_uris":{"android":"levelo://app?vid=2996f450-c884-4ae7-9100-5bab1939f4ee","ios":"levelo://app?vid=2996f450-c884-4ae7-9100-5bab1939f4ee"},"vehicle_type_id":"4","last_reported":1700676545,"current_range_meters":27200,"station_id":"ce4bho92rcd13ifvqh4g","pricing_plan_id":"free"},{"bike_id":"875ba61b-17f6-4355-81bc-ccde9a2ec57c","system_id":"levelo_inurba_marseille","lat":43.279952,"lon":5.400085,"is_reserved":false,"is_disabled":false,"rental_uris":{"android":"levelo://app?vid=875ba61b-17f6-4355-81bc-ccde9a2ec57c","ios":"levelo://app?vid=875ba61b-17f6-4355-81bc-ccde9a2ec57c"},"vehicle_type_id":"4","last_reported":1700676545,"current_range_meters":28000,"station_id":"ce4bho92rcd13ifvqh4g","pricing_plan_id":"free"},{"bike_id":"439e8232-d090-4f8f-b31b-930c102fbdd8","system_id":"levelo_inurba_marseille","lat":43.279952,"lon":5.400085,"is_reserved":false,"is_disabled":false,"rental_uris":{"android":"levelo://app?vid=439e8232-d090-4f8f-b31b-930c102fbdd8","ios":"levelo://app?vid=439e8232-d090-4f8f-b31b-930c102fbdd8"},"vehicle_type_id":"4","last_reported":1700676545,"current_range_meters":400,"station_id":"ce4bho92rcd13ifvqh4g","pricing_plan_id":"free"},{"bike_id":"792985c1-457d-4713-afea-1214f2f84b8c","system_id":"levelo_inurba_marseille","lat":43.317121,"lon":5.423936,"is_reserved":false,"is_disabled":false,"rental_uris":{"android":"levelo://app?vid=792985c1-457d-4713-afea-1214f2f84b8c","ios":"levelo://app?vid=792985c1-457d-4713-afea-1214f2f84b8c"},"vehicle_type_id":"4","last_reported":1700676545,"current_range_meters":21200,"station_id":"ce4bhp92rcd13ifvqhbg","pricing_plan_id":"free"},{"bike_id":"5f321a1b-d08c-4907-b690-043f1f6ff135","system_id":"levelo_inurba_marseille","lat":43.310785,"lon":5.424305,"is_reserved":false,"is_disabled":false,"rental_uris":{"android":"levelo://app?vid=5f321a1b-d08c-4907-b690-043f1f6ff135","ios":"levelo://app?vid=5f321a1b-d08c-4907-b690-043f1f6ff135"},"vehicle_type_id":"4","last_reported":1700676545,"current_range_meters":6400,"station_id":"ce4bhp92rcd13ifvqhag","pricing_plan_id":"free"},{"bike_id":"a1acea3a-7d0d-418e-82cc-4b95830007b5","system_id":"levelo_inurba_marseille","lat":43.273125,"lon":5.390731,"is_reserved":false,"is_disabled":false,"rental_uris":{"android":"levelo://app?vid=a1acea3a-7d0d-418e-82cc-4b95830007b5","ios":"levelo://app?vid=a1acea3a-7d0d-418e-82cc-4b95830007b5"},"vehicle_type_id":"4","last_reported":1700676545,"current_range_meters":12800,"station_id":"ce4bhgp2rcd13ifvqfe0","pricing_plan_id":"free"},{"bike_id":"70096792-b1aa-4ec1-a24a-fd322a102b58","system_id":"levelo_inurba_marseille","lat":43.30415,"lon":5.4254,"is_reserved":false,"is_disabled":false,"rental_uris":{"android":"levelo://app?vid=70096792-b1aa-4ec1-a24a-fd322a102b58","ios":"levelo://app?vid=70096792-b1aa-4ec1-a24a-fd322a102b58"},"vehicle_type_id":"4","last_reported":1700676545,"current_range_meters":28400,"station_id":"ce4bhoh2rcd13ifvqh6g","pricing_plan_id":"free"},{"bike_id":"6dcc6a4f-7a79-43c0-9dcf-3e61d2ae10e1","system_id":"levelo_inurba_marseille","lat":43.304134,"lon":5.42541,"is_reserved":false,"is_disabled":false,"rental_uris":{"android":"levelo://app?vid=6dcc6a4f-7a79-43c0-9dcf-3e61d2ae10e1","ios":"levelo://app?vid=6dcc6a4f-7a79-43c0-9dcf-3e61d2ae10e1"},"vehicle_type_id":"4","last_reported":1700676545,"current_range_meters":22000,"station_id":"ce4bhoh2rcd13ifvqh6g","pricing_plan_id":"free"},{"bike_id":"6c18535f-f0c2-4c9b-9cc1-c99122c0a824","system_id":"levelo_inurba_marseille","lat":43.304096,"lon":5.425385,"is_reserved":false,"is_disabled":false,"rental_uris":{"android":"levelo://app?vid=6c18535f-f0c2-4c9b-9cc1-c99122c0a824","ios":"levelo://app?vid=6c18535f-f0c2-4c9b-9cc1-c99122c0a824"},"vehicle_type_id":"4","last_reported":1700676545,"current_range_meters":0,"station_id":"ce4bhoh2rcd13ifvqh6g","pricing_plan_id":"free"},{"bike_id":"d0bb53f7-f1b8-4609-a668-27efdac67f66","system_id":"levelo_inurba_marseille","lat":43.27195,"lon":5.39248,"is_reserved":false,"is_disabled":false,"rental_uris":{"android":"levelo://app?vid=d0bb53f7-f1b8-4609-a668-27efdac67f66","ios":"levelo://app?vid=d0bb53f7-f1b8-4609-a668-27efdac67f66"},"vehicle_type_id":"4","last_reported":1700676545,"current_range_meters":0,"station_id":"","pricing_plan_id":"free"},{"bike_id":"6aae887c-ce73-443e-b98f-3433c1c2f2bd","system_id":"levelo_inurba_marseille","lat":43.27024,"lon":5.38803,"is_reserved":false,"is_disabled":false,"rental_uris":{"android":"levelo://app?vid=6aae887c-ce73-443e-b98f-3433c1c2f2bd","ios":"levelo://app?vid=6aae887c-ce73-443e-b98f-3433c1c2f2bd"},"vehicle_type_id":"4","last_reported":1700676545,"current_range_meters":0,"station_id":"","pricing_plan_id":"free"},{"bike_id":"e069526a-5383-4fc6-bdb3-9ee6376daeb9","system_id":"levelo_inurba_marseille","lat":43.27002,"lon":5.38771,"is_reserved":false,"is_disabled":false,"rental_uris":{"android":"levelo://app?vid=e069526a-5383-4fc6-bdb3-9ee6376daeb9","ios":"levelo://app?vid=e069526a-5383-4fc6-bdb3-9ee6376daeb9"},"vehicle_type_id":"4","last_reported":1700676545,"current_range_meters":0,"station_id":"","pricing_plan_id":"free"},{"bike_id":"28e8ce00-6b21-4e06-9930-c7c4408cc650","system_id":"levelo_inurba_marseille","lat":43.326174,"lon":5.430584,"is_reserved":false,"is_disabled":false,"rental_uris":{"android":"levelo://app?vid=28e8ce00-6b21-4e06-9930-c7c4408cc650","ios":"levelo://app?vid=28e8ce00-6b21-4e06-9930-c7c4408cc650"},"vehicle_type_id":"4","last_reported":1700676545,"current_range_meters":6000,"station_id":"","pricing_plan_id":"free"},{"bike_id":"2b5f0b27-ae58-4e9e-bd76-c585f78e8a73","system_id":"levelo_inurba_marseille","lat":43.26386,"lon":5.37454,"is_reserved":false,"is_disabled":false,"rental_uris":{"android":"levelo://app?vid=2b5f0b27-ae58-4e9e-bd76-c585f78e8a73","ios":"levelo://app?vid=2b5f0b27-ae58-4e9e-bd76-c585f78e8a73"},"vehicle_type_id":"4","last_reported":1700676545,"current_range_meters":21600,"station_id":"","pricing_plan_id":"free"},{"bike_id":"f7ab0159-e405-4776-b695-a35e301fafaa","system_id":"levelo_inurba_marseille","lat":43.308051,"lon":5.43527,"is_reserved":false,"is_disabled":false,"rental_uris":{"android":"levelo://app?vid=f7ab0159-e405-4776-b695-a35e301fafaa","ios":"levelo://app?vid=f7ab0159-e405-4776-b695-a35e301fafaa"},"vehicle_type_id":"4","last_reported":1700676545,"current_range_meters":28800,"station_id":"ce4bhph2rcd13ifvqheg","pricing_plan_id":"free"},{"bike_id":"6aedb149-d3d4-474b-9c4a-6ec6a06e9250","system_id":"levelo_inurba_marseille","lat":43.30806,"lon":5.4353,"is_reserved":false,"is_disabled":false,"rental_uris":{"android":"levelo://app?vid=6aedb149-d3d4-474b-9c4a-6ec6a06e9250","ios":"levelo://app?vid=6aedb149-d3d4-474b-9c4a-6ec6a06e9250"},"vehicle_type_id":"4","last_reported":1700676545,"current_range_meters":0,"station_id":"ce4bhph2rcd13ifvqheg","pricing_plan_id":"free"},{"bike_id":"1a387732-8f3d-4149-8d57-dda111a2a050","system_id":"levelo_inurba_marseille","lat":43.26563,"lon":5.39001,"is_reserved":false,"is_disabled":false,"rental_uris":{"android":"levelo://app?vid=1a387732-8f3d-4149-8d57-dda111a2a050","ios":"levelo://app?vid=1a387732-8f3d-4149-8d57-dda111a2a050"},"vehicle_type_id":"4","last_reported":1700676545,"current_range_meters":0,"station_id":"","pricing_plan_id":"free"},{"bike_id":"3fca3215-fd79-47b8-b5d5-5c2ca78eb244","system_id":"levelo_inurba_marseille","lat":43.317104,"lon":5.436818,"is_reserved":false,"is_disabled":false,"rental_uris":{"android":"levelo://app?vid=3fca3215-fd79-47b8-b5d5-5c2ca78eb244","ios":"levelo://app?vid=3fca3215-fd79-47b8-b5d5-5c2ca78eb244"},"vehicle_type_id":"4","last_reported":1700676545,"current_range_meters":10000,"station_id":"ce4bhp92rcd13ifvqhcg","pricing_plan_id":"free"},{"bike_id":"860103e4-b3a2-49bf-a852-14e4f54ff085","system_id":"levelo_inurba_marseille","lat":43.271368,"lon":5.40928,"is_reserved":false,"is_disabled":false,"rental_uris":{"android":"levelo://app?vid=860103e4-b3a2-49bf-a852-14e4f54ff085","ios":"levelo://app?vid=860103e4-b3a2-49bf-a852-14e4f54ff085"},"vehicle_type_id":"4","last_reported":1700676545,"current_range_meters":30000,"station_id":"ce4bhl12rcd13ifvqgf0","pricing_plan_id":"free"},{"bike_id":"2de1973d-e708-4f31-bf5b-b316a585cf96","system_id":"levelo_inurba_marseille","lat":43.271368,"lon":5.40928,"is_reserved":false,"is_disabled":false,"rental_uris":{"android":"levelo://app?vid=2de1973d-e708-4f31-bf5b-b316a585cf96","ios":"levelo://app?vid=2de1973d-e708-4f31-bf5b-b316a585cf96"},"vehicle_type_id":"4","last_reported":1700676545,"current_range_meters":14800,"station_id":"ce4bhl12rcd13ifvqgf0","pricing_plan_id":"free"},{"bike_id":"cb16d7ee-4d8d-44c4-bc7a-142b1234ab63","system_id":"levelo_inurba_marseille","lat":43.31725,"lon":5.43786,"is_reserved":false,"is_disabled":false,"rental_uris":{"android":"levelo://app?vid=cb16d7ee-4d8d-44c4-bc7a-142b1234ab63","ios":"levelo://app?vid=cb16d7ee-4d8d-44c4-bc7a-142b1234ab63"},"vehicle_type_id":"4","last_reported":1700676545,"current_range_meters":2400,"station_id":"","pricing_plan_id":"free"},{"bike_id":"aaebd74a-2ae3-4a49-b61f-91385f6ff64a","system_id":"levelo_inurba_marseille","lat":43.26417,"lon":5.39225,"is_reserved":false,"is_disabled":false,"rental_uris":{"android":"levelo://app?vid=aaebd74a-2ae3-4a49-b61f-91385f6ff64a","ios":"levelo://app?vid=aaebd74a-2ae3-4a49-b61f-91385f6ff64a"},"vehicle_type_id":"4","last_reported":1700676545,"current_range_meters":3600,"station_id":"","pricing_plan_id":"free"},{"bike_id":"cb70a0a7-a3ba-40be-8f5b-54253a525851","system_id":"levelo_inurba_marseille","lat":43.29901,"lon":5.436851,"is_reserved":false,"is_disabled":false,"rental_uris":{"android":"levelo://app?vid=cb70a0a7-a3ba-40be-8f5b-54253a525851","ios":"levelo://app?vid=cb70a0a7-a3ba-40be-8f5b-54253a525851"},"vehicle_type_id":"4","last_reported":1700676545,"current_range_meters":0,"station_id":"ce4bhpp2rcd13ifvqhfg","pricing_plan_id":"free"},{"bike_id":"a93721f0-0280-461d-bf5f-442b4a772902","system_id":"levelo_inurba_marseille","lat":43.281548,"lon":5.42643,"is_reserved":false,"is_disabled":false,"rental_uris":{"android":"levelo://app?vid=a93721f0-0280-461d-bf5f-442b4a772902","ios":"levelo://app?vid=a93721f0-0280-461d-bf5f-442b4a772902"},"vehicle_type_id":"4","last_reported":1700676545,"current_range_meters":8400,"station_id":"ce4bhnh2rcd13ifvqgug","pricing_plan_id":"free"},{"bike_id":"32c305fb-49cd-4def-8098-02867fc1ff4f","system_id":"levelo_inurba_marseille","lat":43.28154,"lon":5.42641,"is_reserved":false,"is_disabled":false,"rental_uris":{"android":"levelo://app?vid=32c305fb-49cd-4def-8098-02867fc1ff4f","ios":"levelo://app?vid=32c305fb-49cd-4def-8098-02867fc1ff4f"},"vehicle_type_id":"4","last_reported":1700676545,"current_range_meters":27600,"station_id":"ce4bhnh2rcd13ifvqgug","pricing_plan_id":"free"},{"bike_id":"79407e75-2cf7-4446-a5b2-1c5fe1d8373c","system_id":"levelo_inurba_marseille","lat":43.28157,"lon":5.42644,"is_reserved":false,"is_disabled":false,"rental_uris":{"android":"levelo://app?vid=79407e75-2cf7-4446-a5b2-1c5fe1d8373c","ios":"levelo://app?vid=79407e75-2cf7-4446-a5b2-1c5fe1d8373c"},"vehicle_type_id":"4","last_reported":1700676545,"current_range_meters":24800,"station_id":"ce4bhnh2rcd13ifvqgug","pricing_plan_id":"free"},{"bike_id":"8a8a3a5d-54df-4f4f-983d-72be8786d665","system_id":"levelo_inurba_marseille","lat":43.281548,"lon":5.42643,"is_reserved":false,"is_disabled":false,"rental_uris":{"android":"levelo://app?vid=8a8a3a5d-54df-4f4f-983d-72be8786d665","ios":"levelo://app?vid=8a8a3a5d-54df-4f4f-983d-72be8786d665"},"vehicle_type_id":"4","last_reported":1700676545,"current_range_meters":22000,"station_id":"ce4bhnh2rcd13ifvqgug","pricing_plan_id":"free"},{"bike_id":"47eb7c73-b791-4d0b-bd3a-a2fa1b5b2b80","system_id":"levelo_inurba_marseille","lat":43.28155,"lon":5.42645,"is_reserved":false,"is_disabled":false,"rental_uris":{"android":"levelo://app?vid=47eb7c73-b791-4d0b-bd3a-a2fa1b5b2b80","ios":"levelo://app?vid=47eb7c73-b791-4d0b-bd3a-a2fa1b5b2b80"},"vehicle_type_id":"4","last_reported":1700676545,"current_range_meters":31200,"station_id":"ce4bhnh2rcd13ifvqgug","pricing_plan_id":"free"},{"bike_id":"ef298000-d72a-4f40-a30d-c131f87aac69","system_id":"levelo_inurba_marseille","lat":43.281548,"lon":5.42643,"is_reserved":false,"is_disabled":false,"rental_uris":{"android":"levelo://app?vid=ef298000-d72a-4f40-a30d-c131f87aac69","ios":"levelo://app?vid=ef298000-d72a-4f40-a30d-c131f87aac69"},"vehicle_type_id":"4","last_reported":1700676545,"current_range_meters":20800,"station_id":"ce4bhnh2rcd13ifvqgug","pricing_plan_id":"free"},{"bike_id":"56cfcdad-7deb-457c-aa73-c91fd9caf8e3","system_id":"levelo_inurba_marseille","lat":43.281548,"lon":5.42643,"is_reserved":false,"is_disabled":false,"rental_uris":{"android":"levelo://app?vid=56cfcdad-7deb-457c-aa73-c91fd9caf8e3","ios":"levelo://app?vid=56cfcdad-7deb-457c-aa73-c91fd9caf8e3"},"vehicle_type_id":"4","last_reported":1700676545,"current_range_meters":30000,"station_id":"ce4bhnh2rcd13ifvqgug","pricing_plan_id":"free"},{"bike_id":"6b188708-9907-4cc6-a7fa-bcdecbd5a74b","system_id":"levelo_inurba_marseille","lat":43.27495,"lon":5.42454,"is_reserved":false,"is_disabled":false,"rental_uris":{"android":"levelo://app?vid=6b188708-9907-4cc6-a7fa-bcdecbd5a74b","ios":"levelo://app?vid=6b188708-9907-4cc6-a7fa-bcdecbd5a74b"},"vehicle_type_id":"4","last_reported":1700676545,"current_range_meters":800,"station_id":"ce4bhn92rcd13ifvqgrg","pricing_plan_id":"free"},{"bike_id":"b3c318e5-2fdc-402b-a117-03fe223bc72d","system_id":"levelo_inurba_marseille","lat":43.25586,"lon":5.38251,"is_reserved":false,"is_disabled":false,"rental_uris":{"android":"levelo://app?vid=b3c318e5-2fdc-402b-a117-03fe223bc72d","ios":"levelo://app?vid=b3c318e5-2fdc-402b-a117-03fe223bc72d"},"vehicle_type_id":"4","last_reported":1700676545,"current_range_meters":14000,"station_id":"ce4bhih2rcd13ifvqfs0","pricing_plan_id":"free"},{"bike_id":"50290bb8-efd3-482d-b021-7495607ee03f","system_id":"levelo_inurba_marseille","lat":43.258658,"lon":5.398935,"is_reserved":false,"is_disabled":false,"rental_uris":{"android":"levelo://app?vid=50290bb8-efd3-482d-b021-7495607ee03f","ios":"levelo://app?vid=50290bb8-efd3-482d-b021-7495607ee03f"},"vehicle_type_id":"4","last_reported":1700676545,"current_range_meters":0,"station_id":"ce4bhl92rcd13ifvqghg","pricing_plan_id":"free"},{"bike_id":"3a12ad93-bf9a-4d7a-8bc8-e7dcf1ba61ed","system_id":"levelo_inurba_marseille","lat":43.25931,"lon":5.40903,"is_reserved":false,"is_disabled":false,"rental_uris":{"android":"levelo://app?vid=3a12ad93-bf9a-4d7a-8bc8-e7dcf1ba61ed","ios":"levelo://app?vid=3a12ad93-bf9a-4d7a-8bc8-e7dcf1ba61ed"},"vehicle_type_id":"4","last_reported":1700676545,"current_range_meters":0,"station_id":"","pricing_plan_id":"free"},{"bike_id":"8ea02471-0508-43a3-bc89-a18976817963","system_id":"levelo_inurba_marseille","lat":43.250966,"lon":5.395186,"is_reserved":false,"is_disabled":false,"rental_uris":{"android":"levelo://app?vid=8ea02471-0508-43a3-bc89-a18976817963","ios":"levelo://app?vid=8ea02471-0508-43a3-bc89-a18976817963"},"vehicle_type_id":"4","last_reported":1700676545,"current_range_meters":24400,"station_id":"ce4bhm12rcd13ifvqgkg","pricing_plan_id":"free"},{"bike_id":"a08598c4-9dfe-431d-84c5-c55a08bb9591","system_id":"levelo_inurba_marseille","lat":43.257079,"lon":5.411051,"is_reserved":false,"is_disabled":false,"rental_uris":{"android":"levelo://app?vid=a08598c4-9dfe-431d-84c5-c55a08bb9591","ios":"levelo://app?vid=a08598c4-9dfe-431d-84c5-c55a08bb9591"},"vehicle_type_id":"4","last_reported":1700676545,"current_range_meters":22000,"station_id":"ce4bhkp2rcd13ifvqgd0","pricing_plan_id":"free"},{"bike_id":"5ea3fb16-a1b1-4ea0-9b9b-47f1c4d186c6","system_id":"levelo_inurba_marseille","lat":43.25726,"lon":5.41109,"is_reserved":false,"is_disabled":false,"rental_uris":{"android":"levelo://app?vid=5ea3fb16-a1b1-4ea0-9b9b-47f1c4d186c6","ios":"levelo://app?vid=5ea3fb16-a1b1-4ea0-9b9b-47f1c4d186c6"},"vehicle_type_id":"4","last_reported":1700676545,"current_range_meters":2000,"station_id":"ce4bhkp2rcd13ifvqgd0","pricing_plan_id":"free"},{"bike_id":"34614a88-4184-40f8-9760-fbc72b49c2d6","system_id":"levelo_inurba_marseille","lat":43.241782,"lon":5.397261,"is_reserved":false,"is_disabled":false,"rental_uris":{"android":"levelo://app?vid=34614a88-4184-40f8-9760-fbc72b49c2d6","ios":"levelo://app?vid=34614a88-4184-40f8-9760-fbc72b49c2d6"},"vehicle_type_id":"4","last_reported":1700676545,"current_range_meters":22800,"station_id":"ce4bhn12rcd13ifvqgpg","pricing_plan_id":"free"},{"bike_id":"aa0fb73d-3b18-45d8-ab15-54add9dd1c97","system_id":"levelo_inurba_marseille","lat":43.250009,"lon":5.389195,"is_reserved":false,"is_disabled":false,"rental_uris":{"android":"levelo://app?vid=aa0fb73d-3b18-45d8-ab15-54add9dd1c97","ios":"levelo://app?vid=aa0fb73d-3b18-45d8-ab15-54add9dd1c97"},"vehicle_type_id":"4","last_reported":1700676545,"current_range_meters":14000,"station_id":"ce4bhgp2rcd13ifvqfd0","pricing_plan_id":"free"},{"bike_id":"e13776fe-8617-4dff-a8ba-74040dccb241","system_id":"levelo_inurba_marseille","lat":43.2479,"lon":5.374457,"is_reserved":false,"is_disabled":false,"rental_uris":{"android":"levelo://app?vid=e13776fe-8617-4dff-a8ba-74040dccb241","ios":"levelo://app?vid=e13776fe-8617-4dff-a8ba-74040dccb241"},"vehicle_type_id":"4","last_reported":1700676545,"current_range_meters":0,"station_id":"ce4bhgh2rcd13ifvqfb0","pricing_plan_id":"free"},{"bike_id":"eac2f75f-67d9-4921-ae18-818c82011991","system_id":"levelo_inurba_marseille","lat":43.2479,"lon":5.374457,"is_reserved":false,"is_disabled":false,"rental_uris":{"android":"levelo://app?vid=eac2f75f-67d9-4921-ae18-818c82011991","ios":"levelo://app?vid=eac2f75f-67d9-4921-ae18-818c82011991"},"vehicle_type_id":"4","last_reported":1700676545,"current_range_meters":7600,"station_id":"ce4bhgh2rcd13ifvqfb0","pricing_plan_id":"free"},{"bike_id":"509b44b4-ae68-4e28-9934-35210b4de430","system_id":"levelo_inurba_marseille","lat":43.250966,"lon":5.395186,"is_reserved":false,"is_disabled":false,"rental_uris":{"android":"levelo://app?vid=509b44b4-ae68-4e28-9934-35210b4de430","ios":"levelo://app?vid=509b44b4-ae68-4e28-9934-35210b4de430"},"vehicle_type_id":"4","last_reported":1700676545,"current_range_meters":5600,"station_id":"ce4bhm12rcd13ifvqgkg","pricing_plan_id":"free"},{"bike_id":"7a3e1a02-f295-4037-9700-5fd4f668f48e","system_id":"levelo_inurba_marseille","lat":43.25089,"lon":5.39523,"is_reserved":false,"is_disabled":false,"rental_uris":{"android":"levelo://app?vid=7a3e1a02-f295-4037-9700-5fd4f668f48e","ios":"levelo://app?vid=7a3e1a02-f295-4037-9700-5fd4f668f48e"},"vehicle_type_id":"4","last_reported":1700676545,"current_range_meters":23600,"station_id":"ce4bhm12rcd13ifvqgkg","pricing_plan_id":"free"},{"bike_id":"3d5c6ecd-48df-42ae-a495-1776cea98fd4","system_id":"levelo_inurba_marseille","lat":43.25102,"lon":5.403214,"is_reserved":false,"is_disabled":false,"rental_uris":{"android":"levelo://app?vid=3d5c6ecd-48df-42ae-a495-1776cea98fd4","ios":"levelo://app?vid=3d5c6ecd-48df-42ae-a495-1776cea98fd4"},"vehicle_type_id":"4","last_reported":1700676545,"current_range_meters":20800,"station_id":"ce4bhlh2rcd13ifvqgig","pricing_plan_id":"free"},{"bike_id":"c8f422cf-d6aa-48ff-a849-6fa5115bad4f","system_id":"levelo_inurba_marseille","lat":43.25108,"lon":5.40323,"is_reserved":false,"is_disabled":false,"rental_uris":{"android":"levelo://app?vid=c8f422cf-d6aa-48ff-a849-6fa5115bad4f","ios":"levelo://app?vid=c8f422cf-d6aa-48ff-a849-6fa5115bad4f"},"vehicle_type_id":"4","last_reported":1700676545,"current_range_meters":31200,"station_id":"ce4bhlh2rcd13ifvqgig","pricing_plan_id":"free"},{"bike_id":"b812dc9e-bc92-4554-bfd7-bebfcbca0d21","system_id":"levelo_inurba_marseille","lat":43.245581,"lon":5.395069,"is_reserved":false,"is_disabled":false,"rental_uris":{"android":"levelo://app?vid=b812dc9e-bc92-4554-bfd7-bebfcbca0d21","ios":"levelo://app?vid=b812dc9e-bc92-4554-bfd7-bebfcbca0d21"},"vehicle_type_id":"4","last_reported":1700676545,"current_range_meters":16000,"station_id":"ce4bhlp2rcd13ifvqgjg","pricing_plan_id":"free"},{"bike_id":"5a1ba83b-8198-4f26-837c-2fad3ab381eb","system_id":"levelo_inurba_marseille","lat":43.25272,"lon":5.42275,"is_reserved":false,"is_disabled":false,"rental_uris":{"android":"levelo://app?vid=5a1ba83b-8198-4f26-837c-2fad3ab381eb","ios":"levelo://app?vid=5a1ba83b-8198-4f26-837c-2fad3ab381eb"},"vehicle_type_id":"4","last_reported":1700676545,"current_range_meters":4800,"station_id":"","pricing_plan_id":"free"},{"bike_id":"6dc6802a-c228-4549-8bd3-248ea293f483","system_id":"levelo_inurba_marseille","lat":43.239588,"lon":5.366238,"is_reserved":false,"is_disabled":false,"rental_uris":{"android":"levelo://app?vid=6dc6802a-c228-4549-8bd3-248ea293f483","ios":"levelo://app?vid=6dc6802a-c228-4549-8bd3-248ea293f483"},"vehicle_type_id":"4","last_reported":1700676545,"current_range_meters":9600,"station_id":"ce4bhi12rcd13ifvqfp0","pricing_plan_id":"free"},{"bike_id":"a81cb412-ddcc-42f7-9a97-ae7c79f5f305","system_id":"levelo_inurba_marseille","lat":43.24472,"lon":5.42767,"is_reserved":false,"is_disabled":false,"rental_uris":{"android":"levelo://app?vid=a81cb412-ddcc-42f7-9a97-ae7c79f5f305","ios":"levelo://app?vid=a81cb412-ddcc-42f7-9a97-ae7c79f5f305"},"vehicle_type_id":"4","last_reported":1700676545,"current_range_meters":400,"station_id":"","pricing_plan_id":"free"},{"bike_id":"76f48143-0fd7-42d0-85b8-80e7fcf987a7","system_id":"levelo_inurba_marseille","lat":43.23198,"lon":5.35553,"is_reserved":false,"is_disabled":false,"rental_uris":{"android":"levelo://app?vid=76f48143-0fd7-42d0-85b8-80e7fcf987a7","ios":"levelo://app?vid=76f48143-0fd7-42d0-85b8-80e7fcf987a7"},"vehicle_type_id":"4","last_reported":1700676545,"current_range_meters":27200,"station_id":"ce4bhu92rcd13ifvqi70","pricing_plan_id":"free"},{"bike_id":"a4848e8e-2f71-4e6c-ac3c-01fb65ff240d","system_id":"levelo_inurba_marseille","lat":43.23196,"lon":5.35548,"is_reserved":false,"is_disabled":false,"rental_uris":{"android":"levelo://app?vid=a4848e8e-2f71-4e6c-ac3c-01fb65ff240d","ios":"levelo://app?vid=a4848e8e-2f71-4e6c-ac3c-01fb65ff240d"},"vehicle_type_id":"4","last_reported":1700676545,"current_range_meters":2000,"station_id":"ce4bhu92rcd13ifvqi70","pricing_plan_id":"free"},{"bike_id":"65a45a5f-4d86-4306-86ba-058d2b5250b0","system_id":"levelo_inurba_marseille","lat":43.231794,"lon":5.400052,"is_reserved":false,"is_disabled":false,"rental_uris":{"android":"levelo://app?vid=65a45a5f-4d86-4306-86ba-058d2b5250b0","ios":"levelo://app?vid=65a45a5f-4d86-4306-86ba-058d2b5250b0"},"vehicle_type_id":"4","last_reported":1700676545,"current_range_meters":4800,"station_id":"ce4bhn12rcd13ifvqgqg","pricing_plan_id":"free"},