{"last_updated":1773405242,"ttl":60,"version":"2.2","data":{"bikes":[{"bike_id":"19691a7e-d227-4f2f-9137-873d9a39eff4","system_id":"levelo_inurba_marseille","lat":43.23164,"lon":5.43714,"is_reserved":false,"is_disabled":false,"rental_uris":{"android":"levelo://app?vid=19691a7e-d227-4f2f-9137-873d9a39eff4","ios":"levelo://app?vid=19691a7e-d227-4f2f-9137-873d9a39eff4"},"vehicle_type_id":"4","last_reported":1773405242,"current_range_meters":38000,"station_id":"ce4bhmp2rcd13ifvqgog","pricing_plan_id":"cebpf4jnsgd1na2vs0mg"},{"bike_id":"ebf75af1-c1e1-4ab4-be7a-03ecdd2c2597","system_id":"levelo_inurba_marseille","lat":43.31041,"lon":5.37141,"is_reserved":false,"is_disabled":false,"rental_uris":{"android":"levelo://app?vid=ebf75af1-c1e1-4ab4-be7a-03ecdd2c2597","ios":"levelo://app?vid=ebf75af1-c1e1-4ab4-be7a-03ecdd2c2597"},"vehicle_type_id":"4","last_reported":1773405242,"current_range_meters":34000,"station_id":"st_d4kl2rp97mjs73e7tdfg","pricing_plan_id":"cebpf4jnsgd1na2vs0mg"},{"bike_id":"dbcd0d5d-c925-42ce-8639-98c254a6f766","system_id":"levelo_inurba_marseille","lat":43.31062,"lon":5.37155,"is_reserved":false,"is_disabled":false,"rental_uris":{"android":"levelo://app?vid=dbcd0d5d-c925-42ce-8639-98c254a6f766","ios":"levelo://app?vid=dbcd0d5d-c925-42ce-8639-98c254a6f766"},"vehicle_type_id":"4","last_reported":1773405242,"current_range_meters":35600,"station_id":"st_d4kl2rp97mjs73e7tdfg","pricing_plan_id":"cebpf4jnsgd1na2vs0mg"},{"bike_id":"895e7cf9-4cb2-4dc3-aec9-fd7326baacbe","system_id":"levelo_inurba_marseille","lat":43.31052,"lon":5.37159,"is_reserved":false,"is_disabled":false,"rental_uris":{"android":"levelo://app?vid=895e7cf9-4cb2-4dc3-aec9-fd7326baacbe","ios":"levelo://app?vid=895e7cf9-4cb2-4dc3-aec9-fd7326baacbe"},"vehicle_type_id":"4","last_reported":1773405242,"current_range_meters":35600,"station_id":"st_d4kl2rp97mjs73e7tdfg","pricing_plan_id":"cebpf4jnsgd1na2vs0mg"},{"bike_id":"c5f8db76-81c5-4830-8fdb-99bfa9447012","system_id":"levelo_inurba_marseille","lat":43.31081,"lon":5.37144,"is_reserved":false,"is_disabled":false,"rental_uris":{"android":"levelo://app?vid=c5f8db76-81c5-4830-8fdb-99bfa9447012","ios":"levelo://app?vid=c5f8db76-81c5-4830-8fdb-99bfa9447012"},"vehicle_type_id":"4","last_reported":1773405242,"current_range_meters":34000,"station_id":"st_d4kl2rp97mjs73e7tdfg","pricing_plan_id":"cebpf4jnsgd1na2vs0mg"},{"bike_id":"f8859008-76ae-4d29-a566-36c686b68670","system_id":"levelo_inurba_marseille","lat":43.3104,"lon":5.37074,"is_reserved":false,"is_disabled":false,"rental_uris":{"android":"levelo://app?vid=f8859008-76ae-4d29-a566-36c686b68670","ios":"levelo://app?vid=f8859008-76ae-4d29-a566-36c686b68670"},"vehicle_type_id":"4","last_reported":1773405242,"current_range_meters":34800,"station_id":"st_d4kl2rp97mjs73e7tdfg","pricing_plan_id":"cebpf4jnsgd1na2vs0mg"},{"bike_id":"fdfd158d-0f35-44af-97a6-b7c4a5efeb70","system_id":"levelo_inurba_marseille","lat":43.30131,"lon":5.3878,"is_reserved":false,"is_disabled":true,"rental_uris":{"android":"levelo://app?vid=fdfd158d-0f35-44af-97a6-b7c4a5efeb70","ios":"levelo://app?vid=fdfd158d-0f35-44af-97a6-b7c4a5efeb70"},"vehicle_type_id":"4","last_reported":1773405242,"current_range_meters":1600,"station_id":"ce4bghh2rcd13ifvqb60","pricing_plan_id":"cebpf4jnsgd1na2vs0mg"},{"bike_id":"84258842-b27c-44d2-a3e3-a8ab065af084","system_id":"levelo_inurba_marseille","lat":43.26061,"lon":5.39397,"is_reserved":false,"is_disabled":false,"rental_uris":{"android":"levelo://app?vid=84258842-b27c-44d2-a3e3-a8ab065af084","ios":"levelo://app?vid=84258842-b27c-44d2-a3e3-a8ab065af084"},"vehicle_type_id":"4","last_reported":1773405242,"current_range_meters":37600,"station_id":"ce4bhh92rcd13ifvqfj0","pricing_plan_id":"cebpf4jnsgd1na2vs0mg"},{"bike_id":"582a75ee-2f1e-404a-8d7e-d0de88094400","system_id":"levelo_inurba_marseille","lat":43.28455,"lon":5.37487,"is_reserved":false,"is_disabled":false,"rental_uris":{"android":"levelo://app?vid=582a75ee-2f1e-404a-8d7e-d0de88094400","ios":"levelo://app?vid=582a75ee-2f1e-404a-8d7e-d0de88094400"},"vehicle_type_id":"4","last_reported":1773405242,"current_range_meters":24400,"station_id":"","pricing_plan_id":"cebpf4jnsgd1na2vs0mg"},{"bike_id":"0c0089e7-1a1e-46a0-9bbc-b3db79f60db5","system_id":"levelo_inurba_marseille","lat":43.27369,"lon":5.36261,"is_reserved":false,"is_disabled":false,"rental_uris":{"android":"levelo://app?vid=0c0089e7-1a1e-46a0-9bbc-b3db79f60db5","ios":"levelo://app?vid=0c0089e7-1a1e-46a0-9bbc-b3db79f60db5"},"vehicle_type_id":"4","last_reported":1773405242,"current_range_meters":39200,"station_id":"ce4bhbh2rcd13ifvqeo0","pricing_plan_id":"cebpf4jnsgd1na2vs0mg"},{"bike_id":"c0ca0016-4706-4e84-9dd3-8c1ffe3136b4","system_id":"levelo_inurba_marseille","lat":43.27387,"lon":5.36246,"is_reserved":false,"is_disabled":false,"rental_uris":{"android":"levelo://app?vid=c0ca0016-4706-4e84-9dd3-8c1ffe3136b4","ios":"levelo://app?vid=c0ca0016-4706-4e84-9dd3-8c1ffe3136b4"},"vehicle_type_id":"4","last_reported":1773405242,"current_range_meters":26800,"station_id":"ce4bhbh2rcd13ifvqeo0","pricing_plan_id":"cebpf4jnsgd1na2vs0mg"},{"bike_id":"7ffa041c-bc7f-4159-90b7-8ee18db551ca","system_id":"levelo_inurba_marseille","lat":43.29988,"lon":5.3732,"is_reserved":false,"is_disabled":false,"rental_uris":{"android":"levelo://app?vid=7ffa041c-bc7f-4159-90b7-8ee18db551ca","ios":"levelo://app?vid=7ffa041c-bc7f-4159-90b7-8ee18db551ca"},"vehicle_type_id":"4","last_reported":1773405242,"current_range_meters":10800,"station_id":"","pricing_plan_id":"cebpf4jnsgd1na2vs0mg"},{"bike_id":"f8752ee3-a186-49f5-9eb6-2d352a6260f7","system_id":"levelo_inurba_marseille","lat":43.32662,"lon":5.40987,"is_reserved":false,"is_disabled":true,"rental_uris":{"android":"levelo://app?vid=f8752ee3-a186-49f5-9eb6-2d352a6260f7","ios":"levelo://app?vid=f8752ee3-a186-49f5-9eb6-2d352a6260f7"},"vehicle_type_id":"4","last_reported":1773405242,"current_range_meters":39200,"station_id":"ce4bhpp2rcd13ifvqhgg","pricing_plan_id":"cebpf4jnsgd1na2vs0mg"},{"bike_id":"f44ff1bd-ab2d-4d20-8d8d-733c66117aa5","system_id":"levelo_inurba_marseille","lat":43.29874,"lon":5.3892,"is_reserved":false,"is_disabled":false,"rental_uris":{"android":"levelo://app?vid=f44ff1bd-ab2d-4d20-8d8d-733c66117aa5","ios":"levelo://app?vid=f44ff1bd-ab2d-4d20-8d8d-733c66117aa5"},"vehicle_type_id":"4","last_reported":1773405242,"current_range_meters":2800,"station_id":"ce4bh392rcd13ifvqdl0","pricing_plan_id":"cebpf4jnsgd1na2vs0mg"},{"bike_id":"ae540bed-ed3b-4247-abad-fe29acd1fb3e","system_id":"levelo_inurba_marseille","lat":43.3303,"lon":5.39031,"is_reserved":false,"is_disabled":false,"rental_uris":{"android":"levelo://app?vid=ae540bed-ed3b-4247-abad-fe29acd1fb3e","ios":"levelo://app?vid=ae540bed-ed3b-4247-abad-fe29acd1fb3e"},"vehicle_type_id":"4","last_reported":1773405242,"current_range_meters":38000,"station_id":"ce4bhr92rcd13ifvqhrg","pricing_plan_id":"cebpf4jnsgd1na2vs0mg"},{"bike_id":"18f35d94-7133-4b4b-a629-0bec9d48af36","system_id":"levelo_inurba_marseille","lat":43.28475,"lon":5.48398,"is_reserved":false,"is_disabled":false,"rental_uris":{"android":"levelo://app?vid=18f35d94-7133-4b4b-a629-0bec9d48af36","ios":"levelo://app?vid=18f35d94-7133-4b4b-a629-0bec9d48af36"},"vehicle_type_id":"4","last_reported":1773405242,"current_range_meters":28400,"station_id":"","pricing_plan_id":"cebpf4jnsgd1na2vs0mg"},{"bike_id":"b2399a9f-a598-463b-80a6-f3cff6f3600d","system_id":"levelo_inurba_marseille","lat":43.29769,"lon":5.3654,"is_reserved":false,"is_disabled":false,"rental_uris":{"android":"levelo://app?vid=b2399a9f-a598-463b-80a6-f3cff6f3600d","ios":"levelo://app?vid=b2399a9f-a598-463b-80a6-f3cff6f3600d"},"vehicle_type_id":"4","last_reported":1773405242,"current_range_meters":27200,"station_id":"","pricing_plan_id":"cebpf4jnsgd1na2vs0mg"},{"bike_id":"058a40ef-aca0-46a1-b31e-3c5dc3514929","system_id":"levelo_inurba_marseille","lat":43.28406,"lon":5.35,"is_reserved":false,"is_disabled":false,"rental_uris":{"android":"levelo://app?vid=058a40ef-aca0-46a1-b31e-3c5dc3514929","ios":"levelo://app?vid=058a40ef-aca0-46a1-b31e-3c5dc3514929"},"vehicle_type_id":"4","last_reported":1773405242,"current_range_meters":32800,"station_id":"ce4bhbh2rcd13ifvqepg","pricing_plan_id":"cebpf4jnsgd1na2vs0mg"},{"bike_id":"7db92065-fd6e-4014-982f-daf9b3e1e88d","system_id":"levelo_inurba_marseille","lat":43.2583,"lon":5.39421,"is_reserved":false,"is_disabled":false,"rental_uris":{"android":"levelo://app?vid=7db92065-fd6e-4014-982f-daf9b3e1e88d","ios":"levelo://app?vid=7db92065-fd6e-4014-982f-daf9b3e1e88d"},"vehicle_type_id":"4","last_reported":1773405242,"current_range_meters":19200,"station_id":"ce4bhip2rcd13ifvqft0","pricing_plan_id":"cebpf4jnsgd1na2vs0mg"},{"bike_id":"2160cf90-c2ed-4bac-8d60-36bbdf94fd16","system_id":"levelo_inurba_marseille","lat":43.31496,"lon":5.37307,"is_reserved":false,"is_disabled":false,"rental_uris":{"android":"levelo://app?vid=2160cf90-c2ed-4bac-8d60-36bbdf94fd16","ios":"levelo://app?vid=2160cf90-c2ed-4bac-8d60-36bbdf94fd16"},"vehicle_type_id":"4","last_reported":1773405242,"current_range_meters":38800,"station_id":"ce4bgt12rcd13ifvqcd0","pricing_plan_id":"cebpf4jnsgd1na2vs0mg"},{"bike_id":"bb59f437-04ce-472a-8259-f42eb5a79dcb","system_id":"levelo_inurba_marseille","lat":43.29938,"lon":5.37469,"is_reserved":false,"is_disabled":false,"rental_uris":{"android":"levelo://app?vid=bb59f437-04ce-472a-8259-f42eb5a79dcb","ios":"levelo://app?vid=bb59f437-04ce-472a-8259-f42eb5a79dcb"},"vehicle_type_id":"4","last_reported":1773405242,"current_range_meters":38000,"station_id":"ce4bgjh2rcd13ifvqbg0","pricing_plan_id":"cebpf4jnsgd1na2vs0mg"},{"bike_id":"9c5ef180-d693-435e-a2e5-e2fa459934ff","system_id":"levelo_inurba_marseille","lat":43.299252,"lon":5.374729,"is_reserved":false,"is_disabled":false,"rental_uris":{"android":"levelo://app?vid=9c5ef180-d693-435e-a2e5-e2fa459934ff","ios":"levelo://app?vid=9c5ef180-d693-435e-a2e5-e2fa459934ff"},"vehicle_type_id":"4","last_reported":1773405242,"current_range_meters":28000,"station_id":"ce4bgjh2rcd13ifvqbg0","pricing_plan_id":"cebpf4jnsgd1na2vs0mg"},{"bike_id":"6857a8f7-cd07-415a-91c1-a0266e63ea1a","system_id":"levelo_inurba_marseille","lat":43.31528,"lon":5.3804,"is_reserved":false,"is_disabled":false,"rental_uris":{"android":"levelo://app?vid=6857a8f7-cd07-415a-91c1-a0266e63ea1a","ios":"levelo://app?vid=6857a8f7-cd07-415a-91c1-a0266e63ea1a"},"vehicle_type_id":"4","last_reported":1773405242,"current_range_meters":38000,"station_id":"ce4bhsp2rcd13ifvqi50","pricing_plan_id":"cebpf4jnsgd1na2vs0mg"},{"bike_id":"a4fa99c6-9544-41e7-a29d-0cec1b2a1917","system_id":"levelo_inurba_marseille","lat":43.24811,"lon":5.3745,"is_reserved":false,"is_disabled":false,"rental_uris":{"android":"levelo://app?vid=a4fa99c6-9544-41e7-a29d-0cec1b2a1917","ios":"levelo://app?vid=a4fa99c6-9544-41e7-a29d-0cec1b2a1917"},"vehicle_type_id":"4","last_reported":1773405242,"current_range_meters":38800,"station_id":"ce4bhgh2rcd13ifvqfb0","pricing_plan_id":"cebpf4jnsgd1na2vs0mg"},{"bike_id":"6ce6bc7e-4959-45b9-bda0-88b32a35e3f9","system_id":"levelo_inurba_marseille","lat":43.25856,"lon":5.39891,"is_reserved":false,"is_disabled":false,"rental_uris":{"android":"levelo://app?vid=6ce6bc7e-4959-45b9-bda0-88b32a35e3f9","ios":"levelo://app?vid=6ce6bc7e-4959-45b9-bda0-88b32a35e3f9"},"vehicle_type_id":"4","last_reported":1773405242,"current_range_meters":21600,"station_id":"ce4bhl92rcd13ifvqghg","pricing_plan_id":"cebpf4jnsgd1na2vs0mg"},{"bike_id":"0e81feb6-9532-4ed6-99e4-9e1b06422676","system_id":"levelo_inurba_marseille","lat":43.30535,"lon":5.36711,"is_reserved":false,"is_disabled":false,"rental_uris":{"android":"levelo://app?vid=0e81feb6-9532-4ed6-99e4-9e1b06422676","ios":"levelo://app?vid=0e81feb6-9532-4ed6-99e4-9e1b06422676"},"vehicle_type_id":"4","last_reported":1773405242,"current_range_meters":34800,"station_id":"ce4bgrp2rcd13ifvqc9g","pricing_plan_id":"cebpf4jnsgd1na2vs0mg"},{"bike_id":"3a4ac662-ce3c-41aa-9a77-27b82ac360d5","system_id":"levelo_inurba_marseille","lat":43.31245,"lon":5.36844,"is_reserved":false,"is_disabled":false,"rental_uris":{"android":"levelo://app?vid=3a4ac662-ce3c-41aa-9a77-27b82ac360d5","ios":"levelo://app?vid=3a4ac662-ce3c-41aa-9a77-27b82ac360d5"},"vehicle_type_id":"4","last_reported":1773405242,"current_range_meters":30000,"station_id":"ce4bgl92rcd13ifvqbq0","pricing_plan_id":"cebpf4jnsgd1na2vs0mg"},{"bike_id":"edba2805-93b3-4349-8087-e8db6903d3e1","system_id":"levelo_inurba_marseille","lat":43.24802,"lon":5.37459,"is_reserved":false,"is_disabled":false,"rental_uris":{"android":"levelo://app?vid=edba2805-93b3-4349-8087-e8db6903d3e1","ios":"levelo://app?vid=edba2805-93b3-4349-8087-e8db6903d3e1"},"vehicle_type_id":"4","last_reported":1773405242,"current_range_meters":39200,"station_id":"ce4bhgh2rcd13ifvqfb0","pricing_plan_id":"cebpf4jnsgd1na2vs0mg"},{"bike_id":"6bda1185-2025-4ec3-898c-5a3f89a270a7","system_id":"levelo_inurba_marseille","lat":43.29849,"lon":5.36271,"is_reserved":false,"is_disabled":false,"rental_uris":{"android":"levelo://app?vid=6bda1185-2025-4ec3-898c-5a3f89a270a7","ios":"levelo://app?vid=6bda1185-2025-4ec3-898c-5a3f89a270a7"},"vehicle_type_id":"4","last_reported":1773405242,"current_range_meters":39200,"station_id":"ce4bgpp2rcd13ifvqc3g","pricing_plan_id":"cebpf4jnsgd1na2vs0mg"},{"bike_id":"ed5d9bc6-6d1e-4905-817f-7d4508ae62a3","system_id":"levelo_inurba_marseille","lat":43.28233,"lon":5.39072,"is_reserved":false,"is_disabled":false,"rental_uris":{"android":"levelo://app?vid=ed5d9bc6-6d1e-4905-817f-7d4508ae62a3","ios":"levelo://app?vid=ed5d9bc6-6d1e-4905-817f-7d4508ae62a3"},"vehicle_type_id":"4","last_reported":1773405242,"current_range_meters":27600,"station_id":"ce4bhn92rcd13ifvqgsg","pricing_plan_id":"cebpf4jnsgd1na2vs0mg"},{"bike_id":"480a954f-db3c-4cd5-acb5-179ba9006c67","system_id":"levelo_inurba_marseille","lat":43.28522,"lon":5.44102,"is_reserved":false,"is_disabled":false,"rental_uris":{"android":"levelo://app?vid=480a954f-db3c-4cd5-acb5-179ba9006c67","ios":"levelo://app?vid=480a954f-db3c-4cd5-acb5-179ba9006c67"},"vehicle_type_id":"4","last_reported":1773405242,"current_range_meters":32400,"station_id":"st_d3j3df2ikq2c7380ej80","pricing_plan_id":"cebpf4jnsgd1na2vs0mg"},{"bike_id":"196cd20c-58cf-4336-8acd-ad13b5d67dbc","system_id":"levelo_inurba_marseille","lat":43.24157,"lon":5.36395,"is_reserved":false,"is_disabled":false,"rental_uris":{"android":"levelo://app?vid=196cd20c-58cf-4336-8acd-ad13b5d67dbc","ios":"levelo://app?vid=196cd20c-58cf-4336-8acd-ad13b5d67dbc"},"vehicle_type_id":"4","last_reported":1773405242,"current_range_meters":27200,"station_id":"cpo36qri1sfpv3e86is0","pricing_plan_id":"cebpf4jnsgd1na2vs0mg"},{"bike_id":"1cf06faf-0211-4a86-bffe-8e533567710b","system_id":"levelo_inurba_marseille","lat":43.24942,"lon":5.40518,"is_reserved":false,"is_disabled":true,"rental_uris":{"android":"levelo://app?vid=1cf06faf-0211-4a86-bffe-8e533567710b","ios":"levelo://app?vid=1cf06faf-0211-4a86-bffe-8e533567710b"},"vehicle_type_id":"4","last_reported":1773405242,"current_range_meters":20800,"station_id":"st_d2ngiaodas8pm72gd1h0","pricing_plan_id":"cebpf4jnsgd1na2vs0mg"},{"bike_id":"7cc39d1a-460a-4fed-b840-07e500d43309","system_id":"levelo_inurba_marseille","lat":43.23157,"lon":5.43708,"is_reserved":false,"is_disabled":false,"rental_uris":{"android":"levelo://app?vid=7cc39d1a-460a-4fed-b840-07e500d43309","ios":"levelo://app?vid=7cc39d1a-460a-4fed-b840-07e500d43309"},"vehicle_type_id":"4","last_reported":1773405242,"current_range_meters":10800,"station_id":"ce4bhmp2rcd13ifvqgog","pricing_plan_id":"cebpf4jnsgd1na2vs0mg"},{"bike_id":"7fa1c668-6c61-4fd7-a0ee-880dfdd6c346","system_id":"levelo_inurba_marseille","lat":43.261768,"lon":5.396793,"is_reserved":false,"is_disabled":false,"rental_uris":{"android":"levelo://app?vid=7fa1c668-6c61-4fd7-a0ee-880dfdd6c346","ios":"levelo://app?vid=7fa1c668-6c61-4fd7-a0ee-880dfdd6c346"},"vehicle_type_id":"4","last_reported":1773405242,"current_range_meters":30000,"station_id":"ce4bhlh2rcd13ifvqgig","pricing_plan_id":"cebpf4jnsgd1na2vs0mg"},{"bike_id":"0250d5d1-3619-42b3-955a-0a937e09165f","system_id":"levelo_inurba_marseille","lat":43.23058,"lon":5.355,"is_reserved":false,"is_disabled":false,"rental_uris":{"android":"levelo://app?vid=0250d5d1-3619-42b3-955a-0a937e09165f","ios":"levelo://app?vid=0250d5d1-3619-42b3-955a-0a937e09165f"},"vehicle_type_id":"4","last_reported":1773405242,"current_range_meters":39200,"station_id":"cpo3342slgdg3j2ifvpg","pricing_plan_id":"cebpf4jnsgd1na2vs0mg"},{"bike_id":"baac86e5-e19c-47b4-b832-73d34b52a393","system_id":"levelo_inurba_marseille","lat":43.27379,"lon":5.36263,"is_reserved":false,"is_disabled":false,"rental_uris":{"android":"levelo://app?vid=baac86e5-e19c-47b4-b832-73d34b52a393","ios":"levelo://app?vid=baac86e5-e19c-47b4-b832-73d34b52a393"},"vehicle_type_id":"4","last_reported":1773405242,"current_range_meters":18000,"station_id":"ce4bhbh2rcd13ifvqeo0","pricing_plan_id":"cebpf4jnsgd1na2vs0mg"},{"bike_id":"1b8416df-3f6d-4c68-ac11-112b698b39c2","system_id":"levelo_inurba_marseille","lat":43.25856,"lon":5.39899,"is_reserved":false,"is_disabled":false,"rental_uris":{"android":"levelo://app?vid=1b8416df-3f6d-4c68-ac11-112b698b39c2","ios":"levelo://app?vid=1b8416df-3f6d-4c68-ac11-112b698b39c2"},"vehicle_type_id":"4","last_reported":1773405242,"current_range_meters":39200,"station_id":"ce4bhl92rcd13ifvqghg","pricing_plan_id":"cebpf4jnsgd1na2vs0mg"},{"bike_id":"0f3b3aa8-6f96-44fb-8620-3db50c6d6ad8","system_id":"levelo_inurba_marseille","lat":43.29763,"lon":5.36564,"is_reserved":false,"is_disabled":false,"rental_uris":{"android":"levelo://app?vid=0f3b3aa8-6f96-44fb-8620-3db50c6d6ad8","ios":"levelo://app?vid=0f3b3aa8-6f96-44fb-8620-3db50c6d6ad8"},"vehicle_type_id":"4","last_reported":1773405242,"current_range_meters":39200,"station_id":"ce4bgn12rcd13ifvqbt0","pricing_plan_id":"cebpf4jnsgd1na2vs0mg"},{"bike_id":"2d90a59f-b703-41f6-ab9e-396374884dbc","system_id":"levelo_inurba_marseille","lat":43.31337,"lon":5.36751,"is_reserved":false,"is_disabled":false,"rental_uris":{"android":"levelo://app?vid=2d90a59f-b703-41f6-ab9e-396374884dbc","ios":"levelo://app?vid=2d90a59f-b703-41f6-ab9e-396374884dbc"},"vehicle_type_id":"4","last_reported":1773405242,"current_range_meters":28000,"station_id":"ce4bgr92rcd13ifvqc6g","pricing_plan_id":"cebpf4jnsgd1na2vs0mg"},{"bike_id":"886bcfc7-63ee-4067-a44e-c7f27783757e","system_id":"levelo_inurba_marseille","lat":43.30906,"lon":5.38297,"is_reserved":false,"is_disabled":false,"rental_uris":{"android":"levelo://app?vid=886bcfc7-63ee-4067-a44e-c7f27783757e","ios":"levelo://app?vid=886bcfc7-63ee-4067-a44e-c7f27783757e"},"vehicle_type_id":"4","last_reported":1773405242,"current_range_meters":10000,"station_id":"","pricing_plan_id":"cebpf4jnsgd1na2vs0mg"},{"bike_id":"ba8d9ef5-6fd3-48fa-8d92-09e9ea63831d","system_id":"levelo_inurba_marseille","lat":43.2996,"lon":5.41315,"is_reserved":false,"is_disabled":false,"rental_uris":{"android":"levelo://app?vid=ba8d9ef5-6fd3-48fa-8d92-09e9ea63831d","ios":"levelo://app?vid=ba8d9ef5-6fd3-48fa-8d92-09e9ea63831d"},"vehicle_type_id":"4","last_reported":1773405242,"current_range_meters":39200,"station_id":"ce4bhp12rcd13ifvqh9g","pricing_plan_id":"cebpf4jnsgd1na2vs0mg"},{"bike_id":"e8edc316-663a-4e2f-9f88-3ea09bba06a0","system_id":"levelo_inurba_marseille","lat":43.31509,"lon":5.37248,"is_reserved":false,"is_disabled":false,"rental_uris":{"android":"levelo://app?vid=e8edc316-663a-4e2f-9f88-3ea09bba06a0","ios":"levelo://app?vid=e8edc316-663a-4e2f-9f88-3ea09bba06a0"},"vehicle_type_id":"4","last_reported":1773405242,"current_range_meters":39200,"station_id":"","pricing_plan_id":"cebpf4jnsgd1na2vs0mg"},{"bike_id":"596b4a75-f1cb-4396-836c-d06d0227b3f4","system_id":"levelo_inurba_marseille","lat":43.27836,"lon":5.40712,"is_reserved":false,"is_disabled":false,"rental_uris":{"android":"levelo://app?vid=596b4a75-f1cb-4396-836c-d06d0227b3f4","ios":"levelo://app?vid=596b4a75-f1cb-4396-836c-d06d0227b3f4"},"vehicle_type_id":"4","last_reported":1773405242,"current_range_meters":37600,"station_id":"ce4bhnh2rcd13ifvqgtg","pricing_plan_id":"cebpf4jnsgd1na2vs0mg"},{"bike_id":"5c8b00a4-5fa9-40c2-8a77-4e3272f85452","system_id":"levelo_inurba_marseille","lat":43.30152,"lon":5.37402,"is_reserved":false,"is_disabled":false,"rental_uris":{"android":"levelo://app?vid=5c8b00a4-5fa9-40c2-8a77-4e3272f85452","ios":"levelo://app?vid=5c8b00a4-5fa9-40c2-8a77-4e3272f85452"},"vehicle_type_id":"4","last_reported":1773405242,"current_range_meters":18800,"station_id":"ce4bgs92rcd13ifvqcc0","pricing_plan_id":"cebpf4jnsgd1na2vs0mg"},{"bike_id":"2dd51874-11a3-43a9-8809-5310bb1e8ead","system_id":"levelo_inurba_marseille","lat":43.24357,"lon":5.37123,"is_reserved":false,"is_disabled":false,"rental_uris":{"android":"levelo://app?vid=2dd51874-11a3-43a9-8809-5310bb1e8ead","ios":"levelo://app?vid=2dd51874-11a3-43a9-8809-5310bb1e8ead"},"vehicle_type_id":"4","last_reported":1773405242,"current_range_meters":39200,"station_id":"","pricing_plan_id":"cebpf4jnsgd1na2vs0mg"},{"bike_id":"81e5902f-80b0-433f-a20c-6a0bc135c3d9","system_id":"levelo_inurba_marseille","lat":43.22926,"lon":5.35385,"is_reserved":false,"is_disabled":false,"rental_uris":{"android":"levelo://app?vid=81e5902f-80b0-433f-a20c-6a0bc135c3d9","ios":"levelo://app?vid=81e5902f-80b0-433f-a20c-6a0bc135c3d9"},"vehicle_type_id":"4","last_reported":1773405242,"current_range_meters":30800,"station_id":"cpo3532slgdg3j2ikp40","pricing_plan_id":"cebpf4jnsgd1na2vs0mg"},{"bike_id":"10378ec6-c1b0-4612-8463-4f5896302b67","system_id":"levelo_inurba_marseille","lat":43.26569,"lon":5.37286,"is_reserved":false,"is_disabled":true,"rental_uris":{"android":"levelo://app?vid=10378ec6-c1b0-4612-8463-4f5896302b67","ios":"levelo://app?vid=10378ec6-c1b0-4612-8463-4f5896302b67"},"vehicle_type_id":"4","last_reported":1773405242,"current_range_meters":400,"station_id":"ce4bhg12rcd13ifvqf70","pricing_plan_id":"cebpf4jnsgd1na2vs0mg"},{"bike_id":"107eaf49-0b8c-4b97-b025-129dee039626","system_id":"levelo_inurba_marseille","lat":43.29263,"lon":5.37611,"is_reserved":false,"is_disabled":false,"rental_uris":{"android":"levelo://app?vid=107eaf49-0b8c-4b97-b025-129dee039626","ios":"levelo://app?vid=107eaf49-0b8c-4b97-b025-129dee039626"},"vehicle_type_id":"4","last_reported":1773405242,"current_range_meters":39200,"station_id":"ce4bgi12rcd13ifvqb80","pricing_plan_id":"cebpf4jnsgd1na2vs0mg"},{"bike_id":"97ecf467-9bc2-4716-8380-618c7c7ef61e","system_id":"levelo_inurba_marseille","lat":43.31591,"lon":5.37365,"is_reserved":false,"is_disabled":false,"rental_uris":{"android":"levelo://app?vid=97ecf467-9bc2-4716-8380-618c7c7ef61e","ios":"levelo://app?vid=97ecf467-9bc2-4716-8380-618c7c7ef61e"},"vehicle_type_id":"4","last_reported":1773405242,"current_range_meters":5600,"station_id":"","pricing_plan_id":"cebpf4jnsgd1na2vs0mg"},{"bike_id":"aed41f63-b638-409e-b99f-5db7af0576eb","system_id":"levelo_inurba_marseille","lat":43.305,"lon":5.37832,"is_reserved":false,"is_disabled":false,"rental_uris":{"android":"levelo://app?vid=aed41f63-b638-409e-b99f-5db7af0576eb","ios":"levelo://app?vid=aed41f63-b638-409e-b99f-5db7af0576eb"},"vehicle_type_id":"4","last_reported":1773405242,"current_range_meters":34000,"station_id":"","pricing_plan_id":"cebpf4jnsgd1na2vs0mg"},{"bike_id":"095848ed-bce8-4e1c-af43-69cf262bf9bb","system_id":"levelo_inurba_marseille","lat":43.29081,"lon":5.3716,"is_reserved":false,"is_disabled":false,"rental_uris":{"android":"levelo://app?vid=095848ed-bce8-4e1c-af43-69cf262bf9bb","ios":"levelo://app?vid=095848ed-bce8-4e1c-af43-69cf262bf9bb"},"vehicle_type_id":"4","last_reported":1773405242,"current_range_meters":17200,"station_id":"ce4bh5p2rcd13ifvqe4g","pricing_plan_id":"cebpf4jnsgd1na2vs0mg"},{"bike_id":"79483cf5-647d-48ac-aac7-04b4eee60681","system_id":"levelo_inurba_marseille","lat":43.337444,"lon":5.374475,"is_reserved":false,"is_disabled":true,"rental_uris":{"android":"levelo://app?vid=79483cf5-647d-48ac-aac7-04b4eee60681","ios":"levelo://app?vid=79483cf5-647d-48ac-aac7-04b4eee60681"},"vehicle_type_id":"4","last_reported":1773405242,"current_range_meters":34000,"station_id":"","pricing_plan_id":"cebpf4jnsgd1na2vs0mg"},{"bike_id":"cedeb143-8ef5-4332-864c-2ee01e08ac10","system_id":"levelo_inurba_marseille","lat":43.2959,"lon":5.36737,"is_reserved":false,"is_disabled":false,"rental_uris":{"android":"levelo://app?vid=cedeb143-8ef5-4332-864c-2ee01e08ac10","ios":"levelo://app?vid=cedeb143-8ef5-4332-864c-2ee01e08ac10"},"vehicle_type_id":"4","last_reported":1773405242,"current_range_meters":27200,"station_id":"ce4bgph2rcd13ifvqc2g","pricing_plan_id":"cebpf4jnsgd1na2vs0mg"},{"bike_id":"f2223d48-976e-4a05-b385-8f32a53fe8f3","system_id":"levelo_inurba_marseille","lat":43.30472,"lon":5.37905,"is_reserved":false,"is_disabled":false,"rental_uris":{"android":"levelo://app?vid=f2223d48-976e-4a05-b385-8f32a53fe8f3","ios":"levelo://app?vid=f2223d48-976e-4a05-b385-8f32a53fe8f3"},"vehicle_type_id":"4","last_reported":1773405242,"current_range_meters":12800,"station_id":"ce4bgup2rcd13ifvqcn0","pricing_plan_id":"cebpf4jnsgd1na2vs0mg"},{"bike_id":"1456d7b8-e2f9-4205-9584-20f6abe58a4d","system_id":"levelo_inurba_marseille","lat":43.30074,"lon":5.43723,"is_reserved":false,"is_disabled":false,"rental_uris":{"android":"levelo://app?vid=1456d7b8-e2f9-4205-9584-20f6abe58a4d","ios":"levelo://app?vid=1456d7b8-e2f9-4205-9584-20f6abe58a4d"},"vehicle_type_id":"4","last_reported":1773405242,"current_range_meters":38400,"station_id":"","pricing_plan_id":"cebpf4jnsgd1na2vs0mg"},{"bike_id":"114e304d-e20d-4f8a-9525-1a164e809dee","system_id":"levelo_inurba_marseille","lat":43.23961,"lon":5.3663,"is_reserved":false,"is_disabled":false,"rental_uris":{"android":"levelo://app?vid=114e304d-e20d-4f8a-9525-1a164e809dee","ios":"levelo://app?vid=114e304d-e20d-4f8a-9525-1a164e809dee"},"vehicle_type_id":"4","last_reported":1773405242,"current_range_meters":28800,"station_id":"ce4bhi12rcd13ifvqfp0","pricing_plan_id":"cebpf4jnsgd1na2vs0mg"},{"bike_id":"f1371b32-07b4-4e9b-a729-77d24c7277a8","system_id":"levelo_inurba_marseille","lat":43.30542,"lon":5.36673,"is_reserved":false,"is_disabled":false,"rental_uris":{"android":"levelo://app?vid=f1371b32-07b4-4e9b-a729-77d24c7277a8","ios":"levelo://app?vid=f1371b32-07b4-4e9b-a729-77d24c7277a8"},"vehicle_type_id":"4","last_reported":1773405242,"current_range_meters":27200,"station_id":"","pricing_plan_id":"cebpf4jnsgd1na2vs0mg"},{"bike_id":"a29ef319-c201-4a0d-88b8-75666b991d70","system_id":"levelo_inurba_marseille","lat":43.30207,"lon":5.39438,"is_reserved":false,"is_disabled":false,"rental_uris":{"android":"levelo://app?vid=a29ef319-c201-4a0d-88b8-75666b991d70","ios":"levelo://app?vid=a29ef319-c201-4a0d-88b8-75666b991d70"},"vehicle_type_id":"4","last_reported":1773405242,"current_range_meters":15200,"station_id":"ce4bh0p2rcd13ifvqd70","pricing_plan_id":"cebpf4jnsgd1na2vs0mg"},{"bike_id":"b3eb5008-db77-4fa1-ad7e-4f507dde5179","system_id":"levelo_inurba_marseille","lat":43.30263,"lon":5.37036,"is_reserved":false,"is_disabled":false,"rental_uris":{"android":"levelo://app?vid=b3eb5008-db77-4fa1-ad7e-4f507dde5179","ios":"levelo://app?vid=b3eb5008-db77-4fa1-ad7e-4f507dde5179"},"vehicle_type_id":"4","last_reported":1773405242,"current_range_meters":30000,"station_id":"","pricing_plan_id":"cebpf4jnsgd1na2vs0mg"},{"bike_id":"8c4b960d-5954-4172-b115-4532186a219f","system_id":"levelo_inurba_marseille","lat":43.32115,"lon":5.36762,"is_reserved":false,"is_disabled":false,"rental_uris":{"android":"levelo://app?vid=8c4b960d-5954-4172-b115-4532186a219f","ios":"levelo://app?vid=8c4b960d-5954-4172-b115-4532186a219f"},"vehicle_type_id":"4","last_reported":1773405242,"current_range_meters":11200,"station_id":"ce4bhrh2rcd13ifvqhug","pricing_plan_id":"cebpf4jnsgd1na2vs0mg"},{"bike_id":"012bb7fa-e4d0-4138-9c92-350c5c6b2640","system_id":"levelo_inurba_marseille","lat":43.28535,"lon":5.44095,"is_reserved":false,"is_disabled":false,"rental_uris":{"android":"levelo://app?vid=012bb7fa-e4d0-4138-9c92-350c5c6b2640","ios":"levelo://app?vid=012bb7fa-e4d0-4138-9c92-350c5c6b2640"},"vehicle_type_id":"4","last_reported":1773405242,"current_range_meters":30000,"station_id":"st_d3j3df2ikq2c7380ej80","pricing_plan_id":"cebpf4jnsgd1na2vs0mg"},{"bike_id":"92e7fa8e-0d87-4739-8288-c38276f4caaa","system_id":"levelo_inurba_marseille","lat":43.29317,"lon":5.37472,"is_reserved":false,"is_disabled":false,"rental_uris":{"android":"levelo://app?vid=92e7fa8e-0d87-4739-8288-c38276f4caaa","ios":"levelo://app?vid=92e7fa8e-0d87-4739-8288-c38276f4caaa"},"vehicle_type_id":"4","last_reported":1773405242,"current_range_meters":30800,"station_id":"ce4bgi12rcd13ifvqb70","pricing_plan_id":"cebpf4jnsgd1na2vs0mg"},{"bike_id":"959cb468-adf5-492c-a8a7-a3170c99be64","system_id":"levelo_inurba_marseille","lat":43.27055,"lon":5.38304,"is_reserved":false,"is_disabled":false,"rental_uris":{"android":"levelo://app?vid=959cb468-adf5-492c-a8a7-a3170c99be64","ios":"levelo://app?vid=959cb468-adf5-492c-a8a7-a3170c99be64"},"vehicle_type_id":"4","last_reported":1773405242,"current_range_meters":14400,"station_id":"st_d3n2fo6cfp8s73cte1j0","pricing_plan_id":"cebpf4jnsgd1na2vs0mg"},{"bike_id":"aa81c80b-c2bd-4cc8-80ef-0a3ae5f06cc8","system_id":"levelo_inurba_marseille","lat":43.29534,"lon":5.39402,"is_reserved":false,"is_disabled":false,"rental_uris":{"android":"levelo://app?vid=aa81c80b-c2bd-4cc8-80ef-0a3ae5f06cc8","ios":"levelo://app?vid=aa81c80b-c2bd-4cc8-80ef-0a3ae5f06cc8"},"vehicle_type_id":"4","last_reported":1773405242,"current_range_meters":20000,"station_id":"ce4bh292rcd13ifvqdf0","pricing_plan_id":"cebpf4jnsgd1na2vs0mg"},{"bike_id":"f32212cf-6d01-43e1-9d28-c332d31396c9","system_id":"levelo_inurba_marseille","lat":43.24671,"lon":5.43359,"is_reserved":false,"is_disabled":false,"rental_uris":{"android":"levelo://app?vid=f32212cf-6d01-43e1-9d28-c332d31396c9","ios":"levelo://app?vid=f32212cf-6d01-43e1-9d28-c332d31396c9"},"vehicle_type_id":"4","last_reported":1773405242,"current_range_meters":22400,"station_id":"","pricing_plan_id":"cebpf4jnsgd1na2vs0mg"},{"bike_id":"f71b9c53-97dd-413f-a488-f091190a75c0","system_id":"levelo_inurba_marseille","lat":43.2119,"lon":5.35072,"is_reserved":false,"is_disabled":false,"rental_uris":{"android":"levelo://app?vid=f71b9c53-97dd-413f-a488-f091190a75c0","ios":"levelo://app?vid=f71b9c53-97dd-413f-a488-f091190a75c0"},"vehicle_type_id":"4","last_reported":1773405242,"current_range_meters":2800,"station_id":"st_cvj6sg6p6f1abm77japg","pricing_plan_id":"cebpf4jnsgd1na2vs0mg"},{"bike_id":"6acc6294-778e-4389-ae09-ea37b9c06714","system_id":"levelo_inurba_marseille","lat":43.29727,"lon":5.41059,"is_reserved":false,"is_disabled":false,"rental_uris":{"android":"levelo://app?vid=6acc6294-778e-4389-ae09-ea37b9c06714","ios":"levelo://app?vid=6acc6294-778e-4389-ae09-ea37b9c06714"},"vehicle_type_id":"4","last_reported":1773405242,"current_range_meters":20000,"station_id":"","pricing_plan_id":"cebpf4jnsgd1na2vs0mg"},{"bike_id":"0edeb51f-2ac2-479f-b365-f7b79f101b42","system_id":"levelo_inurba_marseille","lat":43.28541,"lon":5.44095,"is_reserved":false,"is_disabled":false,"rental_uris":{"android":"levelo://app?vid=0edeb51f-2ac2-479f-b365-f7b79f101b42","ios":"levelo://app?vid=0edeb51f-2ac2-479f-b365-f7b79f101b42"},"vehicle_type_id":"4","last_reported":1773405242,"current_range_meters":22800,"station_id":"st_d3j3df2ikq2c7380ej80","pricing_plan_id":"cebpf4jnsgd1na2vs0mg"},{"bike_id":"968e0752-94e3-4427-8693-dccfb2dc93c6","system_id":"levelo_inurba_marseille","lat":43.32339,"lon":5.38841,"is_reserved":false,"is_disabled":false,"rental_uris":{"android":"levelo://app?vid=968e0752-94e3-4427-8693-dccfb2dc93c6","ios":"levelo://app?vid=968e0752-94e3-4427-8693-dccfb2dc93c6"},"vehicle_type_id":"4","last_reported":1773405242,"current_range_meters":38800,"station_id":"ce4bhqp2rcd13ifvqhog","pricing_plan_id":"cebpf4jnsgd1na2vs0mg"},{"bike_id":"51f828e2-11c4-49f0-bea7-708c81d716b5","system_id":"levelo_inurba_marseille","lat":43.274,"lon":5.42486,"is_reserved":false,"is_disabled":false,"rental_uris":{"android":"levelo://app?vid=51f828e2-11c4-49f0-bea7-708c81d716b5","ios":"levelo://app?vid=51f828e2-11c4-49f0-bea7-708c81d716b5"},"vehicle_type_id":"4","last_reported":1773405242,"current_range_meters":14400,"station_id":"","pricing_plan_id":"cebpf4jnsgd1na2vs0mg"},{"bike_id":"f9347597-5862-4691-9f11-64caea787242","system_id":"levelo_inurba_marseille","lat":43.25922,"lon":5.40892,"is_reserved":false,"is_disabled":false,"rental_uris":{"android":"levelo://app?vid=f9347597-5862-4691-9f11-64caea787242","ios":"levelo://app?vid=f9347597-5862-4691-9f11-64caea787242"},"vehicle_type_id":"4","last_reported":1773405242,"current_range_meters":17200,"station_id":"ce4bhm92rcd13ifvqglg","pricing_plan_id":"cebpf4jnsgd1na2vs0mg"},{"bike_id":"40cdf2e8-76b5-43fa-bd2e-1a8eb6026b51","system_id":"levelo_inurba_marseille","lat":43.28979,"lon":5.42582,"is_reserved":false,"is_disabled":false,"rental_uris":{"android":"levelo://app?vid=40cdf2e8-76b5-43fa-bd2e-1a8eb6026b51","ios":"levelo://app?vid=40cdf2e8-76b5-43fa-bd2e-1a8eb6026b51"},"vehicle_type_id":"4","last_reported":1773405242,"current_range_meters":26800,"station_id":"","pricing_plan_id":"cebpf4jnsgd1na2vs0mg"},{"bike_id":"9544e79f-dfc8-48bd-9b27-e80a7dc614b1","system_id":"levelo_inurba_marseille","lat":43.2315,"lon":5.43722,"is_reserved":false,"is_disabled":false,"rental_uris":{"android":"levelo://app?vid=9544e79f-dfc8-48bd-9b27-e80a7dc614b1","ios":"levelo://app?vid=9544e79f-dfc8-48bd-9b27-e80a7dc614b1"},"vehicle_type_id":"4","last_reported":1773405242,"current_range_meters":14000,"station_id":"ce4bhmp2rcd13ifvqgog","pricing_plan_id":"cebpf4jnsgd1na2vs0mg"},{"bike_id":"5dbc8de5-1746-40c6-890f-29dadb98e0ce","system_id":"levelo_inurba_marseille","lat":43.28417,"lon":5.34986,"is_reserved":false,"is_disabled":false,"rental_uris":{"android":"levelo://app?vid=5dbc8de5-1746-40c6-890f-29dadb98e0ce","ios":"levelo://app?vid=5dbc8de5-1746-40c6-890f-29dadb98e0ce"},"vehicle_type_id":"4","last_reported":1773405242,"current_range_meters":36800,"station_id":"ce4bhbh2rcd13ifvqepg","pricing_plan_id":"cebpf4jnsgd1na2vs0mg"},{"bike_id":"c334c42b-6558-40ea-9aa2-a6d0ce2e63e9","system_id":"levelo_inurba_marseille","lat":43.32472,"lon":5.36556,"is_reserved":false,"is_disabled":false,"rental_uris":{"android":"levelo://app?vid=c334c42b-6558-40ea-9aa2-a6d0ce2e63e9","ios":"levelo://app?vid=c334c42b-6558-40ea-9aa2-a6d0ce2e63e9"},"vehicle_type_id":"4","last_reported":1773405242,"current_range_meters":31200,"station_id":"ce4bhs12rcd13ifvqhvg","pricing_plan_id":"cebpf4jnsgd1na2vs0mg"},{"bike_id":"72e16886-e6be-40d7-9db6-717ac812c857","system_id":"levelo_inurba_marseille","lat":43.30166,"lon":5.40096,"is_reserved":false,"is_disabled":true,"rental_uris":{"android":"levelo://app?vid=72e16886-e6be-40d7-9db6-717ac812c857","ios":"levelo://app?vid=72e16886-e6be-40d7-9db6-717ac812c857"},"vehicle_type_id":"4","last_reported":1773405242,"current_range_meters":18000,"station_id":"","pricing_plan_id":"cebpf4jnsgd1na2vs0mg"},{"bike_id":"2d175e7b-a19c-4126-a7aa-f1cff5b6aef9","system_id":"levelo_inurba_marseille","lat":43.2903,"lon":5.40007,"is_reserved":false,"is_disabled":false,"rental_uris":{"android":"levelo://app?vid=2d175e7b-a19c-4126-a7aa-f1cff5b6aef9","ios":"levelo://app?vid=2d175e7b-a19c-4126-a7aa-f1cff5b6aef9"},"vehicle_type_id":"4","last_reported":1773405242,"current_range_meters":6800,"station_id":"ce4bh392rcd13ifvqdm0","pricing_plan_id":"cebpf4jnsgd1na2vs0mg"},{"bike_id":"bd141d06-dfb0-44b8-a69e-36b5b5973ea6","system_id":"levelo_inurba_marseille","lat":43.27946,"lon":5.41043,"is_reserved":false,"is_disabled":false,"rental_uris":{"android":"levelo://app?vid=bd141d06-dfb0-44b8-a69e-36b5b5973ea6","ios":"levelo://app?vid=bd141d06-dfb0-44b8-a69e-36b5b5973ea6"},"vehicle_type_id":"4","last_reported":1773405242,"current_range_meters":10000,"station_id":"ce4bhnp2rcd13ifvqh0g","pricing_plan_id":"cebpf4jnsgd1na2vs0mg"},{"bike_id":"049d0339-5799-4ade-8ff8-59295e8c39c6","system_id":"levelo_inurba_marseille","lat":43.32463,"lon":5.36577,"is_reserved":false,"is_disabled":false,"rental_uris":{"android":"levelo://app?vid=049d0339-5799-4ade-8ff8-59295e8c39c6","ios":"levelo://app?vid=049d0339-5799-4ade-8ff8-59295e8c39c6"},"vehicle_type_id":"4","last_reported":1773405242,"current_range_meters":38400,"station_id":"ce4bhs12rcd13ifvqhvg","pricing_plan_id":"cebpf4jnsgd1na2vs0mg"},{"bike_id":"26408383-9831-422e-8256-b73947d0c998","system_id":"levelo_inurba_marseille","lat":43.25085,"lon":5.39526,"is_reserved":false,"is_disabled":false,"rental_uris":{"android":"levelo://app?vid=26408383-9831-422e-8256-b73947d0c998","ios":"levelo://app?vid=26408383-9831-422e-8256-b73947d0c998"},"vehicle_type_id":"4","last_reported":1773405242,"current_range_meters":30800,"station_id":"ce4bhm12rcd13ifvqgkg","pricing_plan_id":"cebpf4jnsgd1na2vs0mg"},{"bike_id":"1b76ca95-f18f-46ad-b5e2-115c03b09dc0","system_id":"levelo_inurba_marseille","lat":43.29749,"lon":5.42777,"is_reserved":false,"is_disabled":false,"rental_uris":{"android":"levelo://app?vid=1b76ca95-f18f-46ad-b5e2-115c03b09dc0","ios":"levelo://app?vid=1b76ca95-f18f-46ad-b5e2-115c03b09dc0"},"vehicle_type_id":"4","last_reported":1773405242,"current_range_meters":25600,"station_id":"st_d3md5207bmas73dh9klg","pricing_plan_id":"cebpf4jnsgd1na2vs0mg"},{"bike_id":"aa1ea814-effc-4a82-a7ce-fc6b0be25510","system_id":"levelo_inurba_marseille","lat":43.3352,"lon":5.36138,"is_reserved":false,"is_disabled":false,"rental_uris":{"android":"levelo://app?vid=aa1ea814-effc-4a82-a7ce-fc6b0be25510","ios":"levelo://app?vid=aa1ea814-effc-4a82-a7ce-fc6b0be25510"},"vehicle_type_id":"4","last_reported":1773405242,"current_range_meters":38800,"station_id":"","pricing_plan_id":"cebpf4jnsgd1na2vs0mg"},{"bike_id":"12f1fe7e-cbb0-41bd-9d1a-37589d57d213","system_id":"levelo_inurba_marseille","lat":43.24675,"lon":5.3813,"is_reserved":false,"is_disabled":false,"rental_uris":{"android":"levelo://app?vid=12f1fe7e-cbb0-41bd-9d1a-37589d57d213","ios":"levelo://app?vid=12f1fe7e-cbb0-41bd-9d1a-37589d57d213"},"vehicle_type_id":"4","last_reported":1773405242,"current_range_meters":39200,"station_id":"ce4bhih2rcd13ifvqfr0","pricing_plan_id":"cebpf4jnsgd1na2vs0mg"},{"bike_id":"6b15c594-8ec2-4784-a06b-27dbc1e6b04f","system_id":"levelo_inurba_marseille","lat":43.30554,"lon":5.3656,"is_reserved":false,"is_disabled":false,"rental_uris":{"android":"levelo://app?vid=6b15c594-8ec2-4784-a06b-27dbc1e6b04f","ios":"levelo://app?vid=6b15c594-8ec2-4784-a06b-27dbc1e6b04f"},"vehicle_type_id":"4","last_reported":1773405242,"current_range_meters":31200,"station_id":"ce4bgs12rcd13ifvqcag","pricing_plan_id":"cebpf4jnsgd1na2vs0mg"},{"bike_id":"3c89b997-6928-476b-ad7a-44561b6d47d7","system_id":"levelo_inurba_marseille","lat":43.27991,"lon":5.40018,"is_reserved":false,"is_disabled":false,"rental_uris":{"android":"levelo://app?vid=3c89b997-6928-476b-ad7a-44561b6d47d7","ios":"levelo://app?vid=3c89b997-6928-476b-ad7a-44561b6d47d7"},"vehicle_type_id":"4","last_reported":1773405242,"current_range_meters":39200,"station_id":"ce4bho92rcd13ifvqh4g","pricing_plan_id":"cebpf4jnsgd1na2vs0mg"},{"bike_id":"9bb58202-02ff-4e31-a3eb-9587f79034ad","system_id":"levelo_inurba_marseille","lat":43.2696,"lon":5.38632,"is_reserved":false,"is_disabled":true,"rental_uris":{"android":"levelo://app?vid=9bb58202-02ff-4e31-a3eb-9587f79034ad","ios":"levelo://app?vid=9bb58202-02ff-4e31-a3eb-9587f79034ad"},"vehicle_type_id":"4","last_reported":1773405242,"current_range_meters":400,"station_id":"ce4bhh92rcd13ifvqfh0","pricing_plan_id":"cebpf4jnsgd1na2vs0mg"},{"bike_id":"f75301e2-3e33-484d-ba72-8de128d9af03","system_id":"levelo_inurba_marseille","lat":43.26546,"lon":5.37307,"is_reserved":false,"is_disabled":false,"rental_uris":{"android":"levelo://app?vid=f75301e2-3e33-484d-ba72-8de128d9af03","ios":"levelo://app?vid=f75301e2-3e33-484d-ba72-8de128d9af03"},"vehicle_type_id":"4","last_reported":1773405242,"current_range_meters":27200,"station_id":"ce4bhg12rcd13ifvqf70","pricing_plan_id":"cebpf4jnsgd1na2vs0mg"},{"bike_id":"ba270377-a953-438b-b313-928ff155a63d","system_id":"levelo_inurba_marseille","lat":43.30134,"lon":5.37445,"is_reserved":false,"is_disabled":false,"rental_uris":{"android":"levelo://app?vid=ba270377-a953-438b-b313-928ff155a63d","ios":"levelo://app?vid=ba270377-a953-438b-b313-928ff155a63d"},"vehicle_type_id":"4","last_reported":1773405242,"current_range_meters":8800,"station_id":"ce4bgs92rcd13ifvqcc0","pricing_plan_id":"cebpf4jnsgd1na2vs0mg"},{"bike_id":"eb2f308c-8a12-4604-91b5-c6e7beca1962","system_id":"levelo_inurba_marseille","lat":43.25575,"lon":5.38242,"is_reserved":false,"is_disabled":false,"rental_uris":{"android":"levelo://app?vid=eb2f308c-8a12-4604-91b5-c6e7beca1962","ios":"levelo://app?vid=eb2f308c-8a12-4604-91b5-c6e7beca1962"},"vehicle_type_id":"4","last_reported":1773405242,"current_range_meters":28000,"station_id":"ce4bhih2rcd13ifvqfs0","pricing_plan_id":"cebpf4jnsgd1na2vs0mg"},{"bike_id":"9275d7e0-6f92-4728-99cc-26ef8f5159ad","system_id":"levelo_inurba_marseille","lat":43.29116,"lon":5.43276,"is_reserved":false,"is_disabled":false,"rental_uris":{"android":"levelo://app?vid=9275d7e0-6f92-4728-99cc-26ef8f5159ad","ios":"levelo://app?vid=9275d7e0-6f92-4728-99cc-26ef8f5159ad"},"vehicle_type_id":"4","last_reported":1773405242,"current_range_meters":35600,"station_id":"","pricing_plan_id":"cebpf4jnsgd1na2vs0mg"},{"bike_id":"e707f82c-b33f-4b4d-9c99-d536f08f1c5e","system_id":"levelo_inurba_marseille","lat":43.251053,"lon":5.403112,"is_reserved":false,"is_disabled":false,"rental_uris":{"android":"levelo://app?vid=e707f82c-b33f-4b4d-9c99-d536f08f1c5e","ios":"levelo://app?vid=e707f82c-b33f-4b4d-9c99-d536f08f1c5e"},"vehicle_type_id":"4","last_reported":1773405242,"current_range_meters":19600,"station_id":"ce4bhlh2rcd13ifvqgig","pricing_plan_id":"cebpf4jnsgd1na2vs0mg"},{"bike_id":"ca6172bb-1bde-4c29-82ad-418bf4e991bb","system_id":"levelo_inurba_marseille","lat":43.28162,"lon":5.42642,"is_reserved":false,"is_disabled":false,"rental_uris":{"android":"levelo://app?vid=ca6172bb-1bde-4c29-82ad-418bf4e991bb","ios":"levelo://app?vid=ca6172bb-1bde-4c29-82ad-418bf4e991bb"},"vehicle_type_id":"4","last_reported":1773405242,"current_range_meters":20400,"station_id":"ce4bhnh2rcd13ifvqgug","pricing_plan_id":"cebpf4jnsgd1na2vs0mg"},{"bike_id":"be4b33f3-f666-4b28-9e53-550c3c6e8b23","system_id":"levelo_inurba_marseille","lat":43.28475,"lon":5.48405,"is_reserved":false,"is_disabled":false,"rental_uris":{"android":"levelo://app?vid=be4b33f3-f666-4b28-9e53-550c3c6e8b23","ios":"levelo://app?vid=be4b33f3-f666-4b28-9e53-550c3c6e8b23"},"vehicle_type_id":"4","last_reported":1773405242,"current_range_meters":22800,"station_id":"","pricing_plan_id":"cebpf4jnsgd1na2vs0mg"},{"bike_id":"3bcfa95b-c38c-427c-a80a-051658b47189","system_id":"levelo_inurba_marseille","lat":43.28271,"lon":5.35097,"is_reserved":false,"is_disabled":false,"rental_uris":{"android":"levelo://app?vid=3bcfa95b-c38c-427c-a80a-051658b47189","ios":"levelo://app?vid=3bcfa95b-c38c-427c-a80a-051658b47189"},"vehicle_type_id":"4","last_reported":1773405242,"current_range_meters":28000,"station_id":"ce4bhbp2rcd13ifvqerg","pricing_plan_id":"cebpf4jnsgd1na2vs0mg"},{"bike_id":"7dcb85ea-b4ea-49f9-b21e-42a310dbf7af","system_id":"levelo_inurba_marseille","lat":43.29606,"lon":5.38075,"is_reserved":false,"is_disabled":false,"rental_uris":{"android":"levelo://app?vid=7dcb85ea-b4ea-49f9-b21e-42a310dbf7af","ios":"levelo://app?vid=7dcb85ea-b4ea-49f9-b21e-42a310dbf7af"},"vehicle_type_id":"4","last_reported":1773405242,"current_range_meters":17200,"station_id":"ce4bgl12rcd13ifvqbo0","pricing_plan_id":"cebpf4jnsgd1na2vs0mg"},{"bike_id":"7e93006e-36a2-465d-83ba-4c6c7efd21e7","system_id":"levelo_inurba_marseille","lat":43.2851,"lon":5.48384,"is_reserved":false,"is_disabled":false,"rental_uris":{"android":"levelo://app?vid=7e93006e-36a2-465d-83ba-4c6c7efd21e7","ios":"levelo://app?vid=7e93006e-36a2-465d-83ba-4c6c7efd21e7"},"vehicle_type_id":"4","last_reported":1773405242,"current_range_meters":8400,"station_id":"","pricing_plan_id":"cebpf4jnsgd1na2vs0mg"},{"bike_id":"b04cfadf-0101-4064-97b3-f973fde4e728","system_id":"levelo_inurba_marseille","lat":43.29268,"lon":5.38428,"is_reserved":false,"is_disabled":false,"rental_uris":{"android":"levelo://app?vid=b04cfadf-0101-4064-97b3-f973fde4e728","ios":"levelo://app?vid=b04cfadf-0101-4064-97b3-f973fde4e728"},"vehicle_type_id":"4","last_reported":1773405242,"current_range_meters":22000,"station_id":"ce4bh692rcd13ifvqea0","pricing_plan_id":"cebpf4jnsgd1na2vs0mg"},{"bike_id":"193cbe9d-b7d2-421e-9f76-9c8c86aebb4a","system_id":"levelo_inurba_marseille","lat":43.33541,"lon":5.37468,"is_reserved":false,"is_disabled":false,"rental_uris":{"android":"levelo://app?vid=193cbe9d-b7d2-421e-9f76-9c8c86aebb4a","ios":"levelo://app?vid=193cbe9d-b7d2-421e-9f76-9c8c86aebb4a"},"vehicle_type_id":"4","last_reported":1773405242,"current_range_meters":12800,"station_id":"st_d46tts09ee8s73dlu43g","pricing_plan_id":"cebpf4jnsgd1na2vs0mg"},{"bike_id":"9f555977-ed84-4e25-9c81-1c0c6fccc8b6","system_id":"levelo_inurba_marseille","lat":43.24359,"lon":5.44192,"is_reserved":false,"is_disabled":true,"rental_uris":{"android":"levelo://app?vid=9f555977-ed84-4e25-9c81-1c0c6fccc8b6","ios":"levelo://app?vid=9f555977-ed84-4e25-9c81-1c0c6fccc8b6"},"vehicle_type_id":"4","last_reported":1773405242,"current_range_meters":6400,"station_id":"","pricing_plan_id":"cebpf4jnsgd1na2vs0mg"},{"bike_id":"751b8d02-ece8-4e58-8456-95b73cc7814a","system_id":"levelo_inurba_marseille","lat":43.29534,"lon":5.38534,"is_reserved":false,"is_disabled":false,"rental_uris":{"android":"levelo://app?vid=751b8d02-ece8-4e58-8456-95b73cc7814a","ios":"levelo://app?vid=751b8d02-ece8-4e58-8456-95b73cc7814a"},"vehicle_type_id":"4","last_reported":1773405242,"current_range_meters":4000,"station_id":"ce4bgih2rcd13ifvqba0","pricing_plan_id":"cebpf4jnsgd1na2vs0mg"},{"bike_id":"1b90c84d-178c-43e0-9b7c-7336a3092667","system_id":"levelo_inurba_marseille","lat":43.3032,"lon":5.36886,"is_reserved":false,"is_disabled":false,"rental_uris":{"android":"levelo://app?vid=1b90c84d-178c-43e0-9b7c-7336a3092667","ios":"levelo://app?vid=1b90c84d-178c-43e0-9b7c-7336a3092667"},"vehicle_type_id":"4","last_reported":1773405242,"current_range_meters":39200,"station_id":"ce4bgqh2rcd13ifvqc5g","pricing_plan_id":"cebpf4jnsgd1na2vs0mg"},{"bike_id":"1f596c7a-7754-4133-bf66-477a7fab80f6","system_id":"levelo_inurba_marseille","lat":43.29911,"lon":5.3748,"is_reserved":false,"is_disabled":false,"rental_uris":{"android":"levelo://app?vid=1f596c7a-7754-4133-bf66-477a7fab80f6","ios":"levelo://app?vid=1f596c7a-7754-4133-bf66-477a7fab80f6"},"vehicle_type_id":"4","last_reported":1773405242,"current_range_meters":24800,"station_id":"ce4bgjh2rcd13ifvqbg0","pricing_plan_id":"cebpf4jnsgd1na2vs0mg"},{"bike_id":"35633058-1c8d-41f2-a2e3-e1101467a98c","system_id":"levelo_inurba_marseille","lat":43.2339,"lon":5.41219,"is_reserved":false,"is_disabled":false,"rental_uris":{"android":"levelo://app?vid=35633058-1c8d-41f2-a2e3-e1101467a98c","ios":"levelo://app?vid=35633058-1c8d-41f2-a2e3-e1101467a98c"},"vehicle_type_id":"4","last_reported":1773405242,"current_range_meters":12000,"station_id":"","pricing_plan_id":"cebpf4jnsgd1na2vs0mg"},{"bike_id":"e44ce07f-b4ba-4e55-8858-6faa78a5bb09","system_id":"levelo_inurba_marseille","lat":43.30146,"lon":5.38101,"is_reserved":false,"is_disabled":false,"rental_uris":{"android":"levelo://app?vid=e44ce07f-b4ba-4e55-8858-6faa78a5bb09","ios":"levelo://app?vid=e44ce07f-b4ba-4e55-8858-6faa78a5bb09"},"vehicle_type_id":"4","last_reported":1773405242,"current_range_meters":36400,"station_id":"ce4bgjp2rcd13ifvqbh0","pricing_plan_id":"cebpf4jnsgd1na2vs0mg"},{"bike_id":"fe7300c6-3844-436e-a075-e7fe4466cf11","system_id":"levelo_inurba_marseille","lat":43.23795,"lon":5.3661,"is_reserved":false,"is_disabled":false,"rental_uris":{"android":"levelo://app?vid=fe7300c6-3844-436e-a075-e7fe4466cf11","ios":"levelo://app?vid=fe7300c6-3844-436e-a075-e7fe4466cf11"},"vehicle_type_id":"4","last_reported":1773405242,"current_range_meters":39200,"station_id":"st_d3nk18o9ro0c73en2l3g","pricing_plan_id":"cebpf4jnsgd1na2vs0mg"},{"bike_id":"3115ec2c-0e1c-40e3-beba-8ab26217ce9f","system_id":"levelo_inurba_marseille","lat":43.28209,"lon":5.39069,"is_reserved":false,"is_disabled":true,"rental_uris":{"android":"levelo://app?vid=3115ec2c-0e1c-40e3-beba-8ab26217ce9f","ios":"levelo://app?vid=3115ec2c-0e1c-40e3-beba-8ab26217ce9f"},"vehicle_type_id":"4","last_reported":1773405242,"current_range_meters":36400,"station_id":"ce4bhn92rcd13ifvqgsg","pricing_plan_id":"cebpf4jnsgd1na2vs0mg"},{"bike_id":"dec7e136-8e46-49db-9f8c-f6ff1cf5ddff","system_id":"levelo_inurba_marseille","lat":43.21764,"lon":5.34588,"is_reserved":false,"is_disabled":false,"rental_uris":{"android":"levelo://app?vid=dec7e136-8e46-49db-9f8c-f6ff1cf5ddff","ios":"levelo://app?vid=dec7e136-8e46-49db-9f8c-f6ff1cf5ddff"},"vehicle_type_id":"4","last_reported":1773405242,"current_range_meters":9600,"station_id":"st_cvj6r9ubvosntc0bgbag","pricing_plan_id":"cebpf4jnsgd1na2vs0mg"},{"bike_id":"9c3f11b1-6c96-472d-acf9-a5ac4e6e8a32","system_id":"levelo_inurba_marseille","lat":43.24654,"lon":5.38885,"is_reserved":false,"is_disabled":false,"rental_uris":{"android":"levelo://app?vid=9c3f11b1-6c96-472d-acf9-a5ac4e6e8a32","ios":"levelo://app?vid=9c3f11b1-6c96-472d-acf9-a5ac4e6e8a32"},"vehicle_type_id":"4","last_reported":1773405242,"current_range_meters":36800,"station_id":"ce4bhg12rcd13ifvqf60","pricing_plan_id":"cebpf4jnsgd1na2vs0mg"},{"bike_id":"ddffd595-e4d6-4840-a075-89e0d98ad68d","system_id":"levelo_inurba_marseille","lat":43.27076,"lon":5.42277,"is_reserved":false,"is_disabled":false,"rental_uris":{"android":"levelo://app?vid=ddffd595-e4d6-4840-a075-89e0d98ad68d","ios":"levelo://app?vid=ddffd595-e4d6-4840-a075-89e0d98ad68d"},"vehicle_type_id":"4","last_reported":1773405242,"current_range_meters":10800,"station_id":"ce4bhk92rcd13ifvqgb0","pricing_plan_id":"cebpf4jnsgd1na2vs0mg"},{"bike_id":"483b51bc-13b6-4f8e-bf1c-b113cd698669","system_id":"levelo_inurba_marseille","lat":43.28269,"lon":5.35067,"is_reserved":false,"is_disabled":false,"rental_uris":{"android":"levelo://app?vid=483b51bc-13b6-4f8e-bf1c-b113cd698669","ios":"levelo://app?vid=483b51bc-13b6-4f8e-bf1c-b113cd698669"},"vehicle_type_id":"4","last_reported":1773405242,"current_range_meters":37600,"station_id":"ce4bhbp2rcd13ifvqerg","pricing_plan_id":"cebpf4jnsgd1na2vs0mg"},{"bike_id":"2b110975-45e3-40d4-9a50-c2e1af1e7476","system_id":"levelo_inurba_marseille","lat":43.34139,"lon":5.40905,"is_reserved":false,"is_disabled":false,"rental_uris":{"android":"levelo://app?vid=2b110975-45e3-40d4-9a50-c2e1af1e7476","ios":"levelo://app?vid=2b110975-45e3-40d4-9a50-c2e1af1e7476"},"vehicle_type_id":"4","last_reported":1773405242,"current_range_meters":38400,"station_id":"ce4bhqh2rcd13ifvqhlg","pricing_plan_id":"cebpf4jnsgd1na2vs0mg"},{"bike_id":"02ead4dc-b645-4d56-ad65-ea6ca89e6836","system_id":"levelo_inurba_marseille","lat":43.28177,"lon":5.42632,"is_reserved":false,"is_disabled":false,"rental_uris":{"android":"levelo://app?vid=02ead4dc-b645-4d56-ad65-ea6ca89e6836","ios":"levelo://app?vid=02ead4dc-b645-4d56-ad65-ea6ca89e6836"},"vehicle_type_id":"4","last_reported":1773405242,"current_range_meters":37600,"station_id":"ce4bhnh2rcd13ifvqgug","pricing_plan_id":"cebpf4jnsgd1na2vs0mg"},{"bike_id":"48f7318f-42c7-4aa4-b62f-fc9ed340836e","system_id":"levelo_inurba_marseille","lat":43.28163,"lon":5.42648,"is_reserved":false,"is_disabled":false,"rental_uris":{"android":"levelo://app?vid=48f7318f-42c7-4aa4-b62f-fc9ed340836e","ios":"levelo://app?vid=48f7318f-42c7-4aa4-b62f-fc9ed340836e"},"vehicle_type_id":"4","last_reported":1773405242,"current_range_meters":9600,"station_id":"ce4bhnh2rcd13ifvqgug","pricing_plan_id":"cebpf4jnsgd1na2vs0mg"},{"bike_id":"2ddab465-249a-493c-a75f-64a391d22fe1","system_id":"levelo_inurba_marseille","lat":43.30549,"lon":5.36684,"is_reserved":false,"is_disabled":false,"rental_uris":{"android":"levelo://app?vid=2ddab465-249a-493c-a75f-64a391d22fe1","ios":"levelo://app?vid=2ddab465-249a-493c-a75f-64a391d22fe1"},"vehicle_type_id":"4","last_reported":1773405242,"current_range_meters":23200,"station_id":"ce4bgrp2rcd13ifvqc9g","pricing_plan_id":"cebpf4jnsgd1na2vs0mg"},{"bike_id":"085d9f80-e450-4ad6-81b9-46074072f150","system_id":"levelo_inurba_marseille","lat":43.31411,"lon":5.3728,"is_reserved":false,"is_disabled":false,"rental_uris":{"android":"levelo://app?vid=085d9f80-e450-4ad6-81b9-46074072f150","ios":"levelo://app?vid=085d9f80-e450-4ad6-81b9-46074072f150"},"vehicle_type_id":"4","last_reported":1773405242,"current_range_meters":39200,"station_id":"ce4bgt12rcd13ifvqcd0","pricing_plan_id":"cebpf4jnsgd1na2vs0mg"},{"bike_id":"64069c02-c977-4af0-a752-efe4502ec874","system_id":"levelo_inurba_marseille","lat":43.28475,"lon":5.48396,"is_reserved":false,"is_disabled":false,"rental_uris":{"android":"levelo://app?vid=64069c02-c977-4af0-a752-efe4502ec874","ios":"levelo://app?vid=64069c02-c977-4af0-a752-efe4502ec874"},"vehicle_type_id":"4","last_reported":1773405242,"current_range_meters":11200,"station_id":"","pricing_plan_id":"cebpf4jnsgd1na2vs0mg"},{"bike_id":"d626003d-e6cf-4e92-a00c-f55cb5debf98","system_id":"levelo_inurba_marseille","lat":43.26946,"lon":5.38633,"is_reserved":false,"is_disabled":false,"rental_uris":{"android":"levelo://app?vid=d626003d-e6cf-4e92-a00c-f55cb5debf98","ios":"levelo://app?vid=d626003d-e6cf-4e92-a00c-f55cb5debf98"},"vehicle_type_id":"4","last_reported":1773405242,"current_range_meters":12000,"station_id":"ce4bhh92rcd13ifvqfh0","pricing_plan_id":"cebpf4jnsgd1na2vs0mg"},{"bike_id":"489b4cfb-fccc-4eb6-8d28-eb867a3bc809","system_id":"levelo_inurba_marseille","lat":43.29634,"lon":5.40599,"is_reserved":false,"is_disabled":false,"rental_uris":{"android":"levelo://app?vid=489b4cfb-fccc-4eb6-8d28-eb867a3bc809","ios":"levelo://app?vid=489b4cfb-fccc-4eb6-8d28-eb867a3bc809"},"vehicle_type_id":"4","last_reported":1773405242,"current_range_meters":38400,"station_id":"ce4bh0h2rcd13ifvqd60","pricing_plan_id":"cebpf4jnsgd1na2vs0mg"},{"bike_id":"5ce0c82b-cf23-4be8-80b2-299792a47b1b","system_id":"levelo_inurba_marseille","lat":43.30375,"lon":5.42483,"is_reserved":false,"is_disabled":false,"rental_uris":{"android":"levelo://app?vid=5ce0c82b-cf23-4be8-80b2-299792a47b1b","ios":"levelo://app?vid=5ce0c82b-cf23-4be8-80b2-299792a47b1b"},"vehicle_type_id":"4","last_reported":1773405242,"current_range_meters":30000,"station_id":"ce4bhoh2rcd13ifvqh6g","pricing_plan_id":"cebpf4jnsgd1na2vs0mg"},{"bike_id":"5db6e19a-4369-4327-b7e4-06c2f961c22d","system_id":"levelo_inurba_marseille","lat":43.30928,"lon":5.36837,"is_reserved":false,"is_disabled":false,"rental_uris":{"android":"levelo://app?vid=5db6e19a-4369-4327-b7e4-06c2f961c22d","ios":"levelo://app?vid=5db6e19a-4369-4327-b7e4-06c2f961c22d"},"vehicle_type_id":"4","last_reported":1773405242,"current_range_meters":39200,"station_id":"ce4bgn92rcd13ifvqbvg","pricing_plan_id":"cebpf4jnsgd1na2vs0mg"},{"bike_id":"7bf0a830-d498-457c-a030-91c3bd84fed4","system_id":"levelo_inurba_marseille","lat":43.23184,"lon":5.35542,"is_reserved":false,"is_disabled":false,"rental_uris":{"android":"levelo://app?vid=7bf0a830-d498-457c-a030-91c3bd84fed4","ios":"levelo://app?vid=7bf0a830-d498-457c-a030-91c3bd84fed4"},"vehicle_type_id":"4","last_reported":1773405242,"current_range_meters":18000,"station_id":"ce4bhu92rcd13ifvqi70","pricing_plan_id":"cebpf4jnsgd1na2vs0mg"},{"bike_id":"db5fc025-f609-443b-b481-2f6cefb137d4","system_id":"levelo_inurba_marseille","lat":43.28498,"lon":5.4836,"is_reserved":false,"is_disabled":false,"rental_uris":{"android":"levelo://app?vid=db5fc025-f609-443b-b481-2f6cefb137d4","ios":"levelo://app?vid=db5fc025-f609-443b-b481-2f6cefb137d4"},"vehicle_type_id":"4","last_reported":1773405242,"current_range_meters":33600,"station_id":"","pricing_plan_id":"cebpf4jnsgd1na2vs0mg"},{"bike_id":"3b85e9e8-4938-4ae7-a83e-c8e2526a550f","system_id":"levelo_inurba_marseille","lat":43.24165,"lon":5.36396,"is_reserved":false,"is_disabled":false,"rental_uris":{"android":"levelo://app?vid=3b85e9e8-4938-4ae7-a83e-c8e2526a550f","ios":"levelo://app?vid=3b85e9e8-4938-4ae7-a83e-c8e2526a550f"},"vehicle_type_id":"4","last_reported":1773405242,"current_range_meters":28400,"station_id":"cpo36qri1sfpv3e86is0","pricing_plan_id":"cebpf4jnsgd1na2vs0mg"},{"bike_id":"d5b94fb7-6ed2-4115-8925-47fdf09de149","system_id":"levelo_inurba_marseille","lat":43.30559,"lon":5.36655,"is_reserved":false,"is_disabled":false,"rental_uris":{"android":"levelo://app?vid=d5b94fb7-6ed2-4115-8925-47fdf09de149","ios":"levelo://app?vid=d5b94fb7-6ed2-4115-8925-47fdf09de149"},"vehicle_type_id":"4","last_reported":1773405242,"current_range_meters":39200,"station_id":"ce4bgrp2rcd13ifvqc9g","pricing_plan_id":"cebpf4jnsgd1na2vs0mg"},{"bike_id":"552db961-6ff4-4a02-9e5d-7a6056b861cd","system_id":"levelo_inurba_marseille","lat":43.30923,"lon":5.36834,"is_reserved":false,"is_disabled":false,"rental_uris":{"android":"levelo://app?vid=552db961-6ff4-4a02-9e5d-7a6056b861cd","ios":"levelo://app?vid=552db961-6ff4-4a02-9e5d-7a6056b861cd"},"vehicle_type_id":"4","last_reported":1773405242,"current_range_meters":40000,"station_id":"ce4bgn92rcd13ifvqbvg","pricing_plan_id":"cebpf4jnsgd1na2vs0mg"},{"bike_id":"9c2b5d2a-9cac-40e8-8612-2d62a5457827","system_id":"levelo_inurba_marseille","lat":43.27693,"lon":5.38919,"is_reserved":false,"is_disabled":false,"rental_uris":{"android":"levelo://app?vid=9c2b5d2a-9cac-40e8-8612-2d62a5457827","ios":"levelo://app?vid=9c2b5d2a-9cac-40e8-8612-2d62a5457827"},"vehicle_type_id":"4","last_reported":1773405242,"current_range_meters":39200,"station_id":"ce4bhi12rcd13ifvqfo0","pricing_plan_id":"cebpf4jnsgd1na2vs0mg"},{"bike_id":"ab7d9189-2568-4974-829e-49dee9a447d5","system_id":"levelo_inurba_marseille","lat":43.23209,"lon":5.35544,"is_reserved":false,"is_disabled":false,"rental_uris":{"android":"levelo://app?vid=ab7d9189-2568-4974-829e-49dee9a447d5","ios":"levelo://app?vid=ab7d9189-2568-4974-829e-49dee9a447d5"},"vehicle_type_id":"4","last_reported":1773405242,"current_range_meters":39200,"station_id":"ce4bhu92rcd13ifvqi70","pricing_plan_id":"cebpf4jnsgd1na2vs0mg"},{"bike_id":"c0c5d9dc-928d-48b1-bc04-fe5d71707694","system_id":"levelo_inurba_marseille","lat":43.32369,"lon":5.36771,"is_reserved":false,"is_disabled":false,"rental_uris":{"android":"levelo://app?vid=c0c5d9dc-928d-48b1-bc04-fe5d71707694","ios":"levelo://app?vid=c0c5d9dc-928d-48b1-bc04-fe5d71707694"},"vehicle_type_id":"4","last_reported":1773405242,"current_range_meters":39200,"station_id":"ce4bhsh2rcd13ifvqi2g","pricing_plan_id":"cebpf4jnsgd1na2vs0mg"},{"bike_id":"34067b23-0c56-4b26-b659-525005b5345f","system_id":"levelo_inurba_marseille","lat":43.21821,"lon":5.34541,"is_reserved":false,"is_disabled":false,"rental_uris":{"android":"levelo://app?vid=34067b23-0c56-4b26-b659-525005b5345f","ios":"levelo://app?vid=34067b23-0c56-4b26-b659-525005b5345f"},"vehicle_type_id":"4","last_reported":1773405242,"current_range_meters":26000,"station_id":"","pricing_plan_id":"cebpf4jnsgd1na2vs0mg"},{"bike_id":"a243ae06-bdb1-4295-b949-9b571a79a0aa","system_id":"levelo_inurba_marseille","lat":43.27814,"lon":5.40709,"is_reserved":false,"is_disabled":false,"rental_uris":{"android":"levelo://app?vid=a243ae06-bdb1-4295-b949-9b571a79a0aa","ios":"levelo://app?vid=a243ae06-bdb1-4295-b949-9b571a79a0aa"},"vehicle_type_id":"4","last_reported":1773405242,"current_range_meters":39200,"station_id":"ce4bhnh2rcd13ifvqgtg","pricing_plan_id":"cebpf4jnsgd1na2vs0mg"},{"bike_id":"91ad5159-ee4f-4775-9e76-ea40758cdb2d","system_id":"levelo_inurba_marseille","lat":43.24163,"lon":5.36389,"is_reserved":false,"is_disabled":false,"rental_uris":{"android":"levelo://app?vid=91ad5159-ee4f-4775-9e76-ea40758cdb2d","ios":"levelo://app?vid=91ad5159-ee4f-4775-9e76-ea40758cdb2d"},"vehicle_type_id":"4","last_reported":1773405242,"current_range_meters":39200,"station_id":"cpo36qri1sfpv3e86is0","pricing_plan_id":"cebpf4jnsgd1na2vs0mg"},{"bike_id":"6737ca02-2d43-49c4-a10a-3e68cea6b2e2","system_id":"levelo_inurba_marseille","lat":43.29797,"lon":5.42749,"is_reserved":false,"is_disabled":false,"rental_uris":{"android":"levelo://app?vid=6737ca02-2d43-49c4-a10a-3e68cea6b2e2","ios":"levelo://app?vid=6737ca02-2d43-49c4-a10a-3e68cea6b2e2"},"vehicle_type_id":"4","last_reported":1773405242,"current_range_meters":31200,"station_id":"st_d3md5207bmas73dh9klg","pricing_plan_id":"cebpf4jnsgd1na2vs0mg"},{"bike_id":"130bfb14-641e-4243-aedb-1640189e2b97","system_id":"levelo_inurba_marseille","lat":43.28426,"lon":5.34993,"is_reserved":false,"is_disabled":false,"rental_uris":{"android":"levelo://app?vid=130bfb14-641e-4243-aedb-1640189e2b97","ios":"levelo://app?vid=130bfb14-641e-4243-aedb-1640189e2b97"},"vehicle_type_id":"4","last_reported":1773405242,"current_range_meters":28800,"station_id":"ce4bhbh2rcd13ifvqepg","pricing_plan_id":"cebpf4jnsgd1na2vs0mg"},{"bike_id":"61d17a9a-a13c-45e9-a277-495a8d0f82a3","system_id":"levelo_inurba_marseille","lat":43.24398,"lon":5.37048,"is_reserved":false,"is_disabled":false,"rental_uris":{"android":"levelo://app?vid=61d17a9a-a13c-45e9-a277-495a8d0f82a3","ios":"levelo://app?vid=61d17a9a-a13c-45e9-a277-495a8d0f82a3"},"vehicle_type_id":"4","last_reported":1773405242,"current_range_meters":39200,"station_id":"ce4bhhh2rcd13ifvqfk0","pricing_plan_id":"cebpf4jnsgd1na2vs0mg"},{"bike_id":"ad43c0b7-4715-4748-8732-e2776b458c46","system_id":"levelo_inurba_marseille","lat":43.27813,"lon":5.40722,"is_reserved":false,"is_disabled":true,"rental_uris":{"android":"levelo://app?vid=ad43c0b7-4715-4748-8732-e2776b458c46","ios":"levelo://app?vid=ad43c0b7-4715-4748-8732-e2776b458c46"},"vehicle_type_id":"4","last_reported":1773405242,"current_range_meters":38000,"station_id":"ce4bhnh2rcd13ifvqgtg","pricing_plan_id":"cebpf4jnsgd1na2vs0mg"},{"bike_id":"4ee3bb37-ef25-4f62-968c-7108f5fd143d","system_id":"levelo_inurba_marseille","lat":43.27213,"lon":5.3919,"is_reserved":false,"is_disabled":false,"rental_uris":{"android":"levelo://app?vid=4ee3bb37-ef25-4f62-968c-7108f5fd143d","ios":"levelo://app?vid=4ee3bb37-ef25-4f62-968c-7108f5fd143d"},"vehicle_type_id":"4","last_reported":1773405242,"current_range_meters":22400,"station_id":"ce4bhhp2rcd13ifvqfm0","pricing_plan_id":"cebpf4jnsgd1na2vs0mg"},{"bike_id":"08932114-bd06-47af-9697-d23e67457989","system_id":"levelo_inurba_marseille","lat":43.31247,"lon":5.36902,"is_reserved":false,"is_disabled":false,"rental_uris":{"android":"levelo://app?vid=08932114-bd06-47af-9697-d23e67457989","ios":"levelo://app?vid=08932114-bd06-47af-9697-d23e67457989"},"vehicle_type_id":"4","last_reported":1773405242,"current_range_meters":26800,"station_id":"ce4bgl92rcd13ifvqbq0","pricing_plan_id":"cebpf4jnsgd1na2vs0mg"},{"bike_id":"3682c19e-e351-458f-a5f7-c0fe3b0b3b23","system_id":"levelo_inurba_marseille","lat":43.28407,"lon":5.34998,"is_reserved":false,"is_disabled":false,"rental_uris":{"android":"levelo://app?vid=3682c19e-e351-458f-a5f7-c0fe3b0b3b23","ios":"levelo://app?vid=3682c19e-e351-458f-a5f7-c0fe3b0b3b23"},"vehicle_type_id":"4","last_reported":1773405242,"current_range_meters":28400,"station_id":"ce4bhbh2rcd13ifvqepg","pricing_plan_id":"cebpf4jnsgd1na2vs0mg"},{"bike_id":"9769682f-7437-4429-a488-336659c4c35c","system_id":"levelo_inurba_marseille","lat":43.24168,"lon":5.39724,"is_reserved":false,"is_disabled":false,"rental_uris":{"android":"levelo://app?vid=9769682f-7437-4429-a488-336659c4c35c","ios":"levelo://app?vid=9769682f-7437-4429-a488-336659c4c35c"},"vehicle_type_id":"4","last_reported":1773405242,"current_range_meters":22400,"station_id":"ce4bhn12rcd13ifvqgpg","pricing_plan_id":"cebpf4jnsgd1na2vs0mg"},{"bike_id":"68e11dcd-1fc6-4315-b0f8-44e02470960c","system_id":"levelo_inurba_marseille","lat":43.28514,"lon":5.44106,"is_reserved":false,"is_disabled":false,"rental_uris":{"android":"levelo://app?vid=68e11dcd-1fc6-4315-b0f8-44e02470960c","ios":"levelo://app?vid=68e11dcd-1fc6-4315-b0f8-44e02470960c"},"vehicle_type_id":"4","last_reported":1773405242,"current_range_meters":35200,"station_id":"st_d3j3df2ikq2c7380ej80","pricing_plan_id":"cebpf4jnsgd1na2vs0mg"},{"bike_id":"407d14ed-b67a-41c0-aa1a-f9b6d2614cd2","system_id":"levelo_inurba_marseille","lat":43.28429,"lon":5.34972,"is_reserved":false,"is_disabled":false,"rental_uris":{"android":"levelo://app?vid=407d14ed-b67a-41c0-aa1a-f9b6d2614cd2","ios":"levelo://app?vid=407d14ed-b67a-41c0-aa1a-f9b6d2614cd2"},"vehicle_type_id":"4","last_reported":1773405242,"current_range_meters":39200,"station_id":"ce4bhbh2rcd13ifvqepg","pricing_plan_id":"cebpf4jnsgd1na2vs0mg"},{"bike_id":"32358ead-44ff-491d-882b-0c4122b7d796","system_id":"levelo_inurba_marseille","lat":43.21187,"lon":5.3508,"is_reserved":false,"is_disabled":false,"rental_uris":{"android":"levelo://app?vid=32358ead-44ff-491d-882b-0c4122b7d796","ios":"levelo://app?vid=32358ead-44ff-491d-882b-0c4122b7d796"},"vehicle_type_id":"4","last_reported":1773405242,"current_range_meters":9200,"station_id":"st_cvj6sg6p6f1abm77japg","pricing_plan_id":"cebpf4jnsgd1na2vs0mg"},{"bike_id":"e0309c42-c4a6-4550-8fcd-55c2ce8f87bf","system_id":"levelo_inurba_marseille","lat":43.3376,"lon":5.37472,"is_reserved":false,"is_disabled":false,"rental_uris":{"android":"levelo://app?vid=e0309c42-c4a6-4550-8fcd-55c2ce8f87bf","ios":"levelo://app?vid=e0309c42-c4a6-4550-8fcd-55c2ce8f87bf"},"vehicle_type_id":"4","last_reported":1773405242,"current_range_meters":34000,"station_id":"","pricing_plan_id":"cebpf4jnsgd1na2vs0mg"},{"bike_id":"88baf1fe-4b9b-4c52-81f7-dd067c921a9f","system_id":"levelo_inurba_marseille","lat":43.298,"lon":5.44084,"is_reserved":false,"is_disabled":false,"rental_uris":{"android":"levelo://app?vid=88baf1fe-4b9b-4c52-81f7-dd067c921a9f","ios":"levelo://app?vid=88baf1fe-4b9b-4c52-81f7-dd067c921a9f"},"vehicle_type_id":"4","last_reported":1773405242,"current_range_meters":17200,"station_id":"st_d3jp68qikq2c7381ktn0","pricing_plan_id":"cebpf4jnsgd1na2vs0mg"},{"bike_id":"2f414416-cb10-40e4-8635-ad7f4bf7120a","system_id":"levelo_inurba_marseille","lat":43.2657,"lon":5.37295,"is_reserved":false,"is_disabled":false,"rental_uris":{"android":"levelo://app?vid=2f414416-cb10-40e4-8635-ad7f4bf7120a","ios":"levelo://app?vid=2f414416-cb10-40e4-8635-ad7f4bf7120a"},"vehicle_type_id":"4","last_reported":1773405242,"current_range_meters":23200,"station_id":"ce4bhg12rcd13ifvqf70","pricing_plan_id":"cebpf4jnsgd1na2vs0mg"},{"bike_id":"6ba088d8-f32f-426c-89b8-2fb1d239f70d","system_id":"levelo_inurba_marseille","lat":43.30801,"lon":5.38162,"is_reserved":false,"is_disabled":false,"rental_uris":{"android":"levelo://app?vid=6ba088d8-f32f-426c-89b8-2fb1d239f70d","ios":"levelo://app?vid=6ba088d8-f32f-426c-89b8-2fb1d239f70d"},"vehicle_type_id":"4","last_reported":1773405242,"current_range_meters":12400,"station_id":"ce4bgt12rcd13ifvqce0","pricing_plan_id":"cebpf4jnsgd1na2vs0mg"},{"bike_id":"ebb39f18-503d-4328-a195-9c9cc1ad8abd","system_id":"levelo_inurba_marseille","lat":43.24802,"lon":5.37446,"is_reserved":false,"is_disabled":true,"rental_uris":{"android":"levelo://app?vid=ebb39f18-503d-4328-a195-9c9cc1ad8abd","ios":"levelo://app?vid=ebb39f18-503d-4328-a195-9c9cc1ad8abd"},"vehicle_type_id":"4","last_reported":1773405242,"current_range_meters":39200,"station_id":"ce4bhgh2rcd13ifvqfb0","pricing_plan_id":"cebpf4jnsgd1na2vs0mg"},{"bike_id":"362da367-9249-43e0-bcb1-56d1a88e4326","system_id":"levelo_inurba_marseille","lat":43.3045,"lon":5.38912,"is_reserved":false,"is_disabled":false,"rental_uris":{"android":"levelo://app?vid=362da367-9249-43e0-bcb1-56d1a88e4326","ios":"levelo://app?vid=362da367-9249-43e0-bcb1-56d1a88e4326"},"vehicle_type_id":"4","last_reported":1773405242,"current_range_meters":13600,"station_id":"ce4bgk12rcd13ifvqbi0","pricing_plan_id":"cebpf4jnsgd1na2vs0mg"},{"bike_id":"5ac94716-44b8-4ae4-8f63-01aed3be190f","system_id":"levelo_inurba_marseille","lat":43.23956,"lon":5.36628,"is_reserved":false,"is_disabled":false,"rental_uris":{"android":"levelo://app?vid=5ac94716-44b8-4ae4-8f63-01aed3be190f","ios":"levelo://app?vid=5ac94716-44b8-4ae4-8f63-01aed3be190f"},"vehicle_type_id":"4","last_reported":1773405242,"current_range_meters":14400,"station_id":"ce4bhi12rcd13ifvqfp0","pricing_plan_id":"cebpf4jnsgd1na2vs0mg"},{"bike_id":"cbf3c1c8-949f-47c5-8ffa-840c4c8920af","system_id":"levelo_inurba_marseille","lat":43.31337,"lon":5.3673,"is_reserved":false,"is_disabled":false,"rental_uris":{"android":"levelo://app?vid=cbf3c1c8-949f-47c5-8ffa-840c4c8920af","ios":"levelo://app?vid=cbf3c1c8-949f-47c5-8ffa-840c4c8920af"},"vehicle_type_id":"4","last_reported":1773405242,"current_range_meters":36800,"station_id":"ce4bgr92rcd13ifvqc6g","pricing_plan_id":"cebpf4jnsgd1na2vs0mg"},{"bike_id":"b9f80436-b025-4780-b392-7d89975f7b62","system_id":"levelo_inurba_marseille","lat":43.27397,"lon":5.42483,"is_reserved":false,"is_disabled":false,"rental_uris":{"android":"levelo://app?vid=b9f80436-b025-4780-b392-7d89975f7b62","ios":"levelo://app?vid=b9f80436-b025-4780-b392-7d89975f7b62"},"vehicle_type_id":"4","last_reported":1773405242,"current_range_meters":26800,"station_id":"","pricing_plan_id":"cebpf4jnsgd1na2vs0mg"},{"bike_id":"d008a3ca-bdab-43f7-957e-465391a2d48d","system_id":"levelo_inurba_marseille","lat":43.31728,"lon":5.424,"is_reserved":false,"is_disabled":false,"rental_uris":{"android":"levelo://app?vid=d008a3ca-bdab-43f7-957e-465391a2d48d","ios":"levelo://app?vid=d008a3ca-bdab-43f7-957e-465391a2d48d"},"vehicle_type_id":"4","last_reported":1773405242,"current_range_meters":35200,"station_id":"ce4bhp92rcd13ifvqhbg","pricing_plan_id":"cebpf4jnsgd1na2vs0mg"},{"bike_id":"2b0d9dd8-4b55-476e-8fc1-bb5977a5c4c4","system_id":"levelo_inurba_marseille","lat":43.2397,"lon":5.36616,"is_reserved":false,"is_disabled":false,"rental_uris":{"android":"levelo://app?vid=2b0d9dd8-4b55-476e-8fc1-bb5977a5c4c4","ios":"levelo://app?vid=2b0d9dd8-4b55-476e-8fc1-bb5977a5c4c4"},"vehicle_type_id":"4","last_reported":1773405242,"current_range_meters":12800,"station_id":"ce4bhi12rcd13ifvqfp0","pricing_plan_id":"cebpf4jnsgd1na2vs0mg"},{"bike_id":"061e265a-0602-40cd-8c80-4693d8e8b09f","system_id":"levelo_inurba_marseille","lat":43.2737,"lon":5.36261,"is_reserved":false,"is_disabled":false,"rental_uris":{"android":"levelo://app?vid=061e265a-0602-40cd-8c80-4693d8e8b09f","ios":"levelo://app?vid=061e265a-0602-40cd-8c80-4693d8e8b09f"},"vehicle_type_id":"4","last_reported":1773405242,"current_range_meters":26000,"station_id":"ce4bhbh2rcd13ifvqeo0","pricing_plan_id":"cebpf4jnsgd1na2vs0mg"},{"bike_id":"dcb0840a-ba2e-4ecd-8773-e16e362f2d1c","system_id":"levelo_inurba_marseille","lat":43.27568,"lon":5.38427,"is_reserved":false,"is_disabled":false,"rental_uris":{"android":"levelo://app?vid=dcb0840a-ba2e-4ecd-8773-e16e362f2d1c","ios":"levelo://app?vid=dcb0840a-ba2e-4ecd-8773-e16e362f2d1c"},"vehicle_type_id":"4","last_reported":1773405242,"current_range_meters":40000,"station_id":"ce4bhh92rcd13ifvqfi0","pricing_plan_id":"cebpf4jnsgd1na2vs0mg"},{"bike_id":"1682d056-fdab-4527-af67-8d06aa137368","system_id":"levelo_inurba_marseille","lat":43.23383,"lon":5.41253,"is_reserved":false,"is_disabled":false,"rental_uris":{"android":"levelo://app?vid=1682d056-fdab-4527-af67-8d06aa137368","ios":"levelo://app?vid=1682d056-fdab-4527-af67-8d06aa137368"},"vehicle_type_id":"4","last_reported":1773405242,"current_range_meters":26000,"station_id":"","pricing_plan_id":"cebpf4jnsgd1na2vs0mg"},{"bike_id":"d6020f80-4f12-4b16-9868-71a9b4fcf4bf","system_id":"levelo_inurba_marseille","lat":43.30469,"lon":5.37903,"is_reserved":false,"is_disabled":false,"rental_uris":{"android":"levelo://app?vid=d6020f80-4f12-4b16-9868-71a9b4fcf4bf","ios":"levelo://app?vid=d6020f80-4f12-4b16-9868-71a9b4fcf4bf"},"vehicle_type_id":"4","last_reported":1773405242,"current_range_meters":38400,"station_id":"ce4bgup2rcd13ifvqcn0","pricing_plan_id":"cebpf4jnsgd1na2vs0mg"},{"bike_id":"a8033546-9a3d-47da-b853-6a9f3a7b7ba4","system_id":"levelo_inurba_marseille","lat":43.31369,"lon":5.38507,"is_reserved":false,"is_disabled":false,"rental_uris":{"android":"levelo://app?vid=a8033546-9a3d-47da-b853-6a9f3a7b7ba4","ios":"levelo://app?vid=a8033546-9a3d-47da-b853-6a9f3a7b7ba4"},"vehicle_type_id":"4","last_reported":1773405242,"current_range_meters":11600,"station_id":"ce4bgt92rcd13ifvqcf0","pricing_plan_id":"cebpf4jnsgd1na2vs0mg"},{"bike_id":"77104936-f36f-4a1c-b5f6-9be1e7ca6ed3","system_id":"levelo_inurba_marseille","lat":43.33498,"lon":5.37468,"is_reserved":false,"is_disabled":false,"rental_uris":{"android":"levelo://app?vid=77104936-f36f-4a1c-b5f6-9be1e7ca6ed3","ios":"levelo://app?vid=77104936-f36f-4a1c-b5f6-9be1e7ca6ed3"},"vehicle_type_id":"4","last_reported":1773405242,"current_range_meters":29600,"station_id":"","pricing_plan_id":"cebpf4jnsgd1na2vs0mg"},{"bike_id":"18a0fb9e-e224-426e-8d68-1c285ec71ac8","system_id":"levelo_inurba_marseille","lat":43.29257,"lon":5.38427,"is_reserved":false,"is_disabled":true,"rental_uris":{"android":"levelo://app?vid=18a0fb9e-e224-426e-8d68-1c285ec71ac8","ios":"levelo://app?vid=18a0fb9e-e224-426e-8d68-1c285ec71ac8"},"vehicle_type_id":"4","last_reported":1773405242,"current_range_meters":27600,"station_id":"ce4bh692rcd13ifvqea0","pricing_plan_id":"cebpf4jnsgd1na2vs0mg"},{"bike_id":"dd9d0c71-7df6-4dbc-b282-7a633630fe60","system_id":"levelo_inurba_marseille","lat":43.2481,"lon":5.37458,"is_reserved":false,"is_disabled":false,"rental_uris":{"android":"levelo://app?vid=dd9d0c71-7df6-4dbc-b282-7a633630fe60","ios":"levelo://app?vid=dd9d0c71-7df6-4dbc-b282-7a633630fe60"},"vehicle_type_id":"4","last_reported":1773405242,"current_range_meters":38800,"station_id":"ce4bhgh2rcd13ifvqfb0","pricing_plan_id":"cebpf4jnsgd1na2vs0mg"},{"bike_id":"ea304849-fd51-4961-bfc0-efabcbe3b6ad","system_id":"levelo_inurba_marseille","lat":43.23387,"lon":5.41239,"is_reserved":false,"is_disabled":false,"rental_uris":{"android":"levelo://app?vid=ea304849-fd51-4961-bfc0-efabcbe3b6ad","ios":"levelo://app?vid=ea304849-fd51-4961-bfc0-efabcbe3b6ad"},"vehicle_type_id":"4","last_reported":1773405242,"current_range_meters":20000,"station_id":"","pricing_plan_id":"cebpf4jnsgd1na2vs0mg"},{"bike_id":"c514af3d-99f3-462a-a5ff-b0c3a231404d","system_id":"levelo_inurba_marseille","lat":43.31443,"lon":5.36692,"is_reserved":false,"is_disabled":false,"rental_uris":{"android":"levelo://app?vid=c514af3d-99f3-462a-a5ff-b0c3a231404d","ios":"levelo://app?vid=c514af3d-99f3-462a-a5ff-b0c3a231404d"},"vehicle_type_id":"4","last_reported":1773405242,"current_range_meters":36400,"station_id":"","pricing_plan_id":"cebpf4jnsgd1na2vs0mg"},{"bike_id":"4b3f1641-369b-4608-a709-2ae69ef016b2","system_id":"levelo_inurba_marseille","lat":43.31994,"lon":5.38145,"is_reserved":false,"is_disabled":false,"rental_uris":{"android":"levelo://app?vid=4b3f1641-369b-4608-a709-2ae69ef016b2","ios":"levelo://app?vid=4b3f1641-369b-4608-a709-2ae69ef016b2"},"vehicle_type_id":"4","last_reported":1773405242,"current_range_meters":38800,"station_id":"ce4bhr12rcd13ifvqhpg","pricing_plan_id":"cebpf4jnsgd1na2vs0mg"},{"bike_id":"52c0e189-e831-4c3c-a72a-ee2208e9bced","system_id":"levelo_inurba_marseille","lat":43.33141,"lon":5.37688,"is_reserved":false,"is_disabled":false,"rental_uris":{"android":"levelo://app?vid=52c0e189-e831-4c3c-a72a-ee2208e9bced","ios":"levelo://app?vid=52c0e189-e831-4c3c-a72a-ee2208e9bced"},"vehicle_type_id":"4","last_reported":1773405242,"current_range_meters":32800,"station_id":"st_d46cu089ee8s73dldbu0","pricing_plan_id":"cebpf4jnsgd1na2vs0mg"},{"bike_id":"8617b24d-bdd2-49e3-beda-5d74fc474252","system_id":"levelo_inurba_marseille","lat":43.2847,"lon":5.48402,"is_reserved":false,"is_disabled":false,"rental_uris":{"android":"levelo://app?vid=8617b24d-bdd2-49e3-beda-5d74fc474252","ios":"levelo://app?vid=8617b24d-bdd2-49e3-beda-5d74fc474252"},"vehicle_type_id":"4","last_reported":1773405242,"current_range_meters":30000,"station_id":"","pricing_plan_id":"cebpf4jnsgd1na2vs0mg"},{"bike_id":"fa2bba8a-18e3-4b70-aead-eb8340ccd9cb","system_id":"levelo_inurba_marseille","lat":43.23386,"lon":5.41249,"is_reserved":false,"is_disabled":false,"rental_uris":{"android":"levelo://app?vid=fa2bba8a-18e3-4b70-aead-eb8340ccd9cb","ios":"levelo://app?vid=fa2bba8a-18e3-4b70-aead-eb8340ccd9cb"},"vehicle_type_id":"4","last_reported":1773405242,"current_range_meters":28000,"station_id":"","pricing_plan_id":"cebpf4jnsgd1na2vs0mg"},{"bike_id":"2c4b9baa-150c-43c0-9983-79477495e674","system_id":"levelo_inurba_marseille","lat":43.3302,"lon":5.39034,"is_reserved":false,"is_disabled":false,"rental_uris":{"android":"levelo://app?vid=2c4b9baa-150c-43c0-9983-79477495e674","ios":"levelo://app?vid=2c4b9baa-150c-43c0-9983-79477495e674"},"vehicle_type_id":"4","last_reported":1773405242,"current_range_meters":7200,"station_id":"ce4bhr92rcd13ifvqhrg","pricing_plan_id":"cebpf4jnsgd1na2vs0mg"},{"bike_id":"09539f8e-6768-469b-976e-6f474e67ef9e","system_id":"levelo_inurba_marseille","lat":43.27994,"lon":5.41669,"is_reserved":false,"is_disabled":false,"rental_uris":{"android":"levelo://app?vid=09539f8e-6768-469b-976e-6f474e67ef9e","ios":"levelo://app?vid=09539f8e-6768-469b-976e-6f474e67ef9e"},"vehicle_type_id":"4","last_reported":1773405242,"current_range_meters":34800,"station_id":"","pricing_plan_id":"cebpf4jnsgd1na2vs0mg"},{"bike_id":"5513dccf-31e4-4825-b6d2-d5fbbde55b2d","system_id":"levelo_inurba_marseille","lat":43.27188,"lon":5.40963,"is_reserved":false,"is_disabled":true,"rental_uris":{"android":"levelo://app?vid=5513dccf-31e4-4825-b6d2-d5fbbde55b2d","ios":"levelo://app?vid=5513dccf-31e4-4825-b6d2-d5fbbde55b2d"},"vehicle_type_id":"4","last_reported":1773405242,"current_range_meters":1200,"station_id":"ce4bhl12rcd13ifvqgf0","pricing_plan_id":"cebpf4jnsgd1na2vs0mg"},{"bike_id":"4490770a-a7b3-4eb0-8520-3f226aa4ca1e","system_id":"levelo_inurba_marseille","lat":43.2557,"lon":5.38237,"is_reserved":false,"is_disabled":false,"rental_uris":{"android":"levelo://app?vid=4490770a-a7b3-4eb0-8520-3f226aa4ca1e","ios":"levelo://app?vid=4490770a-a7b3-4eb0-8520-3f226aa4ca1e"},"vehicle_type_id":"4","last_reported":1773405242,"current_range_meters":39200,"station_id":"ce4bhih2rcd13ifvqfs0","pricing_plan_id":"cebpf4jnsgd1na2vs0mg"},{"bike_id":"e0f4c726-c891-4b59-a727-5f7bf2fb4325","system_id":"levelo_inurba_marseille","lat":43.28538,"lon":5.44087,"is_reserved":false,"is_disabled":false,"rental_uris":{"android":"levelo://app?vid=e0f4c726-c891-4b59-a727-5f7bf2fb4325","ios":"levelo://app?vid=e0f4c726-c891-4b59-a727-5f7bf2fb4325"},"vehicle_type_id":"4","last_reported":1773405242,"current_range_meters":4000,"station_id":"st_d3j3df2ikq2c7380ej80","pricing_plan_id":"cebpf4jnsgd1na2vs0mg"},{"bike_id":"fea054e9-9687-462f-a721-42a34c23bbef","system_id":"levelo_inurba_marseille","lat":43.24672,"lon":5.3818,"is_reserved":false,"is_disabled":false,"rental_uris":{"android":"levelo://app?vid=fea054e9-9687-462f-a721-42a34c23bbef","ios":"levelo://app?vid=fea054e9-9687-462f-a721-42a34c23bbef"},"vehicle_type_id":"4","last_reported":1773405242,"current_range_meters":12400,"station_id":"ce4bhih2rcd13ifvqfr0","pricing_plan_id":"cebpf4jnsgd1na2vs0mg"},{"bike_id":"3d4208c2-815f-40bf-8bb0-f78b87ee07d6","system_id":"levelo_inurba_marseille","lat":43.28431,"lon":5.34996,"is_reserved":false,"is_disabled":false,"rental_uris":{"android":"levelo://app?vid=3d4208c2-815f-40bf-8bb0-f78b87ee07d6","ios":"levelo://app?vid=3d4208c2-815f-40bf-8bb0-f78b87ee07d6"},"vehicle_type_id":"4","last_reported":1773405242,"current_range_meters":39200,"station_id":"ce4bhbh2rcd13ifvqepg","pricing_plan_id":"cebpf4jnsgd1na2vs0mg"},{"bike_id":"f516d8f7-b497-4c5a-a65d-b7f43298643e","system_id":"levelo_inurba_marseille","lat":43.27623,"lon":5.3608,"is_reserved":false,"is_disabled":false,"rental_uris":{"android":"levelo://app?vid=f516d8f7-b497-4c5a-a65d-b7f43298643e","ios":"levelo://app?vid=f516d8f7-b497-4c5a-a65d-b7f43298643e"},"vehicle_type_id":"4","last_reported":1773405242,"current_range_meters":38000,"station_id":"ce4bgj92rcd13ifvqbe0","pricing_plan_id":"cebpf4jnsgd1na2vs0mg"},{"bike_id":"d426769e-fc06-4cc6-bb93-a6865a6e2cd0","system_id":"levelo_inurba_marseille","lat":43.29025,"lon":5.38151,"is_reserved":false,"is_disabled":false,"rental_uris":{"android":"levelo://app?vid=d426769e-fc06-4cc6-bb93-a6865a6e2cd0","ios":"levelo://app?vid=d426769e-fc06-4cc6-bb93-a6865a6e2cd0"},"vehicle_type_id":"4","last_reported":1773405242,"current_range_meters":32400,"station_id":"ce4bh4p2rcd13ifvqe1g","pricing_plan_id":"cebpf4jnsgd1na2vs0mg"},{"bike_id":"71376751-50c0-4786-9b20-61b1a18a75fc","system_id":"levelo_inurba_marseille","lat":43.27217,"lon":5.39185,"is_reserved":false,"is_disabled":false,"rental_uris":{"android":"levelo://app?vid=71376751-50c0-4786-9b20-61b1a18a75fc","ios":"levelo://app?vid=71376751-50c0-4786-9b20-61b1a18a75fc"},"vehicle_type_id":"4","last_reported":1773405242,"current_range_meters":12800,"station_id":"ce4bhhp2rcd13ifvqfm0","pricing_plan_id":"cebpf4jnsgd1na2vs0mg"},{"bike_id":"7c562c0f-e462-4dbb-aac8-440fd40d84a6","system_id":"levelo_inurba_marseille","lat":43.28397,"lon":5.34986,"is_reserved":false,"is_disabled":false,"rental_uris":{"android":"levelo://app?vid=7c562c0f-e462-4dbb-aac8-440fd40d84a6","ios":"levelo://app?vid=7c562c0f-e462-4dbb-aac8-440fd40d84a6"},"vehicle_type_id":"4","last_reported":1773405242,"current_range_meters":22000,"station_id":"ce4bhbh2rcd13ifvqepg","pricing_plan_id":"cebpf4jnsgd1na2vs0mg"},{"bike_id":"04d16ef4-39d1-4e51-b75d-bfa218adb8ad","system_id":"levelo_inurba_marseille","lat":43.30895,"lon":5.37329,"is_reserved":false,"is_disabled":false,"rental_uris":{"android":"levelo://app?vid=04d16ef4-39d1-4e51-b75d-bfa218adb8ad","ios":"levelo://app?vid=04d16ef4-39d1-4e51-b75d-bfa218adb8ad"},"vehicle_type_id":"4","last_reported":1773405242,"current_range_meters":24800,"station_id":"","pricing_plan_id":"cebpf4jnsgd1na2vs0mg"},{"bike_id":"9d43b42a-012f-43de-98ae-d91071cf4b98","system_id":"levelo_inurba_marseille","lat":43.29351,"lon":5.37837,"is_reserved":false,"is_disabled":true,"rental_uris":{"android":"levelo://app?vid=9d43b42a-012f-43de-98ae-d91071cf4b98","ios":"levelo://app?vid=9d43b42a-012f-43de-98ae-d91071cf4b98"},"vehicle_type_id":"4","last_reported":1773405242,"current_range_meters":1600,"station_id":"ce4bgjh2rcd13ifvqbf0","pricing_plan_id":"cebpf4jnsgd1na2vs0mg"},{"bike_id":"08ec0bd7-db6c-4004-87ba-401b19a3211e","system_id":"levelo_inurba_marseille","lat":43.26557,"lon":5.39033,"is_reserved":false,"is_disabled":false,"rental_uris":{"android":"levelo://app?vid=08ec0bd7-db6c-4004-87ba-401b19a3211e","ios":"levelo://app?vid=08ec0bd7-db6c-4004-87ba-401b19a3211e"},"vehicle_type_id":"4","last_reported":1773405242,"current_range_meters":17200,"station_id":"ce4bhe12rcd13ifvqf30","pricing_plan_id":"cebpf4jnsgd1na2vs0mg"},{"bike_id":"4cf4f64e-772e-4006-afb1-782e77cd10a2","system_id":"levelo_inurba_marseille","lat":43.28075,"lon":5.39652,"is_reserved":false,"is_disabled":false,"rental_uris":{"android":"levelo://app?vid=4cf4f64e-772e-4006-afb1-782e77cd10a2","ios":"levelo://app?vid=4cf4f64e-772e-4006-afb1-782e77cd10a2"},"vehicle_type_id":"4","last_reported":1773405242,"current_range_meters":30000,"station_id":"ce4bho12rcd13ifvqh2g","pricing_plan_id":"cebpf4jnsgd1na2vs0mg"},{"bike_id":"5a390fd0-1a67-4363-9778-5fe8c3144f22","system_id":"levelo_inurba_marseille","lat":43.30376,"lon":5.42492,"is_reserved":false,"is_disabled":false,"rental_uris":{"android":"levelo://app?vid=5a390fd0-1a67-4363-9778-5fe8c3144f22","ios":"levelo://app?vid=5a390fd0-1a67-4363-9778-5fe8c3144f22"},"vehicle_type_id":"4","last_reported":1773405242,"current_range_meters":28800,"station_id":"ce4bhoh2rcd13ifvqh6g","pricing_plan_id":"cebpf4jnsgd1na2vs0mg"},{"bike_id":"5994a454-cbd2-4473-a5fc-d8b0c5f304ee","system_id":"levelo_inurba_marseille","lat":43.29754,"lon":5.37648,"is_reserved":false,"is_disabled":false,"rental_uris":{"android":"levelo://app?vid=5994a454-cbd2-4473-a5fc-d8b0c5f304ee","ios":"levelo://app?vid=5994a454-cbd2-4473-a5fc-d8b0c5f304ee"},"vehicle_type_id":"4","last_reported":1773405242,"current_range_meters":36800,"station_id":"","pricing_plan_id":"cebpf4jnsgd1na2vs0mg"},{"bike_id":"deefd341-27ef-4648-a8c7-7dfc876c3d2a","system_id":"levelo_inurba_marseille","lat":43.29298,"lon":5.37419,"is_reserved":false,"is_disabled":false,"rental_uris":{"android":"levelo://app?vid=deefd341-27ef-4648-a8c7-7dfc876c3d2a","ios":"levelo://app?vid=deefd341-27ef-4648-a8c7-7dfc876c3d2a"},"vehicle_type_id":"4","last_reported":1773405242,"current_range_meters":39200,"station_id":"ce4bgi12rcd13ifvqb70","pricing_plan_id":"cebpf4jnsgd1na2vs0mg"},{"bike_id":"ef20f139-5308-449a-a8f1-979163f50765","system_id":"levelo_inurba_marseille","lat":43.23143,"lon":5.43715,"is_reserved":false,"is_disabled":false,"rental_uris":{"android":"levelo://app?vid=ef20f139-5308-449a-a8f1-979163f50765","ios":"levelo://app?vid=ef20f139-5308-449a-a8f1-979163f50765"},"vehicle_type_id":"4","last_reported":1773405242,"current_range_meters":12000,"station_id":"ce4bhmp2rcd13ifvqgog","pricing_plan_id":"cebpf4jnsgd1na2vs0mg"},{"bike_id":"2012b6f8-1772-4917-8809-87ccf08757c2","system_id":"levelo_inurba_marseille","lat":43.27418,"lon":5.39442,"is_reserved":false,"is_disabled":false,"rental_uris":{"android":"levelo://app?vid=2012b6f8-1772-4917-8809-87ccf08757c2","ios":"levelo://app?vid=2012b6f8-1772-4917-8809-87ccf08757c2"},"vehicle_type_id":"4","last_reported":1773405242,"current_range_meters":27200,"station_id":"ce4bhdp2rcd13ifvqf20","pricing_plan_id":"cebpf4jnsgd1na2vs0mg"},{"bike_id":"26cd541b-8bb9-44ab-a573-fc5d08927001","system_id":"levelo_inurba_marseille","lat":43.30466,"lon":5.37907,"is_reserved":false,"is_disabled":false,"rental_uris":{"android":"levelo://app?vid=26cd541b-8bb9-44ab-a573-fc5d08927001","ios":"levelo://app?vid=26cd541b-8bb9-44ab-a573-fc5d08927001"},"vehicle_type_id":"4","last_reported":1773405242,"current_range_meters":28000,"station_id":"ce4bgup2rcd13ifvqcn0","pricing_plan_id":"cebpf4jnsgd1na2vs0mg"},{"bike_id":"25646a06-8d7d-4ddc-89bc-d59a9e664009","system_id":"levelo_inurba_marseille","lat":43.27218,"lon":5.39167,"is_reserved":false,"is_disabled":false,"rental_uris":{"android":"levelo://app?vid=25646a06-8d7d-4ddc-89bc-d59a9e664009","ios":"levelo://app?vid=25646a06-8d7d-4ddc-89bc-d59a9e664009"},"vehicle_type_id":"4","last_reported":1773405242,"current_range_meters":28000,"station_id":"ce4bhhp2rcd13ifvqfm0","pricing_plan_id":"cebpf4jnsgd1na2vs0mg"},{"bike_id":"2f9faa93-3e56-45df-8d6f-fa01bcc5242d","system_id":"levelo_inurba_marseille","lat":43.28275,"lon":5.35083,"is_reserved":false,"is_disabled":false,"rental_uris":{"android":"levelo://app?vid=2f9faa93-3e56-45df-8d6f-fa01bcc5242d","ios":"levelo://app?vid=2f9faa93-3e56-45df-8d6f-fa01bcc5242d"},"vehicle_type_id":"4","last_reported":1773405242,"current_range_meters":14400,"station_id":"ce4bhbp2rcd13ifvqerg","pricing_plan_id":"cebpf4jnsgd1na2vs0mg"},{"bike_id":"37c368cf-eff3-4518-ab3e-c75f5ff1553c","system_id":"levelo_inurba_marseille","lat":43.28607,"lon":5.37065,"is_reserved":false,"is_disabled":false,"rental_uris":{"android":"levelo://app?vid=37c368cf-eff3-4518-ab3e-c75f5ff1553c","ios":"levelo://app?vid=37c368cf-eff3-4518-ab3e-c75f5ff1553c"},"vehicle_type_id":"4","last_reported":1773405242,"current_range_meters":25200,"station_id":"ce4bht12rcd13ifvqi60","pricing_plan_id":"cebpf4jnsgd1na2vs0mg"},{"bike_id":"d8fc3bc2-055e-4373-a327-9f6c6391bd96","system_id":"levelo_inurba_marseille","lat":43.290716,"lon":5.381461,"is_reserved":false,"is_disabled":false,"rental_uris":{"android":"levelo://app?vid=d8fc3bc2-055e-4373-a327-9f6c6391bd96","ios":"levelo://app?vid=d8fc3bc2-055e-4373-a327-9f6c6391bd96"},"vehicle_type_id":"4","last_reported":1773405242,"current_range_meters":33600,"station_id":"","pricing_plan_id":"cebpf4jnsgd1na2vs0mg"},{"bike_id":"44dfed98-27bd-4ce6-929e-1df9238c73b6","system_id":"levelo_inurba_marseille","lat":43.265487,"lon":5.372984,"is_reserved":false,"is_disabled":false,"rental_uris":{"android":"levelo://app?vid=44dfed98-27bd-4ce6-929e-1df9238c73b6","ios":"levelo://app?vid=44dfed98-27bd-4ce6-929e-1df9238c73b6"},"vehicle_type_id":"4","last_reported":1773405242,"current_range_meters":17200,"station_id":"ce4bhg12rcd13ifvqf70","pricing_plan_id":"cebpf4jnsgd1na2vs0mg"},{"bike_id":"6840f6df-3461-42c8-98d7-357f6584e26f","system_id":"levelo_inurba_marseille","lat":43.27382,"lon":5.36252,"is_reserved":false,"is_disabled":false,"rental_uris":{"android":"levelo://app?vid=6840f6df-3461-42c8-98d7-357f6584e26f","ios":"levelo://app?vid=6840f6df-3461-42c8-98d7-357f6584e26f"},"vehicle_type_id":"4","last_reported":1773405242,"current_range_meters":38400,"station_id":"ce4bhbh2rcd13ifvqeo0","pricing_plan_id":"cebpf4jnsgd1na2vs0mg"},{"bike_id":"824fb975-1c56-48f8-a19c-aeedaf1c3bdb","system_id":"levelo_inurba_marseille","lat":43.23139,"lon":5.43706,"is_reserved":false,"is_disabled":false,"rental_uris":{"android":"levelo://app?vid=824fb975-1c56-48f8-a19c-aeedaf1c3bdb","ios":"levelo://app?vid=824fb975-1c56-48f8-a19c-aeedaf1c3bdb"},"vehicle_type_id":"4","last_reported":1773405242,"current_range_meters":19600,"station_id":"ce4bhmp2rcd13ifvqgog","pricing_plan_id":"cebpf4jnsgd1na2vs0mg"},{"bike_id":"33f37743-2ed8-4a0e-a99b-593c4a6534ea","system_id":"levelo_inurba_marseille","lat":43.2119,"lon":5.35078,"is_reserved":false,"is_disabled":false,"rental_uris":{"android":"levelo://app?vid=33f37743-2ed8-4a0e-a99b-593c4a6534ea","ios":"levelo://app?vid=33f37743-2ed8-4a0e-a99b-593c4a6534ea"},"vehicle_type_id":"4","last_reported":1773405242,"current_range_meters":7200,"station_id":"st_cvj6sg6p6f1abm77japg","pricing_plan_id":"cebpf4jnsgd1na2vs0mg"},{"bike_id":"49b0cc57-34ac-456b-b792-d808ba73f181","system_id":"levelo_inurba_marseille","lat":43.28462,"lon":5.35887,"is_reserved":false,"is_disabled":false,"rental_uris":{"android":"levelo://app?vid=49b0cc57-34ac-456b-b792-d808ba73f181","ios":"levelo://app?vid=49b0cc57-34ac-456b-b792-d808ba73f181"},"vehicle_type_id":"4","last_reported":1773405242,"current_range_meters":25200,"station_id":"ce4bhah2rcd13ifvqei0","pricing_plan_id":"cebpf4jnsgd1na2vs0mg"},{"bike_id":"7189398a-c44f-4c26-8898-ed1ba4a6cef9","system_id":"levelo_inurba_marseille","lat":43.28145,"lon":5.42651,"is_reserved":false,"is_disabled":false,"rental_uris":{"android":"levelo://app?vid=7189398a-c44f-4c26-8898-ed1ba4a6cef9","ios":"levelo://app?vid=7189398a-c44f-4c26-8898-ed1ba4a6cef9"},"vehicle_type_id":"4","last_reported":1773405242,"current_range_meters":39200,"station_id":"ce4bhnh2rcd13ifvqgug","pricing_plan_id":"cebpf4jnsgd1na2vs0mg"},{"bike_id":"54e5ab79-af7f-4958-b1e4-35efefa5e997","system_id":"levelo_inurba_marseille","lat":43.28147,"lon":5.37892,"is_reserved":false,"is_disabled":true,"rental_uris":{"android":"levelo://app?vid=54e5ab79-af7f-4958-b1e4-35efefa5e997","ios":"levelo://app?vid=54e5ab79-af7f-4958-b1e4-35efefa5e997"},"vehicle_type_id":"4","last_reported":1773405242,"current_range_meters":6400,"station_id":"","pricing_plan_id":"cebpf4jnsgd1na2vs0mg"},{"bike_id":"4605d0eb-aef4-494c-b103-fe3cbd9a939f","system_id":"levelo_inurba_marseille","lat":43.26063,"lon":5.39397,"is_reserved":false,"is_disabled":false,"rental_uris":{"android":"levelo://app?vid=4605d0eb-aef4-494c-b103-fe3cbd9a939f","ios":"levelo://app?vid=4605d0eb-aef4-494c-b103-fe3cbd9a939f"},"vehicle_type_id":"4","last_reported":1773405242,"current_range_meters":24400,"station_id":"ce4bhh92rcd13ifvqfj0","pricing_plan_id":"cebpf4jnsgd1na2vs0mg"},{"bike_id":"8a25afc0-99a7-4da8-8712-0c12e2459e4c","system_id":"levelo_inurba_marseille","lat":43.23196,"lon":5.39967,"is_reserved":false,"is_disabled":false,"rental_uris":{"android":"levelo://app?vid=8a25afc0-99a7-4da8-8712-0c12e2459e4c","ios":"levelo://app?vid=8a25afc0-99a7-4da8-8712-0c12e2459e4c"},"vehicle_type_id":"4","last_reported":1773405242,"current_range_meters":19600,"station_id":"ce4bhn12rcd13ifvqgqg","pricing_plan_id":"cebpf4jnsgd1na2vs0mg"},{"bike_id":"b26a5b6f-c7d4-4ecb-a965-5f0df6878da3","system_id":"levelo_inurba_marseille","lat":43.30132,"lon":5.37412,"is_reserved":false,"is_disabled":false,"rental_uris":{"android":"levelo://app?vid=b26a5b6f-c7d4-4ecb-a965-5f0df6878da3","ios":"levelo://app?vid=b26a5b6f-c7d4-4ecb-a965-5f0df6878da3"},"vehicle_type_id":"4","last_reported":1773405242,"current_range_meters":16400,"station_id":"ce4bgs92rcd13ifvqcc0","pricing_plan_id":"cebpf4jnsgd1na2vs0mg"},{"bike_id":"c4bc4c4b-1b65-4f1c-9292-7dbc626f973c","system_id":"levelo_inurba_marseille","lat":43.33779,"lon":5.37461,"is_reserved":false,"is_disabled":false,"rental_uris":{"android":"levelo://app?vid=c4bc4c4b-1b65-4f1c-9292-7dbc626f973c","ios":"levelo://app?vid=c4bc4c4b-1b65-4f1c-9292-7dbc626f973c"},"vehicle_type_id":"4","last_reported":1773405242,"current_range_meters":38800,"station_id":"","pricing_plan_id":"cebpf4jnsgd1na2vs0mg"},{"bike_id":"7819fcf0-b43a-4d6c-bd97-af87ec877f19","system_id":"levelo_inurba_marseille","lat":43.28353,"lon":5.38109,"is_reserved":false,"is_disabled":false,"rental_uris":{"android":"levelo://app?vid=7819fcf0-b43a-4d6c-bd97-af87ec877f19","ios":"levelo://app?vid=7819fcf0-b43a-4d6c-bd97-af87ec877f19"},"vehicle_type_id":"4","last_reported":1773405242,"current_range_meters":38000,"station_id":"ce4bh412rcd13ifvqdr0","pricing_plan_id":"cebpf4jnsgd1na2vs0mg"},{"bike_id":"8d34ab14-b5e2-4610-adb0-b50ca2a508ab","system_id":"levelo_inurba_marseille","lat":43.29287,"lon":5.36839,"is_reserved":false,"is_disabled":false,"rental_uris":{"android":"levelo://app?vid=8d34ab14-b5e2-4610-adb0-b50ca2a508ab","ios":"levelo://app?vid=8d34ab14-b5e2-4610-adb0-b50ca2a508ab"},"vehicle_type_id":"4","last_reported":1773405242,"current_range_meters":34800,"station_id":"ce4bhbp2rcd13ifvqesg","pricing_plan_id":"cebpf4jnsgd1na2vs0mg"},{"bike_id":"df3b8325-25b1-4cf7-81d6-79f2cfacae31","system_id":"levelo_inurba_marseille","lat":43.3027,"lon":5.37696,"is_reserved":false,"is_disabled":true,"rental_uris":{"android":"levelo://app?vid=df3b8325-25b1-4cf7-81d6-79f2cfacae31","ios":"levelo://app?vid=df3b8325-25b1-4cf7-81d6-79f2cfacae31"},"vehicle_type_id":"4","last_reported":1773405242,"current_range_meters":35600,"station_id":"","pricing_plan_id":"cebpf4jnsgd1na2vs0mg"},{"bike_id":"48358f2d-f55c-46c5-9640-4bd45a2b2905","system_id":"levelo_inurba_marseille","lat":43.24436,"lon":5.37052,"is_reserved":false,"is_disabled":true,"rental_uris":{"android":"levelo://app?vid=48358f2d-f55c-46c5-9640-4bd45a2b2905","ios":"levelo://app?vid=48358f2d-f55c-46c5-9640-4bd45a2b2905"},"vehicle_type_id":"4","last_reported":1773405242,"current_range_meters":34000,"station_id":"","pricing_plan_id":"cebpf4jnsgd1na2vs0mg"},{"bike_id":"61094b85-ed10-4b6a-8a53-0403299825c4","system_id":"levelo_inurba_marseille","lat":43.2695,"lon":5.40235,"is_reserved":false,"is_disabled":false,"rental_uris":{"android":"levelo://app?vid=61094b85-ed10-4b6a-8a53-0403299825c4","ios":"levelo://app?vid=61094b85-ed10-4b6a-8a53-0403299825c4"},"vehicle_type_id":"4","last_reported":1773405242,"current_range_meters":38800,"station_id":"cjm6bp8fraef2m0cb0m0","pricing_plan_id":"cebpf4jnsgd1na2vs0mg"},{"bike_id":"01b25557-0f7a-421a-adbc-7c29fad9f848","system_id":"levelo_inurba_marseille","lat":43.32652,"lon":5.40991,"is_reserved":false,"is_disabled":false,"rental_uris":{"android":"levelo://app?vid=01b25557-0f7a-421a-adbc-7c29fad9f848","ios":"levelo://app?vid=01b25557-0f7a-421a-adbc-7c29fad9f848"},"vehicle_type_id":"4","last_reported":1773405242,"current_range_meters":26000,"station_id":"ce4bhpp2rcd13ifvqhgg","pricing_plan_id":"cebpf4jnsgd1na2vs0mg"},{"bike_id":"05453a13-c34b-4b5a-a135-bc1734140d83","system_id":"levelo_inurba_marseille","lat":43.27211,"lon":5.39155,"is_reserved":false,"is_disabled":false,"rental_uris":{"android":"levelo://app?vid=05453a13-c34b-4b5a-a135-bc1734140d83","ios":"levelo://app?vid=05453a13-c34b-4b5a-a135-bc1734140d83"},"vehicle_type_id":"4","last_reported":1773405242,"current_range_meters":22800,"station_id":"ce4bhhp2rcd13ifvqfm0","pricing_plan_id":"cebpf4jnsgd1na2vs0mg"},{"bike_id":"b38f6a33-0a13-4473-b5e2-12c2128ac016","system_id":"levelo_inurba_marseille","lat":43.30918,"lon":5.40145,"is_reserved":false,"is_disabled":false,"rental_uris":{"android":"levelo://app?vid=b38f6a33-0a13-4473-b5e2-12c2128ac016","ios":"levelo://app?vid=b38f6a33-0a13-4473-b5e2-12c2128ac016"},"vehicle_type_id":"4","last_reported":1773405242,"current_range_meters":39200,"station_id":"ce4bgvp2rcd13ifvqct0","pricing_plan_id":"cebpf4jnsgd1na2vs0mg"},{"bike_id":"cc861bc1-1aca-46be-a176-b5ecc6ef06de","system_id":"levelo_inurba_marseille","lat":43.29277,"lon":5.36847,"is_reserved":false,"is_disabled":false,"rental_uris":{"android":"levelo://app?vid=cc861bc1-1aca-46be-a176-b5ecc6ef06de","ios":"levelo://app?vid=cc861bc1-1aca-46be-a176-b5ecc6ef06de"},"vehicle_type_id":"4","last_reported":1773405242,"current_range_meters":7200,"station_id":"ce4bhbp2rcd13ifvqesg","pricing_plan_id":"cebpf4jnsgd1na2vs0mg"},{"bike_id":"03ebd25c-20f7-4152-ac51-be4bca2e30df","system_id":"levelo_inurba_marseille","lat":43.25009,"lon":5.38926,"is_reserved":false,"is_disabled":false,"rental_uris":{"android":"levelo://app?vid=03ebd25c-20f7-4152-ac51-be4bca2e30df","ios":"levelo://app?vid=03ebd25c-20f7-4152-ac51-be4bca2e30df"},"vehicle_type_id":"4","last_reported":1773405242,"current_range_meters":11200,"station_id":"ce4bhgp2rcd13ifvqfd0","pricing_plan_id":"cebpf4jnsgd1na2vs0mg"},{"bike_id":"ac674d76-ca93-4ad7-bdea-78469a1a7757","system_id":"levelo_inurba_marseille","lat":43.225326,"lon":5.348355,"is_reserved":false,"is_disabled":false,"rental_uris":{"android":"levelo://app?vid=ac674d76-ca93-4ad7-bdea-78469a1a7757","ios":"levelo://app?vid=ac674d76-ca93-4ad7-bdea-78469a1a7757"},"vehicle_type_id":"4","last_reported":1773405242,"current_range_meters":13600,"station_id":"","pricing_plan_id":"cebpf4jnsgd1na2vs0mg"},{"bike_id":"fc4edbf7-bbe6-4449-8a10-e8fd9e2784b3","system_id":"levelo_inurba_marseille","lat":43.27207,"lon":5.39188,"is_reserved":false,"is_disabled":false,"rental_uris":{"android":"levelo://app?vid=fc4edbf7-bbe6-4449-8a10-e8fd9e2784b3","ios":"levelo://app?vid=fc4edbf7-bbe6-4449-8a10-e8fd9e2784b3"},"vehicle_type_id":"4","last_reported":1773405242,"current_range_meters":37600,"station_id":"ce4bhhp2rcd13ifvqfm0","pricing_plan_id":"cebpf4jnsgd1na2vs0mg"},{"bike_id":"70110da8-5382-4c09-bf3c-ec1dc9cf26b7","system_id":"levelo_inurba_marseille","lat":43.29759,"lon":5.42771,"is_reserved":false,"is_disabled":false,"rental_uris":{"android":"levelo://app?vid=70110da8-5382-4c09-bf3c-ec1dc9cf26b7","ios":"levelo://app?vid=70110da8-5382-4c09-bf3c-ec1dc9cf26b7"},"vehicle_type_id":"4","last_reported":1773405242,"current_range_meters":24400,"station_id":"st_d3md5207bmas73dh9klg","pricing_plan_id":"cebpf4jnsgd1na2vs0mg"},{"bike_id":"7f6fd1a4-9bf4-4e0a-a55a-a55e3a70a2a0","system_id":"levelo_inurba_marseille","lat":43.27065,"lon":5.42279,"is_reserved":false,"is_disabled":false,"rental_uris":{"android":"levelo://app?vid=7f6fd1a4-9bf4-4e0a-a55a-a55e3a70a2a0","ios":"levelo://app?vid=7f6fd1a4-9bf4-4e0a-a55a-a55e3a70a2a0"},"vehicle_type_id":"4","last_reported":1773405242,"current_range_meters":33600,"station_id":"ce4bhk92rcd13ifvqgb0","pricing_plan_id":"cebpf4jnsgd1na2vs0mg"},{"bike_id":"ced17ad9-8f87-4562-9107-187102ffc823","system_id":"levelo_inurba_marseille","lat":43.24397,"lon":5.37048,"is_reserved":false,"is_disabled":false,"rental_uris":{"android":"levelo://app?vid=ced17ad9-8f87-4562-9107-187102ffc823","ios":"levelo://app?vid=ced17ad9-8f87-4562-9107-187102ffc823"},"vehicle_type_id":"4","last_reported":1773405242,"current_range_meters":38000,"station_id":"ce4bhhh2rcd13ifvqfk0","pricing_plan_id":"cebpf4jnsgd1na2vs0mg"},{"bike_id":"2e34bd7b-6a39-4ba1-8f0e-2cc9bbf360cc","system_id":"levelo_inurba_marseille","lat":43.24065,"lon":5.377,"is_reserved":false,"is_disabled":false,"rental_uris":{"android":"levelo://app?vid=2e34bd7b-6a39-4ba1-8f0e-2cc9bbf360cc","ios":"levelo://app?vid=2e34bd7b-6a39-4ba1-8f0e-2cc9bbf360cc"},"vehicle_type_id":"4","last_reported":1773405242,"current_range_meters":20000,"station_id":"ce4bhnp2rcd13ifvqgvg","pricing_plan_id":"cebpf4jnsgd1na2vs0mg"},