{"last_updated":1784458988,"ttl":60,"version":"2.2","data":{"bikes":[{"bike_id":"ba0c28b1-8732-48e2-8079-f25b2b3fbc3c","system_id":"levelo_inurba_marseille","lat":43.337444,"lon":5.374475,"is_reserved":false,"is_disabled":false,"rental_uris":{"android":"levelo://app?vid=ba0c28b1-8732-48e2-8079-f25b2b3fbc3c","ios":"levelo://app?vid=ba0c28b1-8732-48e2-8079-f25b2b3fbc3c"},"vehicle_type_id":"4","last_reported":1784458988,"current_range_meters":0,"station_id":"","pricing_plan_id":"cebpf4jnsgd1na2vs0mg"},{"bike_id":"b24e008d-76fe-4304-bdb8-1a62b93995b0","system_id":"levelo_inurba_marseille","lat":43.22535,"lon":5.34836,"is_reserved":false,"is_disabled":false,"rental_uris":{"android":"levelo://app?vid=b24e008d-76fe-4304-bdb8-1a62b93995b0","ios":"levelo://app?vid=b24e008d-76fe-4304-bdb8-1a62b93995b0"},"vehicle_type_id":"4","last_reported":1784458988,"current_range_meters":39200,"station_id":"st_cvj5dfep6f1abm77gieg","pricing_plan_id":"cebpf4jnsgd1na2vs0mg"},{"bike_id":"a966e85f-68d2-4c23-8395-3915ebf05c3e","system_id":"levelo_inurba_marseille","lat":43.33538,"lon":5.37487,"is_reserved":false,"is_disabled":false,"rental_uris":{"android":"levelo://app?vid=a966e85f-68d2-4c23-8395-3915ebf05c3e","ios":"levelo://app?vid=a966e85f-68d2-4c23-8395-3915ebf05c3e"},"vehicle_type_id":"4","last_reported":1784458988,"current_range_meters":12800,"station_id":"st_d46tts09ee8s73dlu43g","pricing_plan_id":"cebpf4jnsgd1na2vs0mg"},{"bike_id":"63dc20ac-90f4-4eae-ac6c-d24ae13a7929","system_id":"levelo_inurba_marseille","lat":43.25335,"lon":5.42156,"is_reserved":false,"is_disabled":false,"rental_uris":{"android":"levelo://app?vid=63dc20ac-90f4-4eae-ac6c-d24ae13a7929","ios":"levelo://app?vid=63dc20ac-90f4-4eae-ac6c-d24ae13a7929"},"vehicle_type_id":"4","last_reported":1784458988,"current_range_meters":29600,"station_id":"st_d2m65c5bi1j21697t3ng","pricing_plan_id":"cebpf4jnsgd1na2vs0mg"},{"bike_id":"cd3e46d9-9918-4f17-9338-98ccedee7add","system_id":"levelo_inurba_marseille","lat":43.29173,"lon":5.37164,"is_reserved":false,"is_disabled":false,"rental_uris":{"android":"levelo://app?vid=cd3e46d9-9918-4f17-9338-98ccedee7add","ios":"levelo://app?vid=cd3e46d9-9918-4f17-9338-98ccedee7add"},"vehicle_type_id":"4","last_reported":1784458988,"current_range_meters":18800,"station_id":"ce4bha92rcd13ifvqeh0","pricing_plan_id":"cebpf4jnsgd1na2vs0mg"},{"bike_id":"925f934f-200a-4e2c-8b4c-266cd40a6416","system_id":"levelo_inurba_marseille","lat":43.30205,"lon":5.36637,"is_reserved":false,"is_disabled":false,"rental_uris":{"android":"levelo://app?vid=925f934f-200a-4e2c-8b4c-266cd40a6416","ios":"levelo://app?vid=925f934f-200a-4e2c-8b4c-266cd40a6416"},"vehicle_type_id":"4","last_reported":1784458988,"current_range_meters":38800,"station_id":"ce4bgrh2rcd13ifvqc8g","pricing_plan_id":"cebpf4jnsgd1na2vs0mg"},{"bike_id":"b80e952d-d3ff-4e90-a7e3-2dba6c11e72f","system_id":"levelo_inurba_marseille","lat":43.29842,"lon":5.3627,"is_reserved":false,"is_disabled":false,"rental_uris":{"android":"levelo://app?vid=b80e952d-d3ff-4e90-a7e3-2dba6c11e72f","ios":"levelo://app?vid=b80e952d-d3ff-4e90-a7e3-2dba6c11e72f"},"vehicle_type_id":"4","last_reported":1784458988,"current_range_meters":9200,"station_id":"ce4bgpp2rcd13ifvqc3g","pricing_plan_id":"cebpf4jnsgd1na2vs0mg"},{"bike_id":"5a8d9266-f0fd-4ab9-8de4-43bb599823d5","system_id":"levelo_inurba_marseille","lat":43.2622,"lon":5.38771,"is_reserved":false,"is_disabled":false,"rental_uris":{"android":"levelo://app?vid=5a8d9266-f0fd-4ab9-8de4-43bb599823d5","ios":"levelo://app?vid=5a8d9266-f0fd-4ab9-8de4-43bb599823d5"},"vehicle_type_id":"4","last_reported":1784458988,"current_range_meters":24000,"station_id":"st_d8gjfg747rts73coq3b0","pricing_plan_id":"cebpf4jnsgd1na2vs0mg"},{"bike_id":"73a35569-7300-4ff3-884c-143b85396ba6","system_id":"levelo_inurba_marseille","lat":43.28668,"lon":5.38655,"is_reserved":false,"is_disabled":false,"rental_uris":{"android":"levelo://app?vid=73a35569-7300-4ff3-884c-143b85396ba6","ios":"levelo://app?vid=73a35569-7300-4ff3-884c-143b85396ba6"},"vehicle_type_id":"4","last_reported":1784458988,"current_range_meters":38800,"station_id":"ce4bh492rcd13ifvqdug","pricing_plan_id":"cebpf4jnsgd1na2vs0mg"},{"bike_id":"edc293ec-aaef-4cc0-903d-983aa4cb3d2f","system_id":"levelo_inurba_marseille","lat":43.30903,"lon":5.3672,"is_reserved":false,"is_disabled":false,"rental_uris":{"android":"levelo://app?vid=edc293ec-aaef-4cc0-903d-983aa4cb3d2f","ios":"levelo://app?vid=edc293ec-aaef-4cc0-903d-983aa4cb3d2f"},"vehicle_type_id":"4","last_reported":1784458988,"current_range_meters":2800,"station_id":"","pricing_plan_id":"cebpf4jnsgd1na2vs0mg"},{"bike_id":"f88b334c-27a5-4495-93d8-9a1c5e18cfaa","system_id":"levelo_inurba_marseille","lat":43.25497,"lon":5.37669,"is_reserved":false,"is_disabled":false,"rental_uris":{"android":"levelo://app?vid=f88b334c-27a5-4495-93d8-9a1c5e18cfaa","ios":"levelo://app?vid=f88b334c-27a5-4495-93d8-9a1c5e18cfaa"},"vehicle_type_id":"4","last_reported":1784458988,"current_range_meters":33600,"station_id":"ce4bhh12rcd13ifvqff0","pricing_plan_id":"cebpf4jnsgd1na2vs0mg"},{"bike_id":"9da5cadf-cdd1-429b-9b5e-9173177dfcc4","system_id":"levelo_inurba_marseille","lat":43.24388,"lon":5.37071,"is_reserved":false,"is_disabled":false,"rental_uris":{"android":"levelo://app?vid=9da5cadf-cdd1-429b-9b5e-9173177dfcc4","ios":"levelo://app?vid=9da5cadf-cdd1-429b-9b5e-9173177dfcc4"},"vehicle_type_id":"4","last_reported":1784458988,"current_range_meters":8800,"station_id":"ce4bhhh2rcd13ifvqfk0","pricing_plan_id":"cebpf4jnsgd1na2vs0mg"},{"bike_id":"5f4fdaf8-9144-4cf5-b7ce-27465c790ee8","system_id":"levelo_inurba_marseille","lat":43.29307,"lon":5.37165,"is_reserved":false,"is_disabled":false,"rental_uris":{"android":"levelo://app?vid=5f4fdaf8-9144-4cf5-b7ce-27465c790ee8","ios":"levelo://app?vid=5f4fdaf8-9144-4cf5-b7ce-27465c790ee8"},"vehicle_type_id":"4","last_reported":1784458988,"current_range_meters":40000,"station_id":"ce4bgh92rcd13ifvqb40","pricing_plan_id":"cebpf4jnsgd1na2vs0mg"},{"bike_id":"e71494cd-d4a8-436a-a5c6-260a2924500e","system_id":"levelo_inurba_marseille","lat":43.26221,"lon":5.38786,"is_reserved":false,"is_disabled":true,"rental_uris":{"android":"levelo://app?vid=e71494cd-d4a8-436a-a5c6-260a2924500e","ios":"levelo://app?vid=e71494cd-d4a8-436a-a5c6-260a2924500e"},"vehicle_type_id":"4","last_reported":1784458988,"current_range_meters":25200,"station_id":"st_d8gjfg747rts73coq3b0","pricing_plan_id":"cebpf4jnsgd1na2vs0mg"},{"bike_id":"661a48b2-2a3b-4341-ba7f-18771415c6d8","system_id":"levelo_inurba_marseille","lat":43.27053,"lon":5.38304,"is_reserved":false,"is_disabled":false,"rental_uris":{"android":"levelo://app?vid=661a48b2-2a3b-4341-ba7f-18771415c6d8","ios":"levelo://app?vid=661a48b2-2a3b-4341-ba7f-18771415c6d8"},"vehicle_type_id":"4","last_reported":1784458988,"current_range_meters":40000,"station_id":"st_d3n2fo6cfp8s73cte1j0","pricing_plan_id":"cebpf4jnsgd1na2vs0mg"},{"bike_id":"3c7b57b6-eeb1-473c-b22e-815cc49701b8","system_id":"levelo_inurba_marseille","lat":43.30522,"lon":5.36537,"is_reserved":false,"is_disabled":false,"rental_uris":{"android":"levelo://app?vid=3c7b57b6-eeb1-473c-b22e-815cc49701b8","ios":"levelo://app?vid=3c7b57b6-eeb1-473c-b22e-815cc49701b8"},"vehicle_type_id":"4","last_reported":1784458988,"current_range_meters":22800,"station_id":"ce4bgs12rcd13ifvqcag","pricing_plan_id":"cebpf4jnsgd1na2vs0mg"},{"bike_id":"bedff844-9130-492b-a7c3-37d670bbb559","system_id":"levelo_inurba_marseille","lat":43.32358,"lon":5.3673,"is_reserved":false,"is_disabled":false,"rental_uris":{"android":"levelo://app?vid=bedff844-9130-492b-a7c3-37d670bbb559","ios":"levelo://app?vid=bedff844-9130-492b-a7c3-37d670bbb559"},"vehicle_type_id":"4","last_reported":1784458988,"current_range_meters":38800,"station_id":"ce4bhsh2rcd13ifvqi2g","pricing_plan_id":"cebpf4jnsgd1na2vs0mg"},{"bike_id":"3f90babe-1f4e-4451-ae93-3bb30a379e7f","system_id":"levelo_inurba_marseille","lat":43.30239,"lon":5.40041,"is_reserved":false,"is_disabled":false,"rental_uris":{"android":"levelo://app?vid=3f90babe-1f4e-4451-ae93-3bb30a379e7f","ios":"levelo://app?vid=3f90babe-1f4e-4451-ae93-3bb30a379e7f"},"vehicle_type_id":"4","last_reported":1784458988,"current_range_meters":9600,"station_id":"","pricing_plan_id":"cebpf4jnsgd1na2vs0mg"},{"bike_id":"4a2b6d62-8189-440a-9a99-ef8458bda7c9","system_id":"levelo_inurba_marseille","lat":43.30401,"lon":5.41289,"is_reserved":false,"is_disabled":false,"rental_uris":{"android":"levelo://app?vid=4a2b6d62-8189-440a-9a99-ef8458bda7c9","ios":"levelo://app?vid=4a2b6d62-8189-440a-9a99-ef8458bda7c9"},"vehicle_type_id":"4","last_reported":1784458988,"current_range_meters":39200,"station_id":"ce4bhop2rcd13ifvqh8g","pricing_plan_id":"cebpf4jnsgd1na2vs0mg"},{"bike_id":"b3eaf168-2195-4bbf-aaf0-806862e18d0e","system_id":"levelo_inurba_marseille","lat":43.27382,"lon":5.36259,"is_reserved":false,"is_disabled":false,"rental_uris":{"android":"levelo://app?vid=b3eaf168-2195-4bbf-aaf0-806862e18d0e","ios":"levelo://app?vid=b3eaf168-2195-4bbf-aaf0-806862e18d0e"},"vehicle_type_id":"4","last_reported":1784458988,"current_range_meters":36800,"station_id":"ce4bhbh2rcd13ifvqeo0","pricing_plan_id":"cebpf4jnsgd1na2vs0mg"},{"bike_id":"aedaebdd-36e2-4985-959b-0a0a29a21f3a","system_id":"levelo_inurba_marseille","lat":43.31513,"lon":5.37361,"is_reserved":false,"is_disabled":false,"rental_uris":{"android":"levelo://app?vid=aedaebdd-36e2-4985-959b-0a0a29a21f3a","ios":"levelo://app?vid=aedaebdd-36e2-4985-959b-0a0a29a21f3a"},"vehicle_type_id":"4","last_reported":1784458988,"current_range_meters":19200,"station_id":"","pricing_plan_id":"cebpf4jnsgd1na2vs0mg"},{"bike_id":"0ecdb674-3c3c-46be-9a7b-0387e7579f88","system_id":"levelo_inurba_marseille","lat":43.24469,"lon":5.42533,"is_reserved":false,"is_disabled":false,"rental_uris":{"android":"levelo://app?vid=0ecdb674-3c3c-46be-9a7b-0387e7579f88","ios":"levelo://app?vid=0ecdb674-3c3c-46be-9a7b-0387e7579f88"},"vehicle_type_id":"4","last_reported":1784458988,"current_range_meters":28800,"station_id":"st_d4a3vfp97mjs738cd8kg","pricing_plan_id":"cebpf4jnsgd1na2vs0mg"},{"bike_id":"129ac767-2638-4c48-b9ca-8da71d89525b","system_id":"levelo_inurba_marseille","lat":43.23897,"lon":5.3746,"is_reserved":false,"is_disabled":false,"rental_uris":{"android":"levelo://app?vid=129ac767-2638-4c48-b9ca-8da71d89525b","ios":"levelo://app?vid=129ac767-2638-4c48-b9ca-8da71d89525b"},"vehicle_type_id":"4","last_reported":1784458988,"current_range_meters":28400,"station_id":"st_d6sm7csbq4hs73f8fpjg","pricing_plan_id":"cebpf4jnsgd1na2vs0mg"},{"bike_id":"7ba6887d-b423-4472-957a-7da860d5a0bc","system_id":"levelo_inurba_marseille","lat":43.26207,"lon":5.37412,"is_reserved":false,"is_disabled":false,"rental_uris":{"android":"levelo://app?vid=7ba6887d-b423-4472-957a-7da860d5a0bc","ios":"levelo://app?vid=7ba6887d-b423-4472-957a-7da860d5a0bc"},"vehicle_type_id":"4","last_reported":1784458988,"current_range_meters":15200,"station_id":"ce4bhgp2rcd13ifvqfc0","pricing_plan_id":"cebpf4jnsgd1na2vs0mg"},{"bike_id":"cd6ba070-6fdc-4afc-b021-45cc1e52c864","system_id":"levelo_inurba_marseille","lat":43.28651,"lon":5.36371,"is_reserved":false,"is_disabled":false,"rental_uris":{"android":"levelo://app?vid=cd6ba070-6fdc-4afc-b021-45cc1e52c864","ios":"levelo://app?vid=cd6ba070-6fdc-4afc-b021-45cc1e52c864"},"vehicle_type_id":"4","last_reported":1784458988,"current_range_meters":2800,"station_id":"ce4bhah2rcd13ifvqej0","pricing_plan_id":"cebpf4jnsgd1na2vs0mg"},{"bike_id":"8a764731-788d-4960-9607-991b594f9119","system_id":"levelo_inurba_marseille","lat":43.27845,"lon":5.39201,"is_reserved":false,"is_disabled":false,"rental_uris":{"android":"levelo://app?vid=8a764731-788d-4960-9607-991b594f9119","ios":"levelo://app?vid=8a764731-788d-4960-9607-991b594f9119"},"vehicle_type_id":"4","last_reported":1784458988,"current_range_meters":12800,"station_id":"ce4bhjp2rcd13ifvqga0","pricing_plan_id":"cebpf4jnsgd1na2vs0mg"},{"bike_id":"cd51f461-b6b3-4a67-8a6c-7f85b9f282bd","system_id":"levelo_inurba_marseille","lat":43.24816,"lon":5.38213,"is_reserved":false,"is_disabled":false,"rental_uris":{"android":"levelo://app?vid=cd51f461-b6b3-4a67-8a6c-7f85b9f282bd","ios":"levelo://app?vid=cd51f461-b6b3-4a67-8a6c-7f85b9f282bd"},"vehicle_type_id":"4","last_reported":1784458988,"current_range_meters":30400,"station_id":"","pricing_plan_id":"cebpf4jnsgd1na2vs0mg"},{"bike_id":"acc1ad6b-45b3-4f7d-9274-e604aa21049c","system_id":"levelo_inurba_marseille","lat":43.21192,"lon":5.35081,"is_reserved":false,"is_disabled":false,"rental_uris":{"android":"levelo://app?vid=acc1ad6b-45b3-4f7d-9274-e604aa21049c","ios":"levelo://app?vid=acc1ad6b-45b3-4f7d-9274-e604aa21049c"},"vehicle_type_id":"4","last_reported":1784458988,"current_range_meters":25200,"station_id":"st_cvj6sg6p6f1abm77japg","pricing_plan_id":"cebpf4jnsgd1na2vs0mg"},{"bike_id":"ef6880d0-6944-4f6a-8f40-6662368b8f75","system_id":"levelo_inurba_marseille","lat":43.31709,"lon":5.43707,"is_reserved":false,"is_disabled":false,"rental_uris":{"android":"levelo://app?vid=ef6880d0-6944-4f6a-8f40-6662368b8f75","ios":"levelo://app?vid=ef6880d0-6944-4f6a-8f40-6662368b8f75"},"vehicle_type_id":"4","last_reported":1784458988,"current_range_meters":39200,"station_id":"ce4bhp92rcd13ifvqhcg","pricing_plan_id":"cebpf4jnsgd1na2vs0mg"},{"bike_id":"7bab4676-25db-456e-87b4-397a590a40da","system_id":"levelo_inurba_marseille","lat":43.27556,"lon":5.38422,"is_reserved":false,"is_disabled":false,"rental_uris":{"android":"levelo://app?vid=7bab4676-25db-456e-87b4-397a590a40da","ios":"levelo://app?vid=7bab4676-25db-456e-87b4-397a590a40da"},"vehicle_type_id":"4","last_reported":1784458988,"current_range_meters":39200,"station_id":"ce4bhh92rcd13ifvqfi0","pricing_plan_id":"cebpf4jnsgd1na2vs0mg"},{"bike_id":"7aaec82f-406e-4f46-aa12-4d0042bca2c7","system_id":"levelo_inurba_marseille","lat":43.2997,"lon":5.37168,"is_reserved":false,"is_disabled":false,"rental_uris":{"android":"levelo://app?vid=7aaec82f-406e-4f46-aa12-4d0042bca2c7","ios":"levelo://app?vid=7aaec82f-406e-4f46-aa12-4d0042bca2c7"},"vehicle_type_id":"4","last_reported":1784458988,"current_range_meters":28400,"station_id":"ce4bgr92rcd13ifvqc7g","pricing_plan_id":"cebpf4jnsgd1na2vs0mg"},{"bike_id":"0440c3d3-fb6e-42d5-a033-2a474086ecc6","system_id":"levelo_inurba_marseille","lat":43.23181,"lon":5.40003,"is_reserved":false,"is_disabled":false,"rental_uris":{"android":"levelo://app?vid=0440c3d3-fb6e-42d5-a033-2a474086ecc6","ios":"levelo://app?vid=0440c3d3-fb6e-42d5-a033-2a474086ecc6"},"vehicle_type_id":"4","last_reported":1784458988,"current_range_meters":39200,"station_id":"ce4bhn12rcd13ifvqgqg","pricing_plan_id":"cebpf4jnsgd1na2vs0mg"},{"bike_id":"69aa3890-8355-4668-9d7c-2b996f0dde78","system_id":"levelo_inurba_marseille","lat":43.29739,"lon":5.42803,"is_reserved":false,"is_disabled":false,"rental_uris":{"android":"levelo://app?vid=69aa3890-8355-4668-9d7c-2b996f0dde78","ios":"levelo://app?vid=69aa3890-8355-4668-9d7c-2b996f0dde78"},"vehicle_type_id":"4","last_reported":1784458988,"current_range_meters":39200,"station_id":"st_d3md5207bmas73dh9klg","pricing_plan_id":"cebpf4jnsgd1na2vs0mg"},{"bike_id":"d183c213-4177-4bf2-b9e0-24872be8a9c8","system_id":"levelo_inurba_marseille","lat":43.2847,"lon":5.48388,"is_reserved":false,"is_disabled":false,"rental_uris":{"android":"levelo://app?vid=d183c213-4177-4bf2-b9e0-24872be8a9c8","ios":"levelo://app?vid=d183c213-4177-4bf2-b9e0-24872be8a9c8"},"vehicle_type_id":"4","last_reported":1784458988,"current_range_meters":14400,"station_id":"st_d3svhcjqgbts73a3dn0g","pricing_plan_id":"cebpf4jnsgd1na2vs0mg"},{"bike_id":"3d7f032f-703c-49de-bd95-4bb00f4e5160","system_id":"levelo_inurba_marseille","lat":43.25712,"lon":5.41124,"is_reserved":false,"is_disabled":false,"rental_uris":{"android":"levelo://app?vid=3d7f032f-703c-49de-bd95-4bb00f4e5160","ios":"levelo://app?vid=3d7f032f-703c-49de-bd95-4bb00f4e5160"},"vehicle_type_id":"4","last_reported":1784458988,"current_range_meters":38400,"station_id":"ce4bhkp2rcd13ifvqgd0","pricing_plan_id":"cebpf4jnsgd1na2vs0mg"},{"bike_id":"754be320-592c-4596-b29f-34a43e2fbed1","system_id":"levelo_inurba_marseille","lat":43.29628,"lon":5.40609,"is_reserved":false,"is_disabled":false,"rental_uris":{"android":"levelo://app?vid=754be320-592c-4596-b29f-34a43e2fbed1","ios":"levelo://app?vid=754be320-592c-4596-b29f-34a43e2fbed1"},"vehicle_type_id":"4","last_reported":1784458988,"current_range_meters":37600,"station_id":"ce4bh0h2rcd13ifvqd60","pricing_plan_id":"cebpf4jnsgd1na2vs0mg"},{"bike_id":"de007cee-b02a-488c-aba4-bbeef406c383","system_id":"levelo_inurba_marseille","lat":43.25509,"lon":5.40091,"is_reserved":false,"is_disabled":false,"rental_uris":{"android":"levelo://app?vid=de007cee-b02a-488c-aba4-bbeef406c383","ios":"levelo://app?vid=de007cee-b02a-488c-aba4-bbeef406c383"},"vehicle_type_id":"4","last_reported":1784458988,"current_range_meters":3600,"station_id":"","pricing_plan_id":"cebpf4jnsgd1na2vs0mg"},{"bike_id":"10baf3dd-68c9-4cc4-8093-15f5a476620e","system_id":"levelo_inurba_marseille","lat":43.25735,"lon":5.41113,"is_reserved":false,"is_disabled":false,"rental_uris":{"android":"levelo://app?vid=10baf3dd-68c9-4cc4-8093-15f5a476620e","ios":"levelo://app?vid=10baf3dd-68c9-4cc4-8093-15f5a476620e"},"vehicle_type_id":"4","last_reported":1784458988,"current_range_meters":18800,"station_id":"ce4bhkp2rcd13ifvqgd0","pricing_plan_id":"cebpf4jnsgd1na2vs0mg"},{"bike_id":"17e4be99-494c-4c9f-8720-fc080f3b6be4","system_id":"levelo_inurba_marseille","lat":43.29864,"lon":5.37602,"is_reserved":false,"is_disabled":false,"rental_uris":{"android":"levelo://app?vid=17e4be99-494c-4c9f-8720-fc080f3b6be4","ios":"levelo://app?vid=17e4be99-494c-4c9f-8720-fc080f3b6be4"},"vehicle_type_id":"4","last_reported":1784458988,"current_range_meters":4400,"station_id":"","pricing_plan_id":"cebpf4jnsgd1na2vs0mg"},{"bike_id":"d3ff2782-718a-41f1-9f08-e79d62ef73a4","system_id":"levelo_inurba_marseille","lat":43.25112,"lon":5.40323,"is_reserved":false,"is_disabled":false,"rental_uris":{"android":"levelo://app?vid=d3ff2782-718a-41f1-9f08-e79d62ef73a4","ios":"levelo://app?vid=d3ff2782-718a-41f1-9f08-e79d62ef73a4"},"vehicle_type_id":"4","last_reported":1784458988,"current_range_meters":40000,"station_id":"ce4bhlh2rcd13ifvqgig","pricing_plan_id":"cebpf4jnsgd1na2vs0mg"},{"bike_id":"93dd690d-690b-46aa-9f4c-d63590da45d7","system_id":"levelo_inurba_marseille","lat":43.2827,"lon":5.35086,"is_reserved":false,"is_disabled":false,"rental_uris":{"android":"levelo://app?vid=93dd690d-690b-46aa-9f4c-d63590da45d7","ios":"levelo://app?vid=93dd690d-690b-46aa-9f4c-d63590da45d7"},"vehicle_type_id":"4","last_reported":1784458988,"current_range_meters":17200,"station_id":"ce4bhbp2rcd13ifvqerg","pricing_plan_id":"cebpf4jnsgd1na2vs0mg"},{"bike_id":"2b11ca05-7a73-4966-89f6-dcae876a0356","system_id":"levelo_inurba_marseille","lat":43.28267,"lon":5.35054,"is_reserved":false,"is_disabled":false,"rental_uris":{"android":"levelo://app?vid=2b11ca05-7a73-4966-89f6-dcae876a0356","ios":"levelo://app?vid=2b11ca05-7a73-4966-89f6-dcae876a0356"},"vehicle_type_id":"4","last_reported":1784458988,"current_range_meters":29600,"station_id":"ce4bhbp2rcd13ifvqerg","pricing_plan_id":"cebpf4jnsgd1na2vs0mg"},{"bike_id":"45230f89-3bc2-419d-bb18-e12e80346d71","system_id":"levelo_inurba_marseille","lat":43.30548,"lon":5.36546,"is_reserved":false,"is_disabled":false,"rental_uris":{"android":"levelo://app?vid=45230f89-3bc2-419d-bb18-e12e80346d71","ios":"levelo://app?vid=45230f89-3bc2-419d-bb18-e12e80346d71"},"vehicle_type_id":"4","last_reported":1784458988,"current_range_meters":10800,"station_id":"ce4bgs12rcd13ifvqcag","pricing_plan_id":"cebpf4jnsgd1na2vs0mg"},{"bike_id":"92f9377a-62ba-495b-8de9-1750140cdb94","system_id":"levelo_inurba_marseille","lat":43.29635,"lon":5.37185,"is_reserved":false,"is_disabled":true,"rental_uris":{"android":"levelo://app?vid=92f9377a-62ba-495b-8de9-1750140cdb94","ios":"levelo://app?vid=92f9377a-62ba-495b-8de9-1750140cdb94"},"vehicle_type_id":"4","last_reported":1784458988,"current_range_meters":14400,"station_id":"ce4bgnh2rcd13ifvqc0g","pricing_plan_id":"cebpf4jnsgd1na2vs0mg"},{"bike_id":"f183bbe9-451d-42f1-af44-191fdd8784a6","system_id":"levelo_inurba_marseille","lat":43.27194,"lon":5.40993,"is_reserved":false,"is_disabled":false,"rental_uris":{"android":"levelo://app?vid=f183bbe9-451d-42f1-af44-191fdd8784a6","ios":"levelo://app?vid=f183bbe9-451d-42f1-af44-191fdd8784a6"},"vehicle_type_id":"4","last_reported":1784458988,"current_range_meters":29600,"station_id":"ce4bhl12rcd13ifvqgf0","pricing_plan_id":"cebpf4jnsgd1na2vs0mg"},{"bike_id":"c3f4a8d5-58ca-46e0-be47-eaeab3f1e402","system_id":"levelo_inurba_marseille","lat":43.22863,"lon":5.34996,"is_reserved":false,"is_disabled":true,"rental_uris":{"android":"levelo://app?vid=c3f4a8d5-58ca-46e0-be47-eaeab3f1e402","ios":"levelo://app?vid=c3f4a8d5-58ca-46e0-be47-eaeab3f1e402"},"vehicle_type_id":"4","last_reported":1784458988,"current_range_meters":0,"station_id":"","pricing_plan_id":"cebpf4jnsgd1na2vs0mg"},{"bike_id":"1b3113c2-f295-410e-9a50-955f7373f828","system_id":"levelo_inurba_marseille","lat":43.29625,"lon":5.37182,"is_reserved":false,"is_disabled":false,"rental_uris":{"android":"levelo://app?vid=1b3113c2-f295-410e-9a50-955f7373f828","ios":"levelo://app?vid=1b3113c2-f295-410e-9a50-955f7373f828"},"vehicle_type_id":"4","last_reported":1784458988,"current_range_meters":8800,"station_id":"","pricing_plan_id":"cebpf4jnsgd1na2vs0mg"},{"bike_id":"c43e413a-ef9c-4cba-87e2-cb42ada69af8","system_id":"levelo_inurba_marseille","lat":43.28948,"lon":5.3667,"is_reserved":false,"is_disabled":false,"rental_uris":{"android":"levelo://app?vid=c43e413a-ef9c-4cba-87e2-cb42ada69af8","ios":"levelo://app?vid=c43e413a-ef9c-4cba-87e2-cb42ada69af8"},"vehicle_type_id":"4","last_reported":1784458988,"current_range_meters":28800,"station_id":"ce4bhap2rcd13ifvqek0","pricing_plan_id":"cebpf4jnsgd1na2vs0mg"},{"bike_id":"c2e7fe27-d2b0-440e-b62d-ead50feed951","system_id":"levelo_inurba_marseille","lat":43.29488,"lon":5.43318,"is_reserved":false,"is_disabled":false,"rental_uris":{"android":"levelo://app?vid=c2e7fe27-d2b0-440e-b62d-ead50feed951","ios":"levelo://app?vid=c2e7fe27-d2b0-440e-b62d-ead50feed951"},"vehicle_type_id":"4","last_reported":1784458988,"current_range_meters":4000,"station_id":"st_d3j5ugp08ojc73fj9d10","pricing_plan_id":"cebpf4jnsgd1na2vs0mg"},{"bike_id":"68487660-d0f8-4357-a041-ea23c3836a53","system_id":"levelo_inurba_marseille","lat":43.26238,"lon":5.37441,"is_reserved":false,"is_disabled":true,"rental_uris":{"android":"levelo://app?vid=68487660-d0f8-4357-a041-ea23c3836a53","ios":"levelo://app?vid=68487660-d0f8-4357-a041-ea23c3836a53"},"vehicle_type_id":"4","last_reported":1784458988,"current_range_meters":38000,"station_id":"","pricing_plan_id":"cebpf4jnsgd1na2vs0mg"},{"bike_id":"e8ae56f8-7ff6-4c6e-8192-53ce1bf04288","system_id":"levelo_inurba_marseille","lat":43.29884,"lon":5.36373,"is_reserved":false,"is_disabled":false,"rental_uris":{"android":"levelo://app?vid=e8ae56f8-7ff6-4c6e-8192-53ce1bf04288","ios":"levelo://app?vid=e8ae56f8-7ff6-4c6e-8192-53ce1bf04288"},"vehicle_type_id":"4","last_reported":1784458988,"current_range_meters":38800,"station_id":"ce4bgpp2rcd13ifvqc3g","pricing_plan_id":"cebpf4jnsgd1na2vs0mg"},{"bike_id":"80d16d1c-74c4-4d06-9383-60ac7eccbcba","system_id":"levelo_inurba_marseille","lat":43.29768,"lon":5.37102,"is_reserved":false,"is_disabled":false,"rental_uris":{"android":"levelo://app?vid=80d16d1c-74c4-4d06-9383-60ac7eccbcba","ios":"levelo://app?vid=80d16d1c-74c4-4d06-9383-60ac7eccbcba"},"vehicle_type_id":"4","last_reported":1784458988,"current_range_meters":24000,"station_id":"ce4bgop2rcd13ifvqc1g","pricing_plan_id":"cebpf4jnsgd1na2vs0mg"},{"bike_id":"2623e023-e953-40ac-8068-15d2169ca99d","system_id":"levelo_inurba_marseille","lat":43.28692,"lon":5.46684,"is_reserved":false,"is_disabled":false,"rental_uris":{"android":"levelo://app?vid=2623e023-e953-40ac-8068-15d2169ca99d","ios":"levelo://app?vid=2623e023-e953-40ac-8068-15d2169ca99d"},"vehicle_type_id":"4","last_reported":1784458988,"current_range_meters":38000,"station_id":"st_d6tc3vkotcvc738tfjhg","pricing_plan_id":"cebpf4jnsgd1na2vs0mg"},{"bike_id":"747c23c0-1025-4254-99c7-b3bf9bd26802","system_id":"levelo_inurba_marseille","lat":43.29612,"lon":5.40572,"is_reserved":false,"is_disabled":false,"rental_uris":{"android":"levelo://app?vid=747c23c0-1025-4254-99c7-b3bf9bd26802","ios":"levelo://app?vid=747c23c0-1025-4254-99c7-b3bf9bd26802"},"vehicle_type_id":"4","last_reported":1784458988,"current_range_meters":16800,"station_id":"ce4bh0h2rcd13ifvqd60","pricing_plan_id":"cebpf4jnsgd1na2vs0mg"},{"bike_id":"d726f7a5-e159-4854-8f04-91f7e45c5426","system_id":"levelo_inurba_marseille","lat":43.29533,"lon":5.37506,"is_reserved":false,"is_disabled":false,"rental_uris":{"android":"levelo://app?vid=d726f7a5-e159-4854-8f04-91f7e45c5426","ios":"levelo://app?vid=d726f7a5-e159-4854-8f04-91f7e45c5426"},"vehicle_type_id":"4","last_reported":1784458988,"current_range_meters":32000,"station_id":"ce4bgkp2rcd13ifvqbmg","pricing_plan_id":"cebpf4jnsgd1na2vs0mg"},{"bike_id":"00655664-62b9-4f98-9851-831f7f2112a9","system_id":"levelo_inurba_marseille","lat":43.30547,"lon":5.38426,"is_reserved":false,"is_disabled":false,"rental_uris":{"android":"levelo://app?vid=00655664-62b9-4f98-9851-831f7f2112a9","ios":"levelo://app?vid=00655664-62b9-4f98-9851-831f7f2112a9"},"vehicle_type_id":"4","last_reported":1784458988,"current_range_meters":28800,"station_id":"ce4bgg92rcd13ifvqb30","pricing_plan_id":"cebpf4jnsgd1na2vs0mg"},{"bike_id":"f8955ac0-4fb0-43de-bef9-e6c33ea71dd3","system_id":"levelo_inurba_marseille","lat":43.28617,"lon":5.35107,"is_reserved":false,"is_disabled":false,"rental_uris":{"android":"levelo://app?vid=f8955ac0-4fb0-43de-bef9-e6c33ea71dd3","ios":"levelo://app?vid=f8955ac0-4fb0-43de-bef9-e6c33ea71dd3"},"vehicle_type_id":"4","last_reported":1784458988,"current_range_meters":28000,"station_id":"ce4bhch2rcd13ifvqeug","pricing_plan_id":"cebpf4jnsgd1na2vs0mg"},{"bike_id":"1aba4b2e-71a6-4e82-8e9d-0b35db6f35c2","system_id":"levelo_inurba_marseille","lat":43.24162,"lon":5.36401,"is_reserved":false,"is_disabled":false,"rental_uris":{"android":"levelo://app?vid=1aba4b2e-71a6-4e82-8e9d-0b35db6f35c2","ios":"levelo://app?vid=1aba4b2e-71a6-4e82-8e9d-0b35db6f35c2"},"vehicle_type_id":"4","last_reported":1784458988,"current_range_meters":39200,"station_id":"cpo36qri1sfpv3e86is0","pricing_plan_id":"cebpf4jnsgd1na2vs0mg"},{"bike_id":"863d0357-9100-4091-8be6-61d932e4e898","system_id":"levelo_inurba_marseille","lat":43.33756,"lon":5.37458,"is_reserved":false,"is_disabled":false,"rental_uris":{"android":"levelo://app?vid=863d0357-9100-4091-8be6-61d932e4e898","ios":"levelo://app?vid=863d0357-9100-4091-8be6-61d932e4e898"},"vehicle_type_id":"4","last_reported":1784458988,"current_range_meters":36400,"station_id":"","pricing_plan_id":"cebpf4jnsgd1na2vs0mg"},{"bike_id":"0d249168-c1b9-4fc1-a9ca-ee81dcabf286","system_id":"levelo_inurba_marseille","lat":43.30819,"lon":5.40369,"is_reserved":false,"is_disabled":false,"rental_uris":{"android":"levelo://app?vid=0d249168-c1b9-4fc1-a9ca-ee81dcabf286","ios":"levelo://app?vid=0d249168-c1b9-4fc1-a9ca-ee81dcabf286"},"vehicle_type_id":"4","last_reported":1784458988,"current_range_meters":10000,"station_id":"","pricing_plan_id":"cebpf4jnsgd1na2vs0mg"},{"bike_id":"6a073f24-b143-4cd4-8f9c-b37d047089bd","system_id":"levelo_inurba_marseille","lat":43.26547,"lon":5.37294,"is_reserved":false,"is_disabled":false,"rental_uris":{"android":"levelo://app?vid=6a073f24-b143-4cd4-8f9c-b37d047089bd","ios":"levelo://app?vid=6a073f24-b143-4cd4-8f9c-b37d047089bd"},"vehicle_type_id":"4","last_reported":1784458988,"current_range_meters":14000,"station_id":"ce4bhg12rcd13ifvqf70","pricing_plan_id":"cebpf4jnsgd1na2vs0mg"},{"bike_id":"523fc0c6-ee18-4813-a04d-cb35aa8acdd8","system_id":"levelo_inurba_marseille","lat":43.25116,"lon":5.40319,"is_reserved":false,"is_disabled":false,"rental_uris":{"android":"levelo://app?vid=523fc0c6-ee18-4813-a04d-cb35aa8acdd8","ios":"levelo://app?vid=523fc0c6-ee18-4813-a04d-cb35aa8acdd8"},"vehicle_type_id":"4","last_reported":1784458988,"current_range_meters":39200,"station_id":"ce4bhlh2rcd13ifvqgig","pricing_plan_id":"cebpf4jnsgd1na2vs0mg"},{"bike_id":"e81d39c5-de88-4670-b269-6cb2da305080","system_id":"levelo_inurba_marseille","lat":43.28145,"lon":5.42659,"is_reserved":false,"is_disabled":false,"rental_uris":{"android":"levelo://app?vid=e81d39c5-de88-4670-b269-6cb2da305080","ios":"levelo://app?vid=e81d39c5-de88-4670-b269-6cb2da305080"},"vehicle_type_id":"4","last_reported":1784458988,"current_range_meters":39200,"station_id":"ce4bhnh2rcd13ifvqgug","pricing_plan_id":"cebpf4jnsgd1na2vs0mg"},{"bike_id":"ba07a798-4c67-4313-b402-e91154e3ab4a","system_id":"levelo_inurba_marseille","lat":43.24774,"lon":5.37456,"is_reserved":false,"is_disabled":false,"rental_uris":{"android":"levelo://app?vid=ba07a798-4c67-4313-b402-e91154e3ab4a","ios":"levelo://app?vid=ba07a798-4c67-4313-b402-e91154e3ab4a"},"vehicle_type_id":"4","last_reported":1784458988,"current_range_meters":20000,"station_id":"ce4bhgh2rcd13ifvqfb0","pricing_plan_id":"cebpf4jnsgd1na2vs0mg"},{"bike_id":"8ba7f2d6-52d3-4c56-b19a-19a142e62779","system_id":"levelo_inurba_marseille","lat":43.24077,"lon":5.37754,"is_reserved":false,"is_disabled":false,"rental_uris":{"android":"levelo://app?vid=8ba7f2d6-52d3-4c56-b19a-19a142e62779","ios":"levelo://app?vid=8ba7f2d6-52d3-4c56-b19a-19a142e62779"},"vehicle_type_id":"4","last_reported":1784458988,"current_range_meters":10000,"station_id":"ce4bhnp2rcd13ifvqgvg","pricing_plan_id":"cebpf4jnsgd1na2vs0mg"},{"bike_id":"ffdafddb-edce-478b-b283-0a15f46a5cac","system_id":"levelo_inurba_marseille","lat":43.25863,"lon":5.39911,"is_reserved":false,"is_disabled":false,"rental_uris":{"android":"levelo://app?vid=ffdafddb-edce-478b-b283-0a15f46a5cac","ios":"levelo://app?vid=ffdafddb-edce-478b-b283-0a15f46a5cac"},"vehicle_type_id":"4","last_reported":1784458988,"current_range_meters":36800,"station_id":"ce4bhl92rcd13ifvqghg","pricing_plan_id":"cebpf4jnsgd1na2vs0mg"},{"bike_id":"89cff262-c5e9-4593-893a-092328a93f9f","system_id":"levelo_inurba_marseille","lat":43.29456,"lon":5.39821,"is_reserved":false,"is_disabled":false,"rental_uris":{"android":"levelo://app?vid=89cff262-c5e9-4593-893a-092328a93f9f","ios":"levelo://app?vid=89cff262-c5e9-4593-893a-092328a93f9f"},"vehicle_type_id":"4","last_reported":1784458988,"current_range_meters":21600,"station_id":"","pricing_plan_id":"cebpf4jnsgd1na2vs0mg"},{"bike_id":"6a73d93c-6339-46f5-8ebc-d03b3464630c","system_id":"levelo_inurba_marseille","lat":43.26366,"lon":5.4108,"is_reserved":false,"is_disabled":false,"rental_uris":{"android":"levelo://app?vid=6a73d93c-6339-46f5-8ebc-d03b3464630c","ios":"levelo://app?vid=6a73d93c-6339-46f5-8ebc-d03b3464630c"},"vehicle_type_id":"4","last_reported":1784458988,"current_range_meters":32400,"station_id":"st_d4e5ca6na9uc73bfl5fg","pricing_plan_id":"cebpf4jnsgd1na2vs0mg"},{"bike_id":"edc8c877-03ca-4d22-a963-8aec0501358e","system_id":"levelo_inurba_marseille","lat":43.21751,"lon":5.34605,"is_reserved":false,"is_disabled":true,"rental_uris":{"android":"levelo://app?vid=edc8c877-03ca-4d22-a963-8aec0501358e","ios":"levelo://app?vid=edc8c877-03ca-4d22-a963-8aec0501358e"},"vehicle_type_id":"4","last_reported":1784458988,"current_range_meters":2000,"station_id":"st_cvj6r9ubvosntc0bgbag","pricing_plan_id":"cebpf4jnsgd1na2vs0mg"},{"bike_id":"44d448a8-6b36-4f32-9b36-fe4d075b4208","system_id":"levelo_inurba_marseille","lat":43.27994,"lon":5.40028,"is_reserved":false,"is_disabled":false,"rental_uris":{"android":"levelo://app?vid=44d448a8-6b36-4f32-9b36-fe4d075b4208","ios":"levelo://app?vid=44d448a8-6b36-4f32-9b36-fe4d075b4208"},"vehicle_type_id":"4","last_reported":1784458988,"current_range_meters":35200,"station_id":"ce4bho92rcd13ifvqh4g","pricing_plan_id":"cebpf4jnsgd1na2vs0mg"},{"bike_id":"505c470b-ac37-49d3-b636-d6566f7a1192","system_id":"levelo_inurba_marseille","lat":43.24812,"lon":5.37451,"is_reserved":false,"is_disabled":false,"rental_uris":{"android":"levelo://app?vid=505c470b-ac37-49d3-b636-d6566f7a1192","ios":"levelo://app?vid=505c470b-ac37-49d3-b636-d6566f7a1192"},"vehicle_type_id":"4","last_reported":1784458988,"current_range_meters":28400,"station_id":"ce4bhgh2rcd13ifvqfb0","pricing_plan_id":"cebpf4jnsgd1na2vs0mg"},{"bike_id":"ad379f70-030b-4e68-aef0-c677561e7952","system_id":"levelo_inurba_marseille","lat":43.29816,"lon":5.38116,"is_reserved":false,"is_disabled":false,"rental_uris":{"android":"levelo://app?vid=ad379f70-030b-4e68-aef0-c677561e7952","ios":"levelo://app?vid=ad379f70-030b-4e68-aef0-c677561e7952"},"vehicle_type_id":"4","last_reported":1784458988,"current_range_meters":38400,"station_id":"ce4bgip2rcd13ifvqbb0","pricing_plan_id":"cebpf4jnsgd1na2vs0mg"},{"bike_id":"ca64845e-18c6-462d-bd1b-9645706947c2","system_id":"levelo_inurba_marseille","lat":43.25004,"lon":5.3896,"is_reserved":false,"is_disabled":false,"rental_uris":{"android":"levelo://app?vid=ca64845e-18c6-462d-bd1b-9645706947c2","ios":"levelo://app?vid=ca64845e-18c6-462d-bd1b-9645706947c2"},"vehicle_type_id":"4","last_reported":1784458988,"current_range_meters":21600,"station_id":"ce4bhgp2rcd13ifvqfd0","pricing_plan_id":"cebpf4jnsgd1na2vs0mg"},{"bike_id":"4120c7d7-1403-4d50-96ed-9b7731a97efc","system_id":"levelo_inurba_marseille","lat":43.32113,"lon":5.36778,"is_reserved":false,"is_disabled":false,"rental_uris":{"android":"levelo://app?vid=4120c7d7-1403-4d50-96ed-9b7731a97efc","ios":"levelo://app?vid=4120c7d7-1403-4d50-96ed-9b7731a97efc"},"vehicle_type_id":"4","last_reported":1784458988,"current_range_meters":24800,"station_id":"ce4bhrh2rcd13ifvqhug","pricing_plan_id":"cebpf4jnsgd1na2vs0mg"},{"bike_id":"7e748da5-a5e7-4996-8e53-bb49564ff374","system_id":"levelo_inurba_marseille","lat":43.26199,"lon":5.379353,"is_reserved":false,"is_disabled":false,"rental_uris":{"android":"levelo://app?vid=7e748da5-a5e7-4996-8e53-bb49564ff374","ios":"levelo://app?vid=7e748da5-a5e7-4996-8e53-bb49564ff374"},"vehicle_type_id":"4","last_reported":1784458988,"current_range_meters":37600,"station_id":"ce4bhjp2rcd13ifvqg90","pricing_plan_id":"cebpf4jnsgd1na2vs0mg"},{"bike_id":"d370af5a-0809-4062-a687-1cacc2a0234a","system_id":"levelo_inurba_marseille","lat":43.26206,"lon":5.37935,"is_reserved":false,"is_disabled":false,"rental_uris":{"android":"levelo://app?vid=d370af5a-0809-4062-a687-1cacc2a0234a","ios":"levelo://app?vid=d370af5a-0809-4062-a687-1cacc2a0234a"},"vehicle_type_id":"4","last_reported":1784458988,"current_range_meters":38400,"station_id":"ce4bhjp2rcd13ifvqg90","pricing_plan_id":"cebpf4jnsgd1na2vs0mg"},{"bike_id":"7e62a1e7-e43e-4c6d-97fe-eb42228edf6d","system_id":"levelo_inurba_marseille","lat":43.26545,"lon":5.39383,"is_reserved":false,"is_disabled":false,"rental_uris":{"android":"levelo://app?vid=7e62a1e7-e43e-4c6d-97fe-eb42228edf6d","ios":"levelo://app?vid=7e62a1e7-e43e-4c6d-97fe-eb42228edf6d"},"vehicle_type_id":"4","last_reported":1784458988,"current_range_meters":8400,"station_id":"","pricing_plan_id":"cebpf4jnsgd1na2vs0mg"},{"bike_id":"5496493b-3cdb-4bc5-8edf-06e3f0624b4f","system_id":"levelo_inurba_marseille","lat":43.27665,"lon":5.38948,"is_reserved":false,"is_disabled":false,"rental_uris":{"android":"levelo://app?vid=5496493b-3cdb-4bc5-8edf-06e3f0624b4f","ios":"levelo://app?vid=5496493b-3cdb-4bc5-8edf-06e3f0624b4f"},"vehicle_type_id":"4","last_reported":1784458988,"current_range_meters":38000,"station_id":"","pricing_plan_id":"cebpf4jnsgd1na2vs0mg"},{"bike_id":"32f1426e-4a2e-46e1-8b91-800ee9257883","system_id":"levelo_inurba_marseille","lat":43.26376,"lon":5.4107,"is_reserved":false,"is_disabled":false,"rental_uris":{"android":"levelo://app?vid=32f1426e-4a2e-46e1-8b91-800ee9257883","ios":"levelo://app?vid=32f1426e-4a2e-46e1-8b91-800ee9257883"},"vehicle_type_id":"4","last_reported":1784458988,"current_range_meters":32800,"station_id":"st_d4e5ca6na9uc73bfl5fg","pricing_plan_id":"cebpf4jnsgd1na2vs0mg"},{"bike_id":"c9f88c3a-5d2a-4849-a32e-ef8237035ad4","system_id":"levelo_inurba_marseille","lat":43.29322,"lon":5.3725,"is_reserved":false,"is_disabled":false,"rental_uris":{"android":"levelo://app?vid=c9f88c3a-5d2a-4849-a32e-ef8237035ad4","ios":"levelo://app?vid=c9f88c3a-5d2a-4849-a32e-ef8237035ad4"},"vehicle_type_id":"4","last_reported":1784458988,"current_range_meters":31200,"station_id":"","pricing_plan_id":"cebpf4jnsgd1na2vs0mg"},{"bike_id":"7bacaa53-ea48-4c21-98e9-800e4cae89fb","system_id":"levelo_inurba_marseille","lat":43.28543,"lon":5.44106,"is_reserved":false,"is_disabled":false,"rental_uris":{"android":"levelo://app?vid=7bacaa53-ea48-4c21-98e9-800e4cae89fb","ios":"levelo://app?vid=7bacaa53-ea48-4c21-98e9-800e4cae89fb"},"vehicle_type_id":"4","last_reported":1784458988,"current_range_meters":4400,"station_id":"st_d3j3df2ikq2c7380ej80","pricing_plan_id":"cebpf4jnsgd1na2vs0mg"},{"bike_id":"3e516dae-3bc6-43cf-be8e-7513eb0189e1","system_id":"levelo_inurba_marseille","lat":43.25489,"lon":5.37665,"is_reserved":false,"is_disabled":false,"rental_uris":{"android":"levelo://app?vid=3e516dae-3bc6-43cf-be8e-7513eb0189e1","ios":"levelo://app?vid=3e516dae-3bc6-43cf-be8e-7513eb0189e1"},"vehicle_type_id":"4","last_reported":1784458988,"current_range_meters":39200,"station_id":"ce4bhh12rcd13ifvqff0","pricing_plan_id":"cebpf4jnsgd1na2vs0mg"},{"bike_id":"43f4ab6e-c9bc-429f-ad19-4ed93e76682b","system_id":"levelo_inurba_marseille","lat":43.26551,"lon":5.40344,"is_reserved":false,"is_disabled":false,"rental_uris":{"android":"levelo://app?vid=43f4ab6e-c9bc-429f-ad19-4ed93e76682b","ios":"levelo://app?vid=43f4ab6e-c9bc-429f-ad19-4ed93e76682b"},"vehicle_type_id":"4","last_reported":1784458988,"current_range_meters":30000,"station_id":"ce4bhmp2rcd13ifvqgng","pricing_plan_id":"cebpf4jnsgd1na2vs0mg"},{"bike_id":"81587832-75ed-49cd-91c3-f57f9b8cec45","system_id":"levelo_inurba_marseille","lat":43.29037,"lon":5.35935,"is_reserved":false,"is_disabled":true,"rental_uris":{"android":"levelo://app?vid=81587832-75ed-49cd-91c3-f57f9b8cec45","ios":"levelo://app?vid=81587832-75ed-49cd-91c3-f57f9b8cec45"},"vehicle_type_id":"4","last_reported":1784458988,"current_range_meters":3600,"station_id":"ce4bha92rcd13ifvqeg0","pricing_plan_id":"cebpf4jnsgd1na2vs0mg"},{"bike_id":"20e706c3-b21a-406d-aee5-c8471e002c6d","system_id":"levelo_inurba_marseille","lat":43.3089,"lon":5.37202,"is_reserved":false,"is_disabled":false,"rental_uris":{"android":"levelo://app?vid=20e706c3-b21a-406d-aee5-c8471e002c6d","ios":"levelo://app?vid=20e706c3-b21a-406d-aee5-c8471e002c6d"},"vehicle_type_id":"4","last_reported":1784458988,"current_range_meters":29600,"station_id":"ce4bguh2rcd13ifvqckg","pricing_plan_id":"cebpf4jnsgd1na2vs0mg"},{"bike_id":"d3eb53bc-2e3d-491b-b384-a019f6e261e8","system_id":"levelo_inurba_marseille","lat":43.29192,"lon":5.35816,"is_reserved":false,"is_disabled":false,"rental_uris":{"android":"levelo://app?vid=d3eb53bc-2e3d-491b-b384-a019f6e261e8","ios":"levelo://app?vid=d3eb53bc-2e3d-491b-b384-a019f6e261e8"},"vehicle_type_id":"4","last_reported":1784458988,"current_range_meters":18800,"station_id":"ce4bhb12rcd13ifvqel0","pricing_plan_id":"cebpf4jnsgd1na2vs0mg"},{"bike_id":"f3934305-9637-4bc9-84df-610e5ca478ee","system_id":"levelo_inurba_marseille","lat":43.28724,"lon":5.38396,"is_reserved":false,"is_disabled":false,"rental_uris":{"android":"levelo://app?vid=f3934305-9637-4bc9-84df-610e5ca478ee","ios":"levelo://app?vid=f3934305-9637-4bc9-84df-610e5ca478ee"},"vehicle_type_id":"4","last_reported":1784458988,"current_range_meters":24400,"station_id":"","pricing_plan_id":"cebpf4jnsgd1na2vs0mg"},{"bike_id":"ef85100c-c168-423a-855b-1fd0fc13c88a","system_id":"levelo_inurba_marseille","lat":43.23712,"lon":5.37804,"is_reserved":false,"is_disabled":false,"rental_uris":{"android":"levelo://app?vid=ef85100c-c168-423a-855b-1fd0fc13c88a","ios":"levelo://app?vid=ef85100c-c168-423a-855b-1fd0fc13c88a"},"vehicle_type_id":"4","last_reported":1784458988,"current_range_meters":28800,"station_id":"","pricing_plan_id":"cebpf4jnsgd1na2vs0mg"},{"bike_id":"5a26be0e-31db-4b91-a8f9-cc976aa34a43","system_id":"levelo_inurba_marseille","lat":43.27176,"lon":5.40992,"is_reserved":false,"is_disabled":false,"rental_uris":{"android":"levelo://app?vid=5a26be0e-31db-4b91-a8f9-cc976aa34a43","ios":"levelo://app?vid=5a26be0e-31db-4b91-a8f9-cc976aa34a43"},"vehicle_type_id":"4","last_reported":1784458988,"current_range_meters":31200,"station_id":"ce4bhl12rcd13ifvqgf0","pricing_plan_id":"cebpf4jnsgd1na2vs0mg"},{"bike_id":"8af0df7e-cc30-46ec-af42-8ca23109e3a3","system_id":"levelo_inurba_marseille","lat":43.2949,"lon":5.43303,"is_reserved":false,"is_disabled":false,"rental_uris":{"android":"levelo://app?vid=8af0df7e-cc30-46ec-af42-8ca23109e3a3","ios":"levelo://app?vid=8af0df7e-cc30-46ec-af42-8ca23109e3a3"},"vehicle_type_id":"4","last_reported":1784458988,"current_range_meters":28000,"station_id":"st_d3j5ugp08ojc73fj9d10","pricing_plan_id":"cebpf4jnsgd1na2vs0mg"},{"bike_id":"513f5c4c-4012-4ff5-b0be-113cbf96f67c","system_id":"levelo_inurba_marseille","lat":43.28072,"lon":5.39663,"is_reserved":false,"is_disabled":false,"rental_uris":{"android":"levelo://app?vid=513f5c4c-4012-4ff5-b0be-113cbf96f67c","ios":"levelo://app?vid=513f5c4c-4012-4ff5-b0be-113cbf96f67c"},"vehicle_type_id":"4","last_reported":1784458988,"current_range_meters":24800,"station_id":"ce4bho12rcd13ifvqh2g","pricing_plan_id":"cebpf4jnsgd1na2vs0mg"},{"bike_id":"92bfa4e0-c053-46f3-975d-b5b577b60383","system_id":"levelo_inurba_marseille","lat":43.2971,"lon":5.36608,"is_reserved":false,"is_disabled":false,"rental_uris":{"android":"levelo://app?vid=92bfa4e0-c053-46f3-975d-b5b577b60383","ios":"levelo://app?vid=92bfa4e0-c053-46f3-975d-b5b577b60383"},"vehicle_type_id":"4","last_reported":1784458988,"current_range_meters":25200,"station_id":"ce4bgn12rcd13ifvqbt0","pricing_plan_id":"cebpf4jnsgd1na2vs0mg"},{"bike_id":"3a50c835-2c4c-48a3-8c91-1827526367a8","system_id":"levelo_inurba_marseille","lat":43.29201,"lon":5.36046,"is_reserved":false,"is_disabled":false,"rental_uris":{"android":"levelo://app?vid=3a50c835-2c4c-48a3-8c91-1827526367a8","ios":"levelo://app?vid=3a50c835-2c4c-48a3-8c91-1827526367a8"},"vehicle_type_id":"4","last_reported":1784458988,"current_range_meters":20800,"station_id":"ce4bhbh2rcd13ifvqeqg","pricing_plan_id":"cebpf4jnsgd1na2vs0mg"},{"bike_id":"5f0e6351-dc30-4088-8091-00d728ed0317","system_id":"levelo_inurba_marseille","lat":43.2799,"lon":5.38702,"is_reserved":false,"is_disabled":false,"rental_uris":{"android":"levelo://app?vid=5f0e6351-dc30-4088-8091-00d728ed0317","ios":"levelo://app?vid=5f0e6351-dc30-4088-8091-00d728ed0317"},"vehicle_type_id":"4","last_reported":1784458988,"current_range_meters":34000,"station_id":"ce4bhg12rcd13ifvqf80","pricing_plan_id":"cebpf4jnsgd1na2vs0mg"},{"bike_id":"7ff8118f-6c81-4cdf-8a1d-4753d954065d","system_id":"levelo_inurba_marseille","lat":43.29619,"lon":5.37979,"is_reserved":false,"is_disabled":false,"rental_uris":{"android":"levelo://app?vid=7ff8118f-6c81-4cdf-8a1d-4753d954065d","ios":"levelo://app?vid=7ff8118f-6c81-4cdf-8a1d-4753d954065d"},"vehicle_type_id":"4","last_reported":1784458988,"current_range_meters":3200,"station_id":"","pricing_plan_id":"cebpf4jnsgd1na2vs0mg"},{"bike_id":"cac0bd82-8b3a-4e1d-9381-7ff40af149d2","system_id":"levelo_inurba_marseille","lat":43.24648,"lon":5.38179,"is_reserved":false,"is_disabled":false,"rental_uris":{"android":"levelo://app?vid=cac0bd82-8b3a-4e1d-9381-7ff40af149d2","ios":"levelo://app?vid=cac0bd82-8b3a-4e1d-9381-7ff40af149d2"},"vehicle_type_id":"4","last_reported":1784458988,"current_range_meters":39200,"station_id":"ce4bhih2rcd13ifvqfr0","pricing_plan_id":"cebpf4jnsgd1na2vs0mg"},{"bike_id":"6c5ca82f-21d4-416b-b74c-d50174bb39fd","system_id":"levelo_inurba_marseille","lat":43.27956,"lon":5.38707,"is_reserved":false,"is_disabled":false,"rental_uris":{"android":"levelo://app?vid=6c5ca82f-21d4-416b-b74c-d50174bb39fd","ios":"levelo://app?vid=6c5ca82f-21d4-416b-b74c-d50174bb39fd"},"vehicle_type_id":"4","last_reported":1784458988,"current_range_meters":22800,"station_id":"ce4bhg12rcd13ifvqf80","pricing_plan_id":"cebpf4jnsgd1na2vs0mg"},{"bike_id":"57f0883e-4ee4-4ba9-9bf2-651183076974","system_id":"levelo_inurba_marseille","lat":43.26478,"lon":5.39548,"is_reserved":false,"is_disabled":false,"rental_uris":{"android":"levelo://app?vid=57f0883e-4ee4-4ba9-9bf2-651183076974","ios":"levelo://app?vid=57f0883e-4ee4-4ba9-9bf2-651183076974"},"vehicle_type_id":"4","last_reported":1784458988,"current_range_meters":39200,"station_id":"ce4bhi12rcd13ifvqfq0","pricing_plan_id":"cebpf4jnsgd1na2vs0mg"},{"bike_id":"9386ed33-cab4-468a-9d4d-8cf41962f112","system_id":"levelo_inurba_marseille","lat":43.28697,"lon":5.37381,"is_reserved":false,"is_disabled":false,"rental_uris":{"android":"levelo://app?vid=9386ed33-cab4-468a-9d4d-8cf41962f112","ios":"levelo://app?vid=9386ed33-cab4-468a-9d4d-8cf41962f112"},"vehicle_type_id":"4","last_reported":1784458988,"current_range_meters":19600,"station_id":"ce4bh3p2rcd13ifvqdq0","pricing_plan_id":"cebpf4jnsgd1na2vs0mg"},{"bike_id":"e96f97f7-09fe-428b-800e-b5250872309c","system_id":"levelo_inurba_marseille","lat":43.2927,"lon":5.40119,"is_reserved":false,"is_disabled":false,"rental_uris":{"android":"levelo://app?vid=e96f97f7-09fe-428b-800e-b5250872309c","ios":"levelo://app?vid=e96f97f7-09fe-428b-800e-b5250872309c"},"vehicle_type_id":"4","last_reported":1784458988,"current_range_meters":39200,"station_id":"ce4bh312rcd13ifvqdk0","pricing_plan_id":"cebpf4jnsgd1na2vs0mg"},{"bike_id":"258c79c8-115b-43a8-9763-ee7a5585ee7a","system_id":"levelo_inurba_marseille","lat":43.23151,"lon":5.35746,"is_reserved":false,"is_disabled":false,"rental_uris":{"android":"levelo://app?vid=258c79c8-115b-43a8-9763-ee7a5585ee7a","ios":"levelo://app?vid=258c79c8-115b-43a8-9763-ee7a5585ee7a"},"vehicle_type_id":"4","last_reported":1784458988,"current_range_meters":34800,"station_id":"","pricing_plan_id":"cebpf4jnsgd1na2vs0mg"},{"bike_id":"c71cc65d-33de-4389-87f1-90b48f14a5db","system_id":"levelo_inurba_marseille","lat":43.31494,"lon":5.37295,"is_reserved":false,"is_disabled":false,"rental_uris":{"android":"levelo://app?vid=c71cc65d-33de-4389-87f1-90b48f14a5db","ios":"levelo://app?vid=c71cc65d-33de-4389-87f1-90b48f14a5db"},"vehicle_type_id":"4","last_reported":1784458988,"current_range_meters":39200,"station_id":"ce4bgt12rcd13ifvqcd0","pricing_plan_id":"cebpf4jnsgd1na2vs0mg"},{"bike_id":"71dbc3e0-0ab5-4118-84e4-0f3d8268030b","system_id":"levelo_inurba_marseille","lat":43.2175,"lon":5.34592,"is_reserved":false,"is_disabled":false,"rental_uris":{"android":"levelo://app?vid=71dbc3e0-0ab5-4118-84e4-0f3d8268030b","ios":"levelo://app?vid=71dbc3e0-0ab5-4118-84e4-0f3d8268030b"},"vehicle_type_id":"4","last_reported":1784458988,"current_range_meters":12400,"station_id":"st_cvj6r9ubvosntc0bgbag","pricing_plan_id":"cebpf4jnsgd1na2vs0mg"},{"bike_id":"779cdbcf-d1ba-4b09-a589-550c6df4010c","system_id":"levelo_inurba_marseille","lat":43.2972,"lon":5.36605,"is_reserved":false,"is_disabled":false,"rental_uris":{"android":"levelo://app?vid=779cdbcf-d1ba-4b09-a589-550c6df4010c","ios":"levelo://app?vid=779cdbcf-d1ba-4b09-a589-550c6df4010c"},"vehicle_type_id":"4","last_reported":1784458988,"current_range_meters":14000,"station_id":"ce4bgn12rcd13ifvqbt0","pricing_plan_id":"cebpf4jnsgd1na2vs0mg"},{"bike_id":"a7c42e62-f2d7-4f0f-96f4-b9d2418cea29","system_id":"levelo_inurba_marseille","lat":43.29633,"lon":5.40598,"is_reserved":false,"is_disabled":true,"rental_uris":{"android":"levelo://app?vid=a7c42e62-f2d7-4f0f-96f4-b9d2418cea29","ios":"levelo://app?vid=a7c42e62-f2d7-4f0f-96f4-b9d2418cea29"},"vehicle_type_id":"4","last_reported":1784458988,"current_range_meters":17200,"station_id":"ce4bh0h2rcd13ifvqd60","pricing_plan_id":"cebpf4jnsgd1na2vs0mg"},{"bike_id":"6b28d726-da17-43d5-bcda-effbbb66d552","system_id":"levelo_inurba_marseille","lat":43.26214,"lon":5.41667,"is_reserved":false,"is_disabled":false,"rental_uris":{"android":"levelo://app?vid=6b28d726-da17-43d5-bcda-effbbb66d552","ios":"levelo://app?vid=6b28d726-da17-43d5-bcda-effbbb66d552"},"vehicle_type_id":"4","last_reported":1784458988,"current_range_meters":28800,"station_id":"","pricing_plan_id":"cebpf4jnsgd1na2vs0mg"},{"bike_id":"bafe10e8-c43e-4f95-9e2d-98ca9f0df4d9","system_id":"levelo_inurba_marseille","lat":43.29551,"lon":5.37523,"is_reserved":false,"is_disabled":false,"rental_uris":{"android":"levelo://app?vid=bafe10e8-c43e-4f95-9e2d-98ca9f0df4d9","ios":"levelo://app?vid=bafe10e8-c43e-4f95-9e2d-98ca9f0df4d9"},"vehicle_type_id":"4","last_reported":1784458988,"current_range_meters":19200,"station_id":"ce4bgh92rcd13ifvqb50","pricing_plan_id":"cebpf4jnsgd1na2vs0mg"},{"bike_id":"80aab92c-8bc2-4649-ab28-9669d10e174a","system_id":"levelo_inurba_marseille","lat":43.30437,"lon":5.38925,"is_reserved":false,"is_disabled":false,"rental_uris":{"android":"levelo://app?vid=80aab92c-8bc2-4649-ab28-9669d10e174a","ios":"levelo://app?vid=80aab92c-8bc2-4649-ab28-9669d10e174a"},"vehicle_type_id":"4","last_reported":1784458988,"current_range_meters":36000,"station_id":"ce4bgk12rcd13ifvqbi0","pricing_plan_id":"cebpf4jnsgd1na2vs0mg"},{"bike_id":"a5670321-2647-4c27-b554-347f08b48d5e","system_id":"levelo_inurba_marseille","lat":43.29578,"lon":5.36743,"is_reserved":false,"is_disabled":false,"rental_uris":{"android":"levelo://app?vid=a5670321-2647-4c27-b554-347f08b48d5e","ios":"levelo://app?vid=a5670321-2647-4c27-b554-347f08b48d5e"},"vehicle_type_id":"4","last_reported":1784458988,"current_range_meters":13600,"station_id":"","pricing_plan_id":"cebpf4jnsgd1na2vs0mg"},{"bike_id":"0f6ff1da-c9e3-42e7-a8d3-8280d1c0addc","system_id":"levelo_inurba_marseille","lat":43.33718,"lon":5.37415,"is_reserved":false,"is_disabled":false,"rental_uris":{"android":"levelo://app?vid=0f6ff1da-c9e3-42e7-a8d3-8280d1c0addc","ios":"levelo://app?vid=0f6ff1da-c9e3-42e7-a8d3-8280d1c0addc"},"vehicle_type_id":"4","last_reported":1784458988,"current_range_meters":28800,"station_id":"","pricing_plan_id":"cebpf4jnsgd1na2vs0mg"},{"bike_id":"1e628dec-3141-48e0-b510-1c285ab03f4c","system_id":"levelo_inurba_marseille","lat":43.26372,"lon":5.4108,"is_reserved":false,"is_disabled":false,"rental_uris":{"android":"levelo://app?vid=1e628dec-3141-48e0-b510-1c285ab03f4c","ios":"levelo://app?vid=1e628dec-3141-48e0-b510-1c285ab03f4c"},"vehicle_type_id":"4","last_reported":1784458988,"current_range_meters":36800,"station_id":"st_d4e5ca6na9uc73bfl5fg","pricing_plan_id":"cebpf4jnsgd1na2vs0mg"},{"bike_id":"8337f5b4-2806-4bc0-9f71-af183adb5db8","system_id":"levelo_inurba_marseille","lat":43.23822,"lon":5.43512,"is_reserved":false,"is_disabled":false,"rental_uris":{"android":"levelo://app?vid=8337f5b4-2806-4bc0-9f71-af183adb5db8","ios":"levelo://app?vid=8337f5b4-2806-4bc0-9f71-af183adb5db8"},"vehicle_type_id":"4","last_reported":1784458988,"current_range_meters":4400,"station_id":"","pricing_plan_id":"cebpf4jnsgd1na2vs0mg"},{"bike_id":"0d69c6ad-1581-485b-8bcd-d541c4976ef8","system_id":"levelo_inurba_marseille","lat":43.3188,"lon":5.36803,"is_reserved":false,"is_disabled":false,"rental_uris":{"android":"levelo://app?vid=0d69c6ad-1581-485b-8bcd-d541c4976ef8","ios":"levelo://app?vid=0d69c6ad-1581-485b-8bcd-d541c4976ef8"},"vehicle_type_id":"4","last_reported":1784458988,"current_range_meters":9200,"station_id":"st_d6o2h0d0559c73evc1b0","pricing_plan_id":"cebpf4jnsgd1na2vs0mg"},{"bike_id":"26c0bff5-2143-4dde-8318-459beafaf7e8","system_id":"levelo_inurba_marseille","lat":43.28702,"lon":5.3741,"is_reserved":false,"is_disabled":false,"rental_uris":{"android":"levelo://app?vid=26c0bff5-2143-4dde-8318-459beafaf7e8","ios":"levelo://app?vid=26c0bff5-2143-4dde-8318-459beafaf7e8"},"vehicle_type_id":"4","last_reported":1784458988,"current_range_meters":38000,"station_id":"ce4bh3p2rcd13ifvqdq0","pricing_plan_id":"cebpf4jnsgd1na2vs0mg"},{"bike_id":"2aa96627-2af3-4a12-af65-007616bd3d82","system_id":"levelo_inurba_marseille","lat":43.21747,"lon":5.34596,"is_reserved":false,"is_disabled":false,"rental_uris":{"android":"levelo://app?vid=2aa96627-2af3-4a12-af65-007616bd3d82","ios":"levelo://app?vid=2aa96627-2af3-4a12-af65-007616bd3d82"},"vehicle_type_id":"4","last_reported":1784458988,"current_range_meters":12400,"station_id":"st_cvj6r9ubvosntc0bgbag","pricing_plan_id":"cebpf4jnsgd1na2vs0mg"},{"bike_id":"ad193227-d210-4e9a-af26-3f25b41f58db","system_id":"levelo_inurba_marseille","lat":43.23891,"lon":5.3747,"is_reserved":false,"is_disabled":false,"rental_uris":{"android":"levelo://app?vid=ad193227-d210-4e9a-af26-3f25b41f58db","ios":"levelo://app?vid=ad193227-d210-4e9a-af26-3f25b41f58db"},"vehicle_type_id":"4","last_reported":1784458988,"current_range_meters":38400,"station_id":"st_d6sm7csbq4hs73f8fpjg","pricing_plan_id":"cebpf4jnsgd1na2vs0mg"},{"bike_id":"ee06a958-7f2b-4eb7-a6b1-2d3112db17a0","system_id":"levelo_inurba_marseille","lat":43.3112,"lon":5.378,"is_reserved":false,"is_disabled":false,"rental_uris":{"android":"levelo://app?vid=ee06a958-7f2b-4eb7-a6b1-2d3112db17a0","ios":"levelo://app?vid=ee06a958-7f2b-4eb7-a6b1-2d3112db17a0"},"vehicle_type_id":"4","last_reported":1784458988,"current_range_meters":38400,"station_id":"ce4bgt92rcd13ifvqcg0","pricing_plan_id":"cebpf4jnsgd1na2vs0mg"},{"bike_id":"2ba4ef87-99dc-4174-84d6-1ec1a1a87169","system_id":"levelo_inurba_marseille","lat":43.28611,"lon":5.35104,"is_reserved":false,"is_disabled":false,"rental_uris":{"android":"levelo://app?vid=2ba4ef87-99dc-4174-84d6-1ec1a1a87169","ios":"levelo://app?vid=2ba4ef87-99dc-4174-84d6-1ec1a1a87169"},"vehicle_type_id":"4","last_reported":1784458988,"current_range_meters":36400,"station_id":"ce4bhch2rcd13ifvqeug","pricing_plan_id":"cebpf4jnsgd1na2vs0mg"},{"bike_id":"fbc2ea7e-7aa8-46c6-911e-98977f78f06c","system_id":"levelo_inurba_marseille","lat":43.26688,"lon":5.38278,"is_reserved":false,"is_disabled":false,"rental_uris":{"android":"levelo://app?vid=fbc2ea7e-7aa8-46c6-911e-98977f78f06c","ios":"levelo://app?vid=fbc2ea7e-7aa8-46c6-911e-98977f78f06c"},"vehicle_type_id":"4","last_reported":1784458988,"current_range_meters":39200,"station_id":"ce4bhg92rcd13ifvqf90","pricing_plan_id":"cebpf4jnsgd1na2vs0mg"},{"bike_id":"fa4056ac-8c6c-4b9a-a246-bec8d5f9067c","system_id":"levelo_inurba_marseille","lat":43.27181,"lon":5.39215,"is_reserved":false,"is_disabled":true,"rental_uris":{"android":"levelo://app?vid=fa4056ac-8c6c-4b9a-a246-bec8d5f9067c","ios":"levelo://app?vid=fa4056ac-8c6c-4b9a-a246-bec8d5f9067c"},"vehicle_type_id":"4","last_reported":1784458988,"current_range_meters":0,"station_id":"ce4bhhp2rcd13ifvqfm0","pricing_plan_id":"cebpf4jnsgd1na2vs0mg"},{"bike_id":"942148f9-90f2-4171-8f05-98ba0ca85bcb","system_id":"levelo_inurba_marseille","lat":43.28471,"lon":5.48406,"is_reserved":false,"is_disabled":false,"rental_uris":{"android":"levelo://app?vid=942148f9-90f2-4171-8f05-98ba0ca85bcb","ios":"levelo://app?vid=942148f9-90f2-4171-8f05-98ba0ca85bcb"},"vehicle_type_id":"4","last_reported":1784458988,"current_range_meters":38000,"station_id":"st_d3svhcjqgbts73a3dn0g","pricing_plan_id":"cebpf4jnsgd1na2vs0mg"},{"bike_id":"97d120bb-ef10-49a9-98fd-ea2eae127c57","system_id":"levelo_inurba_marseille","lat":43.23189,"lon":5.39971,"is_reserved":false,"is_disabled":false,"rental_uris":{"android":"levelo://app?vid=97d120bb-ef10-49a9-98fd-ea2eae127c57","ios":"levelo://app?vid=97d120bb-ef10-49a9-98fd-ea2eae127c57"},"vehicle_type_id":"4","last_reported":1784458988,"current_range_meters":39200,"station_id":"ce4bhn12rcd13ifvqgqg","pricing_plan_id":"cebpf4jnsgd1na2vs0mg"},{"bike_id":"0fed3863-ace2-403d-a5b0-f2e844886f8f","system_id":"levelo_inurba_marseille","lat":43.26848,"lon":5.39365,"is_reserved":false,"is_disabled":false,"rental_uris":{"android":"levelo://app?vid=0fed3863-ace2-403d-a5b0-f2e844886f8f","ios":"levelo://app?vid=0fed3863-ace2-403d-a5b0-f2e844886f8f"},"vehicle_type_id":"4","last_reported":1784458988,"current_range_meters":20400,"station_id":"","pricing_plan_id":"cebpf4jnsgd1na2vs0mg"},{"bike_id":"fa288643-b967-4c77-8362-0941ea5afa2f","system_id":"levelo_inurba_marseille","lat":43.23189,"lon":5.35559,"is_reserved":false,"is_disabled":false,"rental_uris":{"android":"levelo://app?vid=fa288643-b967-4c77-8362-0941ea5afa2f","ios":"levelo://app?vid=fa288643-b967-4c77-8362-0941ea5afa2f"},"vehicle_type_id":"4","last_reported":1784458988,"current_range_meters":4000,"station_id":"ce4bhu92rcd13ifvqi70","pricing_plan_id":"cebpf4jnsgd1na2vs0mg"},{"bike_id":"2a93def1-9840-4751-b465-b53bb0ce6123","system_id":"levelo_inurba_marseille","lat":43.22559,"lon":5.41635,"is_reserved":false,"is_disabled":false,"rental_uris":{"android":"levelo://app?vid=2a93def1-9840-4751-b465-b53bb0ce6123","ios":"levelo://app?vid=2a93def1-9840-4751-b465-b53bb0ce6123"},"vehicle_type_id":"4","last_reported":1784458988,"current_range_meters":7200,"station_id":"st_d2o4gvlbi1j2169b742g","pricing_plan_id":"cebpf4jnsgd1na2vs0mg"},{"bike_id":"465bbc97-2b89-4a87-bea4-4eb31b5f0469","system_id":"levelo_inurba_marseille","lat":43.27562,"lon":5.38422,"is_reserved":false,"is_disabled":false,"rental_uris":{"android":"levelo://app?vid=465bbc97-2b89-4a87-bea4-4eb31b5f0469","ios":"levelo://app?vid=465bbc97-2b89-4a87-bea4-4eb31b5f0469"},"vehicle_type_id":"4","last_reported":1784458988,"current_range_meters":40000,"station_id":"ce4bhh92rcd13ifvqfi0","pricing_plan_id":"cebpf4jnsgd1na2vs0mg"},{"bike_id":"d2b08bfe-8d05-4397-91e9-fe938a2b845f","system_id":"levelo_inurba_marseille","lat":43.27496,"lon":5.42481,"is_reserved":false,"is_disabled":false,"rental_uris":{"android":"levelo://app?vid=d2b08bfe-8d05-4397-91e9-fe938a2b845f","ios":"levelo://app?vid=d2b08bfe-8d05-4397-91e9-fe938a2b845f"},"vehicle_type_id":"4","last_reported":1784458988,"current_range_meters":28800,"station_id":"ce4bhn92rcd13ifvqgrg","pricing_plan_id":"cebpf4jnsgd1na2vs0mg"},{"bike_id":"03fcd601-c201-4cc6-a5f6-b2a687e2f004","system_id":"levelo_inurba_marseille","lat":43.29196,"lon":5.36357,"is_reserved":false,"is_disabled":false,"rental_uris":{"android":"levelo://app?vid=03fcd601-c201-4cc6-a5f6-b2a687e2f004","ios":"levelo://app?vid=03fcd601-c201-4cc6-a5f6-b2a687e2f004"},"vehicle_type_id":"4","last_reported":1784458988,"current_range_meters":27600,"station_id":"","pricing_plan_id":"cebpf4jnsgd1na2vs0mg"},{"bike_id":"85c6f96b-abeb-41c4-b8e0-2980ab917c26","system_id":"levelo_inurba_marseille","lat":43.2447,"lon":5.4254,"is_reserved":false,"is_disabled":false,"rental_uris":{"android":"levelo://app?vid=85c6f96b-abeb-41c4-b8e0-2980ab917c26","ios":"levelo://app?vid=85c6f96b-abeb-41c4-b8e0-2980ab917c26"},"vehicle_type_id":"4","last_reported":1784458988,"current_range_meters":25600,"station_id":"st_d4a3vfp97mjs738cd8kg","pricing_plan_id":"cebpf4jnsgd1na2vs0mg"},{"bike_id":"e97d923d-d560-461e-94e7-6b746b3d8d92","system_id":"levelo_inurba_marseille","lat":43.32124,"lon":5.36777,"is_reserved":false,"is_disabled":false,"rental_uris":{"android":"levelo://app?vid=e97d923d-d560-461e-94e7-6b746b3d8d92","ios":"levelo://app?vid=e97d923d-d560-461e-94e7-6b746b3d8d92"},"vehicle_type_id":"4","last_reported":1784458988,"current_range_meters":23200,"station_id":"ce4bhrh2rcd13ifvqhug","pricing_plan_id":"cebpf4jnsgd1na2vs0mg"},{"bike_id":"f147535e-34ce-4ad2-8330-db1c1333a506","system_id":"levelo_inurba_marseille","lat":43.28653,"lon":5.36346,"is_reserved":false,"is_disabled":false,"rental_uris":{"android":"levelo://app?vid=f147535e-34ce-4ad2-8330-db1c1333a506","ios":"levelo://app?vid=f147535e-34ce-4ad2-8330-db1c1333a506"},"vehicle_type_id":"4","last_reported":1784458988,"current_range_meters":30400,"station_id":"ce4bhah2rcd13ifvqej0","pricing_plan_id":"cebpf4jnsgd1na2vs0mg"},{"bike_id":"b7aa1f7e-f948-4c85-8ebb-7af17d93841d","system_id":"levelo_inurba_marseille","lat":43.25222,"lon":5.40087,"is_reserved":false,"is_disabled":false,"rental_uris":{"android":"levelo://app?vid=b7aa1f7e-f948-4c85-8ebb-7af17d93841d","ios":"levelo://app?vid=b7aa1f7e-f948-4c85-8ebb-7af17d93841d"},"vehicle_type_id":"4","last_reported":1784458988,"current_range_meters":38400,"station_id":"","pricing_plan_id":"cebpf4jnsgd1na2vs0mg"},{"bike_id":"a73f2824-04af-4eb1-8696-07548fb915c6","system_id":"levelo_inurba_marseille","lat":43.27072,"lon":5.42283,"is_reserved":false,"is_disabled":false,"rental_uris":{"android":"levelo://app?vid=a73f2824-04af-4eb1-8696-07548fb915c6","ios":"levelo://app?vid=a73f2824-04af-4eb1-8696-07548fb915c6"},"vehicle_type_id":"4","last_reported":1784458988,"current_range_meters":33600,"station_id":"ce4bhk92rcd13ifvqgb0","pricing_plan_id":"cebpf4jnsgd1na2vs0mg"},{"bike_id":"5f7a7770-0584-499a-80c2-89ed18615f65","system_id":"levelo_inurba_marseille","lat":43.28083,"lon":5.39643,"is_reserved":false,"is_disabled":false,"rental_uris":{"android":"levelo://app?vid=5f7a7770-0584-499a-80c2-89ed18615f65","ios":"levelo://app?vid=5f7a7770-0584-499a-80c2-89ed18615f65"},"vehicle_type_id":"4","last_reported":1784458988,"current_range_meters":3600,"station_id":"ce4bho12rcd13ifvqh2g","pricing_plan_id":"cebpf4jnsgd1na2vs0mg"},{"bike_id":"a8064570-e35e-4807-aa3d-b23aecaf3c8d","system_id":"levelo_inurba_marseille","lat":43.29777,"lon":5.37113,"is_reserved":false,"is_disabled":false,"rental_uris":{"android":"levelo://app?vid=a8064570-e35e-4807-aa3d-b23aecaf3c8d","ios":"levelo://app?vid=a8064570-e35e-4807-aa3d-b23aecaf3c8d"},"vehicle_type_id":"4","last_reported":1784458988,"current_range_meters":3200,"station_id":"ce4bgop2rcd13ifvqc1g","pricing_plan_id":"cebpf4jnsgd1na2vs0mg"},{"bike_id":"e845caaf-6f62-4afe-898b-175d7eec4dd5","system_id":"levelo_inurba_marseille","lat":43.2904,"lon":5.3594,"is_reserved":false,"is_disabled":false,"rental_uris":{"android":"levelo://app?vid=e845caaf-6f62-4afe-898b-175d7eec4dd5","ios":"levelo://app?vid=e845caaf-6f62-4afe-898b-175d7eec4dd5"},"vehicle_type_id":"4","last_reported":1784458988,"current_range_meters":8400,"station_id":"ce4bha92rcd13ifvqeg0","pricing_plan_id":"cebpf4jnsgd1na2vs0mg"},{"bike_id":"160b0153-3c70-4a0e-b0da-4ad40e9a3569","system_id":"levelo_inurba_marseille","lat":43.2339,"lon":5.41251,"is_reserved":false,"is_disabled":false,"rental_uris":{"android":"levelo://app?vid=160b0153-3c70-4a0e-b0da-4ad40e9a3569","ios":"levelo://app?vid=160b0153-3c70-4a0e-b0da-4ad40e9a3569"},"vehicle_type_id":"4","last_reported":1784458988,"current_range_meters":37600,"station_id":"st_d75pvndhf9lc73cqq3eg","pricing_plan_id":"cebpf4jnsgd1na2vs0mg"},{"bike_id":"58f7e868-bed5-4a90-b15c-2f01e7905ed4","system_id":"levelo_inurba_marseille","lat":43.29279,"lon":5.40126,"is_reserved":false,"is_disabled":false,"rental_uris":{"android":"levelo://app?vid=58f7e868-bed5-4a90-b15c-2f01e7905ed4","ios":"levelo://app?vid=58f7e868-bed5-4a90-b15c-2f01e7905ed4"},"vehicle_type_id":"4","last_reported":1784458988,"current_range_meters":24800,"station_id":"ce4bh312rcd13ifvqdk0","pricing_plan_id":"cebpf4jnsgd1na2vs0mg"},{"bike_id":"266bb6db-e90e-4ddc-a5e9-a55463e560bf","system_id":"levelo_inurba_marseille","lat":43.27669,"lon":5.38937,"is_reserved":false,"is_disabled":false,"rental_uris":{"android":"levelo://app?vid=266bb6db-e90e-4ddc-a5e9-a55463e560bf","ios":"levelo://app?vid=266bb6db-e90e-4ddc-a5e9-a55463e560bf"},"vehicle_type_id":"4","last_reported":1784458988,"current_range_meters":28800,"station_id":"ce4bhi12rcd13ifvqfo0","pricing_plan_id":"cebpf4jnsgd1na2vs0mg"},{"bike_id":"1e724757-9713-48d4-b510-0aa64a9d2927","system_id":"levelo_inurba_marseille","lat":43.29573,"lon":5.37514,"is_reserved":false,"is_disabled":false,"rental_uris":{"android":"levelo://app?vid=1e724757-9713-48d4-b510-0aa64a9d2927","ios":"levelo://app?vid=1e724757-9713-48d4-b510-0aa64a9d2927"},"vehicle_type_id":"4","last_reported":1784458988,"current_range_meters":34000,"station_id":"ce4bgh92rcd13ifvqb50","pricing_plan_id":"cebpf4jnsgd1na2vs0mg"},{"bike_id":"3d4aa178-44db-467e-a1bd-4fcdf991f22c","system_id":"levelo_inurba_marseille","lat":43.31705,"lon":5.43716,"is_reserved":false,"is_disabled":false,"rental_uris":{"android":"levelo://app?vid=3d4aa178-44db-467e-a1bd-4fcdf991f22c","ios":"levelo://app?vid=3d4aa178-44db-467e-a1bd-4fcdf991f22c"},"vehicle_type_id":"4","last_reported":1784458988,"current_range_meters":38400,"station_id":"ce4bhp92rcd13ifvqhcg","pricing_plan_id":"cebpf4jnsgd1na2vs0mg"},{"bike_id":"78b472ae-7ca1-438d-a65f-f93d06645001","system_id":"levelo_inurba_marseille","lat":43.29207,"lon":5.36053,"is_reserved":false,"is_disabled":true,"rental_uris":{"android":"levelo://app?vid=78b472ae-7ca1-438d-a65f-f93d06645001","ios":"levelo://app?vid=78b472ae-7ca1-438d-a65f-f93d06645001"},"vehicle_type_id":"4","last_reported":1784458988,"current_range_meters":38000,"station_id":"","pricing_plan_id":"cebpf4jnsgd1na2vs0mg"},{"bike_id":"90712bdd-6167-42c8-bcb7-670b2eae9b93","system_id":"levelo_inurba_marseille","lat":43.29934,"lon":5.36547,"is_reserved":false,"is_disabled":false,"rental_uris":{"android":"levelo://app?vid=90712bdd-6167-42c8-bcb7-670b2eae9b93","ios":"levelo://app?vid=90712bdd-6167-42c8-bcb7-670b2eae9b93"},"vehicle_type_id":"4","last_reported":1784458988,"current_range_meters":4800,"station_id":"ce4bgm92rcd13ifvqbr0","pricing_plan_id":"cebpf4jnsgd1na2vs0mg"},{"bike_id":"189a6511-59ec-478e-a171-7b02b36b2b85","system_id":"levelo_inurba_marseille","lat":43.30821,"lon":5.37234,"is_reserved":false,"is_disabled":true,"rental_uris":{"android":"levelo://app?vid=189a6511-59ec-478e-a171-7b02b36b2b85","ios":"levelo://app?vid=189a6511-59ec-478e-a171-7b02b36b2b85"},"vehicle_type_id":"4","last_reported":1784458988,"current_range_meters":2000,"station_id":"","pricing_plan_id":"cebpf4jnsgd1na2vs0mg"},{"bike_id":"bf010752-4ee2-4816-b256-1fb00bbe1bcc","system_id":"levelo_inurba_marseille","lat":43.286122,"lon":5.351007,"is_reserved":false,"is_disabled":false,"rental_uris":{"android":"levelo://app?vid=bf010752-4ee2-4816-b256-1fb00bbe1bcc","ios":"levelo://app?vid=bf010752-4ee2-4816-b256-1fb00bbe1bcc"},"vehicle_type_id":"4","last_reported":1784458988,"current_range_meters":13600,"station_id":"ce4bhch2rcd13ifvqeug","pricing_plan_id":"cebpf4jnsgd1na2vs0mg"},{"bike_id":"8bb9c3ce-2ede-4f04-8e35-004af0be1e89","system_id":"levelo_inurba_marseille","lat":43.29527,"lon":5.37504,"is_reserved":false,"is_disabled":false,"rental_uris":{"android":"levelo://app?vid=8bb9c3ce-2ede-4f04-8e35-004af0be1e89","ios":"levelo://app?vid=8bb9c3ce-2ede-4f04-8e35-004af0be1e89"},"vehicle_type_id":"4","last_reported":1784458988,"current_range_meters":39200,"station_id":"ce4bgkp2rcd13ifvqbmg","pricing_plan_id":"cebpf4jnsgd1na2vs0mg"},{"bike_id":"f31e71a2-8328-4ff9-9288-61f910dee152","system_id":"levelo_inurba_marseille","lat":43.26481,"lon":5.3955,"is_reserved":false,"is_disabled":false,"rental_uris":{"android":"levelo://app?vid=f31e71a2-8328-4ff9-9288-61f910dee152","ios":"levelo://app?vid=f31e71a2-8328-4ff9-9288-61f910dee152"},"vehicle_type_id":"4","last_reported":1784458988,"current_range_meters":36800,"station_id":"ce4bhi12rcd13ifvqfq0","pricing_plan_id":"cebpf4jnsgd1na2vs0mg"},{"bike_id":"348caf77-82d6-4562-a72e-c7becae0b0ae","system_id":"levelo_inurba_marseille","lat":43.230549,"lon":5.354901,"is_reserved":false,"is_disabled":false,"rental_uris":{"android":"levelo://app?vid=348caf77-82d6-4562-a72e-c7becae0b0ae","ios":"levelo://app?vid=348caf77-82d6-4562-a72e-c7becae0b0ae"},"vehicle_type_id":"4","last_reported":1784458988,"current_range_meters":37600,"station_id":"cpo3342slgdg3j2ifvpg","pricing_plan_id":"cebpf4jnsgd1na2vs0mg"},{"bike_id":"88b3333d-68df-42df-8ef7-a9a4f08abce5","system_id":"levelo_inurba_marseille","lat":43.22909,"lon":5.41516,"is_reserved":false,"is_disabled":false,"rental_uris":{"android":"levelo://app?vid=88b3333d-68df-42df-8ef7-a9a4f08abce5","ios":"levelo://app?vid=88b3333d-68df-42df-8ef7-a9a4f08abce5"},"vehicle_type_id":"4","last_reported":1784458988,"current_range_meters":19200,"station_id":"","pricing_plan_id":"cebpf4jnsgd1na2vs0mg"},{"bike_id":"f31c75a5-312c-439f-8188-a68a8b10f6a6","system_id":"levelo_inurba_marseille","lat":43.291221,"lon":5.355796,"is_reserved":false,"is_disabled":false,"rental_uris":{"android":"levelo://app?vid=f31c75a5-312c-439f-8188-a68a8b10f6a6","ios":"levelo://app?vid=f31c75a5-312c-439f-8188-a68a8b10f6a6"},"vehicle_type_id":"4","last_reported":1784458988,"current_range_meters":39200,"station_id":"","pricing_plan_id":"cebpf4jnsgd1na2vs0mg"},{"bike_id":"50cc7a1f-02fb-419d-8d81-6e9140eed09a","system_id":"levelo_inurba_marseille","lat":43.26201,"lon":5.37453,"is_reserved":false,"is_disabled":false,"rental_uris":{"android":"levelo://app?vid=50cc7a1f-02fb-419d-8d81-6e9140eed09a","ios":"levelo://app?vid=50cc7a1f-02fb-419d-8d81-6e9140eed09a"},"vehicle_type_id":"4","last_reported":1784458988,"current_range_meters":37600,"station_id":"ce4bhgp2rcd13ifvqfc0","pricing_plan_id":"cebpf4jnsgd1na2vs0mg"},{"bike_id":"6dc303ad-c645-41ff-bd15-9564ddff83e6","system_id":"levelo_inurba_marseille","lat":43.26686,"lon":5.38263,"is_reserved":false,"is_disabled":false,"rental_uris":{"android":"levelo://app?vid=6dc303ad-c645-41ff-bd15-9564ddff83e6","ios":"levelo://app?vid=6dc303ad-c645-41ff-bd15-9564ddff83e6"},"vehicle_type_id":"4","last_reported":1784458988,"current_range_meters":22400,"station_id":"ce4bhg92rcd13ifvqf90","pricing_plan_id":"cebpf4jnsgd1na2vs0mg"},{"bike_id":"92981ba6-9010-48c9-a780-c7328a9a9075","system_id":"levelo_inurba_marseille","lat":43.28623,"lon":5.35106,"is_reserved":false,"is_disabled":false,"rental_uris":{"android":"levelo://app?vid=92981ba6-9010-48c9-a780-c7328a9a9075","ios":"levelo://app?vid=92981ba6-9010-48c9-a780-c7328a9a9075"},"vehicle_type_id":"4","last_reported":1784458988,"current_range_meters":17200,"station_id":"ce4bhch2rcd13ifvqeug","pricing_plan_id":"cebpf4jnsgd1na2vs0mg"},{"bike_id":"b9bf91b1-f6c3-4792-a380-5b253e1ff4ad","system_id":"levelo_inurba_marseille","lat":43.23185,"lon":5.35533,"is_reserved":false,"is_disabled":false,"rental_uris":{"android":"levelo://app?vid=b9bf91b1-f6c3-4792-a380-5b253e1ff4ad","ios":"levelo://app?vid=b9bf91b1-f6c3-4792-a380-5b253e1ff4ad"},"vehicle_type_id":"4","last_reported":1784458988,"current_range_meters":28800,"station_id":"ce4bhu92rcd13ifvqi70","pricing_plan_id":"cebpf4jnsgd1na2vs0mg"},{"bike_id":"d0689963-1360-4eec-9974-1c99b2ed8187","system_id":"levelo_inurba_marseille","lat":43.30598,"lon":5.37242,"is_reserved":false,"is_disabled":true,"rental_uris":{"android":"levelo://app?vid=d0689963-1360-4eec-9974-1c99b2ed8187","ios":"levelo://app?vid=d0689963-1360-4eec-9974-1c99b2ed8187"},"vehicle_type_id":"4","last_reported":1784458988,"current_range_meters":32400,"station_id":"ce4bgqh2rcd13ifvqc4g","pricing_plan_id":"cebpf4jnsgd1na2vs0mg"},{"bike_id":"924a1626-5fd2-481c-9ed9-8d01de5a6be3","system_id":"levelo_inurba_marseille","lat":43.30597,"lon":5.38237,"is_reserved":false,"is_disabled":false,"rental_uris":{"android":"levelo://app?vid=924a1626-5fd2-481c-9ed9-8d01de5a6be3","ios":"levelo://app?vid=924a1626-5fd2-481c-9ed9-8d01de5a6be3"},"vehicle_type_id":"4","last_reported":1784458988,"current_range_meters":14000,"station_id":"","pricing_plan_id":"cebpf4jnsgd1na2vs0mg"},{"bike_id":"4f54c651-15d1-492f-8d09-70f1f809ad4f","system_id":"levelo_inurba_marseille","lat":43.27482,"lon":5.42554,"is_reserved":false,"is_disabled":false,"rental_uris":{"android":"levelo://app?vid=4f54c651-15d1-492f-8d09-70f1f809ad4f","ios":"levelo://app?vid=4f54c651-15d1-492f-8d09-70f1f809ad4f"},"vehicle_type_id":"4","last_reported":1784458988,"current_range_meters":16800,"station_id":"st_d8t4bh7nbrqs73arha60","pricing_plan_id":"cebpf4jnsgd1na2vs0mg"},{"bike_id":"7065528a-f292-4b1d-9927-6e05933d2cf0","system_id":"levelo_inurba_marseille","lat":43.22558,"lon":5.41622,"is_reserved":false,"is_disabled":false,"rental_uris":{"android":"levelo://app?vid=7065528a-f292-4b1d-9927-6e05933d2cf0","ios":"levelo://app?vid=7065528a-f292-4b1d-9927-6e05933d2cf0"},"vehicle_type_id":"4","last_reported":1784458988,"current_range_meters":24400,"station_id":"st_d2o4gvlbi1j2169b742g","pricing_plan_id":"cebpf4jnsgd1na2vs0mg"},{"bike_id":"61dfef93-8b65-44c4-acc5-34f7208d20ce","system_id":"levelo_inurba_marseille","lat":43.30763,"lon":5.37646,"is_reserved":false,"is_disabled":false,"rental_uris":{"android":"levelo://app?vid=61dfef93-8b65-44c4-acc5-34f7208d20ce","ios":"levelo://app?vid=61dfef93-8b65-44c4-acc5-34f7208d20ce"},"vehicle_type_id":"4","last_reported":1784458988,"current_range_meters":36000,"station_id":"ce4bgv92rcd13ifvqcq0","pricing_plan_id":"cebpf4jnsgd1na2vs0mg"},{"bike_id":"c135ac9c-58c5-49a4-bc7a-ae6a1062556f","system_id":"levelo_inurba_marseille","lat":43.30709,"lon":5.38429,"is_reserved":false,"is_disabled":false,"rental_uris":{"android":"levelo://app?vid=c135ac9c-58c5-49a4-bc7a-ae6a1062556f","ios":"levelo://app?vid=c135ac9c-58c5-49a4-bc7a-ae6a1062556f"},"vehicle_type_id":"4","last_reported":1784458988,"current_range_meters":8400,"station_id":"","pricing_plan_id":"cebpf4jnsgd1na2vs0mg"},{"bike_id":"c0dde5a7-bd5b-4261-b98c-dcf85a08ca8f","system_id":"levelo_inurba_marseille","lat":43.28618,"lon":5.35106,"is_reserved":false,"is_disabled":false,"rental_uris":{"android":"levelo://app?vid=c0dde5a7-bd5b-4261-b98c-dcf85a08ca8f","ios":"levelo://app?vid=c0dde5a7-bd5b-4261-b98c-dcf85a08ca8f"},"vehicle_type_id":"4","last_reported":1784458988,"current_range_meters":27600,"station_id":"ce4bhch2rcd13ifvqeug","pricing_plan_id":"cebpf4jnsgd1na2vs0mg"},{"bike_id":"b346ac49-28c1-4168-90b0-ea3faad0fa56","system_id":"levelo_inurba_marseille","lat":43.30307,"lon":5.36891,"is_reserved":false,"is_disabled":false,"rental_uris":{"android":"levelo://app?vid=b346ac49-28c1-4168-90b0-ea3faad0fa56","ios":"levelo://app?vid=b346ac49-28c1-4168-90b0-ea3faad0fa56"},"vehicle_type_id":"4","last_reported":1784458988,"current_range_meters":30000,"station_id":"ce4bgqh2rcd13ifvqc5g","pricing_plan_id":"cebpf4jnsgd1na2vs0mg"},{"bike_id":"e35b3037-ccf2-48a7-b6f2-14a77143bba4","system_id":"levelo_inurba_marseille","lat":43.32353,"lon":5.36732,"is_reserved":false,"is_disabled":false,"rental_uris":{"android":"levelo://app?vid=e35b3037-ccf2-48a7-b6f2-14a77143bba4","ios":"levelo://app?vid=e35b3037-ccf2-48a7-b6f2-14a77143bba4"},"vehicle_type_id":"4","last_reported":1784458988,"current_range_meters":27600,"station_id":"ce4bhsh2rcd13ifvqi2g","pricing_plan_id":"cebpf4jnsgd1na2vs0mg"},{"bike_id":"f46ca526-f9cd-4571-808f-516a0c71ffbb","system_id":"levelo_inurba_marseille","lat":43.32484,"lon":5.38293,"is_reserved":false,"is_disabled":false,"rental_uris":{"android":"levelo://app?vid=f46ca526-f9cd-4571-808f-516a0c71ffbb","ios":"levelo://app?vid=f46ca526-f9cd-4571-808f-516a0c71ffbb"},"vehicle_type_id":"4","last_reported":1784458988,"current_range_meters":23200,"station_id":"st_d4asgbiv49dc73anf9m0","pricing_plan_id":"cebpf4jnsgd1na2vs0mg"},{"bike_id":"01de4d52-eee6-4b65-a489-93686c2f30d5","system_id":"levelo_inurba_marseille","lat":43.30373,"lon":5.41271,"is_reserved":false,"is_disabled":false,"rental_uris":{"android":"levelo://app?vid=01de4d52-eee6-4b65-a489-93686c2f30d5","ios":"levelo://app?vid=01de4d52-eee6-4b65-a489-93686c2f30d5"},"vehicle_type_id":"4","last_reported":1784458988,"current_range_meters":38000,"station_id":"ce4bhop2rcd13ifvqh8g","pricing_plan_id":"cebpf4jnsgd1na2vs0mg"},{"bike_id":"72abf338-85ce-4ded-9951-10135f573065","system_id":"levelo_inurba_marseille","lat":43.30614,"lon":5.37218,"is_reserved":false,"is_disabled":false,"rental_uris":{"android":"levelo://app?vid=72abf338-85ce-4ded-9951-10135f573065","ios":"levelo://app?vid=72abf338-85ce-4ded-9951-10135f573065"},"vehicle_type_id":"4","last_reported":1784458988,"current_range_meters":30800,"station_id":"ce4bgqh2rcd13ifvqc4g","pricing_plan_id":"cebpf4jnsgd1na2vs0mg"},{"bike_id":"d3763a0c-6ecc-4e5b-830e-5883d835d782","system_id":"levelo_inurba_marseille","lat":43.31714,"lon":5.43692,"is_reserved":false,"is_disabled":false,"rental_uris":{"android":"levelo://app?vid=d3763a0c-6ecc-4e5b-830e-5883d835d782","ios":"levelo://app?vid=d3763a0c-6ecc-4e5b-830e-5883d835d782"},"vehicle_type_id":"4","last_reported":1784458988,"current_range_meters":16400,"station_id":"ce4bhp92rcd13ifvqhcg","pricing_plan_id":"cebpf4jnsgd1na2vs0mg"},{"bike_id":"afd15987-0366-4fae-8e0c-423fc38b9e2b","system_id":"levelo_inurba_marseille","lat":43.28612,"lon":5.35108,"is_reserved":false,"is_disabled":false,"rental_uris":{"android":"levelo://app?vid=afd15987-0366-4fae-8e0c-423fc38b9e2b","ios":"levelo://app?vid=afd15987-0366-4fae-8e0c-423fc38b9e2b"},"vehicle_type_id":"4","last_reported":1784458988,"current_range_meters":14800,"station_id":"ce4bhch2rcd13ifvqeug","pricing_plan_id":"cebpf4jnsgd1na2vs0mg"},{"bike_id":"e0b59b94-4abf-4e2b-8eca-155fc1c0b722","system_id":"levelo_inurba_marseille","lat":43.23068,"lon":5.35501,"is_reserved":false,"is_disabled":false,"rental_uris":{"android":"levelo://app?vid=e0b59b94-4abf-4e2b-8eca-155fc1c0b722","ios":"levelo://app?vid=e0b59b94-4abf-4e2b-8eca-155fc1c0b722"},"vehicle_type_id":"4","last_reported":1784458988,"current_range_meters":38400,"station_id":"cpo3342slgdg3j2ifvpg","pricing_plan_id":"cebpf4jnsgd1na2vs0mg"},{"bike_id":"0b1313ee-4aa8-4517-b0cc-e46f842f6a81","system_id":"levelo_inurba_marseille","lat":43.24153,"lon":5.36401,"is_reserved":false,"is_disabled":false,"rental_uris":{"android":"levelo://app?vid=0b1313ee-4aa8-4517-b0cc-e46f842f6a81","ios":"levelo://app?vid=0b1313ee-4aa8-4517-b0cc-e46f842f6a81"},"vehicle_type_id":"4","last_reported":1784458988,"current_range_meters":21600,"station_id":"cpo36qri1sfpv3e86is0","pricing_plan_id":"cebpf4jnsgd1na2vs0mg"},{"bike_id":"eeb3b3a3-9ea7-44e8-a972-9517af5fdeba","system_id":"levelo_inurba_marseille","lat":43.30156,"lon":5.38096,"is_reserved":false,"is_disabled":false,"rental_uris":{"android":"levelo://app?vid=eeb3b3a3-9ea7-44e8-a972-9517af5fdeba","ios":"levelo://app?vid=eeb3b3a3-9ea7-44e8-a972-9517af5fdeba"},"vehicle_type_id":"4","last_reported":1784458988,"current_range_meters":32400,"station_id":"ce4bgjp2rcd13ifvqbh0","pricing_plan_id":"cebpf4jnsgd1na2vs0mg"},{"bike_id":"cb2085bc-8002-4e68-9944-c30bff48e6f7","system_id":"levelo_inurba_marseille","lat":43.30537,"lon":5.3655,"is_reserved":false,"is_disabled":false,"rental_uris":{"android":"levelo://app?vid=cb2085bc-8002-4e68-9944-c30bff48e6f7","ios":"levelo://app?vid=cb2085bc-8002-4e68-9944-c30bff48e6f7"},"vehicle_type_id":"4","last_reported":1784458988,"current_range_meters":16000,"station_id":"ce4bgs12rcd13ifvqcag","pricing_plan_id":"cebpf4jnsgd1na2vs0mg"},{"bike_id":"08032647-4e4b-4d46-b2bb-1df2e3cbec8b","system_id":"levelo_inurba_marseille","lat":43.28545,"lon":5.44113,"is_reserved":false,"is_disabled":false,"rental_uris":{"android":"levelo://app?vid=08032647-4e4b-4d46-b2bb-1df2e3cbec8b","ios":"levelo://app?vid=08032647-4e4b-4d46-b2bb-1df2e3cbec8b"},"vehicle_type_id":"4","last_reported":1784458988,"current_range_meters":38000,"station_id":"st_d3j3df2ikq2c7380ej80","pricing_plan_id":"cebpf4jnsgd1na2vs0mg"},{"bike_id":"2670e243-d4b9-4cc6-bf3d-58451265730a","system_id":"levelo_inurba_marseille","lat":43.25188,"lon":5.37317,"is_reserved":false,"is_disabled":false,"rental_uris":{"android":"levelo://app?vid=2670e243-d4b9-4cc6-bf3d-58451265730a","ios":"levelo://app?vid=2670e243-d4b9-4cc6-bf3d-58451265730a"},"vehicle_type_id":"4","last_reported":1784458988,"current_range_meters":23200,"station_id":"","pricing_plan_id":"cebpf4jnsgd1na2vs0mg"},{"bike_id":"a0b9bee8-51b2-4a1d-a51a-e6207f742b62","system_id":"levelo_inurba_marseille","lat":43.30522,"lon":5.36561,"is_reserved":false,"is_disabled":false,"rental_uris":{"android":"levelo://app?vid=a0b9bee8-51b2-4a1d-a51a-e6207f742b62","ios":"levelo://app?vid=a0b9bee8-51b2-4a1d-a51a-e6207f742b62"},"vehicle_type_id":"4","last_reported":1784458988,"current_range_meters":38400,"station_id":"ce4bgs12rcd13ifvqcag","pricing_plan_id":"cebpf4jnsgd1na2vs0mg"},{"bike_id":"80e4e588-fcb3-4485-8528-a65f9a37837e","system_id":"levelo_inurba_marseille","lat":43.29281,"lon":5.40127,"is_reserved":false,"is_disabled":false,"rental_uris":{"android":"levelo://app?vid=80e4e588-fcb3-4485-8528-a65f9a37837e","ios":"levelo://app?vid=80e4e588-fcb3-4485-8528-a65f9a37837e"},"vehicle_type_id":"4","last_reported":1784458988,"current_range_meters":8000,"station_id":"ce4bh312rcd13ifvqdk0","pricing_plan_id":"cebpf4jnsgd1na2vs0mg"},{"bike_id":"8b6331b3-2914-4282-8a4c-45cca24291f2","system_id":"levelo_inurba_marseille","lat":43.30899,"lon":5.40159,"is_reserved":false,"is_disabled":false,"rental_uris":{"android":"levelo://app?vid=8b6331b3-2914-4282-8a4c-45cca24291f2","ios":"levelo://app?vid=8b6331b3-2914-4282-8a4c-45cca24291f2"},"vehicle_type_id":"4","last_reported":1784458988,"current_range_meters":22000,"station_id":"","pricing_plan_id":"cebpf4jnsgd1na2vs0mg"},{"bike_id":"e2c2480d-2e3b-4d75-b2f5-0c8b238ecb3c","system_id":"levelo_inurba_marseille","lat":43.28086,"lon":5.39651,"is_reserved":false,"is_disabled":false,"rental_uris":{"android":"levelo://app?vid=e2c2480d-2e3b-4d75-b2f5-0c8b238ecb3c","ios":"levelo://app?vid=e2c2480d-2e3b-4d75-b2f5-0c8b238ecb3c"},"vehicle_type_id":"4","last_reported":1784458988,"current_range_meters":14800,"station_id":"ce4bho12rcd13ifvqh2g","pricing_plan_id":"cebpf4jnsgd1na2vs0mg"},{"bike_id":"96f0ca61-b1bd-4f3a-bcc1-74fe2aa38a41","system_id":"levelo_inurba_marseille","lat":43.26226,"lon":5.4046,"is_reserved":false,"is_disabled":false,"rental_uris":{"android":"levelo://app?vid=96f0ca61-b1bd-4f3a-bcc1-74fe2aa38a41","ios":"levelo://app?vid=96f0ca61-b1bd-4f3a-bcc1-74fe2aa38a41"},"vehicle_type_id":"4","last_reported":1784458988,"current_range_meters":30800,"station_id":"ce4bhmh2rcd13ifvqgmg","pricing_plan_id":"cebpf4jnsgd1na2vs0mg"},{"bike_id":"0d3e100f-48fe-47e1-bef7-0a1dcfcc4955","system_id":"levelo_inurba_marseille","lat":43.33719,"lon":5.39225,"is_reserved":false,"is_disabled":false,"rental_uris":{"android":"levelo://app?vid=0d3e100f-48fe-47e1-bef7-0a1dcfcc4955","ios":"levelo://app?vid=0d3e100f-48fe-47e1-bef7-0a1dcfcc4955"},"vehicle_type_id":"4","last_reported":1784458988,"current_range_meters":39200,"station_id":"ce4bhr92rcd13ifvqhsg","pricing_plan_id":"cebpf4jnsgd1na2vs0mg"},{"bike_id":"3513a41b-e203-4104-9656-3070d238f21e","system_id":"levelo_inurba_marseille","lat":43.32643,"lon":5.40963,"is_reserved":false,"is_disabled":false,"rental_uris":{"android":"levelo://app?vid=3513a41b-e203-4104-9656-3070d238f21e","ios":"levelo://app?vid=3513a41b-e203-4104-9656-3070d238f21e"},"vehicle_type_id":"4","last_reported":1784458988,"current_range_meters":39200,"station_id":"ce4bhpp2rcd13ifvqhgg","pricing_plan_id":"cebpf4jnsgd1na2vs0mg"},{"bike_id":"1af5869b-df78-446b-9746-1bf004ecb297","system_id":"levelo_inurba_marseille","lat":43.29784,"lon":5.37101,"is_reserved":false,"is_disabled":false,"rental_uris":{"android":"levelo://app?vid=1af5869b-df78-446b-9746-1bf004ecb297","ios":"levelo://app?vid=1af5869b-df78-446b-9746-1bf004ecb297"},"vehicle_type_id":"4","last_reported":1784458988,"current_range_meters":20800,"station_id":"ce4bgop2rcd13ifvqc1g","pricing_plan_id":"cebpf4jnsgd1na2vs0mg"},{"bike_id":"bda065ee-aa31-4ab6-baf5-9dba24094348","system_id":"levelo_inurba_marseille","lat":43.27994,"lon":5.40015,"is_reserved":false,"is_disabled":false,"rental_uris":{"android":"levelo://app?vid=bda065ee-aa31-4ab6-baf5-9dba24094348","ios":"levelo://app?vid=bda065ee-aa31-4ab6-baf5-9dba24094348"},"vehicle_type_id":"4","last_reported":1784458988,"current_range_meters":9200,"station_id":"ce4bho92rcd13ifvqh4g","pricing_plan_id":"cebpf4jnsgd1na2vs0mg"},{"bike_id":"59b297a3-55d0-49d1-9602-cd941ad75cb6","system_id":"levelo_inurba_marseille","lat":43.23189,"lon":5.39981,"is_reserved":false,"is_disabled":false,"rental_uris":{"android":"levelo://app?vid=59b297a3-55d0-49d1-9602-cd941ad75cb6","ios":"levelo://app?vid=59b297a3-55d0-49d1-9602-cd941ad75cb6"},"vehicle_type_id":"4","last_reported":1784458988,"current_range_meters":12800,"station_id":"ce4bhn12rcd13ifvqgqg","pricing_plan_id":"cebpf4jnsgd1na2vs0mg"},{"bike_id":"2af28104-73c7-405b-acf1-640322fd0a86","system_id":"levelo_inurba_marseille","lat":43.31038,"lon":5.3938,"is_reserved":false,"is_disabled":false,"rental_uris":{"android":"levelo://app?vid=2af28104-73c7-405b-acf1-640322fd0a86","ios":"levelo://app?vid=2af28104-73c7-405b-acf1-640322fd0a86"},"vehicle_type_id":"4","last_reported":1784458988,"current_range_meters":15200,"station_id":"","pricing_plan_id":"cebpf4jnsgd1na2vs0mg"},{"bike_id":"af9cb856-2a1a-4801-80cc-f305db9e72a7","system_id":"levelo_inurba_marseille","lat":43.25928,"lon":5.40913,"is_reserved":false,"is_disabled":false,"rental_uris":{"android":"levelo://app?vid=af9cb856-2a1a-4801-80cc-f305db9e72a7","ios":"levelo://app?vid=af9cb856-2a1a-4801-80cc-f305db9e72a7"},"vehicle_type_id":"4","last_reported":1784458988,"current_range_meters":37600,"station_id":"ce4bhm92rcd13ifvqglg","pricing_plan_id":"cebpf4jnsgd1na2vs0mg"},{"bike_id":"dfac0429-a154-4284-9b71-592f8fff0c6c","system_id":"levelo_inurba_marseille","lat":43.24169,"lon":5.36399,"is_reserved":false,"is_disabled":false,"rental_uris":{"android":"levelo://app?vid=dfac0429-a154-4284-9b71-592f8fff0c6c","ios":"levelo://app?vid=dfac0429-a154-4284-9b71-592f8fff0c6c"},"vehicle_type_id":"4","last_reported":1784458988,"current_range_meters":19600,"station_id":"cpo36qri1sfpv3e86is0","pricing_plan_id":"cebpf4jnsgd1na2vs0mg"},{"bike_id":"540e4dbb-0755-42f4-99bb-c35f54bd581d","system_id":"levelo_inurba_marseille","lat":43.30149,"lon":5.38084,"is_reserved":false,"is_disabled":false,"rental_uris":{"android":"levelo://app?vid=540e4dbb-0755-42f4-99bb-c35f54bd581d","ios":"levelo://app?vid=540e4dbb-0755-42f4-99bb-c35f54bd581d"},"vehicle_type_id":"4","last_reported":1784458988,"current_range_meters":36000,"station_id":"ce4bgjp2rcd13ifvqbh0","pricing_plan_id":"cebpf4jnsgd1na2vs0mg"},{"bike_id":"2e35ff17-f209-4373-a43c-409dc4586a55","system_id":"levelo_inurba_marseille","lat":43.33774,"lon":5.36747,"is_reserved":false,"is_disabled":true,"rental_uris":{"android":"levelo://app?vid=2e35ff17-f209-4373-a43c-409dc4586a55","ios":"levelo://app?vid=2e35ff17-f209-4373-a43c-409dc4586a55"},"vehicle_type_id":"4","last_reported":1784458988,"current_range_meters":0,"station_id":"","pricing_plan_id":"cebpf4jnsgd1na2vs0mg"},{"bike_id":"bf92e73f-5ebb-482e-9b16-38b660c0b75a","system_id":"levelo_inurba_marseille","lat":43.2174,"lon":5.34599,"is_reserved":false,"is_disabled":true,"rental_uris":{"android":"levelo://app?vid=bf92e73f-5ebb-482e-9b16-38b660c0b75a","ios":"levelo://app?vid=bf92e73f-5ebb-482e-9b16-38b660c0b75a"},"vehicle_type_id":"4","last_reported":1784458988,"current_range_meters":5600,"station_id":"st_cvj6r9ubvosntc0bgbag","pricing_plan_id":"cebpf4jnsgd1na2vs0mg"},{"bike_id":"98bce0f5-25e4-4db3-b698-d3dcf6d7b213","system_id":"levelo_inurba_marseille","lat":43.248,"lon":5.3745,"is_reserved":false,"is_disabled":false,"rental_uris":{"android":"levelo://app?vid=98bce0f5-25e4-4db3-b698-d3dcf6d7b213","ios":"levelo://app?vid=98bce0f5-25e4-4db3-b698-d3dcf6d7b213"},"vehicle_type_id":"4","last_reported":1784458988,"current_range_meters":22000,"station_id":"ce4bhgh2rcd13ifvqfb0","pricing_plan_id":"cebpf4jnsgd1na2vs0mg"},{"bike_id":"0ccdd5d1-13a3-4cc4-beee-acb9a334278d","system_id":"levelo_inurba_marseille","lat":43.23188,"lon":5.35547,"is_reserved":false,"is_disabled":false,"rental_uris":{"android":"levelo://app?vid=0ccdd5d1-13a3-4cc4-beee-acb9a334278d","ios":"levelo://app?vid=0ccdd5d1-13a3-4cc4-beee-acb9a334278d"},"vehicle_type_id":"4","last_reported":1784458988,"current_range_meters":39200,"station_id":"ce4bhu92rcd13ifvqi70","pricing_plan_id":"cebpf4jnsgd1na2vs0mg"},{"bike_id":"4e64a337-fa86-41a6-9546-34677037de80","system_id":"levelo_inurba_marseille","lat":43.31228,"lon":5.36898,"is_reserved":false,"is_disabled":false,"rental_uris":{"android":"levelo://app?vid=4e64a337-fa86-41a6-9546-34677037de80","ios":"levelo://app?vid=4e64a337-fa86-41a6-9546-34677037de80"},"vehicle_type_id":"4","last_reported":1784458988,"current_range_meters":38000,"station_id":"ce4bgl92rcd13ifvqbq0","pricing_plan_id":"cebpf4jnsgd1na2vs0mg"},{"bike_id":"f5797822-b37c-4525-b11f-622c83bc27cc","system_id":"levelo_inurba_marseille","lat":43.28653,"lon":5.36307,"is_reserved":false,"is_disabled":false,"rental_uris":{"android":"levelo://app?vid=f5797822-b37c-4525-b11f-622c83bc27cc","ios":"levelo://app?vid=f5797822-b37c-4525-b11f-622c83bc27cc"},"vehicle_type_id":"4","last_reported":1784458988,"current_range_meters":15200,"station_id":"ce4bhah2rcd13ifvqej0","pricing_plan_id":"cebpf4jnsgd1na2vs0mg"},{"bike_id":"3ce46721-3bce-4a5c-a8cf-0762eca1ee9b","system_id":"levelo_inurba_marseille","lat":43.32486,"lon":5.36576,"is_reserved":false,"is_disabled":false,"rental_uris":{"android":"levelo://app?vid=3ce46721-3bce-4a5c-a8cf-0762eca1ee9b","ios":"levelo://app?vid=3ce46721-3bce-4a5c-a8cf-0762eca1ee9b"},"vehicle_type_id":"4","last_reported":1784458988,"current_range_meters":38000,"station_id":"ce4bhs12rcd13ifvqhvg","pricing_plan_id":"cebpf4jnsgd1na2vs0mg"},{"bike_id":"f0da9134-f11f-4f60-a3b4-bd91a12f57b2","system_id":"levelo_inurba_marseille","lat":43.2997,"lon":5.38779,"is_reserved":false,"is_disabled":false,"rental_uris":{"android":"levelo://app?vid=f0da9134-f11f-4f60-a3b4-bd91a12f57b2","ios":"levelo://app?vid=f0da9134-f11f-4f60-a3b4-bd91a12f57b2"},"vehicle_type_id":"4","last_reported":1784458988,"current_range_meters":16800,"station_id":"","pricing_plan_id":"cebpf4jnsgd1na2vs0mg"},{"bike_id":"bf94bbb1-0344-4a40-9e3a-5c4e2673d65c","system_id":"levelo_inurba_marseille","lat":43.29938,"lon":5.36548,"is_reserved":false,"is_disabled":false,"rental_uris":{"android":"levelo://app?vid=bf94bbb1-0344-4a40-9e3a-5c4e2673d65c","ios":"levelo://app?vid=bf94bbb1-0344-4a40-9e3a-5c4e2673d65c"},"vehicle_type_id":"4","last_reported":1784458988,"current_range_meters":32000,"station_id":"ce4bgm92rcd13ifvqbr0","pricing_plan_id":"cebpf4jnsgd1na2vs0mg"},{"bike_id":"e33e7e56-b1af-4e57-9514-4de84c42a5c6","system_id":"levelo_inurba_marseille","lat":43.23954,"lon":5.36642,"is_reserved":false,"is_disabled":true,"rental_uris":{"android":"levelo://app?vid=e33e7e56-b1af-4e57-9514-4de84c42a5c6","ios":"levelo://app?vid=e33e7e56-b1af-4e57-9514-4de84c42a5c6"},"vehicle_type_id":"4","last_reported":1784458988,"current_range_meters":22800,"station_id":"ce4bhi12rcd13ifvqfp0","pricing_plan_id":"cebpf4jnsgd1na2vs0mg"},{"bike_id":"75ae76fc-4dd7-4feb-9ce7-6f0960be90fd","system_id":"levelo_inurba_marseille","lat":43.28969,"lon":5.34944,"is_reserved":false,"is_disabled":false,"rental_uris":{"android":"levelo://app?vid=75ae76fc-4dd7-4feb-9ce7-6f0960be90fd","ios":"levelo://app?vid=75ae76fc-4dd7-4feb-9ce7-6f0960be90fd"},"vehicle_type_id":"4","last_reported":1784458988,"current_range_meters":37600,"station_id":"","pricing_plan_id":"cebpf4jnsgd1na2vs0mg"},{"bike_id":"7604574c-06cb-407e-9e16-b7858411e1bc","system_id":"levelo_inurba_marseille","lat":43.27818,"lon":5.40738,"is_reserved":false,"is_disabled":true,"rental_uris":{"android":"levelo://app?vid=7604574c-06cb-407e-9e16-b7858411e1bc","ios":"levelo://app?vid=7604574c-06cb-407e-9e16-b7858411e1bc"},"vehicle_type_id":"4","last_reported":1784458988,"current_range_meters":16400,"station_id":"ce4bhnh2rcd13ifvqgtg","pricing_plan_id":"cebpf4jnsgd1na2vs0mg"},{"bike_id":"600d3649-4b6d-473c-a715-d27921e00684","system_id":"levelo_inurba_marseille","lat":43.23183,"lon":5.35551,"is_reserved":false,"is_disabled":false,"rental_uris":{"android":"levelo://app?vid=600d3649-4b6d-473c-a715-d27921e00684","ios":"levelo://app?vid=600d3649-4b6d-473c-a715-d27921e00684"},"vehicle_type_id":"4","last_reported":1784458988,"current_range_meters":19200,"station_id":"ce4bhu92rcd13ifvqi70","pricing_plan_id":"cebpf4jnsgd1na2vs0mg"},{"bike_id":"4f5d180b-7df1-4bec-b4f8-45c82ca3cddb","system_id":"levelo_inurba_marseille","lat":43.28487,"lon":5.48413,"is_reserved":false,"is_disabled":false,"rental_uris":{"android":"levelo://app?vid=4f5d180b-7df1-4bec-b4f8-45c82ca3cddb","ios":"levelo://app?vid=4f5d180b-7df1-4bec-b4f8-45c82ca3cddb"},"vehicle_type_id":"4","last_reported":1784458988,"current_range_meters":27600,"station_id":"st_d3svhcjqgbts73a3dn0g","pricing_plan_id":"cebpf4jnsgd1na2vs0mg"},{"bike_id":"8601b829-59f8-4eab-bab2-2f8e891d8617","system_id":"levelo_inurba_marseille","lat":43.254993,"lon":5.376487,"is_reserved":false,"is_disabled":false,"rental_uris":{"android":"levelo://app?vid=8601b829-59f8-4eab-bab2-2f8e891d8617","ios":"levelo://app?vid=8601b829-59f8-4eab-bab2-2f8e891d8617"},"vehicle_type_id":"4","last_reported":1784458988,"current_range_meters":21600,"station_id":"ce4bhh12rcd13ifvqff0","pricing_plan_id":"cebpf4jnsgd1na2vs0mg"},{"bike_id":"efc5a938-2767-446d-9500-0368f010ff5f","system_id":"levelo_inurba_marseille","lat":43.2893,"lon":5.39626,"is_reserved":false,"is_disabled":true,"rental_uris":{"android":"levelo://app?vid=efc5a938-2767-446d-9500-0368f010ff5f","ios":"levelo://app?vid=efc5a938-2767-446d-9500-0368f010ff5f"},"vehicle_type_id":"4","last_reported":1784458988,"current_range_meters":38800,"station_id":"ce4bh3h2rcd13ifvqdn0","pricing_plan_id":"cebpf4jnsgd1na2vs0mg"},{"bike_id":"61eae8cb-ae43-4f8d-8019-9d934f2788a8","system_id":"levelo_inurba_marseille","lat":43.28699,"lon":5.37401,"is_reserved":false,"is_disabled":false,"rental_uris":{"android":"levelo://app?vid=61eae8cb-ae43-4f8d-8019-9d934f2788a8","ios":"levelo://app?vid=61eae8cb-ae43-4f8d-8019-9d934f2788a8"},"vehicle_type_id":"4","last_reported":1784458988,"current_range_meters":36800,"station_id":"ce4bh3p2rcd13ifvqdq0","pricing_plan_id":"cebpf4jnsgd1na2vs0mg"},{"bike_id":"81959744-4786-4515-8028-caa8a3c86e5c","system_id":"levelo_inurba_marseille","lat":43.23892,"lon":5.37505,"is_reserved":false,"is_disabled":false,"rental_uris":{"android":"levelo://app?vid=81959744-4786-4515-8028-caa8a3c86e5c","ios":"levelo://app?vid=81959744-4786-4515-8028-caa8a3c86e5c"},"vehicle_type_id":"4","last_reported":1784458988,"current_range_meters":39200,"station_id":"st_d6sm7csbq4hs73f8fpjg","pricing_plan_id":"cebpf4jnsgd1na2vs0mg"},{"bike_id":"5c86d26e-fc15-401d-adac-561cb979e7f8","system_id":"levelo_inurba_marseille","lat":43.23188,"lon":5.4001,"is_reserved":false,"is_disabled":false,"rental_uris":{"android":"levelo://app?vid=5c86d26e-fc15-401d-adac-561cb979e7f8","ios":"levelo://app?vid=5c86d26e-fc15-401d-adac-561cb979e7f8"},"vehicle_type_id":"4","last_reported":1784458988,"current_range_meters":14800,"station_id":"ce4bhn12rcd13ifvqgqg","pricing_plan_id":"cebpf4jnsgd1na2vs0mg"},{"bike_id":"93903621-92f5-4382-8dac-b5557ae232b0","system_id":"levelo_inurba_marseille","lat":43.30207,"lon":5.36832,"is_reserved":false,"is_disabled":false,"rental_uris":{"android":"levelo://app?vid=93903621-92f5-4382-8dac-b5557ae232b0","ios":"levelo://app?vid=93903621-92f5-4382-8dac-b5557ae232b0"},"vehicle_type_id":"4","last_reported":1784458988,"current_range_meters":29600,"station_id":"","pricing_plan_id":"cebpf4jnsgd1na2vs0mg"},{"bike_id":"9e7b599e-2368-470a-996a-9e46d15e7da0","system_id":"levelo_inurba_marseille","lat":43.25719,"lon":5.41118,"is_reserved":false,"is_disabled":false,"rental_uris":{"android":"levelo://app?vid=9e7b599e-2368-470a-996a-9e46d15e7da0","ios":"levelo://app?vid=9e7b599e-2368-470a-996a-9e46d15e7da0"},"vehicle_type_id":"4","last_reported":1784458988,"current_range_meters":38400,"station_id":"ce4bhkp2rcd13ifvqgd0","pricing_plan_id":"cebpf4jnsgd1na2vs0mg"},{"bike_id":"ae4b57fa-d019-4333-b533-6efe2c7a22cf","system_id":"levelo_inurba_marseille","lat":43.30341,"lon":5.41875,"is_reserved":false,"is_disabled":false,"rental_uris":{"android":"levelo://app?vid=ae4b57fa-d019-4333-b533-6efe2c7a22cf","ios":"levelo://app?vid=ae4b57fa-d019-4333-b533-6efe2c7a22cf"},"vehicle_type_id":"4","last_reported":1784458988,"current_range_meters":39200,"station_id":"ce4bhop2rcd13ifvqh7g","pricing_plan_id":"cebpf4jnsgd1na2vs0mg"},{"bike_id":"9df5e7f3-1cb9-43a4-9683-68d4da00ac21","system_id":"levelo_inurba_marseille","lat":43.24998,"lon":5.38923,"is_reserved":false,"is_disabled":false,"rental_uris":{"android":"levelo://app?vid=9df5e7f3-1cb9-43a4-9683-68d4da00ac21","ios":"levelo://app?vid=9df5e7f3-1cb9-43a4-9683-68d4da00ac21"},"vehicle_type_id":"4","last_reported":1784458988,"current_range_meters":9200,"station_id":"ce4bhgp2rcd13ifvqfd0","pricing_plan_id":"cebpf4jnsgd1na2vs0mg"},{"bike_id":"5450c789-a3b5-4b2b-b675-738dbe9d501d","system_id":"levelo_inurba_marseille","lat":43.26206,"lon":5.37444,"is_reserved":false,"is_disabled":false,"rental_uris":{"android":"levelo://app?vid=5450c789-a3b5-4b2b-b675-738dbe9d501d","ios":"levelo://app?vid=5450c789-a3b5-4b2b-b675-738dbe9d501d"},"vehicle_type_id":"4","last_reported":1784458988,"current_range_meters":38800,"station_id":"ce4bhgp2rcd13ifvqfc0","pricing_plan_id":"cebpf4jnsgd1na2vs0mg"},{"bike_id":"7ae0bf89-94c1-4ac8-bdab-62772f51f504","system_id":"levelo_inurba_marseille","lat":43.30771,"lon":5.37636,"is_reserved":false,"is_disabled":false,"rental_uris":{"android":"levelo://app?vid=7ae0bf89-94c1-4ac8-bdab-62772f51f504","ios":"levelo://app?vid=7ae0bf89-94c1-4ac8-bdab-62772f51f504"},"vehicle_type_id":"4","last_reported":1784458988,"current_range_meters":39200,"station_id":"ce4bgv92rcd13ifvqcq0","pricing_plan_id":"cebpf4jnsgd1na2vs0mg"},{"bike_id":"6dcae072-db9d-47d6-8753-8b202b7aab14","system_id":"levelo_inurba_marseille","lat":43.26392,"lon":5.41083,"is_reserved":false,"is_disabled":false,"rental_uris":{"android":"levelo://app?vid=6dcae072-db9d-47d6-8753-8b202b7aab14","ios":"levelo://app?vid=6dcae072-db9d-47d6-8753-8b202b7aab14"},"vehicle_type_id":"4","last_reported":1784458988,"current_range_meters":28400,"station_id":"st_d4e5ca6na9uc73bfl5fg","pricing_plan_id":"cebpf4jnsgd1na2vs0mg"},{"bike_id":"3a7bc097-3d28-4f52-88ed-d3904da59c29","system_id":"levelo_inurba_marseille","lat":43.24464,"lon":5.42535,"is_reserved":false,"is_disabled":false,"rental_uris":{"android":"levelo://app?vid=3a7bc097-3d28-4f52-88ed-d3904da59c29","ios":"levelo://app?vid=3a7bc097-3d28-4f52-88ed-d3904da59c29"},"vehicle_type_id":"4","last_reported":1784458988,"current_range_meters":39200,"station_id":"st_d4a3vfp97mjs738cd8kg","pricing_plan_id":"cebpf4jnsgd1na2vs0mg"},{"bike_id":"659a68bc-86a6-4daf-9f1f-d3e7a32b91b8","system_id":"levelo_inurba_marseille","lat":43.23188,"lon":5.35567,"is_reserved":false,"is_disabled":false,"rental_uris":{"android":"levelo://app?vid=659a68bc-86a6-4daf-9f1f-d3e7a32b91b8","ios":"levelo://app?vid=659a68bc-86a6-4daf-9f1f-d3e7a32b91b8"},"vehicle_type_id":"4","last_reported":1784458988,"current_range_meters":37600,"station_id":"ce4bhu92rcd13ifvqi70","pricing_plan_id":"cebpf4jnsgd1na2vs0mg"},{"bike_id":"b360ee01-92e4-4181-b8a6-8342211574a5","system_id":"levelo_inurba_marseille","lat":43.28934,"lon":5.3664,"is_reserved":false,"is_disabled":false,"rental_uris":{"android":"levelo://app?vid=b360ee01-92e4-4181-b8a6-8342211574a5","ios":"levelo://app?vid=b360ee01-92e4-4181-b8a6-8342211574a5"},"vehicle_type_id":"4","last_reported":1784458988,"current_range_meters":30000,"station_id":"ce4bhap2rcd13ifvqek0","pricing_plan_id":"cebpf4jnsgd1na2vs0mg"},{"bike_id":"098cb1b0-aa89-454f-9bc2-2c4ea2f0e0ee","system_id":"levelo_inurba_marseille","lat":43.31696,"lon":5.40461,"is_reserved":false,"is_disabled":false,"rental_uris":{"android":"levelo://app?vid=098cb1b0-aa89-454f-9bc2-2c4ea2f0e0ee","ios":"levelo://app?vid=098cb1b0-aa89-454f-9bc2-2c4ea2f0e0ee"},"vehicle_type_id":"4","last_reported":1784458988,"current_range_meters":12800,"station_id":"ce4bh012rcd13ifvqd00","pricing_plan_id":"cebpf4jnsgd1na2vs0mg"},{"bike_id":"8b71cecb-a968-4b35-b20c-dec74d62a3f0","system_id":"levelo_inurba_marseille","lat":43.29588,"lon":5.36724,"is_reserved":false,"is_disabled":false,"rental_uris":{"android":"levelo://app?vid=8b71cecb-a968-4b35-b20c-dec74d62a3f0","ios":"levelo://app?vid=8b71cecb-a968-4b35-b20c-dec74d62a3f0"},"vehicle_type_id":"4","last_reported":1784458988,"current_range_meters":37600,"station_id":"","pricing_plan_id":"cebpf4jnsgd1na2vs0mg"},{"bike_id":"d756dabb-959f-44e4-b706-9bf5ef87938c","system_id":"levelo_inurba_marseille","lat":43.2799,"lon":5.40028,"is_reserved":false,"is_disabled":false,"rental_uris":{"android":"levelo://app?vid=d756dabb-959f-44e4-b706-9bf5ef87938c","ios":"levelo://app?vid=d756dabb-959f-44e4-b706-9bf5ef87938c"},"vehicle_type_id":"4","last_reported":1784458988,"current_range_meters":30000,"station_id":"ce4bho92rcd13ifvqh4g","pricing_plan_id":"cebpf4jnsgd1na2vs0mg"},