{"last_updated":1724425799,"ttl":30,"version":"2.2","data":{"bikes":[{"bike_id":"ca453713-9d2d-4d7e-8768-c5c2dfecc0a2","system_id":"levelo_inurba_marseille","lat":43.312239,"lon":5.368562,"is_reserved":false,"is_disabled":false,"rental_uris":{"android":"levelo://app?vid=ca453713-9d2d-4d7e-8768-c5c2dfecc0a2","ios":"levelo://app?vid=ca453713-9d2d-4d7e-8768-c5c2dfecc0a2"},"vehicle_type_id":"4","last_reported":1724425799,"current_range_meters":0,"station_id":"ce4bgl92rcd13ifvqbq0","pricing_plan_id":"cebpf4jnsgd1na2vs0mg"},{"bike_id":"3818618b-d297-49f1-bd52-afee350e6f53","system_id":"levelo_inurba_marseille","lat":43.311978,"lon":5.368788,"is_reserved":false,"is_disabled":false,"rental_uris":{"android":"levelo://app?vid=3818618b-d297-49f1-bd52-afee350e6f53","ios":"levelo://app?vid=3818618b-d297-49f1-bd52-afee350e6f53"},"vehicle_type_id":"4","last_reported":1724425799,"current_range_meters":26400,"station_id":"ce4bgl92rcd13ifvqbq0","pricing_plan_id":"cebpf4jnsgd1na2vs0mg"},{"bike_id":"1b1f2664-b301-42af-8c47-33dc3b7487ce","system_id":"levelo_inurba_marseille","lat":43.309076,"lon":5.368465,"is_reserved":false,"is_disabled":false,"rental_uris":{"android":"levelo://app?vid=1b1f2664-b301-42af-8c47-33dc3b7487ce","ios":"levelo://app?vid=1b1f2664-b301-42af-8c47-33dc3b7487ce"},"vehicle_type_id":"4","last_reported":1724425799,"current_range_meters":800,"station_id":"ce4bgn92rcd13ifvqbvg","pricing_plan_id":"cebpf4jnsgd1na2vs0mg"},{"bike_id":"4543173f-ea75-49da-95d1-e1b7c5c7c993","system_id":"levelo_inurba_marseille","lat":43.309076,"lon":5.368465,"is_reserved":false,"is_disabled":false,"rental_uris":{"android":"levelo://app?vid=4543173f-ea75-49da-95d1-e1b7c5c7c993","ios":"levelo://app?vid=4543173f-ea75-49da-95d1-e1b7c5c7c993"},"vehicle_type_id":"4","last_reported":1724425799,"current_range_meters":11600,"station_id":"ce4bgn92rcd13ifvqbvg","pricing_plan_id":"cebpf4jnsgd1na2vs0mg"},{"bike_id":"b5d94cf7-c326-4633-a6f9-039304654858","system_id":"levelo_inurba_marseille","lat":43.309076,"lon":5.368465,"is_reserved":false,"is_disabled":false,"rental_uris":{"android":"levelo://app?vid=b5d94cf7-c326-4633-a6f9-039304654858","ios":"levelo://app?vid=b5d94cf7-c326-4633-a6f9-039304654858"},"vehicle_type_id":"4","last_reported":1724425799,"current_range_meters":21200,"station_id":"ce4bgn92rcd13ifvqbvg","pricing_plan_id":"cebpf4jnsgd1na2vs0mg"},{"bike_id":"44139344-b127-4d2a-8edf-c2496856836d","system_id":"levelo_inurba_marseille","lat":43.314811,"lon":5.373103,"is_reserved":false,"is_disabled":false,"rental_uris":{"android":"levelo://app?vid=44139344-b127-4d2a-8edf-c2496856836d","ios":"levelo://app?vid=44139344-b127-4d2a-8edf-c2496856836d"},"vehicle_type_id":"4","last_reported":1724425799,"current_range_meters":0,"station_id":"ce4bgt12rcd13ifvqcd0","pricing_plan_id":"cebpf4jnsgd1na2vs0mg"},{"bike_id":"ed27ac3e-172b-4109-9627-7ed298f98161","system_id":"levelo_inurba_marseille","lat":43.309034,"lon":5.371783,"is_reserved":false,"is_disabled":false,"rental_uris":{"android":"levelo://app?vid=ed27ac3e-172b-4109-9627-7ed298f98161","ios":"levelo://app?vid=ed27ac3e-172b-4109-9627-7ed298f98161"},"vehicle_type_id":"4","last_reported":1724425799,"current_range_meters":3200,"station_id":"ce4bguh2rcd13ifvqckg","pricing_plan_id":"cebpf4jnsgd1na2vs0mg"},{"bike_id":"aec88bb5-e81a-4d8c-9533-ef6ec33f9668","system_id":"levelo_inurba_marseille","lat":43.30548,"lon":5.36527,"is_reserved":false,"is_disabled":false,"rental_uris":{"android":"levelo://app?vid=aec88bb5-e81a-4d8c-9533-ef6ec33f9668","ios":"levelo://app?vid=aec88bb5-e81a-4d8c-9533-ef6ec33f9668"},"vehicle_type_id":"4","last_reported":1724425799,"current_range_meters":15200,"station_id":"ce4bgs12rcd13ifvqcag","pricing_plan_id":"cebpf4jnsgd1na2vs0mg"},{"bike_id":"20086a19-a247-463a-aeb7-09eafc40ccc7","system_id":"levelo_inurba_marseille","lat":43.305466,"lon":5.365237,"is_reserved":false,"is_disabled":false,"rental_uris":{"android":"levelo://app?vid=20086a19-a247-463a-aeb7-09eafc40ccc7","ios":"levelo://app?vid=20086a19-a247-463a-aeb7-09eafc40ccc7"},"vehicle_type_id":"4","last_reported":1724425799,"current_range_meters":20000,"station_id":"","pricing_plan_id":"cebpf4jnsgd1na2vs0mg"},{"bike_id":"a58b433c-8e0a-4c7d-8032-911225ab1a68","system_id":"levelo_inurba_marseille","lat":43.30537,"lon":5.367345,"is_reserved":false,"is_disabled":false,"rental_uris":{"android":"levelo://app?vid=a58b433c-8e0a-4c7d-8032-911225ab1a68","ios":"levelo://app?vid=a58b433c-8e0a-4c7d-8032-911225ab1a68"},"vehicle_type_id":"4","last_reported":1724425799,"current_range_meters":0,"station_id":"ce4bgrp2rcd13ifvqc9g","pricing_plan_id":"cebpf4jnsgd1na2vs0mg"},{"bike_id":"8ed5c5ad-ce41-45ff-aa0d-529fc1621524","system_id":"levelo_inurba_marseille","lat":43.305706,"lon":5.365654,"is_reserved":false,"is_disabled":false,"rental_uris":{"android":"levelo://app?vid=8ed5c5ad-ce41-45ff-aa0d-529fc1621524","ios":"levelo://app?vid=8ed5c5ad-ce41-45ff-aa0d-529fc1621524"},"vehicle_type_id":"4","last_reported":1724425799,"current_range_meters":26800,"station_id":"ce4bgs12rcd13ifvqcag","pricing_plan_id":"cebpf4jnsgd1na2vs0mg"},{"bike_id":"a7eddabb-a608-488b-b91d-f70408dd4cd8","system_id":"levelo_inurba_marseille","lat":43.305368,"lon":5.367343,"is_reserved":false,"is_disabled":false,"rental_uris":{"android":"levelo://app?vid=a7eddabb-a608-488b-b91d-f70408dd4cd8","ios":"levelo://app?vid=a7eddabb-a608-488b-b91d-f70408dd4cd8"},"vehicle_type_id":"4","last_reported":1724425799,"current_range_meters":26000,"station_id":"ce4bgrp2rcd13ifvqc9g","pricing_plan_id":"cebpf4jnsgd1na2vs0mg"},{"bike_id":"c215c939-40ed-4a01-9aa5-4117f753d3f6","system_id":"levelo_inurba_marseille","lat":43.317075,"lon":5.377367,"is_reserved":false,"is_disabled":false,"rental_uris":{"android":"levelo://app?vid=c215c939-40ed-4a01-9aa5-4117f753d3f6","ios":"levelo://app?vid=c215c939-40ed-4a01-9aa5-4117f753d3f6"},"vehicle_type_id":"4","last_reported":1724425799,"current_range_meters":26000,"station_id":"ce4bgth2rcd13ifvqch0","pricing_plan_id":"cebpf4jnsgd1na2vs0mg"},{"bike_id":"26077774-4155-46c1-baff-3ecdb0384a8e","system_id":"levelo_inurba_marseille","lat":43.31156,"lon":5.38002,"is_reserved":false,"is_disabled":false,"rental_uris":{"android":"levelo://app?vid=26077774-4155-46c1-baff-3ecdb0384a8e","ios":"levelo://app?vid=26077774-4155-46c1-baff-3ecdb0384a8e"},"vehicle_type_id":"4","last_reported":1724425799,"current_range_meters":13200,"station_id":"","pricing_plan_id":"cebpf4jnsgd1na2vs0mg"},{"bike_id":"a0ace273-0ccb-46b0-9061-b582337ec79c","system_id":"levelo_inurba_marseille","lat":43.301939,"lon":5.366286,"is_reserved":false,"is_disabled":false,"rental_uris":{"android":"levelo://app?vid=a0ace273-0ccb-46b0-9061-b582337ec79c","ios":"levelo://app?vid=a0ace273-0ccb-46b0-9061-b582337ec79c"},"vehicle_type_id":"4","last_reported":1724425799,"current_range_meters":14000,"station_id":"ce4bgrh2rcd13ifvqc8g","pricing_plan_id":"cebpf4jnsgd1na2vs0mg"},{"bike_id":"16d62e1a-91d7-417f-af02-c1cbcab4cd61","system_id":"levelo_inurba_marseille","lat":43.301939,"lon":5.366286,"is_reserved":false,"is_disabled":false,"rental_uris":{"android":"levelo://app?vid=16d62e1a-91d7-417f-af02-c1cbcab4cd61","ios":"levelo://app?vid=16d62e1a-91d7-417f-af02-c1cbcab4cd61"},"vehicle_type_id":"4","last_reported":1724425799,"current_range_meters":19200,"station_id":"ce4bgrh2rcd13ifvqc8g","pricing_plan_id":"cebpf4jnsgd1na2vs0mg"},{"bike_id":"49b71bfa-4399-4310-a879-ac7e2b216b2e","system_id":"levelo_inurba_marseille","lat":43.301939,"lon":5.366286,"is_reserved":false,"is_disabled":false,"rental_uris":{"android":"levelo://app?vid=49b71bfa-4399-4310-a879-ac7e2b216b2e","ios":"levelo://app?vid=49b71bfa-4399-4310-a879-ac7e2b216b2e"},"vehicle_type_id":"4","last_reported":1724425799,"current_range_meters":8800,"station_id":"ce4bgrh2rcd13ifvqc8g","pricing_plan_id":"cebpf4jnsgd1na2vs0mg"},{"bike_id":"9ab23296-bbbd-4c5f-a581-ca15897cde49","system_id":"levelo_inurba_marseille","lat":43.301939,"lon":5.366286,"is_reserved":false,"is_disabled":false,"rental_uris":{"android":"levelo://app?vid=9ab23296-bbbd-4c5f-a581-ca15897cde49","ios":"levelo://app?vid=9ab23296-bbbd-4c5f-a581-ca15897cde49"},"vehicle_type_id":"4","last_reported":1724425799,"current_range_meters":13600,"station_id":"ce4bgrh2rcd13ifvqc8g","pricing_plan_id":"cebpf4jnsgd1na2vs0mg"},{"bike_id":"c9decdbf-7ab3-49f3-b292-b154ba3c09ca","system_id":"levelo_inurba_marseille","lat":43.301939,"lon":5.366286,"is_reserved":false,"is_disabled":false,"rental_uris":{"android":"levelo://app?vid=c9decdbf-7ab3-49f3-b292-b154ba3c09ca","ios":"levelo://app?vid=c9decdbf-7ab3-49f3-b292-b154ba3c09ca"},"vehicle_type_id":"4","last_reported":1724425799,"current_range_meters":10400,"station_id":"ce4bgrh2rcd13ifvqc8g","pricing_plan_id":"cebpf4jnsgd1na2vs0mg"},{"bike_id":"f87efe52-b1c2-44d7-ab03-617f5dc50453","system_id":"levelo_inurba_marseille","lat":43.301939,"lon":5.366286,"is_reserved":false,"is_disabled":false,"rental_uris":{"android":"levelo://app?vid=f87efe52-b1c2-44d7-ab03-617f5dc50453","ios":"levelo://app?vid=f87efe52-b1c2-44d7-ab03-617f5dc50453"},"vehicle_type_id":"4","last_reported":1724425799,"current_range_meters":15200,"station_id":"ce4bgrh2rcd13ifvqc8g","pricing_plan_id":"cebpf4jnsgd1na2vs0mg"},{"bike_id":"04bf0f4e-0df3-4be2-94ce-129ebeab429c","system_id":"levelo_inurba_marseille","lat":43.301939,"lon":5.366286,"is_reserved":false,"is_disabled":false,"rental_uris":{"android":"levelo://app?vid=04bf0f4e-0df3-4be2-94ce-129ebeab429c","ios":"levelo://app?vid=04bf0f4e-0df3-4be2-94ce-129ebeab429c"},"vehicle_type_id":"4","last_reported":1724425799,"current_range_meters":5600,"station_id":"ce4bgrh2rcd13ifvqc8g","pricing_plan_id":"cebpf4jnsgd1na2vs0mg"},{"bike_id":"0e332139-9314-4fe1-b7a9-8c7a48c5e669","system_id":"levelo_inurba_marseille","lat":43.301939,"lon":5.366286,"is_reserved":false,"is_disabled":false,"rental_uris":{"android":"levelo://app?vid=0e332139-9314-4fe1-b7a9-8c7a48c5e669","ios":"levelo://app?vid=0e332139-9314-4fe1-b7a9-8c7a48c5e669"},"vehicle_type_id":"4","last_reported":1724425799,"current_range_meters":31200,"station_id":"ce4bgrh2rcd13ifvqc8g","pricing_plan_id":"cebpf4jnsgd1na2vs0mg"},{"bike_id":"f6f4fc04-674d-4a76-9d55-1d9097bdaeb3","system_id":"levelo_inurba_marseille","lat":43.301939,"lon":5.366286,"is_reserved":false,"is_disabled":false,"rental_uris":{"android":"levelo://app?vid=f6f4fc04-674d-4a76-9d55-1d9097bdaeb3","ios":"levelo://app?vid=f6f4fc04-674d-4a76-9d55-1d9097bdaeb3"},"vehicle_type_id":"4","last_reported":1724425799,"current_range_meters":3600,"station_id":"ce4bgrh2rcd13ifvqc8g","pricing_plan_id":"cebpf4jnsgd1na2vs0mg"},{"bike_id":"bb460406-e174-4274-8059-da57edcdc243","system_id":"levelo_inurba_marseille","lat":43.301939,"lon":5.366286,"is_reserved":false,"is_disabled":false,"rental_uris":{"android":"levelo://app?vid=bb460406-e174-4274-8059-da57edcdc243","ios":"levelo://app?vid=bb460406-e174-4274-8059-da57edcdc243"},"vehicle_type_id":"4","last_reported":1724425799,"current_range_meters":30000,"station_id":"ce4bgrh2rcd13ifvqc8g","pricing_plan_id":"cebpf4jnsgd1na2vs0mg"},{"bike_id":"8ccc6db2-9d8f-4f01-9f7f-912826ebc803","system_id":"levelo_inurba_marseille","lat":43.308012,"lon":5.381511,"is_reserved":false,"is_disabled":false,"rental_uris":{"android":"levelo://app?vid=8ccc6db2-9d8f-4f01-9f7f-912826ebc803","ios":"levelo://app?vid=8ccc6db2-9d8f-4f01-9f7f-912826ebc803"},"vehicle_type_id":"4","last_reported":1724425799,"current_range_meters":11600,"station_id":"ce4bgt12rcd13ifvqce0","pricing_plan_id":"cebpf4jnsgd1na2vs0mg"},{"bike_id":"33dbb5eb-5928-4240-908d-3d483e628fcb","system_id":"levelo_inurba_marseille","lat":43.308012,"lon":5.381511,"is_reserved":false,"is_disabled":false,"rental_uris":{"android":"levelo://app?vid=33dbb5eb-5928-4240-908d-3d483e628fcb","ios":"levelo://app?vid=33dbb5eb-5928-4240-908d-3d483e628fcb"},"vehicle_type_id":"4","last_reported":1724425799,"current_range_meters":400,"station_id":"ce4bgt12rcd13ifvqce0","pricing_plan_id":"cebpf4jnsgd1na2vs0mg"},{"bike_id":"3bbc25e0-f9ef-4009-9d6d-f2c526a89089","system_id":"levelo_inurba_marseille","lat":43.308012,"lon":5.381511,"is_reserved":false,"is_disabled":false,"rental_uris":{"android":"levelo://app?vid=3bbc25e0-f9ef-4009-9d6d-f2c526a89089","ios":"levelo://app?vid=3bbc25e0-f9ef-4009-9d6d-f2c526a89089"},"vehicle_type_id":"4","last_reported":1724425799,"current_range_meters":26400,"station_id":"ce4bgt12rcd13ifvqce0","pricing_plan_id":"cebpf4jnsgd1na2vs0mg"},{"bike_id":"44c171a9-d2b2-4dbb-9dde-9a2b0e7bf705","system_id":"levelo_inurba_marseille","lat":43.304606,"lon":5.379026,"is_reserved":false,"is_disabled":false,"rental_uris":{"android":"levelo://app?vid=44c171a9-d2b2-4dbb-9dde-9a2b0e7bf705","ios":"levelo://app?vid=44c171a9-d2b2-4dbb-9dde-9a2b0e7bf705"},"vehicle_type_id":"4","last_reported":1724425799,"current_range_meters":10400,"station_id":"ce4bgup2rcd13ifvqcn0","pricing_plan_id":"cebpf4jnsgd1na2vs0mg"},{"bike_id":"c1ed17e2-156a-4fb4-b672-a9a3bacf2e2c","system_id":"levelo_inurba_marseille","lat":43.304606,"lon":5.379026,"is_reserved":false,"is_disabled":false,"rental_uris":{"android":"levelo://app?vid=c1ed17e2-156a-4fb4-b672-a9a3bacf2e2c","ios":"levelo://app?vid=c1ed17e2-156a-4fb4-b672-a9a3bacf2e2c"},"vehicle_type_id":"4","last_reported":1724425799,"current_range_meters":7600,"station_id":"ce4bgup2rcd13ifvqcn0","pricing_plan_id":"cebpf4jnsgd1na2vs0mg"},{"bike_id":"a4ccdf2a-59f8-43ad-8e58-82873207fd11","system_id":"levelo_inurba_marseille","lat":43.304606,"lon":5.379026,"is_reserved":false,"is_disabled":false,"rental_uris":{"android":"levelo://app?vid=a4ccdf2a-59f8-43ad-8e58-82873207fd11","ios":"levelo://app?vid=a4ccdf2a-59f8-43ad-8e58-82873207fd11"},"vehicle_type_id":"4","last_reported":1724425799,"current_range_meters":0,"station_id":"ce4bgup2rcd13ifvqcn0","pricing_plan_id":"cebpf4jnsgd1na2vs0mg"},{"bike_id":"05ae9a70-fa7e-4a14-943b-688887dea09c","system_id":"levelo_inurba_marseille","lat":43.304606,"lon":5.379026,"is_reserved":false,"is_disabled":false,"rental_uris":{"android":"levelo://app?vid=05ae9a70-fa7e-4a14-943b-688887dea09c","ios":"levelo://app?vid=05ae9a70-fa7e-4a14-943b-688887dea09c"},"vehicle_type_id":"4","last_reported":1724425799,"current_range_meters":25200,"station_id":"ce4bgup2rcd13ifvqcn0","pricing_plan_id":"cebpf4jnsgd1na2vs0mg"},{"bike_id":"31c98c53-034e-4384-9149-216d8bcc97b8","system_id":"levelo_inurba_marseille","lat":43.324771,"lon":5.36557,"is_reserved":false,"is_disabled":false,"rental_uris":{"android":"levelo://app?vid=31c98c53-034e-4384-9149-216d8bcc97b8","ios":"levelo://app?vid=31c98c53-034e-4384-9149-216d8bcc97b8"},"vehicle_type_id":"4","last_reported":1724425799,"current_range_meters":2800,"station_id":"ce4bhs12rcd13ifvqhvg","pricing_plan_id":"cebpf4jnsgd1na2vs0mg"},{"bike_id":"97591be5-02c6-40ab-a9ef-abcd9ebd06fa","system_id":"levelo_inurba_marseille","lat":43.324771,"lon":5.36557,"is_reserved":false,"is_disabled":false,"rental_uris":{"android":"levelo://app?vid=97591be5-02c6-40ab-a9ef-abcd9ebd06fa","ios":"levelo://app?vid=97591be5-02c6-40ab-a9ef-abcd9ebd06fa"},"vehicle_type_id":"4","last_reported":1724425799,"current_range_meters":18800,"station_id":"ce4bhs12rcd13ifvqhvg","pricing_plan_id":"cebpf4jnsgd1na2vs0mg"},{"bike_id":"fa4728c9-467b-4bdc-88d2-f56075148a06","system_id":"levelo_inurba_marseille","lat":43.324771,"lon":5.36557,"is_reserved":false,"is_disabled":false,"rental_uris":{"android":"levelo://app?vid=fa4728c9-467b-4bdc-88d2-f56075148a06","ios":"levelo://app?vid=fa4728c9-467b-4bdc-88d2-f56075148a06"},"vehicle_type_id":"4","last_reported":1724425799,"current_range_meters":17600,"station_id":"ce4bhs12rcd13ifvqhvg","pricing_plan_id":"cebpf4jnsgd1na2vs0mg"},{"bike_id":"059d6cf0-2185-4cc0-af5d-cddec0760f00","system_id":"levelo_inurba_marseille","lat":43.324771,"lon":5.36557,"is_reserved":false,"is_disabled":false,"rental_uris":{"android":"levelo://app?vid=059d6cf0-2185-4cc0-af5d-cddec0760f00","ios":"levelo://app?vid=059d6cf0-2185-4cc0-af5d-cddec0760f00"},"vehicle_type_id":"4","last_reported":1724425799,"current_range_meters":28800,"station_id":"ce4bhs12rcd13ifvqhvg","pricing_plan_id":"cebpf4jnsgd1na2vs0mg"},{"bike_id":"a1ac0451-3398-4947-9ccd-6a7080d125c4","system_id":"levelo_inurba_marseille","lat":43.324771,"lon":5.36557,"is_reserved":false,"is_disabled":false,"rental_uris":{"android":"levelo://app?vid=a1ac0451-3398-4947-9ccd-6a7080d125c4","ios":"levelo://app?vid=a1ac0451-3398-4947-9ccd-6a7080d125c4"},"vehicle_type_id":"4","last_reported":1724425799,"current_range_meters":21600,"station_id":"ce4bhs12rcd13ifvqhvg","pricing_plan_id":"cebpf4jnsgd1na2vs0mg"},{"bike_id":"bdd677b9-680e-4388-ab92-7d9b5e677b0a","system_id":"levelo_inurba_marseille","lat":43.324771,"lon":5.36557,"is_reserved":false,"is_disabled":false,"rental_uris":{"android":"levelo://app?vid=bdd677b9-680e-4388-ab92-7d9b5e677b0a","ios":"levelo://app?vid=bdd677b9-680e-4388-ab92-7d9b5e677b0a"},"vehicle_type_id":"4","last_reported":1724425799,"current_range_meters":30800,"station_id":"ce4bhs12rcd13ifvqhvg","pricing_plan_id":"cebpf4jnsgd1na2vs0mg"},{"bike_id":"4c254b9e-38d3-47b5-b941-373e37dbf564","system_id":"levelo_inurba_marseille","lat":43.324771,"lon":5.36557,"is_reserved":false,"is_disabled":false,"rental_uris":{"android":"levelo://app?vid=4c254b9e-38d3-47b5-b941-373e37dbf564","ios":"levelo://app?vid=4c254b9e-38d3-47b5-b941-373e37dbf564"},"vehicle_type_id":"4","last_reported":1724425799,"current_range_meters":14800,"station_id":"ce4bhs12rcd13ifvqhvg","pricing_plan_id":"cebpf4jnsgd1na2vs0mg"},{"bike_id":"f59a6b16-6144-4e54-834b-189f23234a5e","system_id":"levelo_inurba_marseille","lat":43.324771,"lon":5.36557,"is_reserved":false,"is_disabled":false,"rental_uris":{"android":"levelo://app?vid=f59a6b16-6144-4e54-834b-189f23234a5e","ios":"levelo://app?vid=f59a6b16-6144-4e54-834b-189f23234a5e"},"vehicle_type_id":"4","last_reported":1724425799,"current_range_meters":18800,"station_id":"ce4bhs12rcd13ifvqhvg","pricing_plan_id":"cebpf4jnsgd1na2vs0mg"},{"bike_id":"7fcd07c3-b936-4ec9-9ed3-f193fcad5baf","system_id":"levelo_inurba_marseille","lat":43.324771,"lon":5.36557,"is_reserved":false,"is_disabled":false,"rental_uris":{"android":"levelo://app?vid=7fcd07c3-b936-4ec9-9ed3-f193fcad5baf","ios":"levelo://app?vid=7fcd07c3-b936-4ec9-9ed3-f193fcad5baf"},"vehicle_type_id":"4","last_reported":1724425799,"current_range_meters":20000,"station_id":"ce4bhs12rcd13ifvqhvg","pricing_plan_id":"cebpf4jnsgd1na2vs0mg"},{"bike_id":"f0e71938-9a91-4937-b3dc-ab0b06c637fe","system_id":"levelo_inurba_marseille","lat":43.324771,"lon":5.36557,"is_reserved":false,"is_disabled":false,"rental_uris":{"android":"levelo://app?vid=f0e71938-9a91-4937-b3dc-ab0b06c637fe","ios":"levelo://app?vid=f0e71938-9a91-4937-b3dc-ab0b06c637fe"},"vehicle_type_id":"4","last_reported":1724425799,"current_range_meters":25200,"station_id":"ce4bhs12rcd13ifvqhvg","pricing_plan_id":"cebpf4jnsgd1na2vs0mg"},{"bike_id":"9420d57f-f057-4eec-97c7-92f536e5ac23","system_id":"levelo_inurba_marseille","lat":43.324771,"lon":5.36557,"is_reserved":false,"is_disabled":false,"rental_uris":{"android":"levelo://app?vid=9420d57f-f057-4eec-97c7-92f536e5ac23","ios":"levelo://app?vid=9420d57f-f057-4eec-97c7-92f536e5ac23"},"vehicle_type_id":"4","last_reported":1724425799,"current_range_meters":8000,"station_id":"ce4bhs12rcd13ifvqhvg","pricing_plan_id":"cebpf4jnsgd1na2vs0mg"},{"bike_id":"dcc79d86-11eb-4bd6-b3c9-01513aaa2c10","system_id":"levelo_inurba_marseille","lat":43.324771,"lon":5.36557,"is_reserved":false,"is_disabled":false,"rental_uris":{"android":"levelo://app?vid=dcc79d86-11eb-4bd6-b3c9-01513aaa2c10","ios":"levelo://app?vid=dcc79d86-11eb-4bd6-b3c9-01513aaa2c10"},"vehicle_type_id":"4","last_reported":1724425799,"current_range_meters":23200,"station_id":"ce4bhs12rcd13ifvqhvg","pricing_plan_id":"cebpf4jnsgd1na2vs0mg"},{"bike_id":"4b068ad2-1221-4476-9487-2b7eb5619d8a","system_id":"levelo_inurba_marseille","lat":43.31366,"lon":5.38364,"is_reserved":false,"is_disabled":false,"rental_uris":{"android":"levelo://app?vid=4b068ad2-1221-4476-9487-2b7eb5619d8a","ios":"levelo://app?vid=4b068ad2-1221-4476-9487-2b7eb5619d8a"},"vehicle_type_id":"4","last_reported":1724425799,"current_range_meters":9600,"station_id":"","pricing_plan_id":"cebpf4jnsgd1na2vs0mg"},{"bike_id":"c3d46f84-d70c-41e3-a088-cec2cd9a02f0","system_id":"levelo_inurba_marseille","lat":43.324771,"lon":5.36557,"is_reserved":false,"is_disabled":false,"rental_uris":{"android":"levelo://app?vid=c3d46f84-d70c-41e3-a088-cec2cd9a02f0","ios":"levelo://app?vid=c3d46f84-d70c-41e3-a088-cec2cd9a02f0"},"vehicle_type_id":"4","last_reported":1724425799,"current_range_meters":10800,"station_id":"ce4bhs12rcd13ifvqhvg","pricing_plan_id":"cebpf4jnsgd1na2vs0mg"},{"bike_id":"20c67454-07fd-49c4-a16b-dd4677bc19b5","system_id":"levelo_inurba_marseille","lat":43.310804,"lon":5.38359,"is_reserved":false,"is_disabled":false,"rental_uris":{"android":"levelo://app?vid=20c67454-07fd-49c4-a16b-dd4677bc19b5","ios":"levelo://app?vid=20c67454-07fd-49c4-a16b-dd4677bc19b5"},"vehicle_type_id":"4","last_reported":1724425799,"current_range_meters":4000,"station_id":"ce4bgv92rcd13ifvqcr0","pricing_plan_id":"cebpf4jnsgd1na2vs0mg"},{"bike_id":"7307e4db-c8fe-4a3f-83ad-07edc1fa6c11","system_id":"levelo_inurba_marseille","lat":43.302784,"lon":5.377158,"is_reserved":false,"is_disabled":false,"rental_uris":{"android":"levelo://app?vid=7307e4db-c8fe-4a3f-83ad-07edc1fa6c11","ios":"levelo://app?vid=7307e4db-c8fe-4a3f-83ad-07edc1fa6c11"},"vehicle_type_id":"4","last_reported":1724425799,"current_range_meters":13200,"station_id":"ce4bguh2rcd13ifvqcj0","pricing_plan_id":"cebpf4jnsgd1na2vs0mg"},{"bike_id":"90f0e1a5-6514-4552-bfa9-c7ab58f0150a","system_id":"levelo_inurba_marseille","lat":43.302784,"lon":5.377158,"is_reserved":false,"is_disabled":false,"rental_uris":{"android":"levelo://app?vid=90f0e1a5-6514-4552-bfa9-c7ab58f0150a","ios":"levelo://app?vid=90f0e1a5-6514-4552-bfa9-c7ab58f0150a"},"vehicle_type_id":"4","last_reported":1724425799,"current_range_meters":28000,"station_id":"ce4bguh2rcd13ifvqcj0","pricing_plan_id":"cebpf4jnsgd1na2vs0mg"},{"bike_id":"f99b2185-04a7-4cb1-8a2d-633388de8c60","system_id":"levelo_inurba_marseille","lat":43.302784,"lon":5.377158,"is_reserved":false,"is_disabled":false,"rental_uris":{"android":"levelo://app?vid=f99b2185-04a7-4cb1-8a2d-633388de8c60","ios":"levelo://app?vid=f99b2185-04a7-4cb1-8a2d-633388de8c60"},"vehicle_type_id":"4","last_reported":1724425799,"current_range_meters":6800,"station_id":"ce4bguh2rcd13ifvqcj0","pricing_plan_id":"cebpf4jnsgd1na2vs0mg"},{"bike_id":"ead0c84e-8b6f-4092-8f5d-0d74662f40c0","system_id":"levelo_inurba_marseille","lat":43.302784,"lon":5.377158,"is_reserved":false,"is_disabled":false,"rental_uris":{"android":"levelo://app?vid=ead0c84e-8b6f-4092-8f5d-0d74662f40c0","ios":"levelo://app?vid=ead0c84e-8b6f-4092-8f5d-0d74662f40c0"},"vehicle_type_id":"4","last_reported":1724425799,"current_range_meters":28400,"station_id":"ce4bguh2rcd13ifvqcj0","pricing_plan_id":"cebpf4jnsgd1na2vs0mg"},{"bike_id":"2d472cc6-1696-4a97-926d-37a1efad8267","system_id":"levelo_inurba_marseille","lat":43.319935,"lon":5.381699,"is_reserved":false,"is_disabled":false,"rental_uris":{"android":"levelo://app?vid=2d472cc6-1696-4a97-926d-37a1efad8267","ios":"levelo://app?vid=2d472cc6-1696-4a97-926d-37a1efad8267"},"vehicle_type_id":"4","last_reported":1724425799,"current_range_meters":31600,"station_id":"ce4bhr12rcd13ifvqhpg","pricing_plan_id":"cebpf4jnsgd1na2vs0mg"},{"bike_id":"0158f74a-e2c5-4fcc-bc55-cb1fffa33530","system_id":"levelo_inurba_marseille","lat":43.319935,"lon":5.381699,"is_reserved":false,"is_disabled":false,"rental_uris":{"android":"levelo://app?vid=0158f74a-e2c5-4fcc-bc55-cb1fffa33530","ios":"levelo://app?vid=0158f74a-e2c5-4fcc-bc55-cb1fffa33530"},"vehicle_type_id":"4","last_reported":1724425799,"current_range_meters":800,"station_id":"ce4bhr12rcd13ifvqhpg","pricing_plan_id":"cebpf4jnsgd1na2vs0mg"},{"bike_id":"36e7de20-2447-41f8-a758-e6aba8a8ae96","system_id":"levelo_inurba_marseille","lat":43.319935,"lon":5.381699,"is_reserved":false,"is_disabled":false,"rental_uris":{"android":"levelo://app?vid=36e7de20-2447-41f8-a758-e6aba8a8ae96","ios":"levelo://app?vid=36e7de20-2447-41f8-a758-e6aba8a8ae96"},"vehicle_type_id":"4","last_reported":1724425799,"current_range_meters":9200,"station_id":"ce4bhr12rcd13ifvqhpg","pricing_plan_id":"cebpf4jnsgd1na2vs0mg"},{"bike_id":"18200743-e781-411a-8914-4d97d83df5e7","system_id":"levelo_inurba_marseille","lat":43.319951,"lon":5.381505,"is_reserved":false,"is_disabled":false,"rental_uris":{"android":"levelo://app?vid=18200743-e781-411a-8914-4d97d83df5e7","ios":"levelo://app?vid=18200743-e781-411a-8914-4d97d83df5e7"},"vehicle_type_id":"4","last_reported":1724425799,"current_range_meters":3600,"station_id":"ce4bhr12rcd13ifvqhpg","pricing_plan_id":"cebpf4jnsgd1na2vs0mg"},{"bike_id":"25ad5382-158d-455c-8c62-93e487ea5672","system_id":"levelo_inurba_marseille","lat":43.319935,"lon":5.381699,"is_reserved":false,"is_disabled":false,"rental_uris":{"android":"levelo://app?vid=25ad5382-158d-455c-8c62-93e487ea5672","ios":"levelo://app?vid=25ad5382-158d-455c-8c62-93e487ea5672"},"vehicle_type_id":"4","last_reported":1724425799,"current_range_meters":14400,"station_id":"ce4bhr12rcd13ifvqhpg","pricing_plan_id":"cebpf4jnsgd1na2vs0mg"},{"bike_id":"6c860362-9306-4779-aa4e-a4552d10b97b","system_id":"levelo_inurba_marseille","lat":43.299724,"lon":5.371829,"is_reserved":false,"is_disabled":false,"rental_uris":{"android":"levelo://app?vid=6c860362-9306-4779-aa4e-a4552d10b97b","ios":"levelo://app?vid=6c860362-9306-4779-aa4e-a4552d10b97b"},"vehicle_type_id":"4","last_reported":1724425799,"current_range_meters":26400,"station_id":"ce4bgr92rcd13ifvqc7g","pricing_plan_id":"cebpf4jnsgd1na2vs0mg"},{"bike_id":"ad31b10f-af2b-4ba6-8a4e-de72999cf000","system_id":"levelo_inurba_marseille","lat":43.299724,"lon":5.371829,"is_reserved":false,"is_disabled":false,"rental_uris":{"android":"levelo://app?vid=ad31b10f-af2b-4ba6-8a4e-de72999cf000","ios":"levelo://app?vid=ad31b10f-af2b-4ba6-8a4e-de72999cf000"},"vehicle_type_id":"4","last_reported":1724425799,"current_range_meters":20400,"station_id":"ce4bgr92rcd13ifvqc7g","pricing_plan_id":"cebpf4jnsgd1na2vs0mg"},{"bike_id":"e807b1cc-0c80-446d-baac-c56886c165c1","system_id":"levelo_inurba_marseille","lat":43.299724,"lon":5.371829,"is_reserved":false,"is_disabled":false,"rental_uris":{"android":"levelo://app?vid=e807b1cc-0c80-446d-baac-c56886c165c1","ios":"levelo://app?vid=e807b1cc-0c80-446d-baac-c56886c165c1"},"vehicle_type_id":"4","last_reported":1724425799,"current_range_meters":0,"station_id":"ce4bgr92rcd13ifvqc7g","pricing_plan_id":"cebpf4jnsgd1na2vs0mg"},{"bike_id":"552085a2-0b71-46c7-822b-f9c1e1a5ec59","system_id":"levelo_inurba_marseille","lat":43.298433,"lon":5.362774,"is_reserved":false,"is_disabled":false,"rental_uris":{"android":"levelo://app?vid=552085a2-0b71-46c7-822b-f9c1e1a5ec59","ios":"levelo://app?vid=552085a2-0b71-46c7-822b-f9c1e1a5ec59"},"vehicle_type_id":"4","last_reported":1724425799,"current_range_meters":2800,"station_id":"ce4bgpp2rcd13ifvqc3g","pricing_plan_id":"cebpf4jnsgd1na2vs0mg"},{"bike_id":"b7ad78bf-601f-45a2-81b7-526305dd695e","system_id":"levelo_inurba_marseille","lat":43.29849,"lon":5.36282,"is_reserved":false,"is_disabled":false,"rental_uris":{"android":"levelo://app?vid=b7ad78bf-601f-45a2-81b7-526305dd695e","ios":"levelo://app?vid=b7ad78bf-601f-45a2-81b7-526305dd695e"},"vehicle_type_id":"4","last_reported":1724425799,"current_range_meters":11600,"station_id":"ce4bgpp2rcd13ifvqc3g","pricing_plan_id":"cebpf4jnsgd1na2vs0mg"},{"bike_id":"4c0e6a78-4b56-4136-80d1-61d368ec33e2","system_id":"levelo_inurba_marseille","lat":43.305364,"lon":5.384119,"is_reserved":false,"is_disabled":false,"rental_uris":{"android":"levelo://app?vid=4c0e6a78-4b56-4136-80d1-61d368ec33e2","ios":"levelo://app?vid=4c0e6a78-4b56-4136-80d1-61d368ec33e2"},"vehicle_type_id":"4","last_reported":1724425799,"current_range_meters":16400,"station_id":"ce4bgg92rcd13ifvqb30","pricing_plan_id":"cebpf4jnsgd1na2vs0mg"},{"bike_id":"95201155-e0b8-4f98-abca-ca1c7781b624","system_id":"levelo_inurba_marseille","lat":43.305364,"lon":5.384119,"is_reserved":false,"is_disabled":false,"rental_uris":{"android":"levelo://app?vid=95201155-e0b8-4f98-abca-ca1c7781b624","ios":"levelo://app?vid=95201155-e0b8-4f98-abca-ca1c7781b624"},"vehicle_type_id":"4","last_reported":1724425799,"current_range_meters":28800,"station_id":"ce4bgg92rcd13ifvqb30","pricing_plan_id":"cebpf4jnsgd1na2vs0mg"},{"bike_id":"238c2bbf-f6ae-4a66-889a-6fa0ad8ffff5","system_id":"levelo_inurba_marseille","lat":43.311722,"lon":5.387247,"is_reserved":false,"is_disabled":false,"rental_uris":{"android":"levelo://app?vid=238c2bbf-f6ae-4a66-889a-6fa0ad8ffff5","ios":"levelo://app?vid=238c2bbf-f6ae-4a66-889a-6fa0ad8ffff5"},"vehicle_type_id":"4","last_reported":1724425799,"current_range_meters":0,"station_id":"ce4bgv12rcd13ifvqcp0","pricing_plan_id":"cebpf4jnsgd1na2vs0mg"},{"bike_id":"402ee374-4533-4cfb-a8cd-8bf175f1134e","system_id":"levelo_inurba_marseille","lat":43.299243,"lon":5.37481,"is_reserved":false,"is_disabled":false,"rental_uris":{"android":"levelo://app?vid=402ee374-4533-4cfb-a8cd-8bf175f1134e","ios":"levelo://app?vid=402ee374-4533-4cfb-a8cd-8bf175f1134e"},"vehicle_type_id":"4","last_reported":1724425799,"current_range_meters":11200,"station_id":"ce4bgjh2rcd13ifvqbg0","pricing_plan_id":"cebpf4jnsgd1na2vs0mg"},{"bike_id":"087b221b-2fdf-4e2e-bd77-d2e68f4f3124","system_id":"levelo_inurba_marseille","lat":43.311722,"lon":5.387247,"is_reserved":false,"is_disabled":false,"rental_uris":{"android":"levelo://app?vid=087b221b-2fdf-4e2e-bd77-d2e68f4f3124","ios":"levelo://app?vid=087b221b-2fdf-4e2e-bd77-d2e68f4f3124"},"vehicle_type_id":"4","last_reported":1724425799,"current_range_meters":6000,"station_id":"ce4bgv12rcd13ifvqcp0","pricing_plan_id":"cebpf4jnsgd1na2vs0mg"},{"bike_id":"cc4c4e4c-7335-4cd4-9102-0c59bdce9753","system_id":"levelo_inurba_marseille","lat":43.297774,"lon":5.370875,"is_reserved":false,"is_disabled":false,"rental_uris":{"android":"levelo://app?vid=cc4c4e4c-7335-4cd4-9102-0c59bdce9753","ios":"levelo://app?vid=cc4c4e4c-7335-4cd4-9102-0c59bdce9753"},"vehicle_type_id":"4","last_reported":1724425799,"current_range_meters":18000,"station_id":"ce4bgop2rcd13ifvqc1g","pricing_plan_id":"cebpf4jnsgd1na2vs0mg"},{"bike_id":"bb3b497b-7814-4ba3-a429-30a2070cef20","system_id":"levelo_inurba_marseille","lat":43.322872,"lon":5.382756,"is_reserved":false,"is_disabled":false,"rental_uris":{"android":"levelo://app?vid=bb3b497b-7814-4ba3-a429-30a2070cef20","ios":"levelo://app?vid=bb3b497b-7814-4ba3-a429-30a2070cef20"},"vehicle_type_id":"4","last_reported":1724425799,"current_range_meters":6400,"station_id":"ce4bhr12rcd13ifvqhqg","pricing_plan_id":"cebpf4jnsgd1na2vs0mg"},{"bike_id":"952e339d-a983-44d5-ae1e-2b7415a888ba","system_id":"levelo_inurba_marseille","lat":43.322924,"lon":5.382622,"is_reserved":false,"is_disabled":false,"rental_uris":{"android":"levelo://app?vid=952e339d-a983-44d5-ae1e-2b7415a888ba","ios":"levelo://app?vid=952e339d-a983-44d5-ae1e-2b7415a888ba"},"vehicle_type_id":"4","last_reported":1724425799,"current_range_meters":21600,"station_id":"ce4bhr12rcd13ifvqhqg","pricing_plan_id":"cebpf4jnsgd1na2vs0mg"},{"bike_id":"19fa88a7-0105-417e-99b1-2b95d62efefa","system_id":"levelo_inurba_marseille","lat":43.32292,"lon":5.382666,"is_reserved":false,"is_disabled":false,"rental_uris":{"android":"levelo://app?vid=19fa88a7-0105-417e-99b1-2b95d62efefa","ios":"levelo://app?vid=19fa88a7-0105-417e-99b1-2b95d62efefa"},"vehicle_type_id":"4","last_reported":1724425799,"current_range_meters":26400,"station_id":"ce4bhr12rcd13ifvqhqg","pricing_plan_id":"cebpf4jnsgd1na2vs0mg"},{"bike_id":"718a5895-4b93-4213-a12a-a811b443a156","system_id":"levelo_inurba_marseille","lat":43.322872,"lon":5.382756,"is_reserved":false,"is_disabled":false,"rental_uris":{"android":"levelo://app?vid=718a5895-4b93-4213-a12a-a811b443a156","ios":"levelo://app?vid=718a5895-4b93-4213-a12a-a811b443a156"},"vehicle_type_id":"4","last_reported":1724425799,"current_range_meters":17600,"station_id":"ce4bhr12rcd13ifvqhqg","pricing_plan_id":"cebpf4jnsgd1na2vs0mg"},{"bike_id":"9dffd2b7-08cb-4769-9fb3-725773c42299","system_id":"levelo_inurba_marseille","lat":43.322872,"lon":5.382756,"is_reserved":false,"is_disabled":false,"rental_uris":{"android":"levelo://app?vid=9dffd2b7-08cb-4769-9fb3-725773c42299","ios":"levelo://app?vid=9dffd2b7-08cb-4769-9fb3-725773c42299"},"vehicle_type_id":"4","last_reported":1724425799,"current_range_meters":14400,"station_id":"ce4bhr12rcd13ifvqhqg","pricing_plan_id":"cebpf4jnsgd1na2vs0mg"},{"bike_id":"3c9352b5-e80b-408f-9032-cf118ad0e767","system_id":"levelo_inurba_marseille","lat":43.322872,"lon":5.382756,"is_reserved":false,"is_disabled":false,"rental_uris":{"android":"levelo://app?vid=3c9352b5-e80b-408f-9032-cf118ad0e767","ios":"levelo://app?vid=3c9352b5-e80b-408f-9032-cf118ad0e767"},"vehicle_type_id":"4","last_reported":1724425799,"current_range_meters":7600,"station_id":"ce4bhr12rcd13ifvqhqg","pricing_plan_id":"cebpf4jnsgd1na2vs0mg"},{"bike_id":"88838884-cd6a-4ab1-b1a4-2045376ff07c","system_id":"levelo_inurba_marseille","lat":43.322872,"lon":5.382756,"is_reserved":false,"is_disabled":false,"rental_uris":{"android":"levelo://app?vid=88838884-cd6a-4ab1-b1a4-2045376ff07c","ios":"levelo://app?vid=88838884-cd6a-4ab1-b1a4-2045376ff07c"},"vehicle_type_id":"4","last_reported":1724425799,"current_range_meters":20400,"station_id":"ce4bhr12rcd13ifvqhqg","pricing_plan_id":"cebpf4jnsgd1na2vs0mg"},{"bike_id":"b8be7881-4435-47fb-b4e1-4614f85e7129","system_id":"levelo_inurba_marseille","lat":43.297163,"lon":5.365866,"is_reserved":false,"is_disabled":false,"rental_uris":{"android":"levelo://app?vid=b8be7881-4435-47fb-b4e1-4614f85e7129","ios":"levelo://app?vid=b8be7881-4435-47fb-b4e1-4614f85e7129"},"vehicle_type_id":"4","last_reported":1724425799,"current_range_meters":12400,"station_id":"ce4bgn12rcd13ifvqbt0","pricing_plan_id":"cebpf4jnsgd1na2vs0mg"},{"bike_id":"c041f720-13dc-486d-b7dd-d8defde1c930","system_id":"levelo_inurba_marseille","lat":43.29704,"lon":5.36599,"is_reserved":false,"is_disabled":false,"rental_uris":{"android":"levelo://app?vid=c041f720-13dc-486d-b7dd-d8defde1c930","ios":"levelo://app?vid=c041f720-13dc-486d-b7dd-d8defde1c930"},"vehicle_type_id":"4","last_reported":1724425799,"current_range_meters":1200,"station_id":"ce4bgn12rcd13ifvqbt0","pricing_plan_id":"cebpf4jnsgd1na2vs0mg"},{"bike_id":"05fd0990-bcb2-416a-a146-0ada3f26030e","system_id":"levelo_inurba_marseille","lat":43.29672,"lon":5.36689,"is_reserved":false,"is_disabled":false,"rental_uris":{"android":"levelo://app?vid=05fd0990-bcb2-416a-a146-0ada3f26030e","ios":"levelo://app?vid=05fd0990-bcb2-416a-a146-0ada3f26030e"},"vehicle_type_id":"4","last_reported":1724425799,"current_range_meters":22400,"station_id":"","pricing_plan_id":"cebpf4jnsgd1na2vs0mg"},{"bike_id":"7e28410b-e313-47a3-a5ac-f3c1a49254cd","system_id":"levelo_inurba_marseille","lat":43.29695,"lon":5.37278,"is_reserved":false,"is_disabled":false,"rental_uris":{"android":"levelo://app?vid=7e28410b-e313-47a3-a5ac-f3c1a49254cd","ios":"levelo://app?vid=7e28410b-e313-47a3-a5ac-f3c1a49254cd"},"vehicle_type_id":"4","last_reported":1724425799,"current_range_meters":18800,"station_id":"ce4bgk12rcd13ifvqbj0","pricing_plan_id":"cebpf4jnsgd1na2vs0mg"},{"bike_id":"922d2a47-0fed-4008-9322-c1d7b8893bfd","system_id":"levelo_inurba_marseille","lat":43.2968,"lon":5.37291,"is_reserved":false,"is_disabled":false,"rental_uris":{"android":"levelo://app?vid=922d2a47-0fed-4008-9322-c1d7b8893bfd","ios":"levelo://app?vid=922d2a47-0fed-4008-9322-c1d7b8893bfd"},"vehicle_type_id":"4","last_reported":1724425799,"current_range_meters":16400,"station_id":"ce4bgk12rcd13ifvqbj0","pricing_plan_id":"cebpf4jnsgd1na2vs0mg"},{"bike_id":"f923486a-85dc-4f58-afca-a9ced4196df3","system_id":"levelo_inurba_marseille","lat":43.29626,"lon":5.37147,"is_reserved":false,"is_disabled":false,"rental_uris":{"android":"levelo://app?vid=f923486a-85dc-4f58-afca-a9ced4196df3","ios":"levelo://app?vid=f923486a-85dc-4f58-afca-a9ced4196df3"},"vehicle_type_id":"4","last_reported":1724425799,"current_range_meters":13600,"station_id":"ce4bgnh2rcd13ifvqc0g","pricing_plan_id":"cebpf4jnsgd1na2vs0mg"},{"bike_id":"2db9683e-b81b-4eb7-911c-a394da2a3bac","system_id":"levelo_inurba_marseille","lat":43.296131,"lon":5.370791,"is_reserved":false,"is_disabled":false,"rental_uris":{"android":"levelo://app?vid=2db9683e-b81b-4eb7-911c-a394da2a3bac","ios":"levelo://app?vid=2db9683e-b81b-4eb7-911c-a394da2a3bac"},"vehicle_type_id":"4","last_reported":1724425799,"current_range_meters":18800,"station_id":"ce4bgnh2rcd13ifvqc0g","pricing_plan_id":"cebpf4jnsgd1na2vs0mg"},{"bike_id":"0388fbb1-eb89-42e0-9c22-a2e13693642f","system_id":"levelo_inurba_marseille","lat":43.29585,"lon":5.36747,"is_reserved":false,"is_disabled":false,"rental_uris":{"android":"levelo://app?vid=0388fbb1-eb89-42e0-9c22-a2e13693642f","ios":"levelo://app?vid=0388fbb1-eb89-42e0-9c22-a2e13693642f"},"vehicle_type_id":"4","last_reported":1724425799,"current_range_meters":31600,"station_id":"ce4bgph2rcd13ifvqc2g","pricing_plan_id":"cebpf4jnsgd1na2vs0mg"},{"bike_id":"28fdd97f-f07e-4a96-9313-700e25dca3b6","system_id":"levelo_inurba_marseille","lat":43.29579,"lon":5.3675,"is_reserved":false,"is_disabled":false,"rental_uris":{"android":"levelo://app?vid=28fdd97f-f07e-4a96-9313-700e25dca3b6","ios":"levelo://app?vid=28fdd97f-f07e-4a96-9313-700e25dca3b6"},"vehicle_type_id":"4","last_reported":1724425799,"current_range_meters":13600,"station_id":"ce4bgph2rcd13ifvqc2g","pricing_plan_id":"cebpf4jnsgd1na2vs0mg"},{"bike_id":"dcc1bbc7-90f8-437e-9f14-4711b70e065f","system_id":"levelo_inurba_marseille","lat":43.309589,"lon":5.390258,"is_reserved":false,"is_disabled":false,"rental_uris":{"android":"levelo://app?vid=dcc1bbc7-90f8-437e-9f14-4711b70e065f","ios":"levelo://app?vid=dcc1bbc7-90f8-437e-9f14-4711b70e065f"},"vehicle_type_id":"4","last_reported":1724425799,"current_range_meters":10400,"station_id":"ce4bgup2rcd13ifvqco0","pricing_plan_id":"cebpf4jnsgd1na2vs0mg"},{"bike_id":"a801cf7b-70af-490e-8f38-36ab05c7ead3","system_id":"levelo_inurba_marseille","lat":43.299028,"lon":5.381509,"is_reserved":false,"is_disabled":false,"rental_uris":{"android":"levelo://app?vid=a801cf7b-70af-490e-8f38-36ab05c7ead3","ios":"levelo://app?vid=a801cf7b-70af-490e-8f38-36ab05c7ead3"},"vehicle_type_id":"4","last_reported":1724425799,"current_range_meters":10800,"station_id":"ce4bgj12rcd13ifvqbc0","pricing_plan_id":"cebpf4jnsgd1na2vs0mg"},{"bike_id":"f99eb718-f649-4a16-9971-323823c37bf5","system_id":"levelo_inurba_marseille","lat":43.304278,"lon":5.388868,"is_reserved":false,"is_disabled":false,"rental_uris":{"android":"levelo://app?vid=f99eb718-f649-4a16-9971-323823c37bf5","ios":"levelo://app?vid=f99eb718-f649-4a16-9971-323823c37bf5"},"vehicle_type_id":"4","last_reported":1724425799,"current_range_meters":24000,"station_id":"ce4bgk12rcd13ifvqbi0","pricing_plan_id":"cebpf4jnsgd1na2vs0mg"},{"bike_id":"280fce91-be3a-48ff-bd18-222ac3fd8562","system_id":"levelo_inurba_marseille","lat":43.29575,"lon":5.37516,"is_reserved":false,"is_disabled":false,"rental_uris":{"android":"levelo://app?vid=280fce91-be3a-48ff-bd18-222ac3fd8562","ios":"levelo://app?vid=280fce91-be3a-48ff-bd18-222ac3fd8562"},"vehicle_type_id":"4","last_reported":1724425799,"current_range_meters":27600,"station_id":"ce4bgh92rcd13ifvqb50","pricing_plan_id":"cebpf4jnsgd1na2vs0mg"},{"bike_id":"7dd77492-5c23-4050-b6ea-e44313eca392","system_id":"levelo_inurba_marseille","lat":43.304278,"lon":5.388868,"is_reserved":false,"is_disabled":false,"rental_uris":{"android":"levelo://app?vid=7dd77492-5c23-4050-b6ea-e44313eca392","ios":"levelo://app?vid=7dd77492-5c23-4050-b6ea-e44313eca392"},"vehicle_type_id":"4","last_reported":1724425799,"current_range_meters":13600,"station_id":"ce4bgk12rcd13ifvqbi0","pricing_plan_id":"cebpf4jnsgd1na2vs0mg"},{"bike_id":"6f6aa420-9d88-4d89-a342-f4999a146790","system_id":"levelo_inurba_marseille","lat":43.29979,"lon":5.38477,"is_reserved":false,"is_disabled":false,"rental_uris":{"android":"levelo://app?vid=6f6aa420-9d88-4d89-a342-f4999a146790","ios":"levelo://app?vid=6f6aa420-9d88-4d89-a342-f4999a146790"},"vehicle_type_id":"4","last_reported":1724425799,"current_range_meters":4000,"station_id":"","pricing_plan_id":"cebpf4jnsgd1na2vs0mg"},{"bike_id":"e63f0f4d-d9c8-4f54-9b29-4ba759c803f7","system_id":"levelo_inurba_marseille","lat":43.299724,"lon":5.384848,"is_reserved":false,"is_disabled":false,"rental_uris":{"android":"levelo://app?vid=e63f0f4d-d9c8-4f54-9b29-4ba759c803f7","ios":"levelo://app?vid=e63f0f4d-d9c8-4f54-9b29-4ba759c803f7"},"vehicle_type_id":"4","last_reported":1724425799,"current_range_meters":4800,"station_id":"ce4bgj92rcd13ifvqbd0","pricing_plan_id":"cebpf4jnsgd1na2vs0mg"},{"bike_id":"0f5d8844-5df8-42cf-b66a-53049d89f87e","system_id":"levelo_inurba_marseille","lat":43.304744,"lon":5.39011,"is_reserved":false,"is_disabled":false,"rental_uris":{"android":"levelo://app?vid=0f5d8844-5df8-42cf-b66a-53049d89f87e","ios":"levelo://app?vid=0f5d8844-5df8-42cf-b66a-53049d89f87e"},"vehicle_type_id":"4","last_reported":1724425799,"current_range_meters":3200,"station_id":"","pricing_plan_id":"cebpf4jnsgd1na2vs0mg"},{"bike_id":"f799fbb7-c06c-49db-814a-349f9d9ed1be","system_id":"levelo_inurba_marseille","lat":43.301396,"lon":5.387812,"is_reserved":false,"is_disabled":false,"rental_uris":{"android":"levelo://app?vid=f799fbb7-c06c-49db-814a-349f9d9ed1be","ios":"levelo://app?vid=f799fbb7-c06c-49db-814a-349f9d9ed1be"},"vehicle_type_id":"4","last_reported":1724425799,"current_range_meters":5600,"station_id":"ce4bghh2rcd13ifvqb60","pricing_plan_id":"cebpf4jnsgd1na2vs0mg"},{"bike_id":"7a785525-75f6-4422-8828-e4ce6b84ac24","system_id":"levelo_inurba_marseille","lat":43.30141,"lon":5.38776,"is_reserved":false,"is_disabled":false,"rental_uris":{"android":"levelo://app?vid=7a785525-75f6-4422-8828-e4ce6b84ac24","ios":"levelo://app?vid=7a785525-75f6-4422-8828-e4ce6b84ac24"},"vehicle_type_id":"4","last_reported":1724425799,"current_range_meters":0,"station_id":"ce4bghh2rcd13ifvqb60","pricing_plan_id":"cebpf4jnsgd1na2vs0mg"},{"bike_id":"188a175a-a430-4711-89ae-7cbf1b1bd481","system_id":"levelo_inurba_marseille","lat":43.29602,"lon":5.381084,"is_reserved":false,"is_disabled":false,"rental_uris":{"android":"levelo://app?vid=188a175a-a430-4711-89ae-7cbf1b1bd481","ios":"levelo://app?vid=188a175a-a430-4711-89ae-7cbf1b1bd481"},"vehicle_type_id":"4","last_reported":1724425799,"current_range_meters":20800,"station_id":"ce4bgl12rcd13ifvqbo0","pricing_plan_id":"cebpf4jnsgd1na2vs0mg"},{"bike_id":"2a23f1fb-7fa0-4bd6-b558-368472ff7e4d","system_id":"levelo_inurba_marseille","lat":43.29602,"lon":5.381084,"is_reserved":false,"is_disabled":false,"rental_uris":{"android":"levelo://app?vid=2a23f1fb-7fa0-4bd6-b558-368472ff7e4d","ios":"levelo://app?vid=2a23f1fb-7fa0-4bd6-b558-368472ff7e4d"},"vehicle_type_id":"4","last_reported":1724425799,"current_range_meters":11200,"station_id":"ce4bgl12rcd13ifvqbo0","pricing_plan_id":"cebpf4jnsgd1na2vs0mg"},{"bike_id":"ec07d61c-1790-45c5-b3ad-78d5ebc597eb","system_id":"levelo_inurba_marseille","lat":43.29602,"lon":5.381084,"is_reserved":false,"is_disabled":false,"rental_uris":{"android":"levelo://app?vid=ec07d61c-1790-45c5-b3ad-78d5ebc597eb","ios":"levelo://app?vid=ec07d61c-1790-45c5-b3ad-78d5ebc597eb"},"vehicle_type_id":"4","last_reported":1724425799,"current_range_meters":18400,"station_id":"ce4bgl12rcd13ifvqbo0","pricing_plan_id":"cebpf4jnsgd1na2vs0mg"},{"bike_id":"b6f7b272-cb8b-4acb-993d-3c21650b352d","system_id":"levelo_inurba_marseille","lat":43.29602,"lon":5.381084,"is_reserved":false,"is_disabled":false,"rental_uris":{"android":"levelo://app?vid=b6f7b272-cb8b-4acb-993d-3c21650b352d","ios":"levelo://app?vid=b6f7b272-cb8b-4acb-993d-3c21650b352d"},"vehicle_type_id":"4","last_reported":1724425799,"current_range_meters":31600,"station_id":"ce4bgl12rcd13ifvqbo0","pricing_plan_id":"cebpf4jnsgd1na2vs0mg"},{"bike_id":"d6d33a51-4b5e-41ee-a2e6-fdff5576d7c9","system_id":"levelo_inurba_marseille","lat":43.29602,"lon":5.381084,"is_reserved":false,"is_disabled":false,"rental_uris":{"android":"levelo://app?vid=d6d33a51-4b5e-41ee-a2e6-fdff5576d7c9","ios":"levelo://app?vid=d6d33a51-4b5e-41ee-a2e6-fdff5576d7c9"},"vehicle_type_id":"4","last_reported":1724425799,"current_range_meters":31600,"station_id":"ce4bgl12rcd13ifvqbo0","pricing_plan_id":"cebpf4jnsgd1na2vs0mg"},{"bike_id":"b22d5c35-d203-4219-938e-3748332f9d8e","system_id":"levelo_inurba_marseille","lat":43.30653,"lon":5.39276,"is_reserved":false,"is_disabled":false,"rental_uris":{"android":"levelo://app?vid=b22d5c35-d203-4219-938e-3748332f9d8e","ios":"levelo://app?vid=b22d5c35-d203-4219-938e-3748332f9d8e"},"vehicle_type_id":"4","last_reported":1724425799,"current_range_meters":0,"station_id":"","pricing_plan_id":"cebpf4jnsgd1na2vs0mg"},{"bike_id":"a053cfde-6f7f-48d0-b4eb-b98b2bf679c4","system_id":"levelo_inurba_marseille","lat":43.293249,"lon":5.371578,"is_reserved":false,"is_disabled":false,"rental_uris":{"android":"levelo://app?vid=a053cfde-6f7f-48d0-b4eb-b98b2bf679c4","ios":"levelo://app?vid=a053cfde-6f7f-48d0-b4eb-b98b2bf679c4"},"vehicle_type_id":"4","last_reported":1724425799,"current_range_meters":0,"station_id":"ce4bgh92rcd13ifvqb40","pricing_plan_id":"cebpf4jnsgd1na2vs0mg"},{"bike_id":"f87dac67-c4e1-4922-a060-7d4850c934ff","system_id":"levelo_inurba_marseille","lat":43.292749,"lon":5.368402,"is_reserved":false,"is_disabled":false,"rental_uris":{"android":"levelo://app?vid=f87dac67-c4e1-4922-a060-7d4850c934ff","ios":"levelo://app?vid=f87dac67-c4e1-4922-a060-7d4850c934ff"},"vehicle_type_id":"4","last_reported":1724425799,"current_range_meters":22000,"station_id":"ce4bhbp2rcd13ifvqesg","pricing_plan_id":"cebpf4jnsgd1na2vs0mg"},{"bike_id":"777c761d-e86c-4aec-97ea-b4b3dfe4b6d3","system_id":"levelo_inurba_marseille","lat":43.292749,"lon":5.368402,"is_reserved":false,"is_disabled":false,"rental_uris":{"android":"levelo://app?vid=777c761d-e86c-4aec-97ea-b4b3dfe4b6d3","ios":"levelo://app?vid=777c761d-e86c-4aec-97ea-b4b3dfe4b6d3"},"vehicle_type_id":"4","last_reported":1724425799,"current_range_meters":29600,"station_id":"ce4bhbp2rcd13ifvqesg","pricing_plan_id":"cebpf4jnsgd1na2vs0mg"},{"bike_id":"14951e7f-ca0b-4972-b41b-3d95a45a3d5b","system_id":"levelo_inurba_marseille","lat":43.292749,"lon":5.368398,"is_reserved":false,"is_disabled":false,"rental_uris":{"android":"levelo://app?vid=14951e7f-ca0b-4972-b41b-3d95a45a3d5b","ios":"levelo://app?vid=14951e7f-ca0b-4972-b41b-3d95a45a3d5b"},"vehicle_type_id":"4","last_reported":1724425799,"current_range_meters":30800,"station_id":"ce4bhbp2rcd13ifvqesg","pricing_plan_id":"cebpf4jnsgd1na2vs0mg"},{"bike_id":"6effa154-00f9-408a-9eb7-d3cd37f58637","system_id":"levelo_inurba_marseille","lat":43.293009,"lon":5.374584,"is_reserved":false,"is_disabled":false,"rental_uris":{"android":"levelo://app?vid=6effa154-00f9-408a-9eb7-d3cd37f58637","ios":"levelo://app?vid=6effa154-00f9-408a-9eb7-d3cd37f58637"},"vehicle_type_id":"4","last_reported":1724425799,"current_range_meters":30400,"station_id":"ce4bgi12rcd13ifvqb70","pricing_plan_id":"cebpf4jnsgd1na2vs0mg"},{"bike_id":"e3b15fb3-dad3-4445-8c7e-708dab2fd82f","system_id":"levelo_inurba_marseille","lat":43.293009,"lon":5.374584,"is_reserved":false,"is_disabled":false,"rental_uris":{"android":"levelo://app?vid=e3b15fb3-dad3-4445-8c7e-708dab2fd82f","ios":"levelo://app?vid=e3b15fb3-dad3-4445-8c7e-708dab2fd82f"},"vehicle_type_id":"4","last_reported":1724425799,"current_range_meters":24000,"station_id":"ce4bgi12rcd13ifvqb70","pricing_plan_id":"cebpf4jnsgd1na2vs0mg"},{"bike_id":"d8f59e46-fe53-4305-ae65-66f9323fb3a3","system_id":"levelo_inurba_marseille","lat":43.29294,"lon":5.37449,"is_reserved":false,"is_disabled":false,"rental_uris":{"android":"levelo://app?vid=d8f59e46-fe53-4305-ae65-66f9323fb3a3","ios":"levelo://app?vid=d8f59e46-fe53-4305-ae65-66f9323fb3a3"},"vehicle_type_id":"4","last_reported":1724425799,"current_range_meters":0,"station_id":"ce4bgi12rcd13ifvqb70","pricing_plan_id":"cebpf4jnsgd1na2vs0mg"},{"bike_id":"3e525c88-0366-4e9d-bae5-50315bccc09d","system_id":"levelo_inurba_marseille","lat":43.305994,"lon":5.393687,"is_reserved":false,"is_disabled":false,"rental_uris":{"android":"levelo://app?vid=3e525c88-0366-4e9d-bae5-50315bccc09d","ios":"levelo://app?vid=3e525c88-0366-4e9d-bae5-50315bccc09d"},"vehicle_type_id":"4","last_reported":1724425799,"current_range_meters":13200,"station_id":"ce4bh0p2rcd13ifvqd80","pricing_plan_id":"cebpf4jnsgd1na2vs0mg"},{"bike_id":"8e318fef-c8e2-4a36-aae1-b4e1c9672bd1","system_id":"levelo_inurba_marseille","lat":43.293009,"lon":5.374584,"is_reserved":false,"is_disabled":false,"rental_uris":{"android":"levelo://app?vid=8e318fef-c8e2-4a36-aae1-b4e1c9672bd1","ios":"levelo://app?vid=8e318fef-c8e2-4a36-aae1-b4e1c9672bd1"},"vehicle_type_id":"4","last_reported":1724425799,"current_range_meters":9600,"station_id":"ce4bgi12rcd13ifvqb70","pricing_plan_id":"cebpf4jnsgd1na2vs0mg"},{"bike_id":"b51a184d-ebfc-4c0b-ab34-2503b5afa5ba","system_id":"levelo_inurba_marseille","lat":43.303,"lon":5.39199,"is_reserved":false,"is_disabled":false,"rental_uris":{"android":"levelo://app?vid=b51a184d-ebfc-4c0b-ab34-2503b5afa5ba","ios":"levelo://app?vid=b51a184d-ebfc-4c0b-ab34-2503b5afa5ba"},"vehicle_type_id":"4","last_reported":1724425799,"current_range_meters":0,"station_id":"ce4bgkh2rcd13ifvqbk0","pricing_plan_id":"cebpf4jnsgd1na2vs0mg"},{"bike_id":"19dc2bba-5fd3-4d22-add0-f9e284b8343e","system_id":"levelo_inurba_marseille","lat":43.29377,"lon":5.37855,"is_reserved":false,"is_disabled":false,"rental_uris":{"android":"levelo://app?vid=19dc2bba-5fd3-4d22-add0-f9e284b8343e","ios":"levelo://app?vid=19dc2bba-5fd3-4d22-add0-f9e284b8343e"},"vehicle_type_id":"4","last_reported":1724425799,"current_range_meters":30800,"station_id":"ce4bgjh2rcd13ifvqbf0","pricing_plan_id":"cebpf4jnsgd1na2vs0mg"},{"bike_id":"1aec3e9f-65f6-44bb-82fe-0703fcec6ef3","system_id":"levelo_inurba_marseille","lat":43.30496,"lon":5.39362,"is_reserved":false,"is_disabled":false,"rental_uris":{"android":"levelo://app?vid=1aec3e9f-65f6-44bb-82fe-0703fcec6ef3","ios":"levelo://app?vid=1aec3e9f-65f6-44bb-82fe-0703fcec6ef3"},"vehicle_type_id":"4","last_reported":1724425799,"current_range_meters":9600,"station_id":"","pricing_plan_id":"cebpf4jnsgd1na2vs0mg"},{"bike_id":"dee7bd86-9e58-47da-8dec-3d9ed903a839","system_id":"levelo_inurba_marseille","lat":43.29229,"lon":5.36073,"is_reserved":false,"is_disabled":false,"rental_uris":{"android":"levelo://app?vid=dee7bd86-9e58-47da-8dec-3d9ed903a839","ios":"levelo://app?vid=dee7bd86-9e58-47da-8dec-3d9ed903a839"},"vehicle_type_id":"4","last_reported":1724425799,"current_range_meters":4000,"station_id":"ce4bhbh2rcd13ifvqeqg","pricing_plan_id":"cebpf4jnsgd1na2vs0mg"},{"bike_id":"8bc9c52e-0e23-483a-b038-e79b5d9583b5","system_id":"levelo_inurba_marseille","lat":43.29227,"lon":5.3608,"is_reserved":false,"is_disabled":false,"rental_uris":{"android":"levelo://app?vid=8bc9c52e-0e23-483a-b038-e79b5d9583b5","ios":"levelo://app?vid=8bc9c52e-0e23-483a-b038-e79b5d9583b5"},"vehicle_type_id":"4","last_reported":1724425799,"current_range_meters":27600,"station_id":"ce4bhbh2rcd13ifvqeqg","pricing_plan_id":"cebpf4jnsgd1na2vs0mg"},{"bike_id":"031598de-666c-4977-b59a-5fca17b1d4f9","system_id":"levelo_inurba_marseille","lat":43.292311,"lon":5.360731,"is_reserved":false,"is_disabled":false,"rental_uris":{"android":"levelo://app?vid=031598de-666c-4977-b59a-5fca17b1d4f9","ios":"levelo://app?vid=031598de-666c-4977-b59a-5fca17b1d4f9"},"vehicle_type_id":"4","last_reported":1724425799,"current_range_meters":30800,"station_id":"ce4bhbh2rcd13ifvqeqg","pricing_plan_id":"cebpf4jnsgd1na2vs0mg"},{"bike_id":"0922a619-6f5d-4dc6-98c2-a30f6eaa160f","system_id":"levelo_inurba_marseille","lat":43.292311,"lon":5.360731,"is_reserved":false,"is_disabled":false,"rental_uris":{"android":"levelo://app?vid=0922a619-6f5d-4dc6-98c2-a30f6eaa160f","ios":"levelo://app?vid=0922a619-6f5d-4dc6-98c2-a30f6eaa160f"},"vehicle_type_id":"4","last_reported":1724425799,"current_range_meters":5200,"station_id":"ce4bhbh2rcd13ifvqeqg","pricing_plan_id":"cebpf4jnsgd1na2vs0mg"},{"bike_id":"5a6247ef-7763-4e17-a4a5-2da919f87077","system_id":"levelo_inurba_marseille","lat":43.300852,"lon":5.390859,"is_reserved":false,"is_disabled":false,"rental_uris":{"android":"levelo://app?vid=5a6247ef-7763-4e17-a4a5-2da919f87077","ios":"levelo://app?vid=5a6247ef-7763-4e17-a4a5-2da919f87077"},"vehicle_type_id":"4","last_reported":1724425799,"current_range_meters":0,"station_id":"ce4bh192rcd13ifvqdb0","pricing_plan_id":"cebpf4jnsgd1na2vs0mg"},{"bike_id":"3d3ab96e-5b53-448f-b191-e6d71bb42a65","system_id":"levelo_inurba_marseille","lat":43.298764,"lon":5.388973,"is_reserved":false,"is_disabled":false,"rental_uris":{"android":"levelo://app?vid=3d3ab96e-5b53-448f-b191-e6d71bb42a65","ios":"levelo://app?vid=3d3ab96e-5b53-448f-b191-e6d71bb42a65"},"vehicle_type_id":"4","last_reported":1724425799,"current_range_meters":400,"station_id":"ce4bh392rcd13ifvqdl0","pricing_plan_id":"cebpf4jnsgd1na2vs0mg"},{"bike_id":"de375176-3bc7-4b7d-9c8f-3eca91327ac0","system_id":"levelo_inurba_marseille","lat":43.29269,"lon":5.37627,"is_reserved":false,"is_disabled":false,"rental_uris":{"android":"levelo://app?vid=de375176-3bc7-4b7d-9c8f-3eca91327ac0","ios":"levelo://app?vid=de375176-3bc7-4b7d-9c8f-3eca91327ac0"},"vehicle_type_id":"4","last_reported":1724425799,"current_range_meters":1200,"station_id":"ce4bgi12rcd13ifvqb80","pricing_plan_id":"cebpf4jnsgd1na2vs0mg"},{"bike_id":"c66b3424-4a29-4687-8802-5b1ea9d830dc","system_id":"levelo_inurba_marseille","lat":43.293009,"lon":5.374584,"is_reserved":false,"is_disabled":false,"rental_uris":{"android":"levelo://app?vid=c66b3424-4a29-4687-8802-5b1ea9d830dc","ios":"levelo://app?vid=c66b3424-4a29-4687-8802-5b1ea9d830dc"},"vehicle_type_id":"4","last_reported":1724425799,"current_range_meters":0,"station_id":"ce4bgi12rcd13ifvqb70","pricing_plan_id":"cebpf4jnsgd1na2vs0mg"},{"bike_id":"49c17802-8b82-4906-ae24-fdbac0f201cb","system_id":"levelo_inurba_marseille","lat":43.313291,"lon":5.396838,"is_reserved":false,"is_disabled":false,"rental_uris":{"android":"levelo://app?vid=49c17802-8b82-4906-ae24-fdbac0f201cb","ios":"levelo://app?vid=49c17802-8b82-4906-ae24-fdbac0f201cb"},"vehicle_type_id":"4","last_reported":1724425799,"current_range_meters":0,"station_id":"ce4bgvp2rcd13ifvqcu0","pricing_plan_id":"cebpf4jnsgd1na2vs0mg"},{"bike_id":"5d8d6000-2921-4c68-9f4c-9ee2e8e5f6ad","system_id":"levelo_inurba_marseille","lat":43.29192,"lon":5.35806,"is_reserved":false,"is_disabled":false,"rental_uris":{"android":"levelo://app?vid=5d8d6000-2921-4c68-9f4c-9ee2e8e5f6ad","ios":"levelo://app?vid=5d8d6000-2921-4c68-9f4c-9ee2e8e5f6ad"},"vehicle_type_id":"4","last_reported":1724425799,"current_range_meters":27600,"station_id":"ce4bhb12rcd13ifvqel0","pricing_plan_id":"cebpf4jnsgd1na2vs0mg"},{"bike_id":"59e25b93-521e-423d-8a29-33fa89bc727a","system_id":"levelo_inurba_marseille","lat":43.313291,"lon":5.396838,"is_reserved":false,"is_disabled":false,"rental_uris":{"android":"levelo://app?vid=59e25b93-521e-423d-8a29-33fa89bc727a","ios":"levelo://app?vid=59e25b93-521e-423d-8a29-33fa89bc727a"},"vehicle_type_id":"4","last_reported":1724425799,"current_range_meters":19600,"station_id":"ce4bgvp2rcd13ifvqcu0","pricing_plan_id":"cebpf4jnsgd1na2vs0mg"},{"bike_id":"d2eb7b4a-2021-4854-bce0-e236a895aa42","system_id":"levelo_inurba_marseille","lat":43.29529,"lon":5.385581,"is_reserved":false,"is_disabled":false,"rental_uris":{"android":"levelo://app?vid=d2eb7b4a-2021-4854-bce0-e236a895aa42","ios":"levelo://app?vid=d2eb7b4a-2021-4854-bce0-e236a895aa42"},"vehicle_type_id":"4","last_reported":1724425799,"current_range_meters":26400,"station_id":"ce4bgih2rcd13ifvqba0","pricing_plan_id":"cebpf4jnsgd1na2vs0mg"},{"bike_id":"49374d62-0f21-49ac-9295-f2856361ed21","system_id":"levelo_inurba_marseille","lat":43.29529,"lon":5.385581,"is_reserved":false,"is_disabled":false,"rental_uris":{"android":"levelo://app?vid=49374d62-0f21-49ac-9295-f2856361ed21","ios":"levelo://app?vid=49374d62-0f21-49ac-9295-f2856361ed21"},"vehicle_type_id":"4","last_reported":1724425799,"current_range_meters":28400,"station_id":"ce4bgih2rcd13ifvqba0","pricing_plan_id":"cebpf4jnsgd1na2vs0mg"},{"bike_id":"cfbcd7e5-cddb-4d69-ae68-004cc795876c","system_id":"levelo_inurba_marseille","lat":43.29529,"lon":5.385581,"is_reserved":false,"is_disabled":false,"rental_uris":{"android":"levelo://app?vid=cfbcd7e5-cddb-4d69-ae68-004cc795876c","ios":"levelo://app?vid=cfbcd7e5-cddb-4d69-ae68-004cc795876c"},"vehicle_type_id":"4","last_reported":1724425799,"current_range_meters":0,"station_id":"ce4bgih2rcd13ifvqba0","pricing_plan_id":"cebpf4jnsgd1na2vs0mg"},{"bike_id":"8c55a092-0b08-4a39-b170-250e15aea283","system_id":"levelo_inurba_marseille","lat":43.29529,"lon":5.385581,"is_reserved":false,"is_disabled":false,"rental_uris":{"android":"levelo://app?vid=8c55a092-0b08-4a39-b170-250e15aea283","ios":"levelo://app?vid=8c55a092-0b08-4a39-b170-250e15aea283"},"vehicle_type_id":"4","last_reported":1724425799,"current_range_meters":0,"station_id":"ce4bgih2rcd13ifvqba0","pricing_plan_id":"cebpf4jnsgd1na2vs0mg"},{"bike_id":"5200c73f-6d32-4d15-a9a4-c765971077c4","system_id":"levelo_inurba_marseille","lat":43.29529,"lon":5.385581,"is_reserved":false,"is_disabled":false,"rental_uris":{"android":"levelo://app?vid=5200c73f-6d32-4d15-a9a4-c765971077c4","ios":"levelo://app?vid=5200c73f-6d32-4d15-a9a4-c765971077c4"},"vehicle_type_id":"4","last_reported":1724425799,"current_range_meters":7600,"station_id":"ce4bgih2rcd13ifvqba0","pricing_plan_id":"cebpf4jnsgd1na2vs0mg"},{"bike_id":"e64b1f23-45b1-4719-b0a8-91a7e715cb6a","system_id":"levelo_inurba_marseille","lat":43.297807,"lon":5.393533,"is_reserved":false,"is_disabled":false,"rental_uris":{"android":"levelo://app?vid=e64b1f23-45b1-4719-b0a8-91a7e715cb6a","ios":"levelo://app?vid=e64b1f23-45b1-4719-b0a8-91a7e715cb6a"},"vehicle_type_id":"4","last_reported":1724425799,"current_range_meters":24800,"station_id":"chh1huq6cuj3fo74tm60","pricing_plan_id":"cebpf4jnsgd1na2vs0mg"},{"bike_id":"10758be2-4ef7-40a5-8c16-6294ba985c4b","system_id":"levelo_inurba_marseille","lat":43.302008,"lon":5.394694,"is_reserved":false,"is_disabled":false,"rental_uris":{"android":"levelo://app?vid=10758be2-4ef7-40a5-8c16-6294ba985c4b","ios":"levelo://app?vid=10758be2-4ef7-40a5-8c16-6294ba985c4b"},"vehicle_type_id":"4","last_reported":1724425799,"current_range_meters":23600,"station_id":"ce4bh0p2rcd13ifvqd70","pricing_plan_id":"cebpf4jnsgd1na2vs0mg"},{"bike_id":"cafa4ace-a886-476d-9831-36e797b25f26","system_id":"levelo_inurba_marseille","lat":43.302008,"lon":5.394694,"is_reserved":false,"is_disabled":false,"rental_uris":{"android":"levelo://app?vid=cafa4ace-a886-476d-9831-36e797b25f26","ios":"levelo://app?vid=cafa4ace-a886-476d-9831-36e797b25f26"},"vehicle_type_id":"4","last_reported":1724425799,"current_range_meters":0,"station_id":"ce4bh0p2rcd13ifvqd70","pricing_plan_id":"cebpf4jnsgd1na2vs0mg"},{"bike_id":"7b9a8d35-b15f-44b0-82e9-fc5f4e7f012a","system_id":"levelo_inurba_marseille","lat":43.29049,"lon":5.35914,"is_reserved":false,"is_disabled":false,"rental_uris":{"android":"levelo://app?vid=7b9a8d35-b15f-44b0-82e9-fc5f4e7f012a","ios":"levelo://app?vid=7b9a8d35-b15f-44b0-82e9-fc5f4e7f012a"},"vehicle_type_id":"4","last_reported":1724425799,"current_range_meters":17600,"station_id":"ce4bha92rcd13ifvqeg0","pricing_plan_id":"cebpf4jnsgd1na2vs0mg"},{"bike_id":"de9943a3-bd88-441a-91d0-9bb287ef00f0","system_id":"levelo_inurba_marseille","lat":43.29051,"lon":5.35895,"is_reserved":false,"is_disabled":false,"rental_uris":{"android":"levelo://app?vid=de9943a3-bd88-441a-91d0-9bb287ef00f0","ios":"levelo://app?vid=de9943a3-bd88-441a-91d0-9bb287ef00f0"},"vehicle_type_id":"4","last_reported":1724425799,"current_range_meters":25600,"station_id":"ce4bha92rcd13ifvqeg0","pricing_plan_id":"cebpf4jnsgd1na2vs0mg"},{"bike_id":"9ef9b0ca-3e16-45fd-891b-608136071496","system_id":"levelo_inurba_marseille","lat":43.290624,"lon":5.359245,"is_reserved":false,"is_disabled":false,"rental_uris":{"android":"levelo://app?vid=9ef9b0ca-3e16-45fd-891b-608136071496","ios":"levelo://app?vid=9ef9b0ca-3e16-45fd-891b-608136071496"},"vehicle_type_id":"4","last_reported":1724425799,"current_range_meters":13600,"station_id":"ce4bha92rcd13ifvqeg0","pricing_plan_id":"cebpf4jnsgd1na2vs0mg"},{"bike_id":"261471f6-e34f-42d3-830c-1b3433759224","system_id":"levelo_inurba_marseille","lat":43.290624,"lon":5.359245,"is_reserved":false,"is_disabled":false,"rental_uris":{"android":"levelo://app?vid=261471f6-e34f-42d3-830c-1b3433759224","ios":"levelo://app?vid=261471f6-e34f-42d3-830c-1b3433759224"},"vehicle_type_id":"4","last_reported":1724425799,"current_range_meters":26400,"station_id":"ce4bha92rcd13ifvqeg0","pricing_plan_id":"cebpf4jnsgd1na2vs0mg"},{"bike_id":"7608a603-4b2e-40fe-83f4-3986e28bd148","system_id":"levelo_inurba_marseille","lat":43.29047,"lon":5.35905,"is_reserved":false,"is_disabled":false,"rental_uris":{"android":"levelo://app?vid=7608a603-4b2e-40fe-83f4-3986e28bd148","ios":"levelo://app?vid=7608a603-4b2e-40fe-83f4-3986e28bd148"},"vehicle_type_id":"4","last_reported":1724425799,"current_range_meters":26800,"station_id":"ce4bha92rcd13ifvqeg0","pricing_plan_id":"cebpf4jnsgd1na2vs0mg"},{"bike_id":"51ff8533-df6e-4cc2-b8e8-a0056ce3358a","system_id":"levelo_inurba_marseille","lat":43.29045,"lon":5.35914,"is_reserved":false,"is_disabled":false,"rental_uris":{"android":"levelo://app?vid=51ff8533-df6e-4cc2-b8e8-a0056ce3358a","ios":"levelo://app?vid=51ff8533-df6e-4cc2-b8e8-a0056ce3358a"},"vehicle_type_id":"4","last_reported":1724425799,"current_range_meters":30000,"station_id":"ce4bha92rcd13ifvqeg0","pricing_plan_id":"cebpf4jnsgd1na2vs0mg"},{"bike_id":"9206f560-6e4f-40c5-8584-4e60dd932b20","system_id":"levelo_inurba_marseille","lat":43.29045,"lon":5.359133,"is_reserved":false,"is_disabled":false,"rental_uris":{"android":"levelo://app?vid=9206f560-6e4f-40c5-8584-4e60dd932b20","ios":"levelo://app?vid=9206f560-6e4f-40c5-8584-4e60dd932b20"},"vehicle_type_id":"4","last_reported":1724425799,"current_range_meters":25600,"station_id":"ce4bha92rcd13ifvqeg0","pricing_plan_id":"cebpf4jnsgd1na2vs0mg"},{"bike_id":"c9d15c8c-af35-4a36-a1f7-1f29e22f97f4","system_id":"levelo_inurba_marseille","lat":43.290631,"lon":5.359244,"is_reserved":false,"is_disabled":false,"rental_uris":{"android":"levelo://app?vid=c9d15c8c-af35-4a36-a1f7-1f29e22f97f4","ios":"levelo://app?vid=c9d15c8c-af35-4a36-a1f7-1f29e22f97f4"},"vehicle_type_id":"4","last_reported":1724425799,"current_range_meters":20400,"station_id":"ce4bha92rcd13ifvqeg0","pricing_plan_id":"cebpf4jnsgd1na2vs0mg"},{"bike_id":"311bc20c-f2b9-4c8b-97f3-6d27df13ff4f","system_id":"levelo_inurba_marseille","lat":43.29045,"lon":5.35908,"is_reserved":false,"is_disabled":false,"rental_uris":{"android":"levelo://app?vid=311bc20c-f2b9-4c8b-97f3-6d27df13ff4f","ios":"levelo://app?vid=311bc20c-f2b9-4c8b-97f3-6d27df13ff4f"},"vehicle_type_id":"4","last_reported":1724425799,"current_range_meters":13200,"station_id":"ce4bha92rcd13ifvqeg0","pricing_plan_id":"cebpf4jnsgd1na2vs0mg"},{"bike_id":"4f1f3be5-e7ac-42a1-98b8-4cbd32e03936","system_id":"levelo_inurba_marseille","lat":43.290624,"lon":5.359245,"is_reserved":false,"is_disabled":false,"rental_uris":{"android":"levelo://app?vid=4f1f3be5-e7ac-42a1-98b8-4cbd32e03936","ios":"levelo://app?vid=4f1f3be5-e7ac-42a1-98b8-4cbd32e03936"},"vehicle_type_id":"4","last_reported":1724425799,"current_range_meters":31600,"station_id":"ce4bha92rcd13ifvqeg0","pricing_plan_id":"cebpf4jnsgd1na2vs0mg"},{"bike_id":"23ccc63d-aa82-48f3-a376-9295bdce2199","system_id":"levelo_inurba_marseille","lat":43.290631,"lon":5.359244,"is_reserved":false,"is_disabled":false,"rental_uris":{"android":"levelo://app?vid=23ccc63d-aa82-48f3-a376-9295bdce2199","ios":"levelo://app?vid=23ccc63d-aa82-48f3-a376-9295bdce2199"},"vehicle_type_id":"4","last_reported":1724425799,"current_range_meters":30000,"station_id":"ce4bha92rcd13ifvqeg0","pricing_plan_id":"cebpf4jnsgd1na2vs0mg"},{"bike_id":"6318ce3f-f15b-4580-9fee-27c561a13742","system_id":"levelo_inurba_marseille","lat":43.29176,"lon":5.38066,"is_reserved":false,"is_disabled":false,"rental_uris":{"android":"levelo://app?vid=6318ce3f-f15b-4580-9fee-27c561a13742","ios":"levelo://app?vid=6318ce3f-f15b-4580-9fee-27c561a13742"},"vehicle_type_id":"4","last_reported":1724425799,"current_range_meters":18800,"station_id":"","pricing_plan_id":"cebpf4jnsgd1na2vs0mg"},{"bike_id":"1b46f444-19d8-4b0a-a3e0-ecb19b3e8ada","system_id":"levelo_inurba_marseille","lat":43.28939,"lon":5.36638,"is_reserved":false,"is_disabled":false,"rental_uris":{"android":"levelo://app?vid=1b46f444-19d8-4b0a-a3e0-ecb19b3e8ada","ios":"levelo://app?vid=1b46f444-19d8-4b0a-a3e0-ecb19b3e8ada"},"vehicle_type_id":"4","last_reported":1724425799,"current_range_meters":17600,"station_id":"ce4bhap2rcd13ifvqek0","pricing_plan_id":"cebpf4jnsgd1na2vs0mg"},{"bike_id":"173db417-6cb5-4d35-b7ad-ec2d0f55008e","system_id":"levelo_inurba_marseille","lat":43.289184,"lon":5.366408,"is_reserved":false,"is_disabled":false,"rental_uris":{"android":"levelo://app?vid=173db417-6cb5-4d35-b7ad-ec2d0f55008e","ios":"levelo://app?vid=173db417-6cb5-4d35-b7ad-ec2d0f55008e"},"vehicle_type_id":"4","last_reported":1724425799,"current_range_meters":28400,"station_id":"ce4bhap2rcd13ifvqek0","pricing_plan_id":"cebpf4jnsgd1na2vs0mg"},{"bike_id":"d8053afc-932e-495e-875e-ab816a7d55d6","system_id":"levelo_inurba_marseille","lat":43.289307,"lon":5.38406,"is_reserved":false,"is_disabled":false,"rental_uris":{"android":"levelo://app?vid=d8053afc-932e-495e-875e-ab816a7d55d6","ios":"levelo://app?vid=d8053afc-932e-495e-875e-ab816a7d55d6"},"vehicle_type_id":"4","last_reported":1724425799,"current_range_meters":12400,"station_id":"ce4bh612rcd13ifvqe6g","pricing_plan_id":"cebpf4jnsgd1na2vs0mg"},{"bike_id":"39a3c1ea-8ffc-4858-bcc1-968024b3fc2a","system_id":"levelo_inurba_marseille","lat":43.28944,"lon":5.36386,"is_reserved":false,"is_disabled":false,"rental_uris":{"android":"levelo://app?vid=39a3c1ea-8ffc-4858-bcc1-968024b3fc2a","ios":"levelo://app?vid=39a3c1ea-8ffc-4858-bcc1-968024b3fc2a"},"vehicle_type_id":"4","last_reported":1724425799,"current_range_meters":14000,"station_id":"ce4bhc92rcd13ifvqetg","pricing_plan_id":"cebpf4jnsgd1na2vs0mg"},{"bike_id":"ad7e569b-976c-490c-b68d-e9538aa5c4ba","system_id":"levelo_inurba_marseille","lat":43.28942,"lon":5.36409,"is_reserved":false,"is_disabled":false,"rental_uris":{"android":"levelo://app?vid=ad7e569b-976c-490c-b68d-e9538aa5c4ba","ios":"levelo://app?vid=ad7e569b-976c-490c-b68d-e9538aa5c4ba"},"vehicle_type_id":"4","last_reported":1724425799,"current_range_meters":24400,"station_id":"ce4bhc92rcd13ifvqetg","pricing_plan_id":"cebpf4jnsgd1na2vs0mg"},{"bike_id":"48af9fae-bde6-4fc2-9178-06094a4c894b","system_id":"levelo_inurba_marseille","lat":43.28936,"lon":5.36397,"is_reserved":false,"is_disabled":false,"rental_uris":{"android":"levelo://app?vid=48af9fae-bde6-4fc2-9178-06094a4c894b","ios":"levelo://app?vid=48af9fae-bde6-4fc2-9178-06094a4c894b"},"vehicle_type_id":"4","last_reported":1724425799,"current_range_meters":8000,"station_id":"ce4bhc92rcd13ifvqetg","pricing_plan_id":"cebpf4jnsgd1na2vs0mg"},{"bike_id":"a81c431e-1246-4fc4-a9a9-1842df5c5602","system_id":"levelo_inurba_marseille","lat":43.289297,"lon":5.363914,"is_reserved":false,"is_disabled":false,"rental_uris":{"android":"levelo://app?vid=a81c431e-1246-4fc4-a9a9-1842df5c5602","ios":"levelo://app?vid=a81c431e-1246-4fc4-a9a9-1842df5c5602"},"vehicle_type_id":"4","last_reported":1724425799,"current_range_meters":0,"station_id":"ce4bhc92rcd13ifvqetg","pricing_plan_id":"cebpf4jnsgd1na2vs0mg"},{"bike_id":"43b380ec-24d3-4821-b5a8-6db46b28b8f4","system_id":"levelo_inurba_marseille","lat":43.304274,"lon":5.397513,"is_reserved":false,"is_disabled":false,"rental_uris":{"android":"levelo://app?vid=43b380ec-24d3-4821-b5a8-6db46b28b8f4","ios":"levelo://app?vid=43b380ec-24d3-4821-b5a8-6db46b28b8f4"},"vehicle_type_id":"4","last_reported":1724425799,"current_range_meters":24800,"station_id":"ce4bh092rcd13ifvqd20","pricing_plan_id":"cebpf4jnsgd1na2vs0mg"},{"bike_id":"5eec4989-47ec-4ee4-ab85-4092e581d92d","system_id":"levelo_inurba_marseille","lat":43.290104,"lon":5.356111,"is_reserved":false,"is_disabled":false,"rental_uris":{"android":"levelo://app?vid=5eec4989-47ec-4ee4-ab85-4092e581d92d","ios":"levelo://app?vid=5eec4989-47ec-4ee4-ab85-4092e581d92d"},"vehicle_type_id":"4","last_reported":1724425799,"current_range_meters":4800,"station_id":"ce4bhb92rcd13ifvqen0","pricing_plan_id":"cebpf4jnsgd1na2vs0mg"},{"bike_id":"a7ea4b0e-2143-4ed7-9cdb-670944fee586","system_id":"levelo_inurba_marseille","lat":43.290103,"lon":5.356114,"is_reserved":false,"is_disabled":false,"rental_uris":{"android":"levelo://app?vid=a7ea4b0e-2143-4ed7-9cdb-670944fee586","ios":"levelo://app?vid=a7ea4b0e-2143-4ed7-9cdb-670944fee586"},"vehicle_type_id":"4","last_reported":1724425799,"current_range_meters":13200,"station_id":"ce4bhb92rcd13ifvqen0","pricing_plan_id":"cebpf4jnsgd1na2vs0mg"},{"bike_id":"dc93b32f-6060-481e-94d7-6c422efc0368","system_id":"levelo_inurba_marseille","lat":43.290104,"lon":5.356111,"is_reserved":false,"is_disabled":false,"rental_uris":{"android":"levelo://app?vid=dc93b32f-6060-481e-94d7-6c422efc0368","ios":"levelo://app?vid=dc93b32f-6060-481e-94d7-6c422efc0368"},"vehicle_type_id":"4","last_reported":1724425799,"current_range_meters":30000,"station_id":"ce4bhb92rcd13ifvqen0","pricing_plan_id":"cebpf4jnsgd1na2vs0mg"},{"bike_id":"543813b9-dd3a-4142-8158-1911f2850d16","system_id":"levelo_inurba_marseille","lat":43.29006,"lon":5.35622,"is_reserved":false,"is_disabled":false,"rental_uris":{"android":"levelo://app?vid=543813b9-dd3a-4142-8158-1911f2850d16","ios":"levelo://app?vid=543813b9-dd3a-4142-8158-1911f2850d16"},"vehicle_type_id":"4","last_reported":1724425799,"current_range_meters":9200,"station_id":"ce4bhb92rcd13ifvqen0","pricing_plan_id":"cebpf4jnsgd1na2vs0mg"},{"bike_id":"e5242287-f426-445f-b1cb-cfbb266fd5f5","system_id":"levelo_inurba_marseille","lat":43.290104,"lon":5.356111,"is_reserved":false,"is_disabled":false,"rental_uris":{"android":"levelo://app?vid=e5242287-f426-445f-b1cb-cfbb266fd5f5","ios":"levelo://app?vid=e5242287-f426-445f-b1cb-cfbb266fd5f5"},"vehicle_type_id":"4","last_reported":1724425799,"current_range_meters":24000,"station_id":"ce4bhb92rcd13ifvqen0","pricing_plan_id":"cebpf4jnsgd1na2vs0mg"},{"bike_id":"94c8019c-2f1d-4912-9de7-a84bd8c87712","system_id":"levelo_inurba_marseille","lat":43.290104,"lon":5.356111,"is_reserved":false,"is_disabled":false,"rental_uris":{"android":"levelo://app?vid=94c8019c-2f1d-4912-9de7-a84bd8c87712","ios":"levelo://app?vid=94c8019c-2f1d-4912-9de7-a84bd8c87712"},"vehicle_type_id":"4","last_reported":1724425799,"current_range_meters":31200,"station_id":"ce4bhb92rcd13ifvqen0","pricing_plan_id":"cebpf4jnsgd1na2vs0mg"},{"bike_id":"139202d3-cad1-4604-9889-78a45e63c052","system_id":"levelo_inurba_marseille","lat":43.290104,"lon":5.356111,"is_reserved":false,"is_disabled":false,"rental_uris":{"android":"levelo://app?vid=139202d3-cad1-4604-9889-78a45e63c052","ios":"levelo://app?vid=139202d3-cad1-4604-9889-78a45e63c052"},"vehicle_type_id":"4","last_reported":1724425799,"current_range_meters":25200,"station_id":"ce4bhb92rcd13ifvqen0","pricing_plan_id":"cebpf4jnsgd1na2vs0mg"},{"bike_id":"20b3e0d2-97a1-401d-a660-bf8258fb5065","system_id":"levelo_inurba_marseille","lat":43.29006,"lon":5.35614,"is_reserved":false,"is_disabled":false,"rental_uris":{"android":"levelo://app?vid=20b3e0d2-97a1-401d-a660-bf8258fb5065","ios":"levelo://app?vid=20b3e0d2-97a1-401d-a660-bf8258fb5065"},"vehicle_type_id":"4","last_reported":1724425799,"current_range_meters":20800,"station_id":"ce4bhb92rcd13ifvqen0","pricing_plan_id":"cebpf4jnsgd1na2vs0mg"},{"bike_id":"67df9140-da7d-4272-8ab8-a05d9f907fa3","system_id":"levelo_inurba_marseille","lat":43.290103,"lon":5.356114,"is_reserved":false,"is_disabled":false,"rental_uris":{"android":"levelo://app?vid=67df9140-da7d-4272-8ab8-a05d9f907fa3","ios":"levelo://app?vid=67df9140-da7d-4272-8ab8-a05d9f907fa3"},"vehicle_type_id":"4","last_reported":1724425799,"current_range_meters":10800,"station_id":"ce4bhb92rcd13ifvqen0","pricing_plan_id":"cebpf4jnsgd1na2vs0mg"},{"bike_id":"d94f5f60-1e7d-40c6-9517-919d51592f37","system_id":"levelo_inurba_marseille","lat":43.290103,"lon":5.356114,"is_reserved":false,"is_disabled":false,"rental_uris":{"android":"levelo://app?vid=d94f5f60-1e7d-40c6-9517-919d51592f37","ios":"levelo://app?vid=d94f5f60-1e7d-40c6-9517-919d51592f37"},"vehicle_type_id":"4","last_reported":1724425799,"current_range_meters":8000,"station_id":"ce4bhb92rcd13ifvqen0","pricing_plan_id":"cebpf4jnsgd1na2vs0mg"},{"bike_id":"d4ef2e3b-641d-49ee-8497-47f6deecf1e7","system_id":"levelo_inurba_marseille","lat":43.290995,"lon":5.381361,"is_reserved":false,"is_disabled":false,"rental_uris":{"android":"levelo://app?vid=d4ef2e3b-641d-49ee-8497-47f6deecf1e7","ios":"levelo://app?vid=d4ef2e3b-641d-49ee-8497-47f6deecf1e7"},"vehicle_type_id":"4","last_reported":1724425799,"current_range_meters":0,"station_id":"ce4bh512rcd13ifvqe2g","pricing_plan_id":"cebpf4jnsgd1na2vs0mg"},{"bike_id":"7c864485-3e21-4776-a700-c925f8019d60","system_id":"levelo_inurba_marseille","lat":43.290995,"lon":5.381361,"is_reserved":false,"is_disabled":false,"rental_uris":{"android":"levelo://app?vid=7c864485-3e21-4776-a700-c925f8019d60","ios":"levelo://app?vid=7c864485-3e21-4776-a700-c925f8019d60"},"vehicle_type_id":"4","last_reported":1724425799,"current_range_meters":800,"station_id":"ce4bh512rcd13ifvqe2g","pricing_plan_id":"cebpf4jnsgd1na2vs0mg"},{"bike_id":"a4488a62-7c1b-4b98-a2b9-9c1a13013f8f","system_id":"levelo_inurba_marseille","lat":43.286961,"lon":5.373785,"is_reserved":false,"is_disabled":false,"rental_uris":{"android":"levelo://app?vid=a4488a62-7c1b-4b98-a2b9-9c1a13013f8f","ios":"levelo://app?vid=a4488a62-7c1b-4b98-a2b9-9c1a13013f8f"},"vehicle_type_id":"4","last_reported":1724425799,"current_range_meters":2000,"station_id":"ce4bh3p2rcd13ifvqdq0","pricing_plan_id":"cebpf4jnsgd1na2vs0mg"},{"bike_id":"e6889c50-e5ff-4f65-913d-d701eeb99ce4","system_id":"levelo_inurba_marseille","lat":43.297807,"lon":5.393533,"is_reserved":false,"is_disabled":false,"rental_uris":{"android":"levelo://app?vid=e6889c50-e5ff-4f65-913d-d701eeb99ce4","ios":"levelo://app?vid=e6889c50-e5ff-4f65-913d-d701eeb99ce4"},"vehicle_type_id":"4","last_reported":1724425799,"current_range_meters":17600,"station_id":"chh1huq6cuj3fo74tm60","pricing_plan_id":"cebpf4jnsgd1na2vs0mg"},{"bike_id":"d4635bc8-9915-43fd-a2d2-f0c6cf0ea269","system_id":"levelo_inurba_marseille","lat":43.297807,"lon":5.393533,"is_reserved":false,"is_disabled":false,"rental_uris":{"android":"levelo://app?vid=d4635bc8-9915-43fd-a2d2-f0c6cf0ea269","ios":"levelo://app?vid=d4635bc8-9915-43fd-a2d2-f0c6cf0ea269"},"vehicle_type_id":"4","last_reported":1724425799,"current_range_meters":10000,"station_id":"chh1huq6cuj3fo74tm60","pricing_plan_id":"cebpf4jnsgd1na2vs0mg"},{"bike_id":"392b5105-3ef7-4ace-bb16-bf7f2e3e8cf1","system_id":"levelo_inurba_marseille","lat":43.33024,"lon":5.3903,"is_reserved":false,"is_disabled":false,"rental_uris":{"android":"levelo://app?vid=392b5105-3ef7-4ace-bb16-bf7f2e3e8cf1","ios":"levelo://app?vid=392b5105-3ef7-4ace-bb16-bf7f2e3e8cf1"},"vehicle_type_id":"4","last_reported":1724425799,"current_range_meters":5600,"station_id":"ce4bhr92rcd13ifvqhrg","pricing_plan_id":"cebpf4jnsgd1na2vs0mg"},{"bike_id":"b82fa450-7074-4845-9853-4743da79fa4d","system_id":"levelo_inurba_marseille","lat":43.295169,"lon":5.390426,"is_reserved":false,"is_disabled":false,"rental_uris":{"android":"levelo://app?vid=b82fa450-7074-4845-9853-4743da79fa4d","ios":"levelo://app?vid=b82fa450-7074-4845-9853-4743da79fa4d"},"vehicle_type_id":"4","last_reported":1724425799,"current_range_meters":0,"station_id":"ce4bh3p2rcd13ifvqdp0","pricing_plan_id":"cebpf4jnsgd1na2vs0mg"},{"bike_id":"8d19ca2f-c1ea-46a9-82d1-204dfdd910aa","system_id":"levelo_inurba_marseille","lat":43.330241,"lon":5.390364,"is_reserved":false,"is_disabled":false,"rental_uris":{"android":"levelo://app?vid=8d19ca2f-c1ea-46a9-82d1-204dfdd910aa","ios":"levelo://app?vid=8d19ca2f-c1ea-46a9-82d1-204dfdd910aa"},"vehicle_type_id":"4","last_reported":1724425799,"current_range_meters":29600,"station_id":"ce4bhr92rcd13ifvqhrg","pricing_plan_id":"cebpf4jnsgd1na2vs0mg"},{"bike_id":"01d6f5e7-ed90-42d3-aac7-75509f782d54","system_id":"levelo_inurba_marseille","lat":43.330442,"lon":5.389148,"is_reserved":false,"is_disabled":false,"rental_uris":{"android":"levelo://app?vid=01d6f5e7-ed90-42d3-aac7-75509f782d54","ios":"levelo://app?vid=01d6f5e7-ed90-42d3-aac7-75509f782d54"},"vehicle_type_id":"4","last_reported":1724425799,"current_range_meters":31600,"station_id":"ce4bhr92rcd13ifvqhrg","pricing_plan_id":"cebpf4jnsgd1na2vs0mg"},{"bike_id":"d0205d13-52ae-4dad-ad88-f7cd247d6142","system_id":"levelo_inurba_marseille","lat":43.33025,"lon":5.39038,"is_reserved":false,"is_disabled":false,"rental_uris":{"android":"levelo://app?vid=d0205d13-52ae-4dad-ad88-f7cd247d6142","ios":"levelo://app?vid=d0205d13-52ae-4dad-ad88-f7cd247d6142"},"vehicle_type_id":"4","last_reported":1724425799,"current_range_meters":3600,"station_id":"ce4bhr92rcd13ifvqhrg","pricing_plan_id":"cebpf4jnsgd1na2vs0mg"},{"bike_id":"28021eb6-dd4f-4b6a-b5db-d673d2b8fabe","system_id":"levelo_inurba_marseille","lat":43.28972,"lon":5.37825,"is_reserved":false,"is_disabled":false,"rental_uris":{"android":"levelo://app?vid=28021eb6-dd4f-4b6a-b5db-d673d2b8fabe","ios":"levelo://app?vid=28021eb6-dd4f-4b6a-b5db-d673d2b8fabe"},"vehicle_type_id":"4","last_reported":1724425799,"current_range_meters":24800,"station_id":"ce4bh9p2rcd13ifvqed0","pricing_plan_id":"cebpf4jnsgd1na2vs0mg"},{"bike_id":"483fcab1-ab24-4022-b11c-467d833835cc","system_id":"levelo_inurba_marseille","lat":43.330442,"lon":5.389148,"is_reserved":false,"is_disabled":false,"rental_uris":{"android":"levelo://app?vid=483fcab1-ab24-4022-b11c-467d833835cc","ios":"levelo://app?vid=483fcab1-ab24-4022-b11c-467d833835cc"},"vehicle_type_id":"4","last_reported":1724425799,"current_range_meters":31600,"station_id":"ce4bhr92rcd13ifvqhrg","pricing_plan_id":"cebpf4jnsgd1na2vs0mg"},{"bike_id":"d8badf33-c4bb-4fbb-94fc-3cb3ad12dffe","system_id":"levelo_inurba_marseille","lat":43.289741,"lon":5.378306,"is_reserved":false,"is_disabled":false,"rental_uris":{"android":"levelo://app?vid=d8badf33-c4bb-4fbb-94fc-3cb3ad12dffe","ios":"levelo://app?vid=d8badf33-c4bb-4fbb-94fc-3cb3ad12dffe"},"vehicle_type_id":"4","last_reported":1724425799,"current_range_meters":18000,"station_id":"ce4bh9p2rcd13ifvqed0","pricing_plan_id":"cebpf4jnsgd1na2vs0mg"},{"bike_id":"2caa5905-22ed-4f07-9539-9d80a9804a8d","system_id":"levelo_inurba_marseille","lat":43.330442,"lon":5.389148,"is_reserved":false,"is_disabled":false,"rental_uris":{"android":"levelo://app?vid=2caa5905-22ed-4f07-9539-9d80a9804a8d","ios":"levelo://app?vid=2caa5905-22ed-4f07-9539-9d80a9804a8d"},"vehicle_type_id":"4","last_reported":1724425799,"current_range_meters":4000,"station_id":"ce4bhr92rcd13ifvqhrg","pricing_plan_id":"cebpf4jnsgd1na2vs0mg"},{"bike_id":"fcae240a-6c8d-4893-a080-3c7ff6311dab","system_id":"levelo_inurba_marseille","lat":43.28856,"lon":5.358371,"is_reserved":false,"is_disabled":false,"rental_uris":{"android":"levelo://app?vid=fcae240a-6c8d-4893-a080-3c7ff6311dab","ios":"levelo://app?vid=fcae240a-6c8d-4893-a080-3c7ff6311dab"},"vehicle_type_id":"4","last_reported":1724425799,"current_range_meters":16400,"station_id":"ce4bhb12rcd13ifvqem0","pricing_plan_id":"cebpf4jnsgd1na2vs0mg"},{"bike_id":"5bc9b1ab-a4a4-4488-897f-b9e5112a8d53","system_id":"levelo_inurba_marseille","lat":43.290277,"lon":5.381453,"is_reserved":false,"is_disabled":false,"rental_uris":{"android":"levelo://app?vid=5bc9b1ab-a4a4-4488-897f-b9e5112a8d53","ios":"levelo://app?vid=5bc9b1ab-a4a4-4488-897f-b9e5112a8d53"},"vehicle_type_id":"4","last_reported":1724425799,"current_range_meters":0,"station_id":"ce4bh4p2rcd13ifvqe1g","pricing_plan_id":"cebpf4jnsgd1na2vs0mg"},{"bike_id":"6bbf6b62-88d4-4c96-8d7f-2c950fc75954","system_id":"levelo_inurba_marseille","lat":43.290094,"lon":5.381264,"is_reserved":false,"is_disabled":false,"rental_uris":{"android":"levelo://app?vid=6bbf6b62-88d4-4c96-8d7f-2c950fc75954","ios":"levelo://app?vid=6bbf6b62-88d4-4c96-8d7f-2c950fc75954"},"vehicle_type_id":"4","last_reported":1724425799,"current_range_meters":400,"station_id":"ce4bh4p2rcd13ifvqe1g","pricing_plan_id":"cebpf4jnsgd1na2vs0mg"},{"bike_id":"860c08c4-72b1-450f-b351-3478331d1305","system_id":"levelo_inurba_marseille","lat":43.28856,"lon":5.358371,"is_reserved":false,"is_disabled":false,"rental_uris":{"android":"levelo://app?vid=860c08c4-72b1-450f-b351-3478331d1305","ios":"levelo://app?vid=860c08c4-72b1-450f-b351-3478331d1305"},"vehicle_type_id":"4","last_reported":1724425799,"current_range_meters":22400,"station_id":"ce4bhb12rcd13ifvqem0","pricing_plan_id":"cebpf4jnsgd1na2vs0mg"},{"bike_id":"87e9e94f-c4e1-4418-b05b-ded0ab2d113a","system_id":"levelo_inurba_marseille","lat":43.28792,"lon":5.360135,"is_reserved":false,"is_disabled":false,"rental_uris":{"android":"levelo://app?vid=87e9e94f-c4e1-4418-b05b-ded0ab2d113a","ios":"levelo://app?vid=87e9e94f-c4e1-4418-b05b-ded0ab2d113a"},"vehicle_type_id":"4","last_reported":1724425799,"current_range_meters":16400,"station_id":"ce4bhbp2rcd13ifvqerg","pricing_plan_id":"cebpf4jnsgd1na2vs0mg"},{"bike_id":"cdc35d34-57e9-43e1-ac36-c0218dd5a9e1","system_id":"levelo_inurba_marseille","lat":43.33745,"lon":5.37455,"is_reserved":false,"is_disabled":false,"rental_uris":{"android":"levelo://app?vid=cdc35d34-57e9-43e1-ac36-c0218dd5a9e1","ios":"levelo://app?vid=cdc35d34-57e9-43e1-ac36-c0218dd5a9e1"},"vehicle_type_id":"4","last_reported":1724425799,"current_range_meters":25600,"station_id":"","pricing_plan_id":"cebpf4jnsgd1na2vs0mg"},{"bike_id":"a0b4dff9-0c3f-4016-b4c2-90d7cc1455ed","system_id":"levelo_inurba_marseille","lat":43.309371,"lon":5.401449,"is_reserved":false,"is_disabled":false,"rental_uris":{"android":"levelo://app?vid=a0b4dff9-0c3f-4016-b4c2-90d7cc1455ed","ios":"levelo://app?vid=a0b4dff9-0c3f-4016-b4c2-90d7cc1455ed"},"vehicle_type_id":"4","last_reported":1724425799,"current_range_meters":6800,"station_id":"ce4bgvp2rcd13ifvqct0","pricing_plan_id":"cebpf4jnsgd1na2vs0mg"},{"bike_id":"660e9432-0344-4cb5-9933-430cb837fd0c","system_id":"levelo_inurba_marseille","lat":43.337448,"lon":5.374616,"is_reserved":false,"is_disabled":false,"rental_uris":{"android":"levelo://app?vid=660e9432-0344-4cb5-9933-430cb837fd0c","ios":"levelo://app?vid=660e9432-0344-4cb5-9933-430cb837fd0c"},"vehicle_type_id":"4","last_reported":1724425799,"current_range_meters":21200,"station_id":"","pricing_plan_id":"cebpf4jnsgd1na2vs0mg"},{"bike_id":"ca832205-0a9f-47e9-ae86-3860bb3ae6e1","system_id":"levelo_inurba_marseille","lat":43.309371,"lon":5.401449,"is_reserved":false,"is_disabled":false,"rental_uris":{"android":"levelo://app?vid=ca832205-0a9f-47e9-ae86-3860bb3ae6e1","ios":"levelo://app?vid=ca832205-0a9f-47e9-ae86-3860bb3ae6e1"},"vehicle_type_id":"4","last_reported":1724425799,"current_range_meters":5200,"station_id":"ce4bgvp2rcd13ifvqct0","pricing_plan_id":"cebpf4jnsgd1na2vs0mg"},{"bike_id":"4de32c0f-a0ec-4e89-ac2d-8428564c24b9","system_id":"levelo_inurba_marseille","lat":43.30642,"lon":5.40074,"is_reserved":false,"is_disabled":false,"rental_uris":{"android":"levelo://app?vid=4de32c0f-a0ec-4e89-ac2d-8428564c24b9","ios":"levelo://app?vid=4de32c0f-a0ec-4e89-ac2d-8428564c24b9"},"vehicle_type_id":"4","last_reported":1724425799,"current_range_meters":0,"station_id":"ce4bh112rcd13ifvqda0","pricing_plan_id":"cebpf4jnsgd1na2vs0mg"},{"bike_id":"29ea26cc-0680-4164-abf4-870e2d146ccf","system_id":"levelo_inurba_marseille","lat":43.337558,"lon":5.374577,"is_reserved":false,"is_disabled":false,"rental_uris":{"android":"levelo://app?vid=29ea26cc-0680-4164-abf4-870e2d146ccf","ios":"levelo://app?vid=29ea26cc-0680-4164-abf4-870e2d146ccf"},"vehicle_type_id":"4","last_reported":1724425799,"current_range_meters":20800,"station_id":"","pricing_plan_id":"cebpf4jnsgd1na2vs0mg"},{"bike_id":"bbc718b4-d60b-46a4-9125-3a6a70faaff5","system_id":"levelo_inurba_marseille","lat":43.33761,"lon":5.37444,"is_reserved":false,"is_disabled":false,"rental_uris":{"android":"levelo://app?vid=bbc718b4-d60b-46a4-9125-3a6a70faaff5","ios":"levelo://app?vid=bbc718b4-d60b-46a4-9125-3a6a70faaff5"},"vehicle_type_id":"4","last_reported":1724425799,"current_range_meters":26400,"station_id":"","pricing_plan_id":"cebpf4jnsgd1na2vs0mg"},{"bike_id":"918cb1a9-6210-4e52-bb66-383836a14f2f","system_id":"levelo_inurba_marseille","lat":43.337621,"lon":5.374623,"is_reserved":false,"is_disabled":false,"rental_uris":{"android":"levelo://app?vid=918cb1a9-6210-4e52-bb66-383836a14f2f","ios":"levelo://app?vid=918cb1a9-6210-4e52-bb66-383836a14f2f"},"vehicle_type_id":"4","last_reported":1724425799,"current_range_meters":3600,"station_id":"","pricing_plan_id":"cebpf4jnsgd1na2vs0mg"},{"bike_id":"1b635017-1f6d-4ccf-887c-5535d999fc49","system_id":"levelo_inurba_marseille","lat":43.33768,"lon":5.37436,"is_reserved":false,"is_disabled":false,"rental_uris":{"android":"levelo://app?vid=1b635017-1f6d-4ccf-887c-5535d999fc49","ios":"levelo://app?vid=1b635017-1f6d-4ccf-887c-5535d999fc49"},"vehicle_type_id":"4","last_reported":1724425799,"current_range_meters":18000,"station_id":"","pricing_plan_id":"cebpf4jnsgd1na2vs0mg"},{"bike_id":"10d617e0-53e1-40aa-8f5d-88c010d20dbf","system_id":"levelo_inurba_marseille","lat":43.2936,"lon":5.37835,"is_reserved":false,"is_disabled":false,"rental_uris":{"android":"levelo://app?vid=10d617e0-53e1-40aa-8f5d-88c010d20dbf","ios":"levelo://app?vid=10d617e0-53e1-40aa-8f5d-88c010d20dbf"},"vehicle_type_id":"4","last_reported":1724425799,"current_range_meters":4800,"station_id":"ce4bgjh2rcd13ifvqbf0","pricing_plan_id":"cebpf4jnsgd1na2vs0mg"},{"bike_id":"4e16afe9-03e1-456e-a501-6cebd7c11192","system_id":"levelo_inurba_marseille","lat":43.3378,"lon":5.3743,"is_reserved":false,"is_disabled":false,"rental_uris":{"android":"levelo://app?vid=4e16afe9-03e1-456e-a501-6cebd7c11192","ios":"levelo://app?vid=4e16afe9-03e1-456e-a501-6cebd7c11192"},"vehicle_type_id":"4","last_reported":1724425799,"current_range_meters":26000,"station_id":"","pricing_plan_id":"cebpf4jnsgd1na2vs0mg"},{"bike_id":"0a443459-83d8-4968-a54d-87a8fbe36a18","system_id":"levelo_inurba_marseille","lat":43.33774,"lon":5.37479,"is_reserved":false,"is_disabled":false,"rental_uris":{"android":"levelo://app?vid=0a443459-83d8-4968-a54d-87a8fbe36a18","ios":"levelo://app?vid=0a443459-83d8-4968-a54d-87a8fbe36a18"},"vehicle_type_id":"4","last_reported":1724425799,"current_range_meters":0,"station_id":"","pricing_plan_id":"cebpf4jnsgd1na2vs0mg"},{"bike_id":"602272aa-ac72-4aef-93c1-6173b8a54203","system_id":"levelo_inurba_marseille","lat":43.301117,"lon":5.398795,"is_reserved":false,"is_disabled":false,"rental_uris":{"android":"levelo://app?vid=602272aa-ac72-4aef-93c1-6173b8a54203","ios":"levelo://app?vid=602272aa-ac72-4aef-93c1-6173b8a54203"},"vehicle_type_id":"4","last_reported":1724425799,"current_range_meters":0,"station_id":"ce4bh0h2rcd13ifvqd40","pricing_plan_id":"cebpf4jnsgd1na2vs0mg"},{"bike_id":"2f2b256d-4d9d-4d27-8577-b2ef51b4648d","system_id":"levelo_inurba_marseille","lat":43.28727,"lon":5.36078,"is_reserved":false,"is_disabled":false,"rental_uris":{"android":"levelo://app?vid=2f2b256d-4d9d-4d27-8577-b2ef51b4648d","ios":"levelo://app?vid=2f2b256d-4d9d-4d27-8577-b2ef51b4648d"},"vehicle_type_id":"4","last_reported":1724425799,"current_range_meters":3600,"station_id":"cki0cbj6b192h4jlfktg","pricing_plan_id":"cebpf4jnsgd1na2vs0mg"},{"bike_id":"8ea0f646-2de4-4c26-9f1c-07a795f98406","system_id":"levelo_inurba_marseille","lat":43.28727,"lon":5.36078,"is_reserved":false,"is_disabled":false,"rental_uris":{"android":"levelo://app?vid=8ea0f646-2de4-4c26-9f1c-07a795f98406","ios":"levelo://app?vid=8ea0f646-2de4-4c26-9f1c-07a795f98406"},"vehicle_type_id":"4","last_reported":1724425799,"current_range_meters":8000,"station_id":"cki0cbj6b192h4jlfktg","pricing_plan_id":"cebpf4jnsgd1na2vs0mg"},{"bike_id":"8c8cec86-9437-4606-8ac1-d4bb7b4614b8","system_id":"levelo_inurba_marseille","lat":43.28727,"lon":5.36078,"is_reserved":false,"is_disabled":false,"rental_uris":{"android":"levelo://app?vid=8c8cec86-9437-4606-8ac1-d4bb7b4614b8","ios":"levelo://app?vid=8c8cec86-9437-4606-8ac1-d4bb7b4614b8"},"vehicle_type_id":"4","last_reported":1724425799,"current_range_meters":14800,"station_id":"cki0cbj6b192h4jlfktg","pricing_plan_id":"cebpf4jnsgd1na2vs0mg"},{"bike_id":"7a8cfca6-8567-4d07-a552-e4c4a4f37175","system_id":"levelo_inurba_marseille","lat":43.298681,"lon":5.397225,"is_reserved":false,"is_disabled":false,"rental_uris":{"android":"levelo://app?vid=7a8cfca6-8567-4d07-a552-e4c4a4f37175","ios":"levelo://app?vid=7a8cfca6-8567-4d07-a552-e4c4a4f37175"},"vehicle_type_id":"4","last_reported":1724425799,"current_range_meters":9200,"station_id":"ce4bh0h2rcd13ifvqd50","pricing_plan_id":"cebpf4jnsgd1na2vs0mg"},{"bike_id":"6ea908a9-6848-4bd1-bc6f-3a690051f2d7","system_id":"levelo_inurba_marseille","lat":43.286961,"lon":5.373785,"is_reserved":false,"is_disabled":false,"rental_uris":{"android":"levelo://app?vid=6ea908a9-6848-4bd1-bc6f-3a690051f2d7","ios":"levelo://app?vid=6ea908a9-6848-4bd1-bc6f-3a690051f2d7"},"vehicle_type_id":"4","last_reported":1724425799,"current_range_meters":0,"station_id":"ce4bh3p2rcd13ifvqdq0","pricing_plan_id":"cebpf4jnsgd1na2vs0mg"},{"bike_id":"139495ef-3732-430a-91e2-64ad0a4acce9","system_id":"levelo_inurba_marseille","lat":43.286593,"lon":5.363346,"is_reserved":false,"is_disabled":false,"rental_uris":{"android":"levelo://app?vid=139495ef-3732-430a-91e2-64ad0a4acce9","ios":"levelo://app?vid=139495ef-3732-430a-91e2-64ad0a4acce9"},"vehicle_type_id":"4","last_reported":1724425799,"current_range_meters":6800,"station_id":"ce4bhah2rcd13ifvqej0","pricing_plan_id":"cebpf4jnsgd1na2vs0mg"},{"bike_id":"0921bce3-a1b7-4855-992a-d54c93711b37","system_id":"levelo_inurba_marseille","lat":43.28665,"lon":5.36352,"is_reserved":false,"is_disabled":false,"rental_uris":{"android":"levelo://app?vid=0921bce3-a1b7-4855-992a-d54c93711b37","ios":"levelo://app?vid=0921bce3-a1b7-4855-992a-d54c93711b37"},"vehicle_type_id":"4","last_reported":1724425799,"current_range_meters":20000,"station_id":"ce4bhah2rcd13ifvqej0","pricing_plan_id":"cebpf4jnsgd1na2vs0mg"},{"bike_id":"ade7c856-3e3f-4618-baf4-f75580608fb5","system_id":"levelo_inurba_marseille","lat":43.298681,"lon":5.397225,"is_reserved":false,"is_disabled":false,"rental_uris":{"android":"levelo://app?vid=ade7c856-3e3f-4618-baf4-f75580608fb5","ios":"levelo://app?vid=ade7c856-3e3f-4618-baf4-f75580608fb5"},"vehicle_type_id":"4","last_reported":1724425799,"current_range_meters":1600,"station_id":"ce4bh0h2rcd13ifvqd50","pricing_plan_id":"cebpf4jnsgd1na2vs0mg"},{"bike_id":"e1990ba5-8c22-4582-907d-d27e90bf4cdc","system_id":"levelo_inurba_marseille","lat":43.286591,"lon":5.363346,"is_reserved":false,"is_disabled":false,"rental_uris":{"android":"levelo://app?vid=e1990ba5-8c22-4582-907d-d27e90bf4cdc","ios":"levelo://app?vid=e1990ba5-8c22-4582-907d-d27e90bf4cdc"},"vehicle_type_id":"4","last_reported":1724425799,"current_range_meters":28400,"station_id":"ce4bhah2rcd13ifvqej0","pricing_plan_id":"cebpf4jnsgd1na2vs0mg"},{"bike_id":"8c2fd554-40d8-4dc1-be2c-f4c68282144d","system_id":"levelo_inurba_marseille","lat":43.286593,"lon":5.363346,"is_reserved":false,"is_disabled":false,"rental_uris":{"android":"levelo://app?vid=8c2fd554-40d8-4dc1-be2c-f4c68282144d","ios":"levelo://app?vid=8c2fd554-40d8-4dc1-be2c-f4c68282144d"},"vehicle_type_id":"4","last_reported":1724425799,"current_range_meters":19600,"station_id":"ce4bhah2rcd13ifvqej0","pricing_plan_id":"cebpf4jnsgd1na2vs0mg"},{"bike_id":"46675855-7ce3-4878-b18d-d72b79a93cd2","system_id":"levelo_inurba_marseille","lat":43.286961,"lon":5.373785,"is_reserved":false,"is_disabled":false,"rental_uris":{"android":"levelo://app?vid=46675855-7ce3-4878-b18d-d72b79a93cd2","ios":"levelo://app?vid=46675855-7ce3-4878-b18d-d72b79a93cd2"},"vehicle_type_id":"4","last_reported":1724425799,"current_range_meters":25600,"station_id":"ce4bh3p2rcd13ifvqdq0","pricing_plan_id":"cebpf4jnsgd1na2vs0mg"},{"bike_id":"eab77093-7ef5-4c10-a52f-0892fe444c0f","system_id":"levelo_inurba_marseille","lat":43.286591,"lon":5.363346,"is_reserved":false,"is_disabled":false,"rental_uris":{"android":"levelo://app?vid=eab77093-7ef5-4c10-a52f-0892fe444c0f","ios":"levelo://app?vid=eab77093-7ef5-4c10-a52f-0892fe444c0f"},"vehicle_type_id":"4","last_reported":1724425799,"current_range_meters":18000,"station_id":"ce4bhah2rcd13ifvqej0","pricing_plan_id":"cebpf4jnsgd1na2vs0mg"},{"bike_id":"e0350864-6e90-4319-8bc9-5cd7ca3e620b","system_id":"levelo_inurba_marseille","lat":43.289307,"lon":5.38406,"is_reserved":false,"is_disabled":false,"rental_uris":{"android":"levelo://app?vid=e0350864-6e90-4319-8bc9-5cd7ca3e620b","ios":"levelo://app?vid=e0350864-6e90-4319-8bc9-5cd7ca3e620b"},"vehicle_type_id":"4","last_reported":1724425799,"current_range_meters":26400,"station_id":"ce4bh612rcd13ifvqe6g","pricing_plan_id":"cebpf4jnsgd1na2vs0mg"},{"bike_id":"ce647ca1-70f9-40bc-a52d-7e5bac3975e3","system_id":"levelo_inurba_marseille","lat":43.289307,"lon":5.38406,"is_reserved":false,"is_disabled":false,"rental_uris":{"android":"levelo://app?vid=ce647ca1-70f9-40bc-a52d-7e5bac3975e3","ios":"levelo://app?vid=ce647ca1-70f9-40bc-a52d-7e5bac3975e3"},"vehicle_type_id":"4","last_reported":1724425799,"current_range_meters":5600,"station_id":"ce4bh612rcd13ifvqe6g","pricing_plan_id":"cebpf4jnsgd1na2vs0mg"},{"bike_id":"6417fbfb-ce3e-4fa4-a5d3-9e64bb69a539","system_id":"levelo_inurba_marseille","lat":43.29029,"lon":5.38645,"is_reserved":false,"is_disabled":false,"rental_uris":{"android":"levelo://app?vid=6417fbfb-ce3e-4fa4-a5d3-9e64bb69a539","ios":"levelo://app?vid=6417fbfb-ce3e-4fa4-a5d3-9e64bb69a539"},"vehicle_type_id":"4","last_reported":1724425799,"current_range_meters":0,"station_id":"ce4bh4p2rcd13ifvqe0g","pricing_plan_id":"cebpf4jnsgd1na2vs0mg"},{"bike_id":"8a5c2b15-b2ae-4263-9aa5-d51e05838cf6","system_id":"levelo_inurba_marseille","lat":43.286039,"lon":5.370679,"is_reserved":false,"is_disabled":false,"rental_uris":{"android":"levelo://app?vid=8a5c2b15-b2ae-4263-9aa5-d51e05838cf6","ios":"levelo://app?vid=8a5c2b15-b2ae-4263-9aa5-d51e05838cf6"},"vehicle_type_id":"4","last_reported":1724425799,"current_range_meters":8800,"station_id":"ce4bht12rcd13ifvqi60","pricing_plan_id":"cebpf4jnsgd1na2vs0mg"},{"bike_id":"d303b266-17c1-4e6c-a793-8f2f7e058f8d","system_id":"levelo_inurba_marseille","lat":43.286039,"lon":5.370679,"is_reserved":false,"is_disabled":false,"rental_uris":{"android":"levelo://app?vid=d303b266-17c1-4e6c-a793-8f2f7e058f8d","ios":"levelo://app?vid=d303b266-17c1-4e6c-a793-8f2f7e058f8d"},"vehicle_type_id":"4","last_reported":1724425799,"current_range_meters":22000,"station_id":"ce4bht12rcd13ifvqi60","pricing_plan_id":"cebpf4jnsgd1na2vs0mg"},{"bike_id":"fd63a2d6-496e-4065-9362-6db8742ee913","system_id":"levelo_inurba_marseille","lat":43.286039,"lon":5.370679,"is_reserved":false,"is_disabled":false,"rental_uris":{"android":"levelo://app?vid=fd63a2d6-496e-4065-9362-6db8742ee913","ios":"levelo://app?vid=fd63a2d6-496e-4065-9362-6db8742ee913"},"vehicle_type_id":"4","last_reported":1724425799,"current_range_meters":13600,"station_id":"ce4bht12rcd13ifvqi60","pricing_plan_id":"cebpf4jnsgd1na2vs0mg"},{"bike_id":"83fcf826-1742-41be-b4e0-9bec351c8987","system_id":"levelo_inurba_marseille","lat":43.302759,"lon":5.400793,"is_reserved":false,"is_disabled":false,"rental_uris":{"android":"levelo://app?vid=83fcf826-1742-41be-b4e0-9bec351c8987","ios":"levelo://app?vid=83fcf826-1742-41be-b4e0-9bec351c8987"},"vehicle_type_id":"4","last_reported":1724425799,"current_range_meters":0,"station_id":"ce4bgvh2rcd13ifvqcs0","pricing_plan_id":"cebpf4jnsgd1na2vs0mg"},{"bike_id":"a84304a9-176f-4454-bbba-236c21a48341","system_id":"levelo_inurba_marseille","lat":43.286039,"lon":5.370679,"is_reserved":false,"is_disabled":false,"rental_uris":{"android":"levelo://app?vid=a84304a9-176f-4454-bbba-236c21a48341","ios":"levelo://app?vid=a84304a9-176f-4454-bbba-236c21a48341"},"vehicle_type_id":"4","last_reported":1724425799,"current_range_meters":2400,"station_id":"ce4bht12rcd13ifvqi60","pricing_plan_id":"cebpf4jnsgd1na2vs0mg"},{"bike_id":"080c811d-6d1a-449a-b0dd-0215b2a7397e","system_id":"levelo_inurba_marseille","lat":43.287184,"lon":5.37937,"is_reserved":false,"is_disabled":false,"rental_uris":{"android":"levelo://app?vid=080c811d-6d1a-449a-b0dd-0215b2a7397e","ios":"levelo://app?vid=080c811d-6d1a-449a-b0dd-0215b2a7397e"},"vehicle_type_id":"4","last_reported":1724425799,"current_range_meters":24400,"station_id":"ce4bh9p2rcd13ifvqec0","pricing_plan_id":"cebpf4jnsgd1na2vs0mg"},{"bike_id":"d667b457-a5f8-48c5-af8c-e136166e45d6","system_id":"levelo_inurba_marseille","lat":43.28622,"lon":5.37906,"is_reserved":false,"is_disabled":false,"rental_uris":{"android":"levelo://app?vid=d667b457-a5f8-48c5-af8c-e136166e45d6","ios":"levelo://app?vid=d667b457-a5f8-48c5-af8c-e136166e45d6"},"vehicle_type_id":"4","last_reported":1724425799,"current_range_meters":4800,"station_id":"","pricing_plan_id":"cebpf4jnsgd1na2vs0mg"},{"bike_id":"e9013da7-4eaf-4a78-a609-a425e686461f","system_id":"levelo_inurba_marseille","lat":43.291994,"lon":5.392907,"is_reserved":false,"is_disabled":false,"rental_uris":{"android":"levelo://app?vid=e9013da7-4eaf-4a78-a609-a425e686461f","ios":"levelo://app?vid=e9013da7-4eaf-4a78-a609-a425e686461f"},"vehicle_type_id":"4","last_reported":1724425799,"current_range_meters":5600,"station_id":"ce4bh192rcd13ifvqdd0","pricing_plan_id":"cebpf4jnsgd1na2vs0mg"},{"bike_id":"75c7b976-e166-4970-afb4-f853ffbe9f6a","system_id":"levelo_inurba_marseille","lat":43.284538,"lon":5.358657,"is_reserved":false,"is_disabled":false,"rental_uris":{"android":"levelo://app?vid=75c7b976-e166-4970-afb4-f853ffbe9f6a","ios":"levelo://app?vid=75c7b976-e166-4970-afb4-f853ffbe9f6a"},"vehicle_type_id":"4","last_reported":1724425799,"current_range_meters":21600,"station_id":"ce4bhah2rcd13ifvqei0","pricing_plan_id":"cebpf4jnsgd1na2vs0mg"},{"bike_id":"2d4b3553-9b1e-4764-8835-21cb580da898","system_id":"levelo_inurba_marseille","lat":43.284538,"lon":5.358657,"is_reserved":false,"is_disabled":false,"rental_uris":{"android":"levelo://app?vid=2d4b3553-9b1e-4764-8835-21cb580da898","ios":"levelo://app?vid=2d4b3553-9b1e-4764-8835-21cb580da898"},"vehicle_type_id":"4","last_reported":1724425799,"current_range_meters":18000,"station_id":"ce4bhah2rcd13ifvqei0","pricing_plan_id":"cebpf4jnsgd1na2vs0mg"},{"bike_id":"b8092c6e-d38a-4a9e-b502-e5bbb8a4c6f5","system_id":"levelo_inurba_marseille","lat":43.284534,"lon":5.358662,"is_reserved":false,"is_disabled":false,"rental_uris":{"android":"levelo://app?vid=b8092c6e-d38a-4a9e-b502-e5bbb8a4c6f5","ios":"levelo://app?vid=b8092c6e-d38a-4a9e-b502-e5bbb8a4c6f5"},"vehicle_type_id":"4","last_reported":1724425799,"current_range_meters":4800,"station_id":"ce4bhah2rcd13ifvqei0","pricing_plan_id":"cebpf4jnsgd1na2vs0mg"},{"bike_id":"3b60b92b-f1b4-4449-b0fc-65190e945052","system_id":"levelo_inurba_marseille","lat":43.284538,"lon":5.358657,"is_reserved":false,"is_disabled":false,"rental_uris":{"android":"levelo://app?vid=3b60b92b-f1b4-4449-b0fc-65190e945052","ios":"levelo://app?vid=3b60b92b-f1b4-4449-b0fc-65190e945052"},"vehicle_type_id":"4","last_reported":1724425799,"current_range_meters":14800,"station_id":"ce4bhah2rcd13ifvqei0","pricing_plan_id":"cebpf4jnsgd1na2vs0mg"},{"bike_id":"e19da242-bdcf-4da7-a512-687b9725803d","system_id":"levelo_inurba_marseille","lat":43.284534,"lon":5.358662,"is_reserved":false,"is_disabled":false,"rental_uris":{"android":"levelo://app?vid=e19da242-bdcf-4da7-a512-687b9725803d","ios":"levelo://app?vid=e19da242-bdcf-4da7-a512-687b9725803d"},"vehicle_type_id":"4","last_reported":1724425799,"current_range_meters":19600,"station_id":"ce4bhah2rcd13ifvqei0","pricing_plan_id":"cebpf4jnsgd1na2vs0mg"},