{"last_updated":1733055436,"ttl":60,"version":"2.2","data":{"bikes":[{"bike_id":"9eb9ee9b-532a-4e66-9337-6742bfb3d802","system_id":"levelo_inurba_marseille","lat":43.28001,"lon":5.4167,"is_reserved":false,"is_disabled":true,"rental_uris":{"android":"levelo://app?vid=9eb9ee9b-532a-4e66-9337-6742bfb3d802","ios":"levelo://app?vid=9eb9ee9b-532a-4e66-9337-6742bfb3d802"},"vehicle_type_id":"4","last_reported":1733055436,"current_range_meters":30400,"station_id":"ce4bho12rcd13ifvqh1g","pricing_plan_id":"cebpf4jnsgd1na2vs0mg"},{"bike_id":"10dc769e-618d-4542-a577-aece3578347d","system_id":"levelo_inurba_marseille","lat":43.28155,"lon":5.42649,"is_reserved":false,"is_disabled":false,"rental_uris":{"android":"levelo://app?vid=10dc769e-618d-4542-a577-aece3578347d","ios":"levelo://app?vid=10dc769e-618d-4542-a577-aece3578347d"},"vehicle_type_id":"4","last_reported":1733055436,"current_range_meters":28000,"station_id":"ce4bhnh2rcd13ifvqgug","pricing_plan_id":"cebpf4jnsgd1na2vs0mg"},{"bike_id":"a1fe7e09-2fd6-4de4-8f3a-15d388f1e196","system_id":"levelo_inurba_marseille","lat":43.30153,"lon":5.38077,"is_reserved":false,"is_disabled":true,"rental_uris":{"android":"levelo://app?vid=a1fe7e09-2fd6-4de4-8f3a-15d388f1e196","ios":"levelo://app?vid=a1fe7e09-2fd6-4de4-8f3a-15d388f1e196"},"vehicle_type_id":"4","last_reported":1733055436,"current_range_meters":0,"station_id":"ce4bgjp2rcd13ifvqbh0","pricing_plan_id":"cebpf4jnsgd1na2vs0mg"},{"bike_id":"b205fa0f-4b33-4b93-842a-7dec95d52c2f","system_id":"levelo_inurba_marseille","lat":43.24168,"lon":5.36405,"is_reserved":false,"is_disabled":false,"rental_uris":{"android":"levelo://app?vid=b205fa0f-4b33-4b93-842a-7dec95d52c2f","ios":"levelo://app?vid=b205fa0f-4b33-4b93-842a-7dec95d52c2f"},"vehicle_type_id":"4","last_reported":1733055436,"current_range_meters":25200,"station_id":"cpo36qri1sfpv3e86is0","pricing_plan_id":"cebpf4jnsgd1na2vs0mg"},{"bike_id":"a5578a43-f5ad-410e-9cff-1cdc0db55577","system_id":"levelo_inurba_marseille","lat":43.29416,"lon":5.38604,"is_reserved":false,"is_disabled":true,"rental_uris":{"android":"levelo://app?vid=a5578a43-f5ad-410e-9cff-1cdc0db55577","ios":"levelo://app?vid=a5578a43-f5ad-410e-9cff-1cdc0db55577"},"vehicle_type_id":"4","last_reported":1733055436,"current_range_meters":28400,"station_id":"ce4bh2h2rcd13ifvqdh0","pricing_plan_id":"cebpf4jnsgd1na2vs0mg"},{"bike_id":"685e86f0-82c5-424b-9369-298663637dc8","system_id":"levelo_inurba_marseille","lat":43.25718,"lon":5.41116,"is_reserved":false,"is_disabled":false,"rental_uris":{"android":"levelo://app?vid=685e86f0-82c5-424b-9369-298663637dc8","ios":"levelo://app?vid=685e86f0-82c5-424b-9369-298663637dc8"},"vehicle_type_id":"4","last_reported":1733055436,"current_range_meters":34000,"station_id":"ce4bhkp2rcd13ifvqgd0","pricing_plan_id":"cebpf4jnsgd1na2vs0mg"},{"bike_id":"790a34a4-12ca-4fff-94f4-df476875eae0","system_id":"levelo_inurba_marseille","lat":43.23188,"lon":5.39988,"is_reserved":false,"is_disabled":false,"rental_uris":{"android":"levelo://app?vid=790a34a4-12ca-4fff-94f4-df476875eae0","ios":"levelo://app?vid=790a34a4-12ca-4fff-94f4-df476875eae0"},"vehicle_type_id":"4","last_reported":1733055436,"current_range_meters":19600,"station_id":"ce4bhn12rcd13ifvqgqg","pricing_plan_id":"cebpf4jnsgd1na2vs0mg"},{"bike_id":"99249c3e-a662-49ce-b862-c6309a429241","system_id":"levelo_inurba_marseille","lat":43.295207,"lon":5.390332,"is_reserved":false,"is_disabled":false,"rental_uris":{"android":"levelo://app?vid=99249c3e-a662-49ce-b862-c6309a429241","ios":"levelo://app?vid=99249c3e-a662-49ce-b862-c6309a429241"},"vehicle_type_id":"4","last_reported":1733055436,"current_range_meters":32800,"station_id":"ce4bh3p2rcd13ifvqdp0","pricing_plan_id":"cebpf4jnsgd1na2vs0mg"},{"bike_id":"b65688fa-b1c3-40d7-a238-e0b81dcc7be7","system_id":"levelo_inurba_marseille","lat":43.23184,"lon":5.39982,"is_reserved":false,"is_disabled":false,"rental_uris":{"android":"levelo://app?vid=b65688fa-b1c3-40d7-a238-e0b81dcc7be7","ios":"levelo://app?vid=b65688fa-b1c3-40d7-a238-e0b81dcc7be7"},"vehicle_type_id":"4","last_reported":1733055436,"current_range_meters":38400,"station_id":"ce4bhn12rcd13ifvqgqg","pricing_plan_id":"cebpf4jnsgd1na2vs0mg"},{"bike_id":"5b811d3a-cae0-4f12-9af9-b5fb1f651755","system_id":"levelo_inurba_marseille","lat":43.25096,"lon":5.40341,"is_reserved":false,"is_disabled":false,"rental_uris":{"android":"levelo://app?vid=5b811d3a-cae0-4f12-9af9-b5fb1f651755","ios":"levelo://app?vid=5b811d3a-cae0-4f12-9af9-b5fb1f651755"},"vehicle_type_id":"4","last_reported":1733055436,"current_range_meters":35600,"station_id":"ce4bhlh2rcd13ifvqgig","pricing_plan_id":"cebpf4jnsgd1na2vs0mg"},{"bike_id":"3f7d1b83-7fbe-4b4b-b621-09fc8c3dc4a5","system_id":"levelo_inurba_marseille","lat":43.33598,"lon":5.41021,"is_reserved":false,"is_disabled":false,"rental_uris":{"android":"levelo://app?vid=3f7d1b83-7fbe-4b4b-b621-09fc8c3dc4a5","ios":"levelo://app?vid=3f7d1b83-7fbe-4b4b-b621-09fc8c3dc4a5"},"vehicle_type_id":"4","last_reported":1733055436,"current_range_meters":28000,"station_id":"ce4bhqh2rcd13ifvqhmg","pricing_plan_id":"cebpf4jnsgd1na2vs0mg"},{"bike_id":"967e9a74-8d35-43a8-bb3f-b2f2942f3b6d","system_id":"levelo_inurba_marseille","lat":43.30552,"lon":5.3671,"is_reserved":false,"is_disabled":true,"rental_uris":{"android":"levelo://app?vid=967e9a74-8d35-43a8-bb3f-b2f2942f3b6d","ios":"levelo://app?vid=967e9a74-8d35-43a8-bb3f-b2f2942f3b6d"},"vehicle_type_id":"4","last_reported":1733055436,"current_range_meters":35600,"station_id":"ce4bgrp2rcd13ifvqc9g","pricing_plan_id":"cebpf4jnsgd1na2vs0mg"},{"bike_id":"966791e8-cdff-4838-a42b-c9b609a533a7","system_id":"levelo_inurba_marseille","lat":43.27441,"lon":5.40064,"is_reserved":false,"is_disabled":true,"rental_uris":{"android":"levelo://app?vid=966791e8-cdff-4838-a42b-c9b609a533a7","ios":"levelo://app?vid=966791e8-cdff-4838-a42b-c9b609a533a7"},"vehicle_type_id":"4","last_reported":1733055436,"current_range_meters":0,"station_id":"","pricing_plan_id":"cebpf4jnsgd1na2vs0mg"},{"bike_id":"7974306f-50f1-4979-96e6-42a3a669c81a","system_id":"levelo_inurba_marseille","lat":43.31997,"lon":5.3815,"is_reserved":false,"is_disabled":false,"rental_uris":{"android":"levelo://app?vid=7974306f-50f1-4979-96e6-42a3a669c81a","ios":"levelo://app?vid=7974306f-50f1-4979-96e6-42a3a669c81a"},"vehicle_type_id":"4","last_reported":1733055436,"current_range_meters":7200,"station_id":"ce4bhr12rcd13ifvqhpg","pricing_plan_id":"cebpf4jnsgd1na2vs0mg"},{"bike_id":"f567f198-0907-4825-85fe-931024105555","system_id":"levelo_inurba_marseille","lat":43.31075,"lon":5.40091,"is_reserved":false,"is_disabled":false,"rental_uris":{"android":"levelo://app?vid=f567f198-0907-4825-85fe-931024105555","ios":"levelo://app?vid=f567f198-0907-4825-85fe-931024105555"},"vehicle_type_id":"4","last_reported":1733055436,"current_range_meters":14800,"station_id":"","pricing_plan_id":"cebpf4jnsgd1na2vs0mg"},{"bike_id":"8b5a5584-f3a5-4035-a05f-e5f21e3c6ef0","system_id":"levelo_inurba_marseille","lat":43.29001,"lon":5.35614,"is_reserved":false,"is_disabled":false,"rental_uris":{"android":"levelo://app?vid=8b5a5584-f3a5-4035-a05f-e5f21e3c6ef0","ios":"levelo://app?vid=8b5a5584-f3a5-4035-a05f-e5f21e3c6ef0"},"vehicle_type_id":"4","last_reported":1733055436,"current_range_meters":26000,"station_id":"ce4bhb92rcd13ifvqen0","pricing_plan_id":"cebpf4jnsgd1na2vs0mg"},{"bike_id":"8f5640d6-fdf4-4f62-8240-ddad3707401a","system_id":"levelo_inurba_marseille","lat":43.3414,"lon":5.40899,"is_reserved":false,"is_disabled":false,"rental_uris":{"android":"levelo://app?vid=8f5640d6-fdf4-4f62-8240-ddad3707401a","ios":"levelo://app?vid=8f5640d6-fdf4-4f62-8240-ddad3707401a"},"vehicle_type_id":"4","last_reported":1733055436,"current_range_meters":39200,"station_id":"ce4bhqh2rcd13ifvqhlg","pricing_plan_id":"cebpf4jnsgd1na2vs0mg"},{"bike_id":"ee3c4318-4146-4fe4-86b0-fc0b9ce70693","system_id":"levelo_inurba_marseille","lat":43.23066,"lon":5.35492,"is_reserved":false,"is_disabled":false,"rental_uris":{"android":"levelo://app?vid=ee3c4318-4146-4fe4-86b0-fc0b9ce70693","ios":"levelo://app?vid=ee3c4318-4146-4fe4-86b0-fc0b9ce70693"},"vehicle_type_id":"4","last_reported":1733055436,"current_range_meters":30400,"station_id":"cpo3342slgdg3j2ifvpg","pricing_plan_id":"cebpf4jnsgd1na2vs0mg"},{"bike_id":"0320bf34-179f-49cb-8d1c-37c612295e06","system_id":"levelo_inurba_marseille","lat":43.24806,"lon":5.3746,"is_reserved":false,"is_disabled":false,"rental_uris":{"android":"levelo://app?vid=0320bf34-179f-49cb-8d1c-37c612295e06","ios":"levelo://app?vid=0320bf34-179f-49cb-8d1c-37c612295e06"},"vehicle_type_id":"4","last_reported":1733055436,"current_range_meters":36800,"station_id":"ce4bhgh2rcd13ifvqfb0","pricing_plan_id":"cebpf4jnsgd1na2vs0mg"},{"bike_id":"c8540c9d-7dc3-44fa-a0f8-7263d3d70bb8","system_id":"levelo_inurba_marseille","lat":43.24642,"lon":5.3889,"is_reserved":false,"is_disabled":true,"rental_uris":{"android":"levelo://app?vid=c8540c9d-7dc3-44fa-a0f8-7263d3d70bb8","ios":"levelo://app?vid=c8540c9d-7dc3-44fa-a0f8-7263d3d70bb8"},"vehicle_type_id":"4","last_reported":1733055436,"current_range_meters":0,"station_id":"ce4bhg12rcd13ifvqf60","pricing_plan_id":"cebpf4jnsgd1na2vs0mg"},{"bike_id":"34553e4f-2bbe-4e94-8740-7b5a4682f76a","system_id":"levelo_inurba_marseille","lat":43.31118,"lon":5.3777,"is_reserved":false,"is_disabled":true,"rental_uris":{"android":"levelo://app?vid=34553e4f-2bbe-4e94-8740-7b5a4682f76a","ios":"levelo://app?vid=34553e4f-2bbe-4e94-8740-7b5a4682f76a"},"vehicle_type_id":"4","last_reported":1733055436,"current_range_meters":36000,"station_id":"ce4bgt92rcd13ifvqcg0","pricing_plan_id":"cebpf4jnsgd1na2vs0mg"},{"bike_id":"35588488-64ae-46f8-aa54-33fa4858f377","system_id":"levelo_inurba_marseille","lat":43.23186,"lon":5.39986,"is_reserved":false,"is_disabled":false,"rental_uris":{"android":"levelo://app?vid=35588488-64ae-46f8-aa54-33fa4858f377","ios":"levelo://app?vid=35588488-64ae-46f8-aa54-33fa4858f377"},"vehicle_type_id":"4","last_reported":1733055436,"current_range_meters":12000,"station_id":"ce4bhn12rcd13ifvqgqg","pricing_plan_id":"cebpf4jnsgd1na2vs0mg"},{"bike_id":"c410710f-f343-4d24-96ab-f269c091aaf0","system_id":"levelo_inurba_marseille","lat":43.29302,"lon":5.37461,"is_reserved":false,"is_disabled":false,"rental_uris":{"android":"levelo://app?vid=c410710f-f343-4d24-96ab-f269c091aaf0","ios":"levelo://app?vid=c410710f-f343-4d24-96ab-f269c091aaf0"},"vehicle_type_id":"4","last_reported":1733055436,"current_range_meters":38800,"station_id":"ce4bgi12rcd13ifvqb70","pricing_plan_id":"cebpf4jnsgd1na2vs0mg"},{"bike_id":"b0bd4cdf-7308-45f0-8e99-a0d5811907ff","system_id":"levelo_inurba_marseille","lat":43.25429,"lon":5.38172,"is_reserved":false,"is_disabled":true,"rental_uris":{"android":"levelo://app?vid=b0bd4cdf-7308-45f0-8e99-a0d5811907ff","ios":"levelo://app?vid=b0bd4cdf-7308-45f0-8e99-a0d5811907ff"},"vehicle_type_id":"4","last_reported":1733055436,"current_range_meters":0,"station_id":"","pricing_plan_id":"cebpf4jnsgd1na2vs0mg"},{"bike_id":"adacb33b-3532-480a-9ddf-4b8aaf897be4","system_id":"levelo_inurba_marseille","lat":43.28113,"lon":5.38342,"is_reserved":false,"is_disabled":false,"rental_uris":{"android":"levelo://app?vid=adacb33b-3532-480a-9ddf-4b8aaf897be4","ios":"levelo://app?vid=adacb33b-3532-480a-9ddf-4b8aaf897be4"},"vehicle_type_id":"4","last_reported":1733055436,"current_range_meters":8400,"station_id":"","pricing_plan_id":"cebpf4jnsgd1na2vs0mg"},{"bike_id":"8bcd172f-5475-4607-a4e7-44d7749b12a1","system_id":"levelo_inurba_marseille","lat":43.33727,"lon":5.39189,"is_reserved":false,"is_disabled":true,"rental_uris":{"android":"levelo://app?vid=8bcd172f-5475-4607-a4e7-44d7749b12a1","ios":"levelo://app?vid=8bcd172f-5475-4607-a4e7-44d7749b12a1"},"vehicle_type_id":"4","last_reported":1733055436,"current_range_meters":4800,"station_id":"ce4bhr92rcd13ifvqhsg","pricing_plan_id":"cebpf4jnsgd1na2vs0mg"},{"bike_id":"cdf36f27-1cb5-40ec-83a9-0b63a3da7bab","system_id":"levelo_inurba_marseille","lat":43.2707,"lon":5.42277,"is_reserved":false,"is_disabled":false,"rental_uris":{"android":"levelo://app?vid=cdf36f27-1cb5-40ec-83a9-0b63a3da7bab","ios":"levelo://app?vid=cdf36f27-1cb5-40ec-83a9-0b63a3da7bab"},"vehicle_type_id":"4","last_reported":1733055436,"current_range_meters":28000,"station_id":"ce4bhk92rcd13ifvqgb0","pricing_plan_id":"cebpf4jnsgd1na2vs0mg"},{"bike_id":"f0ca66be-c5fa-4f1d-8e2b-9450ca0243d7","system_id":"levelo_inurba_marseille","lat":43.30159,"lon":5.38097,"is_reserved":false,"is_disabled":true,"rental_uris":{"android":"levelo://app?vid=f0ca66be-c5fa-4f1d-8e2b-9450ca0243d7","ios":"levelo://app?vid=f0ca66be-c5fa-4f1d-8e2b-9450ca0243d7"},"vehicle_type_id":"4","last_reported":1733055436,"current_range_meters":33200,"station_id":"ce4bgjp2rcd13ifvqbh0","pricing_plan_id":"cebpf4jnsgd1na2vs0mg"},{"bike_id":"21e63416-2bf9-4519-965f-264ac2187b74","system_id":"levelo_inurba_marseille","lat":43.286574,"lon":5.363482,"is_reserved":false,"is_disabled":false,"rental_uris":{"android":"levelo://app?vid=21e63416-2bf9-4519-965f-264ac2187b74","ios":"levelo://app?vid=21e63416-2bf9-4519-965f-264ac2187b74"},"vehicle_type_id":"4","last_reported":1733055436,"current_range_meters":9600,"station_id":"ce4bhah2rcd13ifvqej0","pricing_plan_id":"cebpf4jnsgd1na2vs0mg"},{"bike_id":"6f7949e1-de87-4a49-8620-fec27e04447f","system_id":"levelo_inurba_marseille","lat":43.33733,"lon":5.39203,"is_reserved":false,"is_disabled":false,"rental_uris":{"android":"levelo://app?vid=6f7949e1-de87-4a49-8620-fec27e04447f","ios":"levelo://app?vid=6f7949e1-de87-4a49-8620-fec27e04447f"},"vehicle_type_id":"4","last_reported":1733055436,"current_range_meters":24000,"station_id":"ce4bhr92rcd13ifvqhsg","pricing_plan_id":"cebpf4jnsgd1na2vs0mg"},{"bike_id":"bb36789a-b318-4dc1-b6d7-dc2a83103592","system_id":"levelo_inurba_marseille","lat":43.28426,"lon":5.34991,"is_reserved":false,"is_disabled":false,"rental_uris":{"android":"levelo://app?vid=bb36789a-b318-4dc1-b6d7-dc2a83103592","ios":"levelo://app?vid=bb36789a-b318-4dc1-b6d7-dc2a83103592"},"vehicle_type_id":"4","last_reported":1733055436,"current_range_meters":16400,"station_id":"ce4bhbh2rcd13ifvqepg","pricing_plan_id":"cebpf4jnsgd1na2vs0mg"},{"bike_id":"04231f17-473a-451f-a064-824bb141b749","system_id":"levelo_inurba_marseille","lat":43.2582,"lon":5.3943,"is_reserved":false,"is_disabled":false,"rental_uris":{"android":"levelo://app?vid=04231f17-473a-451f-a064-824bb141b749","ios":"levelo://app?vid=04231f17-473a-451f-a064-824bb141b749"},"vehicle_type_id":"4","last_reported":1733055436,"current_range_meters":38800,"station_id":"ce4bhip2rcd13ifvqft0","pricing_plan_id":"cebpf4jnsgd1na2vs0mg"},{"bike_id":"7066298c-8444-4dbb-8e5a-afa45f0890f5","system_id":"levelo_inurba_marseille","lat":43.28856,"lon":5.39329,"is_reserved":false,"is_disabled":true,"rental_uris":{"android":"levelo://app?vid=7066298c-8444-4dbb-8e5a-afa45f0890f5","ios":"levelo://app?vid=7066298c-8444-4dbb-8e5a-afa45f0890f5"},"vehicle_type_id":"4","last_reported":1733055436,"current_range_meters":8400,"station_id":"ce4bh2p2rcd13ifvqdi0","pricing_plan_id":"cebpf4jnsgd1na2vs0mg"},{"bike_id":"79da6e11-068f-4f85-891a-bf5d6033ae1b","system_id":"levelo_inurba_marseille","lat":43.291934,"lon":5.393172,"is_reserved":false,"is_disabled":true,"rental_uris":{"android":"levelo://app?vid=79da6e11-068f-4f85-891a-bf5d6033ae1b","ios":"levelo://app?vid=79da6e11-068f-4f85-891a-bf5d6033ae1b"},"vehicle_type_id":"4","last_reported":1733055436,"current_range_meters":18800,"station_id":"ce4bh192rcd13ifvqdd0","pricing_plan_id":"cebpf4jnsgd1na2vs0mg"},{"bike_id":"5a5a955a-9e88-4d2b-a8bf-3790d418dca4","system_id":"levelo_inurba_marseille","lat":43.30975,"lon":5.46201,"is_reserved":false,"is_disabled":false,"rental_uris":{"android":"levelo://app?vid=5a5a955a-9e88-4d2b-a8bf-3790d418dca4","ios":"levelo://app?vid=5a5a955a-9e88-4d2b-a8bf-3790d418dca4"},"vehicle_type_id":"4","last_reported":1733055436,"current_range_meters":22800,"station_id":"","pricing_plan_id":"cebpf4jnsgd1na2vs0mg"},{"bike_id":"ce1ee1c6-fc1c-4c7b-b125-aa7f2bd03708","system_id":"levelo_inurba_marseille","lat":43.29936,"lon":5.36536,"is_reserved":false,"is_disabled":false,"rental_uris":{"android":"levelo://app?vid=ce1ee1c6-fc1c-4c7b-b125-aa7f2bd03708","ios":"levelo://app?vid=ce1ee1c6-fc1c-4c7b-b125-aa7f2bd03708"},"vehicle_type_id":"4","last_reported":1733055436,"current_range_meters":36800,"station_id":"ce4bgm92rcd13ifvqbr0","pricing_plan_id":"cebpf4jnsgd1na2vs0mg"},{"bike_id":"9220e8aa-6c26-4725-80eb-8f458f80a7a4","system_id":"levelo_inurba_marseille","lat":43.33019,"lon":5.39029,"is_reserved":false,"is_disabled":true,"rental_uris":{"android":"levelo://app?vid=9220e8aa-6c26-4725-80eb-8f458f80a7a4","ios":"levelo://app?vid=9220e8aa-6c26-4725-80eb-8f458f80a7a4"},"vehicle_type_id":"4","last_reported":1733055436,"current_range_meters":1600,"station_id":"ce4bhr92rcd13ifvqhrg","pricing_plan_id":"cebpf4jnsgd1na2vs0mg"},{"bike_id":"387bec68-b7b6-4b44-9769-ddb375cbbda5","system_id":"levelo_inurba_marseille","lat":43.28668,"lon":5.38651,"is_reserved":false,"is_disabled":false,"rental_uris":{"android":"levelo://app?vid=387bec68-b7b6-4b44-9769-ddb375cbbda5","ios":"levelo://app?vid=387bec68-b7b6-4b44-9769-ddb375cbbda5"},"vehicle_type_id":"4","last_reported":1733055436,"current_range_meters":12400,"station_id":"ce4bh492rcd13ifvqdug","pricing_plan_id":"cebpf4jnsgd1na2vs0mg"},{"bike_id":"0f8c64ee-34d6-451a-aa19-b088c7164738","system_id":"levelo_inurba_marseille","lat":43.26786,"lon":5.39411,"is_reserved":false,"is_disabled":false,"rental_uris":{"android":"levelo://app?vid=0f8c64ee-34d6-451a-aa19-b088c7164738","ios":"levelo://app?vid=0f8c64ee-34d6-451a-aa19-b088c7164738"},"vehicle_type_id":"4","last_reported":1733055436,"current_range_meters":33600,"station_id":"ce4bhh12rcd13ifvqfg0","pricing_plan_id":"cebpf4jnsgd1na2vs0mg"},{"bike_id":"1af9e11d-91ec-43db-84b9-25147713cc63","system_id":"levelo_inurba_marseille","lat":43.30895,"lon":5.37199,"is_reserved":false,"is_disabled":false,"rental_uris":{"android":"levelo://app?vid=1af9e11d-91ec-43db-84b9-25147713cc63","ios":"levelo://app?vid=1af9e11d-91ec-43db-84b9-25147713cc63"},"vehicle_type_id":"4","last_reported":1733055436,"current_range_meters":11200,"station_id":"ce4bguh2rcd13ifvqckg","pricing_plan_id":"cebpf4jnsgd1na2vs0mg"},{"bike_id":"70a73ce1-0980-4932-9eeb-044cbcacef56","system_id":"levelo_inurba_marseille","lat":43.29273,"lon":5.36852,"is_reserved":false,"is_disabled":false,"rental_uris":{"android":"levelo://app?vid=70a73ce1-0980-4932-9eeb-044cbcacef56","ios":"levelo://app?vid=70a73ce1-0980-4932-9eeb-044cbcacef56"},"vehicle_type_id":"4","last_reported":1733055436,"current_range_meters":35200,"station_id":"ce4bhbp2rcd13ifvqesg","pricing_plan_id":"cebpf4jnsgd1na2vs0mg"},{"bike_id":"c821b2d9-7c67-435b-88a1-f36b5d7f620d","system_id":"levelo_inurba_marseille","lat":43.31081,"lon":5.42434,"is_reserved":false,"is_disabled":false,"rental_uris":{"android":"levelo://app?vid=c821b2d9-7c67-435b-88a1-f36b5d7f620d","ios":"levelo://app?vid=c821b2d9-7c67-435b-88a1-f36b5d7f620d"},"vehicle_type_id":"4","last_reported":1733055436,"current_range_meters":8800,"station_id":"ce4bhp92rcd13ifvqhag","pricing_plan_id":"cebpf4jnsgd1na2vs0mg"},{"bike_id":"ff013ed5-af1a-467e-9980-1c97ed9f4075","system_id":"levelo_inurba_marseille","lat":43.27901,"lon":5.38012,"is_reserved":false,"is_disabled":false,"rental_uris":{"android":"levelo://app?vid=ff013ed5-af1a-467e-9980-1c97ed9f4075","ios":"levelo://app?vid=ff013ed5-af1a-467e-9980-1c97ed9f4075"},"vehicle_type_id":"4","last_reported":1733055436,"current_range_meters":36000,"station_id":"ce4bhf92rcd13ifvqf50","pricing_plan_id":"cebpf4jnsgd1na2vs0mg"},{"bike_id":"9181bd8c-5e2c-4023-8505-1bc17728bb71","system_id":"levelo_inurba_marseille","lat":43.25495,"lon":5.37654,"is_reserved":false,"is_disabled":false,"rental_uris":{"android":"levelo://app?vid=9181bd8c-5e2c-4023-8505-1bc17728bb71","ios":"levelo://app?vid=9181bd8c-5e2c-4023-8505-1bc17728bb71"},"vehicle_type_id":"4","last_reported":1733055436,"current_range_meters":33200,"station_id":"ce4bhh12rcd13ifvqff0","pricing_plan_id":"cebpf4jnsgd1na2vs0mg"},{"bike_id":"7e34e2cc-7262-4633-b6ee-8a75aae8a374","system_id":"levelo_inurba_marseille","lat":43.28998,"lon":5.35619,"is_reserved":false,"is_disabled":false,"rental_uris":{"android":"levelo://app?vid=7e34e2cc-7262-4633-b6ee-8a75aae8a374","ios":"levelo://app?vid=7e34e2cc-7262-4633-b6ee-8a75aae8a374"},"vehicle_type_id":"4","last_reported":1733055436,"current_range_meters":36400,"station_id":"ce4bhb92rcd13ifvqen0","pricing_plan_id":"cebpf4jnsgd1na2vs0mg"},{"bike_id":"b2f2f4dd-9e15-4c20-a538-726162dd4328","system_id":"levelo_inurba_marseille","lat":43.30592,"lon":5.3723,"is_reserved":false,"is_disabled":false,"rental_uris":{"android":"levelo://app?vid=b2f2f4dd-9e15-4c20-a538-726162dd4328","ios":"levelo://app?vid=b2f2f4dd-9e15-4c20-a538-726162dd4328"},"vehicle_type_id":"4","last_reported":1733055436,"current_range_meters":30400,"station_id":"ce4bgqh2rcd13ifvqc4g","pricing_plan_id":"cebpf4jnsgd1na2vs0mg"},{"bike_id":"7d8d506b-f7cd-454d-83a7-afde1b506237","system_id":"levelo_inurba_marseille","lat":43.30471,"lon":5.37906,"is_reserved":false,"is_disabled":false,"rental_uris":{"android":"levelo://app?vid=7d8d506b-f7cd-454d-83a7-afde1b506237","ios":"levelo://app?vid=7d8d506b-f7cd-454d-83a7-afde1b506237"},"vehicle_type_id":"4","last_reported":1733055436,"current_range_meters":38800,"station_id":"ce4bgup2rcd13ifvqcn0","pricing_plan_id":"cebpf4jnsgd1na2vs0mg"},{"bike_id":"7ed2229e-6e77-42d8-826e-e15ec9f33077","system_id":"levelo_inurba_marseille","lat":43.26688,"lon":5.38275,"is_reserved":false,"is_disabled":true,"rental_uris":{"android":"levelo://app?vid=7ed2229e-6e77-42d8-826e-e15ec9f33077","ios":"levelo://app?vid=7ed2229e-6e77-42d8-826e-e15ec9f33077"},"vehicle_type_id":"4","last_reported":1733055436,"current_range_meters":16800,"station_id":"ce4bhg92rcd13ifvqf90","pricing_plan_id":"cebpf4jnsgd1na2vs0mg"},{"bike_id":"8fdf0680-166b-4766-a655-d02e84d131fa","system_id":"levelo_inurba_marseille","lat":43.30944,"lon":5.39023,"is_reserved":false,"is_disabled":true,"rental_uris":{"android":"levelo://app?vid=8fdf0680-166b-4766-a655-d02e84d131fa","ios":"levelo://app?vid=8fdf0680-166b-4766-a655-d02e84d131fa"},"vehicle_type_id":"4","last_reported":1733055436,"current_range_meters":38400,"station_id":"ce4bgup2rcd13ifvqco0","pricing_plan_id":"cebpf4jnsgd1na2vs0mg"},{"bike_id":"64cbfd6a-4a4e-4d37-982c-18402a201eee","system_id":"levelo_inurba_marseille","lat":43.28664,"lon":5.36346,"is_reserved":false,"is_disabled":true,"rental_uris":{"android":"levelo://app?vid=64cbfd6a-4a4e-4d37-982c-18402a201eee","ios":"levelo://app?vid=64cbfd6a-4a4e-4d37-982c-18402a201eee"},"vehicle_type_id":"4","last_reported":1733055436,"current_range_meters":16800,"station_id":"ce4bhah2rcd13ifvqej0","pricing_plan_id":"cebpf4jnsgd1na2vs0mg"},{"bike_id":"c0054edb-5a8c-4cde-93a6-194d063ea63c","system_id":"levelo_inurba_marseille","lat":43.26195,"lon":5.37933,"is_reserved":false,"is_disabled":false,"rental_uris":{"android":"levelo://app?vid=c0054edb-5a8c-4cde-93a6-194d063ea63c","ios":"levelo://app?vid=c0054edb-5a8c-4cde-93a6-194d063ea63c"},"vehicle_type_id":"4","last_reported":1733055436,"current_range_meters":38800,"station_id":"ce4bhjp2rcd13ifvqg90","pricing_plan_id":"cebpf4jnsgd1na2vs0mg"},{"bike_id":"b4a47d6a-9bb6-43e2-9b63-43b4b811ae33","system_id":"levelo_inurba_marseille","lat":43.29624,"lon":5.37173,"is_reserved":false,"is_disabled":false,"rental_uris":{"android":"levelo://app?vid=b4a47d6a-9bb6-43e2-9b63-43b4b811ae33","ios":"levelo://app?vid=b4a47d6a-9bb6-43e2-9b63-43b4b811ae33"},"vehicle_type_id":"4","last_reported":1733055436,"current_range_meters":36400,"station_id":"ce4bgnh2rcd13ifvqc0g","pricing_plan_id":"cebpf4jnsgd1na2vs0mg"},{"bike_id":"23842e29-7ef4-4c74-a24a-f49a16dd91c4","system_id":"levelo_inurba_marseille","lat":43.29919,"lon":5.37475,"is_reserved":false,"is_disabled":false,"rental_uris":{"android":"levelo://app?vid=23842e29-7ef4-4c74-a24a-f49a16dd91c4","ios":"levelo://app?vid=23842e29-7ef4-4c74-a24a-f49a16dd91c4"},"vehicle_type_id":"4","last_reported":1733055436,"current_range_meters":24000,"station_id":"ce4bgjh2rcd13ifvqbg0","pricing_plan_id":"cebpf4jnsgd1na2vs0mg"},{"bike_id":"3ab4c64b-a573-471d-9dc1-aa13385ed60a","system_id":"levelo_inurba_marseille","lat":43.32687,"lon":5.41009,"is_reserved":false,"is_disabled":false,"rental_uris":{"android":"levelo://app?vid=3ab4c64b-a573-471d-9dc1-aa13385ed60a","ios":"levelo://app?vid=3ab4c64b-a573-471d-9dc1-aa13385ed60a"},"vehicle_type_id":"4","last_reported":1733055436,"current_range_meters":39200,"station_id":"ce4bhpp2rcd13ifvqhgg","pricing_plan_id":"cebpf4jnsgd1na2vs0mg"},{"bike_id":"1aa61925-f4ba-4fd5-b1de-08db522586c3","system_id":"levelo_inurba_marseille","lat":43.27058,"lon":5.40256,"is_reserved":false,"is_disabled":false,"rental_uris":{"android":"levelo://app?vid=1aa61925-f4ba-4fd5-b1de-08db522586c3","ios":"levelo://app?vid=1aa61925-f4ba-4fd5-b1de-08db522586c3"},"vehicle_type_id":"4","last_reported":1733055436,"current_range_meters":38000,"station_id":"ce4bhk92rcd13ifvqgc0","pricing_plan_id":"cebpf4jnsgd1na2vs0mg"},{"bike_id":"4dad5b18-e2df-4c17-9b65-c25e0f7ed2e8","system_id":"levelo_inurba_marseille","lat":43.29963,"lon":5.38496,"is_reserved":false,"is_disabled":false,"rental_uris":{"android":"levelo://app?vid=4dad5b18-e2df-4c17-9b65-c25e0f7ed2e8","ios":"levelo://app?vid=4dad5b18-e2df-4c17-9b65-c25e0f7ed2e8"},"vehicle_type_id":"4","last_reported":1733055436,"current_range_meters":23200,"station_id":"ce4bgj92rcd13ifvqbd0","pricing_plan_id":"cebpf4jnsgd1na2vs0mg"},{"bike_id":"694ada16-62be-4cd2-822e-a4599887121c","system_id":"levelo_inurba_marseille","lat":43.23191,"lon":5.35554,"is_reserved":false,"is_disabled":false,"rental_uris":{"android":"levelo://app?vid=694ada16-62be-4cd2-822e-a4599887121c","ios":"levelo://app?vid=694ada16-62be-4cd2-822e-a4599887121c"},"vehicle_type_id":"4","last_reported":1733055436,"current_range_meters":32000,"station_id":"ce4bhu92rcd13ifvqi70","pricing_plan_id":"cebpf4jnsgd1na2vs0mg"},{"bike_id":"cd4f93d3-c7c3-45a6-aaf1-146e353eb50d","system_id":"levelo_inurba_marseille","lat":43.30916,"lon":5.36851,"is_reserved":false,"is_disabled":false,"rental_uris":{"android":"levelo://app?vid=cd4f93d3-c7c3-45a6-aaf1-146e353eb50d","ios":"levelo://app?vid=cd4f93d3-c7c3-45a6-aaf1-146e353eb50d"},"vehicle_type_id":"4","last_reported":1733055436,"current_range_meters":27600,"station_id":"ce4bgn92rcd13ifvqbvg","pricing_plan_id":"cebpf4jnsgd1na2vs0mg"},{"bike_id":"67fa2a9e-eed8-4ed6-bdd8-7d1023a52b4e","system_id":"levelo_inurba_marseille","lat":43.26931,"lon":5.38923,"is_reserved":false,"is_disabled":true,"rental_uris":{"android":"levelo://app?vid=67fa2a9e-eed8-4ed6-bdd8-7d1023a52b4e","ios":"levelo://app?vid=67fa2a9e-eed8-4ed6-bdd8-7d1023a52b4e"},"vehicle_type_id":"4","last_reported":1733055436,"current_range_meters":6400,"station_id":"ce4bhhh2rcd13ifvqfl0","pricing_plan_id":"cebpf4jnsgd1na2vs0mg"},{"bike_id":"c8537d05-a067-41ab-8139-dc89a2af92b1","system_id":"levelo_inurba_marseille","lat":43.31888,"lon":5.40732,"is_reserved":false,"is_disabled":false,"rental_uris":{"android":"levelo://app?vid=c8537d05-a067-41ab-8139-dc89a2af92b1","ios":"levelo://app?vid=c8537d05-a067-41ab-8139-dc89a2af92b1"},"vehicle_type_id":"4","last_reported":1733055436,"current_range_meters":17200,"station_id":"ce4bhq12rcd13ifvqhig","pricing_plan_id":"cebpf4jnsgd1na2vs0mg"},{"bike_id":"d95b6300-54c4-4fc0-ba4e-eca1a8c3de74","system_id":"levelo_inurba_marseille","lat":43.24805,"lon":5.37458,"is_reserved":false,"is_disabled":false,"rental_uris":{"android":"levelo://app?vid=d95b6300-54c4-4fc0-ba4e-eca1a8c3de74","ios":"levelo://app?vid=d95b6300-54c4-4fc0-ba4e-eca1a8c3de74"},"vehicle_type_id":"4","last_reported":1733055436,"current_range_meters":38800,"station_id":"ce4bhgh2rcd13ifvqfb0","pricing_plan_id":"cebpf4jnsgd1na2vs0mg"},{"bike_id":"918f9bb6-b2e1-46a2-b8c9-b22eb4123c7f","system_id":"levelo_inurba_marseille","lat":43.28863,"lon":5.35855,"is_reserved":false,"is_disabled":false,"rental_uris":{"android":"levelo://app?vid=918f9bb6-b2e1-46a2-b8c9-b22eb4123c7f","ios":"levelo://app?vid=918f9bb6-b2e1-46a2-b8c9-b22eb4123c7f"},"vehicle_type_id":"4","last_reported":1733055436,"current_range_meters":38400,"station_id":"ce4bhb12rcd13ifvqem0","pricing_plan_id":"cebpf4jnsgd1na2vs0mg"},{"bike_id":"f8c9b462-874a-46cf-9e07-e89e0f8792ee","system_id":"levelo_inurba_marseille","lat":43.3047,"lon":5.379,"is_reserved":false,"is_disabled":false,"rental_uris":{"android":"levelo://app?vid=f8c9b462-874a-46cf-9e07-e89e0f8792ee","ios":"levelo://app?vid=f8c9b462-874a-46cf-9e07-e89e0f8792ee"},"vehicle_type_id":"4","last_reported":1733055436,"current_range_meters":28800,"station_id":"ce4bgup2rcd13ifvqcn0","pricing_plan_id":"cebpf4jnsgd1na2vs0mg"},{"bike_id":"cce025e4-7c3c-43a5-8266-b8071aef3c28","system_id":"levelo_inurba_marseille","lat":43.23193,"lon":5.35557,"is_reserved":false,"is_disabled":false,"rental_uris":{"android":"levelo://app?vid=cce025e4-7c3c-43a5-8266-b8071aef3c28","ios":"levelo://app?vid=cce025e4-7c3c-43a5-8266-b8071aef3c28"},"vehicle_type_id":"4","last_reported":1733055436,"current_range_meters":39200,"station_id":"ce4bhu92rcd13ifvqi70","pricing_plan_id":"cebpf4jnsgd1na2vs0mg"},{"bike_id":"97acca88-0a38-41da-b0a8-00b2936818e7","system_id":"levelo_inurba_marseille","lat":43.28421,"lon":5.34977,"is_reserved":false,"is_disabled":false,"rental_uris":{"android":"levelo://app?vid=97acca88-0a38-41da-b0a8-00b2936818e7","ios":"levelo://app?vid=97acca88-0a38-41da-b0a8-00b2936818e7"},"vehicle_type_id":"4","last_reported":1733055436,"current_range_meters":30400,"station_id":"ce4bhbh2rcd13ifvqepg","pricing_plan_id":"cebpf4jnsgd1na2vs0mg"},{"bike_id":"c68f7c93-2ae3-4e8b-984e-205c83bb02b5","system_id":"levelo_inurba_marseille","lat":43.28457,"lon":5.35901,"is_reserved":false,"is_disabled":false,"rental_uris":{"android":"levelo://app?vid=c68f7c93-2ae3-4e8b-984e-205c83bb02b5","ios":"levelo://app?vid=c68f7c93-2ae3-4e8b-984e-205c83bb02b5"},"vehicle_type_id":"4","last_reported":1733055436,"current_range_meters":32400,"station_id":"ce4bhah2rcd13ifvqei0","pricing_plan_id":"cebpf4jnsgd1na2vs0mg"},{"bike_id":"bc749360-3ce4-4dd6-a0ac-83aa82c323a7","system_id":"levelo_inurba_marseille","lat":43.28145,"lon":5.42639,"is_reserved":false,"is_disabled":true,"rental_uris":{"android":"levelo://app?vid=bc749360-3ce4-4dd6-a0ac-83aa82c323a7","ios":"levelo://app?vid=bc749360-3ce4-4dd6-a0ac-83aa82c323a7"},"vehicle_type_id":"4","last_reported":1733055436,"current_range_meters":30000,"station_id":"ce4bhnh2rcd13ifvqgug","pricing_plan_id":"cebpf4jnsgd1na2vs0mg"},{"bike_id":"fe2bf771-2172-48fc-9e68-cd935c035ed8","system_id":"levelo_inurba_marseille","lat":43.30209,"lon":5.39461,"is_reserved":false,"is_disabled":false,"rental_uris":{"android":"levelo://app?vid=fe2bf771-2172-48fc-9e68-cd935c035ed8","ios":"levelo://app?vid=fe2bf771-2172-48fc-9e68-cd935c035ed8"},"vehicle_type_id":"4","last_reported":1733055436,"current_range_meters":12400,"station_id":"ce4bh0p2rcd13ifvqd70","pricing_plan_id":"cebpf4jnsgd1na2vs0mg"},{"bike_id":"0c121fdf-68e5-4b36-b3e7-e4c85e4a5bd4","system_id":"levelo_inurba_marseille","lat":43.2481,"lon":5.37455,"is_reserved":false,"is_disabled":false,"rental_uris":{"android":"levelo://app?vid=0c121fdf-68e5-4b36-b3e7-e4c85e4a5bd4","ios":"levelo://app?vid=0c121fdf-68e5-4b36-b3e7-e4c85e4a5bd4"},"vehicle_type_id":"4","last_reported":1733055436,"current_range_meters":38000,"station_id":"ce4bhgh2rcd13ifvqfb0","pricing_plan_id":"cebpf4jnsgd1na2vs0mg"},{"bike_id":"4d4c884f-6933-49c0-8899-f9856d90f44d","system_id":"levelo_inurba_marseille","lat":43.29748,"lon":5.37971,"is_reserved":false,"is_disabled":true,"rental_uris":{"android":"levelo://app?vid=4d4c884f-6933-49c0-8899-f9856d90f44d","ios":"levelo://app?vid=4d4c884f-6933-49c0-8899-f9856d90f44d"},"vehicle_type_id":"4","last_reported":1733055436,"current_range_meters":0,"station_id":"","pricing_plan_id":"cebpf4jnsgd1na2vs0mg"},{"bike_id":"49383f8c-5e0c-4bb5-aa2b-e1c81f4536f3","system_id":"levelo_inurba_marseille","lat":43.32294,"lon":5.38261,"is_reserved":false,"is_disabled":false,"rental_uris":{"android":"levelo://app?vid=49383f8c-5e0c-4bb5-aa2b-e1c81f4536f3","ios":"levelo://app?vid=49383f8c-5e0c-4bb5-aa2b-e1c81f4536f3"},"vehicle_type_id":"4","last_reported":1733055436,"current_range_meters":25600,"station_id":"ce4bhr12rcd13ifvqhqg","pricing_plan_id":"cebpf4jnsgd1na2vs0mg"},{"bike_id":"6a2d12d3-f8e8-46c0-afb4-7230daca3faf","system_id":"levelo_inurba_marseille","lat":43.30326,"lon":5.40443,"is_reserved":false,"is_disabled":true,"rental_uris":{"android":"levelo://app?vid=6a2d12d3-f8e8-46c0-afb4-7230daca3faf","ios":"levelo://app?vid=6a2d12d3-f8e8-46c0-afb4-7230daca3faf"},"vehicle_type_id":"4","last_reported":1733055436,"current_range_meters":0,"station_id":"ce4bh012rcd13ifvqd10","pricing_plan_id":"cebpf4jnsgd1na2vs0mg"},{"bike_id":"362acf97-9e8f-4c3e-8574-4958ae2ff74f","system_id":"levelo_inurba_marseille","lat":43.26185,"lon":5.42068,"is_reserved":false,"is_disabled":false,"rental_uris":{"android":"levelo://app?vid=362acf97-9e8f-4c3e-8574-4958ae2ff74f","ios":"levelo://app?vid=362acf97-9e8f-4c3e-8574-4958ae2ff74f"},"vehicle_type_id":"4","last_reported":1733055436,"current_range_meters":28000,"station_id":"","pricing_plan_id":"cebpf4jnsgd1na2vs0mg"},{"bike_id":"b3442046-6338-4dce-a840-cc4fb86d40ac","system_id":"levelo_inurba_marseille","lat":43.31888,"lon":5.40733,"is_reserved":false,"is_disabled":false,"rental_uris":{"android":"levelo://app?vid=b3442046-6338-4dce-a840-cc4fb86d40ac","ios":"levelo://app?vid=b3442046-6338-4dce-a840-cc4fb86d40ac"},"vehicle_type_id":"4","last_reported":1733055436,"current_range_meters":20000,"station_id":"ce4bhq12rcd13ifvqhig","pricing_plan_id":"cebpf4jnsgd1na2vs0mg"},{"bike_id":"9009be37-c6b1-406b-b0a8-fbab355f715e","system_id":"levelo_inurba_marseille","lat":43.33763,"lon":5.37495,"is_reserved":false,"is_disabled":false,"rental_uris":{"android":"levelo://app?vid=9009be37-c6b1-406b-b0a8-fbab355f715e","ios":"levelo://app?vid=9009be37-c6b1-406b-b0a8-fbab355f715e"},"vehicle_type_id":"4","last_reported":1733055436,"current_range_meters":32400,"station_id":"","pricing_plan_id":"cebpf4jnsgd1na2vs0mg"},{"bike_id":"e5e413ca-404d-4b6a-87c5-af6abe862f87","system_id":"levelo_inurba_marseille","lat":43.29936,"lon":5.36552,"is_reserved":false,"is_disabled":false,"rental_uris":{"android":"levelo://app?vid=e5e413ca-404d-4b6a-87c5-af6abe862f87","ios":"levelo://app?vid=e5e413ca-404d-4b6a-87c5-af6abe862f87"},"vehicle_type_id":"4","last_reported":1733055436,"current_range_meters":27200,"station_id":"ce4bgm92rcd13ifvqbr0","pricing_plan_id":"cebpf4jnsgd1na2vs0mg"},{"bike_id":"b7b33697-14a7-4110-9b8b-4194e6ef5f3f","system_id":"levelo_inurba_marseille","lat":43.27278,"lon":5.39204,"is_reserved":false,"is_disabled":true,"rental_uris":{"android":"levelo://app?vid=b7b33697-14a7-4110-9b8b-4194e6ef5f3f","ios":"levelo://app?vid=b7b33697-14a7-4110-9b8b-4194e6ef5f3f"},"vehicle_type_id":"4","last_reported":1733055436,"current_range_meters":0,"station_id":"","pricing_plan_id":"cebpf4jnsgd1na2vs0mg"},{"bike_id":"bebfcb3c-2e7a-437d-8821-033c9fc971df","system_id":"levelo_inurba_marseille","lat":43.22937,"lon":5.3539,"is_reserved":false,"is_disabled":false,"rental_uris":{"android":"levelo://app?vid=bebfcb3c-2e7a-437d-8821-033c9fc971df","ios":"levelo://app?vid=bebfcb3c-2e7a-437d-8821-033c9fc971df"},"vehicle_type_id":"4","last_reported":1733055436,"current_range_meters":9600,"station_id":"cpo3532slgdg3j2ikp40","pricing_plan_id":"cebpf4jnsgd1na2vs0mg"},{"bike_id":"ac49fba4-30df-4893-b052-7d9d76fd86a2","system_id":"levelo_inurba_marseille","lat":43.29263,"lon":5.38439,"is_reserved":false,"is_disabled":true,"rental_uris":{"android":"levelo://app?vid=ac49fba4-30df-4893-b052-7d9d76fd86a2","ios":"levelo://app?vid=ac49fba4-30df-4893-b052-7d9d76fd86a2"},"vehicle_type_id":"4","last_reported":1733055436,"current_range_meters":12000,"station_id":"ce4bh692rcd13ifvqea0","pricing_plan_id":"cebpf4jnsgd1na2vs0mg"},{"bike_id":"a3d540a5-c9e8-4c92-9399-ec0baac57a71","system_id":"levelo_inurba_marseille","lat":43.2953,"lon":5.38533,"is_reserved":false,"is_disabled":true,"rental_uris":{"android":"levelo://app?vid=a3d540a5-c9e8-4c92-9399-ec0baac57a71","ios":"levelo://app?vid=a3d540a5-c9e8-4c92-9399-ec0baac57a71"},"vehicle_type_id":"4","last_reported":1733055436,"current_range_meters":34000,"station_id":"ce4bgih2rcd13ifvqba0","pricing_plan_id":"cebpf4jnsgd1na2vs0mg"},{"bike_id":"f8c96851-0afb-4e76-963e-6a283010bcce","system_id":"levelo_inurba_marseille","lat":43.25723,"lon":5.41106,"is_reserved":false,"is_disabled":false,"rental_uris":{"android":"levelo://app?vid=f8c96851-0afb-4e76-963e-6a283010bcce","ios":"levelo://app?vid=f8c96851-0afb-4e76-963e-6a283010bcce"},"vehicle_type_id":"4","last_reported":1733055436,"current_range_meters":10800,"station_id":"ce4bhkp2rcd13ifvqgd0","pricing_plan_id":"cebpf4jnsgd1na2vs0mg"},{"bike_id":"3abdb507-aca9-41cf-ab5c-c13fb795c3a0","system_id":"levelo_inurba_marseille","lat":43.2842,"lon":5.34989,"is_reserved":false,"is_disabled":true,"rental_uris":{"android":"levelo://app?vid=3abdb507-aca9-41cf-ab5c-c13fb795c3a0","ios":"levelo://app?vid=3abdb507-aca9-41cf-ab5c-c13fb795c3a0"},"vehicle_type_id":"4","last_reported":1733055436,"current_range_meters":0,"station_id":"ce4bhbh2rcd13ifvqepg","pricing_plan_id":"cebpf4jnsgd1na2vs0mg"},{"bike_id":"e85c2ab9-5d11-4955-b44e-83dadaed8c5c","system_id":"levelo_inurba_marseille","lat":43.31489,"lon":5.37315,"is_reserved":false,"is_disabled":false,"rental_uris":{"android":"levelo://app?vid=e85c2ab9-5d11-4955-b44e-83dadaed8c5c","ios":"levelo://app?vid=e85c2ab9-5d11-4955-b44e-83dadaed8c5c"},"vehicle_type_id":"4","last_reported":1733055436,"current_range_meters":36800,"station_id":"ce4bgt12rcd13ifvqcd0","pricing_plan_id":"cebpf4jnsgd1na2vs0mg"},{"bike_id":"7fda7038-d61c-405a-a660-6de6859d9497","system_id":"levelo_inurba_marseille","lat":43.32659,"lon":5.40987,"is_reserved":false,"is_disabled":false,"rental_uris":{"android":"levelo://app?vid=7fda7038-d61c-405a-a660-6de6859d9497","ios":"levelo://app?vid=7fda7038-d61c-405a-a660-6de6859d9497"},"vehicle_type_id":"4","last_reported":1733055436,"current_range_meters":39200,"station_id":"ce4bhpp2rcd13ifvqhgg","pricing_plan_id":"cebpf4jnsgd1na2vs0mg"},{"bike_id":"97b35c0e-7e77-4f0a-83fa-58fbc99a2959","system_id":"levelo_inurba_marseille","lat":43.337444,"lon":5.374475,"is_reserved":false,"is_disabled":false,"rental_uris":{"android":"levelo://app?vid=97b35c0e-7e77-4f0a-83fa-58fbc99a2959","ios":"levelo://app?vid=97b35c0e-7e77-4f0a-83fa-58fbc99a2959"},"vehicle_type_id":"4","last_reported":1733055436,"current_range_meters":30800,"station_id":"","pricing_plan_id":"cebpf4jnsgd1na2vs0mg"},{"bike_id":"a2f21cec-b834-4db4-a5c9-013568c37187","system_id":"levelo_inurba_marseille","lat":43.29712,"lon":5.36607,"is_reserved":false,"is_disabled":false,"rental_uris":{"android":"levelo://app?vid=a2f21cec-b834-4db4-a5c9-013568c37187","ios":"levelo://app?vid=a2f21cec-b834-4db4-a5c9-013568c37187"},"vehicle_type_id":"4","last_reported":1733055436,"current_range_meters":4400,"station_id":"ce4bgn12rcd13ifvqbt0","pricing_plan_id":"cebpf4jnsgd1na2vs0mg"},{"bike_id":"76490f10-0bdc-4c56-9a17-8d7fa1908fdd","system_id":"levelo_inurba_marseille","lat":43.25822,"lon":5.39424,"is_reserved":false,"is_disabled":false,"rental_uris":{"android":"levelo://app?vid=76490f10-0bdc-4c56-9a17-8d7fa1908fdd","ios":"levelo://app?vid=76490f10-0bdc-4c56-9a17-8d7fa1908fdd"},"vehicle_type_id":"4","last_reported":1733055436,"current_range_meters":34000,"station_id":"ce4bhip2rcd13ifvqft0","pricing_plan_id":"cebpf4jnsgd1na2vs0mg"},{"bike_id":"314d1365-c0f9-4b36-8299-e279909a774d","system_id":"levelo_inurba_marseille","lat":43.31214,"lon":5.36859,"is_reserved":false,"is_disabled":true,"rental_uris":{"android":"levelo://app?vid=314d1365-c0f9-4b36-8299-e279909a774d","ios":"levelo://app?vid=314d1365-c0f9-4b36-8299-e279909a774d"},"vehicle_type_id":"4","last_reported":1733055436,"current_range_meters":0,"station_id":"ce4bgl92rcd13ifvqbq0","pricing_plan_id":"cebpf4jnsgd1na2vs0mg"},{"bike_id":"63fb42d0-0c4b-4574-8fd6-0efbbfc35068","system_id":"levelo_inurba_marseille","lat":43.30544,"lon":5.36705,"is_reserved":false,"is_disabled":false,"rental_uris":{"android":"levelo://app?vid=63fb42d0-0c4b-4574-8fd6-0efbbfc35068","ios":"levelo://app?vid=63fb42d0-0c4b-4574-8fd6-0efbbfc35068"},"vehicle_type_id":"4","last_reported":1733055436,"current_range_meters":30800,"station_id":"ce4bgrp2rcd13ifvqc9g","pricing_plan_id":"cebpf4jnsgd1na2vs0mg"},{"bike_id":"5ac743f5-b2d6-477c-91bf-cf7574fc30e0","system_id":"levelo_inurba_marseille","lat":43.24807,"lon":5.3746,"is_reserved":false,"is_disabled":true,"rental_uris":{"android":"levelo://app?vid=5ac743f5-b2d6-477c-91bf-cf7574fc30e0","ios":"levelo://app?vid=5ac743f5-b2d6-477c-91bf-cf7574fc30e0"},"vehicle_type_id":"4","last_reported":1733055436,"current_range_meters":9200,"station_id":"ce4bhgh2rcd13ifvqfb0","pricing_plan_id":"cebpf4jnsgd1na2vs0mg"},{"bike_id":"e5a85dd5-13a7-4d9e-a70f-6158151d88c4","system_id":"levelo_inurba_marseille","lat":43.30543,"lon":5.3653,"is_reserved":false,"is_disabled":false,"rental_uris":{"android":"levelo://app?vid=e5a85dd5-13a7-4d9e-a70f-6158151d88c4","ios":"levelo://app?vid=e5a85dd5-13a7-4d9e-a70f-6158151d88c4"},"vehicle_type_id":"4","last_reported":1733055436,"current_range_meters":18000,"station_id":"ce4bgs12rcd13ifvqcag","pricing_plan_id":"cebpf4jnsgd1na2vs0mg"},{"bike_id":"231cff09-e87c-477e-b955-b1fa0401a325","system_id":"levelo_inurba_marseille","lat":43.24385,"lon":5.3706,"is_reserved":false,"is_disabled":false,"rental_uris":{"android":"levelo://app?vid=231cff09-e87c-477e-b955-b1fa0401a325","ios":"levelo://app?vid=231cff09-e87c-477e-b955-b1fa0401a325"},"vehicle_type_id":"4","last_reported":1733055436,"current_range_meters":27600,"station_id":"ce4bhhh2rcd13ifvqfk0","pricing_plan_id":"cebpf4jnsgd1na2vs0mg"},{"bike_id":"256ed7b4-aff1-4687-9338-98ca1590cf7b","system_id":"levelo_inurba_marseille","lat":43.29623,"lon":5.37152,"is_reserved":false,"is_disabled":false,"rental_uris":{"android":"levelo://app?vid=256ed7b4-aff1-4687-9338-98ca1590cf7b","ios":"levelo://app?vid=256ed7b4-aff1-4687-9338-98ca1590cf7b"},"vehicle_type_id":"4","last_reported":1733055436,"current_range_meters":16800,"station_id":"ce4bgnh2rcd13ifvqc0g","pricing_plan_id":"cebpf4jnsgd1na2vs0mg"},{"bike_id":"fd3b7ed7-cae6-419a-a5f6-e5eda0442a53","system_id":"levelo_inurba_marseille","lat":43.25492,"lon":5.37648,"is_reserved":false,"is_disabled":false,"rental_uris":{"android":"levelo://app?vid=fd3b7ed7-cae6-419a-a5f6-e5eda0442a53","ios":"levelo://app?vid=fd3b7ed7-cae6-419a-a5f6-e5eda0442a53"},"vehicle_type_id":"4","last_reported":1733055436,"current_range_meters":38000,"station_id":"ce4bhh12rcd13ifvqff0","pricing_plan_id":"cebpf4jnsgd1na2vs0mg"},{"bike_id":"064861a6-5a15-4e22-bc40-26ea165590ab","system_id":"levelo_inurba_marseille","lat":43.291939,"lon":5.393202,"is_reserved":false,"is_disabled":true,"rental_uris":{"android":"levelo://app?vid=064861a6-5a15-4e22-bc40-26ea165590ab","ios":"levelo://app?vid=064861a6-5a15-4e22-bc40-26ea165590ab"},"vehicle_type_id":"4","last_reported":1733055436,"current_range_meters":24400,"station_id":"ce4bh192rcd13ifvqdd0","pricing_plan_id":"cebpf4jnsgd1na2vs0mg"},{"bike_id":"83187be1-7efa-435e-ae9b-74201cb4dec3","system_id":"levelo_inurba_marseille","lat":43.26686,"lon":5.38276,"is_reserved":false,"is_disabled":true,"rental_uris":{"android":"levelo://app?vid=83187be1-7efa-435e-ae9b-74201cb4dec3","ios":"levelo://app?vid=83187be1-7efa-435e-ae9b-74201cb4dec3"},"vehicle_type_id":"4","last_reported":1733055436,"current_range_meters":38000,"station_id":"ce4bhg92rcd13ifvqf90","pricing_plan_id":"cebpf4jnsgd1na2vs0mg"},{"bike_id":"09ed15d7-8c69-4be4-b485-46e6ba08aaf9","system_id":"levelo_inurba_marseille","lat":43.31883,"lon":5.40734,"is_reserved":false,"is_disabled":false,"rental_uris":{"android":"levelo://app?vid=09ed15d7-8c69-4be4-b485-46e6ba08aaf9","ios":"levelo://app?vid=09ed15d7-8c69-4be4-b485-46e6ba08aaf9"},"vehicle_type_id":"4","last_reported":1733055436,"current_range_meters":11200,"station_id":"ce4bhq12rcd13ifvqhig","pricing_plan_id":"cebpf4jnsgd1na2vs0mg"},{"bike_id":"e8fa7be1-2407-41a7-b843-e7c70f1917ef","system_id":"levelo_inurba_marseille","lat":43.27611,"lon":5.36109,"is_reserved":false,"is_disabled":true,"rental_uris":{"android":"levelo://app?vid=e8fa7be1-2407-41a7-b843-e7c70f1917ef","ios":"levelo://app?vid=e8fa7be1-2407-41a7-b843-e7c70f1917ef"},"vehicle_type_id":"4","last_reported":1733055436,"current_range_meters":0,"station_id":"ce4bgj92rcd13ifvqbe0","pricing_plan_id":"cebpf4jnsgd1na2vs0mg"},{"bike_id":"40b136bf-15a0-4746-b04e-c9c7a868c983","system_id":"levelo_inurba_marseille","lat":43.24806,"lon":5.37458,"is_reserved":false,"is_disabled":false,"rental_uris":{"android":"levelo://app?vid=40b136bf-15a0-4746-b04e-c9c7a868c983","ios":"levelo://app?vid=40b136bf-15a0-4746-b04e-c9c7a868c983"},"vehicle_type_id":"4","last_reported":1733055436,"current_range_meters":17600,"station_id":"ce4bhgh2rcd13ifvqfb0","pricing_plan_id":"cebpf4jnsgd1na2vs0mg"},{"bike_id":"7f8c96ca-134e-484e-85ce-4e744a5e80af","system_id":"levelo_inurba_marseille","lat":43.32655,"lon":5.40984,"is_reserved":false,"is_disabled":false,"rental_uris":{"android":"levelo://app?vid=7f8c96ca-134e-484e-85ce-4e744a5e80af","ios":"levelo://app?vid=7f8c96ca-134e-484e-85ce-4e744a5e80af"},"vehicle_type_id":"4","last_reported":1733055436,"current_range_meters":23200,"station_id":"ce4bhpp2rcd13ifvqhgg","pricing_plan_id":"cebpf4jnsgd1na2vs0mg"},{"bike_id":"a4404dac-00c5-4861-a1ae-6d042a4030f1","system_id":"levelo_inurba_marseille","lat":43.306,"lon":5.37218,"is_reserved":false,"is_disabled":false,"rental_uris":{"android":"levelo://app?vid=a4404dac-00c5-4861-a1ae-6d042a4030f1","ios":"levelo://app?vid=a4404dac-00c5-4861-a1ae-6d042a4030f1"},"vehicle_type_id":"4","last_reported":1733055436,"current_range_meters":38800,"station_id":"ce4bgqh2rcd13ifvqc4g","pricing_plan_id":"cebpf4jnsgd1na2vs0mg"},{"bike_id":"6ad27e5f-1a8e-4787-b1f5-abc87468ddbf","system_id":"levelo_inurba_marseille","lat":43.30602,"lon":5.37223,"is_reserved":false,"is_disabled":false,"rental_uris":{"android":"levelo://app?vid=6ad27e5f-1a8e-4787-b1f5-abc87468ddbf","ios":"levelo://app?vid=6ad27e5f-1a8e-4787-b1f5-abc87468ddbf"},"vehicle_type_id":"4","last_reported":1733055436,"current_range_meters":36400,"station_id":"ce4bgqh2rcd13ifvqc4g","pricing_plan_id":"cebpf4jnsgd1na2vs0mg"},{"bike_id":"f447017a-0658-4440-99b9-36b1ab0f2428","system_id":"levelo_inurba_marseille","lat":43.25825,"lon":5.39429,"is_reserved":false,"is_disabled":false,"rental_uris":{"android":"levelo://app?vid=f447017a-0658-4440-99b9-36b1ab0f2428","ios":"levelo://app?vid=f447017a-0658-4440-99b9-36b1ab0f2428"},"vehicle_type_id":"4","last_reported":1733055436,"current_range_meters":39200,"station_id":"ce4bhip2rcd13ifvqft0","pricing_plan_id":"cebpf4jnsgd1na2vs0mg"},{"bike_id":"a98950b6-7027-4bf8-b943-d211a2d8db6d","system_id":"levelo_inurba_marseille","lat":43.27054,"lon":5.40274,"is_reserved":false,"is_disabled":false,"rental_uris":{"android":"levelo://app?vid=a98950b6-7027-4bf8-b943-d211a2d8db6d","ios":"levelo://app?vid=a98950b6-7027-4bf8-b943-d211a2d8db6d"},"vehicle_type_id":"4","last_reported":1733055436,"current_range_meters":3600,"station_id":"ce4bhk92rcd13ifvqgc0","pricing_plan_id":"cebpf4jnsgd1na2vs0mg"},{"bike_id":"ae110baa-6fa5-463d-9c19-2aa3237d6213","system_id":"levelo_inurba_marseille","lat":43.23188,"lon":5.3555,"is_reserved":false,"is_disabled":false,"rental_uris":{"android":"levelo://app?vid=ae110baa-6fa5-463d-9c19-2aa3237d6213","ios":"levelo://app?vid=ae110baa-6fa5-463d-9c19-2aa3237d6213"},"vehicle_type_id":"4","last_reported":1733055436,"current_range_meters":20400,"station_id":"ce4bhu92rcd13ifvqi70","pricing_plan_id":"cebpf4jnsgd1na2vs0mg"},{"bike_id":"f079df81-b1f3-4ba7-8489-3b626e1055fa","system_id":"levelo_inurba_marseille","lat":43.29044,"lon":5.35925,"is_reserved":false,"is_disabled":false,"rental_uris":{"android":"levelo://app?vid=f079df81-b1f3-4ba7-8489-3b626e1055fa","ios":"levelo://app?vid=f079df81-b1f3-4ba7-8489-3b626e1055fa"},"vehicle_type_id":"4","last_reported":1733055436,"current_range_meters":39200,"station_id":"ce4bha92rcd13ifvqeg0","pricing_plan_id":"cebpf4jnsgd1na2vs0mg"},{"bike_id":"1cdb3b22-733e-42e9-b036-6ef34a98f78d","system_id":"levelo_inurba_marseille","lat":43.25586,"lon":5.38233,"is_reserved":false,"is_disabled":false,"rental_uris":{"android":"levelo://app?vid=1cdb3b22-733e-42e9-b036-6ef34a98f78d","ios":"levelo://app?vid=1cdb3b22-733e-42e9-b036-6ef34a98f78d"},"vehicle_type_id":"4","last_reported":1733055436,"current_range_meters":36800,"station_id":"ce4bhih2rcd13ifvqfs0","pricing_plan_id":"cebpf4jnsgd1na2vs0mg"},{"bike_id":"eba37b95-71a2-4a8f-944c-19694f09d585","system_id":"levelo_inurba_marseille","lat":43.29897,"lon":5.43673,"is_reserved":false,"is_disabled":false,"rental_uris":{"android":"levelo://app?vid=eba37b95-71a2-4a8f-944c-19694f09d585","ios":"levelo://app?vid=eba37b95-71a2-4a8f-944c-19694f09d585"},"vehicle_type_id":"4","last_reported":1733055436,"current_range_meters":38000,"station_id":"ce4bhpp2rcd13ifvqhfg","pricing_plan_id":"cebpf4jnsgd1na2vs0mg"},{"bike_id":"9700beae-0fbf-4e58-beda-d02b6fed27fe","system_id":"levelo_inurba_marseille","lat":43.29615,"lon":5.37153,"is_reserved":false,"is_disabled":false,"rental_uris":{"android":"levelo://app?vid=9700beae-0fbf-4e58-beda-d02b6fed27fe","ios":"levelo://app?vid=9700beae-0fbf-4e58-beda-d02b6fed27fe"},"vehicle_type_id":"4","last_reported":1733055436,"current_range_meters":33200,"station_id":"ce4bgnh2rcd13ifvqc0g","pricing_plan_id":"cebpf4jnsgd1na2vs0mg"},{"bike_id":"a779db56-d2ef-4ae4-b1bb-c90f5988b174","system_id":"levelo_inurba_marseille","lat":43.26554,"lon":5.37284,"is_reserved":false,"is_disabled":false,"rental_uris":{"android":"levelo://app?vid=a779db56-d2ef-4ae4-b1bb-c90f5988b174","ios":"levelo://app?vid=a779db56-d2ef-4ae4-b1bb-c90f5988b174"},"vehicle_type_id":"4","last_reported":1733055436,"current_range_meters":8800,"station_id":"ce4bhg12rcd13ifvqf70","pricing_plan_id":"cebpf4jnsgd1na2vs0mg"},{"bike_id":"af12a5f9-720e-4019-987d-3779fe2b91a2","system_id":"levelo_inurba_marseille","lat":43.3083,"lon":5.37395,"is_reserved":false,"is_disabled":true,"rental_uris":{"android":"levelo://app?vid=af12a5f9-720e-4019-987d-3779fe2b91a2","ios":"levelo://app?vid=af12a5f9-720e-4019-987d-3779fe2b91a2"},"vehicle_type_id":"4","last_reported":1733055436,"current_range_meters":400,"station_id":"","pricing_plan_id":"cebpf4jnsgd1na2vs0mg"},{"bike_id":"04b4c98f-00f4-4fde-9bab-6b5f41f137f2","system_id":"levelo_inurba_marseille","lat":43.24387,"lon":5.37059,"is_reserved":false,"is_disabled":false,"rental_uris":{"android":"levelo://app?vid=04b4c98f-00f4-4fde-9bab-6b5f41f137f2","ios":"levelo://app?vid=04b4c98f-00f4-4fde-9bab-6b5f41f137f2"},"vehicle_type_id":"4","last_reported":1733055436,"current_range_meters":17200,"station_id":"ce4bhhh2rcd13ifvqfk0","pricing_plan_id":"cebpf4jnsgd1na2vs0mg"},{"bike_id":"ffb2ff13-f5c8-41dc-86e0-2871a8bb35c8","system_id":"levelo_inurba_marseille","lat":43.337444,"lon":5.374475,"is_reserved":false,"is_disabled":false,"rental_uris":{"android":"levelo://app?vid=ffb2ff13-f5c8-41dc-86e0-2871a8bb35c8","ios":"levelo://app?vid=ffb2ff13-f5c8-41dc-86e0-2871a8bb35c8"},"vehicle_type_id":"4","last_reported":1733055436,"current_range_meters":22000,"station_id":"ce4bh0p2rcd13ifvqd80","pricing_plan_id":"cebpf4jnsgd1na2vs0mg"},{"bike_id":"e8aaf989-f7c7-4f92-9039-2cedc59abe88","system_id":"levelo_inurba_marseille","lat":43.25388,"lon":5.41848,"is_reserved":false,"is_disabled":false,"rental_uris":{"android":"levelo://app?vid=e8aaf989-f7c7-4f92-9039-2cedc59abe88","ios":"levelo://app?vid=e8aaf989-f7c7-4f92-9039-2cedc59abe88"},"vehicle_type_id":"4","last_reported":1733055436,"current_range_meters":28800,"station_id":"","pricing_plan_id":"cebpf4jnsgd1na2vs0mg"},{"bike_id":"e38065be-49ca-48ba-b846-da9a7b2945a3","system_id":"levelo_inurba_marseille","lat":43.27977,"lon":5.38751,"is_reserved":false,"is_disabled":false,"rental_uris":{"android":"levelo://app?vid=e38065be-49ca-48ba-b846-da9a7b2945a3","ios":"levelo://app?vid=e38065be-49ca-48ba-b846-da9a7b2945a3"},"vehicle_type_id":"4","last_reported":1733055436,"current_range_meters":30400,"station_id":"ce4bhg12rcd13ifvqf80","pricing_plan_id":"cebpf4jnsgd1na2vs0mg"},{"bike_id":"2b82be2b-842c-4809-901e-1b13d7fde033","system_id":"levelo_inurba_marseille","lat":43.28151,"lon":5.42635,"is_reserved":false,"is_disabled":true,"rental_uris":{"android":"levelo://app?vid=2b82be2b-842c-4809-901e-1b13d7fde033","ios":"levelo://app?vid=2b82be2b-842c-4809-901e-1b13d7fde033"},"vehicle_type_id":"4","last_reported":1733055436,"current_range_meters":1200,"station_id":"ce4bhnh2rcd13ifvqgug","pricing_plan_id":"cebpf4jnsgd1na2vs0mg"},{"bike_id":"38fdde5e-f6df-4159-ba41-a1bf56251ada","system_id":"levelo_inurba_marseille","lat":43.23066,"lon":5.35492,"is_reserved":false,"is_disabled":false,"rental_uris":{"android":"levelo://app?vid=38fdde5e-f6df-4159-ba41-a1bf56251ada","ios":"levelo://app?vid=38fdde5e-f6df-4159-ba41-a1bf56251ada"},"vehicle_type_id":"4","last_reported":1733055436,"current_range_meters":24400,"station_id":"cpo3342slgdg3j2ifvpg","pricing_plan_id":"cebpf4jnsgd1na2vs0mg"},{"bike_id":"4a2be555-d056-454c-bed3-fe781ba86f8e","system_id":"levelo_inurba_marseille","lat":43.25886,"lon":5.39954,"is_reserved":false,"is_disabled":true,"rental_uris":{"android":"levelo://app?vid=4a2be555-d056-454c-bed3-fe781ba86f8e","ios":"levelo://app?vid=4a2be555-d056-454c-bed3-fe781ba86f8e"},"vehicle_type_id":"4","last_reported":1733055436,"current_range_meters":0,"station_id":"","pricing_plan_id":"cebpf4jnsgd1na2vs0mg"},{"bike_id":"f6d4426c-3f83-4c1a-9949-eb267efb461e","system_id":"levelo_inurba_marseille","lat":43.31357,"lon":5.36718,"is_reserved":false,"is_disabled":false,"rental_uris":{"android":"levelo://app?vid=f6d4426c-3f83-4c1a-9949-eb267efb461e","ios":"levelo://app?vid=f6d4426c-3f83-4c1a-9949-eb267efb461e"},"vehicle_type_id":"4","last_reported":1733055436,"current_range_meters":38800,"station_id":"ce4bgr92rcd13ifvqc6g","pricing_plan_id":"cebpf4jnsgd1na2vs0mg"},{"bike_id":"f0fc9aa9-c9d1-48e5-a9e2-c792dd60843e","system_id":"levelo_inurba_marseille","lat":43.29621,"lon":5.37169,"is_reserved":false,"is_disabled":false,"rental_uris":{"android":"levelo://app?vid=f0fc9aa9-c9d1-48e5-a9e2-c792dd60843e","ios":"levelo://app?vid=f0fc9aa9-c9d1-48e5-a9e2-c792dd60843e"},"vehicle_type_id":"4","last_reported":1733055436,"current_range_meters":39200,"station_id":"ce4bgnh2rcd13ifvqc0g","pricing_plan_id":"cebpf4jnsgd1na2vs0mg"},{"bike_id":"bdaf15ef-30a6-43fb-b654-b47fa5d101b0","system_id":"levelo_inurba_marseille","lat":43.23191,"lon":5.35556,"is_reserved":false,"is_disabled":false,"rental_uris":{"android":"levelo://app?vid=bdaf15ef-30a6-43fb-b654-b47fa5d101b0","ios":"levelo://app?vid=bdaf15ef-30a6-43fb-b654-b47fa5d101b0"},"vehicle_type_id":"4","last_reported":1733055436,"current_range_meters":38800,"station_id":"ce4bhu92rcd13ifvqi70","pricing_plan_id":"cebpf4jnsgd1na2vs0mg"},{"bike_id":"3514cf32-f5b9-4ece-ad78-2fbb554b81b6","system_id":"levelo_inurba_marseille","lat":43.25009,"lon":5.38918,"is_reserved":false,"is_disabled":false,"rental_uris":{"android":"levelo://app?vid=3514cf32-f5b9-4ece-ad78-2fbb554b81b6","ios":"levelo://app?vid=3514cf32-f5b9-4ece-ad78-2fbb554b81b6"},"vehicle_type_id":"4","last_reported":1733055436,"current_range_meters":18800,"station_id":"ce4bhgp2rcd13ifvqfd0","pricing_plan_id":"cebpf4jnsgd1na2vs0mg"},{"bike_id":"41329919-d8a6-4529-9c36-e6723e50ee60","system_id":"levelo_inurba_marseille","lat":43.30307,"lon":5.39202,"is_reserved":false,"is_disabled":true,"rental_uris":{"android":"levelo://app?vid=41329919-d8a6-4529-9c36-e6723e50ee60","ios":"levelo://app?vid=41329919-d8a6-4529-9c36-e6723e50ee60"},"vehicle_type_id":"4","last_reported":1733055436,"current_range_meters":30400,"station_id":"ce4bgkh2rcd13ifvqbk0","pricing_plan_id":"cebpf4jnsgd1na2vs0mg"},{"bike_id":"3ec2af63-7cba-4635-8a69-907574b70c71","system_id":"levelo_inurba_marseille","lat":43.23194,"lon":5.35555,"is_reserved":false,"is_disabled":false,"rental_uris":{"android":"levelo://app?vid=3ec2af63-7cba-4635-8a69-907574b70c71","ios":"levelo://app?vid=3ec2af63-7cba-4635-8a69-907574b70c71"},"vehicle_type_id":"4","last_reported":1733055436,"current_range_meters":39200,"station_id":"ce4bhu92rcd13ifvqi70","pricing_plan_id":"cebpf4jnsgd1na2vs0mg"},{"bike_id":"72a6ae14-ff81-4592-b7f6-c6c309b5f127","system_id":"levelo_inurba_marseille","lat":43.25504,"lon":5.37648,"is_reserved":false,"is_disabled":false,"rental_uris":{"android":"levelo://app?vid=72a6ae14-ff81-4592-b7f6-c6c309b5f127","ios":"levelo://app?vid=72a6ae14-ff81-4592-b7f6-c6c309b5f127"},"vehicle_type_id":"4","last_reported":1733055436,"current_range_meters":30400,"station_id":"ce4bhh12rcd13ifvqff0","pricing_plan_id":"cebpf4jnsgd1na2vs0mg"},{"bike_id":"f91c92a9-381f-4b6d-80c7-72d43980fc46","system_id":"levelo_inurba_marseille","lat":43.27068,"lon":5.42272,"is_reserved":false,"is_disabled":false,"rental_uris":{"android":"levelo://app?vid=f91c92a9-381f-4b6d-80c7-72d43980fc46","ios":"levelo://app?vid=f91c92a9-381f-4b6d-80c7-72d43980fc46"},"vehicle_type_id":"4","last_reported":1733055436,"current_range_meters":39200,"station_id":"ce4bhk92rcd13ifvqgb0","pricing_plan_id":"cebpf4jnsgd1na2vs0mg"},{"bike_id":"000b518d-442b-4752-8b9a-e2fc3654d286","system_id":"levelo_inurba_marseille","lat":43.29442,"lon":5.39757,"is_reserved":false,"is_disabled":true,"rental_uris":{"android":"levelo://app?vid=000b518d-442b-4752-8b9a-e2fc3654d286","ios":"levelo://app?vid=000b518d-442b-4752-8b9a-e2fc3654d286"},"vehicle_type_id":"4","last_reported":1733055436,"current_range_meters":16800,"station_id":"ce4bh3h2rcd13ifvqdo0","pricing_plan_id":"cebpf4jnsgd1na2vs0mg"},{"bike_id":"e36c7284-fef6-4d0c-9b81-2d7bf519cd53","system_id":"levelo_inurba_marseille","lat":43.28476,"lon":5.35883,"is_reserved":false,"is_disabled":false,"rental_uris":{"android":"levelo://app?vid=e36c7284-fef6-4d0c-9b81-2d7bf519cd53","ios":"levelo://app?vid=e36c7284-fef6-4d0c-9b81-2d7bf519cd53"},"vehicle_type_id":"4","last_reported":1733055436,"current_range_meters":8800,"station_id":"ce4bhah2rcd13ifvqei0","pricing_plan_id":"cebpf4jnsgd1na2vs0mg"},{"bike_id":"e39d22a4-daed-483a-acbb-550d4592cfe0","system_id":"levelo_inurba_marseille","lat":43.30061,"lon":5.38828,"is_reserved":false,"is_disabled":true,"rental_uris":{"android":"levelo://app?vid=e39d22a4-daed-483a-acbb-550d4592cfe0","ios":"levelo://app?vid=e39d22a4-daed-483a-acbb-550d4592cfe0"},"vehicle_type_id":"4","last_reported":1733055436,"current_range_meters":0,"station_id":"","pricing_plan_id":"cebpf4jnsgd1na2vs0mg"},{"bike_id":"dd286089-a453-43dc-a80c-4c3f6f42092c","system_id":"levelo_inurba_marseille","lat":43.29622,"lon":5.37158,"is_reserved":false,"is_disabled":false,"rental_uris":{"android":"levelo://app?vid=dd286089-a453-43dc-a80c-4c3f6f42092c","ios":"levelo://app?vid=dd286089-a453-43dc-a80c-4c3f6f42092c"},"vehicle_type_id":"4","last_reported":1733055436,"current_range_meters":36800,"station_id":"ce4bgnh2rcd13ifvqc0g","pricing_plan_id":"cebpf4jnsgd1na2vs0mg"},{"bike_id":"172dc3ef-e426-47b6-97cc-9102e129bc0a","system_id":"levelo_inurba_marseille","lat":43.30552,"lon":5.36704,"is_reserved":false,"is_disabled":false,"rental_uris":{"android":"levelo://app?vid=172dc3ef-e426-47b6-97cc-9102e129bc0a","ios":"levelo://app?vid=172dc3ef-e426-47b6-97cc-9102e129bc0a"},"vehicle_type_id":"4","last_reported":1733055436,"current_range_meters":37600,"station_id":"ce4bgrp2rcd13ifvqc9g","pricing_plan_id":"cebpf4jnsgd1na2vs0mg"},{"bike_id":"d9b65755-777a-471e-af75-f95e32f0a46b","system_id":"levelo_inurba_marseille","lat":43.30894,"lon":5.37206,"is_reserved":false,"is_disabled":false,"rental_uris":{"android":"levelo://app?vid=d9b65755-777a-471e-af75-f95e32f0a46b","ios":"levelo://app?vid=d9b65755-777a-471e-af75-f95e32f0a46b"},"vehicle_type_id":"4","last_reported":1733055436,"current_range_meters":35200,"station_id":"ce4bguh2rcd13ifvqckg","pricing_plan_id":"cebpf4jnsgd1na2vs0mg"},{"bike_id":"b958ec06-ed70-49d4-80e7-95da7765d3d0","system_id":"levelo_inurba_marseille","lat":43.28343,"lon":5.38104,"is_reserved":false,"is_disabled":false,"rental_uris":{"android":"levelo://app?vid=b958ec06-ed70-49d4-80e7-95da7765d3d0","ios":"levelo://app?vid=b958ec06-ed70-49d4-80e7-95da7765d3d0"},"vehicle_type_id":"4","last_reported":1733055436,"current_range_meters":29600,"station_id":"ce4bh412rcd13ifvqdr0","pricing_plan_id":"cebpf4jnsgd1na2vs0mg"},{"bike_id":"06e6470a-e7c6-43e1-8faf-2131a4d6a529","system_id":"levelo_inurba_marseille","lat":43.23186,"lon":5.39979,"is_reserved":false,"is_disabled":false,"rental_uris":{"android":"levelo://app?vid=06e6470a-e7c6-43e1-8faf-2131a4d6a529","ios":"levelo://app?vid=06e6470a-e7c6-43e1-8faf-2131a4d6a529"},"vehicle_type_id":"4","last_reported":1733055436,"current_range_meters":39200,"station_id":"ce4bhn12rcd13ifvqgqg","pricing_plan_id":"cebpf4jnsgd1na2vs0mg"},{"bike_id":"146284a5-4b7d-4ef6-9408-a5776916c05b","system_id":"levelo_inurba_marseille","lat":43.29191,"lon":5.35801,"is_reserved":false,"is_disabled":false,"rental_uris":{"android":"levelo://app?vid=146284a5-4b7d-4ef6-9408-a5776916c05b","ios":"levelo://app?vid=146284a5-4b7d-4ef6-9408-a5776916c05b"},"vehicle_type_id":"4","last_reported":1733055436,"current_range_meters":38000,"station_id":"ce4bhb12rcd13ifvqel0","pricing_plan_id":"cebpf4jnsgd1na2vs0mg"},{"bike_id":"b535dfd0-ec01-4a13-996f-71245b6113cc","system_id":"levelo_inurba_marseille","lat":43.27979,"lon":5.4123,"is_reserved":false,"is_disabled":true,"rental_uris":{"android":"levelo://app?vid=b535dfd0-ec01-4a13-996f-71245b6113cc","ios":"levelo://app?vid=b535dfd0-ec01-4a13-996f-71245b6113cc"},"vehicle_type_id":"4","last_reported":1733055436,"current_range_meters":0,"station_id":"","pricing_plan_id":"cebpf4jnsgd1na2vs0mg"},{"bike_id":"7451fdd3-8a88-42d0-a1d7-23d022db1520","system_id":"levelo_inurba_marseille","lat":43.23153,"lon":5.43707,"is_reserved":false,"is_disabled":false,"rental_uris":{"android":"levelo://app?vid=7451fdd3-8a88-42d0-a1d7-23d022db1520","ios":"levelo://app?vid=7451fdd3-8a88-42d0-a1d7-23d022db1520"},"vehicle_type_id":"4","last_reported":1733055436,"current_range_meters":8800,"station_id":"ce4bhmp2rcd13ifvqgog","pricing_plan_id":"cebpf4jnsgd1na2vs0mg"},{"bike_id":"fe853240-5b32-4d7a-b9ac-319bdea035a5","system_id":"levelo_inurba_marseille","lat":43.26553,"lon":5.37294,"is_reserved":false,"is_disabled":false,"rental_uris":{"android":"levelo://app?vid=fe853240-5b32-4d7a-b9ac-319bdea035a5","ios":"levelo://app?vid=fe853240-5b32-4d7a-b9ac-319bdea035a5"},"vehicle_type_id":"4","last_reported":1733055436,"current_range_meters":38800,"station_id":"ce4bhg12rcd13ifvqf70","pricing_plan_id":"cebpf4jnsgd1na2vs0mg"},{"bike_id":"b642d79a-bd2c-495a-acdd-099583f67bf5","system_id":"levelo_inurba_marseille","lat":43.32292,"lon":5.38274,"is_reserved":false,"is_disabled":false,"rental_uris":{"android":"levelo://app?vid=b642d79a-bd2c-495a-acdd-099583f67bf5","ios":"levelo://app?vid=b642d79a-bd2c-495a-acdd-099583f67bf5"},"vehicle_type_id":"4","last_reported":1733055436,"current_range_meters":26800,"station_id":"ce4bhr12rcd13ifvqhqg","pricing_plan_id":"cebpf4jnsgd1na2vs0mg"},{"bike_id":"2710ae12-498d-4d4c-9dae-cbee728298ff","system_id":"levelo_inurba_marseille","lat":43.292,"lon":5.39333,"is_reserved":false,"is_disabled":false,"rental_uris":{"android":"levelo://app?vid=2710ae12-498d-4d4c-9dae-cbee728298ff","ios":"levelo://app?vid=2710ae12-498d-4d4c-9dae-cbee728298ff"},"vehicle_type_id":"4","last_reported":1733055436,"current_range_meters":28400,"station_id":"ce4bh192rcd13ifvqdd0","pricing_plan_id":"cebpf4jnsgd1na2vs0mg"},{"bike_id":"aad4be0a-2a0d-4e6a-bfa0-4d4086eb2d91","system_id":"levelo_inurba_marseille","lat":43.23157,"lon":5.43705,"is_reserved":false,"is_disabled":false,"rental_uris":{"android":"levelo://app?vid=aad4be0a-2a0d-4e6a-bfa0-4d4086eb2d91","ios":"levelo://app?vid=aad4be0a-2a0d-4e6a-bfa0-4d4086eb2d91"},"vehicle_type_id":"4","last_reported":1733055436,"current_range_meters":39200,"station_id":"ce4bhmp2rcd13ifvqgog","pricing_plan_id":"cebpf4jnsgd1na2vs0mg"},{"bike_id":"2ebf3b3c-662f-41a2-b8dc-68990b8b5b78","system_id":"levelo_inurba_marseille","lat":43.27069,"lon":5.42274,"is_reserved":false,"is_disabled":false,"rental_uris":{"android":"levelo://app?vid=2ebf3b3c-662f-41a2-b8dc-68990b8b5b78","ios":"levelo://app?vid=2ebf3b3c-662f-41a2-b8dc-68990b8b5b78"},"vehicle_type_id":"4","last_reported":1733055436,"current_range_meters":10800,"station_id":"ce4bhk92rcd13ifvqgb0","pricing_plan_id":"cebpf4jnsgd1na2vs0mg"},{"bike_id":"5b9d6f48-f6d1-42ec-91ce-2705b20346f7","system_id":"levelo_inurba_marseille","lat":43.276177,"lon":5.361028,"is_reserved":false,"is_disabled":true,"rental_uris":{"android":"levelo://app?vid=5b9d6f48-f6d1-42ec-91ce-2705b20346f7","ios":"levelo://app?vid=5b9d6f48-f6d1-42ec-91ce-2705b20346f7"},"vehicle_type_id":"4","last_reported":1733055436,"current_range_meters":38800,"station_id":"ce4bgj92rcd13ifvqbe0","pricing_plan_id":"cebpf4jnsgd1na2vs0mg"},{"bike_id":"dfae53f2-2072-45ad-83ba-eb288c672871","system_id":"levelo_inurba_marseille","lat":43.3089,"lon":5.37203,"is_reserved":false,"is_disabled":false,"rental_uris":{"android":"levelo://app?vid=dfae53f2-2072-45ad-83ba-eb288c672871","ios":"levelo://app?vid=dfae53f2-2072-45ad-83ba-eb288c672871"},"vehicle_type_id":"4","last_reported":1733055436,"current_range_meters":38800,"station_id":"ce4bguh2rcd13ifvqckg","pricing_plan_id":"cebpf4jnsgd1na2vs0mg"},{"bike_id":"0174841e-8011-4a7b-bd18-480101bee765","system_id":"levelo_inurba_marseille","lat":43.239579,"lon":5.366234,"is_reserved":false,"is_disabled":true,"rental_uris":{"android":"levelo://app?vid=0174841e-8011-4a7b-bd18-480101bee765","ios":"levelo://app?vid=0174841e-8011-4a7b-bd18-480101bee765"},"vehicle_type_id":"4","last_reported":1733055436,"current_range_meters":0,"station_id":"ce4bhi12rcd13ifvqfp0","pricing_plan_id":"cebpf4jnsgd1na2vs0mg"},{"bike_id":"55aa419e-7ca9-4f29-976a-fefd7a814401","system_id":"levelo_inurba_marseille","lat":43.30129,"lon":5.38785,"is_reserved":false,"is_disabled":true,"rental_uris":{"android":"levelo://app?vid=55aa419e-7ca9-4f29-976a-fefd7a814401","ios":"levelo://app?vid=55aa419e-7ca9-4f29-976a-fefd7a814401"},"vehicle_type_id":"4","last_reported":1733055436,"current_range_meters":17600,"station_id":"ce4bghh2rcd13ifvqb60","pricing_plan_id":"cebpf4jnsgd1na2vs0mg"},{"bike_id":"392ed467-c98e-49c3-a553-d15f1b84f0fb","system_id":"levelo_inurba_marseille","lat":43.29913,"lon":5.37476,"is_reserved":false,"is_disabled":false,"rental_uris":{"android":"levelo://app?vid=392ed467-c98e-49c3-a553-d15f1b84f0fb","ios":"levelo://app?vid=392ed467-c98e-49c3-a553-d15f1b84f0fb"},"vehicle_type_id":"4","last_reported":1733055436,"current_range_meters":25600,"station_id":"ce4bgjh2rcd13ifvqbg0","pricing_plan_id":"cebpf4jnsgd1na2vs0mg"},{"bike_id":"0536664d-4638-48d0-8973-af9cf4815779","system_id":"levelo_inurba_marseille","lat":43.267031,"lon":5.382618,"is_reserved":false,"is_disabled":false,"rental_uris":{"android":"levelo://app?vid=0536664d-4638-48d0-8973-af9cf4815779","ios":"levelo://app?vid=0536664d-4638-48d0-8973-af9cf4815779"},"vehicle_type_id":"4","last_reported":1733055436,"current_range_meters":15200,"station_id":"ce4bhg92rcd13ifvqf90","pricing_plan_id":"cebpf4jnsgd1na2vs0mg"},{"bike_id":"262270e0-06ab-4688-b230-a02986ac1076","system_id":"levelo_inurba_marseille","lat":43.30537,"lon":5.367,"is_reserved":false,"is_disabled":false,"rental_uris":{"android":"levelo://app?vid=262270e0-06ab-4688-b230-a02986ac1076","ios":"levelo://app?vid=262270e0-06ab-4688-b230-a02986ac1076"},"vehicle_type_id":"4","last_reported":1733055436,"current_range_meters":36800,"station_id":"ce4bgrp2rcd13ifvqc9g","pricing_plan_id":"cebpf4jnsgd1na2vs0mg"},{"bike_id":"b865fc91-8492-47fa-aa3a-17e7ae7b2327","system_id":"levelo_inurba_marseille","lat":43.28673,"lon":5.38646,"is_reserved":false,"is_disabled":false,"rental_uris":{"android":"levelo://app?vid=b865fc91-8492-47fa-aa3a-17e7ae7b2327","ios":"levelo://app?vid=b865fc91-8492-47fa-aa3a-17e7ae7b2327"},"vehicle_type_id":"4","last_reported":1733055436,"current_range_meters":28400,"station_id":"ce4bh492rcd13ifvqdug","pricing_plan_id":"cebpf4jnsgd1na2vs0mg"},{"bike_id":"a233b25b-869e-422b-bf5e-63d3d8ff686f","system_id":"levelo_inurba_marseille","lat":43.30927,"lon":5.40155,"is_reserved":false,"is_disabled":true,"rental_uris":{"android":"levelo://app?vid=a233b25b-869e-422b-bf5e-63d3d8ff686f","ios":"levelo://app?vid=a233b25b-869e-422b-bf5e-63d3d8ff686f"},"vehicle_type_id":"4","last_reported":1733055436,"current_range_meters":39200,"station_id":"ce4bgvp2rcd13ifvqct0","pricing_plan_id":"cebpf4jnsgd1na2vs0mg"},{"bike_id":"ca06fb5f-11e1-4d8e-8f6e-d8bf571b0044","system_id":"levelo_inurba_marseille","lat":43.311201,"lon":5.384384,"is_reserved":false,"is_disabled":false,"rental_uris":{"android":"levelo://app?vid=ca06fb5f-11e1-4d8e-8f6e-d8bf571b0044","ios":"levelo://app?vid=ca06fb5f-11e1-4d8e-8f6e-d8bf571b0044"},"vehicle_type_id":"4","last_reported":1733055436,"current_range_meters":16000,"station_id":"","pricing_plan_id":"cebpf4jnsgd1na2vs0mg"},{"bike_id":"d3d123b9-bf77-4e17-859d-89236002e59e","system_id":"levelo_inurba_marseille","lat":43.3236,"lon":5.36761,"is_reserved":false,"is_disabled":true,"rental_uris":{"android":"levelo://app?vid=d3d123b9-bf77-4e17-859d-89236002e59e","ios":"levelo://app?vid=d3d123b9-bf77-4e17-859d-89236002e59e"},"vehicle_type_id":"4","last_reported":1733055436,"current_range_meters":1600,"station_id":"ce4bhsh2rcd13ifvqi2g","pricing_plan_id":"cebpf4jnsgd1na2vs0mg"},{"bike_id":"470a565b-967f-45c0-83b5-74eebed86124","system_id":"levelo_inurba_marseille","lat":43.23149,"lon":5.43707,"is_reserved":false,"is_disabled":false,"rental_uris":{"android":"levelo://app?vid=470a565b-967f-45c0-83b5-74eebed86124","ios":"levelo://app?vid=470a565b-967f-45c0-83b5-74eebed86124"},"vehicle_type_id":"4","last_reported":1733055436,"current_range_meters":39200,"station_id":"ce4bhmp2rcd13ifvqgog","pricing_plan_id":"cebpf4jnsgd1na2vs0mg"},{"bike_id":"69b8692f-d373-4358-8def-53f8513b914e","system_id":"levelo_inurba_marseille","lat":43.30183,"lon":5.37414,"is_reserved":false,"is_disabled":false,"rental_uris":{"android":"levelo://app?vid=69b8692f-d373-4358-8def-53f8513b914e","ios":"levelo://app?vid=69b8692f-d373-4358-8def-53f8513b914e"},"vehicle_type_id":"4","last_reported":1733055436,"current_range_meters":34800,"station_id":"ce4bgs92rcd13ifvqcc0","pricing_plan_id":"cebpf4jnsgd1na2vs0mg"},{"bike_id":"7db095fe-335f-455d-9456-2582bbc72d93","system_id":"levelo_inurba_marseille","lat":43.29906,"lon":5.4369,"is_reserved":false,"is_disabled":false,"rental_uris":{"android":"levelo://app?vid=7db095fe-335f-455d-9456-2582bbc72d93","ios":"levelo://app?vid=7db095fe-335f-455d-9456-2582bbc72d93"},"vehicle_type_id":"4","last_reported":1733055436,"current_range_meters":18000,"station_id":"ce4bhpp2rcd13ifvqhfg","pricing_plan_id":"cebpf4jnsgd1na2vs0mg"},{"bike_id":"ddbda7d5-c035-4416-b36b-d29a627465ea","system_id":"levelo_inurba_marseille","lat":43.25006,"lon":5.38922,"is_reserved":false,"is_disabled":false,"rental_uris":{"android":"levelo://app?vid=ddbda7d5-c035-4416-b36b-d29a627465ea","ios":"levelo://app?vid=ddbda7d5-c035-4416-b36b-d29a627465ea"},"vehicle_type_id":"4","last_reported":1733055436,"current_range_meters":39200,"station_id":"ce4bhgp2rcd13ifvqfd0","pricing_plan_id":"cebpf4jnsgd1na2vs0mg"},{"bike_id":"88183074-a1e9-422b-a8f9-2b90a164f7d9","system_id":"levelo_inurba_marseille","lat":43.31713,"lon":5.37754,"is_reserved":false,"is_disabled":false,"rental_uris":{"android":"levelo://app?vid=88183074-a1e9-422b-a8f9-2b90a164f7d9","ios":"levelo://app?vid=88183074-a1e9-422b-a8f9-2b90a164f7d9"},"vehicle_type_id":"4","last_reported":1733055436,"current_range_meters":13600,"station_id":"ce4bgth2rcd13ifvqch0","pricing_plan_id":"cebpf4jnsgd1na2vs0mg"},{"bike_id":"936c1587-a2e2-4ba6-b45d-aae2e4b4059b","system_id":"levelo_inurba_marseille","lat":43.32046,"lon":5.41546,"is_reserved":false,"is_disabled":false,"rental_uris":{"android":"levelo://app?vid=936c1587-a2e2-4ba6-b45d-aae2e4b4059b","ios":"levelo://app?vid=936c1587-a2e2-4ba6-b45d-aae2e4b4059b"},"vehicle_type_id":"4","last_reported":1733055436,"current_range_meters":39200,"station_id":"ce4bhq92rcd13ifvqhkg","pricing_plan_id":"cebpf4jnsgd1na2vs0mg"},{"bike_id":"bab2c541-cee6-43ec-9133-02677927cda0","system_id":"levelo_inurba_marseille","lat":43.30138,"lon":5.37421,"is_reserved":false,"is_disabled":false,"rental_uris":{"android":"levelo://app?vid=bab2c541-cee6-43ec-9133-02677927cda0","ios":"levelo://app?vid=bab2c541-cee6-43ec-9133-02677927cda0"},"vehicle_type_id":"4","last_reported":1733055436,"current_range_meters":30000,"station_id":"ce4bgs92rcd13ifvqcc0","pricing_plan_id":"cebpf4jnsgd1na2vs0mg"},{"bike_id":"42dff1c4-6053-46d6-ab14-2b44877e8b55","system_id":"levelo_inurba_marseille","lat":43.28439,"lon":5.39177,"is_reserved":false,"is_disabled":true,"rental_uris":{"android":"levelo://app?vid=42dff1c4-6053-46d6-ab14-2b44877e8b55","ios":"levelo://app?vid=42dff1c4-6053-46d6-ab14-2b44877e8b55"},"vehicle_type_id":"4","last_reported":1733055436,"current_range_meters":38000,"station_id":"ce4bhoh2rcd13ifvqh5g","pricing_plan_id":"cebpf4jnsgd1na2vs0mg"},{"bike_id":"27d13c7a-6338-48dc-81dd-618b3e4ff60b","system_id":"levelo_inurba_marseille","lat":43.283535,"lon":5.38635,"is_reserved":false,"is_disabled":true,"rental_uris":{"android":"levelo://app?vid=27d13c7a-6338-48dc-81dd-618b3e4ff60b","ios":"levelo://app?vid=27d13c7a-6338-48dc-81dd-618b3e4ff60b"},"vehicle_type_id":"4","last_reported":1733055436,"current_range_meters":35600,"station_id":"ce4bh492rcd13ifvqdvg","pricing_plan_id":"cebpf4jnsgd1na2vs0mg"},{"bike_id":"0f8edec0-f136-4c1f-a760-62f59eff8274","system_id":"levelo_inurba_marseille","lat":43.24995,"lon":5.38935,"is_reserved":false,"is_disabled":false,"rental_uris":{"android":"levelo://app?vid=0f8edec0-f136-4c1f-a760-62f59eff8274","ios":"levelo://app?vid=0f8edec0-f136-4c1f-a760-62f59eff8274"},"vehicle_type_id":"4","last_reported":1733055436,"current_range_meters":28800,"station_id":"ce4bhgp2rcd13ifvqfd0","pricing_plan_id":"cebpf4jnsgd1na2vs0mg"},{"bike_id":"13151158-c4ba-49c7-a920-9a61c5dd56f2","system_id":"levelo_inurba_marseille","lat":43.23958,"lon":5.36622,"is_reserved":false,"is_disabled":true,"rental_uris":{"android":"levelo://app?vid=13151158-c4ba-49c7-a920-9a61c5dd56f2","ios":"levelo://app?vid=13151158-c4ba-49c7-a920-9a61c5dd56f2"},"vehicle_type_id":"4","last_reported":1733055436,"current_range_meters":0,"station_id":"ce4bhi12rcd13ifvqfp0","pricing_plan_id":"cebpf4jnsgd1na2vs0mg"},{"bike_id":"01c85149-3b8e-4d00-ac31-e11aec42a0bc","system_id":"levelo_inurba_marseille","lat":43.28618,"lon":5.35113,"is_reserved":false,"is_disabled":false,"rental_uris":{"android":"levelo://app?vid=01c85149-3b8e-4d00-ac31-e11aec42a0bc","ios":"levelo://app?vid=01c85149-3b8e-4d00-ac31-e11aec42a0bc"},"vehicle_type_id":"4","last_reported":1733055436,"current_range_meters":37600,"station_id":"ce4bhch2rcd13ifvqeug","pricing_plan_id":"cebpf4jnsgd1na2vs0mg"},{"bike_id":"adc9a6eb-5660-4758-b98d-dc734f2ec7e6","system_id":"levelo_inurba_marseille","lat":43.27382,"lon":5.36254,"is_reserved":false,"is_disabled":false,"rental_uris":{"android":"levelo://app?vid=adc9a6eb-5660-4758-b98d-dc734f2ec7e6","ios":"levelo://app?vid=adc9a6eb-5660-4758-b98d-dc734f2ec7e6"},"vehicle_type_id":"4","last_reported":1733055436,"current_range_meters":38000,"station_id":"ce4bhbh2rcd13ifvqeo0","pricing_plan_id":"cebpf4jnsgd1na2vs0mg"},{"bike_id":"acf4a756-d86a-4aba-99d9-8148b7db3378","system_id":"levelo_inurba_marseille","lat":43.27989,"lon":5.39998,"is_reserved":false,"is_disabled":true,"rental_uris":{"android":"levelo://app?vid=acf4a756-d86a-4aba-99d9-8148b7db3378","ios":"levelo://app?vid=acf4a756-d86a-4aba-99d9-8148b7db3378"},"vehicle_type_id":"4","last_reported":1733055436,"current_range_meters":0,"station_id":"ce4bho92rcd13ifvqh4g","pricing_plan_id":"cebpf4jnsgd1na2vs0mg"},{"bike_id":"4018fb8f-45f3-45d0-a054-90a03257f3a3","system_id":"levelo_inurba_marseille","lat":43.283164,"lon":5.405389,"is_reserved":false,"is_disabled":false,"rental_uris":{"android":"levelo://app?vid=4018fb8f-45f3-45d0-a054-90a03257f3a3","ios":"levelo://app?vid=4018fb8f-45f3-45d0-a054-90a03257f3a3"},"vehicle_type_id":"4","last_reported":1733055436,"current_range_meters":23200,"station_id":"","pricing_plan_id":"cebpf4jnsgd1na2vs0mg"},{"bike_id":"98022c44-2dc7-4cdf-81e2-6e45dbf66850","system_id":"levelo_inurba_marseille","lat":43.24061,"lon":5.37761,"is_reserved":false,"is_disabled":false,"rental_uris":{"android":"levelo://app?vid=98022c44-2dc7-4cdf-81e2-6e45dbf66850","ios":"levelo://app?vid=98022c44-2dc7-4cdf-81e2-6e45dbf66850"},"vehicle_type_id":"4","last_reported":1733055436,"current_range_meters":40000,"station_id":"ce4bhnp2rcd13ifvqgvg","pricing_plan_id":"cebpf4jnsgd1na2vs0mg"},{"bike_id":"0b599ab6-8aa2-4c0d-9eb9-d06ec168c68a","system_id":"levelo_inurba_marseille","lat":43.28481,"lon":5.3841,"is_reserved":false,"is_disabled":true,"rental_uris":{"android":"levelo://app?vid=0b599ab6-8aa2-4c0d-9eb9-d06ec168c68a","ios":"levelo://app?vid=0b599ab6-8aa2-4c0d-9eb9-d06ec168c68a"},"vehicle_type_id":"4","last_reported":1733055436,"current_range_meters":400,"station_id":"ce4bh512rcd13ifvqe3g","pricing_plan_id":"cebpf4jnsgd1na2vs0mg"},{"bike_id":"069ca376-6bc6-4398-8719-e988c7734b85","system_id":"levelo_inurba_marseille","lat":43.27371,"lon":5.36259,"is_reserved":false,"is_disabled":false,"rental_uris":{"android":"levelo://app?vid=069ca376-6bc6-4398-8719-e988c7734b85","ios":"levelo://app?vid=069ca376-6bc6-4398-8719-e988c7734b85"},"vehicle_type_id":"4","last_reported":1733055436,"current_range_meters":39200,"station_id":"ce4bhbh2rcd13ifvqeo0","pricing_plan_id":"cebpf4jnsgd1na2vs0mg"},{"bike_id":"9dfdc8f1-eeba-424f-ad09-1bb5a92dd300","system_id":"levelo_inurba_marseille","lat":43.33022,"lon":5.39036,"is_reserved":false,"is_disabled":false,"rental_uris":{"android":"levelo://app?vid=9dfdc8f1-eeba-424f-ad09-1bb5a92dd300","ios":"levelo://app?vid=9dfdc8f1-eeba-424f-ad09-1bb5a92dd300"},"vehicle_type_id":"4","last_reported":1733055436,"current_range_meters":38800,"station_id":"ce4bhr92rcd13ifvqhrg","pricing_plan_id":"cebpf4jnsgd1na2vs0mg"},{"bike_id":"1c06769a-bc50-446f-9800-91cbec923465","system_id":"levelo_inurba_marseille","lat":43.30453,"lon":5.38898,"is_reserved":false,"is_disabled":false,"rental_uris":{"android":"levelo://app?vid=1c06769a-bc50-446f-9800-91cbec923465","ios":"levelo://app?vid=1c06769a-bc50-446f-9800-91cbec923465"},"vehicle_type_id":"4","last_reported":1733055436,"current_range_meters":38800,"station_id":"ce4bgk12rcd13ifvqbi0","pricing_plan_id":"cebpf4jnsgd1na2vs0mg"},{"bike_id":"e0161261-fd33-45e3-8038-51d77778a6b0","system_id":"levelo_inurba_marseille","lat":43.306543,"lon":5.400886,"is_reserved":false,"is_disabled":true,"rental_uris":{"android":"levelo://app?vid=e0161261-fd33-45e3-8038-51d77778a6b0","ios":"levelo://app?vid=e0161261-fd33-45e3-8038-51d77778a6b0"},"vehicle_type_id":"4","last_reported":1733055436,"current_range_meters":36000,"station_id":"ce4bh112rcd13ifvqda0","pricing_plan_id":"cebpf4jnsgd1na2vs0mg"},{"bike_id":"1c60f751-c76e-427a-9405-56fb50489dfd","system_id":"levelo_inurba_marseille","lat":43.30907,"lon":5.36859,"is_reserved":false,"is_disabled":false,"rental_uris":{"android":"levelo://app?vid=1c60f751-c76e-427a-9405-56fb50489dfd","ios":"levelo://app?vid=1c60f751-c76e-427a-9405-56fb50489dfd"},"vehicle_type_id":"4","last_reported":1733055436,"current_range_meters":36800,"station_id":"ce4bgn92rcd13ifvqbvg","pricing_plan_id":"cebpf4jnsgd1na2vs0mg"},{"bike_id":"2d81c6f8-d5bc-4c4d-8db7-2152f5880f4d","system_id":"levelo_inurba_marseille","lat":43.30506,"lon":5.38178,"is_reserved":false,"is_disabled":false,"rental_uris":{"android":"levelo://app?vid=2d81c6f8-d5bc-4c4d-8db7-2152f5880f4d","ios":"levelo://app?vid=2d81c6f8-d5bc-4c4d-8db7-2152f5880f4d"},"vehicle_type_id":"4","last_reported":1733055436,"current_range_meters":7200,"station_id":"ce4bgup2rcd13ifvqcn0","pricing_plan_id":"cebpf4jnsgd1na2vs0mg"},{"bike_id":"5fd470f3-da62-48ec-8bb8-3493555d1763","system_id":"levelo_inurba_marseille","lat":43.29538,"lon":5.37513,"is_reserved":false,"is_disabled":true,"rental_uris":{"android":"levelo://app?vid=5fd470f3-da62-48ec-8bb8-3493555d1763","ios":"levelo://app?vid=5fd470f3-da62-48ec-8bb8-3493555d1763"},"vehicle_type_id":"4","last_reported":1733055436,"current_range_meters":24400,"station_id":"ce4bgkp2rcd13ifvqbmg","pricing_plan_id":"cebpf4jnsgd1na2vs0mg"},{"bike_id":"df175e35-a109-455b-a549-3a0af8fc4135","system_id":"levelo_inurba_marseille","lat":43.26684,"lon":5.38277,"is_reserved":false,"is_disabled":true,"rental_uris":{"android":"levelo://app?vid=df175e35-a109-455b-a549-3a0af8fc4135","ios":"levelo://app?vid=df175e35-a109-455b-a549-3a0af8fc4135"},"vehicle_type_id":"4","last_reported":1733055436,"current_range_meters":20400,"station_id":"ce4bhg92rcd13ifvqf90","pricing_plan_id":"cebpf4jnsgd1na2vs0mg"},{"bike_id":"68f984c9-51a6-4902-b463-f264f9fe3444","system_id":"levelo_inurba_marseille","lat":43.32539,"lon":5.4146,"is_reserved":false,"is_disabled":false,"rental_uris":{"android":"levelo://app?vid=68f984c9-51a6-4902-b463-f264f9fe3444","ios":"levelo://app?vid=68f984c9-51a6-4902-b463-f264f9fe3444"},"vehicle_type_id":"4","last_reported":1733055436,"current_range_meters":38000,"station_id":"ce4bhq12rcd13ifvqhhg","pricing_plan_id":"cebpf4jnsgd1na2vs0mg"},{"bike_id":"ebaa904e-bc87-46fe-8951-7f1d176fdb4c","system_id":"levelo_inurba_marseille","lat":43.3127,"lon":5.40165,"is_reserved":false,"is_disabled":true,"rental_uris":{"android":"levelo://app?vid=ebaa904e-bc87-46fe-8951-7f1d176fdb4c","ios":"levelo://app?vid=ebaa904e-bc87-46fe-8951-7f1d176fdb4c"},"vehicle_type_id":"4","last_reported":1733055436,"current_range_meters":0,"station_id":"ce4bh092rcd13ifvqd30","pricing_plan_id":"cebpf4jnsgd1na2vs0mg"},{"bike_id":"7dc14cd5-519a-4377-b132-e24a231560fe","system_id":"levelo_inurba_marseille","lat":43.29528,"lon":5.38547,"is_reserved":false,"is_disabled":false,"rental_uris":{"android":"levelo://app?vid=7dc14cd5-519a-4377-b132-e24a231560fe","ios":"levelo://app?vid=7dc14cd5-519a-4377-b132-e24a231560fe"},"vehicle_type_id":"4","last_reported":1733055436,"current_range_meters":12000,"station_id":"ce4bgih2rcd13ifvqba0","pricing_plan_id":"cebpf4jnsgd1na2vs0mg"},{"bike_id":"ce20c844-7914-4b0b-b70c-e7bdec0d808d","system_id":"levelo_inurba_marseille","lat":43.25939,"lon":5.40902,"is_reserved":false,"is_disabled":false,"rental_uris":{"android":"levelo://app?vid=ce20c844-7914-4b0b-b70c-e7bdec0d808d","ios":"levelo://app?vid=ce20c844-7914-4b0b-b70c-e7bdec0d808d"},"vehicle_type_id":"4","last_reported":1733055436,"current_range_meters":12800,"station_id":"ce4bhm92rcd13ifvqglg","pricing_plan_id":"cebpf4jnsgd1na2vs0mg"},{"bike_id":"e1720e83-e59b-4833-87de-8126d21692a5","system_id":"levelo_inurba_marseille","lat":43.28354,"lon":5.38621,"is_reserved":false,"is_disabled":true,"rental_uris":{"android":"levelo://app?vid=e1720e83-e59b-4833-87de-8126d21692a5","ios":"levelo://app?vid=e1720e83-e59b-4833-87de-8126d21692a5"},"vehicle_type_id":"4","last_reported":1733055436,"current_range_meters":23200,"station_id":"ce4bh492rcd13ifvqdvg","pricing_plan_id":"cebpf4jnsgd1na2vs0mg"},{"bike_id":"529806b2-f5fd-4387-a192-cc5012ca3399","system_id":"levelo_inurba_marseille","lat":43.24805,"lon":5.37454,"is_reserved":false,"is_disabled":false,"rental_uris":{"android":"levelo://app?vid=529806b2-f5fd-4387-a192-cc5012ca3399","ios":"levelo://app?vid=529806b2-f5fd-4387-a192-cc5012ca3399"},"vehicle_type_id":"4","last_reported":1733055436,"current_range_meters":23200,"station_id":"ce4bhgh2rcd13ifvqfb0","pricing_plan_id":"cebpf4jnsgd1na2vs0mg"},{"bike_id":"810c2c36-b10e-4a0c-b6e6-91a7917111b2","system_id":"levelo_inurba_marseille","lat":43.26788,"lon":5.39413,"is_reserved":false,"is_disabled":false,"rental_uris":{"android":"levelo://app?vid=810c2c36-b10e-4a0c-b6e6-91a7917111b2","ios":"levelo://app?vid=810c2c36-b10e-4a0c-b6e6-91a7917111b2"},"vehicle_type_id":"4","last_reported":1733055436,"current_range_meters":6400,"station_id":"ce4bhh12rcd13ifvqfg0","pricing_plan_id":"cebpf4jnsgd1na2vs0mg"},{"bike_id":"c2ebbe03-16bf-43c6-8ef4-8c135e69005b","system_id":"levelo_inurba_marseille","lat":43.31332,"lon":5.39695,"is_reserved":false,"is_disabled":false,"rental_uris":{"android":"levelo://app?vid=c2ebbe03-16bf-43c6-8ef4-8c135e69005b","ios":"levelo://app?vid=c2ebbe03-16bf-43c6-8ef4-8c135e69005b"},"vehicle_type_id":"4","last_reported":1733055436,"current_range_meters":32800,"station_id":"ce4bgvp2rcd13ifvqcu0","pricing_plan_id":"cebpf4jnsgd1na2vs0mg"},{"bike_id":"7af4e189-039e-4775-ae57-ac26379e5fae","system_id":"levelo_inurba_marseille","lat":43.25494,"lon":5.37663,"is_reserved":false,"is_disabled":false,"rental_uris":{"android":"levelo://app?vid=7af4e189-039e-4775-ae57-ac26379e5fae","ios":"levelo://app?vid=7af4e189-039e-4775-ae57-ac26379e5fae"},"vehicle_type_id":"4","last_reported":1733055436,"current_range_meters":39200,"station_id":"ce4bhh12rcd13ifvqff0","pricing_plan_id":"cebpf4jnsgd1na2vs0mg"},{"bike_id":"f8d592a2-1761-4fc2-ae68-7688d9a28c14","system_id":"levelo_inurba_marseille","lat":43.2795,"lon":5.38685,"is_reserved":false,"is_disabled":true,"rental_uris":{"android":"levelo://app?vid=f8d592a2-1761-4fc2-ae68-7688d9a28c14","ios":"levelo://app?vid=f8d592a2-1761-4fc2-ae68-7688d9a28c14"},"vehicle_type_id":"4","last_reported":1733055436,"current_range_meters":0,"station_id":"","pricing_plan_id":"cebpf4jnsgd1na2vs0mg"},{"bike_id":"240953f0-b7b0-454b-a5ce-7cb6500cf7ea","system_id":"levelo_inurba_marseille","lat":43.25085,"lon":5.39526,"is_reserved":false,"is_disabled":false,"rental_uris":{"android":"levelo://app?vid=240953f0-b7b0-454b-a5ce-7cb6500cf7ea","ios":"levelo://app?vid=240953f0-b7b0-454b-a5ce-7cb6500cf7ea"},"vehicle_type_id":"4","last_reported":1733055436,"current_range_meters":39200,"station_id":"ce4bhm12rcd13ifvqgkg","pricing_plan_id":"cebpf4jnsgd1na2vs0mg"},{"bike_id":"5e1e37c0-8410-4b39-b3ea-c00fd6371bc5","system_id":"levelo_inurba_marseille","lat":43.30903,"lon":5.36859,"is_reserved":false,"is_disabled":false,"rental_uris":{"android":"levelo://app?vid=5e1e37c0-8410-4b39-b3ea-c00fd6371bc5","ios":"levelo://app?vid=5e1e37c0-8410-4b39-b3ea-c00fd6371bc5"},"vehicle_type_id":"4","last_reported":1733055436,"current_range_meters":40000,"station_id":"ce4bgn92rcd13ifvqbvg","pricing_plan_id":"cebpf4jnsgd1na2vs0mg"},{"bike_id":"7dc2caec-37b5-482a-abad-d1d2f62e7e82","system_id":"levelo_inurba_marseille","lat":43.31289,"lon":5.37026,"is_reserved":false,"is_disabled":true,"rental_uris":{"android":"levelo://app?vid=7dc2caec-37b5-482a-abad-d1d2f62e7e82","ios":"levelo://app?vid=7dc2caec-37b5-482a-abad-d1d2f62e7e82"},"vehicle_type_id":"4","last_reported":1733055436,"current_range_meters":0,"station_id":"","pricing_plan_id":"cebpf4jnsgd1na2vs0mg"},{"bike_id":"2fe1475a-f439-498a-8f60-6952750556e8","system_id":"levelo_inurba_marseille","lat":43.25866,"lon":5.39897,"is_reserved":false,"is_disabled":false,"rental_uris":{"android":"levelo://app?vid=2fe1475a-f439-498a-8f60-6952750556e8","ios":"levelo://app?vid=2fe1475a-f439-498a-8f60-6952750556e8"},"vehicle_type_id":"4","last_reported":1733055436,"current_range_meters":38400,"station_id":"ce4bhl92rcd13ifvqghg","pricing_plan_id":"cebpf4jnsgd1na2vs0mg"},{"bike_id":"8744bd08-647b-4e39-a3f8-5a2a02b33153","system_id":"levelo_inurba_marseille","lat":43.23183,"lon":5.39995,"is_reserved":false,"is_disabled":false,"rental_uris":{"android":"levelo://app?vid=8744bd08-647b-4e39-a3f8-5a2a02b33153","ios":"levelo://app?vid=8744bd08-647b-4e39-a3f8-5a2a02b33153"},"vehicle_type_id":"4","last_reported":1733055436,"current_range_meters":18800,"station_id":"ce4bhn12rcd13ifvqgqg","pricing_plan_id":"cebpf4jnsgd1na2vs0mg"},{"bike_id":"36219fa8-f234-4c29-9a3b-0f84b7256747","system_id":"levelo_inurba_marseille","lat":43.25011,"lon":5.38932,"is_reserved":false,"is_disabled":false,"rental_uris":{"android":"levelo://app?vid=36219fa8-f234-4c29-9a3b-0f84b7256747","ios":"levelo://app?vid=36219fa8-f234-4c29-9a3b-0f84b7256747"},"vehicle_type_id":"4","last_reported":1733055436,"current_range_meters":30800,"station_id":"ce4bhgp2rcd13ifvqfd0","pricing_plan_id":"cebpf4jnsgd1na2vs0mg"},{"bike_id":"9dd1fc98-a89e-437a-b707-6eb8b3c899e8","system_id":"levelo_inurba_marseille","lat":43.29037,"lon":5.3593,"is_reserved":false,"is_disabled":true,"rental_uris":{"android":"levelo://app?vid=9dd1fc98-a89e-437a-b707-6eb8b3c899e8","ios":"levelo://app?vid=9dd1fc98-a89e-437a-b707-6eb8b3c899e8"},"vehicle_type_id":"4","last_reported":1733055436,"current_range_meters":0,"station_id":"ce4bha92rcd13ifvqeg0","pricing_plan_id":"cebpf4jnsgd1na2vs0mg"},{"bike_id":"6af591e9-9159-4393-b062-0ac49724e7eb","system_id":"levelo_inurba_marseille","lat":43.27375,"lon":5.36275,"is_reserved":false,"is_disabled":false,"rental_uris":{"android":"levelo://app?vid=6af591e9-9159-4393-b062-0ac49724e7eb","ios":"levelo://app?vid=6af591e9-9159-4393-b062-0ac49724e7eb"},"vehicle_type_id":"4","last_reported":1733055436,"current_range_meters":24000,"station_id":"ce4bhbh2rcd13ifvqeo0","pricing_plan_id":"cebpf4jnsgd1na2vs0mg"},{"bike_id":"aea6b7a8-fa3c-4842-89c6-693b08a99724","system_id":"levelo_inurba_marseille","lat":43.29623,"lon":5.37154,"is_reserved":false,"is_disabled":false,"rental_uris":{"android":"levelo://app?vid=aea6b7a8-fa3c-4842-89c6-693b08a99724","ios":"levelo://app?vid=aea6b7a8-fa3c-4842-89c6-693b08a99724"},"vehicle_type_id":"4","last_reported":1733055436,"current_range_meters":37600,"station_id":"ce4bgnh2rcd13ifvqc0g","pricing_plan_id":"cebpf4jnsgd1na2vs0mg"},{"bike_id":"1e19427e-4ee3-4cef-aeae-b7fc337401ba","system_id":"levelo_inurba_marseille","lat":43.29614,"lon":5.37704,"is_reserved":false,"is_disabled":false,"rental_uris":{"android":"levelo://app?vid=1e19427e-4ee3-4cef-aeae-b7fc337401ba","ios":"levelo://app?vid=1e19427e-4ee3-4cef-aeae-b7fc337401ba"},"vehicle_type_id":"4","last_reported":1733055436,"current_range_meters":30800,"station_id":"ce4bgi92rcd13ifvqb90","pricing_plan_id":"cebpf4jnsgd1na2vs0mg"},{"bike_id":"bea43fe6-0ab8-4ff0-afcb-1dc4fc192577","system_id":"levelo_inurba_marseille","lat":43.25102,"lon":5.4033,"is_reserved":false,"is_disabled":true,"rental_uris":{"android":"levelo://app?vid=bea43fe6-0ab8-4ff0-afcb-1dc4fc192577","ios":"levelo://app?vid=bea43fe6-0ab8-4ff0-afcb-1dc4fc192577"},"vehicle_type_id":"4","last_reported":1733055436,"current_range_meters":0,"station_id":"ce4bhlh2rcd13ifvqgig","pricing_plan_id":"cebpf4jnsgd1na2vs0mg"},{"bike_id":"cc2ef55a-91aa-4593-a8bb-5297c3251e55","system_id":"levelo_inurba_marseille","lat":43.27372,"lon":5.36264,"is_reserved":false,"is_disabled":false,"rental_uris":{"android":"levelo://app?vid=cc2ef55a-91aa-4593-a8bb-5297c3251e55","ios":"levelo://app?vid=cc2ef55a-91aa-4593-a8bb-5297c3251e55"},"vehicle_type_id":"4","last_reported":1733055436,"current_range_meters":30400,"station_id":"ce4bhbh2rcd13ifvqeo0","pricing_plan_id":"cebpf4jnsgd1na2vs0mg"},{"bike_id":"1b4091b4-9da5-4e08-a623-15bd0eb83e75","system_id":"levelo_inurba_marseille","lat":43.29311,"lon":5.37189,"is_reserved":false,"is_disabled":true,"rental_uris":{"android":"levelo://app?vid=1b4091b4-9da5-4e08-a623-15bd0eb83e75","ios":"levelo://app?vid=1b4091b4-9da5-4e08-a623-15bd0eb83e75"},"vehicle_type_id":"4","last_reported":1733055436,"current_range_meters":6400,"station_id":"ce4bgh92rcd13ifvqb40","pricing_plan_id":"cebpf4jnsgd1na2vs0mg"},{"bike_id":"d943d960-7d9b-4964-9228-20089cd21664","system_id":"levelo_inurba_marseille","lat":43.32898,"lon":5.36439,"is_reserved":false,"is_disabled":false,"rental_uris":{"android":"levelo://app?vid=d943d960-7d9b-4964-9228-20089cd21664","ios":"levelo://app?vid=d943d960-7d9b-4964-9228-20089cd21664"},"vehicle_type_id":"4","last_reported":1733055436,"current_range_meters":16000,"station_id":"","pricing_plan_id":"cebpf4jnsgd1na2vs0mg"},{"bike_id":"a29c335a-7285-43c0-b406-92991afc5ead","system_id":"levelo_inurba_marseille","lat":43.24801,"lon":5.37457,"is_reserved":false,"is_disabled":false,"rental_uris":{"android":"levelo://app?vid=a29c335a-7285-43c0-b406-92991afc5ead","ios":"levelo://app?vid=a29c335a-7285-43c0-b406-92991afc5ead"},"vehicle_type_id":"4","last_reported":1733055436,"current_range_meters":9600,"station_id":"ce4bhgh2rcd13ifvqfb0","pricing_plan_id":"cebpf4jnsgd1na2vs0mg"},{"bike_id":"3c5de9dd-974d-438e-9af4-d087cd64d925","system_id":"levelo_inurba_marseille","lat":43.25864,"lon":5.39896,"is_reserved":false,"is_disabled":false,"rental_uris":{"android":"levelo://app?vid=3c5de9dd-974d-438e-9af4-d087cd64d925","ios":"levelo://app?vid=3c5de9dd-974d-438e-9af4-d087cd64d925"},"vehicle_type_id":"4","last_reported":1733055436,"current_range_meters":35600,"station_id":"ce4bhl92rcd13ifvqghg","pricing_plan_id":"cebpf4jnsgd1na2vs0mg"},{"bike_id":"3fa7a75d-8677-4292-b8d3-8cce5ac0e9d8","system_id":"levelo_inurba_marseille","lat":43.29583,"lon":5.36737,"is_reserved":false,"is_disabled":false,"rental_uris":{"android":"levelo://app?vid=3fa7a75d-8677-4292-b8d3-8cce5ac0e9d8","ios":"levelo://app?vid=3fa7a75d-8677-4292-b8d3-8cce5ac0e9d8"},"vehicle_type_id":"4","last_reported":1733055436,"current_range_meters":38800,"station_id":"ce4bgph2rcd13ifvqc2g","pricing_plan_id":"cebpf4jnsgd1na2vs0mg"},{"bike_id":"df8bfb60-6438-46c2-9137-0a6f775a1567","system_id":"levelo_inurba_marseille","lat":43.28611,"lon":5.37059,"is_reserved":false,"is_disabled":false,"rental_uris":{"android":"levelo://app?vid=df8bfb60-6438-46c2-9137-0a6f775a1567","ios":"levelo://app?vid=df8bfb60-6438-46c2-9137-0a6f775a1567"},"vehicle_type_id":"4","last_reported":1733055436,"current_range_meters":38000,"station_id":"ce4bht12rcd13ifvqi60","pricing_plan_id":"cebpf4jnsgd1na2vs0mg"},{"bike_id":"e5951ee3-4a5a-4ebb-b469-096c5188dfa3","system_id":"levelo_inurba_marseille","lat":43.23195,"lon":5.35551,"is_reserved":false,"is_disabled":false,"rental_uris":{"android":"levelo://app?vid=e5951ee3-4a5a-4ebb-b469-096c5188dfa3","ios":"levelo://app?vid=e5951ee3-4a5a-4ebb-b469-096c5188dfa3"},"vehicle_type_id":"4","last_reported":1733055436,"current_range_meters":13600,"station_id":"ce4bhu92rcd13ifvqi70","pricing_plan_id":"cebpf4jnsgd1na2vs0mg"},{"bike_id":"f9a63393-5401-4f98-ae5a-dfbb8291ab6d","system_id":"levelo_inurba_marseille","lat":43.3004,"lon":5.37551,"is_reserved":false,"is_disabled":true,"rental_uris":{"android":"levelo://app?vid=f9a63393-5401-4f98-ae5a-dfbb8291ab6d","ios":"levelo://app?vid=f9a63393-5401-4f98-ae5a-dfbb8291ab6d"},"vehicle_type_id":"4","last_reported":1733055436,"current_range_meters":0,"station_id":"","pricing_plan_id":"cebpf4jnsgd1na2vs0mg"},{"bike_id":"bbb0fad0-03f0-4440-b535-b6bcef051439","system_id":"levelo_inurba_marseille","lat":43.2656,"lon":5.37287,"is_reserved":false,"is_disabled":false,"rental_uris":{"android":"levelo://app?vid=bbb0fad0-03f0-4440-b535-b6bcef051439","ios":"levelo://app?vid=bbb0fad0-03f0-4440-b535-b6bcef051439"},"vehicle_type_id":"4","last_reported":1733055436,"current_range_meters":31200,"station_id":"ce4bhg12rcd13ifvqf70","pricing_plan_id":"cebpf4jnsgd1na2vs0mg"},{"bike_id":"bda2af4c-1098-4683-84b7-baa3bbaa1591","system_id":"levelo_inurba_marseille","lat":43.28919,"lon":5.38412,"is_reserved":false,"is_disabled":false,"rental_uris":{"android":"levelo://app?vid=bda2af4c-1098-4683-84b7-baa3bbaa1591","ios":"levelo://app?vid=bda2af4c-1098-4683-84b7-baa3bbaa1591"},"vehicle_type_id":"4","last_reported":1733055436,"current_range_meters":36800,"station_id":"ce4bh612rcd13ifvqe6g","pricing_plan_id":"cebpf4jnsgd1na2vs0mg"},{"bike_id":"2dc38ade-27f7-4963-9993-df653a004c9b","system_id":"levelo_inurba_marseille","lat":43.2736,"lon":5.36264,"is_reserved":false,"is_disabled":false,"rental_uris":{"android":"levelo://app?vid=2dc38ade-27f7-4963-9993-df653a004c9b","ios":"levelo://app?vid=2dc38ade-27f7-4963-9993-df653a004c9b"},"vehicle_type_id":"4","last_reported":1733055436,"current_range_meters":24000,"station_id":"ce4bhbh2rcd13ifvqeo0","pricing_plan_id":"cebpf4jnsgd1na2vs0mg"},{"bike_id":"7e9687df-3171-4d5c-b86b-018b7abd4b7f","system_id":"levelo_inurba_marseille","lat":43.30536,"lon":5.36698,"is_reserved":false,"is_disabled":false,"rental_uris":{"android":"levelo://app?vid=7e9687df-3171-4d5c-b86b-018b7abd4b7f","ios":"levelo://app?vid=7e9687df-3171-4d5c-b86b-018b7abd4b7f"},"vehicle_type_id":"4","last_reported":1733055436,"current_range_meters":36400,"station_id":"ce4bgrp2rcd13ifvqc9g","pricing_plan_id":"cebpf4jnsgd1na2vs0mg"},{"bike_id":"abfd22bd-4963-4d4c-8aca-3e1c54ecf58d","system_id":"levelo_inurba_marseille","lat":43.29021,"lon":5.38654,"is_reserved":false,"is_disabled":false,"rental_uris":{"android":"levelo://app?vid=abfd22bd-4963-4d4c-8aca-3e1c54ecf58d","ios":"levelo://app?vid=abfd22bd-4963-4d4c-8aca-3e1c54ecf58d"},"vehicle_type_id":"4","last_reported":1733055436,"current_range_meters":20800,"station_id":"ce4bh4p2rcd13ifvqe0g","pricing_plan_id":"cebpf4jnsgd1na2vs0mg"},{"bike_id":"04e246a0-341a-48bb-9fa7-ae3dc526675c","system_id":"levelo_inurba_marseille","lat":43.30532,"lon":5.36536,"is_reserved":false,"is_disabled":false,"rental_uris":{"android":"levelo://app?vid=04e246a0-341a-48bb-9fa7-ae3dc526675c","ios":"levelo://app?vid=04e246a0-341a-48bb-9fa7-ae3dc526675c"},"vehicle_type_id":"4","last_reported":1733055436,"current_range_meters":14000,"station_id":"ce4bgs12rcd13ifvqcag","pricing_plan_id":"cebpf4jnsgd1na2vs0mg"},{"bike_id":"ea461fa6-489e-4de7-89c7-2f448445227c","system_id":"levelo_inurba_marseille","lat":43.29305,"lon":5.37186,"is_reserved":false,"is_disabled":true,"rental_uris":{"android":"levelo://app?vid=ea461fa6-489e-4de7-89c7-2f448445227c","ios":"levelo://app?vid=ea461fa6-489e-4de7-89c7-2f448445227c"},"vehicle_type_id":"4","last_reported":1733055436,"current_range_meters":36400,"station_id":"ce4bgh92rcd13ifvqb40","pricing_plan_id":"cebpf4jnsgd1na2vs0mg"},{"bike_id":"ea329f5f-140d-431f-aa88-040e3c19ac5e","system_id":"levelo_inurba_marseille","lat":43.24806,"lon":5.37459,"is_reserved":false,"is_disabled":false,"rental_uris":{"android":"levelo://app?vid=ea329f5f-140d-431f-aa88-040e3c19ac5e","ios":"levelo://app?vid=ea329f5f-140d-431f-aa88-040e3c19ac5e"},"vehicle_type_id":"4","last_reported":1733055436,"current_range_meters":27600,"station_id":"ce4bhgh2rcd13ifvqfb0","pricing_plan_id":"cebpf4jnsgd1na2vs0mg"},{"bike_id":"b0bda3a0-8d9d-4bd3-a5b8-75ccdf39fdf3","system_id":"levelo_inurba_marseille","lat":43.29439,"lon":5.39753,"is_reserved":false,"is_disabled":true,"rental_uris":{"android":"levelo://app?vid=b0bda3a0-8d9d-4bd3-a5b8-75ccdf39fdf3","ios":"levelo://app?vid=b0bda3a0-8d9d-4bd3-a5b8-75ccdf39fdf3"},"vehicle_type_id":"4","last_reported":1733055436,"current_range_meters":24800,"station_id":"ce4bh3h2rcd13ifvqdo0","pricing_plan_id":"cebpf4jnsgd1na2vs0mg"},{"bike_id":"e9306ef9-4ea2-413f-86a4-78e1f4c83b3c","system_id":"levelo_inurba_marseille","lat":43.29007,"lon":5.35623,"is_reserved":false,"is_disabled":false,"rental_uris":{"android":"levelo://app?vid=e9306ef9-4ea2-413f-86a4-78e1f4c83b3c","ios":"levelo://app?vid=e9306ef9-4ea2-413f-86a4-78e1f4c83b3c"},"vehicle_type_id":"4","last_reported":1733055436,"current_range_meters":4000,"station_id":"ce4bhb92rcd13ifvqen0","pricing_plan_id":"cebpf4jnsgd1na2vs0mg"},{"bike_id":"8d958c83-9b9f-4a5f-99e5-784608df87f7","system_id":"levelo_inurba_marseille","lat":43.33769,"lon":5.37446,"is_reserved":false,"is_disabled":false,"rental_uris":{"android":"levelo://app?vid=8d958c83-9b9f-4a5f-99e5-784608df87f7","ios":"levelo://app?vid=8d958c83-9b9f-4a5f-99e5-784608df87f7"},"vehicle_type_id":"4","last_reported":1733055436,"current_range_meters":36000,"station_id":"","pricing_plan_id":"cebpf4jnsgd1na2vs0mg"},{"bike_id":"e94d510b-b7a0-4e48-8922-6b815c19f456","system_id":"levelo_inurba_marseille","lat":43.337444,"lon":5.374475,"is_reserved":false,"is_disabled":false,"rental_uris":{"android":"levelo://app?vid=e94d510b-b7a0-4e48-8922-6b815c19f456","ios":"levelo://app?vid=e94d510b-b7a0-4e48-8922-6b815c19f456"},"vehicle_type_id":"4","last_reported":1733055436,"current_range_meters":38800,"station_id":"ce4bhpp2rcd13ifvqhfg","pricing_plan_id":"cebpf4jnsgd1na2vs0mg"},