{"last_updated":1743624631,"ttl":60,"version":"2.2","data":{"bikes":[{"bike_id":"767ac561-efa4-40e7-8c1f-2af7b5f95694","system_id":"levelo_inurba_marseille","lat":43.2679,"lon":5.40275,"is_reserved":false,"is_disabled":true,"rental_uris":{"android":"levelo://app?vid=767ac561-efa4-40e7-8c1f-2af7b5f95694","ios":"levelo://app?vid=767ac561-efa4-40e7-8c1f-2af7b5f95694"},"vehicle_type_id":"4","last_reported":1743624632,"current_range_meters":2800,"station_id":"ce501612rcd8frsf0b60","pricing_plan_id":"cebpf4jnsgd1na2vs0mg"},{"bike_id":"d0e02560-d864-4354-8a3c-fdbb407f5f51","system_id":"levelo_inurba_marseille","lat":43.29048,"lon":5.35927,"is_reserved":false,"is_disabled":false,"rental_uris":{"android":"levelo://app?vid=d0e02560-d864-4354-8a3c-fdbb407f5f51","ios":"levelo://app?vid=d0e02560-d864-4354-8a3c-fdbb407f5f51"},"vehicle_type_id":"4","last_reported":1743624632,"current_range_meters":2000,"station_id":"ce4bha92rcd13ifvqeg0","pricing_plan_id":"cebpf4jnsgd1na2vs0mg"},{"bike_id":"d4e2d1d7-84aa-4243-9ae3-14b1a92fa541","system_id":"levelo_inurba_marseille","lat":43.28666,"lon":5.36352,"is_reserved":false,"is_disabled":false,"rental_uris":{"android":"levelo://app?vid=d4e2d1d7-84aa-4243-9ae3-14b1a92fa541","ios":"levelo://app?vid=d4e2d1d7-84aa-4243-9ae3-14b1a92fa541"},"vehicle_type_id":"4","last_reported":1743624632,"current_range_meters":2800,"station_id":"ce4bhah2rcd13ifvqej0","pricing_plan_id":"cebpf4jnsgd1na2vs0mg"},{"bike_id":"dc2940d2-8bbf-4af3-a3bf-14408b28fcdf","system_id":"levelo_inurba_marseille","lat":43.26591,"lon":5.3906,"is_reserved":false,"is_disabled":true,"rental_uris":{"android":"levelo://app?vid=dc2940d2-8bbf-4af3-a3bf-14408b28fcdf","ios":"levelo://app?vid=dc2940d2-8bbf-4af3-a3bf-14408b28fcdf"},"vehicle_type_id":"4","last_reported":1743624632,"current_range_meters":2800,"station_id":"ce4bhe12rcd13ifvqf30","pricing_plan_id":"cebpf4jnsgd1na2vs0mg"},{"bike_id":"5e6c3a84-834c-4d83-a2d3-580b827057a1","system_id":"levelo_inurba_marseille","lat":43.23174,"lon":5.43691,"is_reserved":false,"is_disabled":false,"rental_uris":{"android":"levelo://app?vid=5e6c3a84-834c-4d83-a2d3-580b827057a1","ios":"levelo://app?vid=5e6c3a84-834c-4d83-a2d3-580b827057a1"},"vehicle_type_id":"4","last_reported":1743624632,"current_range_meters":2800,"station_id":"ce4bhmp2rcd13ifvqgog","pricing_plan_id":"cebpf4jnsgd1na2vs0mg"},{"bike_id":"4bad1a14-420d-4d9f-b272-858e63170ab9","system_id":"levelo_inurba_marseille","lat":43.262092,"lon":5.374444,"is_reserved":false,"is_disabled":true,"rental_uris":{"android":"levelo://app?vid=4bad1a14-420d-4d9f-b272-858e63170ab9","ios":"levelo://app?vid=4bad1a14-420d-4d9f-b272-858e63170ab9"},"vehicle_type_id":"4","last_reported":1743624632,"current_range_meters":3200,"station_id":"ce4bhgp2rcd13ifvqfc0","pricing_plan_id":"cebpf4jnsgd1na2vs0mg"},{"bike_id":"a5ab6f82-c3c2-46d7-9737-abd9923a220c","system_id":"levelo_inurba_marseille","lat":43.290326,"lon":5.375547,"is_reserved":false,"is_disabled":false,"rental_uris":{"android":"levelo://app?vid=a5ab6f82-c3c2-46d7-9737-abd9923a220c","ios":"levelo://app?vid=a5ab6f82-c3c2-46d7-9737-abd9923a220c"},"vehicle_type_id":"4","last_reported":1743624632,"current_range_meters":2800,"station_id":"ce4bgt92rcd13ifvqcf0","pricing_plan_id":"cebpf4jnsgd1na2vs0mg"},{"bike_id":"edd2552e-6d6e-406f-aefe-a17a88af0cc5","system_id":"levelo_inurba_marseille","lat":43.30254,"lon":5.40065,"is_reserved":false,"is_disabled":false,"rental_uris":{"android":"levelo://app?vid=edd2552e-6d6e-406f-aefe-a17a88af0cc5","ios":"levelo://app?vid=edd2552e-6d6e-406f-aefe-a17a88af0cc5"},"vehicle_type_id":"4","last_reported":1743624632,"current_range_meters":3200,"station_id":"ce4bgvh2rcd13ifvqcs0","pricing_plan_id":"cebpf4jnsgd1na2vs0mg"},{"bike_id":"cfe6d173-476a-4db5-94f2-713dde6981df","system_id":"levelo_inurba_marseille","lat":43.31534,"lon":5.38045,"is_reserved":false,"is_disabled":false,"rental_uris":{"android":"levelo://app?vid=cfe6d173-476a-4db5-94f2-713dde6981df","ios":"levelo://app?vid=cfe6d173-476a-4db5-94f2-713dde6981df"},"vehicle_type_id":"4","last_reported":1743624632,"current_range_meters":3200,"station_id":"ce4bhsp2rcd13ifvqi50","pricing_plan_id":"cebpf4jnsgd1na2vs0mg"},{"bike_id":"26a6be4e-9c71-4305-8866-c10aa7a9595b","system_id":"levelo_inurba_marseille","lat":43.26758,"lon":5.38343,"is_reserved":false,"is_disabled":false,"rental_uris":{"android":"levelo://app?vid=26a6be4e-9c71-4305-8866-c10aa7a9595b","ios":"levelo://app?vid=26a6be4e-9c71-4305-8866-c10aa7a9595b"},"vehicle_type_id":"4","last_reported":1743624632,"current_range_meters":3200,"station_id":"","pricing_plan_id":"cebpf4jnsgd1na2vs0mg"},{"bike_id":"dcd2a904-d4ab-4d6d-a3ed-1600c55232dc","system_id":"levelo_inurba_marseille","lat":43.28453,"lon":5.35888,"is_reserved":false,"is_disabled":false,"rental_uris":{"android":"levelo://app?vid=dcd2a904-d4ab-4d6d-a3ed-1600c55232dc","ios":"levelo://app?vid=dcd2a904-d4ab-4d6d-a3ed-1600c55232dc"},"vehicle_type_id":"4","last_reported":1743624632,"current_range_meters":3600,"station_id":"ce4bhah2rcd13ifvqei0","pricing_plan_id":"cebpf4jnsgd1na2vs0mg"},{"bike_id":"d10bd936-2fca-4607-82d0-6e154162cbfd","system_id":"levelo_inurba_marseille","lat":43.30889,"lon":5.39644,"is_reserved":false,"is_disabled":true,"rental_uris":{"android":"levelo://app?vid=d10bd936-2fca-4607-82d0-6e154162cbfd","ios":"levelo://app?vid=d10bd936-2fca-4607-82d0-6e154162cbfd"},"vehicle_type_id":"4","last_reported":1743624632,"current_range_meters":3600,"station_id":"ce4bh012rcd13ifvqcv0","pricing_plan_id":"cebpf4jnsgd1na2vs0mg"},{"bike_id":"e51886b8-3373-48da-b2bf-d6eb81b4e747","system_id":"levelo_inurba_marseille","lat":43.290305,"lon":5.386524,"is_reserved":false,"is_disabled":false,"rental_uris":{"android":"levelo://app?vid=e51886b8-3373-48da-b2bf-d6eb81b4e747","ios":"levelo://app?vid=e51886b8-3373-48da-b2bf-d6eb81b4e747"},"vehicle_type_id":"4","last_reported":1743624632,"current_range_meters":3200,"station_id":"ce4bho92rcd13ifvqh3g","pricing_plan_id":"cebpf4jnsgd1na2vs0mg"},{"bike_id":"5b020898-4c72-4804-86d1-3a40c4aa7ee2","system_id":"levelo_inurba_marseille","lat":43.29551,"lon":5.39959,"is_reserved":false,"is_disabled":false,"rental_uris":{"android":"levelo://app?vid=5b020898-4c72-4804-86d1-3a40c4aa7ee2","ios":"levelo://app?vid=5b020898-4c72-4804-86d1-3a40c4aa7ee2"},"vehicle_type_id":"4","last_reported":1743624632,"current_range_meters":3600,"station_id":"ce4bh312rcd13ifvqdj0","pricing_plan_id":"cebpf4jnsgd1na2vs0mg"},{"bike_id":"d915f7c8-90c5-4eb8-b1e4-a1eb91a8aff7","system_id":"levelo_inurba_marseille","lat":43.31526,"lon":5.38071,"is_reserved":false,"is_disabled":false,"rental_uris":{"android":"levelo://app?vid=d915f7c8-90c5-4eb8-b1e4-a1eb91a8aff7","ios":"levelo://app?vid=d915f7c8-90c5-4eb8-b1e4-a1eb91a8aff7"},"vehicle_type_id":"4","last_reported":1743624632,"current_range_meters":3200,"station_id":"ce4bhsp2rcd13ifvqi50","pricing_plan_id":"cebpf4jnsgd1na2vs0mg"},{"bike_id":"7c971605-09bd-4231-aeaa-84b6c96a1201","system_id":"levelo_inurba_marseille","lat":43.28271,"lon":5.35064,"is_reserved":false,"is_disabled":false,"rental_uris":{"android":"levelo://app?vid=7c971605-09bd-4231-aeaa-84b6c96a1201","ios":"levelo://app?vid=7c971605-09bd-4231-aeaa-84b6c96a1201"},"vehicle_type_id":"4","last_reported":1743624632,"current_range_meters":3600,"station_id":"ce4bhbp2rcd13ifvqerg","pricing_plan_id":"cebpf4jnsgd1na2vs0mg"},{"bike_id":"971cc41c-deac-47c6-ae71-67a3095e1410","system_id":"levelo_inurba_marseille","lat":43.305333,"lon":5.384148,"is_reserved":false,"is_disabled":false,"rental_uris":{"android":"levelo://app?vid=971cc41c-deac-47c6-ae71-67a3095e1410","ios":"levelo://app?vid=971cc41c-deac-47c6-ae71-67a3095e1410"},"vehicle_type_id":"4","last_reported":1743624632,"current_range_meters":3600,"station_id":"ce4bgv12rcd13ifvqcp0","pricing_plan_id":"cebpf4jnsgd1na2vs0mg"},{"bike_id":"c6c438e8-d3ab-4770-968b-7a1a93e8a8c6","system_id":"levelo_inurba_marseille","lat":43.28903,"lon":5.45869,"is_reserved":false,"is_disabled":false,"rental_uris":{"android":"levelo://app?vid=c6c438e8-d3ab-4770-968b-7a1a93e8a8c6","ios":"levelo://app?vid=c6c438e8-d3ab-4770-968b-7a1a93e8a8c6"},"vehicle_type_id":"4","last_reported":1743624632,"current_range_meters":4000,"station_id":"","pricing_plan_id":"cebpf4jnsgd1na2vs0mg"},{"bike_id":"1167d76f-0701-42ca-9566-e6b8288b4501","system_id":"levelo_inurba_marseille","lat":43.2827,"lon":5.37868,"is_reserved":false,"is_disabled":false,"rental_uris":{"android":"levelo://app?vid=1167d76f-0701-42ca-9566-e6b8288b4501","ios":"levelo://app?vid=1167d76f-0701-42ca-9566-e6b8288b4501"},"vehicle_type_id":"4","last_reported":1743624632,"current_range_meters":4400,"station_id":"","pricing_plan_id":"cebpf4jnsgd1na2vs0mg"},{"bike_id":"ebaa89eb-9cf3-4ffa-91a5-8e3eb8931bec","system_id":"levelo_inurba_marseille","lat":43.24674,"lon":5.38163,"is_reserved":false,"is_disabled":true,"rental_uris":{"android":"levelo://app?vid=ebaa89eb-9cf3-4ffa-91a5-8e3eb8931bec","ios":"levelo://app?vid=ebaa89eb-9cf3-4ffa-91a5-8e3eb8931bec"},"vehicle_type_id":"4","last_reported":1743624632,"current_range_meters":4400,"station_id":"ce4bhih2rcd13ifvqfr0","pricing_plan_id":"cebpf4jnsgd1na2vs0mg"},{"bike_id":"d38f73d8-ae84-48e7-853b-3e3eec47f225","system_id":"levelo_inurba_marseille","lat":43.31074,"lon":5.38346,"is_reserved":false,"is_disabled":false,"rental_uris":{"android":"levelo://app?vid=d38f73d8-ae84-48e7-853b-3e3eec47f225","ios":"levelo://app?vid=d38f73d8-ae84-48e7-853b-3e3eec47f225"},"vehicle_type_id":"4","last_reported":1743624632,"current_range_meters":4400,"station_id":"ce4bgv92rcd13ifvqcr0","pricing_plan_id":"cebpf4jnsgd1na2vs0mg"},{"bike_id":"5ce1b0cd-8f3b-4db7-9a47-e6de9294ccb7","system_id":"levelo_inurba_marseille","lat":43.29796,"lon":5.40401,"is_reserved":false,"is_disabled":false,"rental_uris":{"android":"levelo://app?vid=5ce1b0cd-8f3b-4db7-9a47-e6de9294ccb7","ios":"levelo://app?vid=5ce1b0cd-8f3b-4db7-9a47-e6de9294ccb7"},"vehicle_type_id":"4","last_reported":1743624632,"current_range_meters":4400,"station_id":"ce4bh112rcd13ifvqd90","pricing_plan_id":"cebpf4jnsgd1na2vs0mg"},{"bike_id":"4a8d29d8-77ab-495f-bffb-22a94f30a721","system_id":"levelo_inurba_marseille","lat":43.31108,"lon":5.37764,"is_reserved":false,"is_disabled":false,"rental_uris":{"android":"levelo://app?vid=4a8d29d8-77ab-495f-bffb-22a94f30a721","ios":"levelo://app?vid=4a8d29d8-77ab-495f-bffb-22a94f30a721"},"vehicle_type_id":"4","last_reported":1743624632,"current_range_meters":4400,"station_id":"ce4bgt92rcd13ifvqcg0","pricing_plan_id":"cebpf4jnsgd1na2vs0mg"},{"bike_id":"642bbd62-6c35-4fb8-9157-a6f849d1eda2","system_id":"levelo_inurba_marseille","lat":43.31486,"lon":5.37303,"is_reserved":false,"is_disabled":false,"rental_uris":{"android":"levelo://app?vid=642bbd62-6c35-4fb8-9157-a6f849d1eda2","ios":"levelo://app?vid=642bbd62-6c35-4fb8-9157-a6f849d1eda2"},"vehicle_type_id":"4","last_reported":1743624632,"current_range_meters":4000,"station_id":"ce4bgt12rcd13ifvqcd0","pricing_plan_id":"cebpf4jnsgd1na2vs0mg"},{"bike_id":"6fb9081c-d6fb-4233-bd6a-851aafaf24c4","system_id":"levelo_inurba_marseille","lat":43.291707,"lon":5.371585,"is_reserved":false,"is_disabled":false,"rental_uris":{"android":"levelo://app?vid=6fb9081c-d6fb-4233-bd6a-851aafaf24c4","ios":"levelo://app?vid=6fb9081c-d6fb-4233-bd6a-851aafaf24c4"},"vehicle_type_id":"4","last_reported":1743624632,"current_range_meters":5600,"station_id":"ce4bhah2rcd13ifvqej0","pricing_plan_id":"cebpf4jnsgd1na2vs0mg"},{"bike_id":"72a59223-7fbc-4af7-a727-ebdf00595f3e","system_id":"levelo_inurba_marseille","lat":43.2417,"lon":5.36397,"is_reserved":false,"is_disabled":false,"rental_uris":{"android":"levelo://app?vid=72a59223-7fbc-4af7-a727-ebdf00595f3e","ios":"levelo://app?vid=72a59223-7fbc-4af7-a727-ebdf00595f3e"},"vehicle_type_id":"4","last_reported":1743624632,"current_range_meters":5600,"station_id":"cpo36qri1sfpv3e86is0","pricing_plan_id":"cebpf4jnsgd1na2vs0mg"},{"bike_id":"fa43562c-40ea-4a05-b4fb-d020c793d9ba","system_id":"levelo_inurba_marseille","lat":43.28925,"lon":5.38399,"is_reserved":false,"is_disabled":false,"rental_uris":{"android":"levelo://app?vid=fa43562c-40ea-4a05-b4fb-d020c793d9ba","ios":"levelo://app?vid=fa43562c-40ea-4a05-b4fb-d020c793d9ba"},"vehicle_type_id":"4","last_reported":1743624632,"current_range_meters":5600,"station_id":"ce4bh612rcd13ifvqe6g","pricing_plan_id":"cebpf4jnsgd1na2vs0mg"},{"bike_id":"e47bc61d-df2d-41b3-b26b-dd94e6e5e301","system_id":"levelo_inurba_marseille","lat":43.26248,"lon":5.42132,"is_reserved":false,"is_disabled":false,"rental_uris":{"android":"levelo://app?vid=e47bc61d-df2d-41b3-b26b-dd94e6e5e301","ios":"levelo://app?vid=e47bc61d-df2d-41b3-b26b-dd94e6e5e301"},"vehicle_type_id":"4","last_reported":1743624632,"current_range_meters":5600,"station_id":"","pricing_plan_id":"cebpf4jnsgd1na2vs0mg"},{"bike_id":"6293244a-a5ac-4bd3-abcc-130806d24645","system_id":"levelo_inurba_marseille","lat":43.26197,"lon":5.37423,"is_reserved":false,"is_disabled":false,"rental_uris":{"android":"levelo://app?vid=6293244a-a5ac-4bd3-abcc-130806d24645","ios":"levelo://app?vid=6293244a-a5ac-4bd3-abcc-130806d24645"},"vehicle_type_id":"4","last_reported":1743624632,"current_range_meters":5600,"station_id":"ce4bhgp2rcd13ifvqfc0","pricing_plan_id":"cebpf4jnsgd1na2vs0mg"},{"bike_id":"66a6759f-f104-404f-ba35-7dd5d87e6d0b","system_id":"levelo_inurba_marseille","lat":43.30144,"lon":5.37677,"is_reserved":false,"is_disabled":false,"rental_uris":{"android":"levelo://app?vid=66a6759f-f104-404f-ba35-7dd5d87e6d0b","ios":"levelo://app?vid=66a6759f-f104-404f-ba35-7dd5d87e6d0b"},"vehicle_type_id":"4","last_reported":1743624632,"current_range_meters":5600,"station_id":"","pricing_plan_id":"cebpf4jnsgd1na2vs0mg"},{"bike_id":"c8a7b0ad-56d0-4bcf-8d1d-f1bcebdcce56","system_id":"levelo_inurba_marseille","lat":43.28931,"lon":5.38397,"is_reserved":false,"is_disabled":true,"rental_uris":{"android":"levelo://app?vid=c8a7b0ad-56d0-4bcf-8d1d-f1bcebdcce56","ios":"levelo://app?vid=c8a7b0ad-56d0-4bcf-8d1d-f1bcebdcce56"},"vehicle_type_id":"4","last_reported":1743624632,"current_range_meters":5600,"station_id":"ce4bh612rcd13ifvqe6g","pricing_plan_id":"cebpf4jnsgd1na2vs0mg"},{"bike_id":"951bf505-d040-4448-9c96-153485f2e62d","system_id":"levelo_inurba_marseille","lat":43.284088,"lon":5.375209,"is_reserved":false,"is_disabled":false,"rental_uris":{"android":"levelo://app?vid=951bf505-d040-4448-9c96-153485f2e62d","ios":"levelo://app?vid=951bf505-d040-4448-9c96-153485f2e62d"},"vehicle_type_id":"4","last_reported":1743624632,"current_range_meters":6000,"station_id":"ce4bh412rcd13ifvqds0","pricing_plan_id":"cebpf4jnsgd1na2vs0mg"},{"bike_id":"fdd74cea-2420-4f5e-97f2-a48b67190c4e","system_id":"levelo_inurba_marseille","lat":43.337444,"lon":5.374475,"is_reserved":false,"is_disabled":false,"rental_uris":{"android":"levelo://app?vid=fdd74cea-2420-4f5e-97f2-a48b67190c4e","ios":"levelo://app?vid=fdd74cea-2420-4f5e-97f2-a48b67190c4e"},"vehicle_type_id":"4","last_reported":1743624632,"current_range_meters":6000,"station_id":"","pricing_plan_id":"cebpf4jnsgd1na2vs0mg"},{"bike_id":"f1163e57-7b3f-4fd1-89c0-eb1accfd1679","system_id":"levelo_inurba_marseille","lat":43.30885,"lon":5.39637,"is_reserved":false,"is_disabled":false,"rental_uris":{"android":"levelo://app?vid=f1163e57-7b3f-4fd1-89c0-eb1accfd1679","ios":"levelo://app?vid=f1163e57-7b3f-4fd1-89c0-eb1accfd1679"},"vehicle_type_id":"4","last_reported":1743624632,"current_range_meters":6000,"station_id":"ce4bh012rcd13ifvqcv0","pricing_plan_id":"cebpf4jnsgd1na2vs0mg"},{"bike_id":"7bdf0d60-3026-4723-ac07-ebb25b9cf79f","system_id":"levelo_inurba_marseille","lat":43.28825,"lon":5.38681,"is_reserved":false,"is_disabled":false,"rental_uris":{"android":"levelo://app?vid=7bdf0d60-3026-4723-ac07-ebb25b9cf79f","ios":"levelo://app?vid=7bdf0d60-3026-4723-ac07-ebb25b9cf79f"},"vehicle_type_id":"4","last_reported":1743624632,"current_range_meters":6000,"station_id":"","pricing_plan_id":"cebpf4jnsgd1na2vs0mg"},{"bike_id":"d6c81a00-cf24-47bc-81aa-99e15d303460","system_id":"levelo_inurba_marseille","lat":43.27175,"lon":5.40996,"is_reserved":false,"is_disabled":false,"rental_uris":{"android":"levelo://app?vid=d6c81a00-cf24-47bc-81aa-99e15d303460","ios":"levelo://app?vid=d6c81a00-cf24-47bc-81aa-99e15d303460"},"vehicle_type_id":"4","last_reported":1743624632,"current_range_meters":6000,"station_id":"ce4bhl12rcd13ifvqgf0","pricing_plan_id":"cebpf4jnsgd1na2vs0mg"},{"bike_id":"2c716634-0c2f-42cb-a365-b34976452be1","system_id":"levelo_inurba_marseille","lat":43.30894,"lon":5.39625,"is_reserved":false,"is_disabled":false,"rental_uris":{"android":"levelo://app?vid=2c716634-0c2f-42cb-a365-b34976452be1","ios":"levelo://app?vid=2c716634-0c2f-42cb-a365-b34976452be1"},"vehicle_type_id":"4","last_reported":1743624632,"current_range_meters":6400,"station_id":"ce4bh012rcd13ifvqcv0","pricing_plan_id":"cebpf4jnsgd1na2vs0mg"},{"bike_id":"1251833b-8493-4a73-a8c2-1de3b28409c1","system_id":"levelo_inurba_marseille","lat":43.28708,"lon":5.40008,"is_reserved":false,"is_disabled":false,"rental_uris":{"android":"levelo://app?vid=1251833b-8493-4a73-a8c2-1de3b28409c1","ios":"levelo://app?vid=1251833b-8493-4a73-a8c2-1de3b28409c1"},"vehicle_type_id":"4","last_reported":1743624632,"current_range_meters":6000,"station_id":"ce4bho92rcd13ifvqh3g","pricing_plan_id":"cebpf4jnsgd1na2vs0mg"},{"bike_id":"8dd59c1b-0099-418f-9b93-35fc591d4892","system_id":"levelo_inurba_marseille","lat":43.2959,"lon":5.38709,"is_reserved":false,"is_disabled":false,"rental_uris":{"android":"levelo://app?vid=8dd59c1b-0099-418f-9b93-35fc591d4892","ios":"levelo://app?vid=8dd59c1b-0099-418f-9b93-35fc591d4892"},"vehicle_type_id":"4","last_reported":1743624632,"current_range_meters":6400,"station_id":"","pricing_plan_id":"cebpf4jnsgd1na2vs0mg"},{"bike_id":"6c7f2ff1-d1f0-42f5-98cd-7fc91304e2b7","system_id":"levelo_inurba_marseille","lat":43.29422,"lon":5.38608,"is_reserved":false,"is_disabled":false,"rental_uris":{"android":"levelo://app?vid=6c7f2ff1-d1f0-42f5-98cd-7fc91304e2b7","ios":"levelo://app?vid=6c7f2ff1-d1f0-42f5-98cd-7fc91304e2b7"},"vehicle_type_id":"4","last_reported":1743624632,"current_range_meters":6400,"station_id":"ce4bh2h2rcd13ifvqdh0","pricing_plan_id":"cebpf4jnsgd1na2vs0mg"},{"bike_id":"75a4e897-36ae-49d9-b479-181f9e1339f1","system_id":"levelo_inurba_marseille","lat":43.28925,"lon":5.36646,"is_reserved":false,"is_disabled":false,"rental_uris":{"android":"levelo://app?vid=75a4e897-36ae-49d9-b479-181f9e1339f1","ios":"levelo://app?vid=75a4e897-36ae-49d9-b479-181f9e1339f1"},"vehicle_type_id":"4","last_reported":1743624632,"current_range_meters":6400,"station_id":"ce4bhap2rcd13ifvqek0","pricing_plan_id":"cebpf4jnsgd1na2vs0mg"},{"bike_id":"4f1fb305-fdac-49af-98f8-e5ebaa4429a4","system_id":"levelo_inurba_marseille","lat":43.2294,"lon":5.35383,"is_reserved":false,"is_disabled":false,"rental_uris":{"android":"levelo://app?vid=4f1fb305-fdac-49af-98f8-e5ebaa4429a4","ios":"levelo://app?vid=4f1fb305-fdac-49af-98f8-e5ebaa4429a4"},"vehicle_type_id":"4","last_reported":1743624632,"current_range_meters":6400,"station_id":"cpo3532slgdg3j2ikp40","pricing_plan_id":"cebpf4jnsgd1na2vs0mg"},{"bike_id":"e84bef4c-cced-4cd0-b180-0053717ac75e","system_id":"levelo_inurba_marseille","lat":43.28728,"lon":5.399998,"is_reserved":false,"is_disabled":true,"rental_uris":{"android":"levelo://app?vid=e84bef4c-cced-4cd0-b180-0053717ac75e","ios":"levelo://app?vid=e84bef4c-cced-4cd0-b180-0053717ac75e"},"vehicle_type_id":"4","last_reported":1743624632,"current_range_meters":6400,"station_id":"ce4bho92rcd13ifvqh3g","pricing_plan_id":"cebpf4jnsgd1na2vs0mg"},{"bike_id":"149e6bd4-15d7-415e-95c5-ae03f69646d5","system_id":"levelo_inurba_marseille","lat":43.23966,"lon":5.36632,"is_reserved":false,"is_disabled":false,"rental_uris":{"android":"levelo://app?vid=149e6bd4-15d7-415e-95c5-ae03f69646d5","ios":"levelo://app?vid=149e6bd4-15d7-415e-95c5-ae03f69646d5"},"vehicle_type_id":"4","last_reported":1743624632,"current_range_meters":6400,"station_id":"ce4bhi12rcd13ifvqfp0","pricing_plan_id":"cebpf4jnsgd1na2vs0mg"},{"bike_id":"d3b80fdb-d82b-49fb-8540-55c363b9bffd","system_id":"levelo_inurba_marseille","lat":43.27371,"lon":5.36254,"is_reserved":false,"is_disabled":false,"rental_uris":{"android":"levelo://app?vid=d3b80fdb-d82b-49fb-8540-55c363b9bffd","ios":"levelo://app?vid=d3b80fdb-d82b-49fb-8540-55c363b9bffd"},"vehicle_type_id":"4","last_reported":1743624632,"current_range_meters":6400,"station_id":"ce4bhbh2rcd13ifvqeo0","pricing_plan_id":"cebpf4jnsgd1na2vs0mg"},{"bike_id":"f06067fe-c409-49ce-b995-b28658dd37fb","system_id":"levelo_inurba_marseille","lat":43.28678,"lon":5.37417,"is_reserved":false,"is_disabled":true,"rental_uris":{"android":"levelo://app?vid=f06067fe-c409-49ce-b995-b28658dd37fb","ios":"levelo://app?vid=f06067fe-c409-49ce-b995-b28658dd37fb"},"vehicle_type_id":"4","last_reported":1743624632,"current_range_meters":6800,"station_id":"ce4bh3p2rcd13ifvqdq0","pricing_plan_id":"cebpf4jnsgd1na2vs0mg"},{"bike_id":"84dc148b-9274-46cc-a39f-2a7178bf14b7","system_id":"levelo_inurba_marseille","lat":43.31501,"lon":5.3731,"is_reserved":false,"is_disabled":false,"rental_uris":{"android":"levelo://app?vid=84dc148b-9274-46cc-a39f-2a7178bf14b7","ios":"levelo://app?vid=84dc148b-9274-46cc-a39f-2a7178bf14b7"},"vehicle_type_id":"4","last_reported":1743624632,"current_range_meters":6800,"station_id":"","pricing_plan_id":"cebpf4jnsgd1na2vs0mg"},{"bike_id":"e1eb3e38-7c85-498e-82ad-96a2abe9dfa9","system_id":"levelo_inurba_marseille","lat":43.30423,"lon":5.41276,"is_reserved":false,"is_disabled":false,"rental_uris":{"android":"levelo://app?vid=e1eb3e38-7c85-498e-82ad-96a2abe9dfa9","ios":"levelo://app?vid=e1eb3e38-7c85-498e-82ad-96a2abe9dfa9"},"vehicle_type_id":"4","last_reported":1743624632,"current_range_meters":6400,"station_id":"ce4bhop2rcd13ifvqh8g","pricing_plan_id":"cebpf4jnsgd1na2vs0mg"},{"bike_id":"7e180624-797c-479b-b049-e0fce184b3c3","system_id":"levelo_inurba_marseille","lat":43.3059,"lon":5.39358,"is_reserved":false,"is_disabled":false,"rental_uris":{"android":"levelo://app?vid=7e180624-797c-479b-b049-e0fce184b3c3","ios":"levelo://app?vid=7e180624-797c-479b-b049-e0fce184b3c3"},"vehicle_type_id":"4","last_reported":1743624632,"current_range_meters":6800,"station_id":"ce4bh0p2rcd13ifvqd80","pricing_plan_id":"cebpf4jnsgd1na2vs0mg"},{"bike_id":"75b91ba8-e913-4cfe-94f2-de4ef34de3c6","system_id":"levelo_inurba_marseille","lat":43.294116,"lon":5.386466,"is_reserved":false,"is_disabled":false,"rental_uris":{"android":"levelo://app?vid=75b91ba8-e913-4cfe-94f2-de4ef34de3c6","ios":"levelo://app?vid=75b91ba8-e913-4cfe-94f2-de4ef34de3c6"},"vehicle_type_id":"4","last_reported":1743624632,"current_range_meters":7200,"station_id":"ce4bho92rcd13ifvqh3g","pricing_plan_id":"cebpf4jnsgd1na2vs0mg"},{"bike_id":"13478065-1474-4d4c-9537-ab90a2fd70d4","system_id":"levelo_inurba_marseille","lat":43.28675,"lon":5.38667,"is_reserved":false,"is_disabled":false,"rental_uris":{"android":"levelo://app?vid=13478065-1474-4d4c-9537-ab90a2fd70d4","ios":"levelo://app?vid=13478065-1474-4d4c-9537-ab90a2fd70d4"},"vehicle_type_id":"4","last_reported":1743624632,"current_range_meters":6800,"station_id":"ce4bh492rcd13ifvqdug","pricing_plan_id":"cebpf4jnsgd1na2vs0mg"},{"bike_id":"bb5f3859-0a76-41f0-b464-b3a2c78d4fe2","system_id":"levelo_inurba_marseille","lat":43.27947,"lon":5.41048,"is_reserved":false,"is_disabled":false,"rental_uris":{"android":"levelo://app?vid=bb5f3859-0a76-41f0-b464-b3a2c78d4fe2","ios":"levelo://app?vid=bb5f3859-0a76-41f0-b464-b3a2c78d4fe2"},"vehicle_type_id":"4","last_reported":1743624632,"current_range_meters":6800,"station_id":"ce4bhnp2rcd13ifvqh0g","pricing_plan_id":"cebpf4jnsgd1na2vs0mg"},{"bike_id":"fa7876d0-e5b2-4ce6-9cbc-68f925a4f67e","system_id":"levelo_inurba_marseille","lat":43.286957,"lon":5.373925,"is_reserved":false,"is_disabled":false,"rental_uris":{"android":"levelo://app?vid=fa7876d0-e5b2-4ce6-9cbc-68f925a4f67e","ios":"levelo://app?vid=fa7876d0-e5b2-4ce6-9cbc-68f925a4f67e"},"vehicle_type_id":"4","last_reported":1743624632,"current_range_meters":7200,"station_id":"ce4bh3p2rcd13ifvqdq0","pricing_plan_id":"cebpf4jnsgd1na2vs0mg"},{"bike_id":"ef687fa4-2ab7-4012-b079-bb949fdc09c7","system_id":"levelo_inurba_marseille","lat":43.27996,"lon":5.40037,"is_reserved":false,"is_disabled":false,"rental_uris":{"android":"levelo://app?vid=ef687fa4-2ab7-4012-b079-bb949fdc09c7","ios":"levelo://app?vid=ef687fa4-2ab7-4012-b079-bb949fdc09c7"},"vehicle_type_id":"4","last_reported":1743624632,"current_range_meters":7200,"station_id":"ce4bho92rcd13ifvqh4g","pricing_plan_id":"cebpf4jnsgd1na2vs0mg"},{"bike_id":"c7fed3df-9f92-4bd8-8a32-6e53e97269c2","system_id":"levelo_inurba_marseille","lat":43.30319,"lon":5.40448,"is_reserved":false,"is_disabled":false,"rental_uris":{"android":"levelo://app?vid=c7fed3df-9f92-4bd8-8a32-6e53e97269c2","ios":"levelo://app?vid=c7fed3df-9f92-4bd8-8a32-6e53e97269c2"},"vehicle_type_id":"4","last_reported":1743624632,"current_range_meters":7200,"station_id":"ce4bh012rcd13ifvqd10","pricing_plan_id":"cebpf4jnsgd1na2vs0mg"},{"bike_id":"aef53494-790a-42ab-9101-66e9c9ad7834","system_id":"levelo_inurba_marseille","lat":43.28701,"lon":5.37395,"is_reserved":false,"is_disabled":false,"rental_uris":{"android":"levelo://app?vid=aef53494-790a-42ab-9101-66e9c9ad7834","ios":"levelo://app?vid=aef53494-790a-42ab-9101-66e9c9ad7834"},"vehicle_type_id":"4","last_reported":1743624632,"current_range_meters":7200,"station_id":"ce4bh3p2rcd13ifvqdq0","pricing_plan_id":"cebpf4jnsgd1na2vs0mg"},{"bike_id":"54cd2af6-bcec-4248-a5dc-b48416f47647","system_id":"levelo_inurba_marseille","lat":43.31071,"lon":5.38344,"is_reserved":false,"is_disabled":false,"rental_uris":{"android":"levelo://app?vid=54cd2af6-bcec-4248-a5dc-b48416f47647","ios":"levelo://app?vid=54cd2af6-bcec-4248-a5dc-b48416f47647"},"vehicle_type_id":"4","last_reported":1743624632,"current_range_meters":7200,"station_id":"ce4bgv92rcd13ifvqcr0","pricing_plan_id":"cebpf4jnsgd1na2vs0mg"},{"bike_id":"e4daa68e-c153-4839-8fed-72a96b8154c5","system_id":"levelo_inurba_marseille","lat":43.25001,"lon":5.38926,"is_reserved":false,"is_disabled":false,"rental_uris":{"android":"levelo://app?vid=e4daa68e-c153-4839-8fed-72a96b8154c5","ios":"levelo://app?vid=e4daa68e-c153-4839-8fed-72a96b8154c5"},"vehicle_type_id":"4","last_reported":1743624632,"current_range_meters":7200,"station_id":"ce4bhgp2rcd13ifvqfd0","pricing_plan_id":"cebpf4jnsgd1na2vs0mg"},{"bike_id":"1f1218d9-ebac-4975-84ee-2ba3e4d4bcb4","system_id":"levelo_inurba_marseille","lat":43.30883,"lon":5.37793,"is_reserved":false,"is_disabled":false,"rental_uris":{"android":"levelo://app?vid=1f1218d9-ebac-4975-84ee-2ba3e4d4bcb4","ios":"levelo://app?vid=1f1218d9-ebac-4975-84ee-2ba3e4d4bcb4"},"vehicle_type_id":"4","last_reported":1743624632,"current_range_meters":7200,"station_id":"","pricing_plan_id":"cebpf4jnsgd1na2vs0mg"},{"bike_id":"3e5329f3-c0cd-422c-afb1-2f46242590da","system_id":"levelo_inurba_marseille","lat":43.31913,"lon":5.37559,"is_reserved":false,"is_disabled":false,"rental_uris":{"android":"levelo://app?vid=3e5329f3-c0cd-422c-afb1-2f46242590da","ios":"levelo://app?vid=3e5329f3-c0cd-422c-afb1-2f46242590da"},"vehicle_type_id":"4","last_reported":1743624632,"current_range_meters":7200,"station_id":"","pricing_plan_id":"cebpf4jnsgd1na2vs0mg"},{"bike_id":"8a4d47ee-5e4b-4895-86f4-1702360ed011","system_id":"levelo_inurba_marseille","lat":43.25724,"lon":5.41088,"is_reserved":false,"is_disabled":true,"rental_uris":{"android":"levelo://app?vid=8a4d47ee-5e4b-4895-86f4-1702360ed011","ios":"levelo://app?vid=8a4d47ee-5e4b-4895-86f4-1702360ed011"},"vehicle_type_id":"4","last_reported":1743624632,"current_range_meters":7200,"station_id":"ce4bhkp2rcd13ifvqgd0","pricing_plan_id":"cebpf4jnsgd1na2vs0mg"},{"bike_id":"9c00a095-22a6-4803-aaa5-99cd6e57c529","system_id":"levelo_inurba_marseille","lat":43.287,"lon":5.37394,"is_reserved":false,"is_disabled":false,"rental_uris":{"android":"levelo://app?vid=9c00a095-22a6-4803-aaa5-99cd6e57c529","ios":"levelo://app?vid=9c00a095-22a6-4803-aaa5-99cd6e57c529"},"vehicle_type_id":"4","last_reported":1743624632,"current_range_meters":7200,"station_id":"ce4bh3p2rcd13ifvqdq0","pricing_plan_id":"cebpf4jnsgd1na2vs0mg"},{"bike_id":"161e4128-aedd-480b-a956-6a0b793639f7","system_id":"levelo_inurba_marseille","lat":43.29441,"lon":5.38633,"is_reserved":false,"is_disabled":false,"rental_uris":{"android":"levelo://app?vid=161e4128-aedd-480b-a956-6a0b793639f7","ios":"levelo://app?vid=161e4128-aedd-480b-a956-6a0b793639f7"},"vehicle_type_id":"4","last_reported":1743624632,"current_range_meters":8000,"station_id":"ce4bh2h2rcd13ifvqdh0","pricing_plan_id":"cebpf4jnsgd1na2vs0mg"},{"bike_id":"4d4f417d-1aec-4aba-986d-ef7a62743725","system_id":"levelo_inurba_marseille","lat":43.29558,"lon":5.42292,"is_reserved":false,"is_disabled":false,"rental_uris":{"android":"levelo://app?vid=4d4f417d-1aec-4aba-986d-ef7a62743725","ios":"levelo://app?vid=4d4f417d-1aec-4aba-986d-ef7a62743725"},"vehicle_type_id":"4","last_reported":1743624632,"current_range_meters":8000,"station_id":"ce4bhph2rcd13ifvqhdg","pricing_plan_id":"cebpf4jnsgd1na2vs0mg"},{"bike_id":"e53f9db2-d75c-4594-8157-2926a2062b6f","system_id":"levelo_inurba_marseille","lat":43.28451,"lon":5.39198,"is_reserved":false,"is_disabled":true,"rental_uris":{"android":"levelo://app?vid=e53f9db2-d75c-4594-8157-2926a2062b6f","ios":"levelo://app?vid=e53f9db2-d75c-4594-8157-2926a2062b6f"},"vehicle_type_id":"4","last_reported":1743624632,"current_range_meters":8000,"station_id":"ce4bhoh2rcd13ifvqh5g","pricing_plan_id":"cebpf4jnsgd1na2vs0mg"},{"bike_id":"4f1c00e5-a79d-4f0b-ab4e-3bd2b06e7d2e","system_id":"levelo_inurba_marseille","lat":43.23063,"lon":5.35509,"is_reserved":false,"is_disabled":false,"rental_uris":{"android":"levelo://app?vid=4f1c00e5-a79d-4f0b-ab4e-3bd2b06e7d2e","ios":"levelo://app?vid=4f1c00e5-a79d-4f0b-ab4e-3bd2b06e7d2e"},"vehicle_type_id":"4","last_reported":1743624632,"current_range_meters":8000,"station_id":"cpo3342slgdg3j2ifvpg","pricing_plan_id":"cebpf4jnsgd1na2vs0mg"},{"bike_id":"1c7ea303-0f0b-477c-a6b0-56cc00a9de10","system_id":"levelo_inurba_marseille","lat":43.32368,"lon":5.38892,"is_reserved":false,"is_disabled":false,"rental_uris":{"android":"levelo://app?vid=1c7ea303-0f0b-477c-a6b0-56cc00a9de10","ios":"levelo://app?vid=1c7ea303-0f0b-477c-a6b0-56cc00a9de10"},"vehicle_type_id":"4","last_reported":1743624632,"current_range_meters":8000,"station_id":"ce4bhqp2rcd13ifvqhog","pricing_plan_id":"cebpf4jnsgd1na2vs0mg"},{"bike_id":"9aa2396c-cf44-4f57-b912-002230e52c07","system_id":"levelo_inurba_marseille","lat":43.27644,"lon":5.39562,"is_reserved":false,"is_disabled":false,"rental_uris":{"android":"levelo://app?vid=9aa2396c-cf44-4f57-b912-002230e52c07","ios":"levelo://app?vid=9aa2396c-cf44-4f57-b912-002230e52c07"},"vehicle_type_id":"4","last_reported":1743624632,"current_range_meters":8000,"station_id":"","pricing_plan_id":"cebpf4jnsgd1na2vs0mg"},{"bike_id":"ab3f9b75-08cb-473e-ad88-635efa89e71c","system_id":"levelo_inurba_marseille","lat":43.26943,"lon":5.4025,"is_reserved":false,"is_disabled":false,"rental_uris":{"android":"levelo://app?vid=ab3f9b75-08cb-473e-ad88-635efa89e71c","ios":"levelo://app?vid=ab3f9b75-08cb-473e-ad88-635efa89e71c"},"vehicle_type_id":"4","last_reported":1743624632,"current_range_meters":8000,"station_id":"cjm6bp8fraef2m0cb0m0","pricing_plan_id":"cebpf4jnsgd1na2vs0mg"},{"bike_id":"7aa08c36-ee27-4e8e-996a-fcb4923ecbbb","system_id":"levelo_inurba_marseille","lat":43.28288,"lon":5.35076,"is_reserved":false,"is_disabled":true,"rental_uris":{"android":"levelo://app?vid=7aa08c36-ee27-4e8e-996a-fcb4923ecbbb","ios":"levelo://app?vid=7aa08c36-ee27-4e8e-996a-fcb4923ecbbb"},"vehicle_type_id":"4","last_reported":1743624632,"current_range_meters":8400,"station_id":"ce4bhbp2rcd13ifvqerg","pricing_plan_id":"cebpf4jnsgd1na2vs0mg"},{"bike_id":"96933b73-2866-4563-a1f3-ab0cf501d574","system_id":"levelo_inurba_marseille","lat":43.28957,"lon":5.36618,"is_reserved":false,"is_disabled":false,"rental_uris":{"android":"levelo://app?vid=96933b73-2866-4563-a1f3-ab0cf501d574","ios":"levelo://app?vid=96933b73-2866-4563-a1f3-ab0cf501d574"},"vehicle_type_id":"4","last_reported":1743624632,"current_range_meters":8400,"station_id":"ce4bhap2rcd13ifvqek0","pricing_plan_id":"cebpf4jnsgd1na2vs0mg"},{"bike_id":"d95697ce-eb61-4237-997e-ce97956aff13","system_id":"levelo_inurba_marseille","lat":43.2294,"lon":5.35379,"is_reserved":false,"is_disabled":false,"rental_uris":{"android":"levelo://app?vid=d95697ce-eb61-4237-997e-ce97956aff13","ios":"levelo://app?vid=d95697ce-eb61-4237-997e-ce97956aff13"},"vehicle_type_id":"4","last_reported":1743624632,"current_range_meters":8400,"station_id":"cpo3532slgdg3j2ikp40","pricing_plan_id":"cebpf4jnsgd1na2vs0mg"},{"bike_id":"46140361-f09a-427e-adfa-d7653ab4888a","system_id":"levelo_inurba_marseille","lat":43.28942,"lon":5.36623,"is_reserved":false,"is_disabled":false,"rental_uris":{"android":"levelo://app?vid=46140361-f09a-427e-adfa-d7653ab4888a","ios":"levelo://app?vid=46140361-f09a-427e-adfa-d7653ab4888a"},"vehicle_type_id":"4","last_reported":1743624632,"current_range_meters":8400,"station_id":"ce4bhap2rcd13ifvqek0","pricing_plan_id":"cebpf4jnsgd1na2vs0mg"},{"bike_id":"8d5b971e-28a3-40d2-975a-686cbf6dfadd","system_id":"levelo_inurba_marseille","lat":43.29549,"lon":5.42289,"is_reserved":false,"is_disabled":false,"rental_uris":{"android":"levelo://app?vid=8d5b971e-28a3-40d2-975a-686cbf6dfadd","ios":"levelo://app?vid=8d5b971e-28a3-40d2-975a-686cbf6dfadd"},"vehicle_type_id":"4","last_reported":1743624632,"current_range_meters":8400,"station_id":"ce4bhph2rcd13ifvqhdg","pricing_plan_id":"cebpf4jnsgd1na2vs0mg"},{"bike_id":"e0093f3c-5cdb-4a56-af2d-8a40abead87e","system_id":"levelo_inurba_marseille","lat":43.28268,"lon":5.35066,"is_reserved":false,"is_disabled":false,"rental_uris":{"android":"levelo://app?vid=e0093f3c-5cdb-4a56-af2d-8a40abead87e","ios":"levelo://app?vid=e0093f3c-5cdb-4a56-af2d-8a40abead87e"},"vehicle_type_id":"4","last_reported":1743624632,"current_range_meters":8400,"station_id":"ce4bhbp2rcd13ifvqerg","pricing_plan_id":"cebpf4jnsgd1na2vs0mg"},{"bike_id":"5e5f3c53-cbc7-4476-981d-f1688c439d3e","system_id":"levelo_inurba_marseille","lat":43.32334,"lon":5.40623,"is_reserved":false,"is_disabled":false,"rental_uris":{"android":"levelo://app?vid=5e5f3c53-cbc7-4476-981d-f1688c439d3e","ios":"levelo://app?vid=5e5f3c53-cbc7-4476-981d-f1688c439d3e"},"vehicle_type_id":"4","last_reported":1743624632,"current_range_meters":8400,"station_id":"ce4bhq92rcd13ifvqhjg","pricing_plan_id":"cebpf4jnsgd1na2vs0mg"},{"bike_id":"1e56f8b0-0569-43fd-956b-7c3d45c8ba02","system_id":"levelo_inurba_marseille","lat":43.29327,"lon":5.41159,"is_reserved":false,"is_disabled":false,"rental_uris":{"android":"levelo://app?vid=1e56f8b0-0569-43fd-956b-7c3d45c8ba02","ios":"levelo://app?vid=1e56f8b0-0569-43fd-956b-7c3d45c8ba02"},"vehicle_type_id":"4","last_reported":1743624632,"current_range_meters":8400,"station_id":"","pricing_plan_id":"cebpf4jnsgd1na2vs0mg"},{"bike_id":"f55695a6-b65f-4a30-99ab-94b2bfa63268","system_id":"levelo_inurba_marseille","lat":43.23212,"lon":5.35507,"is_reserved":false,"is_disabled":false,"rental_uris":{"android":"levelo://app?vid=f55695a6-b65f-4a30-99ab-94b2bfa63268","ios":"levelo://app?vid=f55695a6-b65f-4a30-99ab-94b2bfa63268"},"vehicle_type_id":"4","last_reported":1743624632,"current_range_meters":8400,"station_id":"ce4bhu92rcd13ifvqi70","pricing_plan_id":"cebpf4jnsgd1na2vs0mg"},{"bike_id":"6a8ad396-4027-4fc6-a532-7ef5465e3340","system_id":"levelo_inurba_marseille","lat":43.29367,"lon":5.37838,"is_reserved":false,"is_disabled":false,"rental_uris":{"android":"levelo://app?vid=6a8ad396-4027-4fc6-a532-7ef5465e3340","ios":"levelo://app?vid=6a8ad396-4027-4fc6-a532-7ef5465e3340"},"vehicle_type_id":"4","last_reported":1743624632,"current_range_meters":8000,"station_id":"ce4bgjh2rcd13ifvqbf0","pricing_plan_id":"cebpf4jnsgd1na2vs0mg"},{"bike_id":"d3345442-2654-4ddc-b869-fce22decea38","system_id":"levelo_inurba_marseille","lat":43.23064,"lon":5.35493,"is_reserved":false,"is_disabled":false,"rental_uris":{"android":"levelo://app?vid=d3345442-2654-4ddc-b869-fce22decea38","ios":"levelo://app?vid=d3345442-2654-4ddc-b869-fce22decea38"},"vehicle_type_id":"4","last_reported":1743624632,"current_range_meters":8400,"station_id":"cpo3342slgdg3j2ifvpg","pricing_plan_id":"cebpf4jnsgd1na2vs0mg"},{"bike_id":"b80ee275-2592-4659-b2e9-175feb839700","system_id":"levelo_inurba_marseille","lat":43.23184,"lon":5.35561,"is_reserved":false,"is_disabled":false,"rental_uris":{"android":"levelo://app?vid=b80ee275-2592-4659-b2e9-175feb839700","ios":"levelo://app?vid=b80ee275-2592-4659-b2e9-175feb839700"},"vehicle_type_id":"4","last_reported":1743624632,"current_range_meters":8800,"station_id":"ce4bhu92rcd13ifvqi70","pricing_plan_id":"cebpf4jnsgd1na2vs0mg"},{"bike_id":"4e8e0366-ced4-4bd3-8559-c7b58fbb6e6e","system_id":"levelo_inurba_marseille","lat":43.30312,"lon":5.40459,"is_reserved":false,"is_disabled":false,"rental_uris":{"android":"levelo://app?vid=4e8e0366-ced4-4bd3-8559-c7b58fbb6e6e","ios":"levelo://app?vid=4e8e0366-ced4-4bd3-8559-c7b58fbb6e6e"},"vehicle_type_id":"4","last_reported":1743624632,"current_range_meters":8800,"station_id":"ce4bh012rcd13ifvqd10","pricing_plan_id":"cebpf4jnsgd1na2vs0mg"},{"bike_id":"03f1af90-d790-4ea1-b5e7-3318030687de","system_id":"levelo_inurba_marseille","lat":43.303048,"lon":5.392042,"is_reserved":false,"is_disabled":false,"rental_uris":{"android":"levelo://app?vid=03f1af90-d790-4ea1-b5e7-3318030687de","ios":"levelo://app?vid=03f1af90-d790-4ea1-b5e7-3318030687de"},"vehicle_type_id":"4","last_reported":1743624632,"current_range_meters":8400,"station_id":"ce4bh292rcd13ifvqdf0","pricing_plan_id":"cebpf4jnsgd1na2vs0mg"},{"bike_id":"18af200d-2170-450e-8731-04401b479ac0","system_id":"levelo_inurba_marseille","lat":43.2726,"lon":5.39228,"is_reserved":false,"is_disabled":false,"rental_uris":{"android":"levelo://app?vid=18af200d-2170-450e-8731-04401b479ac0","ios":"levelo://app?vid=18af200d-2170-450e-8731-04401b479ac0"},"vehicle_type_id":"4","last_reported":1743624632,"current_range_meters":8800,"station_id":"","pricing_plan_id":"cebpf4jnsgd1na2vs0mg"},{"bike_id":"ac34fccd-2717-4101-8ba4-5acf05623170","system_id":"levelo_inurba_marseille","lat":43.32365,"lon":5.38886,"is_reserved":false,"is_disabled":false,"rental_uris":{"android":"levelo://app?vid=ac34fccd-2717-4101-8ba4-5acf05623170","ios":"levelo://app?vid=ac34fccd-2717-4101-8ba4-5acf05623170"},"vehicle_type_id":"4","last_reported":1743624632,"current_range_meters":8800,"station_id":"ce4bhqp2rcd13ifvqhog","pricing_plan_id":"cebpf4jnsgd1na2vs0mg"},{"bike_id":"a37ba079-4ccc-43bf-b918-b876a550e8db","system_id":"levelo_inurba_marseille","lat":43.25573,"lon":5.38252,"is_reserved":false,"is_disabled":false,"rental_uris":{"android":"levelo://app?vid=a37ba079-4ccc-43bf-b918-b876a550e8db","ios":"levelo://app?vid=a37ba079-4ccc-43bf-b918-b876a550e8db"},"vehicle_type_id":"4","last_reported":1743624632,"current_range_meters":8800,"station_id":"ce4bhih2rcd13ifvqfs0","pricing_plan_id":"cebpf4jnsgd1na2vs0mg"},{"bike_id":"5528d02f-8c68-431c-904e-5154091c404b","system_id":"levelo_inurba_marseille","lat":43.30318,"lon":5.40443,"is_reserved":false,"is_disabled":false,"rental_uris":{"android":"levelo://app?vid=5528d02f-8c68-431c-904e-5154091c404b","ios":"levelo://app?vid=5528d02f-8c68-431c-904e-5154091c404b"},"vehicle_type_id":"4","last_reported":1743624632,"current_range_meters":8800,"station_id":"ce4bh012rcd13ifvqd10","pricing_plan_id":"cebpf4jnsgd1na2vs0mg"},{"bike_id":"4b44f39c-5bb2-424a-891d-855ab4adfcfa","system_id":"levelo_inurba_marseille","lat":43.30145,"lon":5.38775,"is_reserved":false,"is_disabled":true,"rental_uris":{"android":"levelo://app?vid=4b44f39c-5bb2-424a-891d-855ab4adfcfa","ios":"levelo://app?vid=4b44f39c-5bb2-424a-891d-855ab4adfcfa"},"vehicle_type_id":"4","last_reported":1743624632,"current_range_meters":8800,"station_id":"ce4bghh2rcd13ifvqb60","pricing_plan_id":"cebpf4jnsgd1na2vs0mg"},{"bike_id":"ad0701ee-14d6-40ee-9cc0-de39a686153f","system_id":"levelo_inurba_marseille","lat":43.28706,"lon":5.4,"is_reserved":false,"is_disabled":false,"rental_uris":{"android":"levelo://app?vid=ad0701ee-14d6-40ee-9cc0-de39a686153f","ios":"levelo://app?vid=ad0701ee-14d6-40ee-9cc0-de39a686153f"},"vehicle_type_id":"4","last_reported":1743624632,"current_range_meters":8800,"station_id":"ce4bho92rcd13ifvqh3g","pricing_plan_id":"cebpf4jnsgd1na2vs0mg"},{"bike_id":"f103e6d0-67b4-446b-a81f-9e09dc680270","system_id":"levelo_inurba_marseille","lat":43.2812,"lon":5.37765,"is_reserved":false,"is_disabled":false,"rental_uris":{"android":"levelo://app?vid=f103e6d0-67b4-446b-a81f-9e09dc680270","ios":"levelo://app?vid=f103e6d0-67b4-446b-a81f-9e09dc680270"},"vehicle_type_id":"4","last_reported":1743624632,"current_range_meters":8800,"station_id":"ce4bha12rcd13ifvqee0","pricing_plan_id":"cebpf4jnsgd1na2vs0mg"},{"bike_id":"988a4b2a-1fca-4561-9342-57ad8b6adb1c","system_id":"levelo_inurba_marseille","lat":43.22928,"lon":5.35378,"is_reserved":false,"is_disabled":false,"rental_uris":{"android":"levelo://app?vid=988a4b2a-1fca-4561-9342-57ad8b6adb1c","ios":"levelo://app?vid=988a4b2a-1fca-4561-9342-57ad8b6adb1c"},"vehicle_type_id":"4","last_reported":1743624632,"current_range_meters":9200,"station_id":"cpo3532slgdg3j2ikp40","pricing_plan_id":"cebpf4jnsgd1na2vs0mg"},{"bike_id":"d157a8ac-f1ea-480a-a1ee-9ac00962bb01","system_id":"levelo_inurba_marseille","lat":43.29551,"lon":5.42302,"is_reserved":false,"is_disabled":false,"rental_uris":{"android":"levelo://app?vid=d157a8ac-f1ea-480a-a1ee-9ac00962bb01","ios":"levelo://app?vid=d157a8ac-f1ea-480a-a1ee-9ac00962bb01"},"vehicle_type_id":"4","last_reported":1743624632,"current_range_meters":9200,"station_id":"ce4bhph2rcd13ifvqhdg","pricing_plan_id":"cebpf4jnsgd1na2vs0mg"},{"bike_id":"f87e996c-206a-47d9-8697-84a2d463fdc3","system_id":"levelo_inurba_marseille","lat":43.2319,"lon":5.35557,"is_reserved":false,"is_disabled":false,"rental_uris":{"android":"levelo://app?vid=f87e996c-206a-47d9-8697-84a2d463fdc3","ios":"levelo://app?vid=f87e996c-206a-47d9-8697-84a2d463fdc3"},"vehicle_type_id":"4","last_reported":1743624632,"current_range_meters":9200,"station_id":"ce4bhu92rcd13ifvqi70","pricing_plan_id":"cebpf4jnsgd1na2vs0mg"},{"bike_id":"6e6a66e5-58ca-4db1-9695-b46ed5c28827","system_id":"levelo_inurba_marseille","lat":43.31806,"lon":5.36813,"is_reserved":false,"is_disabled":false,"rental_uris":{"android":"levelo://app?vid=6e6a66e5-58ca-4db1-9695-b46ed5c28827","ios":"levelo://app?vid=6e6a66e5-58ca-4db1-9695-b46ed5c28827"},"vehicle_type_id":"4","last_reported":1743624632,"current_range_meters":9200,"station_id":"","pricing_plan_id":"cebpf4jnsgd1na2vs0mg"},{"bike_id":"2cf61775-cb21-4b86-a7af-7925ef8f8bd8","system_id":"levelo_inurba_marseille","lat":43.22933,"lon":5.35387,"is_reserved":false,"is_disabled":false,"rental_uris":{"android":"levelo://app?vid=2cf61775-cb21-4b86-a7af-7925ef8f8bd8","ios":"levelo://app?vid=2cf61775-cb21-4b86-a7af-7925ef8f8bd8"},"vehicle_type_id":"4","last_reported":1743624632,"current_range_meters":9200,"station_id":"cpo3532slgdg3j2ikp40","pricing_plan_id":"cebpf4jnsgd1na2vs0mg"},{"bike_id":"a112ce08-6f4e-41f2-873e-94895f2e1506","system_id":"levelo_inurba_marseille","lat":43.27679,"lon":5.38944,"is_reserved":false,"is_disabled":true,"rental_uris":{"android":"levelo://app?vid=a112ce08-6f4e-41f2-873e-94895f2e1506","ios":"levelo://app?vid=a112ce08-6f4e-41f2-873e-94895f2e1506"},"vehicle_type_id":"4","last_reported":1743624632,"current_range_meters":9200,"station_id":"ce4bhi12rcd13ifvqfo0","pricing_plan_id":"cebpf4jnsgd1na2vs0mg"},{"bike_id":"1cc56aae-45a2-4fff-b1a7-9e957e7043f2","system_id":"levelo_inurba_marseille","lat":43.28704,"lon":5.37404,"is_reserved":false,"is_disabled":false,"rental_uris":{"android":"levelo://app?vid=1cc56aae-45a2-4fff-b1a7-9e957e7043f2","ios":"levelo://app?vid=1cc56aae-45a2-4fff-b1a7-9e957e7043f2"},"vehicle_type_id":"4","last_reported":1743624632,"current_range_meters":9200,"station_id":"ce4bh3p2rcd13ifvqdq0","pricing_plan_id":"cebpf4jnsgd1na2vs0mg"},{"bike_id":"2de107f9-f093-4d17-9ee2-b32984f40d50","system_id":"levelo_inurba_marseille","lat":43.31494,"lon":5.37311,"is_reserved":false,"is_disabled":false,"rental_uris":{"android":"levelo://app?vid=2de107f9-f093-4d17-9ee2-b32984f40d50","ios":"levelo://app?vid=2de107f9-f093-4d17-9ee2-b32984f40d50"},"vehicle_type_id":"4","last_reported":1743624632,"current_range_meters":19600,"station_id":"ce4bgt12rcd13ifvqcd0","pricing_plan_id":"cebpf4jnsgd1na2vs0mg"},{"bike_id":"49428efe-bbd8-4963-9aaf-ed822fd5c61b","system_id":"levelo_inurba_marseille","lat":43.29215,"lon":5.44359,"is_reserved":false,"is_disabled":false,"rental_uris":{"android":"levelo://app?vid=49428efe-bbd8-4963-9aaf-ed822fd5c61b","ios":"levelo://app?vid=49428efe-bbd8-4963-9aaf-ed822fd5c61b"},"vehicle_type_id":"4","last_reported":1743624632,"current_range_meters":9200,"station_id":"","pricing_plan_id":"cebpf4jnsgd1na2vs0mg"},{"bike_id":"546380d0-0813-4737-817f-a21e056e8d2e","system_id":"levelo_inurba_marseille","lat":43.32357,"lon":5.36763,"is_reserved":false,"is_disabled":false,"rental_uris":{"android":"levelo://app?vid=546380d0-0813-4737-817f-a21e056e8d2e","ios":"levelo://app?vid=546380d0-0813-4737-817f-a21e056e8d2e"},"vehicle_type_id":"4","last_reported":1743624632,"current_range_meters":9200,"station_id":"ce4bhsh2rcd13ifvqi2g","pricing_plan_id":"cebpf4jnsgd1na2vs0mg"},{"bike_id":"2e1d0491-8046-4a1c-910c-6d230f4ca468","system_id":"levelo_inurba_marseille","lat":43.30666,"lon":5.37379,"is_reserved":false,"is_disabled":false,"rental_uris":{"android":"levelo://app?vid=2e1d0491-8046-4a1c-910c-6d230f4ca468","ios":"levelo://app?vid=2e1d0491-8046-4a1c-910c-6d230f4ca468"},"vehicle_type_id":"4","last_reported":1743624632,"current_range_meters":9200,"station_id":"","pricing_plan_id":"cebpf4jnsgd1na2vs0mg"},{"bike_id":"1006235b-1c25-4d94-97c7-b9bd84d28baf","system_id":"levelo_inurba_marseille","lat":43.31165,"lon":5.38245,"is_reserved":false,"is_disabled":false,"rental_uris":{"android":"levelo://app?vid=1006235b-1c25-4d94-97c7-b9bd84d28baf","ios":"levelo://app?vid=1006235b-1c25-4d94-97c7-b9bd84d28baf"},"vehicle_type_id":"4","last_reported":1743624632,"current_range_meters":9600,"station_id":"","pricing_plan_id":"cebpf4jnsgd1na2vs0mg"},{"bike_id":"04556df8-715f-45d8-b288-9c8fd51282f9","system_id":"levelo_inurba_marseille","lat":43.23207,"lon":5.35557,"is_reserved":false,"is_disabled":false,"rental_uris":{"android":"levelo://app?vid=04556df8-715f-45d8-b288-9c8fd51282f9","ios":"levelo://app?vid=04556df8-715f-45d8-b288-9c8fd51282f9"},"vehicle_type_id":"4","last_reported":1743624632,"current_range_meters":9600,"station_id":"ce4bhu92rcd13ifvqi70","pricing_plan_id":"cebpf4jnsgd1na2vs0mg"},{"bike_id":"b52eafbb-0fdc-487b-b3ce-3a3f8cf7e638","system_id":"levelo_inurba_marseille","lat":43.33116,"lon":5.39244,"is_reserved":false,"is_disabled":false,"rental_uris":{"android":"levelo://app?vid=b52eafbb-0fdc-487b-b3ce-3a3f8cf7e638","ios":"levelo://app?vid=b52eafbb-0fdc-487b-b3ce-3a3f8cf7e638"},"vehicle_type_id":"4","last_reported":1743624632,"current_range_meters":9600,"station_id":"","pricing_plan_id":"cebpf4jnsgd1na2vs0mg"},{"bike_id":"4dc0dd46-c05d-4f16-8159-f28c91a08037","system_id":"levelo_inurba_marseille","lat":43.24666,"lon":5.38162,"is_reserved":false,"is_disabled":false,"rental_uris":{"android":"levelo://app?vid=4dc0dd46-c05d-4f16-8159-f28c91a08037","ios":"levelo://app?vid=4dc0dd46-c05d-4f16-8159-f28c91a08037"},"vehicle_type_id":"4","last_reported":1743624632,"current_range_meters":9600,"station_id":"ce4bhih2rcd13ifvqfr0","pricing_plan_id":"cebpf4jnsgd1na2vs0mg"},{"bike_id":"1bbd359b-873f-404b-b75c-9c400b97dc38","system_id":"levelo_inurba_marseille","lat":43.29642,"lon":5.40594,"is_reserved":false,"is_disabled":false,"rental_uris":{"android":"levelo://app?vid=1bbd359b-873f-404b-b75c-9c400b97dc38","ios":"levelo://app?vid=1bbd359b-873f-404b-b75c-9c400b97dc38"},"vehicle_type_id":"4","last_reported":1743624632,"current_range_meters":9600,"station_id":"ce4bh0h2rcd13ifvqd60","pricing_plan_id":"cebpf4jnsgd1na2vs0mg"},{"bike_id":"d97c6895-9a58-42bd-9edc-053f218b5b60","system_id":"levelo_inurba_marseille","lat":43.29502,"lon":5.36378,"is_reserved":false,"is_disabled":false,"rental_uris":{"android":"levelo://app?vid=d97c6895-9a58-42bd-9edc-053f218b5b60","ios":"levelo://app?vid=d97c6895-9a58-42bd-9edc-053f218b5b60"},"vehicle_type_id":"4","last_reported":1743624632,"current_range_meters":9600,"station_id":"","pricing_plan_id":"cebpf4jnsgd1na2vs0mg"},{"bike_id":"f8dc6029-025c-47cd-8921-5ce023e19c20","system_id":"levelo_inurba_marseille","lat":43.31992,"lon":5.38152,"is_reserved":false,"is_disabled":false,"rental_uris":{"android":"levelo://app?vid=f8dc6029-025c-47cd-8921-5ce023e19c20","ios":"levelo://app?vid=f8dc6029-025c-47cd-8921-5ce023e19c20"},"vehicle_type_id":"4","last_reported":1743624632,"current_range_meters":9600,"station_id":"ce4bhr12rcd13ifvqhpg","pricing_plan_id":"cebpf4jnsgd1na2vs0mg"},{"bike_id":"992babe6-2ab5-4f2e-9a16-a1bdc1462e11","system_id":"levelo_inurba_marseille","lat":43.29877,"lon":5.38907,"is_reserved":false,"is_disabled":false,"rental_uris":{"android":"levelo://app?vid=992babe6-2ab5-4f2e-9a16-a1bdc1462e11","ios":"levelo://app?vid=992babe6-2ab5-4f2e-9a16-a1bdc1462e11"},"vehicle_type_id":"4","last_reported":1743624632,"current_range_meters":9600,"station_id":"ce4bh392rcd13ifvqdl0","pricing_plan_id":"cebpf4jnsgd1na2vs0mg"},{"bike_id":"e2f25362-451d-4212-bfbe-e3fa67581bc7","system_id":"levelo_inurba_marseille","lat":43.292579,"lon":5.384323,"is_reserved":false,"is_disabled":false,"rental_uris":{"android":"levelo://app?vid=e2f25362-451d-4212-bfbe-e3fa67581bc7","ios":"levelo://app?vid=e2f25362-451d-4212-bfbe-e3fa67581bc7"},"vehicle_type_id":"4","last_reported":1743624632,"current_range_meters":9600,"station_id":"ce4bh692rcd13ifvqea0","pricing_plan_id":"cebpf4jnsgd1na2vs0mg"},{"bike_id":"8d2c5831-5cdd-4f87-8589-2d34f0df351b","system_id":"levelo_inurba_marseille","lat":43.33036,"lon":5.39019,"is_reserved":false,"is_disabled":false,"rental_uris":{"android":"levelo://app?vid=8d2c5831-5cdd-4f87-8589-2d34f0df351b","ios":"levelo://app?vid=8d2c5831-5cdd-4f87-8589-2d34f0df351b"},"vehicle_type_id":"4","last_reported":1743624632,"current_range_meters":9600,"station_id":"ce4bhr92rcd13ifvqhrg","pricing_plan_id":"cebpf4jnsgd1na2vs0mg"},{"bike_id":"75dae32f-059a-4b5b-a5e8-963c6eda2f66","system_id":"levelo_inurba_marseille","lat":43.27509,"lon":5.41013,"is_reserved":false,"is_disabled":false,"rental_uris":{"android":"levelo://app?vid=75dae32f-059a-4b5b-a5e8-963c6eda2f66","ios":"levelo://app?vid=75dae32f-059a-4b5b-a5e8-963c6eda2f66"},"vehicle_type_id":"4","last_reported":1743624632,"current_range_meters":9600,"station_id":"","pricing_plan_id":"cebpf4jnsgd1na2vs0mg"},{"bike_id":"193ec8b1-ef27-438f-9a5e-e85d62b46bec","system_id":"levelo_inurba_marseille","lat":43.29542,"lon":5.38541,"is_reserved":false,"is_disabled":false,"rental_uris":{"android":"levelo://app?vid=193ec8b1-ef27-438f-9a5e-e85d62b46bec","ios":"levelo://app?vid=193ec8b1-ef27-438f-9a5e-e85d62b46bec"},"vehicle_type_id":"4","last_reported":1743624632,"current_range_meters":10000,"station_id":"ce4bgih2rcd13ifvqba0","pricing_plan_id":"cebpf4jnsgd1na2vs0mg"},{"bike_id":"abe0f2b6-e85d-43d2-8e70-986f83325dbd","system_id":"levelo_inurba_marseille","lat":43.29938,"lon":5.36545,"is_reserved":false,"is_disabled":false,"rental_uris":{"android":"levelo://app?vid=abe0f2b6-e85d-43d2-8e70-986f83325dbd","ios":"levelo://app?vid=abe0f2b6-e85d-43d2-8e70-986f83325dbd"},"vehicle_type_id":"4","last_reported":1743624632,"current_range_meters":10000,"station_id":"ce4bgm92rcd13ifvqbr0","pricing_plan_id":"cebpf4jnsgd1na2vs0mg"},{"bike_id":"1e1eb765-b581-48b9-af27-5ec73fae6290","system_id":"levelo_inurba_marseille","lat":43.243927,"lon":5.370586,"is_reserved":false,"is_disabled":true,"rental_uris":{"android":"levelo://app?vid=1e1eb765-b581-48b9-af27-5ec73fae6290","ios":"levelo://app?vid=1e1eb765-b581-48b9-af27-5ec73fae6290"},"vehicle_type_id":"4","last_reported":1743624632,"current_range_meters":9600,"station_id":"ce4bhhh2rcd13ifvqfk0","pricing_plan_id":"cebpf4jnsgd1na2vs0mg"},{"bike_id":"a4d6c0ce-d5fd-4ac9-98cc-4bef6acfd763","system_id":"levelo_inurba_marseille","lat":43.30868,"lon":5.39634,"is_reserved":false,"is_disabled":false,"rental_uris":{"android":"levelo://app?vid=a4d6c0ce-d5fd-4ac9-98cc-4bef6acfd763","ios":"levelo://app?vid=a4d6c0ce-d5fd-4ac9-98cc-4bef6acfd763"},"vehicle_type_id":"4","last_reported":1743624632,"current_range_meters":10000,"station_id":"ce4bh012rcd13ifvqcv0","pricing_plan_id":"cebpf4jnsgd1na2vs0mg"},{"bike_id":"32a978e0-d0c2-43d4-9b03-19a5c41c27de","system_id":"levelo_inurba_marseille","lat":43.31069,"lon":5.38349,"is_reserved":false,"is_disabled":true,"rental_uris":{"android":"levelo://app?vid=32a978e0-d0c2-43d4-9b03-19a5c41c27de","ios":"levelo://app?vid=32a978e0-d0c2-43d4-9b03-19a5c41c27de"},"vehicle_type_id":"4","last_reported":1743624632,"current_range_meters":10000,"station_id":"ce4bgv92rcd13ifvqcr0","pricing_plan_id":"cebpf4jnsgd1na2vs0mg"},{"bike_id":"8cfd0938-42c3-4f85-b72b-b2176ddeda5c","system_id":"levelo_inurba_marseille","lat":43.29599,"lon":5.38103,"is_reserved":false,"is_disabled":false,"rental_uris":{"android":"levelo://app?vid=8cfd0938-42c3-4f85-b72b-b2176ddeda5c","ios":"levelo://app?vid=8cfd0938-42c3-4f85-b72b-b2176ddeda5c"},"vehicle_type_id":"4","last_reported":1743624632,"current_range_meters":10000,"station_id":"ce4bgl12rcd13ifvqbo0","pricing_plan_id":"cebpf4jnsgd1na2vs0mg"},{"bike_id":"f4b3c781-c46b-42d3-9ff9-fac436734dd4","system_id":"levelo_inurba_marseille","lat":43.30879,"lon":5.39629,"is_reserved":false,"is_disabled":false,"rental_uris":{"android":"levelo://app?vid=f4b3c781-c46b-42d3-9ff9-fac436734dd4","ios":"levelo://app?vid=f4b3c781-c46b-42d3-9ff9-fac436734dd4"},"vehicle_type_id":"4","last_reported":1743624632,"current_range_meters":10000,"station_id":"ce4bh012rcd13ifvqcv0","pricing_plan_id":"cebpf4jnsgd1na2vs0mg"},{"bike_id":"ea464bc9-6baf-477f-8592-2d7142958a22","system_id":"levelo_inurba_marseille","lat":43.26693,"lon":5.38273,"is_reserved":false,"is_disabled":true,"rental_uris":{"android":"levelo://app?vid=ea464bc9-6baf-477f-8592-2d7142958a22","ios":"levelo://app?vid=ea464bc9-6baf-477f-8592-2d7142958a22"},"vehicle_type_id":"4","last_reported":1743624632,"current_range_meters":10000,"station_id":"ce4bhg92rcd13ifvqf90","pricing_plan_id":"cebpf4jnsgd1na2vs0mg"},{"bike_id":"c2e6881a-04a3-4a38-9cc0-75cacf165e78","system_id":"levelo_inurba_marseille","lat":43.28832,"lon":5.364645,"is_reserved":false,"is_disabled":false,"rental_uris":{"android":"levelo://app?vid=c2e6881a-04a3-4a38-9cc0-75cacf165e78","ios":"levelo://app?vid=c2e6881a-04a3-4a38-9cc0-75cacf165e78"},"vehicle_type_id":"4","last_reported":1743624632,"current_range_meters":10800,"station_id":"","pricing_plan_id":"cebpf4jnsgd1na2vs0mg"},{"bike_id":"7e518bd1-a3c5-4718-b257-c0d50b977d20","system_id":"levelo_inurba_marseille","lat":43.25877,"lon":5.39921,"is_reserved":false,"is_disabled":true,"rental_uris":{"android":"levelo://app?vid=7e518bd1-a3c5-4718-b257-c0d50b977d20","ios":"levelo://app?vid=7e518bd1-a3c5-4718-b257-c0d50b977d20"},"vehicle_type_id":"4","last_reported":1743624632,"current_range_meters":10800,"station_id":"ce4bhl92rcd13ifvqghg","pricing_plan_id":"cebpf4jnsgd1na2vs0mg"},{"bike_id":"7ba67d0a-4dd2-434e-9233-c217be617343","system_id":"levelo_inurba_marseille","lat":43.3379,"lon":5.37455,"is_reserved":false,"is_disabled":false,"rental_uris":{"android":"levelo://app?vid=7ba67d0a-4dd2-434e-9233-c217be617343","ios":"levelo://app?vid=7ba67d0a-4dd2-434e-9233-c217be617343"},"vehicle_type_id":"4","last_reported":1743624632,"current_range_meters":10800,"station_id":"","pricing_plan_id":"cebpf4jnsgd1na2vs0mg"},{"bike_id":"b5fa61b4-55c0-4d0f-b518-f0583e71aca3","system_id":"levelo_inurba_marseille","lat":43.22932,"lon":5.3538,"is_reserved":false,"is_disabled":false,"rental_uris":{"android":"levelo://app?vid=b5fa61b4-55c0-4d0f-b518-f0583e71aca3","ios":"levelo://app?vid=b5fa61b4-55c0-4d0f-b518-f0583e71aca3"},"vehicle_type_id":"4","last_reported":1743624632,"current_range_meters":10800,"station_id":"cpo3532slgdg3j2ikp40","pricing_plan_id":"cebpf4jnsgd1na2vs0mg"},{"bike_id":"31d1ea3e-4624-4ef0-a5ac-098d466faa63","system_id":"levelo_inurba_marseille","lat":43.31165,"lon":5.38727,"is_reserved":false,"is_disabled":false,"rental_uris":{"android":"levelo://app?vid=31d1ea3e-4624-4ef0-a5ac-098d466faa63","ios":"levelo://app?vid=31d1ea3e-4624-4ef0-a5ac-098d466faa63"},"vehicle_type_id":"4","last_reported":1743624632,"current_range_meters":10800,"station_id":"ce4bgv12rcd13ifvqcp0","pricing_plan_id":"cebpf4jnsgd1na2vs0mg"},{"bike_id":"9c7c43d0-e830-4895-beb2-cb4882b8b24e","system_id":"levelo_inurba_marseille","lat":43.2944,"lon":5.38619,"is_reserved":false,"is_disabled":false,"rental_uris":{"android":"levelo://app?vid=9c7c43d0-e830-4895-beb2-cb4882b8b24e","ios":"levelo://app?vid=9c7c43d0-e830-4895-beb2-cb4882b8b24e"},"vehicle_type_id":"4","last_reported":1743624632,"current_range_meters":10800,"station_id":"ce4bh2h2rcd13ifvqdh0","pricing_plan_id":"cebpf4jnsgd1na2vs0mg"},{"bike_id":"875f1390-baa6-4ea2-b955-52d4b2272ace","system_id":"levelo_inurba_marseille","lat":43.29417,"lon":5.38623,"is_reserved":false,"is_disabled":false,"rental_uris":{"android":"levelo://app?vid=875f1390-baa6-4ea2-b955-52d4b2272ace","ios":"levelo://app?vid=875f1390-baa6-4ea2-b955-52d4b2272ace"},"vehicle_type_id":"4","last_reported":1743624632,"current_range_meters":10800,"station_id":"ce4bh2h2rcd13ifvqdh0","pricing_plan_id":"cebpf4jnsgd1na2vs0mg"},{"bike_id":"82be00d7-07cd-447f-a119-c8efb6be13a1","system_id":"levelo_inurba_marseille","lat":43.32365,"lon":5.38892,"is_reserved":false,"is_disabled":false,"rental_uris":{"android":"levelo://app?vid=82be00d7-07cd-447f-a119-c8efb6be13a1","ios":"levelo://app?vid=82be00d7-07cd-447f-a119-c8efb6be13a1"},"vehicle_type_id":"4","last_reported":1743624632,"current_range_meters":10800,"station_id":"ce4bhqp2rcd13ifvqhog","pricing_plan_id":"cebpf4jnsgd1na2vs0mg"},{"bike_id":"6fd3d18f-c3b5-4d07-8160-12fc5c26448c","system_id":"levelo_inurba_marseille","lat":43.32365,"lon":5.38888,"is_reserved":false,"is_disabled":false,"rental_uris":{"android":"levelo://app?vid=6fd3d18f-c3b5-4d07-8160-12fc5c26448c","ios":"levelo://app?vid=6fd3d18f-c3b5-4d07-8160-12fc5c26448c"},"vehicle_type_id":"4","last_reported":1743624632,"current_range_meters":10800,"station_id":"ce4bhqp2rcd13ifvqhog","pricing_plan_id":"cebpf4jnsgd1na2vs0mg"},{"bike_id":"b6c83da9-b3c4-4843-9a1d-36871e12515b","system_id":"levelo_inurba_marseille","lat":43.2613,"lon":5.41472,"is_reserved":false,"is_disabled":false,"rental_uris":{"android":"levelo://app?vid=b6c83da9-b3c4-4843-9a1d-36871e12515b","ios":"levelo://app?vid=b6c83da9-b3c4-4843-9a1d-36871e12515b"},"vehicle_type_id":"4","last_reported":1743624632,"current_range_meters":10800,"station_id":"","pricing_plan_id":"cebpf4jnsgd1na2vs0mg"},{"bike_id":"1f6bc5dc-7054-4b95-bf7f-a9c705dff9da","system_id":"levelo_inurba_marseille","lat":43.27361,"lon":5.36258,"is_reserved":false,"is_disabled":false,"rental_uris":{"android":"levelo://app?vid=1f6bc5dc-7054-4b95-bf7f-a9c705dff9da","ios":"levelo://app?vid=1f6bc5dc-7054-4b95-bf7f-a9c705dff9da"},"vehicle_type_id":"4","last_reported":1743624632,"current_range_meters":10800,"station_id":"ce4bhbh2rcd13ifvqeo0","pricing_plan_id":"cebpf4jnsgd1na2vs0mg"},{"bike_id":"e1b03b21-5eb0-483c-b4ac-ea8a29304382","system_id":"levelo_inurba_marseille","lat":43.23056,"lon":5.355,"is_reserved":false,"is_disabled":false,"rental_uris":{"android":"levelo://app?vid=e1b03b21-5eb0-483c-b4ac-ea8a29304382","ios":"levelo://app?vid=e1b03b21-5eb0-483c-b4ac-ea8a29304382"},"vehicle_type_id":"4","last_reported":1743624632,"current_range_meters":11200,"station_id":"cpo3342slgdg3j2ifvpg","pricing_plan_id":"cebpf4jnsgd1na2vs0mg"},{"bike_id":"0fa80b01-f2ff-42ac-b76f-ea8469a085cb","system_id":"levelo_inurba_marseille","lat":43.30784,"lon":5.37648,"is_reserved":false,"is_disabled":false,"rental_uris":{"android":"levelo://app?vid=0fa80b01-f2ff-42ac-b76f-ea8469a085cb","ios":"levelo://app?vid=0fa80b01-f2ff-42ac-b76f-ea8469a085cb"},"vehicle_type_id":"4","last_reported":1743624632,"current_range_meters":11200,"station_id":"ce4bgv92rcd13ifvqcq0","pricing_plan_id":"cebpf4jnsgd1na2vs0mg"},{"bike_id":"cf1e53ae-b855-4ff1-83cf-4764ba2133f9","system_id":"levelo_inurba_marseille","lat":43.28861,"lon":5.35841,"is_reserved":false,"is_disabled":false,"rental_uris":{"android":"levelo://app?vid=cf1e53ae-b855-4ff1-83cf-4764ba2133f9","ios":"levelo://app?vid=cf1e53ae-b855-4ff1-83cf-4764ba2133f9"},"vehicle_type_id":"4","last_reported":1743624632,"current_range_meters":11200,"station_id":"ce4bhb12rcd13ifvqem0","pricing_plan_id":"cebpf4jnsgd1na2vs0mg"},{"bike_id":"054bd084-de56-414f-9ea4-2892c7a1f3f1","system_id":"levelo_inurba_marseille","lat":43.28161,"lon":5.42635,"is_reserved":false,"is_disabled":false,"rental_uris":{"android":"levelo://app?vid=054bd084-de56-414f-9ea4-2892c7a1f3f1","ios":"levelo://app?vid=054bd084-de56-414f-9ea4-2892c7a1f3f1"},"vehicle_type_id":"4","last_reported":1743624632,"current_range_meters":11200,"station_id":"ce4bhnh2rcd13ifvqgug","pricing_plan_id":"cebpf4jnsgd1na2vs0mg"},{"bike_id":"84ef252f-ce09-41d3-9b7e-21219f041aa9","system_id":"levelo_inurba_marseille","lat":43.28617,"lon":5.35104,"is_reserved":false,"is_disabled":false,"rental_uris":{"android":"levelo://app?vid=84ef252f-ce09-41d3-9b7e-21219f041aa9","ios":"levelo://app?vid=84ef252f-ce09-41d3-9b7e-21219f041aa9"},"vehicle_type_id":"4","last_reported":1743624632,"current_range_meters":11200,"station_id":"ce4bhch2rcd13ifvqeug","pricing_plan_id":"cebpf4jnsgd1na2vs0mg"},{"bike_id":"505217d0-f155-4f8d-a444-8ffb022af8a2","system_id":"levelo_inurba_marseille","lat":43.28263,"lon":5.35069,"is_reserved":false,"is_disabled":false,"rental_uris":{"android":"levelo://app?vid=505217d0-f155-4f8d-a444-8ffb022af8a2","ios":"levelo://app?vid=505217d0-f155-4f8d-a444-8ffb022af8a2"},"vehicle_type_id":"4","last_reported":1743624632,"current_range_meters":10800,"station_id":"ce4bhbp2rcd13ifvqerg","pricing_plan_id":"cebpf4jnsgd1na2vs0mg"},{"bike_id":"09a8a7dc-25ab-48a6-ac8b-5ee88a884479","system_id":"levelo_inurba_marseille","lat":43.28617,"lon":5.3838,"is_reserved":false,"is_disabled":false,"rental_uris":{"android":"levelo://app?vid=09a8a7dc-25ab-48a6-ac8b-5ee88a884479","ios":"levelo://app?vid=09a8a7dc-25ab-48a6-ac8b-5ee88a884479"},"vehicle_type_id":"4","last_reported":1743624632,"current_range_meters":11600,"station_id":"","pricing_plan_id":"cebpf4jnsgd1na2vs0mg"},{"bike_id":"21a930cd-6757-4039-be21-1d6d7bc081fb","system_id":"levelo_inurba_marseille","lat":43.29268,"lon":5.3844,"is_reserved":false,"is_disabled":false,"rental_uris":{"android":"levelo://app?vid=21a930cd-6757-4039-be21-1d6d7bc081fb","ios":"levelo://app?vid=21a930cd-6757-4039-be21-1d6d7bc081fb"},"vehicle_type_id":"4","last_reported":1743624632,"current_range_meters":11600,"station_id":"ce4bh692rcd13ifvqea0","pricing_plan_id":"cebpf4jnsgd1na2vs0mg"},{"bike_id":"7d49898d-4c6e-4131-9fdb-37de62f2c79c","system_id":"levelo_inurba_marseille","lat":43.28912,"lon":5.37143,"is_reserved":false,"is_disabled":false,"rental_uris":{"android":"levelo://app?vid=7d49898d-4c6e-4131-9fdb-37de62f2c79c","ios":"levelo://app?vid=7d49898d-4c6e-4131-9fdb-37de62f2c79c"},"vehicle_type_id":"4","last_reported":1743624632,"current_range_meters":11600,"station_id":"","pricing_plan_id":"cebpf4jnsgd1na2vs0mg"},{"bike_id":"c2814ac1-bbda-4565-afe5-c29611abff83","system_id":"levelo_inurba_marseille","lat":43.27813,"lon":5.40724,"is_reserved":false,"is_disabled":false,"rental_uris":{"android":"levelo://app?vid=c2814ac1-bbda-4565-afe5-c29611abff83","ios":"levelo://app?vid=c2814ac1-bbda-4565-afe5-c29611abff83"},"vehicle_type_id":"4","last_reported":1743624632,"current_range_meters":11600,"station_id":"ce4bhnh2rcd13ifvqgtg","pricing_plan_id":"cebpf4jnsgd1na2vs0mg"},{"bike_id":"9e7c224b-9a67-4d10-89b5-39e81d5706d0","system_id":"levelo_inurba_marseille","lat":43.28453,"lon":5.35895,"is_reserved":false,"is_disabled":false,"rental_uris":{"android":"levelo://app?vid=9e7c224b-9a67-4d10-89b5-39e81d5706d0","ios":"levelo://app?vid=9e7c224b-9a67-4d10-89b5-39e81d5706d0"},"vehicle_type_id":"4","last_reported":1743624632,"current_range_meters":11600,"station_id":"ce4bhah2rcd13ifvqei0","pricing_plan_id":"cebpf4jnsgd1na2vs0mg"},{"bike_id":"fb2cc8bd-b22d-40b8-b6f2-355ed9038731","system_id":"levelo_inurba_marseille","lat":43.28417,"lon":5.3752,"is_reserved":false,"is_disabled":false,"rental_uris":{"android":"levelo://app?vid=fb2cc8bd-b22d-40b8-b6f2-355ed9038731","ios":"levelo://app?vid=fb2cc8bd-b22d-40b8-b6f2-355ed9038731"},"vehicle_type_id":"4","last_reported":1743624632,"current_range_meters":12000,"station_id":"ce4bh412rcd13ifvqds0","pricing_plan_id":"cebpf4jnsgd1na2vs0mg"},{"bike_id":"c3ea01b8-4040-4ef1-841d-299febab1e04","system_id":"levelo_inurba_marseille","lat":43.28852,"lon":5.35849,"is_reserved":false,"is_disabled":false,"rental_uris":{"android":"levelo://app?vid=c3ea01b8-4040-4ef1-841d-299febab1e04","ios":"levelo://app?vid=c3ea01b8-4040-4ef1-841d-299febab1e04"},"vehicle_type_id":"4","last_reported":1743624632,"current_range_meters":12000,"station_id":"ce4bhb12rcd13ifvqem0","pricing_plan_id":"cebpf4jnsgd1na2vs0mg"},{"bike_id":"cd83c8ac-ed09-4369-9279-b6f36f2bbd3c","system_id":"levelo_inurba_marseille","lat":43.30792,"lon":5.38252,"is_reserved":false,"is_disabled":false,"rental_uris":{"android":"levelo://app?vid=cd83c8ac-ed09-4369-9279-b6f36f2bbd3c","ios":"levelo://app?vid=cd83c8ac-ed09-4369-9279-b6f36f2bbd3c"},"vehicle_type_id":"4","last_reported":1743624632,"current_range_meters":12000,"station_id":"","pricing_plan_id":"cebpf4jnsgd1na2vs0mg"},{"bike_id":"77a83e64-6de5-4fae-8124-450396c41a21","system_id":"levelo_inurba_marseille","lat":43.29555,"lon":5.4228,"is_reserved":false,"is_disabled":false,"rental_uris":{"android":"levelo://app?vid=77a83e64-6de5-4fae-8124-450396c41a21","ios":"levelo://app?vid=77a83e64-6de5-4fae-8124-450396c41a21"},"vehicle_type_id":"4","last_reported":1743624632,"current_range_meters":12000,"station_id":"ce4bhph2rcd13ifvqhdg","pricing_plan_id":"cebpf4jnsgd1na2vs0mg"},{"bike_id":"45b05dd1-44da-4ef1-8408-bfe9c62c0924","system_id":"levelo_inurba_marseille","lat":43.29556,"lon":5.42286,"is_reserved":false,"is_disabled":false,"rental_uris":{"android":"levelo://app?vid=45b05dd1-44da-4ef1-8408-bfe9c62c0924","ios":"levelo://app?vid=45b05dd1-44da-4ef1-8408-bfe9c62c0924"},"vehicle_type_id":"4","last_reported":1743624632,"current_range_meters":12000,"station_id":"ce4bhph2rcd13ifvqhdg","pricing_plan_id":"cebpf4jnsgd1na2vs0mg"},{"bike_id":"8cc6c2ed-3e77-4cd4-b528-4be3c22c789b","system_id":"levelo_inurba_marseille","lat":43.28952,"lon":5.36629,"is_reserved":false,"is_disabled":false,"rental_uris":{"android":"levelo://app?vid=8cc6c2ed-3e77-4cd4-b528-4be3c22c789b","ios":"levelo://app?vid=8cc6c2ed-3e77-4cd4-b528-4be3c22c789b"},"vehicle_type_id":"4","last_reported":1743624632,"current_range_meters":12000,"station_id":"ce4bhap2rcd13ifvqek0","pricing_plan_id":"cebpf4jnsgd1na2vs0mg"},{"bike_id":"7514852b-340a-4392-a4d2-9a84e0d03998","system_id":"levelo_inurba_marseille","lat":43.33312,"lon":5.39646,"is_reserved":false,"is_disabled":false,"rental_uris":{"android":"levelo://app?vid=7514852b-340a-4392-a4d2-9a84e0d03998","ios":"levelo://app?vid=7514852b-340a-4392-a4d2-9a84e0d03998"},"vehicle_type_id":"4","last_reported":1743624632,"current_range_meters":12000,"station_id":"","pricing_plan_id":"cebpf4jnsgd1na2vs0mg"},{"bike_id":"d5b3fb9d-789e-4acf-84a6-8a9366b8a57d","system_id":"levelo_inurba_marseille","lat":43.24075,"lon":5.37755,"is_reserved":false,"is_disabled":false,"rental_uris":{"android":"levelo://app?vid=d5b3fb9d-789e-4acf-84a6-8a9366b8a57d","ios":"levelo://app?vid=d5b3fb9d-789e-4acf-84a6-8a9366b8a57d"},"vehicle_type_id":"4","last_reported":1743624632,"current_range_meters":11600,"station_id":"ce4bhnp2rcd13ifvqgvg","pricing_plan_id":"cebpf4jnsgd1na2vs0mg"},{"bike_id":"eca000f3-7adb-462c-b7ed-61fb5b2098fc","system_id":"levelo_inurba_marseille","lat":43.22921,"lon":5.35394,"is_reserved":false,"is_disabled":false,"rental_uris":{"android":"levelo://app?vid=eca000f3-7adb-462c-b7ed-61fb5b2098fc","ios":"levelo://app?vid=eca000f3-7adb-462c-b7ed-61fb5b2098fc"},"vehicle_type_id":"4","last_reported":1743624632,"current_range_meters":12000,"station_id":"cpo3532slgdg3j2ikp40","pricing_plan_id":"cebpf4jnsgd1na2vs0mg"},{"bike_id":"170f7a35-477e-4999-b64b-4ad81639814e","system_id":"levelo_inurba_marseille","lat":43.27202,"lon":5.40984,"is_reserved":false,"is_disabled":false,"rental_uris":{"android":"levelo://app?vid=170f7a35-477e-4999-b64b-4ad81639814e","ios":"levelo://app?vid=170f7a35-477e-4999-b64b-4ad81639814e"},"vehicle_type_id":"4","last_reported":1743624632,"current_range_meters":12000,"station_id":"ce4bhl12rcd13ifvqgf0","pricing_plan_id":"cebpf4jnsgd1na2vs0mg"},{"bike_id":"4ec8776c-c288-4c4c-ad31-ffeec3ec3373","system_id":"levelo_inurba_marseille","lat":43.29296,"lon":5.38724,"is_reserved":false,"is_disabled":false,"rental_uris":{"android":"levelo://app?vid=4ec8776c-c288-4c4c-ad31-ffeec3ec3373","ios":"levelo://app?vid=4ec8776c-c288-4c4c-ad31-ffeec3ec3373"},"vehicle_type_id":"4","last_reported":1743624632,"current_range_meters":12400,"station_id":"","pricing_plan_id":"cebpf4jnsgd1na2vs0mg"},{"bike_id":"ecb7b3ba-0fa1-4395-a641-b28b0c48f68c","system_id":"levelo_inurba_marseille","lat":43.29227,"lon":5.360585,"is_reserved":false,"is_disabled":false,"rental_uris":{"android":"levelo://app?vid=ecb7b3ba-0fa1-4395-a641-b28b0c48f68c","ios":"levelo://app?vid=ecb7b3ba-0fa1-4395-a641-b28b0c48f68c"},"vehicle_type_id":"4","last_reported":1743624632,"current_range_meters":12400,"station_id":"ce4bhbh2rcd13ifvqeqg","pricing_plan_id":"cebpf4jnsgd1na2vs0mg"},{"bike_id":"9f62f29e-b083-4314-9e82-a49e79ecd17d","system_id":"levelo_inurba_marseille","lat":43.22938,"lon":5.35381,"is_reserved":false,"is_disabled":false,"rental_uris":{"android":"levelo://app?vid=9f62f29e-b083-4314-9e82-a49e79ecd17d","ios":"levelo://app?vid=9f62f29e-b083-4314-9e82-a49e79ecd17d"},"vehicle_type_id":"4","last_reported":1743624632,"current_range_meters":12400,"station_id":"cpo3532slgdg3j2ikp40","pricing_plan_id":"cebpf4jnsgd1na2vs0mg"},{"bike_id":"67162c31-b374-4069-995c-3c8d53e2ddc8","system_id":"levelo_inurba_marseille","lat":43.23966,"lon":5.36629,"is_reserved":false,"is_disabled":false,"rental_uris":{"android":"levelo://app?vid=67162c31-b374-4069-995c-3c8d53e2ddc8","ios":"levelo://app?vid=67162c31-b374-4069-995c-3c8d53e2ddc8"},"vehicle_type_id":"4","last_reported":1743624632,"current_range_meters":12400,"station_id":"ce4bhi12rcd13ifvqfp0","pricing_plan_id":"cebpf4jnsgd1na2vs0mg"},{"bike_id":"8d37a5d5-e37d-48aa-bfb1-2eba8d2e5a93","system_id":"levelo_inurba_marseille","lat":43.30092,"lon":5.39061,"is_reserved":false,"is_disabled":false,"rental_uris":{"android":"levelo://app?vid=8d37a5d5-e37d-48aa-bfb1-2eba8d2e5a93","ios":"levelo://app?vid=8d37a5d5-e37d-48aa-bfb1-2eba8d2e5a93"},"vehicle_type_id":"4","last_reported":1743624632,"current_range_meters":12800,"station_id":"ce4bh192rcd13ifvqdb0","pricing_plan_id":"cebpf4jnsgd1na2vs0mg"},{"bike_id":"98e38234-a69c-4637-b174-c2b93e8bdb8b","system_id":"levelo_inurba_marseille","lat":43.29418,"lon":5.38632,"is_reserved":false,"is_disabled":false,"rental_uris":{"android":"levelo://app?vid=98e38234-a69c-4637-b174-c2b93e8bdb8b","ios":"levelo://app?vid=98e38234-a69c-4637-b174-c2b93e8bdb8b"},"vehicle_type_id":"4","last_reported":1743624632,"current_range_meters":12800,"station_id":"ce4bh2h2rcd13ifvqdh0","pricing_plan_id":"cebpf4jnsgd1na2vs0mg"},{"bike_id":"6347c314-d446-4b82-9678-4bdccf99acdf","system_id":"levelo_inurba_marseille","lat":43.31166,"lon":5.38723,"is_reserved":false,"is_disabled":false,"rental_uris":{"android":"levelo://app?vid=6347c314-d446-4b82-9678-4bdccf99acdf","ios":"levelo://app?vid=6347c314-d446-4b82-9678-4bdccf99acdf"},"vehicle_type_id":"4","last_reported":1743624632,"current_range_meters":12800,"station_id":"ce4bgv12rcd13ifvqcp0","pricing_plan_id":"cebpf4jnsgd1na2vs0mg"},{"bike_id":"2d55a9e3-3097-4055-8916-006f9a9dc3fb","system_id":"levelo_inurba_marseille","lat":43.28356,"lon":5.38105,"is_reserved":false,"is_disabled":false,"rental_uris":{"android":"levelo://app?vid=2d55a9e3-3097-4055-8916-006f9a9dc3fb","ios":"levelo://app?vid=2d55a9e3-3097-4055-8916-006f9a9dc3fb"},"vehicle_type_id":"4","last_reported":1743624632,"current_range_meters":12800,"station_id":"ce4bh412rcd13ifvqdr0","pricing_plan_id":"cebpf4jnsgd1na2vs0mg"},{"bike_id":"d62c66c6-b429-4577-a2f6-f97a8c296f90","system_id":"levelo_inurba_marseille","lat":43.28848,"lon":5.39293,"is_reserved":false,"is_disabled":false,"rental_uris":{"android":"levelo://app?vid=d62c66c6-b429-4577-a2f6-f97a8c296f90","ios":"levelo://app?vid=d62c66c6-b429-4577-a2f6-f97a8c296f90"},"vehicle_type_id":"4","last_reported":1743624632,"current_range_meters":12800,"station_id":"ce4bh2p2rcd13ifvqdi0","pricing_plan_id":"cebpf4jnsgd1na2vs0mg"},{"bike_id":"c03c3446-1cc9-44e4-81b7-003dc35ee68e","system_id":"levelo_inurba_marseille","lat":43.29535,"lon":5.38548,"is_reserved":false,"is_disabled":false,"rental_uris":{"android":"levelo://app?vid=c03c3446-1cc9-44e4-81b7-003dc35ee68e","ios":"levelo://app?vid=c03c3446-1cc9-44e4-81b7-003dc35ee68e"},"vehicle_type_id":"4","last_reported":1743624632,"current_range_meters":12800,"station_id":"ce4bgih2rcd13ifvqba0","pricing_plan_id":"cebpf4jnsgd1na2vs0mg"},{"bike_id":"70e5b39f-29e3-4ea9-aa83-5a60a8eec6f8","system_id":"levelo_inurba_marseille","lat":43.25041,"lon":5.41711,"is_reserved":false,"is_disabled":false,"rental_uris":{"android":"levelo://app?vid=70e5b39f-29e3-4ea9-aa83-5a60a8eec6f8","ios":"levelo://app?vid=70e5b39f-29e3-4ea9-aa83-5a60a8eec6f8"},"vehicle_type_id":"4","last_reported":1743624632,"current_range_meters":12800,"station_id":"","pricing_plan_id":"cebpf4jnsgd1na2vs0mg"},{"bike_id":"2ab4d37a-f1c9-4e83-ad93-2fe6c9e954d1","system_id":"levelo_inurba_marseille","lat":43.29533,"lon":5.38552,"is_reserved":false,"is_disabled":false,"rental_uris":{"android":"levelo://app?vid=2ab4d37a-f1c9-4e83-ad93-2fe6c9e954d1","ios":"levelo://app?vid=2ab4d37a-f1c9-4e83-ad93-2fe6c9e954d1"},"vehicle_type_id":"4","last_reported":1743624632,"current_range_meters":12800,"station_id":"ce4bgih2rcd13ifvqba0","pricing_plan_id":"cebpf4jnsgd1na2vs0mg"},{"bike_id":"a2a07a95-fad3-4ed6-a5e8-f02c9a2ba43a","system_id":"levelo_inurba_marseille","lat":43.29548,"lon":5.42287,"is_reserved":false,"is_disabled":false,"rental_uris":{"android":"levelo://app?vid=a2a07a95-fad3-4ed6-a5e8-f02c9a2ba43a","ios":"levelo://app?vid=a2a07a95-fad3-4ed6-a5e8-f02c9a2ba43a"},"vehicle_type_id":"4","last_reported":1743624632,"current_range_meters":12800,"station_id":"ce4bhph2rcd13ifvqhdg","pricing_plan_id":"cebpf4jnsgd1na2vs0mg"},{"bike_id":"80e1cea3-1bbc-44a9-bf93-62277ab86138","system_id":"levelo_inurba_marseille","lat":43.30544,"lon":5.38421,"is_reserved":false,"is_disabled":false,"rental_uris":{"android":"levelo://app?vid=80e1cea3-1bbc-44a9-bf93-62277ab86138","ios":"levelo://app?vid=80e1cea3-1bbc-44a9-bf93-62277ab86138"},"vehicle_type_id":"4","last_reported":1743624632,"current_range_meters":13600,"station_id":"ce4bgg92rcd13ifvqb30","pricing_plan_id":"cebpf4jnsgd1na2vs0mg"},{"bike_id":"b86b5b87-f029-48ac-aa00-3a50d7e2c1d2","system_id":"levelo_inurba_marseille","lat":43.32359,"lon":5.36812,"is_reserved":false,"is_disabled":true,"rental_uris":{"android":"levelo://app?vid=b86b5b87-f029-48ac-aa00-3a50d7e2c1d2","ios":"levelo://app?vid=b86b5b87-f029-48ac-aa00-3a50d7e2c1d2"},"vehicle_type_id":"4","last_reported":1743624632,"current_range_meters":13600,"station_id":"ce4bhsh2rcd13ifvqi2g","pricing_plan_id":"cebpf4jnsgd1na2vs0mg"},{"bike_id":"5e088fee-d74c-4e59-ba64-d9cbd23f81aa","system_id":"levelo_inurba_marseille","lat":43.26778,"lon":5.39417,"is_reserved":false,"is_disabled":false,"rental_uris":{"android":"levelo://app?vid=5e088fee-d74c-4e59-ba64-d9cbd23f81aa","ios":"levelo://app?vid=5e088fee-d74c-4e59-ba64-d9cbd23f81aa"},"vehicle_type_id":"4","last_reported":1743624632,"current_range_meters":12800,"station_id":"ce4bhh12rcd13ifvqfg0","pricing_plan_id":"cebpf4jnsgd1na2vs0mg"},{"bike_id":"0cfd3fd2-d703-47ff-9dea-8f4a337d85bc","system_id":"levelo_inurba_marseille","lat":43.29038,"lon":5.35916,"is_reserved":false,"is_disabled":false,"rental_uris":{"android":"levelo://app?vid=0cfd3fd2-d703-47ff-9dea-8f4a337d85bc","ios":"levelo://app?vid=0cfd3fd2-d703-47ff-9dea-8f4a337d85bc"},"vehicle_type_id":"4","last_reported":1743624632,"current_range_meters":14000,"station_id":"ce4bha92rcd13ifvqeg0","pricing_plan_id":"cebpf4jnsgd1na2vs0mg"},{"bike_id":"ddacc778-3175-4c50-94bf-bd4fcc0ef987","system_id":"levelo_inurba_marseille","lat":43.28696,"lon":5.37383,"is_reserved":false,"is_disabled":false,"rental_uris":{"android":"levelo://app?vid=ddacc778-3175-4c50-94bf-bd4fcc0ef987","ios":"levelo://app?vid=ddacc778-3175-4c50-94bf-bd4fcc0ef987"},"vehicle_type_id":"4","last_reported":1743624632,"current_range_meters":14000,"station_id":"ce4bh3p2rcd13ifvqdq0","pricing_plan_id":"cebpf4jnsgd1na2vs0mg"},{"bike_id":"66157e1f-aea0-4160-90ba-64571f2b11bb","system_id":"levelo_inurba_marseille","lat":43.29528,"lon":5.39023,"is_reserved":false,"is_disabled":false,"rental_uris":{"android":"levelo://app?vid=66157e1f-aea0-4160-90ba-64571f2b11bb","ios":"levelo://app?vid=66157e1f-aea0-4160-90ba-64571f2b11bb"},"vehicle_type_id":"4","last_reported":1743624632,"current_range_meters":14000,"station_id":"ce4bh3p2rcd13ifvqdp0","pricing_plan_id":"cebpf4jnsgd1na2vs0mg"},{"bike_id":"e699a15f-114f-4b23-964a-04858d60934b","system_id":"levelo_inurba_marseille","lat":43.29262,"lon":5.38428,"is_reserved":false,"is_disabled":false,"rental_uris":{"android":"levelo://app?vid=e699a15f-114f-4b23-964a-04858d60934b","ios":"levelo://app?vid=e699a15f-114f-4b23-964a-04858d60934b"},"vehicle_type_id":"4","last_reported":1743624632,"current_range_meters":14000,"station_id":"ce4bh692rcd13ifvqea0","pricing_plan_id":"cebpf4jnsgd1na2vs0mg"},{"bike_id":"2b7563bf-72ce-4546-bdfe-0681f54925e9","system_id":"levelo_inurba_marseille","lat":43.29253,"lon":5.38434,"is_reserved":false,"is_disabled":true,"rental_uris":{"android":"levelo://app?vid=2b7563bf-72ce-4546-bdfe-0681f54925e9","ios":"levelo://app?vid=2b7563bf-72ce-4546-bdfe-0681f54925e9"},"vehicle_type_id":"4","last_reported":1743624632,"current_range_meters":14000,"station_id":"ce4bh692rcd13ifvqea0","pricing_plan_id":"cebpf4jnsgd1na2vs0mg"},{"bike_id":"65176d7e-a215-4479-a736-b11f75a62786","system_id":"levelo_inurba_marseille","lat":43.28457,"lon":5.35888,"is_reserved":false,"is_disabled":false,"rental_uris":{"android":"levelo://app?vid=65176d7e-a215-4479-a736-b11f75a62786","ios":"levelo://app?vid=65176d7e-a215-4479-a736-b11f75a62786"},"vehicle_type_id":"4","last_reported":1743624632,"current_range_meters":14000,"station_id":"ce4bhah2rcd13ifvqei0","pricing_plan_id":"cebpf4jnsgd1na2vs0mg"},{"bike_id":"e6f02e74-383c-4bae-b8c4-037430863270","system_id":"levelo_inurba_marseille","lat":43.23056,"lon":5.35494,"is_reserved":false,"is_disabled":false,"rental_uris":{"android":"levelo://app?vid=e6f02e74-383c-4bae-b8c4-037430863270","ios":"levelo://app?vid=e6f02e74-383c-4bae-b8c4-037430863270"},"vehicle_type_id":"4","last_reported":1743624632,"current_range_meters":14000,"station_id":"cpo3342slgdg3j2ifvpg","pricing_plan_id":"cebpf4jnsgd1na2vs0mg"},{"bike_id":"06fbe62f-06d7-4d83-b073-70cb8dc2a14c","system_id":"levelo_inurba_marseille","lat":43.29049,"lon":5.35917,"is_reserved":false,"is_disabled":false,"rental_uris":{"android":"levelo://app?vid=06fbe62f-06d7-4d83-b073-70cb8dc2a14c","ios":"levelo://app?vid=06fbe62f-06d7-4d83-b073-70cb8dc2a14c"},"vehicle_type_id":"4","last_reported":1743624632,"current_range_meters":14000,"station_id":"ce4bha92rcd13ifvqeg0","pricing_plan_id":"cebpf4jnsgd1na2vs0mg"},{"bike_id":"9d0457ef-48ad-4186-a488-7c51d10d0f62","system_id":"levelo_inurba_marseille","lat":43.3176,"lon":5.3903,"is_reserved":false,"is_disabled":false,"rental_uris":{"android":"levelo://app?vid=9d0457ef-48ad-4186-a488-7c51d10d0f62","ios":"levelo://app?vid=9d0457ef-48ad-4186-a488-7c51d10d0f62"},"vehicle_type_id":"4","last_reported":1743624632,"current_range_meters":14000,"station_id":"ce4bhqp2rcd13ifvqhng","pricing_plan_id":"cebpf4jnsgd1na2vs0mg"},{"bike_id":"af9cff1e-b0b0-4df6-bfe2-b8ed2f2fe6c3","system_id":"levelo_inurba_marseille","lat":43.267883,"lon":5.394146,"is_reserved":false,"is_disabled":false,"rental_uris":{"android":"levelo://app?vid=af9cff1e-b0b0-4df6-bfe2-b8ed2f2fe6c3","ios":"levelo://app?vid=af9cff1e-b0b0-4df6-bfe2-b8ed2f2fe6c3"},"vehicle_type_id":"4","last_reported":1743624632,"current_range_meters":14400,"station_id":"ce4bhh12rcd13ifvqfg0","pricing_plan_id":"cebpf4jnsgd1na2vs0mg"},{"bike_id":"da36678f-c664-4076-95f1-47cd1c437f86","system_id":"levelo_inurba_marseille","lat":43.29532,"lon":5.38534,"is_reserved":false,"is_disabled":false,"rental_uris":{"android":"levelo://app?vid=da36678f-c664-4076-95f1-47cd1c437f86","ios":"levelo://app?vid=da36678f-c664-4076-95f1-47cd1c437f86"},"vehicle_type_id":"4","last_reported":1743624632,"current_range_meters":14400,"station_id":"ce4bgih2rcd13ifvqba0","pricing_plan_id":"cebpf4jnsgd1na2vs0mg"},{"bike_id":"a014b36e-40fa-4c58-8432-84aa89c3694d","system_id":"levelo_inurba_marseille","lat":43.29219,"lon":5.3934,"is_reserved":false,"is_disabled":false,"rental_uris":{"android":"levelo://app?vid=a014b36e-40fa-4c58-8432-84aa89c3694d","ios":"levelo://app?vid=a014b36e-40fa-4c58-8432-84aa89c3694d"},"vehicle_type_id":"4","last_reported":1743624632,"current_range_meters":14400,"station_id":"ce4bh192rcd13ifvqdd0","pricing_plan_id":"cebpf4jnsgd1na2vs0mg"},{"bike_id":"48bffe9e-aacf-4b38-b2c4-f564e2f3ca02","system_id":"levelo_inurba_marseille","lat":43.28703,"lon":5.36171,"is_reserved":false,"is_disabled":false,"rental_uris":{"android":"levelo://app?vid=48bffe9e-aacf-4b38-b2c4-f564e2f3ca02","ios":"levelo://app?vid=48bffe9e-aacf-4b38-b2c4-f564e2f3ca02"},"vehicle_type_id":"4","last_reported":1743624632,"current_range_meters":14000,"station_id":"cki0cbj6b192h4jlfktg","pricing_plan_id":"cebpf4jnsgd1na2vs0mg"},{"bike_id":"2635283e-ffd4-4c1f-b9e8-1b146ac4c8cc","system_id":"levelo_inurba_marseille","lat":43.30208,"lon":5.41922,"is_reserved":false,"is_disabled":false,"rental_uris":{"android":"levelo://app?vid=2635283e-ffd4-4c1f-b9e8-1b146ac4c8cc","ios":"levelo://app?vid=2635283e-ffd4-4c1f-b9e8-1b146ac4c8cc"},"vehicle_type_id":"4","last_reported":1743624632,"current_range_meters":14400,"station_id":"","pricing_plan_id":"cebpf4jnsgd1na2vs0mg"},{"bike_id":"bb745ff7-e372-47cd-8e7a-5658e3435a0c","system_id":"levelo_inurba_marseille","lat":43.30261,"lon":5.400794,"is_reserved":false,"is_disabled":false,"rental_uris":{"android":"levelo://app?vid=bb745ff7-e372-47cd-8e7a-5658e3435a0c","ios":"levelo://app?vid=bb745ff7-e372-47cd-8e7a-5658e3435a0c"},"vehicle_type_id":"4","last_reported":1743624632,"current_range_meters":14400,"station_id":"","pricing_plan_id":"cebpf4jnsgd1na2vs0mg"},{"bike_id":"67666b44-cc41-49bf-b186-852e1a319a72","system_id":"levelo_inurba_marseille","lat":43.30785,"lon":5.3765,"is_reserved":false,"is_disabled":false,"rental_uris":{"android":"levelo://app?vid=67666b44-cc41-49bf-b186-852e1a319a72","ios":"levelo://app?vid=67666b44-cc41-49bf-b186-852e1a319a72"},"vehicle_type_id":"4","last_reported":1743624632,"current_range_meters":14400,"station_id":"ce4bgv92rcd13ifvqcq0","pricing_plan_id":"cebpf4jnsgd1na2vs0mg"},{"bike_id":"40d7bdc3-e7aa-45d5-a491-df46dc99cc67","system_id":"levelo_inurba_marseille","lat":43.29044,"lon":5.359,"is_reserved":false,"is_disabled":false,"rental_uris":{"android":"levelo://app?vid=40d7bdc3-e7aa-45d5-a491-df46dc99cc67","ios":"levelo://app?vid=40d7bdc3-e7aa-45d5-a491-df46dc99cc67"},"vehicle_type_id":"4","last_reported":1743624632,"current_range_meters":14400,"station_id":"ce4bha92rcd13ifvqeg0","pricing_plan_id":"cebpf4jnsgd1na2vs0mg"},{"bike_id":"440db1a6-b3eb-4e79-9b32-5148980bdc31","system_id":"levelo_inurba_marseille","lat":43.28854,"lon":5.39299,"is_reserved":false,"is_disabled":false,"rental_uris":{"android":"levelo://app?vid=440db1a6-b3eb-4e79-9b32-5148980bdc31","ios":"levelo://app?vid=440db1a6-b3eb-4e79-9b32-5148980bdc31"},"vehicle_type_id":"4","last_reported":1743624632,"current_range_meters":14800,"station_id":"ce4bh2p2rcd13ifvqdi0","pricing_plan_id":"cebpf4jnsgd1na2vs0mg"},{"bike_id":"97c0eecc-8787-4395-b6d9-f622fd6dd4ee","system_id":"levelo_inurba_marseille","lat":43.26134,"lon":5.40959,"is_reserved":false,"is_disabled":true,"rental_uris":{"android":"levelo://app?vid=97c0eecc-8787-4395-b6d9-f622fd6dd4ee","ios":"levelo://app?vid=97c0eecc-8787-4395-b6d9-f622fd6dd4ee"},"vehicle_type_id":"4","last_reported":1743624632,"current_range_meters":14800,"station_id":"","pricing_plan_id":"cebpf4jnsgd1na2vs0mg"},{"bike_id":"e3a29d38-a611-4b12-87ef-2fb8a21c41d5","system_id":"levelo_inurba_marseille","lat":43.22929,"lon":5.35363,"is_reserved":false,"is_disabled":false,"rental_uris":{"android":"levelo://app?vid=e3a29d38-a611-4b12-87ef-2fb8a21c41d5","ios":"levelo://app?vid=e3a29d38-a611-4b12-87ef-2fb8a21c41d5"},"vehicle_type_id":"4","last_reported":1743624632,"current_range_meters":14800,"station_id":"cpo3532slgdg3j2ikp40","pricing_plan_id":"cebpf4jnsgd1na2vs0mg"},{"bike_id":"78ca934a-98c9-4dbc-b5b6-c2ca906050d2","system_id":"levelo_inurba_marseille","lat":43.29741,"lon":5.3895,"is_reserved":false,"is_disabled":false,"rental_uris":{"android":"levelo://app?vid=78ca934a-98c9-4dbc-b5b6-c2ca906050d2","ios":"levelo://app?vid=78ca934a-98c9-4dbc-b5b6-c2ca906050d2"},"vehicle_type_id":"4","last_reported":1743624632,"current_range_meters":14800,"station_id":"","pricing_plan_id":"cebpf4jnsgd1na2vs0mg"},{"bike_id":"c1c63035-c83b-4419-8cbf-133778d95125","system_id":"levelo_inurba_marseille","lat":43.29789,"lon":5.39332,"is_reserved":false,"is_disabled":true,"rental_uris":{"android":"levelo://app?vid=c1c63035-c83b-4419-8cbf-133778d95125","ios":"levelo://app?vid=c1c63035-c83b-4419-8cbf-133778d95125"},"vehicle_type_id":"4","last_reported":1743624632,"current_range_meters":14800,"station_id":"chh1huq6cuj3fo74tm60","pricing_plan_id":"cebpf4jnsgd1na2vs0mg"},{"bike_id":"72ab8e82-191a-4f11-a6c3-9d28b86aa057","system_id":"levelo_inurba_marseille","lat":43.28031,"lon":5.36945,"is_reserved":false,"is_disabled":false,"rental_uris":{"android":"levelo://app?vid=72ab8e82-191a-4f11-a6c3-9d28b86aa057","ios":"levelo://app?vid=72ab8e82-191a-4f11-a6c3-9d28b86aa057"},"vehicle_type_id":"4","last_reported":1743624632,"current_range_meters":14800,"station_id":"ce4bha12rcd13ifvqef0","pricing_plan_id":"cebpf4jnsgd1na2vs0mg"},{"bike_id":"c2ddb254-94b9-4479-ae35-280bdce16d3e","system_id":"levelo_inurba_marseille","lat":43.294212,"lon":5.386232,"is_reserved":false,"is_disabled":false,"rental_uris":{"android":"levelo://app?vid=c2ddb254-94b9-4479-ae35-280bdce16d3e","ios":"levelo://app?vid=c2ddb254-94b9-4479-ae35-280bdce16d3e"},"vehicle_type_id":"4","last_reported":1743624632,"current_range_meters":14800,"station_id":"ce4bh2h2rcd13ifvqdh0","pricing_plan_id":"cebpf4jnsgd1na2vs0mg"},{"bike_id":"0948408c-c002-42a2-87a9-933c831c48e4","system_id":"levelo_inurba_marseille","lat":43.28727,"lon":5.36077,"is_reserved":false,"is_disabled":false,"rental_uris":{"android":"levelo://app?vid=0948408c-c002-42a2-87a9-933c831c48e4","ios":"levelo://app?vid=0948408c-c002-42a2-87a9-933c831c48e4"},"vehicle_type_id":"4","last_reported":1743624632,"current_range_meters":15200,"station_id":"cki0cbj6b192h4jlfktg","pricing_plan_id":"cebpf4jnsgd1na2vs0mg"},{"bike_id":"95019719-c74f-41a1-a986-f0fc3550d793","system_id":"levelo_inurba_marseille","lat":43.25039,"lon":5.3891,"is_reserved":false,"is_disabled":false,"rental_uris":{"android":"levelo://app?vid=95019719-c74f-41a1-a986-f0fc3550d793","ios":"levelo://app?vid=95019719-c74f-41a1-a986-f0fc3550d793"},"vehicle_type_id":"4","last_reported":1743624632,"current_range_meters":15200,"station_id":"ce4bhgp2rcd13ifvqfd0","pricing_plan_id":"cebpf4jnsgd1na2vs0mg"},{"bike_id":"de0ead6d-5160-44e2-a0d1-1aaa62aa4fed","system_id":"levelo_inurba_marseille","lat":43.28704,"lon":5.39994,"is_reserved":false,"is_disabled":false,"rental_uris":{"android":"levelo://app?vid=de0ead6d-5160-44e2-a0d1-1aaa62aa4fed","ios":"levelo://app?vid=de0ead6d-5160-44e2-a0d1-1aaa62aa4fed"},"vehicle_type_id":"4","last_reported":1743624632,"current_range_meters":15200,"station_id":"ce4bho92rcd13ifvqh3g","pricing_plan_id":"cebpf4jnsgd1na2vs0mg"},{"bike_id":"c24d4f83-fb41-48e9-a7c2-a21a6944f369","system_id":"levelo_inurba_marseille","lat":43.33013,"lon":5.39013,"is_reserved":false,"is_disabled":false,"rental_uris":{"android":"levelo://app?vid=c24d4f83-fb41-48e9-a7c2-a21a6944f369","ios":"levelo://app?vid=c24d4f83-fb41-48e9-a7c2-a21a6944f369"},"vehicle_type_id":"4","last_reported":1743624632,"current_range_meters":15200,"station_id":"ce4bhr92rcd13ifvqhrg","pricing_plan_id":"cebpf4jnsgd1na2vs0mg"},{"bike_id":"7f961190-5cbc-4ecb-a9f8-5a6f9252eca2","system_id":"levelo_inurba_marseille","lat":43.29525,"lon":5.38534,"is_reserved":false,"is_disabled":false,"rental_uris":{"android":"levelo://app?vid=7f961190-5cbc-4ecb-a9f8-5a6f9252eca2","ios":"levelo://app?vid=7f961190-5cbc-4ecb-a9f8-5a6f9252eca2"},"vehicle_type_id":"4","last_reported":1743624632,"current_range_meters":15200,"station_id":"ce4bgih2rcd13ifvqba0","pricing_plan_id":"cebpf4jnsgd1na2vs0mg"},{"bike_id":"1ae47f34-873e-4433-a024-9d90276de642","system_id":"levelo_inurba_marseille","lat":43.29962,"lon":5.38502,"is_reserved":false,"is_disabled":false,"rental_uris":{"android":"levelo://app?vid=1ae47f34-873e-4433-a024-9d90276de642","ios":"levelo://app?vid=1ae47f34-873e-4433-a024-9d90276de642"},"vehicle_type_id":"4","last_reported":1743624632,"current_range_meters":15200,"station_id":"ce4bgj92rcd13ifvqbd0","pricing_plan_id":"cebpf4jnsgd1na2vs0mg"},{"bike_id":"cbadd818-61ef-4ba0-9294-9bb1e96d777f","system_id":"levelo_inurba_marseille","lat":43.28406,"lon":5.3753,"is_reserved":false,"is_disabled":false,"rental_uris":{"android":"levelo://app?vid=cbadd818-61ef-4ba0-9294-9bb1e96d777f","ios":"levelo://app?vid=cbadd818-61ef-4ba0-9294-9bb1e96d777f"},"vehicle_type_id":"4","last_reported":1743624632,"current_range_meters":15200,"station_id":"ce4bh412rcd13ifvqds0","pricing_plan_id":"cebpf4jnsgd1na2vs0mg"},{"bike_id":"02759f5c-bea4-4728-b180-347da1c9de69","system_id":"levelo_inurba_marseille","lat":43.24661,"lon":5.38144,"is_reserved":false,"is_disabled":false,"rental_uris":{"android":"levelo://app?vid=02759f5c-bea4-4728-b180-347da1c9de69","ios":"levelo://app?vid=02759f5c-bea4-4728-b180-347da1c9de69"},"vehicle_type_id":"4","last_reported":1743624632,"current_range_meters":15200,"station_id":"ce4bhih2rcd13ifvqfr0","pricing_plan_id":"cebpf4jnsgd1na2vs0mg"},{"bike_id":"c5b61614-1a18-4698-a31f-63056a2f64b1","system_id":"levelo_inurba_marseille","lat":43.25109,"lon":5.40341,"is_reserved":false,"is_disabled":false,"rental_uris":{"android":"levelo://app?vid=c5b61614-1a18-4698-a31f-63056a2f64b1","ios":"levelo://app?vid=c5b61614-1a18-4698-a31f-63056a2f64b1"},"vehicle_type_id":"4","last_reported":1743624632,"current_range_meters":15200,"station_id":"ce4bhlh2rcd13ifvqgig","pricing_plan_id":"cebpf4jnsgd1na2vs0mg"},{"bike_id":"d1a8c7f8-8e30-4238-ab20-35375414bc12","system_id":"levelo_inurba_marseille","lat":43.2952,"lon":5.390353,"is_reserved":false,"is_disabled":false,"rental_uris":{"android":"levelo://app?vid=d1a8c7f8-8e30-4238-ab20-35375414bc12","ios":"levelo://app?vid=d1a8c7f8-8e30-4238-ab20-35375414bc12"},"vehicle_type_id":"4","last_reported":1743624632,"current_range_meters":15200,"station_id":"ce4bh3p2rcd13ifvqdp0","pricing_plan_id":"cebpf4jnsgd1na2vs0mg"},{"bike_id":"4ce254e3-d5ad-4452-b302-1baece44ca3b","system_id":"levelo_inurba_marseille","lat":43.24671,"lon":5.38164,"is_reserved":false,"is_disabled":false,"rental_uris":{"android":"levelo://app?vid=4ce254e3-d5ad-4452-b302-1baece44ca3b","ios":"levelo://app?vid=4ce254e3-d5ad-4452-b302-1baece44ca3b"},"vehicle_type_id":"4","last_reported":1743624632,"current_range_meters":14800,"station_id":"ce4bhih2rcd13ifvqfr0","pricing_plan_id":"cebpf4jnsgd1na2vs0mg"},{"bike_id":"b61a33fe-6372-4bd4-9589-3bc407f2f2e1","system_id":"levelo_inurba_marseille","lat":43.29299,"lon":5.37424,"is_reserved":false,"is_disabled":true,"rental_uris":{"android":"levelo://app?vid=b61a33fe-6372-4bd4-9589-3bc407f2f2e1","ios":"levelo://app?vid=b61a33fe-6372-4bd4-9589-3bc407f2f2e1"},"vehicle_type_id":"4","last_reported":1743624632,"current_range_meters":15200,"station_id":"ce4bgi12rcd13ifvqb70","pricing_plan_id":"cebpf4jnsgd1na2vs0mg"},{"bike_id":"8a6bad32-61e7-4581-ac52-d4ad6e03dcb1","system_id":"levelo_inurba_marseille","lat":43.30596,"lon":5.39364,"is_reserved":false,"is_disabled":false,"rental_uris":{"android":"levelo://app?vid=8a6bad32-61e7-4581-ac52-d4ad6e03dcb1","ios":"levelo://app?vid=8a6bad32-61e7-4581-ac52-d4ad6e03dcb1"},"vehicle_type_id":"4","last_reported":1743624632,"current_range_meters":16000,"station_id":"ce4bh0p2rcd13ifvqd80","pricing_plan_id":"cebpf4jnsgd1na2vs0mg"},{"bike_id":"1ff4ef4f-300f-41f8-9566-010ddd2414ea","system_id":"levelo_inurba_marseille","lat":43.29378,"lon":5.37845,"is_reserved":false,"is_disabled":false,"rental_uris":{"android":"levelo://app?vid=1ff4ef4f-300f-41f8-9566-010ddd2414ea","ios":"levelo://app?vid=1ff4ef4f-300f-41f8-9566-010ddd2414ea"},"vehicle_type_id":"4","last_reported":1743624632,"current_range_meters":16000,"station_id":"ce4bgjh2rcd13ifvqbf0","pricing_plan_id":"cebpf4jnsgd1na2vs0mg"},{"bike_id":"15022e62-c525-4818-a522-6f3f1c518ca7","system_id":"levelo_inurba_marseille","lat":43.27974,"lon":5.38742,"is_reserved":false,"is_disabled":false,"rental_uris":{"android":"levelo://app?vid=15022e62-c525-4818-a522-6f3f1c518ca7","ios":"levelo://app?vid=15022e62-c525-4818-a522-6f3f1c518ca7"},"vehicle_type_id":"4","last_reported":1743624632,"current_range_meters":16000,"station_id":"ce4bhg12rcd13ifvqf80","pricing_plan_id":"cebpf4jnsgd1na2vs0mg"},{"bike_id":"41048467-95a2-4f48-84a1-4c6e0c1e1524","system_id":"levelo_inurba_marseille","lat":43.28841,"lon":5.3584,"is_reserved":false,"is_disabled":false,"rental_uris":{"android":"levelo://app?vid=41048467-95a2-4f48-84a1-4c6e0c1e1524","ios":"levelo://app?vid=41048467-95a2-4f48-84a1-4c6e0c1e1524"},"vehicle_type_id":"4","last_reported":1743624632,"current_range_meters":16000,"station_id":"ce4bhb12rcd13ifvqem0","pricing_plan_id":"cebpf4jnsgd1na2vs0mg"},{"bike_id":"efddeda7-6eb2-4c14-868d-fa0ce0b35ef3","system_id":"levelo_inurba_marseille","lat":43.31312,"lon":5.38302,"is_reserved":false,"is_disabled":false,"rental_uris":{"android":"levelo://app?vid=efddeda7-6eb2-4c14-868d-fa0ce0b35ef3","ios":"levelo://app?vid=efddeda7-6eb2-4c14-868d-fa0ce0b35ef3"},"vehicle_type_id":"4","last_reported":1743624632,"current_range_meters":16000,"station_id":"","pricing_plan_id":"cebpf4jnsgd1na2vs0mg"},{"bike_id":"c010083c-3d37-442b-bb01-af5ace56ca85","system_id":"levelo_inurba_marseille","lat":43.28859,"lon":5.35832,"is_reserved":false,"is_disabled":false,"rental_uris":{"android":"levelo://app?vid=c010083c-3d37-442b-bb01-af5ace56ca85","ios":"levelo://app?vid=c010083c-3d37-442b-bb01-af5ace56ca85"},"vehicle_type_id":"4","last_reported":1743624632,"current_range_meters":16000,"station_id":"ce4bhb12rcd13ifvqem0","pricing_plan_id":"cebpf4jnsgd1na2vs0mg"},{"bike_id":"3dbc3d46-7777-4ee1-abe2-41ae010c9497","system_id":"levelo_inurba_marseille","lat":43.29526,"lon":5.39024,"is_reserved":false,"is_disabled":true,"rental_uris":{"android":"levelo://app?vid=3dbc3d46-7777-4ee1-abe2-41ae010c9497","ios":"levelo://app?vid=3dbc3d46-7777-4ee1-abe2-41ae010c9497"},"vehicle_type_id":"4","last_reported":1743624632,"current_range_meters":16000,"station_id":"ce4bh3p2rcd13ifvqdp0","pricing_plan_id":"cebpf4jnsgd1na2vs0mg"},{"bike_id":"9815ea38-617e-4f28-b159-3d15057ac0f2","system_id":"levelo_inurba_marseille","lat":43.29236,"lon":5.38456,"is_reserved":false,"is_disabled":false,"rental_uris":{"android":"levelo://app?vid=9815ea38-617e-4f28-b159-3d15057ac0f2","ios":"levelo://app?vid=9815ea38-617e-4f28-b159-3d15057ac0f2"},"vehicle_type_id":"4","last_reported":1743624632,"current_range_meters":16000,"station_id":"ce4bh692rcd13ifvqea0","pricing_plan_id":"cebpf4jnsgd1na2vs0mg"},{"bike_id":"1bd4c5e9-3479-4a34-bfb9-e556a3bbe8ed","system_id":"levelo_inurba_marseille","lat":43.23066,"lon":5.35498,"is_reserved":false,"is_disabled":false,"rental_uris":{"android":"levelo://app?vid=1bd4c5e9-3479-4a34-bfb9-e556a3bbe8ed","ios":"levelo://app?vid=1bd4c5e9-3479-4a34-bfb9-e556a3bbe8ed"},"vehicle_type_id":"4","last_reported":1743624632,"current_range_meters":16000,"station_id":"cpo3342slgdg3j2ifvpg","pricing_plan_id":"cebpf4jnsgd1na2vs0mg"},{"bike_id":"22bcfedc-fd1a-42ef-b4ce-f8cb0c81bc99","system_id":"levelo_inurba_marseille","lat":43.30132,"lon":5.38783,"is_reserved":false,"is_disabled":true,"rental_uris":{"android":"levelo://app?vid=22bcfedc-fd1a-42ef-b4ce-f8cb0c81bc99","ios":"levelo://app?vid=22bcfedc-fd1a-42ef-b4ce-f8cb0c81bc99"},"vehicle_type_id":"4","last_reported":1743624632,"current_range_meters":16000,"station_id":"ce4bghh2rcd13ifvqb60","pricing_plan_id":"cebpf4jnsgd1na2vs0mg"},{"bike_id":"f0c9f7da-d815-4753-b58c-6aacb40c2b3b","system_id":"levelo_inurba_marseille","lat":43.29531,"lon":5.38534,"is_reserved":false,"is_disabled":false,"rental_uris":{"android":"levelo://app?vid=f0c9f7da-d815-4753-b58c-6aacb40c2b3b","ios":"levelo://app?vid=f0c9f7da-d815-4753-b58c-6aacb40c2b3b"},"vehicle_type_id":"4","last_reported":1743624632,"current_range_meters":16000,"station_id":"ce4bgih2rcd13ifvqba0","pricing_plan_id":"cebpf4jnsgd1na2vs0mg"},{"bike_id":"e884cabc-6c18-498f-9f21-0320025a2270","system_id":"levelo_inurba_marseille","lat":43.30877,"lon":5.37195,"is_reserved":false,"is_disabled":false,"rental_uris":{"android":"levelo://app?vid=e884cabc-6c18-498f-9f21-0320025a2270","ios":"levelo://app?vid=e884cabc-6c18-498f-9f21-0320025a2270"},"vehicle_type_id":"4","last_reported":1743624632,"current_range_meters":15200,"station_id":"ce4bguh2rcd13ifvqckg","pricing_plan_id":"cebpf4jnsgd1na2vs0mg"},{"bike_id":"005283db-9aca-49eb-ae41-cbf0dc140b6c","system_id":"levelo_inurba_marseille","lat":43.3011,"lon":5.37297,"is_reserved":false,"is_disabled":false,"rental_uris":{"android":"levelo://app?vid=005283db-9aca-49eb-ae41-cbf0dc140b6c","ios":"levelo://app?vid=005283db-9aca-49eb-ae41-cbf0dc140b6c"},"vehicle_type_id":"4","last_reported":1743624632,"current_range_meters":16400,"station_id":"","pricing_plan_id":"cebpf4jnsgd1na2vs0mg"},{"bike_id":"09bd2fb3-2f80-450c-972c-79b38b1adb61","system_id":"levelo_inurba_marseille","lat":43.28272,"lon":5.35079,"is_reserved":false,"is_disabled":false,"rental_uris":{"android":"levelo://app?vid=09bd2fb3-2f80-450c-972c-79b38b1adb61","ios":"levelo://app?vid=09bd2fb3-2f80-450c-972c-79b38b1adb61"},"vehicle_type_id":"4","last_reported":1743624632,"current_range_meters":16400,"station_id":"ce4bhbp2rcd13ifvqerg","pricing_plan_id":"cebpf4jnsgd1na2vs0mg"},{"bike_id":"2be94212-600c-4c4f-ba3b-fe750ec2d558","system_id":"levelo_inurba_marseille","lat":43.28138,"lon":5.37683,"is_reserved":false,"is_disabled":false,"rental_uris":{"android":"levelo://app?vid=2be94212-600c-4c4f-ba3b-fe750ec2d558","ios":"levelo://app?vid=2be94212-600c-4c4f-ba3b-fe750ec2d558"},"vehicle_type_id":"4","last_reported":1743624632,"current_range_meters":16400,"station_id":"","pricing_plan_id":"cebpf4jnsgd1na2vs0mg"},{"bike_id":"8e2424bb-8c50-4583-b41b-a7e00143b6c2","system_id":"levelo_inurba_marseille","lat":43.240743,"lon":5.377618,"is_reserved":false,"is_disabled":false,"rental_uris":{"android":"levelo://app?vid=8e2424bb-8c50-4583-b41b-a7e00143b6c2","ios":"levelo://app?vid=8e2424bb-8c50-4583-b41b-a7e00143b6c2"},"vehicle_type_id":"4","last_reported":1743624632,"current_range_meters":16400,"station_id":"ce4bhnp2rcd13ifvqgvg","pricing_plan_id":"cebpf4jnsgd1na2vs0mg"},