{"last_updated":1689833363,"ttl":30,"version":"2.2","data":{"bikes":[{"bike_id":"ccdcc35d-76cb-4ccf-b4e4-51838b666d8a","system_id":"levelo_inurba_marseille","lat":43.31341,"lon":5.367098,"is_reserved":false,"is_disabled":false,"rental_uris":{"android":"levelo://app?vid=ccdcc35d-76cb-4ccf-b4e4-51838b666d8a","ios":"levelo://app?vid=ccdcc35d-76cb-4ccf-b4e4-51838b666d8a"},"vehicle_type_id":"4","last_reported":1689833364,"current_range_meters":31200,"station_id":"ce4bgr92rcd13ifvqc6g","pricing_plan_id":"free"},{"bike_id":"5bf38305-ecd9-4987-a95a-674e2a32528a","system_id":"levelo_inurba_marseille","lat":43.313391,"lon":5.36706,"is_reserved":false,"is_disabled":false,"rental_uris":{"android":"levelo://app?vid=5bf38305-ecd9-4987-a95a-674e2a32528a","ios":"levelo://app?vid=5bf38305-ecd9-4987-a95a-674e2a32528a"},"vehicle_type_id":"4","last_reported":1689833364,"current_range_meters":22400,"station_id":"ce4bgr92rcd13ifvqc6g","pricing_plan_id":"free"},{"bike_id":"77772fc3-314c-475d-904b-55b42b1834e5","system_id":"levelo_inurba_marseille","lat":43.31341,"lon":5.367098,"is_reserved":false,"is_disabled":false,"rental_uris":{"android":"levelo://app?vid=77772fc3-314c-475d-904b-55b42b1834e5","ios":"levelo://app?vid=77772fc3-314c-475d-904b-55b42b1834e5"},"vehicle_type_id":"4","last_reported":1689833364,"current_range_meters":31600,"station_id":"ce4bgr92rcd13ifvqc6g","pricing_plan_id":"free"},{"bike_id":"b9210a89-dadf-413f-bba0-7ff1f336eea2","system_id":"levelo_inurba_marseille","lat":43.313391,"lon":5.36706,"is_reserved":false,"is_disabled":false,"rental_uris":{"android":"levelo://app?vid=b9210a89-dadf-413f-bba0-7ff1f336eea2","ios":"levelo://app?vid=b9210a89-dadf-413f-bba0-7ff1f336eea2"},"vehicle_type_id":"4","last_reported":1689833364,"current_range_meters":29200,"station_id":"ce4bgr92rcd13ifvqc6g","pricing_plan_id":"free"},{"bike_id":"f8e16f99-36ef-46da-beaf-52a4b1f4b584","system_id":"levelo_inurba_marseille","lat":43.31341,"lon":5.367098,"is_reserved":false,"is_disabled":false,"rental_uris":{"android":"levelo://app?vid=f8e16f99-36ef-46da-beaf-52a4b1f4b584","ios":"levelo://app?vid=f8e16f99-36ef-46da-beaf-52a4b1f4b584"},"vehicle_type_id":"4","last_reported":1689833364,"current_range_meters":17200,"station_id":"ce4bgr92rcd13ifvqc6g","pricing_plan_id":"free"},{"bike_id":"6973b43c-26e8-41db-bce1-e727d9702ff5","system_id":"levelo_inurba_marseille","lat":43.313391,"lon":5.36706,"is_reserved":false,"is_disabled":false,"rental_uris":{"android":"levelo://app?vid=6973b43c-26e8-41db-bce1-e727d9702ff5","ios":"levelo://app?vid=6973b43c-26e8-41db-bce1-e727d9702ff5"},"vehicle_type_id":"4","last_reported":1689833364,"current_range_meters":31200,"station_id":"ce4bgr92rcd13ifvqc6g","pricing_plan_id":"free"},{"bike_id":"1ef35ee3-823d-411d-9323-8621bbcda934","system_id":"levelo_inurba_marseille","lat":43.313391,"lon":5.36706,"is_reserved":false,"is_disabled":false,"rental_uris":{"android":"levelo://app?vid=1ef35ee3-823d-411d-9323-8621bbcda934","ios":"levelo://app?vid=1ef35ee3-823d-411d-9323-8621bbcda934"},"vehicle_type_id":"4","last_reported":1689833364,"current_range_meters":31200,"station_id":"ce4bgr92rcd13ifvqc6g","pricing_plan_id":"free"},{"bike_id":"b749dc99-5987-4e9d-8870-fd05c2dff818","system_id":"levelo_inurba_marseille","lat":43.313391,"lon":5.36706,"is_reserved":false,"is_disabled":false,"rental_uris":{"android":"levelo://app?vid=b749dc99-5987-4e9d-8870-fd05c2dff818","ios":"levelo://app?vid=b749dc99-5987-4e9d-8870-fd05c2dff818"},"vehicle_type_id":"4","last_reported":1689833364,"current_range_meters":31200,"station_id":"ce4bgr92rcd13ifvqc6g","pricing_plan_id":"free"},{"bike_id":"3f762cea-6345-4e15-8556-18bfaa38465a","system_id":"levelo_inurba_marseille","lat":43.313391,"lon":5.36706,"is_reserved":false,"is_disabled":false,"rental_uris":{"android":"levelo://app?vid=3f762cea-6345-4e15-8556-18bfaa38465a","ios":"levelo://app?vid=3f762cea-6345-4e15-8556-18bfaa38465a"},"vehicle_type_id":"4","last_reported":1689833364,"current_range_meters":1600,"station_id":"ce4bgr92rcd13ifvqc6g","pricing_plan_id":"free"},{"bike_id":"4cecdedb-d3c0-4319-a140-9d018f6898c9","system_id":"levelo_inurba_marseille","lat":43.313391,"lon":5.36706,"is_reserved":false,"is_disabled":false,"rental_uris":{"android":"levelo://app?vid=4cecdedb-d3c0-4319-a140-9d018f6898c9","ios":"levelo://app?vid=4cecdedb-d3c0-4319-a140-9d018f6898c9"},"vehicle_type_id":"4","last_reported":1689833364,"current_range_meters":31200,"station_id":"ce4bgr92rcd13ifvqc6g","pricing_plan_id":"free"},{"bike_id":"f05d62a0-af04-442b-93f2-17e003b7f3cc","system_id":"levelo_inurba_marseille","lat":43.31341,"lon":5.367098,"is_reserved":false,"is_disabled":false,"rental_uris":{"android":"levelo://app?vid=f05d62a0-af04-442b-93f2-17e003b7f3cc","ios":"levelo://app?vid=f05d62a0-af04-442b-93f2-17e003b7f3cc"},"vehicle_type_id":"4","last_reported":1689833364,"current_range_meters":6000,"station_id":"ce4bgr92rcd13ifvqc6g","pricing_plan_id":"free"},{"bike_id":"62290953-d6c2-4042-8026-f4c2b3a378c8","system_id":"levelo_inurba_marseille","lat":43.31341,"lon":5.367098,"is_reserved":false,"is_disabled":false,"rental_uris":{"android":"levelo://app?vid=62290953-d6c2-4042-8026-f4c2b3a378c8","ios":"levelo://app?vid=62290953-d6c2-4042-8026-f4c2b3a378c8"},"vehicle_type_id":"4","last_reported":1689833364,"current_range_meters":18000,"station_id":"ce4bgr92rcd13ifvqc6g","pricing_plan_id":"free"},{"bike_id":"2ce3f81c-37cd-46e3-a9cc-f2ea0de1c394","system_id":"levelo_inurba_marseille","lat":43.313391,"lon":5.36706,"is_reserved":false,"is_disabled":false,"rental_uris":{"android":"levelo://app?vid=2ce3f81c-37cd-46e3-a9cc-f2ea0de1c394","ios":"levelo://app?vid=2ce3f81c-37cd-46e3-a9cc-f2ea0de1c394"},"vehicle_type_id":"4","last_reported":1689833364,"current_range_meters":3600,"station_id":"ce4bgr92rcd13ifvqc6g","pricing_plan_id":"free"},{"bike_id":"0916a472-0e3c-4671-92ec-704294bf33ca","system_id":"levelo_inurba_marseille","lat":43.31341,"lon":5.367098,"is_reserved":false,"is_disabled":false,"rental_uris":{"android":"levelo://app?vid=0916a472-0e3c-4671-92ec-704294bf33ca","ios":"levelo://app?vid=0916a472-0e3c-4671-92ec-704294bf33ca"},"vehicle_type_id":"4","last_reported":1689833364,"current_range_meters":31200,"station_id":"ce4bgr92rcd13ifvqc6g","pricing_plan_id":"free"},{"bike_id":"06f027da-610c-4276-9a61-edd663d4f225","system_id":"levelo_inurba_marseille","lat":43.313391,"lon":5.36706,"is_reserved":false,"is_disabled":false,"rental_uris":{"android":"levelo://app?vid=06f027da-610c-4276-9a61-edd663d4f225","ios":"levelo://app?vid=06f027da-610c-4276-9a61-edd663d4f225"},"vehicle_type_id":"4","last_reported":1689833364,"current_range_meters":30800,"station_id":"ce4bgr92rcd13ifvqc6g","pricing_plan_id":"free"},{"bike_id":"8c9c06d5-2208-4147-8087-295053c3f2f4","system_id":"levelo_inurba_marseille","lat":43.31341,"lon":5.367098,"is_reserved":false,"is_disabled":false,"rental_uris":{"android":"levelo://app?vid=8c9c06d5-2208-4147-8087-295053c3f2f4","ios":"levelo://app?vid=8c9c06d5-2208-4147-8087-295053c3f2f4"},"vehicle_type_id":"4","last_reported":1689833364,"current_range_meters":9200,"station_id":"ce4bgr92rcd13ifvqc6g","pricing_plan_id":"free"},{"bike_id":"89aebf07-1ed2-437a-8e1e-3f753881e0aa","system_id":"levelo_inurba_marseille","lat":43.313391,"lon":5.36706,"is_reserved":false,"is_disabled":false,"rental_uris":{"android":"levelo://app?vid=89aebf07-1ed2-437a-8e1e-3f753881e0aa","ios":"levelo://app?vid=89aebf07-1ed2-437a-8e1e-3f753881e0aa"},"vehicle_type_id":"4","last_reported":1689833364,"current_range_meters":31200,"station_id":"ce4bgr92rcd13ifvqc6g","pricing_plan_id":"free"},{"bike_id":"b6bf0a73-32d7-4db6-952b-1e13d1361637","system_id":"levelo_inurba_marseille","lat":43.312239,"lon":5.368562,"is_reserved":false,"is_disabled":false,"rental_uris":{"android":"levelo://app?vid=b6bf0a73-32d7-4db6-952b-1e13d1361637","ios":"levelo://app?vid=b6bf0a73-32d7-4db6-952b-1e13d1361637"},"vehicle_type_id":"4","last_reported":1689833364,"current_range_meters":29600,"station_id":"ce4bgl92rcd13ifvqbq0","pricing_plan_id":"free"},{"bike_id":"6d7b75c3-b25e-4478-86e3-0d26c528fc84","system_id":"levelo_inurba_marseille","lat":43.312239,"lon":5.368562,"is_reserved":false,"is_disabled":false,"rental_uris":{"android":"levelo://app?vid=6d7b75c3-b25e-4478-86e3-0d26c528fc84","ios":"levelo://app?vid=6d7b75c3-b25e-4478-86e3-0d26c528fc84"},"vehicle_type_id":"4","last_reported":1689833364,"current_range_meters":28800,"station_id":"ce4bgl92rcd13ifvqbq0","pricing_plan_id":"free"},{"bike_id":"e0f8cf14-2a82-42cf-a14f-5b805c56f247","system_id":"levelo_inurba_marseille","lat":43.312239,"lon":5.368562,"is_reserved":false,"is_disabled":false,"rental_uris":{"android":"levelo://app?vid=e0f8cf14-2a82-42cf-a14f-5b805c56f247","ios":"levelo://app?vid=e0f8cf14-2a82-42cf-a14f-5b805c56f247"},"vehicle_type_id":"4","last_reported":1689833364,"current_range_meters":25200,"station_id":"ce4bgl92rcd13ifvqbq0","pricing_plan_id":"free"},{"bike_id":"a708d069-f07c-46ac-bd7f-f43b50dd23c2","system_id":"levelo_inurba_marseille","lat":43.309076,"lon":5.368465,"is_reserved":false,"is_disabled":false,"rental_uris":{"android":"levelo://app?vid=a708d069-f07c-46ac-bd7f-f43b50dd23c2","ios":"levelo://app?vid=a708d069-f07c-46ac-bd7f-f43b50dd23c2"},"vehicle_type_id":"4","last_reported":1689833364,"current_range_meters":27600,"station_id":"ce4bgn92rcd13ifvqbvg","pricing_plan_id":"free"},{"bike_id":"98e8821e-d42c-4a3c-883b-159d5ce795e4","system_id":"levelo_inurba_marseille","lat":43.309076,"lon":5.368465,"is_reserved":false,"is_disabled":false,"rental_uris":{"android":"levelo://app?vid=98e8821e-d42c-4a3c-883b-159d5ce795e4","ios":"levelo://app?vid=98e8821e-d42c-4a3c-883b-159d5ce795e4"},"vehicle_type_id":"4","last_reported":1689833364,"current_range_meters":31200,"station_id":"ce4bgn92rcd13ifvqbvg","pricing_plan_id":"free"},{"bike_id":"60fb77b6-81fa-4af1-8c19-805da8ab4191","system_id":"levelo_inurba_marseille","lat":43.309076,"lon":5.368465,"is_reserved":false,"is_disabled":false,"rental_uris":{"android":"levelo://app?vid=60fb77b6-81fa-4af1-8c19-805da8ab4191","ios":"levelo://app?vid=60fb77b6-81fa-4af1-8c19-805da8ab4191"},"vehicle_type_id":"4","last_reported":1689833364,"current_range_meters":26800,"station_id":"ce4bgn92rcd13ifvqbvg","pricing_plan_id":"free"},{"bike_id":"362a8bf0-a5ae-46a7-909a-b0519d6ef789","system_id":"levelo_inurba_marseille","lat":43.309076,"lon":5.368465,"is_reserved":false,"is_disabled":false,"rental_uris":{"android":"levelo://app?vid=362a8bf0-a5ae-46a7-909a-b0519d6ef789","ios":"levelo://app?vid=362a8bf0-a5ae-46a7-909a-b0519d6ef789"},"vehicle_type_id":"4","last_reported":1689833364,"current_range_meters":0,"station_id":"ce4bgn92rcd13ifvqbvg","pricing_plan_id":"free"},{"bike_id":"36fcac46-69d4-4910-9b6f-452a4f5fde98","system_id":"levelo_inurba_marseille","lat":43.309076,"lon":5.368465,"is_reserved":false,"is_disabled":false,"rental_uris":{"android":"levelo://app?vid=36fcac46-69d4-4910-9b6f-452a4f5fde98","ios":"levelo://app?vid=36fcac46-69d4-4910-9b6f-452a4f5fde98"},"vehicle_type_id":"4","last_reported":1689833364,"current_range_meters":26400,"station_id":"ce4bgn92rcd13ifvqbvg","pricing_plan_id":"free"},{"bike_id":"115ddc84-9963-4371-ac88-90df75990d15","system_id":"levelo_inurba_marseille","lat":43.314811,"lon":5.373103,"is_reserved":false,"is_disabled":false,"rental_uris":{"android":"levelo://app?vid=115ddc84-9963-4371-ac88-90df75990d15","ios":"levelo://app?vid=115ddc84-9963-4371-ac88-90df75990d15"},"vehicle_type_id":"4","last_reported":1689833364,"current_range_meters":30800,"station_id":"ce4bgt12rcd13ifvqcd0","pricing_plan_id":"free"},{"bike_id":"8a9f8d2a-3734-4f6a-a888-ffa5fddb1d6d","system_id":"levelo_inurba_marseille","lat":43.314811,"lon":5.373103,"is_reserved":false,"is_disabled":false,"rental_uris":{"android":"levelo://app?vid=8a9f8d2a-3734-4f6a-a888-ffa5fddb1d6d","ios":"levelo://app?vid=8a9f8d2a-3734-4f6a-a888-ffa5fddb1d6d"},"vehicle_type_id":"4","last_reported":1689833364,"current_range_meters":12800,"station_id":"ce4bgt12rcd13ifvqcd0","pricing_plan_id":"free"},{"bike_id":"3902e782-71b6-4c0d-b734-45f93bcfa5ce","system_id":"levelo_inurba_marseille","lat":43.31491,"lon":5.37303,"is_reserved":false,"is_disabled":false,"rental_uris":{"android":"levelo://app?vid=3902e782-71b6-4c0d-b734-45f93bcfa5ce","ios":"levelo://app?vid=3902e782-71b6-4c0d-b734-45f93bcfa5ce"},"vehicle_type_id":"4","last_reported":1689833364,"current_range_meters":18400,"station_id":"ce4bgt12rcd13ifvqcd0","pricing_plan_id":"free"},{"bike_id":"0b12a1dd-1564-4aa9-b61c-6fcd6a1ec6e0","system_id":"levelo_inurba_marseille","lat":43.314811,"lon":5.373103,"is_reserved":false,"is_disabled":false,"rental_uris":{"android":"levelo://app?vid=0b12a1dd-1564-4aa9-b61c-6fcd6a1ec6e0","ios":"levelo://app?vid=0b12a1dd-1564-4aa9-b61c-6fcd6a1ec6e0"},"vehicle_type_id":"4","last_reported":1689833364,"current_range_meters":31200,"station_id":"ce4bgt12rcd13ifvqcd0","pricing_plan_id":"free"},{"bike_id":"36507ea6-3eac-4b5e-ba97-acc4bb18629f","system_id":"levelo_inurba_marseille","lat":43.31492,"lon":5.37305,"is_reserved":false,"is_disabled":false,"rental_uris":{"android":"levelo://app?vid=36507ea6-3eac-4b5e-ba97-acc4bb18629f","ios":"levelo://app?vid=36507ea6-3eac-4b5e-ba97-acc4bb18629f"},"vehicle_type_id":"4","last_reported":1689833364,"current_range_meters":6000,"station_id":"ce4bgt12rcd13ifvqcd0","pricing_plan_id":"free"},{"bike_id":"360650f3-a957-4815-8ebd-1e40102227b7","system_id":"levelo_inurba_marseille","lat":43.31407,"lon":5.37356,"is_reserved":false,"is_disabled":false,"rental_uris":{"android":"levelo://app?vid=360650f3-a957-4815-8ebd-1e40102227b7","ios":"levelo://app?vid=360650f3-a957-4815-8ebd-1e40102227b7"},"vehicle_type_id":"4","last_reported":1689833364,"current_range_meters":22800,"station_id":"","pricing_plan_id":"free"},{"bike_id":"cd94251f-73ed-4cc0-9680-0d1a7923ae3c","system_id":"levelo_inurba_marseille","lat":43.309039,"lon":5.371797,"is_reserved":false,"is_disabled":false,"rental_uris":{"android":"levelo://app?vid=cd94251f-73ed-4cc0-9680-0d1a7923ae3c","ios":"levelo://app?vid=cd94251f-73ed-4cc0-9680-0d1a7923ae3c"},"vehicle_type_id":"4","last_reported":1689833364,"current_range_meters":29200,"station_id":"ce4bguh2rcd13ifvqckg","pricing_plan_id":"free"},{"bike_id":"9ebfdadf-eebb-4934-973d-55963c25c762","system_id":"levelo_inurba_marseille","lat":43.3158,"lon":5.37318,"is_reserved":false,"is_disabled":false,"rental_uris":{"android":"levelo://app?vid=9ebfdadf-eebb-4934-973d-55963c25c762","ios":"levelo://app?vid=9ebfdadf-eebb-4934-973d-55963c25c762"},"vehicle_type_id":"4","last_reported":1689833364,"current_range_meters":30800,"station_id":"","pricing_plan_id":"free"},{"bike_id":"f508272a-ab00-434e-841c-4959d5643898","system_id":"levelo_inurba_marseille","lat":43.3167,"lon":5.373,"is_reserved":false,"is_disabled":false,"rental_uris":{"android":"levelo://app?vid=f508272a-ab00-434e-841c-4959d5643898","ios":"levelo://app?vid=f508272a-ab00-434e-841c-4959d5643898"},"vehicle_type_id":"4","last_reported":1689833364,"current_range_meters":18800,"station_id":"","pricing_plan_id":"free"},{"bike_id":"8dab606f-2c1b-4486-94b1-66ef570c57d5","system_id":"levelo_inurba_marseille","lat":43.30884,"lon":5.37309,"is_reserved":false,"is_disabled":false,"rental_uris":{"android":"levelo://app?vid=8dab606f-2c1b-4486-94b1-66ef570c57d5","ios":"levelo://app?vid=8dab606f-2c1b-4486-94b1-66ef570c57d5"},"vehicle_type_id":"4","last_reported":1689833364,"current_range_meters":11200,"station_id":"","pricing_plan_id":"free"},{"bike_id":"598c3c5c-4c96-4122-829a-382d5fd04c9b","system_id":"levelo_inurba_marseille","lat":43.312239,"lon":5.368562,"is_reserved":false,"is_disabled":false,"rental_uris":{"android":"levelo://app?vid=598c3c5c-4c96-4122-829a-382d5fd04c9b","ios":"levelo://app?vid=598c3c5c-4c96-4122-829a-382d5fd04c9b"},"vehicle_type_id":"4","last_reported":1689833364,"current_range_meters":12800,"station_id":"ce4bgl92rcd13ifvqbq0","pricing_plan_id":"free"},{"bike_id":"d5452eac-45ec-41ca-8734-58f25f4b1789","system_id":"levelo_inurba_marseille","lat":43.31297,"lon":5.37673,"is_reserved":false,"is_disabled":false,"rental_uris":{"android":"levelo://app?vid=d5452eac-45ec-41ca-8734-58f25f4b1789","ios":"levelo://app?vid=d5452eac-45ec-41ca-8734-58f25f4b1789"},"vehicle_type_id":"4","last_reported":1689833364,"current_range_meters":23600,"station_id":"","pricing_plan_id":"free"},{"bike_id":"a7844f1f-757b-4c3a-bba0-93a5ce88b858","system_id":"levelo_inurba_marseille","lat":43.305368,"lon":5.367343,"is_reserved":false,"is_disabled":false,"rental_uris":{"android":"levelo://app?vid=a7844f1f-757b-4c3a-bba0-93a5ce88b858","ios":"levelo://app?vid=a7844f1f-757b-4c3a-bba0-93a5ce88b858"},"vehicle_type_id":"4","last_reported":1689833364,"current_range_meters":29200,"station_id":"ce4bgrp2rcd13ifvqc9g","pricing_plan_id":"free"},{"bike_id":"9b0917c6-3e05-45aa-a233-bbf722325458","system_id":"levelo_inurba_marseille","lat":43.305714,"lon":5.365633,"is_reserved":false,"is_disabled":false,"rental_uris":{"android":"levelo://app?vid=9b0917c6-3e05-45aa-a233-bbf722325458","ios":"levelo://app?vid=9b0917c6-3e05-45aa-a233-bbf722325458"},"vehicle_type_id":"4","last_reported":1689833364,"current_range_meters":28000,"station_id":"ce4bgs12rcd13ifvqcag","pricing_plan_id":"free"},{"bike_id":"b356b683-8a28-4367-a09b-fdb91e0da8e4","system_id":"levelo_inurba_marseille","lat":43.305714,"lon":5.365633,"is_reserved":false,"is_disabled":false,"rental_uris":{"android":"levelo://app?vid=b356b683-8a28-4367-a09b-fdb91e0da8e4","ios":"levelo://app?vid=b356b683-8a28-4367-a09b-fdb91e0da8e4"},"vehicle_type_id":"4","last_reported":1689833364,"current_range_meters":31200,"station_id":"ce4bgs12rcd13ifvqcag","pricing_plan_id":"free"},{"bike_id":"46d38940-b207-45df-bfc8-8475bf3fc139","system_id":"levelo_inurba_marseille","lat":43.305714,"lon":5.365633,"is_reserved":false,"is_disabled":false,"rental_uris":{"android":"levelo://app?vid=46d38940-b207-45df-bfc8-8475bf3fc139","ios":"levelo://app?vid=46d38940-b207-45df-bfc8-8475bf3fc139"},"vehicle_type_id":"4","last_reported":1689833364,"current_range_meters":23600,"station_id":"ce4bgs12rcd13ifvqcag","pricing_plan_id":"free"},{"bike_id":"50a37e8c-06d8-4647-807a-b4a426eb2d81","system_id":"levelo_inurba_marseille","lat":43.305714,"lon":5.365633,"is_reserved":false,"is_disabled":false,"rental_uris":{"android":"levelo://app?vid=50a37e8c-06d8-4647-807a-b4a426eb2d81","ios":"levelo://app?vid=50a37e8c-06d8-4647-807a-b4a426eb2d81"},"vehicle_type_id":"4","last_reported":1689833364,"current_range_meters":29600,"station_id":"ce4bgs12rcd13ifvqcag","pricing_plan_id":"free"},{"bike_id":"76a7d2dd-7534-4c03-9bd9-f01ed4894a46","system_id":"levelo_inurba_marseille","lat":43.305714,"lon":5.365633,"is_reserved":false,"is_disabled":false,"rental_uris":{"android":"levelo://app?vid=76a7d2dd-7534-4c03-9bd9-f01ed4894a46","ios":"levelo://app?vid=76a7d2dd-7534-4c03-9bd9-f01ed4894a46"},"vehicle_type_id":"4","last_reported":1689833364,"current_range_meters":8800,"station_id":"ce4bgs12rcd13ifvqcag","pricing_plan_id":"free"},{"bike_id":"dafc0bae-b075-411f-ba71-966ed75d9138","system_id":"levelo_inurba_marseille","lat":43.305368,"lon":5.367343,"is_reserved":false,"is_disabled":false,"rental_uris":{"android":"levelo://app?vid=dafc0bae-b075-411f-ba71-966ed75d9138","ios":"levelo://app?vid=dafc0bae-b075-411f-ba71-966ed75d9138"},"vehicle_type_id":"4","last_reported":1689833364,"current_range_meters":31200,"station_id":"ce4bgrp2rcd13ifvqc9g","pricing_plan_id":"free"},{"bike_id":"4ed78262-b89c-4acd-9cd3-5226cac5a961","system_id":"levelo_inurba_marseille","lat":43.305368,"lon":5.367343,"is_reserved":false,"is_disabled":false,"rental_uris":{"android":"levelo://app?vid=4ed78262-b89c-4acd-9cd3-5226cac5a961","ios":"levelo://app?vid=4ed78262-b89c-4acd-9cd3-5226cac5a961"},"vehicle_type_id":"4","last_reported":1689833364,"current_range_meters":8000,"station_id":"ce4bgrp2rcd13ifvqc9g","pricing_plan_id":"free"},{"bike_id":"9a240020-d2ba-4db2-94a5-a15d6d14ca6a","system_id":"levelo_inurba_marseille","lat":43.305368,"lon":5.367343,"is_reserved":false,"is_disabled":false,"rental_uris":{"android":"levelo://app?vid=9a240020-d2ba-4db2-94a5-a15d6d14ca6a","ios":"levelo://app?vid=9a240020-d2ba-4db2-94a5-a15d6d14ca6a"},"vehicle_type_id":"4","last_reported":1689833364,"current_range_meters":16800,"station_id":"ce4bgrp2rcd13ifvqc9g","pricing_plan_id":"free"},{"bike_id":"127edb75-5bd9-4508-a017-6ec79c7697ce","system_id":"levelo_inurba_marseille","lat":43.305706,"lon":5.365654,"is_reserved":false,"is_disabled":false,"rental_uris":{"android":"levelo://app?vid=127edb75-5bd9-4508-a017-6ec79c7697ce","ios":"levelo://app?vid=127edb75-5bd9-4508-a017-6ec79c7697ce"},"vehicle_type_id":"4","last_reported":1689833364,"current_range_meters":24000,"station_id":"ce4bgs12rcd13ifvqcag","pricing_plan_id":"free"},{"bike_id":"a2732859-36c1-4002-9d4c-bb3d76dd6ea0","system_id":"levelo_inurba_marseille","lat":43.305706,"lon":5.365654,"is_reserved":false,"is_disabled":false,"rental_uris":{"android":"levelo://app?vid=a2732859-36c1-4002-9d4c-bb3d76dd6ea0","ios":"levelo://app?vid=a2732859-36c1-4002-9d4c-bb3d76dd6ea0"},"vehicle_type_id":"4","last_reported":1689833364,"current_range_meters":8000,"station_id":"ce4bgs12rcd13ifvqcag","pricing_plan_id":"free"},{"bike_id":"cf8c80c6-9d89-461d-a387-d549de690f17","system_id":"levelo_inurba_marseille","lat":43.305706,"lon":5.365654,"is_reserved":false,"is_disabled":false,"rental_uris":{"android":"levelo://app?vid=cf8c80c6-9d89-461d-a387-d549de690f17","ios":"levelo://app?vid=cf8c80c6-9d89-461d-a387-d549de690f17"},"vehicle_type_id":"4","last_reported":1689833364,"current_range_meters":30800,"station_id":"ce4bgs12rcd13ifvqcag","pricing_plan_id":"free"},{"bike_id":"c9d1f5d4-8c34-4258-a5ab-5f0b4143b052","system_id":"levelo_inurba_marseille","lat":43.305706,"lon":5.365654,"is_reserved":false,"is_disabled":false,"rental_uris":{"android":"levelo://app?vid=c9d1f5d4-8c34-4258-a5ab-5f0b4143b052","ios":"levelo://app?vid=c9d1f5d4-8c34-4258-a5ab-5f0b4143b052"},"vehicle_type_id":"4","last_reported":1689833364,"current_range_meters":29600,"station_id":"ce4bgs12rcd13ifvqcag","pricing_plan_id":"free"},{"bike_id":"99882575-c605-4deb-a1c0-1ecefa0a63c8","system_id":"levelo_inurba_marseille","lat":43.305989,"lon":5.37225,"is_reserved":false,"is_disabled":false,"rental_uris":{"android":"levelo://app?vid=99882575-c605-4deb-a1c0-1ecefa0a63c8","ios":"levelo://app?vid=99882575-c605-4deb-a1c0-1ecefa0a63c8"},"vehicle_type_id":"4","last_reported":1689833364,"current_range_meters":24000,"station_id":"ce4bgqh2rcd13ifvqc4g","pricing_plan_id":"free"},{"bike_id":"f80898d5-d385-4372-886c-7d2c7fac626a","system_id":"levelo_inurba_marseille","lat":43.305706,"lon":5.365654,"is_reserved":false,"is_disabled":false,"rental_uris":{"android":"levelo://app?vid=f80898d5-d385-4372-886c-7d2c7fac626a","ios":"levelo://app?vid=f80898d5-d385-4372-886c-7d2c7fac626a"},"vehicle_type_id":"4","last_reported":1689833364,"current_range_meters":20000,"station_id":"ce4bgs12rcd13ifvqcag","pricing_plan_id":"free"},{"bike_id":"2e184038-9969-4c2d-bd0c-e22126ae2445","system_id":"levelo_inurba_marseille","lat":43.311125,"lon":5.377624,"is_reserved":false,"is_disabled":false,"rental_uris":{"android":"levelo://app?vid=2e184038-9969-4c2d-bd0c-e22126ae2445","ios":"levelo://app?vid=2e184038-9969-4c2d-bd0c-e22126ae2445"},"vehicle_type_id":"4","last_reported":1689833364,"current_range_meters":28000,"station_id":"ce4bgt92rcd13ifvqcg0","pricing_plan_id":"free"},{"bike_id":"f7e284d9-284d-4a43-b5a3-a09d0f17e1f0","system_id":"levelo_inurba_marseille","lat":43.311125,"lon":5.377624,"is_reserved":false,"is_disabled":false,"rental_uris":{"android":"levelo://app?vid=f7e284d9-284d-4a43-b5a3-a09d0f17e1f0","ios":"levelo://app?vid=f7e284d9-284d-4a43-b5a3-a09d0f17e1f0"},"vehicle_type_id":"4","last_reported":1689833364,"current_range_meters":0,"station_id":"ce4bgt92rcd13ifvqcg0","pricing_plan_id":"free"},{"bike_id":"c0a093f0-cbe8-4784-a4fa-055fdbcae3ca","system_id":"levelo_inurba_marseille","lat":43.317075,"lon":5.377367,"is_reserved":false,"is_disabled":false,"rental_uris":{"android":"levelo://app?vid=c0a093f0-cbe8-4784-a4fa-055fdbcae3ca","ios":"levelo://app?vid=c0a093f0-cbe8-4784-a4fa-055fdbcae3ca"},"vehicle_type_id":"4","last_reported":1689833364,"current_range_meters":31200,"station_id":"ce4bgth2rcd13ifvqch0","pricing_plan_id":"free"},{"bike_id":"735f386f-7db9-435a-93c7-b04fca6e6c61","system_id":"levelo_inurba_marseille","lat":43.31707,"lon":5.37751,"is_reserved":false,"is_disabled":false,"rental_uris":{"android":"levelo://app?vid=735f386f-7db9-435a-93c7-b04fca6e6c61","ios":"levelo://app?vid=735f386f-7db9-435a-93c7-b04fca6e6c61"},"vehicle_type_id":"4","last_reported":1689833364,"current_range_meters":30000,"station_id":"","pricing_plan_id":"free"},{"bike_id":"7d5f22e2-47bd-4532-8d08-29e3414eabfc","system_id":"levelo_inurba_marseille","lat":43.317075,"lon":5.377367,"is_reserved":false,"is_disabled":false,"rental_uris":{"android":"levelo://app?vid=7d5f22e2-47bd-4532-8d08-29e3414eabfc","ios":"levelo://app?vid=7d5f22e2-47bd-4532-8d08-29e3414eabfc"},"vehicle_type_id":"4","last_reported":1689833364,"current_range_meters":30400,"station_id":"ce4bgth2rcd13ifvqch0","pricing_plan_id":"free"},{"bike_id":"a2e136f1-c728-4018-88c2-a46aa30aa3c2","system_id":"levelo_inurba_marseille","lat":43.30304,"lon":5.368987,"is_reserved":false,"is_disabled":false,"rental_uris":{"android":"levelo://app?vid=a2e136f1-c728-4018-88c2-a46aa30aa3c2","ios":"levelo://app?vid=a2e136f1-c728-4018-88c2-a46aa30aa3c2"},"vehicle_type_id":"4","last_reported":1689833364,"current_range_meters":8400,"station_id":"ce4bgqh2rcd13ifvqc5g","pricing_plan_id":"free"},{"bike_id":"a7decd7f-5281-4b0a-aa45-7ff97551fda6","system_id":"levelo_inurba_marseille","lat":43.315293,"lon":5.380349,"is_reserved":false,"is_disabled":false,"rental_uris":{"android":"levelo://app?vid=a7decd7f-5281-4b0a-aa45-7ff97551fda6","ios":"levelo://app?vid=a7decd7f-5281-4b0a-aa45-7ff97551fda6"},"vehicle_type_id":"4","last_reported":1689833364,"current_range_meters":29600,"station_id":"ce4bhsp2rcd13ifvqi50","pricing_plan_id":"free"},{"bike_id":"9599f709-3cb8-4be8-b6d2-64beea24b87e","system_id":"levelo_inurba_marseille","lat":43.315293,"lon":5.380349,"is_reserved":false,"is_disabled":false,"rental_uris":{"android":"levelo://app?vid=9599f709-3cb8-4be8-b6d2-64beea24b87e","ios":"levelo://app?vid=9599f709-3cb8-4be8-b6d2-64beea24b87e"},"vehicle_type_id":"4","last_reported":1689833364,"current_range_meters":5200,"station_id":"ce4bhsp2rcd13ifvqi50","pricing_plan_id":"free"},{"bike_id":"d01c5677-6b8f-4062-9642-b2f462857e6f","system_id":"levelo_inurba_marseille","lat":43.315293,"lon":5.380349,"is_reserved":false,"is_disabled":false,"rental_uris":{"android":"levelo://app?vid=d01c5677-6b8f-4062-9642-b2f462857e6f","ios":"levelo://app?vid=d01c5677-6b8f-4062-9642-b2f462857e6f"},"vehicle_type_id":"4","last_reported":1689833364,"current_range_meters":22400,"station_id":"ce4bhsp2rcd13ifvqi50","pricing_plan_id":"free"},{"bike_id":"66ca92b3-b3ed-418f-81d8-a36a0691ed67","system_id":"levelo_inurba_marseille","lat":43.315293,"lon":5.380349,"is_reserved":false,"is_disabled":false,"rental_uris":{"android":"levelo://app?vid=66ca92b3-b3ed-418f-81d8-a36a0691ed67","ios":"levelo://app?vid=66ca92b3-b3ed-418f-81d8-a36a0691ed67"},"vehicle_type_id":"4","last_reported":1689833364,"current_range_meters":21200,"station_id":"ce4bhsp2rcd13ifvqi50","pricing_plan_id":"free"},{"bike_id":"8296c906-0d9d-44d8-a8f3-2473360d9296","system_id":"levelo_inurba_marseille","lat":43.315293,"lon":5.380349,"is_reserved":false,"is_disabled":false,"rental_uris":{"android":"levelo://app?vid=8296c906-0d9d-44d8-a8f3-2473360d9296","ios":"levelo://app?vid=8296c906-0d9d-44d8-a8f3-2473360d9296"},"vehicle_type_id":"4","last_reported":1689833364,"current_range_meters":25200,"station_id":"ce4bhsp2rcd13ifvqi50","pricing_plan_id":"free"},{"bike_id":"ea2adf0f-3fd5-485e-9332-fdf53469ff4d","system_id":"levelo_inurba_marseille","lat":43.315293,"lon":5.380349,"is_reserved":false,"is_disabled":false,"rental_uris":{"android":"levelo://app?vid=ea2adf0f-3fd5-485e-9332-fdf53469ff4d","ios":"levelo://app?vid=ea2adf0f-3fd5-485e-9332-fdf53469ff4d"},"vehicle_type_id":"4","last_reported":1689833364,"current_range_meters":4400,"station_id":"ce4bhsp2rcd13ifvqi50","pricing_plan_id":"free"},{"bike_id":"c3be3ed4-091b-4a6d-bccb-64e0dc394b8c","system_id":"levelo_inurba_marseille","lat":43.315293,"lon":5.380349,"is_reserved":false,"is_disabled":false,"rental_uris":{"android":"levelo://app?vid=c3be3ed4-091b-4a6d-bccb-64e0dc394b8c","ios":"levelo://app?vid=c3be3ed4-091b-4a6d-bccb-64e0dc394b8c"},"vehicle_type_id":"4","last_reported":1689833364,"current_range_meters":20000,"station_id":"ce4bhsp2rcd13ifvqi50","pricing_plan_id":"free"},{"bike_id":"4f37349a-775a-4d46-8382-eab939068dff","system_id":"levelo_inurba_marseille","lat":43.308012,"lon":5.381511,"is_reserved":false,"is_disabled":false,"rental_uris":{"android":"levelo://app?vid=4f37349a-775a-4d46-8382-eab939068dff","ios":"levelo://app?vid=4f37349a-775a-4d46-8382-eab939068dff"},"vehicle_type_id":"4","last_reported":1689833364,"current_range_meters":19200,"station_id":"ce4bgt12rcd13ifvqce0","pricing_plan_id":"free"},{"bike_id":"f5fb15ce-c159-46d1-afce-1d638128580d","system_id":"levelo_inurba_marseille","lat":43.308012,"lon":5.381511,"is_reserved":false,"is_disabled":false,"rental_uris":{"android":"levelo://app?vid=f5fb15ce-c159-46d1-afce-1d638128580d","ios":"levelo://app?vid=f5fb15ce-c159-46d1-afce-1d638128580d"},"vehicle_type_id":"4","last_reported":1689833364,"current_range_meters":12800,"station_id":"ce4bgt12rcd13ifvqce0","pricing_plan_id":"free"},{"bike_id":"b58a98e5-d099-4a5d-a40a-598f779edcc3","system_id":"levelo_inurba_marseille","lat":43.308012,"lon":5.381511,"is_reserved":false,"is_disabled":false,"rental_uris":{"android":"levelo://app?vid=b58a98e5-d099-4a5d-a40a-598f779edcc3","ios":"levelo://app?vid=b58a98e5-d099-4a5d-a40a-598f779edcc3"},"vehicle_type_id":"4","last_reported":1689833364,"current_range_meters":29600,"station_id":"ce4bgt12rcd13ifvqce0","pricing_plan_id":"free"},{"bike_id":"10eca847-1140-42aa-b502-a5a73fc4cef6","system_id":"levelo_inurba_marseille","lat":43.308012,"lon":5.381511,"is_reserved":false,"is_disabled":false,"rental_uris":{"android":"levelo://app?vid=10eca847-1140-42aa-b502-a5a73fc4cef6","ios":"levelo://app?vid=10eca847-1140-42aa-b502-a5a73fc4cef6"},"vehicle_type_id":"4","last_reported":1689833364,"current_range_meters":12400,"station_id":"ce4bgt12rcd13ifvqce0","pricing_plan_id":"free"},{"bike_id":"5a605a45-c07c-4c30-aab9-ebd8a401dcf0","system_id":"levelo_inurba_marseille","lat":43.308012,"lon":5.381511,"is_reserved":false,"is_disabled":false,"rental_uris":{"android":"levelo://app?vid=5a605a45-c07c-4c30-aab9-ebd8a401dcf0","ios":"levelo://app?vid=5a605a45-c07c-4c30-aab9-ebd8a401dcf0"},"vehicle_type_id":"4","last_reported":1689833364,"current_range_meters":17200,"station_id":"ce4bgt12rcd13ifvqce0","pricing_plan_id":"free"},{"bike_id":"8b46eca2-fd70-4a8c-9e2c-f1aa2ab1fa88","system_id":"levelo_inurba_marseille","lat":43.308012,"lon":5.381511,"is_reserved":false,"is_disabled":false,"rental_uris":{"android":"levelo://app?vid=8b46eca2-fd70-4a8c-9e2c-f1aa2ab1fa88","ios":"levelo://app?vid=8b46eca2-fd70-4a8c-9e2c-f1aa2ab1fa88"},"vehicle_type_id":"4","last_reported":1689833364,"current_range_meters":30400,"station_id":"ce4bgt12rcd13ifvqce0","pricing_plan_id":"free"},{"bike_id":"81b8244f-0a4f-4128-81f4-dd61cc66dc5d","system_id":"levelo_inurba_marseille","lat":43.308012,"lon":5.381511,"is_reserved":false,"is_disabled":false,"rental_uris":{"android":"levelo://app?vid=81b8244f-0a4f-4128-81f4-dd61cc66dc5d","ios":"levelo://app?vid=81b8244f-0a4f-4128-81f4-dd61cc66dc5d"},"vehicle_type_id":"4","last_reported":1689833364,"current_range_meters":25600,"station_id":"ce4bgt12rcd13ifvqce0","pricing_plan_id":"free"},{"bike_id":"99348e8f-9ffb-4427-bef7-ccb747e9f1bd","system_id":"levelo_inurba_marseille","lat":43.308012,"lon":5.381511,"is_reserved":false,"is_disabled":false,"rental_uris":{"android":"levelo://app?vid=99348e8f-9ffb-4427-bef7-ccb747e9f1bd","ios":"levelo://app?vid=99348e8f-9ffb-4427-bef7-ccb747e9f1bd"},"vehicle_type_id":"4","last_reported":1689833364,"current_range_meters":13600,"station_id":"ce4bgt12rcd13ifvqce0","pricing_plan_id":"free"},{"bike_id":"d2e10150-51b8-4639-8d90-9362f1f3f34c","system_id":"levelo_inurba_marseille","lat":43.308012,"lon":5.381511,"is_reserved":false,"is_disabled":false,"rental_uris":{"android":"levelo://app?vid=d2e10150-51b8-4639-8d90-9362f1f3f34c","ios":"levelo://app?vid=d2e10150-51b8-4639-8d90-9362f1f3f34c"},"vehicle_type_id":"4","last_reported":1689833364,"current_range_meters":4800,"station_id":"ce4bgt12rcd13ifvqce0","pricing_plan_id":"free"},{"bike_id":"98350bb9-df50-430a-b9f1-bd3dd91331e8","system_id":"levelo_inurba_marseille","lat":43.308012,"lon":5.381511,"is_reserved":false,"is_disabled":false,"rental_uris":{"android":"levelo://app?vid=98350bb9-df50-430a-b9f1-bd3dd91331e8","ios":"levelo://app?vid=98350bb9-df50-430a-b9f1-bd3dd91331e8"},"vehicle_type_id":"4","last_reported":1689833364,"current_range_meters":7600,"station_id":"ce4bgt12rcd13ifvqce0","pricing_plan_id":"free"},{"bike_id":"fc8a80ae-72a3-466f-b4b5-1b8355e80efa","system_id":"levelo_inurba_marseille","lat":43.308012,"lon":5.381511,"is_reserved":false,"is_disabled":false,"rental_uris":{"android":"levelo://app?vid=fc8a80ae-72a3-466f-b4b5-1b8355e80efa","ios":"levelo://app?vid=fc8a80ae-72a3-466f-b4b5-1b8355e80efa"},"vehicle_type_id":"4","last_reported":1689833364,"current_range_meters":24800,"station_id":"ce4bgt12rcd13ifvqce0","pricing_plan_id":"free"},{"bike_id":"9ab133cc-59b0-4c34-8ef0-99233425e24b","system_id":"levelo_inurba_marseille","lat":43.308012,"lon":5.381511,"is_reserved":false,"is_disabled":false,"rental_uris":{"android":"levelo://app?vid=9ab133cc-59b0-4c34-8ef0-99233425e24b","ios":"levelo://app?vid=9ab133cc-59b0-4c34-8ef0-99233425e24b"},"vehicle_type_id":"4","last_reported":1689833364,"current_range_meters":16400,"station_id":"ce4bgt12rcd13ifvqce0","pricing_plan_id":"free"},{"bike_id":"47bdbbe2-0290-4e49-870f-f832940606dc","system_id":"levelo_inurba_marseille","lat":43.308012,"lon":5.381511,"is_reserved":false,"is_disabled":false,"rental_uris":{"android":"levelo://app?vid=47bdbbe2-0290-4e49-870f-f832940606dc","ios":"levelo://app?vid=47bdbbe2-0290-4e49-870f-f832940606dc"},"vehicle_type_id":"4","last_reported":1689833364,"current_range_meters":16800,"station_id":"ce4bgt12rcd13ifvqce0","pricing_plan_id":"free"},{"bike_id":"0a507bae-5c39-4a3d-aa28-e35a02398864","system_id":"levelo_inurba_marseille","lat":43.308012,"lon":5.381511,"is_reserved":false,"is_disabled":false,"rental_uris":{"android":"levelo://app?vid=0a507bae-5c39-4a3d-aa28-e35a02398864","ios":"levelo://app?vid=0a507bae-5c39-4a3d-aa28-e35a02398864"},"vehicle_type_id":"4","last_reported":1689833364,"current_range_meters":13600,"station_id":"ce4bgt12rcd13ifvqce0","pricing_plan_id":"free"},{"bike_id":"a7a740d0-f9ff-4551-8294-79c73fd3af2a","system_id":"levelo_inurba_marseille","lat":43.308012,"lon":5.381511,"is_reserved":false,"is_disabled":false,"rental_uris":{"android":"levelo://app?vid=a7a740d0-f9ff-4551-8294-79c73fd3af2a","ios":"levelo://app?vid=a7a740d0-f9ff-4551-8294-79c73fd3af2a"},"vehicle_type_id":"4","last_reported":1689833364,"current_range_meters":18800,"station_id":"ce4bgt12rcd13ifvqce0","pricing_plan_id":"free"},{"bike_id":"c45117c3-2a5c-45e8-8326-d7c0d2a886e6","system_id":"levelo_inurba_marseille","lat":43.308012,"lon":5.381511,"is_reserved":false,"is_disabled":false,"rental_uris":{"android":"levelo://app?vid=c45117c3-2a5c-45e8-8326-d7c0d2a886e6","ios":"levelo://app?vid=c45117c3-2a5c-45e8-8326-d7c0d2a886e6"},"vehicle_type_id":"4","last_reported":1689833364,"current_range_meters":26000,"station_id":"ce4bgt12rcd13ifvqce0","pricing_plan_id":"free"},{"bike_id":"f5e75ddc-a568-4eb9-909b-ded176e4a5ee","system_id":"levelo_inurba_marseille","lat":43.308012,"lon":5.381511,"is_reserved":false,"is_disabled":false,"rental_uris":{"android":"levelo://app?vid=f5e75ddc-a568-4eb9-909b-ded176e4a5ee","ios":"levelo://app?vid=f5e75ddc-a568-4eb9-909b-ded176e4a5ee"},"vehicle_type_id":"4","last_reported":1689833364,"current_range_meters":30000,"station_id":"ce4bgt12rcd13ifvqce0","pricing_plan_id":"free"},{"bike_id":"bc9ecdbd-f758-441d-a2a1-cfe345658aab","system_id":"levelo_inurba_marseille","lat":43.308012,"lon":5.381511,"is_reserved":false,"is_disabled":false,"rental_uris":{"android":"levelo://app?vid=bc9ecdbd-f758-441d-a2a1-cfe345658aab","ios":"levelo://app?vid=bc9ecdbd-f758-441d-a2a1-cfe345658aab"},"vehicle_type_id":"4","last_reported":1689833364,"current_range_meters":11600,"station_id":"ce4bgt12rcd13ifvqce0","pricing_plan_id":"free"},{"bike_id":"0a489ab1-6bab-4e36-92cf-d89117bb2178","system_id":"levelo_inurba_marseille","lat":43.304606,"lon":5.379026,"is_reserved":false,"is_disabled":false,"rental_uris":{"android":"levelo://app?vid=0a489ab1-6bab-4e36-92cf-d89117bb2178","ios":"levelo://app?vid=0a489ab1-6bab-4e36-92cf-d89117bb2178"},"vehicle_type_id":"4","last_reported":1689833364,"current_range_meters":27200,"station_id":"ce4bgup2rcd13ifvqcn0","pricing_plan_id":"free"},{"bike_id":"c7862c16-9251-4b5d-8d6e-374413997c5b","system_id":"levelo_inurba_marseille","lat":43.30479,"lon":5.37896,"is_reserved":false,"is_disabled":false,"rental_uris":{"android":"levelo://app?vid=c7862c16-9251-4b5d-8d6e-374413997c5b","ios":"levelo://app?vid=c7862c16-9251-4b5d-8d6e-374413997c5b"},"vehicle_type_id":"4","last_reported":1689833364,"current_range_meters":25600,"station_id":"ce4bgup2rcd13ifvqcn0","pricing_plan_id":"free"},{"bike_id":"f3607e89-89c1-412e-8937-05484510165e","system_id":"levelo_inurba_marseille","lat":43.304606,"lon":5.379026,"is_reserved":false,"is_disabled":false,"rental_uris":{"android":"levelo://app?vid=f3607e89-89c1-412e-8937-05484510165e","ios":"levelo://app?vid=f3607e89-89c1-412e-8937-05484510165e"},"vehicle_type_id":"4","last_reported":1689833364,"current_range_meters":31200,"station_id":"ce4bgup2rcd13ifvqcn0","pricing_plan_id":"free"},{"bike_id":"81929f22-a534-4cc1-8859-78c6817c5fcc","system_id":"levelo_inurba_marseille","lat":43.304606,"lon":5.379026,"is_reserved":false,"is_disabled":false,"rental_uris":{"android":"levelo://app?vid=81929f22-a534-4cc1-8859-78c6817c5fcc","ios":"levelo://app?vid=81929f22-a534-4cc1-8859-78c6817c5fcc"},"vehicle_type_id":"4","last_reported":1689833364,"current_range_meters":28000,"station_id":"ce4bgup2rcd13ifvqcn0","pricing_plan_id":"free"},{"bike_id":"133143f2-7e7d-46dc-ae85-34685c0bdf34","system_id":"levelo_inurba_marseille","lat":43.30473,"lon":5.37907,"is_reserved":false,"is_disabled":false,"rental_uris":{"android":"levelo://app?vid=133143f2-7e7d-46dc-ae85-34685c0bdf34","ios":"levelo://app?vid=133143f2-7e7d-46dc-ae85-34685c0bdf34"},"vehicle_type_id":"4","last_reported":1689833364,"current_range_meters":11200,"station_id":"ce4bgup2rcd13ifvqcn0","pricing_plan_id":"free"},{"bike_id":"c9a0636a-a2c6-49b0-9b17-a06617944f12","system_id":"levelo_inurba_marseille","lat":43.304606,"lon":5.379026,"is_reserved":false,"is_disabled":false,"rental_uris":{"android":"levelo://app?vid=c9a0636a-a2c6-49b0-9b17-a06617944f12","ios":"levelo://app?vid=c9a0636a-a2c6-49b0-9b17-a06617944f12"},"vehicle_type_id":"4","last_reported":1689833364,"current_range_meters":29600,"station_id":"ce4bgup2rcd13ifvqcn0","pricing_plan_id":"free"},{"bike_id":"acd245f3-1ea5-40b2-9e1d-5b0fe2db3a66","system_id":"levelo_inurba_marseille","lat":43.304606,"lon":5.379026,"is_reserved":false,"is_disabled":false,"rental_uris":{"android":"levelo://app?vid=acd245f3-1ea5-40b2-9e1d-5b0fe2db3a66","ios":"levelo://app?vid=acd245f3-1ea5-40b2-9e1d-5b0fe2db3a66"},"vehicle_type_id":"4","last_reported":1689833364,"current_range_meters":31200,"station_id":"ce4bgup2rcd13ifvqcn0","pricing_plan_id":"free"},{"bike_id":"1240bee1-cd84-4cfd-a58f-4f9aff668e6b","system_id":"levelo_inurba_marseille","lat":43.30469,"lon":5.37905,"is_reserved":false,"is_disabled":false,"rental_uris":{"android":"levelo://app?vid=1240bee1-cd84-4cfd-a58f-4f9aff668e6b","ios":"levelo://app?vid=1240bee1-cd84-4cfd-a58f-4f9aff668e6b"},"vehicle_type_id":"4","last_reported":1689833364,"current_range_meters":29200,"station_id":"ce4bgup2rcd13ifvqcn0","pricing_plan_id":"free"},{"bike_id":"dbd3d62e-2ff4-4629-ba4a-cf583d94e9c1","system_id":"levelo_inurba_marseille","lat":43.304606,"lon":5.379026,"is_reserved":false,"is_disabled":false,"rental_uris":{"android":"levelo://app?vid=dbd3d62e-2ff4-4629-ba4a-cf583d94e9c1","ios":"levelo://app?vid=dbd3d62e-2ff4-4629-ba4a-cf583d94e9c1"},"vehicle_type_id":"4","last_reported":1689833364,"current_range_meters":11600,"station_id":"ce4bgup2rcd13ifvqcn0","pricing_plan_id":"free"},{"bike_id":"0a6adb04-e7b3-4442-be42-9b9a1deaf3d1","system_id":"levelo_inurba_marseille","lat":43.304606,"lon":5.379026,"is_reserved":false,"is_disabled":false,"rental_uris":{"android":"levelo://app?vid=0a6adb04-e7b3-4442-be42-9b9a1deaf3d1","ios":"levelo://app?vid=0a6adb04-e7b3-4442-be42-9b9a1deaf3d1"},"vehicle_type_id":"4","last_reported":1689833364,"current_range_meters":21600,"station_id":"ce4bgup2rcd13ifvqcn0","pricing_plan_id":"free"},{"bike_id":"6aa61064-9417-431d-8067-115f3558d280","system_id":"levelo_inurba_marseille","lat":43.304606,"lon":5.379026,"is_reserved":false,"is_disabled":false,"rental_uris":{"android":"levelo://app?vid=6aa61064-9417-431d-8067-115f3558d280","ios":"levelo://app?vid=6aa61064-9417-431d-8067-115f3558d280"},"vehicle_type_id":"4","last_reported":1689833364,"current_range_meters":31200,"station_id":"ce4bgup2rcd13ifvqcn0","pricing_plan_id":"free"},{"bike_id":"f1af3dab-767a-4d68-9863-52a5079a31af","system_id":"levelo_inurba_marseille","lat":43.304606,"lon":5.379026,"is_reserved":false,"is_disabled":false,"rental_uris":{"android":"levelo://app?vid=f1af3dab-767a-4d68-9863-52a5079a31af","ios":"levelo://app?vid=f1af3dab-767a-4d68-9863-52a5079a31af"},"vehicle_type_id":"4","last_reported":1689833364,"current_range_meters":29200,"station_id":"ce4bgup2rcd13ifvqcn0","pricing_plan_id":"free"},{"bike_id":"b9e6da5b-311a-4b94-a1ef-64c477194180","system_id":"levelo_inurba_marseille","lat":43.304606,"lon":5.379026,"is_reserved":false,"is_disabled":false,"rental_uris":{"android":"levelo://app?vid=b9e6da5b-311a-4b94-a1ef-64c477194180","ios":"levelo://app?vid=b9e6da5b-311a-4b94-a1ef-64c477194180"},"vehicle_type_id":"4","last_reported":1689833364,"current_range_meters":18000,"station_id":"ce4bgup2rcd13ifvqcn0","pricing_plan_id":"free"},{"bike_id":"78b2abb5-09a7-4581-9e0e-3f111418570b","system_id":"levelo_inurba_marseille","lat":43.30463,"lon":5.37908,"is_reserved":false,"is_disabled":false,"rental_uris":{"android":"levelo://app?vid=78b2abb5-09a7-4581-9e0e-3f111418570b","ios":"levelo://app?vid=78b2abb5-09a7-4581-9e0e-3f111418570b"},"vehicle_type_id":"4","last_reported":1689833364,"current_range_meters":21200,"station_id":"ce4bgup2rcd13ifvqcn0","pricing_plan_id":"free"},{"bike_id":"5a6c2d90-936b-4366-99b1-7c6e281349f9","system_id":"levelo_inurba_marseille","lat":43.30462,"lon":5.37907,"is_reserved":false,"is_disabled":false,"rental_uris":{"android":"levelo://app?vid=5a6c2d90-936b-4366-99b1-7c6e281349f9","ios":"levelo://app?vid=5a6c2d90-936b-4366-99b1-7c6e281349f9"},"vehicle_type_id":"4","last_reported":1689833364,"current_range_meters":5200,"station_id":"ce4bgup2rcd13ifvqcn0","pricing_plan_id":"free"},{"bike_id":"e46c91c6-f69a-4525-a095-8c5ffa891eb8","system_id":"levelo_inurba_marseille","lat":43.3046,"lon":5.37907,"is_reserved":false,"is_disabled":false,"rental_uris":{"android":"levelo://app?vid=e46c91c6-f69a-4525-a095-8c5ffa891eb8","ios":"levelo://app?vid=e46c91c6-f69a-4525-a095-8c5ffa891eb8"},"vehicle_type_id":"4","last_reported":1689833364,"current_range_meters":24000,"station_id":"ce4bgup2rcd13ifvqcn0","pricing_plan_id":"free"},{"bike_id":"c8565d67-e0fb-44d3-8c26-838f40b97094","system_id":"levelo_inurba_marseille","lat":43.304606,"lon":5.379026,"is_reserved":false,"is_disabled":false,"rental_uris":{"android":"levelo://app?vid=c8565d67-e0fb-44d3-8c26-838f40b97094","ios":"levelo://app?vid=c8565d67-e0fb-44d3-8c26-838f40b97094"},"vehicle_type_id":"4","last_reported":1689833364,"current_range_meters":17600,"station_id":"ce4bgup2rcd13ifvqcn0","pricing_plan_id":"free"},{"bike_id":"1fdf834a-7c46-4c61-8cfd-37590639b184","system_id":"levelo_inurba_marseille","lat":43.302784,"lon":5.377158,"is_reserved":false,"is_disabled":false,"rental_uris":{"android":"levelo://app?vid=1fdf834a-7c46-4c61-8cfd-37590639b184","ios":"levelo://app?vid=1fdf834a-7c46-4c61-8cfd-37590639b184"},"vehicle_type_id":"4","last_reported":1689833364,"current_range_meters":29600,"station_id":"ce4bguh2rcd13ifvqcj0","pricing_plan_id":"free"},{"bike_id":"88463e4d-fc6a-4a42-baad-8bcf865fb032","system_id":"levelo_inurba_marseille","lat":43.302784,"lon":5.377158,"is_reserved":false,"is_disabled":false,"rental_uris":{"android":"levelo://app?vid=88463e4d-fc6a-4a42-baad-8bcf865fb032","ios":"levelo://app?vid=88463e4d-fc6a-4a42-baad-8bcf865fb032"},"vehicle_type_id":"4","last_reported":1689833364,"current_range_meters":30000,"station_id":"ce4bguh2rcd13ifvqcj0","pricing_plan_id":"free"},{"bike_id":"3cbd3441-6de2-4993-b4ce-bfe766da1865","system_id":"levelo_inurba_marseille","lat":43.30142,"lon":5.37406,"is_reserved":false,"is_disabled":false,"rental_uris":{"android":"levelo://app?vid=3cbd3441-6de2-4993-b4ce-bfe766da1865","ios":"levelo://app?vid=3cbd3441-6de2-4993-b4ce-bfe766da1865"},"vehicle_type_id":"4","last_reported":1689833364,"current_range_meters":8800,"station_id":"ce4bgs92rcd13ifvqcc0","pricing_plan_id":"free"},{"bike_id":"37461991-4eb4-490d-bbf9-a376c87240a4","system_id":"levelo_inurba_marseille","lat":43.30147,"lon":5.37421,"is_reserved":false,"is_disabled":false,"rental_uris":{"android":"levelo://app?vid=37461991-4eb4-490d-bbf9-a376c87240a4","ios":"levelo://app?vid=37461991-4eb4-490d-bbf9-a376c87240a4"},"vehicle_type_id":"4","last_reported":1689833364,"current_range_meters":8400,"station_id":"ce4bgs92rcd13ifvqcc0","pricing_plan_id":"free"},{"bike_id":"b2f0c9fc-63dc-4f45-b4a8-d983ad43c8ef","system_id":"levelo_inurba_marseille","lat":43.30143,"lon":5.37413,"is_reserved":false,"is_disabled":false,"rental_uris":{"android":"levelo://app?vid=b2f0c9fc-63dc-4f45-b4a8-d983ad43c8ef","ios":"levelo://app?vid=b2f0c9fc-63dc-4f45-b4a8-d983ad43c8ef"},"vehicle_type_id":"4","last_reported":1689833364,"current_range_meters":10400,"station_id":"ce4bgs92rcd13ifvqcc0","pricing_plan_id":"free"},{"bike_id":"1a4ffd09-cefd-41b1-962d-5df9e343a708","system_id":"levelo_inurba_marseille","lat":43.30145,"lon":5.37429,"is_reserved":false,"is_disabled":false,"rental_uris":{"android":"levelo://app?vid=1a4ffd09-cefd-41b1-962d-5df9e343a708","ios":"levelo://app?vid=1a4ffd09-cefd-41b1-962d-5df9e343a708"},"vehicle_type_id":"4","last_reported":1689833364,"current_range_meters":26000,"station_id":"ce4bgs92rcd13ifvqcc0","pricing_plan_id":"free"},{"bike_id":"daaf8c4c-6297-450f-b3a1-643f380ebb01","system_id":"levelo_inurba_marseille","lat":43.3013,"lon":5.37425,"is_reserved":false,"is_disabled":false,"rental_uris":{"android":"levelo://app?vid=daaf8c4c-6297-450f-b3a1-643f380ebb01","ios":"levelo://app?vid=daaf8c4c-6297-450f-b3a1-643f380ebb01"},"vehicle_type_id":"4","last_reported":1689833364,"current_range_meters":3600,"station_id":"ce4bgs92rcd13ifvqcc0","pricing_plan_id":"free"},{"bike_id":"f90240af-64d0-4ba8-8f20-53e145a77c44","system_id":"levelo_inurba_marseille","lat":43.319935,"lon":5.381699,"is_reserved":false,"is_disabled":false,"rental_uris":{"android":"levelo://app?vid=f90240af-64d0-4ba8-8f20-53e145a77c44","ios":"levelo://app?vid=f90240af-64d0-4ba8-8f20-53e145a77c44"},"vehicle_type_id":"4","last_reported":1689833364,"current_range_meters":24400,"station_id":"ce4bhr12rcd13ifvqhpg","pricing_plan_id":"free"},{"bike_id":"aecf68cc-6dab-4d48-9b33-456f56f1c060","system_id":"levelo_inurba_marseille","lat":43.319935,"lon":5.381699,"is_reserved":false,"is_disabled":false,"rental_uris":{"android":"levelo://app?vid=aecf68cc-6dab-4d48-9b33-456f56f1c060","ios":"levelo://app?vid=aecf68cc-6dab-4d48-9b33-456f56f1c060"},"vehicle_type_id":"4","last_reported":1689833364,"current_range_meters":20400,"station_id":"ce4bhr12rcd13ifvqhpg","pricing_plan_id":"free"},{"bike_id":"9f03a4dd-df2e-4157-a8bf-57a40ce14c85","system_id":"levelo_inurba_marseille","lat":43.319935,"lon":5.381699,"is_reserved":false,"is_disabled":false,"rental_uris":{"android":"levelo://app?vid=9f03a4dd-df2e-4157-a8bf-57a40ce14c85","ios":"levelo://app?vid=9f03a4dd-df2e-4157-a8bf-57a40ce14c85"},"vehicle_type_id":"4","last_reported":1689833364,"current_range_meters":28000,"station_id":"ce4bhr12rcd13ifvqhpg","pricing_plan_id":"free"},{"bike_id":"19100311-c096-4ea3-9658-fe0675467fb5","system_id":"levelo_inurba_marseille","lat":43.319935,"lon":5.381699,"is_reserved":false,"is_disabled":false,"rental_uris":{"android":"levelo://app?vid=19100311-c096-4ea3-9658-fe0675467fb5","ios":"levelo://app?vid=19100311-c096-4ea3-9658-fe0675467fb5"},"vehicle_type_id":"4","last_reported":1689833364,"current_range_meters":23600,"station_id":"ce4bhr12rcd13ifvqhpg","pricing_plan_id":"free"},{"bike_id":"81dbb561-ba63-4cda-a721-d080e1d9f826","system_id":"levelo_inurba_marseille","lat":43.319935,"lon":5.381699,"is_reserved":false,"is_disabled":false,"rental_uris":{"android":"levelo://app?vid=81dbb561-ba63-4cda-a721-d080e1d9f826","ios":"levelo://app?vid=81dbb561-ba63-4cda-a721-d080e1d9f826"},"vehicle_type_id":"4","last_reported":1689833364,"current_range_meters":12000,"station_id":"ce4bhr12rcd13ifvqhpg","pricing_plan_id":"free"},{"bike_id":"b0dd87b2-d98f-41f0-92f5-f872f1fe0084","system_id":"levelo_inurba_marseille","lat":43.319935,"lon":5.381699,"is_reserved":false,"is_disabled":false,"rental_uris":{"android":"levelo://app?vid=b0dd87b2-d98f-41f0-92f5-f872f1fe0084","ios":"levelo://app?vid=b0dd87b2-d98f-41f0-92f5-f872f1fe0084"},"vehicle_type_id":"4","last_reported":1689833364,"current_range_meters":24000,"station_id":"ce4bhr12rcd13ifvqhpg","pricing_plan_id":"free"},{"bike_id":"faa650bc-ef8b-4851-89a5-35d775b19054","system_id":"levelo_inurba_marseille","lat":43.319935,"lon":5.381699,"is_reserved":false,"is_disabled":false,"rental_uris":{"android":"levelo://app?vid=faa650bc-ef8b-4851-89a5-35d775b19054","ios":"levelo://app?vid=faa650bc-ef8b-4851-89a5-35d775b19054"},"vehicle_type_id":"4","last_reported":1689833364,"current_range_meters":4400,"station_id":"ce4bhr12rcd13ifvqhpg","pricing_plan_id":"free"},{"bike_id":"d38cccfa-5ebc-4b9c-9934-933da8233c7f","system_id":"levelo_inurba_marseille","lat":43.319935,"lon":5.381699,"is_reserved":false,"is_disabled":false,"rental_uris":{"android":"levelo://app?vid=d38cccfa-5ebc-4b9c-9934-933da8233c7f","ios":"levelo://app?vid=d38cccfa-5ebc-4b9c-9934-933da8233c7f"},"vehicle_type_id":"4","last_reported":1689833364,"current_range_meters":7600,"station_id":"ce4bhr12rcd13ifvqhpg","pricing_plan_id":"free"},{"bike_id":"cfb78d01-6ffa-4260-adff-75021a45d8ba","system_id":"levelo_inurba_marseille","lat":43.319935,"lon":5.381699,"is_reserved":false,"is_disabled":false,"rental_uris":{"android":"levelo://app?vid=cfb78d01-6ffa-4260-adff-75021a45d8ba","ios":"levelo://app?vid=cfb78d01-6ffa-4260-adff-75021a45d8ba"},"vehicle_type_id":"4","last_reported":1689833364,"current_range_meters":16800,"station_id":"ce4bhr12rcd13ifvqhpg","pricing_plan_id":"free"},{"bike_id":"d83eaa40-f4d3-4e37-910c-d9a6410f7691","system_id":"levelo_inurba_marseille","lat":43.319935,"lon":5.381699,"is_reserved":false,"is_disabled":false,"rental_uris":{"android":"levelo://app?vid=d83eaa40-f4d3-4e37-910c-d9a6410f7691","ios":"levelo://app?vid=d83eaa40-f4d3-4e37-910c-d9a6410f7691"},"vehicle_type_id":"4","last_reported":1689833364,"current_range_meters":13600,"station_id":"ce4bhr12rcd13ifvqhpg","pricing_plan_id":"free"},{"bike_id":"46ab4ae8-3e03-4e2f-88b5-ce635874443d","system_id":"levelo_inurba_marseille","lat":43.319935,"lon":5.381699,"is_reserved":false,"is_disabled":false,"rental_uris":{"android":"levelo://app?vid=46ab4ae8-3e03-4e2f-88b5-ce635874443d","ios":"levelo://app?vid=46ab4ae8-3e03-4e2f-88b5-ce635874443d"},"vehicle_type_id":"4","last_reported":1689833364,"current_range_meters":16800,"station_id":"ce4bhr12rcd13ifvqhpg","pricing_plan_id":"free"},{"bike_id":"44fc54ad-1c39-48c7-8609-000cfb5df326","system_id":"levelo_inurba_marseille","lat":43.31357,"lon":5.38486,"is_reserved":false,"is_disabled":false,"rental_uris":{"android":"levelo://app?vid=44fc54ad-1c39-48c7-8609-000cfb5df326","ios":"levelo://app?vid=44fc54ad-1c39-48c7-8609-000cfb5df326"},"vehicle_type_id":"4","last_reported":1689833364,"current_range_meters":22000,"station_id":"ce4bgt92rcd13ifvqcf0","pricing_plan_id":"free"},{"bike_id":"6de72e74-0476-47ba-8ce9-277834201200","system_id":"levelo_inurba_marseille","lat":43.31357,"lon":5.38491,"is_reserved":false,"is_disabled":false,"rental_uris":{"android":"levelo://app?vid=6de72e74-0476-47ba-8ce9-277834201200","ios":"levelo://app?vid=6de72e74-0476-47ba-8ce9-277834201200"},"vehicle_type_id":"4","last_reported":1689833364,"current_range_meters":22400,"station_id":"ce4bgt92rcd13ifvqcf0","pricing_plan_id":"free"},{"bike_id":"4a19f3d9-a77e-419f-8309-bb45c0dba1a8","system_id":"levelo_inurba_marseille","lat":43.313571,"lon":5.384829,"is_reserved":false,"is_disabled":false,"rental_uris":{"android":"levelo://app?vid=4a19f3d9-a77e-419f-8309-bb45c0dba1a8","ios":"levelo://app?vid=4a19f3d9-a77e-419f-8309-bb45c0dba1a8"},"vehicle_type_id":"4","last_reported":1689833364,"current_range_meters":31200,"station_id":"ce4bgt92rcd13ifvqcf0","pricing_plan_id":"free"},{"bike_id":"7e978c5a-8374-49be-a43f-68687687a67a","system_id":"levelo_inurba_marseille","lat":43.313571,"lon":5.384829,"is_reserved":false,"is_disabled":false,"rental_uris":{"android":"levelo://app?vid=7e978c5a-8374-49be-a43f-68687687a67a","ios":"levelo://app?vid=7e978c5a-8374-49be-a43f-68687687a67a"},"vehicle_type_id":"4","last_reported":1689833364,"current_range_meters":23600,"station_id":"ce4bgt92rcd13ifvqcf0","pricing_plan_id":"free"},{"bike_id":"099f84f4-3d88-4151-ae4e-863df3b32003","system_id":"levelo_inurba_marseille","lat":43.313571,"lon":5.384829,"is_reserved":false,"is_disabled":false,"rental_uris":{"android":"levelo://app?vid=099f84f4-3d88-4151-ae4e-863df3b32003","ios":"levelo://app?vid=099f84f4-3d88-4151-ae4e-863df3b32003"},"vehicle_type_id":"4","last_reported":1689833364,"current_range_meters":2400,"station_id":"ce4bgt92rcd13ifvqcf0","pricing_plan_id":"free"},{"bike_id":"e69bf61d-9a95-4cad-a8bd-da5033f7d0b6","system_id":"levelo_inurba_marseille","lat":43.31376,"lon":5.3851,"is_reserved":false,"is_disabled":false,"rental_uris":{"android":"levelo://app?vid=e69bf61d-9a95-4cad-a8bd-da5033f7d0b6","ios":"levelo://app?vid=e69bf61d-9a95-4cad-a8bd-da5033f7d0b6"},"vehicle_type_id":"4","last_reported":1689833364,"current_range_meters":24800,"station_id":"ce4bgt92rcd13ifvqcf0","pricing_plan_id":"free"},{"bike_id":"354a6c59-edec-40ee-9533-ff313998b217","system_id":"levelo_inurba_marseille","lat":43.299222,"lon":5.365554,"is_reserved":false,"is_disabled":false,"rental_uris":{"android":"levelo://app?vid=354a6c59-edec-40ee-9533-ff313998b217","ios":"levelo://app?vid=354a6c59-edec-40ee-9533-ff313998b217"},"vehicle_type_id":"4","last_reported":1689833364,"current_range_meters":22800,"station_id":"ce4bgm92rcd13ifvqbr0","pricing_plan_id":"free"},{"bike_id":"a7e326fc-a7b6-4a92-bad2-cbcd0d3bcab9","system_id":"levelo_inurba_marseille","lat":43.29936,"lon":5.36621,"is_reserved":false,"is_disabled":false,"rental_uris":{"android":"levelo://app?vid=a7e326fc-a7b6-4a92-bad2-cbcd0d3bcab9","ios":"levelo://app?vid=a7e326fc-a7b6-4a92-bad2-cbcd0d3bcab9"},"vehicle_type_id":"4","last_reported":1689833364,"current_range_meters":9200,"station_id":"","pricing_plan_id":"free"},{"bike_id":"abcd80e0-37ff-4442-a7b9-13e86bb2b907","system_id":"levelo_inurba_marseille","lat":43.30059,"lon":5.37651,"is_reserved":false,"is_disabled":false,"rental_uris":{"android":"levelo://app?vid=abcd80e0-37ff-4442-a7b9-13e86bb2b907","ios":"levelo://app?vid=abcd80e0-37ff-4442-a7b9-13e86bb2b907"},"vehicle_type_id":"4","last_reported":1689833364,"current_range_meters":4400,"station_id":"","pricing_plan_id":"free"},{"bike_id":"d02c5fb0-6426-41e7-b8e3-b0175092d5ec","system_id":"levelo_inurba_marseille","lat":43.305364,"lon":5.384119,"is_reserved":false,"is_disabled":false,"rental_uris":{"android":"levelo://app?vid=d02c5fb0-6426-41e7-b8e3-b0175092d5ec","ios":"levelo://app?vid=d02c5fb0-6426-41e7-b8e3-b0175092d5ec"},"vehicle_type_id":"4","last_reported":1689833364,"current_range_meters":6800,"station_id":"ce4bgg92rcd13ifvqb30","pricing_plan_id":"free"},{"bike_id":"2362bca4-e661-4667-9e20-67f050c3fe7d","system_id":"levelo_inurba_marseille","lat":43.305364,"lon":5.384119,"is_reserved":false,"is_disabled":false,"rental_uris":{"android":"levelo://app?vid=2362bca4-e661-4667-9e20-67f050c3fe7d","ios":"levelo://app?vid=2362bca4-e661-4667-9e20-67f050c3fe7d"},"vehicle_type_id":"4","last_reported":1689833364,"current_range_meters":10000,"station_id":"ce4bgg92rcd13ifvqb30","pricing_plan_id":"free"},{"bike_id":"ca44b6dd-55d2-452a-98c3-75e7722dbace","system_id":"levelo_inurba_marseille","lat":43.305364,"lon":5.384119,"is_reserved":false,"is_disabled":false,"rental_uris":{"android":"levelo://app?vid=ca44b6dd-55d2-452a-98c3-75e7722dbace","ios":"levelo://app?vid=ca44b6dd-55d2-452a-98c3-75e7722dbace"},"vehicle_type_id":"4","last_reported":1689833364,"current_range_meters":21200,"station_id":"ce4bgg92rcd13ifvqb30","pricing_plan_id":"free"},{"bike_id":"3f6d7855-2040-4120-b0bb-bccf1e7b961f","system_id":"levelo_inurba_marseille","lat":43.305364,"lon":5.384119,"is_reserved":false,"is_disabled":false,"rental_uris":{"android":"levelo://app?vid=3f6d7855-2040-4120-b0bb-bccf1e7b961f","ios":"levelo://app?vid=3f6d7855-2040-4120-b0bb-bccf1e7b961f"},"vehicle_type_id":"4","last_reported":1689833364,"current_range_meters":31200,"station_id":"ce4bgg92rcd13ifvqb30","pricing_plan_id":"free"},{"bike_id":"65d84cb3-cc96-4b33-a7aa-7b6a39041141","system_id":"levelo_inurba_marseille","lat":43.305364,"lon":5.384119,"is_reserved":false,"is_disabled":false,"rental_uris":{"android":"levelo://app?vid=65d84cb3-cc96-4b33-a7aa-7b6a39041141","ios":"levelo://app?vid=65d84cb3-cc96-4b33-a7aa-7b6a39041141"},"vehicle_type_id":"4","last_reported":1689833364,"current_range_meters":30000,"station_id":"ce4bgg92rcd13ifvqb30","pricing_plan_id":"free"},{"bike_id":"29933b59-a25a-40cc-8026-d859fb5fbe14","system_id":"levelo_inurba_marseille","lat":43.298433,"lon":5.362774,"is_reserved":false,"is_disabled":false,"rental_uris":{"android":"levelo://app?vid=29933b59-a25a-40cc-8026-d859fb5fbe14","ios":"levelo://app?vid=29933b59-a25a-40cc-8026-d859fb5fbe14"},"vehicle_type_id":"4","last_reported":1689833364,"current_range_meters":20000,"station_id":"ce4bgpp2rcd13ifvqc3g","pricing_plan_id":"free"},{"bike_id":"ccb3e878-9cd0-4f37-8703-802a206615c5","system_id":"levelo_inurba_marseille","lat":43.298433,"lon":5.362774,"is_reserved":false,"is_disabled":false,"rental_uris":{"android":"levelo://app?vid=ccb3e878-9cd0-4f37-8703-802a206615c5","ios":"levelo://app?vid=ccb3e878-9cd0-4f37-8703-802a206615c5"},"vehicle_type_id":"4","last_reported":1689833364,"current_range_meters":19600,"station_id":"ce4bgpp2rcd13ifvqc3g","pricing_plan_id":"free"},{"bike_id":"5c36062c-ab36-4758-a0ab-6e4c6e5d6310","system_id":"levelo_inurba_marseille","lat":43.298433,"lon":5.362774,"is_reserved":false,"is_disabled":false,"rental_uris":{"android":"levelo://app?vid=5c36062c-ab36-4758-a0ab-6e4c6e5d6310","ios":"levelo://app?vid=5c36062c-ab36-4758-a0ab-6e4c6e5d6310"},"vehicle_type_id":"4","last_reported":1689833364,"current_range_meters":27600,"station_id":"ce4bgpp2rcd13ifvqc3g","pricing_plan_id":"free"},{"bike_id":"6e540f5c-0a2b-4998-a803-006b3bd56c6d","system_id":"levelo_inurba_marseille","lat":43.311722,"lon":5.387247,"is_reserved":false,"is_disabled":false,"rental_uris":{"android":"levelo://app?vid=6e540f5c-0a2b-4998-a803-006b3bd56c6d","ios":"levelo://app?vid=6e540f5c-0a2b-4998-a803-006b3bd56c6d"},"vehicle_type_id":"4","last_reported":1689833364,"current_range_meters":28400,"station_id":"ce4bgv12rcd13ifvqcp0","pricing_plan_id":"free"},{"bike_id":"bd6ff138-9b05-43aa-a500-8caf08da3f7b","system_id":"levelo_inurba_marseille","lat":43.31173,"lon":5.38709,"is_reserved":false,"is_disabled":false,"rental_uris":{"android":"levelo://app?vid=bd6ff138-9b05-43aa-a500-8caf08da3f7b","ios":"levelo://app?vid=bd6ff138-9b05-43aa-a500-8caf08da3f7b"},"vehicle_type_id":"4","last_reported":1689833364,"current_range_meters":31200,"station_id":"ce4bgv12rcd13ifvqcp0","pricing_plan_id":"free"},{"bike_id":"2b99c012-1aba-43c2-b514-08f00c796379","system_id":"levelo_inurba_marseille","lat":43.31169,"lon":5.38709,"is_reserved":false,"is_disabled":false,"rental_uris":{"android":"levelo://app?vid=2b99c012-1aba-43c2-b514-08f00c796379","ios":"levelo://app?vid=2b99c012-1aba-43c2-b514-08f00c796379"},"vehicle_type_id":"4","last_reported":1689833364,"current_range_meters":800,"station_id":"ce4bgv12rcd13ifvqcp0","pricing_plan_id":"free"},{"bike_id":"8fef798b-9c1a-4c7e-9640-5d86d9bfbebd","system_id":"levelo_inurba_marseille","lat":43.31173,"lon":5.38716,"is_reserved":false,"is_disabled":false,"rental_uris":{"android":"levelo://app?vid=8fef798b-9c1a-4c7e-9640-5d86d9bfbebd","ios":"levelo://app?vid=8fef798b-9c1a-4c7e-9640-5d86d9bfbebd"},"vehicle_type_id":"4","last_reported":1689833364,"current_range_meters":30000,"station_id":"ce4bgv12rcd13ifvqcp0","pricing_plan_id":"free"},{"bike_id":"1599f873-30b1-4331-8eb2-432dec6b02bc","system_id":"levelo_inurba_marseille","lat":43.2979,"lon":5.37117,"is_reserved":false,"is_disabled":false,"rental_uris":{"android":"levelo://app?vid=1599f873-30b1-4331-8eb2-432dec6b02bc","ios":"levelo://app?vid=1599f873-30b1-4331-8eb2-432dec6b02bc"},"vehicle_type_id":"4","last_reported":1689833364,"current_range_meters":0,"station_id":"ce4bgop2rcd13ifvqc1g","pricing_plan_id":"free"},{"bike_id":"de5168ac-8b93-4745-a33c-bc2226298bb6","system_id":"levelo_inurba_marseille","lat":43.297794,"lon":5.370888,"is_reserved":false,"is_disabled":false,"rental_uris":{"android":"levelo://app?vid=de5168ac-8b93-4745-a33c-bc2226298bb6","ios":"levelo://app?vid=de5168ac-8b93-4745-a33c-bc2226298bb6"},"vehicle_type_id":"4","last_reported":1689833364,"current_range_meters":13600,"station_id":"ce4bgop2rcd13ifvqc1g","pricing_plan_id":"free"},{"bike_id":"1f00e075-651b-47e6-b5a4-757b641ab72d","system_id":"levelo_inurba_marseille","lat":43.297794,"lon":5.370888,"is_reserved":false,"is_disabled":false,"rental_uris":{"android":"levelo://app?vid=1f00e075-651b-47e6-b5a4-757b641ab72d","ios":"levelo://app?vid=1f00e075-651b-47e6-b5a4-757b641ab72d"},"vehicle_type_id":"4","last_reported":1689833364,"current_range_meters":15600,"station_id":"ce4bgop2rcd13ifvqc1g","pricing_plan_id":"free"},{"bike_id":"818a262c-8ab2-47ea-b60a-ae52f0d82709","system_id":"levelo_inurba_marseille","lat":43.322872,"lon":5.382756,"is_reserved":false,"is_disabled":false,"rental_uris":{"android":"levelo://app?vid=818a262c-8ab2-47ea-b60a-ae52f0d82709","ios":"levelo://app?vid=818a262c-8ab2-47ea-b60a-ae52f0d82709"},"vehicle_type_id":"4","last_reported":1689833364,"current_range_meters":18000,"station_id":"ce4bhr12rcd13ifvqhqg","pricing_plan_id":"free"},{"bike_id":"8755b323-dcb5-4e76-ade5-faee7ad9eb91","system_id":"levelo_inurba_marseille","lat":43.297774,"lon":5.370875,"is_reserved":false,"is_disabled":false,"rental_uris":{"android":"levelo://app?vid=8755b323-dcb5-4e76-ade5-faee7ad9eb91","ios":"levelo://app?vid=8755b323-dcb5-4e76-ade5-faee7ad9eb91"},"vehicle_type_id":"4","last_reported":1689833364,"current_range_meters":24400,"station_id":"ce4bgop2rcd13ifvqc1g","pricing_plan_id":"free"},{"bike_id":"7c154cf1-be76-45ac-8f98-526cdbeb1a99","system_id":"levelo_inurba_marseille","lat":43.32286,"lon":5.38261,"is_reserved":false,"is_disabled":false,"rental_uris":{"android":"levelo://app?vid=7c154cf1-be76-45ac-8f98-526cdbeb1a99","ios":"levelo://app?vid=7c154cf1-be76-45ac-8f98-526cdbeb1a99"},"vehicle_type_id":"4","last_reported":1689833364,"current_range_meters":20000,"station_id":"ce4bhr12rcd13ifvqhqg","pricing_plan_id":"free"},{"bike_id":"b795213b-a1bf-4ed8-9d4d-f4a3b5a2a58d","system_id":"levelo_inurba_marseille","lat":43.322872,"lon":5.382756,"is_reserved":false,"is_disabled":false,"rental_uris":{"android":"levelo://app?vid=b795213b-a1bf-4ed8-9d4d-f4a3b5a2a58d","ios":"levelo://app?vid=b795213b-a1bf-4ed8-9d4d-f4a3b5a2a58d"},"vehicle_type_id":"4","last_reported":1689833364,"current_range_meters":8800,"station_id":"ce4bhr12rcd13ifvqhqg","pricing_plan_id":"free"},{"bike_id":"2ed41945-cea8-4afa-87d0-4eb6bbef9c57","system_id":"levelo_inurba_marseille","lat":43.32285,"lon":5.38271,"is_reserved":false,"is_disabled":false,"rental_uris":{"android":"levelo://app?vid=2ed41945-cea8-4afa-87d0-4eb6bbef9c57","ios":"levelo://app?vid=2ed41945-cea8-4afa-87d0-4eb6bbef9c57"},"vehicle_type_id":"4","last_reported":1689833364,"current_range_meters":19600,"station_id":"ce4bhr12rcd13ifvqhqg","pricing_plan_id":"free"},{"bike_id":"3296666b-4550-46e5-8780-de3f4f4bdb22","system_id":"levelo_inurba_marseille","lat":43.322872,"lon":5.382756,"is_reserved":false,"is_disabled":false,"rental_uris":{"android":"levelo://app?vid=3296666b-4550-46e5-8780-de3f4f4bdb22","ios":"levelo://app?vid=3296666b-4550-46e5-8780-de3f4f4bdb22"},"vehicle_type_id":"4","last_reported":1689833364,"current_range_meters":17600,"station_id":"ce4bhr12rcd13ifvqhqg","pricing_plan_id":"free"},{"bike_id":"38cb8470-ab16-4d1e-bd37-13ef2ac7db48","system_id":"levelo_inurba_marseille","lat":43.322872,"lon":5.382756,"is_reserved":false,"is_disabled":false,"rental_uris":{"android":"levelo://app?vid=38cb8470-ab16-4d1e-bd37-13ef2ac7db48","ios":"levelo://app?vid=38cb8470-ab16-4d1e-bd37-13ef2ac7db48"},"vehicle_type_id":"4","last_reported":1689833364,"current_range_meters":19200,"station_id":"ce4bhr12rcd13ifvqhqg","pricing_plan_id":"free"},{"bike_id":"e916ca30-98a4-4365-b6d6-d96cd71c267d","system_id":"levelo_inurba_marseille","lat":43.322872,"lon":5.382756,"is_reserved":false,"is_disabled":false,"rental_uris":{"android":"levelo://app?vid=e916ca30-98a4-4365-b6d6-d96cd71c267d","ios":"levelo://app?vid=e916ca30-98a4-4365-b6d6-d96cd71c267d"},"vehicle_type_id":"4","last_reported":1689833364,"current_range_meters":8400,"station_id":"ce4bhr12rcd13ifvqhqg","pricing_plan_id":"free"},{"bike_id":"1b1a92f9-a469-49be-ae33-4794a606317c","system_id":"levelo_inurba_marseille","lat":43.328371,"lon":5.366909,"is_reserved":false,"is_disabled":false,"rental_uris":{"android":"levelo://app?vid=1b1a92f9-a469-49be-ae33-4794a606317c","ios":"levelo://app?vid=1b1a92f9-a469-49be-ae33-4794a606317c"},"vehicle_type_id":"4","last_reported":1689833364,"current_range_meters":11600,"station_id":"ce4bhs92rcd13ifvqi0g","pricing_plan_id":"free"},{"bike_id":"1bba3c32-f357-43af-9255-f08b99f6316a","system_id":"levelo_inurba_marseille","lat":43.328371,"lon":5.366909,"is_reserved":false,"is_disabled":false,"rental_uris":{"android":"levelo://app?vid=1bba3c32-f357-43af-9255-f08b99f6316a","ios":"levelo://app?vid=1bba3c32-f357-43af-9255-f08b99f6316a"},"vehicle_type_id":"4","last_reported":1689833364,"current_range_meters":23200,"station_id":"ce4bhs92rcd13ifvqi0g","pricing_plan_id":"free"},{"bike_id":"b302376c-6147-4444-9dd0-58db0e3f0bde","system_id":"levelo_inurba_marseille","lat":43.328371,"lon":5.366909,"is_reserved":false,"is_disabled":false,"rental_uris":{"android":"levelo://app?vid=b302376c-6147-4444-9dd0-58db0e3f0bde","ios":"levelo://app?vid=b302376c-6147-4444-9dd0-58db0e3f0bde"},"vehicle_type_id":"4","last_reported":1689833364,"current_range_meters":25600,"station_id":"ce4bhs92rcd13ifvqi0g","pricing_plan_id":"free"},{"bike_id":"c2dbc644-c7fb-4fb5-923b-703ff3d9c54f","system_id":"levelo_inurba_marseille","lat":43.32824,"lon":5.36677,"is_reserved":false,"is_disabled":false,"rental_uris":{"android":"levelo://app?vid=c2dbc644-c7fb-4fb5-923b-703ff3d9c54f","ios":"levelo://app?vid=c2dbc644-c7fb-4fb5-923b-703ff3d9c54f"},"vehicle_type_id":"4","last_reported":1689833364,"current_range_meters":26800,"station_id":"ce4bhs92rcd13ifvqi0g","pricing_plan_id":"free"},{"bike_id":"e2269176-6cb0-4f74-9aa3-00f0987eb8a7","system_id":"levelo_inurba_marseille","lat":43.32826,"lon":5.36693,"is_reserved":false,"is_disabled":false,"rental_uris":{"android":"levelo://app?vid=e2269176-6cb0-4f74-9aa3-00f0987eb8a7","ios":"levelo://app?vid=e2269176-6cb0-4f74-9aa3-00f0987eb8a7"},"vehicle_type_id":"4","last_reported":1689833364,"current_range_meters":23200,"station_id":"ce4bhs92rcd13ifvqi0g","pricing_plan_id":"free"},{"bike_id":"d9ff206c-b70a-4d44-84c2-da1f2e084cfe","system_id":"levelo_inurba_marseille","lat":43.328371,"lon":5.366909,"is_reserved":false,"is_disabled":false,"rental_uris":{"android":"levelo://app?vid=d9ff206c-b70a-4d44-84c2-da1f2e084cfe","ios":"levelo://app?vid=d9ff206c-b70a-4d44-84c2-da1f2e084cfe"},"vehicle_type_id":"4","last_reported":1689833364,"current_range_meters":26400,"station_id":"ce4bhs92rcd13ifvqi0g","pricing_plan_id":"free"},{"bike_id":"68aff992-6a2f-4df7-84f1-5f129124d378","system_id":"levelo_inurba_marseille","lat":43.32827,"lon":5.36688,"is_reserved":false,"is_disabled":false,"rental_uris":{"android":"levelo://app?vid=68aff992-6a2f-4df7-84f1-5f129124d378","ios":"levelo://app?vid=68aff992-6a2f-4df7-84f1-5f129124d378"},"vehicle_type_id":"4","last_reported":1689833364,"current_range_meters":30400,"station_id":"","pricing_plan_id":"free"},{"bike_id":"8301fc62-03e5-4157-b5c8-6668c5d99125","system_id":"levelo_inurba_marseille","lat":43.32827,"lon":5.36684,"is_reserved":false,"is_disabled":false,"rental_uris":{"android":"levelo://app?vid=8301fc62-03e5-4157-b5c8-6668c5d99125","ios":"levelo://app?vid=8301fc62-03e5-4157-b5c8-6668c5d99125"},"vehicle_type_id":"4","last_reported":1689833364,"current_range_meters":800,"station_id":"ce4bhs92rcd13ifvqi0g","pricing_plan_id":"free"},{"bike_id":"fa22a42c-19fd-4d4c-b13d-acfa470204e5","system_id":"levelo_inurba_marseille","lat":43.328371,"lon":5.366909,"is_reserved":false,"is_disabled":false,"rental_uris":{"android":"levelo://app?vid=fa22a42c-19fd-4d4c-b13d-acfa470204e5","ios":"levelo://app?vid=fa22a42c-19fd-4d4c-b13d-acfa470204e5"},"vehicle_type_id":"4","last_reported":1689833364,"current_range_meters":16800,"station_id":"ce4bhs92rcd13ifvqi0g","pricing_plan_id":"free"},{"bike_id":"c60ae560-9dc6-4bdd-b313-baa25229a308","system_id":"levelo_inurba_marseille","lat":43.32828,"lon":5.36689,"is_reserved":false,"is_disabled":false,"rental_uris":{"android":"levelo://app?vid=c60ae560-9dc6-4bdd-b313-baa25229a308","ios":"levelo://app?vid=c60ae560-9dc6-4bdd-b313-baa25229a308"},"vehicle_type_id":"4","last_reported":1689833364,"current_range_meters":17600,"station_id":"ce4bhs92rcd13ifvqi0g","pricing_plan_id":"free"},{"bike_id":"da10ba33-5415-4d7a-97f6-c10c6d32e73b","system_id":"levelo_inurba_marseille","lat":43.32828,"lon":5.36701,"is_reserved":false,"is_disabled":false,"rental_uris":{"android":"levelo://app?vid=da10ba33-5415-4d7a-97f6-c10c6d32e73b","ios":"levelo://app?vid=da10ba33-5415-4d7a-97f6-c10c6d32e73b"},"vehicle_type_id":"4","last_reported":1689833364,"current_range_meters":9200,"station_id":"ce4bhs92rcd13ifvqi0g","pricing_plan_id":"free"},{"bike_id":"4339c714-480f-436b-b9e8-7710d4628761","system_id":"levelo_inurba_marseille","lat":43.32828,"lon":5.36683,"is_reserved":false,"is_disabled":false,"rental_uris":{"android":"levelo://app?vid=4339c714-480f-436b-b9e8-7710d4628761","ios":"levelo://app?vid=4339c714-480f-436b-b9e8-7710d4628761"},"vehicle_type_id":"4","last_reported":1689833364,"current_range_meters":8000,"station_id":"ce4bhs92rcd13ifvqi0g","pricing_plan_id":"free"},{"bike_id":"c52398db-3149-4ccd-8b41-49b4cc753238","system_id":"levelo_inurba_marseille","lat":43.328371,"lon":5.366909,"is_reserved":false,"is_disabled":false,"rental_uris":{"android":"levelo://app?vid=c52398db-3149-4ccd-8b41-49b4cc753238","ios":"levelo://app?vid=c52398db-3149-4ccd-8b41-49b4cc753238"},"vehicle_type_id":"4","last_reported":1689833364,"current_range_meters":12000,"station_id":"ce4bhs92rcd13ifvqi0g","pricing_plan_id":"free"},{"bike_id":"13d003be-42f5-4e3b-9b1b-d7cf7e52da36","system_id":"levelo_inurba_marseille","lat":43.3283,"lon":5.36679,"is_reserved":false,"is_disabled":false,"rental_uris":{"android":"levelo://app?vid=13d003be-42f5-4e3b-9b1b-d7cf7e52da36","ios":"levelo://app?vid=13d003be-42f5-4e3b-9b1b-d7cf7e52da36"},"vehicle_type_id":"4","last_reported":1689833364,"current_range_meters":17600,"station_id":"ce4bhs92rcd13ifvqi0g","pricing_plan_id":"free"},{"bike_id":"216c66f5-f472-4131-9feb-2761c3b19e5c","system_id":"levelo_inurba_marseille","lat":43.32831,"lon":5.36678,"is_reserved":false,"is_disabled":false,"rental_uris":{"android":"levelo://app?vid=216c66f5-f472-4131-9feb-2761c3b19e5c","ios":"levelo://app?vid=216c66f5-f472-4131-9feb-2761c3b19e5c"},"vehicle_type_id":"4","last_reported":1689833364,"current_range_meters":10800,"station_id":"ce4bhs92rcd13ifvqi0g","pricing_plan_id":"free"},{"bike_id":"0010f06e-2a37-479a-a415-2084ed791c94","system_id":"levelo_inurba_marseille","lat":43.328371,"lon":5.366909,"is_reserved":false,"is_disabled":false,"rental_uris":{"android":"levelo://app?vid=0010f06e-2a37-479a-a415-2084ed791c94","ios":"levelo://app?vid=0010f06e-2a37-479a-a415-2084ed791c94"},"vehicle_type_id":"4","last_reported":1689833364,"current_range_meters":8400,"station_id":"ce4bhs92rcd13ifvqi0g","pricing_plan_id":"free"},{"bike_id":"ac5cfb6f-c8fe-4d94-9b01-7245050c3bee","system_id":"levelo_inurba_marseille","lat":43.32834,"lon":5.36675,"is_reserved":false,"is_disabled":false,"rental_uris":{"android":"levelo://app?vid=ac5cfb6f-c8fe-4d94-9b01-7245050c3bee","ios":"levelo://app?vid=ac5cfb6f-c8fe-4d94-9b01-7245050c3bee"},"vehicle_type_id":"4","last_reported":1689833364,"current_range_meters":15600,"station_id":"ce4bhs92rcd13ifvqi0g","pricing_plan_id":"free"},{"bike_id":"bccd87f9-44fb-4c8c-b55e-836d1e79bd1d","system_id":"levelo_inurba_marseille","lat":43.328371,"lon":5.366909,"is_reserved":false,"is_disabled":false,"rental_uris":{"android":"levelo://app?vid=bccd87f9-44fb-4c8c-b55e-836d1e79bd1d","ios":"levelo://app?vid=bccd87f9-44fb-4c8c-b55e-836d1e79bd1d"},"vehicle_type_id":"4","last_reported":1689833364,"current_range_meters":18800,"station_id":"ce4bhs92rcd13ifvqi0g","pricing_plan_id":"free"},{"bike_id":"a3cbf7a9-8bf8-4c0d-96b6-aafa5be2aef7","system_id":"levelo_inurba_marseille","lat":43.328371,"lon":5.366909,"is_reserved":false,"is_disabled":false,"rental_uris":{"android":"levelo://app?vid=a3cbf7a9-8bf8-4c0d-96b6-aafa5be2aef7","ios":"levelo://app?vid=a3cbf7a9-8bf8-4c0d-96b6-aafa5be2aef7"},"vehicle_type_id":"4","last_reported":1689833364,"current_range_meters":20400,"station_id":"ce4bhs92rcd13ifvqi0g","pricing_plan_id":"free"},{"bike_id":"e5b5fff5-98e8-4ced-9595-428a0ea1f510","system_id":"levelo_inurba_marseille","lat":43.32837,"lon":5.36682,"is_reserved":false,"is_disabled":false,"rental_uris":{"android":"levelo://app?vid=e5b5fff5-98e8-4ced-9595-428a0ea1f510","ios":"levelo://app?vid=e5b5fff5-98e8-4ced-9595-428a0ea1f510"},"vehicle_type_id":"4","last_reported":1689833364,"current_range_meters":27600,"station_id":"ce4bhs92rcd13ifvqi0g","pricing_plan_id":"free"},{"bike_id":"3916e407-8c11-4a2b-8e00-1d25f7bfdca8","system_id":"levelo_inurba_marseille","lat":43.297163,"lon":5.365866,"is_reserved":false,"is_disabled":false,"rental_uris":{"android":"levelo://app?vid=3916e407-8c11-4a2b-8e00-1d25f7bfdca8","ios":"levelo://app?vid=3916e407-8c11-4a2b-8e00-1d25f7bfdca8"},"vehicle_type_id":"4","last_reported":1689833364,"current_range_meters":23200,"station_id":"ce4bgn12rcd13ifvqbt0","pricing_plan_id":"free"},{"bike_id":"74074dbc-b5bc-4731-8b80-966eafd1398b","system_id":"levelo_inurba_marseille","lat":43.297774,"lon":5.370875,"is_reserved":false,"is_disabled":false,"rental_uris":{"android":"levelo://app?vid=74074dbc-b5bc-4731-8b80-966eafd1398b","ios":"levelo://app?vid=74074dbc-b5bc-4731-8b80-966eafd1398b"},"vehicle_type_id":"4","last_reported":1689833364,"current_range_meters":13200,"station_id":"ce4bgop2rcd13ifvqc1g","pricing_plan_id":"free"},{"bike_id":"613c152a-da35-48a6-b01f-b1926d03745e","system_id":"levelo_inurba_marseille","lat":43.328371,"lon":5.366909,"is_reserved":false,"is_disabled":false,"rental_uris":{"android":"levelo://app?vid=613c152a-da35-48a6-b01f-b1926d03745e","ios":"levelo://app?vid=613c152a-da35-48a6-b01f-b1926d03745e"},"vehicle_type_id":"4","last_reported":1689833364,"current_range_meters":26800,"station_id":"ce4bhs92rcd13ifvqi0g","pricing_plan_id":"free"},{"bike_id":"28bb2bec-a254-4e2b-877f-33bfb9ee9671","system_id":"levelo_inurba_marseille","lat":43.31515,"lon":5.38922,"is_reserved":false,"is_disabled":false,"rental_uris":{"android":"levelo://app?vid=28bb2bec-a254-4e2b-877f-33bfb9ee9671","ios":"levelo://app?vid=28bb2bec-a254-4e2b-877f-33bfb9ee9671"},"vehicle_type_id":"4","last_reported":1689833364,"current_range_meters":30800,"station_id":"","pricing_plan_id":"free"},{"bike_id":"99690272-8a2d-4536-a6f2-c44306f977ac","system_id":"levelo_inurba_marseille","lat":43.29623,"lon":5.3715,"is_reserved":false,"is_disabled":false,"rental_uris":{"android":"levelo://app?vid=99690272-8a2d-4536-a6f2-c44306f977ac","ios":"levelo://app?vid=99690272-8a2d-4536-a6f2-c44306f977ac"},"vehicle_type_id":"4","last_reported":1689833364,"current_range_meters":0,"station_id":"ce4bgk12rcd13ifvqbj0","pricing_plan_id":"free"},{"bike_id":"8576eea7-26cd-440e-bb52-200f3e124843","system_id":"levelo_inurba_marseille","lat":43.29573,"lon":5.367355,"is_reserved":false,"is_disabled":false,"rental_uris":{"android":"levelo://app?vid=8576eea7-26cd-440e-bb52-200f3e124843","ios":"levelo://app?vid=8576eea7-26cd-440e-bb52-200f3e124843"},"vehicle_type_id":"4","last_reported":1689833364,"current_range_meters":20400,"station_id":"ce4bgph2rcd13ifvqc2g","pricing_plan_id":"free"},{"bike_id":"f9d209b6-dc93-4a81-b83c-3c2bb6c98dd6","system_id":"levelo_inurba_marseille","lat":43.29619,"lon":5.3608,"is_reserved":false,"is_disabled":false,"rental_uris":{"android":"levelo://app?vid=f9d209b6-dc93-4a81-b83c-3c2bb6c98dd6","ios":"levelo://app?vid=f9d209b6-dc93-4a81-b83c-3c2bb6c98dd6"},"vehicle_type_id":"4","last_reported":1689833364,"current_range_meters":24400,"station_id":"","pricing_plan_id":"free"},{"bike_id":"52b97485-8971-4079-97a9-ef7abfdb4b8e","system_id":"levelo_inurba_marseille","lat":43.299028,"lon":5.381509,"is_reserved":false,"is_disabled":false,"rental_uris":{"android":"levelo://app?vid=52b97485-8971-4079-97a9-ef7abfdb4b8e","ios":"levelo://app?vid=52b97485-8971-4079-97a9-ef7abfdb4b8e"},"vehicle_type_id":"4","last_reported":1689833364,"current_range_meters":29600,"station_id":"ce4bgj12rcd13ifvqbc0","pricing_plan_id":"free"},{"bike_id":"638c73de-4cc1-4c49-b789-125e930061b0","system_id":"levelo_inurba_marseille","lat":43.299028,"lon":5.381509,"is_reserved":false,"is_disabled":false,"rental_uris":{"android":"levelo://app?vid=638c73de-4cc1-4c49-b789-125e930061b0","ios":"levelo://app?vid=638c73de-4cc1-4c49-b789-125e930061b0"},"vehicle_type_id":"4","last_reported":1689833364,"current_range_meters":26400,"station_id":"ce4bgj12rcd13ifvqbc0","pricing_plan_id":"free"},{"bike_id":"7f896749-d62a-4638-bd55-636edfd25471","system_id":"levelo_inurba_marseille","lat":43.299028,"lon":5.381509,"is_reserved":false,"is_disabled":false,"rental_uris":{"android":"levelo://app?vid=7f896749-d62a-4638-bd55-636edfd25471","ios":"levelo://app?vid=7f896749-d62a-4638-bd55-636edfd25471"},"vehicle_type_id":"4","last_reported":1689833364,"current_range_meters":31200,"station_id":"ce4bgj12rcd13ifvqbc0","pricing_plan_id":"free"},{"bike_id":"1ae09736-ca85-4c66-a031-1e356bf61098","system_id":"levelo_inurba_marseille","lat":43.299028,"lon":5.381509,"is_reserved":false,"is_disabled":false,"rental_uris":{"android":"levelo://app?vid=1ae09736-ca85-4c66-a031-1e356bf61098","ios":"levelo://app?vid=1ae09736-ca85-4c66-a031-1e356bf61098"},"vehicle_type_id":"4","last_reported":1689833364,"current_range_meters":24400,"station_id":"ce4bgj12rcd13ifvqbc0","pricing_plan_id":"free"},{"bike_id":"f416cc52-1034-4035-a044-dbea6a7088f5","system_id":"levelo_inurba_marseille","lat":43.296935,"lon":5.376544,"is_reserved":false,"is_disabled":false,"rental_uris":{"android":"levelo://app?vid=f416cc52-1034-4035-a044-dbea6a7088f5","ios":"levelo://app?vid=f416cc52-1034-4035-a044-dbea6a7088f5"},"vehicle_type_id":"4","last_reported":1689833364,"current_range_meters":27600,"station_id":"ce4bgkh2rcd13ifvqbl0","pricing_plan_id":"free"},{"bike_id":"c8fa0819-667a-489b-b96b-b5401008bced","system_id":"levelo_inurba_marseille","lat":43.296935,"lon":5.376544,"is_reserved":false,"is_disabled":false,"rental_uris":{"android":"levelo://app?vid=c8fa0819-667a-489b-b96b-b5401008bced","ios":"levelo://app?vid=c8fa0819-667a-489b-b96b-b5401008bced"},"vehicle_type_id":"4","last_reported":1689833364,"current_range_meters":30000,"station_id":"ce4bgkh2rcd13ifvqbl0","pricing_plan_id":"free"},{"bike_id":"d200d2d6-af0b-4b05-8ce9-6b93b04a34a4","system_id":"levelo_inurba_marseille","lat":43.29904,"lon":5.38143,"is_reserved":false,"is_disabled":false,"rental_uris":{"android":"levelo://app?vid=d200d2d6-af0b-4b05-8ce9-6b93b04a34a4","ios":"levelo://app?vid=d200d2d6-af0b-4b05-8ce9-6b93b04a34a4"},"vehicle_type_id":"4","last_reported":1689833364,"current_range_meters":23600,"station_id":"ce4bgj12rcd13ifvqbc0","pricing_plan_id":"free"},{"bike_id":"faec38ab-b2d4-4046-b4b1-f0c1dfc4fd49","system_id":"levelo_inurba_marseille","lat":43.309589,"lon":5.390258,"is_reserved":false,"is_disabled":false,"rental_uris":{"android":"levelo://app?vid=faec38ab-b2d4-4046-b4b1-f0c1dfc4fd49","ios":"levelo://app?vid=faec38ab-b2d4-4046-b4b1-f0c1dfc4fd49"},"vehicle_type_id":"4","last_reported":1689833364,"current_range_meters":19200,"station_id":"ce4bgup2rcd13ifvqco0","pricing_plan_id":"free"},{"bike_id":"350f48d0-7a4e-4c5b-910b-952c867b3186","system_id":"levelo_inurba_marseille","lat":43.309589,"lon":5.390258,"is_reserved":false,"is_disabled":false,"rental_uris":{"android":"levelo://app?vid=350f48d0-7a4e-4c5b-910b-952c867b3186","ios":"levelo://app?vid=350f48d0-7a4e-4c5b-910b-952c867b3186"},"vehicle_type_id":"4","last_reported":1689833364,"current_range_meters":23600,"station_id":"ce4bgup2rcd13ifvqco0","pricing_plan_id":"free"},{"bike_id":"0f34eaaa-95f6-4716-a90e-612eebbfc3d4","system_id":"levelo_inurba_marseille","lat":43.299028,"lon":5.381509,"is_reserved":false,"is_disabled":false,"rental_uris":{"android":"levelo://app?vid=0f34eaaa-95f6-4716-a90e-612eebbfc3d4","ios":"levelo://app?vid=0f34eaaa-95f6-4716-a90e-612eebbfc3d4"},"vehicle_type_id":"4","last_reported":1689833364,"current_range_meters":15600,"station_id":"ce4bgj12rcd13ifvqbc0","pricing_plan_id":"free"},{"bike_id":"beece81a-2b71-4068-a399-5312ae2e0349","system_id":"levelo_inurba_marseille","lat":43.29902,"lon":5.38151,"is_reserved":false,"is_disabled":false,"rental_uris":{"android":"levelo://app?vid=beece81a-2b71-4068-a399-5312ae2e0349","ios":"levelo://app?vid=beece81a-2b71-4068-a399-5312ae2e0349"},"vehicle_type_id":"4","last_reported":1689833364,"current_range_meters":31200,"station_id":"","pricing_plan_id":"free"},{"bike_id":"90464da7-fc4e-4eb7-8320-a5ff7ec13a60","system_id":"levelo_inurba_marseille","lat":43.309589,"lon":5.390258,"is_reserved":false,"is_disabled":false,"rental_uris":{"android":"levelo://app?vid=90464da7-fc4e-4eb7-8320-a5ff7ec13a60","ios":"levelo://app?vid=90464da7-fc4e-4eb7-8320-a5ff7ec13a60"},"vehicle_type_id":"4","last_reported":1689833364,"current_range_meters":6800,"station_id":"ce4bgup2rcd13ifvqco0","pricing_plan_id":"free"},{"bike_id":"a9ce58bb-1de2-4500-902a-8297994298e4","system_id":"levelo_inurba_marseille","lat":43.299028,"lon":5.381509,"is_reserved":false,"is_disabled":false,"rental_uris":{"android":"levelo://app?vid=a9ce58bb-1de2-4500-902a-8297994298e4","ios":"levelo://app?vid=a9ce58bb-1de2-4500-902a-8297994298e4"},"vehicle_type_id":"4","last_reported":1689833364,"current_range_meters":31200,"station_id":"ce4bgj12rcd13ifvqbc0","pricing_plan_id":"free"},{"bike_id":"a9a38bc5-7f16-44a9-8479-a184041ab667","system_id":"levelo_inurba_marseille","lat":43.299028,"lon":5.381509,"is_reserved":false,"is_disabled":false,"rental_uris":{"android":"levelo://app?vid=a9a38bc5-7f16-44a9-8479-a184041ab667","ios":"levelo://app?vid=a9a38bc5-7f16-44a9-8479-a184041ab667"},"vehicle_type_id":"4","last_reported":1689833364,"current_range_meters":30800,"station_id":"ce4bgj12rcd13ifvqbc0","pricing_plan_id":"free"},{"bike_id":"d29f2e58-5cd8-44bb-a5e9-4832d4454a1d","system_id":"levelo_inurba_marseille","lat":43.309589,"lon":5.390258,"is_reserved":false,"is_disabled":false,"rental_uris":{"android":"levelo://app?vid=d29f2e58-5cd8-44bb-a5e9-4832d4454a1d","ios":"levelo://app?vid=d29f2e58-5cd8-44bb-a5e9-4832d4454a1d"},"vehicle_type_id":"4","last_reported":1689833364,"current_range_meters":32000,"station_id":"ce4bgup2rcd13ifvqco0","pricing_plan_id":"free"},{"bike_id":"1f3910e8-463f-4d1f-8856-a147fc87ee7d","system_id":"levelo_inurba_marseille","lat":43.309589,"lon":5.390258,"is_reserved":false,"is_disabled":false,"rental_uris":{"android":"levelo://app?vid=1f3910e8-463f-4d1f-8856-a147fc87ee7d","ios":"levelo://app?vid=1f3910e8-463f-4d1f-8856-a147fc87ee7d"},"vehicle_type_id":"4","last_reported":1689833364,"current_range_meters":31200,"station_id":"ce4bgup2rcd13ifvqco0","pricing_plan_id":"free"},{"bike_id":"335649fe-0bde-4797-9b2e-ca76adaa837a","system_id":"levelo_inurba_marseille","lat":43.317557,"lon":5.390173,"is_reserved":false,"is_disabled":false,"rental_uris":{"android":"levelo://app?vid=335649fe-0bde-4797-9b2e-ca76adaa837a","ios":"levelo://app?vid=335649fe-0bde-4797-9b2e-ca76adaa837a"},"vehicle_type_id":"4","last_reported":1689833364,"current_range_meters":19200,"station_id":"ce4bhqp2rcd13ifvqhng","pricing_plan_id":"free"},{"bike_id":"2c31f4fe-ed0b-4493-af02-b64cd9c8c3d5","system_id":"levelo_inurba_marseille","lat":43.29931,"lon":5.38245,"is_reserved":false,"is_disabled":false,"rental_uris":{"android":"levelo://app?vid=2c31f4fe-ed0b-4493-af02-b64cd9c8c3d5","ios":"levelo://app?vid=2c31f4fe-ed0b-4493-af02-b64cd9c8c3d5"},"vehicle_type_id":"4","last_reported":1689833364,"current_range_meters":12800,"station_id":"","pricing_plan_id":"free"},{"bike_id":"5d143d04-caa7-43a6-bc80-2d37217ba4cc","system_id":"levelo_inurba_marseille","lat":43.317557,"lon":5.390173,"is_reserved":false,"is_disabled":false,"rental_uris":{"android":"levelo://app?vid=5d143d04-caa7-43a6-bc80-2d37217ba4cc","ios":"levelo://app?vid=5d143d04-caa7-43a6-bc80-2d37217ba4cc"},"vehicle_type_id":"4","last_reported":1689833364,"current_range_meters":28800,"station_id":"ce4bhqp2rcd13ifvqhng","pricing_plan_id":"free"},{"bike_id":"67d13054-ad44-4405-8497-ca88560baeae","system_id":"levelo_inurba_marseille","lat":43.317557,"lon":5.390173,"is_reserved":false,"is_disabled":false,"rental_uris":{"android":"levelo://app?vid=67d13054-ad44-4405-8497-ca88560baeae","ios":"levelo://app?vid=67d13054-ad44-4405-8497-ca88560baeae"},"vehicle_type_id":"4","last_reported":1689833364,"current_range_meters":31200,"station_id":"ce4bhqp2rcd13ifvqhng","pricing_plan_id":"free"},{"bike_id":"de680963-ede5-4b33-88b3-20825cf4d643","system_id":"levelo_inurba_marseille","lat":43.317557,"lon":5.390173,"is_reserved":false,"is_disabled":false,"rental_uris":{"android":"levelo://app?vid=de680963-ede5-4b33-88b3-20825cf4d643","ios":"levelo://app?vid=de680963-ede5-4b33-88b3-20825cf4d643"},"vehicle_type_id":"4","last_reported":1689833364,"current_range_meters":0,"station_id":"ce4bhqp2rcd13ifvqhng","pricing_plan_id":"free"},{"bike_id":"433b16e5-ef4a-484c-a62d-532404766549","system_id":"levelo_inurba_marseille","lat":43.317557,"lon":5.390173,"is_reserved":false,"is_disabled":false,"rental_uris":{"android":"levelo://app?vid=433b16e5-ef4a-484c-a62d-532404766549","ios":"levelo://app?vid=433b16e5-ef4a-484c-a62d-532404766549"},"vehicle_type_id":"4","last_reported":1689833364,"current_range_meters":25600,"station_id":"ce4bhqp2rcd13ifvqhng","pricing_plan_id":"free"},{"bike_id":"e4758fdf-70f9-4412-911c-aebf7ce7f338","system_id":"levelo_inurba_marseille","lat":43.317557,"lon":5.390173,"is_reserved":false,"is_disabled":false,"rental_uris":{"android":"levelo://app?vid=e4758fdf-70f9-4412-911c-aebf7ce7f338","ios":"levelo://app?vid=e4758fdf-70f9-4412-911c-aebf7ce7f338"},"vehicle_type_id":"4","last_reported":1689833364,"current_range_meters":30000,"station_id":"ce4bhqp2rcd13ifvqhng","pricing_plan_id":"free"},{"bike_id":"c51ad0c3-615d-494a-b3a9-97900e5d5f75","system_id":"levelo_inurba_marseille","lat":43.298037,"lon":5.381066,"is_reserved":false,"is_disabled":false,"rental_uris":{"android":"levelo://app?vid=c51ad0c3-615d-494a-b3a9-97900e5d5f75","ios":"levelo://app?vid=c51ad0c3-615d-494a-b3a9-97900e5d5f75"},"vehicle_type_id":"4","last_reported":1689833364,"current_range_meters":30400,"station_id":"ce4bgip2rcd13ifvqbb0","pricing_plan_id":"free"},{"bike_id":"772450b0-6aa3-49d5-b965-2939f561b997","system_id":"levelo_inurba_marseille","lat":43.295748,"lon":5.37522,"is_reserved":false,"is_disabled":false,"rental_uris":{"android":"levelo://app?vid=772450b0-6aa3-49d5-b965-2939f561b997","ios":"levelo://app?vid=772450b0-6aa3-49d5-b965-2939f561b997"},"vehicle_type_id":"4","last_reported":1689833364,"current_range_meters":4000,"station_id":"ce4bgh92rcd13ifvqb50","pricing_plan_id":"free"},{"bike_id":"6edb0c36-8b3a-42c5-8336-287bb48174a5","system_id":"levelo_inurba_marseille","lat":43.298037,"lon":5.381066,"is_reserved":false,"is_disabled":false,"rental_uris":{"android":"levelo://app?vid=6edb0c36-8b3a-42c5-8336-287bb48174a5","ios":"levelo://app?vid=6edb0c36-8b3a-42c5-8336-287bb48174a5"},"vehicle_type_id":"4","last_reported":1689833364,"current_range_meters":27200,"station_id":"ce4bgip2rcd13ifvqbb0","pricing_plan_id":"free"},{"bike_id":"e442aad4-5d3a-4679-a8c9-be63b99ffd8b","system_id":"levelo_inurba_marseille","lat":43.298037,"lon":5.381066,"is_reserved":false,"is_disabled":false,"rental_uris":{"android":"levelo://app?vid=e442aad4-5d3a-4679-a8c9-be63b99ffd8b","ios":"levelo://app?vid=e442aad4-5d3a-4679-a8c9-be63b99ffd8b"},"vehicle_type_id":"4","last_reported":1689833364,"current_range_meters":30400,"station_id":"ce4bgip2rcd13ifvqbb0","pricing_plan_id":"free"},{"bike_id":"be58a856-69a2-4bea-8d50-7dd0c535c30b","system_id":"levelo_inurba_marseille","lat":43.297,"lon":5.37876,"is_reserved":false,"is_disabled":false,"rental_uris":{"android":"levelo://app?vid=be58a856-69a2-4bea-8d50-7dd0c535c30b","ios":"levelo://app?vid=be58a856-69a2-4bea-8d50-7dd0c535c30b"},"vehicle_type_id":"4","last_reported":1689833364,"current_range_meters":6800,"station_id":"","pricing_plan_id":"free"},{"bike_id":"8ab93848-fac9-4538-9026-4a22fea93385","system_id":"levelo_inurba_marseille","lat":43.298037,"lon":5.381066,"is_reserved":false,"is_disabled":false,"rental_uris":{"android":"levelo://app?vid=8ab93848-fac9-4538-9026-4a22fea93385","ios":"levelo://app?vid=8ab93848-fac9-4538-9026-4a22fea93385"},"vehicle_type_id":"4","last_reported":1689833364,"current_range_meters":30400,"station_id":"ce4bgip2rcd13ifvqbb0","pricing_plan_id":"free"},{"bike_id":"9ef65e93-96f8-4283-a0bf-1262e6a0be7c","system_id":"levelo_inurba_marseille","lat":43.304278,"lon":5.388868,"is_reserved":false,"is_disabled":false,"rental_uris":{"android":"levelo://app?vid=9ef65e93-96f8-4283-a0bf-1262e6a0be7c","ios":"levelo://app?vid=9ef65e93-96f8-4283-a0bf-1262e6a0be7c"},"vehicle_type_id":"4","last_reported":1689833364,"current_range_meters":30400,"station_id":"ce4bgk12rcd13ifvqbi0","pricing_plan_id":"free"},{"bike_id":"69070388-842b-4f3e-95bc-4bee4ee07ccb","system_id":"levelo_inurba_marseille","lat":43.304278,"lon":5.388868,"is_reserved":false,"is_disabled":false,"rental_uris":{"android":"levelo://app?vid=69070388-842b-4f3e-95bc-4bee4ee07ccb","ios":"levelo://app?vid=69070388-842b-4f3e-95bc-4bee4ee07ccb"},"vehicle_type_id":"4","last_reported":1689833364,"current_range_meters":14400,"station_id":"ce4bgk12rcd13ifvqbi0","pricing_plan_id":"free"},{"bike_id":"07e23162-9109-4458-a675-580cf8694036","system_id":"levelo_inurba_marseille","lat":43.304278,"lon":5.388868,"is_reserved":false,"is_disabled":false,"rental_uris":{"android":"levelo://app?vid=07e23162-9109-4458-a675-580cf8694036","ios":"levelo://app?vid=07e23162-9109-4458-a675-580cf8694036"},"vehicle_type_id":"4","last_reported":1689833364,"current_range_meters":30800,"station_id":"ce4bgk12rcd13ifvqbi0","pricing_plan_id":"free"},{"bike_id":"f10c16ce-7fd3-4857-9464-72aeca204c2b","system_id":"levelo_inurba_marseille","lat":43.304278,"lon":5.388868,"is_reserved":false,"is_disabled":false,"rental_uris":{"android":"levelo://app?vid=f10c16ce-7fd3-4857-9464-72aeca204c2b","ios":"levelo://app?vid=f10c16ce-7fd3-4857-9464-72aeca204c2b"},"vehicle_type_id":"4","last_reported":1689833364,"current_range_meters":29200,"station_id":"ce4bgk12rcd13ifvqbi0","pricing_plan_id":"free"},{"bike_id":"d2d350ac-00a0-41d5-b88e-3c410e763201","system_id":"levelo_inurba_marseille","lat":43.304278,"lon":5.388868,"is_reserved":false,"is_disabled":false,"rental_uris":{"android":"levelo://app?vid=d2d350ac-00a0-41d5-b88e-3c410e763201","ios":"levelo://app?vid=d2d350ac-00a0-41d5-b88e-3c410e763201"},"vehicle_type_id":"4","last_reported":1689833364,"current_range_meters":12800,"station_id":"ce4bgk12rcd13ifvqbi0","pricing_plan_id":"free"},{"bike_id":"51eb1122-2f67-4929-9db4-fd665f07c7fc","system_id":"levelo_inurba_marseille","lat":43.304278,"lon":5.388868,"is_reserved":false,"is_disabled":false,"rental_uris":{"android":"levelo://app?vid=51eb1122-2f67-4929-9db4-fd665f07c7fc","ios":"levelo://app?vid=51eb1122-2f67-4929-9db4-fd665f07c7fc"},"vehicle_type_id":"4","last_reported":1689833364,"current_range_meters":30400,"station_id":"ce4bgk12rcd13ifvqbi0","pricing_plan_id":"free"},{"bike_id":"4b31ea49-7097-4582-976d-2d7ef10213d3","system_id":"levelo_inurba_marseille","lat":43.30437,"lon":5.38898,"is_reserved":false,"is_disabled":false,"rental_uris":{"android":"levelo://app?vid=4b31ea49-7097-4582-976d-2d7ef10213d3","ios":"levelo://app?vid=4b31ea49-7097-4582-976d-2d7ef10213d3"},"vehicle_type_id":"4","last_reported":1689833364,"current_range_meters":30400,"station_id":"ce4bgk12rcd13ifvqbi0","pricing_plan_id":"free"},{"bike_id":"c96c6bfc-4d52-4f72-8f75-8fabd5238669","system_id":"levelo_inurba_marseille","lat":43.304278,"lon":5.388868,"is_reserved":false,"is_disabled":false,"rental_uris":{"android":"levelo://app?vid=c96c6bfc-4d52-4f72-8f75-8fabd5238669","ios":"levelo://app?vid=c96c6bfc-4d52-4f72-8f75-8fabd5238669"},"vehicle_type_id":"4","last_reported":1689833364,"current_range_meters":25200,"station_id":"ce4bgk12rcd13ifvqbi0","pricing_plan_id":"free"},{"bike_id":"1148da48-4d61-4a77-bd50-99379dec2293","system_id":"levelo_inurba_marseille","lat":43.295748,"lon":5.37522,"is_reserved":false,"is_disabled":false,"rental_uris":{"android":"levelo://app?vid=1148da48-4d61-4a77-bd50-99379dec2293","ios":"levelo://app?vid=1148da48-4d61-4a77-bd50-99379dec2293"},"vehicle_type_id":"4","last_reported":1689833364,"current_range_meters":0,"station_id":"ce4bgh92rcd13ifvqb50","pricing_plan_id":"free"},{"bike_id":"023f5576-8d73-40ba-b9d5-51133d11fe51","system_id":"levelo_inurba_marseille","lat":43.295748,"lon":5.37522,"is_reserved":false,"is_disabled":false,"rental_uris":{"android":"levelo://app?vid=023f5576-8d73-40ba-b9d5-51133d11fe51","ios":"levelo://app?vid=023f5576-8d73-40ba-b9d5-51133d11fe51"},"vehicle_type_id":"4","last_reported":1689833364,"current_range_meters":31200,"station_id":"ce4bgh92rcd13ifvqb50","pricing_plan_id":"free"},{"bike_id":"6e531783-6c0b-4b51-803e-4063c8bd5dc9","system_id":"levelo_inurba_marseille","lat":43.295748,"lon":5.37522,"is_reserved":false,"is_disabled":false,"rental_uris":{"android":"levelo://app?vid=6e531783-6c0b-4b51-803e-4063c8bd5dc9","ios":"levelo://app?vid=6e531783-6c0b-4b51-803e-4063c8bd5dc9"},"vehicle_type_id":"4","last_reported":1689833364,"current_range_meters":19600,"station_id":"ce4bgh92rcd13ifvqb50","pricing_plan_id":"free"},{"bike_id":"704f8816-ecec-4aa2-a52e-cf3e01c4484e","system_id":"levelo_inurba_marseille","lat":43.295748,"lon":5.37522,"is_reserved":false,"is_disabled":false,"rental_uris":{"android":"levelo://app?vid=704f8816-ecec-4aa2-a52e-cf3e01c4484e","ios":"levelo://app?vid=704f8816-ecec-4aa2-a52e-cf3e01c4484e"},"vehicle_type_id":"4","last_reported":1689833364,"current_range_meters":29200,"station_id":"ce4bgh92rcd13ifvqb50","pricing_plan_id":"free"},{"bike_id":"38770162-7c67-425c-a043-712da5f9b2d7","system_id":"levelo_inurba_marseille","lat":43.299707,"lon":5.384859,"is_reserved":false,"is_disabled":false,"rental_uris":{"android":"levelo://app?vid=38770162-7c67-425c-a043-712da5f9b2d7","ios":"levelo://app?vid=38770162-7c67-425c-a043-712da5f9b2d7"},"vehicle_type_id":"4","last_reported":1689833364,"current_range_meters":30400,"station_id":"ce4bgj92rcd13ifvqbd0","pricing_plan_id":"free"},{"bike_id":"e720811b-72f8-453c-ac4f-b12fb5b2a374","system_id":"levelo_inurba_marseille","lat":43.296277,"lon":5.377108,"is_reserved":false,"is_disabled":false,"rental_uris":{"android":"levelo://app?vid=e720811b-72f8-453c-ac4f-b12fb5b2a374","ios":"levelo://app?vid=e720811b-72f8-453c-ac4f-b12fb5b2a374"},"vehicle_type_id":"4","last_reported":1689833364,"current_range_meters":26800,"station_id":"ce4bgi92rcd13ifvqb90","pricing_plan_id":"free"},{"bike_id":"3a335245-ecaf-4465-97ea-210dda0f4744","system_id":"levelo_inurba_marseille","lat":43.29968,"lon":5.38482,"is_reserved":false,"is_disabled":false,"rental_uris":{"android":"levelo://app?vid=3a335245-ecaf-4465-97ea-210dda0f4744","ios":"levelo://app?vid=3a335245-ecaf-4465-97ea-210dda0f4744"},"vehicle_type_id":"4","last_reported":1689833364,"current_range_meters":31200,"station_id":"ce4bgj92rcd13ifvqbd0","pricing_plan_id":"free"},{"bike_id":"d1423039-a62d-48b6-aeba-a62d5395b556","system_id":"levelo_inurba_marseille","lat":43.29529,"lon":5.37515,"is_reserved":false,"is_disabled":false,"rental_uris":{"android":"levelo://app?vid=d1423039-a62d-48b6-aeba-a62d5395b556","ios":"levelo://app?vid=d1423039-a62d-48b6-aeba-a62d5395b556"},"vehicle_type_id":"4","last_reported":1689833364,"current_range_meters":19600,"station_id":"ce4bgkp2rcd13ifvqbmg","pricing_plan_id":"free"},{"bike_id":"350642f8-b006-4b71-8e93-6f4f5bf5787a","system_id":"levelo_inurba_marseille","lat":43.29971,"lon":5.3849,"is_reserved":false,"is_disabled":false,"rental_uris":{"android":"levelo://app?vid=350642f8-b006-4b71-8e93-6f4f5bf5787a","ios":"levelo://app?vid=350642f8-b006-4b71-8e93-6f4f5bf5787a"},"vehicle_type_id":"4","last_reported":1689833364,"current_range_meters":24000,"station_id":"ce4bgj92rcd13ifvqbd0","pricing_plan_id":"free"},{"bike_id":"a4d9f348-0acc-4bf2-8a82-8b56b6e91833","system_id":"levelo_inurba_marseille","lat":43.29967,"lon":5.38493,"is_reserved":false,"is_disabled":false,"rental_uris":{"android":"levelo://app?vid=a4d9f348-0acc-4bf2-8a82-8b56b6e91833","ios":"levelo://app?vid=a4d9f348-0acc-4bf2-8a82-8b56b6e91833"},"vehicle_type_id":"4","last_reported":1689833364,"current_range_meters":10800,"station_id":"ce4bgj92rcd13ifvqbd0","pricing_plan_id":"free"},{"bike_id":"38dfbddd-291a-4e0c-8792-dba75ce12d91","system_id":"levelo_inurba_marseille","lat":43.32367,"lon":5.388836,"is_reserved":false,"is_disabled":false,"rental_uris":{"android":"levelo://app?vid=38dfbddd-291a-4e0c-8792-dba75ce12d91","ios":"levelo://app?vid=38dfbddd-291a-4e0c-8792-dba75ce12d91"},"vehicle_type_id":"4","last_reported":1689833364,"current_range_meters":27200,"station_id":"ce4bhqp2rcd13ifvqhog","pricing_plan_id":"free"},{"bike_id":"0f345e3d-5b36-45f0-a32d-1d2b1d8409e4","system_id":"levelo_inurba_marseille","lat":43.32364,"lon":5.38879,"is_reserved":false,"is_disabled":false,"rental_uris":{"android":"levelo://app?vid=0f345e3d-5b36-45f0-a32d-1d2b1d8409e4","ios":"levelo://app?vid=0f345e3d-5b36-45f0-a32d-1d2b1d8409e4"},"vehicle_type_id":"4","last_reported":1689833364,"current_range_meters":21600,"station_id":"ce4bhqp2rcd13ifvqhog","pricing_plan_id":"free"},