{"last_updated":1742328558,"ttl":60,"version":"2.2","data":{"bikes":[{"bike_id":"492f35ea-b726-4863-ae3a-0909c0db54bd","system_id":"levelo_inurba_marseille","lat":43.27822,"lon":5.40734,"is_reserved":false,"is_disabled":true,"rental_uris":{"android":"levelo://app?vid=492f35ea-b726-4863-ae3a-0909c0db54bd","ios":"levelo://app?vid=492f35ea-b726-4863-ae3a-0909c0db54bd"},"vehicle_type_id":"4","last_reported":1742328558,"current_range_meters":2800,"station_id":"ce4bhnh2rcd13ifvqgtg","pricing_plan_id":"cebpf4jnsgd1na2vs0mg"},{"bike_id":"e687940f-3c9c-4a24-82d3-cc513234d0f2","system_id":"levelo_inurba_marseille","lat":43.26225,"lon":5.40454,"is_reserved":false,"is_disabled":true,"rental_uris":{"android":"levelo://app?vid=e687940f-3c9c-4a24-82d3-cc513234d0f2","ios":"levelo://app?vid=e687940f-3c9c-4a24-82d3-cc513234d0f2"},"vehicle_type_id":"4","last_reported":1742328558,"current_range_meters":2800,"station_id":"ce4bhmh2rcd13ifvqgmg","pricing_plan_id":"cebpf4jnsgd1na2vs0mg"},{"bike_id":"460cad94-7ea5-46a4-84bd-4b2efd0fadfb","system_id":"levelo_inurba_marseille","lat":43.32366,"lon":5.38901,"is_reserved":false,"is_disabled":false,"rental_uris":{"android":"levelo://app?vid=460cad94-7ea5-46a4-84bd-4b2efd0fadfb","ios":"levelo://app?vid=460cad94-7ea5-46a4-84bd-4b2efd0fadfb"},"vehicle_type_id":"4","last_reported":1742328558,"current_range_meters":2800,"station_id":"ce4bhqp2rcd13ifvqhog","pricing_plan_id":"cebpf4jnsgd1na2vs0mg"},{"bike_id":"22d73ee7-aec9-4511-af0d-2340b68d59e3","system_id":"levelo_inurba_marseille","lat":43.31111,"lon":5.37783,"is_reserved":false,"is_disabled":false,"rental_uris":{"android":"levelo://app?vid=22d73ee7-aec9-4511-af0d-2340b68d59e3","ios":"levelo://app?vid=22d73ee7-aec9-4511-af0d-2340b68d59e3"},"vehicle_type_id":"4","last_reported":1742328558,"current_range_meters":2800,"station_id":"ce4bgt92rcd13ifvqcg0","pricing_plan_id":"cebpf4jnsgd1na2vs0mg"},{"bike_id":"951064da-304b-4152-8235-2602c7512ec3","system_id":"levelo_inurba_marseille","lat":43.30891,"lon":5.39648,"is_reserved":false,"is_disabled":false,"rental_uris":{"android":"levelo://app?vid=951064da-304b-4152-8235-2602c7512ec3","ios":"levelo://app?vid=951064da-304b-4152-8235-2602c7512ec3"},"vehicle_type_id":"4","last_reported":1742328558,"current_range_meters":2800,"station_id":"ce4bh012rcd13ifvqcv0","pricing_plan_id":"cebpf4jnsgd1na2vs0mg"},{"bike_id":"80a4abee-a67e-4ccf-bce1-80eb3223947a","system_id":"levelo_inurba_marseille","lat":43.27922,"lon":5.38018,"is_reserved":false,"is_disabled":false,"rental_uris":{"android":"levelo://app?vid=80a4abee-a67e-4ccf-bce1-80eb3223947a","ios":"levelo://app?vid=80a4abee-a67e-4ccf-bce1-80eb3223947a"},"vehicle_type_id":"4","last_reported":1742328558,"current_range_meters":2800,"station_id":"ce4bhf92rcd13ifvqf50","pricing_plan_id":"cebpf4jnsgd1na2vs0mg"},{"bike_id":"5e9eff88-fef2-4db1-a81e-8bad6d3dcfb2","system_id":"levelo_inurba_marseille","lat":43.29544,"lon":5.39412,"is_reserved":false,"is_disabled":false,"rental_uris":{"android":"levelo://app?vid=5e9eff88-fef2-4db1-a81e-8bad6d3dcfb2","ios":"levelo://app?vid=5e9eff88-fef2-4db1-a81e-8bad6d3dcfb2"},"vehicle_type_id":"4","last_reported":1742328558,"current_range_meters":2800,"station_id":"ce4bh292rcd13ifvqdf0","pricing_plan_id":"cebpf4jnsgd1na2vs0mg"},{"bike_id":"ad8886cf-98a6-4c63-bee5-d1ad6b67cdf7","system_id":"levelo_inurba_marseille","lat":43.29042,"lon":5.37559,"is_reserved":false,"is_disabled":false,"rental_uris":{"android":"levelo://app?vid=ad8886cf-98a6-4c63-bee5-d1ad6b67cdf7","ios":"levelo://app?vid=ad8886cf-98a6-4c63-bee5-d1ad6b67cdf7"},"vehicle_type_id":"4","last_reported":1742328558,"current_range_meters":2800,"station_id":"ce4bh692rcd13ifvqe90","pricing_plan_id":"cebpf4jnsgd1na2vs0mg"},{"bike_id":"c37afb3d-9a1c-4888-b016-a03e932adbb8","system_id":"levelo_inurba_marseille","lat":43.305925,"lon":5.39365,"is_reserved":false,"is_disabled":false,"rental_uris":{"android":"levelo://app?vid=c37afb3d-9a1c-4888-b016-a03e932adbb8","ios":"levelo://app?vid=c37afb3d-9a1c-4888-b016-a03e932adbb8"},"vehicle_type_id":"4","last_reported":1742328558,"current_range_meters":2800,"station_id":"ce4bh0p2rcd13ifvqd80","pricing_plan_id":"cebpf4jnsgd1na2vs0mg"},{"bike_id":"97f1a9ef-23d7-46a5-a024-751b81083237","system_id":"levelo_inurba_marseille","lat":43.33026,"lon":5.39062,"is_reserved":false,"is_disabled":false,"rental_uris":{"android":"levelo://app?vid=97f1a9ef-23d7-46a5-a024-751b81083237","ios":"levelo://app?vid=97f1a9ef-23d7-46a5-a024-751b81083237"},"vehicle_type_id":"4","last_reported":1742328558,"current_range_meters":2800,"station_id":"ce4bhr92rcd13ifvqhrg","pricing_plan_id":"cebpf4jnsgd1na2vs0mg"},{"bike_id":"d148e3ec-dbd2-4c49-8f4e-1cad352056a0","system_id":"levelo_inurba_marseille","lat":43.24564,"lon":5.39533,"is_reserved":false,"is_disabled":false,"rental_uris":{"android":"levelo://app?vid=d148e3ec-dbd2-4c49-8f4e-1cad352056a0","ios":"levelo://app?vid=d148e3ec-dbd2-4c49-8f4e-1cad352056a0"},"vehicle_type_id":"4","last_reported":1742328558,"current_range_meters":3200,"station_id":"ce4bhlp2rcd13ifvqgjg","pricing_plan_id":"cebpf4jnsgd1na2vs0mg"},{"bike_id":"45925d56-24ab-4f98-811e-4c2469870eca","system_id":"levelo_inurba_marseille","lat":43.32662,"lon":5.4099,"is_reserved":false,"is_disabled":false,"rental_uris":{"android":"levelo://app?vid=45925d56-24ab-4f98-811e-4c2469870eca","ios":"levelo://app?vid=45925d56-24ab-4f98-811e-4c2469870eca"},"vehicle_type_id":"4","last_reported":1742328558,"current_range_meters":3200,"station_id":"ce4bhpp2rcd13ifvqhgg","pricing_plan_id":"cebpf4jnsgd1na2vs0mg"},{"bike_id":"66205352-7107-4b8d-bc7a-8827f974a830","system_id":"levelo_inurba_marseille","lat":43.296216,"lon":5.371694,"is_reserved":false,"is_disabled":false,"rental_uris":{"android":"levelo://app?vid=66205352-7107-4b8d-bc7a-8827f974a830","ios":"levelo://app?vid=66205352-7107-4b8d-bc7a-8827f974a830"},"vehicle_type_id":"4","last_reported":1742328558,"current_range_meters":3200,"station_id":"ce4bhh92rcd13ifvqfi0","pricing_plan_id":"cebpf4jnsgd1na2vs0mg"},{"bike_id":"2712547e-fc06-4b6e-9df4-153a95dcd9b5","system_id":"levelo_inurba_marseille","lat":43.26682,"lon":5.38268,"is_reserved":false,"is_disabled":false,"rental_uris":{"android":"levelo://app?vid=2712547e-fc06-4b6e-9df4-153a95dcd9b5","ios":"levelo://app?vid=2712547e-fc06-4b6e-9df4-153a95dcd9b5"},"vehicle_type_id":"4","last_reported":1742328558,"current_range_meters":3200,"station_id":"ce4bhg92rcd13ifvqf90","pricing_plan_id":"cebpf4jnsgd1na2vs0mg"},{"bike_id":"213afdd3-8aeb-4d42-9ba1-4d5b18cd9edb","system_id":"levelo_inurba_marseille","lat":43.30946,"lon":5.40211,"is_reserved":false,"is_disabled":false,"rental_uris":{"android":"levelo://app?vid=213afdd3-8aeb-4d42-9ba1-4d5b18cd9edb","ios":"levelo://app?vid=213afdd3-8aeb-4d42-9ba1-4d5b18cd9edb"},"vehicle_type_id":"4","last_reported":1742328558,"current_range_meters":3200,"station_id":"","pricing_plan_id":"cebpf4jnsgd1na2vs0mg"},{"bike_id":"0e98307c-7e3a-43b4-9f58-015448186282","system_id":"levelo_inurba_marseille","lat":43.2417,"lon":5.3972,"is_reserved":false,"is_disabled":false,"rental_uris":{"android":"levelo://app?vid=0e98307c-7e3a-43b4-9f58-015448186282","ios":"levelo://app?vid=0e98307c-7e3a-43b4-9f58-015448186282"},"vehicle_type_id":"4","last_reported":1742328558,"current_range_meters":0,"station_id":"ce4bhn12rcd13ifvqgpg","pricing_plan_id":"cebpf4jnsgd1na2vs0mg"},{"bike_id":"f4b56c1a-33f1-4457-a9fe-e3b112a9ec75","system_id":"levelo_inurba_marseille","lat":43.31176,"lon":5.38702,"is_reserved":false,"is_disabled":false,"rental_uris":{"android":"levelo://app?vid=f4b56c1a-33f1-4457-a9fe-e3b112a9ec75","ios":"levelo://app?vid=f4b56c1a-33f1-4457-a9fe-e3b112a9ec75"},"vehicle_type_id":"4","last_reported":1742328558,"current_range_meters":3600,"station_id":"ce4bgv12rcd13ifvqcp0","pricing_plan_id":"cebpf4jnsgd1na2vs0mg"},{"bike_id":"94dbeb47-806a-483d-a5e7-3996afd3f94b","system_id":"levelo_inurba_marseille","lat":43.2997,"lon":5.38495,"is_reserved":false,"is_disabled":false,"rental_uris":{"android":"levelo://app?vid=94dbeb47-806a-483d-a5e7-3996afd3f94b","ios":"levelo://app?vid=94dbeb47-806a-483d-a5e7-3996afd3f94b"},"vehicle_type_id":"4","last_reported":1742328558,"current_range_meters":3600,"station_id":"ce4bgj92rcd13ifvqbd0","pricing_plan_id":"cebpf4jnsgd1na2vs0mg"},{"bike_id":"36c1eac0-102d-49b2-8ae6-3942da83e3d9","system_id":"levelo_inurba_marseille","lat":43.2467,"lon":5.3817,"is_reserved":false,"is_disabled":false,"rental_uris":{"android":"levelo://app?vid=36c1eac0-102d-49b2-8ae6-3942da83e3d9","ios":"levelo://app?vid=36c1eac0-102d-49b2-8ae6-3942da83e3d9"},"vehicle_type_id":"4","last_reported":1742328558,"current_range_meters":3600,"station_id":"ce4bhih2rcd13ifvqfr0","pricing_plan_id":"cebpf4jnsgd1na2vs0mg"},{"bike_id":"736b88f3-1a16-4634-a7c1-ec2f74823611","system_id":"levelo_inurba_marseille","lat":43.24546,"lon":5.39519,"is_reserved":false,"is_disabled":false,"rental_uris":{"android":"levelo://app?vid=736b88f3-1a16-4634-a7c1-ec2f74823611","ios":"levelo://app?vid=736b88f3-1a16-4634-a7c1-ec2f74823611"},"vehicle_type_id":"4","last_reported":1742328558,"current_range_meters":3600,"station_id":"ce4bhlp2rcd13ifvqgjg","pricing_plan_id":"cebpf4jnsgd1na2vs0mg"},{"bike_id":"c4e972ff-469f-4175-9005-93242b532aa6","system_id":"levelo_inurba_marseille","lat":43.28931,"lon":5.39627,"is_reserved":false,"is_disabled":false,"rental_uris":{"android":"levelo://app?vid=c4e972ff-469f-4175-9005-93242b532aa6","ios":"levelo://app?vid=c4e972ff-469f-4175-9005-93242b532aa6"},"vehicle_type_id":"4","last_reported":1742328558,"current_range_meters":3600,"station_id":"ce4bh3h2rcd13ifvqdn0","pricing_plan_id":"cebpf4jnsgd1na2vs0mg"},{"bike_id":"08574efe-bca6-46bf-a42c-6c42ef4986da","system_id":"levelo_inurba_marseille","lat":43.25579,"lon":5.38232,"is_reserved":false,"is_disabled":false,"rental_uris":{"android":"levelo://app?vid=08574efe-bca6-46bf-a42c-6c42ef4986da","ios":"levelo://app?vid=08574efe-bca6-46bf-a42c-6c42ef4986da"},"vehicle_type_id":"4","last_reported":1742328558,"current_range_meters":3600,"station_id":"ce4bhih2rcd13ifvqfs0","pricing_plan_id":"cebpf4jnsgd1na2vs0mg"},{"bike_id":"ef0e6bd7-a9fe-4e50-8f54-21a353a3ea79","system_id":"levelo_inurba_marseille","lat":43.28035,"lon":5.3695,"is_reserved":false,"is_disabled":false,"rental_uris":{"android":"levelo://app?vid=ef0e6bd7-a9fe-4e50-8f54-21a353a3ea79","ios":"levelo://app?vid=ef0e6bd7-a9fe-4e50-8f54-21a353a3ea79"},"vehicle_type_id":"4","last_reported":1742328558,"current_range_meters":4000,"station_id":"ce4bha12rcd13ifvqef0","pricing_plan_id":"cebpf4jnsgd1na2vs0mg"},{"bike_id":"f39d6875-6a07-49d5-9d07-ea43923031a7","system_id":"levelo_inurba_marseille","lat":43.29008,"lon":5.37545,"is_reserved":false,"is_disabled":false,"rental_uris":{"android":"levelo://app?vid=f39d6875-6a07-49d5-9d07-ea43923031a7","ios":"levelo://app?vid=f39d6875-6a07-49d5-9d07-ea43923031a7"},"vehicle_type_id":"4","last_reported":1742328558,"current_range_meters":4000,"station_id":"ce4bh692rcd13ifvqe90","pricing_plan_id":"cebpf4jnsgd1na2vs0mg"},{"bike_id":"057c4299-c24d-4a02-8ede-b4bf9523726b","system_id":"levelo_inurba_marseille","lat":43.23122,"lon":5.4372,"is_reserved":false,"is_disabled":true,"rental_uris":{"android":"levelo://app?vid=057c4299-c24d-4a02-8ede-b4bf9523726b","ios":"levelo://app?vid=057c4299-c24d-4a02-8ede-b4bf9523726b"},"vehicle_type_id":"4","last_reported":1742328558,"current_range_meters":4000,"station_id":"ce4bhmp2rcd13ifvqgog","pricing_plan_id":"cebpf4jnsgd1na2vs0mg"},{"bike_id":"1cd12185-befc-436f-851b-7314e87ced06","system_id":"levelo_inurba_marseille","lat":43.29028,"lon":5.38638,"is_reserved":false,"is_disabled":false,"rental_uris":{"android":"levelo://app?vid=1cd12185-befc-436f-851b-7314e87ced06","ios":"levelo://app?vid=1cd12185-befc-436f-851b-7314e87ced06"},"vehicle_type_id":"4","last_reported":1742328558,"current_range_meters":4000,"station_id":"ce4bh4p2rcd13ifvqe0g","pricing_plan_id":"cebpf4jnsgd1na2vs0mg"},{"bike_id":"f4c9d75f-7cfb-41f8-bd22-ac9fc8cec1ed","system_id":"levelo_inurba_marseille","lat":43.30211,"lon":5.39461,"is_reserved":false,"is_disabled":false,"rental_uris":{"android":"levelo://app?vid=f4c9d75f-7cfb-41f8-bd22-ac9fc8cec1ed","ios":"levelo://app?vid=f4c9d75f-7cfb-41f8-bd22-ac9fc8cec1ed"},"vehicle_type_id":"4","last_reported":1742328558,"current_range_meters":4000,"station_id":"ce4bh0p2rcd13ifvqd70","pricing_plan_id":"cebpf4jnsgd1na2vs0mg"},{"bike_id":"91a1a8c9-afb9-4a7f-ba19-ba136b335bf7","system_id":"levelo_inurba_marseille","lat":43.27884,"lon":5.38006,"is_reserved":false,"is_disabled":false,"rental_uris":{"android":"levelo://app?vid=91a1a8c9-afb9-4a7f-ba19-ba136b335bf7","ios":"levelo://app?vid=91a1a8c9-afb9-4a7f-ba19-ba136b335bf7"},"vehicle_type_id":"4","last_reported":1742328558,"current_range_meters":4000,"station_id":"ce4bhf92rcd13ifvqf50","pricing_plan_id":"cebpf4jnsgd1na2vs0mg"},{"bike_id":"085f5453-b673-4e10-bed9-4077a4ed34d4","system_id":"levelo_inurba_marseille","lat":43.31113,"lon":5.37774,"is_reserved":false,"is_disabled":false,"rental_uris":{"android":"levelo://app?vid=085f5453-b673-4e10-bed9-4077a4ed34d4","ios":"levelo://app?vid=085f5453-b673-4e10-bed9-4077a4ed34d4"},"vehicle_type_id":"4","last_reported":1742328558,"current_range_meters":4000,"station_id":"ce4bgt92rcd13ifvqcg0","pricing_plan_id":"cebpf4jnsgd1na2vs0mg"},{"bike_id":"94459868-c278-49a0-bca0-1f68cad8e573","system_id":"levelo_inurba_marseille","lat":43.31774,"lon":5.39004,"is_reserved":false,"is_disabled":false,"rental_uris":{"android":"levelo://app?vid=94459868-c278-49a0-bca0-1f68cad8e573","ios":"levelo://app?vid=94459868-c278-49a0-bca0-1f68cad8e573"},"vehicle_type_id":"4","last_reported":1742328558,"current_range_meters":4000,"station_id":"ce4bhqp2rcd13ifvqhng","pricing_plan_id":"cebpf4jnsgd1na2vs0mg"},{"bike_id":"18bfb168-c098-4e9b-b586-d2828c6125f7","system_id":"levelo_inurba_marseille","lat":43.28449,"lon":5.39186,"is_reserved":false,"is_disabled":false,"rental_uris":{"android":"levelo://app?vid=18bfb168-c098-4e9b-b586-d2828c6125f7","ios":"levelo://app?vid=18bfb168-c098-4e9b-b586-d2828c6125f7"},"vehicle_type_id":"4","last_reported":1742328558,"current_range_meters":4400,"station_id":"ce4bhoh2rcd13ifvqh5g","pricing_plan_id":"cebpf4jnsgd1na2vs0mg"},{"bike_id":"2dedf74b-c6ee-4fc9-9eaf-23ea3912fd7a","system_id":"levelo_inurba_marseille","lat":43.28446,"lon":5.39214,"is_reserved":false,"is_disabled":false,"rental_uris":{"android":"levelo://app?vid=2dedf74b-c6ee-4fc9-9eaf-23ea3912fd7a","ios":"levelo://app?vid=2dedf74b-c6ee-4fc9-9eaf-23ea3912fd7a"},"vehicle_type_id":"4","last_reported":1742328558,"current_range_meters":4400,"station_id":"ce4bhoh2rcd13ifvqh5g","pricing_plan_id":"cebpf4jnsgd1na2vs0mg"},{"bike_id":"9ddacab4-e40d-407a-8694-2eb861a5338e","system_id":"levelo_inurba_marseille","lat":43.29017,"lon":5.38605,"is_reserved":false,"is_disabled":false,"rental_uris":{"android":"levelo://app?vid=9ddacab4-e40d-407a-8694-2eb861a5338e","ios":"levelo://app?vid=9ddacab4-e40d-407a-8694-2eb861a5338e"},"vehicle_type_id":"4","last_reported":1742328558,"current_range_meters":3600,"station_id":"ce4bh4p2rcd13ifvqe0g","pricing_plan_id":"cebpf4jnsgd1na2vs0mg"},{"bike_id":"fa5f15ab-8994-45e1-84de-31aa4c8b3ced","system_id":"levelo_inurba_marseille","lat":43.23203,"lon":5.3555,"is_reserved":false,"is_disabled":false,"rental_uris":{"android":"levelo://app?vid=fa5f15ab-8994-45e1-84de-31aa4c8b3ced","ios":"levelo://app?vid=fa5f15ab-8994-45e1-84de-31aa4c8b3ced"},"vehicle_type_id":"4","last_reported":1742328558,"current_range_meters":4400,"station_id":"ce4bhu92rcd13ifvqi70","pricing_plan_id":"cebpf4jnsgd1na2vs0mg"},{"bike_id":"0ed07bc0-e52e-4dad-9111-3d0be74dad03","system_id":"levelo_inurba_marseille","lat":43.28926,"lon":5.38388,"is_reserved":false,"is_disabled":false,"rental_uris":{"android":"levelo://app?vid=0ed07bc0-e52e-4dad-9111-3d0be74dad03","ios":"levelo://app?vid=0ed07bc0-e52e-4dad-9111-3d0be74dad03"},"vehicle_type_id":"4","last_reported":1742328558,"current_range_meters":4400,"station_id":"ce4bh612rcd13ifvqe6g","pricing_plan_id":"cebpf4jnsgd1na2vs0mg"},{"bike_id":"df503783-f0d5-401a-a458-174f460ca9a7","system_id":"levelo_inurba_marseille","lat":43.28721,"lon":5.37942,"is_reserved":false,"is_disabled":false,"rental_uris":{"android":"levelo://app?vid=df503783-f0d5-401a-a458-174f460ca9a7","ios":"levelo://app?vid=df503783-f0d5-401a-a458-174f460ca9a7"},"vehicle_type_id":"4","last_reported":1742328558,"current_range_meters":4400,"station_id":"ce4bh9p2rcd13ifvqec0","pricing_plan_id":"cebpf4jnsgd1na2vs0mg"},{"bike_id":"a3944ddd-eb75-478c-8b27-c8a4c600ceef","system_id":"levelo_inurba_marseille","lat":43.28972,"lon":5.37838,"is_reserved":false,"is_disabled":false,"rental_uris":{"android":"levelo://app?vid=a3944ddd-eb75-478c-8b27-c8a4c600ceef","ios":"levelo://app?vid=a3944ddd-eb75-478c-8b27-c8a4c600ceef"},"vehicle_type_id":"4","last_reported":1742328558,"current_range_meters":4400,"station_id":"ce4bh9p2rcd13ifvqed0","pricing_plan_id":"cebpf4jnsgd1na2vs0mg"},{"bike_id":"45b82e0f-05c8-4de5-b641-e0a386935fad","system_id":"levelo_inurba_marseille","lat":43.31288,"lon":5.40157,"is_reserved":false,"is_disabled":false,"rental_uris":{"android":"levelo://app?vid=45b82e0f-05c8-4de5-b641-e0a386935fad","ios":"levelo://app?vid=45b82e0f-05c8-4de5-b641-e0a386935fad"},"vehicle_type_id":"4","last_reported":1742328558,"current_range_meters":4400,"station_id":"ce4bh092rcd13ifvqd30","pricing_plan_id":"cebpf4jnsgd1na2vs0mg"},{"bike_id":"41057c2b-8ed6-4261-a195-12023d09d4f3","system_id":"levelo_inurba_marseille","lat":43.26214,"lon":5.37455,"is_reserved":false,"is_disabled":false,"rental_uris":{"android":"levelo://app?vid=41057c2b-8ed6-4261-a195-12023d09d4f3","ios":"levelo://app?vid=41057c2b-8ed6-4261-a195-12023d09d4f3"},"vehicle_type_id":"4","last_reported":1742328558,"current_range_meters":4400,"station_id":"ce4bhgp2rcd13ifvqfc0","pricing_plan_id":"cebpf4jnsgd1na2vs0mg"},{"bike_id":"ec1afc7a-29f2-4653-b9fa-5a3c4cca4314","system_id":"levelo_inurba_marseille","lat":43.30255,"lon":5.40069,"is_reserved":false,"is_disabled":false,"rental_uris":{"android":"levelo://app?vid=ec1afc7a-29f2-4653-b9fa-5a3c4cca4314","ios":"levelo://app?vid=ec1afc7a-29f2-4653-b9fa-5a3c4cca4314"},"vehicle_type_id":"4","last_reported":1742328558,"current_range_meters":4400,"station_id":"ce4bgvh2rcd13ifvqcs0","pricing_plan_id":"cebpf4jnsgd1na2vs0mg"},{"bike_id":"97a1102f-72be-412e-9d70-9d701fe6fa12","system_id":"levelo_inurba_marseille","lat":43.27379,"lon":5.36286,"is_reserved":false,"is_disabled":false,"rental_uris":{"android":"levelo://app?vid=97a1102f-72be-412e-9d70-9d701fe6fa12","ios":"levelo://app?vid=97a1102f-72be-412e-9d70-9d701fe6fa12"},"vehicle_type_id":"4","last_reported":1742328558,"current_range_meters":4800,"station_id":"ce4bhbh2rcd13ifvqeo0","pricing_plan_id":"cebpf4jnsgd1na2vs0mg"},{"bike_id":"96de6221-edb1-415d-a389-ca49989a8e8c","system_id":"levelo_inurba_marseille","lat":43.2804,"lon":5.36947,"is_reserved":false,"is_disabled":false,"rental_uris":{"android":"levelo://app?vid=96de6221-edb1-415d-a389-ca49989a8e8c","ios":"levelo://app?vid=96de6221-edb1-415d-a389-ca49989a8e8c"},"vehicle_type_id":"4","last_reported":1742328558,"current_range_meters":4800,"station_id":"ce4bha12rcd13ifvqef0","pricing_plan_id":"cebpf4jnsgd1na2vs0mg"},{"bike_id":"9cec5018-42b1-4ef0-88eb-c56dbc331d48","system_id":"levelo_inurba_marseille","lat":43.2845,"lon":5.39206,"is_reserved":false,"is_disabled":false,"rental_uris":{"android":"levelo://app?vid=9cec5018-42b1-4ef0-88eb-c56dbc331d48","ios":"levelo://app?vid=9cec5018-42b1-4ef0-88eb-c56dbc331d48"},"vehicle_type_id":"4","last_reported":1742328558,"current_range_meters":4800,"station_id":"ce4bhoh2rcd13ifvqh5g","pricing_plan_id":"cebpf4jnsgd1na2vs0mg"},{"bike_id":"e6bca528-8f90-44d0-b2b9-629ed9746c9f","system_id":"levelo_inurba_marseille","lat":43.29036,"lon":5.38651,"is_reserved":false,"is_disabled":false,"rental_uris":{"android":"levelo://app?vid=e6bca528-8f90-44d0-b2b9-629ed9746c9f","ios":"levelo://app?vid=e6bca528-8f90-44d0-b2b9-629ed9746c9f"},"vehicle_type_id":"4","last_reported":1742328558,"current_range_meters":4800,"station_id":"ce4bh4p2rcd13ifvqe0g","pricing_plan_id":"cebpf4jnsgd1na2vs0mg"},{"bike_id":"9928c305-5c0a-4f90-bebe-ad40eea9c32b","system_id":"levelo_inurba_marseille","lat":43.29414,"lon":5.38641,"is_reserved":false,"is_disabled":false,"rental_uris":{"android":"levelo://app?vid=9928c305-5c0a-4f90-bebe-ad40eea9c32b","ios":"levelo://app?vid=9928c305-5c0a-4f90-bebe-ad40eea9c32b"},"vehicle_type_id":"4","last_reported":1742328558,"current_range_meters":4800,"station_id":"ce4bh2h2rcd13ifvqdh0","pricing_plan_id":"cebpf4jnsgd1na2vs0mg"},{"bike_id":"6c256382-daba-4bd4-b4fd-cc16f4776a54","system_id":"levelo_inurba_marseille","lat":43.29337,"lon":5.38006,"is_reserved":false,"is_disabled":false,"rental_uris":{"android":"levelo://app?vid=6c256382-daba-4bd4-b4fd-cc16f4776a54","ios":"levelo://app?vid=6c256382-daba-4bd4-b4fd-cc16f4776a54"},"vehicle_type_id":"4","last_reported":1742328558,"current_range_meters":5600,"station_id":"","pricing_plan_id":"cebpf4jnsgd1na2vs0mg"},{"bike_id":"a34aa44b-da8b-461c-84a7-ad3f6c56b49a","system_id":"levelo_inurba_marseille","lat":43.28425,"lon":5.35001,"is_reserved":false,"is_disabled":false,"rental_uris":{"android":"levelo://app?vid=a34aa44b-da8b-461c-84a7-ad3f6c56b49a","ios":"levelo://app?vid=a34aa44b-da8b-461c-84a7-ad3f6c56b49a"},"vehicle_type_id":"4","last_reported":1742328558,"current_range_meters":5600,"station_id":"ce4bhbh2rcd13ifvqepg","pricing_plan_id":"cebpf4jnsgd1na2vs0mg"},{"bike_id":"b9416fb6-9cc0-4164-b6a9-32098ba209cf","system_id":"levelo_inurba_marseille","lat":43.31127,"lon":5.37782,"is_reserved":false,"is_disabled":false,"rental_uris":{"android":"levelo://app?vid=b9416fb6-9cc0-4164-b6a9-32098ba209cf","ios":"levelo://app?vid=b9416fb6-9cc0-4164-b6a9-32098ba209cf"},"vehicle_type_id":"4","last_reported":1742328558,"current_range_meters":5600,"station_id":"ce4bgt92rcd13ifvqcg0","pricing_plan_id":"cebpf4jnsgd1na2vs0mg"},{"bike_id":"e9f8b764-b321-4bd1-a0a5-bbb094d8ed23","system_id":"levelo_inurba_marseille","lat":43.29412,"lon":5.38612,"is_reserved":false,"is_disabled":false,"rental_uris":{"android":"levelo://app?vid=e9f8b764-b321-4bd1-a0a5-bbb094d8ed23","ios":"levelo://app?vid=e9f8b764-b321-4bd1-a0a5-bbb094d8ed23"},"vehicle_type_id":"4","last_reported":1742328558,"current_range_meters":5600,"station_id":"ce4bh2h2rcd13ifvqdh0","pricing_plan_id":"cebpf4jnsgd1na2vs0mg"},{"bike_id":"9ceede58-2132-4ca2-ad0b-36ba033692fa","system_id":"levelo_inurba_marseille","lat":43.30943,"lon":5.40171,"is_reserved":false,"is_disabled":false,"rental_uris":{"android":"levelo://app?vid=9ceede58-2132-4ca2-ad0b-36ba033692fa","ios":"levelo://app?vid=9ceede58-2132-4ca2-ad0b-36ba033692fa"},"vehicle_type_id":"4","last_reported":1742328558,"current_range_meters":5600,"station_id":"ce4bgvp2rcd13ifvqct0","pricing_plan_id":"cebpf4jnsgd1na2vs0mg"},{"bike_id":"92eb74ca-5db0-4730-bf51-f2146a91dc54","system_id":"levelo_inurba_marseille","lat":43.3305,"lon":5.3905,"is_reserved":false,"is_disabled":false,"rental_uris":{"android":"levelo://app?vid=92eb74ca-5db0-4730-bf51-f2146a91dc54","ios":"levelo://app?vid=92eb74ca-5db0-4730-bf51-f2146a91dc54"},"vehicle_type_id":"4","last_reported":1742328558,"current_range_meters":5600,"station_id":"ce4bhr92rcd13ifvqhrg","pricing_plan_id":"cebpf4jnsgd1na2vs0mg"},{"bike_id":"eb37f39b-3138-47e6-8860-39682583bd1f","system_id":"levelo_inurba_marseille","lat":43.32378,"lon":5.38891,"is_reserved":false,"is_disabled":false,"rental_uris":{"android":"levelo://app?vid=eb37f39b-3138-47e6-8860-39682583bd1f","ios":"levelo://app?vid=eb37f39b-3138-47e6-8860-39682583bd1f"},"vehicle_type_id":"4","last_reported":1742328558,"current_range_meters":5600,"station_id":"ce4bhqp2rcd13ifvqhog","pricing_plan_id":"cebpf4jnsgd1na2vs0mg"},{"bike_id":"2a7cf32c-8ad7-409a-b714-8449c6c64662","system_id":"levelo_inurba_marseille","lat":43.258371,"lon":5.394367,"is_reserved":false,"is_disabled":false,"rental_uris":{"android":"levelo://app?vid=2a7cf32c-8ad7-409a-b714-8449c6c64662","ios":"levelo://app?vid=2a7cf32c-8ad7-409a-b714-8449c6c64662"},"vehicle_type_id":"4","last_reported":1742328558,"current_range_meters":4800,"station_id":"ce4bhip2rcd13ifvqft0","pricing_plan_id":"cebpf4jnsgd1na2vs0mg"},{"bike_id":"f3b4e1ca-33fc-4951-ab2c-b3fe2f661f6a","system_id":"levelo_inurba_marseille","lat":43.28848,"lon":5.39316,"is_reserved":false,"is_disabled":false,"rental_uris":{"android":"levelo://app?vid=f3b4e1ca-33fc-4951-ab2c-b3fe2f661f6a","ios":"levelo://app?vid=f3b4e1ca-33fc-4951-ab2c-b3fe2f661f6a"},"vehicle_type_id":"4","last_reported":1742328558,"current_range_meters":6000,"station_id":"ce4bh2p2rcd13ifvqdi0","pricing_plan_id":"cebpf4jnsgd1na2vs0mg"},{"bike_id":"3db91aa6-845b-4ce3-9a81-55687c0461bc","system_id":"levelo_inurba_marseille","lat":43.25013,"lon":5.38923,"is_reserved":false,"is_disabled":false,"rental_uris":{"android":"levelo://app?vid=3db91aa6-845b-4ce3-9a81-55687c0461bc","ios":"levelo://app?vid=3db91aa6-845b-4ce3-9a81-55687c0461bc"},"vehicle_type_id":"4","last_reported":1742328558,"current_range_meters":6000,"station_id":"ce4bhgp2rcd13ifvqfd0","pricing_plan_id":"cebpf4jnsgd1na2vs0mg"},{"bike_id":"64177609-8c12-4303-8ea2-46f95e15cb9f","system_id":"levelo_inurba_marseille","lat":43.31106,"lon":5.37789,"is_reserved":false,"is_disabled":false,"rental_uris":{"android":"levelo://app?vid=64177609-8c12-4303-8ea2-46f95e15cb9f","ios":"levelo://app?vid=64177609-8c12-4303-8ea2-46f95e15cb9f"},"vehicle_type_id":"4","last_reported":1742328558,"current_range_meters":6000,"station_id":"ce4bgt92rcd13ifvqcg0","pricing_plan_id":"cebpf4jnsgd1na2vs0mg"},{"bike_id":"2665cc4b-07ed-4ae6-a66f-2b09983c709d","system_id":"levelo_inurba_marseille","lat":43.33761,"lon":5.37489,"is_reserved":false,"is_disabled":false,"rental_uris":{"android":"levelo://app?vid=2665cc4b-07ed-4ae6-a66f-2b09983c709d","ios":"levelo://app?vid=2665cc4b-07ed-4ae6-a66f-2b09983c709d"},"vehicle_type_id":"4","last_reported":1742328558,"current_range_meters":6000,"station_id":"","pricing_plan_id":"cebpf4jnsgd1na2vs0mg"},{"bike_id":"c826199c-5fa1-4e76-ac84-37c72b1c6513","system_id":"levelo_inurba_marseille","lat":43.28983,"lon":5.37839,"is_reserved":false,"is_disabled":false,"rental_uris":{"android":"levelo://app?vid=c826199c-5fa1-4e76-ac84-37c72b1c6513","ios":"levelo://app?vid=c826199c-5fa1-4e76-ac84-37c72b1c6513"},"vehicle_type_id":"4","last_reported":1742328558,"current_range_meters":6000,"station_id":"ce4bh9p2rcd13ifvqed0","pricing_plan_id":"cebpf4jnsgd1na2vs0mg"},{"bike_id":"a7a82216-3694-475a-821b-ff971edbb97c","system_id":"levelo_inurba_marseille","lat":43.30651,"lon":5.40102,"is_reserved":false,"is_disabled":false,"rental_uris":{"android":"levelo://app?vid=a7a82216-3694-475a-821b-ff971edbb97c","ios":"levelo://app?vid=a7a82216-3694-475a-821b-ff971edbb97c"},"vehicle_type_id":"4","last_reported":1742328558,"current_range_meters":6000,"station_id":"ce4bh112rcd13ifvqda0","pricing_plan_id":"cebpf4jnsgd1na2vs0mg"},{"bike_id":"9c4685f3-07ec-44f1-876e-e4f7bb01eac7","system_id":"levelo_inurba_marseille","lat":43.32382,"lon":5.3889,"is_reserved":false,"is_disabled":false,"rental_uris":{"android":"levelo://app?vid=9c4685f3-07ec-44f1-876e-e4f7bb01eac7","ios":"levelo://app?vid=9c4685f3-07ec-44f1-876e-e4f7bb01eac7"},"vehicle_type_id":"4","last_reported":1742328558,"current_range_meters":6000,"station_id":"ce4bhqp2rcd13ifvqhog","pricing_plan_id":"cebpf4jnsgd1na2vs0mg"},{"bike_id":"3e07fa84-e139-4e74-86d8-45f158bc1fb7","system_id":"levelo_inurba_marseille","lat":43.28354,"lon":5.38105,"is_reserved":false,"is_disabled":false,"rental_uris":{"android":"levelo://app?vid=3e07fa84-e139-4e74-86d8-45f158bc1fb7","ios":"levelo://app?vid=3e07fa84-e139-4e74-86d8-45f158bc1fb7"},"vehicle_type_id":"4","last_reported":1742328558,"current_range_meters":6000,"station_id":"ce4bh412rcd13ifvqdr0","pricing_plan_id":"cebpf4jnsgd1na2vs0mg"},{"bike_id":"55c83ebf-913d-48a1-abee-3e29e6909fd2","system_id":"levelo_inurba_marseille","lat":43.28034,"lon":5.41664,"is_reserved":false,"is_disabled":true,"rental_uris":{"android":"levelo://app?vid=55c83ebf-913d-48a1-abee-3e29e6909fd2","ios":"levelo://app?vid=55c83ebf-913d-48a1-abee-3e29e6909fd2"},"vehicle_type_id":"4","last_reported":1742328558,"current_range_meters":6000,"station_id":"ce4bho12rcd13ifvqh1g","pricing_plan_id":"cebpf4jnsgd1na2vs0mg"},{"bike_id":"b30be957-4091-4091-9689-3da66932f45e","system_id":"levelo_inurba_marseille","lat":43.28412,"lon":5.34994,"is_reserved":false,"is_disabled":false,"rental_uris":{"android":"levelo://app?vid=b30be957-4091-4091-9689-3da66932f45e","ios":"levelo://app?vid=b30be957-4091-4091-9689-3da66932f45e"},"vehicle_type_id":"4","last_reported":1742328558,"current_range_meters":6000,"station_id":"ce4bhbh2rcd13ifvqepg","pricing_plan_id":"cebpf4jnsgd1na2vs0mg"},{"bike_id":"4092f65c-e73c-4c43-a2f2-bee6d54b05c5","system_id":"levelo_inurba_marseille","lat":43.31072,"lon":5.38358,"is_reserved":false,"is_disabled":false,"rental_uris":{"android":"levelo://app?vid=4092f65c-e73c-4c43-a2f2-bee6d54b05c5","ios":"levelo://app?vid=4092f65c-e73c-4c43-a2f2-bee6d54b05c5"},"vehicle_type_id":"4","last_reported":1742328558,"current_range_meters":6400,"station_id":"ce4bgv92rcd13ifvqcr0","pricing_plan_id":"cebpf4jnsgd1na2vs0mg"},{"bike_id":"402cd330-07f1-43f7-ad4d-be190f776291","system_id":"levelo_inurba_marseille","lat":43.28367,"lon":5.38639,"is_reserved":false,"is_disabled":false,"rental_uris":{"android":"levelo://app?vid=402cd330-07f1-43f7-ad4d-be190f776291","ios":"levelo://app?vid=402cd330-07f1-43f7-ad4d-be190f776291"},"vehicle_type_id":"4","last_reported":1742328558,"current_range_meters":6400,"station_id":"ce4bh492rcd13ifvqdvg","pricing_plan_id":"cebpf4jnsgd1na2vs0mg"},{"bike_id":"ad3f4be2-0496-4e77-8003-82c5beb9f05d","system_id":"levelo_inurba_marseille","lat":43.30788,"lon":5.37643,"is_reserved":false,"is_disabled":false,"rental_uris":{"android":"levelo://app?vid=ad3f4be2-0496-4e77-8003-82c5beb9f05d","ios":"levelo://app?vid=ad3f4be2-0496-4e77-8003-82c5beb9f05d"},"vehicle_type_id":"4","last_reported":1742328558,"current_range_meters":6400,"station_id":"ce4bgv92rcd13ifvqcq0","pricing_plan_id":"cebpf4jnsgd1na2vs0mg"},{"bike_id":"6d8e8090-a4c7-4966-a3f4-a833922b9e5a","system_id":"levelo_inurba_marseille","lat":43.23204,"lon":5.35556,"is_reserved":false,"is_disabled":false,"rental_uris":{"android":"levelo://app?vid=6d8e8090-a4c7-4966-a3f4-a833922b9e5a","ios":"levelo://app?vid=6d8e8090-a4c7-4966-a3f4-a833922b9e5a"},"vehicle_type_id":"4","last_reported":1742328558,"current_range_meters":6400,"station_id":"ce4bhu92rcd13ifvqi70","pricing_plan_id":"cebpf4jnsgd1na2vs0mg"},{"bike_id":"540ef759-a89a-4850-8f2c-0f4de122ac8e","system_id":"levelo_inurba_marseille","lat":43.29974,"lon":5.38488,"is_reserved":false,"is_disabled":false,"rental_uris":{"android":"levelo://app?vid=540ef759-a89a-4850-8f2c-0f4de122ac8e","ios":"levelo://app?vid=540ef759-a89a-4850-8f2c-0f4de122ac8e"},"vehicle_type_id":"4","last_reported":1742328558,"current_range_meters":6400,"station_id":"ce4bgj92rcd13ifvqbd0","pricing_plan_id":"cebpf4jnsgd1na2vs0mg"},{"bike_id":"5905a51d-8934-42a2-8bb6-7e2893bcf7e4","system_id":"levelo_inurba_marseille","lat":43.29795,"lon":5.39346,"is_reserved":false,"is_disabled":false,"rental_uris":{"android":"levelo://app?vid=5905a51d-8934-42a2-8bb6-7e2893bcf7e4","ios":"levelo://app?vid=5905a51d-8934-42a2-8bb6-7e2893bcf7e4"},"vehicle_type_id":"4","last_reported":1742328558,"current_range_meters":6400,"station_id":"chh1huq6cuj3fo74tm60","pricing_plan_id":"cebpf4jnsgd1na2vs0mg"},{"bike_id":"07524944-3a89-45ea-9024-ac359b4dd760","system_id":"levelo_inurba_marseille","lat":43.33737,"lon":5.39176,"is_reserved":false,"is_disabled":false,"rental_uris":{"android":"levelo://app?vid=07524944-3a89-45ea-9024-ac359b4dd760","ios":"levelo://app?vid=07524944-3a89-45ea-9024-ac359b4dd760"},"vehicle_type_id":"4","last_reported":1742328558,"current_range_meters":6400,"station_id":"ce4bhr92rcd13ifvqhsg","pricing_plan_id":"cebpf4jnsgd1na2vs0mg"},{"bike_id":"88a09029-6e73-4670-8690-cfff9df2238d","system_id":"levelo_inurba_marseille","lat":43.28448,"lon":5.39208,"is_reserved":false,"is_disabled":false,"rental_uris":{"android":"levelo://app?vid=88a09029-6e73-4670-8690-cfff9df2238d","ios":"levelo://app?vid=88a09029-6e73-4670-8690-cfff9df2238d"},"vehicle_type_id":"4","last_reported":1742328558,"current_range_meters":6000,"station_id":"ce4bhoh2rcd13ifvqh5g","pricing_plan_id":"cebpf4jnsgd1na2vs0mg"},{"bike_id":"0d3accb9-853e-4df0-b9d8-4607b8048f46","system_id":"levelo_inurba_marseille","lat":43.2416,"lon":5.36409,"is_reserved":false,"is_disabled":false,"rental_uris":{"android":"levelo://app?vid=0d3accb9-853e-4df0-b9d8-4607b8048f46","ios":"levelo://app?vid=0d3accb9-853e-4df0-b9d8-4607b8048f46"},"vehicle_type_id":"4","last_reported":1742328558,"current_range_meters":6400,"station_id":"cpo36qri1sfpv3e86is0","pricing_plan_id":"cebpf4jnsgd1na2vs0mg"},{"bike_id":"0d9af207-4df1-46cc-856a-b3f75788545c","system_id":"levelo_inurba_marseille","lat":43.29885,"lon":5.38906,"is_reserved":false,"is_disabled":false,"rental_uris":{"android":"levelo://app?vid=0d9af207-4df1-46cc-856a-b3f75788545c","ios":"levelo://app?vid=0d9af207-4df1-46cc-856a-b3f75788545c"},"vehicle_type_id":"4","last_reported":1742328558,"current_range_meters":6400,"station_id":"ce4bh392rcd13ifvqdl0","pricing_plan_id":"cebpf4jnsgd1na2vs0mg"},{"bike_id":"6db90967-f6d2-4647-844f-e3f165ab0211","system_id":"levelo_inurba_marseille","lat":43.3267,"lon":5.41002,"is_reserved":false,"is_disabled":false,"rental_uris":{"android":"levelo://app?vid=6db90967-f6d2-4647-844f-e3f165ab0211","ios":"levelo://app?vid=6db90967-f6d2-4647-844f-e3f165ab0211"},"vehicle_type_id":"4","last_reported":1742328558,"current_range_meters":6400,"station_id":"ce4bhpp2rcd13ifvqhgg","pricing_plan_id":"cebpf4jnsgd1na2vs0mg"},{"bike_id":"80dc5fd0-289a-40fa-b0b5-c7379214243e","system_id":"levelo_inurba_marseille","lat":43.28449,"lon":5.35892,"is_reserved":false,"is_disabled":false,"rental_uris":{"android":"levelo://app?vid=80dc5fd0-289a-40fa-b0b5-c7379214243e","ios":"levelo://app?vid=80dc5fd0-289a-40fa-b0b5-c7379214243e"},"vehicle_type_id":"4","last_reported":1742328558,"current_range_meters":6400,"station_id":"ce4bhah2rcd13ifvqei0","pricing_plan_id":"cebpf4jnsgd1na2vs0mg"},{"bike_id":"e1e05f6c-7228-4a5f-b149-dc76589d071a","system_id":"levelo_inurba_marseille","lat":43.26571,"lon":5.373,"is_reserved":false,"is_disabled":false,"rental_uris":{"android":"levelo://app?vid=e1e05f6c-7228-4a5f-b149-dc76589d071a","ios":"levelo://app?vid=e1e05f6c-7228-4a5f-b149-dc76589d071a"},"vehicle_type_id":"4","last_reported":1742328558,"current_range_meters":6400,"station_id":"ce4bhg12rcd13ifvqf70","pricing_plan_id":"cebpf4jnsgd1na2vs0mg"},{"bike_id":"a37fbc86-e575-4ffd-a4db-f74394b2d7d6","system_id":"levelo_inurba_marseille","lat":43.2909,"lon":5.37176,"is_reserved":false,"is_disabled":false,"rental_uris":{"android":"levelo://app?vid=a37fbc86-e575-4ffd-a4db-f74394b2d7d6","ios":"levelo://app?vid=a37fbc86-e575-4ffd-a4db-f74394b2d7d6"},"vehicle_type_id":"4","last_reported":1742328558,"current_range_meters":6400,"station_id":"ce4bh5p2rcd13ifvqe4g","pricing_plan_id":"cebpf4jnsgd1na2vs0mg"},{"bike_id":"bf53558a-323c-40e3-9c37-ac64ba388e1c","system_id":"levelo_inurba_marseille","lat":43.23961,"lon":5.36641,"is_reserved":false,"is_disabled":false,"rental_uris":{"android":"levelo://app?vid=bf53558a-323c-40e3-9c37-ac64ba388e1c","ios":"levelo://app?vid=bf53558a-323c-40e3-9c37-ac64ba388e1c"},"vehicle_type_id":"4","last_reported":1742328558,"current_range_meters":6400,"station_id":"ce4bhi12rcd13ifvqfp0","pricing_plan_id":"cebpf4jnsgd1na2vs0mg"},{"bike_id":"0adea1e3-c2ed-4049-8d24-9ba5f01269c0","system_id":"levelo_inurba_marseille","lat":43.28443,"lon":5.39203,"is_reserved":false,"is_disabled":false,"rental_uris":{"android":"levelo://app?vid=0adea1e3-c2ed-4049-8d24-9ba5f01269c0","ios":"levelo://app?vid=0adea1e3-c2ed-4049-8d24-9ba5f01269c0"},"vehicle_type_id":"4","last_reported":1742328558,"current_range_meters":6000,"station_id":"ce4bhoh2rcd13ifvqh5g","pricing_plan_id":"cebpf4jnsgd1na2vs0mg"},{"bike_id":"f5c97f8a-2624-4b99-bdf9-59f10ff7cfce","system_id":"levelo_inurba_marseille","lat":43.27603,"lon":5.36099,"is_reserved":false,"is_disabled":false,"rental_uris":{"android":"levelo://app?vid=f5c97f8a-2624-4b99-bdf9-59f10ff7cfce","ios":"levelo://app?vid=f5c97f8a-2624-4b99-bdf9-59f10ff7cfce"},"vehicle_type_id":"4","last_reported":1742328558,"current_range_meters":6800,"station_id":"ce4bgj92rcd13ifvqbe0","pricing_plan_id":"cebpf4jnsgd1na2vs0mg"},{"bike_id":"87b8fbff-37c0-4afb-ac59-74edfaf81c05","system_id":"levelo_inurba_marseille","lat":43.280008,"lon":5.400125,"is_reserved":false,"is_disabled":false,"rental_uris":{"android":"levelo://app?vid=87b8fbff-37c0-4afb-ac59-74edfaf81c05","ios":"levelo://app?vid=87b8fbff-37c0-4afb-ac59-74edfaf81c05"},"vehicle_type_id":"4","last_reported":1742328558,"current_range_meters":6800,"station_id":"ce4bh492rcd13ifvqdug","pricing_plan_id":"cebpf4jnsgd1na2vs0mg"},{"bike_id":"362efc46-264a-499e-8212-aa27c654da78","system_id":"levelo_inurba_marseille","lat":43.28616,"lon":5.35108,"is_reserved":false,"is_disabled":false,"rental_uris":{"android":"levelo://app?vid=362efc46-264a-499e-8212-aa27c654da78","ios":"levelo://app?vid=362efc46-264a-499e-8212-aa27c654da78"},"vehicle_type_id":"4","last_reported":1742328558,"current_range_meters":6800,"station_id":"ce4bhch2rcd13ifvqeug","pricing_plan_id":"cebpf4jnsgd1na2vs0mg"},{"bike_id":"db85a551-7379-4999-871e-b1611c31baae","system_id":"levelo_inurba_marseille","lat":43.27842,"lon":5.3923,"is_reserved":false,"is_disabled":false,"rental_uris":{"android":"levelo://app?vid=db85a551-7379-4999-871e-b1611c31baae","ios":"levelo://app?vid=db85a551-7379-4999-871e-b1611c31baae"},"vehicle_type_id":"4","last_reported":1742328558,"current_range_meters":6800,"station_id":"ce4bhjp2rcd13ifvqga0","pricing_plan_id":"cebpf4jnsgd1na2vs0mg"},{"bike_id":"35695dd4-791c-4486-b261-10bd7a9e52e9","system_id":"levelo_inurba_marseille","lat":43.26209,"lon":5.40446,"is_reserved":false,"is_disabled":true,"rental_uris":{"android":"levelo://app?vid=35695dd4-791c-4486-b261-10bd7a9e52e9","ios":"levelo://app?vid=35695dd4-791c-4486-b261-10bd7a9e52e9"},"vehicle_type_id":"4","last_reported":1742328558,"current_range_meters":6800,"station_id":"ce4bhmh2rcd13ifvqgmg","pricing_plan_id":"cebpf4jnsgd1na2vs0mg"},{"bike_id":"c79383e1-b7d7-41c2-84b4-f21d4597d4dd","system_id":"levelo_inurba_marseille","lat":43.30594,"lon":5.39336,"is_reserved":false,"is_disabled":false,"rental_uris":{"android":"levelo://app?vid=c79383e1-b7d7-41c2-84b4-f21d4597d4dd","ios":"levelo://app?vid=c79383e1-b7d7-41c2-84b4-f21d4597d4dd"},"vehicle_type_id":"4","last_reported":1742328558,"current_range_meters":6800,"station_id":"ce4bh0p2rcd13ifvqd80","pricing_plan_id":"cebpf4jnsgd1na2vs0mg"},{"bike_id":"8fe7e33b-57fc-439c-ba02-015988635c80","system_id":"levelo_inurba_marseille","lat":43.27036,"lon":5.42266,"is_reserved":false,"is_disabled":true,"rental_uris":{"android":"levelo://app?vid=8fe7e33b-57fc-439c-ba02-015988635c80","ios":"levelo://app?vid=8fe7e33b-57fc-439c-ba02-015988635c80"},"vehicle_type_id":"4","last_reported":1742328558,"current_range_meters":6800,"station_id":"ce4bhk92rcd13ifvqgb0","pricing_plan_id":"cebpf4jnsgd1na2vs0mg"},{"bike_id":"e94b1f20-3e0e-4dcb-9056-1e4af333e85a","system_id":"levelo_inurba_marseille","lat":43.29185,"lon":5.39321,"is_reserved":false,"is_disabled":true,"rental_uris":{"android":"levelo://app?vid=e94b1f20-3e0e-4dcb-9056-1e4af333e85a","ios":"levelo://app?vid=e94b1f20-3e0e-4dcb-9056-1e4af333e85a"},"vehicle_type_id":"4","last_reported":1742328558,"current_range_meters":6800,"station_id":"ce4bh192rcd13ifvqdd0","pricing_plan_id":"cebpf4jnsgd1na2vs0mg"},{"bike_id":"46b7b196-117b-45e5-8a6b-bfbe13ec8756","system_id":"levelo_inurba_marseille","lat":43.27621,"lon":5.36107,"is_reserved":false,"is_disabled":false,"rental_uris":{"android":"levelo://app?vid=46b7b196-117b-45e5-8a6b-bfbe13ec8756","ios":"levelo://app?vid=46b7b196-117b-45e5-8a6b-bfbe13ec8756"},"vehicle_type_id":"4","last_reported":1742328558,"current_range_meters":6800,"station_id":"ce4bgj92rcd13ifvqbe0","pricing_plan_id":"cebpf4jnsgd1na2vs0mg"},{"bike_id":"8f4a1035-d582-466c-ad9f-703b302df8c4","system_id":"levelo_inurba_marseille","lat":43.32367,"lon":5.38895,"is_reserved":false,"is_disabled":false,"rental_uris":{"android":"levelo://app?vid=8f4a1035-d582-466c-ad9f-703b302df8c4","ios":"levelo://app?vid=8f4a1035-d582-466c-ad9f-703b302df8c4"},"vehicle_type_id":"4","last_reported":1742328558,"current_range_meters":6800,"station_id":"ce4bhqp2rcd13ifvqhog","pricing_plan_id":"cebpf4jnsgd1na2vs0mg"},{"bike_id":"6368f354-6da7-4884-a394-062f1a963ed6","system_id":"levelo_inurba_marseille","lat":43.293,"lon":5.42819,"is_reserved":false,"is_disabled":false,"rental_uris":{"android":"levelo://app?vid=6368f354-6da7-4884-a394-062f1a963ed6","ios":"levelo://app?vid=6368f354-6da7-4884-a394-062f1a963ed6"},"vehicle_type_id":"4","last_reported":1742328558,"current_range_meters":6800,"station_id":"","pricing_plan_id":"cebpf4jnsgd1na2vs0mg"},{"bike_id":"c293dc03-4f1c-4898-bb0b-c50d4575781f","system_id":"levelo_inurba_marseille","lat":43.29284,"lon":5.36842,"is_reserved":false,"is_disabled":false,"rental_uris":{"android":"levelo://app?vid=c293dc03-4f1c-4898-bb0b-c50d4575781f","ios":"levelo://app?vid=c293dc03-4f1c-4898-bb0b-c50d4575781f"},"vehicle_type_id":"4","last_reported":1742328558,"current_range_meters":7200,"station_id":"ce4bhbp2rcd13ifvqesg","pricing_plan_id":"cebpf4jnsgd1na2vs0mg"},{"bike_id":"cda151b1-4cec-47d4-8f00-eaccf7b5b463","system_id":"levelo_inurba_marseille","lat":43.299133,"lon":5.375578,"is_reserved":false,"is_disabled":false,"rental_uris":{"android":"levelo://app?vid=cda151b1-4cec-47d4-8f00-eaccf7b5b463","ios":"levelo://app?vid=cda151b1-4cec-47d4-8f00-eaccf7b5b463"},"vehicle_type_id":"4","last_reported":1742328558,"current_range_meters":7200,"station_id":"ce4bgjh2rcd13ifvqbg0","pricing_plan_id":"cebpf4jnsgd1na2vs0mg"},{"bike_id":"7c1ff0c1-54a4-4564-9a86-8c58e5af1b05","system_id":"levelo_inurba_marseille","lat":43.302627,"lon":5.376873,"is_reserved":false,"is_disabled":false,"rental_uris":{"android":"levelo://app?vid=7c1ff0c1-54a4-4564-9a86-8c58e5af1b05","ios":"levelo://app?vid=7c1ff0c1-54a4-4564-9a86-8c58e5af1b05"},"vehicle_type_id":"4","last_reported":1742328558,"current_range_meters":6800,"station_id":"ce4bguh2rcd13ifvqcj0","pricing_plan_id":"cebpf4jnsgd1na2vs0mg"},{"bike_id":"aea4ed7b-680a-4bb4-81d9-d2b0771cc8b2","system_id":"levelo_inurba_marseille","lat":43.27378,"lon":5.36266,"is_reserved":false,"is_disabled":false,"rental_uris":{"android":"levelo://app?vid=aea4ed7b-680a-4bb4-81d9-d2b0771cc8b2","ios":"levelo://app?vid=aea4ed7b-680a-4bb4-81d9-d2b0771cc8b2"},"vehicle_type_id":"4","last_reported":1742328558,"current_range_meters":7200,"station_id":"ce4bhbh2rcd13ifvqeo0","pricing_plan_id":"cebpf4jnsgd1na2vs0mg"},{"bike_id":"6e874661-bb50-4aba-b5e1-20f06a0b350d","system_id":"levelo_inurba_marseille","lat":43.30784,"lon":5.38124,"is_reserved":false,"is_disabled":false,"rental_uris":{"android":"levelo://app?vid=6e874661-bb50-4aba-b5e1-20f06a0b350d","ios":"levelo://app?vid=6e874661-bb50-4aba-b5e1-20f06a0b350d"},"vehicle_type_id":"4","last_reported":1742328558,"current_range_meters":7200,"station_id":"ce4bgt12rcd13ifvqce0","pricing_plan_id":"cebpf4jnsgd1na2vs0mg"},{"bike_id":"97a1e633-c2b3-487e-8569-9036bf18d175","system_id":"levelo_inurba_marseille","lat":43.24189,"lon":5.36398,"is_reserved":false,"is_disabled":false,"rental_uris":{"android":"levelo://app?vid=97a1e633-c2b3-487e-8569-9036bf18d175","ios":"levelo://app?vid=97a1e633-c2b3-487e-8569-9036bf18d175"},"vehicle_type_id":"4","last_reported":1742328558,"current_range_meters":7200,"station_id":"cpo36qri1sfpv3e86is0","pricing_plan_id":"cebpf4jnsgd1na2vs0mg"},{"bike_id":"a31c77d8-4378-47d6-8c3a-a5063f16fc9d","system_id":"levelo_inurba_marseille","lat":43.27838,"lon":5.4071,"is_reserved":false,"is_disabled":false,"rental_uris":{"android":"levelo://app?vid=a31c77d8-4378-47d6-8c3a-a5063f16fc9d","ios":"levelo://app?vid=a31c77d8-4378-47d6-8c3a-a5063f16fc9d"},"vehicle_type_id":"4","last_reported":1742328558,"current_range_meters":7200,"station_id":"ce4bhnh2rcd13ifvqgtg","pricing_plan_id":"cebpf4jnsgd1na2vs0mg"},{"bike_id":"94411861-9616-448f-9fde-fe5607357fee","system_id":"levelo_inurba_marseille","lat":43.28851,"lon":5.39305,"is_reserved":false,"is_disabled":false,"rental_uris":{"android":"levelo://app?vid=94411861-9616-448f-9fde-fe5607357fee","ios":"levelo://app?vid=94411861-9616-448f-9fde-fe5607357fee"},"vehicle_type_id":"4","last_reported":1742328558,"current_range_meters":7200,"station_id":"ce4bh2p2rcd13ifvqdi0","pricing_plan_id":"cebpf4jnsgd1na2vs0mg"},{"bike_id":"6d4a53c9-cb6e-4621-800e-fff3aef83605","system_id":"levelo_inurba_marseille","lat":43.305363,"lon":5.367412,"is_reserved":false,"is_disabled":false,"rental_uris":{"android":"levelo://app?vid=6d4a53c9-cb6e-4621-800e-fff3aef83605","ios":"levelo://app?vid=6d4a53c9-cb6e-4621-800e-fff3aef83605"},"vehicle_type_id":"4","last_reported":1742328558,"current_range_meters":7200,"station_id":"ce4bgrp2rcd13ifvqc9g","pricing_plan_id":"cebpf4jnsgd1na2vs0mg"},{"bike_id":"c848e6bc-f2b3-48a5-9ba5-f3ecb77266a6","system_id":"levelo_inurba_marseille","lat":43.27323,"lon":5.39126,"is_reserved":false,"is_disabled":true,"rental_uris":{"android":"levelo://app?vid=c848e6bc-f2b3-48a5-9ba5-f3ecb77266a6","ios":"levelo://app?vid=c848e6bc-f2b3-48a5-9ba5-f3ecb77266a6"},"vehicle_type_id":"4","last_reported":1742328558,"current_range_meters":7200,"station_id":"ce4bhgp2rcd13ifvqfe0","pricing_plan_id":"cebpf4jnsgd1na2vs0mg"},{"bike_id":"f72f4ae2-f6e9-495d-9f2b-9d211c7fdd4f","system_id":"levelo_inurba_marseille","lat":43.29941,"lon":5.36525,"is_reserved":false,"is_disabled":false,"rental_uris":{"android":"levelo://app?vid=f72f4ae2-f6e9-495d-9f2b-9d211c7fdd4f","ios":"levelo://app?vid=f72f4ae2-f6e9-495d-9f2b-9d211c7fdd4f"},"vehicle_type_id":"4","last_reported":1742328558,"current_range_meters":7200,"station_id":"ce4bgm92rcd13ifvqbr0","pricing_plan_id":"cebpf4jnsgd1na2vs0mg"},{"bike_id":"10b17d45-81b5-40a2-938b-cc817dd1eaf7","system_id":"levelo_inurba_marseille","lat":43.24991,"lon":5.38935,"is_reserved":false,"is_disabled":true,"rental_uris":{"android":"levelo://app?vid=10b17d45-81b5-40a2-938b-cc817dd1eaf7","ios":"levelo://app?vid=10b17d45-81b5-40a2-938b-cc817dd1eaf7"},"vehicle_type_id":"4","last_reported":1742328558,"current_range_meters":7200,"station_id":"ce4bhgp2rcd13ifvqfd0","pricing_plan_id":"cebpf4jnsgd1na2vs0mg"},{"bike_id":"8a4e1b2e-8fac-480b-a668-ef6a620a9814","system_id":"levelo_inurba_marseille","lat":43.27875,"lon":5.42441,"is_reserved":false,"is_disabled":false,"rental_uris":{"android":"levelo://app?vid=8a4e1b2e-8fac-480b-a668-ef6a620a9814","ios":"levelo://app?vid=8a4e1b2e-8fac-480b-a668-ef6a620a9814"},"vehicle_type_id":"4","last_reported":1742328558,"current_range_meters":7200,"station_id":"","pricing_plan_id":"cebpf4jnsgd1na2vs0mg"},{"bike_id":"9e90ae8e-7504-4d17-bcea-8a3a806794c2","system_id":"levelo_inurba_marseille","lat":43.29284,"lon":5.40127,"is_reserved":false,"is_disabled":false,"rental_uris":{"android":"levelo://app?vid=9e90ae8e-7504-4d17-bcea-8a3a806794c2","ios":"levelo://app?vid=9e90ae8e-7504-4d17-bcea-8a3a806794c2"},"vehicle_type_id":"4","last_reported":1742328558,"current_range_meters":7200,"station_id":"ce4bh312rcd13ifvqdk0","pricing_plan_id":"cebpf4jnsgd1na2vs0mg"},{"bike_id":"9a172527-b7d7-4b90-8d28-968333373a4f","system_id":"levelo_inurba_marseille","lat":43.26496,"lon":5.39543,"is_reserved":false,"is_disabled":false,"rental_uris":{"android":"levelo://app?vid=9a172527-b7d7-4b90-8d28-968333373a4f","ios":"levelo://app?vid=9a172527-b7d7-4b90-8d28-968333373a4f"},"vehicle_type_id":"4","last_reported":1742328558,"current_range_meters":7200,"station_id":"ce4bhi12rcd13ifvqfq0","pricing_plan_id":"cebpf4jnsgd1na2vs0mg"},{"bike_id":"0940a97a-548e-40c5-a3c4-883dcf48bbb7","system_id":"levelo_inurba_marseille","lat":43.27946,"lon":5.410463,"is_reserved":false,"is_disabled":false,"rental_uris":{"android":"levelo://app?vid=0940a97a-548e-40c5-a3c4-883dcf48bbb7","ios":"levelo://app?vid=0940a97a-548e-40c5-a3c4-883dcf48bbb7"},"vehicle_type_id":"4","last_reported":1742328558,"current_range_meters":7200,"station_id":"ce4bhnp2rcd13ifvqh0g","pricing_plan_id":"cebpf4jnsgd1na2vs0mg"},{"bike_id":"effa4a25-70e2-4b36-b85f-2dfad7e52e85","system_id":"levelo_inurba_marseille","lat":43.25592,"lon":5.38278,"is_reserved":false,"is_disabled":false,"rental_uris":{"android":"levelo://app?vid=effa4a25-70e2-4b36-b85f-2dfad7e52e85","ios":"levelo://app?vid=effa4a25-70e2-4b36-b85f-2dfad7e52e85"},"vehicle_type_id":"4","last_reported":1742328558,"current_range_meters":8000,"station_id":"ce4bhih2rcd13ifvqfs0","pricing_plan_id":"cebpf4jnsgd1na2vs0mg"},{"bike_id":"4074eb63-3c40-43e7-86d2-af79b4dc3efb","system_id":"levelo_inurba_marseille","lat":43.29862,"lon":5.36299,"is_reserved":false,"is_disabled":false,"rental_uris":{"android":"levelo://app?vid=4074eb63-3c40-43e7-86d2-af79b4dc3efb","ios":"levelo://app?vid=4074eb63-3c40-43e7-86d2-af79b4dc3efb"},"vehicle_type_id":"4","last_reported":1742328558,"current_range_meters":8000,"station_id":"ce4bgpp2rcd13ifvqc3g","pricing_plan_id":"cebpf4jnsgd1na2vs0mg"},{"bike_id":"b1d9f1af-d8f9-4b97-a270-4bf890a49af9","system_id":"levelo_inurba_marseille","lat":43.28428,"lon":5.37519,"is_reserved":false,"is_disabled":false,"rental_uris":{"android":"levelo://app?vid=b1d9f1af-d8f9-4b97-a270-4bf890a49af9","ios":"levelo://app?vid=b1d9f1af-d8f9-4b97-a270-4bf890a49af9"},"vehicle_type_id":"4","last_reported":1742328558,"current_range_meters":8000,"station_id":"ce4bh412rcd13ifvqds0","pricing_plan_id":"cebpf4jnsgd1na2vs0mg"},{"bike_id":"5c50b3bb-2a4b-4fc8-b273-bbfda62e2ea6","system_id":"levelo_inurba_marseille","lat":43.27965,"lon":5.38733,"is_reserved":false,"is_disabled":false,"rental_uris":{"android":"levelo://app?vid=5c50b3bb-2a4b-4fc8-b273-bbfda62e2ea6","ios":"levelo://app?vid=5c50b3bb-2a4b-4fc8-b273-bbfda62e2ea6"},"vehicle_type_id":"4","last_reported":1742328558,"current_range_meters":8000,"station_id":"ce4bhg12rcd13ifvqf80","pricing_plan_id":"cebpf4jnsgd1na2vs0mg"},{"bike_id":"11ae9a5e-0a71-4a20-9502-08d6db110e90","system_id":"levelo_inurba_marseille","lat":43.22927,"lon":5.35384,"is_reserved":false,"is_disabled":false,"rental_uris":{"android":"levelo://app?vid=11ae9a5e-0a71-4a20-9502-08d6db110e90","ios":"levelo://app?vid=11ae9a5e-0a71-4a20-9502-08d6db110e90"},"vehicle_type_id":"4","last_reported":1742328558,"current_range_meters":8000,"station_id":"cpo3532slgdg3j2ikp40","pricing_plan_id":"cebpf4jnsgd1na2vs0mg"},{"bike_id":"52bd4f14-775f-459f-9791-851d088e69cb","system_id":"levelo_inurba_marseille","lat":43.25007,"lon":5.38941,"is_reserved":false,"is_disabled":false,"rental_uris":{"android":"levelo://app?vid=52bd4f14-775f-459f-9791-851d088e69cb","ios":"levelo://app?vid=52bd4f14-775f-459f-9791-851d088e69cb"},"vehicle_type_id":"4","last_reported":1742328558,"current_range_meters":8000,"station_id":"ce4bhgp2rcd13ifvqfd0","pricing_plan_id":"cebpf4jnsgd1na2vs0mg"},{"bike_id":"05f500f2-ae0f-4f51-b308-035cc001963c","system_id":"levelo_inurba_marseille","lat":43.27817,"lon":5.40706,"is_reserved":false,"is_disabled":false,"rental_uris":{"android":"levelo://app?vid=05f500f2-ae0f-4f51-b308-035cc001963c","ios":"levelo://app?vid=05f500f2-ae0f-4f51-b308-035cc001963c"},"vehicle_type_id":"4","last_reported":1742328558,"current_range_meters":8000,"station_id":"ce4bhnh2rcd13ifvqgtg","pricing_plan_id":"cebpf4jnsgd1na2vs0mg"},{"bike_id":"49bff616-efb8-4b48-a2c1-4eec17ed2b11","system_id":"levelo_inurba_marseille","lat":43.2872,"lon":5.37937,"is_reserved":false,"is_disabled":false,"rental_uris":{"android":"levelo://app?vid=49bff616-efb8-4b48-a2c1-4eec17ed2b11","ios":"levelo://app?vid=49bff616-efb8-4b48-a2c1-4eec17ed2b11"},"vehicle_type_id":"4","last_reported":1742328558,"current_range_meters":8000,"station_id":"ce4bh9p2rcd13ifvqec0","pricing_plan_id":"cebpf4jnsgd1na2vs0mg"},{"bike_id":"9e3395a2-90d5-44bb-aa3c-c314309d566d","system_id":"levelo_inurba_marseille","lat":43.29192,"lon":5.39322,"is_reserved":false,"is_disabled":false,"rental_uris":{"android":"levelo://app?vid=9e3395a2-90d5-44bb-aa3c-c314309d566d","ios":"levelo://app?vid=9e3395a2-90d5-44bb-aa3c-c314309d566d"},"vehicle_type_id":"4","last_reported":1742328558,"current_range_meters":8000,"station_id":"ce4bh192rcd13ifvqdd0","pricing_plan_id":"cebpf4jnsgd1na2vs0mg"},{"bike_id":"4b876a03-31ab-40ae-bcaa-5a39cf718f0a","system_id":"levelo_inurba_marseille","lat":43.3127,"lon":5.4017,"is_reserved":false,"is_disabled":false,"rental_uris":{"android":"levelo://app?vid=4b876a03-31ab-40ae-bcaa-5a39cf718f0a","ios":"levelo://app?vid=4b876a03-31ab-40ae-bcaa-5a39cf718f0a"},"vehicle_type_id":"4","last_reported":1742328558,"current_range_meters":8000,"station_id":"ce4bh092rcd13ifvqd30","pricing_plan_id":"cebpf4jnsgd1na2vs0mg"},{"bike_id":"a3fec295-68aa-470d-940b-bfa62c541ae0","system_id":"levelo_inurba_marseille","lat":43.26562,"lon":5.39022,"is_reserved":false,"is_disabled":false,"rental_uris":{"android":"levelo://app?vid=a3fec295-68aa-470d-940b-bfa62c541ae0","ios":"levelo://app?vid=a3fec295-68aa-470d-940b-bfa62c541ae0"},"vehicle_type_id":"4","last_reported":1742328558,"current_range_meters":8000,"station_id":"ce4bhe12rcd13ifvqf30","pricing_plan_id":"cebpf4jnsgd1na2vs0mg"},{"bike_id":"8b58540f-1057-48ac-95ef-922b5f2bd2a2","system_id":"levelo_inurba_marseille","lat":43.28459,"lon":5.35918,"is_reserved":false,"is_disabled":false,"rental_uris":{"android":"levelo://app?vid=8b58540f-1057-48ac-95ef-922b5f2bd2a2","ios":"levelo://app?vid=8b58540f-1057-48ac-95ef-922b5f2bd2a2"},"vehicle_type_id":"4","last_reported":1742328558,"current_range_meters":8000,"station_id":"ce4bhah2rcd13ifvqei0","pricing_plan_id":"cebpf4jnsgd1na2vs0mg"},{"bike_id":"9c47177a-7452-479f-9af2-f5dddd6db58b","system_id":"levelo_inurba_marseille","lat":43.33032,"lon":5.39044,"is_reserved":false,"is_disabled":false,"rental_uris":{"android":"levelo://app?vid=9c47177a-7452-479f-9af2-f5dddd6db58b","ios":"levelo://app?vid=9c47177a-7452-479f-9af2-f5dddd6db58b"},"vehicle_type_id":"4","last_reported":1742328558,"current_range_meters":8000,"station_id":"ce4bhr92rcd13ifvqhrg","pricing_plan_id":"cebpf4jnsgd1na2vs0mg"},{"bike_id":"7ede1117-0ee2-4e08-ba3a-91b9acbb43a5","system_id":"levelo_inurba_marseille","lat":43.31073,"lon":5.38357,"is_reserved":false,"is_disabled":false,"rental_uris":{"android":"levelo://app?vid=7ede1117-0ee2-4e08-ba3a-91b9acbb43a5","ios":"levelo://app?vid=7ede1117-0ee2-4e08-ba3a-91b9acbb43a5"},"vehicle_type_id":"4","last_reported":1742328558,"current_range_meters":8000,"station_id":"ce4bgv92rcd13ifvqcr0","pricing_plan_id":"cebpf4jnsgd1na2vs0mg"},{"bike_id":"3828e816-4588-4d32-967e-7a5ab5d6801f","system_id":"levelo_inurba_marseille","lat":43.30209,"lon":5.39474,"is_reserved":false,"is_disabled":false,"rental_uris":{"android":"levelo://app?vid=3828e816-4588-4d32-967e-7a5ab5d6801f","ios":"levelo://app?vid=3828e816-4588-4d32-967e-7a5ab5d6801f"},"vehicle_type_id":"4","last_reported":1742328558,"current_range_meters":8400,"station_id":"ce4bh0p2rcd13ifvqd70","pricing_plan_id":"cebpf4jnsgd1na2vs0mg"},{"bike_id":"708eced1-c5ef-4bbe-a71a-5e35e95f71c3","system_id":"levelo_inurba_marseille","lat":43.30804,"lon":5.38156,"is_reserved":false,"is_disabled":false,"rental_uris":{"android":"levelo://app?vid=708eced1-c5ef-4bbe-a71a-5e35e95f71c3","ios":"levelo://app?vid=708eced1-c5ef-4bbe-a71a-5e35e95f71c3"},"vehicle_type_id":"4","last_reported":1742328558,"current_range_meters":8400,"station_id":"ce4bgt12rcd13ifvqce0","pricing_plan_id":"cebpf4jnsgd1na2vs0mg"},{"bike_id":"d0ecd06f-b344-485c-8550-9fa5bf448f53","system_id":"levelo_inurba_marseille","lat":43.25829,"lon":5.3945,"is_reserved":false,"is_disabled":false,"rental_uris":{"android":"levelo://app?vid=d0ecd06f-b344-485c-8550-9fa5bf448f53","ios":"levelo://app?vid=d0ecd06f-b344-485c-8550-9fa5bf448f53"},"vehicle_type_id":"4","last_reported":1742328558,"current_range_meters":8800,"station_id":"ce4bhip2rcd13ifvqft0","pricing_plan_id":"cebpf4jnsgd1na2vs0mg"},{"bike_id":"5cc7107b-4638-44b7-9016-fb56a8137a82","system_id":"levelo_inurba_marseille","lat":43.33017,"lon":5.39062,"is_reserved":false,"is_disabled":false,"rental_uris":{"android":"levelo://app?vid=5cc7107b-4638-44b7-9016-fb56a8137a82","ios":"levelo://app?vid=5cc7107b-4638-44b7-9016-fb56a8137a82"},"vehicle_type_id":"4","last_reported":1742328558,"current_range_meters":8400,"station_id":"ce4bhr92rcd13ifvqhrg","pricing_plan_id":"cebpf4jnsgd1na2vs0mg"},{"bike_id":"15645d94-7469-4019-9aed-16b0915fbe2f","system_id":"levelo_inurba_marseille","lat":43.32852,"lon":5.39176,"is_reserved":false,"is_disabled":false,"rental_uris":{"android":"levelo://app?vid=15645d94-7469-4019-9aed-16b0915fbe2f","ios":"levelo://app?vid=15645d94-7469-4019-9aed-16b0915fbe2f"},"vehicle_type_id":"4","last_reported":1742328558,"current_range_meters":8400,"station_id":"","pricing_plan_id":"cebpf4jnsgd1na2vs0mg"},{"bike_id":"8bfc242c-df93-4661-bdab-462c9f15b0d7","system_id":"levelo_inurba_marseille","lat":43.31189,"lon":5.38702,"is_reserved":false,"is_disabled":false,"rental_uris":{"android":"levelo://app?vid=8bfc242c-df93-4661-bdab-462c9f15b0d7","ios":"levelo://app?vid=8bfc242c-df93-4661-bdab-462c9f15b0d7"},"vehicle_type_id":"4","last_reported":1742328558,"current_range_meters":8400,"station_id":"ce4bgv12rcd13ifvqcp0","pricing_plan_id":"cebpf4jnsgd1na2vs0mg"},{"bike_id":"08228a0c-dded-4641-bd4d-c9368cc8bc2e","system_id":"levelo_inurba_marseille","lat":43.25599,"lon":5.38245,"is_reserved":false,"is_disabled":false,"rental_uris":{"android":"levelo://app?vid=08228a0c-dded-4641-bd4d-c9368cc8bc2e","ios":"levelo://app?vid=08228a0c-dded-4641-bd4d-c9368cc8bc2e"},"vehicle_type_id":"4","last_reported":1742328558,"current_range_meters":8400,"station_id":"ce4bhih2rcd13ifvqfs0","pricing_plan_id":"cebpf4jnsgd1na2vs0mg"},{"bike_id":"38233fcc-45aa-475d-b774-1f1525a8fb6d","system_id":"levelo_inurba_marseille","lat":43.26074,"lon":5.39351,"is_reserved":false,"is_disabled":false,"rental_uris":{"android":"levelo://app?vid=38233fcc-45aa-475d-b774-1f1525a8fb6d","ios":"levelo://app?vid=38233fcc-45aa-475d-b774-1f1525a8fb6d"},"vehicle_type_id":"4","last_reported":1742328558,"current_range_meters":8400,"station_id":"ce4bhh92rcd13ifvqfj0","pricing_plan_id":"cebpf4jnsgd1na2vs0mg"},{"bike_id":"ab958f0d-4610-4713-b613-2b876456af05","system_id":"levelo_inurba_marseille","lat":43.30432,"lon":5.3975,"is_reserved":false,"is_disabled":false,"rental_uris":{"android":"levelo://app?vid=ab958f0d-4610-4713-b613-2b876456af05","ios":"levelo://app?vid=ab958f0d-4610-4713-b613-2b876456af05"},"vehicle_type_id":"4","last_reported":1742328558,"current_range_meters":8400,"station_id":"ce4bh092rcd13ifvqd20","pricing_plan_id":"cebpf4jnsgd1na2vs0mg"},{"bike_id":"c615b7dd-2094-4974-82b8-2a84922ae42d","system_id":"levelo_inurba_marseille","lat":43.255,"lon":5.37686,"is_reserved":false,"is_disabled":false,"rental_uris":{"android":"levelo://app?vid=c615b7dd-2094-4974-82b8-2a84922ae42d","ios":"levelo://app?vid=c615b7dd-2094-4974-82b8-2a84922ae42d"},"vehicle_type_id":"4","last_reported":1742328558,"current_range_meters":8400,"station_id":"ce4bhh12rcd13ifvqff0","pricing_plan_id":"cebpf4jnsgd1na2vs0mg"},{"bike_id":"8f79f3b7-6513-4def-bb2d-05a7d82b97a5","system_id":"levelo_inurba_marseille","lat":43.2417,"lon":5.36402,"is_reserved":false,"is_disabled":false,"rental_uris":{"android":"levelo://app?vid=8f79f3b7-6513-4def-bb2d-05a7d82b97a5","ios":"levelo://app?vid=8f79f3b7-6513-4def-bb2d-05a7d82b97a5"},"vehicle_type_id":"4","last_reported":1742328558,"current_range_meters":8400,"station_id":"cpo36qri1sfpv3e86is0","pricing_plan_id":"cebpf4jnsgd1na2vs0mg"},{"bike_id":"faccb755-09d8-4857-a76e-a52465dbf53e","system_id":"levelo_inurba_marseille","lat":43.28435,"lon":5.34971,"is_reserved":false,"is_disabled":false,"rental_uris":{"android":"levelo://app?vid=faccb755-09d8-4857-a76e-a52465dbf53e","ios":"levelo://app?vid=faccb755-09d8-4857-a76e-a52465dbf53e"},"vehicle_type_id":"4","last_reported":1742328558,"current_range_meters":8800,"station_id":"ce4bhbh2rcd13ifvqepg","pricing_plan_id":"cebpf4jnsgd1na2vs0mg"},{"bike_id":"0b60e72b-d8b1-4266-9b63-b94b87c1ad4b","system_id":"levelo_inurba_marseille","lat":43.23202,"lon":5.39988,"is_reserved":false,"is_disabled":false,"rental_uris":{"android":"levelo://app?vid=0b60e72b-d8b1-4266-9b63-b94b87c1ad4b","ios":"levelo://app?vid=0b60e72b-d8b1-4266-9b63-b94b87c1ad4b"},"vehicle_type_id":"4","last_reported":1742328558,"current_range_meters":8800,"station_id":"ce4bhn12rcd13ifvqgqg","pricing_plan_id":"cebpf4jnsgd1na2vs0mg"},{"bike_id":"bf851786-cfd2-4b4a-a4f0-07ea47005cae","system_id":"levelo_inurba_marseille","lat":43.24809,"lon":5.37451,"is_reserved":false,"is_disabled":false,"rental_uris":{"android":"levelo://app?vid=bf851786-cfd2-4b4a-a4f0-07ea47005cae","ios":"levelo://app?vid=bf851786-cfd2-4b4a-a4f0-07ea47005cae"},"vehicle_type_id":"4","last_reported":1742328558,"current_range_meters":8800,"station_id":"ce4bhgh2rcd13ifvqfb0","pricing_plan_id":"cebpf4jnsgd1na2vs0mg"},{"bike_id":"f8e329e0-c5dd-4c4c-baeb-f2151696dbb0","system_id":"levelo_inurba_marseille","lat":43.27068,"lon":5.42282,"is_reserved":false,"is_disabled":false,"rental_uris":{"android":"levelo://app?vid=f8e329e0-c5dd-4c4c-baeb-f2151696dbb0","ios":"levelo://app?vid=f8e329e0-c5dd-4c4c-baeb-f2151696dbb0"},"vehicle_type_id":"4","last_reported":1742328558,"current_range_meters":8800,"station_id":"ce4bhk92rcd13ifvqgb0","pricing_plan_id":"cebpf4jnsgd1na2vs0mg"},{"bike_id":"87abaf66-9fc5-4cf1-84c5-1f3afd52d3df","system_id":"levelo_inurba_marseille","lat":43.24839,"lon":5.37469,"is_reserved":false,"is_disabled":false,"rental_uris":{"android":"levelo://app?vid=87abaf66-9fc5-4cf1-84c5-1f3afd52d3df","ios":"levelo://app?vid=87abaf66-9fc5-4cf1-84c5-1f3afd52d3df"},"vehicle_type_id":"4","last_reported":1742328558,"current_range_meters":8800,"station_id":"","pricing_plan_id":"cebpf4jnsgd1na2vs0mg"},{"bike_id":"5e244767-2fd5-4cae-9f0c-0a11498d0074","system_id":"levelo_inurba_marseille","lat":43.27497,"lon":5.4246,"is_reserved":false,"is_disabled":false,"rental_uris":{"android":"levelo://app?vid=5e244767-2fd5-4cae-9f0c-0a11498d0074","ios":"levelo://app?vid=5e244767-2fd5-4cae-9f0c-0a11498d0074"},"vehicle_type_id":"4","last_reported":1742328558,"current_range_meters":8800,"station_id":"ce4bhn92rcd13ifvqgrg","pricing_plan_id":"cebpf4jnsgd1na2vs0mg"},{"bike_id":"36fb4b2b-ae6b-4219-bfb3-0ac52e0b187b","system_id":"levelo_inurba_marseille","lat":43.3133,"lon":5.39691,"is_reserved":false,"is_disabled":false,"rental_uris":{"android":"levelo://app?vid=36fb4b2b-ae6b-4219-bfb3-0ac52e0b187b","ios":"levelo://app?vid=36fb4b2b-ae6b-4219-bfb3-0ac52e0b187b"},"vehicle_type_id":"4","last_reported":1742328558,"current_range_meters":8800,"station_id":"ce4bgvp2rcd13ifvqcu0","pricing_plan_id":"cebpf4jnsgd1na2vs0mg"},{"bike_id":"01ec6899-9e70-425a-a91b-c49e5fc36660","system_id":"levelo_inurba_marseille","lat":43.24819,"lon":5.37476,"is_reserved":false,"is_disabled":false,"rental_uris":{"android":"levelo://app?vid=01ec6899-9e70-425a-a91b-c49e5fc36660","ios":"levelo://app?vid=01ec6899-9e70-425a-a91b-c49e5fc36660"},"vehicle_type_id":"4","last_reported":1742328558,"current_range_meters":8800,"station_id":"ce4bhgh2rcd13ifvqfb0","pricing_plan_id":"cebpf4jnsgd1na2vs0mg"},{"bike_id":"049b5602-ba3f-4a09-ad40-b8c54e6f1cb6","system_id":"levelo_inurba_marseille","lat":43.25008,"lon":5.38922,"is_reserved":false,"is_disabled":true,"rental_uris":{"android":"levelo://app?vid=049b5602-ba3f-4a09-ad40-b8c54e6f1cb6","ios":"levelo://app?vid=049b5602-ba3f-4a09-ad40-b8c54e6f1cb6"},"vehicle_type_id":"4","last_reported":1742328558,"current_range_meters":8800,"station_id":"ce4bhgp2rcd13ifvqfd0","pricing_plan_id":"cebpf4jnsgd1na2vs0mg"},{"bike_id":"b73118fa-b0b5-4061-8fd0-7185cc8f81b6","system_id":"levelo_inurba_marseille","lat":43.30294,"lon":5.39205,"is_reserved":false,"is_disabled":false,"rental_uris":{"android":"levelo://app?vid=b73118fa-b0b5-4061-8fd0-7185cc8f81b6","ios":"levelo://app?vid=b73118fa-b0b5-4061-8fd0-7185cc8f81b6"},"vehicle_type_id":"4","last_reported":1742328558,"current_range_meters":8800,"station_id":"ce4bgkh2rcd13ifvqbk0","pricing_plan_id":"cebpf4jnsgd1na2vs0mg"},{"bike_id":"6dc31427-c20a-42ce-ad83-60b8fc1abe41","system_id":"levelo_inurba_marseille","lat":43.29031,"lon":5.38658,"is_reserved":false,"is_disabled":false,"rental_uris":{"android":"levelo://app?vid=6dc31427-c20a-42ce-ad83-60b8fc1abe41","ios":"levelo://app?vid=6dc31427-c20a-42ce-ad83-60b8fc1abe41"},"vehicle_type_id":"4","last_reported":1742328558,"current_range_meters":8800,"station_id":"ce4bh4p2rcd13ifvqe0g","pricing_plan_id":"cebpf4jnsgd1na2vs0mg"},{"bike_id":"2fc9495d-c829-4229-a4db-5c8674880d7a","system_id":"levelo_inurba_marseille","lat":43.23078,"lon":5.355,"is_reserved":false,"is_disabled":false,"rental_uris":{"android":"levelo://app?vid=2fc9495d-c829-4229-a4db-5c8674880d7a","ios":"levelo://app?vid=2fc9495d-c829-4229-a4db-5c8674880d7a"},"vehicle_type_id":"4","last_reported":1742328558,"current_range_meters":8800,"station_id":"cpo3342slgdg3j2ifvpg","pricing_plan_id":"cebpf4jnsgd1na2vs0mg"},{"bike_id":"d6e009b3-7f60-4e54-a5a6-c4d9a6136800","system_id":"levelo_inurba_marseille","lat":43.31124,"lon":5.37773,"is_reserved":false,"is_disabled":false,"rental_uris":{"android":"levelo://app?vid=d6e009b3-7f60-4e54-a5a6-c4d9a6136800","ios":"levelo://app?vid=d6e009b3-7f60-4e54-a5a6-c4d9a6136800"},"vehicle_type_id":"4","last_reported":1742328558,"current_range_meters":8800,"station_id":"ce4bgt92rcd13ifvqcg0","pricing_plan_id":"cebpf4jnsgd1na2vs0mg"},{"bike_id":"600ff7aa-6047-40f1-8a8b-967929044234","system_id":"levelo_inurba_marseille","lat":43.28923,"lon":5.38403,"is_reserved":false,"is_disabled":false,"rental_uris":{"android":"levelo://app?vid=600ff7aa-6047-40f1-8a8b-967929044234","ios":"levelo://app?vid=600ff7aa-6047-40f1-8a8b-967929044234"},"vehicle_type_id":"4","last_reported":1742328558,"current_range_meters":8800,"station_id":"ce4bh612rcd13ifvqe6g","pricing_plan_id":"cebpf4jnsgd1na2vs0mg"},{"bike_id":"244972ac-6b8e-496c-8ff7-a07dcecb25e0","system_id":"levelo_inurba_marseille","lat":43.28079,"lon":5.39646,"is_reserved":false,"is_disabled":false,"rental_uris":{"android":"levelo://app?vid=244972ac-6b8e-496c-8ff7-a07dcecb25e0","ios":"levelo://app?vid=244972ac-6b8e-496c-8ff7-a07dcecb25e0"},"vehicle_type_id":"4","last_reported":1742328558,"current_range_meters":8800,"station_id":"ce4bho12rcd13ifvqh2g","pricing_plan_id":"cebpf4jnsgd1na2vs0mg"},{"bike_id":"6ae6f76c-6a01-4d75-9d3f-dfa610803a78","system_id":"levelo_inurba_marseille","lat":43.23062,"lon":5.35494,"is_reserved":false,"is_disabled":false,"rental_uris":{"android":"levelo://app?vid=6ae6f76c-6a01-4d75-9d3f-dfa610803a78","ios":"levelo://app?vid=6ae6f76c-6a01-4d75-9d3f-dfa610803a78"},"vehicle_type_id":"4","last_reported":1742328558,"current_range_meters":9200,"station_id":"cpo3342slgdg3j2ifvpg","pricing_plan_id":"cebpf4jnsgd1na2vs0mg"},{"bike_id":"519efbbc-7577-4063-8eac-658ef30e98a3","system_id":"levelo_inurba_marseille","lat":43.25007,"lon":5.38916,"is_reserved":false,"is_disabled":false,"rental_uris":{"android":"levelo://app?vid=519efbbc-7577-4063-8eac-658ef30e98a3","ios":"levelo://app?vid=519efbbc-7577-4063-8eac-658ef30e98a3"},"vehicle_type_id":"4","last_reported":1742328558,"current_range_meters":9200,"station_id":"ce4bhgp2rcd13ifvqfd0","pricing_plan_id":"cebpf4jnsgd1na2vs0mg"},{"bike_id":"253fce13-8607-4f2f-839f-40104be19b05","system_id":"levelo_inurba_marseille","lat":43.23964,"lon":5.36632,"is_reserved":false,"is_disabled":false,"rental_uris":{"android":"levelo://app?vid=253fce13-8607-4f2f-839f-40104be19b05","ios":"levelo://app?vid=253fce13-8607-4f2f-839f-40104be19b05"},"vehicle_type_id":"4","last_reported":1742328558,"current_range_meters":9200,"station_id":"ce4bhi12rcd13ifvqfp0","pricing_plan_id":"cebpf4jnsgd1na2vs0mg"},{"bike_id":"bbf5da56-5845-424e-84cd-e22af187a017","system_id":"levelo_inurba_marseille","lat":43.29243,"lon":5.40912,"is_reserved":false,"is_disabled":false,"rental_uris":{"android":"levelo://app?vid=bbf5da56-5845-424e-84cd-e22af187a017","ios":"levelo://app?vid=bbf5da56-5845-424e-84cd-e22af187a017"},"vehicle_type_id":"4","last_reported":1742328558,"current_range_meters":9200,"station_id":"ce4bh192rcd13ifvqdc0","pricing_plan_id":"cebpf4jnsgd1na2vs0mg"},{"bike_id":"17bf02ea-1340-4fa3-9520-406736d267b6","system_id":"levelo_inurba_marseille","lat":43.23059,"lon":5.35495,"is_reserved":false,"is_disabled":false,"rental_uris":{"android":"levelo://app?vid=17bf02ea-1340-4fa3-9520-406736d267b6","ios":"levelo://app?vid=17bf02ea-1340-4fa3-9520-406736d267b6"},"vehicle_type_id":"4","last_reported":1742328558,"current_range_meters":9200,"station_id":"cpo3342slgdg3j2ifvpg","pricing_plan_id":"cebpf4jnsgd1na2vs0mg"},{"bike_id":"b903206e-a905-44cb-a500-c0a4daae82d9","system_id":"levelo_inurba_marseille","lat":43.29052,"lon":5.38647,"is_reserved":false,"is_disabled":true,"rental_uris":{"android":"levelo://app?vid=b903206e-a905-44cb-a500-c0a4daae82d9","ios":"levelo://app?vid=b903206e-a905-44cb-a500-c0a4daae82d9"},"vehicle_type_id":"4","last_reported":1742328558,"current_range_meters":9200,"station_id":"ce4bh4p2rcd13ifvqe0g","pricing_plan_id":"cebpf4jnsgd1na2vs0mg"},{"bike_id":"3bff80ec-e94e-42a9-988b-9e0817493bec","system_id":"levelo_inurba_marseille","lat":43.23201,"lon":5.35554,"is_reserved":false,"is_disabled":false,"rental_uris":{"android":"levelo://app?vid=3bff80ec-e94e-42a9-988b-9e0817493bec","ios":"levelo://app?vid=3bff80ec-e94e-42a9-988b-9e0817493bec"},"vehicle_type_id":"4","last_reported":1742328558,"current_range_meters":9200,"station_id":"ce4bhu92rcd13ifvqi70","pricing_plan_id":"cebpf4jnsgd1na2vs0mg"},{"bike_id":"6030d9ab-0922-4379-becd-b3eabfbbef90","system_id":"levelo_inurba_marseille","lat":43.24096,"lon":5.37748,"is_reserved":false,"is_disabled":false,"rental_uris":{"android":"levelo://app?vid=6030d9ab-0922-4379-becd-b3eabfbbef90","ios":"levelo://app?vid=6030d9ab-0922-4379-becd-b3eabfbbef90"},"vehicle_type_id":"4","last_reported":1742328558,"current_range_meters":9200,"station_id":"ce4bhnp2rcd13ifvqgvg","pricing_plan_id":"cebpf4jnsgd1na2vs0mg"},{"bike_id":"d1069439-00e9-4aad-ad31-ab5b44b63348","system_id":"levelo_inurba_marseille","lat":43.31709,"lon":5.40453,"is_reserved":false,"is_disabled":true,"rental_uris":{"android":"levelo://app?vid=d1069439-00e9-4aad-ad31-ab5b44b63348","ios":"levelo://app?vid=d1069439-00e9-4aad-ad31-ab5b44b63348"},"vehicle_type_id":"4","last_reported":1742328558,"current_range_meters":9200,"station_id":"ce4bh012rcd13ifvqd00","pricing_plan_id":"cebpf4jnsgd1na2vs0mg"},{"bike_id":"14c676b9-fd4a-4153-aaaf-2973addc24fb","system_id":"levelo_inurba_marseille","lat":43.28693,"lon":5.38665,"is_reserved":false,"is_disabled":false,"rental_uris":{"android":"levelo://app?vid=14c676b9-fd4a-4153-aaaf-2973addc24fb","ios":"levelo://app?vid=14c676b9-fd4a-4153-aaaf-2973addc24fb"},"vehicle_type_id":"4","last_reported":1742328558,"current_range_meters":9200,"station_id":"ce4bh492rcd13ifvqdug","pricing_plan_id":"cebpf4jnsgd1na2vs0mg"},{"bike_id":"65184591-046f-4008-8237-42f59372dc37","system_id":"levelo_inurba_marseille","lat":43.29195,"lon":5.39331,"is_reserved":false,"is_disabled":false,"rental_uris":{"android":"levelo://app?vid=65184591-046f-4008-8237-42f59372dc37","ios":"levelo://app?vid=65184591-046f-4008-8237-42f59372dc37"},"vehicle_type_id":"4","last_reported":1742328558,"current_range_meters":8800,"station_id":"ce4bh192rcd13ifvqdd0","pricing_plan_id":"cebpf4jnsgd1na2vs0mg"},{"bike_id":"92b03643-789b-49b6-89ef-f7b7a84f24c2","system_id":"levelo_inurba_marseille","lat":43.28158,"lon":5.42646,"is_reserved":false,"is_disabled":false,"rental_uris":{"android":"levelo://app?vid=92b03643-789b-49b6-89ef-f7b7a84f24c2","ios":"levelo://app?vid=92b03643-789b-49b6-89ef-f7b7a84f24c2"},"vehicle_type_id":"4","last_reported":1742328558,"current_range_meters":9200,"station_id":"ce4bhnh2rcd13ifvqgug","pricing_plan_id":"cebpf4jnsgd1na2vs0mg"},{"bike_id":"f158cb0f-0380-45cd-a82f-e7d941bda018","system_id":"levelo_inurba_marseille","lat":43.31735,"lon":5.43707,"is_reserved":false,"is_disabled":false,"rental_uris":{"android":"levelo://app?vid=f158cb0f-0380-45cd-a82f-e7d941bda018","ios":"levelo://app?vid=f158cb0f-0380-45cd-a82f-e7d941bda018"},"vehicle_type_id":"4","last_reported":1742328558,"current_range_meters":9600,"station_id":"ce4bhp92rcd13ifvqhcg","pricing_plan_id":"cebpf4jnsgd1na2vs0mg"},{"bike_id":"df4642c9-c3fd-4f88-b1d5-c33a4aa2259c","system_id":"levelo_inurba_marseille","lat":43.23193,"lon":5.39978,"is_reserved":false,"is_disabled":false,"rental_uris":{"android":"levelo://app?vid=df4642c9-c3fd-4f88-b1d5-c33a4aa2259c","ios":"levelo://app?vid=df4642c9-c3fd-4f88-b1d5-c33a4aa2259c"},"vehicle_type_id":"4","last_reported":1742328558,"current_range_meters":9600,"station_id":"ce4bhn12rcd13ifvqgqg","pricing_plan_id":"cebpf4jnsgd1na2vs0mg"},{"bike_id":"9e9c2495-9473-40c9-b829-bb02ab558426","system_id":"levelo_inurba_marseille","lat":43.279391,"lon":5.410548,"is_reserved":false,"is_disabled":false,"rental_uris":{"android":"levelo://app?vid=9e9c2495-9473-40c9-b829-bb02ab558426","ios":"levelo://app?vid=9e9c2495-9473-40c9-b829-bb02ab558426"},"vehicle_type_id":"4","last_reported":1742328558,"current_range_meters":9600,"station_id":"ce4bhnp2rcd13ifvqh0g","pricing_plan_id":"cebpf4jnsgd1na2vs0mg"},{"bike_id":"61c41159-7a8b-45ee-a18c-926f56b3edec","system_id":"levelo_inurba_marseille","lat":43.25838,"lon":5.39463,"is_reserved":false,"is_disabled":false,"rental_uris":{"android":"levelo://app?vid=61c41159-7a8b-45ee-a18c-926f56b3edec","ios":"levelo://app?vid=61c41159-7a8b-45ee-a18c-926f56b3edec"},"vehicle_type_id":"4","last_reported":1742328558,"current_range_meters":9600,"station_id":"ce4bhip2rcd13ifvqft0","pricing_plan_id":"cebpf4jnsgd1na2vs0mg"},{"bike_id":"2cf913f3-f9be-41c2-a2ea-01870c68e8ea","system_id":"levelo_inurba_marseille","lat":43.3229,"lon":5.38273,"is_reserved":false,"is_disabled":false,"rental_uris":{"android":"levelo://app?vid=2cf913f3-f9be-41c2-a2ea-01870c68e8ea","ios":"levelo://app?vid=2cf913f3-f9be-41c2-a2ea-01870c68e8ea"},"vehicle_type_id":"4","last_reported":1742328558,"current_range_meters":10000,"station_id":"ce4bhr12rcd13ifvqhqg","pricing_plan_id":"cebpf4jnsgd1na2vs0mg"},{"bike_id":"d00028dc-9b0d-47df-ad9d-778d21fb21b2","system_id":"levelo_inurba_marseille","lat":43.231945,"lon":5.355499,"is_reserved":false,"is_disabled":false,"rental_uris":{"android":"levelo://app?vid=d00028dc-9b0d-47df-ad9d-778d21fb21b2","ios":"levelo://app?vid=d00028dc-9b0d-47df-ad9d-778d21fb21b2"},"vehicle_type_id":"4","last_reported":1742328558,"current_range_meters":10000,"station_id":"ce4bhu92rcd13ifvqi70","pricing_plan_id":"cebpf4jnsgd1na2vs0mg"},{"bike_id":"92ad8e1b-4e29-4c41-b758-3bb193eb6b43","system_id":"levelo_inurba_marseille","lat":43.31176,"lon":5.38707,"is_reserved":false,"is_disabled":false,"rental_uris":{"android":"levelo://app?vid=92ad8e1b-4e29-4c41-b758-3bb193eb6b43","ios":"levelo://app?vid=92ad8e1b-4e29-4c41-b758-3bb193eb6b43"},"vehicle_type_id":"4","last_reported":1742328558,"current_range_meters":10000,"station_id":"ce4bgv12rcd13ifvqcp0","pricing_plan_id":"cebpf4jnsgd1na2vs0mg"},{"bike_id":"ca1c0a28-8faf-435f-9d8b-370c3a07ff34","system_id":"levelo_inurba_marseille","lat":43.24169,"lon":5.36398,"is_reserved":false,"is_disabled":false,"rental_uris":{"android":"levelo://app?vid=ca1c0a28-8faf-435f-9d8b-370c3a07ff34","ios":"levelo://app?vid=ca1c0a28-8faf-435f-9d8b-370c3a07ff34"},"vehicle_type_id":"4","last_reported":1742328558,"current_range_meters":10000,"station_id":"cpo36qri1sfpv3e86is0","pricing_plan_id":"cebpf4jnsgd1na2vs0mg"},{"bike_id":"70e87a19-ad9f-47b3-8a37-4f8ae0a52890","system_id":"levelo_inurba_marseille","lat":43.28558,"lon":5.382518,"is_reserved":false,"is_disabled":false,"rental_uris":{"android":"levelo://app?vid=70e87a19-ad9f-47b3-8a37-4f8ae0a52890","ios":"levelo://app?vid=70e87a19-ad9f-47b3-8a37-4f8ae0a52890"},"vehicle_type_id":"4","last_reported":1742328558,"current_range_meters":10000,"station_id":"ce4bhi12rcd13ifvqfo0","pricing_plan_id":"cebpf4jnsgd1na2vs0mg"},{"bike_id":"539fc8c4-24e6-4af1-852f-0f9aae2257a1","system_id":"levelo_inurba_marseille","lat":43.23197,"lon":5.35538,"is_reserved":false,"is_disabled":false,"rental_uris":{"android":"levelo://app?vid=539fc8c4-24e6-4af1-852f-0f9aae2257a1","ios":"levelo://app?vid=539fc8c4-24e6-4af1-852f-0f9aae2257a1"},"vehicle_type_id":"4","last_reported":1742328558,"current_range_meters":10000,"station_id":"ce4bhu92rcd13ifvqi70","pricing_plan_id":"cebpf4jnsgd1na2vs0mg"},{"bike_id":"5bead0f2-5ada-420f-bea0-acb8d2ad9da4","system_id":"levelo_inurba_marseille","lat":43.23206,"lon":5.39991,"is_reserved":false,"is_disabled":false,"rental_uris":{"android":"levelo://app?vid=5bead0f2-5ada-420f-bea0-acb8d2ad9da4","ios":"levelo://app?vid=5bead0f2-5ada-420f-bea0-acb8d2ad9da4"},"vehicle_type_id":"4","last_reported":1742328558,"current_range_meters":10000,"station_id":"ce4bhn12rcd13ifvqgqg","pricing_plan_id":"cebpf4jnsgd1na2vs0mg"},{"bike_id":"97446a56-5f0f-46a3-92d5-82517aef5044","system_id":"levelo_inurba_marseille","lat":43.31075,"lon":5.38343,"is_reserved":false,"is_disabled":false,"rental_uris":{"android":"levelo://app?vid=97446a56-5f0f-46a3-92d5-82517aef5044","ios":"levelo://app?vid=97446a56-5f0f-46a3-92d5-82517aef5044"},"vehicle_type_id":"4","last_reported":1742328558,"current_range_meters":10000,"station_id":"ce4bgv92rcd13ifvqcr0","pricing_plan_id":"cebpf4jnsgd1na2vs0mg"},{"bike_id":"a8c89f12-e7b0-458f-b7a3-09032d50c758","system_id":"levelo_inurba_marseille","lat":43.27819,"lon":5.40715,"is_reserved":false,"is_disabled":false,"rental_uris":{"android":"levelo://app?vid=a8c89f12-e7b0-458f-b7a3-09032d50c758","ios":"levelo://app?vid=a8c89f12-e7b0-458f-b7a3-09032d50c758"},"vehicle_type_id":"4","last_reported":1742328558,"current_range_meters":10000,"station_id":"ce4bhnh2rcd13ifvqgtg","pricing_plan_id":"cebpf4jnsgd1na2vs0mg"},{"bike_id":"6b162ed9-3599-4156-a34b-2df90433ae5c","system_id":"levelo_inurba_marseille","lat":43.24182,"lon":5.39768,"is_reserved":false,"is_disabled":false,"rental_uris":{"android":"levelo://app?vid=6b162ed9-3599-4156-a34b-2df90433ae5c","ios":"levelo://app?vid=6b162ed9-3599-4156-a34b-2df90433ae5c"},"vehicle_type_id":"4","last_reported":1742328558,"current_range_meters":10000,"station_id":"ce4bhn12rcd13ifvqgpg","pricing_plan_id":"cebpf4jnsgd1na2vs0mg"},{"bike_id":"5b4d011c-b8d5-474e-a7ca-959c4d6699ff","system_id":"levelo_inurba_marseille","lat":43.29611,"lon":5.38107,"is_reserved":false,"is_disabled":false,"rental_uris":{"android":"levelo://app?vid=5b4d011c-b8d5-474e-a7ca-959c4d6699ff","ios":"levelo://app?vid=5b4d011c-b8d5-474e-a7ca-959c4d6699ff"},"vehicle_type_id":"4","last_reported":1742328558,"current_range_meters":10000,"station_id":"ce4bgl12rcd13ifvqbo0","pricing_plan_id":"cebpf4jnsgd1na2vs0mg"},{"bike_id":"c8225110-ccaa-4c33-8fa6-2a0e53150439","system_id":"levelo_inurba_marseille","lat":43.29273,"lon":5.38435,"is_reserved":false,"is_disabled":false,"rental_uris":{"android":"levelo://app?vid=c8225110-ccaa-4c33-8fa6-2a0e53150439","ios":"levelo://app?vid=c8225110-ccaa-4c33-8fa6-2a0e53150439"},"vehicle_type_id":"4","last_reported":1742328558,"current_range_meters":10800,"station_id":"ce4bh692rcd13ifvqea0","pricing_plan_id":"cebpf4jnsgd1na2vs0mg"},{"bike_id":"3c0f09e8-ebb8-4c4f-81b5-ea9e7761a9c4","system_id":"levelo_inurba_marseille","lat":43.30187,"lon":5.36626,"is_reserved":false,"is_disabled":false,"rental_uris":{"android":"levelo://app?vid=3c0f09e8-ebb8-4c4f-81b5-ea9e7761a9c4","ios":"levelo://app?vid=3c0f09e8-ebb8-4c4f-81b5-ea9e7761a9c4"},"vehicle_type_id":"4","last_reported":1742328558,"current_range_meters":10000,"station_id":"ce4bgrh2rcd13ifvqc8g","pricing_plan_id":"cebpf4jnsgd1na2vs0mg"},{"bike_id":"0cb439ba-c73c-4e00-a10d-d81c8bff11ec","system_id":"levelo_inurba_marseille","lat":43.32505,"lon":5.36558,"is_reserved":false,"is_disabled":false,"rental_uris":{"android":"levelo://app?vid=0cb439ba-c73c-4e00-a10d-d81c8bff11ec","ios":"levelo://app?vid=0cb439ba-c73c-4e00-a10d-d81c8bff11ec"},"vehicle_type_id":"4","last_reported":1742328558,"current_range_meters":10800,"station_id":"ce4bhs12rcd13ifvqhvg","pricing_plan_id":"cebpf4jnsgd1na2vs0mg"},{"bike_id":"9b1cfd58-08bd-47ec-be3f-da68359a7f79","system_id":"levelo_inurba_marseille","lat":43.27809,"lon":5.4071,"is_reserved":false,"is_disabled":false,"rental_uris":{"android":"levelo://app?vid=9b1cfd58-08bd-47ec-be3f-da68359a7f79","ios":"levelo://app?vid=9b1cfd58-08bd-47ec-be3f-da68359a7f79"},"vehicle_type_id":"4","last_reported":1742328558,"current_range_meters":10800,"station_id":"ce4bhnh2rcd13ifvqgtg","pricing_plan_id":"cebpf4jnsgd1na2vs0mg"},{"bike_id":"cb83bb7b-da1e-4e39-8df9-8da005404b0c","system_id":"levelo_inurba_marseille","lat":43.23076,"lon":5.35519,"is_reserved":false,"is_disabled":false,"rental_uris":{"android":"levelo://app?vid=cb83bb7b-da1e-4e39-8df9-8da005404b0c","ios":"levelo://app?vid=cb83bb7b-da1e-4e39-8df9-8da005404b0c"},"vehicle_type_id":"4","last_reported":1742328558,"current_range_meters":10800,"station_id":"cpo3342slgdg3j2ifvpg","pricing_plan_id":"cebpf4jnsgd1na2vs0mg"},{"bike_id":"4b1455e3-a129-4c21-aa44-d1039bebb628","system_id":"levelo_inurba_marseille","lat":43.27827,"lon":5.40727,"is_reserved":false,"is_disabled":false,"rental_uris":{"android":"levelo://app?vid=4b1455e3-a129-4c21-aa44-d1039bebb628","ios":"levelo://app?vid=4b1455e3-a129-4c21-aa44-d1039bebb628"},"vehicle_type_id":"4","last_reported":1742328558,"current_range_meters":10800,"station_id":"ce4bhnh2rcd13ifvqgtg","pricing_plan_id":"cebpf4jnsgd1na2vs0mg"},{"bike_id":"33cee87d-54df-4382-b486-e00c9953097c","system_id":"levelo_inurba_marseille","lat":43.25505,"lon":5.37657,"is_reserved":false,"is_disabled":false,"rental_uris":{"android":"levelo://app?vid=33cee87d-54df-4382-b486-e00c9953097c","ios":"levelo://app?vid=33cee87d-54df-4382-b486-e00c9953097c"},"vehicle_type_id":"4","last_reported":1742328558,"current_range_meters":10800,"station_id":"ce4bhh12rcd13ifvqff0","pricing_plan_id":"cebpf4jnsgd1na2vs0mg"},{"bike_id":"c2249414-bd6a-4233-8cb5-27178d8f4dbc","system_id":"levelo_inurba_marseille","lat":43.30586,"lon":5.37223,"is_reserved":false,"is_disabled":false,"rental_uris":{"android":"levelo://app?vid=c2249414-bd6a-4233-8cb5-27178d8f4dbc","ios":"levelo://app?vid=c2249414-bd6a-4233-8cb5-27178d8f4dbc"},"vehicle_type_id":"4","last_reported":1742328558,"current_range_meters":10800,"station_id":"ce4bgqh2rcd13ifvqc4g","pricing_plan_id":"cebpf4jnsgd1na2vs0mg"},{"bike_id":"ab11fa9b-759f-447f-a4f1-b143e2360775","system_id":"levelo_inurba_marseille","lat":43.31348,"lon":5.39168,"is_reserved":false,"is_disabled":false,"rental_uris":{"android":"levelo://app?vid=ab11fa9b-759f-447f-a4f1-b143e2360775","ios":"levelo://app?vid=ab11fa9b-759f-447f-a4f1-b143e2360775"},"vehicle_type_id":"4","last_reported":1742328558,"current_range_meters":10800,"station_id":"","pricing_plan_id":"cebpf4jnsgd1na2vs0mg"},{"bike_id":"ac180584-916c-47e0-90d5-4f8818caec03","system_id":"levelo_inurba_marseille","lat":43.32345,"lon":5.40627,"is_reserved":false,"is_disabled":false,"rental_uris":{"android":"levelo://app?vid=ac180584-916c-47e0-90d5-4f8818caec03","ios":"levelo://app?vid=ac180584-916c-47e0-90d5-4f8818caec03"},"vehicle_type_id":"4","last_reported":1742328558,"current_range_meters":10800,"station_id":"ce4bhq92rcd13ifvqhjg","pricing_plan_id":"cebpf4jnsgd1na2vs0mg"},{"bike_id":"e8a8142b-7ff9-4808-a252-c434520cf38b","system_id":"levelo_inurba_marseille","lat":43.25106,"lon":5.40326,"is_reserved":false,"is_disabled":false,"rental_uris":{"android":"levelo://app?vid=e8a8142b-7ff9-4808-a252-c434520cf38b","ios":"levelo://app?vid=e8a8142b-7ff9-4808-a252-c434520cf38b"},"vehicle_type_id":"4","last_reported":1742328558,"current_range_meters":10000,"station_id":"ce4bhlh2rcd13ifvqgig","pricing_plan_id":"cebpf4jnsgd1na2vs0mg"},{"bike_id":"501f7fd9-069d-4c8f-b512-803a0a667daa","system_id":"levelo_inurba_marseille","lat":43.31708,"lon":5.43701,"is_reserved":false,"is_disabled":false,"rental_uris":{"android":"levelo://app?vid=501f7fd9-069d-4c8f-b512-803a0a667daa","ios":"levelo://app?vid=501f7fd9-069d-4c8f-b512-803a0a667daa"},"vehicle_type_id":"4","last_reported":1742328558,"current_range_meters":10800,"station_id":"ce4bhp92rcd13ifvqhcg","pricing_plan_id":"cebpf4jnsgd1na2vs0mg"},{"bike_id":"6427f4f6-8c7a-4e37-a4d9-34cec003da81","system_id":"levelo_inurba_marseille","lat":43.29158,"lon":5.37159,"is_reserved":false,"is_disabled":false,"rental_uris":{"android":"levelo://app?vid=6427f4f6-8c7a-4e37-a4d9-34cec003da81","ios":"levelo://app?vid=6427f4f6-8c7a-4e37-a4d9-34cec003da81"},"vehicle_type_id":"4","last_reported":1742328558,"current_range_meters":10800,"station_id":"ce4bha92rcd13ifvqeh0","pricing_plan_id":"cebpf4jnsgd1na2vs0mg"},{"bike_id":"1179b381-200b-46f2-81ad-dc9a8285a090","system_id":"levelo_inurba_marseille","lat":43.28413,"lon":5.375057,"is_reserved":false,"is_disabled":false,"rental_uris":{"android":"levelo://app?vid=1179b381-200b-46f2-81ad-dc9a8285a090","ios":"levelo://app?vid=1179b381-200b-46f2-81ad-dc9a8285a090"},"vehicle_type_id":"4","last_reported":1742328558,"current_range_meters":10800,"station_id":"ce4bh492rcd13ifvqdvg","pricing_plan_id":"cebpf4jnsgd1na2vs0mg"},{"bike_id":"47643e5e-76a5-4454-9b8b-472326fad8da","system_id":"levelo_inurba_marseille","lat":43.26572,"lon":5.390054,"is_reserved":false,"is_disabled":false,"rental_uris":{"android":"levelo://app?vid=47643e5e-76a5-4454-9b8b-472326fad8da","ios":"levelo://app?vid=47643e5e-76a5-4454-9b8b-472326fad8da"},"vehicle_type_id":"4","last_reported":1742328558,"current_range_meters":10800,"station_id":"ce4bhe12rcd13ifvqf30","pricing_plan_id":"cebpf4jnsgd1na2vs0mg"},{"bike_id":"308d0f72-673c-49b9-8ba2-161a3206f3c0","system_id":"levelo_inurba_marseille","lat":43.25119,"lon":5.4032,"is_reserved":false,"is_disabled":false,"rental_uris":{"android":"levelo://app?vid=308d0f72-673c-49b9-8ba2-161a3206f3c0","ios":"levelo://app?vid=308d0f72-673c-49b9-8ba2-161a3206f3c0"},"vehicle_type_id":"4","last_reported":1742328558,"current_range_meters":11200,"station_id":"ce4bhlh2rcd13ifvqgig","pricing_plan_id":"cebpf4jnsgd1na2vs0mg"},{"bike_id":"77bd597e-e8fc-44ff-a165-abfe91b73715","system_id":"levelo_inurba_marseille","lat":43.3032,"lon":5.37605,"is_reserved":false,"is_disabled":false,"rental_uris":{"android":"levelo://app?vid=77bd597e-e8fc-44ff-a165-abfe91b73715","ios":"levelo://app?vid=77bd597e-e8fc-44ff-a165-abfe91b73715"},"vehicle_type_id":"4","last_reported":1742328558,"current_range_meters":11200,"station_id":"","pricing_plan_id":"cebpf4jnsgd1na2vs0mg"},{"bike_id":"6c156eb4-dee3-4924-9741-ead86c798d48","system_id":"levelo_inurba_marseille","lat":43.29894,"lon":5.38902,"is_reserved":false,"is_disabled":false,"rental_uris":{"android":"levelo://app?vid=6c156eb4-dee3-4924-9741-ead86c798d48","ios":"levelo://app?vid=6c156eb4-dee3-4924-9741-ead86c798d48"},"vehicle_type_id":"4","last_reported":1742328558,"current_range_meters":10800,"station_id":"ce4bh392rcd13ifvqdl0","pricing_plan_id":"cebpf4jnsgd1na2vs0mg"},{"bike_id":"1a5fdb09-4049-4b09-84d7-0200301def35","system_id":"levelo_inurba_marseille","lat":43.29188,"lon":5.35799,"is_reserved":false,"is_disabled":false,"rental_uris":{"android":"levelo://app?vid=1a5fdb09-4049-4b09-84d7-0200301def35","ios":"levelo://app?vid=1a5fdb09-4049-4b09-84d7-0200301def35"},"vehicle_type_id":"4","last_reported":1742328558,"current_range_meters":11200,"station_id":"ce4bhb12rcd13ifvqel0","pricing_plan_id":"cebpf4jnsgd1na2vs0mg"},{"bike_id":"2e1c9b27-bb46-4223-94a6-6d251aad7971","system_id":"levelo_inurba_marseille","lat":43.27869,"lon":5.37998,"is_reserved":false,"is_disabled":false,"rental_uris":{"android":"levelo://app?vid=2e1c9b27-bb46-4223-94a6-6d251aad7971","ios":"levelo://app?vid=2e1c9b27-bb46-4223-94a6-6d251aad7971"},"vehicle_type_id":"4","last_reported":1742328558,"current_range_meters":11200,"station_id":"ce4bhf92rcd13ifvqf50","pricing_plan_id":"cebpf4jnsgd1na2vs0mg"},{"bike_id":"3de45e29-ecc8-4f24-84c0-751f593a766b","system_id":"levelo_inurba_marseille","lat":43.29416,"lon":5.3863,"is_reserved":false,"is_disabled":false,"rental_uris":{"android":"levelo://app?vid=3de45e29-ecc8-4f24-84c0-751f593a766b","ios":"levelo://app?vid=3de45e29-ecc8-4f24-84c0-751f593a766b"},"vehicle_type_id":"4","last_reported":1742328558,"current_range_meters":11200,"station_id":"ce4bh2h2rcd13ifvqdh0","pricing_plan_id":"cebpf4jnsgd1na2vs0mg"},{"bike_id":"5ee4c35b-aafc-4802-884c-f9c9bd20f07c","system_id":"levelo_inurba_marseille","lat":43.29418,"lon":5.38624,"is_reserved":false,"is_disabled":false,"rental_uris":{"android":"levelo://app?vid=5ee4c35b-aafc-4802-884c-f9c9bd20f07c","ios":"levelo://app?vid=5ee4c35b-aafc-4802-884c-f9c9bd20f07c"},"vehicle_type_id":"4","last_reported":1742328558,"current_range_meters":11200,"station_id":"ce4bh2h2rcd13ifvqdh0","pricing_plan_id":"cebpf4jnsgd1na2vs0mg"},{"bike_id":"1f4d04b1-8f45-4926-aad8-072dc7b7d942","system_id":"levelo_inurba_marseille","lat":43.28024,"lon":5.36956,"is_reserved":false,"is_disabled":false,"rental_uris":{"android":"levelo://app?vid=1f4d04b1-8f45-4926-aad8-072dc7b7d942","ios":"levelo://app?vid=1f4d04b1-8f45-4926-aad8-072dc7b7d942"},"vehicle_type_id":"4","last_reported":1742328558,"current_range_meters":11600,"station_id":"ce4bha12rcd13ifvqef0","pricing_plan_id":"cebpf4jnsgd1na2vs0mg"},{"bike_id":"11bffd4d-691e-479c-be44-e39bfa076b4b","system_id":"levelo_inurba_marseille","lat":43.28453,"lon":5.35893,"is_reserved":false,"is_disabled":false,"rental_uris":{"android":"levelo://app?vid=11bffd4d-691e-479c-be44-e39bfa076b4b","ios":"levelo://app?vid=11bffd4d-691e-479c-be44-e39bfa076b4b"},"vehicle_type_id":"4","last_reported":1742328558,"current_range_meters":11600,"station_id":"ce4bhah2rcd13ifvqei0","pricing_plan_id":"cebpf4jnsgd1na2vs0mg"},{"bike_id":"b98eff8b-8bbd-44cf-94d7-71a6341eecc2","system_id":"levelo_inurba_marseille","lat":43.231797,"lon":5.399883,"is_reserved":false,"is_disabled":false,"rental_uris":{"android":"levelo://app?vid=b98eff8b-8bbd-44cf-94d7-71a6341eecc2","ios":"levelo://app?vid=b98eff8b-8bbd-44cf-94d7-71a6341eecc2"},"vehicle_type_id":"4","last_reported":1742328558,"current_range_meters":11600,"station_id":"ce4bhn12rcd13ifvqgqg","pricing_plan_id":"cebpf4jnsgd1na2vs0mg"},{"bike_id":"539e8e72-3e59-422e-9431-3f13ade22280","system_id":"levelo_inurba_marseille","lat":43.27053,"lon":5.40266,"is_reserved":false,"is_disabled":false,"rental_uris":{"android":"levelo://app?vid=539e8e72-3e59-422e-9431-3f13ade22280","ios":"levelo://app?vid=539e8e72-3e59-422e-9431-3f13ade22280"},"vehicle_type_id":"4","last_reported":1742328558,"current_range_meters":11600,"station_id":"ce4bhk92rcd13ifvqgc0","pricing_plan_id":"cebpf4jnsgd1na2vs0mg"},{"bike_id":"f31fd8fc-38af-431a-83a8-4d065c63a44e","system_id":"levelo_inurba_marseille","lat":43.28364,"lon":5.38632,"is_reserved":false,"is_disabled":false,"rental_uris":{"android":"levelo://app?vid=f31fd8fc-38af-431a-83a8-4d065c63a44e","ios":"levelo://app?vid=f31fd8fc-38af-431a-83a8-4d065c63a44e"},"vehicle_type_id":"4","last_reported":1742328558,"current_range_meters":11600,"station_id":"ce4bh492rcd13ifvqdvg","pricing_plan_id":"cebpf4jnsgd1na2vs0mg"},{"bike_id":"4ccc3f56-6ae5-4d6a-9eb1-b86c5e38aaee","system_id":"levelo_inurba_marseille","lat":43.27814,"lon":5.40711,"is_reserved":false,"is_disabled":false,"rental_uris":{"android":"levelo://app?vid=4ccc3f56-6ae5-4d6a-9eb1-b86c5e38aaee","ios":"levelo://app?vid=4ccc3f56-6ae5-4d6a-9eb1-b86c5e38aaee"},"vehicle_type_id":"4","last_reported":1742328558,"current_range_meters":11600,"station_id":"ce4bhnh2rcd13ifvqgtg","pricing_plan_id":"cebpf4jnsgd1na2vs0mg"},{"bike_id":"eb5cda5d-4aef-4d15-9f07-19ee412f38ba","system_id":"levelo_inurba_marseille","lat":43.2903,"lon":5.35923,"is_reserved":false,"is_disabled":false,"rental_uris":{"android":"levelo://app?vid=eb5cda5d-4aef-4d15-9f07-19ee412f38ba","ios":"levelo://app?vid=eb5cda5d-4aef-4d15-9f07-19ee412f38ba"},"vehicle_type_id":"4","last_reported":1742328558,"current_range_meters":11600,"station_id":"ce4bha92rcd13ifvqeg0","pricing_plan_id":"cebpf4jnsgd1na2vs0mg"},{"bike_id":"fb829e9d-ceaa-4d5d-8ba5-7e30224a8e7b","system_id":"levelo_inurba_marseille","lat":43.31725,"lon":5.42411,"is_reserved":false,"is_disabled":false,"rental_uris":{"android":"levelo://app?vid=fb829e9d-ceaa-4d5d-8ba5-7e30224a8e7b","ios":"levelo://app?vid=fb829e9d-ceaa-4d5d-8ba5-7e30224a8e7b"},"vehicle_type_id":"4","last_reported":1742328558,"current_range_meters":11600,"station_id":"ce4bhp92rcd13ifvqhbg","pricing_plan_id":"cebpf4jnsgd1na2vs0mg"},{"bike_id":"cabc56a7-dd90-4978-a4aa-b0149cec9ec6","system_id":"levelo_inurba_marseille","lat":43.25505,"lon":5.3769,"is_reserved":false,"is_disabled":false,"rental_uris":{"android":"levelo://app?vid=cabc56a7-dd90-4978-a4aa-b0149cec9ec6","ios":"levelo://app?vid=cabc56a7-dd90-4978-a4aa-b0149cec9ec6"},"vehicle_type_id":"4","last_reported":1742328558,"current_range_meters":11600,"station_id":"ce4bhh12rcd13ifvqff0","pricing_plan_id":"cebpf4jnsgd1na2vs0mg"},{"bike_id":"b132483d-1d99-4f2a-9ca2-8544144e934f","system_id":"levelo_inurba_marseille","lat":43.32372,"lon":5.38892,"is_reserved":false,"is_disabled":false,"rental_uris":{"android":"levelo://app?vid=b132483d-1d99-4f2a-9ca2-8544144e934f","ios":"levelo://app?vid=b132483d-1d99-4f2a-9ca2-8544144e934f"},"vehicle_type_id":"4","last_reported":1742328558,"current_range_meters":12000,"station_id":"ce4bhqp2rcd13ifvqhog","pricing_plan_id":"cebpf4jnsgd1na2vs0mg"},{"bike_id":"e5e5d60d-040e-49d1-bbd0-e95e967bbe12","system_id":"levelo_inurba_marseille","lat":43.29178,"lon":5.37154,"is_reserved":false,"is_disabled":false,"rental_uris":{"android":"levelo://app?vid=e5e5d60d-040e-49d1-bbd0-e95e967bbe12","ios":"levelo://app?vid=e5e5d60d-040e-49d1-bbd0-e95e967bbe12"},"vehicle_type_id":"4","last_reported":1742328558,"current_range_meters":12000,"station_id":"ce4bha92rcd13ifvqeh0","pricing_plan_id":"cebpf4jnsgd1na2vs0mg"},{"bike_id":"b5303b64-c21e-4392-b2f0-2ccca1cd7abd","system_id":"levelo_inurba_marseille","lat":43.30453,"lon":5.3668,"is_reserved":false,"is_disabled":false,"rental_uris":{"android":"levelo://app?vid=b5303b64-c21e-4392-b2f0-2ccca1cd7abd","ios":"levelo://app?vid=b5303b64-c21e-4392-b2f0-2ccca1cd7abd"},"vehicle_type_id":"4","last_reported":1742328558,"current_range_meters":12000,"station_id":"","pricing_plan_id":"cebpf4jnsgd1na2vs0mg"},{"bike_id":"89cb3140-d211-4c4d-97ca-7e01c3c4da90","system_id":"levelo_inurba_marseille","lat":43.23212,"lon":5.35559,"is_reserved":false,"is_disabled":false,"rental_uris":{"android":"levelo://app?vid=89cb3140-d211-4c4d-97ca-7e01c3c4da90","ios":"levelo://app?vid=89cb3140-d211-4c4d-97ca-7e01c3c4da90"},"vehicle_type_id":"4","last_reported":1742328558,"current_range_meters":12000,"station_id":"ce4bhu92rcd13ifvqi70","pricing_plan_id":"cebpf4jnsgd1na2vs0mg"},{"bike_id":"bfa40974-876e-403f-8ee9-98898195442a","system_id":"levelo_inurba_marseille","lat":43.28455,"lon":5.35908,"is_reserved":false,"is_disabled":false,"rental_uris":{"android":"levelo://app?vid=bfa40974-876e-403f-8ee9-98898195442a","ios":"levelo://app?vid=bfa40974-876e-403f-8ee9-98898195442a"},"vehicle_type_id":"4","last_reported":1742328558,"current_range_meters":12000,"station_id":"ce4bhah2rcd13ifvqei0","pricing_plan_id":"cebpf4jnsgd1na2vs0mg"},{"bike_id":"f142dc05-f5d3-4cbc-afe5-c54cd3d760d6","system_id":"levelo_inurba_marseille","lat":43.28095,"lon":5.39662,"is_reserved":false,"is_disabled":false,"rental_uris":{"android":"levelo://app?vid=f142dc05-f5d3-4cbc-afe5-c54cd3d760d6","ios":"levelo://app?vid=f142dc05-f5d3-4cbc-afe5-c54cd3d760d6"},"vehicle_type_id":"4","last_reported":1742328558,"current_range_meters":12000,"station_id":"ce4bho12rcd13ifvqh2g","pricing_plan_id":"cebpf4jnsgd1na2vs0mg"},{"bike_id":"b8d777b6-2161-455d-9440-99f86f088d4c","system_id":"levelo_inurba_marseille","lat":43.2917,"lon":5.37174,"is_reserved":false,"is_disabled":false,"rental_uris":{"android":"levelo://app?vid=b8d777b6-2161-455d-9440-99f86f088d4c","ios":"levelo://app?vid=b8d777b6-2161-455d-9440-99f86f088d4c"},"vehicle_type_id":"4","last_reported":1742328558,"current_range_meters":12000,"station_id":"ce4bha92rcd13ifvqeh0","pricing_plan_id":"cebpf4jnsgd1na2vs0mg"},{"bike_id":"62f7539b-b047-479e-84e9-11e5c010431d","system_id":"levelo_inurba_marseille","lat":43.30055,"lon":5.40029,"is_reserved":false,"is_disabled":false,"rental_uris":{"android":"levelo://app?vid=62f7539b-b047-479e-84e9-11e5c010431d","ios":"levelo://app?vid=62f7539b-b047-479e-84e9-11e5c010431d"},"vehicle_type_id":"4","last_reported":1742328558,"current_range_meters":12000,"station_id":"","pricing_plan_id":"cebpf4jnsgd1na2vs0mg"},{"bike_id":"7f61d7be-d227-44df-9b33-b8f4965e514f","system_id":"levelo_inurba_marseille","lat":43.23202,"lon":5.35566,"is_reserved":false,"is_disabled":false,"rental_uris":{"android":"levelo://app?vid=7f61d7be-d227-44df-9b33-b8f4965e514f","ios":"levelo://app?vid=7f61d7be-d227-44df-9b33-b8f4965e514f"},"vehicle_type_id":"4","last_reported":1742328558,"current_range_meters":12400,"station_id":"ce4bhu92rcd13ifvqi70","pricing_plan_id":"cebpf4jnsgd1na2vs0mg"},{"bike_id":"9c9eefbe-8f3c-4001-87cb-225af4d0f3cc","system_id":"levelo_inurba_marseille","lat":43.27819,"lon":5.40719,"is_reserved":false,"is_disabled":false,"rental_uris":{"android":"levelo://app?vid=9c9eefbe-8f3c-4001-87cb-225af4d0f3cc","ios":"levelo://app?vid=9c9eefbe-8f3c-4001-87cb-225af4d0f3cc"},"vehicle_type_id":"4","last_reported":1742328558,"current_range_meters":12400,"station_id":"ce4bhnh2rcd13ifvqgtg","pricing_plan_id":"cebpf4jnsgd1na2vs0mg"},{"bike_id":"8abf66b0-4c7b-4a5b-9216-254c311cdf06","system_id":"levelo_inurba_marseille","lat":43.25586,"lon":5.38227,"is_reserved":false,"is_disabled":false,"rental_uris":{"android":"levelo://app?vid=8abf66b0-4c7b-4a5b-9216-254c311cdf06","ios":"levelo://app?vid=8abf66b0-4c7b-4a5b-9216-254c311cdf06"},"vehicle_type_id":"4","last_reported":1742328558,"current_range_meters":12400,"station_id":"ce4bhih2rcd13ifvqfs0","pricing_plan_id":"cebpf4jnsgd1na2vs0mg"},{"bike_id":"2fe2a4d2-35df-465e-ab82-08d766568ad6","system_id":"levelo_inurba_marseille","lat":43.27963,"lon":5.4104,"is_reserved":false,"is_disabled":false,"rental_uris":{"android":"levelo://app?vid=2fe2a4d2-35df-465e-ab82-08d766568ad6","ios":"levelo://app?vid=2fe2a4d2-35df-465e-ab82-08d766568ad6"},"vehicle_type_id":"4","last_reported":1742328558,"current_range_meters":12400,"station_id":"ce4bhnp2rcd13ifvqh0g","pricing_plan_id":"cebpf4jnsgd1na2vs0mg"},{"bike_id":"cb14e2f2-0c1c-4e8b-ae50-fdca312b873e","system_id":"levelo_inurba_marseille","lat":43.31169,"lon":5.38723,"is_reserved":false,"is_disabled":false,"rental_uris":{"android":"levelo://app?vid=cb14e2f2-0c1c-4e8b-ae50-fdca312b873e","ios":"levelo://app?vid=cb14e2f2-0c1c-4e8b-ae50-fdca312b873e"},"vehicle_type_id":"4","last_reported":1742328558,"current_range_meters":12400,"station_id":"ce4bgv12rcd13ifvqcp0","pricing_plan_id":"cebpf4jnsgd1na2vs0mg"},{"bike_id":"c03bf0bc-bd13-4839-83fb-cde67bd118c3","system_id":"levelo_inurba_marseille","lat":43.27476,"lon":5.42444,"is_reserved":false,"is_disabled":false,"rental_uris":{"android":"levelo://app?vid=c03bf0bc-bd13-4839-83fb-cde67bd118c3","ios":"levelo://app?vid=c03bf0bc-bd13-4839-83fb-cde67bd118c3"},"vehicle_type_id":"4","last_reported":1742328558,"current_range_meters":12400,"station_id":"ce4bhn92rcd13ifvqgrg","pricing_plan_id":"cebpf4jnsgd1na2vs0mg"},{"bike_id":"5d4fc4d3-1fac-4bb7-a391-9fd32ba8478d","system_id":"levelo_inurba_marseille","lat":43.32127,"lon":5.36787,"is_reserved":false,"is_disabled":false,"rental_uris":{"android":"levelo://app?vid=5d4fc4d3-1fac-4bb7-a391-9fd32ba8478d","ios":"levelo://app?vid=5d4fc4d3-1fac-4bb7-a391-9fd32ba8478d"},"vehicle_type_id":"4","last_reported":1742328558,"current_range_meters":13600,"station_id":"ce4bhrh2rcd13ifvqhug","pricing_plan_id":"cebpf4jnsgd1na2vs0mg"},