{"last_updated":1717362449,"ttl":30,"version":"2.2","data":{"bikes":[{"bike_id":"b9567e59-6af0-408c-ba96-410d2d7bfd1b","system_id":"levelo_inurba_marseille","lat":43.309076,"lon":5.368465,"is_reserved":false,"is_disabled":false,"rental_uris":{"android":"levelo://app?vid=b9567e59-6af0-408c-ba96-410d2d7bfd1b","ios":"levelo://app?vid=b9567e59-6af0-408c-ba96-410d2d7bfd1b"},"vehicle_type_id":"4","last_reported":1717362449,"current_range_meters":27200,"station_id":"ce4bgn92rcd13ifvqbvg","pricing_plan_id":"cebpf4jnsgd1na2vs0mg"},{"bike_id":"76bae439-9369-42fa-8c25-846465549786","system_id":"levelo_inurba_marseille","lat":43.314811,"lon":5.373103,"is_reserved":false,"is_disabled":false,"rental_uris":{"android":"levelo://app?vid=76bae439-9369-42fa-8c25-846465549786","ios":"levelo://app?vid=76bae439-9369-42fa-8c25-846465549786"},"vehicle_type_id":"4","last_reported":1717362449,"current_range_meters":2400,"station_id":"ce4bgt12rcd13ifvqcd0","pricing_plan_id":"cebpf4jnsgd1na2vs0mg"},{"bike_id":"cc4336cc-cbb9-416e-8196-5a79c68b1a30","system_id":"levelo_inurba_marseille","lat":43.314811,"lon":5.373103,"is_reserved":false,"is_disabled":false,"rental_uris":{"android":"levelo://app?vid=cc4336cc-cbb9-416e-8196-5a79c68b1a30","ios":"levelo://app?vid=cc4336cc-cbb9-416e-8196-5a79c68b1a30"},"vehicle_type_id":"4","last_reported":1717362449,"current_range_meters":3600,"station_id":"ce4bgt12rcd13ifvqcd0","pricing_plan_id":"cebpf4jnsgd1na2vs0mg"},{"bike_id":"a0ea366f-db3e-4a3f-99bd-fc164281f6cd","system_id":"levelo_inurba_marseille","lat":43.31488,"lon":5.37312,"is_reserved":false,"is_disabled":false,"rental_uris":{"android":"levelo://app?vid=a0ea366f-db3e-4a3f-99bd-fc164281f6cd","ios":"levelo://app?vid=a0ea366f-db3e-4a3f-99bd-fc164281f6cd"},"vehicle_type_id":"4","last_reported":1717362449,"current_range_meters":8800,"station_id":"ce4bgt12rcd13ifvqcd0","pricing_plan_id":"cebpf4jnsgd1na2vs0mg"},{"bike_id":"0bb79471-a12d-48aa-93b4-0cdfba865e2e","system_id":"levelo_inurba_marseille","lat":43.309039,"lon":5.371797,"is_reserved":false,"is_disabled":false,"rental_uris":{"android":"levelo://app?vid=0bb79471-a12d-48aa-93b4-0cdfba865e2e","ios":"levelo://app?vid=0bb79471-a12d-48aa-93b4-0cdfba865e2e"},"vehicle_type_id":"4","last_reported":1717362449,"current_range_meters":4800,"station_id":"ce4bguh2rcd13ifvqckg","pricing_plan_id":"cebpf4jnsgd1na2vs0mg"},{"bike_id":"541ec0fe-8ec2-4758-b540-71aab62ca59c","system_id":"levelo_inurba_marseille","lat":43.309039,"lon":5.371797,"is_reserved":false,"is_disabled":false,"rental_uris":{"android":"levelo://app?vid=541ec0fe-8ec2-4758-b540-71aab62ca59c","ios":"levelo://app?vid=541ec0fe-8ec2-4758-b540-71aab62ca59c"},"vehicle_type_id":"4","last_reported":1717362449,"current_range_meters":20400,"station_id":"ce4bguh2rcd13ifvqckg","pricing_plan_id":"cebpf4jnsgd1na2vs0mg"},{"bike_id":"48d95176-6352-4e84-8532-e8ca9191fedf","system_id":"levelo_inurba_marseille","lat":43.309039,"lon":5.371797,"is_reserved":false,"is_disabled":false,"rental_uris":{"android":"levelo://app?vid=48d95176-6352-4e84-8532-e8ca9191fedf","ios":"levelo://app?vid=48d95176-6352-4e84-8532-e8ca9191fedf"},"vehicle_type_id":"4","last_reported":1717362449,"current_range_meters":23200,"station_id":"ce4bguh2rcd13ifvqckg","pricing_plan_id":"cebpf4jnsgd1na2vs0mg"},{"bike_id":"88f98fae-3661-4fd4-b075-98eb6df56ee3","system_id":"levelo_inurba_marseille","lat":43.309039,"lon":5.371797,"is_reserved":false,"is_disabled":false,"rental_uris":{"android":"levelo://app?vid=88f98fae-3661-4fd4-b075-98eb6df56ee3","ios":"levelo://app?vid=88f98fae-3661-4fd4-b075-98eb6df56ee3"},"vehicle_type_id":"4","last_reported":1717362449,"current_range_meters":31200,"station_id":"ce4bguh2rcd13ifvqckg","pricing_plan_id":"cebpf4jnsgd1na2vs0mg"},{"bike_id":"15daefd8-e703-4432-a042-3ad6e2a09ae2","system_id":"levelo_inurba_marseille","lat":43.309039,"lon":5.371797,"is_reserved":false,"is_disabled":false,"rental_uris":{"android":"levelo://app?vid=15daefd8-e703-4432-a042-3ad6e2a09ae2","ios":"levelo://app?vid=15daefd8-e703-4432-a042-3ad6e2a09ae2"},"vehicle_type_id":"4","last_reported":1717362449,"current_range_meters":8400,"station_id":"ce4bguh2rcd13ifvqckg","pricing_plan_id":"cebpf4jnsgd1na2vs0mg"},{"bike_id":"6b42500c-8e34-42ba-b2b4-4bdf80a5885d","system_id":"levelo_inurba_marseille","lat":43.309034,"lon":5.371783,"is_reserved":false,"is_disabled":false,"rental_uris":{"android":"levelo://app?vid=6b42500c-8e34-42ba-b2b4-4bdf80a5885d","ios":"levelo://app?vid=6b42500c-8e34-42ba-b2b4-4bdf80a5885d"},"vehicle_type_id":"4","last_reported":1717362449,"current_range_meters":24000,"station_id":"ce4bguh2rcd13ifvqckg","pricing_plan_id":"cebpf4jnsgd1na2vs0mg"},{"bike_id":"d0e55f84-a0b7-4855-9f4c-709241fc11f5","system_id":"levelo_inurba_marseille","lat":43.309039,"lon":5.371797,"is_reserved":false,"is_disabled":false,"rental_uris":{"android":"levelo://app?vid=d0e55f84-a0b7-4855-9f4c-709241fc11f5","ios":"levelo://app?vid=d0e55f84-a0b7-4855-9f4c-709241fc11f5"},"vehicle_type_id":"4","last_reported":1717362449,"current_range_meters":26400,"station_id":"ce4bguh2rcd13ifvqckg","pricing_plan_id":"cebpf4jnsgd1na2vs0mg"},{"bike_id":"9a25a475-3963-41c2-8aed-bfc6cdd749a1","system_id":"levelo_inurba_marseille","lat":43.305714,"lon":5.365633,"is_reserved":false,"is_disabled":false,"rental_uris":{"android":"levelo://app?vid=9a25a475-3963-41c2-8aed-bfc6cdd749a1","ios":"levelo://app?vid=9a25a475-3963-41c2-8aed-bfc6cdd749a1"},"vehicle_type_id":"4","last_reported":1717362449,"current_range_meters":22400,"station_id":"ce4bgs12rcd13ifvqcag","pricing_plan_id":"cebpf4jnsgd1na2vs0mg"},{"bike_id":"b146a776-1f8f-4623-8261-64107d9d5bc6","system_id":"levelo_inurba_marseille","lat":43.305706,"lon":5.365654,"is_reserved":false,"is_disabled":false,"rental_uris":{"android":"levelo://app?vid=b146a776-1f8f-4623-8261-64107d9d5bc6","ios":"levelo://app?vid=b146a776-1f8f-4623-8261-64107d9d5bc6"},"vehicle_type_id":"4","last_reported":1717362449,"current_range_meters":14800,"station_id":"ce4bgs12rcd13ifvqcag","pricing_plan_id":"cebpf4jnsgd1na2vs0mg"},{"bike_id":"bd5bc816-d071-44b0-bddb-4beb497bac4b","system_id":"levelo_inurba_marseille","lat":43.311125,"lon":5.377624,"is_reserved":false,"is_disabled":false,"rental_uris":{"android":"levelo://app?vid=bd5bc816-d071-44b0-bddb-4beb497bac4b","ios":"levelo://app?vid=bd5bc816-d071-44b0-bddb-4beb497bac4b"},"vehicle_type_id":"4","last_reported":1717362449,"current_range_meters":2800,"station_id":"ce4bgt92rcd13ifvqcg0","pricing_plan_id":"cebpf4jnsgd1na2vs0mg"},{"bike_id":"1b39e27e-b47a-4b0e-9dea-9627b219d845","system_id":"levelo_inurba_marseille","lat":43.311131,"lon":5.377651,"is_reserved":false,"is_disabled":false,"rental_uris":{"android":"levelo://app?vid=1b39e27e-b47a-4b0e-9dea-9627b219d845","ios":"levelo://app?vid=1b39e27e-b47a-4b0e-9dea-9627b219d845"},"vehicle_type_id":"4","last_reported":1717362449,"current_range_meters":23200,"station_id":"ce4bgt92rcd13ifvqcg0","pricing_plan_id":"cebpf4jnsgd1na2vs0mg"},{"bike_id":"1e3a1224-fe3e-4a8f-86ba-821f03413c97","system_id":"levelo_inurba_marseille","lat":43.311131,"lon":5.377651,"is_reserved":false,"is_disabled":false,"rental_uris":{"android":"levelo://app?vid=1e3a1224-fe3e-4a8f-86ba-821f03413c97","ios":"levelo://app?vid=1e3a1224-fe3e-4a8f-86ba-821f03413c97"},"vehicle_type_id":"4","last_reported":1717362449,"current_range_meters":0,"station_id":"ce4bgt92rcd13ifvqcg0","pricing_plan_id":"cebpf4jnsgd1na2vs0mg"},{"bike_id":"e10d2bcc-35d2-4949-b2b1-796813e075a7","system_id":"levelo_inurba_marseille","lat":43.311131,"lon":5.377651,"is_reserved":false,"is_disabled":false,"rental_uris":{"android":"levelo://app?vid=e10d2bcc-35d2-4949-b2b1-796813e075a7","ios":"levelo://app?vid=e10d2bcc-35d2-4949-b2b1-796813e075a7"},"vehicle_type_id":"4","last_reported":1717362449,"current_range_meters":26000,"station_id":"ce4bgt92rcd13ifvqcg0","pricing_plan_id":"cebpf4jnsgd1na2vs0mg"},{"bike_id":"1d8e22e9-ba34-49d0-ac51-55ae19b26ae8","system_id":"levelo_inurba_marseille","lat":43.311131,"lon":5.377651,"is_reserved":false,"is_disabled":false,"rental_uris":{"android":"levelo://app?vid=1d8e22e9-ba34-49d0-ac51-55ae19b26ae8","ios":"levelo://app?vid=1d8e22e9-ba34-49d0-ac51-55ae19b26ae8"},"vehicle_type_id":"4","last_reported":1717362449,"current_range_meters":19600,"station_id":"ce4bgt92rcd13ifvqcg0","pricing_plan_id":"cebpf4jnsgd1na2vs0mg"},{"bike_id":"e5d37a76-4858-463a-8276-34d97cb6642c","system_id":"levelo_inurba_marseille","lat":43.307945,"lon":5.376487,"is_reserved":false,"is_disabled":false,"rental_uris":{"android":"levelo://app?vid=e5d37a76-4858-463a-8276-34d97cb6642c","ios":"levelo://app?vid=e5d37a76-4858-463a-8276-34d97cb6642c"},"vehicle_type_id":"4","last_reported":1717362449,"current_range_meters":7200,"station_id":"ce4bgv92rcd13ifvqcq0","pricing_plan_id":"cebpf4jnsgd1na2vs0mg"},{"bike_id":"b4f20a17-7cdf-4f40-b8c4-6bab930f6256","system_id":"levelo_inurba_marseille","lat":43.317075,"lon":5.377367,"is_reserved":false,"is_disabled":false,"rental_uris":{"android":"levelo://app?vid=b4f20a17-7cdf-4f40-b8c4-6bab930f6256","ios":"levelo://app?vid=b4f20a17-7cdf-4f40-b8c4-6bab930f6256"},"vehicle_type_id":"4","last_reported":1717362449,"current_range_meters":0,"station_id":"ce4bgth2rcd13ifvqch0","pricing_plan_id":"cebpf4jnsgd1na2vs0mg"},{"bike_id":"86570f96-c135-4b15-a377-0e3b078729ca","system_id":"levelo_inurba_marseille","lat":43.317075,"lon":5.377367,"is_reserved":false,"is_disabled":false,"rental_uris":{"android":"levelo://app?vid=86570f96-c135-4b15-a377-0e3b078729ca","ios":"levelo://app?vid=86570f96-c135-4b15-a377-0e3b078729ca"},"vehicle_type_id":"4","last_reported":1717362449,"current_range_meters":8400,"station_id":"ce4bgth2rcd13ifvqch0","pricing_plan_id":"cebpf4jnsgd1na2vs0mg"},{"bike_id":"72be7c86-695a-4103-aaeb-b9ee9c5be913","system_id":"levelo_inurba_marseille","lat":43.317075,"lon":5.377367,"is_reserved":false,"is_disabled":false,"rental_uris":{"android":"levelo://app?vid=72be7c86-695a-4103-aaeb-b9ee9c5be913","ios":"levelo://app?vid=72be7c86-695a-4103-aaeb-b9ee9c5be913"},"vehicle_type_id":"4","last_reported":1717362449,"current_range_meters":20400,"station_id":"ce4bgth2rcd13ifvqch0","pricing_plan_id":"cebpf4jnsgd1na2vs0mg"},{"bike_id":"90f32937-f06a-4e94-8f5d-4fa2494f0076","system_id":"levelo_inurba_marseille","lat":43.317075,"lon":5.377367,"is_reserved":false,"is_disabled":false,"rental_uris":{"android":"levelo://app?vid=90f32937-f06a-4e94-8f5d-4fa2494f0076","ios":"levelo://app?vid=90f32937-f06a-4e94-8f5d-4fa2494f0076"},"vehicle_type_id":"4","last_reported":1717362449,"current_range_meters":16800,"station_id":"ce4bgth2rcd13ifvqch0","pricing_plan_id":"cebpf4jnsgd1na2vs0mg"},{"bike_id":"688cb8db-659d-4351-bdd5-1f3fb86475ca","system_id":"levelo_inurba_marseille","lat":43.303046,"lon":5.368981,"is_reserved":false,"is_disabled":false,"rental_uris":{"android":"levelo://app?vid=688cb8db-659d-4351-bdd5-1f3fb86475ca","ios":"levelo://app?vid=688cb8db-659d-4351-bdd5-1f3fb86475ca"},"vehicle_type_id":"4","last_reported":1717362449,"current_range_meters":20400,"station_id":"ce4bgqh2rcd13ifvqc5g","pricing_plan_id":"cebpf4jnsgd1na2vs0mg"},{"bike_id":"67b7ef47-d288-4f3c-8d23-e1254f03a690","system_id":"levelo_inurba_marseille","lat":43.30304,"lon":5.368987,"is_reserved":false,"is_disabled":false,"rental_uris":{"android":"levelo://app?vid=67b7ef47-d288-4f3c-8d23-e1254f03a690","ios":"levelo://app?vid=67b7ef47-d288-4f3c-8d23-e1254f03a690"},"vehicle_type_id":"4","last_reported":1717362449,"current_range_meters":30000,"station_id":"ce4bgqh2rcd13ifvqc5g","pricing_plan_id":"cebpf4jnsgd1na2vs0mg"},{"bike_id":"a46effd1-edc5-4fc9-a817-934302e294c2","system_id":"levelo_inurba_marseille","lat":43.315293,"lon":5.380349,"is_reserved":false,"is_disabled":false,"rental_uris":{"android":"levelo://app?vid=a46effd1-edc5-4fc9-a817-934302e294c2","ios":"levelo://app?vid=a46effd1-edc5-4fc9-a817-934302e294c2"},"vehicle_type_id":"4","last_reported":1717362449,"current_range_meters":26400,"station_id":"ce4bhsp2rcd13ifvqi50","pricing_plan_id":"cebpf4jnsgd1na2vs0mg"},{"bike_id":"11cc77dd-231e-4dd2-bd68-bbfcb5c502f5","system_id":"levelo_inurba_marseille","lat":43.315293,"lon":5.380349,"is_reserved":false,"is_disabled":false,"rental_uris":{"android":"levelo://app?vid=11cc77dd-231e-4dd2-bd68-bbfcb5c502f5","ios":"levelo://app?vid=11cc77dd-231e-4dd2-bd68-bbfcb5c502f5"},"vehicle_type_id":"4","last_reported":1717362449,"current_range_meters":28800,"station_id":"ce4bhsp2rcd13ifvqi50","pricing_plan_id":"cebpf4jnsgd1na2vs0mg"},{"bike_id":"61ce56f3-8c27-423d-bbf1-b00ccc6cf763","system_id":"levelo_inurba_marseille","lat":43.315293,"lon":5.380349,"is_reserved":false,"is_disabled":false,"rental_uris":{"android":"levelo://app?vid=61ce56f3-8c27-423d-bbf1-b00ccc6cf763","ios":"levelo://app?vid=61ce56f3-8c27-423d-bbf1-b00ccc6cf763"},"vehicle_type_id":"4","last_reported":1717362449,"current_range_meters":0,"station_id":"ce4bhsp2rcd13ifvqi50","pricing_plan_id":"cebpf4jnsgd1na2vs0mg"},{"bike_id":"d77ed3d8-a137-4bf6-b074-34878f6e9035","system_id":"levelo_inurba_marseille","lat":43.30898,"lon":5.38044,"is_reserved":false,"is_disabled":false,"rental_uris":{"android":"levelo://app?vid=d77ed3d8-a137-4bf6-b074-34878f6e9035","ios":"levelo://app?vid=d77ed3d8-a137-4bf6-b074-34878f6e9035"},"vehicle_type_id":"4","last_reported":1717362449,"current_range_meters":12400,"station_id":"","pricing_plan_id":"cebpf4jnsgd1na2vs0mg"},{"bike_id":"2cef69cb-ce1f-4b48-bab2-7c50270673e3","system_id":"levelo_inurba_marseille","lat":43.301939,"lon":5.366286,"is_reserved":false,"is_disabled":false,"rental_uris":{"android":"levelo://app?vid=2cef69cb-ce1f-4b48-bab2-7c50270673e3","ios":"levelo://app?vid=2cef69cb-ce1f-4b48-bab2-7c50270673e3"},"vehicle_type_id":"4","last_reported":1717362449,"current_range_meters":24800,"station_id":"ce4bgrh2rcd13ifvqc8g","pricing_plan_id":"cebpf4jnsgd1na2vs0mg"},{"bike_id":"eb309792-c054-43e7-b72d-bc87ba9099c7","system_id":"levelo_inurba_marseille","lat":43.308012,"lon":5.381511,"is_reserved":false,"is_disabled":false,"rental_uris":{"android":"levelo://app?vid=eb309792-c054-43e7-b72d-bc87ba9099c7","ios":"levelo://app?vid=eb309792-c054-43e7-b72d-bc87ba9099c7"},"vehicle_type_id":"4","last_reported":1717362449,"current_range_meters":6400,"station_id":"ce4bgt12rcd13ifvqce0","pricing_plan_id":"cebpf4jnsgd1na2vs0mg"},{"bike_id":"34aeff1e-f0f8-443e-a3e9-b2ca90719b50","system_id":"levelo_inurba_marseille","lat":43.308012,"lon":5.381511,"is_reserved":false,"is_disabled":false,"rental_uris":{"android":"levelo://app?vid=34aeff1e-f0f8-443e-a3e9-b2ca90719b50","ios":"levelo://app?vid=34aeff1e-f0f8-443e-a3e9-b2ca90719b50"},"vehicle_type_id":"4","last_reported":1717362449,"current_range_meters":7200,"station_id":"ce4bgt12rcd13ifvqce0","pricing_plan_id":"cebpf4jnsgd1na2vs0mg"},{"bike_id":"284d4481-b8b1-47dd-9a75-7fdb51a5d318","system_id":"levelo_inurba_marseille","lat":43.308012,"lon":5.381511,"is_reserved":false,"is_disabled":false,"rental_uris":{"android":"levelo://app?vid=284d4481-b8b1-47dd-9a75-7fdb51a5d318","ios":"levelo://app?vid=284d4481-b8b1-47dd-9a75-7fdb51a5d318"},"vehicle_type_id":"4","last_reported":1717362449,"current_range_meters":12800,"station_id":"ce4bgt12rcd13ifvqce0","pricing_plan_id":"cebpf4jnsgd1na2vs0mg"},{"bike_id":"a4646b2a-9c5c-4a20-92e3-a2728afbede5","system_id":"levelo_inurba_marseille","lat":43.308012,"lon":5.381511,"is_reserved":false,"is_disabled":false,"rental_uris":{"android":"levelo://app?vid=a4646b2a-9c5c-4a20-92e3-a2728afbede5","ios":"levelo://app?vid=a4646b2a-9c5c-4a20-92e3-a2728afbede5"},"vehicle_type_id":"4","last_reported":1717362449,"current_range_meters":14000,"station_id":"ce4bgt12rcd13ifvqce0","pricing_plan_id":"cebpf4jnsgd1na2vs0mg"},{"bike_id":"c44097f0-4fc5-4862-b8c7-3727a31e4a87","system_id":"levelo_inurba_marseille","lat":43.30088,"lon":5.36591,"is_reserved":false,"is_disabled":false,"rental_uris":{"android":"levelo://app?vid=c44097f0-4fc5-4862-b8c7-3727a31e4a87","ios":"levelo://app?vid=c44097f0-4fc5-4862-b8c7-3727a31e4a87"},"vehicle_type_id":"4","last_reported":1717362449,"current_range_meters":16400,"station_id":"","pricing_plan_id":"cebpf4jnsgd1na2vs0mg"},{"bike_id":"68e130c6-e8b9-4b39-913b-567a8e841966","system_id":"levelo_inurba_marseille","lat":43.304606,"lon":5.379026,"is_reserved":false,"is_disabled":false,"rental_uris":{"android":"levelo://app?vid=68e130c6-e8b9-4b39-913b-567a8e841966","ios":"levelo://app?vid=68e130c6-e8b9-4b39-913b-567a8e841966"},"vehicle_type_id":"4","last_reported":1717362449,"current_range_meters":22000,"station_id":"ce4bgup2rcd13ifvqcn0","pricing_plan_id":"cebpf4jnsgd1na2vs0mg"},{"bike_id":"f42f97f7-d4ad-4d19-b8f2-cf9fc3150f03","system_id":"levelo_inurba_marseille","lat":43.30467,"lon":5.3791,"is_reserved":false,"is_disabled":false,"rental_uris":{"android":"levelo://app?vid=f42f97f7-d4ad-4d19-b8f2-cf9fc3150f03","ios":"levelo://app?vid=f42f97f7-d4ad-4d19-b8f2-cf9fc3150f03"},"vehicle_type_id":"4","last_reported":1717362449,"current_range_meters":4800,"station_id":"ce4bgup2rcd13ifvqcn0","pricing_plan_id":"cebpf4jnsgd1na2vs0mg"},{"bike_id":"2c1d2890-20d1-4c66-8041-eed0017703be","system_id":"levelo_inurba_marseille","lat":43.304695,"lon":5.379156,"is_reserved":false,"is_disabled":false,"rental_uris":{"android":"levelo://app?vid=2c1d2890-20d1-4c66-8041-eed0017703be","ios":"levelo://app?vid=2c1d2890-20d1-4c66-8041-eed0017703be"},"vehicle_type_id":"4","last_reported":1717362449,"current_range_meters":24400,"station_id":"ce4bgup2rcd13ifvqcn0","pricing_plan_id":"cebpf4jnsgd1na2vs0mg"},{"bike_id":"876e98a0-d3ac-4278-bcb4-96882086b030","system_id":"levelo_inurba_marseille","lat":43.324771,"lon":5.36557,"is_reserved":false,"is_disabled":false,"rental_uris":{"android":"levelo://app?vid=876e98a0-d3ac-4278-bcb4-96882086b030","ios":"levelo://app?vid=876e98a0-d3ac-4278-bcb4-96882086b030"},"vehicle_type_id":"4","last_reported":1717362449,"current_range_meters":800,"station_id":"ce4bhs12rcd13ifvqhvg","pricing_plan_id":"cebpf4jnsgd1na2vs0mg"},{"bike_id":"92ec211f-0b53-4f34-b1e9-036fd0d768f7","system_id":"levelo_inurba_marseille","lat":43.324771,"lon":5.36557,"is_reserved":false,"is_disabled":false,"rental_uris":{"android":"levelo://app?vid=92ec211f-0b53-4f34-b1e9-036fd0d768f7","ios":"levelo://app?vid=92ec211f-0b53-4f34-b1e9-036fd0d768f7"},"vehicle_type_id":"4","last_reported":1717362449,"current_range_meters":400,"station_id":"ce4bhs12rcd13ifvqhvg","pricing_plan_id":"cebpf4jnsgd1na2vs0mg"},{"bike_id":"c64cb0c9-4e86-43b3-a2d6-a67494069b78","system_id":"levelo_inurba_marseille","lat":43.324771,"lon":5.36557,"is_reserved":false,"is_disabled":false,"rental_uris":{"android":"levelo://app?vid=c64cb0c9-4e86-43b3-a2d6-a67494069b78","ios":"levelo://app?vid=c64cb0c9-4e86-43b3-a2d6-a67494069b78"},"vehicle_type_id":"4","last_reported":1717362449,"current_range_meters":12000,"station_id":"ce4bhs12rcd13ifvqhvg","pricing_plan_id":"cebpf4jnsgd1na2vs0mg"},{"bike_id":"b7f737a8-0342-4234-9569-32932c766cac","system_id":"levelo_inurba_marseille","lat":43.310804,"lon":5.38359,"is_reserved":false,"is_disabled":false,"rental_uris":{"android":"levelo://app?vid=b7f737a8-0342-4234-9569-32932c766cac","ios":"levelo://app?vid=b7f737a8-0342-4234-9569-32932c766cac"},"vehicle_type_id":"4","last_reported":1717362449,"current_range_meters":4800,"station_id":"ce4bgv92rcd13ifvqcr0","pricing_plan_id":"cebpf4jnsgd1na2vs0mg"},{"bike_id":"41f71f28-89c0-47d5-84d1-4c186c285185","system_id":"levelo_inurba_marseille","lat":43.310713,"lon":5.383597,"is_reserved":false,"is_disabled":false,"rental_uris":{"android":"levelo://app?vid=41f71f28-89c0-47d5-84d1-4c186c285185","ios":"levelo://app?vid=41f71f28-89c0-47d5-84d1-4c186c285185"},"vehicle_type_id":"4","last_reported":1717362449,"current_range_meters":10400,"station_id":"ce4bgv92rcd13ifvqcr0","pricing_plan_id":"cebpf4jnsgd1na2vs0mg"},{"bike_id":"2fea8878-b184-45ba-8112-be930bd61462","system_id":"levelo_inurba_marseille","lat":43.302784,"lon":5.377158,"is_reserved":false,"is_disabled":false,"rental_uris":{"android":"levelo://app?vid=2fea8878-b184-45ba-8112-be930bd61462","ios":"levelo://app?vid=2fea8878-b184-45ba-8112-be930bd61462"},"vehicle_type_id":"4","last_reported":1717362449,"current_range_meters":16000,"station_id":"ce4bguh2rcd13ifvqcj0","pricing_plan_id":"cebpf4jnsgd1na2vs0mg"},{"bike_id":"2a52533d-b188-4f06-97b2-c0a710fd166f","system_id":"levelo_inurba_marseille","lat":43.310804,"lon":5.38359,"is_reserved":false,"is_disabled":false,"rental_uris":{"android":"levelo://app?vid=2a52533d-b188-4f06-97b2-c0a710fd166f","ios":"levelo://app?vid=2a52533d-b188-4f06-97b2-c0a710fd166f"},"vehicle_type_id":"4","last_reported":1717362449,"current_range_meters":1600,"station_id":"ce4bgv92rcd13ifvqcr0","pricing_plan_id":"cebpf4jnsgd1na2vs0mg"},{"bike_id":"14715e3a-ec14-4ffd-ae15-1219ffab5f4a","system_id":"levelo_inurba_marseille","lat":43.302784,"lon":5.377158,"is_reserved":false,"is_disabled":false,"rental_uris":{"android":"levelo://app?vid=14715e3a-ec14-4ffd-ae15-1219ffab5f4a","ios":"levelo://app?vid=14715e3a-ec14-4ffd-ae15-1219ffab5f4a"},"vehicle_type_id":"4","last_reported":1717362449,"current_range_meters":24000,"station_id":"ce4bguh2rcd13ifvqcj0","pricing_plan_id":"cebpf4jnsgd1na2vs0mg"},{"bike_id":"8abefb2e-119b-4ed4-ac63-6c0dfbaeda0f","system_id":"levelo_inurba_marseille","lat":43.30143,"lon":5.37413,"is_reserved":false,"is_disabled":false,"rental_uris":{"android":"levelo://app?vid=8abefb2e-119b-4ed4-ac63-6c0dfbaeda0f","ios":"levelo://app?vid=8abefb2e-119b-4ed4-ac63-6c0dfbaeda0f"},"vehicle_type_id":"4","last_reported":1717362449,"current_range_meters":17200,"station_id":"ce4bgs92rcd13ifvqcc0","pricing_plan_id":"cebpf4jnsgd1na2vs0mg"},{"bike_id":"be4c1c6a-5958-4c56-9424-3bef6688f6ba","system_id":"levelo_inurba_marseille","lat":43.302784,"lon":5.377158,"is_reserved":false,"is_disabled":false,"rental_uris":{"android":"levelo://app?vid=be4c1c6a-5958-4c56-9424-3bef6688f6ba","ios":"levelo://app?vid=be4c1c6a-5958-4c56-9424-3bef6688f6ba"},"vehicle_type_id":"4","last_reported":1717362449,"current_range_meters":22800,"station_id":"ce4bguh2rcd13ifvqcj0","pricing_plan_id":"cebpf4jnsgd1na2vs0mg"},{"bike_id":"0e7f4bcc-4806-4add-b595-fd726b6d2e52","system_id":"levelo_inurba_marseille","lat":43.319935,"lon":5.381699,"is_reserved":false,"is_disabled":false,"rental_uris":{"android":"levelo://app?vid=0e7f4bcc-4806-4add-b595-fd726b6d2e52","ios":"levelo://app?vid=0e7f4bcc-4806-4add-b595-fd726b6d2e52"},"vehicle_type_id":"4","last_reported":1717362449,"current_range_meters":11600,"station_id":"ce4bhr12rcd13ifvqhpg","pricing_plan_id":"cebpf4jnsgd1na2vs0mg"},{"bike_id":"531b3ffb-8130-494e-9b05-7400a01f3ba2","system_id":"levelo_inurba_marseille","lat":43.319935,"lon":5.381699,"is_reserved":false,"is_disabled":false,"rental_uris":{"android":"levelo://app?vid=531b3ffb-8130-494e-9b05-7400a01f3ba2","ios":"levelo://app?vid=531b3ffb-8130-494e-9b05-7400a01f3ba2"},"vehicle_type_id":"4","last_reported":1717362449,"current_range_meters":2000,"station_id":"ce4bhr12rcd13ifvqhpg","pricing_plan_id":"cebpf4jnsgd1na2vs0mg"},{"bike_id":"9b93a1d8-853a-479d-b3b8-795cae429c8f","system_id":"levelo_inurba_marseille","lat":43.319935,"lon":5.381699,"is_reserved":false,"is_disabled":false,"rental_uris":{"android":"levelo://app?vid=9b93a1d8-853a-479d-b3b8-795cae429c8f","ios":"levelo://app?vid=9b93a1d8-853a-479d-b3b8-795cae429c8f"},"vehicle_type_id":"4","last_reported":1717362449,"current_range_meters":23600,"station_id":"ce4bhr12rcd13ifvqhpg","pricing_plan_id":"cebpf4jnsgd1na2vs0mg"},{"bike_id":"ea0cac55-8948-4827-b4a3-783af1457367","system_id":"levelo_inurba_marseille","lat":43.319935,"lon":5.381699,"is_reserved":false,"is_disabled":false,"rental_uris":{"android":"levelo://app?vid=ea0cac55-8948-4827-b4a3-783af1457367","ios":"levelo://app?vid=ea0cac55-8948-4827-b4a3-783af1457367"},"vehicle_type_id":"4","last_reported":1717362449,"current_range_meters":17200,"station_id":"ce4bhr12rcd13ifvqhpg","pricing_plan_id":"cebpf4jnsgd1na2vs0mg"},{"bike_id":"9957c2af-051a-43eb-b9b6-251c6acdf953","system_id":"levelo_inurba_marseille","lat":43.319935,"lon":5.381699,"is_reserved":false,"is_disabled":false,"rental_uris":{"android":"levelo://app?vid=9957c2af-051a-43eb-b9b6-251c6acdf953","ios":"levelo://app?vid=9957c2af-051a-43eb-b9b6-251c6acdf953"},"vehicle_type_id":"4","last_reported":1717362449,"current_range_meters":5600,"station_id":"ce4bhr12rcd13ifvqhpg","pricing_plan_id":"cebpf4jnsgd1na2vs0mg"},{"bike_id":"45006de4-2227-4371-aa2c-bc2dd0245d7e","system_id":"levelo_inurba_marseille","lat":43.31354,"lon":5.3849,"is_reserved":false,"is_disabled":false,"rental_uris":{"android":"levelo://app?vid=45006de4-2227-4371-aa2c-bc2dd0245d7e","ios":"levelo://app?vid=45006de4-2227-4371-aa2c-bc2dd0245d7e"},"vehicle_type_id":"4","last_reported":1717362449,"current_range_meters":21200,"station_id":"ce4bgt92rcd13ifvqcf0","pricing_plan_id":"cebpf4jnsgd1na2vs0mg"},{"bike_id":"8966cd8c-9080-40d3-ae02-4ef9c1ef63b8","system_id":"levelo_inurba_marseille","lat":43.3136,"lon":5.38499,"is_reserved":false,"is_disabled":false,"rental_uris":{"android":"levelo://app?vid=8966cd8c-9080-40d3-ae02-4ef9c1ef63b8","ios":"levelo://app?vid=8966cd8c-9080-40d3-ae02-4ef9c1ef63b8"},"vehicle_type_id":"4","last_reported":1717362449,"current_range_meters":0,"station_id":"ce4bgt92rcd13ifvqcf0","pricing_plan_id":"cebpf4jnsgd1na2vs0mg"},{"bike_id":"7306b20b-e56a-4eab-9bf8-fc9435a0d665","system_id":"levelo_inurba_marseille","lat":43.29992,"lon":5.37174,"is_reserved":false,"is_disabled":false,"rental_uris":{"android":"levelo://app?vid=7306b20b-e56a-4eab-9bf8-fc9435a0d665","ios":"levelo://app?vid=7306b20b-e56a-4eab-9bf8-fc9435a0d665"},"vehicle_type_id":"4","last_reported":1717362449,"current_range_meters":22400,"station_id":"ce4bgr92rcd13ifvqc7g","pricing_plan_id":"cebpf4jnsgd1na2vs0mg"},{"bike_id":"cc89c369-ca8a-4fb0-8013-ed1f18a972ad","system_id":"levelo_inurba_marseille","lat":43.29979,"lon":5.37174,"is_reserved":false,"is_disabled":false,"rental_uris":{"android":"levelo://app?vid=cc89c369-ca8a-4fb0-8013-ed1f18a972ad","ios":"levelo://app?vid=cc89c369-ca8a-4fb0-8013-ed1f18a972ad"},"vehicle_type_id":"4","last_reported":1717362449,"current_range_meters":18000,"station_id":"ce4bgr92rcd13ifvqc7g","pricing_plan_id":"cebpf4jnsgd1na2vs0mg"},{"bike_id":"b9dcd452-3104-4c2b-8b18-ea3ec13c5166","system_id":"levelo_inurba_marseille","lat":43.29975,"lon":5.37173,"is_reserved":false,"is_disabled":false,"rental_uris":{"android":"levelo://app?vid=b9dcd452-3104-4c2b-8b18-ea3ec13c5166","ios":"levelo://app?vid=b9dcd452-3104-4c2b-8b18-ea3ec13c5166"},"vehicle_type_id":"4","last_reported":1717362449,"current_range_meters":2400,"station_id":"ce4bgr92rcd13ifvqc7g","pricing_plan_id":"cebpf4jnsgd1na2vs0mg"},{"bike_id":"1f57d462-78cf-4184-9d7d-d240a1e4d75a","system_id":"levelo_inurba_marseille","lat":43.29974,"lon":5.37172,"is_reserved":false,"is_disabled":false,"rental_uris":{"android":"levelo://app?vid=1f57d462-78cf-4184-9d7d-d240a1e4d75a","ios":"levelo://app?vid=1f57d462-78cf-4184-9d7d-d240a1e4d75a"},"vehicle_type_id":"4","last_reported":1717362449,"current_range_meters":18400,"station_id":"ce4bgr92rcd13ifvqc7g","pricing_plan_id":"cebpf4jnsgd1na2vs0mg"},{"bike_id":"fd5cb871-d0a1-46fd-aac0-ed2ed4d354d0","system_id":"levelo_inurba_marseille","lat":43.29974,"lon":5.37173,"is_reserved":false,"is_disabled":false,"rental_uris":{"android":"levelo://app?vid=fd5cb871-d0a1-46fd-aac0-ed2ed4d354d0","ios":"levelo://app?vid=fd5cb871-d0a1-46fd-aac0-ed2ed4d354d0"},"vehicle_type_id":"4","last_reported":1717362449,"current_range_meters":26800,"station_id":"ce4bgr92rcd13ifvqc7g","pricing_plan_id":"cebpf4jnsgd1na2vs0mg"},{"bike_id":"a07d8a66-4ff6-4392-80ef-4c1a20542ddf","system_id":"levelo_inurba_marseille","lat":43.29975,"lon":5.37181,"is_reserved":false,"is_disabled":false,"rental_uris":{"android":"levelo://app?vid=a07d8a66-4ff6-4392-80ef-4c1a20542ddf","ios":"levelo://app?vid=a07d8a66-4ff6-4392-80ef-4c1a20542ddf"},"vehicle_type_id":"4","last_reported":1717362449,"current_range_meters":28800,"station_id":"ce4bgr92rcd13ifvqc7g","pricing_plan_id":"cebpf4jnsgd1na2vs0mg"},{"bike_id":"d763a472-5e52-4c85-8d5d-8797d3caa828","system_id":"levelo_inurba_marseille","lat":43.29974,"lon":5.37178,"is_reserved":false,"is_disabled":false,"rental_uris":{"android":"levelo://app?vid=d763a472-5e52-4c85-8d5d-8797d3caa828","ios":"levelo://app?vid=d763a472-5e52-4c85-8d5d-8797d3caa828"},"vehicle_type_id":"4","last_reported":1717362449,"current_range_meters":13200,"station_id":"ce4bgr92rcd13ifvqc7g","pricing_plan_id":"cebpf4jnsgd1na2vs0mg"},{"bike_id":"ca5adda4-019c-4a4a-8ae2-bae822f67b8d","system_id":"levelo_inurba_marseille","lat":43.29971,"lon":5.37169,"is_reserved":false,"is_disabled":false,"rental_uris":{"android":"levelo://app?vid=ca5adda4-019c-4a4a-8ae2-bae822f67b8d","ios":"levelo://app?vid=ca5adda4-019c-4a4a-8ae2-bae822f67b8d"},"vehicle_type_id":"4","last_reported":1717362449,"current_range_meters":11600,"station_id":"ce4bgr92rcd13ifvqc7g","pricing_plan_id":"cebpf4jnsgd1na2vs0mg"},{"bike_id":"2943fb7b-c2a1-4586-978f-4c3651be46da","system_id":"levelo_inurba_marseille","lat":43.299724,"lon":5.371829,"is_reserved":false,"is_disabled":false,"rental_uris":{"android":"levelo://app?vid=2943fb7b-c2a1-4586-978f-4c3651be46da","ios":"levelo://app?vid=2943fb7b-c2a1-4586-978f-4c3651be46da"},"vehicle_type_id":"4","last_reported":1717362449,"current_range_meters":31200,"station_id":"ce4bgr92rcd13ifvqc7g","pricing_plan_id":"cebpf4jnsgd1na2vs0mg"},{"bike_id":"49e8a322-274b-404b-adb7-ca8be3087f01","system_id":"levelo_inurba_marseille","lat":43.29967,"lon":5.37176,"is_reserved":false,"is_disabled":false,"rental_uris":{"android":"levelo://app?vid=49e8a322-274b-404b-adb7-ca8be3087f01","ios":"levelo://app?vid=49e8a322-274b-404b-adb7-ca8be3087f01"},"vehicle_type_id":"4","last_reported":1717362449,"current_range_meters":18800,"station_id":"ce4bgr92rcd13ifvqc7g","pricing_plan_id":"cebpf4jnsgd1na2vs0mg"},{"bike_id":"bbb14dc8-6ba2-49fc-9e39-d162d94312b1","system_id":"levelo_inurba_marseille","lat":43.305364,"lon":5.384119,"is_reserved":false,"is_disabled":false,"rental_uris":{"android":"levelo://app?vid=bbb14dc8-6ba2-49fc-9e39-d162d94312b1","ios":"levelo://app?vid=bbb14dc8-6ba2-49fc-9e39-d162d94312b1"},"vehicle_type_id":"4","last_reported":1717362449,"current_range_meters":31200,"station_id":"ce4bgg92rcd13ifvqb30","pricing_plan_id":"cebpf4jnsgd1na2vs0mg"},{"bike_id":"7c0279c4-785e-41cc-9875-11b1aa5697b0","system_id":"levelo_inurba_marseille","lat":43.298433,"lon":5.362774,"is_reserved":false,"is_disabled":false,"rental_uris":{"android":"levelo://app?vid=7c0279c4-785e-41cc-9875-11b1aa5697b0","ios":"levelo://app?vid=7c0279c4-785e-41cc-9875-11b1aa5697b0"},"vehicle_type_id":"4","last_reported":1717362449,"current_range_meters":30000,"station_id":"ce4bgpp2rcd13ifvqc3g","pricing_plan_id":"cebpf4jnsgd1na2vs0mg"},{"bike_id":"0cb8b893-9732-431f-9eae-ce4b166fc526","system_id":"levelo_inurba_marseille","lat":43.298433,"lon":5.362774,"is_reserved":false,"is_disabled":false,"rental_uris":{"android":"levelo://app?vid=0cb8b893-9732-431f-9eae-ce4b166fc526","ios":"levelo://app?vid=0cb8b893-9732-431f-9eae-ce4b166fc526"},"vehicle_type_id":"4","last_reported":1717362449,"current_range_meters":28000,"station_id":"ce4bgpp2rcd13ifvqc3g","pricing_plan_id":"cebpf4jnsgd1na2vs0mg"},{"bike_id":"6035aecc-5328-4ffa-9e58-7a46d052199b","system_id":"levelo_inurba_marseille","lat":43.298433,"lon":5.362774,"is_reserved":false,"is_disabled":false,"rental_uris":{"android":"levelo://app?vid=6035aecc-5328-4ffa-9e58-7a46d052199b","ios":"levelo://app?vid=6035aecc-5328-4ffa-9e58-7a46d052199b"},"vehicle_type_id":"4","last_reported":1717362449,"current_range_meters":22000,"station_id":"ce4bgpp2rcd13ifvqc3g","pricing_plan_id":"cebpf4jnsgd1na2vs0mg"},{"bike_id":"f61b45ce-37bc-4419-acda-3e0950bccb40","system_id":"levelo_inurba_marseille","lat":43.299283,"lon":5.374813,"is_reserved":false,"is_disabled":false,"rental_uris":{"android":"levelo://app?vid=f61b45ce-37bc-4419-acda-3e0950bccb40","ios":"levelo://app?vid=f61b45ce-37bc-4419-acda-3e0950bccb40"},"vehicle_type_id":"4","last_reported":1717362449,"current_range_meters":20400,"station_id":"ce4bgjh2rcd13ifvqbg0","pricing_plan_id":"cebpf4jnsgd1na2vs0mg"},{"bike_id":"005944dd-fbae-4020-ae7d-e9cecf872841","system_id":"levelo_inurba_marseille","lat":43.31168,"lon":5.38711,"is_reserved":false,"is_disabled":false,"rental_uris":{"android":"levelo://app?vid=005944dd-fbae-4020-ae7d-e9cecf872841","ios":"levelo://app?vid=005944dd-fbae-4020-ae7d-e9cecf872841"},"vehicle_type_id":"4","last_reported":1717362449,"current_range_meters":7600,"station_id":"ce4bgv12rcd13ifvqcp0","pricing_plan_id":"cebpf4jnsgd1na2vs0mg"},{"bike_id":"03d64a5b-632b-49a1-bf1f-46908b6695eb","system_id":"levelo_inurba_marseille","lat":43.31167,"lon":5.38712,"is_reserved":false,"is_disabled":false,"rental_uris":{"android":"levelo://app?vid=03d64a5b-632b-49a1-bf1f-46908b6695eb","ios":"levelo://app?vid=03d64a5b-632b-49a1-bf1f-46908b6695eb"},"vehicle_type_id":"4","last_reported":1717362449,"current_range_meters":5200,"station_id":"ce4bgv12rcd13ifvqcp0","pricing_plan_id":"cebpf4jnsgd1na2vs0mg"},{"bike_id":"bfe6a683-9536-4c7f-bd1e-0acc8b1dc7a0","system_id":"levelo_inurba_marseille","lat":43.311722,"lon":5.387247,"is_reserved":false,"is_disabled":false,"rental_uris":{"android":"levelo://app?vid=bfe6a683-9536-4c7f-bd1e-0acc8b1dc7a0","ios":"levelo://app?vid=bfe6a683-9536-4c7f-bd1e-0acc8b1dc7a0"},"vehicle_type_id":"4","last_reported":1717362449,"current_range_meters":17200,"station_id":"ce4bgv12rcd13ifvqcp0","pricing_plan_id":"cebpf4jnsgd1na2vs0mg"},{"bike_id":"d67af489-3718-4b1d-914e-224a54e63b98","system_id":"levelo_inurba_marseille","lat":43.31178,"lon":5.38716,"is_reserved":false,"is_disabled":false,"rental_uris":{"android":"levelo://app?vid=d67af489-3718-4b1d-914e-224a54e63b98","ios":"levelo://app?vid=d67af489-3718-4b1d-914e-224a54e63b98"},"vehicle_type_id":"4","last_reported":1717362449,"current_range_meters":13200,"station_id":"ce4bgv12rcd13ifvqcp0","pricing_plan_id":"cebpf4jnsgd1na2vs0mg"},{"bike_id":"77c3cc05-dbb9-4072-98bd-862d9f29d43d","system_id":"levelo_inurba_marseille","lat":43.31169,"lon":5.38716,"is_reserved":false,"is_disabled":false,"rental_uris":{"android":"levelo://app?vid=77c3cc05-dbb9-4072-98bd-862d9f29d43d","ios":"levelo://app?vid=77c3cc05-dbb9-4072-98bd-862d9f29d43d"},"vehicle_type_id":"4","last_reported":1717362449,"current_range_meters":0,"station_id":"ce4bgv12rcd13ifvqcp0","pricing_plan_id":"cebpf4jnsgd1na2vs0mg"},{"bike_id":"4ba909d5-0b95-4783-80cc-6adda497cc83","system_id":"levelo_inurba_marseille","lat":43.299243,"lon":5.374807,"is_reserved":false,"is_disabled":false,"rental_uris":{"android":"levelo://app?vid=4ba909d5-0b95-4783-80cc-6adda497cc83","ios":"levelo://app?vid=4ba909d5-0b95-4783-80cc-6adda497cc83"},"vehicle_type_id":"4","last_reported":1717362449,"current_range_meters":26400,"station_id":"ce4bgjh2rcd13ifvqbg0","pricing_plan_id":"cebpf4jnsgd1na2vs0mg"},{"bike_id":"9bc35a85-9aad-431f-a49a-45968f296416","system_id":"levelo_inurba_marseille","lat":43.31167,"lon":5.38722,"is_reserved":false,"is_disabled":false,"rental_uris":{"android":"levelo://app?vid=9bc35a85-9aad-431f-a49a-45968f296416","ios":"levelo://app?vid=9bc35a85-9aad-431f-a49a-45968f296416"},"vehicle_type_id":"4","last_reported":1717362449,"current_range_meters":3600,"station_id":"ce4bgv12rcd13ifvqcp0","pricing_plan_id":"cebpf4jnsgd1na2vs0mg"},{"bike_id":"cd7806e9-c795-402b-a3a7-c6b9e23f870f","system_id":"levelo_inurba_marseille","lat":43.311722,"lon":5.387247,"is_reserved":false,"is_disabled":false,"rental_uris":{"android":"levelo://app?vid=cd7806e9-c795-402b-a3a7-c6b9e23f870f","ios":"levelo://app?vid=cd7806e9-c795-402b-a3a7-c6b9e23f870f"},"vehicle_type_id":"4","last_reported":1717362449,"current_range_meters":25200,"station_id":"ce4bgv12rcd13ifvqcp0","pricing_plan_id":"cebpf4jnsgd1na2vs0mg"},{"bike_id":"10fb4334-c940-4455-979b-d3f1ca32e262","system_id":"levelo_inurba_marseille","lat":43.297774,"lon":5.370875,"is_reserved":false,"is_disabled":false,"rental_uris":{"android":"levelo://app?vid=10fb4334-c940-4455-979b-d3f1ca32e262","ios":"levelo://app?vid=10fb4334-c940-4455-979b-d3f1ca32e262"},"vehicle_type_id":"4","last_reported":1717362449,"current_range_meters":28800,"station_id":"ce4bgop2rcd13ifvqc1g","pricing_plan_id":"cebpf4jnsgd1na2vs0mg"},{"bike_id":"1e32d23b-066e-4c0d-9783-f843f48a6d78","system_id":"levelo_inurba_marseille","lat":43.32287,"lon":5.3827,"is_reserved":false,"is_disabled":false,"rental_uris":{"android":"levelo://app?vid=1e32d23b-066e-4c0d-9783-f843f48a6d78","ios":"levelo://app?vid=1e32d23b-066e-4c0d-9783-f843f48a6d78"},"vehicle_type_id":"4","last_reported":1717362449,"current_range_meters":0,"station_id":"ce4bhr12rcd13ifvqhqg","pricing_plan_id":"cebpf4jnsgd1na2vs0mg"},{"bike_id":"763376b7-4bd1-4d8b-a386-516e62fdec6e","system_id":"levelo_inurba_marseille","lat":43.322872,"lon":5.382756,"is_reserved":false,"is_disabled":false,"rental_uris":{"android":"levelo://app?vid=763376b7-4bd1-4d8b-a386-516e62fdec6e","ios":"levelo://app?vid=763376b7-4bd1-4d8b-a386-516e62fdec6e"},"vehicle_type_id":"4","last_reported":1717362449,"current_range_meters":13200,"station_id":"ce4bhr12rcd13ifvqhqg","pricing_plan_id":"cebpf4jnsgd1na2vs0mg"},{"bike_id":"c04f2b11-e2ee-44b2-80e8-4fcfdf92996c","system_id":"levelo_inurba_marseille","lat":43.322872,"lon":5.382756,"is_reserved":false,"is_disabled":false,"rental_uris":{"android":"levelo://app?vid=c04f2b11-e2ee-44b2-80e8-4fcfdf92996c","ios":"levelo://app?vid=c04f2b11-e2ee-44b2-80e8-4fcfdf92996c"},"vehicle_type_id":"4","last_reported":1717362449,"current_range_meters":17200,"station_id":"ce4bhr12rcd13ifvqhqg","pricing_plan_id":"cebpf4jnsgd1na2vs0mg"},{"bike_id":"eefa52d8-0645-4a72-91aa-aea5b4f128c7","system_id":"levelo_inurba_marseille","lat":43.297163,"lon":5.365866,"is_reserved":false,"is_disabled":false,"rental_uris":{"android":"levelo://app?vid=eefa52d8-0645-4a72-91aa-aea5b4f128c7","ios":"levelo://app?vid=eefa52d8-0645-4a72-91aa-aea5b4f128c7"},"vehicle_type_id":"4","last_reported":1717362449,"current_range_meters":18400,"station_id":"ce4bgn12rcd13ifvqbt0","pricing_plan_id":"cebpf4jnsgd1na2vs0mg"},{"bike_id":"b6a5384d-1304-4cc6-b0b1-8b03fc2025c6","system_id":"levelo_inurba_marseille","lat":43.297163,"lon":5.365866,"is_reserved":false,"is_disabled":false,"rental_uris":{"android":"levelo://app?vid=b6a5384d-1304-4cc6-b0b1-8b03fc2025c6","ios":"levelo://app?vid=b6a5384d-1304-4cc6-b0b1-8b03fc2025c6"},"vehicle_type_id":"4","last_reported":1717362449,"current_range_meters":19200,"station_id":"ce4bgn12rcd13ifvqbt0","pricing_plan_id":"cebpf4jnsgd1na2vs0mg"},{"bike_id":"de82c7ce-e19c-4460-879b-0f60ebb04cb6","system_id":"levelo_inurba_marseille","lat":43.297163,"lon":5.365866,"is_reserved":false,"is_disabled":false,"rental_uris":{"android":"levelo://app?vid=de82c7ce-e19c-4460-879b-0f60ebb04cb6","ios":"levelo://app?vid=de82c7ce-e19c-4460-879b-0f60ebb04cb6"},"vehicle_type_id":"4","last_reported":1717362449,"current_range_meters":30400,"station_id":"ce4bgn12rcd13ifvqbt0","pricing_plan_id":"cebpf4jnsgd1na2vs0mg"},{"bike_id":"c1da701c-ec93-4e5f-a00d-c6fe33a6e7d5","system_id":"levelo_inurba_marseille","lat":43.297163,"lon":5.365866,"is_reserved":false,"is_disabled":false,"rental_uris":{"android":"levelo://app?vid=c1da701c-ec93-4e5f-a00d-c6fe33a6e7d5","ios":"levelo://app?vid=c1da701c-ec93-4e5f-a00d-c6fe33a6e7d5"},"vehicle_type_id":"4","last_reported":1717362449,"current_range_meters":26400,"station_id":"ce4bgn12rcd13ifvqbt0","pricing_plan_id":"cebpf4jnsgd1na2vs0mg"},{"bike_id":"512bd0f0-6c1e-4158-a794-2910188da605","system_id":"levelo_inurba_marseille","lat":43.298764,"lon":5.388973,"is_reserved":false,"is_disabled":false,"rental_uris":{"android":"levelo://app?vid=512bd0f0-6c1e-4158-a794-2910188da605","ios":"levelo://app?vid=512bd0f0-6c1e-4158-a794-2910188da605"},"vehicle_type_id":"4","last_reported":1717362449,"current_range_meters":20000,"station_id":"ce4bh392rcd13ifvqdl0","pricing_plan_id":"cebpf4jnsgd1na2vs0mg"},{"bike_id":"fd9cdc7b-3e97-4837-b583-d1a0f08d1482","system_id":"levelo_inurba_marseille","lat":43.29573,"lon":5.367355,"is_reserved":false,"is_disabled":false,"rental_uris":{"android":"levelo://app?vid=fd9cdc7b-3e97-4837-b583-d1a0f08d1482","ios":"levelo://app?vid=fd9cdc7b-3e97-4837-b583-d1a0f08d1482"},"vehicle_type_id":"4","last_reported":1717362449,"current_range_meters":28000,"station_id":"ce4bgph2rcd13ifvqc2g","pricing_plan_id":"cebpf4jnsgd1na2vs0mg"},{"bike_id":"6664d246-6b96-491f-95a6-6f9f69e57269","system_id":"levelo_inurba_marseille","lat":43.299028,"lon":5.381509,"is_reserved":false,"is_disabled":false,"rental_uris":{"android":"levelo://app?vid=6664d246-6b96-491f-95a6-6f9f69e57269","ios":"levelo://app?vid=6664d246-6b96-491f-95a6-6f9f69e57269"},"vehicle_type_id":"4","last_reported":1717362449,"current_range_meters":29200,"station_id":"ce4bgj12rcd13ifvqbc0","pricing_plan_id":"cebpf4jnsgd1na2vs0mg"},{"bike_id":"a33814f5-30dc-4cac-b378-785c7074b599","system_id":"levelo_inurba_marseille","lat":43.30949,"lon":5.39024,"is_reserved":false,"is_disabled":false,"rental_uris":{"android":"levelo://app?vid=a33814f5-30dc-4cac-b378-785c7074b599","ios":"levelo://app?vid=a33814f5-30dc-4cac-b378-785c7074b599"},"vehicle_type_id":"4","last_reported":1717362449,"current_range_meters":2800,"station_id":"ce4bgup2rcd13ifvqco0","pricing_plan_id":"cebpf4jnsgd1na2vs0mg"},{"bike_id":"d1733db9-5089-4c7a-962d-d809cdcecd7b","system_id":"levelo_inurba_marseille","lat":43.309589,"lon":5.390258,"is_reserved":false,"is_disabled":false,"rental_uris":{"android":"levelo://app?vid=d1733db9-5089-4c7a-962d-d809cdcecd7b","ios":"levelo://app?vid=d1733db9-5089-4c7a-962d-d809cdcecd7b"},"vehicle_type_id":"4","last_reported":1717362449,"current_range_meters":0,"station_id":"ce4bgup2rcd13ifvqco0","pricing_plan_id":"cebpf4jnsgd1na2vs0mg"},{"bike_id":"3a4ab3e0-871d-4af8-9d7c-0a8fde666b3e","system_id":"levelo_inurba_marseille","lat":43.309589,"lon":5.390258,"is_reserved":false,"is_disabled":false,"rental_uris":{"android":"levelo://app?vid=3a4ab3e0-871d-4af8-9d7c-0a8fde666b3e","ios":"levelo://app?vid=3a4ab3e0-871d-4af8-9d7c-0a8fde666b3e"},"vehicle_type_id":"4","last_reported":1717362449,"current_range_meters":20000,"station_id":"ce4bgup2rcd13ifvqco0","pricing_plan_id":"cebpf4jnsgd1na2vs0mg"},{"bike_id":"5d0b26c0-7d69-439b-bb2a-961a933cd7bf","system_id":"levelo_inurba_marseille","lat":43.317557,"lon":5.390173,"is_reserved":false,"is_disabled":false,"rental_uris":{"android":"levelo://app?vid=5d0b26c0-7d69-439b-bb2a-961a933cd7bf","ios":"levelo://app?vid=5d0b26c0-7d69-439b-bb2a-961a933cd7bf"},"vehicle_type_id":"4","last_reported":1717362449,"current_range_meters":21200,"station_id":"ce4bhqp2rcd13ifvqhng","pricing_plan_id":"cebpf4jnsgd1na2vs0mg"},{"bike_id":"fd7dd085-8c30-4d40-9c88-5849344cbde7","system_id":"levelo_inurba_marseille","lat":43.317557,"lon":5.390173,"is_reserved":false,"is_disabled":false,"rental_uris":{"android":"levelo://app?vid=fd7dd085-8c30-4d40-9c88-5849344cbde7","ios":"levelo://app?vid=fd7dd085-8c30-4d40-9c88-5849344cbde7"},"vehicle_type_id":"4","last_reported":1717362449,"current_range_meters":17600,"station_id":"ce4bhqp2rcd13ifvqhng","pricing_plan_id":"cebpf4jnsgd1na2vs0mg"},{"bike_id":"58559c12-4fb5-4bc0-9c05-b75bebb759c6","system_id":"levelo_inurba_marseille","lat":43.29572,"lon":5.3752,"is_reserved":false,"is_disabled":false,"rental_uris":{"android":"levelo://app?vid=58559c12-4fb5-4bc0-9c05-b75bebb759c6","ios":"levelo://app?vid=58559c12-4fb5-4bc0-9c05-b75bebb759c6"},"vehicle_type_id":"4","last_reported":1717362449,"current_range_meters":15200,"station_id":"","pricing_plan_id":"cebpf4jnsgd1na2vs0mg"},{"bike_id":"01993573-7963-43d9-8101-807dc57c83f7","system_id":"levelo_inurba_marseille","lat":43.304274,"lon":5.388873,"is_reserved":false,"is_disabled":false,"rental_uris":{"android":"levelo://app?vid=01993573-7963-43d9-8101-807dc57c83f7","ios":"levelo://app?vid=01993573-7963-43d9-8101-807dc57c83f7"},"vehicle_type_id":"4","last_reported":1717362449,"current_range_meters":14000,"station_id":"ce4bgk12rcd13ifvqbi0","pricing_plan_id":"cebpf4jnsgd1na2vs0mg"},{"bike_id":"c7a4513b-a250-4974-836e-341796c7a07c","system_id":"levelo_inurba_marseille","lat":43.30071,"lon":5.38544,"is_reserved":false,"is_disabled":false,"rental_uris":{"android":"levelo://app?vid=c7a4513b-a250-4974-836e-341796c7a07c","ios":"levelo://app?vid=c7a4513b-a250-4974-836e-341796c7a07c"},"vehicle_type_id":"4","last_reported":1717362449,"current_range_meters":19200,"station_id":"","pricing_plan_id":"cebpf4jnsgd1na2vs0mg"},{"bike_id":"216c97b5-850d-46bc-a330-ec05c2f2ed01","system_id":"levelo_inurba_marseille","lat":43.297907,"lon":5.381135,"is_reserved":false,"is_disabled":false,"rental_uris":{"android":"levelo://app?vid=216c97b5-850d-46bc-a330-ec05c2f2ed01","ios":"levelo://app?vid=216c97b5-850d-46bc-a330-ec05c2f2ed01"},"vehicle_type_id":"4","last_reported":1717362449,"current_range_meters":3200,"station_id":"ce4bgip2rcd13ifvqbb0","pricing_plan_id":"cebpf4jnsgd1na2vs0mg"},{"bike_id":"e479048d-3364-446c-9bb1-3f75107f7b13","system_id":"levelo_inurba_marseille","lat":43.304278,"lon":5.388868,"is_reserved":false,"is_disabled":false,"rental_uris":{"android":"levelo://app?vid=e479048d-3364-446c-9bb1-3f75107f7b13","ios":"levelo://app?vid=e479048d-3364-446c-9bb1-3f75107f7b13"},"vehicle_type_id":"4","last_reported":1717362449,"current_range_meters":30400,"station_id":"ce4bgk12rcd13ifvqbi0","pricing_plan_id":"cebpf4jnsgd1na2vs0mg"},{"bike_id":"e667cf8a-9b2d-4abd-90a0-4a070d2a6915","system_id":"levelo_inurba_marseille","lat":43.296277,"lon":5.377108,"is_reserved":false,"is_disabled":false,"rental_uris":{"android":"levelo://app?vid=e667cf8a-9b2d-4abd-90a0-4a070d2a6915","ios":"levelo://app?vid=e667cf8a-9b2d-4abd-90a0-4a070d2a6915"},"vehicle_type_id":"4","last_reported":1717362449,"current_range_meters":10000,"station_id":"ce4bgi92rcd13ifvqb90","pricing_plan_id":"cebpf4jnsgd1na2vs0mg"},{"bike_id":"c4fcec11-8120-486f-bbfb-987de0aa8067","system_id":"levelo_inurba_marseille","lat":43.30419,"lon":5.3889,"is_reserved":false,"is_disabled":false,"rental_uris":{"android":"levelo://app?vid=c4fcec11-8120-486f-bbfb-987de0aa8067","ios":"levelo://app?vid=c4fcec11-8120-486f-bbfb-987de0aa8067"},"vehicle_type_id":"4","last_reported":1717362449,"current_range_meters":20800,"station_id":"ce4bgk12rcd13ifvqbi0","pricing_plan_id":"cebpf4jnsgd1na2vs0mg"},{"bike_id":"30eedb85-2ec1-408c-beff-177c5bc9c20b","system_id":"levelo_inurba_marseille","lat":43.29979,"lon":5.38489,"is_reserved":false,"is_disabled":false,"rental_uris":{"android":"levelo://app?vid=30eedb85-2ec1-408c-beff-177c5bc9c20b","ios":"levelo://app?vid=30eedb85-2ec1-408c-beff-177c5bc9c20b"},"vehicle_type_id":"4","last_reported":1717362449,"current_range_meters":7200,"station_id":"ce4bgj92rcd13ifvqbd0","pricing_plan_id":"cebpf4jnsgd1na2vs0mg"},{"bike_id":"526f22a2-910e-4af8-80cf-20b22840d3b3","system_id":"levelo_inurba_marseille","lat":43.299717,"lon":5.384845,"is_reserved":false,"is_disabled":false,"rental_uris":{"android":"levelo://app?vid=526f22a2-910e-4af8-80cf-20b22840d3b3","ios":"levelo://app?vid=526f22a2-910e-4af8-80cf-20b22840d3b3"},"vehicle_type_id":"4","last_reported":1717362449,"current_range_meters":29200,"station_id":"ce4bgj92rcd13ifvqbd0","pricing_plan_id":"cebpf4jnsgd1na2vs0mg"},{"bike_id":"ad6fc73a-7e80-493e-9416-f26864af230d","system_id":"levelo_inurba_marseille","lat":43.32357,"lon":5.38877,"is_reserved":false,"is_disabled":false,"rental_uris":{"android":"levelo://app?vid=ad6fc73a-7e80-493e-9416-f26864af230d","ios":"levelo://app?vid=ad6fc73a-7e80-493e-9416-f26864af230d"},"vehicle_type_id":"4","last_reported":1717362449,"current_range_meters":0,"station_id":"ce4bhqp2rcd13ifvqhog","pricing_plan_id":"cebpf4jnsgd1na2vs0mg"},{"bike_id":"377c9d2b-c44c-42ef-b5e8-e4debc3bc0de","system_id":"levelo_inurba_marseille","lat":43.32367,"lon":5.388836,"is_reserved":false,"is_disabled":false,"rental_uris":{"android":"levelo://app?vid=377c9d2b-c44c-42ef-b5e8-e4debc3bc0de","ios":"levelo://app?vid=377c9d2b-c44c-42ef-b5e8-e4debc3bc0de"},"vehicle_type_id":"4","last_reported":1717362449,"current_range_meters":9200,"station_id":"ce4bhqp2rcd13ifvqhog","pricing_plan_id":"cebpf4jnsgd1na2vs0mg"},{"bike_id":"76eab79d-b37d-4bd4-b895-745a9b10521f","system_id":"levelo_inurba_marseille","lat":43.3237,"lon":5.38882,"is_reserved":false,"is_disabled":false,"rental_uris":{"android":"levelo://app?vid=76eab79d-b37d-4bd4-b895-745a9b10521f","ios":"levelo://app?vid=76eab79d-b37d-4bd4-b895-745a9b10521f"},"vehicle_type_id":"4","last_reported":1717362449,"current_range_meters":17200,"station_id":"ce4bhqp2rcd13ifvqhog","pricing_plan_id":"cebpf4jnsgd1na2vs0mg"},{"bike_id":"9f41fa08-620d-49ad-a259-96dd1d120315","system_id":"levelo_inurba_marseille","lat":43.309047,"lon":5.396551,"is_reserved":false,"is_disabled":false,"rental_uris":{"android":"levelo://app?vid=9f41fa08-620d-49ad-a259-96dd1d120315","ios":"levelo://app?vid=9f41fa08-620d-49ad-a259-96dd1d120315"},"vehicle_type_id":"4","last_reported":1717362449,"current_range_meters":13200,"station_id":"ce4bh012rcd13ifvqcv0","pricing_plan_id":"cebpf4jnsgd1na2vs0mg"},{"bike_id":"95310373-a3bc-4266-9cf1-a267850db416","system_id":"levelo_inurba_marseille","lat":43.31201,"lon":5.39374,"is_reserved":false,"is_disabled":false,"rental_uris":{"android":"levelo://app?vid=95310373-a3bc-4266-9cf1-a267850db416","ios":"levelo://app?vid=95310373-a3bc-4266-9cf1-a267850db416"},"vehicle_type_id":"4","last_reported":1717362449,"current_range_meters":10000,"station_id":"","pricing_plan_id":"cebpf4jnsgd1na2vs0mg"},{"bike_id":"f666dc80-75bb-4c91-b120-146965e91f91","system_id":"levelo_inurba_marseille","lat":43.29603,"lon":5.380974,"is_reserved":false,"is_disabled":false,"rental_uris":{"android":"levelo://app?vid=f666dc80-75bb-4c91-b120-146965e91f91","ios":"levelo://app?vid=f666dc80-75bb-4c91-b120-146965e91f91"},"vehicle_type_id":"4","last_reported":1717362449,"current_range_meters":26000,"station_id":"ce4bgl12rcd13ifvqbo0","pricing_plan_id":"cebpf4jnsgd1na2vs0mg"},{"bike_id":"1e32eaa2-6228-4397-b7eb-b9ff264c9fea","system_id":"levelo_inurba_marseille","lat":43.29597,"lon":5.3809,"is_reserved":false,"is_disabled":false,"rental_uris":{"android":"levelo://app?vid=1e32eaa2-6228-4397-b7eb-b9ff264c9fea","ios":"levelo://app?vid=1e32eaa2-6228-4397-b7eb-b9ff264c9fea"},"vehicle_type_id":"4","last_reported":1717362449,"current_range_meters":24000,"station_id":"ce4bgl12rcd13ifvqbo0","pricing_plan_id":"cebpf4jnsgd1na2vs0mg"},{"bike_id":"db4d735f-51f5-4b4c-b20b-9eb328645722","system_id":"levelo_inurba_marseille","lat":43.301857,"lon":5.38944,"is_reserved":false,"is_disabled":false,"rental_uris":{"android":"levelo://app?vid=db4d735f-51f5-4b4c-b20b-9eb328645722","ios":"levelo://app?vid=db4d735f-51f5-4b4c-b20b-9eb328645722"},"vehicle_type_id":"4","last_reported":1717362449,"current_range_meters":7600,"station_id":"","pricing_plan_id":"cebpf4jnsgd1na2vs0mg"},{"bike_id":"92feff7a-410c-4449-850e-747c6e81ac2e","system_id":"levelo_inurba_marseille","lat":43.29591,"lon":5.38112,"is_reserved":false,"is_disabled":false,"rental_uris":{"android":"levelo://app?vid=92feff7a-410c-4449-850e-747c6e81ac2e","ios":"levelo://app?vid=92feff7a-410c-4449-850e-747c6e81ac2e"},"vehicle_type_id":"4","last_reported":1717362449,"current_range_meters":23200,"station_id":"ce4bgl12rcd13ifvqbo0","pricing_plan_id":"cebpf4jnsgd1na2vs0mg"},{"bike_id":"bdcac60a-7922-4ceb-b1d3-3c8a094615a3","system_id":"levelo_inurba_marseille","lat":43.29276,"lon":5.3684,"is_reserved":false,"is_disabled":false,"rental_uris":{"android":"levelo://app?vid=bdcac60a-7922-4ceb-b1d3-3c8a094615a3","ios":"levelo://app?vid=bdcac60a-7922-4ceb-b1d3-3c8a094615a3"},"vehicle_type_id":"4","last_reported":1717362449,"current_range_meters":0,"station_id":"ce4bhbp2rcd13ifvqesg","pricing_plan_id":"cebpf4jnsgd1na2vs0mg"},{"bike_id":"22db3c03-3178-4996-97de-f45dc67f927e","system_id":"levelo_inurba_marseille","lat":43.292749,"lon":5.368402,"is_reserved":false,"is_disabled":false,"rental_uris":{"android":"levelo://app?vid=22db3c03-3178-4996-97de-f45dc67f927e","ios":"levelo://app?vid=22db3c03-3178-4996-97de-f45dc67f927e"},"vehicle_type_id":"4","last_reported":1717362449,"current_range_meters":20400,"station_id":"ce4bhbp2rcd13ifvqesg","pricing_plan_id":"cebpf4jnsgd1na2vs0mg"},{"bike_id":"4e0122bc-893d-4963-bac4-71e0cd5b34a5","system_id":"levelo_inurba_marseille","lat":43.305994,"lon":5.393687,"is_reserved":false,"is_disabled":false,"rental_uris":{"android":"levelo://app?vid=4e0122bc-893d-4963-bac4-71e0cd5b34a5","ios":"levelo://app?vid=4e0122bc-893d-4963-bac4-71e0cd5b34a5"},"vehicle_type_id":"4","last_reported":1717362449,"current_range_meters":30000,"station_id":"ce4bh0p2rcd13ifvqd80","pricing_plan_id":"cebpf4jnsgd1na2vs0mg"},{"bike_id":"01c20bc5-b9de-4ae0-8bde-57c67f5b4ec5","system_id":"levelo_inurba_marseille","lat":43.305994,"lon":5.393687,"is_reserved":false,"is_disabled":false,"rental_uris":{"android":"levelo://app?vid=01c20bc5-b9de-4ae0-8bde-57c67f5b4ec5","ios":"levelo://app?vid=01c20bc5-b9de-4ae0-8bde-57c67f5b4ec5"},"vehicle_type_id":"4","last_reported":1717362449,"current_range_meters":22800,"station_id":"ce4bh0p2rcd13ifvqd80","pricing_plan_id":"cebpf4jnsgd1na2vs0mg"},{"bike_id":"15379197-be5a-4a9f-8d0c-c4b0f0412f1a","system_id":"levelo_inurba_marseille","lat":43.303002,"lon":5.392142,"is_reserved":false,"is_disabled":false,"rental_uris":{"android":"levelo://app?vid=15379197-be5a-4a9f-8d0c-c4b0f0412f1a","ios":"levelo://app?vid=15379197-be5a-4a9f-8d0c-c4b0f0412f1a"},"vehicle_type_id":"4","last_reported":1717362449,"current_range_meters":11600,"station_id":"ce4bgkh2rcd13ifvqbk0","pricing_plan_id":"cebpf4jnsgd1na2vs0mg"},{"bike_id":"9b425f37-ec76-487a-b882-07d76c902dfc","system_id":"levelo_inurba_marseille","lat":43.303002,"lon":5.392142,"is_reserved":false,"is_disabled":false,"rental_uris":{"android":"levelo://app?vid=9b425f37-ec76-487a-b882-07d76c902dfc","ios":"levelo://app?vid=9b425f37-ec76-487a-b882-07d76c902dfc"},"vehicle_type_id":"4","last_reported":1717362449,"current_range_meters":31200,"station_id":"ce4bgkh2rcd13ifvqbk0","pricing_plan_id":"cebpf4jnsgd1na2vs0mg"},{"bike_id":"8cdeeaf7-cd24-435c-bb60-6f5b09d58c79","system_id":"levelo_inurba_marseille","lat":43.302992,"lon":5.392136,"is_reserved":false,"is_disabled":false,"rental_uris":{"android":"levelo://app?vid=8cdeeaf7-cd24-435c-bb60-6f5b09d58c79","ios":"levelo://app?vid=8cdeeaf7-cd24-435c-bb60-6f5b09d58c79"},"vehicle_type_id":"4","last_reported":1717362449,"current_range_meters":16400,"station_id":"ce4bgkh2rcd13ifvqbk0","pricing_plan_id":"cebpf4jnsgd1na2vs0mg"},{"bike_id":"b056dea4-7849-47d3-b537-9ce89089ef91","system_id":"levelo_inurba_marseille","lat":43.303002,"lon":5.392142,"is_reserved":false,"is_disabled":false,"rental_uris":{"android":"levelo://app?vid=b056dea4-7849-47d3-b537-9ce89089ef91","ios":"levelo://app?vid=b056dea4-7849-47d3-b537-9ce89089ef91"},"vehicle_type_id":"4","last_reported":1717362449,"current_range_meters":12800,"station_id":"ce4bgkh2rcd13ifvqbk0","pricing_plan_id":"cebpf4jnsgd1na2vs0mg"},{"bike_id":"ed79fff4-9fc2-439a-90ff-6210cfc9f4e9","system_id":"levelo_inurba_marseille","lat":43.303002,"lon":5.392142,"is_reserved":false,"is_disabled":false,"rental_uris":{"android":"levelo://app?vid=ed79fff4-9fc2-439a-90ff-6210cfc9f4e9","ios":"levelo://app?vid=ed79fff4-9fc2-439a-90ff-6210cfc9f4e9"},"vehicle_type_id":"4","last_reported":1717362449,"current_range_meters":9600,"station_id":"ce4bgkh2rcd13ifvqbk0","pricing_plan_id":"cebpf4jnsgd1na2vs0mg"},{"bike_id":"075160de-02df-4ba4-b35c-8cb4103da5b7","system_id":"levelo_inurba_marseille","lat":43.29384,"lon":5.37877,"is_reserved":false,"is_disabled":false,"rental_uris":{"android":"levelo://app?vid=075160de-02df-4ba4-b35c-8cb4103da5b7","ios":"levelo://app?vid=075160de-02df-4ba4-b35c-8cb4103da5b7"},"vehicle_type_id":"4","last_reported":1717362449,"current_range_meters":9600,"station_id":"ce4bgjh2rcd13ifvqbf0","pricing_plan_id":"cebpf4jnsgd1na2vs0mg"},{"bike_id":"2c88abe0-78f5-40aa-b2dd-7b9e9f590349","system_id":"levelo_inurba_marseille","lat":43.2936,"lon":5.37835,"is_reserved":false,"is_disabled":false,"rental_uris":{"android":"levelo://app?vid=2c88abe0-78f5-40aa-b2dd-7b9e9f590349","ios":"levelo://app?vid=2c88abe0-78f5-40aa-b2dd-7b9e9f590349"},"vehicle_type_id":"4","last_reported":1717362449,"current_range_meters":10800,"station_id":"ce4bgjh2rcd13ifvqbf0","pricing_plan_id":"cebpf4jnsgd1na2vs0mg"},{"bike_id":"860ca405-9936-4b69-b3e1-160a7dfd62a2","system_id":"levelo_inurba_marseille","lat":43.30085,"lon":5.390856,"is_reserved":false,"is_disabled":false,"rental_uris":{"android":"levelo://app?vid=860ca405-9936-4b69-b3e1-160a7dfd62a2","ios":"levelo://app?vid=860ca405-9936-4b69-b3e1-160a7dfd62a2"},"vehicle_type_id":"4","last_reported":1717362449,"current_range_meters":20800,"station_id":"ce4bh192rcd13ifvqdb0","pricing_plan_id":"cebpf4jnsgd1na2vs0mg"},{"bike_id":"e53b31de-2a7c-45e8-8bdf-969b1ce506b5","system_id":"levelo_inurba_marseille","lat":43.293009,"lon":5.374584,"is_reserved":false,"is_disabled":false,"rental_uris":{"android":"levelo://app?vid=e53b31de-2a7c-45e8-8bdf-969b1ce506b5","ios":"levelo://app?vid=e53b31de-2a7c-45e8-8bdf-969b1ce506b5"},"vehicle_type_id":"4","last_reported":1717362449,"current_range_meters":18400,"station_id":"ce4bgi12rcd13ifvqb70","pricing_plan_id":"cebpf4jnsgd1na2vs0mg"},{"bike_id":"a171f072-479f-4d88-974c-f5b92caedf26","system_id":"levelo_inurba_marseille","lat":43.298764,"lon":5.388973,"is_reserved":false,"is_disabled":false,"rental_uris":{"android":"levelo://app?vid=a171f072-479f-4d88-974c-f5b92caedf26","ios":"levelo://app?vid=a171f072-479f-4d88-974c-f5b92caedf26"},"vehicle_type_id":"4","last_reported":1717362449,"current_range_meters":6800,"station_id":"ce4bh392rcd13ifvqdl0","pricing_plan_id":"cebpf4jnsgd1na2vs0mg"},{"bike_id":"e7d975fe-74a4-4153-af94-c85964351aeb","system_id":"levelo_inurba_marseille","lat":43.298764,"lon":5.388973,"is_reserved":false,"is_disabled":false,"rental_uris":{"android":"levelo://app?vid=e7d975fe-74a4-4153-af94-c85964351aeb","ios":"levelo://app?vid=e7d975fe-74a4-4153-af94-c85964351aeb"},"vehicle_type_id":"4","last_reported":1717362449,"current_range_meters":8400,"station_id":"ce4bh392rcd13ifvqdl0","pricing_plan_id":"cebpf4jnsgd1na2vs0mg"},{"bike_id":"3c9e92f9-6a6b-4f71-a662-2b5d7be056a8","system_id":"levelo_inurba_marseille","lat":43.298764,"lon":5.388973,"is_reserved":false,"is_disabled":false,"rental_uris":{"android":"levelo://app?vid=3c9e92f9-6a6b-4f71-a662-2b5d7be056a8","ios":"levelo://app?vid=3c9e92f9-6a6b-4f71-a662-2b5d7be056a8"},"vehicle_type_id":"4","last_reported":1717362449,"current_range_meters":21200,"station_id":"ce4bh392rcd13ifvqdl0","pricing_plan_id":"cebpf4jnsgd1na2vs0mg"},{"bike_id":"2911e6eb-374f-47cc-a07d-d76959f37a43","system_id":"levelo_inurba_marseille","lat":43.298764,"lon":5.388973,"is_reserved":false,"is_disabled":false,"rental_uris":{"android":"levelo://app?vid=2911e6eb-374f-47cc-a07d-d76959f37a43","ios":"levelo://app?vid=2911e6eb-374f-47cc-a07d-d76959f37a43"},"vehicle_type_id":"4","last_reported":1717362449,"current_range_meters":13200,"station_id":"ce4bh392rcd13ifvqdl0","pricing_plan_id":"cebpf4jnsgd1na2vs0mg"},{"bike_id":"d5b2d090-85ed-44b6-ab8f-c6a454d91c17","system_id":"levelo_inurba_marseille","lat":43.298764,"lon":5.388973,"is_reserved":false,"is_disabled":false,"rental_uris":{"android":"levelo://app?vid=d5b2d090-85ed-44b6-ab8f-c6a454d91c17","ios":"levelo://app?vid=d5b2d090-85ed-44b6-ab8f-c6a454d91c17"},"vehicle_type_id":"4","last_reported":1717362449,"current_range_meters":12400,"station_id":"ce4bh392rcd13ifvqdl0","pricing_plan_id":"cebpf4jnsgd1na2vs0mg"},{"bike_id":"b575f340-cfb5-4499-8e53-e191d906449d","system_id":"levelo_inurba_marseille","lat":43.298764,"lon":5.388973,"is_reserved":false,"is_disabled":false,"rental_uris":{"android":"levelo://app?vid=b575f340-cfb5-4499-8e53-e191d906449d","ios":"levelo://app?vid=b575f340-cfb5-4499-8e53-e191d906449d"},"vehicle_type_id":"4","last_reported":1717362449,"current_range_meters":14000,"station_id":"ce4bh392rcd13ifvqdl0","pricing_plan_id":"cebpf4jnsgd1na2vs0mg"},{"bike_id":"ad203f73-7d4b-4643-8010-a70f935d7279","system_id":"levelo_inurba_marseille","lat":43.298764,"lon":5.388973,"is_reserved":false,"is_disabled":false,"rental_uris":{"android":"levelo://app?vid=ad203f73-7d4b-4643-8010-a70f935d7279","ios":"levelo://app?vid=ad203f73-7d4b-4643-8010-a70f935d7279"},"vehicle_type_id":"4","last_reported":1717362449,"current_range_meters":28000,"station_id":"ce4bh392rcd13ifvqdl0","pricing_plan_id":"cebpf4jnsgd1na2vs0mg"},{"bike_id":"2732b101-2727-4eb0-9775-84e6572735d4","system_id":"levelo_inurba_marseille","lat":43.298764,"lon":5.388973,"is_reserved":false,"is_disabled":false,"rental_uris":{"android":"levelo://app?vid=2732b101-2727-4eb0-9775-84e6572735d4","ios":"levelo://app?vid=2732b101-2727-4eb0-9775-84e6572735d4"},"vehicle_type_id":"4","last_reported":1717362449,"current_range_meters":12000,"station_id":"ce4bh392rcd13ifvqdl0","pricing_plan_id":"cebpf4jnsgd1na2vs0mg"},{"bike_id":"c0eabf4a-36ed-4a1a-a0e0-92d13e8277f0","system_id":"levelo_inurba_marseille","lat":43.298764,"lon":5.388973,"is_reserved":false,"is_disabled":false,"rental_uris":{"android":"levelo://app?vid=c0eabf4a-36ed-4a1a-a0e0-92d13e8277f0","ios":"levelo://app?vid=c0eabf4a-36ed-4a1a-a0e0-92d13e8277f0"},"vehicle_type_id":"4","last_reported":1717362449,"current_range_meters":14800,"station_id":"ce4bh392rcd13ifvqdl0","pricing_plan_id":"cebpf4jnsgd1na2vs0mg"},{"bike_id":"48a17765-4f6c-4bd5-a0d9-ffa49212e6c7","system_id":"levelo_inurba_marseille","lat":43.298764,"lon":5.388973,"is_reserved":false,"is_disabled":false,"rental_uris":{"android":"levelo://app?vid=48a17765-4f6c-4bd5-a0d9-ffa49212e6c7","ios":"levelo://app?vid=48a17765-4f6c-4bd5-a0d9-ffa49212e6c7"},"vehicle_type_id":"4","last_reported":1717362449,"current_range_meters":16800,"station_id":"ce4bh392rcd13ifvqdl0","pricing_plan_id":"cebpf4jnsgd1na2vs0mg"},{"bike_id":"b11413fe-dbc5-49d3-81a3-8db9af28c377","system_id":"levelo_inurba_marseille","lat":43.291994,"lon":5.357886,"is_reserved":false,"is_disabled":false,"rental_uris":{"android":"levelo://app?vid=b11413fe-dbc5-49d3-81a3-8db9af28c377","ios":"levelo://app?vid=b11413fe-dbc5-49d3-81a3-8db9af28c377"},"vehicle_type_id":"4","last_reported":1717362449,"current_range_meters":0,"station_id":"ce4bhb12rcd13ifvqel0","pricing_plan_id":"cebpf4jnsgd1na2vs0mg"},{"bike_id":"1a206375-1cfe-4f1b-ba41-a3ceb8379a2b","system_id":"levelo_inurba_marseille","lat":43.29193,"lon":5.35816,"is_reserved":false,"is_disabled":false,"rental_uris":{"android":"levelo://app?vid=1a206375-1cfe-4f1b-ba41-a3ceb8379a2b","ios":"levelo://app?vid=1a206375-1cfe-4f1b-ba41-a3ceb8379a2b"},"vehicle_type_id":"4","last_reported":1717362449,"current_range_meters":15600,"station_id":"","pricing_plan_id":"cebpf4jnsgd1na2vs0mg"},{"bike_id":"5c49fed4-5274-4457-b368-4a3792eec1c6","system_id":"levelo_inurba_marseille","lat":43.309038,"lon":5.396546,"is_reserved":false,"is_disabled":false,"rental_uris":{"android":"levelo://app?vid=5c49fed4-5274-4457-b368-4a3792eec1c6","ios":"levelo://app?vid=5c49fed4-5274-4457-b368-4a3792eec1c6"},"vehicle_type_id":"4","last_reported":1717362449,"current_range_meters":11200,"station_id":"ce4bh012rcd13ifvqcv0","pricing_plan_id":"cebpf4jnsgd1na2vs0mg"},{"bike_id":"88d85188-9462-4941-8600-f60d2bfd0bdf","system_id":"levelo_inurba_marseille","lat":43.3132,"lon":5.39688,"is_reserved":false,"is_disabled":false,"rental_uris":{"android":"levelo://app?vid=88d85188-9462-4941-8600-f60d2bfd0bdf","ios":"levelo://app?vid=88d85188-9462-4941-8600-f60d2bfd0bdf"},"vehicle_type_id":"4","last_reported":1717362449,"current_range_meters":17600,"station_id":"","pricing_plan_id":"cebpf4jnsgd1na2vs0mg"},{"bike_id":"20be9fd4-e6ec-46a6-9d72-bca94d08009c","system_id":"levelo_inurba_marseille","lat":43.31334,"lon":5.39692,"is_reserved":false,"is_disabled":false,"rental_uris":{"android":"levelo://app?vid=20be9fd4-e6ec-46a6-9d72-bca94d08009c","ios":"levelo://app?vid=20be9fd4-e6ec-46a6-9d72-bca94d08009c"},"vehicle_type_id":"4","last_reported":1717362449,"current_range_meters":2800,"station_id":"ce4bgvp2rcd13ifvqcu0","pricing_plan_id":"cebpf4jnsgd1na2vs0mg"},{"bike_id":"b3edb4f0-963b-46ba-a79f-776b8f50b991","system_id":"levelo_inurba_marseille","lat":43.313291,"lon":5.396838,"is_reserved":false,"is_disabled":false,"rental_uris":{"android":"levelo://app?vid=b3edb4f0-963b-46ba-a79f-776b8f50b991","ios":"levelo://app?vid=b3edb4f0-963b-46ba-a79f-776b8f50b991"},"vehicle_type_id":"4","last_reported":1717362449,"current_range_meters":23600,"station_id":"ce4bgvp2rcd13ifvqcu0","pricing_plan_id":"cebpf4jnsgd1na2vs0mg"},{"bike_id":"6fbd8c10-401a-411a-a6e9-69e4d45b9278","system_id":"levelo_inurba_marseille","lat":43.309047,"lon":5.396551,"is_reserved":false,"is_disabled":false,"rental_uris":{"android":"levelo://app?vid=6fbd8c10-401a-411a-a6e9-69e4d45b9278","ios":"levelo://app?vid=6fbd8c10-401a-411a-a6e9-69e4d45b9278"},"vehicle_type_id":"4","last_reported":1717362449,"current_range_meters":14400,"station_id":"ce4bh012rcd13ifvqcv0","pricing_plan_id":"cebpf4jnsgd1na2vs0mg"},{"bike_id":"4d3c82a3-c6c6-4d5c-a61a-301f82f9bcdc","system_id":"levelo_inurba_marseille","lat":43.31328,"lon":5.39702,"is_reserved":false,"is_disabled":false,"rental_uris":{"android":"levelo://app?vid=4d3c82a3-c6c6-4d5c-a61a-301f82f9bcdc","ios":"levelo://app?vid=4d3c82a3-c6c6-4d5c-a61a-301f82f9bcdc"},"vehicle_type_id":"4","last_reported":1717362449,"current_range_meters":26800,"station_id":"ce4bgvp2rcd13ifvqcu0","pricing_plan_id":"cebpf4jnsgd1na2vs0mg"},{"bike_id":"ad7958aa-4007-48b1-a1c8-a44759453cfd","system_id":"levelo_inurba_marseille","lat":43.313291,"lon":5.396838,"is_reserved":false,"is_disabled":false,"rental_uris":{"android":"levelo://app?vid=ad7958aa-4007-48b1-a1c8-a44759453cfd","ios":"levelo://app?vid=ad7958aa-4007-48b1-a1c8-a44759453cfd"},"vehicle_type_id":"4","last_reported":1717362449,"current_range_meters":11600,"station_id":"ce4bgvp2rcd13ifvqcu0","pricing_plan_id":"cebpf4jnsgd1na2vs0mg"},{"bike_id":"7d0e3ed1-ddbc-4142-9a46-50a916f00d86","system_id":"levelo_inurba_marseille","lat":43.31335,"lon":5.39703,"is_reserved":false,"is_disabled":false,"rental_uris":{"android":"levelo://app?vid=7d0e3ed1-ddbc-4142-9a46-50a916f00d86","ios":"levelo://app?vid=7d0e3ed1-ddbc-4142-9a46-50a916f00d86"},"vehicle_type_id":"4","last_reported":1717362449,"current_range_meters":6800,"station_id":"ce4bgvp2rcd13ifvqcu0","pricing_plan_id":"cebpf4jnsgd1na2vs0mg"},{"bike_id":"0fd67d17-44a4-4af1-9550-02cc66bbf4db","system_id":"levelo_inurba_marseille","lat":43.29529,"lon":5.385581,"is_reserved":false,"is_disabled":false,"rental_uris":{"android":"levelo://app?vid=0fd67d17-44a4-4af1-9550-02cc66bbf4db","ios":"levelo://app?vid=0fd67d17-44a4-4af1-9550-02cc66bbf4db"},"vehicle_type_id":"4","last_reported":1717362449,"current_range_meters":21600,"station_id":"ce4bgih2rcd13ifvqba0","pricing_plan_id":"cebpf4jnsgd1na2vs0mg"},{"bike_id":"bd8cb891-d04b-46b3-9473-feaefc97d3dc","system_id":"levelo_inurba_marseille","lat":43.29529,"lon":5.385581,"is_reserved":false,"is_disabled":false,"rental_uris":{"android":"levelo://app?vid=bd8cb891-d04b-46b3-9473-feaefc97d3dc","ios":"levelo://app?vid=bd8cb891-d04b-46b3-9473-feaefc97d3dc"},"vehicle_type_id":"4","last_reported":1717362449,"current_range_meters":23200,"station_id":"ce4bgih2rcd13ifvqba0","pricing_plan_id":"cebpf4jnsgd1na2vs0mg"},{"bike_id":"d82649a0-8ec3-4a48-8c91-2dd18de73ba3","system_id":"levelo_inurba_marseille","lat":43.29529,"lon":5.385581,"is_reserved":false,"is_disabled":false,"rental_uris":{"android":"levelo://app?vid=d82649a0-8ec3-4a48-8c91-2dd18de73ba3","ios":"levelo://app?vid=d82649a0-8ec3-4a48-8c91-2dd18de73ba3"},"vehicle_type_id":"4","last_reported":1717362449,"current_range_meters":29600,"station_id":"ce4bgih2rcd13ifvqba0","pricing_plan_id":"cebpf4jnsgd1na2vs0mg"},{"bike_id":"9cf0532b-98a1-42da-b52d-971459a8efc2","system_id":"levelo_inurba_marseille","lat":43.29529,"lon":5.385581,"is_reserved":false,"is_disabled":false,"rental_uris":{"android":"levelo://app?vid=9cf0532b-98a1-42da-b52d-971459a8efc2","ios":"levelo://app?vid=9cf0532b-98a1-42da-b52d-971459a8efc2"},"vehicle_type_id":"4","last_reported":1717362449,"current_range_meters":27200,"station_id":"ce4bgih2rcd13ifvqba0","pricing_plan_id":"cebpf4jnsgd1na2vs0mg"},{"bike_id":"e6b851dc-68b6-47b8-9f3a-3ec80018f39b","system_id":"levelo_inurba_marseille","lat":43.29529,"lon":5.385581,"is_reserved":false,"is_disabled":false,"rental_uris":{"android":"levelo://app?vid=e6b851dc-68b6-47b8-9f3a-3ec80018f39b","ios":"levelo://app?vid=e6b851dc-68b6-47b8-9f3a-3ec80018f39b"},"vehicle_type_id":"4","last_reported":1717362449,"current_range_meters":29200,"station_id":"ce4bgih2rcd13ifvqba0","pricing_plan_id":"cebpf4jnsgd1na2vs0mg"},{"bike_id":"7c1f33bd-31bb-43d3-9065-d7c8d171ebdd","system_id":"levelo_inurba_marseille","lat":43.29529,"lon":5.385581,"is_reserved":false,"is_disabled":false,"rental_uris":{"android":"levelo://app?vid=7c1f33bd-31bb-43d3-9065-d7c8d171ebdd","ios":"levelo://app?vid=7c1f33bd-31bb-43d3-9065-d7c8d171ebdd"},"vehicle_type_id":"4","last_reported":1717362449,"current_range_meters":22000,"station_id":"ce4bgih2rcd13ifvqba0","pricing_plan_id":"cebpf4jnsgd1na2vs0mg"},{"bike_id":"6bbf01ec-bcb7-44c1-b212-41045e01b03f","system_id":"levelo_inurba_marseille","lat":43.29529,"lon":5.385581,"is_reserved":false,"is_disabled":false,"rental_uris":{"android":"levelo://app?vid=6bbf01ec-bcb7-44c1-b212-41045e01b03f","ios":"levelo://app?vid=6bbf01ec-bcb7-44c1-b212-41045e01b03f"},"vehicle_type_id":"4","last_reported":1717362449,"current_range_meters":21200,"station_id":"ce4bgih2rcd13ifvqba0","pricing_plan_id":"cebpf4jnsgd1na2vs0mg"},{"bike_id":"42877914-f5d2-417e-bbbe-423f355de14a","system_id":"levelo_inurba_marseille","lat":43.29529,"lon":5.385581,"is_reserved":false,"is_disabled":false,"rental_uris":{"android":"levelo://app?vid=42877914-f5d2-417e-bbbe-423f355de14a","ios":"levelo://app?vid=42877914-f5d2-417e-bbbe-423f355de14a"},"vehicle_type_id":"4","last_reported":1717362449,"current_range_meters":22800,"station_id":"ce4bgih2rcd13ifvqba0","pricing_plan_id":"cebpf4jnsgd1na2vs0mg"},{"bike_id":"f7dd29ce-0697-48af-937c-5e45072dbf9a","system_id":"levelo_inurba_marseille","lat":43.29529,"lon":5.385581,"is_reserved":false,"is_disabled":false,"rental_uris":{"android":"levelo://app?vid=f7dd29ce-0697-48af-937c-5e45072dbf9a","ios":"levelo://app?vid=f7dd29ce-0697-48af-937c-5e45072dbf9a"},"vehicle_type_id":"4","last_reported":1717362449,"current_range_meters":15600,"station_id":"ce4bgih2rcd13ifvqba0","pricing_plan_id":"cebpf4jnsgd1na2vs0mg"},{"bike_id":"93df4ab7-311c-4047-82d0-266fedec7cb7","system_id":"levelo_inurba_marseille","lat":43.29529,"lon":5.385581,"is_reserved":false,"is_disabled":false,"rental_uris":{"android":"levelo://app?vid=93df4ab7-311c-4047-82d0-266fedec7cb7","ios":"levelo://app?vid=93df4ab7-311c-4047-82d0-266fedec7cb7"},"vehicle_type_id":"4","last_reported":1717362449,"current_range_meters":14000,"station_id":"ce4bgih2rcd13ifvqba0","pricing_plan_id":"cebpf4jnsgd1na2vs0mg"},{"bike_id":"ad529d20-5fe3-4ea6-81a5-0174e5336665","system_id":"levelo_inurba_marseille","lat":43.29529,"lon":5.385581,"is_reserved":false,"is_disabled":false,"rental_uris":{"android":"levelo://app?vid=ad529d20-5fe3-4ea6-81a5-0174e5336665","ios":"levelo://app?vid=ad529d20-5fe3-4ea6-81a5-0174e5336665"},"vehicle_type_id":"4","last_reported":1717362449,"current_range_meters":31600,"station_id":"ce4bgih2rcd13ifvqba0","pricing_plan_id":"cebpf4jnsgd1na2vs0mg"},{"bike_id":"7044abe3-3eee-46b5-b922-47c86091d15a","system_id":"levelo_inurba_marseille","lat":43.29529,"lon":5.385581,"is_reserved":false,"is_disabled":false,"rental_uris":{"android":"levelo://app?vid=7044abe3-3eee-46b5-b922-47c86091d15a","ios":"levelo://app?vid=7044abe3-3eee-46b5-b922-47c86091d15a"},"vehicle_type_id":"4","last_reported":1717362449,"current_range_meters":15200,"station_id":"ce4bgih2rcd13ifvqba0","pricing_plan_id":"cebpf4jnsgd1na2vs0mg"},{"bike_id":"8338810a-db6e-4fa9-9862-8c5236bb59a6","system_id":"levelo_inurba_marseille","lat":43.29529,"lon":5.385581,"is_reserved":false,"is_disabled":false,"rental_uris":{"android":"levelo://app?vid=8338810a-db6e-4fa9-9862-8c5236bb59a6","ios":"levelo://app?vid=8338810a-db6e-4fa9-9862-8c5236bb59a6"},"vehicle_type_id":"4","last_reported":1717362449,"current_range_meters":7600,"station_id":"ce4bgih2rcd13ifvqba0","pricing_plan_id":"cebpf4jnsgd1na2vs0mg"},{"bike_id":"a282f54f-581a-41ef-9920-a6ba5f70c082","system_id":"levelo_inurba_marseille","lat":43.29529,"lon":5.385581,"is_reserved":false,"is_disabled":false,"rental_uris":{"android":"levelo://app?vid=a282f54f-581a-41ef-9920-a6ba5f70c082","ios":"levelo://app?vid=a282f54f-581a-41ef-9920-a6ba5f70c082"},"vehicle_type_id":"4","last_reported":1717362449,"current_range_meters":26800,"station_id":"ce4bgih2rcd13ifvqba0","pricing_plan_id":"cebpf4jnsgd1na2vs0mg"},{"bike_id":"1d4cedbd-ad31-46f7-9bf4-3efd18b8834d","system_id":"levelo_inurba_marseille","lat":43.29529,"lon":5.385581,"is_reserved":false,"is_disabled":false,"rental_uris":{"android":"levelo://app?vid=1d4cedbd-ad31-46f7-9bf4-3efd18b8834d","ios":"levelo://app?vid=1d4cedbd-ad31-46f7-9bf4-3efd18b8834d"},"vehicle_type_id":"4","last_reported":1717362449,"current_range_meters":14800,"station_id":"ce4bgih2rcd13ifvqba0","pricing_plan_id":"cebpf4jnsgd1na2vs0mg"},{"bike_id":"c32fc186-4a5c-4048-8fe6-d53cf8f60abc","system_id":"levelo_inurba_marseille","lat":43.29529,"lon":5.385581,"is_reserved":false,"is_disabled":false,"rental_uris":{"android":"levelo://app?vid=c32fc186-4a5c-4048-8fe6-d53cf8f60abc","ios":"levelo://app?vid=c32fc186-4a5c-4048-8fe6-d53cf8f60abc"},"vehicle_type_id":"4","last_reported":1717362449,"current_range_meters":13200,"station_id":"ce4bgih2rcd13ifvqba0","pricing_plan_id":"cebpf4jnsgd1na2vs0mg"},{"bike_id":"a7a25b32-3c08-4b39-90ad-5c1ed9b4ed93","system_id":"levelo_inurba_marseille","lat":43.29529,"lon":5.385581,"is_reserved":false,"is_disabled":false,"rental_uris":{"android":"levelo://app?vid=a7a25b32-3c08-4b39-90ad-5c1ed9b4ed93","ios":"levelo://app?vid=a7a25b32-3c08-4b39-90ad-5c1ed9b4ed93"},"vehicle_type_id":"4","last_reported":1717362449,"current_range_meters":13200,"station_id":"ce4bgih2rcd13ifvqba0","pricing_plan_id":"cebpf4jnsgd1na2vs0mg"},{"bike_id":"b8ad1603-ca57-4f86-9ae8-48dc712515a0","system_id":"levelo_inurba_marseille","lat":43.29529,"lon":5.385581,"is_reserved":false,"is_disabled":false,"rental_uris":{"android":"levelo://app?vid=b8ad1603-ca57-4f86-9ae8-48dc712515a0","ios":"levelo://app?vid=b8ad1603-ca57-4f86-9ae8-48dc712515a0"},"vehicle_type_id":"4","last_reported":1717362449,"current_range_meters":21600,"station_id":"ce4bgih2rcd13ifvqba0","pricing_plan_id":"cebpf4jnsgd1na2vs0mg"},{"bike_id":"e9b6e4d9-9f51-4c50-b694-f00859008d26","system_id":"levelo_inurba_marseille","lat":43.29529,"lon":5.385581,"is_reserved":false,"is_disabled":false,"rental_uris":{"android":"levelo://app?vid=e9b6e4d9-9f51-4c50-b694-f00859008d26","ios":"levelo://app?vid=e9b6e4d9-9f51-4c50-b694-f00859008d26"},"vehicle_type_id":"4","last_reported":1717362449,"current_range_meters":6400,"station_id":"ce4bgih2rcd13ifvqba0","pricing_plan_id":"cebpf4jnsgd1na2vs0mg"},{"bike_id":"fa05695c-be87-48cc-8a7a-fdc70cf56f08","system_id":"levelo_inurba_marseille","lat":43.29529,"lon":5.385581,"is_reserved":false,"is_disabled":false,"rental_uris":{"android":"levelo://app?vid=fa05695c-be87-48cc-8a7a-fdc70cf56f08","ios":"levelo://app?vid=fa05695c-be87-48cc-8a7a-fdc70cf56f08"},"vehicle_type_id":"4","last_reported":1717362449,"current_range_meters":16000,"station_id":"ce4bgih2rcd13ifvqba0","pricing_plan_id":"cebpf4jnsgd1na2vs0mg"},{"bike_id":"417f76a2-f404-4d3c-95c0-c05996d23091","system_id":"levelo_inurba_marseille","lat":43.29532,"lon":5.385475,"is_reserved":false,"is_disabled":false,"rental_uris":{"android":"levelo://app?vid=417f76a2-f404-4d3c-95c0-c05996d23091","ios":"levelo://app?vid=417f76a2-f404-4d3c-95c0-c05996d23091"},"vehicle_type_id":"4","last_reported":1717362449,"current_range_meters":24400,"station_id":"ce4bgih2rcd13ifvqba0","pricing_plan_id":"cebpf4jnsgd1na2vs0mg"},{"bike_id":"aaf78f2e-a08a-4b88-835c-40e437ab0af1","system_id":"levelo_inurba_marseille","lat":43.29529,"lon":5.385581,"is_reserved":false,"is_disabled":false,"rental_uris":{"android":"levelo://app?vid=aaf78f2e-a08a-4b88-835c-40e437ab0af1","ios":"levelo://app?vid=aaf78f2e-a08a-4b88-835c-40e437ab0af1"},"vehicle_type_id":"4","last_reported":1717362449,"current_range_meters":18400,"station_id":"ce4bgih2rcd13ifvqba0","pricing_plan_id":"cebpf4jnsgd1na2vs0mg"},{"bike_id":"703548a2-d174-443d-8b0b-415df1c5b723","system_id":"levelo_inurba_marseille","lat":43.29529,"lon":5.385581,"is_reserved":false,"is_disabled":false,"rental_uris":{"android":"levelo://app?vid=703548a2-d174-443d-8b0b-415df1c5b723","ios":"levelo://app?vid=703548a2-d174-443d-8b0b-415df1c5b723"},"vehicle_type_id":"4","last_reported":1717362449,"current_range_meters":27600,"station_id":"ce4bgih2rcd13ifvqba0","pricing_plan_id":"cebpf4jnsgd1na2vs0mg"},{"bike_id":"a0ffdf8b-b486-4fd1-bdd2-950d318d02cb","system_id":"levelo_inurba_marseille","lat":43.295194,"lon":5.39397,"is_reserved":false,"is_disabled":false,"rental_uris":{"android":"levelo://app?vid=a0ffdf8b-b486-4fd1-bdd2-950d318d02cb","ios":"levelo://app?vid=a0ffdf8b-b486-4fd1-bdd2-950d318d02cb"},"vehicle_type_id":"4","last_reported":1717362449,"current_range_meters":26000,"station_id":"ce4bh292rcd13ifvqdf0","pricing_plan_id":"cebpf4jnsgd1na2vs0mg"},{"bike_id":"e30efe1c-ad20-40cf-bd89-f726863dd1bd","system_id":"levelo_inurba_marseille","lat":43.29529,"lon":5.385581,"is_reserved":false,"is_disabled":false,"rental_uris":{"android":"levelo://app?vid=e30efe1c-ad20-40cf-bd89-f726863dd1bd","ios":"levelo://app?vid=e30efe1c-ad20-40cf-bd89-f726863dd1bd"},"vehicle_type_id":"4","last_reported":1717362449,"current_range_meters":22400,"station_id":"ce4bgih2rcd13ifvqba0","pricing_plan_id":"cebpf4jnsgd1na2vs0mg"},{"bike_id":"00ef30e1-b018-4f55-81f0-39a51ca56591","system_id":"levelo_inurba_marseille","lat":43.29529,"lon":5.385581,"is_reserved":false,"is_disabled":false,"rental_uris":{"android":"levelo://app?vid=00ef30e1-b018-4f55-81f0-39a51ca56591","ios":"levelo://app?vid=00ef30e1-b018-4f55-81f0-39a51ca56591"},"vehicle_type_id":"4","last_reported":1717362449,"current_range_meters":20400,"station_id":"ce4bgih2rcd13ifvqba0","pricing_plan_id":"cebpf4jnsgd1na2vs0mg"},{"bike_id":"36348645-447a-4273-afa6-41ea71fcb8f9","system_id":"levelo_inurba_marseille","lat":43.29529,"lon":5.385581,"is_reserved":false,"is_disabled":false,"rental_uris":{"android":"levelo://app?vid=36348645-447a-4273-afa6-41ea71fcb8f9","ios":"levelo://app?vid=36348645-447a-4273-afa6-41ea71fcb8f9"},"vehicle_type_id":"4","last_reported":1717362449,"current_range_meters":5600,"station_id":"ce4bgih2rcd13ifvqba0","pricing_plan_id":"cebpf4jnsgd1na2vs0mg"},{"bike_id":"eaede0d2-fe77-467c-9959-6b215cb05a73","system_id":"levelo_inurba_marseille","lat":43.29529,"lon":5.385581,"is_reserved":false,"is_disabled":false,"rental_uris":{"android":"levelo://app?vid=eaede0d2-fe77-467c-9959-6b215cb05a73","ios":"levelo://app?vid=eaede0d2-fe77-467c-9959-6b215cb05a73"},"vehicle_type_id":"4","last_reported":1717362449,"current_range_meters":16000,"station_id":"ce4bgih2rcd13ifvqba0","pricing_plan_id":"cebpf4jnsgd1na2vs0mg"},{"bike_id":"b3c36866-b16e-4da3-abdc-185e679db54d","system_id":"levelo_inurba_marseille","lat":43.29529,"lon":5.385581,"is_reserved":false,"is_disabled":false,"rental_uris":{"android":"levelo://app?vid=b3c36866-b16e-4da3-abdc-185e679db54d","ios":"levelo://app?vid=b3c36866-b16e-4da3-abdc-185e679db54d"},"vehicle_type_id":"4","last_reported":1717362449,"current_range_meters":8800,"station_id":"ce4bgih2rcd13ifvqba0","pricing_plan_id":"cebpf4jnsgd1na2vs0mg"},{"bike_id":"71263683-27aa-4d52-983b-8788e6dfde25","system_id":"levelo_inurba_marseille","lat":43.29529,"lon":5.385581,"is_reserved":false,"is_disabled":false,"rental_uris":{"android":"levelo://app?vid=71263683-27aa-4d52-983b-8788e6dfde25","ios":"levelo://app?vid=71263683-27aa-4d52-983b-8788e6dfde25"},"vehicle_type_id":"4","last_reported":1717362449,"current_range_meters":31200,"station_id":"ce4bgih2rcd13ifvqba0","pricing_plan_id":"cebpf4jnsgd1na2vs0mg"},{"bike_id":"386d8fec-b7ff-4ab6-bfb6-a7ea6b953e77","system_id":"levelo_inurba_marseille","lat":43.29529,"lon":5.385581,"is_reserved":false,"is_disabled":false,"rental_uris":{"android":"levelo://app?vid=386d8fec-b7ff-4ab6-bfb6-a7ea6b953e77","ios":"levelo://app?vid=386d8fec-b7ff-4ab6-bfb6-a7ea6b953e77"},"vehicle_type_id":"4","last_reported":1717362449,"current_range_meters":18400,"station_id":"ce4bgih2rcd13ifvqba0","pricing_plan_id":"cebpf4jnsgd1na2vs0mg"},{"bike_id":"d0df3d28-3331-4e0a-a7f8-26e1c54c67a5","system_id":"levelo_inurba_marseille","lat":43.29529,"lon":5.385581,"is_reserved":false,"is_disabled":false,"rental_uris":{"android":"levelo://app?vid=d0df3d28-3331-4e0a-a7f8-26e1c54c67a5","ios":"levelo://app?vid=d0df3d28-3331-4e0a-a7f8-26e1c54c67a5"},"vehicle_type_id":"4","last_reported":1717362449,"current_range_meters":20400,"station_id":"ce4bgih2rcd13ifvqba0","pricing_plan_id":"cebpf4jnsgd1na2vs0mg"},{"bike_id":"829febf4-acc1-4f91-9c58-5804a31e1e4e","system_id":"levelo_inurba_marseille","lat":43.29521,"lon":5.38548,"is_reserved":false,"is_disabled":false,"rental_uris":{"android":"levelo://app?vid=829febf4-acc1-4f91-9c58-5804a31e1e4e","ios":"levelo://app?vid=829febf4-acc1-4f91-9c58-5804a31e1e4e"},"vehicle_type_id":"4","last_reported":1717362449,"current_range_meters":24800,"station_id":"ce4bgih2rcd13ifvqba0","pricing_plan_id":"cebpf4jnsgd1na2vs0mg"},{"bike_id":"81435bc3-ca24-47b4-86f2-5ca789041674","system_id":"levelo_inurba_marseille","lat":43.290779,"lon":5.371482,"is_reserved":false,"is_disabled":false,"rental_uris":{"android":"levelo://app?vid=81435bc3-ca24-47b4-86f2-5ca789041674","ios":"levelo://app?vid=81435bc3-ca24-47b4-86f2-5ca789041674"},"vehicle_type_id":"4","last_reported":1717362449,"current_range_meters":23600,"station_id":"ce4bh5p2rcd13ifvqe4g","pricing_plan_id":"cebpf4jnsgd1na2vs0mg"},{"bike_id":"880345d1-f534-40e2-b7af-e17c9b6ffa2d","system_id":"levelo_inurba_marseille","lat":43.302008,"lon":5.394694,"is_reserved":false,"is_disabled":false,"rental_uris":{"android":"levelo://app?vid=880345d1-f534-40e2-b7af-e17c9b6ffa2d","ios":"levelo://app?vid=880345d1-f534-40e2-b7af-e17c9b6ffa2d"},"vehicle_type_id":"4","last_reported":1717362449,"current_range_meters":14400,"station_id":"ce4bh0p2rcd13ifvqd70","pricing_plan_id":"cebpf4jnsgd1na2vs0mg"},{"bike_id":"531c7159-2ee3-4cae-b099-bfebb48dda8e","system_id":"levelo_inurba_marseille","lat":43.302008,"lon":5.394694,"is_reserved":false,"is_disabled":false,"rental_uris":{"android":"levelo://app?vid=531c7159-2ee3-4cae-b099-bfebb48dda8e","ios":"levelo://app?vid=531c7159-2ee3-4cae-b099-bfebb48dda8e"},"vehicle_type_id":"4","last_reported":1717362449,"current_range_meters":27600,"station_id":"ce4bh0p2rcd13ifvqd70","pricing_plan_id":"cebpf4jnsgd1na2vs0mg"},{"bike_id":"a8964587-8df5-4277-9bea-4acff2fe1c04","system_id":"levelo_inurba_marseille","lat":43.290536,"lon":5.359224,"is_reserved":false,"is_disabled":false,"rental_uris":{"android":"levelo://app?vid=a8964587-8df5-4277-9bea-4acff2fe1c04","ios":"levelo://app?vid=a8964587-8df5-4277-9bea-4acff2fe1c04"},"vehicle_type_id":"4","last_reported":1717362449,"current_range_meters":0,"station_id":"ce4bha92rcd13ifvqeg0","pricing_plan_id":"cebpf4jnsgd1na2vs0mg"},{"bike_id":"b86f8117-3adc-404f-87ef-2492ff846c00","system_id":"levelo_inurba_marseille","lat":43.290624,"lon":5.359245,"is_reserved":false,"is_disabled":false,"rental_uris":{"android":"levelo://app?vid=b86f8117-3adc-404f-87ef-2492ff846c00","ios":"levelo://app?vid=b86f8117-3adc-404f-87ef-2492ff846c00"},"vehicle_type_id":"4","last_reported":1717362449,"current_range_meters":15600,"station_id":"ce4bha92rcd13ifvqeg0","pricing_plan_id":"cebpf4jnsgd1na2vs0mg"},{"bike_id":"a9d64d60-3108-4589-b6ad-fa25097cf8ac","system_id":"levelo_inurba_marseille","lat":43.29422,"lon":5.38617,"is_reserved":false,"is_disabled":false,"rental_uris":{"android":"levelo://app?vid=a9d64d60-3108-4589-b6ad-fa25097cf8ac","ios":"levelo://app?vid=a9d64d60-3108-4589-b6ad-fa25097cf8ac"},"vehicle_type_id":"4","last_reported":1717362449,"current_range_meters":12800,"station_id":"ce4bh2h2rcd13ifvqdh0","pricing_plan_id":"cebpf4jnsgd1na2vs0mg"},{"bike_id":"bd83b6cd-d578-495b-a2c2-f8cf4065df6c","system_id":"levelo_inurba_marseille","lat":43.29423,"lon":5.38619,"is_reserved":false,"is_disabled":false,"rental_uris":{"android":"levelo://app?vid=bd83b6cd-d578-495b-a2c2-f8cf4065df6c","ios":"levelo://app?vid=bd83b6cd-d578-495b-a2c2-f8cf4065df6c"},"vehicle_type_id":"4","last_reported":1717362449,"current_range_meters":0,"station_id":"ce4bh2h2rcd13ifvqdh0","pricing_plan_id":"cebpf4jnsgd1na2vs0mg"},{"bike_id":"6dc5eff6-996c-47b8-bf64-7304cac26d7e","system_id":"levelo_inurba_marseille","lat":43.2904,"lon":5.37566,"is_reserved":false,"is_disabled":false,"rental_uris":{"android":"levelo://app?vid=6dc5eff6-996c-47b8-bf64-7304cac26d7e","ios":"levelo://app?vid=6dc5eff6-996c-47b8-bf64-7304cac26d7e"},"vehicle_type_id":"4","last_reported":1717362449,"current_range_meters":11600,"station_id":"ce4bh692rcd13ifvqe90","pricing_plan_id":"cebpf4jnsgd1na2vs0mg"},{"bike_id":"ef310f24-0d3e-4f19-b314-4a69ff2a03f8","system_id":"levelo_inurba_marseille","lat":43.294162,"lon":5.386292,"is_reserved":false,"is_disabled":false,"rental_uris":{"android":"levelo://app?vid=ef310f24-0d3e-4f19-b314-4a69ff2a03f8","ios":"levelo://app?vid=ef310f24-0d3e-4f19-b314-4a69ff2a03f8"},"vehicle_type_id":"4","last_reported":1717362449,"current_range_meters":16000,"station_id":"ce4bh2h2rcd13ifvqdh0","pricing_plan_id":"cebpf4jnsgd1na2vs0mg"},{"bike_id":"a3c6c20b-5b8a-45cb-86bb-d821f20de043","system_id":"levelo_inurba_marseille","lat":43.29423,"lon":5.386247,"is_reserved":false,"is_disabled":false,"rental_uris":{"android":"levelo://app?vid=a3c6c20b-5b8a-45cb-86bb-d821f20de043","ios":"levelo://app?vid=a3c6c20b-5b8a-45cb-86bb-d821f20de043"},"vehicle_type_id":"4","last_reported":1717362449,"current_range_meters":6400,"station_id":"ce4bh2h2rcd13ifvqdh0","pricing_plan_id":"cebpf4jnsgd1na2vs0mg"},{"bike_id":"f4838980-e678-4653-a84f-89c8bae2d231","system_id":"levelo_inurba_marseille","lat":43.29424,"lon":5.38627,"is_reserved":false,"is_disabled":false,"rental_uris":{"android":"levelo://app?vid=f4838980-e678-4653-a84f-89c8bae2d231","ios":"levelo://app?vid=f4838980-e678-4653-a84f-89c8bae2d231"},"vehicle_type_id":"4","last_reported":1717362449,"current_range_meters":16400,"station_id":"ce4bh2h2rcd13ifvqdh0","pricing_plan_id":"cebpf4jnsgd1na2vs0mg"},{"bike_id":"35857bb1-5ce9-447b-8bc6-5b103310042a","system_id":"levelo_inurba_marseille","lat":43.29418,"lon":5.38617,"is_reserved":false,"is_disabled":false,"rental_uris":{"android":"levelo://app?vid=35857bb1-5ce9-447b-8bc6-5b103310042a","ios":"levelo://app?vid=35857bb1-5ce9-447b-8bc6-5b103310042a"},"vehicle_type_id":"4","last_reported":1717362449,"current_range_meters":0,"station_id":"ce4bh2h2rcd13ifvqdh0","pricing_plan_id":"cebpf4jnsgd1na2vs0mg"},{"bike_id":"03b66644-eccf-409a-970a-661e62c086c2","system_id":"levelo_inurba_marseille","lat":43.294162,"lon":5.386292,"is_reserved":false,"is_disabled":false,"rental_uris":{"android":"levelo://app?vid=03b66644-eccf-409a-970a-661e62c086c2","ios":"levelo://app?vid=03b66644-eccf-409a-970a-661e62c086c2"},"vehicle_type_id":"4","last_reported":1717362449,"current_range_meters":4000,"station_id":"ce4bh2h2rcd13ifvqdh0","pricing_plan_id":"cebpf4jnsgd1na2vs0mg"},{"bike_id":"26237636-f159-45e9-aa99-9fa584586ceb","system_id":"levelo_inurba_marseille","lat":43.294162,"lon":5.386292,"is_reserved":false,"is_disabled":false,"rental_uris":{"android":"levelo://app?vid=26237636-f159-45e9-aa99-9fa584586ceb","ios":"levelo://app?vid=26237636-f159-45e9-aa99-9fa584586ceb"},"vehicle_type_id":"4","last_reported":1717362449,"current_range_meters":12000,"station_id":"ce4bh2h2rcd13ifvqdh0","pricing_plan_id":"cebpf4jnsgd1na2vs0mg"},{"bike_id":"910c4fef-5224-498f-98f5-26dd6d7e987a","system_id":"levelo_inurba_marseille","lat":43.294162,"lon":5.386292,"is_reserved":false,"is_disabled":false,"rental_uris":{"android":"levelo://app?vid=910c4fef-5224-498f-98f5-26dd6d7e987a","ios":"levelo://app?vid=910c4fef-5224-498f-98f5-26dd6d7e987a"},"vehicle_type_id":"4","last_reported":1717362449,"current_range_meters":11600,"station_id":"ce4bh2h2rcd13ifvqdh0","pricing_plan_id":"cebpf4jnsgd1na2vs0mg"},{"bike_id":"e6c0422f-49fe-4fc9-a83d-0b2f4029bf62","system_id":"levelo_inurba_marseille","lat":43.29416,"lon":5.3862,"is_reserved":false,"is_disabled":false,"rental_uris":{"android":"levelo://app?vid=e6c0422f-49fe-4fc9-a83d-0b2f4029bf62","ios":"levelo://app?vid=e6c0422f-49fe-4fc9-a83d-0b2f4029bf62"},"vehicle_type_id":"4","last_reported":1717362449,"current_range_meters":7600,"station_id":"ce4bh2h2rcd13ifvqdh0","pricing_plan_id":"cebpf4jnsgd1na2vs0mg"},{"bike_id":"20ed96cc-2103-4525-90a7-94bfff50946d","system_id":"levelo_inurba_marseille","lat":43.294162,"lon":5.386292,"is_reserved":false,"is_disabled":false,"rental_uris":{"android":"levelo://app?vid=20ed96cc-2103-4525-90a7-94bfff50946d","ios":"levelo://app?vid=20ed96cc-2103-4525-90a7-94bfff50946d"},"vehicle_type_id":"4","last_reported":1717362449,"current_range_meters":15200,"station_id":"ce4bh2h2rcd13ifvqdh0","pricing_plan_id":"cebpf4jnsgd1na2vs0mg"},{"bike_id":"7094beeb-db06-40bc-b4d9-696e93ea4431","system_id":"levelo_inurba_marseille","lat":43.29418,"lon":5.38624,"is_reserved":false,"is_disabled":false,"rental_uris":{"android":"levelo://app?vid=7094beeb-db06-40bc-b4d9-696e93ea4431","ios":"levelo://app?vid=7094beeb-db06-40bc-b4d9-696e93ea4431"},"vehicle_type_id":"4","last_reported":1717362449,"current_range_meters":10800,"station_id":"ce4bh2h2rcd13ifvqdh0","pricing_plan_id":"cebpf4jnsgd1na2vs0mg"},{"bike_id":"1f559de1-384a-4ba6-acc8-c3b80a0aa8f7","system_id":"levelo_inurba_marseille","lat":43.29418,"lon":5.38624,"is_reserved":false,"is_disabled":false,"rental_uris":{"android":"levelo://app?vid=1f559de1-384a-4ba6-acc8-c3b80a0aa8f7","ios":"levelo://app?vid=1f559de1-384a-4ba6-acc8-c3b80a0aa8f7"},"vehicle_type_id":"4","last_reported":1717362449,"current_range_meters":4000,"station_id":"ce4bh2h2rcd13ifvqdh0","pricing_plan_id":"cebpf4jnsgd1na2vs0mg"},{"bike_id":"50429305-a8b4-4a70-ad84-8ed472a98a3d","system_id":"levelo_inurba_marseille","lat":43.29419,"lon":5.38626,"is_reserved":false,"is_disabled":false,"rental_uris":{"android":"levelo://app?vid=50429305-a8b4-4a70-ad84-8ed472a98a3d","ios":"levelo://app?vid=50429305-a8b4-4a70-ad84-8ed472a98a3d"},"vehicle_type_id":"4","last_reported":1717362449,"current_range_meters":400,"station_id":"ce4bh2h2rcd13ifvqdh0","pricing_plan_id":"cebpf4jnsgd1na2vs0mg"},{"bike_id":"674ac3a0-dbff-4c70-9695-1886f9141007","system_id":"levelo_inurba_marseille","lat":43.29417,"lon":5.38624,"is_reserved":false,"is_disabled":false,"rental_uris":{"android":"levelo://app?vid=674ac3a0-dbff-4c70-9695-1886f9141007","ios":"levelo://app?vid=674ac3a0-dbff-4c70-9695-1886f9141007"},"vehicle_type_id":"4","last_reported":1717362449,"current_range_meters":17200,"station_id":"ce4bh2h2rcd13ifvqdh0","pricing_plan_id":"cebpf4jnsgd1na2vs0mg"},{"bike_id":"ba86959e-8981-426c-be8a-44b761c34add","system_id":"levelo_inurba_marseille","lat":43.29417,"lon":5.38625,"is_reserved":false,"is_disabled":false,"rental_uris":{"android":"levelo://app?vid=ba86959e-8981-426c-be8a-44b761c34add","ios":"levelo://app?vid=ba86959e-8981-426c-be8a-44b761c34add"},"vehicle_type_id":"4","last_reported":1717362449,"current_range_meters":19200,"station_id":"ce4bh2h2rcd13ifvqdh0","pricing_plan_id":"cebpf4jnsgd1na2vs0mg"},{"bike_id":"f778864d-7d8c-4e07-9aa5-e2f1f7881756","system_id":"levelo_inurba_marseille","lat":43.29419,"lon":5.386303,"is_reserved":false,"is_disabled":false,"rental_uris":{"android":"levelo://app?vid=f778864d-7d8c-4e07-9aa5-e2f1f7881756","ios":"levelo://app?vid=f778864d-7d8c-4e07-9aa5-e2f1f7881756"},"vehicle_type_id":"4","last_reported":1717362449,"current_range_meters":0,"station_id":"ce4bh2h2rcd13ifvqdh0","pricing_plan_id":"cebpf4jnsgd1na2vs0mg"},{"bike_id":"6ea4c548-8a6e-4c25-bfbe-151e744026f5","system_id":"levelo_inurba_marseille","lat":43.294162,"lon":5.386292,"is_reserved":false,"is_disabled":false,"rental_uris":{"android":"levelo://app?vid=6ea4c548-8a6e-4c25-bfbe-151e744026f5","ios":"levelo://app?vid=6ea4c548-8a6e-4c25-bfbe-151e744026f5"},"vehicle_type_id":"4","last_reported":1717362449,"current_range_meters":25200,"station_id":"ce4bh2h2rcd13ifvqdh0","pricing_plan_id":"cebpf4jnsgd1na2vs0mg"},{"bike_id":"c0a6e848-abc0-4032-b96c-9fff2cce8fd8","system_id":"levelo_inurba_marseille","lat":43.29415,"lon":5.38625,"is_reserved":false,"is_disabled":false,"rental_uris":{"android":"levelo://app?vid=c0a6e848-abc0-4032-b96c-9fff2cce8fd8","ios":"levelo://app?vid=c0a6e848-abc0-4032-b96c-9fff2cce8fd8"},"vehicle_type_id":"4","last_reported":1717362449,"current_range_meters":11600,"station_id":"ce4bh2h2rcd13ifvqdh0","pricing_plan_id":"cebpf4jnsgd1na2vs0mg"},{"bike_id":"a40ae6c1-7cbf-4b8b-b640-4b19020c359a","system_id":"levelo_inurba_marseille","lat":43.29417,"lon":5.38629,"is_reserved":false,"is_disabled":false,"rental_uris":{"android":"levelo://app?vid=a40ae6c1-7cbf-4b8b-b640-4b19020c359a","ios":"levelo://app?vid=a40ae6c1-7cbf-4b8b-b640-4b19020c359a"},"vehicle_type_id":"4","last_reported":1717362449,"current_range_meters":1200,"station_id":"ce4bh2h2rcd13ifvqdh0","pricing_plan_id":"cebpf4jnsgd1na2vs0mg"},{"bike_id":"3a08ce44-836c-41d6-9b35-7cf6b9ee33e1","system_id":"levelo_inurba_marseille","lat":43.29413,"lon":5.38623,"is_reserved":false,"is_disabled":false,"rental_uris":{"android":"levelo://app?vid=3a08ce44-836c-41d6-9b35-7cf6b9ee33e1","ios":"levelo://app?vid=3a08ce44-836c-41d6-9b35-7cf6b9ee33e1"},"vehicle_type_id":"4","last_reported":1717362449,"current_range_meters":10800,"station_id":"ce4bh2h2rcd13ifvqdh0","pricing_plan_id":"cebpf4jnsgd1na2vs0mg"},{"bike_id":"b90a3235-fba4-4c56-a508-e81d02db0cdf","system_id":"levelo_inurba_marseille","lat":43.294153,"lon":5.38631,"is_reserved":false,"is_disabled":false,"rental_uris":{"android":"levelo://app?vid=b90a3235-fba4-4c56-a508-e81d02db0cdf","ios":"levelo://app?vid=b90a3235-fba4-4c56-a508-e81d02db0cdf"},"vehicle_type_id":"4","last_reported":1717362449,"current_range_meters":7600,"station_id":"ce4bh2h2rcd13ifvqdh0","pricing_plan_id":"cebpf4jnsgd1na2vs0mg"},{"bike_id":"847292f1-6e84-4a64-a5f6-71f26086a2d2","system_id":"levelo_inurba_marseille","lat":43.294162,"lon":5.386292,"is_reserved":false,"is_disabled":false,"rental_uris":{"android":"levelo://app?vid=847292f1-6e84-4a64-a5f6-71f26086a2d2","ios":"levelo://app?vid=847292f1-6e84-4a64-a5f6-71f26086a2d2"},"vehicle_type_id":"4","last_reported":1717362449,"current_range_meters":2400,"station_id":"ce4bh2h2rcd13ifvqdh0","pricing_plan_id":"cebpf4jnsgd1na2vs0mg"},{"bike_id":"aee4b6a1-71fd-4d9b-aa18-92a4a72069b1","system_id":"levelo_inurba_marseille","lat":43.29415,"lon":5.38633,"is_reserved":false,"is_disabled":false,"rental_uris":{"android":"levelo://app?vid=aee4b6a1-71fd-4d9b-aa18-92a4a72069b1","ios":"levelo://app?vid=aee4b6a1-71fd-4d9b-aa18-92a4a72069b1"},"vehicle_type_id":"4","last_reported":1717362449,"current_range_meters":20800,"station_id":"ce4bh2h2rcd13ifvqdh0","pricing_plan_id":"cebpf4jnsgd1na2vs0mg"},{"bike_id":"580131cd-1088-4958-aefc-a7594e72a11e","system_id":"levelo_inurba_marseille","lat":43.29415,"lon":5.38633,"is_reserved":false,"is_disabled":false,"rental_uris":{"android":"levelo://app?vid=580131cd-1088-4958-aefc-a7594e72a11e","ios":"levelo://app?vid=580131cd-1088-4958-aefc-a7594e72a11e"},"vehicle_type_id":"4","last_reported":1717362449,"current_range_meters":1600,"station_id":"ce4bh2h2rcd13ifvqdh0","pricing_plan_id":"cebpf4jnsgd1na2vs0mg"},{"bike_id":"dac2a92b-07ef-4aec-9798-00e7264a7d01","system_id":"levelo_inurba_marseille","lat":43.289468,"lon":5.363719,"is_reserved":false,"is_disabled":false,"rental_uris":{"android":"levelo://app?vid=dac2a92b-07ef-4aec-9798-00e7264a7d01","ios":"levelo://app?vid=dac2a92b-07ef-4aec-9798-00e7264a7d01"},"vehicle_type_id":"4","last_reported":1717362449,"current_range_meters":12800,"station_id":"ce4bhc92rcd13ifvqetg","pricing_plan_id":"cebpf4jnsgd1na2vs0mg"},{"bike_id":"21d68d82-689c-453d-8247-73c603975f64","system_id":"levelo_inurba_marseille","lat":43.289395,"lon":5.363949,"is_reserved":false,"is_disabled":false,"rental_uris":{"android":"levelo://app?vid=21d68d82-689c-453d-8247-73c603975f64","ios":"levelo://app?vid=21d68d82-689c-453d-8247-73c603975f64"},"vehicle_type_id":"4","last_reported":1717362449,"current_range_meters":0,"station_id":"ce4bhc92rcd13ifvqetg","pricing_plan_id":"cebpf4jnsgd1na2vs0mg"},{"bike_id":"8658b2a5-2198-4a31-bdee-fef430e89257","system_id":"levelo_inurba_marseille","lat":43.304296,"lon":5.397513,"is_reserved":false,"is_disabled":false,"rental_uris":{"android":"levelo://app?vid=8658b2a5-2198-4a31-bdee-fef430e89257","ios":"levelo://app?vid=8658b2a5-2198-4a31-bdee-fef430e89257"},"vehicle_type_id":"4","last_reported":1717362449,"current_range_meters":24400,"station_id":"ce4bh092rcd13ifvqd20","pricing_plan_id":"cebpf4jnsgd1na2vs0mg"},{"bike_id":"5a3ca0e0-e38e-42e1-b94c-3a94eba5d025","system_id":"levelo_inurba_marseille","lat":43.304296,"lon":5.397513,"is_reserved":false,"is_disabled":false,"rental_uris":{"android":"levelo://app?vid=5a3ca0e0-e38e-42e1-b94c-3a94eba5d025","ios":"levelo://app?vid=5a3ca0e0-e38e-42e1-b94c-3a94eba5d025"},"vehicle_type_id":"4","last_reported":1717362449,"current_range_meters":26800,"station_id":"ce4bh092rcd13ifvqd20","pricing_plan_id":"cebpf4jnsgd1na2vs0mg"},{"bike_id":"62c13345-8d4c-498c-86a6-831ed8b481fc","system_id":"levelo_inurba_marseille","lat":43.304296,"lon":5.397513,"is_reserved":false,"is_disabled":false,"rental_uris":{"android":"levelo://app?vid=62c13345-8d4c-498c-86a6-831ed8b481fc","ios":"levelo://app?vid=62c13345-8d4c-498c-86a6-831ed8b481fc"},"vehicle_type_id":"4","last_reported":1717362449,"current_range_meters":12800,"station_id":"ce4bh092rcd13ifvqd20","pricing_plan_id":"cebpf4jnsgd1na2vs0mg"},{"bike_id":"b25f6235-b25e-42b5-996b-931cc6eb47ed","system_id":"levelo_inurba_marseille","lat":43.304296,"lon":5.397513,"is_reserved":false,"is_disabled":false,"rental_uris":{"android":"levelo://app?vid=b25f6235-b25e-42b5-996b-931cc6eb47ed","ios":"levelo://app?vid=b25f6235-b25e-42b5-996b-931cc6eb47ed"},"vehicle_type_id":"4","last_reported":1717362449,"current_range_meters":17200,"station_id":"ce4bh092rcd13ifvqd20","pricing_plan_id":"cebpf4jnsgd1na2vs0mg"},{"bike_id":"4cdc2a69-0a95-46e5-a543-91457334df4f","system_id":"levelo_inurba_marseille","lat":43.304296,"lon":5.397513,"is_reserved":false,"is_disabled":false,"rental_uris":{"android":"levelo://app?vid=4cdc2a69-0a95-46e5-a543-91457334df4f","ios":"levelo://app?vid=4cdc2a69-0a95-46e5-a543-91457334df4f"},"vehicle_type_id":"4","last_reported":1717362449,"current_range_meters":16400,"station_id":"ce4bh092rcd13ifvqd20","pricing_plan_id":"cebpf4jnsgd1na2vs0mg"},{"bike_id":"ac94bf86-fe43-430d-b60d-f291f3156a26","system_id":"levelo_inurba_marseille","lat":43.304274,"lon":5.397513,"is_reserved":false,"is_disabled":false,"rental_uris":{"android":"levelo://app?vid=ac94bf86-fe43-430d-b60d-f291f3156a26","ios":"levelo://app?vid=ac94bf86-fe43-430d-b60d-f291f3156a26"},"vehicle_type_id":"4","last_reported":1717362449,"current_range_meters":15600,"station_id":"ce4bh092rcd13ifvqd20","pricing_plan_id":"cebpf4jnsgd1na2vs0mg"},{"bike_id":"d85f3ab9-7f33-4ea9-8d32-0ee916f958b4","system_id":"levelo_inurba_marseille","lat":43.290995,"lon":5.381361,"is_reserved":false,"is_disabled":false,"rental_uris":{"android":"levelo://app?vid=d85f3ab9-7f33-4ea9-8d32-0ee916f958b4","ios":"levelo://app?vid=d85f3ab9-7f33-4ea9-8d32-0ee916f958b4"},"vehicle_type_id":"4","last_reported":1717362449,"current_range_meters":1200,"station_id":"ce4bh512rcd13ifvqe2g","pricing_plan_id":"cebpf4jnsgd1na2vs0mg"},{"bike_id":"ba8911ba-f31e-40c0-9725-6f28e0f3a900","system_id":"levelo_inurba_marseille","lat":43.290995,"lon":5.381361,"is_reserved":false,"is_disabled":false,"rental_uris":{"android":"levelo://app?vid=ba8911ba-f31e-40c0-9725-6f28e0f3a900","ios":"levelo://app?vid=ba8911ba-f31e-40c0-9725-6f28e0f3a900"},