{"last_updated":1753813052,"ttl":60,"version":"2.2","data":{"bikes":[{"bike_id":"f977f30d-887a-4e52-ada8-2512222660bf","system_id":"levelo_inurba_marseille","lat":43.2318,"lon":5.39993,"is_reserved":false,"is_disabled":false,"rental_uris":{"android":"levelo://app?vid=f977f30d-887a-4e52-ada8-2512222660bf","ios":"levelo://app?vid=f977f30d-887a-4e52-ada8-2512222660bf"},"vehicle_type_id":"4","last_reported":1753813052,"current_range_meters":2800,"station_id":"ce4bhn12rcd13ifvqgqg","pricing_plan_id":"cebpf4jnsgd1na2vs0mg"},{"bike_id":"c566fac1-bdc0-44b4-b51d-6079acd80ddc","system_id":"levelo_inurba_marseille","lat":43.3228,"lon":5.38279,"is_reserved":false,"is_disabled":false,"rental_uris":{"android":"levelo://app?vid=c566fac1-bdc0-44b4-b51d-6079acd80ddc","ios":"levelo://app?vid=c566fac1-bdc0-44b4-b51d-6079acd80ddc"},"vehicle_type_id":"4","last_reported":1753813052,"current_range_meters":2800,"station_id":"ce4bhr12rcd13ifvqhqg","pricing_plan_id":"cebpf4jnsgd1na2vs0mg"},{"bike_id":"54370080-5bd5-4dab-bb71-9ee1da087fa2","system_id":"levelo_inurba_marseille","lat":43.28937,"lon":5.39626,"is_reserved":false,"is_disabled":false,"rental_uris":{"android":"levelo://app?vid=54370080-5bd5-4dab-bb71-9ee1da087fa2","ios":"levelo://app?vid=54370080-5bd5-4dab-bb71-9ee1da087fa2"},"vehicle_type_id":"4","last_reported":1753813052,"current_range_meters":3200,"station_id":"ce4bh3h2rcd13ifvqdn0","pricing_plan_id":"cebpf4jnsgd1na2vs0mg"},{"bike_id":"ef430ec4-19a7-497d-99c3-ca95577bc1d0","system_id":"levelo_inurba_marseille","lat":43.269439,"lon":5.40262,"is_reserved":false,"is_disabled":false,"rental_uris":{"android":"levelo://app?vid=ef430ec4-19a7-497d-99c3-ca95577bc1d0","ios":"levelo://app?vid=ef430ec4-19a7-497d-99c3-ca95577bc1d0"},"vehicle_type_id":"4","last_reported":1753813052,"current_range_meters":3200,"station_id":"","pricing_plan_id":"cebpf4jnsgd1na2vs0mg"},{"bike_id":"c35e87c9-a0b0-40c7-9923-6697981f4414","system_id":"levelo_inurba_marseille","lat":43.30964,"lon":5.39026,"is_reserved":false,"is_disabled":false,"rental_uris":{"android":"levelo://app?vid=c35e87c9-a0b0-40c7-9923-6697981f4414","ios":"levelo://app?vid=c35e87c9-a0b0-40c7-9923-6697981f4414"},"vehicle_type_id":"4","last_reported":1753813052,"current_range_meters":3200,"station_id":"ce4bgup2rcd13ifvqco0","pricing_plan_id":"cebpf4jnsgd1na2vs0mg"},{"bike_id":"d1b99199-8ffa-4206-abb6-7ecc609cf88f","system_id":"levelo_inurba_marseille","lat":43.29518,"lon":5.39046,"is_reserved":false,"is_disabled":false,"rental_uris":{"android":"levelo://app?vid=d1b99199-8ffa-4206-abb6-7ecc609cf88f","ios":"levelo://app?vid=d1b99199-8ffa-4206-abb6-7ecc609cf88f"},"vehicle_type_id":"4","last_reported":1753813052,"current_range_meters":3200,"station_id":"ce4bh3p2rcd13ifvqdp0","pricing_plan_id":"cebpf4jnsgd1na2vs0mg"},{"bike_id":"ccdc39e0-6f5b-461f-97b5-cf5d88878268","system_id":"levelo_inurba_marseille","lat":43.30737,"lon":5.4247,"is_reserved":false,"is_disabled":false,"rental_uris":{"android":"levelo://app?vid=ccdc39e0-6f5b-461f-97b5-cf5d88878268","ios":"levelo://app?vid=ccdc39e0-6f5b-461f-97b5-cf5d88878268"},"vehicle_type_id":"4","last_reported":1753813052,"current_range_meters":3200,"station_id":"st_cvj6ca6bvosntc0bfgr0","pricing_plan_id":"cebpf4jnsgd1na2vs0mg"},{"bike_id":"caa4781b-a356-44ab-8c26-836373a15e65","system_id":"levelo_inurba_marseille","lat":43.29057,"lon":5.37167,"is_reserved":false,"is_disabled":false,"rental_uris":{"android":"levelo://app?vid=caa4781b-a356-44ab-8c26-836373a15e65","ios":"levelo://app?vid=caa4781b-a356-44ab-8c26-836373a15e65"},"vehicle_type_id":"4","last_reported":1753813052,"current_range_meters":3600,"station_id":"ce4bh5p2rcd13ifvqe4g","pricing_plan_id":"cebpf4jnsgd1na2vs0mg"},{"bike_id":"f2ed36f9-0f01-4b33-af18-8a277c95e69c","system_id":"levelo_inurba_marseille","lat":43.33766,"lon":5.37478,"is_reserved":false,"is_disabled":false,"rental_uris":{"android":"levelo://app?vid=f2ed36f9-0f01-4b33-af18-8a277c95e69c","ios":"levelo://app?vid=f2ed36f9-0f01-4b33-af18-8a277c95e69c"},"vehicle_type_id":"4","last_reported":1753813052,"current_range_meters":3600,"station_id":"","pricing_plan_id":"cebpf4jnsgd1na2vs0mg"},{"bike_id":"a6adb6eb-7ab1-440a-a8dd-4c4ceea9059a","system_id":"levelo_inurba_marseille","lat":43.26216,"lon":5.37439,"is_reserved":false,"is_disabled":false,"rental_uris":{"android":"levelo://app?vid=a6adb6eb-7ab1-440a-a8dd-4c4ceea9059a","ios":"levelo://app?vid=a6adb6eb-7ab1-440a-a8dd-4c4ceea9059a"},"vehicle_type_id":"4","last_reported":1753813052,"current_range_meters":3600,"station_id":"ce4bhgp2rcd13ifvqfc0","pricing_plan_id":"cebpf4jnsgd1na2vs0mg"},{"bike_id":"6f9a0e15-b5b2-4456-98d6-b1e53553408a","system_id":"levelo_inurba_marseille","lat":43.30531,"lon":5.36543,"is_reserved":false,"is_disabled":false,"rental_uris":{"android":"levelo://app?vid=6f9a0e15-b5b2-4456-98d6-b1e53553408a","ios":"levelo://app?vid=6f9a0e15-b5b2-4456-98d6-b1e53553408a"},"vehicle_type_id":"4","last_reported":1753813052,"current_range_meters":3600,"station_id":"ce4bgs12rcd13ifvqcag","pricing_plan_id":"cebpf4jnsgd1na2vs0mg"},{"bike_id":"51ad230f-40b1-4de5-8158-93871a57b0cd","system_id":"levelo_inurba_marseille","lat":43.23151,"lon":5.4371,"is_reserved":false,"is_disabled":false,"rental_uris":{"android":"levelo://app?vid=51ad230f-40b1-4de5-8158-93871a57b0cd","ios":"levelo://app?vid=51ad230f-40b1-4de5-8158-93871a57b0cd"},"vehicle_type_id":"4","last_reported":1753813052,"current_range_meters":4000,"station_id":"ce4bhmp2rcd13ifvqgog","pricing_plan_id":"cebpf4jnsgd1na2vs0mg"},{"bike_id":"ffbd492b-bb6c-4f78-916b-e58fe5ad6bc2","system_id":"levelo_inurba_marseille","lat":43.31325,"lon":5.39696,"is_reserved":false,"is_disabled":false,"rental_uris":{"android":"levelo://app?vid=ffbd492b-bb6c-4f78-916b-e58fe5ad6bc2","ios":"levelo://app?vid=ffbd492b-bb6c-4f78-916b-e58fe5ad6bc2"},"vehicle_type_id":"4","last_reported":1753813052,"current_range_meters":3600,"station_id":"ce4bgvp2rcd13ifvqcu0","pricing_plan_id":"cebpf4jnsgd1na2vs0mg"},{"bike_id":"e80c02c6-1f29-4b43-a4ea-49edf6e4b356","system_id":"levelo_inurba_marseille","lat":43.30308,"lon":5.39206,"is_reserved":false,"is_disabled":false,"rental_uris":{"android":"levelo://app?vid=e80c02c6-1f29-4b43-a4ea-49edf6e4b356","ios":"levelo://app?vid=e80c02c6-1f29-4b43-a4ea-49edf6e4b356"},"vehicle_type_id":"4","last_reported":1753813052,"current_range_meters":4000,"station_id":"ce4bgkh2rcd13ifvqbk0","pricing_plan_id":"cebpf4jnsgd1na2vs0mg"},{"bike_id":"a31b7f1e-f40b-4d41-9900-75d7dd6df8e2","system_id":"levelo_inurba_marseille","lat":43.2861,"lon":5.3706,"is_reserved":false,"is_disabled":false,"rental_uris":{"android":"levelo://app?vid=a31b7f1e-f40b-4d41-9900-75d7dd6df8e2","ios":"levelo://app?vid=a31b7f1e-f40b-4d41-9900-75d7dd6df8e2"},"vehicle_type_id":"4","last_reported":1753813052,"current_range_meters":4000,"station_id":"ce4bht12rcd13ifvqi60","pricing_plan_id":"cebpf4jnsgd1na2vs0mg"},{"bike_id":"34bc667f-5719-4cf4-b2c6-8af43322f6d8","system_id":"levelo_inurba_marseille","lat":43.299652,"lon":5.384944,"is_reserved":false,"is_disabled":false,"rental_uris":{"android":"levelo://app?vid=34bc667f-5719-4cf4-b2c6-8af43322f6d8","ios":"levelo://app?vid=34bc667f-5719-4cf4-b2c6-8af43322f6d8"},"vehicle_type_id":"4","last_reported":1753813052,"current_range_meters":4000,"station_id":"ce4bgj92rcd13ifvqbd0","pricing_plan_id":"cebpf4jnsgd1na2vs0mg"},{"bike_id":"da0dea9a-07a2-4249-aa7c-2489e28d40de","system_id":"levelo_inurba_marseille","lat":43.29683,"lon":5.36239,"is_reserved":false,"is_disabled":false,"rental_uris":{"android":"levelo://app?vid=da0dea9a-07a2-4249-aa7c-2489e28d40de","ios":"levelo://app?vid=da0dea9a-07a2-4249-aa7c-2489e28d40de"},"vehicle_type_id":"4","last_reported":1753813052,"current_range_meters":4400,"station_id":"","pricing_plan_id":"cebpf4jnsgd1na2vs0mg"},{"bike_id":"5a67886b-2f40-46df-b0be-1179491cb0a7","system_id":"levelo_inurba_marseille","lat":43.299683,"lon":5.386239,"is_reserved":false,"is_disabled":false,"rental_uris":{"android":"levelo://app?vid=5a67886b-2f40-46df-b0be-1179491cb0a7","ios":"levelo://app?vid=5a67886b-2f40-46df-b0be-1179491cb0a7"},"vehicle_type_id":"4","last_reported":1753813052,"current_range_meters":4400,"station_id":"","pricing_plan_id":"cebpf4jnsgd1na2vs0mg"},{"bike_id":"bcb03716-6277-4026-944e-b279c49afcb7","system_id":"levelo_inurba_marseille","lat":43.29528,"lon":5.38543,"is_reserved":false,"is_disabled":false,"rental_uris":{"android":"levelo://app?vid=bcb03716-6277-4026-944e-b279c49afcb7","ios":"levelo://app?vid=bcb03716-6277-4026-944e-b279c49afcb7"},"vehicle_type_id":"4","last_reported":1753813052,"current_range_meters":4400,"station_id":"ce4bgih2rcd13ifvqba0","pricing_plan_id":"cebpf4jnsgd1na2vs0mg"},{"bike_id":"5915c484-bd7c-435f-bca1-185e1e80dfcf","system_id":"levelo_inurba_marseille","lat":43.23154,"lon":5.43708,"is_reserved":false,"is_disabled":false,"rental_uris":{"android":"levelo://app?vid=5915c484-bd7c-435f-bca1-185e1e80dfcf","ios":"levelo://app?vid=5915c484-bd7c-435f-bca1-185e1e80dfcf"},"vehicle_type_id":"4","last_reported":1753813052,"current_range_meters":4400,"station_id":"ce4bhmp2rcd13ifvqgog","pricing_plan_id":"cebpf4jnsgd1na2vs0mg"},{"bike_id":"d8c698e8-dbd4-4e20-8574-5b433942b5f7","system_id":"levelo_inurba_marseille","lat":43.27176,"lon":5.40993,"is_reserved":false,"is_disabled":false,"rental_uris":{"android":"levelo://app?vid=d8c698e8-dbd4-4e20-8574-5b433942b5f7","ios":"levelo://app?vid=d8c698e8-dbd4-4e20-8574-5b433942b5f7"},"vehicle_type_id":"4","last_reported":1753813052,"current_range_meters":4400,"station_id":"ce4bhl12rcd13ifvqgf0","pricing_plan_id":"cebpf4jnsgd1na2vs0mg"},{"bike_id":"6cb11f4f-f451-4a1b-a7c5-61054d6b97f6","system_id":"levelo_inurba_marseille","lat":43.23628,"lon":5.40978,"is_reserved":false,"is_disabled":false,"rental_uris":{"android":"levelo://app?vid=6cb11f4f-f451-4a1b-a7c5-61054d6b97f6","ios":"levelo://app?vid=6cb11f4f-f451-4a1b-a7c5-61054d6b97f6"},"vehicle_type_id":"4","last_reported":1753813052,"current_range_meters":4400,"station_id":"","pricing_plan_id":"cebpf4jnsgd1na2vs0mg"},{"bike_id":"35983826-9e38-40ad-8af8-62350d06c23a","system_id":"levelo_inurba_marseille","lat":43.31999,"lon":5.38972,"is_reserved":false,"is_disabled":false,"rental_uris":{"android":"levelo://app?vid=35983826-9e38-40ad-8af8-62350d06c23a","ios":"levelo://app?vid=35983826-9e38-40ad-8af8-62350d06c23a"},"vehicle_type_id":"4","last_reported":1753813052,"current_range_meters":4400,"station_id":"","pricing_plan_id":"cebpf4jnsgd1na2vs0mg"},{"bike_id":"6fe4f646-b75b-4e51-99c9-25f3c1f3f3ab","system_id":"levelo_inurba_marseille","lat":43.27385,"lon":5.3625,"is_reserved":false,"is_disabled":true,"rental_uris":{"android":"levelo://app?vid=6fe4f646-b75b-4e51-99c9-25f3c1f3f3ab","ios":"levelo://app?vid=6fe4f646-b75b-4e51-99c9-25f3c1f3f3ab"},"vehicle_type_id":"4","last_reported":1753813052,"current_range_meters":4800,"station_id":"ce4bhbh2rcd13ifvqeo0","pricing_plan_id":"cebpf4jnsgd1na2vs0mg"},{"bike_id":"d26365d2-3cd7-4e3c-808d-3362d6bbfb56","system_id":"levelo_inurba_marseille","lat":43.33767,"lon":5.37474,"is_reserved":false,"is_disabled":false,"rental_uris":{"android":"levelo://app?vid=d26365d2-3cd7-4e3c-808d-3362d6bbfb56","ios":"levelo://app?vid=d26365d2-3cd7-4e3c-808d-3362d6bbfb56"},"vehicle_type_id":"4","last_reported":1753813052,"current_range_meters":4800,"station_id":"","pricing_plan_id":"cebpf4jnsgd1na2vs0mg"},{"bike_id":"e253ac72-a65b-4e8e-9e85-e405155309e9","system_id":"levelo_inurba_marseille","lat":43.27368,"lon":5.36257,"is_reserved":false,"is_disabled":false,"rental_uris":{"android":"levelo://app?vid=e253ac72-a65b-4e8e-9e85-e405155309e9","ios":"levelo://app?vid=e253ac72-a65b-4e8e-9e85-e405155309e9"},"vehicle_type_id":"4","last_reported":1753813052,"current_range_meters":4800,"station_id":"ce4bhbh2rcd13ifvqeo0","pricing_plan_id":"cebpf4jnsgd1na2vs0mg"},{"bike_id":"c063574e-0c72-463a-b629-ee2a9f7f7c67","system_id":"levelo_inurba_marseille","lat":43.28864,"lon":5.35857,"is_reserved":false,"is_disabled":false,"rental_uris":{"android":"levelo://app?vid=c063574e-0c72-463a-b629-ee2a9f7f7c67","ios":"levelo://app?vid=c063574e-0c72-463a-b629-ee2a9f7f7c67"},"vehicle_type_id":"4","last_reported":1753813052,"current_range_meters":4800,"station_id":"ce4bhb12rcd13ifvqem0","pricing_plan_id":"cebpf4jnsgd1na2vs0mg"},{"bike_id":"fab13034-32ba-4a46-9edf-f085fe6f3601","system_id":"levelo_inurba_marseille","lat":43.21192,"lon":5.35075,"is_reserved":false,"is_disabled":false,"rental_uris":{"android":"levelo://app?vid=fab13034-32ba-4a46-9edf-f085fe6f3601","ios":"levelo://app?vid=fab13034-32ba-4a46-9edf-f085fe6f3601"},"vehicle_type_id":"4","last_reported":1753813052,"current_range_meters":5600,"station_id":"st_cvj6sg6p6f1abm77japg","pricing_plan_id":"cebpf4jnsgd1na2vs0mg"},{"bike_id":"fb45cff3-08fa-4cc9-bf53-0d8295f6b8d1","system_id":"levelo_inurba_marseille","lat":43.27873,"lon":5.42812,"is_reserved":false,"is_disabled":false,"rental_uris":{"android":"levelo://app?vid=fb45cff3-08fa-4cc9-bf53-0d8295f6b8d1","ios":"levelo://app?vid=fb45cff3-08fa-4cc9-bf53-0d8295f6b8d1"},"vehicle_type_id":"4","last_reported":1753813052,"current_range_meters":5600,"station_id":"","pricing_plan_id":"cebpf4jnsgd1na2vs0mg"},{"bike_id":"901da807-94b7-4f08-8d29-cb15a8aab935","system_id":"levelo_inurba_marseille","lat":43.26555,"lon":5.37284,"is_reserved":false,"is_disabled":false,"rental_uris":{"android":"levelo://app?vid=901da807-94b7-4f08-8d29-cb15a8aab935","ios":"levelo://app?vid=901da807-94b7-4f08-8d29-cb15a8aab935"},"vehicle_type_id":"4","last_reported":1753813052,"current_range_meters":5600,"station_id":"ce4bhg12rcd13ifvqf70","pricing_plan_id":"cebpf4jnsgd1na2vs0mg"},{"bike_id":"a62d4777-4784-4a6f-9b7f-f760fce53921","system_id":"levelo_inurba_marseille","lat":43.24809,"lon":5.37453,"is_reserved":false,"is_disabled":false,"rental_uris":{"android":"levelo://app?vid=a62d4777-4784-4a6f-9b7f-f760fce53921","ios":"levelo://app?vid=a62d4777-4784-4a6f-9b7f-f760fce53921"},"vehicle_type_id":"4","last_reported":1753813052,"current_range_meters":5600,"station_id":"ce4bhgh2rcd13ifvqfb0","pricing_plan_id":"cebpf4jnsgd1na2vs0mg"},{"bike_id":"fc51418e-195b-43eb-bfff-8702967ef66a","system_id":"levelo_inurba_marseille","lat":43.29368,"lon":5.37831,"is_reserved":false,"is_disabled":false,"rental_uris":{"android":"levelo://app?vid=fc51418e-195b-43eb-bfff-8702967ef66a","ios":"levelo://app?vid=fc51418e-195b-43eb-bfff-8702967ef66a"},"vehicle_type_id":"4","last_reported":1753813052,"current_range_meters":5600,"station_id":"ce4bgjh2rcd13ifvqbf0","pricing_plan_id":"cebpf4jnsgd1na2vs0mg"},{"bike_id":"dfeef013-405d-4d83-bff9-fe3d4f9e6756","system_id":"levelo_inurba_marseille","lat":43.31706,"lon":5.40466,"is_reserved":false,"is_disabled":true,"rental_uris":{"android":"levelo://app?vid=dfeef013-405d-4d83-bff9-fe3d4f9e6756","ios":"levelo://app?vid=dfeef013-405d-4d83-bff9-fe3d4f9e6756"},"vehicle_type_id":"4","last_reported":1753813052,"current_range_meters":5600,"station_id":"ce4bh012rcd13ifvqd00","pricing_plan_id":"cebpf4jnsgd1na2vs0mg"},{"bike_id":"3152576e-d602-4c3f-980e-717f41aed773","system_id":"levelo_inurba_marseille","lat":43.33737,"lon":5.37465,"is_reserved":false,"is_disabled":false,"rental_uris":{"android":"levelo://app?vid=3152576e-d602-4c3f-980e-717f41aed773","ios":"levelo://app?vid=3152576e-d602-4c3f-980e-717f41aed773"},"vehicle_type_id":"4","last_reported":1753813052,"current_range_meters":5600,"station_id":"","pricing_plan_id":"cebpf4jnsgd1na2vs0mg"},{"bike_id":"9cf87017-3f49-42b9-917c-89af3fce9581","system_id":"levelo_inurba_marseille","lat":43.29539,"lon":5.38538,"is_reserved":false,"is_disabled":false,"rental_uris":{"android":"levelo://app?vid=9cf87017-3f49-42b9-917c-89af3fce9581","ios":"levelo://app?vid=9cf87017-3f49-42b9-917c-89af3fce9581"},"vehicle_type_id":"4","last_reported":1753813052,"current_range_meters":6000,"station_id":"ce4bgih2rcd13ifvqba0","pricing_plan_id":"cebpf4jnsgd1na2vs0mg"},{"bike_id":"cb21cdd3-283a-4e74-b2ea-f2c00518024a","system_id":"levelo_inurba_marseille","lat":43.26215,"lon":5.3744,"is_reserved":false,"is_disabled":false,"rental_uris":{"android":"levelo://app?vid=cb21cdd3-283a-4e74-b2ea-f2c00518024a","ios":"levelo://app?vid=cb21cdd3-283a-4e74-b2ea-f2c00518024a"},"vehicle_type_id":"4","last_reported":1753813052,"current_range_meters":6000,"station_id":"ce4bhgp2rcd13ifvqfc0","pricing_plan_id":"cebpf4jnsgd1na2vs0mg"},{"bike_id":"bd6c8fd2-db9e-49dc-9a37-e827bc4b6f82","system_id":"levelo_inurba_marseille","lat":43.25719,"lon":5.41113,"is_reserved":false,"is_disabled":false,"rental_uris":{"android":"levelo://app?vid=bd6c8fd2-db9e-49dc-9a37-e827bc4b6f82","ios":"levelo://app?vid=bd6c8fd2-db9e-49dc-9a37-e827bc4b6f82"},"vehicle_type_id":"4","last_reported":1753813052,"current_range_meters":6000,"station_id":"ce4bhkp2rcd13ifvqgd0","pricing_plan_id":"cebpf4jnsgd1na2vs0mg"},{"bike_id":"f96e453b-5fb9-4aef-8dc6-8a2f676af43e","system_id":"levelo_inurba_marseille","lat":43.28931,"lon":5.38404,"is_reserved":false,"is_disabled":false,"rental_uris":{"android":"levelo://app?vid=f96e453b-5fb9-4aef-8dc6-8a2f676af43e","ios":"levelo://app?vid=f96e453b-5fb9-4aef-8dc6-8a2f676af43e"},"vehicle_type_id":"4","last_reported":1753813052,"current_range_meters":6000,"station_id":"ce4bh612rcd13ifvqe6g","pricing_plan_id":"cebpf4jnsgd1na2vs0mg"},{"bike_id":"e353a6c8-9bd8-4f86-a636-297c35a01052","system_id":"levelo_inurba_marseille","lat":43.32367,"lon":5.38887,"is_reserved":false,"is_disabled":false,"rental_uris":{"android":"levelo://app?vid=e353a6c8-9bd8-4f86-a636-297c35a01052","ios":"levelo://app?vid=e353a6c8-9bd8-4f86-a636-297c35a01052"},"vehicle_type_id":"4","last_reported":1753813052,"current_range_meters":6000,"station_id":"ce4bhqp2rcd13ifvqhog","pricing_plan_id":"cebpf4jnsgd1na2vs0mg"},{"bike_id":"e089665c-4a64-41c9-aea7-57ac1f550f5b","system_id":"levelo_inurba_marseille","lat":43.27379,"lon":5.36255,"is_reserved":false,"is_disabled":false,"rental_uris":{"android":"levelo://app?vid=e089665c-4a64-41c9-aea7-57ac1f550f5b","ios":"levelo://app?vid=e089665c-4a64-41c9-aea7-57ac1f550f5b"},"vehicle_type_id":"4","last_reported":1753813052,"current_range_meters":6000,"station_id":"ce4bhbh2rcd13ifvqeo0","pricing_plan_id":"cebpf4jnsgd1na2vs0mg"},{"bike_id":"7dec7295-205a-43ff-8fce-ae8f16b6dc01","system_id":"levelo_inurba_marseille","lat":43.28105,"lon":5.37836,"is_reserved":false,"is_disabled":false,"rental_uris":{"android":"levelo://app?vid=7dec7295-205a-43ff-8fce-ae8f16b6dc01","ios":"levelo://app?vid=7dec7295-205a-43ff-8fce-ae8f16b6dc01"},"vehicle_type_id":"4","last_reported":1753813052,"current_range_meters":6000,"station_id":"ce4bha12rcd13ifvqee0","pricing_plan_id":"cebpf4jnsgd1na2vs0mg"},{"bike_id":"8952900e-0f0c-4992-be4f-0a43cd6f1281","system_id":"levelo_inurba_marseille","lat":43.30431,"lon":5.38879,"is_reserved":false,"is_disabled":false,"rental_uris":{"android":"levelo://app?vid=8952900e-0f0c-4992-be4f-0a43cd6f1281","ios":"levelo://app?vid=8952900e-0f0c-4992-be4f-0a43cd6f1281"},"vehicle_type_id":"4","last_reported":1753813052,"current_range_meters":6400,"station_id":"ce4bgk12rcd13ifvqbi0","pricing_plan_id":"cebpf4jnsgd1na2vs0mg"},{"bike_id":"d0cf6478-42c1-4d11-a40a-4e1c357a50d0","system_id":"levelo_inurba_marseille","lat":43.29532,"lon":5.39036,"is_reserved":false,"is_disabled":false,"rental_uris":{"android":"levelo://app?vid=d0cf6478-42c1-4d11-a40a-4e1c357a50d0","ios":"levelo://app?vid=d0cf6478-42c1-4d11-a40a-4e1c357a50d0"},"vehicle_type_id":"4","last_reported":1753813052,"current_range_meters":6000,"station_id":"ce4bh3p2rcd13ifvqdp0","pricing_plan_id":"cebpf4jnsgd1na2vs0mg"},{"bike_id":"5df0bf65-6bd7-423d-bd2d-3e1b20480862","system_id":"levelo_inurba_marseille","lat":43.29523,"lon":5.38546,"is_reserved":false,"is_disabled":false,"rental_uris":{"android":"levelo://app?vid=5df0bf65-6bd7-423d-bd2d-3e1b20480862","ios":"levelo://app?vid=5df0bf65-6bd7-423d-bd2d-3e1b20480862"},"vehicle_type_id":"4","last_reported":1753813052,"current_range_meters":6800,"station_id":"ce4bgih2rcd13ifvqba0","pricing_plan_id":"cebpf4jnsgd1na2vs0mg"},{"bike_id":"495f9f77-34aa-4678-bcaf-8a3a4d726e8d","system_id":"levelo_inurba_marseille","lat":43.28434,"lon":5.3498,"is_reserved":false,"is_disabled":false,"rental_uris":{"android":"levelo://app?vid=495f9f77-34aa-4678-bcaf-8a3a4d726e8d","ios":"levelo://app?vid=495f9f77-34aa-4678-bcaf-8a3a4d726e8d"},"vehicle_type_id":"4","last_reported":1753813052,"current_range_meters":6800,"station_id":"ce4bhbh2rcd13ifvqepg","pricing_plan_id":"cebpf4jnsgd1na2vs0mg"},{"bike_id":"83fdb9f2-ef9d-4a70-8333-65f103ec90ae","system_id":"levelo_inurba_marseille","lat":43.27373,"lon":5.36251,"is_reserved":false,"is_disabled":true,"rental_uris":{"android":"levelo://app?vid=83fdb9f2-ef9d-4a70-8333-65f103ec90ae","ios":"levelo://app?vid=83fdb9f2-ef9d-4a70-8333-65f103ec90ae"},"vehicle_type_id":"4","last_reported":1753813052,"current_range_meters":6800,"station_id":"ce4bhbh2rcd13ifvqeo0","pricing_plan_id":"cebpf4jnsgd1na2vs0mg"},{"bike_id":"1c717bca-cd91-4c16-9235-1fa7810810d6","system_id":"levelo_inurba_marseille","lat":43.24082,"lon":5.37751,"is_reserved":false,"is_disabled":false,"rental_uris":{"android":"levelo://app?vid=1c717bca-cd91-4c16-9235-1fa7810810d6","ios":"levelo://app?vid=1c717bca-cd91-4c16-9235-1fa7810810d6"},"vehicle_type_id":"4","last_reported":1753813052,"current_range_meters":6400,"station_id":"ce4bhnp2rcd13ifvqgvg","pricing_plan_id":"cebpf4jnsgd1na2vs0mg"},{"bike_id":"5ef0dcea-4894-4ef9-a4ba-c5ae34397f9f","system_id":"levelo_inurba_marseille","lat":43.29076,"lon":5.37183,"is_reserved":false,"is_disabled":false,"rental_uris":{"android":"levelo://app?vid=5ef0dcea-4894-4ef9-a4ba-c5ae34397f9f","ios":"levelo://app?vid=5ef0dcea-4894-4ef9-a4ba-c5ae34397f9f"},"vehicle_type_id":"4","last_reported":1753813052,"current_range_meters":6800,"station_id":"ce4bh5p2rcd13ifvqe4g","pricing_plan_id":"cebpf4jnsgd1na2vs0mg"},{"bike_id":"62f5da51-1009-4002-b725-5765ccaaf3ec","system_id":"levelo_inurba_marseille","lat":43.29367,"lon":5.39858,"is_reserved":false,"is_disabled":false,"rental_uris":{"android":"levelo://app?vid=62f5da51-1009-4002-b725-5765ccaaf3ec","ios":"levelo://app?vid=62f5da51-1009-4002-b725-5765ccaaf3ec"},"vehicle_type_id":"4","last_reported":1753813052,"current_range_meters":6800,"station_id":"","pricing_plan_id":"cebpf4jnsgd1na2vs0mg"},{"bike_id":"64f258c6-1e92-4dd0-a4f6-11b336a5b138","system_id":"levelo_inurba_marseille","lat":43.22515,"lon":5.34814,"is_reserved":false,"is_disabled":false,"rental_uris":{"android":"levelo://app?vid=64f258c6-1e92-4dd0-a4f6-11b336a5b138","ios":"levelo://app?vid=64f258c6-1e92-4dd0-a4f6-11b336a5b138"},"vehicle_type_id":"4","last_reported":1753813052,"current_range_meters":6800,"station_id":"st_cvj5dfep6f1abm77gieg","pricing_plan_id":"cebpf4jnsgd1na2vs0mg"},{"bike_id":"baebe4c9-a6e8-4d2b-9927-e45b3a953104","system_id":"levelo_inurba_marseille","lat":43.29863,"lon":5.38356,"is_reserved":false,"is_disabled":false,"rental_uris":{"android":"levelo://app?vid=baebe4c9-a6e8-4d2b-9927-e45b3a953104","ios":"levelo://app?vid=baebe4c9-a6e8-4d2b-9927-e45b3a953104"},"vehicle_type_id":"4","last_reported":1753813052,"current_range_meters":6800,"station_id":"","pricing_plan_id":"cebpf4jnsgd1na2vs0mg"},{"bike_id":"a7b6ca92-cce1-42cf-98fb-982855461765","system_id":"levelo_inurba_marseille","lat":43.29939,"lon":5.36557,"is_reserved":false,"is_disabled":false,"rental_uris":{"android":"levelo://app?vid=a7b6ca92-cce1-42cf-98fb-982855461765","ios":"levelo://app?vid=a7b6ca92-cce1-42cf-98fb-982855461765"},"vehicle_type_id":"4","last_reported":1753813052,"current_range_meters":6800,"station_id":"ce4bgm92rcd13ifvqbr0","pricing_plan_id":"cebpf4jnsgd1na2vs0mg"},{"bike_id":"4f516602-3bc1-48d3-9c92-809ef060bb1e","system_id":"levelo_inurba_marseille","lat":43.29057,"lon":5.38831,"is_reserved":false,"is_disabled":false,"rental_uris":{"android":"levelo://app?vid=4f516602-3bc1-48d3-9c92-809ef060bb1e","ios":"levelo://app?vid=4f516602-3bc1-48d3-9c92-809ef060bb1e"},"vehicle_type_id":"4","last_reported":1753813052,"current_range_meters":7200,"station_id":"ce4bhh12rcd13ifvqff0","pricing_plan_id":"cebpf4jnsgd1na2vs0mg"},{"bike_id":"66f43974-1699-4d90-87ec-cebb6029a2ed","system_id":"levelo_inurba_marseille","lat":43.29006,"lon":5.35619,"is_reserved":false,"is_disabled":false,"rental_uris":{"android":"levelo://app?vid=66f43974-1699-4d90-87ec-cebb6029a2ed","ios":"levelo://app?vid=66f43974-1699-4d90-87ec-cebb6029a2ed"},"vehicle_type_id":"4","last_reported":1753813052,"current_range_meters":7200,"station_id":"ce4bhb92rcd13ifvqen0","pricing_plan_id":"cebpf4jnsgd1na2vs0mg"},{"bike_id":"ce1fb1c7-ac91-406d-8898-afb315f2d0c1","system_id":"levelo_inurba_marseille","lat":43.28424,"lon":5.37523,"is_reserved":false,"is_disabled":false,"rental_uris":{"android":"levelo://app?vid=ce1fb1c7-ac91-406d-8898-afb315f2d0c1","ios":"levelo://app?vid=ce1fb1c7-ac91-406d-8898-afb315f2d0c1"},"vehicle_type_id":"4","last_reported":1753813052,"current_range_meters":7200,"station_id":"ce4bh412rcd13ifvqds0","pricing_plan_id":"cebpf4jnsgd1na2vs0mg"},{"bike_id":"a6922362-229d-41a8-aeb7-b5772e221610","system_id":"levelo_inurba_marseille","lat":43.29192,"lon":5.39313,"is_reserved":false,"is_disabled":true,"rental_uris":{"android":"levelo://app?vid=a6922362-229d-41a8-aeb7-b5772e221610","ios":"levelo://app?vid=a6922362-229d-41a8-aeb7-b5772e221610"},"vehicle_type_id":"4","last_reported":1753813052,"current_range_meters":7200,"station_id":"ce4bh192rcd13ifvqdd0","pricing_plan_id":"cebpf4jnsgd1na2vs0mg"},{"bike_id":"8e37ef79-bd01-46c2-9d9e-3d3f7741a07a","system_id":"levelo_inurba_marseille","lat":43.297302,"lon":5.374166,"is_reserved":false,"is_disabled":false,"rental_uris":{"android":"levelo://app?vid=8e37ef79-bd01-46c2-9d9e-3d3f7741a07a","ios":"levelo://app?vid=8e37ef79-bd01-46c2-9d9e-3d3f7741a07a"},"vehicle_type_id":"4","last_reported":1753813052,"current_range_meters":7200,"station_id":"","pricing_plan_id":"cebpf4jnsgd1na2vs0mg"},{"bike_id":"d99716cc-03d7-4ec6-9afb-f243b2d67578","system_id":"levelo_inurba_marseille","lat":43.3377,"lon":5.3749,"is_reserved":false,"is_disabled":false,"rental_uris":{"android":"levelo://app?vid=d99716cc-03d7-4ec6-9afb-f243b2d67578","ios":"levelo://app?vid=d99716cc-03d7-4ec6-9afb-f243b2d67578"},"vehicle_type_id":"4","last_reported":1753813052,"current_range_meters":7200,"station_id":"","pricing_plan_id":"cebpf4jnsgd1na2vs0mg"},{"bike_id":"ee9566a0-be37-4110-b9e1-13cfe06a9852","system_id":"levelo_inurba_marseille","lat":43.23195,"lon":5.35552,"is_reserved":false,"is_disabled":false,"rental_uris":{"android":"levelo://app?vid=ee9566a0-be37-4110-b9e1-13cfe06a9852","ios":"levelo://app?vid=ee9566a0-be37-4110-b9e1-13cfe06a9852"},"vehicle_type_id":"4","last_reported":1753813052,"current_range_meters":7200,"station_id":"ce4bhu92rcd13ifvqi70","pricing_plan_id":"cebpf4jnsgd1na2vs0mg"},{"bike_id":"5a448c6b-60e1-4b18-94fa-d0311aa9e319","system_id":"levelo_inurba_marseille","lat":43.26028,"lon":5.37551,"is_reserved":false,"is_disabled":false,"rental_uris":{"android":"levelo://app?vid=5a448c6b-60e1-4b18-94fa-d0311aa9e319","ios":"levelo://app?vid=5a448c6b-60e1-4b18-94fa-d0311aa9e319"},"vehicle_type_id":"4","last_reported":1753813052,"current_range_meters":7200,"station_id":"ce4bhgh2rcd13ifvqfa0","pricing_plan_id":"cebpf4jnsgd1na2vs0mg"},{"bike_id":"80915a30-ef88-4d81-b5d1-969d1c17a42d","system_id":"levelo_inurba_marseille","lat":43.30416,"lon":5.40825,"is_reserved":false,"is_disabled":false,"rental_uris":{"android":"levelo://app?vid=80915a30-ef88-4d81-b5d1-969d1c17a42d","ios":"levelo://app?vid=80915a30-ef88-4d81-b5d1-969d1c17a42d"},"vehicle_type_id":"4","last_reported":1753813052,"current_range_meters":8000,"station_id":"","pricing_plan_id":"cebpf4jnsgd1na2vs0mg"},{"bike_id":"95dd70e4-879c-49e7-b318-a6c71b22a43e","system_id":"levelo_inurba_marseille","lat":43.2703,"lon":5.39295,"is_reserved":false,"is_disabled":false,"rental_uris":{"android":"levelo://app?vid=95dd70e4-879c-49e7-b318-a6c71b22a43e","ios":"levelo://app?vid=95dd70e4-879c-49e7-b318-a6c71b22a43e"},"vehicle_type_id":"4","last_reported":1753813052,"current_range_meters":8000,"station_id":"","pricing_plan_id":"cebpf4jnsgd1na2vs0mg"},{"bike_id":"d8172ba8-0758-4e62-85ba-6dc8d716e238","system_id":"levelo_inurba_marseille","lat":43.32657,"lon":5.40995,"is_reserved":false,"is_disabled":false,"rental_uris":{"android":"levelo://app?vid=d8172ba8-0758-4e62-85ba-6dc8d716e238","ios":"levelo://app?vid=d8172ba8-0758-4e62-85ba-6dc8d716e238"},"vehicle_type_id":"4","last_reported":1753813052,"current_range_meters":8000,"station_id":"ce4bhpp2rcd13ifvqhgg","pricing_plan_id":"cebpf4jnsgd1na2vs0mg"},{"bike_id":"ec9c32a9-7247-4a7f-bfaa-d071e61566f4","system_id":"levelo_inurba_marseille","lat":43.29705,"lon":5.36629,"is_reserved":false,"is_disabled":false,"rental_uris":{"android":"levelo://app?vid=ec9c32a9-7247-4a7f-bfaa-d071e61566f4","ios":"levelo://app?vid=ec9c32a9-7247-4a7f-bfaa-d071e61566f4"},"vehicle_type_id":"4","last_reported":1753813052,"current_range_meters":8000,"station_id":"ce4bgn12rcd13ifvqbt0","pricing_plan_id":"cebpf4jnsgd1na2vs0mg"},{"bike_id":"209c73e6-1f69-4d13-9fed-77cb46eecd05","system_id":"levelo_inurba_marseille","lat":43.34681,"lon":5.38065,"is_reserved":false,"is_disabled":false,"rental_uris":{"android":"levelo://app?vid=209c73e6-1f69-4d13-9fed-77cb46eecd05","ios":"levelo://app?vid=209c73e6-1f69-4d13-9fed-77cb46eecd05"},"vehicle_type_id":"4","last_reported":1753813052,"current_range_meters":8000,"station_id":"","pricing_plan_id":"cebpf4jnsgd1na2vs0mg"},{"bike_id":"8030baba-acad-4d90-b92e-f7a34b0afb39","system_id":"levelo_inurba_marseille","lat":43.29624,"lon":5.37165,"is_reserved":false,"is_disabled":false,"rental_uris":{"android":"levelo://app?vid=8030baba-acad-4d90-b92e-f7a34b0afb39","ios":"levelo://app?vid=8030baba-acad-4d90-b92e-f7a34b0afb39"},"vehicle_type_id":"4","last_reported":1753813052,"current_range_meters":8400,"station_id":"ce4bgnh2rcd13ifvqc0g","pricing_plan_id":"cebpf4jnsgd1na2vs0mg"},{"bike_id":"4767e029-6284-4d69-936a-4239aa753638","system_id":"levelo_inurba_marseille","lat":43.29532,"lon":5.38535,"is_reserved":false,"is_disabled":false,"rental_uris":{"android":"levelo://app?vid=4767e029-6284-4d69-936a-4239aa753638","ios":"levelo://app?vid=4767e029-6284-4d69-936a-4239aa753638"},"vehicle_type_id":"4","last_reported":1753813052,"current_range_meters":8400,"station_id":"ce4bgih2rcd13ifvqba0","pricing_plan_id":"cebpf4jnsgd1na2vs0mg"},{"bike_id":"3b513104-0304-493c-9215-438a9d2db08a","system_id":"levelo_inurba_marseille","lat":43.29532,"lon":5.39268,"is_reserved":false,"is_disabled":false,"rental_uris":{"android":"levelo://app?vid=3b513104-0304-493c-9215-438a9d2db08a","ios":"levelo://app?vid=3b513104-0304-493c-9215-438a9d2db08a"},"vehicle_type_id":"4","last_reported":1753813052,"current_range_meters":8400,"station_id":"","pricing_plan_id":"cebpf4jnsgd1na2vs0mg"},{"bike_id":"4c2adbbe-5f43-4add-8684-7611d788a1b7","system_id":"levelo_inurba_marseille","lat":43.29731,"lon":5.3769,"is_reserved":false,"is_disabled":false,"rental_uris":{"android":"levelo://app?vid=4c2adbbe-5f43-4add-8684-7611d788a1b7","ios":"levelo://app?vid=4c2adbbe-5f43-4add-8684-7611d788a1b7"},"vehicle_type_id":"4","last_reported":1753813052,"current_range_meters":8400,"station_id":"ce4bgkh2rcd13ifvqbl0","pricing_plan_id":"cebpf4jnsgd1na2vs0mg"},{"bike_id":"05cbfde1-bc8b-4494-8924-fea2291ddb1f","system_id":"levelo_inurba_marseille","lat":43.29537,"lon":5.36566,"is_reserved":false,"is_disabled":false,"rental_uris":{"android":"levelo://app?vid=05cbfde1-bc8b-4494-8924-fea2291ddb1f","ios":"levelo://app?vid=05cbfde1-bc8b-4494-8924-fea2291ddb1f"},"vehicle_type_id":"4","last_reported":1753813052,"current_range_meters":8400,"station_id":"","pricing_plan_id":"cebpf4jnsgd1na2vs0mg"},{"bike_id":"65e3db07-f188-422b-b687-3d06cfe2bcf8","system_id":"levelo_inurba_marseille","lat":43.28047,"lon":5.3501,"is_reserved":false,"is_disabled":false,"rental_uris":{"android":"levelo://app?vid=65e3db07-f188-422b-b687-3d06cfe2bcf8","ios":"levelo://app?vid=65e3db07-f188-422b-b687-3d06cfe2bcf8"},"vehicle_type_id":"4","last_reported":1753813052,"current_range_meters":8400,"station_id":"","pricing_plan_id":"cebpf4jnsgd1na2vs0mg"},{"bike_id":"0c308ff4-f8e0-4961-a792-5a3d17b8c5f6","system_id":"levelo_inurba_marseille","lat":43.29218,"lon":5.36074,"is_reserved":false,"is_disabled":false,"rental_uris":{"android":"levelo://app?vid=0c308ff4-f8e0-4961-a792-5a3d17b8c5f6","ios":"levelo://app?vid=0c308ff4-f8e0-4961-a792-5a3d17b8c5f6"},"vehicle_type_id":"4","last_reported":1753813052,"current_range_meters":8400,"station_id":"ce4bhbh2rcd13ifvqeqg","pricing_plan_id":"cebpf4jnsgd1na2vs0mg"},{"bike_id":"47278b70-3020-407a-ad68-b39100e05477","system_id":"levelo_inurba_marseille","lat":43.30152,"lon":5.3808,"is_reserved":false,"is_disabled":false,"rental_uris":{"android":"levelo://app?vid=47278b70-3020-407a-ad68-b39100e05477","ios":"levelo://app?vid=47278b70-3020-407a-ad68-b39100e05477"},"vehicle_type_id":"4","last_reported":1753813052,"current_range_meters":8400,"station_id":"ce4bgjp2rcd13ifvqbh0","pricing_plan_id":"cebpf4jnsgd1na2vs0mg"},{"bike_id":"85d95a9a-bae1-4127-a50f-dff98ce29fd5","system_id":"levelo_inurba_marseille","lat":43.32365,"lon":5.3888,"is_reserved":false,"is_disabled":false,"rental_uris":{"android":"levelo://app?vid=85d95a9a-bae1-4127-a50f-dff98ce29fd5","ios":"levelo://app?vid=85d95a9a-bae1-4127-a50f-dff98ce29fd5"},"vehicle_type_id":"4","last_reported":1753813052,"current_range_meters":25200,"station_id":"ce4bhqp2rcd13ifvqhog","pricing_plan_id":"cebpf4jnsgd1na2vs0mg"},{"bike_id":"3a9eb96f-e5ac-4caa-b96b-42de948e0b7c","system_id":"levelo_inurba_marseille","lat":43.28698,"lon":5.39985,"is_reserved":false,"is_disabled":false,"rental_uris":{"android":"levelo://app?vid=3a9eb96f-e5ac-4caa-b96b-42de948e0b7c","ios":"levelo://app?vid=3a9eb96f-e5ac-4caa-b96b-42de948e0b7c"},"vehicle_type_id":"4","last_reported":1753813052,"current_range_meters":8800,"station_id":"ce4bho92rcd13ifvqh3g","pricing_plan_id":"cebpf4jnsgd1na2vs0mg"},{"bike_id":"149fbe11-3bce-47a0-b584-c7c7bd6bb12f","system_id":"levelo_inurba_marseille","lat":43.21609,"lon":5.34465,"is_reserved":false,"is_disabled":false,"rental_uris":{"android":"levelo://app?vid=149fbe11-3bce-47a0-b584-c7c7bd6bb12f","ios":"levelo://app?vid=149fbe11-3bce-47a0-b584-c7c7bd6bb12f"},"vehicle_type_id":"4","last_reported":1753813052,"current_range_meters":8800,"station_id":"","pricing_plan_id":"cebpf4jnsgd1na2vs0mg"},{"bike_id":"37fcf059-83b8-4b6e-bc28-0c83f77e3c05","system_id":"levelo_inurba_marseille","lat":43.22498,"lon":5.34788,"is_reserved":false,"is_disabled":false,"rental_uris":{"android":"levelo://app?vid=37fcf059-83b8-4b6e-bc28-0c83f77e3c05","ios":"levelo://app?vid=37fcf059-83b8-4b6e-bc28-0c83f77e3c05"},"vehicle_type_id":"4","last_reported":1753813052,"current_range_meters":9200,"station_id":"","pricing_plan_id":"cebpf4jnsgd1na2vs0mg"},{"bike_id":"39a53078-0a4b-4478-9dcd-deab6f6d2477","system_id":"levelo_inurba_marseille","lat":43.2953,"lon":5.38549,"is_reserved":false,"is_disabled":false,"rental_uris":{"android":"levelo://app?vid=39a53078-0a4b-4478-9dcd-deab6f6d2477","ios":"levelo://app?vid=39a53078-0a4b-4478-9dcd-deab6f6d2477"},"vehicle_type_id":"4","last_reported":1753813052,"current_range_meters":9200,"station_id":"ce4bgih2rcd13ifvqba0","pricing_plan_id":"cebpf4jnsgd1na2vs0mg"},{"bike_id":"90b95964-7751-454b-a47b-b51b29d0e178","system_id":"levelo_inurba_marseille","lat":43.29069,"lon":5.37157,"is_reserved":false,"is_disabled":false,"rental_uris":{"android":"levelo://app?vid=90b95964-7751-454b-a47b-b51b29d0e178","ios":"levelo://app?vid=90b95964-7751-454b-a47b-b51b29d0e178"},"vehicle_type_id":"4","last_reported":1753813052,"current_range_meters":8800,"station_id":"ce4bh5p2rcd13ifvqe4g","pricing_plan_id":"cebpf4jnsgd1na2vs0mg"},{"bike_id":"e0ce0053-71c4-4b07-8b9e-379e7ce2bf22","system_id":"levelo_inurba_marseille","lat":43.302953,"lon":5.398048,"is_reserved":false,"is_disabled":false,"rental_uris":{"android":"levelo://app?vid=e0ce0053-71c4-4b07-8b9e-379e7ce2bf22","ios":"levelo://app?vid=e0ce0053-71c4-4b07-8b9e-379e7ce2bf22"},"vehicle_type_id":"4","last_reported":1753813052,"current_range_meters":9200,"station_id":"","pricing_plan_id":"cebpf4jnsgd1na2vs0mg"},{"bike_id":"882bdff1-651a-41c1-9ab0-596f43205cf1","system_id":"levelo_inurba_marseille","lat":43.337444,"lon":5.374475,"is_reserved":false,"is_disabled":false,"rental_uris":{"android":"levelo://app?vid=882bdff1-651a-41c1-9ab0-596f43205cf1","ios":"levelo://app?vid=882bdff1-651a-41c1-9ab0-596f43205cf1"},"vehicle_type_id":"4","last_reported":1753813052,"current_range_meters":9600,"station_id":"ce4bgkp2rcd13ifvqbmg","pricing_plan_id":"cebpf4jnsgd1na2vs0mg"},{"bike_id":"da913aa8-3d8c-4ab2-b48f-187998fd2a99","system_id":"levelo_inurba_marseille","lat":43.33773,"lon":5.37478,"is_reserved":false,"is_disabled":false,"rental_uris":{"android":"levelo://app?vid=da913aa8-3d8c-4ab2-b48f-187998fd2a99","ios":"levelo://app?vid=da913aa8-3d8c-4ab2-b48f-187998fd2a99"},"vehicle_type_id":"4","last_reported":1753813052,"current_range_meters":9600,"station_id":"","pricing_plan_id":"cebpf4jnsgd1na2vs0mg"},{"bike_id":"f25b06ce-4b6a-4b5c-a098-6a696347fb58","system_id":"levelo_inurba_marseille","lat":43.29539,"lon":5.38545,"is_reserved":false,"is_disabled":false,"rental_uris":{"android":"levelo://app?vid=f25b06ce-4b6a-4b5c-a098-6a696347fb58","ios":"levelo://app?vid=f25b06ce-4b6a-4b5c-a098-6a696347fb58"},"vehicle_type_id":"4","last_reported":1753813052,"current_range_meters":9600,"station_id":"ce4bgih2rcd13ifvqba0","pricing_plan_id":"cebpf4jnsgd1na2vs0mg"},{"bike_id":"babdfe25-7187-4f4d-852d-76504659c299","system_id":"levelo_inurba_marseille","lat":43.30139,"lon":5.39883,"is_reserved":false,"is_disabled":false,"rental_uris":{"android":"levelo://app?vid=babdfe25-7187-4f4d-852d-76504659c299","ios":"levelo://app?vid=babdfe25-7187-4f4d-852d-76504659c299"},"vehicle_type_id":"4","last_reported":1753813052,"current_range_meters":9600,"station_id":"ce4bh0h2rcd13ifvqd40","pricing_plan_id":"cebpf4jnsgd1na2vs0mg"},{"bike_id":"496de10e-287a-4cce-bea7-fb61c6e90556","system_id":"levelo_inurba_marseille","lat":43.24165,"lon":5.36393,"is_reserved":false,"is_disabled":false,"rental_uris":{"android":"levelo://app?vid=496de10e-287a-4cce-bea7-fb61c6e90556","ios":"levelo://app?vid=496de10e-287a-4cce-bea7-fb61c6e90556"},"vehicle_type_id":"4","last_reported":1753813052,"current_range_meters":9600,"station_id":"cpo36qri1sfpv3e86is0","pricing_plan_id":"cebpf4jnsgd1na2vs0mg"},{"bike_id":"c13ce413-660f-4ff8-9547-d17d0704485e","system_id":"levelo_inurba_marseille","lat":43.2121,"lon":5.35075,"is_reserved":false,"is_disabled":false,"rental_uris":{"android":"levelo://app?vid=c13ce413-660f-4ff8-9547-d17d0704485e","ios":"levelo://app?vid=c13ce413-660f-4ff8-9547-d17d0704485e"},"vehicle_type_id":"4","last_reported":1753813052,"current_range_meters":9600,"station_id":"","pricing_plan_id":"cebpf4jnsgd1na2vs0mg"},{"bike_id":"3b08c7fe-da62-4fb4-8da1-3e8b0064e2d8","system_id":"levelo_inurba_marseille","lat":43.30896,"lon":5.39611,"is_reserved":false,"is_disabled":true,"rental_uris":{"android":"levelo://app?vid=3b08c7fe-da62-4fb4-8da1-3e8b0064e2d8","ios":"levelo://app?vid=3b08c7fe-da62-4fb4-8da1-3e8b0064e2d8"},"vehicle_type_id":"4","last_reported":1753813052,"current_range_meters":9600,"station_id":"ce4bh012rcd13ifvqcv0","pricing_plan_id":"cebpf4jnsgd1na2vs0mg"},{"bike_id":"1d5be4ee-5ffc-4f29-8a12-4347aec148fe","system_id":"levelo_inurba_marseille","lat":43.28432,"lon":5.34993,"is_reserved":false,"is_disabled":false,"rental_uris":{"android":"levelo://app?vid=1d5be4ee-5ffc-4f29-8a12-4347aec148fe","ios":"levelo://app?vid=1d5be4ee-5ffc-4f29-8a12-4347aec148fe"},"vehicle_type_id":"4","last_reported":1753813052,"current_range_meters":9600,"station_id":"ce4bhbh2rcd13ifvqepg","pricing_plan_id":"cebpf4jnsgd1na2vs0mg"},{"bike_id":"d37d0834-59e7-49e0-94fc-08fcf13d72a7","system_id":"levelo_inurba_marseille","lat":43.24171,"lon":5.39731,"is_reserved":false,"is_disabled":false,"rental_uris":{"android":"levelo://app?vid=d37d0834-59e7-49e0-94fc-08fcf13d72a7","ios":"levelo://app?vid=d37d0834-59e7-49e0-94fc-08fcf13d72a7"},"vehicle_type_id":"4","last_reported":1753813052,"current_range_meters":9600,"station_id":"ce4bhn12rcd13ifvqgpg","pricing_plan_id":"cebpf4jnsgd1na2vs0mg"},{"bike_id":"b7745c3a-1f36-49d2-9ee5-bbc52a41394f","system_id":"levelo_inurba_marseille","lat":43.27427,"lon":5.39392,"is_reserved":false,"is_disabled":false,"rental_uris":{"android":"levelo://app?vid=b7745c3a-1f36-49d2-9ee5-bbc52a41394f","ios":"levelo://app?vid=b7745c3a-1f36-49d2-9ee5-bbc52a41394f"},"vehicle_type_id":"4","last_reported":1753813052,"current_range_meters":9600,"station_id":"ce4bhdp2rcd13ifvqf20","pricing_plan_id":"cebpf4jnsgd1na2vs0mg"},{"bike_id":"2a3a9f20-00d1-4c95-a093-ba8e28724bc0","system_id":"levelo_inurba_marseille","lat":43.30663,"lon":5.37561,"is_reserved":false,"is_disabled":false,"rental_uris":{"android":"levelo://app?vid=2a3a9f20-00d1-4c95-a093-ba8e28724bc0","ios":"levelo://app?vid=2a3a9f20-00d1-4c95-a093-ba8e28724bc0"},"vehicle_type_id":"4","last_reported":1753813052,"current_range_meters":9600,"station_id":"","pricing_plan_id":"cebpf4jnsgd1na2vs0mg"},{"bike_id":"295f3cc6-5859-4304-8a2e-82d41677d5b8","system_id":"levelo_inurba_marseille","lat":43.31996,"lon":5.38129,"is_reserved":false,"is_disabled":false,"rental_uris":{"android":"levelo://app?vid=295f3cc6-5859-4304-8a2e-82d41677d5b8","ios":"levelo://app?vid=295f3cc6-5859-4304-8a2e-82d41677d5b8"},"vehicle_type_id":"4","last_reported":1753813052,"current_range_meters":10000,"station_id":"ce4bhr12rcd13ifvqhpg","pricing_plan_id":"cebpf4jnsgd1na2vs0mg"},{"bike_id":"971b9572-dacb-4705-afa3-ab8ef8fd0141","system_id":"levelo_inurba_marseille","lat":43.246768,"lon":5.381364,"is_reserved":false,"is_disabled":false,"rental_uris":{"android":"levelo://app?vid=971b9572-dacb-4705-afa3-ab8ef8fd0141","ios":"levelo://app?vid=971b9572-dacb-4705-afa3-ab8ef8fd0141"},"vehicle_type_id":"4","last_reported":1753813052,"current_range_meters":10000,"station_id":"ce4bhih2rcd13ifvqfr0","pricing_plan_id":"cebpf4jnsgd1na2vs0mg"},{"bike_id":"49e11b9f-e8e8-49b0-9a27-db6ed487d8be","system_id":"levelo_inurba_marseille","lat":43.231952,"lon":5.355491,"is_reserved":false,"is_disabled":true,"rental_uris":{"android":"levelo://app?vid=49e11b9f-e8e8-49b0-9a27-db6ed487d8be","ios":"levelo://app?vid=49e11b9f-e8e8-49b0-9a27-db6ed487d8be"},"vehicle_type_id":"4","last_reported":1753813052,"current_range_meters":10000,"station_id":"ce4bhu92rcd13ifvqi70","pricing_plan_id":"cebpf4jnsgd1na2vs0mg"},{"bike_id":"51f8cd1a-de07-45a7-afbf-61aa588126e3","system_id":"levelo_inurba_marseille","lat":43.29004,"lon":5.35608,"is_reserved":false,"is_disabled":false,"rental_uris":{"android":"levelo://app?vid=51f8cd1a-de07-45a7-afbf-61aa588126e3","ios":"levelo://app?vid=51f8cd1a-de07-45a7-afbf-61aa588126e3"},"vehicle_type_id":"4","last_reported":1753813052,"current_range_meters":10000,"station_id":"ce4bhb92rcd13ifvqen0","pricing_plan_id":"cebpf4jnsgd1na2vs0mg"},{"bike_id":"ded3ca32-79cf-499e-a93e-78e8e0a58def","system_id":"levelo_inurba_marseille","lat":43.29207,"lon":5.35782,"is_reserved":false,"is_disabled":true,"rental_uris":{"android":"levelo://app?vid=ded3ca32-79cf-499e-a93e-78e8e0a58def","ios":"levelo://app?vid=ded3ca32-79cf-499e-a93e-78e8e0a58def"},"vehicle_type_id":"4","last_reported":1753813052,"current_range_meters":10000,"station_id":"ce4bhb12rcd13ifvqel0","pricing_plan_id":"cebpf4jnsgd1na2vs0mg"},{"bike_id":"d4b0442d-37e3-4887-8827-87b59f4e9086","system_id":"levelo_inurba_marseille","lat":43.2977,"lon":5.38108,"is_reserved":false,"is_disabled":false,"rental_uris":{"android":"levelo://app?vid=d4b0442d-37e3-4887-8827-87b59f4e9086","ios":"levelo://app?vid=d4b0442d-37e3-4887-8827-87b59f4e9086"},"vehicle_type_id":"4","last_reported":1753813052,"current_range_meters":10000,"station_id":"","pricing_plan_id":"cebpf4jnsgd1na2vs0mg"},{"bike_id":"f4c59c80-40f0-4999-896e-9e0a199046c0","system_id":"levelo_inurba_marseille","lat":43.28411,"lon":5.34956,"is_reserved":false,"is_disabled":false,"rental_uris":{"android":"levelo://app?vid=f4c59c80-40f0-4999-896e-9e0a199046c0","ios":"levelo://app?vid=f4c59c80-40f0-4999-896e-9e0a199046c0"},"vehicle_type_id":"4","last_reported":1753813052,"current_range_meters":10000,"station_id":"ce4bhbh2rcd13ifvqepg","pricing_plan_id":"cebpf4jnsgd1na2vs0mg"},{"bike_id":"000d39f0-4b83-444d-9dca-a7afdcd75602","system_id":"levelo_inurba_marseille","lat":43.29714,"lon":5.36618,"is_reserved":false,"is_disabled":false,"rental_uris":{"android":"levelo://app?vid=000d39f0-4b83-444d-9dca-a7afdcd75602","ios":"levelo://app?vid=000d39f0-4b83-444d-9dca-a7afdcd75602"},"vehicle_type_id":"4","last_reported":1753813052,"current_range_meters":10000,"station_id":"ce4bgn12rcd13ifvqbt0","pricing_plan_id":"cebpf4jnsgd1na2vs0mg"},{"bike_id":"a5c4949a-9ef4-4776-a3f1-318fb7180b06","system_id":"levelo_inurba_marseille","lat":43.29781,"lon":5.39344,"is_reserved":false,"is_disabled":false,"rental_uris":{"android":"levelo://app?vid=a5c4949a-9ef4-4776-a3f1-318fb7180b06","ios":"levelo://app?vid=a5c4949a-9ef4-4776-a3f1-318fb7180b06"},"vehicle_type_id":"4","last_reported":1753813052,"current_range_meters":10000,"station_id":"chh1huq6cuj3fo74tm60","pricing_plan_id":"cebpf4jnsgd1na2vs0mg"},{"bike_id":"891f508f-be4c-40f8-967c-bb261bc98dab","system_id":"levelo_inurba_marseille","lat":43.320427,"lon":5.415617,"is_reserved":false,"is_disabled":false,"rental_uris":{"android":"levelo://app?vid=891f508f-be4c-40f8-967c-bb261bc98dab","ios":"levelo://app?vid=891f508f-be4c-40f8-967c-bb261bc98dab"},"vehicle_type_id":"4","last_reported":1753813052,"current_range_meters":10000,"station_id":"ce4bhq92rcd13ifvqhkg","pricing_plan_id":"cebpf4jnsgd1na2vs0mg"},{"bike_id":"17f71560-c710-4b3b-a22d-c768e7aea37c","system_id":"levelo_inurba_marseille","lat":43.29534,"lon":5.38527,"is_reserved":false,"is_disabled":false,"rental_uris":{"android":"levelo://app?vid=17f71560-c710-4b3b-a22d-c768e7aea37c","ios":"levelo://app?vid=17f71560-c710-4b3b-a22d-c768e7aea37c"},"vehicle_type_id":"4","last_reported":1753813052,"current_range_meters":10800,"station_id":"ce4bgih2rcd13ifvqba0","pricing_plan_id":"cebpf4jnsgd1na2vs0mg"},{"bike_id":"1910c899-6a29-40a9-be50-fa659fc9741b","system_id":"levelo_inurba_marseille","lat":43.28936,"lon":5.36644,"is_reserved":false,"is_disabled":false,"rental_uris":{"android":"levelo://app?vid=1910c899-6a29-40a9-be50-fa659fc9741b","ios":"levelo://app?vid=1910c899-6a29-40a9-be50-fa659fc9741b"},"vehicle_type_id":"4","last_reported":1753813052,"current_range_meters":10800,"station_id":"ce4bhap2rcd13ifvqek0","pricing_plan_id":"cebpf4jnsgd1na2vs0mg"},{"bike_id":"e7b0a58b-195f-4f9e-b710-95f5af1b3d15","system_id":"levelo_inurba_marseille","lat":43.23951,"lon":5.36647,"is_reserved":false,"is_disabled":false,"rental_uris":{"android":"levelo://app?vid=e7b0a58b-195f-4f9e-b710-95f5af1b3d15","ios":"levelo://app?vid=e7b0a58b-195f-4f9e-b710-95f5af1b3d15"},"vehicle_type_id":"4","last_reported":1753813052,"current_range_meters":10800,"station_id":"ce4bhi12rcd13ifvqfp0","pricing_plan_id":"cebpf4jnsgd1na2vs0mg"},{"bike_id":"ed4402e7-aa1f-4447-8e3d-a7df7eb20b14","system_id":"levelo_inurba_marseille","lat":43.29006,"lon":5.35613,"is_reserved":false,"is_disabled":false,"rental_uris":{"android":"levelo://app?vid=ed4402e7-aa1f-4447-8e3d-a7df7eb20b14","ios":"levelo://app?vid=ed4402e7-aa1f-4447-8e3d-a7df7eb20b14"},"vehicle_type_id":"4","last_reported":1753813052,"current_range_meters":10800,"station_id":"ce4bhb92rcd13ifvqen0","pricing_plan_id":"cebpf4jnsgd1na2vs0mg"},{"bike_id":"2cb9dcef-7784-4465-be9d-c8a77a76ee7c","system_id":"levelo_inurba_marseille","lat":43.30183,"lon":5.36627,"is_reserved":false,"is_disabled":false,"rental_uris":{"android":"levelo://app?vid=2cb9dcef-7784-4465-be9d-c8a77a76ee7c","ios":"levelo://app?vid=2cb9dcef-7784-4465-be9d-c8a77a76ee7c"},"vehicle_type_id":"4","last_reported":1753813052,"current_range_meters":10800,"station_id":"ce4bgrh2rcd13ifvqc8g","pricing_plan_id":"cebpf4jnsgd1na2vs0mg"},{"bike_id":"6b7aef10-6ea3-4f15-8f97-883780aa294e","system_id":"levelo_inurba_marseille","lat":43.26557,"lon":5.37292,"is_reserved":false,"is_disabled":false,"rental_uris":{"android":"levelo://app?vid=6b7aef10-6ea3-4f15-8f97-883780aa294e","ios":"levelo://app?vid=6b7aef10-6ea3-4f15-8f97-883780aa294e"},"vehicle_type_id":"4","last_reported":1753813052,"current_range_meters":11200,"station_id":"ce4bhg12rcd13ifvqf70","pricing_plan_id":"cebpf4jnsgd1na2vs0mg"},{"bike_id":"a64a15bb-d900-42ff-a6f1-b47a01b19376","system_id":"levelo_inurba_marseille","lat":43.30145,"lon":5.38073,"is_reserved":false,"is_disabled":false,"rental_uris":{"android":"levelo://app?vid=a64a15bb-d900-42ff-a6f1-b47a01b19376","ios":"levelo://app?vid=a64a15bb-d900-42ff-a6f1-b47a01b19376"},"vehicle_type_id":"4","last_reported":1753813052,"current_range_meters":11200,"station_id":"ce4bgjp2rcd13ifvqbh0","pricing_plan_id":"cebpf4jnsgd1na2vs0mg"},{"bike_id":"7cf62c04-91f9-4e0a-bdd9-c677d355fb11","system_id":"levelo_inurba_marseille","lat":43.298994,"lon":5.383012,"is_reserved":false,"is_disabled":false,"rental_uris":{"android":"levelo://app?vid=7cf62c04-91f9-4e0a-bdd9-c677d355fb11","ios":"levelo://app?vid=7cf62c04-91f9-4e0a-bdd9-c677d355fb11"},"vehicle_type_id":"4","last_reported":1753813052,"current_range_meters":11200,"station_id":"","pricing_plan_id":"cebpf4jnsgd1na2vs0mg"},{"bike_id":"f8656cb4-89d3-4ae0-8cf8-8cf721c33d19","system_id":"levelo_inurba_marseille","lat":43.23961,"lon":5.36628,"is_reserved":false,"is_disabled":false,"rental_uris":{"android":"levelo://app?vid=f8656cb4-89d3-4ae0-8cf8-8cf721c33d19","ios":"levelo://app?vid=f8656cb4-89d3-4ae0-8cf8-8cf721c33d19"},"vehicle_type_id":"4","last_reported":1753813052,"current_range_meters":11200,"station_id":"ce4bhi12rcd13ifvqfp0","pricing_plan_id":"cebpf4jnsgd1na2vs0mg"},{"bike_id":"8e3e7abc-430b-450c-a44e-cd24c4fa709e","system_id":"levelo_inurba_marseille","lat":43.2792,"lon":5.39575,"is_reserved":false,"is_disabled":false,"rental_uris":{"android":"levelo://app?vid=8e3e7abc-430b-450c-a44e-cd24c4fa709e","ios":"levelo://app?vid=8e3e7abc-430b-450c-a44e-cd24c4fa709e"},"vehicle_type_id":"4","last_reported":1753813052,"current_range_meters":11600,"station_id":"ce4bhf92rcd13ifvqf40","pricing_plan_id":"cebpf4jnsgd1na2vs0mg"},{"bike_id":"081498f0-c192-402e-b084-8d4974a14ac0","system_id":"levelo_inurba_marseille","lat":43.27564,"lon":5.38423,"is_reserved":false,"is_disabled":false,"rental_uris":{"android":"levelo://app?vid=081498f0-c192-402e-b084-8d4974a14ac0","ios":"levelo://app?vid=081498f0-c192-402e-b084-8d4974a14ac0"},"vehicle_type_id":"4","last_reported":1753813052,"current_range_meters":11200,"station_id":"ce4bhh92rcd13ifvqfi0","pricing_plan_id":"cebpf4jnsgd1na2vs0mg"},{"bike_id":"12aecde3-64c8-43cb-b27f-fc7122ab25a3","system_id":"levelo_inurba_marseille","lat":43.23962,"lon":5.36632,"is_reserved":false,"is_disabled":false,"rental_uris":{"android":"levelo://app?vid=12aecde3-64c8-43cb-b27f-fc7122ab25a3","ios":"levelo://app?vid=12aecde3-64c8-43cb-b27f-fc7122ab25a3"},"vehicle_type_id":"4","last_reported":1753813052,"current_range_meters":11600,"station_id":"ce4bhi12rcd13ifvqfp0","pricing_plan_id":"cebpf4jnsgd1na2vs0mg"},{"bike_id":"b463b0f9-fd1e-4d1f-988a-9fcdc134ae7b","system_id":"levelo_inurba_marseille","lat":43.28968,"lon":5.36669,"is_reserved":false,"is_disabled":false,"rental_uris":{"android":"levelo://app?vid=b463b0f9-fd1e-4d1f-988a-9fcdc134ae7b","ios":"levelo://app?vid=b463b0f9-fd1e-4d1f-988a-9fcdc134ae7b"},"vehicle_type_id":"4","last_reported":1753813052,"current_range_meters":11600,"station_id":"","pricing_plan_id":"cebpf4jnsgd1na2vs0mg"},{"bike_id":"149441a1-4a20-4aba-ad8b-5cb0f28aa1c9","system_id":"levelo_inurba_marseille","lat":43.23058,"lon":5.35479,"is_reserved":false,"is_disabled":false,"rental_uris":{"android":"levelo://app?vid=149441a1-4a20-4aba-ad8b-5cb0f28aa1c9","ios":"levelo://app?vid=149441a1-4a20-4aba-ad8b-5cb0f28aa1c9"},"vehicle_type_id":"4","last_reported":1753813052,"current_range_meters":11600,"station_id":"cpo3342slgdg3j2ifvpg","pricing_plan_id":"cebpf4jnsgd1na2vs0mg"},{"bike_id":"2a48028b-7faf-4fc4-865f-b6f0c90a202d","system_id":"levelo_inurba_marseille","lat":43.2927,"lon":5.38431,"is_reserved":false,"is_disabled":false,"rental_uris":{"android":"levelo://app?vid=2a48028b-7faf-4fc4-865f-b6f0c90a202d","ios":"levelo://app?vid=2a48028b-7faf-4fc4-865f-b6f0c90a202d"},"vehicle_type_id":"4","last_reported":1753813052,"current_range_meters":11600,"station_id":"ce4bh692rcd13ifvqea0","pricing_plan_id":"cebpf4jnsgd1na2vs0mg"},{"bike_id":"e537f11c-0c03-49df-a86e-b1d008bced09","system_id":"levelo_inurba_marseille","lat":43.29704,"lon":5.3662,"is_reserved":false,"is_disabled":false,"rental_uris":{"android":"levelo://app?vid=e537f11c-0c03-49df-a86e-b1d008bced09","ios":"levelo://app?vid=e537f11c-0c03-49df-a86e-b1d008bced09"},"vehicle_type_id":"4","last_reported":1753813052,"current_range_meters":12000,"station_id":"ce4bgn12rcd13ifvqbt0","pricing_plan_id":"cebpf4jnsgd1na2vs0mg"},{"bike_id":"50427cb4-f7c5-45fa-9402-39ede650aa5c","system_id":"levelo_inurba_marseille","lat":43.31294,"lon":5.40132,"is_reserved":false,"is_disabled":true,"rental_uris":{"android":"levelo://app?vid=50427cb4-f7c5-45fa-9402-39ede650aa5c","ios":"levelo://app?vid=50427cb4-f7c5-45fa-9402-39ede650aa5c"},"vehicle_type_id":"4","last_reported":1753813052,"current_range_meters":12000,"station_id":"ce4bh092rcd13ifvqd30","pricing_plan_id":"cebpf4jnsgd1na2vs0mg"},{"bike_id":"43348ea9-7f7d-45e7-9344-a5a742188c65","system_id":"levelo_inurba_marseille","lat":43.28703,"lon":5.37383,"is_reserved":false,"is_disabled":true,"rental_uris":{"android":"levelo://app?vid=43348ea9-7f7d-45e7-9344-a5a742188c65","ios":"levelo://app?vid=43348ea9-7f7d-45e7-9344-a5a742188c65"},"vehicle_type_id":"4","last_reported":1753813052,"current_range_meters":12000,"station_id":"ce4bh3p2rcd13ifvqdq0","pricing_plan_id":"cebpf4jnsgd1na2vs0mg"},{"bike_id":"32cce757-d157-4661-a931-c31799bff2b6","system_id":"levelo_inurba_marseille","lat":43.28427,"lon":5.3497,"is_reserved":false,"is_disabled":false,"rental_uris":{"android":"levelo://app?vid=32cce757-d157-4661-a931-c31799bff2b6","ios":"levelo://app?vid=32cce757-d157-4661-a931-c31799bff2b6"},"vehicle_type_id":"4","last_reported":1753813052,"current_range_meters":12000,"station_id":"ce4bhbh2rcd13ifvqepg","pricing_plan_id":"cebpf4jnsgd1na2vs0mg"},{"bike_id":"b22a3189-83db-42a2-b905-c5cad3845799","system_id":"levelo_inurba_marseille","lat":43.28939,"lon":5.36631,"is_reserved":false,"is_disabled":false,"rental_uris":{"android":"levelo://app?vid=b22a3189-83db-42a2-b905-c5cad3845799","ios":"levelo://app?vid=b22a3189-83db-42a2-b905-c5cad3845799"},"vehicle_type_id":"4","last_reported":1753813052,"current_range_meters":12000,"station_id":"","pricing_plan_id":"cebpf4jnsgd1na2vs0mg"},{"bike_id":"bf992b70-3c30-4c86-bbc9-cd4a96bdeb46","system_id":"levelo_inurba_marseille","lat":43.25087,"lon":5.39513,"is_reserved":false,"is_disabled":false,"rental_uris":{"android":"levelo://app?vid=bf992b70-3c30-4c86-bbc9-cd4a96bdeb46","ios":"levelo://app?vid=bf992b70-3c30-4c86-bbc9-cd4a96bdeb46"},"vehicle_type_id":"4","last_reported":1753813052,"current_range_meters":12000,"station_id":"ce4bhm12rcd13ifvqgkg","pricing_plan_id":"cebpf4jnsgd1na2vs0mg"},{"bike_id":"3d9f2061-7fb9-4387-9262-8d2451911c2b","system_id":"levelo_inurba_marseille","lat":43.22931,"lon":5.35378,"is_reserved":false,"is_disabled":false,"rental_uris":{"android":"levelo://app?vid=3d9f2061-7fb9-4387-9262-8d2451911c2b","ios":"levelo://app?vid=3d9f2061-7fb9-4387-9262-8d2451911c2b"},"vehicle_type_id":"4","last_reported":1753813052,"current_range_meters":12000,"station_id":"cpo3532slgdg3j2ikp40","pricing_plan_id":"cebpf4jnsgd1na2vs0mg"},{"bike_id":"55201a9e-328f-452a-8b58-b76f0e5a4511","system_id":"levelo_inurba_marseille","lat":43.23198,"lon":5.39975,"is_reserved":false,"is_disabled":false,"rental_uris":{"android":"levelo://app?vid=55201a9e-328f-452a-8b58-b76f0e5a4511","ios":"levelo://app?vid=55201a9e-328f-452a-8b58-b76f0e5a4511"},"vehicle_type_id":"4","last_reported":1753813052,"current_range_meters":12000,"station_id":"ce4bhn12rcd13ifvqgqg","pricing_plan_id":"cebpf4jnsgd1na2vs0mg"},{"bike_id":"c94a404f-c892-44d9-86de-1efab7b41370","system_id":"levelo_inurba_marseille","lat":43.26191,"lon":5.37444,"is_reserved":false,"is_disabled":false,"rental_uris":{"android":"levelo://app?vid=c94a404f-c892-44d9-86de-1efab7b41370","ios":"levelo://app?vid=c94a404f-c892-44d9-86de-1efab7b41370"},"vehicle_type_id":"4","last_reported":1753813052,"current_range_meters":12000,"station_id":"ce4bhgp2rcd13ifvqfc0","pricing_plan_id":"cebpf4jnsgd1na2vs0mg"},{"bike_id":"83bc251e-fb22-4b60-bc3f-b5e933f86751","system_id":"levelo_inurba_marseille","lat":43.23184,"lon":5.39996,"is_reserved":false,"is_disabled":false,"rental_uris":{"android":"levelo://app?vid=83bc251e-fb22-4b60-bc3f-b5e933f86751","ios":"levelo://app?vid=83bc251e-fb22-4b60-bc3f-b5e933f86751"},"vehicle_type_id":"4","last_reported":1753813052,"current_range_meters":12000,"station_id":"ce4bhn12rcd13ifvqgqg","pricing_plan_id":"cebpf4jnsgd1na2vs0mg"},{"bike_id":"bafc27ca-49ca-4ecb-bc0c-66a7b5c11e40","system_id":"levelo_inurba_marseille","lat":43.29849,"lon":5.36287,"is_reserved":false,"is_disabled":false,"rental_uris":{"android":"levelo://app?vid=bafc27ca-49ca-4ecb-bc0c-66a7b5c11e40","ios":"levelo://app?vid=bafc27ca-49ca-4ecb-bc0c-66a7b5c11e40"},"vehicle_type_id":"4","last_reported":1753813052,"current_range_meters":12000,"station_id":"ce4bgpp2rcd13ifvqc3g","pricing_plan_id":"cebpf4jnsgd1na2vs0mg"},{"bike_id":"40b4db32-0f71-43c3-bfda-622da183a002","system_id":"levelo_inurba_marseille","lat":43.29011,"lon":5.3561,"is_reserved":false,"is_disabled":false,"rental_uris":{"android":"levelo://app?vid=40b4db32-0f71-43c3-bfda-622da183a002","ios":"levelo://app?vid=40b4db32-0f71-43c3-bfda-622da183a002"},"vehicle_type_id":"4","last_reported":1753813052,"current_range_meters":12000,"station_id":"ce4bhb92rcd13ifvqen0","pricing_plan_id":"cebpf4jnsgd1na2vs0mg"},{"bike_id":"4497cb3f-0d46-40ab-8f36-23c926d34efd","system_id":"levelo_inurba_marseille","lat":43.2945,"lon":5.39753,"is_reserved":false,"is_disabled":false,"rental_uris":{"android":"levelo://app?vid=4497cb3f-0d46-40ab-8f36-23c926d34efd","ios":"levelo://app?vid=4497cb3f-0d46-40ab-8f36-23c926d34efd"},"vehicle_type_id":"4","last_reported":1753813052,"current_range_meters":12400,"station_id":"ce4bh3h2rcd13ifvqdo0","pricing_plan_id":"cebpf4jnsgd1na2vs0mg"},{"bike_id":"1c2cee29-6d27-4bdf-b97c-eecf71616341","system_id":"levelo_inurba_marseille","lat":43.2319,"lon":5.35576,"is_reserved":false,"is_disabled":false,"rental_uris":{"android":"levelo://app?vid=1c2cee29-6d27-4bdf-b97c-eecf71616341","ios":"levelo://app?vid=1c2cee29-6d27-4bdf-b97c-eecf71616341"},"vehicle_type_id":"4","last_reported":1753813052,"current_range_meters":12400,"station_id":"ce4bhu92rcd13ifvqi70","pricing_plan_id":"cebpf4jnsgd1na2vs0mg"},{"bike_id":"ba517c73-2bf6-4f06-9914-0f1b6307e9b9","system_id":"levelo_inurba_marseille","lat":43.267828,"lon":5.394147,"is_reserved":false,"is_disabled":false,"rental_uris":{"android":"levelo://app?vid=ba517c73-2bf6-4f06-9914-0f1b6307e9b9","ios":"levelo://app?vid=ba517c73-2bf6-4f06-9914-0f1b6307e9b9"},"vehicle_type_id":"4","last_reported":1753813052,"current_range_meters":12400,"station_id":"","pricing_plan_id":"cebpf4jnsgd1na2vs0mg"},{"bike_id":"9faf722e-1dab-4fac-9ac5-9be067d5542e","system_id":"levelo_inurba_marseille","lat":43.29576,"lon":5.36742,"is_reserved":false,"is_disabled":false,"rental_uris":{"android":"levelo://app?vid=9faf722e-1dab-4fac-9ac5-9be067d5542e","ios":"levelo://app?vid=9faf722e-1dab-4fac-9ac5-9be067d5542e"},"vehicle_type_id":"4","last_reported":1753813052,"current_range_meters":12400,"station_id":"ce4bgph2rcd13ifvqc2g","pricing_plan_id":"cebpf4jnsgd1na2vs0mg"},{"bike_id":"f73f8966-8b7e-457a-8b9d-c5b89ce65a5c","system_id":"levelo_inurba_marseille","lat":43.28418,"lon":5.349827,"is_reserved":false,"is_disabled":true,"rental_uris":{"android":"levelo://app?vid=f73f8966-8b7e-457a-8b9d-c5b89ce65a5c","ios":"levelo://app?vid=f73f8966-8b7e-457a-8b9d-c5b89ce65a5c"},"vehicle_type_id":"4","last_reported":1753813052,"current_range_meters":12400,"station_id":"ce4bhbh2rcd13ifvqepg","pricing_plan_id":"cebpf4jnsgd1na2vs0mg"},{"bike_id":"f8f8c5a2-036b-4047-910f-f5dd945d3bdb","system_id":"levelo_inurba_marseille","lat":43.24662,"lon":5.38166,"is_reserved":false,"is_disabled":false,"rental_uris":{"android":"levelo://app?vid=f8f8c5a2-036b-4047-910f-f5dd945d3bdb","ios":"levelo://app?vid=f8f8c5a2-036b-4047-910f-f5dd945d3bdb"},"vehicle_type_id":"4","last_reported":1753813052,"current_range_meters":12000,"station_id":"ce4bhih2rcd13ifvqfr0","pricing_plan_id":"cebpf4jnsgd1na2vs0mg"},{"bike_id":"7dad9921-381e-4b7e-a62a-3a68f1c668e0","system_id":"levelo_inurba_marseille","lat":43.29516,"lon":5.3907,"is_reserved":false,"is_disabled":false,"rental_uris":{"android":"levelo://app?vid=7dad9921-381e-4b7e-a62a-3a68f1c668e0","ios":"levelo://app?vid=7dad9921-381e-4b7e-a62a-3a68f1c668e0"},"vehicle_type_id":"4","last_reported":1753813052,"current_range_meters":12400,"station_id":"ce4bh3p2rcd13ifvqdp0","pricing_plan_id":"cebpf4jnsgd1na2vs0mg"},{"bike_id":"b0f2b2c1-b378-4164-a22b-6eceaa434acc","system_id":"levelo_inurba_marseille","lat":43.29321,"lon":5.42781,"is_reserved":false,"is_disabled":false,"rental_uris":{"android":"levelo://app?vid=b0f2b2c1-b378-4164-a22b-6eceaa434acc","ios":"levelo://app?vid=b0f2b2c1-b378-4164-a22b-6eceaa434acc"},"vehicle_type_id":"4","last_reported":1753813052,"current_range_meters":12400,"station_id":"","pricing_plan_id":"cebpf4jnsgd1na2vs0mg"},{"bike_id":"e0e6f85d-cbe2-4ea1-8a76-5c79a838094f","system_id":"levelo_inurba_marseille","lat":43.23066,"lon":5.3547,"is_reserved":false,"is_disabled":false,"rental_uris":{"android":"levelo://app?vid=e0e6f85d-cbe2-4ea1-8a76-5c79a838094f","ios":"levelo://app?vid=e0e6f85d-cbe2-4ea1-8a76-5c79a838094f"},"vehicle_type_id":"4","last_reported":1753813052,"current_range_meters":12400,"station_id":"cpo3342slgdg3j2ifvpg","pricing_plan_id":"cebpf4jnsgd1na2vs0mg"},{"bike_id":"4ffc9d79-d56a-482d-b7d9-a5892348f435","system_id":"levelo_inurba_marseille","lat":43.28422,"lon":5.34998,"is_reserved":false,"is_disabled":false,"rental_uris":{"android":"levelo://app?vid=4ffc9d79-d56a-482d-b7d9-a5892348f435","ios":"levelo://app?vid=4ffc9d79-d56a-482d-b7d9-a5892348f435"},"vehicle_type_id":"4","last_reported":1753813052,"current_range_meters":12800,"station_id":"ce4bhbh2rcd13ifvqepg","pricing_plan_id":"cebpf4jnsgd1na2vs0mg"},{"bike_id":"73c28b44-fb9a-4083-b9eb-e60de241e4cb","system_id":"levelo_inurba_marseille","lat":43.323294,"lon":5.389002,"is_reserved":false,"is_disabled":false,"rental_uris":{"android":"levelo://app?vid=73c28b44-fb9a-4083-b9eb-e60de241e4cb","ios":"levelo://app?vid=73c28b44-fb9a-4083-b9eb-e60de241e4cb"},"vehicle_type_id":"4","last_reported":1753813052,"current_range_meters":13600,"station_id":"ce4bhqp2rcd13ifvqhog","pricing_plan_id":"cebpf4jnsgd1na2vs0mg"},{"bike_id":"2bcf5d6f-45d2-43e2-bfad-1df2ef5e721e","system_id":"levelo_inurba_marseille","lat":43.291941,"lon":5.357993,"is_reserved":false,"is_disabled":false,"rental_uris":{"android":"levelo://app?vid=2bcf5d6f-45d2-43e2-bfad-1df2ef5e721e","ios":"levelo://app?vid=2bcf5d6f-45d2-43e2-bfad-1df2ef5e721e"},"vehicle_type_id":"4","last_reported":1753813052,"current_range_meters":12800,"station_id":"ce4bhb12rcd13ifvqel0","pricing_plan_id":"cebpf4jnsgd1na2vs0mg"},{"bike_id":"556e5963-44e8-47c1-b2c9-515d251c47e4","system_id":"levelo_inurba_marseille","lat":43.29229,"lon":5.36057,"is_reserved":false,"is_disabled":false,"rental_uris":{"android":"levelo://app?vid=556e5963-44e8-47c1-b2c9-515d251c47e4","ios":"levelo://app?vid=556e5963-44e8-47c1-b2c9-515d251c47e4"},"vehicle_type_id":"4","last_reported":1753813052,"current_range_meters":12800,"station_id":"ce4bhbh2rcd13ifvqeqg","pricing_plan_id":"cebpf4jnsgd1na2vs0mg"},{"bike_id":"0618adcb-0196-465d-b844-917509080fba","system_id":"levelo_inurba_marseille","lat":43.29889,"lon":5.38895,"is_reserved":false,"is_disabled":false,"rental_uris":{"android":"levelo://app?vid=0618adcb-0196-465d-b844-917509080fba","ios":"levelo://app?vid=0618adcb-0196-465d-b844-917509080fba"},"vehicle_type_id":"4","last_reported":1753813052,"current_range_meters":12800,"station_id":"ce4bh392rcd13ifvqdl0","pricing_plan_id":"cebpf4jnsgd1na2vs0mg"},{"bike_id":"0a597e2b-1a53-4b2a-b691-b583e4928c82","system_id":"levelo_inurba_marseille","lat":43.25086,"lon":5.39525,"is_reserved":false,"is_disabled":false,"rental_uris":{"android":"levelo://app?vid=0a597e2b-1a53-4b2a-b691-b583e4928c82","ios":"levelo://app?vid=0a597e2b-1a53-4b2a-b691-b583e4928c82"},"vehicle_type_id":"4","last_reported":1753813052,"current_range_meters":12800,"station_id":"ce4bhm12rcd13ifvqgkg","pricing_plan_id":"cebpf4jnsgd1na2vs0mg"},{"bike_id":"a5d21f19-a2f8-4c79-9341-84f97b97beb0","system_id":"levelo_inurba_marseille","lat":43.334164,"lon":5.400771,"is_reserved":false,"is_disabled":false,"rental_uris":{"android":"levelo://app?vid=a5d21f19-a2f8-4c79-9341-84f97b97beb0","ios":"levelo://app?vid=a5d21f19-a2f8-4c79-9341-84f97b97beb0"},"vehicle_type_id":"4","last_reported":1753813052,"current_range_meters":12800,"station_id":"","pricing_plan_id":"cebpf4jnsgd1na2vs0mg"},{"bike_id":"e137dc03-26cf-440c-b3ea-1ea522645199","system_id":"levelo_inurba_marseille","lat":43.280815,"lon":5.396626,"is_reserved":false,"is_disabled":false,"rental_uris":{"android":"levelo://app?vid=e137dc03-26cf-440c-b3ea-1ea522645199","ios":"levelo://app?vid=e137dc03-26cf-440c-b3ea-1ea522645199"},"vehicle_type_id":"4","last_reported":1753813052,"current_range_meters":12800,"station_id":"","pricing_plan_id":"cebpf4jnsgd1na2vs0mg"},{"bike_id":"e9624a09-b572-4bcb-944b-ef4683557984","system_id":"levelo_inurba_marseille","lat":43.230661,"lon":5.354923,"is_reserved":false,"is_disabled":false,"rental_uris":{"android":"levelo://app?vid=e9624a09-b572-4bcb-944b-ef4683557984","ios":"levelo://app?vid=e9624a09-b572-4bcb-944b-ef4683557984"},"vehicle_type_id":"4","last_reported":1753813052,"current_range_meters":12800,"station_id":"cpo3342slgdg3j2ifvpg","pricing_plan_id":"cebpf4jnsgd1na2vs0mg"},{"bike_id":"16b01784-790e-42ba-af4a-1eae12a3a2c4","system_id":"levelo_inurba_marseille","lat":43.26785,"lon":5.39411,"is_reserved":false,"is_disabled":false,"rental_uris":{"android":"levelo://app?vid=16b01784-790e-42ba-af4a-1eae12a3a2c4","ios":"levelo://app?vid=16b01784-790e-42ba-af4a-1eae12a3a2c4"},"vehicle_type_id":"4","last_reported":1753813052,"current_range_meters":12800,"station_id":"ce4bhh12rcd13ifvqfg0","pricing_plan_id":"cebpf4jnsgd1na2vs0mg"},{"bike_id":"5c442753-9d5f-4bbc-979d-0e84cc4898f5","system_id":"levelo_inurba_marseille","lat":43.30439,"lon":5.39742,"is_reserved":false,"is_disabled":false,"rental_uris":{"android":"levelo://app?vid=5c442753-9d5f-4bbc-979d-0e84cc4898f5","ios":"levelo://app?vid=5c442753-9d5f-4bbc-979d-0e84cc4898f5"},"vehicle_type_id":"4","last_reported":1753813052,"current_range_meters":13600,"station_id":"ce4bh092rcd13ifvqd20","pricing_plan_id":"cebpf4jnsgd1na2vs0mg"},{"bike_id":"924b3d55-2726-43c0-9390-21247b20108a","system_id":"levelo_inurba_marseille","lat":43.31715,"lon":5.43707,"is_reserved":false,"is_disabled":false,"rental_uris":{"android":"levelo://app?vid=924b3d55-2726-43c0-9390-21247b20108a","ios":"levelo://app?vid=924b3d55-2726-43c0-9390-21247b20108a"},"vehicle_type_id":"4","last_reported":1753813052,"current_range_meters":13600,"station_id":"ce4bhp92rcd13ifvqhcg","pricing_plan_id":"cebpf4jnsgd1na2vs0mg"},{"bike_id":"6d40d0dc-56be-4684-ab62-30a9f8bcd161","system_id":"levelo_inurba_marseille","lat":43.29267,"lon":5.38428,"is_reserved":false,"is_disabled":false,"rental_uris":{"android":"levelo://app?vid=6d40d0dc-56be-4684-ab62-30a9f8bcd161","ios":"levelo://app?vid=6d40d0dc-56be-4684-ab62-30a9f8bcd161"},"vehicle_type_id":"4","last_reported":1753813052,"current_range_meters":13600,"station_id":"ce4bh692rcd13ifvqea0","pricing_plan_id":"cebpf4jnsgd1na2vs0mg"},{"bike_id":"9790e8f9-a7db-40cb-9f4d-78782c93b56b","system_id":"levelo_inurba_marseille","lat":43.30933,"lon":5.40142,"is_reserved":false,"is_disabled":false,"rental_uris":{"android":"levelo://app?vid=9790e8f9-a7db-40cb-9f4d-78782c93b56b","ios":"levelo://app?vid=9790e8f9-a7db-40cb-9f4d-78782c93b56b"},"vehicle_type_id":"4","last_reported":1753813052,"current_range_meters":13600,"station_id":"ce4bgvp2rcd13ifvqct0","pricing_plan_id":"cebpf4jnsgd1na2vs0mg"},{"bike_id":"72cc880d-b2b2-43b6-98c5-6668fddb59a3","system_id":"levelo_inurba_marseille","lat":43.27375,"lon":5.36257,"is_reserved":false,"is_disabled":false,"rental_uris":{"android":"levelo://app?vid=72cc880d-b2b2-43b6-98c5-6668fddb59a3","ios":"levelo://app?vid=72cc880d-b2b2-43b6-98c5-6668fddb59a3"},"vehicle_type_id":"4","last_reported":1753813052,"current_range_meters":13600,"station_id":"ce4bhbh2rcd13ifvqeo0","pricing_plan_id":"cebpf4jnsgd1na2vs0mg"},{"bike_id":"036815cb-96e3-4473-8cbc-459e03a83811","system_id":"levelo_inurba_marseille","lat":43.29812,"lon":5.40388,"is_reserved":false,"is_disabled":false,"rental_uris":{"android":"levelo://app?vid=036815cb-96e3-4473-8cbc-459e03a83811","ios":"levelo://app?vid=036815cb-96e3-4473-8cbc-459e03a83811"},"vehicle_type_id":"4","last_reported":1753813052,"current_range_meters":13600,"station_id":"ce4bh112rcd13ifvqd90","pricing_plan_id":"cebpf4jnsgd1na2vs0mg"},{"bike_id":"996fe539-42e6-4511-a382-9c507d4c6b32","system_id":"levelo_inurba_marseille","lat":43.29557,"lon":5.38529,"is_reserved":false,"is_disabled":false,"rental_uris":{"android":"levelo://app?vid=996fe539-42e6-4511-a382-9c507d4c6b32","ios":"levelo://app?vid=996fe539-42e6-4511-a382-9c507d4c6b32"},"vehicle_type_id":"4","last_reported":1753813052,"current_range_meters":13600,"station_id":"ce4bgih2rcd13ifvqba0","pricing_plan_id":"cebpf4jnsgd1na2vs0mg"},{"bike_id":"0dc99cab-1546-4588-8ef9-e9c6ae8e0a6f","system_id":"levelo_inurba_marseille","lat":43.23064,"lon":5.35494,"is_reserved":false,"is_disabled":false,"rental_uris":{"android":"levelo://app?vid=0dc99cab-1546-4588-8ef9-e9c6ae8e0a6f","ios":"levelo://app?vid=0dc99cab-1546-4588-8ef9-e9c6ae8e0a6f"},"vehicle_type_id":"4","last_reported":1753813052,"current_range_meters":13600,"station_id":"cpo3342slgdg3j2ifvpg","pricing_plan_id":"cebpf4jnsgd1na2vs0mg"},{"bike_id":"2f5a766e-3ece-4a36-9442-eef7b36a8a22","system_id":"levelo_inurba_marseille","lat":43.24793,"lon":5.37499,"is_reserved":false,"is_disabled":false,"rental_uris":{"android":"levelo://app?vid=2f5a766e-3ece-4a36-9442-eef7b36a8a22","ios":"levelo://app?vid=2f5a766e-3ece-4a36-9442-eef7b36a8a22"},"vehicle_type_id":"4","last_reported":1753813052,"current_range_meters":14000,"station_id":"ce4bhgh2rcd13ifvqfb0","pricing_plan_id":"cebpf4jnsgd1na2vs0mg"},{"bike_id":"2a2ab750-97a9-4e27-9f0d-b7eaa4b32af5","system_id":"levelo_inurba_marseille","lat":43.28612,"lon":5.37063,"is_reserved":false,"is_disabled":false,"rental_uris":{"android":"levelo://app?vid=2a2ab750-97a9-4e27-9f0d-b7eaa4b32af5","ios":"levelo://app?vid=2a2ab750-97a9-4e27-9f0d-b7eaa4b32af5"},"vehicle_type_id":"4","last_reported":1753813052,"current_range_meters":14000,"station_id":"ce4bht12rcd13ifvqi60","pricing_plan_id":"cebpf4jnsgd1na2vs0mg"},{"bike_id":"7887f1f5-6e70-43f7-9388-01ef84d4cdc0","system_id":"levelo_inurba_marseille","lat":43.262133,"lon":5.374442,"is_reserved":false,"is_disabled":false,"rental_uris":{"android":"levelo://app?vid=7887f1f5-6e70-43f7-9388-01ef84d4cdc0","ios":"levelo://app?vid=7887f1f5-6e70-43f7-9388-01ef84d4cdc0"},"vehicle_type_id":"4","last_reported":1753813052,"current_range_meters":14000,"station_id":"ce4bgh92rcd13ifvqb40","pricing_plan_id":"cebpf4jnsgd1na2vs0mg"},{"bike_id":"b7234136-bf62-4ef1-9964-a9c43529d354","system_id":"levelo_inurba_marseille","lat":43.318166,"lon":5.39435,"is_reserved":false,"is_disabled":false,"rental_uris":{"android":"levelo://app?vid=b7234136-bf62-4ef1-9964-a9c43529d354","ios":"levelo://app?vid=b7234136-bf62-4ef1-9964-a9c43529d354"},"vehicle_type_id":"4","last_reported":1753813052,"current_range_meters":14000,"station_id":"","pricing_plan_id":"cebpf4jnsgd1na2vs0mg"},{"bike_id":"37b13109-e2af-4f2f-915e-c14bd5b9d504","system_id":"levelo_inurba_marseille","lat":43.291977,"lon":5.357975,"is_reserved":false,"is_disabled":false,"rental_uris":{"android":"levelo://app?vid=37b13109-e2af-4f2f-915e-c14bd5b9d504","ios":"levelo://app?vid=37b13109-e2af-4f2f-915e-c14bd5b9d504"},"vehicle_type_id":"4","last_reported":1753813052,"current_range_meters":14000,"station_id":"ce4bhb12rcd13ifvqel0","pricing_plan_id":"cebpf4jnsgd1na2vs0mg"},{"bike_id":"b93ce78a-91c6-4fce-9307-3a583d277b06","system_id":"levelo_inurba_marseille","lat":43.28715,"lon":5.37929,"is_reserved":false,"is_disabled":true,"rental_uris":{"android":"levelo://app?vid=b93ce78a-91c6-4fce-9307-3a583d277b06","ios":"levelo://app?vid=b93ce78a-91c6-4fce-9307-3a583d277b06"},"vehicle_type_id":"4","last_reported":1753813052,"current_range_meters":14000,"station_id":"ce4bh9p2rcd13ifvqec0","pricing_plan_id":"cebpf4jnsgd1na2vs0mg"},{"bike_id":"2b86ff75-9092-4841-b027-dfda574d02ac","system_id":"levelo_inurba_marseille","lat":43.28418,"lon":5.37527,"is_reserved":false,"is_disabled":false,"rental_uris":{"android":"levelo://app?vid=2b86ff75-9092-4841-b027-dfda574d02ac","ios":"levelo://app?vid=2b86ff75-9092-4841-b027-dfda574d02ac"},"vehicle_type_id":"4","last_reported":1753813052,"current_range_meters":14000,"station_id":"ce4bh412rcd13ifvqds0","pricing_plan_id":"cebpf4jnsgd1na2vs0mg"},{"bike_id":"7f3262f8-b9db-4ce0-9f33-68bc0d73023a","system_id":"levelo_inurba_marseille","lat":43.29214,"lon":5.36053,"is_reserved":false,"is_disabled":false,"rental_uris":{"android":"levelo://app?vid=7f3262f8-b9db-4ce0-9f33-68bc0d73023a","ios":"levelo://app?vid=7f3262f8-b9db-4ce0-9f33-68bc0d73023a"},"vehicle_type_id":"4","last_reported":1753813052,"current_range_meters":14000,"station_id":"ce4bhbh2rcd13ifvqeqg","pricing_plan_id":"cebpf4jnsgd1na2vs0mg"},{"bike_id":"04da1e35-1db0-41bf-93ea-197c60c02fc9","system_id":"levelo_inurba_marseille","lat":43.28606,"lon":5.37062,"is_reserved":false,"is_disabled":false,"rental_uris":{"android":"levelo://app?vid=04da1e35-1db0-41bf-93ea-197c60c02fc9","ios":"levelo://app?vid=04da1e35-1db0-41bf-93ea-197c60c02fc9"},"vehicle_type_id":"4","last_reported":1753813052,"current_range_meters":14000,"station_id":"ce4bht12rcd13ifvqi60","pricing_plan_id":"cebpf4jnsgd1na2vs0mg"},{"bike_id":"a9d25a6e-d18c-461f-8e48-994411831ba1","system_id":"levelo_inurba_marseille","lat":43.29536,"lon":5.39054,"is_reserved":false,"is_disabled":false,"rental_uris":{"android":"levelo://app?vid=a9d25a6e-d18c-461f-8e48-994411831ba1","ios":"levelo://app?vid=a9d25a6e-d18c-461f-8e48-994411831ba1"},"vehicle_type_id":"4","last_reported":1753813052,"current_range_meters":14000,"station_id":"ce4bh3p2rcd13ifvqdp0","pricing_plan_id":"cebpf4jnsgd1na2vs0mg"},{"bike_id":"0284b153-ed18-4aff-854a-398618bd67fc","system_id":"levelo_inurba_marseille","lat":43.28424,"lon":5.34973,"is_reserved":false,"is_disabled":false,"rental_uris":{"android":"levelo://app?vid=0284b153-ed18-4aff-854a-398618bd67fc","ios":"levelo://app?vid=0284b153-ed18-4aff-854a-398618bd67fc"},"vehicle_type_id":"4","last_reported":1753813052,"current_range_meters":14000,"station_id":"ce4bhbh2rcd13ifvqepg","pricing_plan_id":"cebpf4jnsgd1na2vs0mg"},{"bike_id":"1862dba0-d4de-4c5b-95c0-ab175644b370","system_id":"levelo_inurba_marseille","lat":43.284136,"lon":5.349916,"is_reserved":false,"is_disabled":false,"rental_uris":{"android":"levelo://app?vid=1862dba0-d4de-4c5b-95c0-ab175644b370","ios":"levelo://app?vid=1862dba0-d4de-4c5b-95c0-ab175644b370"},"vehicle_type_id":"4","last_reported":1753813052,"current_range_meters":14000,"station_id":"ce4bhbh2rcd13ifvqepg","pricing_plan_id":"cebpf4jnsgd1na2vs0mg"},{"bike_id":"92ec511f-5203-4ca0-a603-c9e231758e8a","system_id":"levelo_inurba_marseille","lat":43.28037,"lon":5.36944,"is_reserved":false,"is_disabled":false,"rental_uris":{"android":"levelo://app?vid=92ec511f-5203-4ca0-a603-c9e231758e8a","ios":"levelo://app?vid=92ec511f-5203-4ca0-a603-c9e231758e8a"},"vehicle_type_id":"4","last_reported":1753813052,"current_range_meters":14000,"station_id":"ce4bha12rcd13ifvqef0","pricing_plan_id":"cebpf4jnsgd1na2vs0mg"},{"bike_id":"35c23b1d-81b3-4a90-919d-451f3c620349","system_id":"levelo_inurba_marseille","lat":43.31363,"lon":5.38498,"is_reserved":false,"is_disabled":false,"rental_uris":{"android":"levelo://app?vid=35c23b1d-81b3-4a90-919d-451f3c620349","ios":"levelo://app?vid=35c23b1d-81b3-4a90-919d-451f3c620349"},"vehicle_type_id":"4","last_reported":1753813052,"current_range_meters":14400,"station_id":"ce4bgt92rcd13ifvqcf0","pricing_plan_id":"cebpf4jnsgd1na2vs0mg"},{"bike_id":"a027973f-c8c9-4811-a512-806c935b4c27","system_id":"levelo_inurba_marseille","lat":43.21196,"lon":5.35066,"is_reserved":false,"is_disabled":true,"rental_uris":{"android":"levelo://app?vid=a027973f-c8c9-4811-a512-806c935b4c27","ios":"levelo://app?vid=a027973f-c8c9-4811-a512-806c935b4c27"},"vehicle_type_id":"4","last_reported":1753813052,"current_range_meters":14400,"station_id":"st_cvj6sg6p6f1abm77japg","pricing_plan_id":"cebpf4jnsgd1na2vs0mg"},{"bike_id":"00eea4d9-7b9b-4708-945b-8caeda6228a1","system_id":"levelo_inurba_marseille","lat":43.255,"lon":5.37649,"is_reserved":false,"is_disabled":false,"rental_uris":{"android":"levelo://app?vid=00eea4d9-7b9b-4708-945b-8caeda6228a1","ios":"levelo://app?vid=00eea4d9-7b9b-4708-945b-8caeda6228a1"},"vehicle_type_id":"4","last_reported":1753813052,"current_range_meters":14400,"station_id":"ce4bhh12rcd13ifvqff0","pricing_plan_id":"cebpf4jnsgd1na2vs0mg"},{"bike_id":"36a4311d-f13b-4729-8d27-70dfef909ab6","system_id":"levelo_inurba_marseille","lat":43.2737,"lon":5.36257,"is_reserved":false,"is_disabled":false,"rental_uris":{"android":"levelo://app?vid=36a4311d-f13b-4729-8d27-70dfef909ab6","ios":"levelo://app?vid=36a4311d-f13b-4729-8d27-70dfef909ab6"},"vehicle_type_id":"4","last_reported":1753813052,"current_range_meters":14400,"station_id":"ce4bhbh2rcd13ifvqeo0","pricing_plan_id":"cebpf4jnsgd1na2vs0mg"},{"bike_id":"d8e6094c-0de7-412e-bab8-3969f4a35524","system_id":"levelo_inurba_marseille","lat":43.29847,"lon":5.37574,"is_reserved":false,"is_disabled":false,"rental_uris":{"android":"levelo://app?vid=d8e6094c-0de7-412e-bab8-3969f4a35524","ios":"levelo://app?vid=d8e6094c-0de7-412e-bab8-3969f4a35524"},"vehicle_type_id":"4","last_reported":1753813052,"current_range_meters":14400,"station_id":"","pricing_plan_id":"cebpf4jnsgd1na2vs0mg"},{"bike_id":"e8a0c05d-7272-4138-a1f4-e9de17058e9b","system_id":"levelo_inurba_marseille","lat":43.28276,"lon":5.35074,"is_reserved":false,"is_disabled":true,"rental_uris":{"android":"levelo://app?vid=e8a0c05d-7272-4138-a1f4-e9de17058e9b","ios":"levelo://app?vid=e8a0c05d-7272-4138-a1f4-e9de17058e9b"},"vehicle_type_id":"4","last_reported":1753813052,"current_range_meters":14400,"station_id":"ce4bhbp2rcd13ifvqerg","pricing_plan_id":"cebpf4jnsgd1na2vs0mg"},{"bike_id":"7ae9a301-af81-4c61-b264-f97fbac78c92","system_id":"levelo_inurba_marseille","lat":43.24811,"lon":5.37445,"is_reserved":false,"is_disabled":false,"rental_uris":{"android":"levelo://app?vid=7ae9a301-af81-4c61-b264-f97fbac78c92","ios":"levelo://app?vid=7ae9a301-af81-4c61-b264-f97fbac78c92"},"vehicle_type_id":"4","last_reported":1753813052,"current_range_meters":14800,"station_id":"ce4bhgh2rcd13ifvqfb0","pricing_plan_id":"cebpf4jnsgd1na2vs0mg"},{"bike_id":"185683c6-af03-444a-a570-a2005e635f82","system_id":"levelo_inurba_marseille","lat":43.28269,"lon":5.35064,"is_reserved":false,"is_disabled":false,"rental_uris":{"android":"levelo://app?vid=185683c6-af03-444a-a570-a2005e635f82","ios":"levelo://app?vid=185683c6-af03-444a-a570-a2005e635f82"},"vehicle_type_id":"4","last_reported":1753813052,"current_range_meters":14800,"station_id":"ce4bhbp2rcd13ifvqerg","pricing_plan_id":"cebpf4jnsgd1na2vs0mg"},{"bike_id":"ef65f066-de96-432a-a3bf-b1b3ad0e62a1","system_id":"levelo_inurba_marseille","lat":43.321,"lon":5.36763,"is_reserved":false,"is_disabled":false,"rental_uris":{"android":"levelo://app?vid=ef65f066-de96-432a-a3bf-b1b3ad0e62a1","ios":"levelo://app?vid=ef65f066-de96-432a-a3bf-b1b3ad0e62a1"},"vehicle_type_id":"4","last_reported":1753813052,"current_range_meters":14800,"station_id":"ce4bhrh2rcd13ifvqhug","pricing_plan_id":"cebpf4jnsgd1na2vs0mg"},{"bike_id":"7b7e6606-37e1-458c-8ae9-146e288b6458","system_id":"levelo_inurba_marseille","lat":43.29604,"lon":5.38102,"is_reserved":false,"is_disabled":false,"rental_uris":{"android":"levelo://app?vid=7b7e6606-37e1-458c-8ae9-146e288b6458","ios":"levelo://app?vid=7b7e6606-37e1-458c-8ae9-146e288b6458"},"vehicle_type_id":"4","last_reported":1753813052,"current_range_meters":14800,"station_id":"ce4bgl12rcd13ifvqbo0","pricing_plan_id":"cebpf4jnsgd1na2vs0mg"},{"bike_id":"da5d3923-6dbb-403f-97df-6ae8963f47df","system_id":"levelo_inurba_marseille","lat":43.21195,"lon":5.35065,"is_reserved":false,"is_disabled":false,"rental_uris":{"android":"levelo://app?vid=da5d3923-6dbb-403f-97df-6ae8963f47df","ios":"levelo://app?vid=da5d3923-6dbb-403f-97df-6ae8963f47df"},"vehicle_type_id":"4","last_reported":1753813052,"current_range_meters":15200,"station_id":"st_cvj6sg6p6f1abm77japg","pricing_plan_id":"cebpf4jnsgd1na2vs0mg"},{"bike_id":"945df923-9023-4cf1-9332-5cdab402e7a0","system_id":"levelo_inurba_marseille","lat":43.25083,"lon":5.39521,"is_reserved":false,"is_disabled":false,"rental_uris":{"android":"levelo://app?vid=945df923-9023-4cf1-9332-5cdab402e7a0","ios":"levelo://app?vid=945df923-9023-4cf1-9332-5cdab402e7a0"},"vehicle_type_id":"4","last_reported":1753813052,"current_range_meters":15200,"station_id":"ce4bhm12rcd13ifvqgkg","pricing_plan_id":"cebpf4jnsgd1na2vs0mg"},{"bike_id":"96f2817b-2168-4f43-87e5-f90384c5b505","system_id":"levelo_inurba_marseille","lat":43.23197,"lon":5.35533,"is_reserved":false,"is_disabled":false,"rental_uris":{"android":"levelo://app?vid=96f2817b-2168-4f43-87e5-f90384c5b505","ios":"levelo://app?vid=96f2817b-2168-4f43-87e5-f90384c5b505"},"vehicle_type_id":"4","last_reported":1753813052,"current_range_meters":15200,"station_id":"ce4bhu92rcd13ifvqi70","pricing_plan_id":"cebpf4jnsgd1na2vs0mg"},{"bike_id":"cf0fca3e-9515-4303-8197-103af083731a","system_id":"levelo_inurba_marseille","lat":43.29266,"lon":5.36862,"is_reserved":false,"is_disabled":false,"rental_uris":{"android":"levelo://app?vid=cf0fca3e-9515-4303-8197-103af083731a","ios":"levelo://app?vid=cf0fca3e-9515-4303-8197-103af083731a"},"vehicle_type_id":"4","last_reported":1753813052,"current_range_meters":15200,"station_id":"ce4bhbp2rcd13ifvqesg","pricing_plan_id":"cebpf4jnsgd1na2vs0mg"},{"bike_id":"58d60ef7-501e-48a0-a97f-c0e09ff3aab0","system_id":"levelo_inurba_marseille","lat":43.222792,"lon":5.345958,"is_reserved":false,"is_disabled":false,"rental_uris":{"android":"levelo://app?vid=58d60ef7-501e-48a0-a97f-c0e09ff3aab0","ios":"levelo://app?vid=58d60ef7-501e-48a0-a97f-c0e09ff3aab0"},"vehicle_type_id":"4","last_reported":1753813052,"current_range_meters":15200,"station_id":"ce4bhp92rcd13ifvqhag","pricing_plan_id":"cebpf4jnsgd1na2vs0mg"},{"bike_id":"6fe2eb2c-6091-4ad9-a07f-d4894d90ac61","system_id":"levelo_inurba_marseille","lat":43.290291,"lon":5.377818,"is_reserved":false,"is_disabled":false,"rental_uris":{"android":"levelo://app?vid=6fe2eb2c-6091-4ad9-a07f-d4894d90ac61","ios":"levelo://app?vid=6fe2eb2c-6091-4ad9-a07f-d4894d90ac61"},"vehicle_type_id":"4","last_reported":1753813052,"current_range_meters":15200,"station_id":"ce4bh2p2rcd13ifvqdi0","pricing_plan_id":"cebpf4jnsgd1na2vs0mg"},{"bike_id":"3e632e67-e785-475b-93e1-b0a668624c02","system_id":"levelo_inurba_marseille","lat":43.28165,"lon":5.42626,"is_reserved":false,"is_disabled":false,"rental_uris":{"android":"levelo://app?vid=3e632e67-e785-475b-93e1-b0a668624c02","ios":"levelo://app?vid=3e632e67-e785-475b-93e1-b0a668624c02"},"vehicle_type_id":"4","last_reported":1753813052,"current_range_meters":15200,"station_id":"ce4bhnh2rcd13ifvqgug","pricing_plan_id":"cebpf4jnsgd1na2vs0mg"},{"bike_id":"e293ed13-a5f8-47d4-bbe1-9c9b52c0a2e5","system_id":"levelo_inurba_marseille","lat":43.28977,"lon":5.37836,"is_reserved":false,"is_disabled":true,"rental_uris":{"android":"levelo://app?vid=e293ed13-a5f8-47d4-bbe1-9c9b52c0a2e5","ios":"levelo://app?vid=e293ed13-a5f8-47d4-bbe1-9c9b52c0a2e5"},"vehicle_type_id":"4","last_reported":1753813052,"current_range_meters":15200,"station_id":"ce4bh9p2rcd13ifvqed0","pricing_plan_id":"cebpf4jnsgd1na2vs0mg"},{"bike_id":"ab9c577b-9cc3-4d9b-9e71-2ee231744295","system_id":"levelo_inurba_marseille","lat":43.28106,"lon":5.38325,"is_reserved":false,"is_disabled":false,"rental_uris":{"android":"levelo://app?vid=ab9c577b-9cc3-4d9b-9e71-2ee231744295","ios":"levelo://app?vid=ab9c577b-9cc3-4d9b-9e71-2ee231744295"},"vehicle_type_id":"4","last_reported":1753813052,"current_range_meters":16000,"station_id":"","pricing_plan_id":"cebpf4jnsgd1na2vs0mg"},{"bike_id":"d305fa65-a6e4-4a49-8d67-1fe630e34331","system_id":"levelo_inurba_marseille","lat":43.28624,"lon":5.35091,"is_reserved":false,"is_disabled":false,"rental_uris":{"android":"levelo://app?vid=d305fa65-a6e4-4a49-8d67-1fe630e34331","ios":"levelo://app?vid=d305fa65-a6e4-4a49-8d67-1fe630e34331"},"vehicle_type_id":"4","last_reported":1753813052,"current_range_meters":16000,"station_id":"ce4bhch2rcd13ifvqeug","pricing_plan_id":"cebpf4jnsgd1na2vs0mg"},{"bike_id":"bcd4db20-7cfd-4c69-92d5-9b1c35a388f7","system_id":"levelo_inurba_marseille","lat":43.230594,"lon":5.354969,"is_reserved":false,"is_disabled":false,"rental_uris":{"android":"levelo://app?vid=bcd4db20-7cfd-4c69-92d5-9b1c35a388f7","ios":"levelo://app?vid=bcd4db20-7cfd-4c69-92d5-9b1c35a388f7"},"vehicle_type_id":"4","last_reported":1753813052,"current_range_meters":16000,"station_id":"cpo3342slgdg3j2ifvpg","pricing_plan_id":"cebpf4jnsgd1na2vs0mg"},{"bike_id":"ab666d87-3e70-4814-9ff2-9c4c5eb8d522","system_id":"levelo_inurba_marseille","lat":43.321097,"lon":5.367783,"is_reserved":false,"is_disabled":false,"rental_uris":{"android":"levelo://app?vid=ab666d87-3e70-4814-9ff2-9c4c5eb8d522","ios":"levelo://app?vid=ab666d87-3e70-4814-9ff2-9c4c5eb8d522"},"vehicle_type_id":"4","last_reported":1753813052,"current_range_meters":16000,"station_id":"ce4bhrh2rcd13ifvqhug","pricing_plan_id":"cebpf4jnsgd1na2vs0mg"},{"bike_id":"5cc5e290-c9e6-44c9-bee3-ec494abe9db7","system_id":"levelo_inurba_marseille","lat":43.30275,"lon":5.38884,"is_reserved":false,"is_disabled":false,"rental_uris":{"android":"levelo://app?vid=5cc5e290-c9e6-44c9-bee3-ec494abe9db7","ios":"levelo://app?vid=5cc5e290-c9e6-44c9-bee3-ec494abe9db7"},"vehicle_type_id":"4","last_reported":1753813052,"current_range_meters":16000,"station_id":"","pricing_plan_id":"cebpf4jnsgd1na2vs0mg"},{"bike_id":"a16d408b-87b7-4ea5-b6d0-ce9b4fba403c","system_id":"levelo_inurba_marseille","lat":43.28608,"lon":5.37104,"is_reserved":false,"is_disabled":false,"rental_uris":{"android":"levelo://app?vid=a16d408b-87b7-4ea5-b6d0-ce9b4fba403c","ios":"levelo://app?vid=a16d408b-87b7-4ea5-b6d0-ce9b4fba403c"},"vehicle_type_id":"4","last_reported":1753813052,"current_range_meters":16000,"station_id":"ce4bht12rcd13ifvqi60","pricing_plan_id":"cebpf4jnsgd1na2vs0mg"},{"bike_id":"b48f5dd0-6dba-4454-bab2-8fe0e77c0439","system_id":"levelo_inurba_marseille","lat":43.24159,"lon":5.36403,"is_reserved":false,"is_disabled":false,"rental_uris":{"android":"levelo://app?vid=b48f5dd0-6dba-4454-bab2-8fe0e77c0439","ios":"levelo://app?vid=b48f5dd0-6dba-4454-bab2-8fe0e77c0439"},"vehicle_type_id":"4","last_reported":1753813052,"current_range_meters":16000,"station_id":"cpo36qri1sfpv3e86is0","pricing_plan_id":"cebpf4jnsgd1na2vs0mg"},{"bike_id":"863b2e2b-1f2d-4c94-b7fc-5e3cf1d176ec","system_id":"levelo_inurba_marseille","lat":43.321195,"lon":5.367915,"is_reserved":false,"is_disabled":false,"rental_uris":{"android":"levelo://app?vid=863b2e2b-1f2d-4c94-b7fc-5e3cf1d176ec","ios":"levelo://app?vid=863b2e2b-1f2d-4c94-b7fc-5e3cf1d176ec"},"vehicle_type_id":"4","last_reported":1753813052,"current_range_meters":16000,"station_id":"ce4bhrh2rcd13ifvqhug","pricing_plan_id":"cebpf4jnsgd1na2vs0mg"},{"bike_id":"3c65e3a4-d98b-4db2-8d36-951b9612ba65","system_id":"levelo_inurba_marseille","lat":43.23187,"lon":5.35549,"is_reserved":false,"is_disabled":false,"rental_uris":{"android":"levelo://app?vid=3c65e3a4-d98b-4db2-8d36-951b9612ba65","ios":"levelo://app?vid=3c65e3a4-d98b-4db2-8d36-951b9612ba65"},"vehicle_type_id":"4","last_reported":1753813052,"current_range_meters":16000,"station_id":"ce4bhu92rcd13ifvqi70","pricing_plan_id":"cebpf4jnsgd1na2vs0mg"},{"bike_id":"3384dba0-7496-43d4-b6dd-d826483a6e93","system_id":"levelo_inurba_marseille","lat":43.24819,"lon":5.37473,"is_reserved":false,"is_disabled":false,"rental_uris":{"android":"levelo://app?vid=3384dba0-7496-43d4-b6dd-d826483a6e93","ios":"levelo://app?vid=3384dba0-7496-43d4-b6dd-d826483a6e93"},"vehicle_type_id":"4","last_reported":1753813052,"current_range_meters":16000,"station_id":"ce4bhgh2rcd13ifvqfb0","pricing_plan_id":"cebpf4jnsgd1na2vs0mg"},{"bike_id":"006989d0-e964-4aa4-ad1e-5b81a65c337e","system_id":"levelo_inurba_marseille","lat":43.30802,"lon":5.38151,"is_reserved":false,"is_disabled":true,"rental_uris":{"android":"levelo://app?vid=006989d0-e964-4aa4-ad1e-5b81a65c337e","ios":"levelo://app?vid=006989d0-e964-4aa4-ad1e-5b81a65c337e"},"vehicle_type_id":"4","last_reported":1753813052,"current_range_meters":16000,"station_id":"ce4bgt12rcd13ifvqce0","pricing_plan_id":"cebpf4jnsgd1na2vs0mg"},{"bike_id":"00de3457-bb26-4f86-be97-d29604933a4d","system_id":"levelo_inurba_marseille","lat":43.28642,"lon":5.37184,"is_reserved":false,"is_disabled":false,"rental_uris":{"android":"levelo://app?vid=00de3457-bb26-4f86-be97-d29604933a4d","ios":"levelo://app?vid=00de3457-bb26-4f86-be97-d29604933a4d"},"vehicle_type_id":"4","last_reported":1753813052,"current_range_meters":16000,"station_id":"","pricing_plan_id":"cebpf4jnsgd1na2vs0mg"},{"bike_id":"3d54e97c-ec3a-42f4-bf86-812f072159e8","system_id":"levelo_inurba_marseille","lat":43.28155,"lon":5.42636,"is_reserved":false,"is_disabled":false,"rental_uris":{"android":"levelo://app?vid=3d54e97c-ec3a-42f4-bf86-812f072159e8","ios":"levelo://app?vid=3d54e97c-ec3a-42f4-bf86-812f072159e8"},"vehicle_type_id":"4","last_reported":1753813052,"current_range_meters":16000,"station_id":"ce4bhnh2rcd13ifvqgug","pricing_plan_id":"cebpf4jnsgd1na2vs0mg"},{"bike_id":"1ae5d7eb-1e99-401d-bdff-f20d11a3625e","system_id":"levelo_inurba_marseille","lat":43.303291,"lon":5.40441,"is_reserved":false,"is_disabled":true,"rental_uris":{"android":"levelo://app?vid=1ae5d7eb-1e99-401d-bdff-f20d11a3625e","ios":"levelo://app?vid=1ae5d7eb-1e99-401d-bdff-f20d11a3625e"},"vehicle_type_id":"4","last_reported":1753813052,"current_range_meters":16000,"station_id":"","pricing_plan_id":"cebpf4jnsgd1na2vs0mg"},{"bike_id":"d77a0db6-09c1-4add-9e54-6f6a5c0286b6","system_id":"levelo_inurba_marseille","lat":43.292624,"lon":5.38438,"is_reserved":false,"is_disabled":false,"rental_uris":{"android":"levelo://app?vid=d77a0db6-09c1-4add-9e54-6f6a5c0286b6","ios":"levelo://app?vid=d77a0db6-09c1-4add-9e54-6f6a5c0286b6"},"vehicle_type_id":"4","last_reported":1753813052,"current_range_meters":16000,"station_id":"ce4bh692rcd13ifvqea0","pricing_plan_id":"cebpf4jnsgd1na2vs0mg"},{"bike_id":"62cc2b57-4239-43f5-99b3-51e3c34f2329","system_id":"levelo_inurba_marseille","lat":43.29977,"lon":5.38491,"is_reserved":false,"is_disabled":false,"rental_uris":{"android":"levelo://app?vid=62cc2b57-4239-43f5-99b3-51e3c34f2329","ios":"levelo://app?vid=62cc2b57-4239-43f5-99b3-51e3c34f2329"},"vehicle_type_id":"4","last_reported":1753813052,"current_range_meters":16400,"station_id":"ce4bgj92rcd13ifvqbd0","pricing_plan_id":"cebpf4jnsgd1na2vs0mg"},{"bike_id":"04b4dbd4-a9ff-47ad-9bb3-9eff121edcfc","system_id":"levelo_inurba_marseille","lat":43.28424,"lon":5.34992,"is_reserved":false,"is_disabled":false,"rental_uris":{"android":"levelo://app?vid=04b4dbd4-a9ff-47ad-9bb3-9eff121edcfc","ios":"levelo://app?vid=04b4dbd4-a9ff-47ad-9bb3-9eff121edcfc"},"vehicle_type_id":"4","last_reported":1753813052,"current_range_meters":16400,"station_id":"ce4bhbh2rcd13ifvqepg","pricing_plan_id":"cebpf4jnsgd1na2vs0mg"},{"bike_id":"22a76ee8-f553-454b-8e2c-89c9a43fef04","system_id":"levelo_inurba_marseille","lat":43.25816,"lon":5.39429,"is_reserved":false,"is_disabled":false,"rental_uris":{"android":"levelo://app?vid=22a76ee8-f553-454b-8e2c-89c9a43fef04","ios":"levelo://app?vid=22a76ee8-f553-454b-8e2c-89c9a43fef04"},"vehicle_type_id":"4","last_reported":1753813052,"current_range_meters":16400,"station_id":"ce4bhip2rcd13ifvqft0","pricing_plan_id":"cebpf4jnsgd1na2vs0mg"},{"bike_id":"e53c7a23-ea8e-4097-8d03-05a80f7346db","system_id":"levelo_inurba_marseille","lat":43.28724,"lon":5.36096,"is_reserved":false,"is_disabled":false,"rental_uris":{"android":"levelo://app?vid=e53c7a23-ea8e-4097-8d03-05a80f7346db","ios":"levelo://app?vid=e53c7a23-ea8e-4097-8d03-05a80f7346db"},"vehicle_type_id":"4","last_reported":1753813052,"current_range_meters":16000,"station_id":"cki0cbj6b192h4jlfktg","pricing_plan_id":"cebpf4jnsgd1na2vs0mg"},{"bike_id":"e835e740-02a8-4b55-b83d-8f7e332e158e","system_id":"levelo_inurba_marseille","lat":43.23064,"lon":5.35468,"is_reserved":false,"is_disabled":false,"rental_uris":{"android":"levelo://app?vid=e835e740-02a8-4b55-b83d-8f7e332e158e","ios":"levelo://app?vid=e835e740-02a8-4b55-b83d-8f7e332e158e"},"vehicle_type_id":"4","last_reported":1753813052,"current_range_meters":16400,"station_id":"cpo3342slgdg3j2ifvpg","pricing_plan_id":"cebpf4jnsgd1na2vs0mg"},{"bike_id":"daabd21d-fe72-4bef-9caa-c5886e1b6fe4","system_id":"levelo_inurba_marseille","lat":43.32013,"lon":5.3743,"is_reserved":false,"is_disabled":false,"rental_uris":{"android":"levelo://app?vid=daabd21d-fe72-4bef-9caa-c5886e1b6fe4","ios":"levelo://app?vid=daabd21d-fe72-4bef-9caa-c5886e1b6fe4"},"vehicle_type_id":"4","last_reported":1753813052,"current_range_meters":16400,"station_id":"","pricing_plan_id":"cebpf4jnsgd1na2vs0mg"},{"bike_id":"95950a9a-ee92-4606-9df6-d9a784e39036","system_id":"levelo_inurba_marseille","lat":43.25499,"lon":5.37651,"is_reserved":false,"is_disabled":false,"rental_uris":{"android":"levelo://app?vid=95950a9a-ee92-4606-9df6-d9a784e39036","ios":"levelo://app?vid=95950a9a-ee92-4606-9df6-d9a784e39036"},"vehicle_type_id":"4","last_reported":1753813052,"current_range_meters":16400,"station_id":"ce4bhh12rcd13ifvqff0","pricing_plan_id":"cebpf4jnsgd1na2vs0mg"},{"bike_id":"135ab1ea-fc9a-4785-9240-6bfa3adf7c7c","system_id":"levelo_inurba_marseille","lat":43.32346,"lon":5.36718,"is_reserved":false,"is_disabled":false,"rental_uris":{"android":"levelo://app?vid=135ab1ea-fc9a-4785-9240-6bfa3adf7c7c","ios":"levelo://app?vid=135ab1ea-fc9a-4785-9240-6bfa3adf7c7c"},"vehicle_type_id":"4","last_reported":1753813052,"current_range_meters":16800,"station_id":"ce4bhsh2rcd13ifvqi2g","pricing_plan_id":"cebpf4jnsgd1na2vs0mg"},{"bike_id":"b6dc1e10-0e8e-4b8b-ac14-8b9148a007dc","system_id":"levelo_inurba_marseille","lat":43.2963,"lon":5.40591,"is_reserved":false,"is_disabled":false,"rental_uris":{"android":"levelo://app?vid=b6dc1e10-0e8e-4b8b-ac14-8b9148a007dc","ios":"levelo://app?vid=b6dc1e10-0e8e-4b8b-ac14-8b9148a007dc"},"vehicle_type_id":"4","last_reported":1753813052,"current_range_meters":16800,"station_id":"ce4bh0h2rcd13ifvqd60","pricing_plan_id":"cebpf4jnsgd1na2vs0mg"},{"bike_id":"3b673df5-4103-40bb-baf3-82115298ee59","system_id":"levelo_inurba_marseille","lat":43.25499,"lon":5.37654,"is_reserved":false,"is_disabled":false,"rental_uris":{"android":"levelo://app?vid=3b673df5-4103-40bb-baf3-82115298ee59","ios":"levelo://app?vid=3b673df5-4103-40bb-baf3-82115298ee59"},"vehicle_type_id":"4","last_reported":1753813052,"current_range_meters":16800,"station_id":"ce4bhh12rcd13ifvqff0","pricing_plan_id":"cebpf4jnsgd1na2vs0mg"},{"bike_id":"d2a74895-e846-45f5-a706-f79dccbdde17","system_id":"levelo_inurba_marseille","lat":43.28616,"lon":5.35102,"is_reserved":false,"is_disabled":false,"rental_uris":{"android":"levelo://app?vid=d2a74895-e846-45f5-a706-f79dccbdde17","ios":"levelo://app?vid=d2a74895-e846-45f5-a706-f79dccbdde17"},"vehicle_type_id":"4","last_reported":1753813052,"current_range_meters":16800,"station_id":"ce4bhch2rcd13ifvqeug","pricing_plan_id":"cebpf4jnsgd1na2vs0mg"},{"bike_id":"f129605f-c561-462b-9dd8-38b1fae764e6","system_id":"levelo_inurba_marseille","lat":43.32353,"lon":5.3676,"is_reserved":false,"is_disabled":false,"rental_uris":{"android":"levelo://app?vid=f129605f-c561-462b-9dd8-38b1fae764e6","ios":"levelo://app?vid=f129605f-c561-462b-9dd8-38b1fae764e6"},"vehicle_type_id":"4","last_reported":1753813052,"current_range_meters":16800,"station_id":"ce4bhsh2rcd13ifvqi2g","pricing_plan_id":"cebpf4jnsgd1na2vs0mg"},{"bike_id":"24ddc855-9db1-447b-8cc7-fb33f85a47fb","system_id":"levelo_inurba_marseille","lat":43.30595,"lon":5.37213,"is_reserved":false,"is_disabled":false,"rental_uris":{"android":"levelo://app?vid=24ddc855-9db1-447b-8cc7-fb33f85a47fb","ios":"levelo://app?vid=24ddc855-9db1-447b-8cc7-fb33f85a47fb"},"vehicle_type_id":"4","last_reported":1753813052,"current_range_meters":16800,"station_id":"ce4bgqh2rcd13ifvqc4g","pricing_plan_id":"cebpf4jnsgd1na2vs0mg"},{"bike_id":"a6a46ae2-d764-44ee-baf2-a76e49bd9084","system_id":"levelo_inurba_marseille","lat":43.2697,"lon":5.40303,"is_reserved":false,"is_disabled":false,"rental_uris":{"android":"levelo://app?vid=a6a46ae2-d764-44ee-baf2-a76e49bd9084","ios":"levelo://app?vid=a6a46ae2-d764-44ee-baf2-a76e49bd9084"},"vehicle_type_id":"4","last_reported":1753813052,"current_range_meters":16800,"station_id":"cjm6bp8fraef2m0cb0m0","pricing_plan_id":"cebpf4jnsgd1na2vs0mg"},{"bike_id":"c686771c-e4d6-4ee5-934b-f3ca190b833e","system_id":"levelo_inurba_marseille","lat":43.32765,"lon":5.39204,"is_reserved":false,"is_disabled":false,"rental_uris":{"android":"levelo://app?vid=c686771c-e4d6-4ee5-934b-f3ca190b833e","ios":"levelo://app?vid=c686771c-e4d6-4ee5-934b-f3ca190b833e"},"vehicle_type_id":"4","last_reported":1753813052,"current_range_meters":16800,"station_id":"","pricing_plan_id":"cebpf4jnsgd1na2vs0mg"},{"bike_id":"3a4f39ff-ecc9-415a-850b-b92a254a3b8b","system_id":"levelo_inurba_marseille","lat":43.29249,"lon":5.38454,"is_reserved":false,"is_disabled":false,"rental_uris":{"android":"levelo://app?vid=3a4f39ff-ecc9-415a-850b-b92a254a3b8b","ios":"levelo://app?vid=3a4f39ff-ecc9-415a-850b-b92a254a3b8b"},"vehicle_type_id":"4","last_reported":1753813052,"current_range_meters":16800,"station_id":"ce4bh692rcd13ifvqea0","pricing_plan_id":"cebpf4jnsgd1na2vs0mg"},{"bike_id":"387c87e1-c5b1-48c0-9404-1355c544d5a6","system_id":"levelo_inurba_marseille","lat":43.28618,"lon":5.35096,"is_reserved":false,"is_disabled":false,"rental_uris":{"android":"levelo://app?vid=387c87e1-c5b1-48c0-9404-1355c544d5a6","ios":"levelo://app?vid=387c87e1-c5b1-48c0-9404-1355c544d5a6"},"vehicle_type_id":"4","last_reported":1753813052,"current_range_meters":17200,"station_id":"ce4bhch2rcd13ifvqeug","pricing_plan_id":"cebpf4jnsgd1na2vs0mg"},{"bike_id":"23cb5642-15b1-4dff-8751-77349dab4204","system_id":"levelo_inurba_marseille","lat":43.229361,"lon":5.353771,"is_reserved":false,"is_disabled":false,"rental_uris":{"android":"levelo://app?vid=23cb5642-15b1-4dff-8751-77349dab4204","ios":"levelo://app?vid=23cb5642-15b1-4dff-8751-77349dab4204"},"vehicle_type_id":"4","last_reported":1753813052,"current_range_meters":17200,"station_id":"cpo3532slgdg3j2ikp40","pricing_plan_id":"cebpf4jnsgd1na2vs0mg"},{"bike_id":"4c82a850-37d3-4223-abb8-8335b7827482","system_id":"levelo_inurba_marseille","lat":43.28933,"lon":5.38413,"is_reserved":false,"is_disabled":false,"rental_uris":{"android":"levelo://app?vid=4c82a850-37d3-4223-abb8-8335b7827482","ios":"levelo://app?vid=4c82a850-37d3-4223-abb8-8335b7827482"},"vehicle_type_id":"4","last_reported":1753813052,"current_range_meters":17200,"station_id":"ce4bh612rcd13ifvqe6g","pricing_plan_id":"cebpf4jnsgd1na2vs0mg"},