{"last_updated":1748931363,"ttl":60,"version":"2.2","data":{"bikes":[{"bike_id":"aadb95fc-d156-41e0-9614-75d762b11d28","system_id":"levelo_inurba_marseille","lat":43.31959,"lon":5.4407,"is_reserved":false,"is_disabled":false,"rental_uris":{"android":"levelo://app?vid=aadb95fc-d156-41e0-9614-75d762b11d28","ios":"levelo://app?vid=aadb95fc-d156-41e0-9614-75d762b11d28"},"vehicle_type_id":"4","last_reported":1748931363,"current_range_meters":2800,"station_id":"","pricing_plan_id":"cebpf4jnsgd1na2vs0mg"},{"bike_id":"f037ee10-e332-42b1-85a9-1479fc53e8a3","system_id":"levelo_inurba_marseille","lat":43.288593,"lon":5.393084,"is_reserved":false,"is_disabled":false,"rental_uris":{"android":"levelo://app?vid=f037ee10-e332-42b1-85a9-1479fc53e8a3","ios":"levelo://app?vid=f037ee10-e332-42b1-85a9-1479fc53e8a3"},"vehicle_type_id":"4","last_reported":1748931363,"current_range_meters":3200,"station_id":"ce4bh2p2rcd13ifvqdi0","pricing_plan_id":"cebpf4jnsgd1na2vs0mg"},{"bike_id":"d52e0403-2b9e-4365-b4cf-e34a85e3dcec","system_id":"levelo_inurba_marseille","lat":43.24393,"lon":5.37065,"is_reserved":false,"is_disabled":false,"rental_uris":{"android":"levelo://app?vid=d52e0403-2b9e-4365-b4cf-e34a85e3dcec","ios":"levelo://app?vid=d52e0403-2b9e-4365-b4cf-e34a85e3dcec"},"vehicle_type_id":"4","last_reported":1748931363,"current_range_meters":3600,"station_id":"ce4bhhh2rcd13ifvqfk0","pricing_plan_id":"cebpf4jnsgd1na2vs0mg"},{"bike_id":"4cb97e9e-0c4c-43d4-b7b3-1bf44e39eca3","system_id":"levelo_inurba_marseille","lat":43.30329,"lon":5.40436,"is_reserved":false,"is_disabled":false,"rental_uris":{"android":"levelo://app?vid=4cb97e9e-0c4c-43d4-b7b3-1bf44e39eca3","ios":"levelo://app?vid=4cb97e9e-0c4c-43d4-b7b3-1bf44e39eca3"},"vehicle_type_id":"4","last_reported":1748931363,"current_range_meters":3600,"station_id":"ce4bh012rcd13ifvqd10","pricing_plan_id":"cebpf4jnsgd1na2vs0mg"},{"bike_id":"23005d6f-35e2-4798-a272-0b62cb6d3b81","system_id":"levelo_inurba_marseille","lat":43.274955,"lon":5.424525,"is_reserved":false,"is_disabled":false,"rental_uris":{"android":"levelo://app?vid=23005d6f-35e2-4798-a272-0b62cb6d3b81","ios":"levelo://app?vid=23005d6f-35e2-4798-a272-0b62cb6d3b81"},"vehicle_type_id":"4","last_reported":1748931363,"current_range_meters":3600,"station_id":"ce4bhn92rcd13ifvqgrg","pricing_plan_id":"cebpf4jnsgd1na2vs0mg"},{"bike_id":"b23f5608-2ad4-48b5-920c-accdaac82022","system_id":"levelo_inurba_marseille","lat":43.26954,"lon":5.38631,"is_reserved":false,"is_disabled":false,"rental_uris":{"android":"levelo://app?vid=b23f5608-2ad4-48b5-920c-accdaac82022","ios":"levelo://app?vid=b23f5608-2ad4-48b5-920c-accdaac82022"},"vehicle_type_id":"4","last_reported":1748931363,"current_range_meters":4000,"station_id":"ce4bhh92rcd13ifvqfh0","pricing_plan_id":"cebpf4jnsgd1na2vs0mg"},{"bike_id":"036a3f84-6c04-4f85-bd69-c60fcc1a093a","system_id":"levelo_inurba_marseille","lat":43.33319,"lon":5.39805,"is_reserved":false,"is_disabled":true,"rental_uris":{"android":"levelo://app?vid=036a3f84-6c04-4f85-bd69-c60fcc1a093a","ios":"levelo://app?vid=036a3f84-6c04-4f85-bd69-c60fcc1a093a"},"vehicle_type_id":"4","last_reported":1748931363,"current_range_meters":4400,"station_id":"","pricing_plan_id":"cebpf4jnsgd1na2vs0mg"},{"bike_id":"dc90da9b-9ae7-4253-a97d-1c20949e6717","system_id":"levelo_inurba_marseille","lat":43.304518,"lon":5.378924,"is_reserved":false,"is_disabled":false,"rental_uris":{"android":"levelo://app?vid=dc90da9b-9ae7-4253-a97d-1c20949e6717","ios":"levelo://app?vid=dc90da9b-9ae7-4253-a97d-1c20949e6717"},"vehicle_type_id":"4","last_reported":1748931363,"current_range_meters":5600,"station_id":"ce4bgup2rcd13ifvqcn0","pricing_plan_id":"cebpf4jnsgd1na2vs0mg"},{"bike_id":"73a4770d-0c02-48d5-a0f7-4d250b83527c","system_id":"levelo_inurba_marseille","lat":43.324747,"lon":5.424768,"is_reserved":false,"is_disabled":false,"rental_uris":{"android":"levelo://app?vid=73a4770d-0c02-48d5-a0f7-4d250b83527c","ios":"levelo://app?vid=73a4770d-0c02-48d5-a0f7-4d250b83527c"},"vehicle_type_id":"4","last_reported":1748931363,"current_range_meters":5600,"station_id":"","pricing_plan_id":"cebpf4jnsgd1na2vs0mg"},{"bike_id":"3adb1a84-e072-4953-ae5c-d353aa211abb","system_id":"levelo_inurba_marseille","lat":43.2848,"lon":5.38419,"is_reserved":false,"is_disabled":false,"rental_uris":{"android":"levelo://app?vid=3adb1a84-e072-4953-ae5c-d353aa211abb","ios":"levelo://app?vid=3adb1a84-e072-4953-ae5c-d353aa211abb"},"vehicle_type_id":"4","last_reported":1748931363,"current_range_meters":5600,"station_id":"ce4bh512rcd13ifvqe3g","pricing_plan_id":"cebpf4jnsgd1na2vs0mg"},{"bike_id":"907989c4-217b-4f7b-9ff7-4afa285967be","system_id":"levelo_inurba_marseille","lat":43.30932,"lon":5.40166,"is_reserved":false,"is_disabled":false,"rental_uris":{"android":"levelo://app?vid=907989c4-217b-4f7b-9ff7-4afa285967be","ios":"levelo://app?vid=907989c4-217b-4f7b-9ff7-4afa285967be"},"vehicle_type_id":"4","last_reported":1748931363,"current_range_meters":6000,"station_id":"ce4bgvp2rcd13ifvqct0","pricing_plan_id":"cebpf4jnsgd1na2vs0mg"},{"bike_id":"62a66719-b62a-4afb-8d20-a1c29de310ab","system_id":"levelo_inurba_marseille","lat":43.282384,"lon":5.374011,"is_reserved":false,"is_disabled":false,"rental_uris":{"android":"levelo://app?vid=62a66719-b62a-4afb-8d20-a1c29de310ab","ios":"levelo://app?vid=62a66719-b62a-4afb-8d20-a1c29de310ab"},"vehicle_type_id":"4","last_reported":1748931363,"current_range_meters":6400,"station_id":"ce4bh412rcd13ifvqds0","pricing_plan_id":"cebpf4jnsgd1na2vs0mg"},{"bike_id":"5dead81c-52cf-467b-885d-461d40fb80a5","system_id":"levelo_inurba_marseille","lat":43.25094,"lon":5.40971,"is_reserved":false,"is_disabled":false,"rental_uris":{"android":"levelo://app?vid=5dead81c-52cf-467b-885d-461d40fb80a5","ios":"levelo://app?vid=5dead81c-52cf-467b-885d-461d40fb80a5"},"vehicle_type_id":"4","last_reported":1748931363,"current_range_meters":6400,"station_id":"","pricing_plan_id":"cebpf4jnsgd1na2vs0mg"},{"bike_id":"d8575c85-8a4d-4057-8c86-14dbb787e2e7","system_id":"levelo_inurba_marseille","lat":43.29631,"lon":5.40597,"is_reserved":false,"is_disabled":false,"rental_uris":{"android":"levelo://app?vid=d8575c85-8a4d-4057-8c86-14dbb787e2e7","ios":"levelo://app?vid=d8575c85-8a4d-4057-8c86-14dbb787e2e7"},"vehicle_type_id":"4","last_reported":1748931363,"current_range_meters":6400,"station_id":"ce4bh0h2rcd13ifvqd60","pricing_plan_id":"cebpf4jnsgd1na2vs0mg"},{"bike_id":"eb055d23-285c-417e-bd27-14c3aae197c7","system_id":"levelo_inurba_marseille","lat":43.28105,"lon":5.39862,"is_reserved":false,"is_disabled":false,"rental_uris":{"android":"levelo://app?vid=eb055d23-285c-417e-bd27-14c3aae197c7","ios":"levelo://app?vid=eb055d23-285c-417e-bd27-14c3aae197c7"},"vehicle_type_id":"4","last_reported":1748931363,"current_range_meters":6400,"station_id":"","pricing_plan_id":"cebpf4jnsgd1na2vs0mg"},{"bike_id":"d72d5a5e-a033-4555-a5b7-2e9b101d2f01","system_id":"levelo_inurba_marseille","lat":43.24346,"lon":5.41146,"is_reserved":false,"is_disabled":false,"rental_uris":{"android":"levelo://app?vid=d72d5a5e-a033-4555-a5b7-2e9b101d2f01","ios":"levelo://app?vid=d72d5a5e-a033-4555-a5b7-2e9b101d2f01"},"vehicle_type_id":"4","last_reported":1748931363,"current_range_meters":6400,"station_id":"","pricing_plan_id":"cebpf4jnsgd1na2vs0mg"},{"bike_id":"7b99b595-58cd-41da-b22e-d23123bcfb40","system_id":"levelo_inurba_marseille","lat":43.30935,"lon":5.40128,"is_reserved":false,"is_disabled":false,"rental_uris":{"android":"levelo://app?vid=7b99b595-58cd-41da-b22e-d23123bcfb40","ios":"levelo://app?vid=7b99b595-58cd-41da-b22e-d23123bcfb40"},"vehicle_type_id":"4","last_reported":1748931363,"current_range_meters":6400,"station_id":"ce4bgvp2rcd13ifvqct0","pricing_plan_id":"cebpf4jnsgd1na2vs0mg"},{"bike_id":"d54bad3a-7ff1-4a15-aeab-92cdac98e952","system_id":"levelo_inurba_marseille","lat":43.27864,"lon":5.39497,"is_reserved":false,"is_disabled":false,"rental_uris":{"android":"levelo://app?vid=d54bad3a-7ff1-4a15-aeab-92cdac98e952","ios":"levelo://app?vid=d54bad3a-7ff1-4a15-aeab-92cdac98e952"},"vehicle_type_id":"4","last_reported":1748931363,"current_range_meters":6400,"station_id":"","pricing_plan_id":"cebpf4jnsgd1na2vs0mg"},{"bike_id":"06d405e9-0312-4d96-99c3-850c50d891c6","system_id":"levelo_inurba_marseille","lat":43.326276,"lon":5.413955,"is_reserved":false,"is_disabled":false,"rental_uris":{"android":"levelo://app?vid=06d405e9-0312-4d96-99c3-850c50d891c6","ios":"levelo://app?vid=06d405e9-0312-4d96-99c3-850c50d891c6"},"vehicle_type_id":"4","last_reported":1748931363,"current_range_meters":6800,"station_id":"ce4bhq12rcd13ifvqhhg","pricing_plan_id":"cebpf4jnsgd1na2vs0mg"},{"bike_id":"95d6905e-9d99-4407-8c60-3bbff01062aa","system_id":"levelo_inurba_marseille","lat":43.2758,"lon":5.43404,"is_reserved":false,"is_disabled":false,"rental_uris":{"android":"levelo://app?vid=95d6905e-9d99-4407-8c60-3bbff01062aa","ios":"levelo://app?vid=95d6905e-9d99-4407-8c60-3bbff01062aa"},"vehicle_type_id":"4","last_reported":1748931363,"current_range_meters":6800,"station_id":"","pricing_plan_id":"cebpf4jnsgd1na2vs0mg"},{"bike_id":"881498e7-33fc-4c1c-a65b-3c31d2a03915","system_id":"levelo_inurba_marseille","lat":43.33731,"lon":5.391943,"is_reserved":false,"is_disabled":false,"rental_uris":{"android":"levelo://app?vid=881498e7-33fc-4c1c-a65b-3c31d2a03915","ios":"levelo://app?vid=881498e7-33fc-4c1c-a65b-3c31d2a03915"},"vehicle_type_id":"4","last_reported":1748931363,"current_range_meters":7200,"station_id":"ce4bhr92rcd13ifvqhsg","pricing_plan_id":"cebpf4jnsgd1na2vs0mg"},{"bike_id":"99d59ddb-ca3d-43a4-b2ac-7c92aea831a5","system_id":"levelo_inurba_marseille","lat":43.31347,"lon":5.36739,"is_reserved":false,"is_disabled":true,"rental_uris":{"android":"levelo://app?vid=99d59ddb-ca3d-43a4-b2ac-7c92aea831a5","ios":"levelo://app?vid=99d59ddb-ca3d-43a4-b2ac-7c92aea831a5"},"vehicle_type_id":"4","last_reported":1748931363,"current_range_meters":7200,"station_id":"ce4bgr92rcd13ifvqc6g","pricing_plan_id":"cebpf4jnsgd1na2vs0mg"},{"bike_id":"ebf40351-19b3-4495-b4eb-2f767e54487d","system_id":"levelo_inurba_marseille","lat":43.307134,"lon":5.380899,"is_reserved":false,"is_disabled":false,"rental_uris":{"android":"levelo://app?vid=ebf40351-19b3-4495-b4eb-2f767e54487d","ios":"levelo://app?vid=ebf40351-19b3-4495-b4eb-2f767e54487d"},"vehicle_type_id":"4","last_reported":1748931363,"current_range_meters":7200,"station_id":"","pricing_plan_id":"cebpf4jnsgd1na2vs0mg"},{"bike_id":"735836de-de9b-4dc8-9e27-f67a4e7a400b","system_id":"levelo_inurba_marseille","lat":43.33765,"lon":5.37433,"is_reserved":false,"is_disabled":false,"rental_uris":{"android":"levelo://app?vid=735836de-de9b-4dc8-9e27-f67a4e7a400b","ios":"levelo://app?vid=735836de-de9b-4dc8-9e27-f67a4e7a400b"},"vehicle_type_id":"4","last_reported":1748931363,"current_range_meters":8000,"station_id":"","pricing_plan_id":"cebpf4jnsgd1na2vs0mg"},{"bike_id":"cfb4b455-d1cd-43d0-a6bd-48b2bcbc4252","system_id":"levelo_inurba_marseille","lat":43.29915,"lon":5.37499,"is_reserved":false,"is_disabled":false,"rental_uris":{"android":"levelo://app?vid=cfb4b455-d1cd-43d0-a6bd-48b2bcbc4252","ios":"levelo://app?vid=cfb4b455-d1cd-43d0-a6bd-48b2bcbc4252"},"vehicle_type_id":"4","last_reported":1748931363,"current_range_meters":8000,"station_id":"ce4bgjh2rcd13ifvqbg0","pricing_plan_id":"cebpf4jnsgd1na2vs0mg"},{"bike_id":"d3f423ab-1bb1-4815-b53c-12de902293af","system_id":"levelo_inurba_marseille","lat":43.29221,"lon":5.39974,"is_reserved":false,"is_disabled":false,"rental_uris":{"android":"levelo://app?vid=d3f423ab-1bb1-4815-b53c-12de902293af","ios":"levelo://app?vid=d3f423ab-1bb1-4815-b53c-12de902293af"},"vehicle_type_id":"4","last_reported":1748931363,"current_range_meters":8000,"station_id":"","pricing_plan_id":"cebpf4jnsgd1na2vs0mg"},{"bike_id":"f724b12b-1b5c-45c2-9a71-0251cc3e9a9a","system_id":"levelo_inurba_marseille","lat":43.2905,"lon":5.39985,"is_reserved":false,"is_disabled":false,"rental_uris":{"android":"levelo://app?vid=f724b12b-1b5c-45c2-9a71-0251cc3e9a9a","ios":"levelo://app?vid=f724b12b-1b5c-45c2-9a71-0251cc3e9a9a"},"vehicle_type_id":"4","last_reported":1748931363,"current_range_meters":8000,"station_id":"ce4bh392rcd13ifvqdm0","pricing_plan_id":"cebpf4jnsgd1na2vs0mg"},{"bike_id":"7a6279cc-d353-4cc7-baac-20fcc5c96f8c","system_id":"levelo_inurba_marseille","lat":43.31342,"lon":5.36713,"is_reserved":false,"is_disabled":false,"rental_uris":{"android":"levelo://app?vid=7a6279cc-d353-4cc7-baac-20fcc5c96f8c","ios":"levelo://app?vid=7a6279cc-d353-4cc7-baac-20fcc5c96f8c"},"vehicle_type_id":"4","last_reported":1748931363,"current_range_meters":7200,"station_id":"ce4bgr92rcd13ifvqc6g","pricing_plan_id":"cebpf4jnsgd1na2vs0mg"},{"bike_id":"b30164a7-dd39-415c-b59e-b4102a9fbfef","system_id":"levelo_inurba_marseille","lat":43.30474,"lon":5.37908,"is_reserved":false,"is_disabled":false,"rental_uris":{"android":"levelo://app?vid=b30164a7-dd39-415c-b59e-b4102a9fbfef","ios":"levelo://app?vid=b30164a7-dd39-415c-b59e-b4102a9fbfef"},"vehicle_type_id":"4","last_reported":1748931363,"current_range_meters":8400,"station_id":"ce4bgup2rcd13ifvqcn0","pricing_plan_id":"cebpf4jnsgd1na2vs0mg"},{"bike_id":"2b1c563d-7a04-4e63-a9ea-311a2edcbdce","system_id":"levelo_inurba_marseille","lat":43.29914,"lon":5.375,"is_reserved":false,"is_disabled":false,"rental_uris":{"android":"levelo://app?vid=2b1c563d-7a04-4e63-a9ea-311a2edcbdce","ios":"levelo://app?vid=2b1c563d-7a04-4e63-a9ea-311a2edcbdce"},"vehicle_type_id":"4","last_reported":1748931363,"current_range_meters":8400,"station_id":"ce4bgjh2rcd13ifvqbg0","pricing_plan_id":"cebpf4jnsgd1na2vs0mg"},{"bike_id":"c57a4359-2678-4e7f-a576-187d9b57bc28","system_id":"levelo_inurba_marseille","lat":43.30546,"lon":5.36716,"is_reserved":false,"is_disabled":false,"rental_uris":{"android":"levelo://app?vid=c57a4359-2678-4e7f-a576-187d9b57bc28","ios":"levelo://app?vid=c57a4359-2678-4e7f-a576-187d9b57bc28"},"vehicle_type_id":"4","last_reported":1748931363,"current_range_meters":8400,"station_id":"ce4bgrp2rcd13ifvqc9g","pricing_plan_id":"cebpf4jnsgd1na2vs0mg"},{"bike_id":"bd8119b3-d1e1-4638-bf9c-a89419d7b0a2","system_id":"levelo_inurba_marseille","lat":43.29285,"lon":5.4012,"is_reserved":false,"is_disabled":false,"rental_uris":{"android":"levelo://app?vid=bd8119b3-d1e1-4638-bf9c-a89419d7b0a2","ios":"levelo://app?vid=bd8119b3-d1e1-4638-bf9c-a89419d7b0a2"},"vehicle_type_id":"4","last_reported":1748931363,"current_range_meters":8400,"station_id":"ce4bh312rcd13ifvqdk0","pricing_plan_id":"cebpf4jnsgd1na2vs0mg"},{"bike_id":"11c9797e-8d9d-4774-ad51-5d680e6968ce","system_id":"levelo_inurba_marseille","lat":43.296659,"lon":5.37862,"is_reserved":false,"is_disabled":false,"rental_uris":{"android":"levelo://app?vid=11c9797e-8d9d-4774-ad51-5d680e6968ce","ios":"levelo://app?vid=11c9797e-8d9d-4774-ad51-5d680e6968ce"},"vehicle_type_id":"4","last_reported":1748931363,"current_range_meters":8400,"station_id":"ce4bgs92rcd13ifvqcc0","pricing_plan_id":"cebpf4jnsgd1na2vs0mg"},{"bike_id":"24b5a71f-fabf-4fa6-9fec-f2c7385ad3aa","system_id":"levelo_inurba_marseille","lat":43.330371,"lon":5.390598,"is_reserved":false,"is_disabled":false,"rental_uris":{"android":"levelo://app?vid=24b5a71f-fabf-4fa6-9fec-f2c7385ad3aa","ios":"levelo://app?vid=24b5a71f-fabf-4fa6-9fec-f2c7385ad3aa"},"vehicle_type_id":"4","last_reported":1748931363,"current_range_meters":8400,"station_id":"ce4bhr92rcd13ifvqhrg","pricing_plan_id":"cebpf4jnsgd1na2vs0mg"},{"bike_id":"f1c8c7e1-3f34-4d38-a503-caa580ebde75","system_id":"levelo_inurba_marseille","lat":43.22507,"lon":5.34801,"is_reserved":false,"is_disabled":false,"rental_uris":{"android":"levelo://app?vid=f1c8c7e1-3f34-4d38-a503-caa580ebde75","ios":"levelo://app?vid=f1c8c7e1-3f34-4d38-a503-caa580ebde75"},"vehicle_type_id":"4","last_reported":1748931363,"current_range_meters":8800,"station_id":"st_cvj5dfep6f1abm77gieg","pricing_plan_id":"cebpf4jnsgd1na2vs0mg"},{"bike_id":"cfe3ddf7-55b7-418f-82d0-d9fd03551f08","system_id":"levelo_inurba_marseille","lat":43.291828,"lon":5.357689,"is_reserved":false,"is_disabled":false,"rental_uris":{"android":"levelo://app?vid=cfe3ddf7-55b7-418f-82d0-d9fd03551f08","ios":"levelo://app?vid=cfe3ddf7-55b7-418f-82d0-d9fd03551f08"},"vehicle_type_id":"4","last_reported":1748931363,"current_range_meters":8800,"station_id":"","pricing_plan_id":"cebpf4jnsgd1na2vs0mg"},{"bike_id":"cd693c4f-7556-46d4-b51d-98253789afd6","system_id":"levelo_inurba_marseille","lat":43.2845,"lon":5.37525,"is_reserved":false,"is_disabled":false,"rental_uris":{"android":"levelo://app?vid=cd693c4f-7556-46d4-b51d-98253789afd6","ios":"levelo://app?vid=cd693c4f-7556-46d4-b51d-98253789afd6"},"vehicle_type_id":"4","last_reported":1748931363,"current_range_meters":9200,"station_id":"","pricing_plan_id":"cebpf4jnsgd1na2vs0mg"},{"bike_id":"5e9ec819-e972-4443-9733-1be3c29d3cb0","system_id":"levelo_inurba_marseille","lat":43.30932,"lon":5.40152,"is_reserved":false,"is_disabled":false,"rental_uris":{"android":"levelo://app?vid=5e9ec819-e972-4443-9733-1be3c29d3cb0","ios":"levelo://app?vid=5e9ec819-e972-4443-9733-1be3c29d3cb0"},"vehicle_type_id":"4","last_reported":1748931363,"current_range_meters":9200,"station_id":"ce4bgvp2rcd13ifvqct0","pricing_plan_id":"cebpf4jnsgd1na2vs0mg"},{"bike_id":"402e2a1f-cc55-477e-bcd5-2fc00f0f3e35","system_id":"levelo_inurba_marseille","lat":43.30165,"lon":5.38094,"is_reserved":false,"is_disabled":false,"rental_uris":{"android":"levelo://app?vid=402e2a1f-cc55-477e-bcd5-2fc00f0f3e35","ios":"levelo://app?vid=402e2a1f-cc55-477e-bcd5-2fc00f0f3e35"},"vehicle_type_id":"4","last_reported":1748931363,"current_range_meters":9200,"station_id":"ce4bgjp2rcd13ifvqbh0","pricing_plan_id":"cebpf4jnsgd1na2vs0mg"},{"bike_id":"acdfb4ec-72f4-4860-9958-ed448301f50b","system_id":"levelo_inurba_marseille","lat":43.30096,"lon":5.3793,"is_reserved":false,"is_disabled":false,"rental_uris":{"android":"levelo://app?vid=acdfb4ec-72f4-4860-9958-ed448301f50b","ios":"levelo://app?vid=acdfb4ec-72f4-4860-9958-ed448301f50b"},"vehicle_type_id":"4","last_reported":1748931363,"current_range_meters":9200,"station_id":"","pricing_plan_id":"cebpf4jnsgd1na2vs0mg"},{"bike_id":"70b4ff57-8b80-41dc-ba90-bc5e22c9209e","system_id":"levelo_inurba_marseille","lat":43.2845,"lon":5.35902,"is_reserved":false,"is_disabled":false,"rental_uris":{"android":"levelo://app?vid=70b4ff57-8b80-41dc-ba90-bc5e22c9209e","ios":"levelo://app?vid=70b4ff57-8b80-41dc-ba90-bc5e22c9209e"},"vehicle_type_id":"4","last_reported":1748931363,"current_range_meters":9200,"station_id":"ce4bhah2rcd13ifvqei0","pricing_plan_id":"cebpf4jnsgd1na2vs0mg"},{"bike_id":"dcee03e2-2a84-4aba-af71-15387d674ff8","system_id":"levelo_inurba_marseille","lat":43.3092,"lon":5.36853,"is_reserved":false,"is_disabled":false,"rental_uris":{"android":"levelo://app?vid=dcee03e2-2a84-4aba-af71-15387d674ff8","ios":"levelo://app?vid=dcee03e2-2a84-4aba-af71-15387d674ff8"},"vehicle_type_id":"4","last_reported":1748931363,"current_range_meters":9600,"station_id":"ce4bgn92rcd13ifvqbvg","pricing_plan_id":"cebpf4jnsgd1na2vs0mg"},{"bike_id":"f9ba8850-482d-43cd-93c6-da015477c7af","system_id":"levelo_inurba_marseille","lat":43.28622,"lon":5.38361,"is_reserved":false,"is_disabled":false,"rental_uris":{"android":"levelo://app?vid=f9ba8850-482d-43cd-93c6-da015477c7af","ios":"levelo://app?vid=f9ba8850-482d-43cd-93c6-da015477c7af"},"vehicle_type_id":"4","last_reported":1748931363,"current_range_meters":9600,"station_id":"","pricing_plan_id":"cebpf4jnsgd1na2vs0mg"},{"bike_id":"396b5c23-664c-4865-8c95-e91a6e438e06","system_id":"levelo_inurba_marseille","lat":43.28496,"lon":5.38584,"is_reserved":false,"is_disabled":false,"rental_uris":{"android":"levelo://app?vid=396b5c23-664c-4865-8c95-e91a6e438e06","ios":"levelo://app?vid=396b5c23-664c-4865-8c95-e91a6e438e06"},"vehicle_type_id":"4","last_reported":1748931363,"current_range_meters":9200,"station_id":"ce4bh8p2rcd13ifvqeb0","pricing_plan_id":"cebpf4jnsgd1na2vs0mg"},{"bike_id":"a2f49144-3583-4876-9d08-4aa897201727","system_id":"levelo_inurba_marseille","lat":43.29096,"lon":5.38138,"is_reserved":false,"is_disabled":false,"rental_uris":{"android":"levelo://app?vid=a2f49144-3583-4876-9d08-4aa897201727","ios":"levelo://app?vid=a2f49144-3583-4876-9d08-4aa897201727"},"vehicle_type_id":"4","last_reported":1748931363,"current_range_meters":9200,"station_id":"ce4bh512rcd13ifvqe2g","pricing_plan_id":"cebpf4jnsgd1na2vs0mg"},{"bike_id":"9a607f5f-4897-46a0-9df7-60781942728d","system_id":"levelo_inurba_marseille","lat":43.295281,"lon":5.391955,"is_reserved":false,"is_disabled":false,"rental_uris":{"android":"levelo://app?vid=9a607f5f-4897-46a0-9df7-60781942728d","ios":"levelo://app?vid=9a607f5f-4897-46a0-9df7-60781942728d"},"vehicle_type_id":"4","last_reported":1748931363,"current_range_meters":9600,"station_id":"ce4bh292rcd13ifvqdf0","pricing_plan_id":"cebpf4jnsgd1na2vs0mg"},{"bike_id":"7e349250-ba01-4b0f-b39a-7cecaea594a3","system_id":"levelo_inurba_marseille","lat":43.30909,"lon":5.36849,"is_reserved":false,"is_disabled":false,"rental_uris":{"android":"levelo://app?vid=7e349250-ba01-4b0f-b39a-7cecaea594a3","ios":"levelo://app?vid=7e349250-ba01-4b0f-b39a-7cecaea594a3"},"vehicle_type_id":"4","last_reported":1748931363,"current_range_meters":10000,"station_id":"ce4bgn92rcd13ifvqbvg","pricing_plan_id":"cebpf4jnsgd1na2vs0mg"},{"bike_id":"2764ffaf-ba0c-4f78-bec2-848b8d4bf954","system_id":"levelo_inurba_marseille","lat":43.318937,"lon":5.407387,"is_reserved":false,"is_disabled":false,"rental_uris":{"android":"levelo://app?vid=2764ffaf-ba0c-4f78-bec2-848b8d4bf954","ios":"levelo://app?vid=2764ffaf-ba0c-4f78-bec2-848b8d4bf954"},"vehicle_type_id":"4","last_reported":1748931363,"current_range_meters":10000,"station_id":"ce4bhq12rcd13ifvqhig","pricing_plan_id":"cebpf4jnsgd1na2vs0mg"},{"bike_id":"e48798a6-8120-4b4d-8c8e-85c15c0a8339","system_id":"levelo_inurba_marseille","lat":43.27214,"lon":5.39185,"is_reserved":false,"is_disabled":false,"rental_uris":{"android":"levelo://app?vid=e48798a6-8120-4b4d-8c8e-85c15c0a8339","ios":"levelo://app?vid=e48798a6-8120-4b4d-8c8e-85c15c0a8339"},"vehicle_type_id":"4","last_reported":1748931363,"current_range_meters":10000,"station_id":"ce4bhhp2rcd13ifvqfm0","pricing_plan_id":"cebpf4jnsgd1na2vs0mg"},{"bike_id":"885e4a33-80ca-461a-83b2-a7861cbd2c18","system_id":"levelo_inurba_marseille","lat":43.281521,"lon":5.426444,"is_reserved":false,"is_disabled":false,"rental_uris":{"android":"levelo://app?vid=885e4a33-80ca-461a-83b2-a7861cbd2c18","ios":"levelo://app?vid=885e4a33-80ca-461a-83b2-a7861cbd2c18"},"vehicle_type_id":"4","last_reported":1748931363,"current_range_meters":10000,"station_id":"ce4bhnh2rcd13ifvqgug","pricing_plan_id":"cebpf4jnsgd1na2vs0mg"},{"bike_id":"12a19e8b-7b4f-4700-91ce-3dbf552bc8a8","system_id":"levelo_inurba_marseille","lat":43.28402,"lon":5.37513,"is_reserved":false,"is_disabled":false,"rental_uris":{"android":"levelo://app?vid=12a19e8b-7b4f-4700-91ce-3dbf552bc8a8","ios":"levelo://app?vid=12a19e8b-7b4f-4700-91ce-3dbf552bc8a8"},"vehicle_type_id":"4","last_reported":1748931363,"current_range_meters":9600,"station_id":"ce4bh412rcd13ifvqds0","pricing_plan_id":"cebpf4jnsgd1na2vs0mg"},{"bike_id":"92c1eef7-1863-478d-9b55-bbd35e27ae0a","system_id":"levelo_inurba_marseille","lat":43.25943,"lon":5.40901,"is_reserved":false,"is_disabled":false,"rental_uris":{"android":"levelo://app?vid=92c1eef7-1863-478d-9b55-bbd35e27ae0a","ios":"levelo://app?vid=92c1eef7-1863-478d-9b55-bbd35e27ae0a"},"vehicle_type_id":"4","last_reported":1748931363,"current_range_meters":10000,"station_id":"ce4bhm92rcd13ifvqglg","pricing_plan_id":"cebpf4jnsgd1na2vs0mg"},{"bike_id":"fa62253e-e4db-42d1-9a63-6ab16922bf00","system_id":"levelo_inurba_marseille","lat":43.320154,"lon":5.368224,"is_reserved":false,"is_disabled":false,"rental_uris":{"android":"levelo://app?vid=fa62253e-e4db-42d1-9a63-6ab16922bf00","ios":"levelo://app?vid=fa62253e-e4db-42d1-9a63-6ab16922bf00"},"vehicle_type_id":"4","last_reported":1748931363,"current_range_meters":10800,"station_id":"","pricing_plan_id":"cebpf4jnsgd1na2vs0mg"},{"bike_id":"9fdfb815-e61c-4e2d-bae9-9c54dac6b408","system_id":"levelo_inurba_marseille","lat":43.331494,"lon":5.381711,"is_reserved":false,"is_disabled":false,"rental_uris":{"android":"levelo://app?vid=9fdfb815-e61c-4e2d-bae9-9c54dac6b408","ios":"levelo://app?vid=9fdfb815-e61c-4e2d-bae9-9c54dac6b408"},"vehicle_type_id":"4","last_reported":1748931363,"current_range_meters":10800,"station_id":"","pricing_plan_id":"cebpf4jnsgd1na2vs0mg"},{"bike_id":"5b0c04c7-3e5d-4981-ba91-7d65704822b2","system_id":"levelo_inurba_marseille","lat":43.279103,"lon":5.380007,"is_reserved":false,"is_disabled":false,"rental_uris":{"android":"levelo://app?vid=5b0c04c7-3e5d-4981-ba91-7d65704822b2","ios":"levelo://app?vid=5b0c04c7-3e5d-4981-ba91-7d65704822b2"},"vehicle_type_id":"4","last_reported":1748931363,"current_range_meters":10800,"station_id":"ce4bhf92rcd13ifvqf50","pricing_plan_id":"cebpf4jnsgd1na2vs0mg"},{"bike_id":"09e2d14a-4e1b-4edd-9db4-b62dee8c4a48","system_id":"levelo_inurba_marseille","lat":43.30933,"lon":5.40151,"is_reserved":false,"is_disabled":false,"rental_uris":{"android":"levelo://app?vid=09e2d14a-4e1b-4edd-9db4-b62dee8c4a48","ios":"levelo://app?vid=09e2d14a-4e1b-4edd-9db4-b62dee8c4a48"},"vehicle_type_id":"4","last_reported":1748931363,"current_range_meters":10800,"station_id":"ce4bgvp2rcd13ifvqct0","pricing_plan_id":"cebpf4jnsgd1na2vs0mg"},{"bike_id":"820d60af-e673-4a32-be32-2e8005f176bb","system_id":"levelo_inurba_marseille","lat":43.29021,"lon":5.38129,"is_reserved":false,"is_disabled":true,"rental_uris":{"android":"levelo://app?vid=820d60af-e673-4a32-be32-2e8005f176bb","ios":"levelo://app?vid=820d60af-e673-4a32-be32-2e8005f176bb"},"vehicle_type_id":"4","last_reported":1748931363,"current_range_meters":10800,"station_id":"ce4bh4p2rcd13ifvqe1g","pricing_plan_id":"cebpf4jnsgd1na2vs0mg"},{"bike_id":"eea9a40c-1a6e-4bbf-9e42-f9bad5bb0ec6","system_id":"levelo_inurba_marseille","lat":43.31339,"lon":5.36725,"is_reserved":false,"is_disabled":false,"rental_uris":{"android":"levelo://app?vid=eea9a40c-1a6e-4bbf-9e42-f9bad5bb0ec6","ios":"levelo://app?vid=eea9a40c-1a6e-4bbf-9e42-f9bad5bb0ec6"},"vehicle_type_id":"4","last_reported":1748931363,"current_range_meters":10800,"station_id":"ce4bgr92rcd13ifvqc6g","pricing_plan_id":"cebpf4jnsgd1na2vs0mg"},{"bike_id":"3ebdd401-b80a-4fca-a4ae-7f76492c481d","system_id":"levelo_inurba_marseille","lat":43.231873,"lon":5.399936,"is_reserved":false,"is_disabled":true,"rental_uris":{"android":"levelo://app?vid=3ebdd401-b80a-4fca-a4ae-7f76492c481d","ios":"levelo://app?vid=3ebdd401-b80a-4fca-a4ae-7f76492c481d"},"vehicle_type_id":"4","last_reported":1748931363,"current_range_meters":10800,"station_id":"ce4bhn12rcd13ifvqgqg","pricing_plan_id":"cebpf4jnsgd1na2vs0mg"},{"bike_id":"4213ed0f-20f9-41cd-ada8-c003af28d9b4","system_id":"levelo_inurba_marseille","lat":43.30945,"lon":5.39037,"is_reserved":false,"is_disabled":false,"rental_uris":{"android":"levelo://app?vid=4213ed0f-20f9-41cd-ada8-c003af28d9b4","ios":"levelo://app?vid=4213ed0f-20f9-41cd-ada8-c003af28d9b4"},"vehicle_type_id":"4","last_reported":1748931363,"current_range_meters":10800,"station_id":"ce4bgup2rcd13ifvqco0","pricing_plan_id":"cebpf4jnsgd1na2vs0mg"},{"bike_id":"0ac7ddd9-e39d-49c9-b49b-0650e333486e","system_id":"levelo_inurba_marseille","lat":43.23151,"lon":5.43716,"is_reserved":false,"is_disabled":false,"rental_uris":{"android":"levelo://app?vid=0ac7ddd9-e39d-49c9-b49b-0650e333486e","ios":"levelo://app?vid=0ac7ddd9-e39d-49c9-b49b-0650e333486e"},"vehicle_type_id":"4","last_reported":1748931363,"current_range_meters":11200,"station_id":"","pricing_plan_id":"cebpf4jnsgd1na2vs0mg"},{"bike_id":"d51b6ec2-c061-4d1a-ae94-11ec5e4d97c9","system_id":"levelo_inurba_marseille","lat":43.290377,"lon":5.399793,"is_reserved":false,"is_disabled":false,"rental_uris":{"android":"levelo://app?vid=d51b6ec2-c061-4d1a-ae94-11ec5e4d97c9","ios":"levelo://app?vid=d51b6ec2-c061-4d1a-ae94-11ec5e4d97c9"},"vehicle_type_id":"4","last_reported":1748931363,"current_range_meters":11200,"station_id":"ce4bh392rcd13ifvqdm0","pricing_plan_id":"cebpf4jnsgd1na2vs0mg"},{"bike_id":"c93701c3-283b-476c-84f5-16c1b3d9002d","system_id":"levelo_inurba_marseille","lat":43.26681,"lon":5.38248,"is_reserved":false,"is_disabled":false,"rental_uris":{"android":"levelo://app?vid=c93701c3-283b-476c-84f5-16c1b3d9002d","ios":"levelo://app?vid=c93701c3-283b-476c-84f5-16c1b3d9002d"},"vehicle_type_id":"4","last_reported":1748931363,"current_range_meters":11200,"station_id":"ce4bhg92rcd13ifvqf90","pricing_plan_id":"cebpf4jnsgd1na2vs0mg"},{"bike_id":"900d1018-62d7-44ad-a7bd-2d294560b817","system_id":"levelo_inurba_marseille","lat":43.251138,"lon":5.403354,"is_reserved":false,"is_disabled":false,"rental_uris":{"android":"levelo://app?vid=900d1018-62d7-44ad-a7bd-2d294560b817","ios":"levelo://app?vid=900d1018-62d7-44ad-a7bd-2d294560b817"},"vehicle_type_id":"4","last_reported":1748931363,"current_range_meters":11600,"station_id":"ce4bhlh2rcd13ifvqgig","pricing_plan_id":"cebpf4jnsgd1na2vs0mg"},{"bike_id":"25bb10df-011f-4179-aa26-1d1dd6e6598f","system_id":"levelo_inurba_marseille","lat":43.31202,"lon":5.40197,"is_reserved":false,"is_disabled":false,"rental_uris":{"android":"levelo://app?vid=25bb10df-011f-4179-aa26-1d1dd6e6598f","ios":"levelo://app?vid=25bb10df-011f-4179-aa26-1d1dd6e6598f"},"vehicle_type_id":"4","last_reported":1748931363,"current_range_meters":11600,"station_id":"","pricing_plan_id":"cebpf4jnsgd1na2vs0mg"},{"bike_id":"a33c9ded-afda-47fd-87fa-ac593a798cfa","system_id":"levelo_inurba_marseille","lat":43.268625,"lon":5.389119,"is_reserved":false,"is_disabled":false,"rental_uris":{"android":"levelo://app?vid=a33c9ded-afda-47fd-87fa-ac593a798cfa","ios":"levelo://app?vid=a33c9ded-afda-47fd-87fa-ac593a798cfa"},"vehicle_type_id":"4","last_reported":1748931363,"current_range_meters":11600,"station_id":"","pricing_plan_id":"cebpf4jnsgd1na2vs0mg"},{"bike_id":"568d6320-e43d-428c-b30b-8217ee45a30c","system_id":"levelo_inurba_marseille","lat":43.292799,"lon":5.368442,"is_reserved":false,"is_disabled":false,"rental_uris":{"android":"levelo://app?vid=568d6320-e43d-428c-b30b-8217ee45a30c","ios":"levelo://app?vid=568d6320-e43d-428c-b30b-8217ee45a30c"},"vehicle_type_id":"4","last_reported":1748931363,"current_range_meters":11600,"station_id":"ce4bhbp2rcd13ifvqesg","pricing_plan_id":"cebpf4jnsgd1na2vs0mg"},{"bike_id":"aab1d16a-9f0c-4100-bb72-0114cbb59630","system_id":"levelo_inurba_marseille","lat":43.28411,"lon":5.37534,"is_reserved":false,"is_disabled":false,"rental_uris":{"android":"levelo://app?vid=aab1d16a-9f0c-4100-bb72-0114cbb59630","ios":"levelo://app?vid=aab1d16a-9f0c-4100-bb72-0114cbb59630"},"vehicle_type_id":"4","last_reported":1748931363,"current_range_meters":11600,"station_id":"ce4bh412rcd13ifvqds0","pricing_plan_id":"cebpf4jnsgd1na2vs0mg"},{"bike_id":"83a140cf-d943-48f5-8a00-d7ff764bdf94","system_id":"levelo_inurba_marseille","lat":43.31344,"lon":5.36732,"is_reserved":false,"is_disabled":false,"rental_uris":{"android":"levelo://app?vid=83a140cf-d943-48f5-8a00-d7ff764bdf94","ios":"levelo://app?vid=83a140cf-d943-48f5-8a00-d7ff764bdf94"},"vehicle_type_id":"4","last_reported":1748931363,"current_range_meters":11600,"station_id":"ce4bgr92rcd13ifvqc6g","pricing_plan_id":"cebpf4jnsgd1na2vs0mg"},{"bike_id":"d144d0a6-8442-4d6c-b649-3639d789aa9f","system_id":"levelo_inurba_marseille","lat":43.29473,"lon":5.38649,"is_reserved":false,"is_disabled":false,"rental_uris":{"android":"levelo://app?vid=d144d0a6-8442-4d6c-b649-3639d789aa9f","ios":"levelo://app?vid=d144d0a6-8442-4d6c-b649-3639d789aa9f"},"vehicle_type_id":"4","last_reported":1748931363,"current_range_meters":12000,"station_id":"","pricing_plan_id":"cebpf4jnsgd1na2vs0mg"},{"bike_id":"be5996ab-f489-42a2-9f51-be6614f3e93a","system_id":"levelo_inurba_marseille","lat":43.33809,"lon":5.3745,"is_reserved":false,"is_disabled":false,"rental_uris":{"android":"levelo://app?vid=be5996ab-f489-42a2-9f51-be6614f3e93a","ios":"levelo://app?vid=be5996ab-f489-42a2-9f51-be6614f3e93a"},"vehicle_type_id":"4","last_reported":1748931363,"current_range_meters":12000,"station_id":"","pricing_plan_id":"cebpf4jnsgd1na2vs0mg"},{"bike_id":"6c7dc0b6-cea1-43c5-94ac-b10f8cfc40be","system_id":"levelo_inurba_marseille","lat":43.33101,"lon":5.38205,"is_reserved":false,"is_disabled":false,"rental_uris":{"android":"levelo://app?vid=6c7dc0b6-cea1-43c5-94ac-b10f8cfc40be","ios":"levelo://app?vid=6c7dc0b6-cea1-43c5-94ac-b10f8cfc40be"},"vehicle_type_id":"4","last_reported":1748931363,"current_range_meters":12000,"station_id":"","pricing_plan_id":"cebpf4jnsgd1na2vs0mg"},{"bike_id":"1a8f2d59-fd62-4fca-ab17-19e644b088b9","system_id":"levelo_inurba_marseille","lat":43.27979,"lon":5.40025,"is_reserved":false,"is_disabled":false,"rental_uris":{"android":"levelo://app?vid=1a8f2d59-fd62-4fca-ab17-19e644b088b9","ios":"levelo://app?vid=1a8f2d59-fd62-4fca-ab17-19e644b088b9"},"vehicle_type_id":"4","last_reported":1748931363,"current_range_meters":12000,"station_id":"ce4bho92rcd13ifvqh4g","pricing_plan_id":"cebpf4jnsgd1na2vs0mg"},{"bike_id":"5e2ba9af-34a5-4e83-a16b-5af481246853","system_id":"levelo_inurba_marseille","lat":43.30534,"lon":5.38442,"is_reserved":false,"is_disabled":false,"rental_uris":{"android":"levelo://app?vid=5e2ba9af-34a5-4e83-a16b-5af481246853","ios":"levelo://app?vid=5e2ba9af-34a5-4e83-a16b-5af481246853"},"vehicle_type_id":"4","last_reported":1748931363,"current_range_meters":12000,"station_id":"ce4bgg92rcd13ifvqb30","pricing_plan_id":"cebpf4jnsgd1na2vs0mg"},{"bike_id":"0ad7a620-d49a-4300-a404-a0ee7002ef3a","system_id":"levelo_inurba_marseille","lat":43.28499,"lon":5.38576,"is_reserved":false,"is_disabled":false,"rental_uris":{"android":"levelo://app?vid=0ad7a620-d49a-4300-a404-a0ee7002ef3a","ios":"levelo://app?vid=0ad7a620-d49a-4300-a404-a0ee7002ef3a"},"vehicle_type_id":"4","last_reported":1748931363,"current_range_meters":12400,"station_id":"ce4bh8p2rcd13ifvqeb0","pricing_plan_id":"cebpf4jnsgd1na2vs0mg"},{"bike_id":"deaf7176-3996-42ca-a8f0-8d9c24b35a5f","system_id":"levelo_inurba_marseille","lat":43.29602,"lon":5.38084,"is_reserved":false,"is_disabled":false,"rental_uris":{"android":"levelo://app?vid=deaf7176-3996-42ca-a8f0-8d9c24b35a5f","ios":"levelo://app?vid=deaf7176-3996-42ca-a8f0-8d9c24b35a5f"},"vehicle_type_id":"4","last_reported":1748931363,"current_range_meters":12400,"station_id":"ce4bgl12rcd13ifvqbo0","pricing_plan_id":"cebpf4jnsgd1na2vs0mg"},{"bike_id":"17b8a1c4-a1a0-4af9-9e6e-1135faf00239","system_id":"levelo_inurba_marseille","lat":43.27506,"lon":5.42506,"is_reserved":false,"is_disabled":false,"rental_uris":{"android":"levelo://app?vid=17b8a1c4-a1a0-4af9-9e6e-1135faf00239","ios":"levelo://app?vid=17b8a1c4-a1a0-4af9-9e6e-1135faf00239"},"vehicle_type_id":"4","last_reported":1748931363,"current_range_meters":12800,"station_id":"ce4bhn92rcd13ifvqgrg","pricing_plan_id":"cebpf4jnsgd1na2vs0mg"},{"bike_id":"53196814-6051-40e4-bd7e-568c420b5ed1","system_id":"levelo_inurba_marseille","lat":43.251108,"lon":5.403266,"is_reserved":false,"is_disabled":false,"rental_uris":{"android":"levelo://app?vid=53196814-6051-40e4-bd7e-568c420b5ed1","ios":"levelo://app?vid=53196814-6051-40e4-bd7e-568c420b5ed1"},"vehicle_type_id":"4","last_reported":1748931363,"current_range_meters":12800,"station_id":"ce4bhlh2rcd13ifvqgig","pricing_plan_id":"cebpf4jnsgd1na2vs0mg"},{"bike_id":"ce5da5cd-f48d-4b80-98c9-9a8140ea0553","system_id":"levelo_inurba_marseille","lat":43.27507,"lon":5.42468,"is_reserved":false,"is_disabled":false,"rental_uris":{"android":"levelo://app?vid=ce5da5cd-f48d-4b80-98c9-9a8140ea0553","ios":"levelo://app?vid=ce5da5cd-f48d-4b80-98c9-9a8140ea0553"},"vehicle_type_id":"4","last_reported":1748931363,"current_range_meters":12800,"station_id":"ce4bhn92rcd13ifvqgrg","pricing_plan_id":"cebpf4jnsgd1na2vs0mg"},{"bike_id":"08c8ad32-672b-4b70-a92f-9a07341eab4f","system_id":"levelo_inurba_marseille","lat":43.25942,"lon":5.40898,"is_reserved":false,"is_disabled":false,"rental_uris":{"android":"levelo://app?vid=08c8ad32-672b-4b70-a92f-9a07341eab4f","ios":"levelo://app?vid=08c8ad32-672b-4b70-a92f-9a07341eab4f"},"vehicle_type_id":"4","last_reported":1748931363,"current_range_meters":12800,"station_id":"ce4bhm92rcd13ifvqglg","pricing_plan_id":"cebpf4jnsgd1na2vs0mg"},{"bike_id":"a2c12b3e-34c6-4f26-8ea6-95577b4db813","system_id":"levelo_inurba_marseille","lat":43.32047,"lon":5.41546,"is_reserved":false,"is_disabled":false,"rental_uris":{"android":"levelo://app?vid=a2c12b3e-34c6-4f26-8ea6-95577b4db813","ios":"levelo://app?vid=a2c12b3e-34c6-4f26-8ea6-95577b4db813"},"vehicle_type_id":"4","last_reported":1748931363,"current_range_meters":12800,"station_id":"ce4bhq92rcd13ifvqhkg","pricing_plan_id":"cebpf4jnsgd1na2vs0mg"},{"bike_id":"fcd0c3ef-3825-4a63-a7f6-6c11e9ed59ba","system_id":"levelo_inurba_marseille","lat":43.24548,"lon":5.39517,"is_reserved":false,"is_disabled":false,"rental_uris":{"android":"levelo://app?vid=fcd0c3ef-3825-4a63-a7f6-6c11e9ed59ba","ios":"levelo://app?vid=fcd0c3ef-3825-4a63-a7f6-6c11e9ed59ba"},"vehicle_type_id":"4","last_reported":1748931363,"current_range_meters":12800,"station_id":"ce4bhlp2rcd13ifvqgjg","pricing_plan_id":"cebpf4jnsgd1na2vs0mg"},{"bike_id":"88aca201-6bd6-4ca1-b1e5-90818a573875","system_id":"levelo_inurba_marseille","lat":43.28411,"lon":5.34976,"is_reserved":false,"is_disabled":false,"rental_uris":{"android":"levelo://app?vid=88aca201-6bd6-4ca1-b1e5-90818a573875","ios":"levelo://app?vid=88aca201-6bd6-4ca1-b1e5-90818a573875"},"vehicle_type_id":"4","last_reported":1748931363,"current_range_meters":13600,"station_id":"ce4bhbh2rcd13ifvqepg","pricing_plan_id":"cebpf4jnsgd1na2vs0mg"},{"bike_id":"153c782d-ddab-4a6a-84a6-b958b87e3d3e","system_id":"levelo_inurba_marseille","lat":43.33725,"lon":5.39192,"is_reserved":false,"is_disabled":false,"rental_uris":{"android":"levelo://app?vid=153c782d-ddab-4a6a-84a6-b958b87e3d3e","ios":"levelo://app?vid=153c782d-ddab-4a6a-84a6-b958b87e3d3e"},"vehicle_type_id":"4","last_reported":1748931363,"current_range_meters":13600,"station_id":"ce4bhr92rcd13ifvqhsg","pricing_plan_id":"cebpf4jnsgd1na2vs0mg"},{"bike_id":"82762f70-216b-4762-9e82-daaa45d19a35","system_id":"levelo_inurba_marseille","lat":43.2417,"lon":5.364024,"is_reserved":false,"is_disabled":false,"rental_uris":{"android":"levelo://app?vid=82762f70-216b-4762-9e82-daaa45d19a35","ios":"levelo://app?vid=82762f70-216b-4762-9e82-daaa45d19a35"},"vehicle_type_id":"4","last_reported":1748931363,"current_range_meters":14000,"station_id":"cpo36qri1sfpv3e86is0","pricing_plan_id":"cebpf4jnsgd1na2vs0mg"},{"bike_id":"8bf7e74d-3209-4164-93de-918322a71cb1","system_id":"levelo_inurba_marseille","lat":43.31347,"lon":5.36733,"is_reserved":false,"is_disabled":false,"rental_uris":{"android":"levelo://app?vid=8bf7e74d-3209-4164-93de-918322a71cb1","ios":"levelo://app?vid=8bf7e74d-3209-4164-93de-918322a71cb1"},"vehicle_type_id":"4","last_reported":1748931363,"current_range_meters":13600,"station_id":"ce4bgr92rcd13ifvqc6g","pricing_plan_id":"cebpf4jnsgd1na2vs0mg"},{"bike_id":"35544294-f895-485b-8b4f-44070135c878","system_id":"levelo_inurba_marseille","lat":43.28344,"lon":5.38104,"is_reserved":false,"is_disabled":false,"rental_uris":{"android":"levelo://app?vid=35544294-f895-485b-8b4f-44070135c878","ios":"levelo://app?vid=35544294-f895-485b-8b4f-44070135c878"},"vehicle_type_id":"4","last_reported":1748931363,"current_range_meters":14000,"station_id":"ce4bh412rcd13ifvqdr0","pricing_plan_id":"cebpf4jnsgd1na2vs0mg"},{"bike_id":"2a940c0b-d093-44bb-855f-c7978ef6213f","system_id":"levelo_inurba_marseille","lat":43.30161,"lon":5.3809,"is_reserved":false,"is_disabled":false,"rental_uris":{"android":"levelo://app?vid=2a940c0b-d093-44bb-855f-c7978ef6213f","ios":"levelo://app?vid=2a940c0b-d093-44bb-855f-c7978ef6213f"},"vehicle_type_id":"4","last_reported":1748931363,"current_range_meters":14000,"station_id":"ce4bgjp2rcd13ifvqbh0","pricing_plan_id":"cebpf4jnsgd1na2vs0mg"},{"bike_id":"c9f2be1b-2f8c-4441-adc0-d5dcc13ac72f","system_id":"levelo_inurba_marseille","lat":43.32432,"lon":5.37393,"is_reserved":false,"is_disabled":false,"rental_uris":{"android":"levelo://app?vid=c9f2be1b-2f8c-4441-adc0-d5dcc13ac72f","ios":"levelo://app?vid=c9f2be1b-2f8c-4441-adc0-d5dcc13ac72f"},"vehicle_type_id":"4","last_reported":1748931363,"current_range_meters":14000,"station_id":"","pricing_plan_id":"cebpf4jnsgd1na2vs0mg"},{"bike_id":"d0dbff80-7608-4281-91dc-797d0812e339","system_id":"levelo_inurba_marseille","lat":43.25941,"lon":5.40895,"is_reserved":false,"is_disabled":false,"rental_uris":{"android":"levelo://app?vid=d0dbff80-7608-4281-91dc-797d0812e339","ios":"levelo://app?vid=d0dbff80-7608-4281-91dc-797d0812e339"},"vehicle_type_id":"4","last_reported":1748931363,"current_range_meters":14000,"station_id":"ce4bhm92rcd13ifvqglg","pricing_plan_id":"cebpf4jnsgd1na2vs0mg"},{"bike_id":"b78781c4-4172-4ff4-a5c9-6f9c8c6065ae","system_id":"levelo_inurba_marseille","lat":43.30459,"lon":5.37906,"is_reserved":false,"is_disabled":false,"rental_uris":{"android":"levelo://app?vid=b78781c4-4172-4ff4-a5c9-6f9c8c6065ae","ios":"levelo://app?vid=b78781c4-4172-4ff4-a5c9-6f9c8c6065ae"},"vehicle_type_id":"4","last_reported":1748931363,"current_range_meters":14400,"station_id":"ce4bgup2rcd13ifvqcn0","pricing_plan_id":"cebpf4jnsgd1na2vs0mg"},{"bike_id":"3b3d8bea-4858-4f70-8a30-397755691061","system_id":"levelo_inurba_marseille","lat":43.27213,"lon":5.39156,"is_reserved":false,"is_disabled":false,"rental_uris":{"android":"levelo://app?vid=3b3d8bea-4858-4f70-8a30-397755691061","ios":"levelo://app?vid=3b3d8bea-4858-4f70-8a30-397755691061"},"vehicle_type_id":"4","last_reported":1748931363,"current_range_meters":14800,"station_id":"ce4bhhp2rcd13ifvqfm0","pricing_plan_id":"cebpf4jnsgd1na2vs0mg"},{"bike_id":"c61aa0f8-37eb-4f90-b064-55fcc4e26378","system_id":"levelo_inurba_marseille","lat":43.2836,"lon":5.38082,"is_reserved":false,"is_disabled":false,"rental_uris":{"android":"levelo://app?vid=c61aa0f8-37eb-4f90-b064-55fcc4e26378","ios":"levelo://app?vid=c61aa0f8-37eb-4f90-b064-55fcc4e26378"},"vehicle_type_id":"4","last_reported":1748931363,"current_range_meters":14800,"station_id":"ce4bh412rcd13ifvqdr0","pricing_plan_id":"cebpf4jnsgd1na2vs0mg"},{"bike_id":"88f6a620-f32b-4106-8b28-9204e3787c24","system_id":"levelo_inurba_marseille","lat":43.29022,"lon":5.38637,"is_reserved":false,"is_disabled":false,"rental_uris":{"android":"levelo://app?vid=88f6a620-f32b-4106-8b28-9204e3787c24","ios":"levelo://app?vid=88f6a620-f32b-4106-8b28-9204e3787c24"},"vehicle_type_id":"4","last_reported":1748931363,"current_range_meters":15200,"station_id":"ce4bh4p2rcd13ifvqe0g","pricing_plan_id":"cebpf4jnsgd1na2vs0mg"},{"bike_id":"d892feee-9a18-401d-b625-06d8fd444321","system_id":"levelo_inurba_marseille","lat":43.30545,"lon":5.36717,"is_reserved":false,"is_disabled":false,"rental_uris":{"android":"levelo://app?vid=d892feee-9a18-401d-b625-06d8fd444321","ios":"levelo://app?vid=d892feee-9a18-401d-b625-06d8fd444321"},"vehicle_type_id":"4","last_reported":1748931363,"current_range_meters":15200,"station_id":"ce4bgrp2rcd13ifvqc9g","pricing_plan_id":"cebpf4jnsgd1na2vs0mg"},{"bike_id":"89fe64c7-aff6-494e-8271-d9c172c2b8af","system_id":"levelo_inurba_marseille","lat":43.27944,"lon":5.4104,"is_reserved":false,"is_disabled":false,"rental_uris":{"android":"levelo://app?vid=89fe64c7-aff6-494e-8271-d9c172c2b8af","ios":"levelo://app?vid=89fe64c7-aff6-494e-8271-d9c172c2b8af"},"vehicle_type_id":"4","last_reported":1748931363,"current_range_meters":15200,"station_id":"ce4bhnp2rcd13ifvqh0g","pricing_plan_id":"cebpf4jnsgd1na2vs0mg"},{"bike_id":"b7557344-82f1-4a35-96d4-b128a1446f19","system_id":"levelo_inurba_marseille","lat":43.32357,"lon":5.38892,"is_reserved":false,"is_disabled":false,"rental_uris":{"android":"levelo://app?vid=b7557344-82f1-4a35-96d4-b128a1446f19","ios":"levelo://app?vid=b7557344-82f1-4a35-96d4-b128a1446f19"},"vehicle_type_id":"4","last_reported":1748931363,"current_range_meters":15200,"station_id":"ce4bhqp2rcd13ifvqhog","pricing_plan_id":"cebpf4jnsgd1na2vs0mg"},{"bike_id":"01412a7a-6767-439a-823b-5f121455a588","system_id":"levelo_inurba_marseille","lat":43.26559,"lon":5.37287,"is_reserved":false,"is_disabled":false,"rental_uris":{"android":"levelo://app?vid=01412a7a-6767-439a-823b-5f121455a588","ios":"levelo://app?vid=01412a7a-6767-439a-823b-5f121455a588"},"vehicle_type_id":"4","last_reported":1748931363,"current_range_meters":15200,"station_id":"","pricing_plan_id":"cebpf4jnsgd1na2vs0mg"},{"bike_id":"56ebd079-5325-4146-a252-c6e09bfabc00","system_id":"levelo_inurba_marseille","lat":43.31898,"lon":5.4075,"is_reserved":false,"is_disabled":false,"rental_uris":{"android":"levelo://app?vid=56ebd079-5325-4146-a252-c6e09bfabc00","ios":"levelo://app?vid=56ebd079-5325-4146-a252-c6e09bfabc00"},"vehicle_type_id":"4","last_reported":1748931363,"current_range_meters":15200,"station_id":"ce4bhq12rcd13ifvqhig","pricing_plan_id":"cebpf4jnsgd1na2vs0mg"},{"bike_id":"96b5af2e-b5c9-4213-aee5-8574fa85dc0a","system_id":"levelo_inurba_marseille","lat":43.29878,"lon":5.39717,"is_reserved":false,"is_disabled":true,"rental_uris":{"android":"levelo://app?vid=96b5af2e-b5c9-4213-aee5-8574fa85dc0a","ios":"levelo://app?vid=96b5af2e-b5c9-4213-aee5-8574fa85dc0a"},"vehicle_type_id":"4","last_reported":1748931363,"current_range_meters":15200,"station_id":"ce4bh0h2rcd13ifvqd50","pricing_plan_id":"cebpf4jnsgd1na2vs0mg"},{"bike_id":"28666915-92dc-4234-bb40-334e7b85304c","system_id":"levelo_inurba_marseille","lat":43.31486,"lon":5.37308,"is_reserved":false,"is_disabled":false,"rental_uris":{"android":"levelo://app?vid=28666915-92dc-4234-bb40-334e7b85304c","ios":"levelo://app?vid=28666915-92dc-4234-bb40-334e7b85304c"},"vehicle_type_id":"4","last_reported":1748931363,"current_range_meters":16000,"station_id":"ce4bgt12rcd13ifvqcd0","pricing_plan_id":"cebpf4jnsgd1na2vs0mg"},{"bike_id":"e31c84f5-c44b-48e2-adf2-52a2beace6c7","system_id":"levelo_inurba_marseille","lat":43.317242,"lon":5.374336,"is_reserved":false,"is_disabled":false,"rental_uris":{"android":"levelo://app?vid=e31c84f5-c44b-48e2-adf2-52a2beace6c7","ios":"levelo://app?vid=e31c84f5-c44b-48e2-adf2-52a2beace6c7"},"vehicle_type_id":"4","last_reported":1748931363,"current_range_meters":16000,"station_id":"","pricing_plan_id":"cebpf4jnsgd1na2vs0mg"},{"bike_id":"255c84c6-3e62-4b6e-a0b2-8de4a6709244","system_id":"levelo_inurba_marseille","lat":43.27489,"lon":5.42454,"is_reserved":false,"is_disabled":false,"rental_uris":{"android":"levelo://app?vid=255c84c6-3e62-4b6e-a0b2-8de4a6709244","ios":"levelo://app?vid=255c84c6-3e62-4b6e-a0b2-8de4a6709244"},"vehicle_type_id":"4","last_reported":1748931363,"current_range_meters":16000,"station_id":"ce4bhn92rcd13ifvqgrg","pricing_plan_id":"cebpf4jnsgd1na2vs0mg"},{"bike_id":"cc309239-91f2-4ac2-80c6-0b2facfe3f59","system_id":"levelo_inurba_marseille","lat":43.29244,"lon":5.40313,"is_reserved":false,"is_disabled":false,"rental_uris":{"android":"levelo://app?vid=cc309239-91f2-4ac2-80c6-0b2facfe3f59","ios":"levelo://app?vid=cc309239-91f2-4ac2-80c6-0b2facfe3f59"},"vehicle_type_id":"4","last_reported":1748931363,"current_range_meters":16000,"station_id":"","pricing_plan_id":"cebpf4jnsgd1na2vs0mg"},{"bike_id":"1cb7c0a1-48f8-49ab-9106-52040059037c","system_id":"levelo_inurba_marseille","lat":43.230576,"lon":5.354927,"is_reserved":false,"is_disabled":false,"rental_uris":{"android":"levelo://app?vid=1cb7c0a1-48f8-49ab-9106-52040059037c","ios":"levelo://app?vid=1cb7c0a1-48f8-49ab-9106-52040059037c"},"vehicle_type_id":"4","last_reported":1748931363,"current_range_meters":16000,"station_id":"cpo3342slgdg3j2ifvpg","pricing_plan_id":"cebpf4jnsgd1na2vs0mg"},{"bike_id":"6db8da9d-ed27-45cf-9935-6e37c99d0be9","system_id":"levelo_inurba_marseille","lat":43.262304,"lon":5.401519,"is_reserved":false,"is_disabled":false,"rental_uris":{"android":"levelo://app?vid=6db8da9d-ed27-45cf-9935-6e37c99d0be9","ios":"levelo://app?vid=6db8da9d-ed27-45cf-9935-6e37c99d0be9"},"vehicle_type_id":"4","last_reported":1748931363,"current_range_meters":16400,"station_id":"","pricing_plan_id":"cebpf4jnsgd1na2vs0mg"},{"bike_id":"ecc2f2c9-db6d-4879-a771-48e06303dd24","system_id":"levelo_inurba_marseille","lat":43.30951,"lon":5.39048,"is_reserved":false,"is_disabled":false,"rental_uris":{"android":"levelo://app?vid=ecc2f2c9-db6d-4879-a771-48e06303dd24","ios":"levelo://app?vid=ecc2f2c9-db6d-4879-a771-48e06303dd24"},"vehicle_type_id":"4","last_reported":1748931363,"current_range_meters":16400,"station_id":"ce4bgup2rcd13ifvqco0","pricing_plan_id":"cebpf4jnsgd1na2vs0mg"},{"bike_id":"859fcab1-74b2-40a1-b9e6-866c899a681e","system_id":"levelo_inurba_marseille","lat":43.279913,"lon":5.400177,"is_reserved":false,"is_disabled":false,"rental_uris":{"android":"levelo://app?vid=859fcab1-74b2-40a1-b9e6-866c899a681e","ios":"levelo://app?vid=859fcab1-74b2-40a1-b9e6-866c899a681e"},"vehicle_type_id":"4","last_reported":1748931363,"current_range_meters":16400,"station_id":"ce4bho92rcd13ifvqh4g","pricing_plan_id":"cebpf4jnsgd1na2vs0mg"},{"bike_id":"07b8730f-0f5f-487e-89ec-6c4bc1783f84","system_id":"levelo_inurba_marseille","lat":43.28482,"lon":5.38565,"is_reserved":false,"is_disabled":false,"rental_uris":{"android":"levelo://app?vid=07b8730f-0f5f-487e-89ec-6c4bc1783f84","ios":"levelo://app?vid=07b8730f-0f5f-487e-89ec-6c4bc1783f84"},"vehicle_type_id":"4","last_reported":1748931363,"current_range_meters":16400,"station_id":"ce4bh8p2rcd13ifvqeb0","pricing_plan_id":"cebpf4jnsgd1na2vs0mg"},{"bike_id":"0ab3c31b-bedb-422d-96cf-b90274dbcd5f","system_id":"levelo_inurba_marseille","lat":43.31501,"lon":5.37291,"is_reserved":false,"is_disabled":false,"rental_uris":{"android":"levelo://app?vid=0ab3c31b-bedb-422d-96cf-b90274dbcd5f","ios":"levelo://app?vid=0ab3c31b-bedb-422d-96cf-b90274dbcd5f"},"vehicle_type_id":"4","last_reported":1748931363,"current_range_meters":16000,"station_id":"ce4bgt12rcd13ifvqcd0","pricing_plan_id":"cebpf4jnsgd1na2vs0mg"},{"bike_id":"bf2e7a06-3f1e-4bde-be70-c1b331dc5cfc","system_id":"levelo_inurba_marseille","lat":43.265679,"lon":5.390269,"is_reserved":false,"is_disabled":false,"rental_uris":{"android":"levelo://app?vid=bf2e7a06-3f1e-4bde-be70-c1b331dc5cfc","ios":"levelo://app?vid=bf2e7a06-3f1e-4bde-be70-c1b331dc5cfc"},"vehicle_type_id":"4","last_reported":1748931363,"current_range_meters":16800,"station_id":"ce4bhe12rcd13ifvqf30","pricing_plan_id":"cebpf4jnsgd1na2vs0mg"},{"bike_id":"d51ebfd8-5b80-4263-8a36-a1c01e067738","system_id":"levelo_inurba_marseille","lat":43.305619,"lon":5.384343,"is_reserved":false,"is_disabled":false,"rental_uris":{"android":"levelo://app?vid=d51ebfd8-5b80-4263-8a36-a1c01e067738","ios":"levelo://app?vid=d51ebfd8-5b80-4263-8a36-a1c01e067738"},"vehicle_type_id":"4","last_reported":1748931363,"current_range_meters":16800,"station_id":"ce4bgg92rcd13ifvqb30","pricing_plan_id":"cebpf4jnsgd1na2vs0mg"},{"bike_id":"e073c3b9-579e-431b-8c54-b6a28caa0933","system_id":"levelo_inurba_marseille","lat":43.229297,"lon":5.353869,"is_reserved":false,"is_disabled":false,"rental_uris":{"android":"levelo://app?vid=e073c3b9-579e-431b-8c54-b6a28caa0933","ios":"levelo://app?vid=e073c3b9-579e-431b-8c54-b6a28caa0933"},"vehicle_type_id":"4","last_reported":1748931363,"current_range_meters":16800,"station_id":"cpo3532slgdg3j2ikp40","pricing_plan_id":"cebpf4jnsgd1na2vs0mg"},{"bike_id":"2f087c22-daf8-44df-a06f-7e4a8bddd0f5","system_id":"levelo_inurba_marseille","lat":43.29042,"lon":5.39951,"is_reserved":false,"is_disabled":false,"rental_uris":{"android":"levelo://app?vid=2f087c22-daf8-44df-a06f-7e4a8bddd0f5","ios":"levelo://app?vid=2f087c22-daf8-44df-a06f-7e4a8bddd0f5"},"vehicle_type_id":"4","last_reported":1748931363,"current_range_meters":16800,"station_id":"ce4bh392rcd13ifvqdm0","pricing_plan_id":"cebpf4jnsgd1na2vs0mg"},{"bike_id":"0f2f364f-f199-451a-b3a4-b6d8411fc5df","system_id":"levelo_inurba_marseille","lat":43.23179,"lon":5.39982,"is_reserved":false,"is_disabled":false,"rental_uris":{"android":"levelo://app?vid=0f2f364f-f199-451a-b3a4-b6d8411fc5df","ios":"levelo://app?vid=0f2f364f-f199-451a-b3a4-b6d8411fc5df"},"vehicle_type_id":"4","last_reported":1748931363,"current_range_meters":16800,"station_id":"ce4bhn12rcd13ifvqgqg","pricing_plan_id":"cebpf4jnsgd1na2vs0mg"},{"bike_id":"402b1636-06c5-4fd6-a349-85c428b53451","system_id":"levelo_inurba_marseille","lat":43.28495,"lon":5.38583,"is_reserved":false,"is_disabled":false,"rental_uris":{"android":"levelo://app?vid=402b1636-06c5-4fd6-a349-85c428b53451","ios":"levelo://app?vid=402b1636-06c5-4fd6-a349-85c428b53451"},"vehicle_type_id":"4","last_reported":1748931363,"current_range_meters":16800,"station_id":"ce4bh8p2rcd13ifvqeb0","pricing_plan_id":"cebpf4jnsgd1na2vs0mg"},{"bike_id":"12050d15-133c-4f37-8ee2-9fab91fbed14","system_id":"levelo_inurba_marseille","lat":43.29795,"lon":5.38106,"is_reserved":false,"is_disabled":false,"rental_uris":{"android":"levelo://app?vid=12050d15-133c-4f37-8ee2-9fab91fbed14","ios":"levelo://app?vid=12050d15-133c-4f37-8ee2-9fab91fbed14"},"vehicle_type_id":"4","last_reported":1748931363,"current_range_meters":17200,"station_id":"ce4bgip2rcd13ifvqbb0","pricing_plan_id":"cebpf4jnsgd1na2vs0mg"},{"bike_id":"3a066dda-4bc8-4e72-a5a0-559ad72a62ea","system_id":"levelo_inurba_marseille","lat":43.28358,"lon":5.38651,"is_reserved":false,"is_disabled":false,"rental_uris":{"android":"levelo://app?vid=3a066dda-4bc8-4e72-a5a0-559ad72a62ea","ios":"levelo://app?vid=3a066dda-4bc8-4e72-a5a0-559ad72a62ea"},"vehicle_type_id":"4","last_reported":1748931363,"current_range_meters":17200,"station_id":"ce4bh492rcd13ifvqdvg","pricing_plan_id":"cebpf4jnsgd1na2vs0mg"},{"bike_id":"4e17c123-8236-4a02-a8a2-a61cdc625d7e","system_id":"levelo_inurba_marseille","lat":43.3047,"lon":5.37086,"is_reserved":false,"is_disabled":false,"rental_uris":{"android":"levelo://app?vid=4e17c123-8236-4a02-a8a2-a61cdc625d7e","ios":"levelo://app?vid=4e17c123-8236-4a02-a8a2-a61cdc625d7e"},"vehicle_type_id":"4","last_reported":1748931363,"current_range_meters":17200,"station_id":"","pricing_plan_id":"cebpf4jnsgd1na2vs0mg"},{"bike_id":"6a1d81c6-deed-4676-a232-253b9c013538","system_id":"levelo_inurba_marseille","lat":43.30402,"lon":5.38893,"is_reserved":false,"is_disabled":false,"rental_uris":{"android":"levelo://app?vid=6a1d81c6-deed-4676-a232-253b9c013538","ios":"levelo://app?vid=6a1d81c6-deed-4676-a232-253b9c013538"},"vehicle_type_id":"4","last_reported":1748931363,"current_range_meters":17200,"station_id":"ce4bgk12rcd13ifvqbi0","pricing_plan_id":"cebpf4jnsgd1na2vs0mg"},{"bike_id":"f1a60a4e-4b20-4afd-8937-c52fe75d93b4","system_id":"levelo_inurba_marseille","lat":43.32343,"lon":5.40606,"is_reserved":false,"is_disabled":false,"rental_uris":{"android":"levelo://app?vid=f1a60a4e-4b20-4afd-8937-c52fe75d93b4","ios":"levelo://app?vid=f1a60a4e-4b20-4afd-8937-c52fe75d93b4"},"vehicle_type_id":"4","last_reported":1748931363,"current_range_meters":17200,"station_id":"ce4bhq92rcd13ifvqhjg","pricing_plan_id":"cebpf4jnsgd1na2vs0mg"},{"bike_id":"96425785-67ec-44b8-ac35-6530cd1939ae","system_id":"levelo_inurba_marseille","lat":43.2417,"lon":5.3972,"is_reserved":false,"is_disabled":false,"rental_uris":{"android":"levelo://app?vid=96425785-67ec-44b8-ac35-6530cd1939ae","ios":"levelo://app?vid=96425785-67ec-44b8-ac35-6530cd1939ae"},"vehicle_type_id":"4","last_reported":1748931363,"current_range_meters":17200,"station_id":"ce4bhn12rcd13ifvqgpg","pricing_plan_id":"cebpf4jnsgd1na2vs0mg"},{"bike_id":"391a5830-e237-41c5-9981-0e3d741d37ee","system_id":"levelo_inurba_marseille","lat":43.30468,"lon":5.37898,"is_reserved":false,"is_disabled":false,"rental_uris":{"android":"levelo://app?vid=391a5830-e237-41c5-9981-0e3d741d37ee","ios":"levelo://app?vid=391a5830-e237-41c5-9981-0e3d741d37ee"},"vehicle_type_id":"4","last_reported":1748931363,"current_range_meters":17600,"station_id":"ce4bgup2rcd13ifvqcn0","pricing_plan_id":"cebpf4jnsgd1na2vs0mg"},{"bike_id":"5b536054-600d-4e23-8558-f74f4f3ec365","system_id":"levelo_inurba_marseille","lat":43.33024,"lon":5.39042,"is_reserved":false,"is_disabled":false,"rental_uris":{"android":"levelo://app?vid=5b536054-600d-4e23-8558-f74f4f3ec365","ios":"levelo://app?vid=5b536054-600d-4e23-8558-f74f4f3ec365"},"vehicle_type_id":"4","last_reported":1748931363,"current_range_meters":17600,"station_id":"ce4bhr92rcd13ifvqhrg","pricing_plan_id":"cebpf4jnsgd1na2vs0mg"},{"bike_id":"a062fae3-bf19-4ed3-b11f-bbec44e3344b","system_id":"levelo_inurba_marseille","lat":43.32096,"lon":5.40788,"is_reserved":false,"is_disabled":false,"rental_uris":{"android":"levelo://app?vid=a062fae3-bf19-4ed3-b11f-bbec44e3344b","ios":"levelo://app?vid=a062fae3-bf19-4ed3-b11f-bbec44e3344b"},"vehicle_type_id":"4","last_reported":1748931363,"current_range_meters":17600,"station_id":"","pricing_plan_id":"cebpf4jnsgd1na2vs0mg"},{"bike_id":"f3453623-595a-49ec-9f81-59505c481252","system_id":"levelo_inurba_marseille","lat":43.25485,"lon":5.37636,"is_reserved":false,"is_disabled":false,"rental_uris":{"android":"levelo://app?vid=f3453623-595a-49ec-9f81-59505c481252","ios":"levelo://app?vid=f3453623-595a-49ec-9f81-59505c481252"},"vehicle_type_id":"4","last_reported":1748931363,"current_range_meters":17600,"station_id":"ce4bhh12rcd13ifvqff0","pricing_plan_id":"cebpf4jnsgd1na2vs0mg"},{"bike_id":"4c4de3ff-30b3-4716-836c-8edd883f8097","system_id":"levelo_inurba_marseille","lat":43.28475,"lon":5.38428,"is_reserved":false,"is_disabled":true,"rental_uris":{"android":"levelo://app?vid=4c4de3ff-30b3-4716-836c-8edd883f8097","ios":"levelo://app?vid=4c4de3ff-30b3-4716-836c-8edd883f8097"},"vehicle_type_id":"4","last_reported":1748931363,"current_range_meters":17600,"station_id":"","pricing_plan_id":"cebpf4jnsgd1na2vs0mg"},{"bike_id":"1ea1a45d-a6ce-458d-9629-6c4963e92ac4","system_id":"levelo_inurba_marseille","lat":43.2937,"lon":5.37864,"is_reserved":false,"is_disabled":false,"rental_uris":{"android":"levelo://app?vid=1ea1a45d-a6ce-458d-9629-6c4963e92ac4","ios":"levelo://app?vid=1ea1a45d-a6ce-458d-9629-6c4963e92ac4"},"vehicle_type_id":"4","last_reported":1748931363,"current_range_meters":17600,"station_id":"ce4bgjh2rcd13ifvqbf0","pricing_plan_id":"cebpf4jnsgd1na2vs0mg"},{"bike_id":"9defbf48-2e51-4aca-8f08-817f7fadbd1b","system_id":"levelo_inurba_marseille","lat":43.304717,"lon":5.379275,"is_reserved":false,"is_disabled":false,"rental_uris":{"android":"levelo://app?vid=9defbf48-2e51-4aca-8f08-817f7fadbd1b","ios":"levelo://app?vid=9defbf48-2e51-4aca-8f08-817f7fadbd1b"},"vehicle_type_id":"4","last_reported":1748931363,"current_range_meters":18000,"station_id":"ce4bgup2rcd13ifvqcn0","pricing_plan_id":"cebpf4jnsgd1na2vs0mg"},{"bike_id":"f0d34e7f-8103-46e9-a438-c85d36f28543","system_id":"levelo_inurba_marseille","lat":43.278739,"lon":5.354376,"is_reserved":false,"is_disabled":false,"rental_uris":{"android":"levelo://app?vid=f0d34e7f-8103-46e9-a438-c85d36f28543","ios":"levelo://app?vid=f0d34e7f-8103-46e9-a438-c85d36f28543"},"vehicle_type_id":"4","last_reported":1748931363,"current_range_meters":18000,"station_id":"","pricing_plan_id":"cebpf4jnsgd1na2vs0mg"},{"bike_id":"03c8c524-d600-4d9e-aa7f-f80a900da483","system_id":"levelo_inurba_marseille","lat":43.27941,"lon":5.41043,"is_reserved":false,"is_disabled":false,"rental_uris":{"android":"levelo://app?vid=03c8c524-d600-4d9e-aa7f-f80a900da483","ios":"levelo://app?vid=03c8c524-d600-4d9e-aa7f-f80a900da483"},"vehicle_type_id":"4","last_reported":1748931363,"current_range_meters":18000,"station_id":"ce4bhnp2rcd13ifvqh0g","pricing_plan_id":"cebpf4jnsgd1na2vs0mg"},{"bike_id":"2370ae44-900f-42b8-8c79-014f9bfb4168","system_id":"levelo_inurba_marseille","lat":43.28462,"lon":5.38416,"is_reserved":false,"is_disabled":false,"rental_uris":{"android":"levelo://app?vid=2370ae44-900f-42b8-8c79-014f9bfb4168","ios":"levelo://app?vid=2370ae44-900f-42b8-8c79-014f9bfb4168"},"vehicle_type_id":"4","last_reported":1748931363,"current_range_meters":18000,"station_id":"ce4bh512rcd13ifvqe3g","pricing_plan_id":"cebpf4jnsgd1na2vs0mg"},{"bike_id":"22f839c0-7837-49f4-b4b1-6cd233d79363","system_id":"levelo_inurba_marseille","lat":43.299014,"lon":5.436678,"is_reserved":false,"is_disabled":false,"rental_uris":{"android":"levelo://app?vid=22f839c0-7837-49f4-b4b1-6cd233d79363","ios":"levelo://app?vid=22f839c0-7837-49f4-b4b1-6cd233d79363"},"vehicle_type_id":"4","last_reported":1748931363,"current_range_meters":18000,"station_id":"ce4bhpp2rcd13ifvqhfg","pricing_plan_id":"cebpf4jnsgd1na2vs0mg"},{"bike_id":"a5c20a9b-6072-4572-84fe-d4fbf1b359ce","system_id":"levelo_inurba_marseille","lat":43.33819,"lon":5.37466,"is_reserved":false,"is_disabled":false,"rental_uris":{"android":"levelo://app?vid=a5c20a9b-6072-4572-84fe-d4fbf1b359ce","ios":"levelo://app?vid=a5c20a9b-6072-4572-84fe-d4fbf1b359ce"},"vehicle_type_id":"4","last_reported":1748931363,"current_range_meters":18000,"station_id":"","pricing_plan_id":"cebpf4jnsgd1na2vs0mg"},{"bike_id":"00921fac-499b-49af-a52e-f6576fd69f60","system_id":"levelo_inurba_marseille","lat":43.279603,"lon":5.387127,"is_reserved":false,"is_disabled":false,"rental_uris":{"android":"levelo://app?vid=00921fac-499b-49af-a52e-f6576fd69f60","ios":"levelo://app?vid=00921fac-499b-49af-a52e-f6576fd69f60"},"vehicle_type_id":"4","last_reported":1748931363,"current_range_meters":18800,"station_id":"ce4bhg12rcd13ifvqf80","pricing_plan_id":"cebpf4jnsgd1na2vs0mg"},{"bike_id":"b625b4cb-a0d5-4a2a-8e9d-c93f77b7b45c","system_id":"levelo_inurba_marseille","lat":43.25111,"lon":5.403263,"is_reserved":false,"is_disabled":false,"rental_uris":{"android":"levelo://app?vid=b625b4cb-a0d5-4a2a-8e9d-c93f77b7b45c","ios":"levelo://app?vid=b625b4cb-a0d5-4a2a-8e9d-c93f77b7b45c"},"vehicle_type_id":"4","last_reported":1748931363,"current_range_meters":18800,"station_id":"","pricing_plan_id":"cebpf4jnsgd1na2vs0mg"},{"bike_id":"a684ff2e-acd2-427b-87a5-d628bd099c06","system_id":"levelo_inurba_marseille","lat":43.31361,"lon":5.36705,"is_reserved":false,"is_disabled":false,"rental_uris":{"android":"levelo://app?vid=a684ff2e-acd2-427b-87a5-d628bd099c06","ios":"levelo://app?vid=a684ff2e-acd2-427b-87a5-d628bd099c06"},"vehicle_type_id":"4","last_reported":1748931363,"current_range_meters":18000,"station_id":"ce4bgr92rcd13ifvqc6g","pricing_plan_id":"cebpf4jnsgd1na2vs0mg"},{"bike_id":"bbdab15b-b33b-4570-a683-b2ab708c7da4","system_id":"levelo_inurba_marseille","lat":43.29738,"lon":5.37653,"is_reserved":false,"is_disabled":false,"rental_uris":{"android":"levelo://app?vid=bbdab15b-b33b-4570-a683-b2ab708c7da4","ios":"levelo://app?vid=bbdab15b-b33b-4570-a683-b2ab708c7da4"},"vehicle_type_id":"4","last_reported":1748931363,"current_range_meters":18800,"station_id":"ce4bgkh2rcd13ifvqbl0","pricing_plan_id":"cebpf4jnsgd1na2vs0mg"},{"bike_id":"52a92380-5e1b-42cf-9a6d-79956a0cbe16","system_id":"levelo_inurba_marseille","lat":43.27495,"lon":5.42469,"is_reserved":false,"is_disabled":false,"rental_uris":{"android":"levelo://app?vid=52a92380-5e1b-42cf-9a6d-79956a0cbe16","ios":"levelo://app?vid=52a92380-5e1b-42cf-9a6d-79956a0cbe16"},"vehicle_type_id":"4","last_reported":1748931363,"current_range_meters":18800,"station_id":"ce4bhn92rcd13ifvqgrg","pricing_plan_id":"cebpf4jnsgd1na2vs0mg"},{"bike_id":"c907774d-c980-40aa-bad7-df5787756bce","system_id":"levelo_inurba_marseille","lat":43.295039,"lon":5.363877,"is_reserved":false,"is_disabled":false,"rental_uris":{"android":"levelo://app?vid=c907774d-c980-40aa-bad7-df5787756bce","ios":"levelo://app?vid=c907774d-c980-40aa-bad7-df5787756bce"},"vehicle_type_id":"4","last_reported":1748931363,"current_range_meters":18800,"station_id":"ce4bgpp2rcd13ifvqc3g","pricing_plan_id":"cebpf4jnsgd1na2vs0mg"},{"bike_id":"0dfdc30c-6dd5-4931-9528-72cc0ea4209c","system_id":"levelo_inurba_marseille","lat":43.32658,"lon":5.4099,"is_reserved":false,"is_disabled":false,"rental_uris":{"android":"levelo://app?vid=0dfdc30c-6dd5-4931-9528-72cc0ea4209c","ios":"levelo://app?vid=0dfdc30c-6dd5-4931-9528-72cc0ea4209c"},"vehicle_type_id":"4","last_reported":1748931363,"current_range_meters":18000,"station_id":"ce4bhpp2rcd13ifvqhgg","pricing_plan_id":"cebpf4jnsgd1na2vs0mg"},{"bike_id":"826b2db6-1579-4beb-a849-09c1cda03041","system_id":"levelo_inurba_marseille","lat":43.27913,"lon":5.37993,"is_reserved":false,"is_disabled":false,"rental_uris":{"android":"levelo://app?vid=826b2db6-1579-4beb-a849-09c1cda03041","ios":"levelo://app?vid=826b2db6-1579-4beb-a849-09c1cda03041"},"vehicle_type_id":"4","last_reported":1748931363,"current_range_meters":19200,"station_id":"ce4bhf92rcd13ifvqf50","pricing_plan_id":"cebpf4jnsgd1na2vs0mg"},{"bike_id":"c1b5eecc-5664-4bb0-ab72-8f9e7c58cb84","system_id":"levelo_inurba_marseille","lat":43.24179,"lon":5.39741,"is_reserved":false,"is_disabled":false,"rental_uris":{"android":"levelo://app?vid=c1b5eecc-5664-4bb0-ab72-8f9e7c58cb84","ios":"levelo://app?vid=c1b5eecc-5664-4bb0-ab72-8f9e7c58cb84"},"vehicle_type_id":"4","last_reported":1748931363,"current_range_meters":19200,"station_id":"ce4bhn12rcd13ifvqgpg","pricing_plan_id":"cebpf4jnsgd1na2vs0mg"},{"bike_id":"e5ffc1cb-a704-403e-ab7b-31df1fc02011","system_id":"levelo_inurba_marseille","lat":43.27937,"lon":5.41045,"is_reserved":false,"is_disabled":false,"rental_uris":{"android":"levelo://app?vid=e5ffc1cb-a704-403e-ab7b-31df1fc02011","ios":"levelo://app?vid=e5ffc1cb-a704-403e-ab7b-31df1fc02011"},"vehicle_type_id":"4","last_reported":1748931363,"current_range_meters":19200,"station_id":"ce4bhnp2rcd13ifvqh0g","pricing_plan_id":"cebpf4jnsgd1na2vs0mg"},{"bike_id":"48da913c-189e-4adb-8b41-df2f525f675f","system_id":"levelo_inurba_marseille","lat":43.27877,"lon":5.38027,"is_reserved":false,"is_disabled":false,"rental_uris":{"android":"levelo://app?vid=48da913c-189e-4adb-8b41-df2f525f675f","ios":"levelo://app?vid=48da913c-189e-4adb-8b41-df2f525f675f"},"vehicle_type_id":"4","last_reported":1748931363,"current_range_meters":19600,"station_id":"ce4bhf92rcd13ifvqf50","pricing_plan_id":"cebpf4jnsgd1na2vs0mg"},{"bike_id":"71af0257-4ccb-49c9-89e1-f5353687ca7e","system_id":"levelo_inurba_marseille","lat":43.30094,"lon":5.390852,"is_reserved":false,"is_disabled":false,"rental_uris":{"android":"levelo://app?vid=71af0257-4ccb-49c9-89e1-f5353687ca7e","ios":"levelo://app?vid=71af0257-4ccb-49c9-89e1-f5353687ca7e"},"vehicle_type_id":"4","last_reported":1748931363,"current_range_meters":19600,"station_id":"ce4bh192rcd13ifvqdb0","pricing_plan_id":"cebpf4jnsgd1na2vs0mg"},{"bike_id":"edeeefe1-6701-4b4c-8f26-92f4ec77a90d","system_id":"levelo_inurba_marseille","lat":43.30539,"lon":5.36709,"is_reserved":false,"is_disabled":false,"rental_uris":{"android":"levelo://app?vid=edeeefe1-6701-4b4c-8f26-92f4ec77a90d","ios":"levelo://app?vid=edeeefe1-6701-4b4c-8f26-92f4ec77a90d"},"vehicle_type_id":"4","last_reported":1748931363,"current_range_meters":19600,"station_id":"ce4bgrp2rcd13ifvqc9g","pricing_plan_id":"cebpf4jnsgd1na2vs0mg"},{"bike_id":"2a6dca92-5f50-417b-99c5-6c535ece6724","system_id":"levelo_inurba_marseille","lat":43.275007,"lon":5.424627,"is_reserved":false,"is_disabled":false,"rental_uris":{"android":"levelo://app?vid=2a6dca92-5f50-417b-99c5-6c535ece6724","ios":"levelo://app?vid=2a6dca92-5f50-417b-99c5-6c535ece6724"},"vehicle_type_id":"4","last_reported":1748931363,"current_range_meters":19600,"station_id":"ce4bhn92rcd13ifvqgrg","pricing_plan_id":"cebpf4jnsgd1na2vs0mg"},{"bike_id":"920da267-a093-4b7f-940f-5b7c7676d736","system_id":"levelo_inurba_marseille","lat":43.30954,"lon":5.39053,"is_reserved":false,"is_disabled":false,"rental_uris":{"android":"levelo://app?vid=920da267-a093-4b7f-940f-5b7c7676d736","ios":"levelo://app?vid=920da267-a093-4b7f-940f-5b7c7676d736"},"vehicle_type_id":"4","last_reported":1748931363,"current_range_meters":19200,"station_id":"ce4bgup2rcd13ifvqco0","pricing_plan_id":"cebpf4jnsgd1na2vs0mg"},{"bike_id":"3b7fdd06-fee2-4fa8-a500-ae9c87d862ff","system_id":"levelo_inurba_marseille","lat":43.301484,"lon":5.380774,"is_reserved":false,"is_disabled":false,"rental_uris":{"android":"levelo://app?vid=3b7fdd06-fee2-4fa8-a500-ae9c87d862ff","ios":"levelo://app?vid=3b7fdd06-fee2-4fa8-a500-ae9c87d862ff"},"vehicle_type_id":"4","last_reported":1748931363,"current_range_meters":19600,"station_id":"ce4bgjp2rcd13ifvqbh0","pricing_plan_id":"cebpf4jnsgd1na2vs0mg"},{"bike_id":"c2e1d283-a417-4a2a-b2e7-7c87606a7a42","system_id":"levelo_inurba_marseille","lat":43.2511,"lon":5.40336,"is_reserved":false,"is_disabled":false,"rental_uris":{"android":"levelo://app?vid=c2e1d283-a417-4a2a-b2e7-7c87606a7a42","ios":"levelo://app?vid=c2e1d283-a417-4a2a-b2e7-7c87606a7a42"},"vehicle_type_id":"4","last_reported":1748931363,"current_range_meters":19600,"station_id":"ce4bhlh2rcd13ifvqgig","pricing_plan_id":"cebpf4jnsgd1na2vs0mg"},{"bike_id":"d509d84e-f359-4ef5-8817-0a56485e7e15","system_id":"levelo_inurba_marseille","lat":43.23899,"lon":5.38851,"is_reserved":false,"is_disabled":false,"rental_uris":{"android":"levelo://app?vid=d509d84e-f359-4ef5-8817-0a56485e7e15","ios":"levelo://app?vid=d509d84e-f359-4ef5-8817-0a56485e7e15"},"vehicle_type_id":"4","last_reported":1748931363,"current_range_meters":19600,"station_id":"","pricing_plan_id":"cebpf4jnsgd1na2vs0mg"},{"bike_id":"bb9df8e7-97b0-42c5-8087-cf95de0a52c4","system_id":"levelo_inurba_marseille","lat":43.257128,"lon":5.411071,"is_reserved":false,"is_disabled":false,"rental_uris":{"android":"levelo://app?vid=bb9df8e7-97b0-42c5-8087-cf95de0a52c4","ios":"levelo://app?vid=bb9df8e7-97b0-42c5-8087-cf95de0a52c4"},"vehicle_type_id":"4","last_reported":1748931363,"current_range_meters":19600,"station_id":"ce4bhkp2rcd13ifvqgd0","pricing_plan_id":"cebpf4jnsgd1na2vs0mg"},{"bike_id":"96c57d21-6980-4ee5-96a7-8e2360c37425","system_id":"levelo_inurba_marseille","lat":43.31221,"lon":5.36853,"is_reserved":false,"is_disabled":false,"rental_uris":{"android":"levelo://app?vid=96c57d21-6980-4ee5-96a7-8e2360c37425","ios":"levelo://app?vid=96c57d21-6980-4ee5-96a7-8e2360c37425"},"vehicle_type_id":"4","last_reported":1748931363,"current_range_meters":20000,"station_id":"ce4bgl92rcd13ifvqbq0","pricing_plan_id":"cebpf4jnsgd1na2vs0mg"},{"bike_id":"2cf5c3dc-6026-40f6-970c-d851d11de452","system_id":"levelo_inurba_marseille","lat":43.30232,"lon":5.39475,"is_reserved":false,"is_disabled":false,"rental_uris":{"android":"levelo://app?vid=2cf5c3dc-6026-40f6-970c-d851d11de452","ios":"levelo://app?vid=2cf5c3dc-6026-40f6-970c-d851d11de452"},"vehicle_type_id":"4","last_reported":1748931363,"current_range_meters":20000,"station_id":"ce4bh0p2rcd13ifvqd70","pricing_plan_id":"cebpf4jnsgd1na2vs0mg"},{"bike_id":"ceb1816b-c7e3-4924-824e-780e5d9cb515","system_id":"levelo_inurba_marseille","lat":43.25115,"lon":5.40309,"is_reserved":false,"is_disabled":false,"rental_uris":{"android":"levelo://app?vid=ceb1816b-c7e3-4924-824e-780e5d9cb515","ios":"levelo://app?vid=ceb1816b-c7e3-4924-824e-780e5d9cb515"},"vehicle_type_id":"4","last_reported":1748931363,"current_range_meters":20000,"station_id":"ce4bhlh2rcd13ifvqgig","pricing_plan_id":"cebpf4jnsgd1na2vs0mg"},{"bike_id":"b51b1db2-9b2e-49e8-b205-a71387b379e5","system_id":"levelo_inurba_marseille","lat":43.25923,"lon":5.40878,"is_reserved":false,"is_disabled":false,"rental_uris":{"android":"levelo://app?vid=b51b1db2-9b2e-49e8-b205-a71387b379e5","ios":"levelo://app?vid=b51b1db2-9b2e-49e8-b205-a71387b379e5"},"vehicle_type_id":"4","last_reported":1748931363,"current_range_meters":20000,"station_id":"ce4bhm92rcd13ifvqglg","pricing_plan_id":"cebpf4jnsgd1na2vs0mg"},{"bike_id":"7eb0f773-3e39-4c19-8c42-d614e1f4e07c","system_id":"levelo_inurba_marseille","lat":43.29046,"lon":5.399605,"is_reserved":false,"is_disabled":false,"rental_uris":{"android":"levelo://app?vid=7eb0f773-3e39-4c19-8c42-d614e1f4e07c","ios":"levelo://app?vid=7eb0f773-3e39-4c19-8c42-d614e1f4e07c"},"vehicle_type_id":"4","last_reported":1748931363,"current_range_meters":20000,"station_id":"ce4bh392rcd13ifvqdm0","pricing_plan_id":"cebpf4jnsgd1na2vs0mg"},{"bike_id":"2aa67550-cfde-4ea9-8210-8562d79ed17e","system_id":"levelo_inurba_marseille","lat":43.289668,"lon":5.392208,"is_reserved":false,"is_disabled":false,"rental_uris":{"android":"levelo://app?vid=2aa67550-cfde-4ea9-8210-8562d79ed17e","ios":"levelo://app?vid=2aa67550-cfde-4ea9-8210-8562d79ed17e"},"vehicle_type_id":"4","last_reported":1748931363,"current_range_meters":20000,"station_id":"","pricing_plan_id":"cebpf4jnsgd1na2vs0mg"},{"bike_id":"a7a00efa-73e4-4d37-887f-0f5a522665eb","system_id":"levelo_inurba_marseille","lat":43.27491,"lon":5.42448,"is_reserved":false,"is_disabled":false,"rental_uris":{"android":"levelo://app?vid=a7a00efa-73e4-4d37-887f-0f5a522665eb","ios":"levelo://app?vid=a7a00efa-73e4-4d37-887f-0f5a522665eb"},"vehicle_type_id":"4","last_reported":1748931363,"current_range_meters":19600,"station_id":"ce4bhn92rcd13ifvqgrg","pricing_plan_id":"cebpf4jnsgd1na2vs0mg"},{"bike_id":"143434d9-c66a-4f6f-95e1-671fee3703ec","system_id":"levelo_inurba_marseille","lat":43.25322,"lon":5.377037,"is_reserved":false,"is_disabled":false,"rental_uris":{"android":"levelo://app?vid=143434d9-c66a-4f6f-95e1-671fee3703ec","ios":"levelo://app?vid=143434d9-c66a-4f6f-95e1-671fee3703ec"},"vehicle_type_id":"4","last_reported":1748931363,"current_range_meters":20000,"station_id":"","pricing_plan_id":"cebpf4jnsgd1na2vs0mg"},{"bike_id":"cc8e4bf3-8319-497a-9448-94532012e874","system_id":"levelo_inurba_marseille","lat":43.27502,"lon":5.42454,"is_reserved":false,"is_disabled":false,"rental_uris":{"android":"levelo://app?vid=cc8e4bf3-8319-497a-9448-94532012e874","ios":"levelo://app?vid=cc8e4bf3-8319-497a-9448-94532012e874"},"vehicle_type_id":"4","last_reported":1748931363,"current_range_meters":20000,"station_id":"ce4bhn92rcd13ifvqgrg","pricing_plan_id":"cebpf4jnsgd1na2vs0mg"},{"bike_id":"cba6c288-7603-41a8-92a6-e8587baf262b","system_id":"levelo_inurba_marseille","lat":43.33722,"lon":5.39189,"is_reserved":false,"is_disabled":false,"rental_uris":{"android":"levelo://app?vid=cba6c288-7603-41a8-92a6-e8587baf262b","ios":"levelo://app?vid=cba6c288-7603-41a8-92a6-e8587baf262b"},"vehicle_type_id":"4","last_reported":1748931363,"current_range_meters":20400,"station_id":"ce4bhr92rcd13ifvqhsg","pricing_plan_id":"cebpf4jnsgd1na2vs0mg"},{"bike_id":"34b7e1b4-c575-42aa-8b50-351efdd5d94b","system_id":"levelo_inurba_marseille","lat":43.30217,"lon":5.43776,"is_reserved":false,"is_disabled":false,"rental_uris":{"android":"levelo://app?vid=34b7e1b4-c575-42aa-8b50-351efdd5d94b","ios":"levelo://app?vid=34b7e1b4-c575-42aa-8b50-351efdd5d94b"},"vehicle_type_id":"4","last_reported":1748931363,"current_range_meters":20400,"station_id":"","pricing_plan_id":"cebpf4jnsgd1na2vs0mg"},{"bike_id":"bcc6744e-c1a2-45e1-a429-86e2355aed15","system_id":"levelo_inurba_marseille","lat":43.29049,"lon":5.39964,"is_reserved":false,"is_disabled":false,"rental_uris":{"android":"levelo://app?vid=bcc6744e-c1a2-45e1-a429-86e2355aed15","ios":"levelo://app?vid=bcc6744e-c1a2-45e1-a429-86e2355aed15"},"vehicle_type_id":"4","last_reported":1748931363,"current_range_meters":20400,"station_id":"ce4bh392rcd13ifvqdm0","pricing_plan_id":"cebpf4jnsgd1na2vs0mg"},{"bike_id":"4ca01b7f-f941-4994-b984-e544190d4f6a","system_id":"levelo_inurba_marseille","lat":43.28031,"lon":5.36931,"is_reserved":false,"is_disabled":false,"rental_uris":{"android":"levelo://app?vid=4ca01b7f-f941-4994-b984-e544190d4f6a","ios":"levelo://app?vid=4ca01b7f-f941-4994-b984-e544190d4f6a"},"vehicle_type_id":"4","last_reported":1748931363,"current_range_meters":20800,"station_id":"ce4bha12rcd13ifvqef0","pricing_plan_id":"cebpf4jnsgd1na2vs0mg"},{"bike_id":"4dd90fe0-496f-4cdd-b1ae-d82718f691e0","system_id":"levelo_inurba_marseille","lat":43.27908,"lon":5.4226,"is_reserved":false,"is_disabled":false,"rental_uris":{"android":"levelo://app?vid=4dd90fe0-496f-4cdd-b1ae-d82718f691e0","ios":"levelo://app?vid=4dd90fe0-496f-4cdd-b1ae-d82718f691e0"},"vehicle_type_id":"4","last_reported":1748931363,"current_range_meters":20800,"station_id":"","pricing_plan_id":"cebpf4jnsgd1na2vs0mg"},{"bike_id":"4ab7cbef-ce87-44fe-84cc-a45f908c6334","system_id":"levelo_inurba_marseille","lat":43.30461,"lon":5.37903,"is_reserved":false,"is_disabled":false,"rental_uris":{"android":"levelo://app?vid=4ab7cbef-ce87-44fe-84cc-a45f908c6334","ios":"levelo://app?vid=4ab7cbef-ce87-44fe-84cc-a45f908c6334"},"vehicle_type_id":"4","last_reported":1748931363,"current_range_meters":20800,"station_id":"ce4bgup2rcd13ifvqcn0","pricing_plan_id":"cebpf4jnsgd1na2vs0mg"},{"bike_id":"2aded04a-397e-4bac-ad97-190ef70931da","system_id":"levelo_inurba_marseille","lat":43.29773,"lon":5.38269,"is_reserved":false,"is_disabled":false,"rental_uris":{"android":"levelo://app?vid=2aded04a-397e-4bac-ad97-190ef70931da","ios":"levelo://app?vid=2aded04a-397e-4bac-ad97-190ef70931da"},"vehicle_type_id":"4","last_reported":1748931363,"current_range_meters":20800,"station_id":"","pricing_plan_id":"cebpf4jnsgd1na2vs0mg"},{"bike_id":"a11ea1a8-2e68-484b-8edf-fe757e754272","system_id":"levelo_inurba_marseille","lat":43.278164,"lon":5.407231,"is_reserved":false,"is_disabled":false,"rental_uris":{"android":"levelo://app?vid=a11ea1a8-2e68-484b-8edf-fe757e754272","ios":"levelo://app?vid=a11ea1a8-2e68-484b-8edf-fe757e754272"},"vehicle_type_id":"4","last_reported":1748931363,"current_range_meters":21600,"station_id":"ce4bhnh2rcd13ifvqgtg","pricing_plan_id":"cebpf4jnsgd1na2vs0mg"},{"bike_id":"919bc4c1-168d-4a95-841c-c6421726b62b","system_id":"levelo_inurba_marseille","lat":43.27494,"lon":5.42448,"is_reserved":false,"is_disabled":false,"rental_uris":{"android":"levelo://app?vid=919bc4c1-168d-4a95-841c-c6421726b62b","ios":"levelo://app?vid=919bc4c1-168d-4a95-841c-c6421726b62b"},"vehicle_type_id":"4","last_reported":1748931363,"current_range_meters":21600,"station_id":"ce4bhn92rcd13ifvqgrg","pricing_plan_id":"cebpf4jnsgd1na2vs0mg"},{"bike_id":"406e5a53-25ad-4044-86be-979d2f58d01a","system_id":"levelo_inurba_marseille","lat":43.25825,"lon":5.39436,"is_reserved":false,"is_disabled":false,"rental_uris":{"android":"levelo://app?vid=406e5a53-25ad-4044-86be-979d2f58d01a","ios":"levelo://app?vid=406e5a53-25ad-4044-86be-979d2f58d01a"},"vehicle_type_id":"4","last_reported":1748931363,"current_range_meters":20800,"station_id":"ce4bhip2rcd13ifvqft0","pricing_plan_id":"cebpf4jnsgd1na2vs0mg"},{"bike_id":"984c87aa-91bb-4ae4-a675-ef4414dfd2af","system_id":"levelo_inurba_marseille","lat":43.31486,"lon":5.37291,"is_reserved":false,"is_disabled":false,"rental_uris":{"android":"levelo://app?vid=984c87aa-91bb-4ae4-a675-ef4414dfd2af","ios":"levelo://app?vid=984c87aa-91bb-4ae4-a675-ef4414dfd2af"},"vehicle_type_id":"4","last_reported":1748931363,"current_range_meters":21600,"station_id":"ce4bgt12rcd13ifvqcd0","pricing_plan_id":"cebpf4jnsgd1na2vs0mg"},{"bike_id":"060832e1-324b-4986-a6cb-45a1f92bcd6d","system_id":"levelo_inurba_marseille","lat":43.28154,"lon":5.4264,"is_reserved":false,"is_disabled":false,"rental_uris":{"android":"levelo://app?vid=060832e1-324b-4986-a6cb-45a1f92bcd6d","ios":"levelo://app?vid=060832e1-324b-4986-a6cb-45a1f92bcd6d"},"vehicle_type_id":"4","last_reported":1748931363,"current_range_meters":21600,"station_id":"ce4bhnh2rcd13ifvqgug","pricing_plan_id":"cebpf4jnsgd1na2vs0mg"},{"bike_id":"bd15d3c1-5fc5-4006-9923-c4638e3da994","system_id":"levelo_inurba_marseille","lat":43.301075,"lon":5.371115,"is_reserved":false,"is_disabled":false,"rental_uris":{"android":"levelo://app?vid=bd15d3c1-5fc5-4006-9923-c4638e3da994","ios":"levelo://app?vid=bd15d3c1-5fc5-4006-9923-c4638e3da994"},"vehicle_type_id":"4","last_reported":1748931363,"current_range_meters":22000,"station_id":"","pricing_plan_id":"cebpf4jnsgd1na2vs0mg"},{"bike_id":"3151f686-fe66-4a33-bd26-75d233132907","system_id":"levelo_inurba_marseille","lat":43.30147,"lon":5.3808,"is_reserved":false,"is_disabled":false,"rental_uris":{"android":"levelo://app?vid=3151f686-fe66-4a33-bd26-75d233132907","ios":"levelo://app?vid=3151f686-fe66-4a33-bd26-75d233132907"},"vehicle_type_id":"4","last_reported":1748931363,"current_range_meters":22000,"station_id":"ce4bgjp2rcd13ifvqbh0","pricing_plan_id":"cebpf4jnsgd1na2vs0mg"},{"bike_id":"31f60145-b4f1-405d-bbfb-06ee3ce060ce","system_id":"levelo_inurba_marseille","lat":43.28481,"lon":5.38555,"is_reserved":false,"is_disabled":false,"rental_uris":{"android":"levelo://app?vid=31f60145-b4f1-405d-bbfb-06ee3ce060ce","ios":"levelo://app?vid=31f60145-b4f1-405d-bbfb-06ee3ce060ce"},"vehicle_type_id":"4","last_reported":1748931363,"current_range_meters":22000,"station_id":"ce4bh8p2rcd13ifvqeb0","pricing_plan_id":"cebpf4jnsgd1na2vs0mg"},{"bike_id":"a4ce12b6-a2d0-4ee1-869e-582067e3fa24","system_id":"levelo_inurba_marseille","lat":43.30469,"lon":5.37897,"is_reserved":false,"is_disabled":false,"rental_uris":{"android":"levelo://app?vid=a4ce12b6-a2d0-4ee1-869e-582067e3fa24","ios":"levelo://app?vid=a4ce12b6-a2d0-4ee1-869e-582067e3fa24"},"vehicle_type_id":"4","last_reported":1748931363,"current_range_meters":22000,"station_id":"ce4bgup2rcd13ifvqcn0","pricing_plan_id":"cebpf4jnsgd1na2vs0mg"},{"bike_id":"4aedc166-fe69-4c6b-9498-00adf9ab7c64","system_id":"levelo_inurba_marseille","lat":43.31885,"lon":5.40746,"is_reserved":false,"is_disabled":false,"rental_uris":{"android":"levelo://app?vid=4aedc166-fe69-4c6b-9498-00adf9ab7c64","ios":"levelo://app?vid=4aedc166-fe69-4c6b-9498-00adf9ab7c64"},"vehicle_type_id":"4","last_reported":1748931363,"current_range_meters":21600,"station_id":"ce4bhq12rcd13ifvqhig","pricing_plan_id":"cebpf4jnsgd1na2vs0mg"},{"bike_id":"1091e256-22f6-47c3-b031-f9ab2cdc639d","system_id":"levelo_inurba_marseille","lat":43.30122,"lon":5.39879,"is_reserved":false,"is_disabled":false,"rental_uris":{"android":"levelo://app?vid=1091e256-22f6-47c3-b031-f9ab2cdc639d","ios":"levelo://app?vid=1091e256-22f6-47c3-b031-f9ab2cdc639d"},"vehicle_type_id":"4","last_reported":1748931363,"current_range_meters":22000,"station_id":"ce4bh0h2rcd13ifvqd40","pricing_plan_id":"cebpf4jnsgd1na2vs0mg"},{"bike_id":"99259a99-ee5c-4b48-9984-fe89a846a1b0","system_id":"levelo_inurba_marseille","lat":43.29047,"lon":5.3995,"is_reserved":false,"is_disabled":false,"rental_uris":{"android":"levelo://app?vid=99259a99-ee5c-4b48-9984-fe89a846a1b0","ios":"levelo://app?vid=99259a99-ee5c-4b48-9984-fe89a846a1b0"},"vehicle_type_id":"4","last_reported":1748931363,"current_range_meters":22000,"station_id":"ce4bh392rcd13ifvqdm0","pricing_plan_id":"cebpf4jnsgd1na2vs0mg"},{"bike_id":"209305da-2ed1-47fa-aa0f-60036047f2fd","system_id":"levelo_inurba_marseille","lat":43.25,"lon":5.38927,"is_reserved":false,"is_disabled":false,"rental_uris":{"android":"levelo://app?vid=209305da-2ed1-47fa-aa0f-60036047f2fd","ios":"levelo://app?vid=209305da-2ed1-47fa-aa0f-60036047f2fd"},"vehicle_type_id":"4","last_reported":1748931363,"current_range_meters":21600,"station_id":"ce4bhgp2rcd13ifvqfd0","pricing_plan_id":"cebpf4jnsgd1na2vs0mg"},{"bike_id":"6792e971-23de-498e-a137-6824a16e5c99","system_id":"levelo_inurba_marseille","lat":43.30539,"lon":5.36558,"is_reserved":false,"is_disabled":false,"rental_uris":{"android":"levelo://app?vid=6792e971-23de-498e-a137-6824a16e5c99","ios":"levelo://app?vid=6792e971-23de-498e-a137-6824a16e5c99"},"vehicle_type_id":"4","last_reported":1748931363,"current_range_meters":22400,"station_id":"ce4bgs12rcd13ifvqcag","pricing_plan_id":"cebpf4jnsgd1na2vs0mg"},{"bike_id":"d32ec745-4148-4f9c-85a4-c48954b00bbd","system_id":"levelo_inurba_marseille","lat":43.29598,"lon":5.381,"is_reserved":false,"is_disabled":false,"rental_uris":{"android":"levelo://app?vid=d32ec745-4148-4f9c-85a4-c48954b00bbd","ios":"levelo://app?vid=d32ec745-4148-4f9c-85a4-c48954b00bbd"},"vehicle_type_id":"4","last_reported":1748931363,"current_range_meters":22400,"station_id":"ce4bgl12rcd13ifvqbo0","pricing_plan_id":"cebpf4jnsgd1na2vs0mg"},{"bike_id":"d7d4b273-a8a3-4414-9804-83cc6a7e6ded","system_id":"levelo_inurba_marseille","lat":43.29411,"lon":5.3863,"is_reserved":false,"is_disabled":true,"rental_uris":{"android":"levelo://app?vid=d7d4b273-a8a3-4414-9804-83cc6a7e6ded","ios":"levelo://app?vid=d7d4b273-a8a3-4414-9804-83cc6a7e6ded"},"vehicle_type_id":"4","last_reported":1748931363,"current_range_meters":22400,"station_id":"ce4bh2h2rcd13ifvqdh0","pricing_plan_id":"cebpf4jnsgd1na2vs0mg"},{"bike_id":"3a46f913-5ba1-4dad-9449-7003e77fdbea","system_id":"levelo_inurba_marseille","lat":43.29799,"lon":5.38102,"is_reserved":false,"is_disabled":false,"rental_uris":{"android":"levelo://app?vid=3a46f913-5ba1-4dad-9449-7003e77fdbea","ios":"levelo://app?vid=3a46f913-5ba1-4dad-9449-7003e77fdbea"},"vehicle_type_id":"4","last_reported":1748931363,"current_range_meters":22400,"station_id":"ce4bgip2rcd13ifvqbb0","pricing_plan_id":"cebpf4jnsgd1na2vs0mg"},{"bike_id":"04724ca2-38d9-4fef-a2ea-ccb096e295f2","system_id":"levelo_inurba_marseille","lat":43.29019,"lon":5.38133,"is_reserved":false,"is_disabled":false,"rental_uris":{"android":"levelo://app?vid=04724ca2-38d9-4fef-a2ea-ccb096e295f2","ios":"levelo://app?vid=04724ca2-38d9-4fef-a2ea-ccb096e295f2"},"vehicle_type_id":"4","last_reported":1748931363,"current_range_meters":22400,"station_id":"ce4bh4p2rcd13ifvqe1g","pricing_plan_id":"cebpf4jnsgd1na2vs0mg"},{"bike_id":"5acb63d9-d297-4bed-995e-3ea69b492c73","system_id":"levelo_inurba_marseille","lat":43.30532,"lon":5.38433,"is_reserved":false,"is_disabled":false,"rental_uris":{"android":"levelo://app?vid=5acb63d9-d297-4bed-995e-3ea69b492c73","ios":"levelo://app?vid=5acb63d9-d297-4bed-995e-3ea69b492c73"},"vehicle_type_id":"4","last_reported":1748931363,"current_range_meters":22400,"station_id":"ce4bgg92rcd13ifvqb30","pricing_plan_id":"cebpf4jnsgd1na2vs0mg"},{"bike_id":"77fbb945-0ed2-4241-bda6-8ef61847d60f","system_id":"levelo_inurba_marseille","lat":43.30553,"lon":5.36554,"is_reserved":false,"is_disabled":false,"rental_uris":{"android":"levelo://app?vid=77fbb945-0ed2-4241-bda6-8ef61847d60f","ios":"levelo://app?vid=77fbb945-0ed2-4241-bda6-8ef61847d60f"},"vehicle_type_id":"4","last_reported":1748931363,"current_range_meters":22400,"station_id":"ce4bgs12rcd13ifvqcag","pricing_plan_id":"cebpf4jnsgd1na2vs0mg"},{"bike_id":"385ce2f0-8df4-4653-933b-daa84e060498","system_id":"levelo_inurba_marseille","lat":43.2927,"lon":5.36852,"is_reserved":false,"is_disabled":false,"rental_uris":{"android":"levelo://app?vid=385ce2f0-8df4-4653-933b-daa84e060498","ios":"levelo://app?vid=385ce2f0-8df4-4653-933b-daa84e060498"},"vehicle_type_id":"4","last_reported":1748931363,"current_range_meters":22800,"station_id":"ce4bhbp2rcd13ifvqesg","pricing_plan_id":"cebpf4jnsgd1na2vs0mg"},{"bike_id":"b183d439-fff7-4e93-8b99-4c4f0b79b089","system_id":"levelo_inurba_marseille","lat":43.284793,"lon":5.384333,"is_reserved":false,"is_disabled":false,"rental_uris":{"android":"levelo://app?vid=b183d439-fff7-4e93-8b99-4c4f0b79b089","ios":"levelo://app?vid=b183d439-fff7-4e93-8b99-4c4f0b79b089"},"vehicle_type_id":"4","last_reported":1748931363,"current_range_meters":22800,"station_id":"ce4bh512rcd13ifvqe3g","pricing_plan_id":"cebpf4jnsgd1na2vs0mg"},{"bike_id":"3a88642a-1e18-4c20-b45b-12ed5d87c741","system_id":"levelo_inurba_marseille","lat":43.29584,"lon":5.36741,"is_reserved":false,"is_disabled":false,"rental_uris":{"android":"levelo://app?vid=3a88642a-1e18-4c20-b45b-12ed5d87c741","ios":"levelo://app?vid=3a88642a-1e18-4c20-b45b-12ed5d87c741"},"vehicle_type_id":"4","last_reported":1748931363,"current_range_meters":22800,"station_id":"ce4bgph2rcd13ifvqc2g","pricing_plan_id":"cebpf4jnsgd1na2vs0mg"},{"bike_id":"8b13bdc1-d9ad-402b-9335-01bd02d81f63","system_id":"levelo_inurba_marseille","lat":43.31069,"lon":5.39076,"is_reserved":false,"is_disabled":false,"rental_uris":{"android":"levelo://app?vid=8b13bdc1-d9ad-402b-9335-01bd02d81f63","ios":"levelo://app?vid=8b13bdc1-d9ad-402b-9335-01bd02d81f63"},"vehicle_type_id":"4","last_reported":1748931363,"current_range_meters":22800,"station_id":"","pricing_plan_id":"cebpf4jnsgd1na2vs0mg"},{"bike_id":"da258cc5-7298-4572-bdfa-f0c8116cafec","system_id":"levelo_inurba_marseille","lat":43.27496,"lon":5.42464,"is_reserved":false,"is_disabled":false,"rental_uris":{"android":"levelo://app?vid=da258cc5-7298-4572-bdfa-f0c8116cafec","ios":"levelo://app?vid=da258cc5-7298-4572-bdfa-f0c8116cafec"},"vehicle_type_id":"4","last_reported":1748931363,"current_range_meters":22800,"station_id":"ce4bhn92rcd13ifvqgrg","pricing_plan_id":"cebpf4jnsgd1na2vs0mg"},{"bike_id":"f769d525-b36c-403f-bca7-de260a9f127a","system_id":"levelo_inurba_marseille","lat":43.240753,"lon":5.377409,"is_reserved":false,"is_disabled":false,"rental_uris":{"android":"levelo://app?vid=f769d525-b36c-403f-bca7-de260a9f127a","ios":"levelo://app?vid=f769d525-b36c-403f-bca7-de260a9f127a"},"vehicle_type_id":"4","last_reported":1748931363,"current_range_meters":22800,"station_id":"ce4bhnp2rcd13ifvqgvg","pricing_plan_id":"cebpf4jnsgd1na2vs0mg"},{"bike_id":"242dd9ad-391b-48c1-bf2b-54dee401d2c8","system_id":"levelo_inurba_marseille","lat":43.30636,"lon":5.39385,"is_reserved":false,"is_disabled":false,"rental_uris":{"android":"levelo://app?vid=242dd9ad-391b-48c1-bf2b-54dee401d2c8","ios":"levelo://app?vid=242dd9ad-391b-48c1-bf2b-54dee401d2c8"},"vehicle_type_id":"4","last_reported":1748931363,"current_range_meters":22800,"station_id":"ce4bh0p2rcd13ifvqd80","pricing_plan_id":"cebpf4jnsgd1na2vs0mg"},{"bike_id":"ebe74412-cf5d-4fc0-9c5d-8a4d4f311a58","system_id":"levelo_inurba_marseille","lat":43.30551,"lon":5.38431,"is_reserved":false,"is_disabled":false,"rental_uris":{"android":"levelo://app?vid=ebe74412-cf5d-4fc0-9c5d-8a4d4f311a58","ios":"levelo://app?vid=ebe74412-cf5d-4fc0-9c5d-8a4d4f311a58"},"vehicle_type_id":"4","last_reported":1748931363,"current_range_meters":22800,"station_id":"ce4bgg92rcd13ifvqb30","pricing_plan_id":"cebpf4jnsgd1na2vs0mg"},{"bike_id":"ad6db7af-f7b3-4051-8d0b-386ae3d5fa08","system_id":"levelo_inurba_marseille","lat":43.30156,"lon":5.38094,"is_reserved":false,"is_disabled":false,"rental_uris":{"android":"levelo://app?vid=ad6db7af-f7b3-4051-8d0b-386ae3d5fa08","ios":"levelo://app?vid=ad6db7af-f7b3-4051-8d0b-386ae3d5fa08"},"vehicle_type_id":"4","last_reported":1748931363,"current_range_meters":22800,"station_id":"ce4bgjp2rcd13ifvqbh0","pricing_plan_id":"cebpf4jnsgd1na2vs0mg"},{"bike_id":"a696920c-d26a-40ac-b1f7-40aaff1ffb36","system_id":"levelo_inurba_marseille","lat":43.30165,"lon":5.38073,"is_reserved":false,"is_disabled":false,"rental_uris":{"android":"levelo://app?vid=a696920c-d26a-40ac-b1f7-40aaff1ffb36","ios":"levelo://app?vid=a696920c-d26a-40ac-b1f7-40aaff1ffb36"},"vehicle_type_id":"4","last_reported":1748931363,"current_range_meters":22800,"station_id":"ce4bgjp2rcd13ifvqbh0","pricing_plan_id":"cebpf4jnsgd1na2vs0mg"},{"bike_id":"ddb76ea4-f4f4-47e6-a036-96cba9b09565","system_id":"levelo_inurba_marseille","lat":43.30535,"lon":5.38433,"is_reserved":false,"is_disabled":true,"rental_uris":{"android":"levelo://app?vid=ddb76ea4-f4f4-47e6-a036-96cba9b09565","ios":"levelo://app?vid=ddb76ea4-f4f4-47e6-a036-96cba9b09565"},"vehicle_type_id":"4","last_reported":1748931363,"current_range_meters":23200,"station_id":"ce4bgg92rcd13ifvqb30","pricing_plan_id":"cebpf4jnsgd1na2vs0mg"},{"bike_id":"8985ed2f-e13a-4e14-a213-2294d5108c40","system_id":"levelo_inurba_marseille","lat":43.29635,"lon":5.4061,"is_reserved":false,"is_disabled":false,"rental_uris":{"android":"levelo://app?vid=8985ed2f-e13a-4e14-a213-2294d5108c40","ios":"levelo://app?vid=8985ed2f-e13a-4e14-a213-2294d5108c40"},"vehicle_type_id":"4","last_reported":1748931363,"current_range_meters":23200,"station_id":"ce4bh0h2rcd13ifvqd60","pricing_plan_id":"cebpf4jnsgd1na2vs0mg"},{"bike_id":"e2886ea1-f91b-46c2-963c-d7f2ea949c46","system_id":"levelo_inurba_marseille","lat":43.30456,"lon":5.37905,"is_reserved":false,"is_disabled":false,"rental_uris":{"android":"levelo://app?vid=e2886ea1-f91b-46c2-963c-d7f2ea949c46","ios":"levelo://app?vid=e2886ea1-f91b-46c2-963c-d7f2ea949c46"},"vehicle_type_id":"4","last_reported":1748931363,"current_range_meters":23200,"station_id":"ce4bgup2rcd13ifvqcn0","pricing_plan_id":"cebpf4jnsgd1na2vs0mg"},{"bike_id":"e23ab2ae-5b8e-40fb-8b13-57527b7d52b5","system_id":"levelo_inurba_marseille","lat":43.30701,"lon":5.39239,"is_reserved":false,"is_disabled":false,"rental_uris":{"android":"levelo://app?vid=e23ab2ae-5b8e-40fb-8b13-57527b7d52b5","ios":"levelo://app?vid=e23ab2ae-5b8e-40fb-8b13-57527b7d52b5"},"vehicle_type_id":"4","last_reported":1748931363,"current_range_meters":23200,"station_id":"","pricing_plan_id":"cebpf4jnsgd1na2vs0mg"},{"bike_id":"da71f552-d9e5-46af-bdef-e0177c564da4","system_id":"levelo_inurba_marseille","lat":43.305313,"lon":5.384315,"is_reserved":false,"is_disabled":false,"rental_uris":{"android":"levelo://app?vid=da71f552-d9e5-46af-bdef-e0177c564da4","ios":"levelo://app?vid=da71f552-d9e5-46af-bdef-e0177c564da4"},"vehicle_type_id":"4","last_reported":1748931363,"current_range_meters":23200,"station_id":"ce4bgg92rcd13ifvqb30","pricing_plan_id":"cebpf4jnsgd1na2vs0mg"},{"bike_id":"df366114-88c4-4501-8630-d09eddba1e95","system_id":"levelo_inurba_marseille","lat":43.30137,"lon":5.37426,"is_reserved":false,"is_disabled":false,"rental_uris":{"android":"levelo://app?vid=df366114-88c4-4501-8630-d09eddba1e95","ios":"levelo://app?vid=df366114-88c4-4501-8630-d09eddba1e95"},"vehicle_type_id":"4","last_reported":1748931363,"current_range_meters":23200,"station_id":"ce4bgs92rcd13ifvqcc0","pricing_plan_id":"cebpf4jnsgd1na2vs0mg"},{"bike_id":"a6543e88-84b8-4a07-9367-b85db09a9230","system_id":"levelo_inurba_marseille","lat":43.30148,"lon":5.38088,"is_reserved":false,"is_disabled":false,"rental_uris":{"android":"levelo://app?vid=a6543e88-84b8-4a07-9367-b85db09a9230","ios":"levelo://app?vid=a6543e88-84b8-4a07-9367-b85db09a9230"},"vehicle_type_id":"4","last_reported":1748931363,"current_range_meters":24000,"station_id":"ce4bgjp2rcd13ifvqbh0","pricing_plan_id":"cebpf4jnsgd1na2vs0mg"},{"bike_id":"5a5ced86-ebf3-4152-8133-f5ec52257be4","system_id":"levelo_inurba_marseille","lat":43.29046,"lon":5.39956,"is_reserved":false,"is_disabled":false,"rental_uris":{"android":"levelo://app?vid=5a5ced86-ebf3-4152-8133-f5ec52257be4","ios":"levelo://app?vid=5a5ced86-ebf3-4152-8133-f5ec52257be4"},"vehicle_type_id":"4","last_reported":1748931363,"current_range_meters":24000,"station_id":"ce4bh392rcd13ifvqdm0","pricing_plan_id":"cebpf4jnsgd1na2vs0mg"},{"bike_id":"7943371a-f41c-4968-a2ef-4487711cfa8b","system_id":"levelo_inurba_marseille","lat":43.29573,"lon":5.375162,"is_reserved":false,"is_disabled":false,"rental_uris":{"android":"levelo://app?vid=7943371a-f41c-4968-a2ef-4487711cfa8b","ios":"levelo://app?vid=7943371a-f41c-4968-a2ef-4487711cfa8b"},"vehicle_type_id":"4","last_reported":1748931363,"current_range_meters":24000,"station_id":"ce4bgh92rcd13ifvqb50","pricing_plan_id":"cebpf4jnsgd1na2vs0mg"},{"bike_id":"42e5de30-2d32-429b-8b1d-e095ea273922","system_id":"levelo_inurba_marseille","lat":43.231891,"lon":5.399861,"is_reserved":false,"is_disabled":false,"rental_uris":{"android":"levelo://app?vid=42e5de30-2d32-429b-8b1d-e095ea273922","ios":"levelo://app?vid=42e5de30-2d32-429b-8b1d-e095ea273922"},"vehicle_type_id":"4","last_reported":1748931363,"current_range_meters":24000,"station_id":"ce4bhn12rcd13ifvqgqg","pricing_plan_id":"cebpf4jnsgd1na2vs0mg"},{"bike_id":"4cfb4491-f68a-4e65-b0cf-7ad8808dd605","system_id":"levelo_inurba_marseille","lat":43.31357,"lon":5.38497,"is_reserved":false,"is_disabled":false,"rental_uris":{"android":"levelo://app?vid=4cfb4491-f68a-4e65-b0cf-7ad8808dd605","ios":"levelo://app?vid=4cfb4491-f68a-4e65-b0cf-7ad8808dd605"},"vehicle_type_id":"4","last_reported":1748931363,"current_range_meters":23200,"station_id":"ce4bgt92rcd13ifvqcf0","pricing_plan_id":"cebpf4jnsgd1na2vs0mg"},{"bike_id":"fae425eb-5060-4112-b887-5d106318e417","system_id":"levelo_inurba_marseille","lat":43.26956,"lon":5.38637,"is_reserved":false,"is_disabled":false,"rental_uris":{"android":"levelo://app?vid=fae425eb-5060-4112-b887-5d106318e417","ios":"levelo://app?vid=fae425eb-5060-4112-b887-5d106318e417"},"vehicle_type_id":"4","last_reported":1748931363,"current_range_meters":24000,"station_id":"ce4bhh92rcd13ifvqfh0","pricing_plan_id":"cebpf4jnsgd1na2vs0mg"},{"bike_id":"eb9494f7-4470-4580-a1ff-810cdfe4a23c","system_id":"levelo_inurba_marseille","lat":43.30155,"lon":5.38066,"is_reserved":false,"is_disabled":false,"rental_uris":{"android":"levelo://app?vid=eb9494f7-4470-4580-a1ff-810cdfe4a23c","ios":"levelo://app?vid=eb9494f7-4470-4580-a1ff-810cdfe4a23c"},"vehicle_type_id":"4","last_reported":1748931363,"current_range_meters":24000,"station_id":"ce4bgjp2rcd13ifvqbh0","pricing_plan_id":"cebpf4jnsgd1na2vs0mg"},{"bike_id":"3599c5ae-f3b1-45fb-99a2-304e99bbbd96","system_id":"levelo_inurba_marseille","lat":43.24174,"lon":5.39749,"is_reserved":false,"is_disabled":false,"rental_uris":{"android":"levelo://app?vid=3599c5ae-f3b1-45fb-99a2-304e99bbbd96","ios":"levelo://app?vid=3599c5ae-f3b1-45fb-99a2-304e99bbbd96"},"vehicle_type_id":"4","last_reported":1748931363,"current_range_meters":24400,"station_id":"ce4bhn12rcd13ifvqgpg","pricing_plan_id":"cebpf4jnsgd1na2vs0mg"},{"bike_id":"2424d500-9de6-4e16-91f5-d00feabab210","system_id":"levelo_inurba_marseille","lat":43.3014,"lon":5.37417,"is_reserved":false,"is_disabled":false,"rental_uris":{"android":"levelo://app?vid=2424d500-9de6-4e16-91f5-d00feabab210","ios":"levelo://app?vid=2424d500-9de6-4e16-91f5-d00feabab210"},"vehicle_type_id":"4","last_reported":1748931363,"current_range_meters":24400,"station_id":"ce4bgs92rcd13ifvqcc0","pricing_plan_id":"cebpf4jnsgd1na2vs0mg"},{"bike_id":"d744a58b-a275-413b-84d3-12e226d5d113","system_id":"levelo_inurba_marseille","lat":43.28349,"lon":5.381127,"is_reserved":false,"is_disabled":false,"rental_uris":{"android":"levelo://app?vid=d744a58b-a275-413b-84d3-12e226d5d113","ios":"levelo://app?vid=d744a58b-a275-413b-84d3-12e226d5d113"},"vehicle_type_id":"4","last_reported":1748931363,"current_range_meters":24400,"station_id":"ce4bh412rcd13ifvqdr0","pricing_plan_id":"cebpf4jnsgd1na2vs0mg"},{"bike_id":"4201bd34-e310-4b2c-9b4b-dd3f8adabe23","system_id":"levelo_inurba_marseille","lat":43.31349,"lon":5.36731,"is_reserved":false,"is_disabled":false,"rental_uris":{"android":"levelo://app?vid=4201bd34-e310-4b2c-9b4b-dd3f8adabe23","ios":"levelo://app?vid=4201bd34-e310-4b2c-9b4b-dd3f8adabe23"},"vehicle_type_id":"4","last_reported":1748931363,"current_range_meters":24400,"station_id":"ce4bgr92rcd13ifvqc6g","pricing_plan_id":"cebpf4jnsgd1na2vs0mg"},{"bike_id":"b16fb123-3e17-4eac-9ac2-db33bf814ec5","system_id":"levelo_inurba_marseille","lat":43.29635,"lon":5.40598,"is_reserved":false,"is_disabled":false,"rental_uris":{"android":"levelo://app?vid=b16fb123-3e17-4eac-9ac2-db33bf814ec5","ios":"levelo://app?vid=b16fb123-3e17-4eac-9ac2-db33bf814ec5"},"vehicle_type_id":"4","last_reported":1748931363,"current_range_meters":24400,"station_id":"ce4bh0h2rcd13ifvqd60","pricing_plan_id":"cebpf4jnsgd1na2vs0mg"},{"bike_id":"d0fdedd1-b35a-4f5e-8ec9-d6705cafa5f8","system_id":"levelo_inurba_marseille","lat":43.30149,"lon":5.38087,"is_reserved":false,"is_disabled":false,"rental_uris":{"android":"levelo://app?vid=d0fdedd1-b35a-4f5e-8ec9-d6705cafa5f8","ios":"levelo://app?vid=d0fdedd1-b35a-4f5e-8ec9-d6705cafa5f8"},"vehicle_type_id":"4","last_reported":1748931363,"current_range_meters":24400,"station_id":"ce4bgjp2rcd13ifvqbh0","pricing_plan_id":"cebpf4jnsgd1na2vs0mg"},{"bike_id":"cf21ba45-189b-44fb-830c-c6a3baa4a0e9","system_id":"levelo_inurba_marseille","lat":43.30162,"lon":5.3809,"is_reserved":false,"is_disabled":false,"rental_uris":{"android":"levelo://app?vid=cf21ba45-189b-44fb-830c-c6a3baa4a0e9","ios":"levelo://app?vid=cf21ba45-189b-44fb-830c-c6a3baa4a0e9"},"vehicle_type_id":"4","last_reported":1748931363,"current_range_meters":24400,"station_id":"ce4bgjp2rcd13ifvqbh0","pricing_plan_id":"cebpf4jnsgd1na2vs0mg"},{"bike_id":"7ce8df54-300b-42f8-b27b-87c60f577b72","system_id":"levelo_inurba_marseille","lat":43.27949,"lon":5.41051,"is_reserved":false,"is_disabled":false,"rental_uris":{"android":"levelo://app?vid=7ce8df54-300b-42f8-b27b-87c60f577b72","ios":"levelo://app?vid=7ce8df54-300b-42f8-b27b-87c60f577b72"},"vehicle_type_id":"4","last_reported":1748931363,"current_range_meters":24400,"station_id":"ce4bhnp2rcd13ifvqh0g","pricing_plan_id":"cebpf4jnsgd1na2vs0mg"},