{"last_updated":1746356882,"ttl":60,"version":"2.2","data":{"bikes":[{"bike_id":"809bed10-4535-4849-82b6-9eb9b3abb1f1","system_id":"levelo_inurba_marseille","lat":43.31197,"lon":5.38447,"is_reserved":false,"is_disabled":true,"rental_uris":{"android":"levelo://app?vid=809bed10-4535-4849-82b6-9eb9b3abb1f1","ios":"levelo://app?vid=809bed10-4535-4849-82b6-9eb9b3abb1f1"},"vehicle_type_id":"4","last_reported":1746356882,"current_range_meters":0,"station_id":"","pricing_plan_id":"cebpf4jnsgd1na2vs0mg"},{"bike_id":"2d87f24b-bb92-4f5a-9c64-611905425c8d","system_id":"levelo_inurba_marseille","lat":43.23667,"lon":5.39143,"is_reserved":false,"is_disabled":true,"rental_uris":{"android":"levelo://app?vid=2d87f24b-bb92-4f5a-9c64-611905425c8d","ios":"levelo://app?vid=2d87f24b-bb92-4f5a-9c64-611905425c8d"},"vehicle_type_id":"4","last_reported":1746356882,"current_range_meters":0,"station_id":"","pricing_plan_id":"cebpf4jnsgd1na2vs0mg"},{"bike_id":"f35a4c3e-288c-46e6-a156-ce98b822e31c","system_id":"levelo_inurba_marseille","lat":43.26597,"lon":5.39386,"is_reserved":false,"is_disabled":true,"rental_uris":{"android":"levelo://app?vid=f35a4c3e-288c-46e6-a156-ce98b822e31c","ios":"levelo://app?vid=f35a4c3e-288c-46e6-a156-ce98b822e31c"},"vehicle_type_id":"4","last_reported":1746356882,"current_range_meters":0,"station_id":"","pricing_plan_id":"cebpf4jnsgd1na2vs0mg"},{"bike_id":"7f770ba9-2e48-47c9-8bb4-942855273bad","system_id":"levelo_inurba_marseille","lat":43.25323,"lon":5.42402,"is_reserved":false,"is_disabled":true,"rental_uris":{"android":"levelo://app?vid=7f770ba9-2e48-47c9-8bb4-942855273bad","ios":"levelo://app?vid=7f770ba9-2e48-47c9-8bb4-942855273bad"},"vehicle_type_id":"4","last_reported":1746356882,"current_range_meters":0,"station_id":"","pricing_plan_id":"cebpf4jnsgd1na2vs0mg"},{"bike_id":"f73daf93-45c7-48c0-a61a-2d28ac89db8d","system_id":"levelo_inurba_marseille","lat":43.33897,"lon":5.42043,"is_reserved":false,"is_disabled":true,"rental_uris":{"android":"levelo://app?vid=f73daf93-45c7-48c0-a61a-2d28ac89db8d","ios":"levelo://app?vid=f73daf93-45c7-48c0-a61a-2d28ac89db8d"},"vehicle_type_id":"4","last_reported":1746356882,"current_range_meters":0,"station_id":"","pricing_plan_id":"cebpf4jnsgd1na2vs0mg"},{"bike_id":"e93b949e-1738-47f2-ad13-8f512df2ffaf","system_id":"levelo_inurba_marseille","lat":43.2815,"lon":5.443461,"is_reserved":false,"is_disabled":true,"rental_uris":{"android":"levelo://app?vid=e93b949e-1738-47f2-ad13-8f512df2ffaf","ios":"levelo://app?vid=e93b949e-1738-47f2-ad13-8f512df2ffaf"},"vehicle_type_id":"4","last_reported":1746356882,"current_range_meters":0,"station_id":"","pricing_plan_id":"cebpf4jnsgd1na2vs0mg"},{"bike_id":"d0f01e57-c562-4cff-80ae-dc7840ab6979","system_id":"levelo_inurba_marseille","lat":43.24664,"lon":5.38165,"is_reserved":false,"is_disabled":true,"rental_uris":{"android":"levelo://app?vid=d0f01e57-c562-4cff-80ae-dc7840ab6979","ios":"levelo://app?vid=d0f01e57-c562-4cff-80ae-dc7840ab6979"},"vehicle_type_id":"4","last_reported":1746356882,"current_range_meters":0,"station_id":"ce4bhih2rcd13ifvqfr0","pricing_plan_id":"cebpf4jnsgd1na2vs0mg"},{"bike_id":"fc957e4a-6d17-4a74-87c3-72c3cf5ce821","system_id":"levelo_inurba_marseille","lat":43.30735,"lon":5.42432,"is_reserved":false,"is_disabled":true,"rental_uris":{"android":"levelo://app?vid=fc957e4a-6d17-4a74-87c3-72c3cf5ce821","ios":"levelo://app?vid=fc957e4a-6d17-4a74-87c3-72c3cf5ce821"},"vehicle_type_id":"4","last_reported":1746356882,"current_range_meters":0,"station_id":"st_cvj6ca6bvosntc0bfgr0","pricing_plan_id":"cebpf4jnsgd1na2vs0mg"},{"bike_id":"75c35565-89f3-4f92-b3b3-af9134ea6aba","system_id":"levelo_inurba_marseille","lat":43.30733,"lon":5.42437,"is_reserved":false,"is_disabled":true,"rental_uris":{"android":"levelo://app?vid=75c35565-89f3-4f92-b3b3-af9134ea6aba","ios":"levelo://app?vid=75c35565-89f3-4f92-b3b3-af9134ea6aba"},"vehicle_type_id":"4","last_reported":1746356882,"current_range_meters":0,"station_id":"st_cvj6ca6bvosntc0bfgr0","pricing_plan_id":"cebpf4jnsgd1na2vs0mg"},{"bike_id":"76ac05ef-1669-431f-8e4e-859fda4a5835","system_id":"levelo_inurba_marseille","lat":43.298662,"lon":5.397349,"is_reserved":false,"is_disabled":true,"rental_uris":{"android":"levelo://app?vid=76ac05ef-1669-431f-8e4e-859fda4a5835","ios":"levelo://app?vid=76ac05ef-1669-431f-8e4e-859fda4a5835"},"vehicle_type_id":"4","last_reported":1746356882,"current_range_meters":400,"station_id":"ce4bh0h2rcd13ifvqd50","pricing_plan_id":"cebpf4jnsgd1na2vs0mg"},{"bike_id":"20a0161f-8c97-41c6-b725-2c48f8bc5d22","system_id":"levelo_inurba_marseille","lat":43.33039,"lon":5.39474,"is_reserved":false,"is_disabled":true,"rental_uris":{"android":"levelo://app?vid=20a0161f-8c97-41c6-b725-2c48f8bc5d22","ios":"levelo://app?vid=20a0161f-8c97-41c6-b725-2c48f8bc5d22"},"vehicle_type_id":"4","last_reported":1746356882,"current_range_meters":2000,"station_id":"","pricing_plan_id":"cebpf4jnsgd1na2vs0mg"},{"bike_id":"8e4f50c9-7f20-45ac-96a1-03cdfb6c0732","system_id":"levelo_inurba_marseille","lat":43.31493,"lon":5.37307,"is_reserved":false,"is_disabled":true,"rental_uris":{"android":"levelo://app?vid=8e4f50c9-7f20-45ac-96a1-03cdfb6c0732","ios":"levelo://app?vid=8e4f50c9-7f20-45ac-96a1-03cdfb6c0732"},"vehicle_type_id":"4","last_reported":1746356882,"current_range_meters":2000,"station_id":"ce4bgt12rcd13ifvqcd0","pricing_plan_id":"cebpf4jnsgd1na2vs0mg"},{"bike_id":"1af31942-8dd1-404d-a49d-dd08b8a8fb80","system_id":"levelo_inurba_marseille","lat":43.292229,"lon":5.362061,"is_reserved":false,"is_disabled":false,"rental_uris":{"android":"levelo://app?vid=1af31942-8dd1-404d-a49d-dd08b8a8fb80","ios":"levelo://app?vid=1af31942-8dd1-404d-a49d-dd08b8a8fb80"},"vehicle_type_id":"4","last_reported":1746356882,"current_range_meters":2800,"station_id":"ce4bhb12rcd13ifvqel0","pricing_plan_id":"cebpf4jnsgd1na2vs0mg"},{"bike_id":"ac6f2495-f8df-472d-8a4f-759fc2e56a5c","system_id":"levelo_inurba_marseille","lat":43.299408,"lon":5.365551,"is_reserved":false,"is_disabled":false,"rental_uris":{"android":"levelo://app?vid=ac6f2495-f8df-472d-8a4f-759fc2e56a5c","ios":"levelo://app?vid=ac6f2495-f8df-472d-8a4f-759fc2e56a5c"},"vehicle_type_id":"4","last_reported":1746356882,"current_range_meters":4000,"station_id":"ce4bgm92rcd13ifvqbr0","pricing_plan_id":"cebpf4jnsgd1na2vs0mg"},{"bike_id":"570b486c-50df-4f1f-97df-caa86c0d419e","system_id":"levelo_inurba_marseille","lat":43.33682,"lon":5.35583,"is_reserved":false,"is_disabled":false,"rental_uris":{"android":"levelo://app?vid=570b486c-50df-4f1f-97df-caa86c0d419e","ios":"levelo://app?vid=570b486c-50df-4f1f-97df-caa86c0d419e"},"vehicle_type_id":"4","last_reported":1746356882,"current_range_meters":4800,"station_id":"","pricing_plan_id":"cebpf4jnsgd1na2vs0mg"},{"bike_id":"909825d5-7ad2-409e-b0de-cec7d5b4fa06","system_id":"levelo_inurba_marseille","lat":43.242125,"lon":5.367437,"is_reserved":false,"is_disabled":false,"rental_uris":{"android":"levelo://app?vid=909825d5-7ad2-409e-b0de-cec7d5b4fa06","ios":"levelo://app?vid=909825d5-7ad2-409e-b0de-cec7d5b4fa06"},"vehicle_type_id":"4","last_reported":1746356882,"current_range_meters":5600,"station_id":"","pricing_plan_id":"cebpf4jnsgd1na2vs0mg"},{"bike_id":"be56c2fa-f4bb-46a5-85a5-73c3cee79d7a","system_id":"levelo_inurba_marseille","lat":43.30795,"lon":5.37641,"is_reserved":false,"is_disabled":false,"rental_uris":{"android":"levelo://app?vid=be56c2fa-f4bb-46a5-85a5-73c3cee79d7a","ios":"levelo://app?vid=be56c2fa-f4bb-46a5-85a5-73c3cee79d7a"},"vehicle_type_id":"4","last_reported":1746356882,"current_range_meters":5600,"station_id":"ce4bgv92rcd13ifvqcq0","pricing_plan_id":"cebpf4jnsgd1na2vs0mg"},{"bike_id":"ada8ab0f-1b01-4903-a3dc-5bc2eb40022b","system_id":"levelo_inurba_marseille","lat":43.273742,"lon":5.362542,"is_reserved":false,"is_disabled":false,"rental_uris":{"android":"levelo://app?vid=ada8ab0f-1b01-4903-a3dc-5bc2eb40022b","ios":"levelo://app?vid=ada8ab0f-1b01-4903-a3dc-5bc2eb40022b"},"vehicle_type_id":"4","last_reported":1746356882,"current_range_meters":5600,"station_id":"ce4bhbh2rcd13ifvqeo0","pricing_plan_id":"cebpf4jnsgd1na2vs0mg"},{"bike_id":"f07cfc50-1350-4568-9581-0845ede0b590","system_id":"levelo_inurba_marseille","lat":43.270603,"lon":5.422877,"is_reserved":false,"is_disabled":false,"rental_uris":{"android":"levelo://app?vid=f07cfc50-1350-4568-9581-0845ede0b590","ios":"levelo://app?vid=f07cfc50-1350-4568-9581-0845ede0b590"},"vehicle_type_id":"4","last_reported":1746356882,"current_range_meters":5600,"station_id":"ce4bhk92rcd13ifvqgb0","pricing_plan_id":"cebpf4jnsgd1na2vs0mg"},{"bike_id":"30b7deb3-32d7-4a42-bd74-02cda590ed23","system_id":"levelo_inurba_marseille","lat":43.28723,"lon":5.36097,"is_reserved":false,"is_disabled":false,"rental_uris":{"android":"levelo://app?vid=30b7deb3-32d7-4a42-bd74-02cda590ed23","ios":"levelo://app?vid=30b7deb3-32d7-4a42-bd74-02cda590ed23"},"vehicle_type_id":"4","last_reported":1746356882,"current_range_meters":5600,"station_id":"cki0cbj6b192h4jlfktg","pricing_plan_id":"cebpf4jnsgd1na2vs0mg"},{"bike_id":"7e8b4492-7dc0-43fb-b6f2-d7973fe6788d","system_id":"levelo_inurba_marseille","lat":43.30633,"lon":5.40094,"is_reserved":false,"is_disabled":false,"rental_uris":{"android":"levelo://app?vid=7e8b4492-7dc0-43fb-b6f2-d7973fe6788d","ios":"levelo://app?vid=7e8b4492-7dc0-43fb-b6f2-d7973fe6788d"},"vehicle_type_id":"4","last_reported":1746356882,"current_range_meters":6000,"station_id":"ce4bh112rcd13ifvqda0","pricing_plan_id":"cebpf4jnsgd1na2vs0mg"},{"bike_id":"e27ce41e-d31e-4411-a762-387f29d91877","system_id":"levelo_inurba_marseille","lat":43.295563,"lon":5.422823,"is_reserved":false,"is_disabled":false,"rental_uris":{"android":"levelo://app?vid=e27ce41e-d31e-4411-a762-387f29d91877","ios":"levelo://app?vid=e27ce41e-d31e-4411-a762-387f29d91877"},"vehicle_type_id":"4","last_reported":1746356882,"current_range_meters":6000,"station_id":"ce4bhph2rcd13ifvqhdg","pricing_plan_id":"cebpf4jnsgd1na2vs0mg"},{"bike_id":"39d83911-e17e-4776-b8f2-6450602c8696","system_id":"levelo_inurba_marseille","lat":43.298993,"lon":5.436568,"is_reserved":false,"is_disabled":false,"rental_uris":{"android":"levelo://app?vid=39d83911-e17e-4776-b8f2-6450602c8696","ios":"levelo://app?vid=39d83911-e17e-4776-b8f2-6450602c8696"},"vehicle_type_id":"4","last_reported":1746356882,"current_range_meters":6000,"station_id":"ce4bhpp2rcd13ifvqhfg","pricing_plan_id":"cebpf4jnsgd1na2vs0mg"},{"bike_id":"9335e2a2-6067-40ca-82f2-3d4abb635226","system_id":"levelo_inurba_marseille","lat":43.31525,"lon":5.38046,"is_reserved":false,"is_disabled":false,"rental_uris":{"android":"levelo://app?vid=9335e2a2-6067-40ca-82f2-3d4abb635226","ios":"levelo://app?vid=9335e2a2-6067-40ca-82f2-3d4abb635226"},"vehicle_type_id":"4","last_reported":1746356882,"current_range_meters":6000,"station_id":"ce4bhsp2rcd13ifvqi50","pricing_plan_id":"cebpf4jnsgd1na2vs0mg"},{"bike_id":"db48040b-b5e9-4635-9aac-2ba875396005","system_id":"levelo_inurba_marseille","lat":43.29193,"lon":5.35781,"is_reserved":false,"is_disabled":false,"rental_uris":{"android":"levelo://app?vid=db48040b-b5e9-4635-9aac-2ba875396005","ios":"levelo://app?vid=db48040b-b5e9-4635-9aac-2ba875396005"},"vehicle_type_id":"4","last_reported":1746356882,"current_range_meters":6400,"station_id":"ce4bhb12rcd13ifvqel0","pricing_plan_id":"cebpf4jnsgd1na2vs0mg"},{"bike_id":"6012e73f-a97d-4080-8451-31be47c04cb3","system_id":"levelo_inurba_marseille","lat":43.241601,"lon":5.39721,"is_reserved":false,"is_disabled":false,"rental_uris":{"android":"levelo://app?vid=6012e73f-a97d-4080-8451-31be47c04cb3","ios":"levelo://app?vid=6012e73f-a97d-4080-8451-31be47c04cb3"},"vehicle_type_id":"4","last_reported":1746356882,"current_range_meters":6400,"station_id":"ce4bhn12rcd13ifvqgpg","pricing_plan_id":"cebpf4jnsgd1na2vs0mg"},{"bike_id":"125ca05d-5a4c-4327-ae64-e200198cedf3","system_id":"levelo_inurba_marseille","lat":43.29557,"lon":5.4228,"is_reserved":false,"is_disabled":false,"rental_uris":{"android":"levelo://app?vid=125ca05d-5a4c-4327-ae64-e200198cedf3","ios":"levelo://app?vid=125ca05d-5a4c-4327-ae64-e200198cedf3"},"vehicle_type_id":"4","last_reported":1746356882,"current_range_meters":6400,"station_id":"ce4bhph2rcd13ifvqhdg","pricing_plan_id":"cebpf4jnsgd1na2vs0mg"},{"bike_id":"b7351ae1-b7b6-4733-8649-24bbbdfba4ca","system_id":"levelo_inurba_marseille","lat":43.21757,"lon":5.34588,"is_reserved":false,"is_disabled":false,"rental_uris":{"android":"levelo://app?vid=b7351ae1-b7b6-4733-8649-24bbbdfba4ca","ios":"levelo://app?vid=b7351ae1-b7b6-4733-8649-24bbbdfba4ca"},"vehicle_type_id":"4","last_reported":1746356882,"current_range_meters":6400,"station_id":"st_cvj6r9ubvosntc0bgbag","pricing_plan_id":"cebpf4jnsgd1na2vs0mg"},{"bike_id":"dfb3396e-96f5-457c-af11-f6f27dad33e9","system_id":"levelo_inurba_marseille","lat":43.27194,"lon":5.36468,"is_reserved":false,"is_disabled":false,"rental_uris":{"android":"levelo://app?vid=dfb3396e-96f5-457c-af11-f6f27dad33e9","ios":"levelo://app?vid=dfb3396e-96f5-457c-af11-f6f27dad33e9"},"vehicle_type_id":"4","last_reported":1746356882,"current_range_meters":6800,"station_id":"","pricing_plan_id":"cebpf4jnsgd1na2vs0mg"},{"bike_id":"fefd08ec-5881-4aed-9781-2a8173dd5fb9","system_id":"levelo_inurba_marseille","lat":43.2943,"lon":5.38253,"is_reserved":false,"is_disabled":false,"rental_uris":{"android":"levelo://app?vid=fefd08ec-5881-4aed-9781-2a8173dd5fb9","ios":"levelo://app?vid=fefd08ec-5881-4aed-9781-2a8173dd5fb9"},"vehicle_type_id":"4","last_reported":1746356882,"current_range_meters":6800,"station_id":"","pricing_plan_id":"cebpf4jnsgd1na2vs0mg"},{"bike_id":"c7aa89ab-4ad4-43c3-8922-64efdcec08e4","system_id":"levelo_inurba_marseille","lat":43.30319,"lon":5.40437,"is_reserved":false,"is_disabled":false,"rental_uris":{"android":"levelo://app?vid=c7aa89ab-4ad4-43c3-8922-64efdcec08e4","ios":"levelo://app?vid=c7aa89ab-4ad4-43c3-8922-64efdcec08e4"},"vehicle_type_id":"4","last_reported":1746356882,"current_range_meters":6800,"station_id":"ce4bh012rcd13ifvqd10","pricing_plan_id":"cebpf4jnsgd1na2vs0mg"},{"bike_id":"6bcb6bbd-6faf-4695-b734-9958f31ebb04","system_id":"levelo_inurba_marseille","lat":43.255,"lon":5.37649,"is_reserved":false,"is_disabled":false,"rental_uris":{"android":"levelo://app?vid=6bcb6bbd-6faf-4695-b734-9958f31ebb04","ios":"levelo://app?vid=6bcb6bbd-6faf-4695-b734-9958f31ebb04"},"vehicle_type_id":"4","last_reported":1746356882,"current_range_meters":6800,"station_id":"ce4bhh12rcd13ifvqff0","pricing_plan_id":"cebpf4jnsgd1na2vs0mg"},{"bike_id":"8df37787-a611-4ce6-9e65-032cb168f59b","system_id":"levelo_inurba_marseille","lat":43.2119,"lon":5.3506,"is_reserved":false,"is_disabled":false,"rental_uris":{"android":"levelo://app?vid=8df37787-a611-4ce6-9e65-032cb168f59b","ios":"levelo://app?vid=8df37787-a611-4ce6-9e65-032cb168f59b"},"vehicle_type_id":"4","last_reported":1746356882,"current_range_meters":6800,"station_id":"st_cvj6sg6p6f1abm77japg","pricing_plan_id":"cebpf4jnsgd1na2vs0mg"},{"bike_id":"8df6e310-0880-40a9-a691-cd475dfa3928","system_id":"levelo_inurba_marseille","lat":43.285883,"lon":5.442508,"is_reserved":false,"is_disabled":false,"rental_uris":{"android":"levelo://app?vid=8df6e310-0880-40a9-a691-cd475dfa3928","ios":"levelo://app?vid=8df6e310-0880-40a9-a691-cd475dfa3928"},"vehicle_type_id":"4","last_reported":1746356882,"current_range_meters":7200,"station_id":"","pricing_plan_id":"cebpf4jnsgd1na2vs0mg"},{"bike_id":"00994891-9a5a-43ad-a250-b927fbe68320","system_id":"levelo_inurba_marseille","lat":43.295226,"lon":5.39036,"is_reserved":false,"is_disabled":false,"rental_uris":{"android":"levelo://app?vid=00994891-9a5a-43ad-a250-b927fbe68320","ios":"levelo://app?vid=00994891-9a5a-43ad-a250-b927fbe68320"},"vehicle_type_id":"4","last_reported":1746356882,"current_range_meters":7200,"station_id":"ce4bh3p2rcd13ifvqdp0","pricing_plan_id":"cebpf4jnsgd1na2vs0mg"},{"bike_id":"f1ffd2b9-91e9-4bf5-a319-6e95940b0de6","system_id":"levelo_inurba_marseille","lat":43.29564,"lon":5.42285,"is_reserved":false,"is_disabled":false,"rental_uris":{"android":"levelo://app?vid=f1ffd2b9-91e9-4bf5-a319-6e95940b0de6","ios":"levelo://app?vid=f1ffd2b9-91e9-4bf5-a319-6e95940b0de6"},"vehicle_type_id":"4","last_reported":1746356882,"current_range_meters":7200,"station_id":"ce4bhph2rcd13ifvqhdg","pricing_plan_id":"cebpf4jnsgd1na2vs0mg"},{"bike_id":"b10901bc-afb6-4657-8344-f1f4848ffd7a","system_id":"levelo_inurba_marseille","lat":43.31881,"lon":5.40732,"is_reserved":false,"is_disabled":false,"rental_uris":{"android":"levelo://app?vid=b10901bc-afb6-4657-8344-f1f4848ffd7a","ios":"levelo://app?vid=b10901bc-afb6-4657-8344-f1f4848ffd7a"},"vehicle_type_id":"4","last_reported":1746356882,"current_range_meters":7200,"station_id":"ce4bhq12rcd13ifvqhig","pricing_plan_id":"cebpf4jnsgd1na2vs0mg"},{"bike_id":"d51bd1f8-5797-40a8-8b2d-1b322c3a66a4","system_id":"levelo_inurba_marseille","lat":43.30912,"lon":5.40183,"is_reserved":false,"is_disabled":false,"rental_uris":{"android":"levelo://app?vid=d51bd1f8-5797-40a8-8b2d-1b322c3a66a4","ios":"levelo://app?vid=d51bd1f8-5797-40a8-8b2d-1b322c3a66a4"},"vehicle_type_id":"4","last_reported":1746356882,"current_range_meters":8000,"station_id":"ce4bgvp2rcd13ifvqct0","pricing_plan_id":"cebpf4jnsgd1na2vs0mg"},{"bike_id":"6ae9068b-8534-47e2-832a-cb0e5255371d","system_id":"levelo_inurba_marseille","lat":43.337444,"lon":5.374475,"is_reserved":false,"is_disabled":false,"rental_uris":{"android":"levelo://app?vid=6ae9068b-8534-47e2-832a-cb0e5255371d","ios":"levelo://app?vid=6ae9068b-8534-47e2-832a-cb0e5255371d"},"vehicle_type_id":"4","last_reported":1746356882,"current_range_meters":8000,"station_id":"ce4bgvp2rcd13ifvqct0","pricing_plan_id":"cebpf4jnsgd1na2vs0mg"},{"bike_id":"cbc558b0-1325-4271-87e9-d3691f712e35","system_id":"levelo_inurba_marseille","lat":43.27375,"lon":5.36256,"is_reserved":false,"is_disabled":false,"rental_uris":{"android":"levelo://app?vid=cbc558b0-1325-4271-87e9-d3691f712e35","ios":"levelo://app?vid=cbc558b0-1325-4271-87e9-d3691f712e35"},"vehicle_type_id":"4","last_reported":1746356882,"current_range_meters":8000,"station_id":"ce4bhbh2rcd13ifvqeo0","pricing_plan_id":"cebpf4jnsgd1na2vs0mg"},{"bike_id":"915ddb17-6c84-4fcb-ac3e-3e669d21d04d","system_id":"levelo_inurba_marseille","lat":43.29277,"lon":5.36847,"is_reserved":false,"is_disabled":false,"rental_uris":{"android":"levelo://app?vid=915ddb17-6c84-4fcb-ac3e-3e669d21d04d","ios":"levelo://app?vid=915ddb17-6c84-4fcb-ac3e-3e669d21d04d"},"vehicle_type_id":"4","last_reported":1746356882,"current_range_meters":8000,"station_id":"ce4bhbp2rcd13ifvqesg","pricing_plan_id":"cebpf4jnsgd1na2vs0mg"},{"bike_id":"ee6fc684-f760-429d-b603-077f5f37f4bb","system_id":"levelo_inurba_marseille","lat":43.24392,"lon":5.37048,"is_reserved":false,"is_disabled":false,"rental_uris":{"android":"levelo://app?vid=ee6fc684-f760-429d-b603-077f5f37f4bb","ios":"levelo://app?vid=ee6fc684-f760-429d-b603-077f5f37f4bb"},"vehicle_type_id":"4","last_reported":1746356882,"current_range_meters":8000,"station_id":"ce4bhhh2rcd13ifvqfk0","pricing_plan_id":"cebpf4jnsgd1na2vs0mg"},{"bike_id":"f0259f55-382d-4317-a5a3-c63365a0d76b","system_id":"levelo_inurba_marseille","lat":43.2553,"lon":5.41793,"is_reserved":false,"is_disabled":false,"rental_uris":{"android":"levelo://app?vid=f0259f55-382d-4317-a5a3-c63365a0d76b","ios":"levelo://app?vid=f0259f55-382d-4317-a5a3-c63365a0d76b"},"vehicle_type_id":"4","last_reported":1746356882,"current_range_meters":8400,"station_id":"","pricing_plan_id":"cebpf4jnsgd1na2vs0mg"},{"bike_id":"2921fea0-d8ee-4321-be6d-99bb173541dc","system_id":"levelo_inurba_marseille","lat":43.26679,"lon":5.38267,"is_reserved":false,"is_disabled":false,"rental_uris":{"android":"levelo://app?vid=2921fea0-d8ee-4321-be6d-99bb173541dc","ios":"levelo://app?vid=2921fea0-d8ee-4321-be6d-99bb173541dc"},"vehicle_type_id":"4","last_reported":1746356882,"current_range_meters":8400,"station_id":"ce4bhg92rcd13ifvqf90","pricing_plan_id":"cebpf4jnsgd1na2vs0mg"},{"bike_id":"8e84c543-c0b8-43f4-b752-e63ad30beb02","system_id":"levelo_inurba_marseille","lat":43.25498,"lon":5.37648,"is_reserved":false,"is_disabled":false,"rental_uris":{"android":"levelo://app?vid=8e84c543-c0b8-43f4-b752-e63ad30beb02","ios":"levelo://app?vid=8e84c543-c0b8-43f4-b752-e63ad30beb02"},"vehicle_type_id":"4","last_reported":1746356882,"current_range_meters":8400,"station_id":"ce4bhh12rcd13ifvqff0","pricing_plan_id":"cebpf4jnsgd1na2vs0mg"},{"bike_id":"b3ec1ae6-1721-4e5a-b353-80ce65b37b11","system_id":"levelo_inurba_marseille","lat":43.28616,"lon":5.35105,"is_reserved":false,"is_disabled":false,"rental_uris":{"android":"levelo://app?vid=b3ec1ae6-1721-4e5a-b353-80ce65b37b11","ios":"levelo://app?vid=b3ec1ae6-1721-4e5a-b353-80ce65b37b11"},"vehicle_type_id":"4","last_reported":1746356882,"current_range_meters":8800,"station_id":"ce4bhch2rcd13ifvqeug","pricing_plan_id":"cebpf4jnsgd1na2vs0mg"},{"bike_id":"4d9c785a-6a14-4f60-8bcb-eb74d56c9262","system_id":"levelo_inurba_marseille","lat":43.27078,"lon":5.42269,"is_reserved":false,"is_disabled":false,"rental_uris":{"android":"levelo://app?vid=4d9c785a-6a14-4f60-8bcb-eb74d56c9262","ios":"levelo://app?vid=4d9c785a-6a14-4f60-8bcb-eb74d56c9262"},"vehicle_type_id":"4","last_reported":1746356882,"current_range_meters":8800,"station_id":"ce4bhk92rcd13ifvqgb0","pricing_plan_id":"cebpf4jnsgd1na2vs0mg"},{"bike_id":"2f2e2422-0ca9-4635-8561-f770e540dc91","system_id":"levelo_inurba_marseille","lat":43.29782,"lon":5.37033,"is_reserved":false,"is_disabled":false,"rental_uris":{"android":"levelo://app?vid=2f2e2422-0ca9-4635-8561-f770e540dc91","ios":"levelo://app?vid=2f2e2422-0ca9-4635-8561-f770e540dc91"},"vehicle_type_id":"4","last_reported":1746356882,"current_range_meters":9200,"station_id":"","pricing_plan_id":"cebpf4jnsgd1na2vs0mg"},{"bike_id":"c2c5beff-ec8e-48ee-825a-e3cdf2e54b49","system_id":"levelo_inurba_marseille","lat":43.29189,"lon":5.40058,"is_reserved":false,"is_disabled":false,"rental_uris":{"android":"levelo://app?vid=c2c5beff-ec8e-48ee-825a-e3cdf2e54b49","ios":"levelo://app?vid=c2c5beff-ec8e-48ee-825a-e3cdf2e54b49"},"vehicle_type_id":"4","last_reported":1746356882,"current_range_meters":9600,"station_id":"","pricing_plan_id":"cebpf4jnsgd1na2vs0mg"},{"bike_id":"984809b1-26e3-4e07-858f-601632d2c526","system_id":"levelo_inurba_marseille","lat":43.30116,"lon":5.39851,"is_reserved":false,"is_disabled":false,"rental_uris":{"android":"levelo://app?vid=984809b1-26e3-4e07-858f-601632d2c526","ios":"levelo://app?vid=984809b1-26e3-4e07-858f-601632d2c526"},"vehicle_type_id":"4","last_reported":1746356882,"current_range_meters":9600,"station_id":"ce4bh0h2rcd13ifvqd40","pricing_plan_id":"cebpf4jnsgd1na2vs0mg"},{"bike_id":"e4856e11-0139-477e-a022-4b979369719b","system_id":"levelo_inurba_marseille","lat":43.23964,"lon":5.36639,"is_reserved":false,"is_disabled":false,"rental_uris":{"android":"levelo://app?vid=e4856e11-0139-477e-a022-4b979369719b","ios":"levelo://app?vid=e4856e11-0139-477e-a022-4b979369719b"},"vehicle_type_id":"4","last_reported":1746356882,"current_range_meters":9600,"station_id":"ce4bhi12rcd13ifvqfp0","pricing_plan_id":"cebpf4jnsgd1na2vs0mg"},{"bike_id":"ca7a629c-6dce-47e8-8b04-8b57930ea53a","system_id":"levelo_inurba_marseille","lat":43.24179,"lon":5.39711,"is_reserved":false,"is_disabled":false,"rental_uris":{"android":"levelo://app?vid=ca7a629c-6dce-47e8-8b04-8b57930ea53a","ios":"levelo://app?vid=ca7a629c-6dce-47e8-8b04-8b57930ea53a"},"vehicle_type_id":"4","last_reported":1746356882,"current_range_meters":9600,"station_id":"ce4bhn12rcd13ifvqgpg","pricing_plan_id":"cebpf4jnsgd1na2vs0mg"},{"bike_id":"fd2c3c67-23a6-4380-b7ca-8f23c8f78921","system_id":"levelo_inurba_marseille","lat":43.323589,"lon":5.367431,"is_reserved":false,"is_disabled":false,"rental_uris":{"android":"levelo://app?vid=fd2c3c67-23a6-4380-b7ca-8f23c8f78921","ios":"levelo://app?vid=fd2c3c67-23a6-4380-b7ca-8f23c8f78921"},"vehicle_type_id":"4","last_reported":1746356882,"current_range_meters":9600,"station_id":"ce4bhsh2rcd13ifvqi2g","pricing_plan_id":"cebpf4jnsgd1na2vs0mg"},{"bike_id":"7c9f302f-84ec-4062-ae0c-5788a6786ad9","system_id":"levelo_inurba_marseille","lat":43.21745,"lon":5.34604,"is_reserved":false,"is_disabled":false,"rental_uris":{"android":"levelo://app?vid=7c9f302f-84ec-4062-ae0c-5788a6786ad9","ios":"levelo://app?vid=7c9f302f-84ec-4062-ae0c-5788a6786ad9"},"vehicle_type_id":"4","last_reported":1746356882,"current_range_meters":9600,"station_id":"st_cvj6r9ubvosntc0bgbag","pricing_plan_id":"cebpf4jnsgd1na2vs0mg"},{"bike_id":"6338e318-2f80-4349-ae11-615c887b4fb9","system_id":"levelo_inurba_marseille","lat":43.25936,"lon":5.40889,"is_reserved":false,"is_disabled":false,"rental_uris":{"android":"levelo://app?vid=6338e318-2f80-4349-ae11-615c887b4fb9","ios":"levelo://app?vid=6338e318-2f80-4349-ae11-615c887b4fb9"},"vehicle_type_id":"4","last_reported":1746356882,"current_range_meters":10000,"station_id":"ce4bhm92rcd13ifvqglg","pricing_plan_id":"cebpf4jnsgd1na2vs0mg"},{"bike_id":"d55c8237-2304-4efd-993e-dc727f0f1b6a","system_id":"levelo_inurba_marseille","lat":43.22531,"lon":5.34768,"is_reserved":false,"is_disabled":false,"rental_uris":{"android":"levelo://app?vid=d55c8237-2304-4efd-993e-dc727f0f1b6a","ios":"levelo://app?vid=d55c8237-2304-4efd-993e-dc727f0f1b6a"},"vehicle_type_id":"4","last_reported":1746356882,"current_range_meters":10000,"station_id":"st_cvj5dfep6f1abm77gieg","pricing_plan_id":"cebpf4jnsgd1na2vs0mg"},{"bike_id":"aedf206f-89f3-4f30-9da6-56fb7ff8915b","system_id":"levelo_inurba_marseille","lat":43.281227,"lon":5.403947,"is_reserved":false,"is_disabled":false,"rental_uris":{"android":"levelo://app?vid=aedf206f-89f3-4f30-9da6-56fb7ff8915b","ios":"levelo://app?vid=aedf206f-89f3-4f30-9da6-56fb7ff8915b"},"vehicle_type_id":"4","last_reported":1746356882,"current_range_meters":10800,"station_id":"","pricing_plan_id":"cebpf4jnsgd1na2vs0mg"},{"bike_id":"4badb9b6-3851-4c8c-a36e-7c02f91ea1d9","system_id":"levelo_inurba_marseille","lat":43.21195,"lon":5.35069,"is_reserved":false,"is_disabled":false,"rental_uris":{"android":"levelo://app?vid=4badb9b6-3851-4c8c-a36e-7c02f91ea1d9","ios":"levelo://app?vid=4badb9b6-3851-4c8c-a36e-7c02f91ea1d9"},"vehicle_type_id":"4","last_reported":1746356882,"current_range_meters":10800,"station_id":"st_cvj6sg6p6f1abm77japg","pricing_plan_id":"cebpf4jnsgd1na2vs0mg"},{"bike_id":"222301c9-6d4d-4992-a50b-2c976e60312f","system_id":"levelo_inurba_marseille","lat":43.27375,"lon":5.36256,"is_reserved":false,"is_disabled":false,"rental_uris":{"android":"levelo://app?vid=222301c9-6d4d-4992-a50b-2c976e60312f","ios":"levelo://app?vid=222301c9-6d4d-4992-a50b-2c976e60312f"},"vehicle_type_id":"4","last_reported":1746356882,"current_range_meters":11200,"station_id":"ce4bhbh2rcd13ifvqeo0","pricing_plan_id":"cebpf4jnsgd1na2vs0mg"},{"bike_id":"8ab161c9-cb12-4a06-82bf-18017f59d37b","system_id":"levelo_inurba_marseille","lat":43.30403,"lon":5.41283,"is_reserved":false,"is_disabled":false,"rental_uris":{"android":"levelo://app?vid=8ab161c9-cb12-4a06-82bf-18017f59d37b","ios":"levelo://app?vid=8ab161c9-cb12-4a06-82bf-18017f59d37b"},"vehicle_type_id":"4","last_reported":1746356882,"current_range_meters":11200,"station_id":"ce4bhop2rcd13ifvqh8g","pricing_plan_id":"cebpf4jnsgd1na2vs0mg"},{"bike_id":"77e5fc0c-8247-4eae-976e-b65c5c479c47","system_id":"levelo_inurba_marseille","lat":43.24372,"lon":5.371,"is_reserved":false,"is_disabled":false,"rental_uris":{"android":"levelo://app?vid=77e5fc0c-8247-4eae-976e-b65c5c479c47","ios":"levelo://app?vid=77e5fc0c-8247-4eae-976e-b65c5c479c47"},"vehicle_type_id":"4","last_reported":1746356882,"current_range_meters":11600,"station_id":"ce4bhhh2rcd13ifvqfk0","pricing_plan_id":"cebpf4jnsgd1na2vs0mg"},{"bike_id":"dffda755-2feb-41dd-8db8-12eafc41bdf7","system_id":"levelo_inurba_marseille","lat":43.31534,"lon":5.3806,"is_reserved":false,"is_disabled":false,"rental_uris":{"android":"levelo://app?vid=dffda755-2feb-41dd-8db8-12eafc41bdf7","ios":"levelo://app?vid=dffda755-2feb-41dd-8db8-12eafc41bdf7"},"vehicle_type_id":"4","last_reported":1746356882,"current_range_meters":12000,"station_id":"ce4bhsp2rcd13ifvqi50","pricing_plan_id":"cebpf4jnsgd1na2vs0mg"},{"bike_id":"069410e1-cf42-4548-9474-15893b2c2e8b","system_id":"levelo_inurba_marseille","lat":43.29844,"lon":5.36267,"is_reserved":false,"is_disabled":false,"rental_uris":{"android":"levelo://app?vid=069410e1-cf42-4548-9474-15893b2c2e8b","ios":"levelo://app?vid=069410e1-cf42-4548-9474-15893b2c2e8b"},"vehicle_type_id":"4","last_reported":1746356882,"current_range_meters":12400,"station_id":"ce4bgpp2rcd13ifvqc3g","pricing_plan_id":"cebpf4jnsgd1na2vs0mg"},{"bike_id":"abe8f315-c035-4414-9349-cde67151f1ac","system_id":"levelo_inurba_marseille","lat":43.28485,"lon":5.38414,"is_reserved":false,"is_disabled":false,"rental_uris":{"android":"levelo://app?vid=abe8f315-c035-4414-9349-cde67151f1ac","ios":"levelo://app?vid=abe8f315-c035-4414-9349-cde67151f1ac"},"vehicle_type_id":"4","last_reported":1746356882,"current_range_meters":12400,"station_id":"ce4bh512rcd13ifvqe3g","pricing_plan_id":"cebpf4jnsgd1na2vs0mg"},{"bike_id":"b51e8583-0fb2-49ca-9c11-9dbce28dfa5d","system_id":"levelo_inurba_marseille","lat":43.23187,"lon":5.35551,"is_reserved":false,"is_disabled":false,"rental_uris":{"android":"levelo://app?vid=b51e8583-0fb2-49ca-9c11-9dbce28dfa5d","ios":"levelo://app?vid=b51e8583-0fb2-49ca-9c11-9dbce28dfa5d"},"vehicle_type_id":"4","last_reported":1746356882,"current_range_meters":12400,"station_id":"ce4bhu92rcd13ifvqi70","pricing_plan_id":"cebpf4jnsgd1na2vs0mg"},{"bike_id":"b0609141-e140-41e0-b012-36f1c9902891","system_id":"levelo_inurba_marseille","lat":43.23967,"lon":5.36636,"is_reserved":false,"is_disabled":false,"rental_uris":{"android":"levelo://app?vid=b0609141-e140-41e0-b012-36f1c9902891","ios":"levelo://app?vid=b0609141-e140-41e0-b012-36f1c9902891"},"vehicle_type_id":"4","last_reported":1746356882,"current_range_meters":12800,"station_id":"ce4bhi12rcd13ifvqfp0","pricing_plan_id":"cebpf4jnsgd1na2vs0mg"},{"bike_id":"0401c122-86e6-4a94-bcc3-a14584e8675c","system_id":"levelo_inurba_marseille","lat":43.24388,"lon":5.3706,"is_reserved":false,"is_disabled":false,"rental_uris":{"android":"levelo://app?vid=0401c122-86e6-4a94-bcc3-a14584e8675c","ios":"levelo://app?vid=0401c122-86e6-4a94-bcc3-a14584e8675c"},"vehicle_type_id":"4","last_reported":1746356882,"current_range_meters":14000,"station_id":"ce4bhhh2rcd13ifvqfk0","pricing_plan_id":"cebpf4jnsgd1na2vs0mg"},{"bike_id":"d447b317-7fe8-4b25-a86f-02fbc65ddcfa","system_id":"levelo_inurba_marseille","lat":43.23173,"lon":5.43717,"is_reserved":false,"is_disabled":false,"rental_uris":{"android":"levelo://app?vid=d447b317-7fe8-4b25-a86f-02fbc65ddcfa","ios":"levelo://app?vid=d447b317-7fe8-4b25-a86f-02fbc65ddcfa"},"vehicle_type_id":"4","last_reported":1746356882,"current_range_meters":14000,"station_id":"ce4bhmp2rcd13ifvqgog","pricing_plan_id":"cebpf4jnsgd1na2vs0mg"},{"bike_id":"1a7d0e3c-ef10-4d9e-b1bb-ceb6a387680a","system_id":"levelo_inurba_marseille","lat":43.30273,"lon":5.37706,"is_reserved":false,"is_disabled":false,"rental_uris":{"android":"levelo://app?vid=1a7d0e3c-ef10-4d9e-b1bb-ceb6a387680a","ios":"levelo://app?vid=1a7d0e3c-ef10-4d9e-b1bb-ceb6a387680a"},"vehicle_type_id":"4","last_reported":1746356882,"current_range_meters":14400,"station_id":"ce4bguh2rcd13ifvqcj0","pricing_plan_id":"cebpf4jnsgd1na2vs0mg"},{"bike_id":"88f64703-e845-4dd4-92d0-bc3e9f57b6e4","system_id":"levelo_inurba_marseille","lat":43.30897,"lon":5.37192,"is_reserved":false,"is_disabled":false,"rental_uris":{"android":"levelo://app?vid=88f64703-e845-4dd4-92d0-bc3e9f57b6e4","ios":"levelo://app?vid=88f64703-e845-4dd4-92d0-bc3e9f57b6e4"},"vehicle_type_id":"4","last_reported":1746356882,"current_range_meters":14400,"station_id":"ce4bguh2rcd13ifvqckg","pricing_plan_id":"cebpf4jnsgd1na2vs0mg"},{"bike_id":"073ee896-7ffd-4eeb-ba0c-a255d4c8e537","system_id":"levelo_inurba_marseille","lat":43.25708,"lon":5.41072,"is_reserved":false,"is_disabled":false,"rental_uris":{"android":"levelo://app?vid=073ee896-7ffd-4eeb-ba0c-a255d4c8e537","ios":"levelo://app?vid=073ee896-7ffd-4eeb-ba0c-a255d4c8e537"},"vehicle_type_id":"4","last_reported":1746356882,"current_range_meters":14800,"station_id":"ce4bhkp2rcd13ifvqgd0","pricing_plan_id":"cebpf4jnsgd1na2vs0mg"},{"bike_id":"11dcb472-ba8d-4f44-9dff-c8a3b22d7589","system_id":"levelo_inurba_marseille","lat":43.32041,"lon":5.4155,"is_reserved":false,"is_disabled":false,"rental_uris":{"android":"levelo://app?vid=11dcb472-ba8d-4f44-9dff-c8a3b22d7589","ios":"levelo://app?vid=11dcb472-ba8d-4f44-9dff-c8a3b22d7589"},"vehicle_type_id":"4","last_reported":1746356882,"current_range_meters":14800,"station_id":"ce4bhq92rcd13ifvqhkg","pricing_plan_id":"cebpf4jnsgd1na2vs0mg"},{"bike_id":"ce7e06eb-b040-4a1c-b1b9-b8a759460472","system_id":"levelo_inurba_marseille","lat":43.25112,"lon":5.40333,"is_reserved":false,"is_disabled":false,"rental_uris":{"android":"levelo://app?vid=ce7e06eb-b040-4a1c-b1b9-b8a759460472","ios":"levelo://app?vid=ce7e06eb-b040-4a1c-b1b9-b8a759460472"},"vehicle_type_id":"4","last_reported":1746356882,"current_range_meters":15200,"station_id":"ce4bhlh2rcd13ifvqgig","pricing_plan_id":"cebpf4jnsgd1na2vs0mg"},{"bike_id":"e84eee43-7ebe-4b56-a08b-27d6e58561fd","system_id":"levelo_inurba_marseille","lat":43.241781,"lon":5.397329,"is_reserved":false,"is_disabled":false,"rental_uris":{"android":"levelo://app?vid=e84eee43-7ebe-4b56-a08b-27d6e58561fd","ios":"levelo://app?vid=e84eee43-7ebe-4b56-a08b-27d6e58561fd"},"vehicle_type_id":"4","last_reported":1746356882,"current_range_meters":15200,"station_id":"ce4bhn12rcd13ifvqgpg","pricing_plan_id":"cebpf4jnsgd1na2vs0mg"},{"bike_id":"2567acc0-5376-42d9-b539-883a66d944ee","system_id":"levelo_inurba_marseille","lat":43.32489,"lon":5.36572,"is_reserved":false,"is_disabled":false,"rental_uris":{"android":"levelo://app?vid=2567acc0-5376-42d9-b539-883a66d944ee","ios":"levelo://app?vid=2567acc0-5376-42d9-b539-883a66d944ee"},"vehicle_type_id":"4","last_reported":1746356882,"current_range_meters":15200,"station_id":"ce4bhs12rcd13ifvqhvg","pricing_plan_id":"cebpf4jnsgd1na2vs0mg"},{"bike_id":"fdef9e55-be0f-41e0-8526-8e8fa7260880","system_id":"levelo_inurba_marseille","lat":43.312833,"lon":5.374134,"is_reserved":false,"is_disabled":false,"rental_uris":{"android":"levelo://app?vid=fdef9e55-be0f-41e0-8526-8e8fa7260880","ios":"levelo://app?vid=fdef9e55-be0f-41e0-8526-8e8fa7260880"},"vehicle_type_id":"4","last_reported":1746356882,"current_range_meters":16000,"station_id":"","pricing_plan_id":"cebpf4jnsgd1na2vs0mg"},{"bike_id":"e538485e-c2b4-4439-93d6-789bda73caf7","system_id":"levelo_inurba_marseille","lat":43.31713,"lon":5.37733,"is_reserved":false,"is_disabled":false,"rental_uris":{"android":"levelo://app?vid=e538485e-c2b4-4439-93d6-789bda73caf7","ios":"levelo://app?vid=e538485e-c2b4-4439-93d6-789bda73caf7"},"vehicle_type_id":"4","last_reported":1746356882,"current_range_meters":16000,"station_id":"ce4bgth2rcd13ifvqch0","pricing_plan_id":"cebpf4jnsgd1na2vs0mg"},{"bike_id":"8a1c92bd-6777-477a-9eaf-2b1631a1f0a6","system_id":"levelo_inurba_marseille","lat":43.309291,"lon":5.401486,"is_reserved":false,"is_disabled":false,"rental_uris":{"android":"levelo://app?vid=8a1c92bd-6777-477a-9eaf-2b1631a1f0a6","ios":"levelo://app?vid=8a1c92bd-6777-477a-9eaf-2b1631a1f0a6"},"vehicle_type_id":"4","last_reported":1746356882,"current_range_meters":16000,"station_id":"ce4bgvp2rcd13ifvqct0","pricing_plan_id":"cebpf4jnsgd1na2vs0mg"},{"bike_id":"43f220ab-0408-46b3-abe5-60437ce3bc1e","system_id":"levelo_inurba_marseille","lat":43.23182,"lon":5.35566,"is_reserved":false,"is_disabled":false,"rental_uris":{"android":"levelo://app?vid=43f220ab-0408-46b3-abe5-60437ce3bc1e","ios":"levelo://app?vid=43f220ab-0408-46b3-abe5-60437ce3bc1e"},"vehicle_type_id":"4","last_reported":1746356882,"current_range_meters":16000,"station_id":"ce4bhu92rcd13ifvqi70","pricing_plan_id":"cebpf4jnsgd1na2vs0mg"},{"bike_id":"b68ba021-b718-46d3-870c-7608c18b8003","system_id":"levelo_inurba_marseille","lat":43.2239,"lon":5.34651,"is_reserved":false,"is_disabled":false,"rental_uris":{"android":"levelo://app?vid=b68ba021-b718-46d3-870c-7608c18b8003","ios":"levelo://app?vid=b68ba021-b718-46d3-870c-7608c18b8003"},"vehicle_type_id":"4","last_reported":1746356882,"current_range_meters":16400,"station_id":"","pricing_plan_id":"cebpf4jnsgd1na2vs0mg"},{"bike_id":"d94ace2f-a694-4d2b-9fa0-6d215239b455","system_id":"levelo_inurba_marseille","lat":43.243888,"lon":5.370754,"is_reserved":false,"is_disabled":false,"rental_uris":{"android":"levelo://app?vid=d94ace2f-a694-4d2b-9fa0-6d215239b455","ios":"levelo://app?vid=d94ace2f-a694-4d2b-9fa0-6d215239b455"},"vehicle_type_id":"4","last_reported":1746356882,"current_range_meters":16400,"station_id":"ce4bhhh2rcd13ifvqfk0","pricing_plan_id":"cebpf4jnsgd1na2vs0mg"},{"bike_id":"82e8114d-8514-40bc-99af-882ec6a2e030","system_id":"levelo_inurba_marseille","lat":43.2794,"lon":5.41047,"is_reserved":false,"is_disabled":false,"rental_uris":{"android":"levelo://app?vid=82e8114d-8514-40bc-99af-882ec6a2e030","ios":"levelo://app?vid=82e8114d-8514-40bc-99af-882ec6a2e030"},"vehicle_type_id":"4","last_reported":1746356882,"current_range_meters":16400,"station_id":"ce4bhnp2rcd13ifvqh0g","pricing_plan_id":"cebpf4jnsgd1na2vs0mg"},{"bike_id":"44a4c1aa-e659-41ae-8ef4-e3bc1e502d2a","system_id":"levelo_inurba_marseille","lat":43.323588,"lon":5.367516,"is_reserved":false,"is_disabled":false,"rental_uris":{"android":"levelo://app?vid=44a4c1aa-e659-41ae-8ef4-e3bc1e502d2a","ios":"levelo://app?vid=44a4c1aa-e659-41ae-8ef4-e3bc1e502d2a"},"vehicle_type_id":"4","last_reported":1746356882,"current_range_meters":16800,"station_id":"ce4bhsh2rcd13ifvqi2g","pricing_plan_id":"cebpf4jnsgd1na2vs0mg"},{"bike_id":"0abe7365-362a-4c2d-949a-e32faf9d4099","system_id":"levelo_inurba_marseille","lat":43.21187,"lon":5.35063,"is_reserved":false,"is_disabled":false,"rental_uris":{"android":"levelo://app?vid=0abe7365-362a-4c2d-949a-e32faf9d4099","ios":"levelo://app?vid=0abe7365-362a-4c2d-949a-e32faf9d4099"},"vehicle_type_id":"4","last_reported":1746356882,"current_range_meters":17200,"station_id":"","pricing_plan_id":"cebpf4jnsgd1na2vs0mg"},{"bike_id":"06b5e801-da26-4646-a41b-7c531b512a07","system_id":"levelo_inurba_marseille","lat":43.295816,"lon":5.375235,"is_reserved":false,"is_disabled":false,"rental_uris":{"android":"levelo://app?vid=06b5e801-da26-4646-a41b-7c531b512a07","ios":"levelo://app?vid=06b5e801-da26-4646-a41b-7c531b512a07"},"vehicle_type_id":"4","last_reported":1746356882,"current_range_meters":17200,"station_id":"ce4bgh92rcd13ifvqb50","pricing_plan_id":"cebpf4jnsgd1na2vs0mg"},{"bike_id":"3cf456d9-6f3d-4e20-a33c-7df158071c81","system_id":"levelo_inurba_marseille","lat":43.24388,"lon":5.37059,"is_reserved":false,"is_disabled":false,"rental_uris":{"android":"levelo://app?vid=3cf456d9-6f3d-4e20-a33c-7df158071c81","ios":"levelo://app?vid=3cf456d9-6f3d-4e20-a33c-7df158071c81"},"vehicle_type_id":"4","last_reported":1746356882,"current_range_meters":17200,"station_id":"ce4bhhh2rcd13ifvqfk0","pricing_plan_id":"cebpf4jnsgd1na2vs0mg"},{"bike_id":"0a0ece37-539d-4aa3-b235-deb8a4daf593","system_id":"levelo_inurba_marseille","lat":43.33092,"lon":5.40841,"is_reserved":false,"is_disabled":false,"rental_uris":{"android":"levelo://app?vid=0a0ece37-539d-4aa3-b235-deb8a4daf593","ios":"levelo://app?vid=0a0ece37-539d-4aa3-b235-deb8a4daf593"},"vehicle_type_id":"4","last_reported":1746356882,"current_range_meters":17600,"station_id":"","pricing_plan_id":"cebpf4jnsgd1na2vs0mg"},{"bike_id":"ace3c8a8-5487-4453-aa85-37b1b80b1fda","system_id":"levelo_inurba_marseille","lat":43.26689,"lon":5.38243,"is_reserved":false,"is_disabled":false,"rental_uris":{"android":"levelo://app?vid=ace3c8a8-5487-4453-aa85-37b1b80b1fda","ios":"levelo://app?vid=ace3c8a8-5487-4453-aa85-37b1b80b1fda"},"vehicle_type_id":"4","last_reported":1746356882,"current_range_meters":18000,"station_id":"ce4bhg92rcd13ifvqf90","pricing_plan_id":"cebpf4jnsgd1na2vs0mg"},{"bike_id":"1e4c8eca-44f1-4bf0-b96f-01b79f3e652f","system_id":"levelo_inurba_marseille","lat":43.27941,"lon":5.41074,"is_reserved":false,"is_disabled":false,"rental_uris":{"android":"levelo://app?vid=1e4c8eca-44f1-4bf0-b96f-01b79f3e652f","ios":"levelo://app?vid=1e4c8eca-44f1-4bf0-b96f-01b79f3e652f"},"vehicle_type_id":"4","last_reported":1746356882,"current_range_meters":18000,"station_id":"ce4bhnp2rcd13ifvqh0g","pricing_plan_id":"cebpf4jnsgd1na2vs0mg"},{"bike_id":"986ed733-1181-4f78-b119-7e644dd19458","system_id":"levelo_inurba_marseille","lat":43.307973,"lon":5.435403,"is_reserved":false,"is_disabled":false,"rental_uris":{"android":"levelo://app?vid=986ed733-1181-4f78-b119-7e644dd19458","ios":"levelo://app?vid=986ed733-1181-4f78-b119-7e644dd19458"},"vehicle_type_id":"4","last_reported":1746356882,"current_range_meters":18000,"station_id":"ce4bhph2rcd13ifvqheg","pricing_plan_id":"cebpf4jnsgd1na2vs0mg"},{"bike_id":"1885e4e4-787e-4399-a182-13afb5671e8f","system_id":"levelo_inurba_marseille","lat":43.31768,"lon":5.39004,"is_reserved":false,"is_disabled":false,"rental_uris":{"android":"levelo://app?vid=1885e4e4-787e-4399-a182-13afb5671e8f","ios":"levelo://app?vid=1885e4e4-787e-4399-a182-13afb5671e8f"},"vehicle_type_id":"4","last_reported":1746356882,"current_range_meters":18000,"station_id":"ce4bhqp2rcd13ifvqhng","pricing_plan_id":"cebpf4jnsgd1na2vs0mg"},{"bike_id":"a541115e-baed-4da1-b2ce-6d197e510c58","system_id":"levelo_inurba_marseille","lat":43.309534,"lon":5.390445,"is_reserved":false,"is_disabled":false,"rental_uris":{"android":"levelo://app?vid=a541115e-baed-4da1-b2ce-6d197e510c58","ios":"levelo://app?vid=a541115e-baed-4da1-b2ce-6d197e510c58"},"vehicle_type_id":"4","last_reported":1746356882,"current_range_meters":18800,"station_id":"ce4bgup2rcd13ifvqco0","pricing_plan_id":"cebpf4jnsgd1na2vs0mg"},{"bike_id":"a4fe62a4-06cd-4bd0-ba69-f6f0d8526f73","system_id":"levelo_inurba_marseille","lat":43.29038,"lon":5.39971,"is_reserved":false,"is_disabled":false,"rental_uris":{"android":"levelo://app?vid=a4fe62a4-06cd-4bd0-ba69-f6f0d8526f73","ios":"levelo://app?vid=a4fe62a4-06cd-4bd0-ba69-f6f0d8526f73"},"vehicle_type_id":"4","last_reported":1746356882,"current_range_meters":18800,"station_id":"ce4bh392rcd13ifvqdm0","pricing_plan_id":"cebpf4jnsgd1na2vs0mg"},{"bike_id":"6d6cf34a-0684-4487-9733-f8ef902b1f43","system_id":"levelo_inurba_marseille","lat":43.31882,"lon":5.40739,"is_reserved":false,"is_disabled":false,"rental_uris":{"android":"levelo://app?vid=6d6cf34a-0684-4487-9733-f8ef902b1f43","ios":"levelo://app?vid=6d6cf34a-0684-4487-9733-f8ef902b1f43"},"vehicle_type_id":"4","last_reported":1746356882,"current_range_meters":18800,"station_id":"ce4bhq12rcd13ifvqhig","pricing_plan_id":"cebpf4jnsgd1na2vs0mg"},{"bike_id":"7ad04c1b-fc26-4c94-a72f-89c6e3ca5c32","system_id":"levelo_inurba_marseille","lat":43.31191,"lon":5.40766,"is_reserved":false,"is_disabled":false,"rental_uris":{"android":"levelo://app?vid=7ad04c1b-fc26-4c94-a72f-89c6e3ca5c32","ios":"levelo://app?vid=7ad04c1b-fc26-4c94-a72f-89c6e3ca5c32"},"vehicle_type_id":"4","last_reported":1746356882,"current_range_meters":19200,"station_id":"","pricing_plan_id":"cebpf4jnsgd1na2vs0mg"},{"bike_id":"a7393548-1ca4-426f-bec8-e094325f844e","system_id":"levelo_inurba_marseille","lat":43.26294,"lon":5.37405,"is_reserved":false,"is_disabled":false,"rental_uris":{"android":"levelo://app?vid=a7393548-1ca4-426f-bec8-e094325f844e","ios":"levelo://app?vid=a7393548-1ca4-426f-bec8-e094325f844e"},"vehicle_type_id":"4","last_reported":1746356882,"current_range_meters":19200,"station_id":"","pricing_plan_id":"cebpf4jnsgd1na2vs0mg"},{"bike_id":"2a83f628-6bc6-4805-bbb5-042e251d7a0f","system_id":"levelo_inurba_marseille","lat":43.3153,"lon":5.38042,"is_reserved":false,"is_disabled":false,"rental_uris":{"android":"levelo://app?vid=2a83f628-6bc6-4805-bbb5-042e251d7a0f","ios":"levelo://app?vid=2a83f628-6bc6-4805-bbb5-042e251d7a0f"},"vehicle_type_id":"4","last_reported":1746356882,"current_range_meters":19200,"station_id":"ce4bhsp2rcd13ifvqi50","pricing_plan_id":"cebpf4jnsgd1na2vs0mg"},{"bike_id":"d62eceed-23eb-4f3d-a6fe-a61cd2ad4365","system_id":"levelo_inurba_marseille","lat":43.284079,"lon":5.356156,"is_reserved":false,"is_disabled":false,"rental_uris":{"android":"levelo://app?vid=d62eceed-23eb-4f3d-a6fe-a61cd2ad4365","ios":"levelo://app?vid=d62eceed-23eb-4f3d-a6fe-a61cd2ad4365"},"vehicle_type_id":"4","last_reported":1746356882,"current_range_meters":19600,"station_id":"","pricing_plan_id":"cebpf4jnsgd1na2vs0mg"},{"bike_id":"69cf51c1-cf97-4838-a3e1-a313c4e25701","system_id":"levelo_inurba_marseille","lat":43.26566,"lon":5.39011,"is_reserved":false,"is_disabled":false,"rental_uris":{"android":"levelo://app?vid=69cf51c1-cf97-4838-a3e1-a313c4e25701","ios":"levelo://app?vid=69cf51c1-cf97-4838-a3e1-a313c4e25701"},"vehicle_type_id":"4","last_reported":1746356882,"current_range_meters":19600,"station_id":"ce4bhe12rcd13ifvqf30","pricing_plan_id":"cebpf4jnsgd1na2vs0mg"},{"bike_id":"ace243df-4428-44e7-8e39-4eaf14e10d4a","system_id":"levelo_inurba_marseille","lat":43.248212,"lon":5.374549,"is_reserved":false,"is_disabled":false,"rental_uris":{"android":"levelo://app?vid=ace243df-4428-44e7-8e39-4eaf14e10d4a","ios":"levelo://app?vid=ace243df-4428-44e7-8e39-4eaf14e10d4a"},"vehicle_type_id":"4","last_reported":1746356882,"current_range_meters":19600,"station_id":"ce4bhgh2rcd13ifvqfb0","pricing_plan_id":"cebpf4jnsgd1na2vs0mg"},{"bike_id":"c1979245-f6b2-4981-9b67-090cbb2dcde4","system_id":"levelo_inurba_marseille","lat":43.2397,"lon":5.366,"is_reserved":false,"is_disabled":false,"rental_uris":{"android":"levelo://app?vid=c1979245-f6b2-4981-9b67-090cbb2dcde4","ios":"levelo://app?vid=c1979245-f6b2-4981-9b67-090cbb2dcde4"},"vehicle_type_id":"4","last_reported":1746356882,"current_range_meters":19600,"station_id":"ce4bhi12rcd13ifvqfp0","pricing_plan_id":"cebpf4jnsgd1na2vs0mg"},{"bike_id":"c43b1397-4c89-4556-9d3f-5e63a1b69a9b","system_id":"levelo_inurba_marseille","lat":43.29555,"lon":5.42289,"is_reserved":false,"is_disabled":false,"rental_uris":{"android":"levelo://app?vid=c43b1397-4c89-4556-9d3f-5e63a1b69a9b","ios":"levelo://app?vid=c43b1397-4c89-4556-9d3f-5e63a1b69a9b"},"vehicle_type_id":"4","last_reported":1746356882,"current_range_meters":19600,"station_id":"ce4bhph2rcd13ifvqhdg","pricing_plan_id":"cebpf4jnsgd1na2vs0mg"},{"bike_id":"bbba4a42-41f1-4d4c-a0ec-15062e1d6496","system_id":"levelo_inurba_marseille","lat":43.308097,"lon":5.435233,"is_reserved":false,"is_disabled":false,"rental_uris":{"android":"levelo://app?vid=bbba4a42-41f1-4d4c-a0ec-15062e1d6496","ios":"levelo://app?vid=bbba4a42-41f1-4d4c-a0ec-15062e1d6496"},"vehicle_type_id":"4","last_reported":1746356882,"current_range_meters":20000,"station_id":"ce4bhph2rcd13ifvqheg","pricing_plan_id":"cebpf4jnsgd1na2vs0mg"},{"bike_id":"c8dd0741-d802-4cae-94ca-433f088b9d8d","system_id":"levelo_inurba_marseille","lat":43.28421,"lon":5.34999,"is_reserved":false,"is_disabled":false,"rental_uris":{"android":"levelo://app?vid=c8dd0741-d802-4cae-94ca-433f088b9d8d","ios":"levelo://app?vid=c8dd0741-d802-4cae-94ca-433f088b9d8d"},"vehicle_type_id":"4","last_reported":1746356882,"current_range_meters":20800,"station_id":"ce4bhbh2rcd13ifvqepg","pricing_plan_id":"cebpf4jnsgd1na2vs0mg"},{"bike_id":"df987d76-3692-47f1-a4e9-eb9c027c89a7","system_id":"levelo_inurba_marseille","lat":43.23189,"lon":5.39991,"is_reserved":false,"is_disabled":false,"rental_uris":{"android":"levelo://app?vid=df987d76-3692-47f1-a4e9-eb9c027c89a7","ios":"levelo://app?vid=df987d76-3692-47f1-a4e9-eb9c027c89a7"},"vehicle_type_id":"4","last_reported":1746356882,"current_range_meters":20800,"station_id":"ce4bhn12rcd13ifvqgqg","pricing_plan_id":"cebpf4jnsgd1na2vs0mg"},{"bike_id":"1ce5faab-c057-44d0-b6f7-996b2962169c","system_id":"levelo_inurba_marseille","lat":43.32347,"lon":5.36728,"is_reserved":false,"is_disabled":false,"rental_uris":{"android":"levelo://app?vid=1ce5faab-c057-44d0-b6f7-996b2962169c","ios":"levelo://app?vid=1ce5faab-c057-44d0-b6f7-996b2962169c"},"vehicle_type_id":"4","last_reported":1746356882,"current_range_meters":20800,"station_id":"ce4bhsh2rcd13ifvqi2g","pricing_plan_id":"cebpf4jnsgd1na2vs0mg"},{"bike_id":"9e174534-0b7f-41f7-9bb7-f68172cda9ce","system_id":"levelo_inurba_marseille","lat":43.21191,"lon":5.35065,"is_reserved":false,"is_disabled":false,"rental_uris":{"android":"levelo://app?vid=9e174534-0b7f-41f7-9bb7-f68172cda9ce","ios":"levelo://app?vid=9e174534-0b7f-41f7-9bb7-f68172cda9ce"},"vehicle_type_id":"4","last_reported":1746356882,"current_range_meters":20800,"station_id":"st_cvj6sg6p6f1abm77japg","pricing_plan_id":"cebpf4jnsgd1na2vs0mg"},{"bike_id":"2dce38cf-a8d4-49cd-9fcf-ef494d90a125","system_id":"levelo_inurba_marseille","lat":43.27151,"lon":5.36378,"is_reserved":false,"is_disabled":false,"rental_uris":{"android":"levelo://app?vid=2dce38cf-a8d4-49cd-9fcf-ef494d90a125","ios":"levelo://app?vid=2dce38cf-a8d4-49cd-9fcf-ef494d90a125"},"vehicle_type_id":"4","last_reported":1746356882,"current_range_meters":21600,"station_id":"","pricing_plan_id":"cebpf4jnsgd1na2vs0mg"},{"bike_id":"c5f42dc9-5f59-4b26-8af2-f3630d031b32","system_id":"levelo_inurba_marseille","lat":43.26711,"lon":5.38218,"is_reserved":false,"is_disabled":false,"rental_uris":{"android":"levelo://app?vid=c5f42dc9-5f59-4b26-8af2-f3630d031b32","ios":"levelo://app?vid=c5f42dc9-5f59-4b26-8af2-f3630d031b32"},"vehicle_type_id":"4","last_reported":1746356882,"current_range_meters":21600,"station_id":"","pricing_plan_id":"cebpf4jnsgd1na2vs0mg"},{"bike_id":"67228852-9364-4264-8911-ef9778c0a6b7","system_id":"levelo_inurba_marseille","lat":43.31689,"lon":5.40468,"is_reserved":false,"is_disabled":false,"rental_uris":{"android":"levelo://app?vid=67228852-9364-4264-8911-ef9778c0a6b7","ios":"levelo://app?vid=67228852-9364-4264-8911-ef9778c0a6b7"},"vehicle_type_id":"4","last_reported":1746356882,"current_range_meters":21600,"station_id":"ce4bh012rcd13ifvqd00","pricing_plan_id":"cebpf4jnsgd1na2vs0mg"},{"bike_id":"bcdc0033-282e-4006-acda-7c1e0fdfff9e","system_id":"levelo_inurba_marseille","lat":43.31742,"lon":5.42398,"is_reserved":false,"is_disabled":false,"rental_uris":{"android":"levelo://app?vid=bcdc0033-282e-4006-acda-7c1e0fdfff9e","ios":"levelo://app?vid=bcdc0033-282e-4006-acda-7c1e0fdfff9e"},"vehicle_type_id":"4","last_reported":1746356882,"current_range_meters":21600,"station_id":"ce4bhp92rcd13ifvqhbg","pricing_plan_id":"cebpf4jnsgd1na2vs0mg"},{"bike_id":"19641d11-276d-486b-940b-b2b703a46303","system_id":"levelo_inurba_marseille","lat":43.26557,"lon":5.37283,"is_reserved":false,"is_disabled":false,"rental_uris":{"android":"levelo://app?vid=19641d11-276d-486b-940b-b2b703a46303","ios":"levelo://app?vid=19641d11-276d-486b-940b-b2b703a46303"},"vehicle_type_id":"4","last_reported":1746356882,"current_range_meters":22000,"station_id":"ce4bhg12rcd13ifvqf70","pricing_plan_id":"cebpf4jnsgd1na2vs0mg"},{"bike_id":"e0721b4b-6859-4f55-a84e-b4a1343b02ff","system_id":"levelo_inurba_marseille","lat":43.25122,"lon":5.40317,"is_reserved":false,"is_disabled":false,"rental_uris":{"android":"levelo://app?vid=e0721b4b-6859-4f55-a84e-b4a1343b02ff","ios":"levelo://app?vid=e0721b4b-6859-4f55-a84e-b4a1343b02ff"},"vehicle_type_id":"4","last_reported":1746356882,"current_range_meters":22000,"station_id":"ce4bhlh2rcd13ifvqgig","pricing_plan_id":"cebpf4jnsgd1na2vs0mg"},{"bike_id":"53365178-fafe-4641-abe2-1b6cdbb827d1","system_id":"levelo_inurba_marseille","lat":43.28151,"lon":5.42632,"is_reserved":false,"is_disabled":false,"rental_uris":{"android":"levelo://app?vid=53365178-fafe-4641-abe2-1b6cdbb827d1","ios":"levelo://app?vid=53365178-fafe-4641-abe2-1b6cdbb827d1"},"vehicle_type_id":"4","last_reported":1746356882,"current_range_meters":22000,"station_id":"ce4bhnh2rcd13ifvqgug","pricing_plan_id":"cebpf4jnsgd1na2vs0mg"},{"bike_id":"55e2365c-b270-4dfe-a830-699a54b79cdb","system_id":"levelo_inurba_marseille","lat":43.255735,"lon":5.420994,"is_reserved":false,"is_disabled":false,"rental_uris":{"android":"levelo://app?vid=55e2365c-b270-4dfe-a830-699a54b79cdb","ios":"levelo://app?vid=55e2365c-b270-4dfe-a830-699a54b79cdb"},"vehicle_type_id":"4","last_reported":1746356882,"current_range_meters":22800,"station_id":"","pricing_plan_id":"cebpf4jnsgd1na2vs0mg"},{"bike_id":"cb18f575-9c1e-4e54-ba38-fab988ce4b38","system_id":"levelo_inurba_marseille","lat":43.29258,"lon":5.40905,"is_reserved":false,"is_disabled":false,"rental_uris":{"android":"levelo://app?vid=cb18f575-9c1e-4e54-ba38-fab988ce4b38","ios":"levelo://app?vid=cb18f575-9c1e-4e54-ba38-fab988ce4b38"},"vehicle_type_id":"4","last_reported":1746356882,"current_range_meters":22800,"station_id":"ce4bh192rcd13ifvqdc0","pricing_plan_id":"cebpf4jnsgd1na2vs0mg"},{"bike_id":"6c4bcfb6-6fe8-4911-8e28-659e04002779","system_id":"levelo_inurba_marseille","lat":43.29009,"lon":5.35621,"is_reserved":false,"is_disabled":false,"rental_uris":{"android":"levelo://app?vid=6c4bcfb6-6fe8-4911-8e28-659e04002779","ios":"levelo://app?vid=6c4bcfb6-6fe8-4911-8e28-659e04002779"},"vehicle_type_id":"4","last_reported":1746356882,"current_range_meters":22800,"station_id":"ce4bhb92rcd13ifvqen0","pricing_plan_id":"cebpf4jnsgd1na2vs0mg"},{"bike_id":"ba1a37e3-2913-4048-9b8e-3f2ca883b25c","system_id":"levelo_inurba_marseille","lat":43.24383,"lon":5.37053,"is_reserved":false,"is_disabled":false,"rental_uris":{"android":"levelo://app?vid=ba1a37e3-2913-4048-9b8e-3f2ca883b25c","ios":"levelo://app?vid=ba1a37e3-2913-4048-9b8e-3f2ca883b25c"},"vehicle_type_id":"4","last_reported":1746356882,"current_range_meters":22800,"station_id":"ce4bhhh2rcd13ifvqfk0","pricing_plan_id":"cebpf4jnsgd1na2vs0mg"},{"bike_id":"e8656230-a127-4b16-a794-bcb4e9139e2f","system_id":"levelo_inurba_marseille","lat":43.30602,"lon":5.37228,"is_reserved":false,"is_disabled":false,"rental_uris":{"android":"levelo://app?vid=e8656230-a127-4b16-a794-bcb4e9139e2f","ios":"levelo://app?vid=e8656230-a127-4b16-a794-bcb4e9139e2f"},"vehicle_type_id":"4","last_reported":1746356882,"current_range_meters":23200,"station_id":"ce4bgqh2rcd13ifvqc4g","pricing_plan_id":"cebpf4jnsgd1na2vs0mg"},{"bike_id":"66bb9062-3ac4-494c-851d-a6a35f96c852","system_id":"levelo_inurba_marseille","lat":43.28858,"lon":5.3585,"is_reserved":false,"is_disabled":false,"rental_uris":{"android":"levelo://app?vid=66bb9062-3ac4-494c-851d-a6a35f96c852","ios":"levelo://app?vid=66bb9062-3ac4-494c-851d-a6a35f96c852"},"vehicle_type_id":"4","last_reported":1746356882,"current_range_meters":23200,"station_id":"ce4bhb12rcd13ifvqem0","pricing_plan_id":"cebpf4jnsgd1na2vs0mg"},{"bike_id":"b49abcf2-c321-4828-9597-b785de8121d6","system_id":"levelo_inurba_marseille","lat":43.23196,"lon":5.39989,"is_reserved":false,"is_disabled":false,"rental_uris":{"android":"levelo://app?vid=b49abcf2-c321-4828-9597-b785de8121d6","ios":"levelo://app?vid=b49abcf2-c321-4828-9597-b785de8121d6"},"vehicle_type_id":"4","last_reported":1746356882,"current_range_meters":23200,"station_id":"ce4bhn12rcd13ifvqgqg","pricing_plan_id":"cebpf4jnsgd1na2vs0mg"},{"bike_id":"a0468b0c-322d-48ea-87c0-99bd8952fe36","system_id":"levelo_inurba_marseille","lat":43.27938,"lon":5.41054,"is_reserved":false,"is_disabled":false,"rental_uris":{"android":"levelo://app?vid=a0468b0c-322d-48ea-87c0-99bd8952fe36","ios":"levelo://app?vid=a0468b0c-322d-48ea-87c0-99bd8952fe36"},"vehicle_type_id":"4","last_reported":1746356882,"current_range_meters":23200,"station_id":"ce4bhnp2rcd13ifvqh0g","pricing_plan_id":"cebpf4jnsgd1na2vs0mg"},{"bike_id":"99caa5c9-73c6-4674-850e-ae7cd663deab","system_id":"levelo_inurba_marseille","lat":43.21193,"lon":5.35068,"is_reserved":false,"is_disabled":false,"rental_uris":{"android":"levelo://app?vid=99caa5c9-73c6-4674-850e-ae7cd663deab","ios":"levelo://app?vid=99caa5c9-73c6-4674-850e-ae7cd663deab"},"vehicle_type_id":"4","last_reported":1746356882,"current_range_meters":23200,"station_id":"st_cvj6sg6p6f1abm77japg","pricing_plan_id":"cebpf4jnsgd1na2vs0mg"},{"bike_id":"321e8ec9-5896-4299-914b-01dee7a1fc43","system_id":"levelo_inurba_marseille","lat":43.24395,"lon":5.3706,"is_reserved":false,"is_disabled":false,"rental_uris":{"android":"levelo://app?vid=321e8ec9-5896-4299-914b-01dee7a1fc43","ios":"levelo://app?vid=321e8ec9-5896-4299-914b-01dee7a1fc43"},"vehicle_type_id":"4","last_reported":1746356882,"current_range_meters":24000,"station_id":"ce4bhhh2rcd13ifvqfk0","pricing_plan_id":"cebpf4jnsgd1na2vs0mg"},{"bike_id":"696b71f0-972e-4fa6-831c-b2001014ab23","system_id":"levelo_inurba_marseille","lat":43.25114,"lon":5.40328,"is_reserved":false,"is_disabled":false,"rental_uris":{"android":"levelo://app?vid=696b71f0-972e-4fa6-831c-b2001014ab23","ios":"levelo://app?vid=696b71f0-972e-4fa6-831c-b2001014ab23"},"vehicle_type_id":"4","last_reported":1746356882,"current_range_meters":24000,"station_id":"ce4bhlh2rcd13ifvqgig","pricing_plan_id":"cebpf4jnsgd1na2vs0mg"},{"bike_id":"d0bcf1fb-cbba-4142-876b-db3b580f0e4d","system_id":"levelo_inurba_marseille","lat":43.29556,"lon":5.42268,"is_reserved":false,"is_disabled":false,"rental_uris":{"android":"levelo://app?vid=d0bcf1fb-cbba-4142-876b-db3b580f0e4d","ios":"levelo://app?vid=d0bcf1fb-cbba-4142-876b-db3b580f0e4d"},"vehicle_type_id":"4","last_reported":1746356882,"current_range_meters":24000,"station_id":"ce4bhph2rcd13ifvqhdg","pricing_plan_id":"cebpf4jnsgd1na2vs0mg"},{"bike_id":"ae89912f-333f-4a37-a044-5e082bc88d96","system_id":"levelo_inurba_marseille","lat":43.29604,"lon":5.38111,"is_reserved":false,"is_disabled":false,"rental_uris":{"android":"levelo://app?vid=ae89912f-333f-4a37-a044-5e082bc88d96","ios":"levelo://app?vid=ae89912f-333f-4a37-a044-5e082bc88d96"},"vehicle_type_id":"4","last_reported":1746356882,"current_range_meters":24400,"station_id":"ce4bgl12rcd13ifvqbo0","pricing_plan_id":"cebpf4jnsgd1na2vs0mg"},{"bike_id":"07696f50-ae40-4abf-8ada-6e9ca233de48","system_id":"levelo_inurba_marseille","lat":43.32291,"lon":5.38274,"is_reserved":false,"is_disabled":false,"rental_uris":{"android":"levelo://app?vid=07696f50-ae40-4abf-8ada-6e9ca233de48","ios":"levelo://app?vid=07696f50-ae40-4abf-8ada-6e9ca233de48"},"vehicle_type_id":"4","last_reported":1746356882,"current_range_meters":24400,"station_id":"ce4bhr12rcd13ifvqhqg","pricing_plan_id":"cebpf4jnsgd1na2vs0mg"},{"bike_id":"4866809e-6692-4bb1-8cc5-75481e30a24b","system_id":"levelo_inurba_marseille","lat":43.3158,"lon":5.40935,"is_reserved":false,"is_disabled":false,"rental_uris":{"android":"levelo://app?vid=4866809e-6692-4bb1-8cc5-75481e30a24b","ios":"levelo://app?vid=4866809e-6692-4bb1-8cc5-75481e30a24b"},"vehicle_type_id":"4","last_reported":1746356882,"current_range_meters":24800,"station_id":"","pricing_plan_id":"cebpf4jnsgd1na2vs0mg"},{"bike_id":"0f5bd1a4-16e1-4c7d-8308-977a21f0ff80","system_id":"levelo_inurba_marseille","lat":43.23179,"lon":5.39991,"is_reserved":false,"is_disabled":false,"rental_uris":{"android":"levelo://app?vid=0f5bd1a4-16e1-4c7d-8308-977a21f0ff80","ios":"levelo://app?vid=0f5bd1a4-16e1-4c7d-8308-977a21f0ff80"},"vehicle_type_id":"4","last_reported":1746356882,"current_range_meters":24800,"station_id":"ce4bhn12rcd13ifvqgqg","pricing_plan_id":"cebpf4jnsgd1na2vs0mg"},{"bike_id":"48406110-a345-43b2-b145-b3298828c686","system_id":"levelo_inurba_marseille","lat":43.295365,"lon":5.42294,"is_reserved":false,"is_disabled":false,"rental_uris":{"android":"levelo://app?vid=48406110-a345-43b2-b145-b3298828c686","ios":"levelo://app?vid=48406110-a345-43b2-b145-b3298828c686"},"vehicle_type_id":"4","last_reported":1746356882,"current_range_meters":24800,"station_id":"ce4bhph2rcd13ifvqhdg","pricing_plan_id":"cebpf4jnsgd1na2vs0mg"},{"bike_id":"83b5b49f-322e-4e4f-8012-dc4e0fcf9005","system_id":"levelo_inurba_marseille","lat":43.24163,"lon":5.3639,"is_reserved":false,"is_disabled":false,"rental_uris":{"android":"levelo://app?vid=83b5b49f-322e-4e4f-8012-dc4e0fcf9005","ios":"levelo://app?vid=83b5b49f-322e-4e4f-8012-dc4e0fcf9005"},"vehicle_type_id":"4","last_reported":1746356882,"current_range_meters":24800,"station_id":"cpo36qri1sfpv3e86is0","pricing_plan_id":"cebpf4jnsgd1na2vs0mg"},{"bike_id":"a37b555a-e13e-4df2-bf39-1733553fc96e","system_id":"levelo_inurba_marseille","lat":43.292535,"lon":5.409093,"is_reserved":false,"is_disabled":false,"rental_uris":{"android":"levelo://app?vid=a37b555a-e13e-4df2-bf39-1733553fc96e","ios":"levelo://app?vid=a37b555a-e13e-4df2-bf39-1733553fc96e"},"vehicle_type_id":"4","last_reported":1746356882,"current_range_meters":25200,"station_id":"ce4bh192rcd13ifvqdc0","pricing_plan_id":"cebpf4jnsgd1na2vs0mg"},{"bike_id":"bbe25e7d-8a8f-4005-9957-94c8b0df2b21","system_id":"levelo_inurba_marseille","lat":43.29278,"lon":5.38438,"is_reserved":false,"is_disabled":false,"rental_uris":{"android":"levelo://app?vid=bbe25e7d-8a8f-4005-9957-94c8b0df2b21","ios":"levelo://app?vid=bbe25e7d-8a8f-4005-9957-94c8b0df2b21"},"vehicle_type_id":"4","last_reported":1746356882,"current_range_meters":25200,"station_id":"ce4bh692rcd13ifvqea0","pricing_plan_id":"cebpf4jnsgd1na2vs0mg"},{"bike_id":"788046ab-4020-4c6e-a0e2-de3aee25f874","system_id":"levelo_inurba_marseille","lat":43.21193,"lon":5.35074,"is_reserved":false,"is_disabled":false,"rental_uris":{"android":"levelo://app?vid=788046ab-4020-4c6e-a0e2-de3aee25f874","ios":"levelo://app?vid=788046ab-4020-4c6e-a0e2-de3aee25f874"},"vehicle_type_id":"4","last_reported":1746356882,"current_range_meters":25200,"station_id":"st_cvj6sg6p6f1abm77japg","pricing_plan_id":"cebpf4jnsgd1na2vs0mg"},{"bike_id":"51f9545c-4518-41db-a08f-a4d7caeaa00f","system_id":"levelo_inurba_marseille","lat":43.30531,"lon":5.36692,"is_reserved":false,"is_disabled":false,"rental_uris":{"android":"levelo://app?vid=51f9545c-4518-41db-a08f-a4d7caeaa00f","ios":"levelo://app?vid=51f9545c-4518-41db-a08f-a4d7caeaa00f"},"vehicle_type_id":"4","last_reported":1746356882,"current_range_meters":25600,"station_id":"ce4bgrp2rcd13ifvqc9g","pricing_plan_id":"cebpf4jnsgd1na2vs0mg"},{"bike_id":"a8dc2d7b-1879-452e-ac44-6ddb21e5b5ba","system_id":"levelo_inurba_marseille","lat":43.26955,"lon":5.38632,"is_reserved":false,"is_disabled":false,"rental_uris":{"android":"levelo://app?vid=a8dc2d7b-1879-452e-ac44-6ddb21e5b5ba","ios":"levelo://app?vid=a8dc2d7b-1879-452e-ac44-6ddb21e5b5ba"},"vehicle_type_id":"4","last_reported":1746356882,"current_range_meters":25600,"station_id":"ce4bhh92rcd13ifvqfh0","pricing_plan_id":"cebpf4jnsgd1na2vs0mg"},{"bike_id":"8bcc6079-f9a5-4a43-b5fe-9b5ee9cfedd3","system_id":"levelo_inurba_marseille","lat":43.30378,"lon":5.42483,"is_reserved":false,"is_disabled":false,"rental_uris":{"android":"levelo://app?vid=8bcc6079-f9a5-4a43-b5fe-9b5ee9cfedd3","ios":"levelo://app?vid=8bcc6079-f9a5-4a43-b5fe-9b5ee9cfedd3"},"vehicle_type_id":"4","last_reported":1746356882,"current_range_meters":25600,"station_id":"ce4bhoh2rcd13ifvqh6g","pricing_plan_id":"cebpf4jnsgd1na2vs0mg"},{"bike_id":"05f72166-866f-4b12-a198-7e2a645d62f6","system_id":"levelo_inurba_marseille","lat":43.33024,"lon":5.39036,"is_reserved":false,"is_disabled":false,"rental_uris":{"android":"levelo://app?vid=05f72166-866f-4b12-a198-7e2a645d62f6","ios":"levelo://app?vid=05f72166-866f-4b12-a198-7e2a645d62f6"},"vehicle_type_id":"4","last_reported":1746356882,"current_range_meters":25600,"station_id":"ce4bhr92rcd13ifvqhrg","pricing_plan_id":"cebpf4jnsgd1na2vs0mg"},{"bike_id":"0ff18444-7a08-4eca-a075-7fa4609ecba3","system_id":"levelo_inurba_marseille","lat":43.2511,"lon":5.40332,"is_reserved":false,"is_disabled":false,"rental_uris":{"android":"levelo://app?vid=0ff18444-7a08-4eca-a075-7fa4609ecba3","ios":"levelo://app?vid=0ff18444-7a08-4eca-a075-7fa4609ecba3"},"vehicle_type_id":"4","last_reported":1746356882,"current_range_meters":26000,"station_id":"ce4bhlh2rcd13ifvqgig","pricing_plan_id":"cebpf4jnsgd1na2vs0mg"},{"bike_id":"5659183f-5a1b-4a72-a657-aa0073554816","system_id":"levelo_inurba_marseille","lat":43.24177,"lon":5.39731,"is_reserved":false,"is_disabled":false,"rental_uris":{"android":"levelo://app?vid=5659183f-5a1b-4a72-a657-aa0073554816","ios":"levelo://app?vid=5659183f-5a1b-4a72-a657-aa0073554816"},"vehicle_type_id":"4","last_reported":1746356882,"current_range_meters":26000,"station_id":"ce4bhn12rcd13ifvqgpg","pricing_plan_id":"cebpf4jnsgd1na2vs0mg"},{"bike_id":"78359120-16cb-40b6-a039-0bed80a247f0","system_id":"levelo_inurba_marseille","lat":43.229337,"lon":5.353751,"is_reserved":false,"is_disabled":false,"rental_uris":{"android":"levelo://app?vid=78359120-16cb-40b6-a039-0bed80a247f0","ios":"levelo://app?vid=78359120-16cb-40b6-a039-0bed80a247f0"},"vehicle_type_id":"4","last_reported":1746356882,"current_range_meters":26000,"station_id":"cpo3532slgdg3j2ikp40","pricing_plan_id":"cebpf4jnsgd1na2vs0mg"},{"bike_id":"c4e53da5-a17e-42f5-8f2b-e02581ac460b","system_id":"levelo_inurba_marseille","lat":43.30943,"lon":5.39032,"is_reserved":false,"is_disabled":false,"rental_uris":{"android":"levelo://app?vid=c4e53da5-a17e-42f5-8f2b-e02581ac460b","ios":"levelo://app?vid=c4e53da5-a17e-42f5-8f2b-e02581ac460b"},"vehicle_type_id":"4","last_reported":1746356882,"current_range_meters":26800,"station_id":"ce4bgup2rcd13ifvqco0","pricing_plan_id":"cebpf4jnsgd1na2vs0mg"},{"bike_id":"febadd93-43e2-4bc6-aca9-ac265dd384a7","system_id":"levelo_inurba_marseille","lat":43.290313,"lon":5.399645,"is_reserved":false,"is_disabled":false,"rental_uris":{"android":"levelo://app?vid=febadd93-43e2-4bc6-aca9-ac265dd384a7","ios":"levelo://app?vid=febadd93-43e2-4bc6-aca9-ac265dd384a7"},"vehicle_type_id":"4","last_reported":1746356882,"current_range_meters":26800,"station_id":"ce4bh392rcd13ifvqdm0","pricing_plan_id":"cebpf4jnsgd1na2vs0mg"},{"bike_id":"82993db9-83ed-403a-9bc6-2daec1eb5090","system_id":"levelo_inurba_marseille","lat":43.28709,"lon":5.37391,"is_reserved":false,"is_disabled":false,"rental_uris":{"android":"levelo://app?vid=82993db9-83ed-403a-9bc6-2daec1eb5090","ios":"levelo://app?vid=82993db9-83ed-403a-9bc6-2daec1eb5090"},"vehicle_type_id":"4","last_reported":1746356882,"current_range_meters":26800,"station_id":"ce4bh3p2rcd13ifvqdq0","pricing_plan_id":"cebpf4jnsgd1na2vs0mg"},{"bike_id":"a9746714-3a3f-4835-b9b5-a0413ee75b28","system_id":"levelo_inurba_marseille","lat":43.25497,"lon":5.37638,"is_reserved":false,"is_disabled":false,"rental_uris":{"android":"levelo://app?vid=a9746714-3a3f-4835-b9b5-a0413ee75b28","ios":"levelo://app?vid=a9746714-3a3f-4835-b9b5-a0413ee75b28"},"vehicle_type_id":"4","last_reported":1746356882,"current_range_meters":26800,"station_id":"ce4bhh12rcd13ifvqff0","pricing_plan_id":"cebpf4jnsgd1na2vs0mg"},{"bike_id":"d097185d-16d4-4732-ab8e-68f401a39e98","system_id":"levelo_inurba_marseille","lat":43.24545,"lon":5.39529,"is_reserved":false,"is_disabled":false,"rental_uris":{"android":"levelo://app?vid=d097185d-16d4-4732-ab8e-68f401a39e98","ios":"levelo://app?vid=d097185d-16d4-4732-ab8e-68f401a39e98"},"vehicle_type_id":"4","last_reported":1746356882,"current_range_meters":26800,"station_id":"ce4bhlp2rcd13ifvqgjg","pricing_plan_id":"cebpf4jnsgd1na2vs0mg"},{"bike_id":"70931f74-c678-47c2-b96e-6054c0a672e4","system_id":"levelo_inurba_marseille","lat":43.31284,"lon":5.40166,"is_reserved":false,"is_disabled":false,"rental_uris":{"android":"levelo://app?vid=70931f74-c678-47c2-b96e-6054c0a672e4","ios":"levelo://app?vid=70931f74-c678-47c2-b96e-6054c0a672e4"},"vehicle_type_id":"4","last_reported":1746356882,"current_range_meters":27200,"station_id":"ce4bh092rcd13ifvqd30","pricing_plan_id":"cebpf4jnsgd1na2vs0mg"},{"bike_id":"a4d6bcd7-e218-4a4f-9027-cecad3642d76","system_id":"levelo_inurba_marseille","lat":43.298067,"lon":5.40372,"is_reserved":false,"is_disabled":false,"rental_uris":{"android":"levelo://app?vid=a4d6bcd7-e218-4a4f-9027-cecad3642d76","ios":"levelo://app?vid=a4d6bcd7-e218-4a4f-9027-cecad3642d76"},"vehicle_type_id":"4","last_reported":1746356882,"current_range_meters":27200,"station_id":"ce4bh112rcd13ifvqd90","pricing_plan_id":"cebpf4jnsgd1na2vs0mg"},{"bike_id":"1c18fa7b-4337-4618-8b7c-5bd40251b6b6","system_id":"levelo_inurba_marseille","lat":43.28274,"lon":5.35062,"is_reserved":false,"is_disabled":false,"rental_uris":{"android":"levelo://app?vid=1c18fa7b-4337-4618-8b7c-5bd40251b6b6","ios":"levelo://app?vid=1c18fa7b-4337-4618-8b7c-5bd40251b6b6"},"vehicle_type_id":"4","last_reported":1746356882,"current_range_meters":27200,"station_id":"ce4bhbp2rcd13ifvqerg","pricing_plan_id":"cebpf4jnsgd1na2vs0mg"},{"bike_id":"2961b9c9-daf4-49f0-b6d9-60118a4b2f2d","system_id":"levelo_inurba_marseille","lat":43.24389,"lon":5.37064,"is_reserved":false,"is_disabled":false,"rental_uris":{"android":"levelo://app?vid=2961b9c9-daf4-49f0-b6d9-60118a4b2f2d","ios":"levelo://app?vid=2961b9c9-daf4-49f0-b6d9-60118a4b2f2d"},"vehicle_type_id":"4","last_reported":1746356882,"current_range_meters":27200,"station_id":"ce4bhhh2rcd13ifvqfk0","pricing_plan_id":"cebpf4jnsgd1na2vs0mg"},{"bike_id":"1795f6c7-9ee6-46de-a8c5-1fca5e2caa44","system_id":"levelo_inurba_marseille","lat":43.28155,"lon":5.42647,"is_reserved":false,"is_disabled":false,"rental_uris":{"android":"levelo://app?vid=1795f6c7-9ee6-46de-a8c5-1fca5e2caa44","ios":"levelo://app?vid=1795f6c7-9ee6-46de-a8c5-1fca5e2caa44"},"vehicle_type_id":"4","last_reported":1746356882,"current_range_meters":27200,"station_id":"ce4bhnh2rcd13ifvqgug","pricing_plan_id":"cebpf4jnsgd1na2vs0mg"},{"bike_id":"a7af5df1-eff7-42d0-b469-0f868bb15bbd","system_id":"levelo_inurba_marseille","lat":43.29034,"lon":5.3997,"is_reserved":false,"is_disabled":false,"rental_uris":{"android":"levelo://app?vid=a7af5df1-eff7-42d0-b469-0f868bb15bbd","ios":"levelo://app?vid=a7af5df1-eff7-42d0-b469-0f868bb15bbd"},"vehicle_type_id":"4","last_reported":1746356882,"current_range_meters":27600,"station_id":"ce4bh392rcd13ifvqdm0","pricing_plan_id":"cebpf4jnsgd1na2vs0mg"},{"bike_id":"fbe1d9ba-bfc1-4d98-9708-d861a3280cb6","system_id":"levelo_inurba_marseille","lat":43.25491,"lon":5.37658,"is_reserved":false,"is_disabled":false,"rental_uris":{"android":"levelo://app?vid=fbe1d9ba-bfc1-4d98-9708-d861a3280cb6","ios":"levelo://app?vid=fbe1d9ba-bfc1-4d98-9708-d861a3280cb6"},"vehicle_type_id":"4","last_reported":1746356882,"current_range_meters":27600,"station_id":"ce4bhh12rcd13ifvqff0","pricing_plan_id":"cebpf4jnsgd1na2vs0mg"},{"bike_id":"5c41937a-1287-492b-8657-9430afc479a9","system_id":"levelo_inurba_marseille","lat":43.32102,"lon":5.36741,"is_reserved":false,"is_disabled":false,"rental_uris":{"android":"levelo://app?vid=5c41937a-1287-492b-8657-9430afc479a9","ios":"levelo://app?vid=5c41937a-1287-492b-8657-9430afc479a9"},"vehicle_type_id":"4","last_reported":1746356882,"current_range_meters":27600,"station_id":"ce4bhrh2rcd13ifvqhug","pricing_plan_id":"cebpf4jnsgd1na2vs0mg"},{"bike_id":"4816de97-e264-468b-b3c3-74f635f7af5b","system_id":"levelo_inurba_marseille","lat":43.321899,"lon":5.383045,"is_reserved":false,"is_disabled":false,"rental_uris":{"android":"levelo://app?vid=4816de97-e264-468b-b3c3-74f635f7af5b","ios":"levelo://app?vid=4816de97-e264-468b-b3c3-74f635f7af5b"},"vehicle_type_id":"4","last_reported":1746356882,"current_range_meters":28000,"station_id":"","pricing_plan_id":"cebpf4jnsgd1na2vs0mg"},{"bike_id":"76bc7334-8283-4569-8062-33791d4ad4f2","system_id":"levelo_inurba_marseille","lat":43.29835,"lon":5.36259,"is_reserved":false,"is_disabled":false,"rental_uris":{"android":"levelo://app?vid=76bc7334-8283-4569-8062-33791d4ad4f2","ios":"levelo://app?vid=76bc7334-8283-4569-8062-33791d4ad4f2"},"vehicle_type_id":"4","last_reported":1746356882,"current_range_meters":28000,"station_id":"ce4bgpp2rcd13ifvqc3g","pricing_plan_id":"cebpf4jnsgd1na2vs0mg"},{"bike_id":"7f69348d-6594-4ce6-9ef9-9671500f8490","system_id":"levelo_inurba_marseille","lat":43.305387,"lon":5.365545,"is_reserved":false,"is_disabled":false,"rental_uris":{"android":"levelo://app?vid=7f69348d-6594-4ce6-9ef9-9671500f8490","ios":"levelo://app?vid=7f69348d-6594-4ce6-9ef9-9671500f8490"},"vehicle_type_id":"4","last_reported":1746356882,"current_range_meters":28000,"station_id":"ce4bgs12rcd13ifvqcag","pricing_plan_id":"cebpf4jnsgd1na2vs0mg"},{"bike_id":"2acc1f26-5153-4e98-afe0-80d86d9d7520","system_id":"levelo_inurba_marseille","lat":43.31684,"lon":5.40494,"is_reserved":false,"is_disabled":false,"rental_uris":{"android":"levelo://app?vid=2acc1f26-5153-4e98-afe0-80d86d9d7520","ios":"levelo://app?vid=2acc1f26-5153-4e98-afe0-80d86d9d7520"},"vehicle_type_id":"4","last_reported":1746356882,"current_range_meters":28000,"station_id":"ce4bh012rcd13ifvqd00","pricing_plan_id":"cebpf4jnsgd1na2vs0mg"},{"bike_id":"fff989e9-64dd-40de-8a4c-e30222516b94","system_id":"levelo_inurba_marseille","lat":43.2815,"lon":5.42647,"is_reserved":false,"is_disabled":false,"rental_uris":{"android":"levelo://app?vid=fff989e9-64dd-40de-8a4c-e30222516b94","ios":"levelo://app?vid=fff989e9-64dd-40de-8a4c-e30222516b94"},"vehicle_type_id":"4","last_reported":1746356882,"current_range_meters":28000,"station_id":"ce4bhnh2rcd13ifvqgug","pricing_plan_id":"cebpf4jnsgd1na2vs0mg"},{"bike_id":"a0e9152d-a2e4-425a-86ed-cda23172f4e8","system_id":"levelo_inurba_marseille","lat":43.27942,"lon":5.41047,"is_reserved":false,"is_disabled":false,"rental_uris":{"android":"levelo://app?vid=a0e9152d-a2e4-425a-86ed-cda23172f4e8","ios":"levelo://app?vid=a0e9152d-a2e4-425a-86ed-cda23172f4e8"},"vehicle_type_id":"4","last_reported":1746356882,"current_range_meters":28000,"station_id":"ce4bhnp2rcd13ifvqh0g","pricing_plan_id":"cebpf4jnsgd1na2vs0mg"},{"bike_id":"3a63acc5-b352-4e5e-8ce6-37badecb6507","system_id":"levelo_inurba_marseille","lat":43.29488,"lon":5.41835,"is_reserved":false,"is_disabled":false,"rental_uris":{"android":"levelo://app?vid=3a63acc5-b352-4e5e-8ce6-37badecb6507","ios":"levelo://app?vid=3a63acc5-b352-4e5e-8ce6-37badecb6507"},"vehicle_type_id":"4","last_reported":1746356882,"current_range_meters":28400,"station_id":"","pricing_plan_id":"cebpf4jnsgd1na2vs0mg"},{"bike_id":"a8819748-edf9-41b5-b3e0-d76da530f165","system_id":"levelo_inurba_marseille","lat":43.30794,"lon":5.38151,"is_reserved":false,"is_disabled":false,"rental_uris":{"android":"levelo://app?vid=a8819748-edf9-41b5-b3e0-d76da530f165","ios":"levelo://app?vid=a8819748-edf9-41b5-b3e0-d76da530f165"},"vehicle_type_id":"4","last_reported":1746356882,"current_range_meters":28400,"station_id":"ce4bgt12rcd13ifvqce0","pricing_plan_id":"cebpf4jnsgd1na2vs0mg"},{"bike_id":"ced7c0de-4ddf-4b50-b172-7ad528f8426d","system_id":"levelo_inurba_marseille","lat":43.25519,"lon":5.37649,"is_reserved":false,"is_disabled":false,"rental_uris":{"android":"levelo://app?vid=ced7c0de-4ddf-4b50-b172-7ad528f8426d","ios":"levelo://app?vid=ced7c0de-4ddf-4b50-b172-7ad528f8426d"},"vehicle_type_id":"4","last_reported":1746356882,"current_range_meters":28400,"station_id":"ce4bhh12rcd13ifvqff0","pricing_plan_id":"cebpf4jnsgd1na2vs0mg"},{"bike_id":"f91f1435-5b30-4930-9214-f243e3ab905a","system_id":"levelo_inurba_marseille","lat":43.23968,"lon":5.36628,"is_reserved":false,"is_disabled":false,"rental_uris":{"android":"levelo://app?vid=f91f1435-5b30-4930-9214-f243e3ab905a","ios":"levelo://app?vid=f91f1435-5b30-4930-9214-f243e3ab905a"},"vehicle_type_id":"4","last_reported":1746356882,"current_range_meters":28400,"station_id":"ce4bhi12rcd13ifvqfp0","pricing_plan_id":"cebpf4jnsgd1na2vs0mg"},{"bike_id":"0edc845a-0cff-4943-912e-c7a1f076a3cc","system_id":"levelo_inurba_marseille","lat":43.25821,"lon":5.39431,"is_reserved":false,"is_disabled":false,"rental_uris":{"android":"levelo://app?vid=0edc845a-0cff-4943-912e-c7a1f076a3cc","ios":"levelo://app?vid=0edc845a-0cff-4943-912e-c7a1f076a3cc"},"vehicle_type_id":"4","last_reported":1746356882,"current_range_meters":28400,"station_id":"ce4bhip2rcd13ifvqft0","pricing_plan_id":"cebpf4jnsgd1na2vs0mg"},{"bike_id":"d16c5285-25ba-40bc-a783-f5a4e78a3b23","system_id":"levelo_inurba_marseille","lat":43.23185,"lon":5.39997,"is_reserved":false,"is_disabled":false,"rental_uris":{"android":"levelo://app?vid=d16c5285-25ba-40bc-a783-f5a4e78a3b23","ios":"levelo://app?vid=d16c5285-25ba-40bc-a783-f5a4e78a3b23"},"vehicle_type_id":"4","last_reported":1746356882,"current_range_meters":28400,"station_id":"ce4bhn12rcd13ifvqgqg","pricing_plan_id":"cebpf4jnsgd1na2vs0mg"},{"bike_id":"ed3ce873-fbb4-4328-a36b-6567024c3b23","system_id":"levelo_inurba_marseille","lat":43.30801,"lon":5.43521,"is_reserved":false,"is_disabled":false,"rental_uris":{"android":"levelo://app?vid=ed3ce873-fbb4-4328-a36b-6567024c3b23","ios":"levelo://app?vid=ed3ce873-fbb4-4328-a36b-6567024c3b23"},"vehicle_type_id":"4","last_reported":1746356882,"current_range_meters":28400,"station_id":"ce4bhph2rcd13ifvqheg","pricing_plan_id":"cebpf4jnsgd1na2vs0mg"},{"bike_id":"9c23c034-301f-48d8-b83c-48751fb691a9","system_id":"levelo_inurba_marseille","lat":43.29664,"lon":5.37286,"is_reserved":false,"is_disabled":false,"rental_uris":{"android":"levelo://app?vid=9c23c034-301f-48d8-b83c-48751fb691a9","ios":"levelo://app?vid=9c23c034-301f-48d8-b83c-48751fb691a9"},"vehicle_type_id":"4","last_reported":1746356882,"current_range_meters":28800,"station_id":"ce4bgk12rcd13ifvqbj0","pricing_plan_id":"cebpf4jnsgd1na2vs0mg"},{"bike_id":"e1fea8e4-ce01-48e8-9ccb-ed4b27d62a66","system_id":"levelo_inurba_marseille","lat":43.25569,"lon":5.38263,"is_reserved":false,"is_disabled":false,"rental_uris":{"android":"levelo://app?vid=e1fea8e4-ce01-48e8-9ccb-ed4b27d62a66","ios":"levelo://app?vid=e1fea8e4-ce01-48e8-9ccb-ed4b27d62a66"},"vehicle_type_id":"4","last_reported":1746356882,"current_range_meters":28800,"station_id":"ce4bhih2rcd13ifvqfs0","pricing_plan_id":"cebpf4jnsgd1na2vs0mg"},{"bike_id":"f8b0b83e-3275-4842-8279-54953a201dd7","system_id":"levelo_inurba_marseille","lat":43.26229,"lon":5.40453,"is_reserved":false,"is_disabled":false,"rental_uris":{"android":"levelo://app?vid=f8b0b83e-3275-4842-8279-54953a201dd7","ios":"levelo://app?vid=f8b0b83e-3275-4842-8279-54953a201dd7"},"vehicle_type_id":"4","last_reported":1746356882,"current_range_meters":28800,"station_id":"ce4bhmh2rcd13ifvqgmg","pricing_plan_id":"cebpf4jnsgd1na2vs0mg"},{"bike_id":"f88ffc64-2083-4f58-84ca-5979fd9cb816","system_id":"levelo_inurba_marseille","lat":43.27932,"lon":5.41034,"is_reserved":false,"is_disabled":false,"rental_uris":{"android":"levelo://app?vid=f88ffc64-2083-4f58-84ca-5979fd9cb816","ios":"levelo://app?vid=f88ffc64-2083-4f58-84ca-5979fd9cb816"},"vehicle_type_id":"4","last_reported":1746356882,"current_range_meters":28800,"station_id":"ce4bhnp2rcd13ifvqh0g","pricing_plan_id":"cebpf4jnsgd1na2vs0mg"},{"bike_id":"d5c9649b-d2fa-4192-b285-642dc21efb14","system_id":"levelo_inurba_marseille","lat":43.32659,"lon":5.40993,"is_reserved":false,"is_disabled":false,"rental_uris":{"android":"levelo://app?vid=d5c9649b-d2fa-4192-b285-642dc21efb14","ios":"levelo://app?vid=d5c9649b-d2fa-4192-b285-642dc21efb14"},"vehicle_type_id":"4","last_reported":1746356882,"current_range_meters":28800,"station_id":"ce4bhpp2rcd13ifvqhgg","pricing_plan_id":"cebpf4jnsgd1na2vs0mg"},{"bike_id":"1bcedd05-90fb-4c2c-b71e-896ea9a48d5f","system_id":"levelo_inurba_marseille","lat":43.29338,"lon":5.43428,"is_reserved":false,"is_disabled":false,"rental_uris":{"android":"levelo://app?vid=1bcedd05-90fb-4c2c-b71e-896ea9a48d5f","ios":"levelo://app?vid=1bcedd05-90fb-4c2c-b71e-896ea9a48d5f"},"vehicle_type_id":"4","last_reported":1746356882,"current_range_meters":29600,"station_id":"","pricing_plan_id":"cebpf4jnsgd1na2vs0mg"},{"bike_id":"62cdf6a2-7358-4523-8f75-b12d42eef460","system_id":"levelo_inurba_marseille","lat":43.29302,"lon":5.37185,"is_reserved":false,"is_disabled":false,"rental_uris":{"android":"levelo://app?vid=62cdf6a2-7358-4523-8f75-b12d42eef460","ios":"levelo://app?vid=62cdf6a2-7358-4523-8f75-b12d42eef460"},"vehicle_type_id":"4","last_reported":1746356882,"current_range_meters":29600,"station_id":"ce4bgh92rcd13ifvqb40","pricing_plan_id":"cebpf4jnsgd1na2vs0mg"},{"bike_id":"6659407e-c325-4cfb-9a5b-765725f864ec","system_id":"levelo_inurba_marseille","lat":43.308005,"lon":5.381506,"is_reserved":false,"is_disabled":false,"rental_uris":{"android":"levelo://app?vid=6659407e-c325-4cfb-9a5b-765725f864ec","ios":"levelo://app?vid=6659407e-c325-4cfb-9a5b-765725f864ec"},"vehicle_type_id":"4","last_reported":1746356882,"current_range_meters":29600,"station_id":"ce4bgt12rcd13ifvqce0","pricing_plan_id":"cebpf4jnsgd1na2vs0mg"},{"bike_id":"c47e95e2-0423-428b-a74b-ec08d505f67a","system_id":"levelo_inurba_marseille","lat":43.30459,"lon":5.37914,"is_reserved":false,"is_disabled":false,"rental_uris":{"android":"levelo://app?vid=c47e95e2-0423-428b-a74b-ec08d505f67a","ios":"levelo://app?vid=c47e95e2-0423-428b-a74b-ec08d505f67a"},"vehicle_type_id":"4","last_reported":1746356882,"current_range_meters":29600,"station_id":"ce4bgup2rcd13ifvqcn0","pricing_plan_id":"cebpf4jnsgd1na2vs0mg"},{"bike_id":"7bec34c0-748a-4192-95e1-c151948fccb0","system_id":"levelo_inurba_marseille","lat":43.30793,"lon":5.3765,"is_reserved":false,"is_disabled":false,"rental_uris":{"android":"levelo://app?vid=7bec34c0-748a-4192-95e1-c151948fccb0","ios":"levelo://app?vid=7bec34c0-748a-4192-95e1-c151948fccb0"},"vehicle_type_id":"4","last_reported":1746356882,"current_range_meters":29600,"station_id":"ce4bgv92rcd13ifvqcq0","pricing_plan_id":"cebpf4jnsgd1na2vs0mg"},{"bike_id":"899a204a-5ced-4c68-bf66-e64263b6b16f","system_id":"levelo_inurba_marseille","lat":43.28273,"lon":5.35062,"is_reserved":false,"is_disabled":false,"rental_uris":{"android":"levelo://app?vid=899a204a-5ced-4c68-bf66-e64263b6b16f","ios":"levelo://app?vid=899a204a-5ced-4c68-bf66-e64263b6b16f"},"vehicle_type_id":"4","last_reported":1746356882,"current_range_meters":29600,"station_id":"ce4bhbp2rcd13ifvqerg","pricing_plan_id":"cebpf4jnsgd1na2vs0mg"},{"bike_id":"977f4bb4-3d44-493d-b5a1-22093907125a","system_id":"levelo_inurba_marseille","lat":43.27075,"lon":5.42276,"is_reserved":false,"is_disabled":false,"rental_uris":{"android":"levelo://app?vid=977f4bb4-3d44-493d-b5a1-22093907125a","ios":"levelo://app?vid=977f4bb4-3d44-493d-b5a1-22093907125a"},"vehicle_type_id":"4","last_reported":1746356882,"current_range_meters":29600,"station_id":"ce4bhk92rcd13ifvqgb0","pricing_plan_id":"cebpf4jnsgd1na2vs0mg"},{"bike_id":"38214a63-ce33-4893-9845-0c7338a97e1e","system_id":"levelo_inurba_marseille","lat":43.32291,"lon":5.38299,"is_reserved":false,"is_disabled":false,"rental_uris":{"android":"levelo://app?vid=38214a63-ce33-4893-9845-0c7338a97e1e","ios":"levelo://app?vid=38214a63-ce33-4893-9845-0c7338a97e1e"},"vehicle_type_id":"4","last_reported":1746356882,"current_range_meters":29600,"station_id":"ce4bhr12rcd13ifvqhqg","pricing_plan_id":"cebpf4jnsgd1na2vs0mg"},{"bike_id":"505c6cb0-9945-457b-8566-a850f9d80017","system_id":"levelo_inurba_marseille","lat":43.21759,"lon":5.34595,"is_reserved":false,"is_disabled":false,"rental_uris":{"android":"levelo://app?vid=505c6cb0-9945-457b-8566-a850f9d80017","ios":"levelo://app?vid=505c6cb0-9945-457b-8566-a850f9d80017"},"vehicle_type_id":"4","last_reported":1746356882,"current_range_meters":30000,"station_id":"","pricing_plan_id":"cebpf4jnsgd1na2vs0mg"},{"bike_id":"ded42051-0039-4cc2-a841-aeed54376989","system_id":"levelo_inurba_marseille","lat":43.265233,"lon":5.424366,"is_reserved":false,"is_disabled":false,"rental_uris":{"android":"levelo://app?vid=ded42051-0039-4cc2-a841-aeed54376989","ios":"levelo://app?vid=ded42051-0039-4cc2-a841-aeed54376989"},"vehicle_type_id":"4","last_reported":1746356882,"current_range_meters":30000,"station_id":"","pricing_plan_id":"cebpf4jnsgd1na2vs0mg"},{"bike_id":"a15b755c-21c5-46bf-a272-6fbb48002fba","system_id":"levelo_inurba_marseille","lat":43.29021,"lon":5.39988,"is_reserved":false,"is_disabled":false,"rental_uris":{"android":"levelo://app?vid=a15b755c-21c5-46bf-a272-6fbb48002fba","ios":"levelo://app?vid=a15b755c-21c5-46bf-a272-6fbb48002fba"},"vehicle_type_id":"4","last_reported":1746356882,"current_range_meters":30000,"station_id":"ce4bh392rcd13ifvqdm0","pricing_plan_id":"cebpf4jnsgd1na2vs0mg"},{"bike_id":"d919555e-c032-4529-9e6e-00f4925c6d8d","system_id":"levelo_inurba_marseille","lat":43.24387,"lon":5.37043,"is_reserved":false,"is_disabled":false,"rental_uris":{"android":"levelo://app?vid=d919555e-c032-4529-9e6e-00f4925c6d8d","ios":"levelo://app?vid=d919555e-c032-4529-9e6e-00f4925c6d8d"},"vehicle_type_id":"4","last_reported":1746356882,"current_range_meters":30000,"station_id":"ce4bhhh2rcd13ifvqfk0","pricing_plan_id":"cebpf4jnsgd1na2vs0mg"},{"bike_id":"5b3c375b-5917-4930-beac-3ad9b887e5ed","system_id":"levelo_inurba_marseille","lat":43.307767,"lon":5.376567,"is_reserved":false,"is_disabled":false,"rental_uris":{"android":"levelo://app?vid=5b3c375b-5917-4930-beac-3ad9b887e5ed","ios":"levelo://app?vid=5b3c375b-5917-4930-beac-3ad9b887e5ed"},"vehicle_type_id":"4","last_reported":1746356882,"current_range_meters":30400,"station_id":"ce4bgv92rcd13ifvqcq0","pricing_plan_id":"cebpf4jnsgd1na2vs0mg"},{"bike_id":"ec0c71e9-2930-4223-8d41-276c4e9f3d4b","system_id":"levelo_inurba_marseille","lat":43.310764,"lon":5.383538,"is_reserved":false,"is_disabled":false,"rental_uris":{"android":"levelo://app?vid=ec0c71e9-2930-4223-8d41-276c4e9f3d4b","ios":"levelo://app?vid=ec0c71e9-2930-4223-8d41-276c4e9f3d4b"},"vehicle_type_id":"4","last_reported":1746356882,"current_range_meters":30400,"station_id":"ce4bgv92rcd13ifvqcr0","pricing_plan_id":"cebpf4jnsgd1na2vs0mg"},{"bike_id":"4ada9ae5-1fdb-4b04-97e5-f6e979f4579d","system_id":"levelo_inurba_marseille","lat":43.312752,"lon":5.401733,"is_reserved":false,"is_disabled":false,"rental_uris":{"android":"levelo://app?vid=4ada9ae5-1fdb-4b04-97e5-f6e979f4579d","ios":"levelo://app?vid=4ada9ae5-1fdb-4b04-97e5-f6e979f4579d"},"vehicle_type_id":"4","last_reported":1746356882,"current_range_meters":30400,"station_id":"ce4bh092rcd13ifvqd30","pricing_plan_id":"cebpf4jnsgd1na2vs0mg"},{"bike_id":"0589fecf-5749-4274-8542-7e6934bb30a6","system_id":"levelo_inurba_marseille","lat":43.30133,"lon":5.39873,"is_reserved":false,"is_disabled":false,"rental_uris":{"android":"levelo://app?vid=0589fecf-5749-4274-8542-7e6934bb30a6","ios":"levelo://app?vid=0589fecf-5749-4274-8542-7e6934bb30a6"},"vehicle_type_id":"4","last_reported":1746356882,"current_range_meters":30400,"station_id":"ce4bh0h2rcd13ifvqd40","pricing_plan_id":"cebpf4jnsgd1na2vs0mg"},{"bike_id":"6eb3419c-2c0c-4905-8e0f-bf02fd82e3af","system_id":"levelo_inurba_marseille","lat":43.25497,"lon":5.37647,"is_reserved":false,"is_disabled":false,"rental_uris":{"android":"levelo://app?vid=6eb3419c-2c0c-4905-8e0f-bf02fd82e3af","ios":"levelo://app?vid=6eb3419c-2c0c-4905-8e0f-bf02fd82e3af"},"vehicle_type_id":"4","last_reported":1746356882,"current_range_meters":30400,"station_id":"ce4bhh12rcd13ifvqff0","pricing_plan_id":"cebpf4jnsgd1na2vs0mg"},{"bike_id":"aa7b8acc-9a89-40dd-bb10-682b7be499d8","system_id":"levelo_inurba_marseille","lat":43.232,"lon":5.35562,"is_reserved":false,"is_disabled":false,"rental_uris":{"android":"levelo://app?vid=aa7b8acc-9a89-40dd-bb10-682b7be499d8","ios":"levelo://app?vid=aa7b8acc-9a89-40dd-bb10-682b7be499d8"},"vehicle_type_id":"4","last_reported":1746356882,"current_range_meters":30800,"station_id":"ce4bhu92rcd13ifvqi70","pricing_plan_id":"cebpf4jnsgd1na2vs0mg"},{"bike_id":"d6ac04bc-0bf4-46cb-961d-e180c39840ec","system_id":"levelo_inurba_marseille","lat":43.30783,"lon":5.37648,"is_reserved":false,"is_disabled":false,"rental_uris":{"android":"levelo://app?vid=d6ac04bc-0bf4-46cb-961d-e180c39840ec","ios":"levelo://app?vid=d6ac04bc-0bf4-46cb-961d-e180c39840ec"},"vehicle_type_id":"4","last_reported":1746356882,"current_range_meters":31200,"station_id":"ce4bgv92rcd13ifvqcq0","pricing_plan_id":"cebpf4jnsgd1na2vs0mg"},{"bike_id":"5f56f333-de02-4f6f-a5b1-d3e56027e0b2","system_id":"levelo_inurba_marseille","lat":43.23948,"lon":5.36675,"is_reserved":false,"is_disabled":false,"rental_uris":{"android":"levelo://app?vid=5f56f333-de02-4f6f-a5b1-d3e56027e0b2","ios":"levelo://app?vid=5f56f333-de02-4f6f-a5b1-d3e56027e0b2"},"vehicle_type_id":"4","last_reported":1746356882,"current_range_meters":31200,"station_id":"ce4bhi12rcd13ifvqfp0","pricing_plan_id":"cebpf4jnsgd1na2vs0mg"},{"bike_id":"7515860d-853e-4aff-9408-85c0a7872c1e","system_id":"levelo_inurba_marseille","lat":43.34455,"lon":5.35876,"is_reserved":false,"is_disabled":false,"rental_uris":{"android":"levelo://app?vid=7515860d-853e-4aff-9408-85c0a7872c1e","ios":"levelo://app?vid=7515860d-853e-4aff-9408-85c0a7872c1e"},"vehicle_type_id":"4","last_reported":1746356882,"current_range_meters":32000,"station_id":"","pricing_plan_id":"cebpf4jnsgd1na2vs0mg"},{"bike_id":"a80f049d-bbc1-4322-aae8-fa641c99e04a","system_id":"levelo_inurba_marseille","lat":43.30932,"lon":5.40165,"is_reserved":false,"is_disabled":false,"rental_uris":{"android":"levelo://app?vid=a80f049d-bbc1-4322-aae8-fa641c99e04a","ios":"levelo://app?vid=a80f049d-bbc1-4322-aae8-fa641c99e04a"},"vehicle_type_id":"4","last_reported":1746356882,"current_range_meters":32000,"station_id":"ce4bgvp2rcd13ifvqct0","pricing_plan_id":"cebpf4jnsgd1na2vs0mg"},{"bike_id":"b91569e1-6d09-4df0-bde3-4179e02b939a","system_id":"levelo_inurba_marseille","lat":43.30932,"lon":5.40179,"is_reserved":false,"is_disabled":false,"rental_uris":{"android":"levelo://app?vid=b91569e1-6d09-4df0-bde3-4179e02b939a","ios":"levelo://app?vid=b91569e1-6d09-4df0-bde3-4179e02b939a"},"vehicle_type_id":"4","last_reported":1746356882,"current_range_meters":32000,"station_id":"ce4bgvp2rcd13ifvqct0","pricing_plan_id":"cebpf4jnsgd1na2vs0mg"},{"bike_id":"738f9d10-797b-4b7c-8817-9d9ddbdad58b","system_id":"levelo_inurba_marseille","lat":43.2841,"lon":5.34978,"is_reserved":false,"is_disabled":false,"rental_uris":{"android":"levelo://app?vid=738f9d10-797b-4b7c-8817-9d9ddbdad58b","ios":"levelo://app?vid=738f9d10-797b-4b7c-8817-9d9ddbdad58b"},"vehicle_type_id":"4","last_reported":1746356882,"current_range_meters":32000,"station_id":"ce4bhbh2rcd13ifvqepg","pricing_plan_id":"cebpf4jnsgd1na2vs0mg"},{"bike_id":"d121b293-6364-4c3a-8874-23e8de75304d","system_id":"levelo_inurba_marseille","lat":43.24388,"lon":5.37049,"is_reserved":false,"is_disabled":false,"rental_uris":{"android":"levelo://app?vid=d121b293-6364-4c3a-8874-23e8de75304d","ios":"levelo://app?vid=d121b293-6364-4c3a-8874-23e8de75304d"},"vehicle_type_id":"4","last_reported":1746356882,"current_range_meters":32000,"station_id":"ce4bhhh2rcd13ifvqfk0","pricing_plan_id":"cebpf4jnsgd1na2vs0mg"},{"bike_id":"9f3afa24-da66-4429-b706-9436fb115cd8","system_id":"levelo_inurba_marseille","lat":43.32483,"lon":5.36568,"is_reserved":false,"is_disabled":false,"rental_uris":{"android":"levelo://app?vid=9f3afa24-da66-4429-b706-9436fb115cd8","ios":"levelo://app?vid=9f3afa24-da66-4429-b706-9436fb115cd8"},"vehicle_type_id":"4","last_reported":1746356882,"current_range_meters":32000,"station_id":"ce4bhs12rcd13ifvqhvg","pricing_plan_id":"cebpf4jnsgd1na2vs0mg"},{"bike_id":"bf8fc610-7e18-470c-96e2-8e44c831b3c7","system_id":"levelo_inurba_marseille","lat":43.32358,"lon":5.36757,"is_reserved":false,"is_disabled":false,"rental_uris":{"android":"levelo://app?vid=bf8fc610-7e18-470c-96e2-8e44c831b3c7","ios":"levelo://app?vid=bf8fc610-7e18-470c-96e2-8e44c831b3c7"},"vehicle_type_id":"4","last_reported":1746356882,"current_range_meters":32000,"station_id":"ce4bhsh2rcd13ifvqi2g","pricing_plan_id":"cebpf4jnsgd1na2vs0mg"},{"bike_id":"4fc45c9c-759e-43bb-8f90-9172c11c6dcc","system_id":"levelo_inurba_marseille","lat":43.2319,"lon":5.35554,"is_reserved":false,"is_disabled":false,"rental_uris":{"android":"levelo://app?vid=4fc45c9c-759e-43bb-8f90-9172c11c6dcc","ios":"levelo://app?vid=4fc45c9c-759e-43bb-8f90-9172c11c6dcc"},"vehicle_type_id":"4","last_reported":1746356882,"current_range_meters":32000,"station_id":"ce4bhu92rcd13ifvqi70","pricing_plan_id":"cebpf4jnsgd1na2vs0mg"},{"bike_id":"da405137-394f-4343-bf6f-fa43c24d159c","system_id":"levelo_inurba_marseille","lat":43.28484,"lon":5.38417,"is_reserved":false,"is_disabled":false,"rental_uris":{"android":"levelo://app?vid=da405137-394f-4343-bf6f-fa43c24d159c","ios":"levelo://app?vid=da405137-394f-4343-bf6f-fa43c24d159c"},"vehicle_type_id":"4","last_reported":1746356882,"current_range_meters":32400,"station_id":"ce4bh512rcd13ifvqe3g","pricing_plan_id":"cebpf4jnsgd1na2vs0mg"},{"bike_id":"29e053a9-5b1c-46e1-85c8-c95649dfe0a3","system_id":"levelo_inurba_marseille","lat":43.28038,"lon":5.36955,"is_reserved":false,"is_disabled":false,"rental_uris":{"android":"levelo://app?vid=29e053a9-5b1c-46e1-85c8-c95649dfe0a3","ios":"levelo://app?vid=29e053a9-5b1c-46e1-85c8-c95649dfe0a3"},"vehicle_type_id":"4","last_reported":1746356882,"current_range_meters":32400,"station_id":"ce4bha12rcd13ifvqef0","pricing_plan_id":"cebpf4jnsgd1na2vs0mg"},{"bike_id":"c05a2c3b-c2e1-465c-9f4c-485cdd7d3ce5","system_id":"levelo_inurba_marseille","lat":43.28159,"lon":5.42645,"is_reserved":false,"is_disabled":false,"rental_uris":{"android":"levelo://app?vid=c05a2c3b-c2e1-465c-9f4c-485cdd7d3ce5","ios":"levelo://app?vid=c05a2c3b-c2e1-465c-9f4c-485cdd7d3ce5"},"vehicle_type_id":"4","last_reported":1746356882,"current_range_meters":32400,"station_id":"ce4bhnh2rcd13ifvqgug","pricing_plan_id":"cebpf4jnsgd1na2vs0mg"},{"bike_id":"02bf946f-9ae2-4b40-b69e-bc20ce780d41","system_id":"levelo_inurba_marseille","lat":43.31884,"lon":5.40743,"is_reserved":false,"is_disabled":false,"rental_uris":{"android":"levelo://app?vid=02bf946f-9ae2-4b40-b69e-bc20ce780d41","ios":"levelo://app?vid=02bf946f-9ae2-4b40-b69e-bc20ce780d41"},"vehicle_type_id":"4","last_reported":1746356882,"current_range_meters":32400,"station_id":"ce4bhq12rcd13ifvqhig","pricing_plan_id":"cebpf4jnsgd1na2vs0mg"},{"bike_id":"6f10c397-2fb9-4802-915f-b2f2dce9e14a","system_id":"levelo_inurba_marseille","lat":43.230511,"lon":5.354919,"is_reserved":false,"is_disabled":false,"rental_uris":{"android":"levelo://app?vid=6f10c397-2fb9-4802-915f-b2f2dce9e14a","ios":"levelo://app?vid=6f10c397-2fb9-4802-915f-b2f2dce9e14a"},"vehicle_type_id":"4","last_reported":1746356882,"current_range_meters":32400,"station_id":"cpo3342slgdg3j2ifvpg","pricing_plan_id":"cebpf4jnsgd1na2vs0mg"},{"bike_id":"8e539eab-4306-49f8-968b-782cbb25082e","system_id":"levelo_inurba_marseille","lat":43.24504,"lon":5.39541,"is_reserved":false,"is_disabled":false,"rental_uris":{"android":"levelo://app?vid=8e539eab-4306-49f8-968b-782cbb25082e","ios":"levelo://app?vid=8e539eab-4306-49f8-968b-782cbb25082e"},"vehicle_type_id":"4","last_reported":1746356882,"current_range_meters":32800,"station_id":"","pricing_plan_id":"cebpf4jnsgd1na2vs0mg"},{"bike_id":"196fc0a1-9074-4df3-8637-e709b384d44b","system_id":"levelo_inurba_marseille","lat":43.28488,"lon":5.38423,"is_reserved":false,"is_disabled":false,"rental_uris":{"android":"levelo://app?vid=196fc0a1-9074-4df3-8637-e709b384d44b","ios":"levelo://app?vid=196fc0a1-9074-4df3-8637-e709b384d44b"},"vehicle_type_id":"4","last_reported":1746356882,"current_range_meters":32800,"station_id":"ce4bh512rcd13ifvqe3g","pricing_plan_id":"cebpf4jnsgd1na2vs0mg"},{"bike_id":"c24e91d4-c3f8-46f4-8526-164dec99391f","system_id":"levelo_inurba_marseille","lat":43.249974,"lon":5.389332,"is_reserved":false,"is_disabled":false,"rental_uris":{"android":"levelo://app?vid=c24e91d4-c3f8-46f4-8526-164dec99391f","ios":"levelo://app?vid=c24e91d4-c3f8-46f4-8526-164dec99391f"},"vehicle_type_id":"4","last_reported":1746356882,"current_range_meters":32800,"station_id":"ce4bhgp2rcd13ifvqfd0","pricing_plan_id":"cebpf4jnsgd1na2vs0mg"},{"bike_id":"3d182036-bdd6-4f54-89bc-48343b446c06","system_id":"levelo_inurba_marseille","lat":43.27943,"lon":5.4105,"is_reserved":false,"is_disabled":false,"rental_uris":{"android":"levelo://app?vid=3d182036-bdd6-4f54-89bc-48343b446c06","ios":"levelo://app?vid=3d182036-bdd6-4f54-89bc-48343b446c06"},"vehicle_type_id":"4","last_reported":1746356882,"current_range_meters":32800,"station_id":"ce4bhnp2rcd13ifvqh0g","pricing_plan_id":"cebpf4jnsgd1na2vs0mg"},{"bike_id":"db4d2c03-5fa1-4290-8eeb-444f9eef9a07","system_id":"levelo_inurba_marseille","lat":43.33025,"lon":5.39031,"is_reserved":false,"is_disabled":false,"rental_uris":{"android":"levelo://app?vid=db4d2c03-5fa1-4290-8eeb-444f9eef9a07","ios":"levelo://app?vid=db4d2c03-5fa1-4290-8eeb-444f9eef9a07"},"vehicle_type_id":"4","last_reported":1746356882,"current_range_meters":32800,"station_id":"ce4bhr92rcd13ifvqhrg","pricing_plan_id":"cebpf4jnsgd1na2vs0mg"},{"bike_id":"06035d18-0a5f-45e3-bfe0-68b6d2a10cc4","system_id":"levelo_inurba_marseille","lat":43.32366,"lon":5.367686,"is_reserved":false,"is_disabled":false,"rental_uris":{"android":"levelo://app?vid=06035d18-0a5f-45e3-bfe0-68b6d2a10cc4","ios":"levelo://app?vid=06035d18-0a5f-45e3-bfe0-68b6d2a10cc4"},"vehicle_type_id":"4","last_reported":1746356882,"current_range_meters":32800,"station_id":"ce4bhsh2rcd13ifvqi2g","pricing_plan_id":"cebpf4jnsgd1na2vs0mg"},{"bike_id":"a6ef1a95-4d7b-4fa1-aca4-666b791716c9","system_id":"levelo_inurba_marseille","lat":43.33594,"lon":5.42808,"is_reserved":false,"is_disabled":false,"rental_uris":{"android":"levelo://app?vid=a6ef1a95-4d7b-4fa1-aca4-666b791716c9","ios":"levelo://app?vid=a6ef1a95-4d7b-4fa1-aca4-666b791716c9"},"vehicle_type_id":"4","last_reported":1746356882,"current_range_meters":33200,"station_id":"","pricing_plan_id":"cebpf4jnsgd1na2vs0mg"},{"bike_id":"d85e9872-1c2d-4afe-87b6-80f9222eb68f","system_id":"levelo_inurba_marseille","lat":43.29287,"lon":5.40158,"is_reserved":false,"is_disabled":false,"rental_uris":{"android":"levelo://app?vid=d85e9872-1c2d-4afe-87b6-80f9222eb68f","ios":"levelo://app?vid=d85e9872-1c2d-4afe-87b6-80f9222eb68f"},"vehicle_type_id":"4","last_reported":1746356882,"current_range_meters":33200,"station_id":"ce4bh312rcd13ifvqdk0","pricing_plan_id":"cebpf4jnsgd1na2vs0mg"},{"bike_id":"08667b3f-dcd4-4301-b0b8-78ac4022f8af","system_id":"levelo_inurba_marseille","lat":43.28705,"lon":5.37382,"is_reserved":false,"is_disabled":false,"rental_uris":{"android":"levelo://app?vid=08667b3f-dcd4-4301-b0b8-78ac4022f8af","ios":"levelo://app?vid=08667b3f-dcd4-4301-b0b8-78ac4022f8af"},"vehicle_type_id":"4","last_reported":1746356882,"current_range_meters":33200,"station_id":"ce4bh3p2rcd13ifvqdq0","pricing_plan_id":"cebpf4jnsgd1na2vs0mg"},{"bike_id":"62f45e06-91ca-443a-96a0-af990cecee93","system_id":"levelo_inurba_marseille","lat":43.29082,"lon":5.37164,"is_reserved":false,"is_disabled":false,"rental_uris":{"android":"levelo://app?vid=62f45e06-91ca-443a-96a0-af990cecee93","ios":"levelo://app?vid=62f45e06-91ca-443a-96a0-af990cecee93"},"vehicle_type_id":"4","last_reported":1746356882,"current_range_meters":33200,"station_id":"ce4bh5p2rcd13ifvqe4g","pricing_plan_id":"cebpf4jnsgd1na2vs0mg"},{"bike_id":"2596162b-35d9-496d-8216-3b25ca95b12d","system_id":"levelo_inurba_marseille","lat":43.29552,"lon":5.42279,"is_reserved":false,"is_disabled":false,"rental_uris":{"android":"levelo://app?vid=2596162b-35d9-496d-8216-3b25ca95b12d","ios":"levelo://app?vid=2596162b-35d9-496d-8216-3b25ca95b12d"},"vehicle_type_id":"4","last_reported":1746356882,"current_range_meters":33200,"station_id":"ce4bhph2rcd13ifvqhdg","pricing_plan_id":"cebpf4jnsgd1na2vs0mg"},{"bike_id":"8e6487aa-800f-4998-a3be-e79a975a06d5","system_id":"levelo_inurba_marseille","lat":43.34149,"lon":5.40902,"is_reserved":false,"is_disabled":false,"rental_uris":{"android":"levelo://app?vid=8e6487aa-800f-4998-a3be-e79a975a06d5","ios":"levelo://app?vid=8e6487aa-800f-4998-a3be-e79a975a06d5"},"vehicle_type_id":"4","last_reported":1746356882,"current_range_meters":33200,"station_id":"ce4bhqh2rcd13ifvqhlg","pricing_plan_id":"cebpf4jnsgd1na2vs0mg"},{"bike_id":"9b8fa0d0-8f6e-498c-b135-205d7175ac8c","system_id":"levelo_inurba_marseille","lat":43.29603,"lon":5.36292,"is_reserved":false,"is_disabled":false,"rental_uris":{"android":"levelo://app?vid=9b8fa0d0-8f6e-498c-b135-205d7175ac8c","ios":"levelo://app?vid=9b8fa0d0-8f6e-498c-b135-205d7175ac8c"},"vehicle_type_id":"4","last_reported":1746356882,"current_range_meters":33600,"station_id":"","pricing_plan_id":"cebpf4jnsgd1na2vs0mg"},{"bike_id":"7c883a60-2407-4078-a0fa-191872f0e5b2","system_id":"levelo_inurba_marseille","lat":43.31359,"lon":5.38498,"is_reserved":false,"is_disabled":false,"rental_uris":{"android":"levelo://app?vid=7c883a60-2407-4078-a0fa-191872f0e5b2","ios":"levelo://app?vid=7c883a60-2407-4078-a0fa-191872f0e5b2"},"vehicle_type_id":"4","last_reported":1746356882,"current_range_meters":33600,"station_id":"ce4bgt92rcd13ifvqcf0","pricing_plan_id":"cebpf4jnsgd1na2vs0mg"},