{"last_updated":1700895977,"ttl":30,"version":"2.2","data":{"bikes":[{"bike_id":"dfce69a5-2fe5-48a2-a2e8-79582b567774","system_id":"levelo_inurba_marseille","lat":43.309076,"lon":5.368465,"is_reserved":false,"is_disabled":false,"rental_uris":{"android":"levelo://app?vid=dfce69a5-2fe5-48a2-a2e8-79582b567774","ios":"levelo://app?vid=dfce69a5-2fe5-48a2-a2e8-79582b567774"},"vehicle_type_id":"4","last_reported":1700895977,"current_range_meters":28400,"station_id":"ce4bgn92rcd13ifvqbvg","pricing_plan_id":"free"},{"bike_id":"cb4d138e-b53e-447f-ac11-7e73254a855f","system_id":"levelo_inurba_marseille","lat":43.305714,"lon":5.365633,"is_reserved":false,"is_disabled":false,"rental_uris":{"android":"levelo://app?vid=cb4d138e-b53e-447f-ac11-7e73254a855f","ios":"levelo://app?vid=cb4d138e-b53e-447f-ac11-7e73254a855f"},"vehicle_type_id":"4","last_reported":1700895977,"current_range_meters":30000,"station_id":"ce4bgs12rcd13ifvqcag","pricing_plan_id":"free"},{"bike_id":"0e3a20c0-fbe4-4be1-8a70-167c2d1fc9f6","system_id":"levelo_inurba_marseille","lat":43.305178,"lon":5.36563,"is_reserved":false,"is_disabled":false,"rental_uris":{"android":"levelo://app?vid=0e3a20c0-fbe4-4be1-8a70-167c2d1fc9f6","ios":"levelo://app?vid=0e3a20c0-fbe4-4be1-8a70-167c2d1fc9f6"},"vehicle_type_id":"4","last_reported":1700895977,"current_range_meters":0,"station_id":"ce4bgs12rcd13ifvqcag","pricing_plan_id":"free"},{"bike_id":"573a870a-b6c4-429d-8587-8103772b84bc","system_id":"levelo_inurba_marseille","lat":43.308189,"lon":5.376588,"is_reserved":false,"is_disabled":false,"rental_uris":{"android":"levelo://app?vid=573a870a-b6c4-429d-8587-8103772b84bc","ios":"levelo://app?vid=573a870a-b6c4-429d-8587-8103772b84bc"},"vehicle_type_id":"4","last_reported":1700895977,"current_range_meters":5600,"station_id":"ce4bgv92rcd13ifvqcq0","pricing_plan_id":"free"},{"bike_id":"f427a2c3-6e4a-446b-ae2f-9be8aa7f4122","system_id":"levelo_inurba_marseille","lat":43.31719,"lon":5.376813,"is_reserved":false,"is_disabled":false,"rental_uris":{"android":"levelo://app?vid=f427a2c3-6e4a-446b-ae2f-9be8aa7f4122","ios":"levelo://app?vid=f427a2c3-6e4a-446b-ae2f-9be8aa7f4122"},"vehicle_type_id":"4","last_reported":1700895977,"current_range_meters":26000,"station_id":"ce4bgth2rcd13ifvqch0","pricing_plan_id":"free"},{"bike_id":"b898b018-f57d-4901-bab2-fdd15d391de9","system_id":"levelo_inurba_marseille","lat":43.317168,"lon":5.376883,"is_reserved":false,"is_disabled":false,"rental_uris":{"android":"levelo://app?vid=b898b018-f57d-4901-bab2-fdd15d391de9","ios":"levelo://app?vid=b898b018-f57d-4901-bab2-fdd15d391de9"},"vehicle_type_id":"4","last_reported":1700895977,"current_range_meters":28000,"station_id":"ce4bgth2rcd13ifvqch0","pricing_plan_id":"free"},{"bike_id":"4a12da52-9a31-447d-9886-290c9866d443","system_id":"levelo_inurba_marseille","lat":43.307945,"lon":5.376487,"is_reserved":false,"is_disabled":false,"rental_uris":{"android":"levelo://app?vid=4a12da52-9a31-447d-9886-290c9866d443","ios":"levelo://app?vid=4a12da52-9a31-447d-9886-290c9866d443"},"vehicle_type_id":"4","last_reported":1700895977,"current_range_meters":30800,"station_id":"ce4bgv92rcd13ifvqcq0","pricing_plan_id":"free"},{"bike_id":"58abb4ef-f66e-4079-9dc7-925bb496c660","system_id":"levelo_inurba_marseille","lat":43.307945,"lon":5.376487,"is_reserved":false,"is_disabled":false,"rental_uris":{"android":"levelo://app?vid=58abb4ef-f66e-4079-9dc7-925bb496c660","ios":"levelo://app?vid=58abb4ef-f66e-4079-9dc7-925bb496c660"},"vehicle_type_id":"4","last_reported":1700895977,"current_range_meters":26400,"station_id":"ce4bgv92rcd13ifvqcq0","pricing_plan_id":"free"},{"bike_id":"96eaa8c0-23e0-44b9-88f7-61654c4c627f","system_id":"levelo_inurba_marseille","lat":43.307945,"lon":5.376487,"is_reserved":false,"is_disabled":false,"rental_uris":{"android":"levelo://app?vid=96eaa8c0-23e0-44b9-88f7-61654c4c627f","ios":"levelo://app?vid=96eaa8c0-23e0-44b9-88f7-61654c4c627f"},"vehicle_type_id":"4","last_reported":1700895977,"current_range_meters":30800,"station_id":"ce4bgv92rcd13ifvqcq0","pricing_plan_id":"free"},{"bike_id":"d0838722-4519-4ead-99e9-d3f441a66736","system_id":"levelo_inurba_marseille","lat":43.317075,"lon":5.377367,"is_reserved":false,"is_disabled":false,"rental_uris":{"android":"levelo://app?vid=d0838722-4519-4ead-99e9-d3f441a66736","ios":"levelo://app?vid=d0838722-4519-4ead-99e9-d3f441a66736"},"vehicle_type_id":"4","last_reported":1700895977,"current_range_meters":24800,"station_id":"ce4bgth2rcd13ifvqch0","pricing_plan_id":"free"},{"bike_id":"9fdf340d-8b1b-41cf-a8fd-3039275a75bd","system_id":"levelo_inurba_marseille","lat":43.303046,"lon":5.368981,"is_reserved":false,"is_disabled":false,"rental_uris":{"android":"levelo://app?vid=9fdf340d-8b1b-41cf-a8fd-3039275a75bd","ios":"levelo://app?vid=9fdf340d-8b1b-41cf-a8fd-3039275a75bd"},"vehicle_type_id":"4","last_reported":1700895977,"current_range_meters":14400,"station_id":"ce4bgqh2rcd13ifvqc5g","pricing_plan_id":"free"},{"bike_id":"cf92051e-3b73-41ee-8f87-07a63c97f5fc","system_id":"levelo_inurba_marseille","lat":43.31536,"lon":5.380289,"is_reserved":false,"is_disabled":false,"rental_uris":{"android":"levelo://app?vid=cf92051e-3b73-41ee-8f87-07a63c97f5fc","ios":"levelo://app?vid=cf92051e-3b73-41ee-8f87-07a63c97f5fc"},"vehicle_type_id":"4","last_reported":1700895977,"current_range_meters":17200,"station_id":"ce4bhsp2rcd13ifvqi50","pricing_plan_id":"free"},{"bike_id":"d69025b0-8b89-4c4d-be9b-24cc15a18fef","system_id":"levelo_inurba_marseille","lat":43.30272,"lon":5.36906,"is_reserved":false,"is_disabled":false,"rental_uris":{"android":"levelo://app?vid=d69025b0-8b89-4c4d-be9b-24cc15a18fef","ios":"levelo://app?vid=d69025b0-8b89-4c4d-be9b-24cc15a18fef"},"vehicle_type_id":"4","last_reported":1700895977,"current_range_meters":18000,"station_id":"","pricing_plan_id":"free"},{"bike_id":"5b839f33-d76f-45a9-800d-361f0d025709","system_id":"levelo_inurba_marseille","lat":43.315293,"lon":5.380349,"is_reserved":false,"is_disabled":false,"rental_uris":{"android":"levelo://app?vid=5b839f33-d76f-45a9-800d-361f0d025709","ios":"levelo://app?vid=5b839f33-d76f-45a9-800d-361f0d025709"},"vehicle_type_id":"4","last_reported":1700895977,"current_range_meters":20000,"station_id":"ce4bhsp2rcd13ifvqi50","pricing_plan_id":"free"},{"bike_id":"e13ae174-9a9b-4a0d-b3bc-4ea47ce72ff6","system_id":"levelo_inurba_marseille","lat":43.308013,"lon":5.381492,"is_reserved":false,"is_disabled":false,"rental_uris":{"android":"levelo://app?vid=e13ae174-9a9b-4a0d-b3bc-4ea47ce72ff6","ios":"levelo://app?vid=e13ae174-9a9b-4a0d-b3bc-4ea47ce72ff6"},"vehicle_type_id":"4","last_reported":1700895977,"current_range_meters":10400,"station_id":"ce4bgt12rcd13ifvqce0","pricing_plan_id":"free"},{"bike_id":"cc8bf431-e73b-4a15-b31d-b23feb7081f2","system_id":"levelo_inurba_marseille","lat":43.30805,"lon":5.381553,"is_reserved":false,"is_disabled":false,"rental_uris":{"android":"levelo://app?vid=cc8bf431-e73b-4a15-b31d-b23feb7081f2","ios":"levelo://app?vid=cc8bf431-e73b-4a15-b31d-b23feb7081f2"},"vehicle_type_id":"4","last_reported":1700895977,"current_range_meters":30800,"station_id":"ce4bgt12rcd13ifvqce0","pricing_plan_id":"free"},{"bike_id":"26564182-7c28-41be-8e2b-ec656c3c9717","system_id":"levelo_inurba_marseille","lat":43.308039,"lon":5.381567,"is_reserved":false,"is_disabled":false,"rental_uris":{"android":"levelo://app?vid=26564182-7c28-41be-8e2b-ec656c3c9717","ios":"levelo://app?vid=26564182-7c28-41be-8e2b-ec656c3c9717"},"vehicle_type_id":"4","last_reported":1700895977,"current_range_meters":20000,"station_id":"ce4bgt12rcd13ifvqce0","pricing_plan_id":"free"},{"bike_id":"d248aa88-e2e7-4ce8-b0bd-a90c451e56c8","system_id":"levelo_inurba_marseille","lat":43.304606,"lon":5.379026,"is_reserved":false,"is_disabled":false,"rental_uris":{"android":"levelo://app?vid=d248aa88-e2e7-4ce8-b0bd-a90c451e56c8","ios":"levelo://app?vid=d248aa88-e2e7-4ce8-b0bd-a90c451e56c8"},"vehicle_type_id":"4","last_reported":1700895977,"current_range_meters":6800,"station_id":"ce4bgup2rcd13ifvqcn0","pricing_plan_id":"free"},{"bike_id":"9f5fe5d2-b5f4-4b5e-ae8b-9fdabc923653","system_id":"levelo_inurba_marseille","lat":43.304606,"lon":5.379026,"is_reserved":false,"is_disabled":false,"rental_uris":{"android":"levelo://app?vid=9f5fe5d2-b5f4-4b5e-ae8b-9fdabc923653","ios":"levelo://app?vid=9f5fe5d2-b5f4-4b5e-ae8b-9fdabc923653"},"vehicle_type_id":"4","last_reported":1700895977,"current_range_meters":22000,"station_id":"ce4bgup2rcd13ifvqcn0","pricing_plan_id":"free"},{"bike_id":"3537fba9-594f-4cfa-8b91-7796b8520999","system_id":"levelo_inurba_marseille","lat":43.304606,"lon":5.379026,"is_reserved":false,"is_disabled":false,"rental_uris":{"android":"levelo://app?vid=3537fba9-594f-4cfa-8b91-7796b8520999","ios":"levelo://app?vid=3537fba9-594f-4cfa-8b91-7796b8520999"},"vehicle_type_id":"4","last_reported":1700895977,"current_range_meters":31200,"station_id":"ce4bgup2rcd13ifvqcn0","pricing_plan_id":"free"},{"bike_id":"5728f5cb-2fb7-4672-8197-2f13ebac31fe","system_id":"levelo_inurba_marseille","lat":43.304606,"lon":5.379026,"is_reserved":false,"is_disabled":false,"rental_uris":{"android":"levelo://app?vid=5728f5cb-2fb7-4672-8197-2f13ebac31fe","ios":"levelo://app?vid=5728f5cb-2fb7-4672-8197-2f13ebac31fe"},"vehicle_type_id":"4","last_reported":1700895977,"current_range_meters":2800,"station_id":"ce4bgup2rcd13ifvqcn0","pricing_plan_id":"free"},{"bike_id":"ca06037b-a6a3-410d-93f8-ff70bfff1a43","system_id":"levelo_inurba_marseille","lat":43.304606,"lon":5.379026,"is_reserved":false,"is_disabled":false,"rental_uris":{"android":"levelo://app?vid=ca06037b-a6a3-410d-93f8-ff70bfff1a43","ios":"levelo://app?vid=ca06037b-a6a3-410d-93f8-ff70bfff1a43"},"vehicle_type_id":"4","last_reported":1700895977,"current_range_meters":15200,"station_id":"ce4bgup2rcd13ifvqcn0","pricing_plan_id":"free"},{"bike_id":"7ae50ca8-be13-4935-97a0-71b26072c469","system_id":"levelo_inurba_marseille","lat":43.304606,"lon":5.379026,"is_reserved":false,"is_disabled":false,"rental_uris":{"android":"levelo://app?vid=7ae50ca8-be13-4935-97a0-71b26072c469","ios":"levelo://app?vid=7ae50ca8-be13-4935-97a0-71b26072c469"},"vehicle_type_id":"4","last_reported":1700895977,"current_range_meters":19200,"station_id":"ce4bgup2rcd13ifvqcn0","pricing_plan_id":"free"},{"bike_id":"69d27ed9-5b03-434a-85f1-5ea7c1aa4568","system_id":"levelo_inurba_marseille","lat":43.304606,"lon":5.379026,"is_reserved":false,"is_disabled":false,"rental_uris":{"android":"levelo://app?vid=69d27ed9-5b03-434a-85f1-5ea7c1aa4568","ios":"levelo://app?vid=69d27ed9-5b03-434a-85f1-5ea7c1aa4568"},"vehicle_type_id":"4","last_reported":1700895977,"current_range_meters":25600,"station_id":"ce4bgup2rcd13ifvqcn0","pricing_plan_id":"free"},{"bike_id":"64f8ad7f-8812-4d50-a1bc-9dfec8e4e01f","system_id":"levelo_inurba_marseille","lat":43.304606,"lon":5.379026,"is_reserved":false,"is_disabled":false,"rental_uris":{"android":"levelo://app?vid=64f8ad7f-8812-4d50-a1bc-9dfec8e4e01f","ios":"levelo://app?vid=64f8ad7f-8812-4d50-a1bc-9dfec8e4e01f"},"vehicle_type_id":"4","last_reported":1700895977,"current_range_meters":31600,"station_id":"ce4bgup2rcd13ifvqcn0","pricing_plan_id":"free"},{"bike_id":"3dc2f81b-07b9-46c0-9430-9e266e1cea0b","system_id":"levelo_inurba_marseille","lat":43.304606,"lon":5.379026,"is_reserved":false,"is_disabled":false,"rental_uris":{"android":"levelo://app?vid=3dc2f81b-07b9-46c0-9430-9e266e1cea0b","ios":"levelo://app?vid=3dc2f81b-07b9-46c0-9430-9e266e1cea0b"},"vehicle_type_id":"4","last_reported":1700895977,"current_range_meters":22000,"station_id":"ce4bgup2rcd13ifvqcn0","pricing_plan_id":"free"},{"bike_id":"4cbd7372-6dd1-4665-bd07-edfdf4c497b4","system_id":"levelo_inurba_marseille","lat":43.304606,"lon":5.379026,"is_reserved":false,"is_disabled":false,"rental_uris":{"android":"levelo://app?vid=4cbd7372-6dd1-4665-bd07-edfdf4c497b4","ios":"levelo://app?vid=4cbd7372-6dd1-4665-bd07-edfdf4c497b4"},"vehicle_type_id":"4","last_reported":1700895977,"current_range_meters":6800,"station_id":"ce4bgup2rcd13ifvqcn0","pricing_plan_id":"free"},{"bike_id":"8f93f84e-2365-4ab6-8044-836d96bc2927","system_id":"levelo_inurba_marseille","lat":43.304606,"lon":5.379026,"is_reserved":false,"is_disabled":false,"rental_uris":{"android":"levelo://app?vid=8f93f84e-2365-4ab6-8044-836d96bc2927","ios":"levelo://app?vid=8f93f84e-2365-4ab6-8044-836d96bc2927"},"vehicle_type_id":"4","last_reported":1700895977,"current_range_meters":23600,"station_id":"ce4bgup2rcd13ifvqcn0","pricing_plan_id":"free"},{"bike_id":"6e211921-90ba-4dee-a70f-68daa8538b59","system_id":"levelo_inurba_marseille","lat":43.304606,"lon":5.379026,"is_reserved":false,"is_disabled":false,"rental_uris":{"android":"levelo://app?vid=6e211921-90ba-4dee-a70f-68daa8538b59","ios":"levelo://app?vid=6e211921-90ba-4dee-a70f-68daa8538b59"},"vehicle_type_id":"4","last_reported":1700895977,"current_range_meters":16800,"station_id":"ce4bgup2rcd13ifvqcn0","pricing_plan_id":"free"},{"bike_id":"bfdf1953-a0ec-41af-865f-f369c4822762","system_id":"levelo_inurba_marseille","lat":43.304606,"lon":5.379026,"is_reserved":false,"is_disabled":false,"rental_uris":{"android":"levelo://app?vid=bfdf1953-a0ec-41af-865f-f369c4822762","ios":"levelo://app?vid=bfdf1953-a0ec-41af-865f-f369c4822762"},"vehicle_type_id":"4","last_reported":1700895977,"current_range_meters":31200,"station_id":"ce4bgup2rcd13ifvqcn0","pricing_plan_id":"free"},{"bike_id":"ee7b2315-1ca6-4f8e-a62a-6313cf5cda28","system_id":"levelo_inurba_marseille","lat":43.324844,"lon":5.365645,"is_reserved":false,"is_disabled":false,"rental_uris":{"android":"levelo://app?vid=ee7b2315-1ca6-4f8e-a62a-6313cf5cda28","ios":"levelo://app?vid=ee7b2315-1ca6-4f8e-a62a-6313cf5cda28"},"vehicle_type_id":"4","last_reported":1700895977,"current_range_meters":13600,"station_id":"ce4bhs12rcd13ifvqhvg","pricing_plan_id":"free"},{"bike_id":"babfdd7e-6cd2-4e72-8866-ac8539f5db7f","system_id":"levelo_inurba_marseille","lat":43.31994,"lon":5.38147,"is_reserved":false,"is_disabled":false,"rental_uris":{"android":"levelo://app?vid=babfdd7e-6cd2-4e72-8866-ac8539f5db7f","ios":"levelo://app?vid=babfdd7e-6cd2-4e72-8866-ac8539f5db7f"},"vehicle_type_id":"4","last_reported":1700895977,"current_range_meters":31200,"station_id":"ce4bhr12rcd13ifvqhpg","pricing_plan_id":"free"},{"bike_id":"b26e99ca-4d47-4ed0-b501-a4b987ea012a","system_id":"levelo_inurba_marseille","lat":43.31996,"lon":5.38152,"is_reserved":false,"is_disabled":false,"rental_uris":{"android":"levelo://app?vid=b26e99ca-4d47-4ed0-b501-a4b987ea012a","ios":"levelo://app?vid=b26e99ca-4d47-4ed0-b501-a4b987ea012a"},"vehicle_type_id":"4","last_reported":1700895977,"current_range_meters":25600,"station_id":"ce4bhr12rcd13ifvqhpg","pricing_plan_id":"free"},{"bike_id":"297c48cb-ada2-41fa-a9b3-36f330453cd6","system_id":"levelo_inurba_marseille","lat":43.32003,"lon":5.38159,"is_reserved":false,"is_disabled":false,"rental_uris":{"android":"levelo://app?vid=297c48cb-ada2-41fa-a9b3-36f330453cd6","ios":"levelo://app?vid=297c48cb-ada2-41fa-a9b3-36f330453cd6"},"vehicle_type_id":"4","last_reported":1700895977,"current_range_meters":31200,"station_id":"ce4bhr12rcd13ifvqhpg","pricing_plan_id":"free"},{"bike_id":"eaae71a3-c885-4b31-bb42-207a46915b29","system_id":"levelo_inurba_marseille","lat":43.299414,"lon":5.365516,"is_reserved":false,"is_disabled":false,"rental_uris":{"android":"levelo://app?vid=eaae71a3-c885-4b31-bb42-207a46915b29","ios":"levelo://app?vid=eaae71a3-c885-4b31-bb42-207a46915b29"},"vehicle_type_id":"4","last_reported":1700895977,"current_range_meters":26800,"station_id":"ce4bgm92rcd13ifvqbr0","pricing_plan_id":"free"},{"bike_id":"5600bc7c-ed62-4883-96a5-7082f6a53d9c","system_id":"levelo_inurba_marseille","lat":43.29933,"lon":5.36551,"is_reserved":false,"is_disabled":false,"rental_uris":{"android":"levelo://app?vid=5600bc7c-ed62-4883-96a5-7082f6a53d9c","ios":"levelo://app?vid=5600bc7c-ed62-4883-96a5-7082f6a53d9c"},"vehicle_type_id":"4","last_reported":1700895977,"current_range_meters":28000,"station_id":"ce4bgm92rcd13ifvqbr0","pricing_plan_id":"free"},{"bike_id":"370cb26f-10c2-4896-a531-833a7555abd9","system_id":"levelo_inurba_marseille","lat":43.30558,"lon":5.383678,"is_reserved":false,"is_disabled":false,"rental_uris":{"android":"levelo://app?vid=370cb26f-10c2-4896-a531-833a7555abd9","ios":"levelo://app?vid=370cb26f-10c2-4896-a531-833a7555abd9"},"vehicle_type_id":"4","last_reported":1700895977,"current_range_meters":30000,"station_id":"ce4bgg92rcd13ifvqb30","pricing_plan_id":"free"},{"bike_id":"799f10c9-81c3-4d79-a9aa-505ce434ae93","system_id":"levelo_inurba_marseille","lat":43.298433,"lon":5.362774,"is_reserved":false,"is_disabled":false,"rental_uris":{"android":"levelo://app?vid=799f10c9-81c3-4d79-a9aa-505ce434ae93","ios":"levelo://app?vid=799f10c9-81c3-4d79-a9aa-505ce434ae93"},"vehicle_type_id":"4","last_reported":1700895977,"current_range_meters":28000,"station_id":"ce4bgpp2rcd13ifvqc3g","pricing_plan_id":"free"},{"bike_id":"8f07817e-a080-4d58-97a9-5778cc231a65","system_id":"levelo_inurba_marseille","lat":43.305364,"lon":5.384119,"is_reserved":false,"is_disabled":false,"rental_uris":{"android":"levelo://app?vid=8f07817e-a080-4d58-97a9-5778cc231a65","ios":"levelo://app?vid=8f07817e-a080-4d58-97a9-5778cc231a65"},"vehicle_type_id":"4","last_reported":1700895977,"current_range_meters":27600,"station_id":"ce4bgg92rcd13ifvqb30","pricing_plan_id":"free"},{"bike_id":"a11ceb9d-1757-4ba8-9748-19ac2f1cfc93","system_id":"levelo_inurba_marseille","lat":43.305364,"lon":5.384119,"is_reserved":false,"is_disabled":false,"rental_uris":{"android":"levelo://app?vid=a11ceb9d-1757-4ba8-9748-19ac2f1cfc93","ios":"levelo://app?vid=a11ceb9d-1757-4ba8-9748-19ac2f1cfc93"},"vehicle_type_id":"4","last_reported":1700895977,"current_range_meters":24800,"station_id":"ce4bgg92rcd13ifvqb30","pricing_plan_id":"free"},{"bike_id":"ee53952b-be18-4a5c-ab11-d542eb9eb994","system_id":"levelo_inurba_marseille","lat":43.311722,"lon":5.387247,"is_reserved":false,"is_disabled":false,"rental_uris":{"android":"levelo://app?vid=ee53952b-be18-4a5c-ab11-d542eb9eb994","ios":"levelo://app?vid=ee53952b-be18-4a5c-ab11-d542eb9eb994"},"vehicle_type_id":"4","last_reported":1700895977,"current_range_meters":20800,"station_id":"ce4bgv12rcd13ifvqcp0","pricing_plan_id":"free"},{"bike_id":"fdd53eb3-c063-40c4-bf3c-a81f4f0cc1d8","system_id":"levelo_inurba_marseille","lat":43.311722,"lon":5.387247,"is_reserved":false,"is_disabled":false,"rental_uris":{"android":"levelo://app?vid=fdd53eb3-c063-40c4-bf3c-a81f4f0cc1d8","ios":"levelo://app?vid=fdd53eb3-c063-40c4-bf3c-a81f4f0cc1d8"},"vehicle_type_id":"4","last_reported":1700895977,"current_range_meters":31200,"station_id":"ce4bgv12rcd13ifvqcp0","pricing_plan_id":"free"},{"bike_id":"57f07daa-f979-41b2-bf81-49ff7a829b2a","system_id":"levelo_inurba_marseille","lat":43.322902,"lon":5.382574,"is_reserved":false,"is_disabled":false,"rental_uris":{"android":"levelo://app?vid=57f07daa-f979-41b2-bf81-49ff7a829b2a","ios":"levelo://app?vid=57f07daa-f979-41b2-bf81-49ff7a829b2a"},"vehicle_type_id":"4","last_reported":1700895977,"current_range_meters":30400,"station_id":"ce4bhr12rcd13ifvqhqg","pricing_plan_id":"free"},{"bike_id":"f8736720-e966-45a6-a671-1e9c1c844291","system_id":"levelo_inurba_marseille","lat":43.322872,"lon":5.382756,"is_reserved":false,"is_disabled":false,"rental_uris":{"android":"levelo://app?vid=f8736720-e966-45a6-a671-1e9c1c844291","ios":"levelo://app?vid=f8736720-e966-45a6-a671-1e9c1c844291"},"vehicle_type_id":"4","last_reported":1700895977,"current_range_meters":26000,"station_id":"ce4bhr12rcd13ifvqhqg","pricing_plan_id":"free"},{"bike_id":"f9ce9c3f-5ce0-442f-986c-f1a94ddddd6a","system_id":"levelo_inurba_marseille","lat":43.322872,"lon":5.382756,"is_reserved":false,"is_disabled":false,"rental_uris":{"android":"levelo://app?vid=f9ce9c3f-5ce0-442f-986c-f1a94ddddd6a","ios":"levelo://app?vid=f9ce9c3f-5ce0-442f-986c-f1a94ddddd6a"},"vehicle_type_id":"4","last_reported":1700895977,"current_range_meters":30000,"station_id":"ce4bhr12rcd13ifvqhqg","pricing_plan_id":"free"},{"bike_id":"7c93eefc-07fe-4a09-b42f-ee22a5cbe113","system_id":"levelo_inurba_marseille","lat":43.322872,"lon":5.382756,"is_reserved":false,"is_disabled":false,"rental_uris":{"android":"levelo://app?vid=7c93eefc-07fe-4a09-b42f-ee22a5cbe113","ios":"levelo://app?vid=7c93eefc-07fe-4a09-b42f-ee22a5cbe113"},"vehicle_type_id":"4","last_reported":1700895977,"current_range_meters":26400,"station_id":"ce4bhr12rcd13ifvqhqg","pricing_plan_id":"free"},{"bike_id":"4c2d2c54-cd26-435c-85b5-90ef4562f5c8","system_id":"levelo_inurba_marseille","lat":43.322872,"lon":5.382756,"is_reserved":false,"is_disabled":false,"rental_uris":{"android":"levelo://app?vid=4c2d2c54-cd26-435c-85b5-90ef4562f5c8","ios":"levelo://app?vid=4c2d2c54-cd26-435c-85b5-90ef4562f5c8"},"vehicle_type_id":"4","last_reported":1700895977,"current_range_meters":28000,"station_id":"ce4bhr12rcd13ifvqhqg","pricing_plan_id":"free"},{"bike_id":"4625bec6-4af3-44cb-8699-3acd72afd201","system_id":"levelo_inurba_marseille","lat":43.322872,"lon":5.382756,"is_reserved":false,"is_disabled":false,"rental_uris":{"android":"levelo://app?vid=4625bec6-4af3-44cb-8699-3acd72afd201","ios":"levelo://app?vid=4625bec6-4af3-44cb-8699-3acd72afd201"},"vehicle_type_id":"4","last_reported":1700895977,"current_range_meters":22800,"station_id":"ce4bhr12rcd13ifvqhqg","pricing_plan_id":"free"},{"bike_id":"319846df-048c-433c-beef-c4cf6361e7df","system_id":"levelo_inurba_marseille","lat":43.297163,"lon":5.365866,"is_reserved":false,"is_disabled":false,"rental_uris":{"android":"levelo://app?vid=319846df-048c-433c-beef-c4cf6361e7df","ios":"levelo://app?vid=319846df-048c-433c-beef-c4cf6361e7df"},"vehicle_type_id":"4","last_reported":1700895977,"current_range_meters":30400,"station_id":"ce4bgn12rcd13ifvqbt0","pricing_plan_id":"free"},{"bike_id":"4d7509f5-9559-42ca-a60d-bef9e80f0981","system_id":"levelo_inurba_marseille","lat":43.2996,"lon":5.37917,"is_reserved":false,"is_disabled":false,"rental_uris":{"android":"levelo://app?vid=4d7509f5-9559-42ca-a60d-bef9e80f0981","ios":"levelo://app?vid=4d7509f5-9559-42ca-a60d-bef9e80f0981"},"vehicle_type_id":"4","last_reported":1700895977,"current_range_meters":0,"station_id":"","pricing_plan_id":"free"},{"bike_id":"91ea429b-0379-495d-8d3b-cbac9d1a9ae5","system_id":"levelo_inurba_marseille","lat":43.2968,"lon":5.37291,"is_reserved":false,"is_disabled":false,"rental_uris":{"android":"levelo://app?vid=91ea429b-0379-495d-8d3b-cbac9d1a9ae5","ios":"levelo://app?vid=91ea429b-0379-495d-8d3b-cbac9d1a9ae5"},"vehicle_type_id":"4","last_reported":1700895977,"current_range_meters":26800,"station_id":"ce4bgk12rcd13ifvqbj0","pricing_plan_id":"free"},{"bike_id":"7eb24e77-7517-4965-b272-a4f979c3ee30","system_id":"levelo_inurba_marseille","lat":43.296131,"lon":5.370791,"is_reserved":false,"is_disabled":false,"rental_uris":{"android":"levelo://app?vid=7eb24e77-7517-4965-b272-a4f979c3ee30","ios":"levelo://app?vid=7eb24e77-7517-4965-b272-a4f979c3ee30"},"vehicle_type_id":"4","last_reported":1700895977,"current_range_meters":27600,"station_id":"ce4bgnh2rcd13ifvqc0g","pricing_plan_id":"free"},{"bike_id":"11f77723-1b30-4487-8e52-b663c43af7a6","system_id":"levelo_inurba_marseille","lat":43.296131,"lon":5.370791,"is_reserved":false,"is_disabled":false,"rental_uris":{"android":"levelo://app?vid=11f77723-1b30-4487-8e52-b663c43af7a6","ios":"levelo://app?vid=11f77723-1b30-4487-8e52-b663c43af7a6"},"vehicle_type_id":"4","last_reported":1700895977,"current_range_meters":30800,"station_id":"ce4bgnh2rcd13ifvqc0g","pricing_plan_id":"free"},{"bike_id":"c5c85326-a4e1-41b4-baf7-8eb6cc6d22fc","system_id":"levelo_inurba_marseille","lat":43.29573,"lon":5.367355,"is_reserved":false,"is_disabled":false,"rental_uris":{"android":"levelo://app?vid=c5c85326-a4e1-41b4-baf7-8eb6cc6d22fc","ios":"levelo://app?vid=c5c85326-a4e1-41b4-baf7-8eb6cc6d22fc"},"vehicle_type_id":"4","last_reported":1700895977,"current_range_meters":27600,"station_id":"ce4bgph2rcd13ifvqc2g","pricing_plan_id":"free"},{"bike_id":"f5dd0f82-ccbb-412a-a01d-f964eb2679f0","system_id":"levelo_inurba_marseille","lat":43.299028,"lon":5.381509,"is_reserved":false,"is_disabled":false,"rental_uris":{"android":"levelo://app?vid=f5dd0f82-ccbb-412a-a01d-f964eb2679f0","ios":"levelo://app?vid=f5dd0f82-ccbb-412a-a01d-f964eb2679f0"},"vehicle_type_id":"4","last_reported":1700895977,"current_range_meters":18400,"station_id":"ce4bgj12rcd13ifvqbc0","pricing_plan_id":"free"},{"bike_id":"0bf697d1-0a62-4dbe-a19a-2f34f8ef6c22","system_id":"levelo_inurba_marseille","lat":43.299028,"lon":5.381509,"is_reserved":false,"is_disabled":false,"rental_uris":{"android":"levelo://app?vid=0bf697d1-0a62-4dbe-a19a-2f34f8ef6c22","ios":"levelo://app?vid=0bf697d1-0a62-4dbe-a19a-2f34f8ef6c22"},"vehicle_type_id":"4","last_reported":1700895977,"current_range_meters":29600,"station_id":"ce4bgj12rcd13ifvqbc0","pricing_plan_id":"free"},{"bike_id":"656459cf-498f-49a1-bb2c-2df4545f7de5","system_id":"levelo_inurba_marseille","lat":43.31756,"lon":5.390176,"is_reserved":false,"is_disabled":false,"rental_uris":{"android":"levelo://app?vid=656459cf-498f-49a1-bb2c-2df4545f7de5","ios":"levelo://app?vid=656459cf-498f-49a1-bb2c-2df4545f7de5"},"vehicle_type_id":"4","last_reported":1700895977,"current_range_meters":25600,"station_id":"ce4bhqp2rcd13ifvqhng","pricing_plan_id":"free"},{"bike_id":"2ee99d3c-c505-4db8-8acf-5d303d9f39ec","system_id":"levelo_inurba_marseille","lat":43.317544,"lon":5.390249,"is_reserved":false,"is_disabled":false,"rental_uris":{"android":"levelo://app?vid=2ee99d3c-c505-4db8-8acf-5d303d9f39ec","ios":"levelo://app?vid=2ee99d3c-c505-4db8-8acf-5d303d9f39ec"},"vehicle_type_id":"4","last_reported":1700895977,"current_range_meters":0,"station_id":"ce4bhqp2rcd13ifvqhng","pricing_plan_id":"free"},{"bike_id":"686e1d01-45e8-402b-bd36-c4ebce5952ea","system_id":"levelo_inurba_marseille","lat":43.298037,"lon":5.381066,"is_reserved":false,"is_disabled":false,"rental_uris":{"android":"levelo://app?vid=686e1d01-45e8-402b-bd36-c4ebce5952ea","ios":"levelo://app?vid=686e1d01-45e8-402b-bd36-c4ebce5952ea"},"vehicle_type_id":"4","last_reported":1700895977,"current_range_meters":4000,"station_id":"ce4bgip2rcd13ifvqbb0","pricing_plan_id":"free"},{"bike_id":"9f507dd7-b1f9-4a3e-be93-b54525f7e6c4","system_id":"levelo_inurba_marseille","lat":43.298037,"lon":5.381066,"is_reserved":false,"is_disabled":false,"rental_uris":{"android":"levelo://app?vid=9f507dd7-b1f9-4a3e-be93-b54525f7e6c4","ios":"levelo://app?vid=9f507dd7-b1f9-4a3e-be93-b54525f7e6c4"},"vehicle_type_id":"4","last_reported":1700895977,"current_range_meters":25600,"station_id":"ce4bgip2rcd13ifvqbb0","pricing_plan_id":"free"},{"bike_id":"02d3f03b-203d-46b0-bdc1-efd6a358da29","system_id":"levelo_inurba_marseille","lat":43.299707,"lon":5.384859,"is_reserved":false,"is_disabled":false,"rental_uris":{"android":"levelo://app?vid=02d3f03b-203d-46b0-bdc1-efd6a358da29","ios":"levelo://app?vid=02d3f03b-203d-46b0-bdc1-efd6a358da29"},"vehicle_type_id":"4","last_reported":1700895977,"current_range_meters":30800,"station_id":"ce4bgj92rcd13ifvqbd0","pricing_plan_id":"free"},{"bike_id":"16f97d73-5b9b-47db-8038-aea43e2e3d2a","system_id":"levelo_inurba_marseille","lat":43.295279,"lon":5.375048,"is_reserved":false,"is_disabled":false,"rental_uris":{"android":"levelo://app?vid=16f97d73-5b9b-47db-8038-aea43e2e3d2a","ios":"levelo://app?vid=16f97d73-5b9b-47db-8038-aea43e2e3d2a"},"vehicle_type_id":"4","last_reported":1700895977,"current_range_meters":26800,"station_id":"ce4bgkp2rcd13ifvqbmg","pricing_plan_id":"free"},{"bike_id":"c0640178-eda3-4e8f-8392-21f6f6a824a2","system_id":"levelo_inurba_marseille","lat":43.295279,"lon":5.375048,"is_reserved":false,"is_disabled":false,"rental_uris":{"android":"levelo://app?vid=c0640178-eda3-4e8f-8392-21f6f6a824a2","ios":"levelo://app?vid=c0640178-eda3-4e8f-8392-21f6f6a824a2"},"vehicle_type_id":"4","last_reported":1700895977,"current_range_meters":24800,"station_id":"ce4bgkp2rcd13ifvqbmg","pricing_plan_id":"free"},{"bike_id":"6b621983-5e9e-42f7-990d-ad5a093820d2","system_id":"levelo_inurba_marseille","lat":43.293801,"lon":5.363066,"is_reserved":false,"is_disabled":false,"rental_uris":{"android":"levelo://app?vid=6b621983-5e9e-42f7-990d-ad5a093820d2","ios":"levelo://app?vid=6b621983-5e9e-42f7-990d-ad5a093820d2"},"vehicle_type_id":"4","last_reported":1700895977,"current_range_meters":1600,"station_id":"","pricing_plan_id":"free"},{"bike_id":"9d649035-4d17-42d5-9b01-441530544f5e","system_id":"levelo_inurba_marseille","lat":43.3236,"lon":5.388851,"is_reserved":false,"is_disabled":false,"rental_uris":{"android":"levelo://app?vid=9d649035-4d17-42d5-9b01-441530544f5e","ios":"levelo://app?vid=9d649035-4d17-42d5-9b01-441530544f5e"},"vehicle_type_id":"4","last_reported":1700895977,"current_range_meters":31200,"station_id":"ce4bhqp2rcd13ifvqhog","pricing_plan_id":"free"},{"bike_id":"7e44e990-ba3b-427b-b570-1e33d8dd7040","system_id":"levelo_inurba_marseille","lat":43.32367,"lon":5.388836,"is_reserved":false,"is_disabled":false,"rental_uris":{"android":"levelo://app?vid=7e44e990-ba3b-427b-b570-1e33d8dd7040","ios":"levelo://app?vid=7e44e990-ba3b-427b-b570-1e33d8dd7040"},"vehicle_type_id":"4","last_reported":1700895977,"current_range_meters":10400,"station_id":"ce4bhqp2rcd13ifvqhog","pricing_plan_id":"free"},{"bike_id":"3579b072-efa9-4e62-b324-30ad6abef829","system_id":"levelo_inurba_marseille","lat":43.32367,"lon":5.38885,"is_reserved":false,"is_disabled":false,"rental_uris":{"android":"levelo://app?vid=3579b072-efa9-4e62-b324-30ad6abef829","ios":"levelo://app?vid=3579b072-efa9-4e62-b324-30ad6abef829"},"vehicle_type_id":"4","last_reported":1700895977,"current_range_meters":24000,"station_id":"ce4bhqp2rcd13ifvqhog","pricing_plan_id":"free"},{"bike_id":"538f3e9f-7e4b-4ab5-a934-0afd76844b61","system_id":"levelo_inurba_marseille","lat":43.32367,"lon":5.388836,"is_reserved":false,"is_disabled":false,"rental_uris":{"android":"levelo://app?vid=538f3e9f-7e4b-4ab5-a934-0afd76844b61","ios":"levelo://app?vid=538f3e9f-7e4b-4ab5-a934-0afd76844b61"},"vehicle_type_id":"4","last_reported":1700895977,"current_range_meters":30000,"station_id":"ce4bhqp2rcd13ifvqhog","pricing_plan_id":"free"},{"bike_id":"01e8f35d-71a6-40b0-b11b-7284316368a0","system_id":"levelo_inurba_marseille","lat":43.29602,"lon":5.381084,"is_reserved":false,"is_disabled":false,"rental_uris":{"android":"levelo://app?vid=01e8f35d-71a6-40b0-b11b-7284316368a0","ios":"levelo://app?vid=01e8f35d-71a6-40b0-b11b-7284316368a0"},"vehicle_type_id":"4","last_reported":1700895977,"current_range_meters":31200,"station_id":"ce4bgl12rcd13ifvqbo0","pricing_plan_id":"free"},{"bike_id":"1fea1476-90ad-488c-9264-73135f8c95b6","system_id":"levelo_inurba_marseille","lat":43.29602,"lon":5.381084,"is_reserved":false,"is_disabled":false,"rental_uris":{"android":"levelo://app?vid=1fea1476-90ad-488c-9264-73135f8c95b6","ios":"levelo://app?vid=1fea1476-90ad-488c-9264-73135f8c95b6"},"vehicle_type_id":"4","last_reported":1700895977,"current_range_meters":26400,"station_id":"ce4bgl12rcd13ifvqbo0","pricing_plan_id":"free"},{"bike_id":"d4ab6af8-0f53-45c2-9cd9-2d8b5dd2e494","system_id":"levelo_inurba_marseille","lat":43.30599,"lon":5.39349,"is_reserved":false,"is_disabled":false,"rental_uris":{"android":"levelo://app?vid=d4ab6af8-0f53-45c2-9cd9-2d8b5dd2e494","ios":"levelo://app?vid=d4ab6af8-0f53-45c2-9cd9-2d8b5dd2e494"},"vehicle_type_id":"4","last_reported":1700895977,"current_range_meters":0,"station_id":"ce4bh0p2rcd13ifvqd80","pricing_plan_id":"free"},{"bike_id":"0761daf4-3d5d-4c88-b7bc-182276b72b4e","system_id":"levelo_inurba_marseille","lat":43.305994,"lon":5.393687,"is_reserved":false,"is_disabled":false,"rental_uris":{"android":"levelo://app?vid=0761daf4-3d5d-4c88-b7bc-182276b72b4e","ios":"levelo://app?vid=0761daf4-3d5d-4c88-b7bc-182276b72b4e"},"vehicle_type_id":"4","last_reported":1700895977,"current_range_meters":24800,"station_id":"ce4bh0p2rcd13ifvqd80","pricing_plan_id":"free"},{"bike_id":"350b9f9f-6209-469b-8cc4-784d358aa3c9","system_id":"levelo_inurba_marseille","lat":43.305994,"lon":5.393687,"is_reserved":false,"is_disabled":false,"rental_uris":{"android":"levelo://app?vid=350b9f9f-6209-469b-8cc4-784d358aa3c9","ios":"levelo://app?vid=350b9f9f-6209-469b-8cc4-784d358aa3c9"},"vehicle_type_id":"4","last_reported":1700895977,"current_range_meters":29600,"station_id":"ce4bh0p2rcd13ifvqd80","pricing_plan_id":"free"},{"bike_id":"82b89f51-0512-4b2d-bc7c-533fdc15a581","system_id":"levelo_inurba_marseille","lat":43.305994,"lon":5.393687,"is_reserved":false,"is_disabled":false,"rental_uris":{"android":"levelo://app?vid=82b89f51-0512-4b2d-bc7c-533fdc15a581","ios":"levelo://app?vid=82b89f51-0512-4b2d-bc7c-533fdc15a581"},"vehicle_type_id":"4","last_reported":1700895977,"current_range_meters":6000,"station_id":"ce4bh0p2rcd13ifvqd80","pricing_plan_id":"free"},{"bike_id":"32941cb4-11b4-43e6-978f-7ccbb634a780","system_id":"levelo_inurba_marseille","lat":43.292311,"lon":5.360731,"is_reserved":false,"is_disabled":false,"rental_uris":{"android":"levelo://app?vid=32941cb4-11b4-43e6-978f-7ccbb634a780","ios":"levelo://app?vid=32941cb4-11b4-43e6-978f-7ccbb634a780"},"vehicle_type_id":"4","last_reported":1700895977,"current_range_meters":31200,"station_id":"ce4bhbh2rcd13ifvqeqg","pricing_plan_id":"free"},{"bike_id":"2381d1fb-446d-47da-ace8-60028cf032d1","system_id":"levelo_inurba_marseille","lat":43.2936,"lon":5.37835,"is_reserved":false,"is_disabled":false,"rental_uris":{"android":"levelo://app?vid=2381d1fb-446d-47da-ace8-60028cf032d1","ios":"levelo://app?vid=2381d1fb-446d-47da-ace8-60028cf032d1"},"vehicle_type_id":"4","last_reported":1700895977,"current_range_meters":28000,"station_id":"ce4bgjh2rcd13ifvqbf0","pricing_plan_id":"free"},{"bike_id":"cb35b119-84c1-485c-aba0-a69f99cf82cb","system_id":"levelo_inurba_marseille","lat":43.309047,"lon":5.396551,"is_reserved":false,"is_disabled":false,"rental_uris":{"android":"levelo://app?vid=cb35b119-84c1-485c-aba0-a69f99cf82cb","ios":"levelo://app?vid=cb35b119-84c1-485c-aba0-a69f99cf82cb"},"vehicle_type_id":"4","last_reported":1700895977,"current_range_meters":26000,"station_id":"ce4bh012rcd13ifvqcv0","pricing_plan_id":"free"},{"bike_id":"89a6db06-8845-432e-acf9-59e6d0497d33","system_id":"levelo_inurba_marseille","lat":43.313254,"lon":5.396864,"is_reserved":false,"is_disabled":false,"rental_uris":{"android":"levelo://app?vid=89a6db06-8845-432e-acf9-59e6d0497d33","ios":"levelo://app?vid=89a6db06-8845-432e-acf9-59e6d0497d33"},"vehicle_type_id":"4","last_reported":1700895977,"current_range_meters":17600,"station_id":"ce4bgvp2rcd13ifvqcu0","pricing_plan_id":"free"},{"bike_id":"08e318de-e6be-4d92-bb43-f34e2aee1130","system_id":"levelo_inurba_marseille","lat":43.31332,"lon":5.39692,"is_reserved":false,"is_disabled":false,"rental_uris":{"android":"levelo://app?vid=08e318de-e6be-4d92-bb43-f34e2aee1130","ios":"levelo://app?vid=08e318de-e6be-4d92-bb43-f34e2aee1130"},"vehicle_type_id":"4","last_reported":1700895977,"current_range_meters":26400,"station_id":"ce4bgvp2rcd13ifvqcu0","pricing_plan_id":"free"},{"bike_id":"7cd9be1a-99b0-41ae-9072-ad1706b74100","system_id":"levelo_inurba_marseille","lat":43.3088,"lon":5.39644,"is_reserved":false,"is_disabled":false,"rental_uris":{"android":"levelo://app?vid=7cd9be1a-99b0-41ae-9072-ad1706b74100","ios":"levelo://app?vid=7cd9be1a-99b0-41ae-9072-ad1706b74100"},"vehicle_type_id":"4","last_reported":1700895977,"current_range_meters":23600,"station_id":"ce4bh012rcd13ifvqcv0","pricing_plan_id":"free"},{"bike_id":"811b560c-73ad-4229-94e8-f200ecb55f0b","system_id":"levelo_inurba_marseille","lat":43.31331,"lon":5.39693,"is_reserved":false,"is_disabled":false,"rental_uris":{"android":"levelo://app?vid=811b560c-73ad-4229-94e8-f200ecb55f0b","ios":"levelo://app?vid=811b560c-73ad-4229-94e8-f200ecb55f0b"},"vehicle_type_id":"4","last_reported":1700895977,"current_range_meters":15600,"station_id":"ce4bgvp2rcd13ifvqcu0","pricing_plan_id":"free"},{"bike_id":"efd9c6e9-7b91-4b79-b50f-5006611ec782","system_id":"levelo_inurba_marseille","lat":43.291994,"lon":5.357886,"is_reserved":false,"is_disabled":false,"rental_uris":{"android":"levelo://app?vid=efd9c6e9-7b91-4b79-b50f-5006611ec782","ios":"levelo://app?vid=efd9c6e9-7b91-4b79-b50f-5006611ec782"},"vehicle_type_id":"4","last_reported":1700895977,"current_range_meters":28800,"station_id":"ce4bhb12rcd13ifvqel0","pricing_plan_id":"free"},{"bike_id":"6e82d0f5-eb7f-4cea-81d4-b337539bfcee","system_id":"levelo_inurba_marseille","lat":43.313165,"lon":5.396989,"is_reserved":false,"is_disabled":false,"rental_uris":{"android":"levelo://app?vid=6e82d0f5-eb7f-4cea-81d4-b337539bfcee","ios":"levelo://app?vid=6e82d0f5-eb7f-4cea-81d4-b337539bfcee"},"vehicle_type_id":"4","last_reported":1700895977,"current_range_meters":18800,"station_id":"ce4bgvp2rcd13ifvqcu0","pricing_plan_id":"free"},{"bike_id":"1d10a1b1-d55f-4279-928a-9c6858f32ca9","system_id":"levelo_inurba_marseille","lat":43.33211,"lon":5.38112,"is_reserved":false,"is_disabled":false,"rental_uris":{"android":"levelo://app?vid=1d10a1b1-d55f-4279-928a-9c6858f32ca9","ios":"levelo://app?vid=1d10a1b1-d55f-4279-928a-9c6858f32ca9"},"vehicle_type_id":"4","last_reported":1700895977,"current_range_meters":0,"station_id":"","pricing_plan_id":"free"},{"bike_id":"3b01ceb2-62e3-4327-9522-8ce832461d0b","system_id":"levelo_inurba_marseille","lat":43.290779,"lon":5.371482,"is_reserved":false,"is_disabled":false,"rental_uris":{"android":"levelo://app?vid=3b01ceb2-62e3-4327-9522-8ce832461d0b","ios":"levelo://app?vid=3b01ceb2-62e3-4327-9522-8ce832461d0b"},"vehicle_type_id":"4","last_reported":1700895977,"current_range_meters":28800,"station_id":"ce4bh5p2rcd13ifvqe4g","pricing_plan_id":"free"},{"bike_id":"090522e0-5a42-4837-a096-ee2dd3dcbd1d","system_id":"levelo_inurba_marseille","lat":43.290624,"lon":5.359245,"is_reserved":false,"is_disabled":false,"rental_uris":{"android":"levelo://app?vid=090522e0-5a42-4837-a096-ee2dd3dcbd1d","ios":"levelo://app?vid=090522e0-5a42-4837-a096-ee2dd3dcbd1d"},"vehicle_type_id":"4","last_reported":1700895977,"current_range_meters":30000,"station_id":"ce4bha92rcd13ifvqeg0","pricing_plan_id":"free"},{"bike_id":"331aef77-56d6-4fee-9c17-34458dbe9d2b","system_id":"levelo_inurba_marseille","lat":43.28925,"lon":5.36396,"is_reserved":false,"is_disabled":false,"rental_uris":{"android":"levelo://app?vid=331aef77-56d6-4fee-9c17-34458dbe9d2b","ios":"levelo://app?vid=331aef77-56d6-4fee-9c17-34458dbe9d2b"},"vehicle_type_id":"4","last_reported":1700895977,"current_range_meters":30400,"station_id":"ce4bhc92rcd13ifvqetg","pricing_plan_id":"free"},{"bike_id":"e3fddbc2-77d0-46ca-a3db-c77da41872b9","system_id":"levelo_inurba_marseille","lat":43.33043,"lon":5.38916,"is_reserved":false,"is_disabled":false,"rental_uris":{"android":"levelo://app?vid=e3fddbc2-77d0-46ca-a3db-c77da41872b9","ios":"levelo://app?vid=e3fddbc2-77d0-46ca-a3db-c77da41872b9"},"vehicle_type_id":"4","last_reported":1700895977,"current_range_meters":31200,"station_id":"ce4bhr92rcd13ifvqhrg","pricing_plan_id":"free"},{"bike_id":"b65d084e-ee49-450b-a309-6cba0d969878","system_id":"levelo_inurba_marseille","lat":43.330442,"lon":5.389148,"is_reserved":false,"is_disabled":false,"rental_uris":{"android":"levelo://app?vid=b65d084e-ee49-450b-a309-6cba0d969878","ios":"levelo://app?vid=b65d084e-ee49-450b-a309-6cba0d969878"},"vehicle_type_id":"4","last_reported":1700895977,"current_range_meters":14800,"station_id":"ce4bhr92rcd13ifvqhrg","pricing_plan_id":"free"},{"bike_id":"76a5c9ee-e9c6-4226-99ff-470ac8fe6770","system_id":"levelo_inurba_marseille","lat":43.330442,"lon":5.389148,"is_reserved":false,"is_disabled":false,"rental_uris":{"android":"levelo://app?vid=76a5c9ee-e9c6-4226-99ff-470ac8fe6770","ios":"levelo://app?vid=76a5c9ee-e9c6-4226-99ff-470ac8fe6770"},"vehicle_type_id":"4","last_reported":1700895977,"current_range_meters":10000,"station_id":"ce4bhr92rcd13ifvqhrg","pricing_plan_id":"free"},{"bike_id":"79283f3d-278d-4058-9d93-4b32f9c3a23b","system_id":"levelo_inurba_marseille","lat":43.290995,"lon":5.381361,"is_reserved":false,"is_disabled":false,"rental_uris":{"android":"levelo://app?vid=79283f3d-278d-4058-9d93-4b32f9c3a23b","ios":"levelo://app?vid=79283f3d-278d-4058-9d93-4b32f9c3a23b"},"vehicle_type_id":"4","last_reported":1700895977,"current_range_meters":30400,"station_id":"ce4bh512rcd13ifvqe2g","pricing_plan_id":"free"},{"bike_id":"8e0c1dd2-43ea-4066-aef2-738ecc14fd65","system_id":"levelo_inurba_marseille","lat":43.290995,"lon":5.381361,"is_reserved":false,"is_disabled":false,"rental_uris":{"android":"levelo://app?vid=8e0c1dd2-43ea-4066-aef2-738ecc14fd65","ios":"levelo://app?vid=8e0c1dd2-43ea-4066-aef2-738ecc14fd65"},"vehicle_type_id":"4","last_reported":1700895977,"current_range_meters":24000,"station_id":"ce4bh512rcd13ifvqe2g","pricing_plan_id":"free"},{"bike_id":"7f26825a-7c61-40dc-ad18-5d67fa9e2034","system_id":"levelo_inurba_marseille","lat":43.289743,"lon":5.378304,"is_reserved":false,"is_disabled":false,"rental_uris":{"android":"levelo://app?vid=7f26825a-7c61-40dc-ad18-5d67fa9e2034","ios":"levelo://app?vid=7f26825a-7c61-40dc-ad18-5d67fa9e2034"},"vehicle_type_id":"4","last_reported":1700895977,"current_range_meters":28400,"station_id":"ce4bh9p2rcd13ifvqed0","pricing_plan_id":"free"},{"bike_id":"512ca2c8-907c-4c52-b91d-c611e6053637","system_id":"levelo_inurba_marseille","lat":43.312609,"lon":5.401662,"is_reserved":false,"is_disabled":false,"rental_uris":{"android":"levelo://app?vid=512ca2c8-907c-4c52-b91d-c611e6053637","ios":"levelo://app?vid=512ca2c8-907c-4c52-b91d-c611e6053637"},"vehicle_type_id":"4","last_reported":1700895977,"current_range_meters":31200,"station_id":"ce4bh092rcd13ifvqd30","pricing_plan_id":"free"},{"bike_id":"63930bac-dba8-4359-a8d1-182651ab01d7","system_id":"levelo_inurba_marseille","lat":43.312609,"lon":5.401662,"is_reserved":false,"is_disabled":false,"rental_uris":{"android":"levelo://app?vid=63930bac-dba8-4359-a8d1-182651ab01d7","ios":"levelo://app?vid=63930bac-dba8-4359-a8d1-182651ab01d7"},"vehicle_type_id":"4","last_reported":1700895977,"current_range_meters":10400,"station_id":"ce4bh092rcd13ifvqd30","pricing_plan_id":"free"},{"bike_id":"6d3380cd-34a6-405f-9e14-9dfad01eb06b","system_id":"levelo_inurba_marseille","lat":43.312609,"lon":5.401662,"is_reserved":false,"is_disabled":false,"rental_uris":{"android":"levelo://app?vid=6d3380cd-34a6-405f-9e14-9dfad01eb06b","ios":"levelo://app?vid=6d3380cd-34a6-405f-9e14-9dfad01eb06b"},"vehicle_type_id":"4","last_reported":1700895977,"current_range_meters":26800,"station_id":"ce4bh092rcd13ifvqd30","pricing_plan_id":"free"},{"bike_id":"a36bcf99-62cd-41bd-97f0-f36d1b1ae8c6","system_id":"levelo_inurba_marseille","lat":43.30932,"lon":5.40144,"is_reserved":false,"is_disabled":false,"rental_uris":{"android":"levelo://app?vid=a36bcf99-62cd-41bd-97f0-f36d1b1ae8c6","ios":"levelo://app?vid=a36bcf99-62cd-41bd-97f0-f36d1b1ae8c6"},"vehicle_type_id":"4","last_reported":1700895977,"current_range_meters":30800,"station_id":"ce4bgvp2rcd13ifvqct0","pricing_plan_id":"free"},{"bike_id":"767800d5-fc15-4b0c-813f-26453fcc36b5","system_id":"levelo_inurba_marseille","lat":43.3093,"lon":5.401475,"is_reserved":false,"is_disabled":false,"rental_uris":{"android":"levelo://app?vid=767800d5-fc15-4b0c-813f-26453fcc36b5","ios":"levelo://app?vid=767800d5-fc15-4b0c-813f-26453fcc36b5"},"vehicle_type_id":"4","last_reported":1700895977,"current_range_meters":22000,"station_id":"ce4bgvp2rcd13ifvqct0","pricing_plan_id":"free"},{"bike_id":"bdd2ba67-9c02-4246-9a66-3d432278cabd","system_id":"levelo_inurba_marseille","lat":43.30932,"lon":5.40153,"is_reserved":false,"is_disabled":false,"rental_uris":{"android":"levelo://app?vid=bdd2ba67-9c02-4246-9a66-3d432278cabd","ios":"levelo://app?vid=bdd2ba67-9c02-4246-9a66-3d432278cabd"},"vehicle_type_id":"4","last_reported":1700895977,"current_range_meters":17600,"station_id":"ce4bgvp2rcd13ifvqct0","pricing_plan_id":"free"},{"bike_id":"ed3f905f-4c4a-41fb-98a0-1b9d048491fb","system_id":"levelo_inurba_marseille","lat":43.28727,"lon":5.36078,"is_reserved":false,"is_disabled":false,"rental_uris":{"android":"levelo://app?vid=ed3f905f-4c4a-41fb-98a0-1b9d048491fb","ios":"levelo://app?vid=ed3f905f-4c4a-41fb-98a0-1b9d048491fb"},"vehicle_type_id":"4","last_reported":1700895977,"current_range_meters":27600,"station_id":"cki0cbj6b192h4jlfktg","pricing_plan_id":"free"},{"bike_id":"f6ab1f2d-e3f4-4446-9f45-33b3091a0e3f","system_id":"levelo_inurba_marseille","lat":43.28727,"lon":5.36078,"is_reserved":false,"is_disabled":false,"rental_uris":{"android":"levelo://app?vid=f6ab1f2d-e3f4-4446-9f45-33b3091a0e3f","ios":"levelo://app?vid=f6ab1f2d-e3f4-4446-9f45-33b3091a0e3f"},"vehicle_type_id":"4","last_reported":1700895977,"current_range_meters":28400,"station_id":"cki0cbj6b192h4jlfktg","pricing_plan_id":"free"},{"bike_id":"22319868-b0c9-401f-8952-6eee61f5a42b","system_id":"levelo_inurba_marseille","lat":43.298681,"lon":5.397225,"is_reserved":false,"is_disabled":false,"rental_uris":{"android":"levelo://app?vid=22319868-b0c9-401f-8952-6eee61f5a42b","ios":"levelo://app?vid=22319868-b0c9-401f-8952-6eee61f5a42b"},"vehicle_type_id":"4","last_reported":1700895977,"current_range_meters":24800,"station_id":"ce4bh0h2rcd13ifvqd50","pricing_plan_id":"free"},{"bike_id":"af4dc67f-404b-48d1-bde1-d70bcf9e36d2","system_id":"levelo_inurba_marseille","lat":43.286961,"lon":5.373785,"is_reserved":false,"is_disabled":false,"rental_uris":{"android":"levelo://app?vid=af4dc67f-404b-48d1-bde1-d70bcf9e36d2","ios":"levelo://app?vid=af4dc67f-404b-48d1-bde1-d70bcf9e36d2"},"vehicle_type_id":"4","last_reported":1700895977,"current_range_meters":8400,"station_id":"ce4bh3p2rcd13ifvqdq0","pricing_plan_id":"free"},{"bike_id":"f0dd7707-ba88-4235-91e6-a42a6d1a0c9c","system_id":"levelo_inurba_marseille","lat":43.286591,"lon":5.363346,"is_reserved":false,"is_disabled":false,"rental_uris":{"android":"levelo://app?vid=f0dd7707-ba88-4235-91e6-a42a6d1a0c9c","ios":"levelo://app?vid=f0dd7707-ba88-4235-91e6-a42a6d1a0c9c"},"vehicle_type_id":"4","last_reported":1700895977,"current_range_meters":29600,"station_id":"ce4bhah2rcd13ifvqej0","pricing_plan_id":"free"},{"bike_id":"ba18733d-43c0-4f9d-858e-2b1f80374780","system_id":"levelo_inurba_marseille","lat":43.287003,"lon":5.37395,"is_reserved":false,"is_disabled":false,"rental_uris":{"android":"levelo://app?vid=ba18733d-43c0-4f9d-858e-2b1f80374780","ios":"levelo://app?vid=ba18733d-43c0-4f9d-858e-2b1f80374780"},"vehicle_type_id":"4","last_reported":1700895977,"current_range_meters":23600,"station_id":"ce4bh3p2rcd13ifvqdq0","pricing_plan_id":"free"},{"bike_id":"689be10d-4b1e-4143-9c49-b99c81400a1e","system_id":"levelo_inurba_marseille","lat":43.298681,"lon":5.397225,"is_reserved":false,"is_disabled":false,"rental_uris":{"android":"levelo://app?vid=689be10d-4b1e-4143-9c49-b99c81400a1e","ios":"levelo://app?vid=689be10d-4b1e-4143-9c49-b99c81400a1e"},"vehicle_type_id":"4","last_reported":1700895977,"current_range_meters":30400,"station_id":"ce4bh0h2rcd13ifvqd50","pricing_plan_id":"free"},{"bike_id":"82e03ee6-a172-4d76-b793-5db75d5b5d94","system_id":"levelo_inurba_marseille","lat":43.28697,"lon":5.373985,"is_reserved":false,"is_disabled":false,"rental_uris":{"android":"levelo://app?vid=82e03ee6-a172-4d76-b793-5db75d5b5d94","ios":"levelo://app?vid=82e03ee6-a172-4d76-b793-5db75d5b5d94"},"vehicle_type_id":"4","last_reported":1700895977,"current_range_meters":2000,"station_id":"ce4bh3p2rcd13ifvqdq0","pricing_plan_id":"free"},{"bike_id":"a114aae6-8ceb-4886-b20a-6780de28c969","system_id":"levelo_inurba_marseille","lat":43.286039,"lon":5.370679,"is_reserved":false,"is_disabled":false,"rental_uris":{"android":"levelo://app?vid=a114aae6-8ceb-4886-b20a-6780de28c969","ios":"levelo://app?vid=a114aae6-8ceb-4886-b20a-6780de28c969"},"vehicle_type_id":"4","last_reported":1700895977,"current_range_meters":30000,"station_id":"ce4bht12rcd13ifvqi60","pricing_plan_id":"free"},{"bike_id":"c39575a3-19c0-48eb-b5e0-f695c09b81fc","system_id":"levelo_inurba_marseille","lat":43.287185,"lon":5.379373,"is_reserved":false,"is_disabled":false,"rental_uris":{"android":"levelo://app?vid=c39575a3-19c0-48eb-b5e0-f695c09b81fc","ios":"levelo://app?vid=c39575a3-19c0-48eb-b5e0-f695c09b81fc"},"vehicle_type_id":"4","last_reported":1700895977,"current_range_meters":23200,"station_id":"ce4bh9p2rcd13ifvqec0","pricing_plan_id":"free"},{"bike_id":"f65884f9-bc82-4b37-87de-e1275d553159","system_id":"levelo_inurba_marseille","lat":43.29199,"lon":5.39322,"is_reserved":false,"is_disabled":false,"rental_uris":{"android":"levelo://app?vid=f65884f9-bc82-4b37-87de-e1275d553159","ios":"levelo://app?vid=f65884f9-bc82-4b37-87de-e1275d553159"},"vehicle_type_id":"4","last_reported":1700895977,"current_range_meters":10000,"station_id":"ce4bh192rcd13ifvqdd0","pricing_plan_id":"free"},{"bike_id":"01f363a3-9144-404a-8ce2-82e605cdeb11","system_id":"levelo_inurba_marseille","lat":43.28463,"lon":5.35896,"is_reserved":false,"is_disabled":false,"rental_uris":{"android":"levelo://app?vid=01f363a3-9144-404a-8ce2-82e605cdeb11","ios":"levelo://app?vid=01f363a3-9144-404a-8ce2-82e605cdeb11"},"vehicle_type_id":"4","last_reported":1700895977,"current_range_meters":12000,"station_id":"ce4bhah2rcd13ifvqei0","pricing_plan_id":"free"},{"bike_id":"da2d4662-f83f-4325-b459-70668f1c8000","system_id":"levelo_inurba_marseille","lat":43.28461,"lon":5.35896,"is_reserved":false,"is_disabled":false,"rental_uris":{"android":"levelo://app?vid=da2d4662-f83f-4325-b459-70668f1c8000","ios":"levelo://app?vid=da2d4662-f83f-4325-b459-70668f1c8000"},"vehicle_type_id":"4","last_reported":1700895977,"current_range_meters":19200,"station_id":"ce4bhah2rcd13ifvqei0","pricing_plan_id":"free"},{"bike_id":"bec460e9-8bd7-4de2-b033-6f6fc15d3b46","system_id":"levelo_inurba_marseille","lat":43.284616,"lon":5.358908,"is_reserved":false,"is_disabled":false,"rental_uris":{"android":"levelo://app?vid=bec460e9-8bd7-4de2-b033-6f6fc15d3b46","ios":"levelo://app?vid=bec460e9-8bd7-4de2-b033-6f6fc15d3b46"},"vehicle_type_id":"4","last_reported":1700895977,"current_range_meters":31200,"station_id":"ce4bhah2rcd13ifvqei0","pricing_plan_id":"free"},{"bike_id":"e47b168a-d035-4431-9705-29ace257e0f4","system_id":"levelo_inurba_marseille","lat":43.284534,"lon":5.358662,"is_reserved":false,"is_disabled":false,"rental_uris":{"android":"levelo://app?vid=e47b168a-d035-4431-9705-29ace257e0f4","ios":"levelo://app?vid=e47b168a-d035-4431-9705-29ace257e0f4"},"vehicle_type_id":"4","last_reported":1700895977,"current_range_meters":18000,"station_id":"ce4bhah2rcd13ifvqei0","pricing_plan_id":"free"},{"bike_id":"bd7806b1-cdf2-4a1e-b5e0-df163e1f8f4c","system_id":"levelo_inurba_marseille","lat":43.2846,"lon":5.35887,"is_reserved":false,"is_disabled":false,"rental_uris":{"android":"levelo://app?vid=bd7806b1-cdf2-4a1e-b5e0-df163e1f8f4c","ios":"levelo://app?vid=bd7806b1-cdf2-4a1e-b5e0-df163e1f8f4c"},"vehicle_type_id":"4","last_reported":1700895977,"current_range_meters":21600,"station_id":"ce4bhah2rcd13ifvqei0","pricing_plan_id":"free"},{"bike_id":"52451758-9074-43bc-8aaf-e1be3ff78e0b","system_id":"levelo_inurba_marseille","lat":43.284589,"lon":5.358893,"is_reserved":false,"is_disabled":false,"rental_uris":{"android":"levelo://app?vid=52451758-9074-43bc-8aaf-e1be3ff78e0b","ios":"levelo://app?vid=52451758-9074-43bc-8aaf-e1be3ff78e0b"},"vehicle_type_id":"4","last_reported":1700895977,"current_range_meters":18400,"station_id":"ce4bhah2rcd13ifvqei0","pricing_plan_id":"free"},{"bike_id":"961a5703-10d4-44f1-b523-88f94194bd91","system_id":"levelo_inurba_marseille","lat":43.284577,"lon":5.35888,"is_reserved":false,"is_disabled":false,"rental_uris":{"android":"levelo://app?vid=961a5703-10d4-44f1-b523-88f94194bd91","ios":"levelo://app?vid=961a5703-10d4-44f1-b523-88f94194bd91"},"vehicle_type_id":"4","last_reported":1700895977,"current_range_meters":26800,"station_id":"ce4bhah2rcd13ifvqei0","pricing_plan_id":"free"},{"bike_id":"ee4891d5-a13a-49e9-80b2-724d3220b9c2","system_id":"levelo_inurba_marseille","lat":43.28458,"lon":5.35885,"is_reserved":false,"is_disabled":false,"rental_uris":{"android":"levelo://app?vid=ee4891d5-a13a-49e9-80b2-724d3220b9c2","ios":"levelo://app?vid=ee4891d5-a13a-49e9-80b2-724d3220b9c2"},"vehicle_type_id":"4","last_reported":1700895977,"current_range_meters":21200,"station_id":"ce4bhah2rcd13ifvqei0","pricing_plan_id":"free"},{"bike_id":"de74c172-3720-4778-aae4-57ede0571e93","system_id":"levelo_inurba_marseille","lat":43.294314,"lon":5.397498,"is_reserved":false,"is_disabled":false,"rental_uris":{"android":"levelo://app?vid=de74c172-3720-4778-aae4-57ede0571e93","ios":"levelo://app?vid=de74c172-3720-4778-aae4-57ede0571e93"},"vehicle_type_id":"4","last_reported":1700895977,"current_range_meters":26000,"station_id":"ce4bh3h2rcd13ifvqdo0","pricing_plan_id":"free"},{"bike_id":"95e87ea7-b5f8-4673-8f44-e18caa0f4eb2","system_id":"levelo_inurba_marseille","lat":43.284534,"lon":5.358662,"is_reserved":false,"is_disabled":false,"rental_uris":{"android":"levelo://app?vid=95e87ea7-b5f8-4673-8f44-e18caa0f4eb2","ios":"levelo://app?vid=95e87ea7-b5f8-4673-8f44-e18caa0f4eb2"},"vehicle_type_id":"4","last_reported":1700895977,"current_range_meters":23200,"station_id":"ce4bhah2rcd13ifvqei0","pricing_plan_id":"free"},{"bike_id":"7f290dac-b761-4a08-9e2c-c94ce0063aa1","system_id":"levelo_inurba_marseille","lat":43.284534,"lon":5.358662,"is_reserved":false,"is_disabled":false,"rental_uris":{"android":"levelo://app?vid=7f290dac-b761-4a08-9e2c-c94ce0063aa1","ios":"levelo://app?vid=7f290dac-b761-4a08-9e2c-c94ce0063aa1"},"vehicle_type_id":"4","last_reported":1700895977,"current_range_meters":31200,"station_id":"ce4bhah2rcd13ifvqei0","pricing_plan_id":"free"},{"bike_id":"61cc7b97-d233-4710-86c8-d385a58acb08","system_id":"levelo_inurba_marseille","lat":43.284534,"lon":5.358662,"is_reserved":false,"is_disabled":false,"rental_uris":{"android":"levelo://app?vid=61cc7b97-d233-4710-86c8-d385a58acb08","ios":"levelo://app?vid=61cc7b97-d233-4710-86c8-d385a58acb08"},"vehicle_type_id":"4","last_reported":1700895977,"current_range_meters":31200,"station_id":"ce4bhah2rcd13ifvqei0","pricing_plan_id":"free"},{"bike_id":"6322721f-c60f-45c4-aa49-c3f137b3e9ee","system_id":"levelo_inurba_marseille","lat":43.294314,"lon":5.397498,"is_reserved":false,"is_disabled":false,"rental_uris":{"android":"levelo://app?vid=6322721f-c60f-45c4-aa49-c3f137b3e9ee","ios":"levelo://app?vid=6322721f-c60f-45c4-aa49-c3f137b3e9ee"},"vehicle_type_id":"4","last_reported":1700895977,"current_range_meters":25200,"station_id":"ce4bh3h2rcd13ifvqdo0","pricing_plan_id":"free"},{"bike_id":"464fb64a-e97b-4368-9517-d9757701de11","system_id":"levelo_inurba_marseille","lat":43.28624,"lon":5.35101,"is_reserved":false,"is_disabled":false,"rental_uris":{"android":"levelo://app?vid=464fb64a-e97b-4368-9517-d9757701de11","ios":"levelo://app?vid=464fb64a-e97b-4368-9517-d9757701de11"},"vehicle_type_id":"4","last_reported":1700895977,"current_range_meters":26800,"station_id":"ce4bhch2rcd13ifvqeug","pricing_plan_id":"free"},{"bike_id":"0659d491-e5a1-4057-8389-a0d7efdd059b","system_id":"levelo_inurba_marseille","lat":43.286179,"lon":5.351033,"is_reserved":false,"is_disabled":false,"rental_uris":{"android":"levelo://app?vid=0659d491-e5a1-4057-8389-a0d7efdd059b","ios":"levelo://app?vid=0659d491-e5a1-4057-8389-a0d7efdd059b"},"vehicle_type_id":"4","last_reported":1700895977,"current_range_meters":31200,"station_id":"ce4bhch2rcd13ifvqeug","pricing_plan_id":"free"},{"bike_id":"f45f595b-1e51-455d-9f92-d7f0a717c38d","system_id":"levelo_inurba_marseille","lat":43.28617,"lon":5.35105,"is_reserved":false,"is_disabled":false,"rental_uris":{"android":"levelo://app?vid=f45f595b-1e51-455d-9f92-d7f0a717c38d","ios":"levelo://app?vid=f45f595b-1e51-455d-9f92-d7f0a717c38d"},"vehicle_type_id":"4","last_reported":1700895977,"current_range_meters":20400,"station_id":"ce4bhch2rcd13ifvqeug","pricing_plan_id":"free"},{"bike_id":"06cdd129-ccfc-4201-830a-927458bcd18a","system_id":"levelo_inurba_marseille","lat":43.295713,"lon":5.399639,"is_reserved":false,"is_disabled":false,"rental_uris":{"android":"levelo://app?vid=06cdd129-ccfc-4201-830a-927458bcd18a","ios":"levelo://app?vid=06cdd129-ccfc-4201-830a-927458bcd18a"},"vehicle_type_id":"4","last_reported":1700895977,"current_range_meters":26400,"station_id":"ce4bh312rcd13ifvqdj0","pricing_plan_id":"free"},{"bike_id":"8ea2241d-8243-4aa8-9c3c-f5504f491d5a","system_id":"levelo_inurba_marseille","lat":43.295713,"lon":5.399639,"is_reserved":false,"is_disabled":false,"rental_uris":{"android":"levelo://app?vid=8ea2241d-8243-4aa8-9c3c-f5504f491d5a","ios":"levelo://app?vid=8ea2241d-8243-4aa8-9c3c-f5504f491d5a"},"vehicle_type_id":"4","last_reported":1700895977,"current_range_meters":29200,"station_id":"ce4bh312rcd13ifvqdj0","pricing_plan_id":"free"},{"bike_id":"2f00a144-d3b5-431b-8a0d-f61d4c685e49","system_id":"levelo_inurba_marseille","lat":43.295713,"lon":5.399639,"is_reserved":false,"is_disabled":false,"rental_uris":{"android":"levelo://app?vid=2f00a144-d3b5-431b-8a0d-f61d4c685e49","ios":"levelo://app?vid=2f00a144-d3b5-431b-8a0d-f61d4c685e49"},"vehicle_type_id":"4","last_reported":1700895977,"current_range_meters":25600,"station_id":"ce4bh312rcd13ifvqdj0","pricing_plan_id":"free"},{"bike_id":"61750f1c-3419-4714-8f5a-0fc4d84c6398","system_id":"levelo_inurba_marseille","lat":43.31889,"lon":5.40727,"is_reserved":false,"is_disabled":false,"rental_uris":{"android":"levelo://app?vid=61750f1c-3419-4714-8f5a-0fc4d84c6398","ios":"levelo://app?vid=61750f1c-3419-4714-8f5a-0fc4d84c6398"},"vehicle_type_id":"4","last_reported":1700895977,"current_range_meters":19200,"station_id":"ce4bhq12rcd13ifvqhig","pricing_plan_id":"free"},{"bike_id":"b0beddf5-7bb3-41c4-bfcf-47f938baf159","system_id":"levelo_inurba_marseille","lat":43.319179,"lon":5.407725,"is_reserved":false,"is_disabled":false,"rental_uris":{"android":"levelo://app?vid=b0beddf5-7bb3-41c4-bfcf-47f938baf159","ios":"levelo://app?vid=b0beddf5-7bb3-41c4-bfcf-47f938baf159"},"vehicle_type_id":"4","last_reported":1700895977,"current_range_meters":30400,"station_id":"ce4bhq12rcd13ifvqhig","pricing_plan_id":"free"},{"bike_id":"85e4ecba-9efd-43c9-9c6b-00bb89a9eb10","system_id":"levelo_inurba_marseille","lat":43.319179,"lon":5.407725,"is_reserved":false,"is_disabled":false,"rental_uris":{"android":"levelo://app?vid=85e4ecba-9efd-43c9-9c6b-00bb89a9eb10","ios":"levelo://app?vid=85e4ecba-9efd-43c9-9c6b-00bb89a9eb10"},"vehicle_type_id":"4","last_reported":1700895977,"current_range_meters":28400,"station_id":"ce4bhq12rcd13ifvqhig","pricing_plan_id":"free"},{"bike_id":"60fb846c-95d4-493d-8ff0-fc77dde513c4","system_id":"levelo_inurba_marseille","lat":43.33717,"lon":5.391857,"is_reserved":false,"is_disabled":false,"rental_uris":{"android":"levelo://app?vid=60fb846c-95d4-493d-8ff0-fc77dde513c4","ios":"levelo://app?vid=60fb846c-95d4-493d-8ff0-fc77dde513c4"},"vehicle_type_id":"4","last_reported":1700895977,"current_range_meters":31200,"station_id":"ce4bhr92rcd13ifvqhsg","pricing_plan_id":"free"},{"bike_id":"fbed67cb-7d52-4e0c-8488-1d40e28e0960","system_id":"levelo_inurba_marseille","lat":43.323464,"lon":5.406297,"is_reserved":false,"is_disabled":false,"rental_uris":{"android":"levelo://app?vid=fbed67cb-7d52-4e0c-8488-1d40e28e0960","ios":"levelo://app?vid=fbed67cb-7d52-4e0c-8488-1d40e28e0960"},"vehicle_type_id":"4","last_reported":1700895977,"current_range_meters":30400,"station_id":"ce4bhq92rcd13ifvqhjg","pricing_plan_id":"free"},{"bike_id":"a2aef97f-9672-490c-9adb-8f935edcc814","system_id":"levelo_inurba_marseille","lat":43.323464,"lon":5.406297,"is_reserved":false,"is_disabled":false,"rental_uris":{"android":"levelo://app?vid=a2aef97f-9672-490c-9adb-8f935edcc814","ios":"levelo://app?vid=a2aef97f-9672-490c-9adb-8f935edcc814"},"vehicle_type_id":"4","last_reported":1700895977,"current_range_meters":31200,"station_id":"ce4bhq92rcd13ifvqhjg","pricing_plan_id":"free"},{"bike_id":"0088195e-12d8-4c3a-b8a0-0768dada47e7","system_id":"levelo_inurba_marseille","lat":43.284793,"lon":5.384113,"is_reserved":false,"is_disabled":false,"rental_uris":{"android":"levelo://app?vid=0088195e-12d8-4c3a-b8a0-0768dada47e7","ios":"levelo://app?vid=0088195e-12d8-4c3a-b8a0-0768dada47e7"},"vehicle_type_id":"4","last_reported":1700895977,"current_range_meters":23200,"station_id":"ce4bh512rcd13ifvqe3g","pricing_plan_id":"free"},{"bike_id":"88bb355f-c8f4-47cf-976f-181a9f95e494","system_id":"levelo_inurba_marseille","lat":43.284793,"lon":5.384113,"is_reserved":false,"is_disabled":false,"rental_uris":{"android":"levelo://app?vid=88bb355f-c8f4-47cf-976f-181a9f95e494","ios":"levelo://app?vid=88bb355f-c8f4-47cf-976f-181a9f95e494"},"vehicle_type_id":"4","last_reported":1700895977,"current_range_meters":27600,"station_id":"ce4bh512rcd13ifvqe3g","pricing_plan_id":"free"},{"bike_id":"9eb70c97-0c99-4ae2-ac40-696931bf9f87","system_id":"levelo_inurba_marseille","lat":43.284787,"lon":5.384116,"is_reserved":false,"is_disabled":false,"rental_uris":{"android":"levelo://app?vid=9eb70c97-0c99-4ae2-ac40-696931bf9f87","ios":"levelo://app?vid=9eb70c97-0c99-4ae2-ac40-696931bf9f87"},"vehicle_type_id":"4","last_reported":1700895977,"current_range_meters":6400,"station_id":"ce4bh512rcd13ifvqe3g","pricing_plan_id":"free"},{"bike_id":"b7aa7631-9089-48a7-89bb-a254278a2e06","system_id":"levelo_inurba_marseille","lat":43.289741,"lon":5.378306,"is_reserved":false,"is_disabled":false,"rental_uris":{"android":"levelo://app?vid=b7aa7631-9089-48a7-89bb-a254278a2e06","ios":"levelo://app?vid=b7aa7631-9089-48a7-89bb-a254278a2e06"},"vehicle_type_id":"4","last_reported":1700895977,"current_range_meters":24800,"station_id":"ce4bh9p2rcd13ifvqed0","pricing_plan_id":"free"},{"bike_id":"9403d4fb-5fb4-4439-8137-e02d99704aa7","system_id":"levelo_inurba_marseille","lat":43.297946,"lon":5.404063,"is_reserved":false,"is_disabled":false,"rental_uris":{"android":"levelo://app?vid=9403d4fb-5fb4-4439-8137-e02d99704aa7","ios":"levelo://app?vid=9403d4fb-5fb4-4439-8137-e02d99704aa7"},"vehicle_type_id":"4","last_reported":1700895977,"current_range_meters":28400,"station_id":"ce4bh112rcd13ifvqd90","pricing_plan_id":"free"},{"bike_id":"7ed68669-0f74-4ee9-ab72-301a3b65d8be","system_id":"levelo_inurba_marseille","lat":43.284219,"lon":5.3497,"is_reserved":false,"is_disabled":false,"rental_uris":{"android":"levelo://app?vid=7ed68669-0f74-4ee9-ab72-301a3b65d8be","ios":"levelo://app?vid=7ed68669-0f74-4ee9-ab72-301a3b65d8be"},"vehicle_type_id":"4","last_reported":1700895977,"current_range_meters":30000,"station_id":"ce4bhbh2rcd13ifvqepg","pricing_plan_id":"free"},{"bike_id":"62a381a1-2713-4f1a-a0a4-038c3649da81","system_id":"levelo_inurba_marseille","lat":43.289433,"lon":5.39632,"is_reserved":false,"is_disabled":false,"rental_uris":{"android":"levelo://app?vid=62a381a1-2713-4f1a-a0a4-038c3649da81","ios":"levelo://app?vid=62a381a1-2713-4f1a-a0a4-038c3649da81"},"vehicle_type_id":"4","last_reported":1700895977,"current_range_meters":29200,"station_id":"ce4bh3h2rcd13ifvqdn0","pricing_plan_id":"free"},{"bike_id":"e2284003-4e46-4e0a-93e7-73d05c3666d9","system_id":"levelo_inurba_marseille","lat":43.33508,"lon":5.397755,"is_reserved":false,"is_disabled":false,"rental_uris":{"android":"levelo://app?vid=e2284003-4e46-4e0a-93e7-73d05c3666d9","ios":"levelo://app?vid=e2284003-4e46-4e0a-93e7-73d05c3666d9"},"vehicle_type_id":"4","last_reported":1700895977,"current_range_meters":23600,"station_id":"","pricing_plan_id":"free"},{"bike_id":"9d87e07b-7f33-4ea9-becc-6e86d9298b6e","system_id":"levelo_inurba_marseille","lat":43.289363,"lon":5.396322,"is_reserved":false,"is_disabled":false,"rental_uris":{"android":"levelo://app?vid=9d87e07b-7f33-4ea9-becc-6e86d9298b6e","ios":"levelo://app?vid=9d87e07b-7f33-4ea9-becc-6e86d9298b6e"},"vehicle_type_id":"4","last_reported":1700895977,"current_range_meters":26400,"station_id":"ce4bh3h2rcd13ifvqdn0","pricing_plan_id":"free"},{"bike_id":"521d8a2c-51ec-4f55-bd49-ab9278d2ff0c","system_id":"levelo_inurba_marseille","lat":43.292702,"lon":5.401271,"is_reserved":false,"is_disabled":false,"rental_uris":{"android":"levelo://app?vid=521d8a2c-51ec-4f55-bd49-ab9278d2ff0c","ios":"levelo://app?vid=521d8a2c-51ec-4f55-bd49-ab9278d2ff0c"},"vehicle_type_id":"4","last_reported":1700895977,"current_range_meters":31200,"station_id":"ce4bh312rcd13ifvqdk0","pricing_plan_id":"free"},{"bike_id":"5b671571-78b2-4f57-8063-0989c709b238","system_id":"levelo_inurba_marseille","lat":43.282744,"lon":5.350533,"is_reserved":false,"is_disabled":false,"rental_uris":{"android":"levelo://app?vid=5b671571-78b2-4f57-8063-0989c709b238","ios":"levelo://app?vid=5b671571-78b2-4f57-8063-0989c709b238"},"vehicle_type_id":"4","last_reported":1700895977,"current_range_meters":27600,"station_id":"ce4bhbp2rcd13ifvqerg","pricing_plan_id":"free"},{"bike_id":"f4878979-913f-44a9-bc06-3e378524404c","system_id":"levelo_inurba_marseille","lat":43.282694,"lon":5.350792,"is_reserved":false,"is_disabled":false,"rental_uris":{"android":"levelo://app?vid=f4878979-913f-44a9-bc06-3e378524404c","ios":"levelo://app?vid=f4878979-913f-44a9-bc06-3e378524404c"},"vehicle_type_id":"4","last_reported":1700895977,"current_range_meters":26800,"station_id":"ce4bhbp2rcd13ifvqerg","pricing_plan_id":"free"},{"bike_id":"b2e6fc0e-6e0d-4590-894d-b0245bf15272","system_id":"levelo_inurba_marseille","lat":43.282754,"lon":5.350519,"is_reserved":false,"is_disabled":false,"rental_uris":{"android":"levelo://app?vid=b2e6fc0e-6e0d-4590-894d-b0245bf15272","ios":"levelo://app?vid=b2e6fc0e-6e0d-4590-894d-b0245bf15272"},"vehicle_type_id":"4","last_reported":1700895977,"current_range_meters":30000,"station_id":"ce4bhbp2rcd13ifvqerg","pricing_plan_id":"free"},{"bike_id":"a0513cbe-1f28-425f-aec2-068e863b5b76","system_id":"levelo_inurba_marseille","lat":43.282693,"lon":5.350748,"is_reserved":false,"is_disabled":false,"rental_uris":{"android":"levelo://app?vid=a0513cbe-1f28-425f-aec2-068e863b5b76","ios":"levelo://app?vid=a0513cbe-1f28-425f-aec2-068e863b5b76"},"vehicle_type_id":"4","last_reported":1700895977,"current_range_meters":25600,"station_id":"ce4bhbp2rcd13ifvqerg","pricing_plan_id":"free"},{"bike_id":"fe237562-43c7-4803-90d9-fc332cff1f9d","system_id":"levelo_inurba_marseille","lat":43.28039,"lon":5.369297,"is_reserved":false,"is_disabled":false,"rental_uris":{"android":"levelo://app?vid=fe237562-43c7-4803-90d9-fc332cff1f9d","ios":"levelo://app?vid=fe237562-43c7-4803-90d9-fc332cff1f9d"},"vehicle_type_id":"4","last_reported":1700895977,"current_range_meters":12400,"station_id":"ce4bha12rcd13ifvqef0","pricing_plan_id":"free"},{"bike_id":"92af5a52-3ab4-44de-aff9-defbc1fddbe3","system_id":"levelo_inurba_marseille","lat":43.28039,"lon":5.369297,"is_reserved":false,"is_disabled":false,"rental_uris":{"android":"levelo://app?vid=92af5a52-3ab4-44de-aff9-defbc1fddbe3","ios":"levelo://app?vid=92af5a52-3ab4-44de-aff9-defbc1fddbe3"},"vehicle_type_id":"4","last_reported":1700895977,"current_range_meters":13600,"station_id":"ce4bha12rcd13ifvqef0","pricing_plan_id":"free"},{"bike_id":"09a88198-c1d5-46a8-9a74-3393cd531e27","system_id":"levelo_inurba_marseille","lat":43.28039,"lon":5.369297,"is_reserved":false,"is_disabled":false,"rental_uris":{"android":"levelo://app?vid=09a88198-c1d5-46a8-9a74-3393cd531e27","ios":"levelo://app?vid=09a88198-c1d5-46a8-9a74-3393cd531e27"},"vehicle_type_id":"4","last_reported":1700895977,"current_range_meters":31200,"station_id":"ce4bha12rcd13ifvqef0","pricing_plan_id":"free"},{"bike_id":"21da89cd-1ac5-42bf-9d61-bfef4533405a","system_id":"levelo_inurba_marseille","lat":43.29052,"lon":5.399607,"is_reserved":false,"is_disabled":false,"rental_uris":{"android":"levelo://app?vid=21da89cd-1ac5-42bf-9d61-bfef4533405a","ios":"levelo://app?vid=21da89cd-1ac5-42bf-9d61-bfef4533405a"},"vehicle_type_id":"4","last_reported":1700895977,"current_range_meters":30000,"station_id":"ce4bh392rcd13ifvqdm0","pricing_plan_id":"free"},{"bike_id":"0d35adbe-2043-439c-b86e-7f690da7ae15","system_id":"levelo_inurba_marseille","lat":43.2904,"lon":5.39963,"is_reserved":false,"is_disabled":false,"rental_uris":{"android":"levelo://app?vid=0d35adbe-2043-439c-b86e-7f690da7ae15","ios":"levelo://app?vid=0d35adbe-2043-439c-b86e-7f690da7ae15"},"vehicle_type_id":"4","last_reported":1700895977,"current_range_meters":29200,"station_id":"ce4bh392rcd13ifvqdm0","pricing_plan_id":"free"},{"bike_id":"5ef4e5a7-bc4c-481f-9a95-06d795dc8cc3","system_id":"levelo_inurba_marseille","lat":43.290404,"lon":5.399651,"is_reserved":false,"is_disabled":false,"rental_uris":{"android":"levelo://app?vid=5ef4e5a7-bc4c-481f-9a95-06d795dc8cc3","ios":"levelo://app?vid=5ef4e5a7-bc4c-481f-9a95-06d795dc8cc3"},"vehicle_type_id":"4","last_reported":1700895977,"current_range_meters":5600,"station_id":"ce4bh392rcd13ifvqdm0","pricing_plan_id":"free"},{"bike_id":"74284440-1425-47d5-934b-84af2e9d55bb","system_id":"levelo_inurba_marseille","lat":43.29037,"lon":5.399694,"is_reserved":false,"is_disabled":false,"rental_uris":{"android":"levelo://app?vid=74284440-1425-47d5-934b-84af2e9d55bb","ios":"levelo://app?vid=74284440-1425-47d5-934b-84af2e9d55bb"},"vehicle_type_id":"4","last_reported":1700895977,"current_range_meters":30800,"station_id":"ce4bh392rcd13ifvqdm0","pricing_plan_id":"free"},{"bike_id":"2f809794-3b9b-493d-ab6a-656b3b99a86f","system_id":"levelo_inurba_marseille","lat":43.29033,"lon":5.3997,"is_reserved":false,"is_disabled":false,"rental_uris":{"android":"levelo://app?vid=2f809794-3b9b-493d-ab6a-656b3b99a86f","ios":"levelo://app?vid=2f809794-3b9b-493d-ab6a-656b3b99a86f"},"vehicle_type_id":"4","last_reported":1700895977,"current_range_meters":17600,"station_id":"ce4bh392rcd13ifvqdm0","pricing_plan_id":"free"},{"bike_id":"1ffceedc-796d-43e9-ba0e-2a29448ac059","system_id":"levelo_inurba_marseille","lat":43.290401,"lon":5.399825,"is_reserved":false,"is_disabled":false,"rental_uris":{"android":"levelo://app?vid=1ffceedc-796d-43e9-ba0e-2a29448ac059","ios":"levelo://app?vid=1ffceedc-796d-43e9-ba0e-2a29448ac059"},"vehicle_type_id":"4","last_reported":1700895977,"current_range_meters":0,"station_id":"ce4bh392rcd13ifvqdm0","pricing_plan_id":"free"},{"bike_id":"b034cdb6-09c5-4202-9433-1c1beb7f0486","system_id":"levelo_inurba_marseille","lat":43.290311,"lon":5.399893,"is_reserved":false,"is_disabled":false,"rental_uris":{"android":"levelo://app?vid=b034cdb6-09c5-4202-9433-1c1beb7f0486","ios":"levelo://app?vid=b034cdb6-09c5-4202-9433-1c1beb7f0486"},"vehicle_type_id":"4","last_reported":1700895977,"current_range_meters":30400,"station_id":"ce4bh392rcd13ifvqdm0","pricing_plan_id":"free"},{"bike_id":"31f5282b-8934-4340-aca5-eaa938efb58e","system_id":"levelo_inurba_marseille","lat":43.284462,"lon":5.392121,"is_reserved":false,"is_disabled":false,"rental_uris":{"android":"levelo://app?vid=31f5282b-8934-4340-aca5-eaa938efb58e","ios":"levelo://app?vid=31f5282b-8934-4340-aca5-eaa938efb58e"},"vehicle_type_id":"4","last_reported":1700895977,"current_range_meters":30000,"station_id":"ce4bhoh2rcd13ifvqh5g","pricing_plan_id":"free"},{"bike_id":"fd114853-7457-45d8-9582-8acd9b09cf99","system_id":"levelo_inurba_marseille","lat":43.326605,"lon":5.409903,"is_reserved":false,"is_disabled":false,"rental_uris":{"android":"levelo://app?vid=fd114853-7457-45d8-9582-8acd9b09cf99","ios":"levelo://app?vid=fd114853-7457-45d8-9582-8acd9b09cf99"},"vehicle_type_id":"4","last_reported":1700895977,"current_range_meters":16800,"station_id":"ce4bhpp2rcd13ifvqhgg","pricing_plan_id":"free"},{"bike_id":"ec6d5c9f-4941-48f3-94d6-3679e8f24620","system_id":"levelo_inurba_marseille","lat":43.326605,"lon":5.409903,"is_reserved":false,"is_disabled":false,"rental_uris":{"android":"levelo://app?vid=ec6d5c9f-4941-48f3-94d6-3679e8f24620","ios":"levelo://app?vid=ec6d5c9f-4941-48f3-94d6-3679e8f24620"},"vehicle_type_id":"4","last_reported":1700895977,"current_range_meters":29600,"station_id":"ce4bhpp2rcd13ifvqhgg","pricing_plan_id":"free"},{"bike_id":"27937e94-ddb2-47f8-a077-4be732443cc4","system_id":"levelo_inurba_marseille","lat":43.287154,"lon":5.399979,"is_reserved":false,"is_disabled":false,"rental_uris":{"android":"levelo://app?vid=27937e94-ddb2-47f8-a077-4be732443cc4","ios":"levelo://app?vid=27937e94-ddb2-47f8-a077-4be732443cc4"},"vehicle_type_id":"4","last_reported":1700895977,"current_range_meters":31200,"station_id":"ce4bho92rcd13ifvqh3g","pricing_plan_id":"free"},{"bike_id":"495c9886-34e3-479d-a1e0-c47a9c43931c","system_id":"levelo_inurba_marseille","lat":43.287154,"lon":5.399979,"is_reserved":false,"is_disabled":false,"rental_uris":{"android":"levelo://app?vid=495c9886-34e3-479d-a1e0-c47a9c43931c","ios":"levelo://app?vid=495c9886-34e3-479d-a1e0-c47a9c43931c"},"vehicle_type_id":"4","last_reported":1700895977,"current_range_meters":27600,"station_id":"ce4bho92rcd13ifvqh3g","pricing_plan_id":"free"},{"bike_id":"8becd227-da02-4e05-b541-acd5ddfe0e96","system_id":"levelo_inurba_marseille","lat":43.28716,"lon":5.39997,"is_reserved":false,"is_disabled":false,"rental_uris":{"android":"levelo://app?vid=8becd227-da02-4e05-b541-acd5ddfe0e96","ios":"levelo://app?vid=8becd227-da02-4e05-b541-acd5ddfe0e96"},"vehicle_type_id":"4","last_reported":1700895977,"current_range_meters":29200,"station_id":"ce4bho92rcd13ifvqh3g","pricing_plan_id":"free"},{"bike_id":"52d13491-0fdc-44a3-bba7-f5b1e0554755","system_id":"levelo_inurba_marseille","lat":43.28708,"lon":5.39987,"is_reserved":false,"is_disabled":false,"rental_uris":{"android":"levelo://app?vid=52d13491-0fdc-44a3-bba7-f5b1e0554755","ios":"levelo://app?vid=52d13491-0fdc-44a3-bba7-f5b1e0554755"},"vehicle_type_id":"4","last_reported":1700895977,"current_range_meters":28000,"station_id":"ce4bho92rcd13ifvqh3g","pricing_plan_id":"free"},{"bike_id":"27acdbf5-43bc-44ce-8eba-b63c97170fea","system_id":"levelo_inurba_marseille","lat":43.287154,"lon":5.399979,"is_reserved":false,"is_disabled":false,"rental_uris":{"android":"levelo://app?vid=27acdbf5-43bc-44ce-8eba-b63c97170fea","ios":"levelo://app?vid=27acdbf5-43bc-44ce-8eba-b63c97170fea"},"vehicle_type_id":"4","last_reported":1700895977,"current_range_meters":30000,"station_id":"ce4bho92rcd13ifvqh3g","pricing_plan_id":"free"},{"bike_id":"d1b5c516-b496-412b-b6ec-6fb07b03d1a9","system_id":"levelo_inurba_marseille","lat":43.287154,"lon":5.399979,"is_reserved":false,"is_disabled":false,"rental_uris":{"android":"levelo://app?vid=d1b5c516-b496-412b-b6ec-6fb07b03d1a9","ios":"levelo://app?vid=d1b5c516-b496-412b-b6ec-6fb07b03d1a9"},"vehicle_type_id":"4","last_reported":1700895977,"current_range_meters":27600,"station_id":"ce4bho92rcd13ifvqh3g","pricing_plan_id":"free"},{"bike_id":"a93e0362-81bc-4f4c-bc54-baee07d92e71","system_id":"levelo_inurba_marseille","lat":43.287154,"lon":5.399979,"is_reserved":false,"is_disabled":false,"rental_uris":{"android":"levelo://app?vid=a93e0362-81bc-4f4c-bc54-baee07d92e71","ios":"levelo://app?vid=a93e0362-81bc-4f4c-bc54-baee07d92e71"},"vehicle_type_id":"4","last_reported":1700895977,"current_range_meters":31200,"station_id":"ce4bho92rcd13ifvqh3g","pricing_plan_id":"free"},{"bike_id":"23a8d197-1f7a-4300-b5bc-b1efa668f5f9","system_id":"levelo_inurba_marseille","lat":43.287,"lon":5.39985,"is_reserved":false,"is_disabled":false,"rental_uris":{"android":"levelo://app?vid=23a8d197-1f7a-4300-b5bc-b1efa668f5f9","ios":"levelo://app?vid=23a8d197-1f7a-4300-b5bc-b1efa668f5f9"},"vehicle_type_id":"4","last_reported":1700895977,"current_range_meters":19200,"station_id":"ce4bho92rcd13ifvqh3g","pricing_plan_id":"free"},{"bike_id":"7b27d318-4922-48d2-b3a7-1bd7797ba89b","system_id":"levelo_inurba_marseille","lat":43.287056,"lon":5.399937,"is_reserved":false,"is_disabled":false,"rental_uris":{"android":"levelo://app?vid=7b27d318-4922-48d2-b3a7-1bd7797ba89b","ios":"levelo://app?vid=7b27d318-4922-48d2-b3a7-1bd7797ba89b"},"vehicle_type_id":"4","last_reported":1700895977,"current_range_meters":13600,"station_id":"ce4bho92rcd13ifvqh3g","pricing_plan_id":"free"},{"bike_id":"587d04dd-8a8b-4f47-a2e7-ee757e75b38a","system_id":"levelo_inurba_marseille","lat":43.28703,"lon":5.39995,"is_reserved":false,"is_disabled":false,"rental_uris":{"android":"levelo://app?vid=587d04dd-8a8b-4f47-a2e7-ee757e75b38a","ios":"levelo://app?vid=587d04dd-8a8b-4f47-a2e7-ee757e75b38a"},"vehicle_type_id":"4","last_reported":1700895977,"current_range_meters":28800,"station_id":"ce4bho92rcd13ifvqh3g","pricing_plan_id":"free"},{"bike_id":"9dcf3490-4150-49c9-b594-b85a6311d749","system_id":"levelo_inurba_marseille","lat":43.292571,"lon":5.409107,"is_reserved":false,"is_disabled":false,"rental_uris":{"android":"levelo://app?vid=9dcf3490-4150-49c9-b594-b85a6311d749","ios":"levelo://app?vid=9dcf3490-4150-49c9-b594-b85a6311d749"},"vehicle_type_id":"4","last_reported":1700895977,"current_range_meters":31200,"station_id":"ce4bh192rcd13ifvqdc0","pricing_plan_id":"free"},{"bike_id":"0a7d255e-499b-4057-821b-08d215075f2e","system_id":"levelo_inurba_marseille","lat":43.292571,"lon":5.409107,"is_reserved":false,"is_disabled":false,"rental_uris":{"android":"levelo://app?vid=0a7d255e-499b-4057-821b-08d215075f2e","ios":"levelo://app?vid=0a7d255e-499b-4057-821b-08d215075f2e"},"vehicle_type_id":"4","last_reported":1700895977,"current_range_meters":31200,"station_id":"ce4bh192rcd13ifvqdc0","pricing_plan_id":"free"},{"bike_id":"22d347e4-9673-489d-af28-13b064fc6114","system_id":"levelo_inurba_marseille","lat":43.292571,"lon":5.409107,"is_reserved":false,"is_disabled":false,"rental_uris":{"android":"levelo://app?vid=22d347e4-9673-489d-af28-13b064fc6114","ios":"levelo://app?vid=22d347e4-9673-489d-af28-13b064fc6114"},"vehicle_type_id":"4","last_reported":1700895977,"current_range_meters":29200,"station_id":"ce4bh192rcd13ifvqdc0","pricing_plan_id":"free"},{"bike_id":"026f72c0-eba9-4313-b651-a426147b19e5","system_id":"levelo_inurba_marseille","lat":43.29254,"lon":5.40907,"is_reserved":false,"is_disabled":false,"rental_uris":{"android":"levelo://app?vid=026f72c0-eba9-4313-b651-a426147b19e5","ios":"levelo://app?vid=026f72c0-eba9-4313-b651-a426147b19e5"},"vehicle_type_id":"4","last_reported":1700895977,"current_range_meters":16800,"station_id":"ce4bh192rcd13ifvqdc0","pricing_plan_id":"free"},{"bike_id":"773e27eb-4857-43dd-a4f5-28f78c183ea7","system_id":"levelo_inurba_marseille","lat":43.292571,"lon":5.409107,"is_reserved":false,"is_disabled":false,"rental_uris":{"android":"levelo://app?vid=773e27eb-4857-43dd-a4f5-28f78c183ea7","ios":"levelo://app?vid=773e27eb-4857-43dd-a4f5-28f78c183ea7"},"vehicle_type_id":"4","last_reported":1700895977,"current_range_meters":9200,"station_id":"ce4bh192rcd13ifvqdc0","pricing_plan_id":"free"},{"bike_id":"c25ea147-e804-4786-9d25-91f61a8ed59a","system_id":"levelo_inurba_marseille","lat":43.293645,"lon":5.412661,"is_reserved":false,"is_disabled":false,"rental_uris":{"android":"levelo://app?vid=c25ea147-e804-4786-9d25-91f61a8ed59a","ios":"levelo://app?vid=c25ea147-e804-4786-9d25-91f61a8ed59a"},"vehicle_type_id":"4","last_reported":1700895977,"current_range_meters":0,"station_id":"","pricing_plan_id":"free"},{"bike_id":"663ec4c0-bf73-4c92-8eff-1ec02a452b29","system_id":"levelo_inurba_marseille","lat":43.303551,"lon":5.418758,"is_reserved":false,"is_disabled":false,"rental_uris":{"android":"levelo://app?vid=663ec4c0-bf73-4c92-8eff-1ec02a452b29","ios":"levelo://app?vid=663ec4c0-bf73-4c92-8eff-1ec02a452b29"},"vehicle_type_id":"4","last_reported":1700895977,"current_range_meters":16800,"station_id":"ce4bhop2rcd13ifvqh7g","pricing_plan_id":"free"},{"bike_id":"5bb71231-1a7b-4352-8859-532293f1ca3d","system_id":"levelo_inurba_marseille","lat":43.278353,"lon":5.392177,"is_reserved":false,"is_disabled":false,"rental_uris":{"android":"levelo://app?vid=5bb71231-1a7b-4352-8859-532293f1ca3d","ios":"levelo://app?vid=5bb71231-1a7b-4352-8859-532293f1ca3d"},"vehicle_type_id":"4","last_reported":1700895977,"current_range_meters":3600,"station_id":"ce4bhjp2rcd13ifvqga0","pricing_plan_id":"free"},{"bike_id":"8b72bbb9-5344-4aa6-a7cc-625348672808","system_id":"levelo_inurba_marseille","lat":43.33601,"lon":5.41017,"is_reserved":false,"is_disabled":false,"rental_uris":{"android":"levelo://app?vid=8b72bbb9-5344-4aa6-a7cc-625348672808","ios":"levelo://app?vid=8b72bbb9-5344-4aa6-a7cc-625348672808"},"vehicle_type_id":"4","last_reported":1700895977,"current_range_meters":18800,"station_id":"ce4bhqh2rcd13ifvqhmg","pricing_plan_id":"free"},{"bike_id":"94ff7c8e-dd60-4d69-8a49-bcaf1c99a55d","system_id":"levelo_inurba_marseille","lat":43.33602,"lon":5.41019,"is_reserved":false,"is_disabled":false,"rental_uris":{"android":"levelo://app?vid=94ff7c8e-dd60-4d69-8a49-bcaf1c99a55d","ios":"levelo://app?vid=94ff7c8e-dd60-4d69-8a49-bcaf1c99a55d"},"vehicle_type_id":"4","last_reported":1700895977,"current_range_meters":31200,"station_id":"ce4bhqh2rcd13ifvqhmg","pricing_plan_id":"free"},{"bike_id":"afbe1c8e-59e6-444c-a06d-40b4c873ce79","system_id":"levelo_inurba_marseille","lat":43.33612,"lon":5.410321,"is_reserved":false,"is_disabled":false,"rental_uris":{"android":"levelo://app?vid=afbe1c8e-59e6-444c-a06d-40b4c873ce79","ios":"levelo://app?vid=afbe1c8e-59e6-444c-a06d-40b4c873ce79"},"vehicle_type_id":"4","last_reported":1700895977,"current_range_meters":28000,"station_id":"ce4bhqh2rcd13ifvqhmg","pricing_plan_id":"free"},{"bike_id":"a7e93d14-e94b-4c46-8fed-114a943442ad","system_id":"levelo_inurba_marseille","lat":43.336134,"lon":5.410341,"is_reserved":false,"is_disabled":false,"rental_uris":{"android":"levelo://app?vid=a7e93d14-e94b-4c46-8fed-114a943442ad","ios":"levelo://app?vid=a7e93d14-e94b-4c46-8fed-114a943442ad"},"vehicle_type_id":"4","last_reported":1700895977,"current_range_meters":28000,"station_id":"ce4bhqh2rcd13ifvqhmg","pricing_plan_id":"free"},{"bike_id":"2aba52bf-9cdb-4dd3-a1ea-4c8b2bed0e7d","system_id":"levelo_inurba_marseille","lat":43.279952,"lon":5.400085,"is_reserved":false,"is_disabled":false,"rental_uris":{"android":"levelo://app?vid=2aba52bf-9cdb-4dd3-a1ea-4c8b2bed0e7d","ios":"levelo://app?vid=2aba52bf-9cdb-4dd3-a1ea-4c8b2bed0e7d"},"vehicle_type_id":"4","last_reported":1700895977,"current_range_meters":8400,"station_id":"ce4bho92rcd13ifvqh4g","pricing_plan_id":"free"},{"bike_id":"561d56c0-616a-4955-bd15-b0e0ddd3d6ba","system_id":"levelo_inurba_marseille","lat":43.279952,"lon":5.400085,"is_reserved":false,"is_disabled":false,"rental_uris":{"android":"levelo://app?vid=561d56c0-616a-4955-bd15-b0e0ddd3d6ba","ios":"levelo://app?vid=561d56c0-616a-4955-bd15-b0e0ddd3d6ba"},"vehicle_type_id":"4","last_reported":1700895977,"current_range_meters":30800,"station_id":"ce4bho92rcd13ifvqh4g","pricing_plan_id":"free"},{"bike_id":"3b5836a7-12bc-4eeb-81a3-25b20505d9af","system_id":"levelo_inurba_marseille","lat":43.317213,"lon":5.423977,"is_reserved":false,"is_disabled":false,"rental_uris":{"android":"levelo://app?vid=3b5836a7-12bc-4eeb-81a3-25b20505d9af","ios":"levelo://app?vid=3b5836a7-12bc-4eeb-81a3-25b20505d9af"},"vehicle_type_id":"4","last_reported":1700895977,"current_range_meters":29200,"station_id":"ce4bhp92rcd13ifvqhbg","pricing_plan_id":"free"},{"bike_id":"fa915871-633d-4be7-98af-649f7fd9a7d7","system_id":"levelo_inurba_marseille","lat":43.340804,"lon":5.410219,"is_reserved":false,"is_disabled":false,"rental_uris":{"android":"levelo://app?vid=fa915871-633d-4be7-98af-649f7fd9a7d7","ios":"levelo://app?vid=fa915871-633d-4be7-98af-649f7fd9a7d7"},"vehicle_type_id":"4","last_reported":1700895977,"current_range_meters":30000,"station_id":"ce4bhqh2rcd13ifvqhlg","pricing_plan_id":"free"},{"bike_id":"885300ec-4383-4457-acea-1842d1413497","system_id":"levelo_inurba_marseille","lat":43.27414,"lon":5.39399,"is_reserved":false,"is_disabled":false,"rental_uris":{"android":"levelo://app?vid=885300ec-4383-4457-acea-1842d1413497","ios":"levelo://app?vid=885300ec-4383-4457-acea-1842d1413497"},"vehicle_type_id":"4","last_reported":1700895977,"current_range_meters":27200,"station_id":"ce4bhdp2rcd13ifvqf20","pricing_plan_id":"free"},{"bike_id":"d617807c-32fa-4a81-8852-d232b7257f2e","system_id":"levelo_inurba_marseille","lat":43.304096,"lon":5.425385,"is_reserved":false,"is_disabled":false,"rental_uris":{"android":"levelo://app?vid=d617807c-32fa-4a81-8852-d232b7257f2e","ios":"levelo://app?vid=d617807c-32fa-4a81-8852-d232b7257f2e"},"vehicle_type_id":"4","last_reported":1700895977,"current_range_meters":26800,"station_id":"ce4bhoh2rcd13ifvqh6g","pricing_plan_id":"free"},{"bike_id":"39ba2a28-4e45-47ae-b54e-2e865e84aa2a","system_id":"levelo_inurba_marseille","lat":43.295523,"lon":5.422926,"is_reserved":false,"is_disabled":false,"rental_uris":{"android":"levelo://app?vid=39ba2a28-4e45-47ae-b54e-2e865e84aa2a","ios":"levelo://app?vid=39ba2a28-4e45-47ae-b54e-2e865e84aa2a"},"vehicle_type_id":"4","last_reported":1700895977,"current_range_meters":27200,"station_id":"ce4bhph2rcd13ifvqhdg","pricing_plan_id":"free"},{"bike_id":"118822d8-6e1e-4e74-a488-66c0b9bac4ea","system_id":"levelo_inurba_marseille","lat":43.295511,"lon":5.422926,"is_reserved":false,"is_disabled":false,"rental_uris":{"android":"levelo://app?vid=118822d8-6e1e-4e74-a488-66c0b9bac4ea","ios":"levelo://app?vid=118822d8-6e1e-4e74-a488-66c0b9bac4ea"},"vehicle_type_id":"4","last_reported":1700895977,"current_range_meters":20800,"station_id":"ce4bhph2rcd13ifvqhdg","pricing_plan_id":"free"},{"bike_id":"c0e7c921-2f34-4325-9644-1440c95e11ac","system_id":"levelo_inurba_marseille","lat":43.295523,"lon":5.422926,"is_reserved":false,"is_disabled":false,"rental_uris":{"android":"levelo://app?vid=c0e7c921-2f34-4325-9644-1440c95e11ac","ios":"levelo://app?vid=c0e7c921-2f34-4325-9644-1440c95e11ac"},"vehicle_type_id":"4","last_reported":1700895977,"current_range_meters":27200,"station_id":"ce4bhph2rcd13ifvqhdg","pricing_plan_id":"free"},{"bike_id":"36c661af-b1d4-4283-adeb-a6b360ed03cd","system_id":"levelo_inurba_marseille","lat":43.295511,"lon":5.422926,"is_reserved":false,"is_disabled":false,"rental_uris":{"android":"levelo://app?vid=36c661af-b1d4-4283-adeb-a6b360ed03cd","ios":"levelo://app?vid=36c661af-b1d4-4283-adeb-a6b360ed03cd"},"vehicle_type_id":"4","last_reported":1700895977,"current_range_meters":12800,"station_id":"ce4bhph2rcd13ifvqhdg","pricing_plan_id":"free"},{"bike_id":"9f3ea0ae-761e-43b1-ad64-979f3efc0236","system_id":"levelo_inurba_marseille","lat":43.295511,"lon":5.422926,"is_reserved":false,"is_disabled":false,"rental_uris":{"android":"levelo://app?vid=9f3ea0ae-761e-43b1-ad64-979f3efc0236","ios":"levelo://app?vid=9f3ea0ae-761e-43b1-ad64-979f3efc0236"},"vehicle_type_id":"4","last_reported":1700895977,"current_range_meters":22800,"station_id":"ce4bhph2rcd13ifvqhdg","pricing_plan_id":"free"},{"bike_id":"58636f9d-7758-4e31-a17e-c4e04578fa5d","system_id":"levelo_inurba_marseille","lat":43.295523,"lon":5.422926,"is_reserved":false,"is_disabled":false,"rental_uris":{"android":"levelo://app?vid=58636f9d-7758-4e31-a17e-c4e04578fa5d","ios":"levelo://app?vid=58636f9d-7758-4e31-a17e-c4e04578fa5d"},"vehicle_type_id":"4","last_reported":1700895977,"current_range_meters":19200,"station_id":"ce4bhph2rcd13ifvqhdg","pricing_plan_id":"free"},{"bike_id":"6d892d9f-8bb7-466b-91e4-6b4cd5e06b20","system_id":"levelo_inurba_marseille","lat":43.295511,"lon":5.422926,"is_reserved":false,"is_disabled":false,"rental_uris":{"android":"levelo://app?vid=6d892d9f-8bb7-466b-91e4-6b4cd5e06b20","ios":"levelo://app?vid=6d892d9f-8bb7-466b-91e4-6b4cd5e06b20"},"vehicle_type_id":"4","last_reported":1700895977,"current_range_meters":25600,"station_id":"ce4bhph2rcd13ifvqhdg","pricing_plan_id":"free"},{"bike_id":"ec3d03da-78c9-4642-80f1-267154a38bb0","system_id":"levelo_inurba_marseille","lat":43.295511,"lon":5.422926,"is_reserved":false,"is_disabled":false,"rental_uris":{"android":"levelo://app?vid=ec3d03da-78c9-4642-80f1-267154a38bb0","ios":"levelo://app?vid=ec3d03da-78c9-4642-80f1-267154a38bb0"},"vehicle_type_id":"4","last_reported":1700895977,"current_range_meters":31200,"station_id":"ce4bhph2rcd13ifvqhdg","pricing_plan_id":"free"},{"bike_id":"9830637b-caf5-476f-85b7-c02033487ff2","system_id":"levelo_inurba_marseille","lat":43.295511,"lon":5.422926,"is_reserved":false,"is_disabled":false,"rental_uris":{"android":"levelo://app?vid=9830637b-caf5-476f-85b7-c02033487ff2","ios":"levelo://app?vid=9830637b-caf5-476f-85b7-c02033487ff2"},"vehicle_type_id":"4","last_reported":1700895977,"current_range_meters":31200,"station_id":"ce4bhph2rcd13ifvqhdg","pricing_plan_id":"free"},{"bike_id":"60384595-5838-46d3-8ef9-ce34760ba3f9","system_id":"levelo_inurba_marseille","lat":43.295511,"lon":5.422926,"is_reserved":false,"is_disabled":false,"rental_uris":{"android":"levelo://app?vid=60384595-5838-46d3-8ef9-ce34760ba3f9","ios":"levelo://app?vid=60384595-5838-46d3-8ef9-ce34760ba3f9"},"vehicle_type_id":"4","last_reported":1700895977,"current_range_meters":31200,"station_id":"ce4bhph2rcd13ifvqhdg","pricing_plan_id":"free"},{"bike_id":"8df10757-dbf8-4857-a499-21bb025546dc","system_id":"levelo_inurba_marseille","lat":43.272118,"lon":5.391758,"is_reserved":false,"is_disabled":false,"rental_uris":{"android":"levelo://app?vid=8df10757-dbf8-4857-a499-21bb025546dc","ios":"levelo://app?vid=8df10757-dbf8-4857-a499-21bb025546dc"},"vehicle_type_id":"4","last_reported":1700895977,"current_range_meters":21200,"station_id":"ce4bhhp2rcd13ifvqfm0","pricing_plan_id":"free"},{"bike_id":"28e8ce00-6b21-4e06-9930-c7c4408cc650","system_id":"levelo_inurba_marseille","lat":43.278164,"lon":5.407143,"is_reserved":false,"is_disabled":false,"rental_uris":{"android":"levelo://app?vid=28e8ce00-6b21-4e06-9930-c7c4408cc650","ios":"levelo://app?vid=28e8ce00-6b21-4e06-9930-c7c4408cc650"},"vehicle_type_id":"4","last_reported":1700895977,"current_range_meters":0,"station_id":"","pricing_plan_id":"free"},{"bike_id":"1c16c37c-3e14-4d20-88f9-f1b9b8d51963","system_id":"levelo_inurba_marseille","lat":43.269467,"lon":5.386439,"is_reserved":false,"is_disabled":false,"rental_uris":{"android":"levelo://app?vid=1c16c37c-3e14-4d20-88f9-f1b9b8d51963","ios":"levelo://app?vid=1c16c37c-3e14-4d20-88f9-f1b9b8d51963"},"vehicle_type_id":"4","last_reported":1700895977,"current_range_meters":28000,"station_id":"ce4bhh92rcd13ifvqfh0","pricing_plan_id":"free"},{"bike_id":"24ccef75-d2c6-4ffe-92c2-279a19e4ba7e","system_id":"levelo_inurba_marseille","lat":43.279516,"lon":5.410499,"is_reserved":false,"is_disabled":false,"rental_uris":{"android":"levelo://app?vid=24ccef75-d2c6-4ffe-92c2-279a19e4ba7e","ios":"levelo://app?vid=24ccef75-d2c6-4ffe-92c2-279a19e4ba7e"},"vehicle_type_id":"4","last_reported":1700895977,"current_range_meters":31600,"station_id":"ce4bhnp2rcd13ifvqh0g","pricing_plan_id":"free"},{"bike_id":"5faa1283-c606-45c1-a856-fb51506bdf8d","system_id":"levelo_inurba_marseille","lat":43.2656,"lon":5.37282,"is_reserved":false,"is_disabled":false,"rental_uris":{"android":"levelo://app?vid=5faa1283-c606-45c1-a856-fb51506bdf8d","ios":"levelo://app?vid=5faa1283-c606-45c1-a856-fb51506bdf8d"},"vehicle_type_id":"4","last_reported":1700895977,"current_range_meters":24000,"station_id":"ce4bhg12rcd13ifvqf70","pricing_plan_id":"free"},{"bike_id":"694a66da-7c22-42d6-992f-345a598776f8","system_id":"levelo_inurba_marseille","lat":43.26681,"lon":5.382694,"is_reserved":false,"is_disabled":false,"rental_uris":{"android":"levelo://app?vid=694a66da-7c22-42d6-992f-345a598776f8","ios":"levelo://app?vid=694a66da-7c22-42d6-992f-345a598776f8"},"vehicle_type_id":"4","last_reported":1700895977,"current_range_meters":22000,"station_id":"ce4bhg92rcd13ifvqf90","pricing_plan_id":"free"},{"bike_id":"2c7a5353-01d9-4c2c-bf58-3b3aa380c2f9","system_id":"levelo_inurba_marseille","lat":43.26549,"lon":5.37285,"is_reserved":false,"is_disabled":false,"rental_uris":{"android":"levelo://app?vid=2c7a5353-01d9-4c2c-bf58-3b3aa380c2f9","ios":"levelo://app?vid=2c7a5353-01d9-4c2c-bf58-3b3aa380c2f9"},"vehicle_type_id":"4","last_reported":1700895977,"current_range_meters":17600,"station_id":"ce4bhg12rcd13ifvqf70","pricing_plan_id":"free"},{"bike_id":"f23d8119-b478-4639-98c5-6883279f9f84","system_id":"levelo_inurba_marseille","lat":43.32592,"lon":5.43067,"is_reserved":false,"is_disabled":false,"rental_uris":{"android":"levelo://app?vid=f23d8119-b478-4639-98c5-6883279f9f84","ios":"levelo://app?vid=f23d8119-b478-4639-98c5-6883279f9f84"},"vehicle_type_id":"4","last_reported":1700895977,"current_range_meters":27600,"station_id":"","pricing_plan_id":"free"},{"bike_id":"e7b368e8-9edf-4ac8-acef-7e9558d427aa","system_id":"levelo_inurba_marseille","lat":43.32591,"lon":5.430713,"is_reserved":false,"is_disabled":false,"rental_uris":{"android":"levelo://app?vid=e7b368e8-9edf-4ac8-acef-7e9558d427aa","ios":"levelo://app?vid=e7b368e8-9edf-4ac8-acef-7e9558d427aa"},"vehicle_type_id":"4","last_reported":1700895977,"current_range_meters":0,"station_id":"","pricing_plan_id":"free"},{"bike_id":"ed30d6a1-b23a-49e5-9c83-5546be72a734","system_id":"levelo_inurba_marseille","lat":43.3259,"lon":5.43075,"is_reserved":false,"is_disabled":false,"rental_uris":{"android":"levelo://app?vid=ed30d6a1-b23a-49e5-9c83-5546be72a734","ios":"levelo://app?vid=ed30d6a1-b23a-49e5-9c83-5546be72a734"},"vehicle_type_id":"4","last_reported":1700895977,"current_range_meters":22400,"station_id":"","pricing_plan_id":"free"},{"bike_id":"d67469ee-5362-4610-a163-fe05ae3cf4f7","system_id":"levelo_inurba_marseille","lat":43.32604,"lon":5.430817,"is_reserved":false,"is_disabled":false,"rental_uris":{"android":"levelo://app?vid=d67469ee-5362-4610-a163-fe05ae3cf4f7","ios":"levelo://app?vid=d67469ee-5362-4610-a163-fe05ae3cf4f7"},"vehicle_type_id":"4","last_reported":1700895977,"current_range_meters":10800,"station_id":"","pricing_plan_id":"free"},{"bike_id":"3738f45f-0f0f-4195-af48-2b999cb83df1","system_id":"levelo_inurba_marseille","lat":43.27996,"lon":5.416624,"is_reserved":false,"is_disabled":false,"rental_uris":{"android":"levelo://app?vid=3738f45f-0f0f-4195-af48-2b999cb83df1","ios":"levelo://app?vid=3738f45f-0f0f-4195-af48-2b999cb83df1"},"vehicle_type_id":"4","last_reported":1700895977,"current_range_meters":28800,"station_id":"ce4bho12rcd13ifvqh1g","pricing_plan_id":"free"},{"bike_id":"2b5f0b27-ae58-4e9e-bd76-c585f78e8a73","system_id":"levelo_inurba_marseille","lat":43.26386,"lon":5.37454,"is_reserved":false,"is_disabled":false,"rental_uris":{"android":"levelo://app?vid=2b5f0b27-ae58-4e9e-bd76-c585f78e8a73","ios":"levelo://app?vid=2b5f0b27-ae58-4e9e-bd76-c585f78e8a73"},"vehicle_type_id":"4","last_reported":1700895977,"current_range_meters":11600,"station_id":"","pricing_plan_id":"free"},{"bike_id":"aac734c2-9e1a-401a-9f21-659f4c007e40","system_id":"levelo_inurba_marseille","lat":43.265569,"lon":5.390047,"is_reserved":false,"is_disabled":false,"rental_uris":{"android":"levelo://app?vid=aac734c2-9e1a-401a-9f21-659f4c007e40","ios":"levelo://app?vid=aac734c2-9e1a-401a-9f21-659f4c007e40"},"vehicle_type_id":"4","last_reported":1700895977,"current_range_meters":30000,"station_id":"ce4bhe12rcd13ifvqf30","pricing_plan_id":"free"},{"bike_id":"acbe10bc-171f-4ba0-b59f-d106d152eb5b","system_id":"levelo_inurba_marseille","lat":43.265569,"lon":5.390047,"is_reserved":false,"is_disabled":false,"rental_uris":{"android":"levelo://app?vid=acbe10bc-171f-4ba0-b59f-d106d152eb5b","ios":"levelo://app?vid=acbe10bc-171f-4ba0-b59f-d106d152eb5b"},"vehicle_type_id":"4","last_reported":1700895977,"current_range_meters":18400,"station_id":"ce4bhe12rcd13ifvqf30","pricing_plan_id":"free"},{"bike_id":"31760e03-00b1-4db1-be63-a88aead1238c","system_id":"levelo_inurba_marseille","lat":43.265654,"lon":5.390116,"is_reserved":false,"is_disabled":false,"rental_uris":{"android":"levelo://app?vid=31760e03-00b1-4db1-be63-a88aead1238c","ios":"levelo://app?vid=31760e03-00b1-4db1-be63-a88aead1238c"},"vehicle_type_id":"4","last_reported":1700895977,"current_range_meters":27600,"station_id":"","pricing_plan_id":"free"},{"bike_id":"fd781e85-cb05-4246-8c92-f25c7b1d9f7d","system_id":"levelo_inurba_marseille","lat":43.26564,"lon":5.39007,"is_reserved":false,"is_disabled":false,"rental_uris":{"android":"levelo://app?vid=fd781e85-cb05-4246-8c92-f25c7b1d9f7d","ios":"levelo://app?vid=fd781e85-cb05-4246-8c92-f25c7b1d9f7d"},"vehicle_type_id":"4","last_reported":1700895977,"current_range_meters":19600,"station_id":"ce4bhe12rcd13ifvqf30","pricing_plan_id":"free"},{"bike_id":"80f89bbe-5ef0-4f11-9f5b-8a1f2ebfd112","system_id":"levelo_inurba_marseille","lat":43.26936,"lon":5.40251,"is_reserved":false,"is_disabled":false,"rental_uris":{"android":"levelo://app?vid=80f89bbe-5ef0-4f11-9f5b-8a1f2ebfd112","ios":"levelo://app?vid=80f89bbe-5ef0-4f11-9f5b-8a1f2ebfd112"},"vehicle_type_id":"4","last_reported":1700895977,"current_range_meters":22000,"station_id":"cjm6bp8fraef2m0cb0m0","pricing_plan_id":"free"},{"bike_id":"9eff6edb-46ad-4cfe-9732-b4fe2ea5c109","system_id":"levelo_inurba_marseille","lat":43.26211,"lon":5.37657,"is_reserved":false,"is_disabled":false,"rental_uris":{"android":"levelo://app?vid=9eff6edb-46ad-4cfe-9732-b4fe2ea5c109","ios":"levelo://app?vid=9eff6edb-46ad-4cfe-9732-b4fe2ea5c109"},"vehicle_type_id":"4","last_reported":1700895977,"current_range_meters":20400,"station_id":"","pricing_plan_id":"free"},{"bike_id":"b016eaec-f2d2-4ee8-8214-1ed08a0b9470","system_id":"levelo_inurba_marseille","lat":43.261782,"lon":5.374515,"is_reserved":false,"is_disabled":false,"rental_uris":{"android":"levelo://app?vid=b016eaec-f2d2-4ee8-8214-1ed08a0b9470","ios":"levelo://app?vid=b016eaec-f2d2-4ee8-8214-1ed08a0b9470"},"vehicle_type_id":"4","last_reported":1700895977,"current_range_meters":30400,"station_id":"ce4bhgp2rcd13ifvqfc0","pricing_plan_id":"free"},{"bike_id":"47c54343-a6f0-4da1-b39b-719d6b2c05fd","system_id":"levelo_inurba_marseille","lat":43.261782,"lon":5.374515,"is_reserved":false,"is_disabled":false,"rental_uris":{"android":"levelo://app?vid=47c54343-a6f0-4da1-b39b-719d6b2c05fd","ios":"levelo://app?vid=47c54343-a6f0-4da1-b39b-719d6b2c05fd"},"vehicle_type_id":"4","last_reported":1700895977,"current_range_meters":28400,"station_id":"ce4bhgp2rcd13ifvqfc0","pricing_plan_id":"free"},{"bike_id":"a420707b-087e-4337-bf80-06ffd41c565f","system_id":"levelo_inurba_marseille","lat":43.261782,"lon":5.374515,"is_reserved":false,"is_disabled":false,"rental_uris":{"android":"levelo://app?vid=a420707b-087e-4337-bf80-06ffd41c565f","ios":"levelo://app?vid=a420707b-087e-4337-bf80-06ffd41c565f"},"vehicle_type_id":"4","last_reported":1700895977,"current_range_meters":25600,"station_id":"ce4bhgp2rcd13ifvqfc0","pricing_plan_id":"free"},{"bike_id":"f809b2bb-3716-4d7b-8de4-7c32b60e559d","system_id":"levelo_inurba_marseille","lat":43.317104,"lon":5.436818,"is_reserved":false,"is_disabled":false,"rental_uris":{"android":"levelo://app?vid=f809b2bb-3716-4d7b-8de4-7c32b60e559d","ios":"levelo://app?vid=f809b2bb-3716-4d7b-8de4-7c32b60e559d"},"vehicle_type_id":"4","last_reported":1700895977,"current_range_meters":18000,"station_id":"ce4bhp92rcd13ifvqhcg","pricing_plan_id":"free"},{"bike_id":"46163101-d36f-4b9d-b2d0-b570d3e9c51c","system_id":"levelo_inurba_marseille","lat":43.317104,"lon":5.436818,"is_reserved":false,"is_disabled":false,"rental_uris":{"android":"levelo://app?vid=46163101-d36f-4b9d-b2d0-b570d3e9c51c","ios":"levelo://app?vid=46163101-d36f-4b9d-b2d0-b570d3e9c51c"},"vehicle_type_id":"4","last_reported":1700895977,"current_range_meters":30800,"station_id":"ce4bhp92rcd13ifvqhcg","pricing_plan_id":"free"},{"bike_id":"1b98b7d3-c287-45d9-80ab-ed0171f3329e","system_id":"levelo_inurba_marseille","lat":43.317104,"lon":5.436818,"is_reserved":false,"is_disabled":false,"rental_uris":{"android":"levelo://app?vid=1b98b7d3-c287-45d9-80ab-ed0171f3329e","ios":"levelo://app?vid=1b98b7d3-c287-45d9-80ab-ed0171f3329e"},"vehicle_type_id":"4","last_reported":1700895977,"current_range_meters":30800,"station_id":"ce4bhp92rcd13ifvqhcg","pricing_plan_id":"free"},{"bike_id":"a6cf9b04-855d-4dc5-9c72-ce4a8e5bbb9c","system_id":"levelo_inurba_marseille","lat":43.317104,"lon":5.436818,"is_reserved":false,"is_disabled":false,"rental_uris":{"android":"levelo://app?vid=a6cf9b04-855d-4dc5-9c72-ce4a8e5bbb9c","ios":"levelo://app?vid=a6cf9b04-855d-4dc5-9c72-ce4a8e5bbb9c"},"vehicle_type_id":"4","last_reported":1700895977,"current_range_meters":26000,"station_id":"ce4bhp92rcd13ifvqhcg","pricing_plan_id":"free"},