{"last_updated":1776932850,"ttl":60,"version":"2.2","data":{"bikes":[{"bike_id":"6ee75b1e-3389-452c-805f-052a7231f6b2","system_id":"levelo_inurba_marseille","lat":43.28843,"lon":5.42497,"is_reserved":false,"is_disabled":false,"rental_uris":{"android":"levelo://app?vid=6ee75b1e-3389-452c-805f-052a7231f6b2","ios":"levelo://app?vid=6ee75b1e-3389-452c-805f-052a7231f6b2"},"vehicle_type_id":"4","last_reported":1776932851,"current_range_meters":3200,"station_id":"st_d3b462108ojc7389ooeg","pricing_plan_id":"cebpf4jnsgd1na2vs0mg"},{"bike_id":"ab441cdc-9cd1-4c8e-b69e-34bb46fece34","system_id":"levelo_inurba_marseille","lat":43.29391,"lon":5.363,"is_reserved":false,"is_disabled":false,"rental_uris":{"android":"levelo://app?vid=ab441cdc-9cd1-4c8e-b69e-34bb46fece34","ios":"levelo://app?vid=ab441cdc-9cd1-4c8e-b69e-34bb46fece34"},"vehicle_type_id":"4","last_reported":1776932851,"current_range_meters":3200,"station_id":"","pricing_plan_id":"cebpf4jnsgd1na2vs0mg"},{"bike_id":"9d6a9104-1de0-4012-b8d9-d46f1b34569b","system_id":"levelo_inurba_marseille","lat":43.23379,"lon":5.41238,"is_reserved":false,"is_disabled":false,"rental_uris":{"android":"levelo://app?vid=9d6a9104-1de0-4012-b8d9-d46f1b34569b","ios":"levelo://app?vid=9d6a9104-1de0-4012-b8d9-d46f1b34569b"},"vehicle_type_id":"4","last_reported":1776932851,"current_range_meters":3200,"station_id":"st_d75pvndhf9lc73cqq3eg","pricing_plan_id":"cebpf4jnsgd1na2vs0mg"},{"bike_id":"66a4d0d7-0365-47b5-a885-40f9375b790d","system_id":"levelo_inurba_marseille","lat":43.29626,"lon":5.37707,"is_reserved":false,"is_disabled":false,"rental_uris":{"android":"levelo://app?vid=66a4d0d7-0365-47b5-a885-40f9375b790d","ios":"levelo://app?vid=66a4d0d7-0365-47b5-a885-40f9375b790d"},"vehicle_type_id":"4","last_reported":1776932851,"current_range_meters":3200,"station_id":"ce4bgi92rcd13ifvqb90","pricing_plan_id":"cebpf4jnsgd1na2vs0mg"},{"bike_id":"35357308-80e6-406e-890b-141ff99f26df","system_id":"levelo_inurba_marseille","lat":43.2872,"lon":5.3793,"is_reserved":false,"is_disabled":false,"rental_uris":{"android":"levelo://app?vid=35357308-80e6-406e-890b-141ff99f26df","ios":"levelo://app?vid=35357308-80e6-406e-890b-141ff99f26df"},"vehicle_type_id":"4","last_reported":1776932851,"current_range_meters":3200,"station_id":"ce4bh9p2rcd13ifvqec0","pricing_plan_id":"cebpf4jnsgd1na2vs0mg"},{"bike_id":"a5932d33-7fe4-4ab5-ab73-558a4a420627","system_id":"levelo_inurba_marseille","lat":43.24433,"lon":5.40052,"is_reserved":false,"is_disabled":false,"rental_uris":{"android":"levelo://app?vid=a5932d33-7fe4-4ab5-ab73-558a4a420627","ios":"levelo://app?vid=a5932d33-7fe4-4ab5-ab73-558a4a420627"},"vehicle_type_id":"4","last_reported":1776932851,"current_range_meters":3200,"station_id":"","pricing_plan_id":"cebpf4jnsgd1na2vs0mg"},{"bike_id":"536fa38a-c1bc-4652-b1fd-ef3ff74def6b","system_id":"levelo_inurba_marseille","lat":43.2886,"lon":5.42528,"is_reserved":false,"is_disabled":false,"rental_uris":{"android":"levelo://app?vid=536fa38a-c1bc-4652-b1fd-ef3ff74def6b","ios":"levelo://app?vid=536fa38a-c1bc-4652-b1fd-ef3ff74def6b"},"vehicle_type_id":"4","last_reported":1776932851,"current_range_meters":3200,"station_id":"st_d3b462108ojc7389ooeg","pricing_plan_id":"cebpf4jnsgd1na2vs0mg"},{"bike_id":"73d436be-8bb5-400c-b5b8-edfd7e8d5913","system_id":"levelo_inurba_marseille","lat":43.337444,"lon":5.374475,"is_reserved":false,"is_disabled":false,"rental_uris":{"android":"levelo://app?vid=73d436be-8bb5-400c-b5b8-edfd7e8d5913","ios":"levelo://app?vid=73d436be-8bb5-400c-b5b8-edfd7e8d5913"},"vehicle_type_id":"4","last_reported":1776932851,"current_range_meters":3600,"station_id":"ce4bhgp2rcd13ifvqfc0","pricing_plan_id":"cebpf4jnsgd1na2vs0mg"},{"bike_id":"04257b95-4499-46e1-a4e3-88ab526291ba","system_id":"levelo_inurba_marseille","lat":43.28487,"lon":5.48411,"is_reserved":false,"is_disabled":false,"rental_uris":{"android":"levelo://app?vid=04257b95-4499-46e1-a4e3-88ab526291ba","ios":"levelo://app?vid=04257b95-4499-46e1-a4e3-88ab526291ba"},"vehicle_type_id":"4","last_reported":1776932851,"current_range_meters":3600,"station_id":"","pricing_plan_id":"cebpf4jnsgd1na2vs0mg"},{"bike_id":"ff422c07-4472-471c-ab0d-dcb023acae97","system_id":"levelo_inurba_marseille","lat":43.30609,"lon":5.37151,"is_reserved":false,"is_disabled":false,"rental_uris":{"android":"levelo://app?vid=ff422c07-4472-471c-ab0d-dcb023acae97","ios":"levelo://app?vid=ff422c07-4472-471c-ab0d-dcb023acae97"},"vehicle_type_id":"4","last_reported":1776932851,"current_range_meters":3600,"station_id":"","pricing_plan_id":"cebpf4jnsgd1na2vs0mg"},{"bike_id":"92233478-4be5-4194-8e8a-5d0ae2b1c083","system_id":"levelo_inurba_marseille","lat":43.28716,"lon":5.37418,"is_reserved":false,"is_disabled":false,"rental_uris":{"android":"levelo://app?vid=92233478-4be5-4194-8e8a-5d0ae2b1c083","ios":"levelo://app?vid=92233478-4be5-4194-8e8a-5d0ae2b1c083"},"vehicle_type_id":"4","last_reported":1776932851,"current_range_meters":3600,"station_id":"ce4bh3p2rcd13ifvqdq0","pricing_plan_id":"cebpf4jnsgd1na2vs0mg"},{"bike_id":"7185d8ec-9dc6-41c8-947f-9d3b0aaeb86b","system_id":"levelo_inurba_marseille","lat":43.23893,"lon":5.37475,"is_reserved":false,"is_disabled":true,"rental_uris":{"android":"levelo://app?vid=7185d8ec-9dc6-41c8-947f-9d3b0aaeb86b","ios":"levelo://app?vid=7185d8ec-9dc6-41c8-947f-9d3b0aaeb86b"},"vehicle_type_id":"4","last_reported":1776932851,"current_range_meters":3600,"station_id":"st_d6sm7csbq4hs73f8fpjg","pricing_plan_id":"cebpf4jnsgd1na2vs0mg"},{"bike_id":"dc1f0d9e-bc53-49c7-a6fd-c8bc3f0d6d3e","system_id":"levelo_inurba_marseille","lat":43.33741,"lon":5.37449,"is_reserved":false,"is_disabled":false,"rental_uris":{"android":"levelo://app?vid=dc1f0d9e-bc53-49c7-a6fd-c8bc3f0d6d3e","ios":"levelo://app?vid=dc1f0d9e-bc53-49c7-a6fd-c8bc3f0d6d3e"},"vehicle_type_id":"4","last_reported":1776932851,"current_range_meters":3600,"station_id":"","pricing_plan_id":"cebpf4jnsgd1na2vs0mg"},{"bike_id":"94dd750c-b803-4852-8849-ece161b19e86","system_id":"levelo_inurba_marseille","lat":43.28474,"lon":5.48397,"is_reserved":false,"is_disabled":false,"rental_uris":{"android":"levelo://app?vid=94dd750c-b803-4852-8849-ece161b19e86","ios":"levelo://app?vid=94dd750c-b803-4852-8849-ece161b19e86"},"vehicle_type_id":"4","last_reported":1776932851,"current_range_meters":3600,"station_id":"st_d3svhcjqgbts73a3dn0g","pricing_plan_id":"cebpf4jnsgd1na2vs0mg"},{"bike_id":"97640678-22eb-456e-8a6b-8940edbd10ca","system_id":"levelo_inurba_marseille","lat":43.23922,"lon":5.41492,"is_reserved":false,"is_disabled":false,"rental_uris":{"android":"levelo://app?vid=97640678-22eb-456e-8a6b-8940edbd10ca","ios":"levelo://app?vid=97640678-22eb-456e-8a6b-8940edbd10ca"},"vehicle_type_id":"4","last_reported":1776932851,"current_range_meters":4000,"station_id":"","pricing_plan_id":"cebpf4jnsgd1na2vs0mg"},{"bike_id":"53ac9b94-d2b8-401a-8133-9009372f217e","system_id":"levelo_inurba_marseille","lat":43.28479,"lon":5.48421,"is_reserved":false,"is_disabled":false,"rental_uris":{"android":"levelo://app?vid=53ac9b94-d2b8-401a-8133-9009372f217e","ios":"levelo://app?vid=53ac9b94-d2b8-401a-8133-9009372f217e"},"vehicle_type_id":"4","last_reported":1776932851,"current_range_meters":4000,"station_id":"","pricing_plan_id":"cebpf4jnsgd1na2vs0mg"},{"bike_id":"ce0adcb9-030d-402c-9e4c-a72759fb96d8","system_id":"levelo_inurba_marseille","lat":43.298,"lon":5.38106,"is_reserved":false,"is_disabled":false,"rental_uris":{"android":"levelo://app?vid=ce0adcb9-030d-402c-9e4c-a72759fb96d8","ios":"levelo://app?vid=ce0adcb9-030d-402c-9e4c-a72759fb96d8"},"vehicle_type_id":"4","last_reported":1776932851,"current_range_meters":4000,"station_id":"ce4bgip2rcd13ifvqbb0","pricing_plan_id":"cebpf4jnsgd1na2vs0mg"},{"bike_id":"22839542-2dda-4bc9-b770-bf2f02033c4c","system_id":"levelo_inurba_marseille","lat":43.30741,"lon":5.42421,"is_reserved":false,"is_disabled":false,"rental_uris":{"android":"levelo://app?vid=22839542-2dda-4bc9-b770-bf2f02033c4c","ios":"levelo://app?vid=22839542-2dda-4bc9-b770-bf2f02033c4c"},"vehicle_type_id":"4","last_reported":1776932851,"current_range_meters":4000,"station_id":"st_cvj6ca6bvosntc0bfgr0","pricing_plan_id":"cebpf4jnsgd1na2vs0mg"},{"bike_id":"1c4db81e-e54e-450a-b910-a202dc639503","system_id":"levelo_inurba_marseille","lat":43.28462,"lon":5.48426,"is_reserved":false,"is_disabled":false,"rental_uris":{"android":"levelo://app?vid=1c4db81e-e54e-450a-b910-a202dc639503","ios":"levelo://app?vid=1c4db81e-e54e-450a-b910-a202dc639503"},"vehicle_type_id":"4","last_reported":1776932851,"current_range_meters":4400,"station_id":"","pricing_plan_id":"cebpf4jnsgd1na2vs0mg"},{"bike_id":"fc83597b-c92a-4d6b-9ec3-85cccb5b70a7","system_id":"levelo_inurba_marseille","lat":43.31939,"lon":5.36796,"is_reserved":false,"is_disabled":false,"rental_uris":{"android":"levelo://app?vid=fc83597b-c92a-4d6b-9ec3-85cccb5b70a7","ios":"levelo://app?vid=fc83597b-c92a-4d6b-9ec3-85cccb5b70a7"},"vehicle_type_id":"4","last_reported":1776932851,"current_range_meters":4400,"station_id":"st_d6o2h0d0559c73evc1b0","pricing_plan_id":"cebpf4jnsgd1na2vs0mg"},{"bike_id":"46fcd30c-c87b-4d27-8e72-a965b5215561","system_id":"levelo_inurba_marseille","lat":43.30371,"lon":5.42482,"is_reserved":false,"is_disabled":false,"rental_uris":{"android":"levelo://app?vid=46fcd30c-c87b-4d27-8e72-a965b5215561","ios":"levelo://app?vid=46fcd30c-c87b-4d27-8e72-a965b5215561"},"vehicle_type_id":"4","last_reported":1776932851,"current_range_meters":4400,"station_id":"ce4bhoh2rcd13ifvqh6g","pricing_plan_id":"cebpf4jnsgd1na2vs0mg"},{"bike_id":"b0292b57-bc6e-4d3d-855f-2c85d8c85123","system_id":"levelo_inurba_marseille","lat":43.29321,"lon":5.36256,"is_reserved":false,"is_disabled":false,"rental_uris":{"android":"levelo://app?vid=b0292b57-bc6e-4d3d-855f-2c85d8c85123","ios":"levelo://app?vid=b0292b57-bc6e-4d3d-855f-2c85d8c85123"},"vehicle_type_id":"4","last_reported":1776932851,"current_range_meters":4400,"station_id":"","pricing_plan_id":"cebpf4jnsgd1na2vs0mg"},{"bike_id":"a94d236d-eba8-4733-81ef-6d7a05120d94","system_id":"levelo_inurba_marseille","lat":43.24866,"lon":5.39401,"is_reserved":false,"is_disabled":false,"rental_uris":{"android":"levelo://app?vid=a94d236d-eba8-4733-81ef-6d7a05120d94","ios":"levelo://app?vid=a94d236d-eba8-4733-81ef-6d7a05120d94"},"vehicle_type_id":"4","last_reported":1776932851,"current_range_meters":4400,"station_id":"","pricing_plan_id":"cebpf4jnsgd1na2vs0mg"},{"bike_id":"6a5bbe70-48a0-4392-9136-9a0675f9bf10","system_id":"levelo_inurba_marseille","lat":43.26562,"lon":5.40319,"is_reserved":false,"is_disabled":true,"rental_uris":{"android":"levelo://app?vid=6a5bbe70-48a0-4392-9136-9a0675f9bf10","ios":"levelo://app?vid=6a5bbe70-48a0-4392-9136-9a0675f9bf10"},"vehicle_type_id":"4","last_reported":1776932851,"current_range_meters":4400,"station_id":"ce4bhmp2rcd13ifvqgng","pricing_plan_id":"cebpf4jnsgd1na2vs0mg"},{"bike_id":"419d28b6-e9ec-4191-8a77-738fc1a35ef0","system_id":"levelo_inurba_marseille","lat":43.25109,"lon":5.40322,"is_reserved":false,"is_disabled":false,"rental_uris":{"android":"levelo://app?vid=419d28b6-e9ec-4191-8a77-738fc1a35ef0","ios":"levelo://app?vid=419d28b6-e9ec-4191-8a77-738fc1a35ef0"},"vehicle_type_id":"4","last_reported":1776932851,"current_range_meters":4400,"station_id":"ce4bhlh2rcd13ifvqgig","pricing_plan_id":"cebpf4jnsgd1na2vs0mg"},{"bike_id":"6b23908a-27fc-400a-b1b6-9daa8d6ab014","system_id":"levelo_inurba_marseille","lat":43.33707,"lon":5.39819,"is_reserved":false,"is_disabled":false,"rental_uris":{"android":"levelo://app?vid=6b23908a-27fc-400a-b1b6-9daa8d6ab014","ios":"levelo://app?vid=6b23908a-27fc-400a-b1b6-9daa8d6ab014"},"vehicle_type_id":"4","last_reported":1776932851,"current_range_meters":4400,"station_id":"","pricing_plan_id":"cebpf4jnsgd1na2vs0mg"},{"bike_id":"ce2ca8dc-1450-460c-a671-43388b052d50","system_id":"levelo_inurba_marseille","lat":43.27073,"lon":5.38297,"is_reserved":false,"is_disabled":true,"rental_uris":{"android":"levelo://app?vid=ce2ca8dc-1450-460c-a671-43388b052d50","ios":"levelo://app?vid=ce2ca8dc-1450-460c-a671-43388b052d50"},"vehicle_type_id":"4","last_reported":1776932851,"current_range_meters":4400,"station_id":"st_d3n2fo6cfp8s73cte1j0","pricing_plan_id":"cebpf4jnsgd1na2vs0mg"},{"bike_id":"40740253-1dc1-46ee-9c5e-f199508e35bc","system_id":"levelo_inurba_marseille","lat":43.30565,"lon":5.36709,"is_reserved":false,"is_disabled":false,"rental_uris":{"android":"levelo://app?vid=40740253-1dc1-46ee-9c5e-f199508e35bc","ios":"levelo://app?vid=40740253-1dc1-46ee-9c5e-f199508e35bc"},"vehicle_type_id":"4","last_reported":1776932851,"current_range_meters":4800,"station_id":"ce4bgrp2rcd13ifvqc9g","pricing_plan_id":"cebpf4jnsgd1na2vs0mg"},{"bike_id":"8cf4aaef-20b2-4c4b-8fd6-8496f3f6c9d2","system_id":"levelo_inurba_marseille","lat":43.23958,"lon":5.36633,"is_reserved":false,"is_disabled":true,"rental_uris":{"android":"levelo://app?vid=8cf4aaef-20b2-4c4b-8fd6-8496f3f6c9d2","ios":"levelo://app?vid=8cf4aaef-20b2-4c4b-8fd6-8496f3f6c9d2"},"vehicle_type_id":"4","last_reported":1776932851,"current_range_meters":4800,"station_id":"ce4bhi12rcd13ifvqfp0","pricing_plan_id":"cebpf4jnsgd1na2vs0mg"},{"bike_id":"cfcc8dcf-6816-46a1-945d-fdf5ccf50752","system_id":"levelo_inurba_marseille","lat":43.3092,"lon":5.41178,"is_reserved":false,"is_disabled":false,"rental_uris":{"android":"levelo://app?vid=cfcc8dcf-6816-46a1-945d-fdf5ccf50752","ios":"levelo://app?vid=cfcc8dcf-6816-46a1-945d-fdf5ccf50752"},"vehicle_type_id":"4","last_reported":1776932851,"current_range_meters":4800,"station_id":"","pricing_plan_id":"cebpf4jnsgd1na2vs0mg"},{"bike_id":"059b4ad8-665d-46df-9a3f-e9b9a20a1c99","system_id":"levelo_inurba_marseille","lat":43.33541,"lon":5.37482,"is_reserved":false,"is_disabled":false,"rental_uris":{"android":"levelo://app?vid=059b4ad8-665d-46df-9a3f-e9b9a20a1c99","ios":"levelo://app?vid=059b4ad8-665d-46df-9a3f-e9b9a20a1c99"},"vehicle_type_id":"4","last_reported":1776932851,"current_range_meters":4800,"station_id":"st_d46tts09ee8s73dlu43g","pricing_plan_id":"cebpf4jnsgd1na2vs0mg"},{"bike_id":"b1f79930-b565-4eb8-9832-4ca11b4f86d1","system_id":"levelo_inurba_marseille","lat":43.30952,"lon":5.39073,"is_reserved":false,"is_disabled":false,"rental_uris":{"android":"levelo://app?vid=b1f79930-b565-4eb8-9832-4ca11b4f86d1","ios":"levelo://app?vid=b1f79930-b565-4eb8-9832-4ca11b4f86d1"},"vehicle_type_id":"4","last_reported":1776932851,"current_range_meters":5600,"station_id":"ce4bgup2rcd13ifvqco0","pricing_plan_id":"cebpf4jnsgd1na2vs0mg"},{"bike_id":"7890c4dc-8244-4ddd-88cb-746f0f6e39f6","system_id":"levelo_inurba_marseille","lat":43.24798,"lon":5.37451,"is_reserved":false,"is_disabled":true,"rental_uris":{"android":"levelo://app?vid=7890c4dc-8244-4ddd-88cb-746f0f6e39f6","ios":"levelo://app?vid=7890c4dc-8244-4ddd-88cb-746f0f6e39f6"},"vehicle_type_id":"4","last_reported":1776932851,"current_range_meters":5600,"station_id":"ce4bhgh2rcd13ifvqfb0","pricing_plan_id":"cebpf4jnsgd1na2vs0mg"},{"bike_id":"bd3c6b3e-d299-464a-9a96-a94e112dc80d","system_id":"levelo_inurba_marseille","lat":43.29845,"lon":5.36271,"is_reserved":false,"is_disabled":false,"rental_uris":{"android":"levelo://app?vid=bd3c6b3e-d299-464a-9a96-a94e112dc80d","ios":"levelo://app?vid=bd3c6b3e-d299-464a-9a96-a94e112dc80d"},"vehicle_type_id":"4","last_reported":1776932851,"current_range_meters":5600,"station_id":"ce4bgpp2rcd13ifvqc3g","pricing_plan_id":"cebpf4jnsgd1na2vs0mg"},{"bike_id":"c9ae8f00-2d5e-4406-9b20-72e08c2f845f","system_id":"levelo_inurba_marseille","lat":43.31269,"lon":5.40163,"is_reserved":false,"is_disabled":false,"rental_uris":{"android":"levelo://app?vid=c9ae8f00-2d5e-4406-9b20-72e08c2f845f","ios":"levelo://app?vid=c9ae8f00-2d5e-4406-9b20-72e08c2f845f"},"vehicle_type_id":"4","last_reported":1776932851,"current_range_meters":5600,"station_id":"ce4bh092rcd13ifvqd30","pricing_plan_id":"cebpf4jnsgd1na2vs0mg"},{"bike_id":"fd090187-b3cd-49e0-82c6-b3817cf3be1b","system_id":"levelo_inurba_marseille","lat":43.29845,"lon":5.38585,"is_reserved":false,"is_disabled":false,"rental_uris":{"android":"levelo://app?vid=fd090187-b3cd-49e0-82c6-b3817cf3be1b","ios":"levelo://app?vid=fd090187-b3cd-49e0-82c6-b3817cf3be1b"},"vehicle_type_id":"4","last_reported":1776932851,"current_range_meters":5600,"station_id":"","pricing_plan_id":"cebpf4jnsgd1na2vs0mg"},{"bike_id":"6201605b-eaa4-497f-9ef4-cf126851a92c","system_id":"levelo_inurba_marseille","lat":43.29623,"lon":5.40605,"is_reserved":false,"is_disabled":false,"rental_uris":{"android":"levelo://app?vid=6201605b-eaa4-497f-9ef4-cf126851a92c","ios":"levelo://app?vid=6201605b-eaa4-497f-9ef4-cf126851a92c"},"vehicle_type_id":"4","last_reported":1776932851,"current_range_meters":5600,"station_id":"ce4bh0h2rcd13ifvqd60","pricing_plan_id":"cebpf4jnsgd1na2vs0mg"},{"bike_id":"4467a2e5-72b3-4ca5-bf16-de796ed3c77a","system_id":"levelo_inurba_marseille","lat":43.28962,"lon":5.37838,"is_reserved":false,"is_disabled":false,"rental_uris":{"android":"levelo://app?vid=4467a2e5-72b3-4ca5-bf16-de796ed3c77a","ios":"levelo://app?vid=4467a2e5-72b3-4ca5-bf16-de796ed3c77a"},"vehicle_type_id":"4","last_reported":1776932851,"current_range_meters":5600,"station_id":"ce4bh9p2rcd13ifvqed0","pricing_plan_id":"cebpf4jnsgd1na2vs0mg"},{"bike_id":"d7c4a0d5-241d-4086-aaa3-261b04bad92b","system_id":"levelo_inurba_marseille","lat":43.30948,"lon":5.39036,"is_reserved":false,"is_disabled":false,"rental_uris":{"android":"levelo://app?vid=d7c4a0d5-241d-4086-aaa3-261b04bad92b","ios":"levelo://app?vid=d7c4a0d5-241d-4086-aaa3-261b04bad92b"},"vehicle_type_id":"4","last_reported":1776932851,"current_range_meters":5600,"station_id":"ce4bgup2rcd13ifvqco0","pricing_plan_id":"cebpf4jnsgd1na2vs0mg"},{"bike_id":"0d8738c8-efd5-4f83-bedf-81eb9a1d6096","system_id":"levelo_inurba_marseille","lat":43.33166,"lon":5.36172,"is_reserved":false,"is_disabled":false,"rental_uris":{"android":"levelo://app?vid=0d8738c8-efd5-4f83-bedf-81eb9a1d6096","ios":"levelo://app?vid=0d8738c8-efd5-4f83-bedf-81eb9a1d6096"},"vehicle_type_id":"4","last_reported":1776932851,"current_range_meters":5600,"station_id":"","pricing_plan_id":"cebpf4jnsgd1na2vs0mg"},{"bike_id":"08f8f201-1512-4089-8d4e-a27faf29817c","system_id":"levelo_inurba_marseille","lat":43.29633,"lon":5.40603,"is_reserved":false,"is_disabled":true,"rental_uris":{"android":"levelo://app?vid=08f8f201-1512-4089-8d4e-a27faf29817c","ios":"levelo://app?vid=08f8f201-1512-4089-8d4e-a27faf29817c"},"vehicle_type_id":"4","last_reported":1776932851,"current_range_meters":6000,"station_id":"ce4bh0h2rcd13ifvqd60","pricing_plan_id":"cebpf4jnsgd1na2vs0mg"},{"bike_id":"09012acd-7e2a-4e46-b00e-3df38d87fafc","system_id":"levelo_inurba_marseille","lat":43.24848,"lon":5.40639,"is_reserved":false,"is_disabled":false,"rental_uris":{"android":"levelo://app?vid=09012acd-7e2a-4e46-b00e-3df38d87fafc","ios":"levelo://app?vid=09012acd-7e2a-4e46-b00e-3df38d87fafc"},"vehicle_type_id":"4","last_reported":1776932851,"current_range_meters":6000,"station_id":"","pricing_plan_id":"cebpf4jnsgd1na2vs0mg"},{"bike_id":"b0936f8e-a2ee-4926-83f8-c09cbc215038","system_id":"levelo_inurba_marseille","lat":43.30376,"lon":5.42488,"is_reserved":false,"is_disabled":false,"rental_uris":{"android":"levelo://app?vid=b0936f8e-a2ee-4926-83f8-c09cbc215038","ios":"levelo://app?vid=b0936f8e-a2ee-4926-83f8-c09cbc215038"},"vehicle_type_id":"4","last_reported":1776932851,"current_range_meters":6000,"station_id":"ce4bhoh2rcd13ifvqh6g","pricing_plan_id":"cebpf4jnsgd1na2vs0mg"},{"bike_id":"16f7fe35-694a-4eb9-9cc6-4679694d07e2","system_id":"levelo_inurba_marseille","lat":43.31234,"lon":5.3791,"is_reserved":false,"is_disabled":false,"rental_uris":{"android":"levelo://app?vid=16f7fe35-694a-4eb9-9cc6-4679694d07e2","ios":"levelo://app?vid=16f7fe35-694a-4eb9-9cc6-4679694d07e2"},"vehicle_type_id":"4","last_reported":1776932851,"current_range_meters":6000,"station_id":"","pricing_plan_id":"cebpf4jnsgd1na2vs0mg"},{"bike_id":"f8d46f57-68ae-42a5-9479-ae67d8834276","system_id":"levelo_inurba_marseille","lat":43.29943,"lon":5.37097,"is_reserved":false,"is_disabled":false,"rental_uris":{"android":"levelo://app?vid=f8d46f57-68ae-42a5-9479-ae67d8834276","ios":"levelo://app?vid=f8d46f57-68ae-42a5-9479-ae67d8834276"},"vehicle_type_id":"4","last_reported":1776932851,"current_range_meters":6000,"station_id":"","pricing_plan_id":"cebpf4jnsgd1na2vs0mg"},{"bike_id":"38738c5b-193c-404b-9afc-67a22b34144d","system_id":"levelo_inurba_marseille","lat":43.30427,"lon":5.39749,"is_reserved":false,"is_disabled":false,"rental_uris":{"android":"levelo://app?vid=38738c5b-193c-404b-9afc-67a22b34144d","ios":"levelo://app?vid=38738c5b-193c-404b-9afc-67a22b34144d"},"vehicle_type_id":"4","last_reported":1776932851,"current_range_meters":6000,"station_id":"ce4bh092rcd13ifvqd20","pricing_plan_id":"cebpf4jnsgd1na2vs0mg"},{"bike_id":"f40d702e-9ab5-4577-99ff-1c002e1e2e14","system_id":"levelo_inurba_marseille","lat":43.30145,"lon":5.38791,"is_reserved":false,"is_disabled":false,"rental_uris":{"android":"levelo://app?vid=f40d702e-9ab5-4577-99ff-1c002e1e2e14","ios":"levelo://app?vid=f40d702e-9ab5-4577-99ff-1c002e1e2e14"},"vehicle_type_id":"4","last_reported":1776932851,"current_range_meters":6000,"station_id":"ce4bghh2rcd13ifvqb60","pricing_plan_id":"cebpf4jnsgd1na2vs0mg"},{"bike_id":"d5c77ed1-6ea1-4998-aea0-e9a1dcb59dd3","system_id":"levelo_inurba_marseille","lat":43.33139,"lon":5.37709,"is_reserved":false,"is_disabled":false,"rental_uris":{"android":"levelo://app?vid=d5c77ed1-6ea1-4998-aea0-e9a1dcb59dd3","ios":"levelo://app?vid=d5c77ed1-6ea1-4998-aea0-e9a1dcb59dd3"},"vehicle_type_id":"4","last_reported":1776932851,"current_range_meters":6400,"station_id":"st_d46cu089ee8s73dldbu0","pricing_plan_id":"cebpf4jnsgd1na2vs0mg"},{"bike_id":"f2ff52a7-1503-4a80-9a0e-a217d36469bb","system_id":"levelo_inurba_marseille","lat":43.31063,"lon":5.37182,"is_reserved":false,"is_disabled":false,"rental_uris":{"android":"levelo://app?vid=f2ff52a7-1503-4a80-9a0e-a217d36469bb","ios":"levelo://app?vid=f2ff52a7-1503-4a80-9a0e-a217d36469bb"},"vehicle_type_id":"4","last_reported":1776932851,"current_range_meters":6400,"station_id":"st_d4kl2rp97mjs73e7tdfg","pricing_plan_id":"cebpf4jnsgd1na2vs0mg"},{"bike_id":"51b2c878-6014-4a7a-956f-84d26d4eaec3","system_id":"levelo_inurba_marseille","lat":43.29699,"lon":5.37751,"is_reserved":false,"is_disabled":false,"rental_uris":{"android":"levelo://app?vid=51b2c878-6014-4a7a-956f-84d26d4eaec3","ios":"levelo://app?vid=51b2c878-6014-4a7a-956f-84d26d4eaec3"},"vehicle_type_id":"4","last_reported":1776932851,"current_range_meters":6400,"station_id":"","pricing_plan_id":"cebpf4jnsgd1na2vs0mg"},{"bike_id":"d76f2d60-2dee-4090-abe8-08a753bbddab","system_id":"levelo_inurba_marseille","lat":43.30165,"lon":5.38066,"is_reserved":false,"is_disabled":false,"rental_uris":{"android":"levelo://app?vid=d76f2d60-2dee-4090-abe8-08a753bbddab","ios":"levelo://app?vid=d76f2d60-2dee-4090-abe8-08a753bbddab"},"vehicle_type_id":"4","last_reported":1776932851,"current_range_meters":6400,"station_id":"ce4bgjp2rcd13ifvqbh0","pricing_plan_id":"cebpf4jnsgd1na2vs0mg"},{"bike_id":"6b9e1e7f-0d7f-4ba6-8f84-dcedfe38e571","system_id":"levelo_inurba_marseille","lat":43.30145,"lon":5.38076,"is_reserved":false,"is_disabled":false,"rental_uris":{"android":"levelo://app?vid=6b9e1e7f-0d7f-4ba6-8f84-dcedfe38e571","ios":"levelo://app?vid=6b9e1e7f-0d7f-4ba6-8f84-dcedfe38e571"},"vehicle_type_id":"4","last_reported":1776932851,"current_range_meters":6400,"station_id":"ce4bgjp2rcd13ifvqbh0","pricing_plan_id":"cebpf4jnsgd1na2vs0mg"},{"bike_id":"e8c9d71a-afbc-4c59-af4d-6ad77f1ebe3b","system_id":"levelo_inurba_marseille","lat":43.3275,"lon":5.36354,"is_reserved":false,"is_disabled":false,"rental_uris":{"android":"levelo://app?vid=e8c9d71a-afbc-4c59-af4d-6ad77f1ebe3b","ios":"levelo://app?vid=e8c9d71a-afbc-4c59-af4d-6ad77f1ebe3b"},"vehicle_type_id":"4","last_reported":1776932851,"current_range_meters":6400,"station_id":"","pricing_plan_id":"cebpf4jnsgd1na2vs0mg"},{"bike_id":"2ad338ab-31f0-4614-b89c-3a1975c42567","system_id":"levelo_inurba_marseille","lat":43.2582,"lon":5.39435,"is_reserved":false,"is_disabled":false,"rental_uris":{"android":"levelo://app?vid=2ad338ab-31f0-4614-b89c-3a1975c42567","ios":"levelo://app?vid=2ad338ab-31f0-4614-b89c-3a1975c42567"},"vehicle_type_id":"4","last_reported":1776932851,"current_range_meters":6400,"station_id":"ce4bhip2rcd13ifvqft0","pricing_plan_id":"cebpf4jnsgd1na2vs0mg"},{"bike_id":"d69e3f92-6ac2-4953-a29c-24ebc1d4d17a","system_id":"levelo_inurba_marseille","lat":43.259338,"lon":5.40912,"is_reserved":false,"is_disabled":false,"rental_uris":{"android":"levelo://app?vid=d69e3f92-6ac2-4953-a29c-24ebc1d4d17a","ios":"levelo://app?vid=d69e3f92-6ac2-4953-a29c-24ebc1d4d17a"},"vehicle_type_id":"4","last_reported":1776932851,"current_range_meters":6400,"station_id":"ce4bhm92rcd13ifvqglg","pricing_plan_id":"cebpf4jnsgd1na2vs0mg"},{"bike_id":"493c5cd0-8c21-4c6e-b6e2-4c97a78bd4db","system_id":"levelo_inurba_marseille","lat":43.28462,"lon":5.35895,"is_reserved":false,"is_disabled":true,"rental_uris":{"android":"levelo://app?vid=493c5cd0-8c21-4c6e-b6e2-4c97a78bd4db","ios":"levelo://app?vid=493c5cd0-8c21-4c6e-b6e2-4c97a78bd4db"},"vehicle_type_id":"4","last_reported":1776932851,"current_range_meters":6800,"station_id":"ce4bhah2rcd13ifvqei0","pricing_plan_id":"cebpf4jnsgd1na2vs0mg"},{"bike_id":"97563811-de7e-4fb9-bbc8-59c1cb66a0eb","system_id":"levelo_inurba_marseille","lat":43.243839,"lon":5.370514,"is_reserved":false,"is_disabled":false,"rental_uris":{"android":"levelo://app?vid=97563811-de7e-4fb9-bbc8-59c1cb66a0eb","ios":"levelo://app?vid=97563811-de7e-4fb9-bbc8-59c1cb66a0eb"},"vehicle_type_id":"4","last_reported":1776932851,"current_range_meters":6800,"station_id":"ce4bhhh2rcd13ifvqfk0","pricing_plan_id":"cebpf4jnsgd1na2vs0mg"},{"bike_id":"40ff0f47-5944-4f70-b215-51be5bdd796a","system_id":"levelo_inurba_marseille","lat":43.29026,"lon":5.39954,"is_reserved":false,"is_disabled":false,"rental_uris":{"android":"levelo://app?vid=40ff0f47-5944-4f70-b215-51be5bdd796a","ios":"levelo://app?vid=40ff0f47-5944-4f70-b215-51be5bdd796a"},"vehicle_type_id":"4","last_reported":1776932851,"current_range_meters":6800,"station_id":"ce4bh392rcd13ifvqdm0","pricing_plan_id":"cebpf4jnsgd1na2vs0mg"},{"bike_id":"897ccc75-3e6d-4af3-94b6-7b8960c9a5e7","system_id":"levelo_inurba_marseille","lat":43.30652,"lon":5.40088,"is_reserved":false,"is_disabled":false,"rental_uris":{"android":"levelo://app?vid=897ccc75-3e6d-4af3-94b6-7b8960c9a5e7","ios":"levelo://app?vid=897ccc75-3e6d-4af3-94b6-7b8960c9a5e7"},"vehicle_type_id":"4","last_reported":1776932851,"current_range_meters":6800,"station_id":"ce4bh112rcd13ifvqda0","pricing_plan_id":"cebpf4jnsgd1na2vs0mg"},{"bike_id":"8e95ebd7-d248-4635-b5c0-1bd9e1032b57","system_id":"levelo_inurba_marseille","lat":43.28884,"lon":5.42564,"is_reserved":false,"is_disabled":false,"rental_uris":{"android":"levelo://app?vid=8e95ebd7-d248-4635-b5c0-1bd9e1032b57","ios":"levelo://app?vid=8e95ebd7-d248-4635-b5c0-1bd9e1032b57"},"vehicle_type_id":"4","last_reported":1776932851,"current_range_meters":6800,"station_id":"st_d3b462108ojc7389ooeg","pricing_plan_id":"cebpf4jnsgd1na2vs0mg"},{"bike_id":"a7846c7e-6b12-434d-907f-06af07562d8e","system_id":"levelo_inurba_marseille","lat":43.29935,"lon":5.36515,"is_reserved":false,"is_disabled":false,"rental_uris":{"android":"levelo://app?vid=a7846c7e-6b12-434d-907f-06af07562d8e","ios":"levelo://app?vid=a7846c7e-6b12-434d-907f-06af07562d8e"},"vehicle_type_id":"4","last_reported":1776932851,"current_range_meters":6800,"station_id":"ce4bgm92rcd13ifvqbr0","pricing_plan_id":"cebpf4jnsgd1na2vs0mg"},{"bike_id":"4546b1c6-bacb-4ed7-82ca-09a35652258f","system_id":"levelo_inurba_marseille","lat":43.28343,"lon":5.42604,"is_reserved":false,"is_disabled":false,"rental_uris":{"android":"levelo://app?vid=4546b1c6-bacb-4ed7-82ca-09a35652258f","ios":"levelo://app?vid=4546b1c6-bacb-4ed7-82ca-09a35652258f"},"vehicle_type_id":"4","last_reported":1776932851,"current_range_meters":6800,"station_id":"","pricing_plan_id":"cebpf4jnsgd1na2vs0mg"},{"bike_id":"8331af0f-100e-470f-9e36-7657fa113fe2","system_id":"levelo_inurba_marseille","lat":43.31236,"lon":5.36878,"is_reserved":false,"is_disabled":false,"rental_uris":{"android":"levelo://app?vid=8331af0f-100e-470f-9e36-7657fa113fe2","ios":"levelo://app?vid=8331af0f-100e-470f-9e36-7657fa113fe2"},"vehicle_type_id":"4","last_reported":1776932851,"current_range_meters":6800,"station_id":"ce4bgl92rcd13ifvqbq0","pricing_plan_id":"cebpf4jnsgd1na2vs0mg"},{"bike_id":"60118125-67cb-4a41-89a0-83aa123fc8aa","system_id":"levelo_inurba_marseille","lat":43.29911,"lon":5.38149,"is_reserved":false,"is_disabled":false,"rental_uris":{"android":"levelo://app?vid=60118125-67cb-4a41-89a0-83aa123fc8aa","ios":"levelo://app?vid=60118125-67cb-4a41-89a0-83aa123fc8aa"},"vehicle_type_id":"4","last_reported":1776932851,"current_range_meters":6800,"station_id":"ce4bgj12rcd13ifvqbc0","pricing_plan_id":"cebpf4jnsgd1na2vs0mg"},{"bike_id":"27333076-abb5-4a9b-ac59-89b1742839cf","system_id":"levelo_inurba_marseille","lat":43.28719,"lon":5.37941,"is_reserved":false,"is_disabled":true,"rental_uris":{"android":"levelo://app?vid=27333076-abb5-4a9b-ac59-89b1742839cf","ios":"levelo://app?vid=27333076-abb5-4a9b-ac59-89b1742839cf"},"vehicle_type_id":"4","last_reported":1776932851,"current_range_meters":6800,"station_id":"ce4bh9p2rcd13ifvqec0","pricing_plan_id":"cebpf4jnsgd1na2vs0mg"},{"bike_id":"772652df-39a3-4a7d-ab76-86683fdc6511","system_id":"levelo_inurba_marseille","lat":43.2892,"lon":5.36875,"is_reserved":false,"is_disabled":false,"rental_uris":{"android":"levelo://app?vid=772652df-39a3-4a7d-ab76-86683fdc6511","ios":"levelo://app?vid=772652df-39a3-4a7d-ab76-86683fdc6511"},"vehicle_type_id":"4","last_reported":1776932851,"current_range_meters":6800,"station_id":"","pricing_plan_id":"cebpf4jnsgd1na2vs0mg"},{"bike_id":"9f924157-5a09-4acc-af82-d459722a06e7","system_id":"levelo_inurba_marseille","lat":43.296857,"lon":5.378921,"is_reserved":false,"is_disabled":false,"rental_uris":{"android":"levelo://app?vid=9f924157-5a09-4acc-af82-d459722a06e7","ios":"levelo://app?vid=9f924157-5a09-4acc-af82-d459722a06e7"},"vehicle_type_id":"4","last_reported":1776932851,"current_range_meters":6800,"station_id":"ce4bgh92rcd13ifvqb50","pricing_plan_id":"cebpf4jnsgd1na2vs0mg"},{"bike_id":"f44fbf64-a6ef-431d-999c-ddaa67469c14","system_id":"levelo_inurba_marseille","lat":43.29521,"lon":5.38561,"is_reserved":false,"is_disabled":false,"rental_uris":{"android":"levelo://app?vid=f44fbf64-a6ef-431d-999c-ddaa67469c14","ios":"levelo://app?vid=f44fbf64-a6ef-431d-999c-ddaa67469c14"},"vehicle_type_id":"4","last_reported":1776932851,"current_range_meters":7200,"station_id":"ce4bgih2rcd13ifvqba0","pricing_plan_id":"cebpf4jnsgd1na2vs0mg"},{"bike_id":"24614488-79a7-483c-a3a3-76cb8715a602","system_id":"levelo_inurba_marseille","lat":43.30457,"lon":5.37901,"is_reserved":false,"is_disabled":false,"rental_uris":{"android":"levelo://app?vid=24614488-79a7-483c-a3a3-76cb8715a602","ios":"levelo://app?vid=24614488-79a7-483c-a3a3-76cb8715a602"},"vehicle_type_id":"4","last_reported":1776932851,"current_range_meters":7200,"station_id":"ce4bgup2rcd13ifvqcn0","pricing_plan_id":"cebpf4jnsgd1na2vs0mg"},{"bike_id":"137bb92b-25d3-4fd1-83b2-2c4d5cd75fe8","system_id":"levelo_inurba_marseille","lat":43.29228,"lon":5.36054,"is_reserved":false,"is_disabled":false,"rental_uris":{"android":"levelo://app?vid=137bb92b-25d3-4fd1-83b2-2c4d5cd75fe8","ios":"levelo://app?vid=137bb92b-25d3-4fd1-83b2-2c4d5cd75fe8"},"vehicle_type_id":"4","last_reported":1776932851,"current_range_meters":7200,"station_id":"ce4bhbh2rcd13ifvqeqg","pricing_plan_id":"cebpf4jnsgd1na2vs0mg"},{"bike_id":"205eefac-f379-49f9-b02e-ad048a493b05","system_id":"levelo_inurba_marseille","lat":43.27137,"lon":5.42541,"is_reserved":false,"is_disabled":false,"rental_uris":{"android":"levelo://app?vid=205eefac-f379-49f9-b02e-ad048a493b05","ios":"levelo://app?vid=205eefac-f379-49f9-b02e-ad048a493b05"},"vehicle_type_id":"4","last_reported":1776932851,"current_range_meters":7200,"station_id":"","pricing_plan_id":"cebpf4jnsgd1na2vs0mg"},{"bike_id":"f7f551e1-e4de-432b-8499-625f44ef4d79","system_id":"levelo_inurba_marseille","lat":43.28973,"lon":5.37851,"is_reserved":false,"is_disabled":false,"rental_uris":{"android":"levelo://app?vid=f7f551e1-e4de-432b-8499-625f44ef4d79","ios":"levelo://app?vid=f7f551e1-e4de-432b-8499-625f44ef4d79"},"vehicle_type_id":"4","last_reported":1776932851,"current_range_meters":7200,"station_id":"ce4bh9p2rcd13ifvqed0","pricing_plan_id":"cebpf4jnsgd1na2vs0mg"},{"bike_id":"1aedc917-40b7-4e68-b31c-5964f99f23d5","system_id":"levelo_inurba_marseille","lat":43.26557,"lon":5.37278,"is_reserved":false,"is_disabled":false,"rental_uris":{"android":"levelo://app?vid=1aedc917-40b7-4e68-b31c-5964f99f23d5","ios":"levelo://app?vid=1aedc917-40b7-4e68-b31c-5964f99f23d5"},"vehicle_type_id":"4","last_reported":1776932851,"current_range_meters":7200,"station_id":"ce4bhg12rcd13ifvqf70","pricing_plan_id":"cebpf4jnsgd1na2vs0mg"},{"bike_id":"b076ddf3-5e32-4188-aa56-bd51a7313e1d","system_id":"levelo_inurba_marseille","lat":43.304667,"lon":5.379127,"is_reserved":false,"is_disabled":false,"rental_uris":{"android":"levelo://app?vid=b076ddf3-5e32-4188-aa56-bd51a7313e1d","ios":"levelo://app?vid=b076ddf3-5e32-4188-aa56-bd51a7313e1d"},"vehicle_type_id":"4","last_reported":1776932851,"current_range_meters":7200,"station_id":"ce4bgup2rcd13ifvqcn0","pricing_plan_id":"cebpf4jnsgd1na2vs0mg"},{"bike_id":"1c21b5e4-18ba-4d77-b990-0019b8294ddb","system_id":"levelo_inurba_marseille","lat":43.26556,"lon":5.39642,"is_reserved":false,"is_disabled":false,"rental_uris":{"android":"levelo://app?vid=1c21b5e4-18ba-4d77-b990-0019b8294ddb","ios":"levelo://app?vid=1c21b5e4-18ba-4d77-b990-0019b8294ddb"},"vehicle_type_id":"4","last_reported":1776932851,"current_range_meters":7200,"station_id":"","pricing_plan_id":"cebpf4jnsgd1na2vs0mg"},{"bike_id":"9c642c93-9d9f-4f71-8143-53448fb0043b","system_id":"levelo_inurba_marseille","lat":43.31475,"lon":5.37297,"is_reserved":false,"is_disabled":false,"rental_uris":{"android":"levelo://app?vid=9c642c93-9d9f-4f71-8143-53448fb0043b","ios":"levelo://app?vid=9c642c93-9d9f-4f71-8143-53448fb0043b"},"vehicle_type_id":"4","last_reported":1776932851,"current_range_meters":7200,"station_id":"ce4bgt12rcd13ifvqcd0","pricing_plan_id":"cebpf4jnsgd1na2vs0mg"},{"bike_id":"df56fc5d-a21b-4e75-8657-868a661710b1","system_id":"levelo_inurba_marseille","lat":43.28732,"lon":5.37935,"is_reserved":false,"is_disabled":false,"rental_uris":{"android":"levelo://app?vid=df56fc5d-a21b-4e75-8657-868a661710b1","ios":"levelo://app?vid=df56fc5d-a21b-4e75-8657-868a661710b1"},"vehicle_type_id":"4","last_reported":1776932851,"current_range_meters":7200,"station_id":"ce4bh9p2rcd13ifvqec0","pricing_plan_id":"cebpf4jnsgd1na2vs0mg"},{"bike_id":"dbf3627f-590f-4826-bf61-ff9f2f0dcd28","system_id":"levelo_inurba_marseille","lat":43.29198,"lon":5.35806,"is_reserved":false,"is_disabled":false,"rental_uris":{"android":"levelo://app?vid=dbf3627f-590f-4826-bf61-ff9f2f0dcd28","ios":"levelo://app?vid=dbf3627f-590f-4826-bf61-ff9f2f0dcd28"},"vehicle_type_id":"4","last_reported":1776932851,"current_range_meters":7200,"station_id":"ce4bhb12rcd13ifvqel0","pricing_plan_id":"cebpf4jnsgd1na2vs0mg"},{"bike_id":"7bcf589d-1485-482c-947e-3b81d1633d3f","system_id":"levelo_inurba_marseille","lat":43.26367,"lon":5.41081,"is_reserved":false,"is_disabled":false,"rental_uris":{"android":"levelo://app?vid=7bcf589d-1485-482c-947e-3b81d1633d3f","ios":"levelo://app?vid=7bcf589d-1485-482c-947e-3b81d1633d3f"},"vehicle_type_id":"4","last_reported":1776932851,"current_range_meters":7200,"station_id":"st_d4e5ca6na9uc73bfl5fg","pricing_plan_id":"cebpf4jnsgd1na2vs0mg"},{"bike_id":"7815ddfa-84fd-4ae5-b67a-cd6d6508af90","system_id":"levelo_inurba_marseille","lat":43.2802,"lon":5.36953,"is_reserved":false,"is_disabled":false,"rental_uris":{"android":"levelo://app?vid=7815ddfa-84fd-4ae5-b67a-cd6d6508af90","ios":"levelo://app?vid=7815ddfa-84fd-4ae5-b67a-cd6d6508af90"},"vehicle_type_id":"4","last_reported":1776932851,"current_range_meters":8000,"station_id":"ce4bha12rcd13ifvqef0","pricing_plan_id":"cebpf4jnsgd1na2vs0mg"},{"bike_id":"b8f8d66f-2503-4e07-a7c5-6e97f6bb6d81","system_id":"levelo_inurba_marseille","lat":43.28143,"lon":5.4263,"is_reserved":false,"is_disabled":false,"rental_uris":{"android":"levelo://app?vid=b8f8d66f-2503-4e07-a7c5-6e97f6bb6d81","ios":"levelo://app?vid=b8f8d66f-2503-4e07-a7c5-6e97f6bb6d81"},"vehicle_type_id":"4","last_reported":1776932851,"current_range_meters":8000,"station_id":"ce4bhnh2rcd13ifvqgug","pricing_plan_id":"cebpf4jnsgd1na2vs0mg"},{"bike_id":"0923929c-d272-4fa1-a3d9-8f4c7a6f830d","system_id":"levelo_inurba_marseille","lat":43.30796,"lon":5.38184,"is_reserved":false,"is_disabled":false,"rental_uris":{"android":"levelo://app?vid=0923929c-d272-4fa1-a3d9-8f4c7a6f830d","ios":"levelo://app?vid=0923929c-d272-4fa1-a3d9-8f4c7a6f830d"},"vehicle_type_id":"4","last_reported":1776932851,"current_range_meters":8000,"station_id":"ce4bgt12rcd13ifvqce0","pricing_plan_id":"cebpf4jnsgd1na2vs0mg"},{"bike_id":"65b30af7-8169-4c45-8496-67203f8652a1","system_id":"levelo_inurba_marseille","lat":43.29628,"lon":5.37167,"is_reserved":false,"is_disabled":false,"rental_uris":{"android":"levelo://app?vid=65b30af7-8169-4c45-8496-67203f8652a1","ios":"levelo://app?vid=65b30af7-8169-4c45-8496-67203f8652a1"},"vehicle_type_id":"4","last_reported":1776932851,"current_range_meters":8000,"station_id":"ce4bgnh2rcd13ifvqc0g","pricing_plan_id":"cebpf4jnsgd1na2vs0mg"},{"bike_id":"500638d0-cf5c-4061-b413-99b5dc6f2377","system_id":"levelo_inurba_marseille","lat":43.2744,"lon":5.42479,"is_reserved":false,"is_disabled":false,"rental_uris":{"android":"levelo://app?vid=500638d0-cf5c-4061-b413-99b5dc6f2377","ios":"levelo://app?vid=500638d0-cf5c-4061-b413-99b5dc6f2377"},"vehicle_type_id":"4","last_reported":1776932851,"current_range_meters":8000,"station_id":"","pricing_plan_id":"cebpf4jnsgd1na2vs0mg"},{"bike_id":"e780e40f-6e52-4e5d-a115-03ec9286ffa2","system_id":"levelo_inurba_marseille","lat":43.28956,"lon":5.3785,"is_reserved":false,"is_disabled":false,"rental_uris":{"android":"levelo://app?vid=e780e40f-6e52-4e5d-a115-03ec9286ffa2","ios":"levelo://app?vid=e780e40f-6e52-4e5d-a115-03ec9286ffa2"},"vehicle_type_id":"4","last_reported":1776932851,"current_range_meters":8000,"station_id":"ce4bh9p2rcd13ifvqed0","pricing_plan_id":"cebpf4jnsgd1na2vs0mg"},{"bike_id":"61601d71-74e0-4e23-aaad-9705fd412fc8","system_id":"levelo_inurba_marseille","lat":43.29768,"lon":5.36965,"is_reserved":false,"is_disabled":false,"rental_uris":{"android":"levelo://app?vid=61601d71-74e0-4e23-aaad-9705fd412fc8","ios":"levelo://app?vid=61601d71-74e0-4e23-aaad-9705fd412fc8"},"vehicle_type_id":"4","last_reported":1776932851,"current_range_meters":8000,"station_id":"","pricing_plan_id":"cebpf4jnsgd1na2vs0mg"},{"bike_id":"44f2edab-edc8-4eec-9a9f-93c54f56caf1","system_id":"levelo_inurba_marseille","lat":43.31369,"lon":5.3671,"is_reserved":false,"is_disabled":false,"rental_uris":{"android":"levelo://app?vid=44f2edab-edc8-4eec-9a9f-93c54f56caf1","ios":"levelo://app?vid=44f2edab-edc8-4eec-9a9f-93c54f56caf1"},"vehicle_type_id":"4","last_reported":1776932851,"current_range_meters":8000,"station_id":"ce4bgr92rcd13ifvqc6g","pricing_plan_id":"cebpf4jnsgd1na2vs0mg"},{"bike_id":"a755f872-419a-45b6-b5e9-17dc3ecbcfbd","system_id":"levelo_inurba_marseille","lat":43.26553,"lon":5.37287,"is_reserved":false,"is_disabled":false,"rental_uris":{"android":"levelo://app?vid=a755f872-419a-45b6-b5e9-17dc3ecbcfbd","ios":"levelo://app?vid=a755f872-419a-45b6-b5e9-17dc3ecbcfbd"},"vehicle_type_id":"4","last_reported":1776932851,"current_range_meters":8000,"station_id":"ce4bhg12rcd13ifvqf70","pricing_plan_id":"cebpf4jnsgd1na2vs0mg"},{"bike_id":"5d6f2e33-0e5f-41fd-94ee-eb7bd5085516","system_id":"levelo_inurba_marseille","lat":43.24804,"lon":5.37456,"is_reserved":false,"is_disabled":false,"rental_uris":{"android":"levelo://app?vid=5d6f2e33-0e5f-41fd-94ee-eb7bd5085516","ios":"levelo://app?vid=5d6f2e33-0e5f-41fd-94ee-eb7bd5085516"},"vehicle_type_id":"4","last_reported":1776932851,"current_range_meters":8000,"station_id":"ce4bhgh2rcd13ifvqfb0","pricing_plan_id":"cebpf4jnsgd1na2vs0mg"},{"bike_id":"af9962a9-d0d5-4bde-8e56-1ff345066744","system_id":"levelo_inurba_marseille","lat":43.31353,"lon":5.36706,"is_reserved":false,"is_disabled":false,"rental_uris":{"android":"levelo://app?vid=af9962a9-d0d5-4bde-8e56-1ff345066744","ios":"levelo://app?vid=af9962a9-d0d5-4bde-8e56-1ff345066744"},"vehicle_type_id":"4","last_reported":1776932851,"current_range_meters":8000,"station_id":"ce4bgr92rcd13ifvqc6g","pricing_plan_id":"cebpf4jnsgd1na2vs0mg"},{"bike_id":"a56889e7-37d7-487e-a661-9c8461fe50da","system_id":"levelo_inurba_marseille","lat":43.30896,"lon":5.36862,"is_reserved":false,"is_disabled":false,"rental_uris":{"android":"levelo://app?vid=a56889e7-37d7-487e-a661-9c8461fe50da","ios":"levelo://app?vid=a56889e7-37d7-487e-a661-9c8461fe50da"},"vehicle_type_id":"4","last_reported":1776932851,"current_range_meters":8000,"station_id":"ce4bgn92rcd13ifvqbvg","pricing_plan_id":"cebpf4jnsgd1na2vs0mg"},{"bike_id":"88f890fb-d5ee-4423-9c7d-7bc75792c249","system_id":"levelo_inurba_marseille","lat":43.3038,"lon":5.4247,"is_reserved":false,"is_disabled":false,"rental_uris":{"android":"levelo://app?vid=88f890fb-d5ee-4423-9c7d-7bc75792c249","ios":"levelo://app?vid=88f890fb-d5ee-4423-9c7d-7bc75792c249"},"vehicle_type_id":"4","last_reported":1776932851,"current_range_meters":8000,"station_id":"ce4bhoh2rcd13ifvqh6g","pricing_plan_id":"cebpf4jnsgd1na2vs0mg"},{"bike_id":"25931435-472d-4946-9b9a-fc67e50f018d","system_id":"levelo_inurba_marseille","lat":43.23039,"lon":5.44456,"is_reserved":false,"is_disabled":false,"rental_uris":{"android":"levelo://app?vid=25931435-472d-4946-9b9a-fc67e50f018d","ios":"levelo://app?vid=25931435-472d-4946-9b9a-fc67e50f018d"},"vehicle_type_id":"4","last_reported":1776932851,"current_range_meters":8000,"station_id":"","pricing_plan_id":"cebpf4jnsgd1na2vs0mg"},{"bike_id":"f4155e17-f4c5-4d95-b472-8f2fc55ce1c8","system_id":"levelo_inurba_marseille","lat":43.28724,"lon":5.3882,"is_reserved":false,"is_disabled":false,"rental_uris":{"android":"levelo://app?vid=f4155e17-f4c5-4d95-b472-8f2fc55ce1c8","ios":"levelo://app?vid=f4155e17-f4c5-4d95-b472-8f2fc55ce1c8"},"vehicle_type_id":"4","last_reported":1776932851,"current_range_meters":8000,"station_id":"","pricing_plan_id":"cebpf4jnsgd1na2vs0mg"},{"bike_id":"eaa56526-29a5-4cc4-abc0-c621dd30f9a4","system_id":"levelo_inurba_marseille","lat":43.29262,"lon":5.4268,"is_reserved":false,"is_disabled":false,"rental_uris":{"android":"levelo://app?vid=eaa56526-29a5-4cc4-abc0-c621dd30f9a4","ios":"levelo://app?vid=eaa56526-29a5-4cc4-abc0-c621dd30f9a4"},"vehicle_type_id":"4","last_reported":1776932851,"current_range_meters":8400,"station_id":"","pricing_plan_id":"cebpf4jnsgd1na2vs0mg"},{"bike_id":"8be463ff-d01d-44b7-8a56-2c571e22c6aa","system_id":"levelo_inurba_marseille","lat":43.30941,"lon":5.39025,"is_reserved":false,"is_disabled":false,"rental_uris":{"android":"levelo://app?vid=8be463ff-d01d-44b7-8a56-2c571e22c6aa","ios":"levelo://app?vid=8be463ff-d01d-44b7-8a56-2c571e22c6aa"},"vehicle_type_id":"4","last_reported":1776932851,"current_range_meters":8400,"station_id":"ce4bgup2rcd13ifvqco0","pricing_plan_id":"cebpf4jnsgd1na2vs0mg"},{"bike_id":"150dfd24-ad53-44d8-a454-937d2631c502","system_id":"levelo_inurba_marseille","lat":43.31892,"lon":5.36817,"is_reserved":false,"is_disabled":false,"rental_uris":{"android":"levelo://app?vid=150dfd24-ad53-44d8-a454-937d2631c502","ios":"levelo://app?vid=150dfd24-ad53-44d8-a454-937d2631c502"},"vehicle_type_id":"4","last_reported":1776932851,"current_range_meters":8400,"station_id":"st_d6o2h0d0559c73evc1b0","pricing_plan_id":"cebpf4jnsgd1na2vs0mg"},{"bike_id":"466b9cd9-0deb-4b9b-b01a-72f0529a774e","system_id":"levelo_inurba_marseille","lat":43.28416,"lon":5.37511,"is_reserved":false,"is_disabled":true,"rental_uris":{"android":"levelo://app?vid=466b9cd9-0deb-4b9b-b01a-72f0529a774e","ios":"levelo://app?vid=466b9cd9-0deb-4b9b-b01a-72f0529a774e"},"vehicle_type_id":"4","last_reported":1776932851,"current_range_meters":8400,"station_id":"ce4bh412rcd13ifvqds0","pricing_plan_id":"cebpf4jnsgd1na2vs0mg"},{"bike_id":"afa86917-9d63-4702-abb0-d59d11e5b79a","system_id":"levelo_inurba_marseille","lat":43.3048,"lon":5.379,"is_reserved":false,"is_disabled":false,"rental_uris":{"android":"levelo://app?vid=afa86917-9d63-4702-abb0-d59d11e5b79a","ios":"levelo://app?vid=afa86917-9d63-4702-abb0-d59d11e5b79a"},"vehicle_type_id":"4","last_reported":1776932851,"current_range_meters":8400,"station_id":"ce4bgup2rcd13ifvqcn0","pricing_plan_id":"cebpf4jnsgd1na2vs0mg"},{"bike_id":"4fc5c00c-81fb-407a-a0b6-31cf5174cbee","system_id":"levelo_inurba_marseille","lat":43.29051,"lon":5.39976,"is_reserved":false,"is_disabled":false,"rental_uris":{"android":"levelo://app?vid=4fc5c00c-81fb-407a-a0b6-31cf5174cbee","ios":"levelo://app?vid=4fc5c00c-81fb-407a-a0b6-31cf5174cbee"},"vehicle_type_id":"4","last_reported":1776932851,"current_range_meters":8400,"station_id":"ce4bh392rcd13ifvqdm0","pricing_plan_id":"cebpf4jnsgd1na2vs0mg"},{"bike_id":"52d848d3-e124-40a2-855d-fb7f07415aa4","system_id":"levelo_inurba_marseille","lat":43.28415,"lon":5.37535,"is_reserved":false,"is_disabled":true,"rental_uris":{"android":"levelo://app?vid=52d848d3-e124-40a2-855d-fb7f07415aa4","ios":"levelo://app?vid=52d848d3-e124-40a2-855d-fb7f07415aa4"},"vehicle_type_id":"4","last_reported":1776932851,"current_range_meters":8400,"station_id":"ce4bh412rcd13ifvqds0","pricing_plan_id":"cebpf4jnsgd1na2vs0mg"},{"bike_id":"cfe7238a-0ca3-41a7-b1d5-287191ada9d4","system_id":"levelo_inurba_marseille","lat":43.29273,"lon":5.36832,"is_reserved":false,"is_disabled":false,"rental_uris":{"android":"levelo://app?vid=cfe7238a-0ca3-41a7-b1d5-287191ada9d4","ios":"levelo://app?vid=cfe7238a-0ca3-41a7-b1d5-287191ada9d4"},"vehicle_type_id":"4","last_reported":1776932851,"current_range_meters":8400,"station_id":"ce4bhbp2rcd13ifvqesg","pricing_plan_id":"cebpf4jnsgd1na2vs0mg"},{"bike_id":"b10e388b-a119-4b7b-87b2-c9ca007b4026","system_id":"levelo_inurba_marseille","lat":43.3262,"lon":5.35916,"is_reserved":false,"is_disabled":false,"rental_uris":{"android":"levelo://app?vid=b10e388b-a119-4b7b-87b2-c9ca007b4026","ios":"levelo://app?vid=b10e388b-a119-4b7b-87b2-c9ca007b4026"},"vehicle_type_id":"4","last_reported":1776932851,"current_range_meters":8400,"station_id":"","pricing_plan_id":"cebpf4jnsgd1na2vs0mg"},{"bike_id":"9c3677d0-627f-49f8-bd9c-64ba96ef4fce","system_id":"levelo_inurba_marseille","lat":43.28473,"lon":5.48398,"is_reserved":false,"is_disabled":false,"rental_uris":{"android":"levelo://app?vid=9c3677d0-627f-49f8-bd9c-64ba96ef4fce","ios":"levelo://app?vid=9c3677d0-627f-49f8-bd9c-64ba96ef4fce"},"vehicle_type_id":"4","last_reported":1776932851,"current_range_meters":8400,"station_id":"","pricing_plan_id":"cebpf4jnsgd1na2vs0mg"},{"bike_id":"5ffcf573-e1dc-4f63-a31b-04781cc66d0d","system_id":"levelo_inurba_marseille","lat":43.32358,"lon":5.3674,"is_reserved":false,"is_disabled":false,"rental_uris":{"android":"levelo://app?vid=5ffcf573-e1dc-4f63-a31b-04781cc66d0d","ios":"levelo://app?vid=5ffcf573-e1dc-4f63-a31b-04781cc66d0d"},"vehicle_type_id":"4","last_reported":1776932851,"current_range_meters":8400,"station_id":"ce4bhsh2rcd13ifvqi2g","pricing_plan_id":"cebpf4jnsgd1na2vs0mg"},{"bike_id":"c366be47-591a-4881-84b3-6ecaca0c6af3","system_id":"levelo_inurba_marseille","lat":43.330238,"lon":5.390502,"is_reserved":false,"is_disabled":false,"rental_uris":{"android":"levelo://app?vid=c366be47-591a-4881-84b3-6ecaca0c6af3","ios":"levelo://app?vid=c366be47-591a-4881-84b3-6ecaca0c6af3"},"vehicle_type_id":"4","last_reported":1776932851,"current_range_meters":8400,"station_id":"","pricing_plan_id":"cebpf4jnsgd1na2vs0mg"},{"bike_id":"ad12cdf9-4cc5-438a-abe4-405e7b6c584f","system_id":"levelo_inurba_marseille","lat":43.26678,"lon":5.38265,"is_reserved":false,"is_disabled":false,"rental_uris":{"android":"levelo://app?vid=ad12cdf9-4cc5-438a-abe4-405e7b6c584f","ios":"levelo://app?vid=ad12cdf9-4cc5-438a-abe4-405e7b6c584f"},"vehicle_type_id":"4","last_reported":1776932851,"current_range_meters":8400,"station_id":"ce4bhg92rcd13ifvqf90","pricing_plan_id":"cebpf4jnsgd1na2vs0mg"},{"bike_id":"97bf2647-4dc9-4af0-a122-9537e99d4241","system_id":"levelo_inurba_marseille","lat":43.2737,"lon":5.36254,"is_reserved":false,"is_disabled":false,"rental_uris":{"android":"levelo://app?vid=97bf2647-4dc9-4af0-a122-9537e99d4241","ios":"levelo://app?vid=97bf2647-4dc9-4af0-a122-9537e99d4241"},"vehicle_type_id":"4","last_reported":1776932851,"current_range_meters":8400,"station_id":"ce4bhbh2rcd13ifvqeo0","pricing_plan_id":"cebpf4jnsgd1na2vs0mg"},{"bike_id":"7db8e5f3-3982-4808-8fb4-746a2f23f4b1","system_id":"levelo_inurba_marseille","lat":43.29342,"lon":5.4389,"is_reserved":false,"is_disabled":false,"rental_uris":{"android":"levelo://app?vid=7db8e5f3-3982-4808-8fb4-746a2f23f4b1","ios":"levelo://app?vid=7db8e5f3-3982-4808-8fb4-746a2f23f4b1"},"vehicle_type_id":"4","last_reported":1776932851,"current_range_meters":8800,"station_id":"","pricing_plan_id":"cebpf4jnsgd1na2vs0mg"},{"bike_id":"1f812c79-a1cc-4770-94e4-c447fae650ce","system_id":"levelo_inurba_marseille","lat":43.28584,"lon":5.38986,"is_reserved":false,"is_disabled":false,"rental_uris":{"android":"levelo://app?vid=1f812c79-a1cc-4770-94e4-c447fae650ce","ios":"levelo://app?vid=1f812c79-a1cc-4770-94e4-c447fae650ce"},"vehicle_type_id":"4","last_reported":1776932851,"current_range_meters":8800,"station_id":"","pricing_plan_id":"cebpf4jnsgd1na2vs0mg"},{"bike_id":"8db75b79-5718-462d-b907-a22490118526","system_id":"levelo_inurba_marseille","lat":43.2782,"lon":5.40684,"is_reserved":false,"is_disabled":false,"rental_uris":{"android":"levelo://app?vid=8db75b79-5718-462d-b907-a22490118526","ios":"levelo://app?vid=8db75b79-5718-462d-b907-a22490118526"},"vehicle_type_id":"4","last_reported":1776932851,"current_range_meters":8800,"station_id":"ce4bhnh2rcd13ifvqgtg","pricing_plan_id":"cebpf4jnsgd1na2vs0mg"},{"bike_id":"b94479fe-5fb6-49b6-bbd0-4794bc39cdce","system_id":"levelo_inurba_marseille","lat":43.29185,"lon":5.35777,"is_reserved":false,"is_disabled":false,"rental_uris":{"android":"levelo://app?vid=b94479fe-5fb6-49b6-bbd0-4794bc39cdce","ios":"levelo://app?vid=b94479fe-5fb6-49b6-bbd0-4794bc39cdce"},"vehicle_type_id":"4","last_reported":1776932851,"current_range_meters":8800,"station_id":"ce4bhb12rcd13ifvqel0","pricing_plan_id":"cebpf4jnsgd1na2vs0mg"},{"bike_id":"fcf51bf8-7bd0-4289-aaac-a9a01c559fe1","system_id":"levelo_inurba_marseille","lat":43.29051,"lon":5.37144,"is_reserved":false,"is_disabled":false,"rental_uris":{"android":"levelo://app?vid=fcf51bf8-7bd0-4289-aaac-a9a01c559fe1","ios":"levelo://app?vid=fcf51bf8-7bd0-4289-aaac-a9a01c559fe1"},"vehicle_type_id":"4","last_reported":1776932851,"current_range_meters":8800,"station_id":"ce4bh5p2rcd13ifvqe4g","pricing_plan_id":"cebpf4jnsgd1na2vs0mg"},{"bike_id":"d923af67-0f64-4ffe-8544-94f3ea3ea2db","system_id":"levelo_inurba_marseille","lat":43.29036,"lon":5.39969,"is_reserved":false,"is_disabled":false,"rental_uris":{"android":"levelo://app?vid=d923af67-0f64-4ffe-8544-94f3ea3ea2db","ios":"levelo://app?vid=d923af67-0f64-4ffe-8544-94f3ea3ea2db"},"vehicle_type_id":"4","last_reported":1776932851,"current_range_meters":8800,"station_id":"ce4bh392rcd13ifvqdm0","pricing_plan_id":"cebpf4jnsgd1na2vs0mg"},{"bike_id":"0f57f6fa-bc89-4215-a76c-5f96b1f6690f","system_id":"levelo_inurba_marseille","lat":43.2619,"lon":5.37468,"is_reserved":false,"is_disabled":false,"rental_uris":{"android":"levelo://app?vid=0f57f6fa-bc89-4215-a76c-5f96b1f6690f","ios":"levelo://app?vid=0f57f6fa-bc89-4215-a76c-5f96b1f6690f"},"vehicle_type_id":"4","last_reported":1776932851,"current_range_meters":8800,"station_id":"ce4bhgp2rcd13ifvqfc0","pricing_plan_id":"cebpf4jnsgd1na2vs0mg"},{"bike_id":"c7041db6-efe9-470b-b3aa-61638cf7bac3","system_id":"levelo_inurba_marseille","lat":43.33543,"lon":5.37463,"is_reserved":false,"is_disabled":false,"rental_uris":{"android":"levelo://app?vid=c7041db6-efe9-470b-b3aa-61638cf7bac3","ios":"levelo://app?vid=c7041db6-efe9-470b-b3aa-61638cf7bac3"},"vehicle_type_id":"4","last_reported":1776932851,"current_range_meters":8800,"station_id":"st_d46tts09ee8s73dlu43g","pricing_plan_id":"cebpf4jnsgd1na2vs0mg"},{"bike_id":"67fedc0c-5193-4aaf-9f8e-99baeae8e7d4","system_id":"levelo_inurba_marseille","lat":43.30951,"lon":5.39032,"is_reserved":false,"is_disabled":false,"rental_uris":{"android":"levelo://app?vid=67fedc0c-5193-4aaf-9f8e-99baeae8e7d4","ios":"levelo://app?vid=67fedc0c-5193-4aaf-9f8e-99baeae8e7d4"},"vehicle_type_id":"4","last_reported":1776932851,"current_range_meters":8800,"station_id":"ce4bgup2rcd13ifvqco0","pricing_plan_id":"cebpf4jnsgd1na2vs0mg"},{"bike_id":"727e2336-b8fc-4c6d-8445-8ebca071b47a","system_id":"levelo_inurba_marseille","lat":43.29883,"lon":5.38914,"is_reserved":false,"is_disabled":false,"rental_uris":{"android":"levelo://app?vid=727e2336-b8fc-4c6d-8445-8ebca071b47a","ios":"levelo://app?vid=727e2336-b8fc-4c6d-8445-8ebca071b47a"},"vehicle_type_id":"4","last_reported":1776932851,"current_range_meters":8800,"station_id":"ce4bh392rcd13ifvqdl0","pricing_plan_id":"cebpf4jnsgd1na2vs0mg"},{"bike_id":"68e56175-b857-46c2-b84f-8591cfaf3283","system_id":"levelo_inurba_marseille","lat":43.2396,"lon":5.36621,"is_reserved":false,"is_disabled":false,"rental_uris":{"android":"levelo://app?vid=68e56175-b857-46c2-b84f-8591cfaf3283","ios":"levelo://app?vid=68e56175-b857-46c2-b84f-8591cfaf3283"},"vehicle_type_id":"4","last_reported":1776932851,"current_range_meters":8800,"station_id":"ce4bhi12rcd13ifvqfp0","pricing_plan_id":"cebpf4jnsgd1na2vs0mg"},{"bike_id":"7c785f2f-fe9b-43b3-a93c-b64a4c8daf77","system_id":"levelo_inurba_marseille","lat":43.29755,"lon":5.42771,"is_reserved":false,"is_disabled":false,"rental_uris":{"android":"levelo://app?vid=7c785f2f-fe9b-43b3-a93c-b64a4c8daf77","ios":"levelo://app?vid=7c785f2f-fe9b-43b3-a93c-b64a4c8daf77"},"vehicle_type_id":"4","last_reported":1776932851,"current_range_meters":8800,"station_id":"st_d3md5207bmas73dh9klg","pricing_plan_id":"cebpf4jnsgd1na2vs0mg"},{"bike_id":"a3e98e0c-f73d-40e8-840a-86f771861f41","system_id":"levelo_inurba_marseille","lat":43.27963,"lon":5.3874,"is_reserved":false,"is_disabled":false,"rental_uris":{"android":"levelo://app?vid=a3e98e0c-f73d-40e8-840a-86f771861f41","ios":"levelo://app?vid=a3e98e0c-f73d-40e8-840a-86f771861f41"},"vehicle_type_id":"4","last_reported":1776932851,"current_range_meters":8800,"station_id":"ce4bhg12rcd13ifvqf80","pricing_plan_id":"cebpf4jnsgd1na2vs0mg"},{"bike_id":"f10d08dd-9a43-4f0e-b028-3b80378942c3","system_id":"levelo_inurba_marseille","lat":43.32477,"lon":5.36569,"is_reserved":false,"is_disabled":false,"rental_uris":{"android":"levelo://app?vid=f10d08dd-9a43-4f0e-b028-3b80378942c3","ios":"levelo://app?vid=f10d08dd-9a43-4f0e-b028-3b80378942c3"},"vehicle_type_id":"4","last_reported":1776932851,"current_range_meters":8800,"station_id":"ce4bhs12rcd13ifvqhvg","pricing_plan_id":"cebpf4jnsgd1na2vs0mg"},{"bike_id":"6843e882-7c36-4091-90e8-5bc86219a69e","system_id":"levelo_inurba_marseille","lat":43.29648,"lon":5.37535,"is_reserved":false,"is_disabled":false,"rental_uris":{"android":"levelo://app?vid=6843e882-7c36-4091-90e8-5bc86219a69e","ios":"levelo://app?vid=6843e882-7c36-4091-90e8-5bc86219a69e"},"vehicle_type_id":"4","last_reported":1776932851,"current_range_meters":8800,"station_id":"","pricing_plan_id":"cebpf4jnsgd1na2vs0mg"},{"bike_id":"a44684de-5b58-4e58-8e3d-63bf5aaee796","system_id":"levelo_inurba_marseille","lat":43.27983,"lon":5.38705,"is_reserved":false,"is_disabled":false,"rental_uris":{"android":"levelo://app?vid=a44684de-5b58-4e58-8e3d-63bf5aaee796","ios":"levelo://app?vid=a44684de-5b58-4e58-8e3d-63bf5aaee796"},"vehicle_type_id":"4","last_reported":1776932851,"current_range_meters":8800,"station_id":"ce4bhg12rcd13ifvqf80","pricing_plan_id":"cebpf4jnsgd1na2vs0mg"},{"bike_id":"e3e9e264-898c-4144-81c8-feef46976ec6","system_id":"levelo_inurba_marseille","lat":43.27522,"lon":5.38987,"is_reserved":false,"is_disabled":false,"rental_uris":{"android":"levelo://app?vid=e3e9e264-898c-4144-81c8-feef46976ec6","ios":"levelo://app?vid=e3e9e264-898c-4144-81c8-feef46976ec6"},"vehicle_type_id":"4","last_reported":1776932851,"current_range_meters":8800,"station_id":"","pricing_plan_id":"cebpf4jnsgd1na2vs0mg"},{"bike_id":"b1878473-b722-45ed-99b4-ccac71814f28","system_id":"levelo_inurba_marseille","lat":43.30373,"lon":5.42495,"is_reserved":false,"is_disabled":false,"rental_uris":{"android":"levelo://app?vid=b1878473-b722-45ed-99b4-ccac71814f28","ios":"levelo://app?vid=b1878473-b722-45ed-99b4-ccac71814f28"},"vehicle_type_id":"4","last_reported":1776932851,"current_range_meters":8800,"station_id":"ce4bhoh2rcd13ifvqh6g","pricing_plan_id":"cebpf4jnsgd1na2vs0mg"},{"bike_id":"5f38b8b9-3468-430d-99e9-3e178a951380","system_id":"levelo_inurba_marseille","lat":43.31428,"lon":5.37076,"is_reserved":false,"is_disabled":false,"rental_uris":{"android":"levelo://app?vid=5f38b8b9-3468-430d-99e9-3e178a951380","ios":"levelo://app?vid=5f38b8b9-3468-430d-99e9-3e178a951380"},"vehicle_type_id":"4","last_reported":1776932851,"current_range_meters":8800,"station_id":"","pricing_plan_id":"cebpf4jnsgd1na2vs0mg"},{"bike_id":"8f975cf4-69f4-4fd4-8c34-d7df8df21514","system_id":"levelo_inurba_marseille","lat":43.33763,"lon":5.37459,"is_reserved":false,"is_disabled":false,"rental_uris":{"android":"levelo://app?vid=8f975cf4-69f4-4fd4-8c34-d7df8df21514","ios":"levelo://app?vid=8f975cf4-69f4-4fd4-8c34-d7df8df21514"},"vehicle_type_id":"4","last_reported":1776932851,"current_range_meters":9200,"station_id":"st_d46cu089ee8s73dldbu0","pricing_plan_id":"cebpf4jnsgd1na2vs0mg"},{"bike_id":"fc7363fe-b04d-489a-9727-90ca30e7bca6","system_id":"levelo_inurba_marseille","lat":43.32103,"lon":5.36779,"is_reserved":false,"is_disabled":false,"rental_uris":{"android":"levelo://app?vid=fc7363fe-b04d-489a-9727-90ca30e7bca6","ios":"levelo://app?vid=fc7363fe-b04d-489a-9727-90ca30e7bca6"},"vehicle_type_id":"4","last_reported":1776932851,"current_range_meters":9200,"station_id":"ce4bhrh2rcd13ifvqhug","pricing_plan_id":"cebpf4jnsgd1na2vs0mg"},{"bike_id":"75f433ca-3df0-4831-9633-bf7b5e16ebc1","system_id":"levelo_inurba_marseille","lat":43.30928,"lon":5.40192,"is_reserved":false,"is_disabled":false,"rental_uris":{"android":"levelo://app?vid=75f433ca-3df0-4831-9633-bf7b5e16ebc1","ios":"levelo://app?vid=75f433ca-3df0-4831-9633-bf7b5e16ebc1"},"vehicle_type_id":"4","last_reported":1776932851,"current_range_meters":9200,"station_id":"ce4bgvp2rcd13ifvqct0","pricing_plan_id":"cebpf4jnsgd1na2vs0mg"},{"bike_id":"89cb976b-df3a-46fc-a9ef-0025de561630","system_id":"levelo_inurba_marseille","lat":43.2944,"lon":5.43404,"is_reserved":false,"is_disabled":false,"rental_uris":{"android":"levelo://app?vid=89cb976b-df3a-46fc-a9ef-0025de561630","ios":"levelo://app?vid=89cb976b-df3a-46fc-a9ef-0025de561630"},"vehicle_type_id":"4","last_reported":1776932851,"current_range_meters":9200,"station_id":"","pricing_plan_id":"cebpf4jnsgd1na2vs0mg"},{"bike_id":"3ab04e0a-3ab2-4266-b34a-546ec1625124","system_id":"levelo_inurba_marseille","lat":43.2985,"lon":5.36283,"is_reserved":false,"is_disabled":false,"rental_uris":{"android":"levelo://app?vid=3ab04e0a-3ab2-4266-b34a-546ec1625124","ios":"levelo://app?vid=3ab04e0a-3ab2-4266-b34a-546ec1625124"},"vehicle_type_id":"4","last_reported":1776932851,"current_range_meters":9200,"station_id":"ce4bgpp2rcd13ifvqc3g","pricing_plan_id":"cebpf4jnsgd1na2vs0mg"},{"bike_id":"4de17bc6-89e3-477e-b750-bdb1a8bcc0f2","system_id":"levelo_inurba_marseille","lat":43.28721,"lon":5.3794,"is_reserved":false,"is_disabled":false,"rental_uris":{"android":"levelo://app?vid=4de17bc6-89e3-477e-b750-bdb1a8bcc0f2","ios":"levelo://app?vid=4de17bc6-89e3-477e-b750-bdb1a8bcc0f2"},"vehicle_type_id":"4","last_reported":1776932851,"current_range_meters":9200,"station_id":"ce4bh9p2rcd13ifvqec0","pricing_plan_id":"cebpf4jnsgd1na2vs0mg"},{"bike_id":"317213aa-694d-4877-9dcc-586bcc282c8c","system_id":"levelo_inurba_marseille","lat":43.28699,"lon":5.46678,"is_reserved":false,"is_disabled":false,"rental_uris":{"android":"levelo://app?vid=317213aa-694d-4877-9dcc-586bcc282c8c","ios":"levelo://app?vid=317213aa-694d-4877-9dcc-586bcc282c8c"},"vehicle_type_id":"4","last_reported":1776932851,"current_range_meters":9200,"station_id":"st_d6tc3vkotcvc738tfjhg","pricing_plan_id":"cebpf4jnsgd1na2vs0mg"},{"bike_id":"fda817eb-235e-48d5-b407-48260e4ef3fa","system_id":"levelo_inurba_marseille","lat":43.237817,"lon":5.436017,"is_reserved":false,"is_disabled":false,"rental_uris":{"android":"levelo://app?vid=fda817eb-235e-48d5-b407-48260e4ef3fa","ios":"levelo://app?vid=fda817eb-235e-48d5-b407-48260e4ef3fa"},"vehicle_type_id":"4","last_reported":1776932851,"current_range_meters":9600,"station_id":"ce4bhh12rcd13ifvqfg0","pricing_plan_id":"cebpf4jnsgd1na2vs0mg"},{"bike_id":"ba0f19f9-bc38-4c7c-aba0-3dad327ba6be","system_id":"levelo_inurba_marseille","lat":43.31358,"lon":5.36696,"is_reserved":false,"is_disabled":false,"rental_uris":{"android":"levelo://app?vid=ba0f19f9-bc38-4c7c-aba0-3dad327ba6be","ios":"levelo://app?vid=ba0f19f9-bc38-4c7c-aba0-3dad327ba6be"},"vehicle_type_id":"4","last_reported":1776932851,"current_range_meters":9600,"station_id":"ce4bgr92rcd13ifvqc6g","pricing_plan_id":"cebpf4jnsgd1na2vs0mg"},{"bike_id":"e9f4f378-08cd-415c-9181-1f5b698127ae","system_id":"levelo_inurba_marseille","lat":43.26959,"lon":5.38623,"is_reserved":false,"is_disabled":false,"rental_uris":{"android":"levelo://app?vid=e9f4f378-08cd-415c-9181-1f5b698127ae","ios":"levelo://app?vid=e9f4f378-08cd-415c-9181-1f5b698127ae"},"vehicle_type_id":"4","last_reported":1776932851,"current_range_meters":9600,"station_id":"ce4bhh92rcd13ifvqfh0","pricing_plan_id":"cebpf4jnsgd1na2vs0mg"},{"bike_id":"6efae23b-4853-4978-a046-e2118aa389db","system_id":"levelo_inurba_marseille","lat":43.29462,"lon":5.38214,"is_reserved":false,"is_disabled":false,"rental_uris":{"android":"levelo://app?vid=6efae23b-4853-4978-a046-e2118aa389db","ios":"levelo://app?vid=6efae23b-4853-4978-a046-e2118aa389db"},"vehicle_type_id":"4","last_reported":1776932851,"current_range_meters":9600,"station_id":"","pricing_plan_id":"cebpf4jnsgd1na2vs0mg"},{"bike_id":"a15cdab9-680f-4286-8f38-4a3449c3e787","system_id":"levelo_inurba_marseille","lat":43.2815,"lon":5.42641,"is_reserved":false,"is_disabled":false,"rental_uris":{"android":"levelo://app?vid=a15cdab9-680f-4286-8f38-4a3449c3e787","ios":"levelo://app?vid=a15cdab9-680f-4286-8f38-4a3449c3e787"},"vehicle_type_id":"4","last_reported":1776932851,"current_range_meters":9600,"station_id":"ce4bhnh2rcd13ifvqgug","pricing_plan_id":"cebpf4jnsgd1na2vs0mg"},{"bike_id":"63fe0f88-9c23-4539-8e22-fe4404d70bb6","system_id":"levelo_inurba_marseille","lat":43.30519,"lon":5.36532,"is_reserved":false,"is_disabled":false,"rental_uris":{"android":"levelo://app?vid=63fe0f88-9c23-4539-8e22-fe4404d70bb6","ios":"levelo://app?vid=63fe0f88-9c23-4539-8e22-fe4404d70bb6"},"vehicle_type_id":"4","last_reported":1776932851,"current_range_meters":9600,"station_id":"","pricing_plan_id":"cebpf4jnsgd1na2vs0mg"},{"bike_id":"35a6dbb5-1f6c-499d-b0dc-f3a5b44380bf","system_id":"levelo_inurba_marseille","lat":43.32487,"lon":5.38274,"is_reserved":false,"is_disabled":false,"rental_uris":{"android":"levelo://app?vid=35a6dbb5-1f6c-499d-b0dc-f3a5b44380bf","ios":"levelo://app?vid=35a6dbb5-1f6c-499d-b0dc-f3a5b44380bf"},"vehicle_type_id":"4","last_reported":1776932851,"current_range_meters":9600,"station_id":"st_d4asgbiv49dc73anf9m0","pricing_plan_id":"cebpf4jnsgd1na2vs0mg"},{"bike_id":"35a9c97c-b85e-449d-99bb-1116c761abbd","system_id":"levelo_inurba_marseille","lat":43.32345,"lon":5.36735,"is_reserved":false,"is_disabled":false,"rental_uris":{"android":"levelo://app?vid=35a9c97c-b85e-449d-99bb-1116c761abbd","ios":"levelo://app?vid=35a9c97c-b85e-449d-99bb-1116c761abbd"},"vehicle_type_id":"4","last_reported":1776932851,"current_range_meters":9600,"station_id":"ce4bhsh2rcd13ifvqi2g","pricing_plan_id":"cebpf4jnsgd1na2vs0mg"},{"bike_id":"873038f8-52d6-4618-968d-d955136c8dae","system_id":"levelo_inurba_marseille","lat":43.28081,"lon":5.37836,"is_reserved":false,"is_disabled":true,"rental_uris":{"android":"levelo://app?vid=873038f8-52d6-4618-968d-d955136c8dae","ios":"levelo://app?vid=873038f8-52d6-4618-968d-d955136c8dae"},"vehicle_type_id":"4","last_reported":1776932851,"current_range_meters":9600,"station_id":"ce4bha12rcd13ifvqee0","pricing_plan_id":"cebpf4jnsgd1na2vs0mg"},{"bike_id":"defda785-852e-4e05-846c-d893bba2d686","system_id":"levelo_inurba_marseille","lat":43.33601,"lon":5.41014,"is_reserved":false,"is_disabled":false,"rental_uris":{"android":"levelo://app?vid=defda785-852e-4e05-846c-d893bba2d686","ios":"levelo://app?vid=defda785-852e-4e05-846c-d893bba2d686"},"vehicle_type_id":"4","last_reported":1776932851,"current_range_meters":9600,"station_id":"ce4bhqh2rcd13ifvqhmg","pricing_plan_id":"cebpf4jnsgd1na2vs0mg"},{"bike_id":"77bae04d-b155-4a06-9049-fda6a4b9e974","system_id":"levelo_inurba_marseille","lat":43.29147,"lon":5.42616,"is_reserved":false,"is_disabled":false,"rental_uris":{"android":"levelo://app?vid=77bae04d-b155-4a06-9049-fda6a4b9e974","ios":"levelo://app?vid=77bae04d-b155-4a06-9049-fda6a4b9e974"},"vehicle_type_id":"4","last_reported":1776932851,"current_range_meters":10000,"station_id":"","pricing_plan_id":"cebpf4jnsgd1na2vs0mg"},{"bike_id":"85c14748-98f2-459f-be93-9d3116acd8db","system_id":"levelo_inurba_marseille","lat":43.289842,"lon":5.366322,"is_reserved":false,"is_disabled":false,"rental_uris":{"android":"levelo://app?vid=85c14748-98f2-459f-be93-9d3116acd8db","ios":"levelo://app?vid=85c14748-98f2-459f-be93-9d3116acd8db"},"vehicle_type_id":"4","last_reported":1776932851,"current_range_meters":10000,"station_id":"ce4bhap2rcd13ifvqek0","pricing_plan_id":"cebpf4jnsgd1na2vs0mg"},{"bike_id":"ccf9364e-5060-405b-9427-da49c47aa005","system_id":"levelo_inurba_marseille","lat":43.33153,"lon":5.37691,"is_reserved":false,"is_disabled":false,"rental_uris":{"android":"levelo://app?vid=ccf9364e-5060-405b-9427-da49c47aa005","ios":"levelo://app?vid=ccf9364e-5060-405b-9427-da49c47aa005"},"vehicle_type_id":"4","last_reported":1776932851,"current_range_meters":10000,"station_id":"st_d46cu089ee8s73dldbu0","pricing_plan_id":"cebpf4jnsgd1na2vs0mg"},{"bike_id":"6be6441c-b049-4a85-9177-c93c57faae31","system_id":"levelo_inurba_marseille","lat":43.25818,"lon":5.3944,"is_reserved":false,"is_disabled":false,"rental_uris":{"android":"levelo://app?vid=6be6441c-b049-4a85-9177-c93c57faae31","ios":"levelo://app?vid=6be6441c-b049-4a85-9177-c93c57faae31"},"vehicle_type_id":"4","last_reported":1776932851,"current_range_meters":10000,"station_id":"ce4bhip2rcd13ifvqft0","pricing_plan_id":"cebpf4jnsgd1na2vs0mg"},{"bike_id":"d3ee5326-29bd-49b4-8d14-2cbd41904530","system_id":"levelo_inurba_marseille","lat":43.29962,"lon":5.41327,"is_reserved":false,"is_disabled":false,"rental_uris":{"android":"levelo://app?vid=d3ee5326-29bd-49b4-8d14-2cbd41904530","ios":"levelo://app?vid=d3ee5326-29bd-49b4-8d14-2cbd41904530"},"vehicle_type_id":"4","last_reported":1776932851,"current_range_meters":10000,"station_id":"ce4bhp12rcd13ifvqh9g","pricing_plan_id":"cebpf4jnsgd1na2vs0mg"},{"bike_id":"fb3546c1-d293-4c3c-a9c4-d7b00890bfdb","system_id":"levelo_inurba_marseille","lat":43.32481,"lon":5.36575,"is_reserved":false,"is_disabled":true,"rental_uris":{"android":"levelo://app?vid=fb3546c1-d293-4c3c-a9c4-d7b00890bfdb","ios":"levelo://app?vid=fb3546c1-d293-4c3c-a9c4-d7b00890bfdb"},"vehicle_type_id":"4","last_reported":1776932851,"current_range_meters":10000,"station_id":"ce4bhs12rcd13ifvqhvg","pricing_plan_id":"cebpf4jnsgd1na2vs0mg"},{"bike_id":"1509da93-4291-4e7a-9f0f-3c00ac792bf0","system_id":"levelo_inurba_marseille","lat":43.30595,"lon":5.37242,"is_reserved":false,"is_disabled":false,"rental_uris":{"android":"levelo://app?vid=1509da93-4291-4e7a-9f0f-3c00ac792bf0","ios":"levelo://app?vid=1509da93-4291-4e7a-9f0f-3c00ac792bf0"},"vehicle_type_id":"4","last_reported":1776932851,"current_range_meters":10000,"station_id":"ce4bgqh2rcd13ifvqc4g","pricing_plan_id":"cebpf4jnsgd1na2vs0mg"},{"bike_id":"2d226bc0-d360-4472-bc45-a0a64b909ef8","system_id":"levelo_inurba_marseille","lat":43.33534,"lon":5.37463,"is_reserved":false,"is_disabled":false,"rental_uris":{"android":"levelo://app?vid=2d226bc0-d360-4472-bc45-a0a64b909ef8","ios":"levelo://app?vid=2d226bc0-d360-4472-bc45-a0a64b909ef8"},"vehicle_type_id":"4","last_reported":1776932851,"current_range_meters":10000,"station_id":"st_d46tts09ee8s73dlu43g","pricing_plan_id":"cebpf4jnsgd1na2vs0mg"},{"bike_id":"e6cb6647-3e72-422a-86c7-56e5bf4979b7","system_id":"levelo_inurba_marseille","lat":43.28717,"lon":5.46639,"is_reserved":false,"is_disabled":false,"rental_uris":{"android":"levelo://app?vid=e6cb6647-3e72-422a-86c7-56e5bf4979b7","ios":"levelo://app?vid=e6cb6647-3e72-422a-86c7-56e5bf4979b7"},"vehicle_type_id":"4","last_reported":1776932851,"current_range_meters":10000,"station_id":"st_d6tc3vkotcvc738tfjhg","pricing_plan_id":"cebpf4jnsgd1na2vs0mg"},{"bike_id":"584cdce0-810e-4b55-bd3b-08e2bfb93074","system_id":"levelo_inurba_marseille","lat":43.22559,"lon":5.41633,"is_reserved":false,"is_disabled":false,"rental_uris":{"android":"levelo://app?vid=584cdce0-810e-4b55-bd3b-08e2bfb93074","ios":"levelo://app?vid=584cdce0-810e-4b55-bd3b-08e2bfb93074"},"vehicle_type_id":"4","last_reported":1776932851,"current_range_meters":10000,"station_id":"st_d2o4gvlbi1j2169b742g","pricing_plan_id":"cebpf4jnsgd1na2vs0mg"},{"bike_id":"998c535b-310d-41f7-ac79-e7a5eada4a5d","system_id":"levelo_inurba_marseille","lat":43.301399,"lon":5.38093,"is_reserved":false,"is_disabled":false,"rental_uris":{"android":"levelo://app?vid=998c535b-310d-41f7-ac79-e7a5eada4a5d","ios":"levelo://app?vid=998c535b-310d-41f7-ac79-e7a5eada4a5d"},"vehicle_type_id":"4","last_reported":1776932851,"current_range_meters":10000,"station_id":"ce4bgjp2rcd13ifvqbh0","pricing_plan_id":"cebpf4jnsgd1na2vs0mg"},{"bike_id":"4b431af8-4a48-43fe-951b-c1c4ace2904d","system_id":"levelo_inurba_marseille","lat":43.31065,"lon":5.37166,"is_reserved":false,"is_disabled":false,"rental_uris":{"android":"levelo://app?vid=4b431af8-4a48-43fe-951b-c1c4ace2904d","ios":"levelo://app?vid=4b431af8-4a48-43fe-951b-c1c4ace2904d"},"vehicle_type_id":"4","last_reported":1776932851,"current_range_meters":10000,"station_id":"st_d4kl2rp97mjs73e7tdfg","pricing_plan_id":"cebpf4jnsgd1na2vs0mg"},{"bike_id":"0de634d6-ef21-45ee-ad40-ee6521c576c7","system_id":"levelo_inurba_marseille","lat":43.30909,"lon":5.36843,"is_reserved":false,"is_disabled":false,"rental_uris":{"android":"levelo://app?vid=0de634d6-ef21-45ee-ad40-ee6521c576c7","ios":"levelo://app?vid=0de634d6-ef21-45ee-ad40-ee6521c576c7"},"vehicle_type_id":"4","last_reported":1776932851,"current_range_meters":10000,"station_id":"ce4bgn92rcd13ifvqbvg","pricing_plan_id":"cebpf4jnsgd1na2vs0mg"},{"bike_id":"9e5fd21b-18a9-4a14-a82f-e21eea85b2e6","system_id":"levelo_inurba_marseille","lat":43.23383,"lon":5.41214,"is_reserved":false,"is_disabled":false,"rental_uris":{"android":"levelo://app?vid=9e5fd21b-18a9-4a14-a82f-e21eea85b2e6","ios":"levelo://app?vid=9e5fd21b-18a9-4a14-a82f-e21eea85b2e6"},"vehicle_type_id":"4","last_reported":1776932851,"current_range_meters":10000,"station_id":"st_d75pvndhf9lc73cqq3eg","pricing_plan_id":"cebpf4jnsgd1na2vs0mg"},{"bike_id":"768abb91-8be4-4d81-b498-ec9507b98665","system_id":"levelo_inurba_marseille","lat":43.2639,"lon":5.42291,"is_reserved":false,"is_disabled":false,"rental_uris":{"android":"levelo://app?vid=768abb91-8be4-4d81-b498-ec9507b98665","ios":"levelo://app?vid=768abb91-8be4-4d81-b498-ec9507b98665"},"vehicle_type_id":"4","last_reported":1776932851,"current_range_meters":10000,"station_id":"","pricing_plan_id":"cebpf4jnsgd1na2vs0mg"},{"bike_id":"af782dc0-eb75-4fbb-9cdd-f600b3e5f660","system_id":"levelo_inurba_marseille","lat":43.29888,"lon":5.39742,"is_reserved":false,"is_disabled":true,"rental_uris":{"android":"levelo://app?vid=af782dc0-eb75-4fbb-9cdd-f600b3e5f660","ios":"levelo://app?vid=af782dc0-eb75-4fbb-9cdd-f600b3e5f660"},"vehicle_type_id":"4","last_reported":1776932851,"current_range_meters":10800,"station_id":"ce4bh0h2rcd13ifvqd50","pricing_plan_id":"cebpf4jnsgd1na2vs0mg"},{"bike_id":"77c2bd96-8f65-43ef-acf6-16724d6e35ff","system_id":"levelo_inurba_marseille","lat":43.29029,"lon":5.39966,"is_reserved":false,"is_disabled":false,"rental_uris":{"android":"levelo://app?vid=77c2bd96-8f65-43ef-acf6-16724d6e35ff","ios":"levelo://app?vid=77c2bd96-8f65-43ef-acf6-16724d6e35ff"},"vehicle_type_id":"4","last_reported":1776932851,"current_range_meters":10800,"station_id":"ce4bh392rcd13ifvqdm0","pricing_plan_id":"cebpf4jnsgd1na2vs0mg"},{"bike_id":"c4a6cf3f-a5b9-43d7-91d0-4da564433a66","system_id":"levelo_inurba_marseille","lat":43.30135,"lon":5.37398,"is_reserved":false,"is_disabled":false,"rental_uris":{"android":"levelo://app?vid=c4a6cf3f-a5b9-43d7-91d0-4da564433a66","ios":"levelo://app?vid=c4a6cf3f-a5b9-43d7-91d0-4da564433a66"},"vehicle_type_id":"4","last_reported":1776932851,"current_range_meters":10800,"station_id":"ce4bgs92rcd13ifvqcc0","pricing_plan_id":"cebpf4jnsgd1na2vs0mg"},{"bike_id":"da3aa570-f2f0-4f54-8d3b-e27ea10a365e","system_id":"levelo_inurba_marseille","lat":43.30134,"lon":5.37425,"is_reserved":false,"is_disabled":false,"rental_uris":{"android":"levelo://app?vid=da3aa570-f2f0-4f54-8d3b-e27ea10a365e","ios":"levelo://app?vid=da3aa570-f2f0-4f54-8d3b-e27ea10a365e"},"vehicle_type_id":"4","last_reported":1776932851,"current_range_meters":10800,"station_id":"ce4bgs92rcd13ifvqcc0","pricing_plan_id":"cebpf4jnsgd1na2vs0mg"},{"bike_id":"6c321d0a-d3b5-4521-91c1-ad467a63b06a","system_id":"levelo_inurba_marseille","lat":43.29848,"lon":5.36264,"is_reserved":false,"is_disabled":false,"rental_uris":{"android":"levelo://app?vid=6c321d0a-d3b5-4521-91c1-ad467a63b06a","ios":"levelo://app?vid=6c321d0a-d3b5-4521-91c1-ad467a63b06a"},"vehicle_type_id":"4","last_reported":1776932851,"current_range_meters":10800,"station_id":"ce4bgpp2rcd13ifvqc3g","pricing_plan_id":"cebpf4jnsgd1na2vs0mg"},{"bike_id":"e550c78d-b6eb-4600-86c5-369dce3159f6","system_id":"levelo_inurba_marseille","lat":43.29719,"lon":5.37669,"is_reserved":false,"is_disabled":true,"rental_uris":{"android":"levelo://app?vid=e550c78d-b6eb-4600-86c5-369dce3159f6","ios":"levelo://app?vid=e550c78d-b6eb-4600-86c5-369dce3159f6"},"vehicle_type_id":"4","last_reported":1776932851,"current_range_meters":10800,"station_id":"ce4bgkh2rcd13ifvqbl0","pricing_plan_id":"cebpf4jnsgd1na2vs0mg"},{"bike_id":"1b05f883-ee07-4add-a8e8-2c92297ddb00","system_id":"levelo_inurba_marseille","lat":43.29867,"lon":5.36297,"is_reserved":false,"is_disabled":false,"rental_uris":{"android":"levelo://app?vid=1b05f883-ee07-4add-a8e8-2c92297ddb00","ios":"levelo://app?vid=1b05f883-ee07-4add-a8e8-2c92297ddb00"},"vehicle_type_id":"4","last_reported":1776932851,"current_range_meters":10800,"station_id":"ce4bgpp2rcd13ifvqc3g","pricing_plan_id":"cebpf4jnsgd1na2vs0mg"},{"bike_id":"e8d6ce3d-1aa9-47ef-9b48-93862ee5f7fd","system_id":"levelo_inurba_marseille","lat":43.21269,"lon":5.3542,"is_reserved":false,"is_disabled":false,"rental_uris":{"android":"levelo://app?vid=e8d6ce3d-1aa9-47ef-9b48-93862ee5f7fd","ios":"levelo://app?vid=e8d6ce3d-1aa9-47ef-9b48-93862ee5f7fd"},"vehicle_type_id":"4","last_reported":1776932851,"current_range_meters":10800,"station_id":"","pricing_plan_id":"cebpf4jnsgd1na2vs0mg"},{"bike_id":"5135379d-5b69-4fd2-9b65-cdee9657fe1c","system_id":"levelo_inurba_marseille","lat":43.30148,"lon":5.38087,"is_reserved":false,"is_disabled":false,"rental_uris":{"android":"levelo://app?vid=5135379d-5b69-4fd2-9b65-cdee9657fe1c","ios":"levelo://app?vid=5135379d-5b69-4fd2-9b65-cdee9657fe1c"},"vehicle_type_id":"4","last_reported":1776932851,"current_range_meters":10800,"station_id":"ce4bgjp2rcd13ifvqbh0","pricing_plan_id":"cebpf4jnsgd1na2vs0mg"},{"bike_id":"89bfdfdd-26aa-40f0-9b76-46e5c1b7095d","system_id":"levelo_inurba_marseille","lat":43.23149,"lon":5.43727,"is_reserved":false,"is_disabled":false,"rental_uris":{"android":"levelo://app?vid=89bfdfdd-26aa-40f0-9b76-46e5c1b7095d","ios":"levelo://app?vid=89bfdfdd-26aa-40f0-9b76-46e5c1b7095d"},"vehicle_type_id":"4","last_reported":1776932851,"current_range_meters":10800,"station_id":"ce4bhmp2rcd13ifvqgog","pricing_plan_id":"cebpf4jnsgd1na2vs0mg"},{"bike_id":"0055f3f7-cbc3-4fcf-91e2-0e3475f7162d","system_id":"levelo_inurba_marseille","lat":43.31328,"lon":5.36736,"is_reserved":false,"is_disabled":false,"rental_uris":{"android":"levelo://app?vid=0055f3f7-cbc3-4fcf-91e2-0e3475f7162d","ios":"levelo://app?vid=0055f3f7-cbc3-4fcf-91e2-0e3475f7162d"},"vehicle_type_id":"4","last_reported":1776932851,"current_range_meters":10800,"station_id":"ce4bgr92rcd13ifvqc6g","pricing_plan_id":"cebpf4jnsgd1na2vs0mg"},{"bike_id":"ed6c751d-11aa-4980-9be5-d32dd24768fe","system_id":"levelo_inurba_marseille","lat":43.33185,"lon":5.37781,"is_reserved":false,"is_disabled":false,"rental_uris":{"android":"levelo://app?vid=ed6c751d-11aa-4980-9be5-d32dd24768fe","ios":"levelo://app?vid=ed6c751d-11aa-4980-9be5-d32dd24768fe"},"vehicle_type_id":"4","last_reported":1776932851,"current_range_meters":10800,"station_id":"","pricing_plan_id":"cebpf4jnsgd1na2vs0mg"},{"bike_id":"79a054d3-505c-4381-a9c2-8b730b3ec6e5","system_id":"levelo_inurba_marseille","lat":43.29033,"lon":5.37559,"is_reserved":false,"is_disabled":false,"rental_uris":{"android":"levelo://app?vid=79a054d3-505c-4381-a9c2-8b730b3ec6e5","ios":"levelo://app?vid=79a054d3-505c-4381-a9c2-8b730b3ec6e5"},"vehicle_type_id":"4","last_reported":1776932851,"current_range_meters":10800,"station_id":"ce4bh692rcd13ifvqe90","pricing_plan_id":"cebpf4jnsgd1na2vs0mg"},{"bike_id":"635086d1-593d-4987-9ae1-8731ea8eb561","system_id":"levelo_inurba_marseille","lat":43.30167,"lon":5.38084,"is_reserved":false,"is_disabled":false,"rental_uris":{"android":"levelo://app?vid=635086d1-593d-4987-9ae1-8731ea8eb561","ios":"levelo://app?vid=635086d1-593d-4987-9ae1-8731ea8eb561"},"vehicle_type_id":"4","last_reported":1776932851,"current_range_meters":11200,"station_id":"ce4bgjp2rcd13ifvqbh0","pricing_plan_id":"cebpf4jnsgd1na2vs0mg"},{"bike_id":"50f98b8c-4207-4bdc-ae07-106925d85bea","system_id":"levelo_inurba_marseille","lat":43.25936,"lon":5.40868,"is_reserved":false,"is_disabled":false,"rental_uris":{"android":"levelo://app?vid=50f98b8c-4207-4bdc-ae07-106925d85bea","ios":"levelo://app?vid=50f98b8c-4207-4bdc-ae07-106925d85bea"},"vehicle_type_id":"4","last_reported":1776932851,"current_range_meters":11200,"station_id":"ce4bhm92rcd13ifvqglg","pricing_plan_id":"cebpf4jnsgd1na2vs0mg"},{"bike_id":"aafb67e4-bdc8-4500-b490-e4af65a19bdb","system_id":"levelo_inurba_marseille","lat":43.30151,"lon":5.38096,"is_reserved":false,"is_disabled":false,"rental_uris":{"android":"levelo://app?vid=aafb67e4-bdc8-4500-b490-e4af65a19bdb","ios":"levelo://app?vid=aafb67e4-bdc8-4500-b490-e4af65a19bdb"},"vehicle_type_id":"4","last_reported":1776932851,"current_range_meters":11200,"station_id":"ce4bgjp2rcd13ifvqbh0","pricing_plan_id":"cebpf4jnsgd1na2vs0mg"},{"bike_id":"8b8f3535-c7af-476e-8213-ec0d499f5ab4","system_id":"levelo_inurba_marseille","lat":43.25573,"lon":5.38233,"is_reserved":false,"is_disabled":false,"rental_uris":{"android":"levelo://app?vid=8b8f3535-c7af-476e-8213-ec0d499f5ab4","ios":"levelo://app?vid=8b8f3535-c7af-476e-8213-ec0d499f5ab4"},"vehicle_type_id":"4","last_reported":1776932851,"current_range_meters":11200,"station_id":"ce4bhih2rcd13ifvqfs0","pricing_plan_id":"cebpf4jnsgd1na2vs0mg"},{"bike_id":"43d43684-9065-4265-bb87-934c401d307e","system_id":"levelo_inurba_marseille","lat":43.29002,"lon":5.35611,"is_reserved":false,"is_disabled":false,"rental_uris":{"android":"levelo://app?vid=43d43684-9065-4265-bb87-934c401d307e","ios":"levelo://app?vid=43d43684-9065-4265-bb87-934c401d307e"},"vehicle_type_id":"4","last_reported":1776932851,"current_range_meters":11200,"station_id":"ce4bhb92rcd13ifvqen0","pricing_plan_id":"cebpf4jnsgd1na2vs0mg"},{"bike_id":"3746d7cc-f173-4311-836b-c0fcbee16812","system_id":"levelo_inurba_marseille","lat":43.29847,"lon":5.36275,"is_reserved":false,"is_disabled":false,"rental_uris":{"android":"levelo://app?vid=3746d7cc-f173-4311-836b-c0fcbee16812","ios":"levelo://app?vid=3746d7cc-f173-4311-836b-c0fcbee16812"},"vehicle_type_id":"4","last_reported":1776932851,"current_range_meters":11200,"station_id":"ce4bgpp2rcd13ifvqc3g","pricing_plan_id":"cebpf4jnsgd1na2vs0mg"},{"bike_id":"ec19aaad-2410-439f-9123-e83fa1c535f8","system_id":"levelo_inurba_marseille","lat":43.28282,"lon":5.37883,"is_reserved":false,"is_disabled":false,"rental_uris":{"android":"levelo://app?vid=ec19aaad-2410-439f-9123-e83fa1c535f8","ios":"levelo://app?vid=ec19aaad-2410-439f-9123-e83fa1c535f8"},"vehicle_type_id":"4","last_reported":1776932851,"current_range_meters":11200,"station_id":"","pricing_plan_id":"cebpf4jnsgd1na2vs0mg"},{"bike_id":"deb45685-b3a7-4ba4-9469-b7c41af8da71","system_id":"levelo_inurba_marseille","lat":43.33615,"lon":5.41009,"is_reserved":false,"is_disabled":false,"rental_uris":{"android":"levelo://app?vid=deb45685-b3a7-4ba4-9469-b7c41af8da71","ios":"levelo://app?vid=deb45685-b3a7-4ba4-9469-b7c41af8da71"},"vehicle_type_id":"4","last_reported":1776932851,"current_range_meters":11200,"station_id":"ce4bhqh2rcd13ifvqhmg","pricing_plan_id":"cebpf4jnsgd1na2vs0mg"},{"bike_id":"51de1683-0dbd-45a8-9189-ff7d78152235","system_id":"levelo_inurba_marseille","lat":43.28864,"lon":5.42527,"is_reserved":false,"is_disabled":false,"rental_uris":{"android":"levelo://app?vid=51de1683-0dbd-45a8-9189-ff7d78152235","ios":"levelo://app?vid=51de1683-0dbd-45a8-9189-ff7d78152235"},"vehicle_type_id":"4","last_reported":1776932851,"current_range_meters":11200,"station_id":"st_d3b462108ojc7389ooeg","pricing_plan_id":"cebpf4jnsgd1na2vs0mg"},{"bike_id":"c229b819-8f7f-4038-88d6-89ea1d92aeee","system_id":"levelo_inurba_marseille","lat":43.23383,"lon":5.41222,"is_reserved":false,"is_disabled":false,"rental_uris":{"android":"levelo://app?vid=c229b819-8f7f-4038-88d6-89ea1d92aeee","ios":"levelo://app?vid=c229b819-8f7f-4038-88d6-89ea1d92aeee"},"vehicle_type_id":"4","last_reported":1776932851,"current_range_meters":11200,"station_id":"st_d75pvndhf9lc73cqq3eg","pricing_plan_id":"cebpf4jnsgd1na2vs0mg"},{"bike_id":"3203583b-9ed3-4986-b97d-0752b7a45d59","system_id":"levelo_inurba_marseille","lat":43.27658,"lon":5.38936,"is_reserved":false,"is_disabled":false,"rental_uris":{"android":"levelo://app?vid=3203583b-9ed3-4986-b97d-0752b7a45d59","ios":"levelo://app?vid=3203583b-9ed3-4986-b97d-0752b7a45d59"},"vehicle_type_id":"4","last_reported":1776932851,"current_range_meters":11200,"station_id":"","pricing_plan_id":"cebpf4jnsgd1na2vs0mg"},{"bike_id":"c326f56e-924d-441f-9ca9-b43c107c6486","system_id":"levelo_inurba_marseille","lat":43.29572,"lon":5.37514,"is_reserved":false,"is_disabled":false,"rental_uris":{"android":"levelo://app?vid=c326f56e-924d-441f-9ca9-b43c107c6486","ios":"levelo://app?vid=c326f56e-924d-441f-9ca9-b43c107c6486"},"vehicle_type_id":"4","last_reported":1776932851,"current_range_meters":11200,"station_id":"ce4bgh92rcd13ifvqb50","pricing_plan_id":"cebpf4jnsgd1na2vs0mg"},{"bike_id":"2aaad7a4-9d5f-4074-b0a3-86e02980fd84","system_id":"levelo_inurba_marseille","lat":43.33549,"lon":5.37471,"is_reserved":false,"is_disabled":false,"rental_uris":{"android":"levelo://app?vid=2aaad7a4-9d5f-4074-b0a3-86e02980fd84","ios":"levelo://app?vid=2aaad7a4-9d5f-4074-b0a3-86e02980fd84"},"vehicle_type_id":"4","last_reported":1776932851,"current_range_meters":11200,"station_id":"st_d46tts09ee8s73dlu43g","pricing_plan_id":"cebpf4jnsgd1na2vs0mg"},{"bike_id":"37dd84e8-b58b-43bc-9c14-c1031a32b136","system_id":"levelo_inurba_marseille","lat":43.30455,"lon":5.37918,"is_reserved":false,"is_disabled":false,"rental_uris":{"android":"levelo://app?vid=37dd84e8-b58b-43bc-9c14-c1031a32b136","ios":"levelo://app?vid=37dd84e8-b58b-43bc-9c14-c1031a32b136"},"vehicle_type_id":"4","last_reported":1776932851,"current_range_meters":11600,"station_id":"ce4bgup2rcd13ifvqcn0","pricing_plan_id":"cebpf4jnsgd1na2vs0mg"},{"bike_id":"d43d07a3-dce0-4542-b229-efb075755245","system_id":"levelo_inurba_marseille","lat":43.30951,"lon":5.39044,"is_reserved":false,"is_disabled":false,"rental_uris":{"android":"levelo://app?vid=d43d07a3-dce0-4542-b229-efb075755245","ios":"levelo://app?vid=d43d07a3-dce0-4542-b229-efb075755245"},"vehicle_type_id":"4","last_reported":1776932851,"current_range_meters":11600,"station_id":"ce4bgup2rcd13ifvqco0","pricing_plan_id":"cebpf4jnsgd1na2vs0mg"},{"bike_id":"d01e5ed0-578a-463a-acda-92085d3be77d","system_id":"levelo_inurba_marseille","lat":43.31382,"lon":5.36728,"is_reserved":false,"is_disabled":false,"rental_uris":{"android":"levelo://app?vid=d01e5ed0-578a-463a-acda-92085d3be77d","ios":"levelo://app?vid=d01e5ed0-578a-463a-acda-92085d3be77d"},"vehicle_type_id":"4","last_reported":1776932851,"current_range_meters":11600,"station_id":"","pricing_plan_id":"cebpf4jnsgd1na2vs0mg"},{"bike_id":"c4f5915b-d5bc-44aa-b10b-bfb190be2502","system_id":"levelo_inurba_marseille","lat":43.26762,"lon":5.39405,"is_reserved":false,"is_disabled":false,"rental_uris":{"android":"levelo://app?vid=c4f5915b-d5bc-44aa-b10b-bfb190be2502","ios":"levelo://app?vid=c4f5915b-d5bc-44aa-b10b-bfb190be2502"},"vehicle_type_id":"4","last_reported":1776932851,"current_range_meters":11600,"station_id":"ce4bhh12rcd13ifvqfg0","pricing_plan_id":"cebpf4jnsgd1na2vs0mg"},{"bike_id":"da8e93f4-9f1c-4952-8cba-f47945d35aa1","system_id":"levelo_inurba_marseille","lat":43.29821,"lon":5.37424,"is_reserved":false,"is_disabled":false,"rental_uris":{"android":"levelo://app?vid=da8e93f4-9f1c-4952-8cba-f47945d35aa1","ios":"levelo://app?vid=da8e93f4-9f1c-4952-8cba-f47945d35aa1"},"vehicle_type_id":"4","last_reported":1776932851,"current_range_meters":11600,"station_id":"","pricing_plan_id":"cebpf4jnsgd1na2vs0mg"},{"bike_id":"22f01766-2621-4602-8503-49dc29f5c8df","system_id":"levelo_inurba_marseille","lat":43.27496,"lon":5.42458,"is_reserved":false,"is_disabled":false,"rental_uris":{"android":"levelo://app?vid=22f01766-2621-4602-8503-49dc29f5c8df","ios":"levelo://app?vid=22f01766-2621-4602-8503-49dc29f5c8df"},"vehicle_type_id":"4","last_reported":1776932851,"current_range_meters":11600,"station_id":"ce4bhn92rcd13ifvqgrg","pricing_plan_id":"cebpf4jnsgd1na2vs0mg"},{"bike_id":"1f62b6e5-b17f-450e-b07a-e4ede62d4156","system_id":"levelo_inurba_marseille","lat":43.29791,"lon":5.41679,"is_reserved":false,"is_disabled":false,"rental_uris":{"android":"levelo://app?vid=1f62b6e5-b17f-450e-b07a-e4ede62d4156","ios":"levelo://app?vid=1f62b6e5-b17f-450e-b07a-e4ede62d4156"},"vehicle_type_id":"4","last_reported":1776932851,"current_range_meters":11600,"station_id":"","pricing_plan_id":"cebpf4jnsgd1na2vs0mg"},{"bike_id":"d00ea1eb-a31a-4e5f-982b-e78988ca345c","system_id":"levelo_inurba_marseille","lat":43.23894,"lon":5.37452,"is_reserved":false,"is_disabled":false,"rental_uris":{"android":"levelo://app?vid=d00ea1eb-a31a-4e5f-982b-e78988ca345c","ios":"levelo://app?vid=d00ea1eb-a31a-4e5f-982b-e78988ca345c"},"vehicle_type_id":"4","last_reported":1776932851,"current_range_meters":11600,"station_id":"st_d6sm7csbq4hs73f8fpjg","pricing_plan_id":"cebpf4jnsgd1na2vs0mg"},{"bike_id":"f5c0c244-0c65-42b0-bc1d-b914821a7da3","system_id":"levelo_inurba_marseille","lat":43.30892,"lon":5.37195,"is_reserved":false,"is_disabled":false,"rental_uris":{"android":"levelo://app?vid=f5c0c244-0c65-42b0-bc1d-b914821a7da3","ios":"levelo://app?vid=f5c0c244-0c65-42b0-bc1d-b914821a7da3"},"vehicle_type_id":"4","last_reported":1776932851,"current_range_meters":11600,"station_id":"ce4bguh2rcd13ifvqckg","pricing_plan_id":"cebpf4jnsgd1na2vs0mg"},{"bike_id":"53d0b464-9d84-4ebb-a788-233487c8451c","system_id":"levelo_inurba_marseille","lat":43.33261,"lon":5.37783,"is_reserved":false,"is_disabled":false,"rental_uris":{"android":"levelo://app?vid=53d0b464-9d84-4ebb-a788-233487c8451c","ios":"levelo://app?vid=53d0b464-9d84-4ebb-a788-233487c8451c"},"vehicle_type_id":"4","last_reported":1776932851,"current_range_meters":12000,"station_id":"","pricing_plan_id":"cebpf4jnsgd1na2vs0mg"},{"bike_id":"ffb6c160-15e7-4200-9bf1-3a749fe92177","system_id":"levelo_inurba_marseille","lat":43.29188,"lon":5.36048,"is_reserved":false,"is_disabled":true,"rental_uris":{"android":"levelo://app?vid=ffb6c160-15e7-4200-9bf1-3a749fe92177","ios":"levelo://app?vid=ffb6c160-15e7-4200-9bf1-3a749fe92177"},"vehicle_type_id":"4","last_reported":1776932851,"current_range_meters":12000,"station_id":"ce4bhbh2rcd13ifvqeqg","pricing_plan_id":"cebpf4jnsgd1na2vs0mg"},{"bike_id":"cd21f6c1-a1f8-4978-8025-1d254a6bf514","system_id":"levelo_inurba_marseille","lat":43.2848,"lon":5.48398,"is_reserved":false,"is_disabled":false,"rental_uris":{"android":"levelo://app?vid=cd21f6c1-a1f8-4978-8025-1d254a6bf514","ios":"levelo://app?vid=cd21f6c1-a1f8-4978-8025-1d254a6bf514"},"vehicle_type_id":"4","last_reported":1776932851,"current_range_meters":12000,"station_id":"st_d3svhcjqgbts73a3dn0g","pricing_plan_id":"cebpf4jnsgd1na2vs0mg"},{"bike_id":"95b685ec-c2e0-4544-83ee-6fcdcdf68f33","system_id":"levelo_inurba_marseille","lat":43.24334,"lon":5.37071,"is_reserved":false,"is_disabled":false,"rental_uris":{"android":"levelo://app?vid=95b685ec-c2e0-4544-83ee-6fcdcdf68f33","ios":"levelo://app?vid=95b685ec-c2e0-4544-83ee-6fcdcdf68f33"},"vehicle_type_id":"4","last_reported":1776932851,"current_range_meters":12000,"station_id":"ce4bhhh2rcd13ifvqfk0","pricing_plan_id":"cebpf4jnsgd1na2vs0mg"},{"bike_id":"8fe7305b-d3f3-41e5-a6a6-343d97df01ed","system_id":"levelo_inurba_marseille","lat":43.24384,"lon":5.37046,"is_reserved":false,"is_disabled":false,"rental_uris":{"android":"levelo://app?vid=8fe7305b-d3f3-41e5-a6a6-343d97df01ed","ios":"levelo://app?vid=8fe7305b-d3f3-41e5-a6a6-343d97df01ed"},"vehicle_type_id":"4","last_reported":1776932851,"current_range_meters":12000,"station_id":"ce4bhhh2rcd13ifvqfk0","pricing_plan_id":"cebpf4jnsgd1na2vs0mg"},{"bike_id":"28e26e2d-c312-4e43-923c-e79685edb2fb","system_id":"levelo_inurba_marseille","lat":43.30274,"lon":5.3969,"is_reserved":false,"is_disabled":false,"rental_uris":{"android":"levelo://app?vid=28e26e2d-c312-4e43-923c-e79685edb2fb","ios":"levelo://app?vid=28e26e2d-c312-4e43-923c-e79685edb2fb"},"vehicle_type_id":"4","last_reported":1776932851,"current_range_meters":12000,"station_id":"","pricing_plan_id":"cebpf4jnsgd1na2vs0mg"},{"bike_id":"13de453e-5197-477c-bba1-2d4c0d148eb7","system_id":"levelo_inurba_marseille","lat":43.33195,"lon":5.37811,"is_reserved":false,"is_disabled":false,"rental_uris":{"android":"levelo://app?vid=13de453e-5197-477c-bba1-2d4c0d148eb7","ios":"levelo://app?vid=13de453e-5197-477c-bba1-2d4c0d148eb7"},"vehicle_type_id":"4","last_reported":1776932851,"current_range_meters":12000,"station_id":"","pricing_plan_id":"cebpf4jnsgd1na2vs0mg"},{"bike_id":"fa19ac8d-39c6-4878-bed9-f6a5b189b25a","system_id":"levelo_inurba_marseille","lat":43.30059,"lon":5.36359,"is_reserved":false,"is_disabled":false,"rental_uris":{"android":"levelo://app?vid=fa19ac8d-39c6-4878-bed9-f6a5b189b25a","ios":"levelo://app?vid=fa19ac8d-39c6-4878-bed9-f6a5b189b25a"},"vehicle_type_id":"4","last_reported":1776932851,"current_range_meters":12000,"station_id":"","pricing_plan_id":"cebpf4jnsgd1na2vs0mg"},{"bike_id":"d59302d9-0289-4d10-9994-7c59a6e76854","system_id":"levelo_inurba_marseille","lat":43.31091,"lon":5.37703,"is_reserved":false,"is_disabled":false,"rental_uris":{"android":"levelo://app?vid=d59302d9-0289-4d10-9994-7c59a6e76854","ios":"levelo://app?vid=d59302d9-0289-4d10-9994-7c59a6e76854"},"vehicle_type_id":"4","last_reported":1776932851,"current_range_meters":12000,"station_id":"","pricing_plan_id":"cebpf4jnsgd1na2vs0mg"},{"bike_id":"7229e485-2653-42f8-abc1-d369e9baffc6","system_id":"levelo_inurba_marseille","lat":43.30302,"lon":5.36909,"is_reserved":false,"is_disabled":false,"rental_uris":{"android":"levelo://app?vid=7229e485-2653-42f8-abc1-d369e9baffc6","ios":"levelo://app?vid=7229e485-2653-42f8-abc1-d369e9baffc6"},"vehicle_type_id":"4","last_reported":1776932851,"current_range_meters":12000,"station_id":"ce4bgqh2rcd13ifvqc5g","pricing_plan_id":"cebpf4jnsgd1na2vs0mg"},{"bike_id":"ae583574-3b33-45b7-bcd2-256bebd82811","system_id":"levelo_inurba_marseille","lat":43.24169,"lon":5.36382,"is_reserved":false,"is_disabled":false,"rental_uris":{"android":"levelo://app?vid=ae583574-3b33-45b7-bcd2-256bebd82811","ios":"levelo://app?vid=ae583574-3b33-45b7-bcd2-256bebd82811"},"vehicle_type_id":"4","last_reported":1776932851,"current_range_meters":12000,"station_id":"cpo36qri1sfpv3e86is0","pricing_plan_id":"cebpf4jnsgd1na2vs0mg"},{"bike_id":"63c3f03e-d7c1-48af-b0d2-e1116fc4f8d0","system_id":"levelo_inurba_marseille","lat":43.2533,"lon":5.42156,"is_reserved":false,"is_disabled":false,"rental_uris":{"android":"levelo://app?vid=63c3f03e-d7c1-48af-b0d2-e1116fc4f8d0","ios":"levelo://app?vid=63c3f03e-d7c1-48af-b0d2-e1116fc4f8d0"},"vehicle_type_id":"4","last_reported":1776932851,"current_range_meters":12400,"station_id":"st_d2m65c5bi1j21697t3ng","pricing_plan_id":"cebpf4jnsgd1na2vs0mg"},{"bike_id":"ef1780af-1aea-4e08-82c2-da4d0be385bf","system_id":"levelo_inurba_marseille","lat":43.28967,"lon":5.35969,"is_reserved":false,"is_disabled":false,"rental_uris":{"android":"levelo://app?vid=ef1780af-1aea-4e08-82c2-da4d0be385bf","ios":"levelo://app?vid=ef1780af-1aea-4e08-82c2-da4d0be385bf"},"vehicle_type_id":"4","last_reported":1776932851,"current_range_meters":12400,"station_id":"","pricing_plan_id":"cebpf4jnsgd1na2vs0mg"},{"bike_id":"4a4a0df8-5f31-45c3-a76c-fd61c25cab78","system_id":"levelo_inurba_marseille","lat":43.31269,"lon":5.4018,"is_reserved":false,"is_disabled":false,"rental_uris":{"android":"levelo://app?vid=4a4a0df8-5f31-45c3-a76c-fd61c25cab78","ios":"levelo://app?vid=4a4a0df8-5f31-45c3-a76c-fd61c25cab78"},"vehicle_type_id":"4","last_reported":1776932851,"current_range_meters":12400,"station_id":"ce4bh092rcd13ifvqd30","pricing_plan_id":"cebpf4jnsgd1na2vs0mg"},{"bike_id":"3f5e7837-6f5a-4446-b246-4ad4bc7d004c","system_id":"levelo_inurba_marseille","lat":43.30538,"lon":5.36692,"is_reserved":false,"is_disabled":false,"rental_uris":{"android":"levelo://app?vid=3f5e7837-6f5a-4446-b246-4ad4bc7d004c","ios":"levelo://app?vid=3f5e7837-6f5a-4446-b246-4ad4bc7d004c"},"vehicle_type_id":"4","last_reported":1776932851,"current_range_meters":12400,"station_id":"ce4bgrp2rcd13ifvqc9g","pricing_plan_id":"cebpf4jnsgd1na2vs0mg"},{"bike_id":"ad34945a-a214-4b6e-bbbb-2e55b107c025","system_id":"levelo_inurba_marseille","lat":43.28878,"lon":5.43038,"is_reserved":false,"is_disabled":false,"rental_uris":{"android":"levelo://app?vid=ad34945a-a214-4b6e-bbbb-2e55b107c025","ios":"levelo://app?vid=ad34945a-a214-4b6e-bbbb-2e55b107c025"},"vehicle_type_id":"4","last_reported":1776932851,"current_range_meters":12400,"station_id":"","pricing_plan_id":"cebpf4jnsgd1na2vs0mg"},{"bike_id":"ca014253-d193-4c1d-8860-6a31faafe799","system_id":"levelo_inurba_marseille","lat":43.29255,"lon":5.37621,"is_reserved":false,"is_disabled":false,"rental_uris":{"android":"levelo://app?vid=ca014253-d193-4c1d-8860-6a31faafe799","ios":"levelo://app?vid=ca014253-d193-4c1d-8860-6a31faafe799"},"vehicle_type_id":"4","last_reported":1776932851,"current_range_meters":12400,"station_id":"ce4bgi12rcd13ifvqb80","pricing_plan_id":"cebpf4jnsgd1na2vs0mg"},{"bike_id":"b51ac87f-04a3-4bf1-9075-041179aa6f28","system_id":"levelo_inurba_marseille","lat":43.22551,"lon":5.41629,"is_reserved":false,"is_disabled":false,"rental_uris":{"android":"levelo://app?vid=b51ac87f-04a3-4bf1-9075-041179aa6f28","ios":"levelo://app?vid=b51ac87f-04a3-4bf1-9075-041179aa6f28"},"vehicle_type_id":"4","last_reported":1776932851,"current_range_meters":12400,"station_id":"st_d2o4gvlbi1j2169b742g","pricing_plan_id":"cebpf4jnsgd1na2vs0mg"},{"bike_id":"38a454cc-31b2-4d92-a759-b1d78db5533c","system_id":"levelo_inurba_marseille","lat":43.26681,"lon":5.38261,"is_reserved":false,"is_disabled":false,"rental_uris":{"android":"levelo://app?vid=38a454cc-31b2-4d92-a759-b1d78db5533c","ios":"levelo://app?vid=38a454cc-31b2-4d92-a759-b1d78db5533c"},"vehicle_type_id":"4","last_reported":1776932851,"current_range_meters":12400,"station_id":"ce4bhg92rcd13ifvqf90","pricing_plan_id":"cebpf4jnsgd1na2vs0mg"},{"bike_id":"7aded1df-1953-4558-a7ef-8b222a90db8f","system_id":"levelo_inurba_marseille","lat":43.24803,"lon":5.37455,"is_reserved":false,"is_disabled":false,"rental_uris":{"android":"levelo://app?vid=7aded1df-1953-4558-a7ef-8b222a90db8f","ios":"levelo://app?vid=7aded1df-1953-4558-a7ef-8b222a90db8f"},"vehicle_type_id":"4","last_reported":1776932851,"current_range_meters":12400,"station_id":"ce4bhgh2rcd13ifvqfb0","pricing_plan_id":"cebpf4jnsgd1na2vs0mg"},{"bike_id":"b94b0170-209f-4164-9632-61f14589e29a","system_id":"levelo_inurba_marseille","lat":43.25921,"lon":5.40911,"is_reserved":false,"is_disabled":false,"rental_uris":{"android":"levelo://app?vid=b94b0170-209f-4164-9632-61f14589e29a","ios":"levelo://app?vid=b94b0170-209f-4164-9632-61f14589e29a"},"vehicle_type_id":"4","last_reported":1776932851,"current_range_meters":12400,"station_id":"ce4bhm92rcd13ifvqglg","pricing_plan_id":"cebpf4jnsgd1na2vs0mg"},{"bike_id":"3a6d8c72-c585-4b53-b9fd-bae60ebdb6d5","system_id":"levelo_inurba_marseille","lat":43.2981,"lon":5.44068,"is_reserved":false,"is_disabled":false,"rental_uris":{"android":"levelo://app?vid=3a6d8c72-c585-4b53-b9fd-bae60ebdb6d5","ios":"levelo://app?vid=3a6d8c72-c585-4b53-b9fd-bae60ebdb6d5"},"vehicle_type_id":"4","last_reported":1776932851,"current_range_meters":12400,"station_id":"st_d3jp68qikq2c7381ktn0","pricing_plan_id":"cebpf4jnsgd1na2vs0mg"},{"bike_id":"261b4d20-3fce-4a9a-b1df-f7d9447249df","system_id":"levelo_inurba_marseille","lat":43.28478,"lon":5.48404,"is_reserved":false,"is_disabled":false,"rental_uris":{"android":"levelo://app?vid=261b4d20-3fce-4a9a-b1df-f7d9447249df","ios":"levelo://app?vid=261b4d20-3fce-4a9a-b1df-f7d9447249df"},"vehicle_type_id":"4","last_reported":1776932851,"current_range_meters":12400,"station_id":"st_d3svhcjqgbts73a3dn0g","pricing_plan_id":"cebpf4jnsgd1na2vs0mg"},{"bike_id":"c7ac0306-6afc-4781-8692-f962ddfe1a23","system_id":"levelo_inurba_marseille","lat":43.3235,"lon":5.36737,"is_reserved":false,"is_disabled":false,"rental_uris":{"android":"levelo://app?vid=c7ac0306-6afc-4781-8692-f962ddfe1a23","ios":"levelo://app?vid=c7ac0306-6afc-4781-8692-f962ddfe1a23"},"vehicle_type_id":"4","last_reported":1776932851,"current_range_meters":12400,"station_id":"ce4bhsh2rcd13ifvqi2g","pricing_plan_id":"cebpf4jnsgd1na2vs0mg"},{"bike_id":"dc4485d0-7bc2-4050-9544-3620f770d08f","system_id":"levelo_inurba_marseille","lat":43.29617,"lon":5.37727,"is_reserved":false,"is_disabled":false,"rental_uris":{"android":"levelo://app?vid=dc4485d0-7bc2-4050-9544-3620f770d08f","ios":"levelo://app?vid=dc4485d0-7bc2-4050-9544-3620f770d08f"},"vehicle_type_id":"4","last_reported":1776932851,"current_range_meters":12400,"station_id":"ce4bgi92rcd13ifvqb90","pricing_plan_id":"cebpf4jnsgd1na2vs0mg"},{"bike_id":"f94e325b-d48e-41cc-a445-53b0e1cedd27","system_id":"levelo_inurba_marseille","lat":43.26366,"lon":5.41071,"is_reserved":false,"is_disabled":false,"rental_uris":{"android":"levelo://app?vid=f94e325b-d48e-41cc-a445-53b0e1cedd27","ios":"levelo://app?vid=f94e325b-d48e-41cc-a445-53b0e1cedd27"},"vehicle_type_id":"4","last_reported":1776932851,"current_range_meters":12400,"station_id":"st_d4e5ca6na9uc73bfl5fg","pricing_plan_id":"cebpf4jnsgd1na2vs0mg"},{"bike_id":"98dc036e-6920-4e07-91c6-b039ab1ae503","system_id":"levelo_inurba_marseille","lat":43.30947,"lon":5.39078,"is_reserved":false,"is_disabled":false,"rental_uris":{"android":"levelo://app?vid=98dc036e-6920-4e07-91c6-b039ab1ae503","ios":"levelo://app?vid=98dc036e-6920-4e07-91c6-b039ab1ae503"},"vehicle_type_id":"4","last_reported":1776932851,"current_range_meters":12800,"station_id":"ce4bgup2rcd13ifvqco0","pricing_plan_id":"cebpf4jnsgd1na2vs0mg"},