{"last_updated":1687968567,"ttl":30,"version":"2.2","data":{"bikes":[{"bike_id":"666c1415-28e9-4944-87f5-29a628446c75","system_id":"levelo_inurba_marseille","lat":43.31224,"lon":5.36846,"is_reserved":false,"is_disabled":false,"rental_uris":{"android":"levelo://app?vid=666c1415-28e9-4944-87f5-29a628446c75","ios":"levelo://app?vid=666c1415-28e9-4944-87f5-29a628446c75"},"vehicle_type_id":"4","last_reported":1687968567,"current_range_meters":31200,"station_id":"ce4bgl92rcd13ifvqbq0","pricing_plan_id":"free"},{"bike_id":"589bd2e6-1166-4489-9492-c1091cf54013","system_id":"levelo_inurba_marseille","lat":43.3076,"lon":5.3662,"is_reserved":false,"is_disabled":false,"rental_uris":{"android":"levelo://app?vid=589bd2e6-1166-4489-9492-c1091cf54013","ios":"levelo://app?vid=589bd2e6-1166-4489-9492-c1091cf54013"},"vehicle_type_id":"4","last_reported":1687968567,"current_range_meters":27200,"station_id":"","pricing_plan_id":"free"},{"bike_id":"1ad4ada6-e283-46f8-81f6-98d52147ed2d","system_id":"levelo_inurba_marseille","lat":43.305706,"lon":5.365654,"is_reserved":false,"is_disabled":false,"rental_uris":{"android":"levelo://app?vid=1ad4ada6-e283-46f8-81f6-98d52147ed2d","ios":"levelo://app?vid=1ad4ada6-e283-46f8-81f6-98d52147ed2d"},"vehicle_type_id":"4","last_reported":1687968567,"current_range_meters":8000,"station_id":"ce4bgs12rcd13ifvqcag","pricing_plan_id":"free"},{"bike_id":"9f78b28a-ad65-49dd-b557-9254da45a896","system_id":"levelo_inurba_marseille","lat":43.305989,"lon":5.37225,"is_reserved":false,"is_disabled":false,"rental_uris":{"android":"levelo://app?vid=9f78b28a-ad65-49dd-b557-9254da45a896","ios":"levelo://app?vid=9f78b28a-ad65-49dd-b557-9254da45a896"},"vehicle_type_id":"4","last_reported":1687968567,"current_range_meters":7600,"station_id":"ce4bgqh2rcd13ifvqc4g","pricing_plan_id":"free"},{"bike_id":"a4049ccd-595f-4603-babe-c4e82557aa8e","system_id":"levelo_inurba_marseille","lat":43.305989,"lon":5.37225,"is_reserved":false,"is_disabled":false,"rental_uris":{"android":"levelo://app?vid=a4049ccd-595f-4603-babe-c4e82557aa8e","ios":"levelo://app?vid=a4049ccd-595f-4603-babe-c4e82557aa8e"},"vehicle_type_id":"4","last_reported":1687968567,"current_range_meters":25600,"station_id":"ce4bgqh2rcd13ifvqc4g","pricing_plan_id":"free"},{"bike_id":"0c4e63fb-3b58-4fee-92ef-183480b0d374","system_id":"levelo_inurba_marseille","lat":43.317075,"lon":5.377367,"is_reserved":false,"is_disabled":false,"rental_uris":{"android":"levelo://app?vid=0c4e63fb-3b58-4fee-92ef-183480b0d374","ios":"levelo://app?vid=0c4e63fb-3b58-4fee-92ef-183480b0d374"},"vehicle_type_id":"4","last_reported":1687968567,"current_range_meters":13200,"station_id":"ce4bgth2rcd13ifvqch0","pricing_plan_id":"free"},{"bike_id":"95918667-073f-4581-97a7-b58c6157ba0a","system_id":"levelo_inurba_marseille","lat":43.304606,"lon":5.379026,"is_reserved":false,"is_disabled":false,"rental_uris":{"android":"levelo://app?vid=95918667-073f-4581-97a7-b58c6157ba0a","ios":"levelo://app?vid=95918667-073f-4581-97a7-b58c6157ba0a"},"vehicle_type_id":"4","last_reported":1687968567,"current_range_meters":20000,"station_id":"ce4bgup2rcd13ifvqcn0","pricing_plan_id":"free"},{"bike_id":"af667c2c-09db-4c62-aed2-1705106958e0","system_id":"levelo_inurba_marseille","lat":43.30144,"lon":5.37411,"is_reserved":false,"is_disabled":false,"rental_uris":{"android":"levelo://app?vid=af667c2c-09db-4c62-aed2-1705106958e0","ios":"levelo://app?vid=af667c2c-09db-4c62-aed2-1705106958e0"},"vehicle_type_id":"4","last_reported":1687968567,"current_range_meters":31200,"station_id":"ce4bgs92rcd13ifvqcc0","pricing_plan_id":"free"},{"bike_id":"436527e1-9cbf-44cb-b94c-794151dd85f5","system_id":"levelo_inurba_marseille","lat":43.29921,"lon":5.37369,"is_reserved":false,"is_disabled":false,"rental_uris":{"android":"levelo://app?vid=436527e1-9cbf-44cb-b94c-794151dd85f5","ios":"levelo://app?vid=436527e1-9cbf-44cb-b94c-794151dd85f5"},"vehicle_type_id":"4","last_reported":1687968567,"current_range_meters":1600,"station_id":"","pricing_plan_id":"free"},{"bike_id":"7eba4b13-3086-483d-ad3e-f5bc3b2a0be1","system_id":"levelo_inurba_marseille","lat":43.30551,"lon":5.38418,"is_reserved":false,"is_disabled":false,"rental_uris":{"android":"levelo://app?vid=7eba4b13-3086-483d-ad3e-f5bc3b2a0be1","ios":"levelo://app?vid=7eba4b13-3086-483d-ad3e-f5bc3b2a0be1"},"vehicle_type_id":"4","last_reported":1687968567,"current_range_meters":0,"station_id":"ce4bgg92rcd13ifvqb30","pricing_plan_id":"free"},{"bike_id":"ad9fc556-5754-46e3-872c-cfae6a4b2bdf","system_id":"levelo_inurba_marseille","lat":43.299243,"lon":5.374807,"is_reserved":false,"is_disabled":false,"rental_uris":{"android":"levelo://app?vid=ad9fc556-5754-46e3-872c-cfae6a4b2bdf","ios":"levelo://app?vid=ad9fc556-5754-46e3-872c-cfae6a4b2bdf"},"vehicle_type_id":"4","last_reported":1687968567,"current_range_meters":30400,"station_id":"ce4bgjh2rcd13ifvqbg0","pricing_plan_id":"free"},{"bike_id":"d7fd1914-0c28-4fde-9145-cb58ecbc5a0d","system_id":"levelo_inurba_marseille","lat":43.298433,"lon":5.362774,"is_reserved":false,"is_disabled":false,"rental_uris":{"android":"levelo://app?vid=d7fd1914-0c28-4fde-9145-cb58ecbc5a0d","ios":"levelo://app?vid=d7fd1914-0c28-4fde-9145-cb58ecbc5a0d"},"vehicle_type_id":"4","last_reported":1687968567,"current_range_meters":17200,"station_id":"ce4bgpp2rcd13ifvqc3g","pricing_plan_id":"free"},{"bike_id":"22ae987e-297a-41fe-9154-46eeb531570e","system_id":"levelo_inurba_marseille","lat":43.311722,"lon":5.387247,"is_reserved":false,"is_disabled":false,"rental_uris":{"android":"levelo://app?vid=22ae987e-297a-41fe-9154-46eeb531570e","ios":"levelo://app?vid=22ae987e-297a-41fe-9154-46eeb531570e"},"vehicle_type_id":"4","last_reported":1687968567,"current_range_meters":3600,"station_id":"ce4bgv12rcd13ifvqcp0","pricing_plan_id":"free"},{"bike_id":"74badd52-a487-4b3b-92e1-1f804830bad1","system_id":"levelo_inurba_marseille","lat":43.297794,"lon":5.370888,"is_reserved":false,"is_disabled":false,"rental_uris":{"android":"levelo://app?vid=74badd52-a487-4b3b-92e1-1f804830bad1","ios":"levelo://app?vid=74badd52-a487-4b3b-92e1-1f804830bad1"},"vehicle_type_id":"4","last_reported":1687968567,"current_range_meters":18000,"station_id":"ce4bgop2rcd13ifvqc1g","pricing_plan_id":"free"},{"bike_id":"85e31fae-88bf-4932-9185-75cb51fde46a","system_id":"levelo_inurba_marseille","lat":43.328371,"lon":5.366912,"is_reserved":false,"is_disabled":false,"rental_uris":{"android":"levelo://app?vid=85e31fae-88bf-4932-9185-75cb51fde46a","ios":"levelo://app?vid=85e31fae-88bf-4932-9185-75cb51fde46a"},"vehicle_type_id":"4","last_reported":1687968567,"current_range_meters":27600,"station_id":"ce4bhs92rcd13ifvqi0g","pricing_plan_id":"free"},{"bike_id":"4a06b224-8456-4335-98f3-dcc5eeee7538","system_id":"levelo_inurba_marseille","lat":43.328371,"lon":5.366912,"is_reserved":false,"is_disabled":false,"rental_uris":{"android":"levelo://app?vid=4a06b224-8456-4335-98f3-dcc5eeee7538","ios":"levelo://app?vid=4a06b224-8456-4335-98f3-dcc5eeee7538"},"vehicle_type_id":"4","last_reported":1687968567,"current_range_meters":0,"station_id":"ce4bhs92rcd13ifvqi0g","pricing_plan_id":"free"},{"bike_id":"74960633-2b88-4c2f-a74e-024991efb4ba","system_id":"levelo_inurba_marseille","lat":43.328371,"lon":5.366912,"is_reserved":false,"is_disabled":false,"rental_uris":{"android":"levelo://app?vid=74960633-2b88-4c2f-a74e-024991efb4ba","ios":"levelo://app?vid=74960633-2b88-4c2f-a74e-024991efb4ba"},"vehicle_type_id":"4","last_reported":1687968567,"current_range_meters":23600,"station_id":"ce4bhs92rcd13ifvqi0g","pricing_plan_id":"free"},{"bike_id":"07fc5e4e-23c0-4e7f-baff-848452f6a527","system_id":"levelo_inurba_marseille","lat":43.3283,"lon":5.36693,"is_reserved":false,"is_disabled":false,"rental_uris":{"android":"levelo://app?vid=07fc5e4e-23c0-4e7f-baff-848452f6a527","ios":"levelo://app?vid=07fc5e4e-23c0-4e7f-baff-848452f6a527"},"vehicle_type_id":"4","last_reported":1687968567,"current_range_meters":22400,"station_id":"ce4bhs92rcd13ifvqi0g","pricing_plan_id":"free"},{"bike_id":"4ad0820a-b4f0-4687-9297-85e68595ea74","system_id":"levelo_inurba_marseille","lat":43.328371,"lon":5.366909,"is_reserved":false,"is_disabled":false,"rental_uris":{"android":"levelo://app?vid=4ad0820a-b4f0-4687-9297-85e68595ea74","ios":"levelo://app?vid=4ad0820a-b4f0-4687-9297-85e68595ea74"},"vehicle_type_id":"4","last_reported":1687968567,"current_range_meters":16000,"station_id":"ce4bhs92rcd13ifvqi0g","pricing_plan_id":"free"},{"bike_id":"f86c5384-6d0d-438d-8feb-49ba8085fa8c","system_id":"levelo_inurba_marseille","lat":43.328371,"lon":5.366912,"is_reserved":false,"is_disabled":false,"rental_uris":{"android":"levelo://app?vid=f86c5384-6d0d-438d-8feb-49ba8085fa8c","ios":"levelo://app?vid=f86c5384-6d0d-438d-8feb-49ba8085fa8c"},"vehicle_type_id":"4","last_reported":1687968567,"current_range_meters":18800,"station_id":"ce4bhs92rcd13ifvqi0g","pricing_plan_id":"free"},{"bike_id":"86b9fb7f-a2c3-4082-9faa-7e3f901f5c30","system_id":"levelo_inurba_marseille","lat":43.328371,"lon":5.366912,"is_reserved":false,"is_disabled":false,"rental_uris":{"android":"levelo://app?vid=86b9fb7f-a2c3-4082-9faa-7e3f901f5c30","ios":"levelo://app?vid=86b9fb7f-a2c3-4082-9faa-7e3f901f5c30"},"vehicle_type_id":"4","last_reported":1687968567,"current_range_meters":20000,"station_id":"ce4bhs92rcd13ifvqi0g","pricing_plan_id":"free"},{"bike_id":"6582f173-7b2c-4a42-844c-19148b9fbe1b","system_id":"levelo_inurba_marseille","lat":43.328371,"lon":5.366912,"is_reserved":false,"is_disabled":false,"rental_uris":{"android":"levelo://app?vid=6582f173-7b2c-4a42-844c-19148b9fbe1b","ios":"levelo://app?vid=6582f173-7b2c-4a42-844c-19148b9fbe1b"},"vehicle_type_id":"4","last_reported":1687968567,"current_range_meters":18400,"station_id":"ce4bhs92rcd13ifvqi0g","pricing_plan_id":"free"},{"bike_id":"52c17931-f235-4280-a010-fb1d15e44b39","system_id":"levelo_inurba_marseille","lat":43.32836,"lon":5.36676,"is_reserved":false,"is_disabled":false,"rental_uris":{"android":"levelo://app?vid=52c17931-f235-4280-a010-fb1d15e44b39","ios":"levelo://app?vid=52c17931-f235-4280-a010-fb1d15e44b39"},"vehicle_type_id":"4","last_reported":1687968567,"current_range_meters":28800,"station_id":"ce4bhs92rcd13ifvqi0g","pricing_plan_id":"free"},{"bike_id":"17f77a30-51fb-4e8a-89eb-8c56b654d3cd","system_id":"levelo_inurba_marseille","lat":43.297163,"lon":5.365866,"is_reserved":false,"is_disabled":false,"rental_uris":{"android":"levelo://app?vid=17f77a30-51fb-4e8a-89eb-8c56b654d3cd","ios":"levelo://app?vid=17f77a30-51fb-4e8a-89eb-8c56b654d3cd"},"vehicle_type_id":"4","last_reported":1687968567,"current_range_meters":4400,"station_id":"ce4bgn12rcd13ifvqbt0","pricing_plan_id":"free"},{"bike_id":"50d5335b-7449-4461-9df1-9d1ce050b5cd","system_id":"levelo_inurba_marseille","lat":43.297163,"lon":5.365866,"is_reserved":false,"is_disabled":false,"rental_uris":{"android":"levelo://app?vid=50d5335b-7449-4461-9df1-9d1ce050b5cd","ios":"levelo://app?vid=50d5335b-7449-4461-9df1-9d1ce050b5cd"},"vehicle_type_id":"4","last_reported":1687968567,"current_range_meters":0,"station_id":"ce4bgn12rcd13ifvqbt0","pricing_plan_id":"free"},{"bike_id":"8d98417a-cbe4-4269-8bc9-598373a7d5de","system_id":"levelo_inurba_marseille","lat":43.32873,"lon":5.36303,"is_reserved":false,"is_disabled":false,"rental_uris":{"android":"levelo://app?vid=8d98417a-cbe4-4269-8bc9-598373a7d5de","ios":"levelo://app?vid=8d98417a-cbe4-4269-8bc9-598373a7d5de"},"vehicle_type_id":"4","last_reported":1687968567,"current_range_meters":2400,"station_id":"","pricing_plan_id":"free"},{"bike_id":"b879f376-2a71-45f2-98bf-2bbb5388abf0","system_id":"levelo_inurba_marseille","lat":43.29573,"lon":5.367355,"is_reserved":false,"is_disabled":false,"rental_uris":{"android":"levelo://app?vid=b879f376-2a71-45f2-98bf-2bbb5388abf0","ios":"levelo://app?vid=b879f376-2a71-45f2-98bf-2bbb5388abf0"},"vehicle_type_id":"4","last_reported":1687968567,"current_range_meters":29200,"station_id":"ce4bgph2rcd13ifvqc2g","pricing_plan_id":"free"},{"bike_id":"a8e33fd4-561e-444a-9aac-0600ffe4c1b4","system_id":"levelo_inurba_marseille","lat":43.299028,"lon":5.381509,"is_reserved":false,"is_disabled":false,"rental_uris":{"android":"levelo://app?vid=a8e33fd4-561e-444a-9aac-0600ffe4c1b4","ios":"levelo://app?vid=a8e33fd4-561e-444a-9aac-0600ffe4c1b4"},"vehicle_type_id":"4","last_reported":1687968567,"current_range_meters":27600,"station_id":"ce4bgj12rcd13ifvqbc0","pricing_plan_id":"free"},{"bike_id":"a09e0dbf-ef46-4ccb-82bd-375695dc15be","system_id":"levelo_inurba_marseille","lat":43.309589,"lon":5.390258,"is_reserved":false,"is_disabled":false,"rental_uris":{"android":"levelo://app?vid=a09e0dbf-ef46-4ccb-82bd-375695dc15be","ios":"levelo://app?vid=a09e0dbf-ef46-4ccb-82bd-375695dc15be"},"vehicle_type_id":"4","last_reported":1687968567,"current_range_meters":21200,"station_id":"ce4bgup2rcd13ifvqco0","pricing_plan_id":"free"},{"bike_id":"c5bec2a7-3935-4df3-9587-73d529f66180","system_id":"levelo_inurba_marseille","lat":43.309589,"lon":5.390258,"is_reserved":false,"is_disabled":false,"rental_uris":{"android":"levelo://app?vid=c5bec2a7-3935-4df3-9587-73d529f66180","ios":"levelo://app?vid=c5bec2a7-3935-4df3-9587-73d529f66180"},"vehicle_type_id":"4","last_reported":1687968567,"current_range_meters":4000,"station_id":"ce4bgup2rcd13ifvqco0","pricing_plan_id":"free"},{"bike_id":"31765c87-7fc6-4249-8861-3dbccd049313","system_id":"levelo_inurba_marseille","lat":43.309589,"lon":5.390258,"is_reserved":false,"is_disabled":false,"rental_uris":{"android":"levelo://app?vid=31765c87-7fc6-4249-8861-3dbccd049313","ios":"levelo://app?vid=31765c87-7fc6-4249-8861-3dbccd049313"},"vehicle_type_id":"4","last_reported":1687968567,"current_range_meters":22400,"station_id":"ce4bgup2rcd13ifvqco0","pricing_plan_id":"free"},{"bike_id":"34b2df19-f12e-48bd-a2a1-dae0327f67e5","system_id":"levelo_inurba_marseille","lat":43.317557,"lon":5.390173,"is_reserved":false,"is_disabled":false,"rental_uris":{"android":"levelo://app?vid=34b2df19-f12e-48bd-a2a1-dae0327f67e5","ios":"levelo://app?vid=34b2df19-f12e-48bd-a2a1-dae0327f67e5"},"vehicle_type_id":"4","last_reported":1687968567,"current_range_meters":12000,"station_id":"ce4bhqp2rcd13ifvqhng","pricing_plan_id":"free"},{"bike_id":"b8539f2d-9201-4b4b-96a8-d7c4b9f3f72a","system_id":"levelo_inurba_marseille","lat":43.30943,"lon":5.39045,"is_reserved":false,"is_disabled":false,"rental_uris":{"android":"levelo://app?vid=b8539f2d-9201-4b4b-96a8-d7c4b9f3f72a","ios":"levelo://app?vid=b8539f2d-9201-4b4b-96a8-d7c4b9f3f72a"},"vehicle_type_id":"4","last_reported":1687968567,"current_range_meters":12000,"station_id":"ce4bgup2rcd13ifvqco0","pricing_plan_id":"free"},{"bike_id":"171ddc90-58be-4846-8837-a517bffbdd98","system_id":"levelo_inurba_marseille","lat":43.317557,"lon":5.390173,"is_reserved":false,"is_disabled":false,"rental_uris":{"android":"levelo://app?vid=171ddc90-58be-4846-8837-a517bffbdd98","ios":"levelo://app?vid=171ddc90-58be-4846-8837-a517bffbdd98"},"vehicle_type_id":"4","last_reported":1687968567,"current_range_meters":5600,"station_id":"ce4bhqp2rcd13ifvqhng","pricing_plan_id":"free"},{"bike_id":"8b56c5ff-ea0a-4197-b91e-d27b990ede13","system_id":"levelo_inurba_marseille","lat":43.317557,"lon":5.390173,"is_reserved":false,"is_disabled":false,"rental_uris":{"android":"levelo://app?vid=8b56c5ff-ea0a-4197-b91e-d27b990ede13","ios":"levelo://app?vid=8b56c5ff-ea0a-4197-b91e-d27b990ede13"},"vehicle_type_id":"4","last_reported":1687968567,"current_range_meters":24000,"station_id":"ce4bhqp2rcd13ifvqhng","pricing_plan_id":"free"},{"bike_id":"9fa50eb5-2149-479e-8809-c9b8c1725541","system_id":"levelo_inurba_marseille","lat":43.317557,"lon":5.390173,"is_reserved":false,"is_disabled":false,"rental_uris":{"android":"levelo://app?vid=9fa50eb5-2149-479e-8809-c9b8c1725541","ios":"levelo://app?vid=9fa50eb5-2149-479e-8809-c9b8c1725541"},"vehicle_type_id":"4","last_reported":1687968567,"current_range_meters":17200,"station_id":"ce4bhqp2rcd13ifvqhng","pricing_plan_id":"free"},{"bike_id":"2a784926-1c58-48c0-9dc4-cf87a4d30c1f","system_id":"levelo_inurba_marseille","lat":43.296263,"lon":5.377094,"is_reserved":false,"is_disabled":false,"rental_uris":{"android":"levelo://app?vid=2a784926-1c58-48c0-9dc4-cf87a4d30c1f","ios":"levelo://app?vid=2a784926-1c58-48c0-9dc4-cf87a4d30c1f"},"vehicle_type_id":"4","last_reported":1687968567,"current_range_meters":26400,"station_id":"ce4bgi92rcd13ifvqb90","pricing_plan_id":"free"},{"bike_id":"35fbcbe5-d075-4195-b83f-96bd922b3260","system_id":"levelo_inurba_marseille","lat":43.295169,"lon":5.390426,"is_reserved":false,"is_disabled":false,"rental_uris":{"android":"levelo://app?vid=35fbcbe5-d075-4195-b83f-96bd922b3260","ios":"levelo://app?vid=35fbcbe5-d075-4195-b83f-96bd922b3260"},"vehicle_type_id":"4","last_reported":1687968567,"current_range_meters":14000,"station_id":"ce4bh3p2rcd13ifvqdp0","pricing_plan_id":"free"},{"bike_id":"b05ee759-b5c3-4465-a7df-6635f6cf74df","system_id":"levelo_inurba_marseille","lat":43.299717,"lon":5.384845,"is_reserved":false,"is_disabled":false,"rental_uris":{"android":"levelo://app?vid=b05ee759-b5c3-4465-a7df-6635f6cf74df","ios":"levelo://app?vid=b05ee759-b5c3-4465-a7df-6635f6cf74df"},"vehicle_type_id":"4","last_reported":1687968567,"current_range_meters":15200,"station_id":"ce4bgj92rcd13ifvqbd0","pricing_plan_id":"free"},{"bike_id":"17699e37-3d2e-4430-920b-d9956fe6ad21","system_id":"levelo_inurba_marseille","lat":43.299717,"lon":5.384845,"is_reserved":false,"is_disabled":false,"rental_uris":{"android":"levelo://app?vid=17699e37-3d2e-4430-920b-d9956fe6ad21","ios":"levelo://app?vid=17699e37-3d2e-4430-920b-d9956fe6ad21"},"vehicle_type_id":"4","last_reported":1687968567,"current_range_meters":23200,"station_id":"ce4bgj92rcd13ifvqbd0","pricing_plan_id":"free"},{"bike_id":"6b6b5e92-75b0-4619-8a07-d993192a3d44","system_id":"levelo_inurba_marseille","lat":43.3237,"lon":5.38885,"is_reserved":false,"is_disabled":false,"rental_uris":{"android":"levelo://app?vid=6b6b5e92-75b0-4619-8a07-d993192a3d44","ios":"levelo://app?vid=6b6b5e92-75b0-4619-8a07-d993192a3d44"},"vehicle_type_id":"4","last_reported":1687968567,"current_range_meters":0,"station_id":"ce4bhqp2rcd13ifvqhog","pricing_plan_id":"free"},{"bike_id":"eeafc2f1-3407-474f-b1ad-aa272d434a84","system_id":"levelo_inurba_marseille","lat":43.32363,"lon":5.38895,"is_reserved":false,"is_disabled":false,"rental_uris":{"android":"levelo://app?vid=eeafc2f1-3407-474f-b1ad-aa272d434a84","ios":"levelo://app?vid=eeafc2f1-3407-474f-b1ad-aa272d434a84"},"vehicle_type_id":"4","last_reported":1687968567,"current_range_meters":27600,"station_id":"ce4bhqp2rcd13ifvqhog","pricing_plan_id":"free"},{"bike_id":"a8d99187-e9a6-47d7-8c8e-9a88c0340770","system_id":"levelo_inurba_marseille","lat":43.302992,"lon":5.392136,"is_reserved":false,"is_disabled":false,"rental_uris":{"android":"levelo://app?vid=a8d99187-e9a6-47d7-8c8e-9a88c0340770","ios":"levelo://app?vid=a8d99187-e9a6-47d7-8c8e-9a88c0340770"},"vehicle_type_id":"4","last_reported":1687968567,"current_range_meters":24400,"station_id":"ce4bgkh2rcd13ifvqbk0","pricing_plan_id":"free"},{"bike_id":"0ef33247-d2f4-4285-8b58-0301655b847a","system_id":"levelo_inurba_marseille","lat":43.293249,"lon":5.371578,"is_reserved":false,"is_disabled":false,"rental_uris":{"android":"levelo://app?vid=0ef33247-d2f4-4285-8b58-0301655b847a","ios":"levelo://app?vid=0ef33247-d2f4-4285-8b58-0301655b847a"},"vehicle_type_id":"4","last_reported":1687968567,"current_range_meters":28000,"station_id":"ce4bgh92rcd13ifvqb40","pricing_plan_id":"free"},{"bike_id":"49e32051-cc8b-40c6-ad15-a669cff124c4","system_id":"levelo_inurba_marseille","lat":43.292749,"lon":5.368398,"is_reserved":false,"is_disabled":false,"rental_uris":{"android":"levelo://app?vid=49e32051-cc8b-40c6-ad15-a669cff124c4","ios":"levelo://app?vid=49e32051-cc8b-40c6-ad15-a669cff124c4"},"vehicle_type_id":"4","last_reported":1687968567,"current_range_meters":29600,"station_id":"ce4bhbp2rcd13ifvqesg","pricing_plan_id":"free"},{"bike_id":"18c89927-dc66-47b3-bf01-49e4fc0eb21c","system_id":"levelo_inurba_marseille","lat":43.293009,"lon":5.374584,"is_reserved":false,"is_disabled":false,"rental_uris":{"android":"levelo://app?vid=18c89927-dc66-47b3-bf01-49e4fc0eb21c","ios":"levelo://app?vid=18c89927-dc66-47b3-bf01-49e4fc0eb21c"},"vehicle_type_id":"4","last_reported":1687968567,"current_range_meters":2000,"station_id":"ce4bgi12rcd13ifvqb70","pricing_plan_id":"free"},{"bike_id":"64fb77ce-660b-42ec-a969-6a960a9849ca","system_id":"levelo_inurba_marseille","lat":43.2922,"lon":5.36135,"is_reserved":false,"is_disabled":false,"rental_uris":{"android":"levelo://app?vid=64fb77ce-660b-42ec-a969-6a960a9849ca","ios":"levelo://app?vid=64fb77ce-660b-42ec-a969-6a960a9849ca"},"vehicle_type_id":"4","last_reported":1687968567,"current_range_meters":7600,"station_id":"","pricing_plan_id":"free"},{"bike_id":"54b4d00c-74b3-409c-8563-63c947c80dae","system_id":"levelo_inurba_marseille","lat":43.298764,"lon":5.388973,"is_reserved":false,"is_disabled":false,"rental_uris":{"android":"levelo://app?vid=54b4d00c-74b3-409c-8563-63c947c80dae","ios":"levelo://app?vid=54b4d00c-74b3-409c-8563-63c947c80dae"},"vehicle_type_id":"4","last_reported":1687968567,"current_range_meters":7600,"station_id":"ce4bh392rcd13ifvqdl0","pricing_plan_id":"free"},{"bike_id":"6e79d535-5576-4c0e-b7f8-ac6388ea2f82","system_id":"levelo_inurba_marseille","lat":43.291994,"lon":5.357886,"is_reserved":false,"is_disabled":false,"rental_uris":{"android":"levelo://app?vid=6e79d535-5576-4c0e-b7f8-ac6388ea2f82","ios":"levelo://app?vid=6e79d535-5576-4c0e-b7f8-ac6388ea2f82"},"vehicle_type_id":"4","last_reported":1687968567,"current_range_meters":12800,"station_id":"ce4bhb12rcd13ifvqel0","pricing_plan_id":"free"},{"bike_id":"65551727-3f0b-4c67-bb5b-2f36804180da","system_id":"levelo_inurba_marseille","lat":43.29529,"lon":5.385581,"is_reserved":false,"is_disabled":false,"rental_uris":{"android":"levelo://app?vid=65551727-3f0b-4c67-bb5b-2f36804180da","ios":"levelo://app?vid=65551727-3f0b-4c67-bb5b-2f36804180da"},"vehicle_type_id":"4","last_reported":1687968567,"current_range_meters":13200,"station_id":"ce4bgih2rcd13ifvqba0","pricing_plan_id":"free"},{"bike_id":"4df47ce6-13ab-44ca-96b6-e1da278eafbc","system_id":"levelo_inurba_marseille","lat":43.29529,"lon":5.385581,"is_reserved":false,"is_disabled":false,"rental_uris":{"android":"levelo://app?vid=4df47ce6-13ab-44ca-96b6-e1da278eafbc","ios":"levelo://app?vid=4df47ce6-13ab-44ca-96b6-e1da278eafbc"},"vehicle_type_id":"4","last_reported":1687968567,"current_range_meters":16000,"station_id":"ce4bgih2rcd13ifvqba0","pricing_plan_id":"free"},{"bike_id":"230009a1-94c2-44d5-a0d3-4d4844a17b1e","system_id":"levelo_inurba_marseille","lat":43.309038,"lon":5.396546,"is_reserved":false,"is_disabled":false,"rental_uris":{"android":"levelo://app?vid=230009a1-94c2-44d5-a0d3-4d4844a17b1e","ios":"levelo://app?vid=230009a1-94c2-44d5-a0d3-4d4844a17b1e"},"vehicle_type_id":"4","last_reported":1687968567,"current_range_meters":13200,"station_id":"ce4bh012rcd13ifvqcv0","pricing_plan_id":"free"},{"bike_id":"bb52f38c-1980-4eea-94b1-dfd23814c4ee","system_id":"levelo_inurba_marseille","lat":43.29529,"lon":5.385581,"is_reserved":false,"is_disabled":false,"rental_uris":{"android":"levelo://app?vid=bb52f38c-1980-4eea-94b1-dfd23814c4ee","ios":"levelo://app?vid=bb52f38c-1980-4eea-94b1-dfd23814c4ee"},"vehicle_type_id":"4","last_reported":1687968567,"current_range_meters":7200,"station_id":"ce4bgih2rcd13ifvqba0","pricing_plan_id":"free"},{"bike_id":"404028ac-1cc1-4708-bb76-3c19444f1403","system_id":"levelo_inurba_marseille","lat":43.29529,"lon":5.385581,"is_reserved":false,"is_disabled":false,"rental_uris":{"android":"levelo://app?vid=404028ac-1cc1-4708-bb76-3c19444f1403","ios":"levelo://app?vid=404028ac-1cc1-4708-bb76-3c19444f1403"},"vehicle_type_id":"4","last_reported":1687968567,"current_range_meters":15200,"station_id":"ce4bgih2rcd13ifvqba0","pricing_plan_id":"free"},{"bike_id":"fe66873f-bcee-42c4-85b8-87830701e768","system_id":"levelo_inurba_marseille","lat":43.29529,"lon":5.385581,"is_reserved":false,"is_disabled":false,"rental_uris":{"android":"levelo://app?vid=fe66873f-bcee-42c4-85b8-87830701e768","ios":"levelo://app?vid=fe66873f-bcee-42c4-85b8-87830701e768"},"vehicle_type_id":"4","last_reported":1687968567,"current_range_meters":13600,"station_id":"ce4bgih2rcd13ifvqba0","pricing_plan_id":"free"},{"bike_id":"3e761a87-68d9-4e92-ac59-8e7fb6ffca17","system_id":"levelo_inurba_marseille","lat":43.302008,"lon":5.394694,"is_reserved":false,"is_disabled":false,"rental_uris":{"android":"levelo://app?vid=3e761a87-68d9-4e92-ac59-8e7fb6ffca17","ios":"levelo://app?vid=3e761a87-68d9-4e92-ac59-8e7fb6ffca17"},"vehicle_type_id":"4","last_reported":1687968567,"current_range_meters":30400,"station_id":"ce4bh0p2rcd13ifvqd70","pricing_plan_id":"free"},{"bike_id":"0803b5bd-02dc-4335-b479-5b9b95b0c52f","system_id":"levelo_inurba_marseille","lat":43.290631,"lon":5.359244,"is_reserved":false,"is_disabled":false,"rental_uris":{"android":"levelo://app?vid=0803b5bd-02dc-4335-b479-5b9b95b0c52f","ios":"levelo://app?vid=0803b5bd-02dc-4335-b479-5b9b95b0c52f"},"vehicle_type_id":"4","last_reported":1687968567,"current_range_meters":1200,"station_id":"ce4bha92rcd13ifvqeg0","pricing_plan_id":"free"},{"bike_id":"45135e83-c942-4cad-9c6f-b3521d9a5f76","system_id":"levelo_inurba_marseille","lat":43.29041,"lon":5.37585,"is_reserved":false,"is_disabled":false,"rental_uris":{"android":"levelo://app?vid=45135e83-c942-4cad-9c6f-b3521d9a5f76","ios":"levelo://app?vid=45135e83-c942-4cad-9c6f-b3521d9a5f76"},"vehicle_type_id":"4","last_reported":1687968567,"current_range_meters":27200,"station_id":"ce4bh692rcd13ifvqe90","pricing_plan_id":"free"},{"bike_id":"6867df42-30dd-4825-b7fe-404564247748","system_id":"levelo_inurba_marseille","lat":43.294174,"lon":5.386231,"is_reserved":false,"is_disabled":false,"rental_uris":{"android":"levelo://app?vid=6867df42-30dd-4825-b7fe-404564247748","ios":"levelo://app?vid=6867df42-30dd-4825-b7fe-404564247748"},"vehicle_type_id":"4","last_reported":1687968567,"current_range_meters":10400,"station_id":"","pricing_plan_id":"free"},{"bike_id":"edb641e0-6683-452a-8c2d-0b9f6594b12b","system_id":"levelo_inurba_marseille","lat":43.294153,"lon":5.386305,"is_reserved":false,"is_disabled":false,"rental_uris":{"android":"levelo://app?vid=edb641e0-6683-452a-8c2d-0b9f6594b12b","ios":"levelo://app?vid=edb641e0-6683-452a-8c2d-0b9f6594b12b"},"vehicle_type_id":"4","last_reported":1687968567,"current_range_meters":800,"station_id":"ce4bh2h2rcd13ifvqdh0","pricing_plan_id":"free"},{"bike_id":"399ef6b6-bd49-40a3-a085-0dfa050cfb9f","system_id":"levelo_inurba_marseille","lat":43.29411,"lon":5.38614,"is_reserved":false,"is_disabled":false,"rental_uris":{"android":"levelo://app?vid=399ef6b6-bd49-40a3-a085-0dfa050cfb9f","ios":"levelo://app?vid=399ef6b6-bd49-40a3-a085-0dfa050cfb9f"},"vehicle_type_id":"4","last_reported":1687968567,"current_range_meters":3200,"station_id":"","pricing_plan_id":"free"},{"bike_id":"2db94cb0-617d-4ede-89a4-47c52bfda79c","system_id":"levelo_inurba_marseille","lat":43.294162,"lon":5.386292,"is_reserved":false,"is_disabled":false,"rental_uris":{"android":"levelo://app?vid=2db94cb0-617d-4ede-89a4-47c52bfda79c","ios":"levelo://app?vid=2db94cb0-617d-4ede-89a4-47c52bfda79c"},"vehicle_type_id":"4","last_reported":1687968567,"current_range_meters":6400,"station_id":"ce4bh2h2rcd13ifvqdh0","pricing_plan_id":"free"},{"bike_id":"1023bff6-d5d5-41f8-a0aa-d97a9995d69a","system_id":"levelo_inurba_marseille","lat":43.294162,"lon":5.386292,"is_reserved":false,"is_disabled":false,"rental_uris":{"android":"levelo://app?vid=1023bff6-d5d5-41f8-a0aa-d97a9995d69a","ios":"levelo://app?vid=1023bff6-d5d5-41f8-a0aa-d97a9995d69a"},"vehicle_type_id":"4","last_reported":1687968567,"current_range_meters":800,"station_id":"ce4bh2h2rcd13ifvqdh0","pricing_plan_id":"free"},{"bike_id":"0b2f8ffb-06df-4812-9e67-3456aab67a77","system_id":"levelo_inurba_marseille","lat":43.289184,"lon":5.366408,"is_reserved":false,"is_disabled":false,"rental_uris":{"android":"levelo://app?vid=0b2f8ffb-06df-4812-9e67-3456aab67a77","ios":"levelo://app?vid=0b2f8ffb-06df-4812-9e67-3456aab67a77"},"vehicle_type_id":"4","last_reported":1687968567,"current_range_meters":30400,"station_id":"ce4bhap2rcd13ifvqek0","pricing_plan_id":"free"},{"bike_id":"798b1004-8449-46b6-bf61-d87e231c965f","system_id":"levelo_inurba_marseille","lat":43.292644,"lon":5.384257,"is_reserved":false,"is_disabled":false,"rental_uris":{"android":"levelo://app?vid=798b1004-8449-46b6-bf61-d87e231c965f","ios":"levelo://app?vid=798b1004-8449-46b6-bf61-d87e231c965f"},"vehicle_type_id":"4","last_reported":1687968567,"current_range_meters":22000,"station_id":"ce4bh692rcd13ifvqea0","pricing_plan_id":"free"},{"bike_id":"0a52eda6-aef4-47ad-ae1d-76c679ae4cf0","system_id":"levelo_inurba_marseille","lat":43.33038,"lon":5.38922,"is_reserved":false,"is_disabled":false,"rental_uris":{"android":"levelo://app?vid=0a52eda6-aef4-47ad-ae1d-76c679ae4cf0","ios":"levelo://app?vid=0a52eda6-aef4-47ad-ae1d-76c679ae4cf0"},"vehicle_type_id":"4","last_reported":1687968567,"current_range_meters":12400,"station_id":"ce4bhr92rcd13ifvqhrg","pricing_plan_id":"free"},{"bike_id":"dd5e4af3-215a-4a31-8219-0c8a890a1da2","system_id":"levelo_inurba_marseille","lat":43.33042,"lon":5.3892,"is_reserved":false,"is_disabled":false,"rental_uris":{"android":"levelo://app?vid=dd5e4af3-215a-4a31-8219-0c8a890a1da2","ios":"levelo://app?vid=dd5e4af3-215a-4a31-8219-0c8a890a1da2"},"vehicle_type_id":"4","last_reported":1687968567,"current_range_meters":30400,"station_id":"ce4bhr92rcd13ifvqhrg","pricing_plan_id":"free"},{"bike_id":"f791cd7c-b8f7-43c1-93df-17bc665123c7","system_id":"levelo_inurba_marseille","lat":43.33045,"lon":5.38919,"is_reserved":false,"is_disabled":false,"rental_uris":{"android":"levelo://app?vid=f791cd7c-b8f7-43c1-93df-17bc665123c7","ios":"levelo://app?vid=f791cd7c-b8f7-43c1-93df-17bc665123c7"},"vehicle_type_id":"4","last_reported":1687968567,"current_range_meters":24800,"station_id":"ce4bhr92rcd13ifvqhrg","pricing_plan_id":"free"},{"bike_id":"dc41910d-322a-450c-ae26-da6783f4c6d8","system_id":"levelo_inurba_marseille","lat":43.33052,"lon":5.38916,"is_reserved":false,"is_disabled":false,"rental_uris":{"android":"levelo://app?vid=dc41910d-322a-450c-ae26-da6783f4c6d8","ios":"levelo://app?vid=dc41910d-322a-450c-ae26-da6783f4c6d8"},"vehicle_type_id":"4","last_reported":1687968567,"current_range_meters":23600,"station_id":"ce4bhr92rcd13ifvqhrg","pricing_plan_id":"free"},{"bike_id":"224fcbc0-30c2-4506-838f-ae46d012b25e","system_id":"levelo_inurba_marseille","lat":43.297815,"lon":5.393548,"is_reserved":false,"is_disabled":false,"rental_uris":{"android":"levelo://app?vid=224fcbc0-30c2-4506-838f-ae46d012b25e","ios":"levelo://app?vid=224fcbc0-30c2-4506-838f-ae46d012b25e"},"vehicle_type_id":"4","last_reported":1687968567,"current_range_meters":29200,"station_id":"chh1huq6cuj3fo74tm60","pricing_plan_id":"free"},{"bike_id":"758c87cc-7cea-4b34-9b66-5f17774f115d","system_id":"levelo_inurba_marseille","lat":43.295169,"lon":5.390426,"is_reserved":false,"is_disabled":false,"rental_uris":{"android":"levelo://app?vid=758c87cc-7cea-4b34-9b66-5f17774f115d","ios":"levelo://app?vid=758c87cc-7cea-4b34-9b66-5f17774f115d"},"vehicle_type_id":"4","last_reported":1687968567,"current_range_meters":4000,"station_id":"ce4bh3p2rcd13ifvqdp0","pricing_plan_id":"free"},{"bike_id":"c2748af4-77a8-417f-9527-afec908d85ae","system_id":"levelo_inurba_marseille","lat":43.295169,"lon":5.390426,"is_reserved":false,"is_disabled":false,"rental_uris":{"android":"levelo://app?vid=c2748af4-77a8-417f-9527-afec908d85ae","ios":"levelo://app?vid=c2748af4-77a8-417f-9527-afec908d85ae"},"vehicle_type_id":"4","last_reported":1687968567,"current_range_meters":14800,"station_id":"ce4bh3p2rcd13ifvqdp0","pricing_plan_id":"free"},{"bike_id":"13595d68-f8a1-4b89-9697-f79a4fa84b12","system_id":"levelo_inurba_marseille","lat":43.295169,"lon":5.390426,"is_reserved":false,"is_disabled":false,"rental_uris":{"android":"levelo://app?vid=13595d68-f8a1-4b89-9697-f79a4fa84b12","ios":"levelo://app?vid=13595d68-f8a1-4b89-9697-f79a4fa84b12"},"vehicle_type_id":"4","last_reported":1687968567,"current_range_meters":0,"station_id":"ce4bh3p2rcd13ifvqdp0","pricing_plan_id":"free"},{"bike_id":"b152602a-aaa7-4eed-93ba-89050d9c58ba","system_id":"levelo_inurba_marseille","lat":43.3067,"lon":5.40078,"is_reserved":false,"is_disabled":false,"rental_uris":{"android":"levelo://app?vid=b152602a-aaa7-4eed-93ba-89050d9c58ba","ios":"levelo://app?vid=b152602a-aaa7-4eed-93ba-89050d9c58ba"},"vehicle_type_id":"4","last_reported":1687968567,"current_range_meters":22800,"station_id":"","pricing_plan_id":"free"},{"bike_id":"476cd57c-2e9c-4f0d-a086-f93a7e3396f6","system_id":"levelo_inurba_marseille","lat":43.337516,"lon":5.374747,"is_reserved":false,"is_disabled":false,"rental_uris":{"android":"levelo://app?vid=476cd57c-2e9c-4f0d-a086-f93a7e3396f6","ios":"levelo://app?vid=476cd57c-2e9c-4f0d-a086-f93a7e3396f6"},"vehicle_type_id":"4","last_reported":1687968567,"current_range_meters":28000,"station_id":"","pricing_plan_id":"free"},{"bike_id":"4504b88e-516c-4275-907f-36f5034b07f5","system_id":"levelo_inurba_marseille","lat":43.30642,"lon":5.401031,"is_reserved":false,"is_disabled":false,"rental_uris":{"android":"levelo://app?vid=4504b88e-516c-4275-907f-36f5034b07f5","ios":"levelo://app?vid=4504b88e-516c-4275-907f-36f5034b07f5"},"vehicle_type_id":"4","last_reported":1687968567,"current_range_meters":28800,"station_id":"ce4bh112rcd13ifvqda0","pricing_plan_id":"free"},{"bike_id":"36bab8a6-415e-4602-85d4-fe4b558289f3","system_id":"levelo_inurba_marseille","lat":43.286591,"lon":5.363346,"is_reserved":false,"is_disabled":false,"rental_uris":{"android":"levelo://app?vid=36bab8a6-415e-4602-85d4-fe4b558289f3","ios":"levelo://app?vid=36bab8a6-415e-4602-85d4-fe4b558289f3"},"vehicle_type_id":"4","last_reported":1687968567,"current_range_meters":22000,"station_id":"ce4bhah2rcd13ifvqej0","pricing_plan_id":"free"},{"bike_id":"c3872c64-0f63-460c-85e4-bd6e705ecd17","system_id":"levelo_inurba_marseille","lat":43.290336,"lon":5.386425,"is_reserved":false,"is_disabled":false,"rental_uris":{"android":"levelo://app?vid=c3872c64-0f63-460c-85e4-bd6e705ecd17","ios":"levelo://app?vid=c3872c64-0f63-460c-85e4-bd6e705ecd17"},"vehicle_type_id":"4","last_reported":1687968567,"current_range_meters":21200,"station_id":"ce4bh4p2rcd13ifvqe0g","pricing_plan_id":"free"},{"bike_id":"a08069cd-cd9b-4aee-96d9-88c249dd1636","system_id":"levelo_inurba_marseille","lat":43.302759,"lon":5.400793,"is_reserved":false,"is_disabled":false,"rental_uris":{"android":"levelo://app?vid=a08069cd-cd9b-4aee-96d9-88c249dd1636","ios":"levelo://app?vid=a08069cd-cd9b-4aee-96d9-88c249dd1636"},"vehicle_type_id":"4","last_reported":1687968567,"current_range_meters":6400,"station_id":"ce4bgvh2rcd13ifvqcs0","pricing_plan_id":"free"},{"bike_id":"2aab0b03-710c-4b4c-9bf7-f59fa5894e53","system_id":"levelo_inurba_marseille","lat":43.286039,"lon":5.370679,"is_reserved":false,"is_disabled":false,"rental_uris":{"android":"levelo://app?vid=2aab0b03-710c-4b4c-9bf7-f59fa5894e53","ios":"levelo://app?vid=2aab0b03-710c-4b4c-9bf7-f59fa5894e53"},"vehicle_type_id":"4","last_reported":1687968567,"current_range_meters":27600,"station_id":"ce4bht12rcd13ifvqi60","pricing_plan_id":"free"},{"bike_id":"1c26d970-d168-472a-8e85-8945cc2fd730","system_id":"levelo_inurba_marseille","lat":43.29263,"lon":5.3913,"is_reserved":false,"is_disabled":false,"rental_uris":{"android":"levelo://app?vid=1c26d970-d168-472a-8e85-8945cc2fd730","ios":"levelo://app?vid=1c26d970-d168-472a-8e85-8945cc2fd730"},"vehicle_type_id":"4","last_reported":1687968567,"current_range_meters":10000,"station_id":"","pricing_plan_id":"free"},{"bike_id":"d69fed3a-efe9-46fb-b1dc-1240b8978d3e","system_id":"levelo_inurba_marseille","lat":43.316517,"lon":5.404375,"is_reserved":false,"is_disabled":false,"rental_uris":{"android":"levelo://app?vid=d69fed3a-efe9-46fb-b1dc-1240b8978d3e","ios":"levelo://app?vid=d69fed3a-efe9-46fb-b1dc-1240b8978d3e"},"vehicle_type_id":"4","last_reported":1687968567,"current_range_meters":25600,"station_id":"ce4bh012rcd13ifvqd00","pricing_plan_id":"free"},{"bike_id":"91994e17-c03b-4b15-829c-ada7b46352cb","system_id":"levelo_inurba_marseille","lat":43.291994,"lon":5.392907,"is_reserved":false,"is_disabled":false,"rental_uris":{"android":"levelo://app?vid=91994e17-c03b-4b15-829c-ada7b46352cb","ios":"levelo://app?vid=91994e17-c03b-4b15-829c-ada7b46352cb"},"vehicle_type_id":"4","last_reported":1687968567,"current_range_meters":16800,"station_id":"ce4bh192rcd13ifvqdd0","pricing_plan_id":"free"},{"bike_id":"261197e9-d120-4f90-acd6-102cc23e3523","system_id":"levelo_inurba_marseille","lat":43.28956,"lon":5.38911,"is_reserved":false,"is_disabled":false,"rental_uris":{"android":"levelo://app?vid=261197e9-d120-4f90-acd6-102cc23e3523","ios":"levelo://app?vid=261197e9-d120-4f90-acd6-102cc23e3523"},"vehicle_type_id":"4","last_reported":1687968567,"current_range_meters":6000,"station_id":"","pricing_plan_id":"free"},{"bike_id":"4848ab0b-670f-4cee-94ec-8d4fa4a9ce27","system_id":"levelo_inurba_marseille","lat":43.289468,"lon":5.363719,"is_reserved":false,"is_disabled":false,"rental_uris":{"android":"levelo://app?vid=4848ab0b-670f-4cee-94ec-8d4fa4a9ce27","ios":"levelo://app?vid=4848ab0b-670f-4cee-94ec-8d4fa4a9ce27"},"vehicle_type_id":"4","last_reported":1687968567,"current_range_meters":22800,"station_id":"ce4bhc92rcd13ifvqetg","pricing_plan_id":"free"},{"bike_id":"13b3460b-225a-4b11-a777-6ed1043f304f","system_id":"levelo_inurba_marseille","lat":43.285856,"lon":5.350771,"is_reserved":false,"is_disabled":false,"rental_uris":{"android":"levelo://app?vid=13b3460b-225a-4b11-a777-6ed1043f304f","ios":"levelo://app?vid=13b3460b-225a-4b11-a777-6ed1043f304f"},"vehicle_type_id":"4","last_reported":1687968567,"current_range_meters":20000,"station_id":"ce4bhch2rcd13ifvqeug","pricing_plan_id":"free"},{"bike_id":"95c3acc6-1402-4211-abbb-9c56da5e6d5c","system_id":"levelo_inurba_marseille","lat":43.285856,"lon":5.350771,"is_reserved":false,"is_disabled":false,"rental_uris":{"android":"levelo://app?vid=95c3acc6-1402-4211-abbb-9c56da5e6d5c","ios":"levelo://app?vid=95c3acc6-1402-4211-abbb-9c56da5e6d5c"},"vehicle_type_id":"4","last_reported":1687968567,"current_range_meters":22000,"station_id":"ce4bhch2rcd13ifvqeug","pricing_plan_id":"free"},{"bike_id":"27291a8e-880f-40c7-9849-edca871711ba","system_id":"levelo_inurba_marseille","lat":43.285856,"lon":5.350771,"is_reserved":false,"is_disabled":false,"rental_uris":{"android":"levelo://app?vid=27291a8e-880f-40c7-9849-edca871711ba","ios":"levelo://app?vid=27291a8e-880f-40c7-9849-edca871711ba"},"vehicle_type_id":"4","last_reported":1687968567,"current_range_meters":7600,"station_id":"ce4bhch2rcd13ifvqeug","pricing_plan_id":"free"},{"bike_id":"9c54fd03-538b-440e-9b82-04b5bde39548","system_id":"levelo_inurba_marseille","lat":43.285856,"lon":5.350771,"is_reserved":false,"is_disabled":false,"rental_uris":{"android":"levelo://app?vid=9c54fd03-538b-440e-9b82-04b5bde39548","ios":"levelo://app?vid=9c54fd03-538b-440e-9b82-04b5bde39548"},"vehicle_type_id":"4","last_reported":1687968567,"current_range_meters":26400,"station_id":"ce4bhch2rcd13ifvqeug","pricing_plan_id":"free"},{"bike_id":"5d5b41fa-7e3c-4d6f-bdfe-1a11919c71aa","system_id":"levelo_inurba_marseille","lat":43.28611,"lon":5.35096,"is_reserved":false,"is_disabled":false,"rental_uris":{"android":"levelo://app?vid=5d5b41fa-7e3c-4d6f-bdfe-1a11919c71aa","ios":"levelo://app?vid=5d5b41fa-7e3c-4d6f-bdfe-1a11919c71aa"},"vehicle_type_id":"4","last_reported":1687968567,"current_range_meters":0,"station_id":"ce4bhch2rcd13ifvqeug","pricing_plan_id":"free"},{"bike_id":"89984c56-3300-4c3a-bac6-c86178b6dcac","system_id":"levelo_inurba_marseille","lat":43.287428,"lon":5.389267,"is_reserved":false,"is_disabled":false,"rental_uris":{"android":"levelo://app?vid=89984c56-3300-4c3a-bac6-c86178b6dcac","ios":"levelo://app?vid=89984c56-3300-4c3a-bac6-c86178b6dcac"},"vehicle_type_id":"4","last_reported":1687968567,"current_range_meters":19200,"station_id":"","pricing_plan_id":"free"},{"bike_id":"c2d6a554-ae03-4376-9378-4f5e51cebe95","system_id":"levelo_inurba_marseille","lat":43.323464,"lon":5.406297,"is_reserved":false,"is_disabled":false,"rental_uris":{"android":"levelo://app?vid=c2d6a554-ae03-4376-9378-4f5e51cebe95","ios":"levelo://app?vid=c2d6a554-ae03-4376-9378-4f5e51cebe95"},"vehicle_type_id":"4","last_reported":1687968567,"current_range_meters":24000,"station_id":"ce4bhq92rcd13ifvqhjg","pricing_plan_id":"free"},{"bike_id":"b513d020-d9e1-4811-a181-393b1da01710","system_id":"levelo_inurba_marseille","lat":43.28464,"lon":5.38428,"is_reserved":false,"is_disabled":false,"rental_uris":{"android":"levelo://app?vid=b513d020-d9e1-4811-a181-393b1da01710","ios":"levelo://app?vid=b513d020-d9e1-4811-a181-393b1da01710"},"vehicle_type_id":"4","last_reported":1687968567,"current_range_meters":14000,"station_id":"ce4bh512rcd13ifvqe3g","pricing_plan_id":"free"},{"bike_id":"b4c950db-352f-4a1a-8e3c-c05101a6dad0","system_id":"levelo_inurba_marseille","lat":43.28854,"lon":5.39316,"is_reserved":false,"is_disabled":false,"rental_uris":{"android":"levelo://app?vid=b4c950db-352f-4a1a-8e3c-c05101a6dad0","ios":"levelo://app?vid=b4c950db-352f-4a1a-8e3c-c05101a6dad0"},"vehicle_type_id":"4","last_reported":1687968567,"current_range_meters":31200,"station_id":"ce4bh2p2rcd13ifvqdi0","pricing_plan_id":"free"},{"bike_id":"7c107e70-db29-4f98-8532-152d1cca41fc","system_id":"levelo_inurba_marseille","lat":43.283494,"lon":5.380945,"is_reserved":false,"is_disabled":false,"rental_uris":{"android":"levelo://app?vid=7c107e70-db29-4f98-8532-152d1cca41fc","ios":"levelo://app?vid=7c107e70-db29-4f98-8532-152d1cca41fc"},"vehicle_type_id":"4","last_reported":1687968567,"current_range_meters":17200,"station_id":"ce4bh412rcd13ifvqdr0","pricing_plan_id":"free"},{"bike_id":"c0d0403f-0222-4125-8e91-3f2925b824b2","system_id":"levelo_inurba_marseille","lat":43.28427,"lon":5.34996,"is_reserved":false,"is_disabled":false,"rental_uris":{"android":"levelo://app?vid=c0d0403f-0222-4125-8e91-3f2925b824b2","ios":"levelo://app?vid=c0d0403f-0222-4125-8e91-3f2925b824b2"},"vehicle_type_id":"4","last_reported":1687968567,"current_range_meters":18800,"station_id":"ce4bhbh2rcd13ifvqepg","pricing_plan_id":"free"},{"bike_id":"d9f1c280-5790-45ed-9cb1-edb75a9c5469","system_id":"levelo_inurba_marseille","lat":43.28424,"lon":5.34992,"is_reserved":false,"is_disabled":false,"rental_uris":{"android":"levelo://app?vid=d9f1c280-5790-45ed-9cb1-edb75a9c5469","ios":"levelo://app?vid=d9f1c280-5790-45ed-9cb1-edb75a9c5469"},"vehicle_type_id":"4","last_reported":1687968567,"current_range_meters":8000,"station_id":"ce4bhbh2rcd13ifvqepg","pricing_plan_id":"free"},{"bike_id":"7fd8d4c4-5958-4e45-86ca-d3a57f5790ad","system_id":"levelo_inurba_marseille","lat":43.28421,"lon":5.35001,"is_reserved":false,"is_disabled":false,"rental_uris":{"android":"levelo://app?vid=7fd8d4c4-5958-4e45-86ca-d3a57f5790ad","ios":"levelo://app?vid=7fd8d4c4-5958-4e45-86ca-d3a57f5790ad"},"vehicle_type_id":"4","last_reported":1687968567,"current_range_meters":14000,"station_id":"ce4bhbh2rcd13ifvqepg","pricing_plan_id":"free"},{"bike_id":"329f8e3b-a5cc-43a6-be60-e85219d80081","system_id":"levelo_inurba_marseille","lat":43.28425,"lon":5.34988,"is_reserved":false,"is_disabled":false,"rental_uris":{"android":"levelo://app?vid=329f8e3b-a5cc-43a6-be60-e85219d80081","ios":"levelo://app?vid=329f8e3b-a5cc-43a6-be60-e85219d80081"},"vehicle_type_id":"4","last_reported":1687968567,"current_range_meters":24400,"station_id":"ce4bhbh2rcd13ifvqepg","pricing_plan_id":"free"},{"bike_id":"6dea0a9c-baf9-4949-9fc0-238aed06cf20","system_id":"levelo_inurba_marseille","lat":43.28423,"lon":5.34994,"is_reserved":false,"is_disabled":false,"rental_uris":{"android":"levelo://app?vid=6dea0a9c-baf9-4949-9fc0-238aed06cf20","ios":"levelo://app?vid=6dea0a9c-baf9-4949-9fc0-238aed06cf20"},"vehicle_type_id":"4","last_reported":1687968567,"current_range_meters":14000,"station_id":"ce4bhbh2rcd13ifvqepg","pricing_plan_id":"free"},{"bike_id":"a59794b5-d43f-4a34-9b73-6afd0d9add0a","system_id":"levelo_inurba_marseille","lat":43.284217,"lon":5.349697,"is_reserved":false,"is_disabled":false,"rental_uris":{"android":"levelo://app?vid=a59794b5-d43f-4a34-9b73-6afd0d9add0a","ios":"levelo://app?vid=a59794b5-d43f-4a34-9b73-6afd0d9add0a"},"vehicle_type_id":"4","last_reported":1687968567,"current_range_meters":30800,"station_id":"ce4bhbh2rcd13ifvqepg","pricing_plan_id":"free"},{"bike_id":"59020c7f-6996-437c-9185-ac742c105d69","system_id":"levelo_inurba_marseille","lat":43.28421,"lon":5.34998,"is_reserved":false,"is_disabled":false,"rental_uris":{"android":"levelo://app?vid=59020c7f-6996-437c-9185-ac742c105d69","ios":"levelo://app?vid=59020c7f-6996-437c-9185-ac742c105d69"},"vehicle_type_id":"4","last_reported":1687968567,"current_range_meters":27600,"station_id":"ce4bhbh2rcd13ifvqepg","pricing_plan_id":"free"},{"bike_id":"ef38d831-7472-448c-a276-00a2984a93e8","system_id":"levelo_inurba_marseille","lat":43.284219,"lon":5.3497,"is_reserved":false,"is_disabled":false,"rental_uris":{"android":"levelo://app?vid=ef38d831-7472-448c-a276-00a2984a93e8","ios":"levelo://app?vid=ef38d831-7472-448c-a276-00a2984a93e8"},"vehicle_type_id":"4","last_reported":1687968567,"current_range_meters":30800,"station_id":"ce4bhbh2rcd13ifvqepg","pricing_plan_id":"free"},{"bike_id":"36e6c546-262b-42e2-94e4-a6e0a51e50cc","system_id":"levelo_inurba_marseille","lat":43.284219,"lon":5.3497,"is_reserved":false,"is_disabled":false,"rental_uris":{"android":"levelo://app?vid=36e6c546-262b-42e2-94e4-a6e0a51e50cc","ios":"levelo://app?vid=36e6c546-262b-42e2-94e4-a6e0a51e50cc"},"vehicle_type_id":"4","last_reported":1687968567,"current_range_meters":24000,"station_id":"ce4bhbh2rcd13ifvqepg","pricing_plan_id":"free"},{"bike_id":"6245a0d2-89bc-4485-b36c-709516d26ad5","system_id":"levelo_inurba_marseille","lat":43.28422,"lon":5.34988,"is_reserved":false,"is_disabled":false,"rental_uris":{"android":"levelo://app?vid=6245a0d2-89bc-4485-b36c-709516d26ad5","ios":"levelo://app?vid=6245a0d2-89bc-4485-b36c-709516d26ad5"},"vehicle_type_id":"4","last_reported":1687968567,"current_range_meters":19600,"station_id":"ce4bhbh2rcd13ifvqepg","pricing_plan_id":"free"},{"bike_id":"cf915bbf-0044-4576-b1e4-cf946d68cb7e","system_id":"levelo_inurba_marseille","lat":43.2842,"lon":5.34993,"is_reserved":false,"is_disabled":false,"rental_uris":{"android":"levelo://app?vid=cf915bbf-0044-4576-b1e4-cf946d68cb7e","ios":"levelo://app?vid=cf915bbf-0044-4576-b1e4-cf946d68cb7e"},"vehicle_type_id":"4","last_reported":1687968567,"current_range_meters":13600,"station_id":"ce4bhbh2rcd13ifvqepg","pricing_plan_id":"free"},{"bike_id":"8fb82ddf-1398-4b18-9ae3-26dee1ff9394","system_id":"levelo_inurba_marseille","lat":43.284219,"lon":5.3497,"is_reserved":false,"is_disabled":false,"rental_uris":{"android":"levelo://app?vid=8fb82ddf-1398-4b18-9ae3-26dee1ff9394","ios":"levelo://app?vid=8fb82ddf-1398-4b18-9ae3-26dee1ff9394"},"vehicle_type_id":"4","last_reported":1687968567,"current_range_meters":31200,"station_id":"ce4bhbh2rcd13ifvqepg","pricing_plan_id":"free"},{"bike_id":"03db7a63-8184-45a5-b27b-ccc135182105","system_id":"levelo_inurba_marseille","lat":43.284217,"lon":5.349697,"is_reserved":false,"is_disabled":false,"rental_uris":{"android":"levelo://app?vid=03db7a63-8184-45a5-b27b-ccc135182105","ios":"levelo://app?vid=03db7a63-8184-45a5-b27b-ccc135182105"},"vehicle_type_id":"4","last_reported":1687968567,"current_range_meters":25600,"station_id":"ce4bhbh2rcd13ifvqepg","pricing_plan_id":"free"},{"bike_id":"c3e85746-12eb-4fbb-95bf-ff744473bbc3","system_id":"levelo_inurba_marseille","lat":43.284217,"lon":5.349697,"is_reserved":false,"is_disabled":false,"rental_uris":{"android":"levelo://app?vid=c3e85746-12eb-4fbb-95bf-ff744473bbc3","ios":"levelo://app?vid=c3e85746-12eb-4fbb-95bf-ff744473bbc3"},"vehicle_type_id":"4","last_reported":1687968567,"current_range_meters":20400,"station_id":"ce4bhbh2rcd13ifvqepg","pricing_plan_id":"free"},{"bike_id":"542bf95b-f0a5-4ecb-9fc5-90b0dbb2cc94","system_id":"levelo_inurba_marseille","lat":43.28418,"lon":5.34994,"is_reserved":false,"is_disabled":false,"rental_uris":{"android":"levelo://app?vid=542bf95b-f0a5-4ecb-9fc5-90b0dbb2cc94","ios":"levelo://app?vid=542bf95b-f0a5-4ecb-9fc5-90b0dbb2cc94"},"vehicle_type_id":"4","last_reported":1687968567,"current_range_meters":21600,"station_id":"ce4bhbh2rcd13ifvqepg","pricing_plan_id":"free"},{"bike_id":"5bee70f4-10ba-4523-9571-a2fb84dc4d4b","system_id":"levelo_inurba_marseille","lat":43.284219,"lon":5.3497,"is_reserved":false,"is_disabled":false,"rental_uris":{"android":"levelo://app?vid=5bee70f4-10ba-4523-9571-a2fb84dc4d4b","ios":"levelo://app?vid=5bee70f4-10ba-4523-9571-a2fb84dc4d4b"},"vehicle_type_id":"4","last_reported":1687968567,"current_range_meters":31200,"station_id":"ce4bhbh2rcd13ifvqepg","pricing_plan_id":"free"},{"bike_id":"bf2cd983-849b-4c28-8872-f6b42d5ad99e","system_id":"levelo_inurba_marseille","lat":43.284219,"lon":5.3497,"is_reserved":false,"is_disabled":false,"rental_uris":{"android":"levelo://app?vid=bf2cd983-849b-4c28-8872-f6b42d5ad99e","ios":"levelo://app?vid=bf2cd983-849b-4c28-8872-f6b42d5ad99e"},"vehicle_type_id":"4","last_reported":1687968567,"current_range_meters":31200,"station_id":"ce4bhbh2rcd13ifvqepg","pricing_plan_id":"free"},{"bike_id":"426360e5-a88c-4043-93f2-2cf4046c6c26","system_id":"levelo_inurba_marseille","lat":43.284217,"lon":5.349697,"is_reserved":false,"is_disabled":false,"rental_uris":{"android":"levelo://app?vid=426360e5-a88c-4043-93f2-2cf4046c6c26","ios":"levelo://app?vid=426360e5-a88c-4043-93f2-2cf4046c6c26"},"vehicle_type_id":"4","last_reported":1687968567,"current_range_meters":22000,"station_id":"ce4bhbh2rcd13ifvqepg","pricing_plan_id":"free"},{"bike_id":"877169e4-8f8e-43b5-9f4b-349a4b861f02","system_id":"levelo_inurba_marseille","lat":43.28416,"lon":5.34996,"is_reserved":false,"is_disabled":false,"rental_uris":{"android":"levelo://app?vid=877169e4-8f8e-43b5-9f4b-349a4b861f02","ios":"levelo://app?vid=877169e4-8f8e-43b5-9f4b-349a4b861f02"},"vehicle_type_id":"4","last_reported":1687968567,"current_range_meters":24800,"station_id":"ce4bhbh2rcd13ifvqepg","pricing_plan_id":"free"},{"bike_id":"d1764079-899a-4b14-9721-265338b51dc4","system_id":"levelo_inurba_marseille","lat":43.28417,"lon":5.34992,"is_reserved":false,"is_disabled":false,"rental_uris":{"android":"levelo://app?vid=d1764079-899a-4b14-9721-265338b51dc4","ios":"levelo://app?vid=d1764079-899a-4b14-9721-265338b51dc4"},"vehicle_type_id":"4","last_reported":1687968567,"current_range_meters":30800,"station_id":"ce4bhbh2rcd13ifvqepg","pricing_plan_id":"free"},{"bike_id":"44dff9d9-b66e-4ff6-bf21-5a85140c1149","system_id":"levelo_inurba_marseille","lat":43.28416,"lon":5.34993,"is_reserved":false,"is_disabled":false,"rental_uris":{"android":"levelo://app?vid=44dff9d9-b66e-4ff6-bf21-5a85140c1149","ios":"levelo://app?vid=44dff9d9-b66e-4ff6-bf21-5a85140c1149"},"vehicle_type_id":"4","last_reported":1687968567,"current_range_meters":4800,"station_id":"ce4bhbh2rcd13ifvqepg","pricing_plan_id":"free"},{"bike_id":"9a66aba0-867c-40fb-aa28-b0e6e669c819","system_id":"levelo_inurba_marseille","lat":43.284217,"lon":5.349697,"is_reserved":false,"is_disabled":false,"rental_uris":{"android":"levelo://app?vid=9a66aba0-867c-40fb-aa28-b0e6e669c819","ios":"levelo://app?vid=9a66aba0-867c-40fb-aa28-b0e6e669c819"},"vehicle_type_id":"4","last_reported":1687968567,"current_range_meters":22800,"station_id":"ce4bhbh2rcd13ifvqepg","pricing_plan_id":"free"},{"bike_id":"149a11cd-adeb-4893-bccb-5b39d9f27b86","system_id":"levelo_inurba_marseille","lat":43.284217,"lon":5.349697,"is_reserved":false,"is_disabled":false,"rental_uris":{"android":"levelo://app?vid=149a11cd-adeb-4893-bccb-5b39d9f27b86","ios":"levelo://app?vid=149a11cd-adeb-4893-bccb-5b39d9f27b86"},"vehicle_type_id":"4","last_reported":1687968567,"current_range_meters":26400,"station_id":"ce4bhbh2rcd13ifvqepg","pricing_plan_id":"free"},{"bike_id":"6d1260a4-f0bc-4998-a27f-50b0596785c7","system_id":"levelo_inurba_marseille","lat":43.284217,"lon":5.349697,"is_reserved":false,"is_disabled":false,"rental_uris":{"android":"levelo://app?vid=6d1260a4-f0bc-4998-a27f-50b0596785c7","ios":"levelo://app?vid=6d1260a4-f0bc-4998-a27f-50b0596785c7"},"vehicle_type_id":"4","last_reported":1687968567,"current_range_meters":20800,"station_id":"ce4bhbh2rcd13ifvqepg","pricing_plan_id":"free"},{"bike_id":"61f31218-7e41-4c83-b7eb-3c95b91d0e6e","system_id":"levelo_inurba_marseille","lat":43.28414,"lon":5.34996,"is_reserved":false,"is_disabled":false,"rental_uris":{"android":"levelo://app?vid=61f31218-7e41-4c83-b7eb-3c95b91d0e6e","ios":"levelo://app?vid=61f31218-7e41-4c83-b7eb-3c95b91d0e6e"},"vehicle_type_id":"4","last_reported":1687968567,"current_range_meters":14000,"station_id":"ce4bhbh2rcd13ifvqepg","pricing_plan_id":"free"},{"bike_id":"0585ebd5-41bc-4659-b1ce-884e6f87964a","system_id":"levelo_inurba_marseille","lat":43.284217,"lon":5.349697,"is_reserved":false,"is_disabled":false,"rental_uris":{"android":"levelo://app?vid=0585ebd5-41bc-4659-b1ce-884e6f87964a","ios":"levelo://app?vid=0585ebd5-41bc-4659-b1ce-884e6f87964a"},"vehicle_type_id":"4","last_reported":1687968567,"current_range_meters":24000,"station_id":"ce4bhbh2rcd13ifvqepg","pricing_plan_id":"free"},{"bike_id":"a47dd991-3265-4a3c-846d-9793ab04559c","system_id":"levelo_inurba_marseille","lat":43.284217,"lon":5.349697,"is_reserved":false,"is_disabled":false,"rental_uris":{"android":"levelo://app?vid=a47dd991-3265-4a3c-846d-9793ab04559c","ios":"levelo://app?vid=a47dd991-3265-4a3c-846d-9793ab04559c"},"vehicle_type_id":"4","last_reported":1687968567,"current_range_meters":31200,"station_id":"ce4bhbh2rcd13ifvqepg","pricing_plan_id":"free"},{"bike_id":"e3cb745d-e3fa-4a20-88f1-971d52a5f38a","system_id":"levelo_inurba_marseille","lat":43.28417,"lon":5.34982,"is_reserved":false,"is_disabled":false,"rental_uris":{"android":"levelo://app?vid=e3cb745d-e3fa-4a20-88f1-971d52a5f38a","ios":"levelo://app?vid=e3cb745d-e3fa-4a20-88f1-971d52a5f38a"},"vehicle_type_id":"4","last_reported":1687968567,"current_range_meters":20400,"station_id":"ce4bhbh2rcd13ifvqepg","pricing_plan_id":"free"},{"bike_id":"51439101-766e-4dbc-873a-a5b2c9e593a3","system_id":"levelo_inurba_marseille","lat":43.284217,"lon":5.349697,"is_reserved":false,"is_disabled":false,"rental_uris":{"android":"levelo://app?vid=51439101-766e-4dbc-873a-a5b2c9e593a3","ios":"levelo://app?vid=51439101-766e-4dbc-873a-a5b2c9e593a3"},"vehicle_type_id":"4","last_reported":1687968567,"current_range_meters":6400,"station_id":"ce4bhbh2rcd13ifvqepg","pricing_plan_id":"free"},{"bike_id":"1f32994a-6332-407a-b0ae-81eb1c4e0407","system_id":"levelo_inurba_marseille","lat":43.284219,"lon":5.3497,"is_reserved":false,"is_disabled":false,"rental_uris":{"android":"levelo://app?vid=1f32994a-6332-407a-b0ae-81eb1c4e0407","ios":"levelo://app?vid=1f32994a-6332-407a-b0ae-81eb1c4e0407"},"vehicle_type_id":"4","last_reported":1687968567,"current_range_meters":30000,"station_id":"ce4bhbh2rcd13ifvqepg","pricing_plan_id":"free"},{"bike_id":"0e9f8bef-d9b1-44de-aecf-407a260555b9","system_id":"levelo_inurba_marseille","lat":43.284217,"lon":5.349697,"is_reserved":false,"is_disabled":false,"rental_uris":{"android":"levelo://app?vid=0e9f8bef-d9b1-44de-aecf-407a260555b9","ios":"levelo://app?vid=0e9f8bef-d9b1-44de-aecf-407a260555b9"},"vehicle_type_id":"4","last_reported":1687968567,"current_range_meters":26800,"station_id":"ce4bhbh2rcd13ifvqepg","pricing_plan_id":"free"},{"bike_id":"055f7109-b1b1-41f8-8cf7-107541fd70de","system_id":"levelo_inurba_marseille","lat":43.28414,"lon":5.34978,"is_reserved":false,"is_disabled":false,"rental_uris":{"android":"levelo://app?vid=055f7109-b1b1-41f8-8cf7-107541fd70de","ios":"levelo://app?vid=055f7109-b1b1-41f8-8cf7-107541fd70de"},"vehicle_type_id":"4","last_reported":1687968567,"current_range_meters":6400,"station_id":"ce4bhbh2rcd13ifvqepg","pricing_plan_id":"free"},{"bike_id":"f1806864-3327-404b-8725-df8f1089bdae","system_id":"levelo_inurba_marseille","lat":43.284217,"lon":5.349697,"is_reserved":false,"is_disabled":false,"rental_uris":{"android":"levelo://app?vid=f1806864-3327-404b-8725-df8f1089bdae","ios":"levelo://app?vid=f1806864-3327-404b-8725-df8f1089bdae"},"vehicle_type_id":"4","last_reported":1687968567,"current_range_meters":12400,"station_id":"ce4bhbh2rcd13ifvqepg","pricing_plan_id":"free"},{"bike_id":"5d1b09ec-da43-47b5-a655-f7491d45ca40","system_id":"levelo_inurba_marseille","lat":43.28411,"lon":5.34979,"is_reserved":false,"is_disabled":false,"rental_uris":{"android":"levelo://app?vid=5d1b09ec-da43-47b5-a655-f7491d45ca40","ios":"levelo://app?vid=5d1b09ec-da43-47b5-a655-f7491d45ca40"},"vehicle_type_id":"4","last_reported":1687968567,"current_range_meters":0,"station_id":"ce4bhbh2rcd13ifvqepg","pricing_plan_id":"free"},{"bike_id":"2c6804df-1e4c-4ccb-b3ea-f73118620901","system_id":"levelo_inurba_marseille","lat":43.292724,"lon":5.401131,"is_reserved":false,"is_disabled":false,"rental_uris":{"android":"levelo://app?vid=2c6804df-1e4c-4ccb-b3ea-f73118620901","ios":"levelo://app?vid=2c6804df-1e4c-4ccb-b3ea-f73118620901"},"vehicle_type_id":"4","last_reported":1687968567,"current_range_meters":24000,"station_id":"ce4bh312rcd13ifvqdk0","pricing_plan_id":"free"},{"bike_id":"fbc642e7-91e8-46c3-9f89-a8de08fc77e6","system_id":"levelo_inurba_marseille","lat":43.2827,"lon":5.35077,"is_reserved":false,"is_disabled":false,"rental_uris":{"android":"levelo://app?vid=fbc642e7-91e8-46c3-9f89-a8de08fc77e6","ios":"levelo://app?vid=fbc642e7-91e8-46c3-9f89-a8de08fc77e6"},"vehicle_type_id":"4","last_reported":1687968567,"current_range_meters":5600,"station_id":"ce4bhbp2rcd13ifvqerg","pricing_plan_id":"free"},{"bike_id":"058932da-d4a2-4052-b4a0-4d6387b0ef4b","system_id":"levelo_inurba_marseille","lat":43.28265,"lon":5.35082,"is_reserved":false,"is_disabled":false,"rental_uris":{"android":"levelo://app?vid=058932da-d4a2-4052-b4a0-4d6387b0ef4b","ios":"levelo://app?vid=058932da-d4a2-4052-b4a0-4d6387b0ef4b"},"vehicle_type_id":"4","last_reported":1687968567,"current_range_meters":11600,"station_id":"ce4bhbp2rcd13ifvqerg","pricing_plan_id":"free"},{"bike_id":"787a3a42-c7f1-4862-80e7-4b0abcae1667","system_id":"levelo_inurba_marseille","lat":43.28264,"lon":5.35075,"is_reserved":false,"is_disabled":false,"rental_uris":{"android":"levelo://app?vid=787a3a42-c7f1-4862-80e7-4b0abcae1667","ios":"levelo://app?vid=787a3a42-c7f1-4862-80e7-4b0abcae1667"},"vehicle_type_id":"4","last_reported":1687968567,"current_range_meters":7600,"station_id":"ce4bhbp2rcd13ifvqerg","pricing_plan_id":"free"},{"bike_id":"5a0c1fb9-92bf-4420-aea7-f7aa696bdb13","system_id":"levelo_inurba_marseille","lat":43.28039,"lon":5.369297,"is_reserved":false,"is_disabled":false,"rental_uris":{"android":"levelo://app?vid=5a0c1fb9-92bf-4420-aea7-f7aa696bdb13","ios":"levelo://app?vid=5a0c1fb9-92bf-4420-aea7-f7aa696bdb13"},"vehicle_type_id":"4","last_reported":1687968567,"current_range_meters":6400,"station_id":"ce4bha12rcd13ifvqef0","pricing_plan_id":"free"},{"bike_id":"1c012ca6-c1f6-42fd-aab1-90ae24188a1b","system_id":"levelo_inurba_marseille","lat":43.290412,"lon":5.399633,"is_reserved":false,"is_disabled":false,"rental_uris":{"android":"levelo://app?vid=1c012ca6-c1f6-42fd-aab1-90ae24188a1b","ios":"levelo://app?vid=1c012ca6-c1f6-42fd-aab1-90ae24188a1b"},"vehicle_type_id":"4","last_reported":1687968567,"current_range_meters":12400,"station_id":"ce4bh392rcd13ifvqdm0","pricing_plan_id":"free"},{"bike_id":"c5d91e23-ba07-481b-bcc0-f75523439189","system_id":"levelo_inurba_marseille","lat":43.29042,"lon":5.39978,"is_reserved":false,"is_disabled":false,"rental_uris":{"android":"levelo://app?vid=c5d91e23-ba07-481b-bcc0-f75523439189","ios":"levelo://app?vid=c5d91e23-ba07-481b-bcc0-f75523439189"},"vehicle_type_id":"4","last_reported":1687968567,"current_range_meters":17200,"station_id":"ce4bh392rcd13ifvqdm0","pricing_plan_id":"free"},{"bike_id":"33066033-4b6b-4d57-8001-ba9e3be99e26","system_id":"levelo_inurba_marseille","lat":43.33075,"lon":5.40569,"is_reserved":false,"is_disabled":false,"rental_uris":{"android":"levelo://app?vid=33066033-4b6b-4d57-8001-ba9e3be99e26","ios":"levelo://app?vid=33066033-4b6b-4d57-8001-ba9e3be99e26"},"vehicle_type_id":"4","last_reported":1687968567,"current_range_meters":24800,"station_id":"","pricing_plan_id":"free"},{"bike_id":"c8e6ce45-f2b5-4772-a564-3c2039eea91a","system_id":"levelo_inurba_marseille","lat":43.33074,"lon":5.40578,"is_reserved":false,"is_disabled":false,"rental_uris":{"android":"levelo://app?vid=c8e6ce45-f2b5-4772-a564-3c2039eea91a","ios":"levelo://app?vid=c8e6ce45-f2b5-4772-a564-3c2039eea91a"},"vehicle_type_id":"4","last_reported":1687968567,"current_range_meters":2000,"station_id":"","pricing_plan_id":"free"},{"bike_id":"67ec8680-fed5-4abb-9ba9-fe4d97cb2fb7","system_id":"levelo_inurba_marseille","lat":43.28567,"lon":5.39493,"is_reserved":false,"is_disabled":false,"rental_uris":{"android":"levelo://app?vid=67ec8680-fed5-4abb-9ba9-fe4d97cb2fb7","ios":"levelo://app?vid=67ec8680-fed5-4abb-9ba9-fe4d97cb2fb7"},"vehicle_type_id":"4","last_reported":1687968567,"current_range_meters":1600,"station_id":"ce4bh292rcd13ifvqdg0","pricing_plan_id":"free"},{"bike_id":"0c9eee73-532e-4f1f-8b23-5a0693e22298","system_id":"levelo_inurba_marseille","lat":43.326605,"lon":5.409903,"is_reserved":false,"is_disabled":false,"rental_uris":{"android":"levelo://app?vid=0c9eee73-532e-4f1f-8b23-5a0693e22298","ios":"levelo://app?vid=0c9eee73-532e-4f1f-8b23-5a0693e22298"},"vehicle_type_id":"4","last_reported":1687968567,"current_range_meters":27200,"station_id":"ce4bhpp2rcd13ifvqhgg","pricing_plan_id":"free"},{"bike_id":"c9273e49-031a-490d-9787-6ab82e16b5f8","system_id":"levelo_inurba_marseille","lat":43.304188,"lon":5.412904,"is_reserved":false,"is_disabled":false,"rental_uris":{"android":"levelo://app?vid=c9273e49-031a-490d-9787-6ab82e16b5f8","ios":"levelo://app?vid=c9273e49-031a-490d-9787-6ab82e16b5f8"},"vehicle_type_id":"4","last_reported":1687968567,"current_range_meters":14800,"station_id":"ce4bhop2rcd13ifvqh8g","pricing_plan_id":"free"},{"bike_id":"d121dca8-2596-4f85-a2a1-3d6410e5eda4","system_id":"levelo_inurba_marseille","lat":43.33204,"lon":5.40686,"is_reserved":false,"is_disabled":false,"rental_uris":{"android":"levelo://app?vid=d121dca8-2596-4f85-a2a1-3d6410e5eda4","ios":"levelo://app?vid=d121dca8-2596-4f85-a2a1-3d6410e5eda4"},"vehicle_type_id":"4","last_reported":1687968567,"current_range_meters":25200,"station_id":"","pricing_plan_id":"free"},{"bike_id":"b2c36aa2-a536-4ece-b9be-7ad8adf1162c","system_id":"levelo_inurba_marseille","lat":43.279087,"lon":5.380114,"is_reserved":false,"is_disabled":false,"rental_uris":{"android":"levelo://app?vid=b2c36aa2-a536-4ece-b9be-7ad8adf1162c","ios":"levelo://app?vid=b2c36aa2-a536-4ece-b9be-7ad8adf1162c"},"vehicle_type_id":"4","last_reported":1687968567,"current_range_meters":28000,"station_id":"ce4bhf92rcd13ifvqf50","pricing_plan_id":"free"},{"bike_id":"50fd953c-9754-45f4-aec7-ae52bb9eb6fe","system_id":"levelo_inurba_marseille","lat":43.287154,"lon":5.399979,"is_reserved":false,"is_disabled":false,"rental_uris":{"android":"levelo://app?vid=50fd953c-9754-45f4-aec7-ae52bb9eb6fe","ios":"levelo://app?vid=50fd953c-9754-45f4-aec7-ae52bb9eb6fe"},"vehicle_type_id":"4","last_reported":1687968567,"current_range_meters":31200,"station_id":"ce4bho92rcd13ifvqh3g","pricing_plan_id":"free"},{"bike_id":"06f8bb82-abc9-403a-a61e-71239881cde8","system_id":"levelo_inurba_marseille","lat":43.287154,"lon":5.399979,"is_reserved":false,"is_disabled":false,"rental_uris":{"android":"levelo://app?vid=06f8bb82-abc9-403a-a61e-71239881cde8","ios":"levelo://app?vid=06f8bb82-abc9-403a-a61e-71239881cde8"},"vehicle_type_id":"4","last_reported":1687968567,"current_range_meters":25200,"station_id":"ce4bho92rcd13ifvqh3g","pricing_plan_id":"free"},{"bike_id":"e7825f9e-aef2-427c-9120-7043662eda1c","system_id":"levelo_inurba_marseille","lat":43.28697,"lon":5.3998,"is_reserved":false,"is_disabled":false,"rental_uris":{"android":"levelo://app?vid=e7825f9e-aef2-427c-9120-7043662eda1c","ios":"levelo://app?vid=e7825f9e-aef2-427c-9120-7043662eda1c"},"vehicle_type_id":"4","last_reported":1687968567,"current_range_meters":11200,"station_id":"ce4bho92rcd13ifvqh3g","pricing_plan_id":"free"},{"bike_id":"3b7cf4f0-edc0-4d82-aba8-1ee78563f7bf","system_id":"levelo_inurba_marseille","lat":43.320045,"lon":5.415046,"is_reserved":false,"is_disabled":false,"rental_uris":{"android":"levelo://app?vid=3b7cf4f0-edc0-4d82-aba8-1ee78563f7bf","ios":"levelo://app?vid=3b7cf4f0-edc0-4d82-aba8-1ee78563f7bf"},"vehicle_type_id":"4","last_reported":1687968567,"current_range_meters":31200,"station_id":"ce4bhq92rcd13ifvqhkg","pricing_plan_id":"free"},{"bike_id":"b72e7235-7492-4be7-b5df-dbc102eece72","system_id":"levelo_inurba_marseille","lat":43.32044,"lon":5.4155,"is_reserved":false,"is_disabled":false,"rental_uris":{"android":"levelo://app?vid=b72e7235-7492-4be7-b5df-dbc102eece72","ios":"levelo://app?vid=b72e7235-7492-4be7-b5df-dbc102eece72"},"vehicle_type_id":"4","last_reported":1687968567,"current_range_meters":29600,"station_id":"ce4bhq92rcd13ifvqhkg","pricing_plan_id":"free"},{"bike_id":"010303de-9f53-47c9-8014-4eeafc88e3fa","system_id":"levelo_inurba_marseille","lat":43.320045,"lon":5.415048,"is_reserved":false,"is_disabled":false,"rental_uris":{"android":"levelo://app?vid=010303de-9f53-47c9-8014-4eeafc88e3fa","ios":"levelo://app?vid=010303de-9f53-47c9-8014-4eeafc88e3fa"},"vehicle_type_id":"4","last_reported":1687968567,"current_range_meters":30800,"station_id":"ce4bhq92rcd13ifvqhkg","pricing_plan_id":"free"},{"bike_id":"d1e3080d-c031-4976-87ec-c39ae4628503","system_id":"levelo_inurba_marseille","lat":43.279742,"lon":5.38744,"is_reserved":false,"is_disabled":false,"rental_uris":{"android":"levelo://app?vid=d1e3080d-c031-4976-87ec-c39ae4628503","ios":"levelo://app?vid=d1e3080d-c031-4976-87ec-c39ae4628503"},"vehicle_type_id":"4","last_reported":1687968567,"current_range_meters":3200,"station_id":"ce4bhg12rcd13ifvqf80","pricing_plan_id":"free"},{"bike_id":"ece5b3cb-8dab-4810-8204-9c7b566ffe30","system_id":"levelo_inurba_marseille","lat":43.27618,"lon":5.361009,"is_reserved":false,"is_disabled":false,"rental_uris":{"android":"levelo://app?vid=ece5b3cb-8dab-4810-8204-9c7b566ffe30","ios":"levelo://app?vid=ece5b3cb-8dab-4810-8204-9c7b566ffe30"},"vehicle_type_id":"4","last_reported":1687968567,"current_range_meters":20800,"station_id":"ce4bgj92rcd13ifvqbe0","pricing_plan_id":"free"},{"bike_id":"d36be984-3a94-4044-8200-4a0b1d965a67","system_id":"levelo_inurba_marseille","lat":43.27618,"lon":5.361009,"is_reserved":false,"is_disabled":false,"rental_uris":{"android":"levelo://app?vid=d36be984-3a94-4044-8200-4a0b1d965a67","ios":"levelo://app?vid=d36be984-3a94-4044-8200-4a0b1d965a67"},"vehicle_type_id":"4","last_reported":1687968567,"current_range_meters":15200,"station_id":"ce4bgj92rcd13ifvqbe0","pricing_plan_id":"free"},{"bike_id":"6591b98b-fad8-4594-b9f2-2af21fe84118","system_id":"levelo_inurba_marseille","lat":43.292569,"lon":5.409107,"is_reserved":false,"is_disabled":false,"rental_uris":{"android":"levelo://app?vid=6591b98b-fad8-4594-b9f2-2af21fe84118","ios":"levelo://app?vid=6591b98b-fad8-4594-b9f2-2af21fe84118"},"vehicle_type_id":"4","last_reported":1687968567,"current_range_meters":3600,"station_id":"ce4bh192rcd13ifvqdc0","pricing_plan_id":"free"},{"bike_id":"bfb63b39-c356-4ca7-a559-76812d3f78a3","system_id":"levelo_inurba_marseille","lat":43.27618,"lon":5.361009,"is_reserved":false,"is_disabled":false,"rental_uris":{"android":"levelo://app?vid=bfb63b39-c356-4ca7-a559-76812d3f78a3","ios":"levelo://app?vid=bfb63b39-c356-4ca7-a559-76812d3f78a3"},"vehicle_type_id":"4","last_reported":1687968567,"current_range_meters":10800,"station_id":"ce4bgj92rcd13ifvqbe0","pricing_plan_id":"free"},{"bike_id":"2ccd3363-a8de-416b-961b-67b0802863ad","system_id":"levelo_inurba_marseille","lat":43.27618,"lon":5.36104,"is_reserved":false,"is_disabled":false,"rental_uris":{"android":"levelo://app?vid=2ccd3363-a8de-416b-961b-67b0802863ad","ios":"levelo://app?vid=2ccd3363-a8de-416b-961b-67b0802863ad"},"vehicle_type_id":"4","last_reported":1687968567,"current_range_meters":8800,"station_id":"ce4bgj92rcd13ifvqbe0","pricing_plan_id":"free"},{"bike_id":"73c663a2-3062-4a74-a387-4aeaa74e4b40","system_id":"levelo_inurba_marseille","lat":43.27616,"lon":5.36118,"is_reserved":false,"is_disabled":false,"rental_uris":{"android":"levelo://app?vid=73c663a2-3062-4a74-a387-4aeaa74e4b40","ios":"levelo://app?vid=73c663a2-3062-4a74-a387-4aeaa74e4b40"},"vehicle_type_id":"4","last_reported":1687968567,"current_range_meters":3200,"station_id":"ce4bgj92rcd13ifvqbe0","pricing_plan_id":"free"},{"bike_id":"9980d1eb-f5ef-4aff-9b4a-89b329543c0c","system_id":"levelo_inurba_marseille","lat":43.27618,"lon":5.361009,"is_reserved":false,"is_disabled":false,"rental_uris":{"android":"levelo://app?vid=9980d1eb-f5ef-4aff-9b4a-89b329543c0c","ios":"levelo://app?vid=9980d1eb-f5ef-4aff-9b4a-89b329543c0c"},"vehicle_type_id":"4","last_reported":1687968567,"current_range_meters":22000,"station_id":"ce4bgj92rcd13ifvqbe0","pricing_plan_id":"free"},{"bike_id":"13a3f770-1a87-4cd2-b835-79d7a649f55a","system_id":"levelo_inurba_marseille","lat":43.280784,"lon":5.396622,"is_reserved":false,"is_disabled":false,"rental_uris":{"android":"levelo://app?vid=13a3f770-1a87-4cd2-b835-79d7a649f55a","ios":"levelo://app?vid=13a3f770-1a87-4cd2-b835-79d7a649f55a"},"vehicle_type_id":"4","last_reported":1687968567,"current_range_meters":13600,"station_id":"ce4bho12rcd13ifvqh2g","pricing_plan_id":"free"},{"bike_id":"c36adf95-adeb-4e4c-8c44-806d3324a054","system_id":"levelo_inurba_marseille","lat":43.280784,"lon":5.396622,"is_reserved":false,"is_disabled":false,"rental_uris":{"android":"levelo://app?vid=c36adf95-adeb-4e4c-8c44-806d3324a054","ios":"levelo://app?vid=c36adf95-adeb-4e4c-8c44-806d3324a054"},"vehicle_type_id":"4","last_reported":1687968567,"current_range_meters":31600,"station_id":"ce4bho12rcd13ifvqh2g","pricing_plan_id":"free"},{"bike_id":"e5010e7b-96a4-4b6b-82d3-21b7c71eb15d","system_id":"levelo_inurba_marseille","lat":43.273613,"lon":5.362705,"is_reserved":false,"is_disabled":false,"rental_uris":{"android":"levelo://app?vid=e5010e7b-96a4-4b6b-82d3-21b7c71eb15d","ios":"levelo://app?vid=e5010e7b-96a4-4b6b-82d3-21b7c71eb15d"},"vehicle_type_id":"4","last_reported":1687968567,"current_range_meters":32000,"station_id":"ce4bhbh2rcd13ifvqeo0","pricing_plan_id":"free"},{"bike_id":"9e8f28f3-fd12-4dbe-9a71-479e5ee31bd1","system_id":"levelo_inurba_marseille","lat":43.273613,"lon":5.362705,"is_reserved":false,"is_disabled":false,"rental_uris":{"android":"levelo://app?vid=9e8f28f3-fd12-4dbe-9a71-479e5ee31bd1","ios":"levelo://app?vid=9e8f28f3-fd12-4dbe-9a71-479e5ee31bd1"},"vehicle_type_id":"4","last_reported":1687968567,"current_range_meters":31200,"station_id":"ce4bhbh2rcd13ifvqeo0","pricing_plan_id":"free"},{"bike_id":"f64b659e-1e6f-46f1-b729-294f2f4ee218","system_id":"levelo_inurba_marseille","lat":43.273613,"lon":5.362705,"is_reserved":false,"is_disabled":false,"rental_uris":{"android":"levelo://app?vid=f64b659e-1e6f-46f1-b729-294f2f4ee218","ios":"levelo://app?vid=f64b659e-1e6f-46f1-b729-294f2f4ee218"},"vehicle_type_id":"4","last_reported":1687968567,"current_range_meters":20400,"station_id":"ce4bhbh2rcd13ifvqeo0","pricing_plan_id":"free"},{"bike_id":"b9119858-c784-4f09-9e13-d0844a2a6bd7","system_id":"levelo_inurba_marseille","lat":43.273613,"lon":5.362705,"is_reserved":false,"is_disabled":false,"rental_uris":{"android":"levelo://app?vid=b9119858-c784-4f09-9e13-d0844a2a6bd7","ios":"levelo://app?vid=b9119858-c784-4f09-9e13-d0844a2a6bd7"},"vehicle_type_id":"4","last_reported":1687968567,"current_range_meters":21200,"station_id":"ce4bhbh2rcd13ifvqeo0","pricing_plan_id":"free"},{"bike_id":"32fbbfd4-7450-46d1-80d0-be43a210a0e2","system_id":"levelo_inurba_marseille","lat":43.273613,"lon":5.362705,"is_reserved":false,"is_disabled":false,"rental_uris":{"android":"levelo://app?vid=32fbbfd4-7450-46d1-80d0-be43a210a0e2","ios":"levelo://app?vid=32fbbfd4-7450-46d1-80d0-be43a210a0e2"},"vehicle_type_id":"4","last_reported":1687968567,"current_range_meters":12000,"station_id":"ce4bhbh2rcd13ifvqeo0","pricing_plan_id":"free"},{"bike_id":"6062960f-419a-43af-8bf7-8edd76443ca8","system_id":"levelo_inurba_marseille","lat":43.273613,"lon":5.362705,"is_reserved":false,"is_disabled":false,"rental_uris":{"android":"levelo://app?vid=6062960f-419a-43af-8bf7-8edd76443ca8","ios":"levelo://app?vid=6062960f-419a-43af-8bf7-8edd76443ca8"},"vehicle_type_id":"4","last_reported":1687968567,"current_range_meters":31200,"station_id":"ce4bhbh2rcd13ifvqeo0","pricing_plan_id":"free"},{"bike_id":"5989c0e0-4d22-4ba5-bcd3-8ce0e1051784","system_id":"levelo_inurba_marseille","lat":43.273609,"lon":5.362708,"is_reserved":false,"is_disabled":false,"rental_uris":{"android":"levelo://app?vid=5989c0e0-4d22-4ba5-bcd3-8ce0e1051784","ios":"levelo://app?vid=5989c0e0-4d22-4ba5-bcd3-8ce0e1051784"},"vehicle_type_id":"4","last_reported":1687968567,"current_range_meters":31200,"station_id":"ce4bhbh2rcd13ifvqeo0","pricing_plan_id":"free"},{"bike_id":"73b898d3-a5a9-4a86-bbf5-b4f89974615b","system_id":"levelo_inurba_marseille","lat":43.273609,"lon":5.362708,"is_reserved":false,"is_disabled":false,"rental_uris":{"android":"levelo://app?vid=73b898d3-a5a9-4a86-bbf5-b4f89974615b","ios":"levelo://app?vid=73b898d3-a5a9-4a86-bbf5-b4f89974615b"},"vehicle_type_id":"4","last_reported":1687968567,"current_range_meters":24000,"station_id":"ce4bhbh2rcd13ifvqeo0","pricing_plan_id":"free"},{"bike_id":"0e597a1d-777b-4078-b692-87278ccbf491","system_id":"levelo_inurba_marseille","lat":43.273609,"lon":5.362708,"is_reserved":false,"is_disabled":false,"rental_uris":{"android":"levelo://app?vid=0e597a1d-777b-4078-b692-87278ccbf491","ios":"levelo://app?vid=0e597a1d-777b-4078-b692-87278ccbf491"},"vehicle_type_id":"4","last_reported":1687968567,"current_range_meters":30000,"station_id":"ce4bhbh2rcd13ifvqeo0","pricing_plan_id":"free"},{"bike_id":"eec16c49-68e0-49ed-b569-61c357e9583d","system_id":"levelo_inurba_marseille","lat":43.27378,"lon":5.36262,"is_reserved":false,"is_disabled":false,"rental_uris":{"android":"levelo://app?vid=eec16c49-68e0-49ed-b569-61c357e9583d","ios":"levelo://app?vid=eec16c49-68e0-49ed-b569-61c357e9583d"},"vehicle_type_id":"4","last_reported":1687968567,"current_range_meters":400,"station_id":"ce4bhbh2rcd13ifvqeo0","pricing_plan_id":"free"},{"bike_id":"e7700a67-4654-413e-ae9b-2467890bb0bb","system_id":"levelo_inurba_marseille","lat":43.273613,"lon":5.362705,"is_reserved":false,"is_disabled":false,"rental_uris":{"android":"levelo://app?vid=e7700a67-4654-413e-ae9b-2467890bb0bb","ios":"levelo://app?vid=e7700a67-4654-413e-ae9b-2467890bb0bb"},"vehicle_type_id":"4","last_reported":1687968567,"current_range_meters":14000,"station_id":"ce4bhbh2rcd13ifvqeo0","pricing_plan_id":"free"},{"bike_id":"17e1a028-99c0-4f74-a76a-7c0a319f3b3d","system_id":"levelo_inurba_marseille","lat":43.273613,"lon":5.362705,"is_reserved":false,"is_disabled":false,"rental_uris":{"android":"levelo://app?vid=17e1a028-99c0-4f74-a76a-7c0a319f3b3d","ios":"levelo://app?vid=17e1a028-99c0-4f74-a76a-7c0a319f3b3d"},"vehicle_type_id":"4","last_reported":1687968567,"current_range_meters":31600,"station_id":"ce4bhbh2rcd13ifvqeo0","pricing_plan_id":"free"},{"bike_id":"d982b19a-26f8-45dd-ad7e-8ce774e44587","system_id":"levelo_inurba_marseille","lat":43.273613,"lon":5.362705,"is_reserved":false,"is_disabled":false,"rental_uris":{"android":"levelo://app?vid=d982b19a-26f8-45dd-ad7e-8ce774e44587","ios":"levelo://app?vid=d982b19a-26f8-45dd-ad7e-8ce774e44587"},"vehicle_type_id":"4","last_reported":1687968567,"current_range_meters":31200,"station_id":"ce4bhbh2rcd13ifvqeo0","pricing_plan_id":"free"},{"bike_id":"7bdcc070-735b-4f08-a25b-df3c03fdbc2f","system_id":"levelo_inurba_marseille","lat":43.273609,"lon":5.362708,"is_reserved":false,"is_disabled":false,"rental_uris":{"android":"levelo://app?vid=7bdcc070-735b-4f08-a25b-df3c03fdbc2f","ios":"levelo://app?vid=7bdcc070-735b-4f08-a25b-df3c03fdbc2f"},"vehicle_type_id":"4","last_reported":1687968567,"current_range_meters":28800,"station_id":"ce4bhbh2rcd13ifvqeo0","pricing_plan_id":"free"},{"bike_id":"904a2157-4eaf-41c2-b4f2-d2b6e99d33a0","system_id":"levelo_inurba_marseille","lat":43.273609,"lon":5.362708,"is_reserved":false,"is_disabled":false,"rental_uris":{"android":"levelo://app?vid=904a2157-4eaf-41c2-b4f2-d2b6e99d33a0","ios":"levelo://app?vid=904a2157-4eaf-41c2-b4f2-d2b6e99d33a0"},"vehicle_type_id":"4","last_reported":1687968567,"current_range_meters":31600,"station_id":"ce4bhbh2rcd13ifvqeo0","pricing_plan_id":"free"},{"bike_id":"838953e1-0142-469a-bd28-1cfd2d940b69","system_id":"levelo_inurba_marseille","lat":43.27376,"lon":5.36257,"is_reserved":false,"is_disabled":false,"rental_uris":{"android":"levelo://app?vid=838953e1-0142-469a-bd28-1cfd2d940b69","ios":"levelo://app?vid=838953e1-0142-469a-bd28-1cfd2d940b69"},"vehicle_type_id":"4","last_reported":1687968567,"current_range_meters":22400,"station_id":"ce4bhbh2rcd13ifvqeo0","pricing_plan_id":"free"},{"bike_id":"4db88511-305a-4d2d-b313-6fb0c0f40129","system_id":"levelo_inurba_marseille","lat":43.273609,"lon":5.362708,"is_reserved":false,"is_disabled":false,"rental_uris":{"android":"levelo://app?vid=4db88511-305a-4d2d-b313-6fb0c0f40129","ios":"levelo://app?vid=4db88511-305a-4d2d-b313-6fb0c0f40129"},"vehicle_type_id":"4","last_reported":1687968567,"current_range_meters":11600,"station_id":"ce4bhbh2rcd13ifvqeo0","pricing_plan_id":"free"},{"bike_id":"29a4354d-27a2-4053-87ea-9739cb866254","system_id":"levelo_inurba_marseille","lat":43.273613,"lon":5.362705,"is_reserved":false,"is_disabled":false,"rental_uris":{"android":"levelo://app?vid=29a4354d-27a2-4053-87ea-9739cb866254","ios":"levelo://app?vid=29a4354d-27a2-4053-87ea-9739cb866254"},"vehicle_type_id":"4","last_reported":1687968567,"current_range_meters":0,"station_id":"ce4bhbh2rcd13ifvqeo0","pricing_plan_id":"free"},{"bike_id":"3085234c-3403-4136-b813-ce5ad1322c24","system_id":"levelo_inurba_marseille","lat":43.273609,"lon":5.362708,"is_reserved":false,"is_disabled":false,"rental_uris":{"android":"levelo://app?vid=3085234c-3403-4136-b813-ce5ad1322c24","ios":"levelo://app?vid=3085234c-3403-4136-b813-ce5ad1322c24"},"vehicle_type_id":"4","last_reported":1687968567,"current_range_meters":29200,"station_id":"ce4bhbh2rcd13ifvqeo0","pricing_plan_id":"free"},{"bike_id":"04ae6344-3736-4f7f-b643-9940f4404947","system_id":"levelo_inurba_marseille","lat":43.27371,"lon":5.36256,"is_reserved":false,"is_disabled":false,"rental_uris":{"android":"levelo://app?vid=04ae6344-3736-4f7f-b643-9940f4404947","ios":"levelo://app?vid=04ae6344-3736-4f7f-b643-9940f4404947"},"vehicle_type_id":"4","last_reported":1687968567,"current_range_meters":12800,"station_id":"ce4bhbh2rcd13ifvqeo0","pricing_plan_id":"free"},{"bike_id":"fcc43b03-7225-4b01-9593-6c774c1d6056","system_id":"levelo_inurba_marseille","lat":43.27368,"lon":5.3626,"is_reserved":false,"is_disabled":false,"rental_uris":{"android":"levelo://app?vid=fcc43b03-7225-4b01-9593-6c774c1d6056","ios":"levelo://app?vid=fcc43b03-7225-4b01-9593-6c774c1d6056"},"vehicle_type_id":"4","last_reported":1687968567,"current_range_meters":24800,"station_id":"ce4bhbh2rcd13ifvqeo0","pricing_plan_id":"free"},{"bike_id":"54e17aed-c307-4dd1-b4ce-d55626b4eaba","system_id":"levelo_inurba_marseille","lat":43.29863,"lon":5.42059,"is_reserved":false,"is_disabled":false,"rental_uris":{"android":"levelo://app?vid=54e17aed-c307-4dd1-b4ce-d55626b4eaba","ios":"levelo://app?vid=54e17aed-c307-4dd1-b4ce-d55626b4eaba"},"vehicle_type_id":"4","last_reported":1687968567,"current_range_meters":21200,"station_id":"","pricing_plan_id":"free"},{"bike_id":"e241947c-cec6-4e3e-804d-509039d4ac1d","system_id":"levelo_inurba_marseille","lat":43.27423,"lon":5.39406,"is_reserved":false,"is_disabled":false,"rental_uris":{"android":"levelo://app?vid=e241947c-cec6-4e3e-804d-509039d4ac1d","ios":"levelo://app?vid=e241947c-cec6-4e3e-804d-509039d4ac1d"},"vehicle_type_id":"4","last_reported":1687968567,"current_range_meters":21600,"station_id":"","pricing_plan_id":"free"},{"bike_id":"48cef3e2-be07-4989-a408-1e82a9a00a21","system_id":"levelo_inurba_marseille","lat":43.27022,"lon":5.38201,"is_reserved":false,"is_disabled":false,"rental_uris":{"android":"levelo://app?vid=48cef3e2-be07-4989-a408-1e82a9a00a21","ios":"levelo://app?vid=48cef3e2-be07-4989-a408-1e82a9a00a21"},"vehicle_type_id":"4","last_reported":1687968567,"current_range_meters":9200,"station_id":"","pricing_plan_id":"free"},{"bike_id":"ae065052-697b-4b14-a039-f6eb14783145","system_id":"levelo_inurba_marseille","lat":43.29554,"lon":5.42295,"is_reserved":false,"is_disabled":false,"rental_uris":{"android":"levelo://app?vid=ae065052-697b-4b14-a039-f6eb14783145","ios":"levelo://app?vid=ae065052-697b-4b14-a039-f6eb14783145"},"vehicle_type_id":"4","last_reported":1687968567,"current_range_meters":15200,"station_id":"ce4bhph2rcd13ifvqhdg","pricing_plan_id":"free"},{"bike_id":"4fa21102-9c5c-4785-8da0-3d7f957b0c31","system_id":"levelo_inurba_marseille","lat":43.272116,"lon":5.391763,"is_reserved":false,"is_disabled":false,"rental_uris":{"android":"levelo://app?vid=4fa21102-9c5c-4785-8da0-3d7f957b0c31","ios":"levelo://app?vid=4fa21102-9c5c-4785-8da0-3d7f957b0c31"},"vehicle_type_id":"4","last_reported":1687968567,"current_range_meters":30400,"station_id":"ce4bhhp2rcd13ifvqfm0","pricing_plan_id":"free"},{"bike_id":"4554fbd4-b39b-41d5-9704-94684b62dcc6","system_id":"levelo_inurba_marseille","lat":43.27202,"lon":5.39174,"is_reserved":false,"is_disabled":false,"rental_uris":{"android":"levelo://app?vid=4554fbd4-b39b-41d5-9704-94684b62dcc6","ios":"levelo://app?vid=4554fbd4-b39b-41d5-9704-94684b62dcc6"},"vehicle_type_id":"4","last_reported":1687968567,"current_range_meters":0,"station_id":"ce4bhhp2rcd13ifvqfm0","pricing_plan_id":"free"},{"bike_id":"33e90f9d-9ea2-4174-8d44-365a7d68573a","system_id":"levelo_inurba_marseille","lat":43.278128,"lon":5.407195,"is_reserved":false,"is_disabled":false,"rental_uris":{"android":"levelo://app?vid=33e90f9d-9ea2-4174-8d44-365a7d68573a","ios":"levelo://app?vid=33e90f9d-9ea2-4174-8d44-365a7d68573a"},"vehicle_type_id":"4","last_reported":1687968567,"current_range_meters":11600,"station_id":"ce4bhnh2rcd13ifvqgtg","pricing_plan_id":"free"},{"bike_id":"40fb67c6-79c9-422c-8b6f-43e94e0b4c78","system_id":"levelo_inurba_marseille","lat":43.278128,"lon":5.407195,"is_reserved":false,"is_disabled":false,"rental_uris":{"android":"levelo://app?vid=40fb67c6-79c9-422c-8b6f-43e94e0b4c78","ios":"levelo://app?vid=40fb67c6-79c9-422c-8b6f-43e94e0b4c78"},"vehicle_type_id":"4","last_reported":1687968567,"current_range_meters":24800,"station_id":"ce4bhnh2rcd13ifvqgtg","pricing_plan_id":"free"},{"bike_id":"9c4a5cc7-1d2d-4a2a-a4d7-76aa7320e682","system_id":"levelo_inurba_marseille","lat":43.278128,"lon":5.407195,"is_reserved":false,"is_disabled":false,"rental_uris":{"android":"levelo://app?vid=9c4a5cc7-1d2d-4a2a-a4d7-76aa7320e682","ios":"levelo://app?vid=9c4a5cc7-1d2d-4a2a-a4d7-76aa7320e682"},"vehicle_type_id":"4","last_reported":1687968567,"current_range_meters":6000,"station_id":"ce4bhnh2rcd13ifvqgtg","pricing_plan_id":"free"},{"bike_id":"dd9b1efb-e6fb-4179-9046-23459c462710","system_id":"levelo_inurba_marseille","lat":43.278128,"lon":5.407195,"is_reserved":false,"is_disabled":false,"rental_uris":{"android":"levelo://app?vid=dd9b1efb-e6fb-4179-9046-23459c462710","ios":"levelo://app?vid=dd9b1efb-e6fb-4179-9046-23459c462710"},"vehicle_type_id":"4","last_reported":1687968567,"current_range_meters":11200,"station_id":"ce4bhnh2rcd13ifvqgtg","pricing_plan_id":"free"},{"bike_id":"19250467-a6ac-4351-ad19-117da2c706ce","system_id":"levelo_inurba_marseille","lat":43.278128,"lon":5.407195,"is_reserved":false,"is_disabled":false,"rental_uris":{"android":"levelo://app?vid=19250467-a6ac-4351-ad19-117da2c706ce","ios":"levelo://app?vid=19250467-a6ac-4351-ad19-117da2c706ce"},"vehicle_type_id":"4","last_reported":1687968567,"current_range_meters":20000,"station_id":"ce4bhnh2rcd13ifvqgtg","pricing_plan_id":"free"},{"bike_id":"108a48c7-5e1d-4370-844b-52e4f339c93a","system_id":"levelo_inurba_marseille","lat":43.278128,"lon":5.407195,"is_reserved":false,"is_disabled":false,"rental_uris":{"android":"levelo://app?vid=108a48c7-5e1d-4370-844b-52e4f339c93a","ios":"levelo://app?vid=108a48c7-5e1d-4370-844b-52e4f339c93a"},"vehicle_type_id":"4","last_reported":1687968567,"current_range_meters":7200,"station_id":"ce4bhnh2rcd13ifvqgtg","pricing_plan_id":"free"},{"bike_id":"4fd7950a-0813-4564-97a1-1b24dfb9e7e0","system_id":"levelo_inurba_marseille","lat":43.26958,"lon":5.38623,"is_reserved":false,"is_disabled":false,"rental_uris":{"android":"levelo://app?vid=4fd7950a-0813-4564-97a1-1b24dfb9e7e0","ios":"levelo://app?vid=4fd7950a-0813-4564-97a1-1b24dfb9e7e0"},"vehicle_type_id":"4","last_reported":1687968567,"current_range_meters":7600,"station_id":"","pricing_plan_id":"free"},{"bike_id":"18226134-1159-4db7-9a62-44544564675d","system_id":"levelo_inurba_marseille","lat":43.269467,"lon":5.386439,"is_reserved":false,"is_disabled":false,"rental_uris":{"android":"levelo://app?vid=18226134-1159-4db7-9a62-44544564675d","ios":"levelo://app?vid=18226134-1159-4db7-9a62-44544564675d"},"vehicle_type_id":"4","last_reported":1687968567,"current_range_meters":0,"station_id":"ce4bhh92rcd13ifvqfh0","pricing_plan_id":"free"},{"bike_id":"2eb15eb6-d49e-466a-b5dc-c9addaaa9b75","system_id":"levelo_inurba_marseille","lat":43.269319,"lon":5.389397,"is_reserved":false,"is_disabled":false,"rental_uris":{"android":"levelo://app?vid=2eb15eb6-d49e-466a-b5dc-c9addaaa9b75","ios":"levelo://app?vid=2eb15eb6-d49e-466a-b5dc-c9addaaa9b75"},"vehicle_type_id":"4","last_reported":1687968567,"current_range_meters":30800,"station_id":"ce4bhhh2rcd13ifvqfl0","pricing_plan_id":"free"},{"bike_id":"011ad747-2940-4184-badd-9f412b2d5b19","system_id":"levelo_inurba_marseille","lat":43.269319,"lon":5.389397,"is_reserved":false,"is_disabled":false,"rental_uris":{"android":"levelo://app?vid=011ad747-2940-4184-badd-9f412b2d5b19","ios":"levelo://app?vid=011ad747-2940-4184-badd-9f412b2d5b19"},"vehicle_type_id":"4","last_reported":1687968567,"current_range_meters":11200,"station_id":"ce4bhhh2rcd13ifvqfl0","pricing_plan_id":"free"},{"bike_id":"9fdc7df4-d2f0-4951-8291-8c89e6d4271b","system_id":"levelo_inurba_marseille","lat":43.26654,"lon":5.37251,"is_reserved":false,"is_disabled":false,"rental_uris":{"android":"levelo://app?vid=9fdc7df4-d2f0-4951-8291-8c89e6d4271b","ios":"levelo://app?vid=9fdc7df4-d2f0-4951-8291-8c89e6d4271b"},"vehicle_type_id":"4","last_reported":1687968567,"current_range_meters":3200,"station_id":"","pricing_plan_id":"free"},{"bike_id":"cda8aee5-33f0-4fa7-92f6-788723ee6cd7","system_id":"levelo_inurba_marseille","lat":43.26684,"lon":5.38271,"is_reserved":false,"is_disabled":false,"rental_uris":{"android":"levelo://app?vid=cda8aee5-33f0-4fa7-92f6-788723ee6cd7","ios":"levelo://app?vid=cda8aee5-33f0-4fa7-92f6-788723ee6cd7"},"vehicle_type_id":"4","last_reported":1687968567,"current_range_meters":8400,"station_id":"ce4bhg92rcd13ifvqf90","pricing_plan_id":"free"},{"bike_id":"59c5447a-bf4b-4d33-a732-d138f6abb1ed","system_id":"levelo_inurba_marseille","lat":43.28,"lon":5.41661,"is_reserved":false,"is_disabled":false,"rental_uris":{"android":"levelo://app?vid=59c5447a-bf4b-4d33-a732-d138f6abb1ed","ios":"levelo://app?vid=59c5447a-bf4b-4d33-a732-d138f6abb1ed"},"vehicle_type_id":"4","last_reported":1687968567,"current_range_meters":10000,"station_id":"ce4bho12rcd13ifvqh1g","pricing_plan_id":"free"},{"bike_id":"e39f2f25-b979-4116-aad3-7beb563d5650","system_id":"levelo_inurba_marseille","lat":43.27999,"lon":5.4166,"is_reserved":false,"is_disabled":false,"rental_uris":{"android":"levelo://app?vid=e39f2f25-b979-4116-aad3-7beb563d5650","ios":"levelo://app?vid=e39f2f25-b979-4116-aad3-7beb563d5650"},"vehicle_type_id":"4","last_reported":1687968567,"current_range_meters":6000,"station_id":"ce4bho12rcd13ifvqh1g","pricing_plan_id":"free"},{"bike_id":"06bd4649-63a6-437b-ab4e-b4f80fd807f7","system_id":"levelo_inurba_marseille","lat":43.27994,"lon":5.41663,"is_reserved":false,"is_disabled":false,"rental_uris":{"android":"levelo://app?vid=06bd4649-63a6-437b-ab4e-b4f80fd807f7","ios":"levelo://app?vid=06bd4649-63a6-437b-ab4e-b4f80fd807f7"},"vehicle_type_id":"4","last_reported":1687968567,"current_range_meters":4800,"station_id":"ce4bho12rcd13ifvqh1g","pricing_plan_id":"free"},{"bike_id":"15687ed2-108c-4203-956d-993f39eae5ae","system_id":"levelo_inurba_marseille","lat":43.27994,"lon":5.41665,"is_reserved":false,"is_disabled":false,"rental_uris":{"android":"levelo://app?vid=15687ed2-108c-4203-956d-993f39eae5ae","ios":"levelo://app?vid=15687ed2-108c-4203-956d-993f39eae5ae"},"vehicle_type_id":"4","last_reported":1687968567,"current_range_meters":21200,"station_id":"ce4bho12rcd13ifvqh1g","pricing_plan_id":"free"},{"bike_id":"c7b0284e-00d3-4717-a693-4a60386f16e5","system_id":"levelo_inurba_marseille","lat":43.27995,"lon":5.41667,"is_reserved":false,"is_disabled":false,"rental_uris":{"android":"levelo://app?vid=c7b0284e-00d3-4717-a693-4a60386f16e5","ios":"levelo://app?vid=c7b0284e-00d3-4717-a693-4a60386f16e5"},"vehicle_type_id":"4","last_reported":1687968567,"current_range_meters":8400,"station_id":"ce4bho12rcd13ifvqh1g","pricing_plan_id":"free"},{"bike_id":"8e2de05a-b264-4f03-9058-d843e8b27837","system_id":"levelo_inurba_marseille","lat":43.27989,"lon":5.4166,"is_reserved":false,"is_disabled":false,"rental_uris":{"android":"levelo://app?vid=8e2de05a-b264-4f03-9058-d843e8b27837","ios":"levelo://app?vid=8e2de05a-b264-4f03-9058-d843e8b27837"},"vehicle_type_id":"4","last_reported":1687968567,"current_range_meters":23600,"station_id":"ce4bho12rcd13ifvqh1g","pricing_plan_id":"free"},{"bike_id":"718a0e7a-0e09-48db-86ce-aeb450b91b2e","system_id":"levelo_inurba_marseille","lat":43.267966,"lon":5.393976,"is_reserved":false,"is_disabled":false,"rental_uris":{"android":"levelo://app?vid=718a0e7a-0e09-48db-86ce-aeb450b91b2e","ios":"levelo://app?vid=718a0e7a-0e09-48db-86ce-aeb450b91b2e"},"vehicle_type_id":"4","last_reported":1687968567,"current_range_meters":19200,"station_id":"ce4bhh12rcd13ifvqfg0","pricing_plan_id":"free"},{"bike_id":"ffb57785-ece2-4f72-8266-b1d23fd35a40","system_id":"levelo_inurba_marseille","lat":43.265569,"lon":5.390047,"is_reserved":false,"is_disabled":false,"rental_uris":{"android":"levelo://app?vid=ffb57785-ece2-4f72-8266-b1d23fd35a40","ios":"levelo://app?vid=ffb57785-ece2-4f72-8266-b1d23fd35a40"},"vehicle_type_id":"4","last_reported":1687968567,"current_range_meters":26000,"station_id":"ce4bhe12rcd13ifvqf30","pricing_plan_id":"free"},{"bike_id":"c7fa9979-c9da-465c-b31b-4f352f9d31b3","system_id":"levelo_inurba_marseille","lat":43.265569,"lon":5.390047,"is_reserved":false,"is_disabled":false,"rental_uris":{"android":"levelo://app?vid=c7fa9979-c9da-465c-b31b-4f352f9d31b3","ios":"levelo://app?vid=c7fa9979-c9da-465c-b31b-4f352f9d31b3"},"vehicle_type_id":"4","last_reported":1687968567,"current_range_meters":20400,"station_id":"ce4bhe12rcd13ifvqf30","pricing_plan_id":"free"},{"bike_id":"064f49f3-add2-4073-93d0-c4a730d8992a","system_id":"levelo_inurba_marseille","lat":43.265569,"lon":5.390047,"is_reserved":false,"is_disabled":false,"rental_uris":{"android":"levelo://app?vid=064f49f3-add2-4073-93d0-c4a730d8992a","ios":"levelo://app?vid=064f49f3-add2-4073-93d0-c4a730d8992a"},"vehicle_type_id":"4","last_reported":1687968567,"current_range_meters":23600,"station_id":"ce4bhe12rcd13ifvqf30","pricing_plan_id":"free"},{"bike_id":"9be72762-094a-4552-bbe6-350d14568552","system_id":"levelo_inurba_marseille","lat":43.265569,"lon":5.390047,"is_reserved":false,"is_disabled":false,"rental_uris":{"android":"levelo://app?vid=9be72762-094a-4552-bbe6-350d14568552","ios":"levelo://app?vid=9be72762-094a-4552-bbe6-350d14568552"},"vehicle_type_id":"4","last_reported":1687968567,"current_range_meters":18800,"station_id":"ce4bhe12rcd13ifvqf30","pricing_plan_id":"free"},{"bike_id":"1ae0837f-5adf-440a-b75b-31daeee9a80d","system_id":"levelo_inurba_marseille","lat":43.26561,"lon":5.39009,"is_reserved":false,"is_disabled":false,"rental_uris":{"android":"levelo://app?vid=1ae0837f-5adf-440a-b75b-31daeee9a80d","ios":"levelo://app?vid=1ae0837f-5adf-440a-b75b-31daeee9a80d"},"vehicle_type_id":"4","last_reported":1687968567,"current_range_meters":0,"station_id":"ce4bhe12rcd13ifvqf30","pricing_plan_id":"free"},{"bike_id":"96984fae-3d67-42af-9df3-6b44121b1180","system_id":"levelo_inurba_marseille","lat":43.26561,"lon":5.39035,"is_reserved":false,"is_disabled":false,"rental_uris":{"android":"levelo://app?vid=96984fae-3d67-42af-9df3-6b44121b1180","ios":"levelo://app?vid=96984fae-3d67-42af-9df3-6b44121b1180"},"vehicle_type_id":"4","last_reported":1687968567,"current_range_meters":20000,"station_id":"","pricing_plan_id":"free"},{"bike_id":"4fe03835-39ec-49f3-b4c0-4c925d78964c","system_id":"levelo_inurba_marseille","lat":43.265569,"lon":5.390047,"is_reserved":false,"is_disabled":false,"rental_uris":{"android":"levelo://app?vid=4fe03835-39ec-49f3-b4c0-4c925d78964c","ios":"levelo://app?vid=4fe03835-39ec-49f3-b4c0-4c925d78964c"},"vehicle_type_id":"4","last_reported":1687968567,"current_range_meters":5600,"station_id":"ce4bhe12rcd13ifvqf30","pricing_plan_id":"free"},{"bike_id":"fb813f3d-fbcd-47cc-a9dc-a8632043c627","system_id":"levelo_inurba_marseille","lat":43.297815,"lon":5.393548,"is_reserved":false,"is_disabled":false,"rental_uris":{"android":"levelo://app?vid=fb813f3d-fbcd-47cc-a9dc-a8632043c627","ios":"levelo://app?vid=fb813f3d-fbcd-47cc-a9dc-a8632043c627"},"vehicle_type_id":"4","last_reported":1687968567,"current_range_meters":12400,"station_id":"chh1huq6cuj3fo74tm60","pricing_plan_id":"free"},{"bike_id":"9983a020-c120-4368-a2ff-f877c94e0097","system_id":"levelo_inurba_marseille","lat":43.26192,"lon":5.3745,"is_reserved":false,"is_disabled":false,"rental_uris":{"android":"levelo://app?vid=9983a020-c120-4368-a2ff-f877c94e0097","ios":"levelo://app?vid=9983a020-c120-4368-a2ff-f877c94e0097"},"vehicle_type_id":"4","last_reported":1687968567,"current_range_meters":22800,"station_id":"ce4bhgp2rcd13ifvqfc0","pricing_plan_id":"free"},{"bike_id":"52e56009-5f9c-43e4-b661-cd7e4b79b580","system_id":"levelo_inurba_marseille","lat":43.2619,"lon":5.3744,"is_reserved":false,"is_disabled":false,"rental_uris":{"android":"levelo://app?vid=52e56009-5f9c-43e4-b661-cd7e4b79b580","ios":"levelo://app?vid=52e56009-5f9c-43e4-b661-cd7e4b79b580"},"vehicle_type_id":"4","last_reported":1687968567,"current_range_meters":31200,"station_id":"ce4bhgp2rcd13ifvqfc0","pricing_plan_id":"free"},{"bike_id":"064b572e-e36b-4d57-a75f-b6007339811d","system_id":"levelo_inurba_marseille","lat":43.2619,"lon":5.37442,"is_reserved":false,"is_disabled":false,"rental_uris":{"android":"levelo://app?vid=064b572e-e36b-4d57-a75f-b6007339811d","ios":"levelo://app?vid=064b572e-e36b-4d57-a75f-b6007339811d"},"vehicle_type_id":"4","last_reported":1687968567,"current_range_meters":22000,"station_id":"ce4bhgp2rcd13ifvqfc0","pricing_plan_id":"free"},{"bike_id":"1fc9ae36-6c61-43bd-bca2-1658f723d725","system_id":"levelo_inurba_marseille","lat":43.2619,"lon":5.37442,"is_reserved":false,"is_disabled":false,"rental_uris":{"android":"levelo://app?vid=1fc9ae36-6c61-43bd-bca2-1658f723d725","ios":"levelo://app?vid=1fc9ae36-6c61-43bd-bca2-1658f723d725"},"vehicle_type_id":"4","last_reported":1687968567,"current_range_meters":12800,"station_id":"ce4bhgp2rcd13ifvqfc0","pricing_plan_id":"free"},{"bike_id":"f0b2ab98-621d-46c3-8bb3-5c5fb544a909","system_id":"levelo_inurba_marseille","lat":43.26187,"lon":5.37441,"is_reserved":false,"is_disabled":false,"rental_uris":{"android":"levelo://app?vid=f0b2ab98-621d-46c3-8bb3-5c5fb544a909","ios":"levelo://app?vid=f0b2ab98-621d-46c3-8bb3-5c5fb544a909"},"vehicle_type_id":"4","last_reported":1687968567,"current_range_meters":31200,"station_id":"ce4bhgp2rcd13ifvqfc0","pricing_plan_id":"free"},{"bike_id":"0f91d325-565d-4033-9077-07a0d4b1f22d","system_id":"levelo_inurba_marseille","lat":43.26186,"lon":5.37445,"is_reserved":false,"is_disabled":false,"rental_uris":{"android":"levelo://app?vid=0f91d325-565d-4033-9077-07a0d4b1f22d","ios":"levelo://app?vid=0f91d325-565d-4033-9077-07a0d4b1f22d"},"vehicle_type_id":"4","last_reported":1687968567,"current_range_meters":31200,"station_id":"ce4bhgp2rcd13ifvqfc0","pricing_plan_id":"free"},{"bike_id":"30422768-5592-41a0-8917-8e00419dc577","system_id":"levelo_inurba_marseille","lat":43.26185,"lon":5.37443,"is_reserved":false,"is_disabled":false,"rental_uris":{"android":"levelo://app?vid=30422768-5592-41a0-8917-8e00419dc577","ios":"levelo://app?vid=30422768-5592-41a0-8917-8e00419dc577"},"vehicle_type_id":"4","last_reported":1687968567,"current_range_meters":26800,"station_id":"ce4bhgp2rcd13ifvqfc0","pricing_plan_id":"free"},{"bike_id":"0892e417-7ee6-4112-9aa1-74769e2d7f25","system_id":"levelo_inurba_marseille","lat":43.2719,"lon":5.40995,"is_reserved":false,"is_disabled":false,"rental_uris":{"android":"levelo://app?vid=0892e417-7ee6-4112-9aa1-74769e2d7f25","ios":"levelo://app?vid=0892e417-7ee6-4112-9aa1-74769e2d7f25"},"vehicle_type_id":"4","last_reported":1687968567,"current_range_meters":28000,"station_id":"ce4bhl12rcd13ifvqgf0","pricing_plan_id":"free"},{"bike_id":"fdebd92b-3c38-4eff-916c-e94408bb5b09","system_id":"levelo_inurba_marseille","lat":43.271388,"lon":5.409269,"is_reserved":false,"is_disabled":false,"rental_uris":{"android":"levelo://app?vid=fdebd92b-3c38-4eff-916c-e94408bb5b09","ios":"levelo://app?vid=fdebd92b-3c38-4eff-916c-e94408bb5b09"},"vehicle_type_id":"4","last_reported":1687968567,"current_range_meters":30400,"station_id":"ce4bhl12rcd13ifvqgf0","pricing_plan_id":"free"},{"bike_id":"7cb5bb70-d5da-4644-aec3-e2b6495172b8","system_id":"levelo_inurba_marseille","lat":43.27183,"lon":5.40996,"is_reserved":false,"is_disabled":false,"rental_uris":{"android":"levelo://app?vid=7cb5bb70-d5da-4644-aec3-e2b6495172b8","ios":"levelo://app?vid=7cb5bb70-d5da-4644-aec3-e2b6495172b8"},"vehicle_type_id":"4","last_reported":1687968567,"current_range_meters":29200,"station_id":"ce4bhl12rcd13ifvqgf0","pricing_plan_id":"free"},{"bike_id":"376808d2-5022-4113-9bc0-7162a752bf08","system_id":"levelo_inurba_marseille","lat":43.271368,"lon":5.40928,"is_reserved":false,"is_disabled":false,"rental_uris":{"android":"levelo://app?vid=376808d2-5022-4113-9bc0-7162a752bf08","ios":"levelo://app?vid=376808d2-5022-4113-9bc0-7162a752bf08"},"vehicle_type_id":"4","last_reported":1687968567,"current_range_meters":12800,"station_id":"ce4bhl12rcd13ifvqgf0","pricing_plan_id":"free"},{"bike_id":"a9338ee9-321a-4044-8c5c-92c79e25d56c","system_id":"levelo_inurba_marseille","lat":43.271388,"lon":5.409269,"is_reserved":false,"is_disabled":false,"rental_uris":{"android":"levelo://app?vid=a9338ee9-321a-4044-8c5c-92c79e25d56c","ios":"levelo://app?vid=a9338ee9-321a-4044-8c5c-92c79e25d56c"},"vehicle_type_id":"4","last_reported":1687968567,"current_range_meters":29600,"station_id":"ce4bhl12rcd13ifvqgf0","pricing_plan_id":"free"},{"bike_id":"8cb49833-4f1c-4446-bfef-d57c352583fc","system_id":"levelo_inurba_marseille","lat":43.271368,"lon":5.40928,"is_reserved":false,"is_disabled":false,"rental_uris":{"android":"levelo://app?vid=8cb49833-4f1c-4446-bfef-d57c352583fc","ios":"levelo://app?vid=8cb49833-4f1c-4446-bfef-d57c352583fc"},"vehicle_type_id":"4","last_reported":1687968567,"current_range_meters":12400,"station_id":"ce4bhl12rcd13ifvqgf0","pricing_plan_id":"free"},{"bike_id":"d37c0967-5138-40a8-a478-49c9604e406c","system_id":"levelo_inurba_marseille","lat":43.267959,"lon":5.402687,"is_reserved":false,"is_disabled":false,"rental_uris":{"android":"levelo://app?vid=d37c0967-5138-40a8-a478-49c9604e406c","ios":"levelo://app?vid=d37c0967-5138-40a8-a478-49c9604e406c"},"vehicle_type_id":"4","last_reported":1687968567,"current_range_meters":23200,"station_id":"ce501612rcd8frsf0b60","pricing_plan_id":"free"},