{"last_updated":1770717003,"ttl":60,"version":"2.2","data":{"bikes":[{"bike_id":"a19e1fac-b0c3-4644-9fe0-ccdf953cee84","system_id":"levelo_inurba_marseille","lat":43.28106,"lon":5.37841,"is_reserved":false,"is_disabled":false,"rental_uris":{"android":"levelo://app?vid=a19e1fac-b0c3-4644-9fe0-ccdf953cee84","ios":"levelo://app?vid=a19e1fac-b0c3-4644-9fe0-ccdf953cee84"},"vehicle_type_id":"4","last_reported":1770717004,"current_range_meters":2800,"station_id":"ce4bha12rcd13ifvqee0","pricing_plan_id":"cebpf4jnsgd1na2vs0mg"},{"bike_id":"c0d37677-e009-4056-b6f6-48ed1b725be4","system_id":"levelo_inurba_marseille","lat":43.27308,"lon":5.3911,"is_reserved":false,"is_disabled":true,"rental_uris":{"android":"levelo://app?vid=c0d37677-e009-4056-b6f6-48ed1b725be4","ios":"levelo://app?vid=c0d37677-e009-4056-b6f6-48ed1b725be4"},"vehicle_type_id":"4","last_reported":1770717004,"current_range_meters":2800,"station_id":"ce4bhgp2rcd13ifvqfe0","pricing_plan_id":"cebpf4jnsgd1na2vs0mg"},{"bike_id":"70519adb-911c-4120-b6a7-3660c44ac45b","system_id":"levelo_inurba_marseille","lat":43.24767,"lon":5.39315,"is_reserved":false,"is_disabled":false,"rental_uris":{"android":"levelo://app?vid=70519adb-911c-4120-b6a7-3660c44ac45b","ios":"levelo://app?vid=70519adb-911c-4120-b6a7-3660c44ac45b"},"vehicle_type_id":"4","last_reported":1770717004,"current_range_meters":2800,"station_id":"","pricing_plan_id":"cebpf4jnsgd1na2vs0mg"},{"bike_id":"b90fc533-6de4-495c-abaf-fe27640912e6","system_id":"levelo_inurba_marseille","lat":43.24392,"lon":5.37073,"is_reserved":false,"is_disabled":false,"rental_uris":{"android":"levelo://app?vid=b90fc533-6de4-495c-abaf-fe27640912e6","ios":"levelo://app?vid=b90fc533-6de4-495c-abaf-fe27640912e6"},"vehicle_type_id":"4","last_reported":1770717004,"current_range_meters":2800,"station_id":"ce4bhhh2rcd13ifvqfk0","pricing_plan_id":"cebpf4jnsgd1na2vs0mg"},{"bike_id":"8726daee-67af-4bb6-984d-1e2017967960","system_id":"levelo_inurba_marseille","lat":43.26224,"lon":5.37908,"is_reserved":false,"is_disabled":false,"rental_uris":{"android":"levelo://app?vid=8726daee-67af-4bb6-984d-1e2017967960","ios":"levelo://app?vid=8726daee-67af-4bb6-984d-1e2017967960"},"vehicle_type_id":"4","last_reported":1770717004,"current_range_meters":2800,"station_id":"ce4bhjp2rcd13ifvqg90","pricing_plan_id":"cebpf4jnsgd1na2vs0mg"},{"bike_id":"05280667-4306-4a3c-89fe-64debd7d10a7","system_id":"levelo_inurba_marseille","lat":43.25003,"lon":5.38928,"is_reserved":false,"is_disabled":false,"rental_uris":{"android":"levelo://app?vid=05280667-4306-4a3c-89fe-64debd7d10a7","ios":"levelo://app?vid=05280667-4306-4a3c-89fe-64debd7d10a7"},"vehicle_type_id":"4","last_reported":1770717004,"current_range_meters":2800,"station_id":"ce4bhgp2rcd13ifvqfd0","pricing_plan_id":"cebpf4jnsgd1na2vs0mg"},{"bike_id":"45cd247f-80e8-4fd9-835e-d6bf3ec373a6","system_id":"levelo_inurba_marseille","lat":43.28728,"lon":5.36102,"is_reserved":false,"is_disabled":false,"rental_uris":{"android":"levelo://app?vid=45cd247f-80e8-4fd9-835e-d6bf3ec373a6","ios":"levelo://app?vid=45cd247f-80e8-4fd9-835e-d6bf3ec373a6"},"vehicle_type_id":"4","last_reported":1770717004,"current_range_meters":3200,"station_id":"cki0cbj6b192h4jlfktg","pricing_plan_id":"cebpf4jnsgd1na2vs0mg"},{"bike_id":"81089c31-0f23-400c-91cf-65461521d37b","system_id":"levelo_inurba_marseille","lat":43.25815,"lon":5.3942,"is_reserved":false,"is_disabled":false,"rental_uris":{"android":"levelo://app?vid=81089c31-0f23-400c-91cf-65461521d37b","ios":"levelo://app?vid=81089c31-0f23-400c-91cf-65461521d37b"},"vehicle_type_id":"4","last_reported":1770717004,"current_range_meters":3200,"station_id":"ce4bhip2rcd13ifvqft0","pricing_plan_id":"cebpf4jnsgd1na2vs0mg"},{"bike_id":"cb2f13ce-034b-441a-a578-3d844ed9c8aa","system_id":"levelo_inurba_marseille","lat":43.25924,"lon":5.40899,"is_reserved":false,"is_disabled":false,"rental_uris":{"android":"levelo://app?vid=cb2f13ce-034b-441a-a578-3d844ed9c8aa","ios":"levelo://app?vid=cb2f13ce-034b-441a-a578-3d844ed9c8aa"},"vehicle_type_id":"4","last_reported":1770717004,"current_range_meters":3200,"station_id":"ce4bhm92rcd13ifvqglg","pricing_plan_id":"cebpf4jnsgd1na2vs0mg"},{"bike_id":"982bb7a2-5b26-4ac0-8aec-83fc7e22f722","system_id":"levelo_inurba_marseille","lat":43.25935,"lon":5.40911,"is_reserved":false,"is_disabled":false,"rental_uris":{"android":"levelo://app?vid=982bb7a2-5b26-4ac0-8aec-83fc7e22f722","ios":"levelo://app?vid=982bb7a2-5b26-4ac0-8aec-83fc7e22f722"},"vehicle_type_id":"4","last_reported":1770717004,"current_range_meters":3200,"station_id":"ce4bhm92rcd13ifvqglg","pricing_plan_id":"cebpf4jnsgd1na2vs0mg"},{"bike_id":"d0810018-e120-4812-ae82-5e48e5c6aac3","system_id":"levelo_inurba_marseille","lat":43.30933,"lon":5.4014,"is_reserved":false,"is_disabled":false,"rental_uris":{"android":"levelo://app?vid=d0810018-e120-4812-ae82-5e48e5c6aac3","ios":"levelo://app?vid=d0810018-e120-4812-ae82-5e48e5c6aac3"},"vehicle_type_id":"4","last_reported":1770717004,"current_range_meters":3200,"station_id":"ce4bgvp2rcd13ifvqct0","pricing_plan_id":"cebpf4jnsgd1na2vs0mg"},{"bike_id":"d5d0ae74-54fa-4b09-99f0-8e82e1b973d1","system_id":"levelo_inurba_marseille","lat":43.21749,"lon":5.34594,"is_reserved":false,"is_disabled":false,"rental_uris":{"android":"levelo://app?vid=d5d0ae74-54fa-4b09-99f0-8e82e1b973d1","ios":"levelo://app?vid=d5d0ae74-54fa-4b09-99f0-8e82e1b973d1"},"vehicle_type_id":"4","last_reported":1770717004,"current_range_meters":3200,"station_id":"","pricing_plan_id":"cebpf4jnsgd1na2vs0mg"},{"bike_id":"2a41a4e7-1277-4985-ba78-22bce5859488","system_id":"levelo_inurba_marseille","lat":43.25963,"lon":5.40918,"is_reserved":false,"is_disabled":false,"rental_uris":{"android":"levelo://app?vid=2a41a4e7-1277-4985-ba78-22bce5859488","ios":"levelo://app?vid=2a41a4e7-1277-4985-ba78-22bce5859488"},"vehicle_type_id":"4","last_reported":1770717004,"current_range_meters":3200,"station_id":"ce4bhm92rcd13ifvqglg","pricing_plan_id":"cebpf4jnsgd1na2vs0mg"},{"bike_id":"6cf2bb02-82fa-40c3-883b-798577d06bf7","system_id":"levelo_inurba_marseille","lat":43.28104,"lon":5.37851,"is_reserved":false,"is_disabled":false,"rental_uris":{"android":"levelo://app?vid=6cf2bb02-82fa-40c3-883b-798577d06bf7","ios":"levelo://app?vid=6cf2bb02-82fa-40c3-883b-798577d06bf7"},"vehicle_type_id":"4","last_reported":1770717004,"current_range_meters":3200,"station_id":"ce4bha12rcd13ifvqee0","pricing_plan_id":"cebpf4jnsgd1na2vs0mg"},{"bike_id":"11362055-2532-43bc-accf-dec1dfa873dc","system_id":"levelo_inurba_marseille","lat":43.235136,"lon":5.410949,"is_reserved":false,"is_disabled":false,"rental_uris":{"android":"levelo://app?vid=11362055-2532-43bc-accf-dec1dfa873dc","ios":"levelo://app?vid=11362055-2532-43bc-accf-dec1dfa873dc"},"vehicle_type_id":"4","last_reported":1770717004,"current_range_meters":3600,"station_id":"","pricing_plan_id":"cebpf4jnsgd1na2vs0mg"},{"bike_id":"036828b9-ac26-4bce-bf0f-52c0b013d993","system_id":"levelo_inurba_marseille","lat":43.26579,"lon":5.3903,"is_reserved":false,"is_disabled":false,"rental_uris":{"android":"levelo://app?vid=036828b9-ac26-4bce-bf0f-52c0b013d993","ios":"levelo://app?vid=036828b9-ac26-4bce-bf0f-52c0b013d993"},"vehicle_type_id":"4","last_reported":1770717004,"current_range_meters":3600,"station_id":"ce4bhe12rcd13ifvqf30","pricing_plan_id":"cebpf4jnsgd1na2vs0mg"},{"bike_id":"7b23c59a-e91f-4ebf-b287-e184212eaf2b","system_id":"levelo_inurba_marseille","lat":43.24661,"lon":5.38945,"is_reserved":false,"is_disabled":false,"rental_uris":{"android":"levelo://app?vid=7b23c59a-e91f-4ebf-b287-e184212eaf2b","ios":"levelo://app?vid=7b23c59a-e91f-4ebf-b287-e184212eaf2b"},"vehicle_type_id":"4","last_reported":1770717004,"current_range_meters":3600,"station_id":"ce4bhg12rcd13ifvqf60","pricing_plan_id":"cebpf4jnsgd1na2vs0mg"},{"bike_id":"6fb993dd-b659-4a10-8238-414c673f9428","system_id":"levelo_inurba_marseille","lat":43.31059,"lon":5.38356,"is_reserved":false,"is_disabled":false,"rental_uris":{"android":"levelo://app?vid=6fb993dd-b659-4a10-8238-414c673f9428","ios":"levelo://app?vid=6fb993dd-b659-4a10-8238-414c673f9428"},"vehicle_type_id":"4","last_reported":1770717004,"current_range_meters":3600,"station_id":"ce4bgv92rcd13ifvqcr0","pricing_plan_id":"cebpf4jnsgd1na2vs0mg"},{"bike_id":"cc9f507c-1e5b-40cf-9928-bc484483f81e","system_id":"levelo_inurba_marseille","lat":43.29377,"lon":5.37827,"is_reserved":false,"is_disabled":false,"rental_uris":{"android":"levelo://app?vid=cc9f507c-1e5b-40cf-9928-bc484483f81e","ios":"levelo://app?vid=cc9f507c-1e5b-40cf-9928-bc484483f81e"},"vehicle_type_id":"4","last_reported":1770717004,"current_range_meters":3600,"station_id":"ce4bgjh2rcd13ifvqbf0","pricing_plan_id":"cebpf4jnsgd1na2vs0mg"},{"bike_id":"2e8a8ba4-7ef5-43f4-b2bb-f3baa95ad378","system_id":"levelo_inurba_marseille","lat":43.29319,"lon":5.37471,"is_reserved":false,"is_disabled":false,"rental_uris":{"android":"levelo://app?vid=2e8a8ba4-7ef5-43f4-b2bb-f3baa95ad378","ios":"levelo://app?vid=2e8a8ba4-7ef5-43f4-b2bb-f3baa95ad378"},"vehicle_type_id":"4","last_reported":1770717004,"current_range_meters":3600,"station_id":"ce4bgi12rcd13ifvqb70","pricing_plan_id":"cebpf4jnsgd1na2vs0mg"},{"bike_id":"b0437b95-ba96-479d-b093-d1fdf30e7bf6","system_id":"levelo_inurba_marseille","lat":43.31463,"lon":5.40439,"is_reserved":false,"is_disabled":false,"rental_uris":{"android":"levelo://app?vid=b0437b95-ba96-479d-b093-d1fdf30e7bf6","ios":"levelo://app?vid=b0437b95-ba96-479d-b093-d1fdf30e7bf6"},"vehicle_type_id":"4","last_reported":1770717004,"current_range_meters":3600,"station_id":"","pricing_plan_id":"cebpf4jnsgd1na2vs0mg"},{"bike_id":"7d59f1f1-2621-4853-91a8-34ee2eea3bf8","system_id":"levelo_inurba_marseille","lat":43.24399,"lon":5.37092,"is_reserved":false,"is_disabled":false,"rental_uris":{"android":"levelo://app?vid=7d59f1f1-2621-4853-91a8-34ee2eea3bf8","ios":"levelo://app?vid=7d59f1f1-2621-4853-91a8-34ee2eea3bf8"},"vehicle_type_id":"4","last_reported":1770717004,"current_range_meters":4000,"station_id":"ce4bhhh2rcd13ifvqfk0","pricing_plan_id":"cebpf4jnsgd1na2vs0mg"},{"bike_id":"6051b31d-701e-49ad-8b8c-d5a67a21069c","system_id":"levelo_inurba_marseille","lat":43.279976,"lon":5.400052,"is_reserved":false,"is_disabled":false,"rental_uris":{"android":"levelo://app?vid=6051b31d-701e-49ad-8b8c-d5a67a21069c","ios":"levelo://app?vid=6051b31d-701e-49ad-8b8c-d5a67a21069c"},"vehicle_type_id":"4","last_reported":1770717004,"current_range_meters":4000,"station_id":"ce4bho92rcd13ifvqh4g","pricing_plan_id":"cebpf4jnsgd1na2vs0mg"},{"bike_id":"286b6ff3-cad3-40cc-8457-9f3961da585f","system_id":"levelo_inurba_marseille","lat":43.26039,"lon":5.37537,"is_reserved":false,"is_disabled":false,"rental_uris":{"android":"levelo://app?vid=286b6ff3-cad3-40cc-8457-9f3961da585f","ios":"levelo://app?vid=286b6ff3-cad3-40cc-8457-9f3961da585f"},"vehicle_type_id":"4","last_reported":1770717004,"current_range_meters":4000,"station_id":"ce4bhgh2rcd13ifvqfa0","pricing_plan_id":"cebpf4jnsgd1na2vs0mg"},{"bike_id":"4ed74a89-631e-4f3d-9ffb-104dbcec7ce5","system_id":"levelo_inurba_marseille","lat":43.27995,"lon":5.40012,"is_reserved":false,"is_disabled":false,"rental_uris":{"android":"levelo://app?vid=4ed74a89-631e-4f3d-9ffb-104dbcec7ce5","ios":"levelo://app?vid=4ed74a89-631e-4f3d-9ffb-104dbcec7ce5"},"vehicle_type_id":"4","last_reported":1770717004,"current_range_meters":4000,"station_id":"ce4bho92rcd13ifvqh4g","pricing_plan_id":"cebpf4jnsgd1na2vs0mg"},{"bike_id":"777f1f50-9ccf-46db-a1bf-cfe765ca1373","system_id":"levelo_inurba_marseille","lat":43.2607,"lon":5.39391,"is_reserved":false,"is_disabled":false,"rental_uris":{"android":"levelo://app?vid=777f1f50-9ccf-46db-a1bf-cfe765ca1373","ios":"levelo://app?vid=777f1f50-9ccf-46db-a1bf-cfe765ca1373"},"vehicle_type_id":"4","last_reported":1770717004,"current_range_meters":4000,"station_id":"ce4bhh92rcd13ifvqfj0","pricing_plan_id":"cebpf4jnsgd1na2vs0mg"},{"bike_id":"722d83ad-7d61-4e65-8241-fdb13a7bbf54","system_id":"levelo_inurba_marseille","lat":43.2313,"lon":5.43712,"is_reserved":false,"is_disabled":false,"rental_uris":{"android":"levelo://app?vid=722d83ad-7d61-4e65-8241-fdb13a7bbf54","ios":"levelo://app?vid=722d83ad-7d61-4e65-8241-fdb13a7bbf54"},"vehicle_type_id":"4","last_reported":1770717004,"current_range_meters":4000,"station_id":"ce4bhmp2rcd13ifvqgog","pricing_plan_id":"cebpf4jnsgd1na2vs0mg"},{"bike_id":"36ac8fb1-1e6b-4c04-8e8e-9441a471d5f6","system_id":"levelo_inurba_marseille","lat":43.284838,"lon":5.484038,"is_reserved":false,"is_disabled":false,"rental_uris":{"android":"levelo://app?vid=36ac8fb1-1e6b-4c04-8e8e-9441a471d5f6","ios":"levelo://app?vid=36ac8fb1-1e6b-4c04-8e8e-9441a471d5f6"},"vehicle_type_id":"4","last_reported":1770717004,"current_range_meters":4400,"station_id":"st_d3svhcjqgbts73a3dn0g","pricing_plan_id":"cebpf4jnsgd1na2vs0mg"},{"bike_id":"e8bb3f15-b7c5-47d2-b9bc-e4535782c9ef","system_id":"levelo_inurba_marseille","lat":43.25586,"lon":5.38242,"is_reserved":false,"is_disabled":false,"rental_uris":{"android":"levelo://app?vid=e8bb3f15-b7c5-47d2-b9bc-e4535782c9ef","ios":"levelo://app?vid=e8bb3f15-b7c5-47d2-b9bc-e4535782c9ef"},"vehicle_type_id":"4","last_reported":1770717004,"current_range_meters":4400,"station_id":"ce4bhih2rcd13ifvqfs0","pricing_plan_id":"cebpf4jnsgd1na2vs0mg"},{"bike_id":"8943fefa-1cbe-4ea5-b78c-bb08dbe9891c","system_id":"levelo_inurba_marseille","lat":43.26207,"lon":5.37919,"is_reserved":false,"is_disabled":false,"rental_uris":{"android":"levelo://app?vid=8943fefa-1cbe-4ea5-b78c-bb08dbe9891c","ios":"levelo://app?vid=8943fefa-1cbe-4ea5-b78c-bb08dbe9891c"},"vehicle_type_id":"4","last_reported":1770717004,"current_range_meters":4400,"station_id":"ce4bhjp2rcd13ifvqg90","pricing_plan_id":"cebpf4jnsgd1na2vs0mg"},{"bike_id":"2294296c-901b-4358-86e0-0aedf4e96864","system_id":"levelo_inurba_marseille","lat":43.31683,"lon":5.37741,"is_reserved":false,"is_disabled":false,"rental_uris":{"android":"levelo://app?vid=2294296c-901b-4358-86e0-0aedf4e96864","ios":"levelo://app?vid=2294296c-901b-4358-86e0-0aedf4e96864"},"vehicle_type_id":"4","last_reported":1770717004,"current_range_meters":4400,"station_id":"","pricing_plan_id":"cebpf4jnsgd1na2vs0mg"},{"bike_id":"7e01f57b-ade8-4cc3-81c3-76e88fac1321","system_id":"levelo_inurba_marseille","lat":43.28485,"lon":5.48385,"is_reserved":false,"is_disabled":false,"rental_uris":{"android":"levelo://app?vid=7e01f57b-ade8-4cc3-81c3-76e88fac1321","ios":"levelo://app?vid=7e01f57b-ade8-4cc3-81c3-76e88fac1321"},"vehicle_type_id":"4","last_reported":1770717004,"current_range_meters":4400,"station_id":"st_d3svhcjqgbts73a3dn0g","pricing_plan_id":"cebpf4jnsgd1na2vs0mg"},{"bike_id":"05021b42-3a25-4787-a8aa-184ed11f1746","system_id":"levelo_inurba_marseille","lat":43.25955,"lon":5.40932,"is_reserved":false,"is_disabled":false,"rental_uris":{"android":"levelo://app?vid=05021b42-3a25-4787-a8aa-184ed11f1746","ios":"levelo://app?vid=05021b42-3a25-4787-a8aa-184ed11f1746"},"vehicle_type_id":"4","last_reported":1770717004,"current_range_meters":4400,"station_id":"ce4bhm92rcd13ifvqglg","pricing_plan_id":"cebpf4jnsgd1na2vs0mg"},{"bike_id":"40ca09fe-7866-480e-ac60-f7b7f539bb36","system_id":"levelo_inurba_marseille","lat":43.23391,"lon":5.41218,"is_reserved":false,"is_disabled":false,"rental_uris":{"android":"levelo://app?vid=40ca09fe-7866-480e-ac60-f7b7f539bb36","ios":"levelo://app?vid=40ca09fe-7866-480e-ac60-f7b7f539bb36"},"vehicle_type_id":"4","last_reported":1770717004,"current_range_meters":4400,"station_id":"","pricing_plan_id":"cebpf4jnsgd1na2vs0mg"},{"bike_id":"ea1438d1-a83b-4eb6-accb-cac96ba532a4","system_id":"levelo_inurba_marseille","lat":43.2757,"lon":5.38412,"is_reserved":false,"is_disabled":false,"rental_uris":{"android":"levelo://app?vid=ea1438d1-a83b-4eb6-accb-cac96ba532a4","ios":"levelo://app?vid=ea1438d1-a83b-4eb6-accb-cac96ba532a4"},"vehicle_type_id":"4","last_reported":1770717004,"current_range_meters":4400,"station_id":"ce4bhh92rcd13ifvqfi0","pricing_plan_id":"cebpf4jnsgd1na2vs0mg"},{"bike_id":"1b1a105d-da6d-457a-9d35-05d602d24d78","system_id":"levelo_inurba_marseille","lat":43.23149,"lon":5.43704,"is_reserved":false,"is_disabled":false,"rental_uris":{"android":"levelo://app?vid=1b1a105d-da6d-457a-9d35-05d602d24d78","ios":"levelo://app?vid=1b1a105d-da6d-457a-9d35-05d602d24d78"},"vehicle_type_id":"4","last_reported":1770717004,"current_range_meters":4800,"station_id":"ce4bhmp2rcd13ifvqgog","pricing_plan_id":"cebpf4jnsgd1na2vs0mg"},{"bike_id":"36ccc0ff-07e7-45d3-b85e-3bab65d4e79a","system_id":"levelo_inurba_marseille","lat":43.26948,"lon":5.38649,"is_reserved":false,"is_disabled":false,"rental_uris":{"android":"levelo://app?vid=36ccc0ff-07e7-45d3-b85e-3bab65d4e79a","ios":"levelo://app?vid=36ccc0ff-07e7-45d3-b85e-3bab65d4e79a"},"vehicle_type_id":"4","last_reported":1770717004,"current_range_meters":4800,"station_id":"ce4bhh92rcd13ifvqfh0","pricing_plan_id":"cebpf4jnsgd1na2vs0mg"},{"bike_id":"75523808-750b-4e61-8d1e-07a1b0b86673","system_id":"levelo_inurba_marseille","lat":43.231563,"lon":5.43721,"is_reserved":false,"is_disabled":false,"rental_uris":{"android":"levelo://app?vid=75523808-750b-4e61-8d1e-07a1b0b86673","ios":"levelo://app?vid=75523808-750b-4e61-8d1e-07a1b0b86673"},"vehicle_type_id":"4","last_reported":1770717004,"current_range_meters":4800,"station_id":"ce4bhmp2rcd13ifvqgog","pricing_plan_id":"cebpf4jnsgd1na2vs0mg"},{"bike_id":"0d435044-39b2-4402-857a-610b31675306","system_id":"levelo_inurba_marseille","lat":43.31061,"lon":5.37445,"is_reserved":false,"is_disabled":false,"rental_uris":{"android":"levelo://app?vid=0d435044-39b2-4402-857a-610b31675306","ios":"levelo://app?vid=0d435044-39b2-4402-857a-610b31675306"},"vehicle_type_id":"4","last_reported":1770717004,"current_range_meters":4800,"station_id":"","pricing_plan_id":"cebpf4jnsgd1na2vs0mg"},{"bike_id":"8d65ea59-159e-4e8e-8acb-244f43059bc9","system_id":"levelo_inurba_marseille","lat":43.2417,"lon":5.36408,"is_reserved":false,"is_disabled":false,"rental_uris":{"android":"levelo://app?vid=8d65ea59-159e-4e8e-8acb-244f43059bc9","ios":"levelo://app?vid=8d65ea59-159e-4e8e-8acb-244f43059bc9"},"vehicle_type_id":"4","last_reported":1770717004,"current_range_meters":4800,"station_id":"cpo36qri1sfpv3e86is0","pricing_plan_id":"cebpf4jnsgd1na2vs0mg"},{"bike_id":"d608da0c-3720-42ba-a5c8-1c5da709cfdd","system_id":"levelo_inurba_marseille","lat":43.25514,"lon":5.37657,"is_reserved":false,"is_disabled":false,"rental_uris":{"android":"levelo://app?vid=d608da0c-3720-42ba-a5c8-1c5da709cfdd","ios":"levelo://app?vid=d608da0c-3720-42ba-a5c8-1c5da709cfdd"},"vehicle_type_id":"4","last_reported":1770717004,"current_range_meters":4800,"station_id":"ce4bhh12rcd13ifvqff0","pricing_plan_id":"cebpf4jnsgd1na2vs0mg"},{"bike_id":"ad9d377e-ddb2-4cc8-be5c-fbf4ada5de5c","system_id":"levelo_inurba_marseille","lat":43.31334,"lon":5.36715,"is_reserved":false,"is_disabled":false,"rental_uris":{"android":"levelo://app?vid=ad9d377e-ddb2-4cc8-be5c-fbf4ada5de5c","ios":"levelo://app?vid=ad9d377e-ddb2-4cc8-be5c-fbf4ada5de5c"},"vehicle_type_id":"4","last_reported":1770717004,"current_range_meters":4800,"station_id":"ce4bgr92rcd13ifvqc6g","pricing_plan_id":"cebpf4jnsgd1na2vs0mg"},{"bike_id":"ffcfb0a6-be0d-4d3d-b9ec-3a4698a83e7b","system_id":"levelo_inurba_marseille","lat":43.25916,"lon":5.40898,"is_reserved":false,"is_disabled":false,"rental_uris":{"android":"levelo://app?vid=ffcfb0a6-be0d-4d3d-b9ec-3a4698a83e7b","ios":"levelo://app?vid=ffcfb0a6-be0d-4d3d-b9ec-3a4698a83e7b"},"vehicle_type_id":"4","last_reported":1770717004,"current_range_meters":4800,"station_id":"ce4bhm92rcd13ifvqglg","pricing_plan_id":"cebpf4jnsgd1na2vs0mg"},{"bike_id":"c0b6c3eb-4055-48c5-be4e-2f3633e2e95f","system_id":"levelo_inurba_marseille","lat":43.22566,"lon":5.41623,"is_reserved":false,"is_disabled":false,"rental_uris":{"android":"levelo://app?vid=c0b6c3eb-4055-48c5-be4e-2f3633e2e95f","ios":"levelo://app?vid=c0b6c3eb-4055-48c5-be4e-2f3633e2e95f"},"vehicle_type_id":"4","last_reported":1770717004,"current_range_meters":4800,"station_id":"st_d2o4gvlbi1j2169b742g","pricing_plan_id":"cebpf4jnsgd1na2vs0mg"},{"bike_id":"e9cb57c7-bd0c-4869-b98c-2cfbd98d9187","system_id":"levelo_inurba_marseille","lat":43.29535,"lon":5.37507,"is_reserved":false,"is_disabled":false,"rental_uris":{"android":"levelo://app?vid=e9cb57c7-bd0c-4869-b98c-2cfbd98d9187","ios":"levelo://app?vid=e9cb57c7-bd0c-4869-b98c-2cfbd98d9187"},"vehicle_type_id":"4","last_reported":1770717004,"current_range_meters":4800,"station_id":"ce4bgkp2rcd13ifvqbmg","pricing_plan_id":"cebpf4jnsgd1na2vs0mg"},{"bike_id":"6e13e3c5-3269-4fe3-a85e-c250740ae7c8","system_id":"levelo_inurba_marseille","lat":43.28541,"lon":5.44088,"is_reserved":false,"is_disabled":true,"rental_uris":{"android":"levelo://app?vid=6e13e3c5-3269-4fe3-a85e-c250740ae7c8","ios":"levelo://app?vid=6e13e3c5-3269-4fe3-a85e-c250740ae7c8"},"vehicle_type_id":"4","last_reported":1770717004,"current_range_meters":4800,"station_id":"","pricing_plan_id":"cebpf4jnsgd1na2vs0mg"},{"bike_id":"860fb966-7e63-4d5e-971d-abd68ce2f7a8","system_id":"levelo_inurba_marseille","lat":43.26789,"lon":5.39446,"is_reserved":false,"is_disabled":false,"rental_uris":{"android":"levelo://app?vid=860fb966-7e63-4d5e-971d-abd68ce2f7a8","ios":"levelo://app?vid=860fb966-7e63-4d5e-971d-abd68ce2f7a8"},"vehicle_type_id":"4","last_reported":1770717004,"current_range_meters":4800,"station_id":"ce4bhh12rcd13ifvqfg0","pricing_plan_id":"cebpf4jnsgd1na2vs0mg"},{"bike_id":"e43cbe13-67a5-40a1-8370-853fb6a5851b","system_id":"levelo_inurba_marseille","lat":43.31707,"lon":5.42428,"is_reserved":false,"is_disabled":false,"rental_uris":{"android":"levelo://app?vid=e43cbe13-67a5-40a1-8370-853fb6a5851b","ios":"levelo://app?vid=e43cbe13-67a5-40a1-8370-853fb6a5851b"},"vehicle_type_id":"4","last_reported":1770717004,"current_range_meters":5600,"station_id":"ce4bhp92rcd13ifvqhbg","pricing_plan_id":"cebpf4jnsgd1na2vs0mg"},{"bike_id":"c3c00751-bdcd-4e66-bdbf-2d325a1a5646","system_id":"levelo_inurba_marseille","lat":43.301398,"lon":5.374094,"is_reserved":false,"is_disabled":false,"rental_uris":{"android":"levelo://app?vid=c3c00751-bdcd-4e66-bdbf-2d325a1a5646","ios":"levelo://app?vid=c3c00751-bdcd-4e66-bdbf-2d325a1a5646"},"vehicle_type_id":"4","last_reported":1770717004,"current_range_meters":5600,"station_id":"ce4bgs92rcd13ifvqcc0","pricing_plan_id":"cebpf4jnsgd1na2vs0mg"},{"bike_id":"16a1688f-c2f5-4bf5-96dc-0466fbc0522d","system_id":"levelo_inurba_marseille","lat":43.27985,"lon":5.386905,"is_reserved":false,"is_disabled":false,"rental_uris":{"android":"levelo://app?vid=16a1688f-c2f5-4bf5-96dc-0466fbc0522d","ios":"levelo://app?vid=16a1688f-c2f5-4bf5-96dc-0466fbc0522d"},"vehicle_type_id":"4","last_reported":1770717004,"current_range_meters":5600,"station_id":"ce4bhg12rcd13ifvqf80","pricing_plan_id":"cebpf4jnsgd1na2vs0mg"},{"bike_id":"54bd52e6-912c-41e4-90a6-85e5c05a7d3d","system_id":"levelo_inurba_marseille","lat":43.22566,"lon":5.416324,"is_reserved":false,"is_disabled":false,"rental_uris":{"android":"levelo://app?vid=54bd52e6-912c-41e4-90a6-85e5c05a7d3d","ios":"levelo://app?vid=54bd52e6-912c-41e4-90a6-85e5c05a7d3d"},"vehicle_type_id":"4","last_reported":1770717004,"current_range_meters":5600,"station_id":"st_d2o4gvlbi1j2169b742g","pricing_plan_id":"cebpf4jnsgd1na2vs0mg"},{"bike_id":"f10ae62b-2fcc-4c55-9cd8-3777684b308a","system_id":"levelo_inurba_marseille","lat":43.26058,"lon":5.39385,"is_reserved":false,"is_disabled":false,"rental_uris":{"android":"levelo://app?vid=f10ae62b-2fcc-4c55-9cd8-3777684b308a","ios":"levelo://app?vid=f10ae62b-2fcc-4c55-9cd8-3777684b308a"},"vehicle_type_id":"4","last_reported":1770717004,"current_range_meters":5600,"station_id":"ce4bhh92rcd13ifvqfj0","pricing_plan_id":"cebpf4jnsgd1na2vs0mg"},{"bike_id":"ea5b640c-f9cc-4437-aff2-20b9a17b6db1","system_id":"levelo_inurba_marseille","lat":43.25936,"lon":5.40894,"is_reserved":false,"is_disabled":false,"rental_uris":{"android":"levelo://app?vid=ea5b640c-f9cc-4437-aff2-20b9a17b6db1","ios":"levelo://app?vid=ea5b640c-f9cc-4437-aff2-20b9a17b6db1"},"vehicle_type_id":"4","last_reported":1770717004,"current_range_meters":5600,"station_id":"ce4bhm92rcd13ifvqglg","pricing_plan_id":"cebpf4jnsgd1na2vs0mg"},{"bike_id":"6ee11a7a-bc33-49df-9cb2-56016579548a","system_id":"levelo_inurba_marseille","lat":43.32552,"lon":5.41449,"is_reserved":false,"is_disabled":false,"rental_uris":{"android":"levelo://app?vid=6ee11a7a-bc33-49df-9cb2-56016579548a","ios":"levelo://app?vid=6ee11a7a-bc33-49df-9cb2-56016579548a"},"vehicle_type_id":"4","last_reported":1770717004,"current_range_meters":5600,"station_id":"ce4bhq12rcd13ifvqhhg","pricing_plan_id":"cebpf4jnsgd1na2vs0mg"},{"bike_id":"1fa76a45-f289-437d-94cc-e8c22daeef5f","system_id":"levelo_inurba_marseille","lat":43.28871,"lon":5.42514,"is_reserved":false,"is_disabled":false,"rental_uris":{"android":"levelo://app?vid=1fa76a45-f289-437d-94cc-e8c22daeef5f","ios":"levelo://app?vid=1fa76a45-f289-437d-94cc-e8c22daeef5f"},"vehicle_type_id":"4","last_reported":1770717004,"current_range_meters":5600,"station_id":"st_d3b462108ojc7389ooeg","pricing_plan_id":"cebpf4jnsgd1na2vs0mg"},{"bike_id":"6e9da648-4518-4a3f-bb25-58200a56dbc5","system_id":"levelo_inurba_marseille","lat":43.25826,"lon":5.39442,"is_reserved":false,"is_disabled":false,"rental_uris":{"android":"levelo://app?vid=6e9da648-4518-4a3f-bb25-58200a56dbc5","ios":"levelo://app?vid=6e9da648-4518-4a3f-bb25-58200a56dbc5"},"vehicle_type_id":"4","last_reported":1770717004,"current_range_meters":5600,"station_id":"ce4bhip2rcd13ifvqft0","pricing_plan_id":"cebpf4jnsgd1na2vs0mg"},{"bike_id":"2deb45fa-cb82-48cc-9169-0ddc074570fe","system_id":"levelo_inurba_marseille","lat":43.31154,"lon":5.4468,"is_reserved":false,"is_disabled":false,"rental_uris":{"android":"levelo://app?vid=2deb45fa-cb82-48cc-9169-0ddc074570fe","ios":"levelo://app?vid=2deb45fa-cb82-48cc-9169-0ddc074570fe"},"vehicle_type_id":"4","last_reported":1770717004,"current_range_meters":5600,"station_id":"","pricing_plan_id":"cebpf4jnsgd1na2vs0mg"},{"bike_id":"91fdd7ab-d339-4963-8616-9757378509a7","system_id":"levelo_inurba_marseille","lat":43.28611,"lon":5.37072,"is_reserved":false,"is_disabled":false,"rental_uris":{"android":"levelo://app?vid=91fdd7ab-d339-4963-8616-9757378509a7","ios":"levelo://app?vid=91fdd7ab-d339-4963-8616-9757378509a7"},"vehicle_type_id":"4","last_reported":1770717004,"current_range_meters":5600,"station_id":"ce4bht12rcd13ifvqi60","pricing_plan_id":"cebpf4jnsgd1na2vs0mg"},{"bike_id":"e4f26466-561b-4efa-8b1f-9ecb13a4d3b6","system_id":"levelo_inurba_marseille","lat":43.24162,"lon":5.3639,"is_reserved":false,"is_disabled":false,"rental_uris":{"android":"levelo://app?vid=e4f26466-561b-4efa-8b1f-9ecb13a4d3b6","ios":"levelo://app?vid=e4f26466-561b-4efa-8b1f-9ecb13a4d3b6"},"vehicle_type_id":"4","last_reported":1770717004,"current_range_meters":5600,"station_id":"cpo36qri1sfpv3e86is0","pricing_plan_id":"cebpf4jnsgd1na2vs0mg"},{"bike_id":"6316a440-6079-4cd7-8710-8e12c6c0a2b7","system_id":"levelo_inurba_marseille","lat":43.2991,"lon":5.43666,"is_reserved":false,"is_disabled":false,"rental_uris":{"android":"levelo://app?vid=6316a440-6079-4cd7-8710-8e12c6c0a2b7","ios":"levelo://app?vid=6316a440-6079-4cd7-8710-8e12c6c0a2b7"},"vehicle_type_id":"4","last_reported":1770717004,"current_range_meters":5600,"station_id":"ce4bhpp2rcd13ifvqhfg","pricing_plan_id":"cebpf4jnsgd1na2vs0mg"},{"bike_id":"b695daad-9e05-4143-b99c-0aa1fa9fb783","system_id":"levelo_inurba_marseille","lat":43.31041,"lon":5.37189,"is_reserved":false,"is_disabled":false,"rental_uris":{"android":"levelo://app?vid=b695daad-9e05-4143-b99c-0aa1fa9fb783","ios":"levelo://app?vid=b695daad-9e05-4143-b99c-0aa1fa9fb783"},"vehicle_type_id":"4","last_reported":1770717004,"current_range_meters":5600,"station_id":"st_d4kl2rp97mjs73e7tdfg","pricing_plan_id":"cebpf4jnsgd1na2vs0mg"},{"bike_id":"c47f9d06-e2e7-4f1a-9efa-21197e8b1082","system_id":"levelo_inurba_marseille","lat":43.28504,"lon":5.38552,"is_reserved":false,"is_disabled":false,"rental_uris":{"android":"levelo://app?vid=c47f9d06-e2e7-4f1a-9efa-21197e8b1082","ios":"levelo://app?vid=c47f9d06-e2e7-4f1a-9efa-21197e8b1082"},"vehicle_type_id":"4","last_reported":1770717004,"current_range_meters":5600,"station_id":"ce4bh8p2rcd13ifvqeb0","pricing_plan_id":"cebpf4jnsgd1na2vs0mg"},{"bike_id":"982b7b1f-6fb0-41f8-a179-ec24e6ee3fa7","system_id":"levelo_inurba_marseille","lat":43.30947,"lon":5.39029,"is_reserved":false,"is_disabled":false,"rental_uris":{"android":"levelo://app?vid=982b7b1f-6fb0-41f8-a179-ec24e6ee3fa7","ios":"levelo://app?vid=982b7b1f-6fb0-41f8-a179-ec24e6ee3fa7"},"vehicle_type_id":"4","last_reported":1770717004,"current_range_meters":6000,"station_id":"ce4bgup2rcd13ifvqco0","pricing_plan_id":"cebpf4jnsgd1na2vs0mg"},{"bike_id":"df2aa500-fad7-43b4-9474-78cf6244e136","system_id":"levelo_inurba_marseille","lat":43.24983,"lon":5.38918,"is_reserved":false,"is_disabled":false,"rental_uris":{"android":"levelo://app?vid=df2aa500-fad7-43b4-9474-78cf6244e136","ios":"levelo://app?vid=df2aa500-fad7-43b4-9474-78cf6244e136"},"vehicle_type_id":"4","last_reported":1770717004,"current_range_meters":6000,"station_id":"ce4bhgp2rcd13ifvqfd0","pricing_plan_id":"cebpf4jnsgd1na2vs0mg"},{"bike_id":"6568fe9c-fddd-4b10-90f8-cf9f1069acf5","system_id":"levelo_inurba_marseille","lat":43.33542,"lon":5.37466,"is_reserved":false,"is_disabled":false,"rental_uris":{"android":"levelo://app?vid=6568fe9c-fddd-4b10-90f8-cf9f1069acf5","ios":"levelo://app?vid=6568fe9c-fddd-4b10-90f8-cf9f1069acf5"},"vehicle_type_id":"4","last_reported":1770717004,"current_range_meters":6000,"station_id":"st_d46tts09ee8s73dlu43g","pricing_plan_id":"cebpf4jnsgd1na2vs0mg"},{"bike_id":"85dd1ff3-48fb-473b-a6b8-2f438c995677","system_id":"levelo_inurba_marseille","lat":43.29934,"lon":5.43655,"is_reserved":false,"is_disabled":false,"rental_uris":{"android":"levelo://app?vid=85dd1ff3-48fb-473b-a6b8-2f438c995677","ios":"levelo://app?vid=85dd1ff3-48fb-473b-a6b8-2f438c995677"},"vehicle_type_id":"4","last_reported":1770717004,"current_range_meters":6000,"station_id":"","pricing_plan_id":"cebpf4jnsgd1na2vs0mg"},{"bike_id":"d917330e-8029-461a-95c3-ed551a62a88f","system_id":"levelo_inurba_marseille","lat":43.22563,"lon":5.41624,"is_reserved":false,"is_disabled":false,"rental_uris":{"android":"levelo://app?vid=d917330e-8029-461a-95c3-ed551a62a88f","ios":"levelo://app?vid=d917330e-8029-461a-95c3-ed551a62a88f"},"vehicle_type_id":"4","last_reported":1770717004,"current_range_meters":6000,"station_id":"st_d2o4gvlbi1j2169b742g","pricing_plan_id":"cebpf4jnsgd1na2vs0mg"},{"bike_id":"83062ade-c076-467d-b125-720c7e101dca","system_id":"levelo_inurba_marseille","lat":43.29621,"lon":5.37714,"is_reserved":false,"is_disabled":false,"rental_uris":{"android":"levelo://app?vid=83062ade-c076-467d-b125-720c7e101dca","ios":"levelo://app?vid=83062ade-c076-467d-b125-720c7e101dca"},"vehicle_type_id":"4","last_reported":1770717004,"current_range_meters":6000,"station_id":"ce4bgi92rcd13ifvqb90","pricing_plan_id":"cebpf4jnsgd1na2vs0mg"},{"bike_id":"738ace95-69b5-422f-91a8-940bb61d6675","system_id":"levelo_inurba_marseille","lat":43.32074,"lon":5.36786,"is_reserved":false,"is_disabled":false,"rental_uris":{"android":"levelo://app?vid=738ace95-69b5-422f-91a8-940bb61d6675","ios":"levelo://app?vid=738ace95-69b5-422f-91a8-940bb61d6675"},"vehicle_type_id":"4","last_reported":1770717004,"current_range_meters":6000,"station_id":"ce4bhrh2rcd13ifvqhug","pricing_plan_id":"cebpf4jnsgd1na2vs0mg"},{"bike_id":"abc82ae7-1fb1-4138-a05d-1f73df2b858f","system_id":"levelo_inurba_marseille","lat":43.31723,"lon":5.3778,"is_reserved":false,"is_disabled":false,"rental_uris":{"android":"levelo://app?vid=abc82ae7-1fb1-4138-a05d-1f73df2b858f","ios":"levelo://app?vid=abc82ae7-1fb1-4138-a05d-1f73df2b858f"},"vehicle_type_id":"4","last_reported":1770717004,"current_range_meters":6000,"station_id":"ce4bgth2rcd13ifvqch0","pricing_plan_id":"cebpf4jnsgd1na2vs0mg"},{"bike_id":"f2bc4079-69dc-4c38-8ac6-9eac0b6ce250","system_id":"levelo_inurba_marseille","lat":43.25911,"lon":5.40886,"is_reserved":false,"is_disabled":false,"rental_uris":{"android":"levelo://app?vid=f2bc4079-69dc-4c38-8ac6-9eac0b6ce250","ios":"levelo://app?vid=f2bc4079-69dc-4c38-8ac6-9eac0b6ce250"},"vehicle_type_id":"4","last_reported":1770717004,"current_range_meters":6000,"station_id":"ce4bhm92rcd13ifvqglg","pricing_plan_id":"cebpf4jnsgd1na2vs0mg"},{"bike_id":"473ed87a-93be-474c-9960-18e4ad4faf18","system_id":"levelo_inurba_marseille","lat":43.30957,"lon":5.39038,"is_reserved":false,"is_disabled":false,"rental_uris":{"android":"levelo://app?vid=473ed87a-93be-474c-9960-18e4ad4faf18","ios":"levelo://app?vid=473ed87a-93be-474c-9960-18e4ad4faf18"},"vehicle_type_id":"4","last_reported":1770717004,"current_range_meters":6000,"station_id":"ce4bgup2rcd13ifvqco0","pricing_plan_id":"cebpf4jnsgd1na2vs0mg"},{"bike_id":"588af9cd-247e-4879-9fe2-4ffd05b64a15","system_id":"levelo_inurba_marseille","lat":43.29283,"lon":5.36841,"is_reserved":false,"is_disabled":false,"rental_uris":{"android":"levelo://app?vid=588af9cd-247e-4879-9fe2-4ffd05b64a15","ios":"levelo://app?vid=588af9cd-247e-4879-9fe2-4ffd05b64a15"},"vehicle_type_id":"4","last_reported":1770717004,"current_range_meters":6400,"station_id":"ce4bhbp2rcd13ifvqesg","pricing_plan_id":"cebpf4jnsgd1na2vs0mg"},{"bike_id":"7f6ef8fc-1579-4912-b00d-edf7547220b9","system_id":"levelo_inurba_marseille","lat":43.27062,"lon":5.42272,"is_reserved":false,"is_disabled":false,"rental_uris":{"android":"levelo://app?vid=7f6ef8fc-1579-4912-b00d-edf7547220b9","ios":"levelo://app?vid=7f6ef8fc-1579-4912-b00d-edf7547220b9"},"vehicle_type_id":"4","last_reported":1770717004,"current_range_meters":6400,"station_id":"ce4bhk92rcd13ifvqgb0","pricing_plan_id":"cebpf4jnsgd1na2vs0mg"},{"bike_id":"fe6f8294-65ba-45f1-a4f6-c1ee0f12ef18","system_id":"levelo_inurba_marseille","lat":43.22561,"lon":5.41627,"is_reserved":false,"is_disabled":false,"rental_uris":{"android":"levelo://app?vid=fe6f8294-65ba-45f1-a4f6-c1ee0f12ef18","ios":"levelo://app?vid=fe6f8294-65ba-45f1-a4f6-c1ee0f12ef18"},"vehicle_type_id":"4","last_reported":1770717004,"current_range_meters":6400,"station_id":"st_d2o4gvlbi1j2169b742g","pricing_plan_id":"cebpf4jnsgd1na2vs0mg"},{"bike_id":"0f0b794e-5bcc-4cbf-9c14-da03c4979ecb","system_id":"levelo_inurba_marseille","lat":43.29042,"lon":5.39978,"is_reserved":false,"is_disabled":false,"rental_uris":{"android":"levelo://app?vid=0f0b794e-5bcc-4cbf-9c14-da03c4979ecb","ios":"levelo://app?vid=0f0b794e-5bcc-4cbf-9c14-da03c4979ecb"},"vehicle_type_id":"4","last_reported":1770717004,"current_range_meters":6400,"station_id":"ce4bh392rcd13ifvqdm0","pricing_plan_id":"cebpf4jnsgd1na2vs0mg"},{"bike_id":"f566875e-5642-41c3-af4a-390fbf63f0fb","system_id":"levelo_inurba_marseille","lat":43.28353,"lon":5.38137,"is_reserved":false,"is_disabled":false,"rental_uris":{"android":"levelo://app?vid=f566875e-5642-41c3-af4a-390fbf63f0fb","ios":"levelo://app?vid=f566875e-5642-41c3-af4a-390fbf63f0fb"},"vehicle_type_id":"4","last_reported":1770717004,"current_range_meters":6400,"station_id":"ce4bh412rcd13ifvqdr0","pricing_plan_id":"cebpf4jnsgd1na2vs0mg"},{"bike_id":"8f91f29e-0897-43d8-a3cf-8b8240b92337","system_id":"levelo_inurba_marseille","lat":43.29888,"lon":5.43673,"is_reserved":false,"is_disabled":false,"rental_uris":{"android":"levelo://app?vid=8f91f29e-0897-43d8-a3cf-8b8240b92337","ios":"levelo://app?vid=8f91f29e-0897-43d8-a3cf-8b8240b92337"},"vehicle_type_id":"4","last_reported":1770717004,"current_range_meters":6400,"station_id":"ce4bhpp2rcd13ifvqhfg","pricing_plan_id":"cebpf4jnsgd1na2vs0mg"},{"bike_id":"0c19d373-6eb2-4333-8212-205e194a0e67","system_id":"levelo_inurba_marseille","lat":43.24396,"lon":5.37076,"is_reserved":false,"is_disabled":false,"rental_uris":{"android":"levelo://app?vid=0c19d373-6eb2-4333-8212-205e194a0e67","ios":"levelo://app?vid=0c19d373-6eb2-4333-8212-205e194a0e67"},"vehicle_type_id":"4","last_reported":1770717004,"current_range_meters":6400,"station_id":"ce4bhhh2rcd13ifvqfk0","pricing_plan_id":"cebpf4jnsgd1na2vs0mg"},{"bike_id":"b6ef09ed-d357-4465-bd2f-ee587e4263cc","system_id":"levelo_inurba_marseille","lat":43.28444,"lon":5.40996,"is_reserved":false,"is_disabled":false,"rental_uris":{"android":"levelo://app?vid=b6ef09ed-d357-4465-bd2f-ee587e4263cc","ios":"levelo://app?vid=b6ef09ed-d357-4465-bd2f-ee587e4263cc"},"vehicle_type_id":"4","last_reported":1770717004,"current_range_meters":6400,"station_id":"","pricing_plan_id":"cebpf4jnsgd1na2vs0mg"},{"bike_id":"ea60dbdc-6fcc-443a-b502-bbecefa6ae1b","system_id":"levelo_inurba_marseille","lat":43.28269,"lon":5.35061,"is_reserved":false,"is_disabled":false,"rental_uris":{"android":"levelo://app?vid=ea60dbdc-6fcc-443a-b502-bbecefa6ae1b","ios":"levelo://app?vid=ea60dbdc-6fcc-443a-b502-bbecefa6ae1b"},"vehicle_type_id":"4","last_reported":1770717004,"current_range_meters":6400,"station_id":"ce4bhbp2rcd13ifvqerg","pricing_plan_id":"cebpf4jnsgd1na2vs0mg"},{"bike_id":"cb35cbae-644a-46b2-b5c2-58784e770e53","system_id":"levelo_inurba_marseille","lat":43.25867,"lon":5.40916,"is_reserved":false,"is_disabled":false,"rental_uris":{"android":"levelo://app?vid=cb35cbae-644a-46b2-b5c2-58784e770e53","ios":"levelo://app?vid=cb35cbae-644a-46b2-b5c2-58784e770e53"},"vehicle_type_id":"4","last_reported":1770717004,"current_range_meters":6400,"station_id":"","pricing_plan_id":"cebpf4jnsgd1na2vs0mg"},{"bike_id":"9a0a4f5b-d5f2-4be0-a4fa-450256499716","system_id":"levelo_inurba_marseille","lat":43.26977,"lon":5.39888,"is_reserved":false,"is_disabled":false,"rental_uris":{"android":"levelo://app?vid=9a0a4f5b-d5f2-4be0-a4fa-450256499716","ios":"levelo://app?vid=9a0a4f5b-d5f2-4be0-a4fa-450256499716"},"vehicle_type_id":"4","last_reported":1770717004,"current_range_meters":6400,"station_id":"","pricing_plan_id":"cebpf4jnsgd1na2vs0mg"},{"bike_id":"4926dc74-535e-4c80-bde7-fedf83ad3e9a","system_id":"levelo_inurba_marseille","lat":43.26392,"lon":5.41065,"is_reserved":false,"is_disabled":false,"rental_uris":{"android":"levelo://app?vid=4926dc74-535e-4c80-bde7-fedf83ad3e9a","ios":"levelo://app?vid=4926dc74-535e-4c80-bde7-fedf83ad3e9a"},"vehicle_type_id":"4","last_reported":1770717004,"current_range_meters":6800,"station_id":"st_d4e5ca6na9uc73bfl5fg","pricing_plan_id":"cebpf4jnsgd1na2vs0mg"},{"bike_id":"7c5e26ac-7a55-432d-b0e5-b44a76b97e79","system_id":"levelo_inurba_marseille","lat":43.30951,"lon":5.39022,"is_reserved":false,"is_disabled":false,"rental_uris":{"android":"levelo://app?vid=7c5e26ac-7a55-432d-b0e5-b44a76b97e79","ios":"levelo://app?vid=7c5e26ac-7a55-432d-b0e5-b44a76b97e79"},"vehicle_type_id":"4","last_reported":1770717004,"current_range_meters":6800,"station_id":"ce4bgup2rcd13ifvqco0","pricing_plan_id":"cebpf4jnsgd1na2vs0mg"},{"bike_id":"37031e2a-9c73-4743-9ad1-66d5eee740a7","system_id":"levelo_inurba_marseille","lat":43.25939,"lon":5.40899,"is_reserved":false,"is_disabled":false,"rental_uris":{"android":"levelo://app?vid=37031e2a-9c73-4743-9ad1-66d5eee740a7","ios":"levelo://app?vid=37031e2a-9c73-4743-9ad1-66d5eee740a7"},"vehicle_type_id":"4","last_reported":1770717004,"current_range_meters":6800,"station_id":"ce4bhm92rcd13ifvqglg","pricing_plan_id":"cebpf4jnsgd1na2vs0mg"},{"bike_id":"fd158031-c8ec-435b-b315-8360533800f5","system_id":"levelo_inurba_marseille","lat":43.26201,"lon":5.40452,"is_reserved":false,"is_disabled":true,"rental_uris":{"android":"levelo://app?vid=fd158031-c8ec-435b-b315-8360533800f5","ios":"levelo://app?vid=fd158031-c8ec-435b-b315-8360533800f5"},"vehicle_type_id":"4","last_reported":1770717004,"current_range_meters":6800,"station_id":"ce4bhmh2rcd13ifvqgmg","pricing_plan_id":"cebpf4jnsgd1na2vs0mg"},{"bike_id":"c905e704-6f56-4fbe-8269-605a142ba243","system_id":"levelo_inurba_marseille","lat":43.24633,"lon":5.38898,"is_reserved":false,"is_disabled":true,"rental_uris":{"android":"levelo://app?vid=c905e704-6f56-4fbe-8269-605a142ba243","ios":"levelo://app?vid=c905e704-6f56-4fbe-8269-605a142ba243"},"vehicle_type_id":"4","last_reported":1770717004,"current_range_meters":6800,"station_id":"ce4bhg12rcd13ifvqf60","pricing_plan_id":"cebpf4jnsgd1na2vs0mg"},{"bike_id":"f3f6fbc6-43d5-47da-82b6-762e4e722ce6","system_id":"levelo_inurba_marseille","lat":43.27984,"lon":5.41344,"is_reserved":false,"is_disabled":false,"rental_uris":{"android":"levelo://app?vid=f3f6fbc6-43d5-47da-82b6-762e4e722ce6","ios":"levelo://app?vid=f3f6fbc6-43d5-47da-82b6-762e4e722ce6"},"vehicle_type_id":"4","last_reported":1770717004,"current_range_meters":6800,"station_id":"","pricing_plan_id":"cebpf4jnsgd1na2vs0mg"},{"bike_id":"717f5b0f-8459-4064-9cc3-466453f30a8f","system_id":"levelo_inurba_marseille","lat":43.2983,"lon":5.38099,"is_reserved":false,"is_disabled":false,"rental_uris":{"android":"levelo://app?vid=717f5b0f-8459-4064-9cc3-466453f30a8f","ios":"levelo://app?vid=717f5b0f-8459-4064-9cc3-466453f30a8f"},"vehicle_type_id":"4","last_reported":1770717004,"current_range_meters":6800,"station_id":"ce4bgip2rcd13ifvqbb0","pricing_plan_id":"cebpf4jnsgd1na2vs0mg"},{"bike_id":"c84f98ff-c4b0-498e-bd41-7b5647869b42","system_id":"levelo_inurba_marseille","lat":43.23395,"lon":5.41242,"is_reserved":false,"is_disabled":false,"rental_uris":{"android":"levelo://app?vid=c84f98ff-c4b0-498e-bd41-7b5647869b42","ios":"levelo://app?vid=c84f98ff-c4b0-498e-bd41-7b5647869b42"},"vehicle_type_id":"4","last_reported":1770717004,"current_range_meters":6800,"station_id":"","pricing_plan_id":"cebpf4jnsgd1na2vs0mg"},{"bike_id":"3cc0c911-ddf8-4be2-a584-aaba713fd3a2","system_id":"levelo_inurba_marseille","lat":43.29046,"lon":5.37185,"is_reserved":false,"is_disabled":false,"rental_uris":{"android":"levelo://app?vid=3cc0c911-ddf8-4be2-a584-aaba713fd3a2","ios":"levelo://app?vid=3cc0c911-ddf8-4be2-a584-aaba713fd3a2"},"vehicle_type_id":"4","last_reported":1770717004,"current_range_meters":6800,"station_id":"ce4bh5p2rcd13ifvqe4g","pricing_plan_id":"cebpf4jnsgd1na2vs0mg"},{"bike_id":"3f7e55f6-2088-40ae-b4f8-703efb79b7e4","system_id":"levelo_inurba_marseille","lat":43.28418,"lon":5.39197,"is_reserved":false,"is_disabled":false,"rental_uris":{"android":"levelo://app?vid=3f7e55f6-2088-40ae-b4f8-703efb79b7e4","ios":"levelo://app?vid=3f7e55f6-2088-40ae-b4f8-703efb79b7e4"},"vehicle_type_id":"4","last_reported":1770717004,"current_range_meters":6800,"station_id":"","pricing_plan_id":"cebpf4jnsgd1na2vs0mg"},{"bike_id":"e20506fc-81c8-45aa-af10-6b0aa01b93ce","system_id":"levelo_inurba_marseille","lat":43.25565,"lon":5.38249,"is_reserved":false,"is_disabled":false,"rental_uris":{"android":"levelo://app?vid=e20506fc-81c8-45aa-af10-6b0aa01b93ce","ios":"levelo://app?vid=e20506fc-81c8-45aa-af10-6b0aa01b93ce"},"vehicle_type_id":"4","last_reported":1770717004,"current_range_meters":6800,"station_id":"ce4bhih2rcd13ifvqfs0","pricing_plan_id":"cebpf4jnsgd1na2vs0mg"},{"bike_id":"c583560a-77a9-496f-bff4-8abe7a8e3cb2","system_id":"levelo_inurba_marseille","lat":43.30182,"lon":5.36604,"is_reserved":false,"is_disabled":false,"rental_uris":{"android":"levelo://app?vid=c583560a-77a9-496f-bff4-8abe7a8e3cb2","ios":"levelo://app?vid=c583560a-77a9-496f-bff4-8abe7a8e3cb2"},"vehicle_type_id":"4","last_reported":1770717004,"current_range_meters":6800,"station_id":"ce4bgrh2rcd13ifvqc8g","pricing_plan_id":"cebpf4jnsgd1na2vs0mg"},{"bike_id":"8c5df9c2-edca-4c7f-889d-f3ef192b7c99","system_id":"levelo_inurba_marseille","lat":43.30158,"lon":5.37409,"is_reserved":false,"is_disabled":false,"rental_uris":{"android":"levelo://app?vid=8c5df9c2-edca-4c7f-889d-f3ef192b7c99","ios":"levelo://app?vid=8c5df9c2-edca-4c7f-889d-f3ef192b7c99"},"vehicle_type_id":"4","last_reported":1770717004,"current_range_meters":6800,"station_id":"ce4bgs92rcd13ifvqcc0","pricing_plan_id":"cebpf4jnsgd1na2vs0mg"},{"bike_id":"401e4cf8-13ef-4da9-b50d-a015f321d3b3","system_id":"levelo_inurba_marseille","lat":43.292598,"lon":5.409092,"is_reserved":false,"is_disabled":false,"rental_uris":{"android":"levelo://app?vid=401e4cf8-13ef-4da9-b50d-a015f321d3b3","ios":"levelo://app?vid=401e4cf8-13ef-4da9-b50d-a015f321d3b3"},"vehicle_type_id":"4","last_reported":1770717004,"current_range_meters":6800,"station_id":"ce4bh192rcd13ifvqdc0","pricing_plan_id":"cebpf4jnsgd1na2vs0mg"},{"bike_id":"af109b45-02d2-41f8-be4b-42b484fd3394","system_id":"levelo_inurba_marseille","lat":43.299017,"lon":5.436698,"is_reserved":false,"is_disabled":false,"rental_uris":{"android":"levelo://app?vid=af109b45-02d2-41f8-be4b-42b484fd3394","ios":"levelo://app?vid=af109b45-02d2-41f8-be4b-42b484fd3394"},"vehicle_type_id":"4","last_reported":1770717004,"current_range_meters":6800,"station_id":"ce4bhpp2rcd13ifvqhfg","pricing_plan_id":"cebpf4jnsgd1na2vs0mg"},{"bike_id":"02e9af11-2912-44f7-be5c-e2ae093265ba","system_id":"levelo_inurba_marseille","lat":43.26685,"lon":5.38331,"is_reserved":false,"is_disabled":false,"rental_uris":{"android":"levelo://app?vid=02e9af11-2912-44f7-be5c-e2ae093265ba","ios":"levelo://app?vid=02e9af11-2912-44f7-be5c-e2ae093265ba"},"vehicle_type_id":"4","last_reported":1770717004,"current_range_meters":7200,"station_id":"ce4bhg92rcd13ifvqf90","pricing_plan_id":"cebpf4jnsgd1na2vs0mg"},{"bike_id":"4240880d-88bf-48aa-91ea-700e773e4fa1","system_id":"levelo_inurba_marseille","lat":43.25563,"lon":5.3823,"is_reserved":false,"is_disabled":false,"rental_uris":{"android":"levelo://app?vid=4240880d-88bf-48aa-91ea-700e773e4fa1","ios":"levelo://app?vid=4240880d-88bf-48aa-91ea-700e773e4fa1"},"vehicle_type_id":"4","last_reported":1770717004,"current_range_meters":7200,"station_id":"ce4bhih2rcd13ifvqfs0","pricing_plan_id":"cebpf4jnsgd1na2vs0mg"},{"bike_id":"05abb5d5-7a0f-4692-a6b6-119f614f1bb6","system_id":"levelo_inurba_marseille","lat":43.255799,"lon":5.382337,"is_reserved":false,"is_disabled":false,"rental_uris":{"android":"levelo://app?vid=05abb5d5-7a0f-4692-a6b6-119f614f1bb6","ios":"levelo://app?vid=05abb5d5-7a0f-4692-a6b6-119f614f1bb6"},"vehicle_type_id":"4","last_reported":1770717004,"current_range_meters":7200,"station_id":"ce4bhih2rcd13ifvqfs0","pricing_plan_id":"cebpf4jnsgd1na2vs0mg"},{"bike_id":"661ae1fb-5124-4d82-a967-222c7b6306fd","system_id":"levelo_inurba_marseille","lat":43.27346,"lon":5.39112,"is_reserved":false,"is_disabled":false,"rental_uris":{"android":"levelo://app?vid=661ae1fb-5124-4d82-a967-222c7b6306fd","ios":"levelo://app?vid=661ae1fb-5124-4d82-a967-222c7b6306fd"},"vehicle_type_id":"4","last_reported":1770717004,"current_range_meters":7200,"station_id":"ce4bhgp2rcd13ifvqfe0","pricing_plan_id":"cebpf4jnsgd1na2vs0mg"},{"bike_id":"15e2e152-1ec2-486a-8cc8-d7567c21a107","system_id":"levelo_inurba_marseille","lat":43.29555,"lon":5.42271,"is_reserved":false,"is_disabled":false,"rental_uris":{"android":"levelo://app?vid=15e2e152-1ec2-486a-8cc8-d7567c21a107","ios":"levelo://app?vid=15e2e152-1ec2-486a-8cc8-d7567c21a107"},"vehicle_type_id":"4","last_reported":1770717004,"current_range_meters":7200,"station_id":"ce4bhph2rcd13ifvqhdg","pricing_plan_id":"cebpf4jnsgd1na2vs0mg"},{"bike_id":"a07cd24c-7e73-437e-917a-60bdbc1072fc","system_id":"levelo_inurba_marseille","lat":43.24402,"lon":5.37105,"is_reserved":false,"is_disabled":false,"rental_uris":{"android":"levelo://app?vid=a07cd24c-7e73-437e-917a-60bdbc1072fc","ios":"levelo://app?vid=a07cd24c-7e73-437e-917a-60bdbc1072fc"},"vehicle_type_id":"4","last_reported":1770717004,"current_range_meters":7200,"station_id":"ce4bhhh2rcd13ifvqfk0","pricing_plan_id":"cebpf4jnsgd1na2vs0mg"},{"bike_id":"64bb101b-f1fc-4f93-821a-4b9b4575d2a4","system_id":"levelo_inurba_marseille","lat":43.29378,"lon":5.3786,"is_reserved":false,"is_disabled":false,"rental_uris":{"android":"levelo://app?vid=64bb101b-f1fc-4f93-821a-4b9b4575d2a4","ios":"levelo://app?vid=64bb101b-f1fc-4f93-821a-4b9b4575d2a4"},"vehicle_type_id":"4","last_reported":1770717004,"current_range_meters":7200,"station_id":"ce4bgjh2rcd13ifvqbf0","pricing_plan_id":"cebpf4jnsgd1na2vs0mg"},{"bike_id":"20d7655a-dd73-4aef-83bc-661ec3e777a1","system_id":"levelo_inurba_marseille","lat":43.26682,"lon":5.3828,"is_reserved":false,"is_disabled":false,"rental_uris":{"android":"levelo://app?vid=20d7655a-dd73-4aef-83bc-661ec3e777a1","ios":"levelo://app?vid=20d7655a-dd73-4aef-83bc-661ec3e777a1"},"vehicle_type_id":"4","last_reported":1770717004,"current_range_meters":7200,"station_id":"ce4bhg92rcd13ifvqf90","pricing_plan_id":"cebpf4jnsgd1na2vs0mg"},{"bike_id":"804c72c7-b156-4f59-bfd2-4c7beff1be08","system_id":"levelo_inurba_marseille","lat":43.25096,"lon":5.39517,"is_reserved":false,"is_disabled":false,"rental_uris":{"android":"levelo://app?vid=804c72c7-b156-4f59-bfd2-4c7beff1be08","ios":"levelo://app?vid=804c72c7-b156-4f59-bfd2-4c7beff1be08"},"vehicle_type_id":"4","last_reported":1770717004,"current_range_meters":7200,"station_id":"ce4bhm12rcd13ifvqgkg","pricing_plan_id":"cebpf4jnsgd1na2vs0mg"},{"bike_id":"05d628e9-781f-4f77-a9a7-087d759ed084","system_id":"levelo_inurba_marseille","lat":43.22942,"lon":5.35374,"is_reserved":false,"is_disabled":false,"rental_uris":{"android":"levelo://app?vid=05d628e9-781f-4f77-a9a7-087d759ed084","ios":"levelo://app?vid=05d628e9-781f-4f77-a9a7-087d759ed084"},"vehicle_type_id":"4","last_reported":1770717004,"current_range_meters":7200,"station_id":"cpo3532slgdg3j2ikp40","pricing_plan_id":"cebpf4jnsgd1na2vs0mg"},{"bike_id":"2b259b44-8ea9-412c-9390-6977c9a1db9d","system_id":"levelo_inurba_marseille","lat":43.26931,"lon":5.4025,"is_reserved":false,"is_disabled":false,"rental_uris":{"android":"levelo://app?vid=2b259b44-8ea9-412c-9390-6977c9a1db9d","ios":"levelo://app?vid=2b259b44-8ea9-412c-9390-6977c9a1db9d"},"vehicle_type_id":"4","last_reported":1770717004,"current_range_meters":7200,"station_id":"cjm6bp8fraef2m0cb0m0","pricing_plan_id":"cebpf4jnsgd1na2vs0mg"},{"bike_id":"8b85b9f0-7c4f-4e7e-94fe-6bd65e0d0a91","system_id":"levelo_inurba_marseille","lat":43.28471,"lon":5.38411,"is_reserved":false,"is_disabled":false,"rental_uris":{"android":"levelo://app?vid=8b85b9f0-7c4f-4e7e-94fe-6bd65e0d0a91","ios":"levelo://app?vid=8b85b9f0-7c4f-4e7e-94fe-6bd65e0d0a91"},"vehicle_type_id":"4","last_reported":1770717004,"current_range_meters":7200,"station_id":"ce4bh512rcd13ifvqe3g","pricing_plan_id":"cebpf4jnsgd1na2vs0mg"},{"bike_id":"8fa92e24-32f1-4787-b638-a497d011e594","system_id":"levelo_inurba_marseille","lat":43.30807,"lon":5.37662,"is_reserved":false,"is_disabled":false,"rental_uris":{"android":"levelo://app?vid=8fa92e24-32f1-4787-b638-a497d011e594","ios":"levelo://app?vid=8fa92e24-32f1-4787-b638-a497d011e594"},"vehicle_type_id":"4","last_reported":1770717004,"current_range_meters":7200,"station_id":"ce4bgv92rcd13ifvqcq0","pricing_plan_id":"cebpf4jnsgd1na2vs0mg"},{"bike_id":"971b48dd-c7a4-4deb-8d64-56d2c1c381de","system_id":"levelo_inurba_marseille","lat":43.26366,"lon":5.41065,"is_reserved":false,"is_disabled":false,"rental_uris":{"android":"levelo://app?vid=971b48dd-c7a4-4deb-8d64-56d2c1c381de","ios":"levelo://app?vid=971b48dd-c7a4-4deb-8d64-56d2c1c381de"},"vehicle_type_id":"4","last_reported":1770717004,"current_range_meters":7200,"station_id":"st_d4e5ca6na9uc73bfl5fg","pricing_plan_id":"cebpf4jnsgd1na2vs0mg"},{"bike_id":"b1429378-b93e-4184-b373-85f0415c9919","system_id":"levelo_inurba_marseille","lat":43.24628,"lon":5.4321,"is_reserved":false,"is_disabled":false,"rental_uris":{"android":"levelo://app?vid=b1429378-b93e-4184-b373-85f0415c9919","ios":"levelo://app?vid=b1429378-b93e-4184-b373-85f0415c9919"},"vehicle_type_id":"4","last_reported":1770717004,"current_range_meters":7200,"station_id":"st_d2m6c4gdas8pm72e190g","pricing_plan_id":"cebpf4jnsgd1na2vs0mg"},{"bike_id":"9181861d-3c4b-4770-b545-363c30923e26","system_id":"levelo_inurba_marseille","lat":43.284774,"lon":5.48398,"is_reserved":false,"is_disabled":false,"rental_uris":{"android":"levelo://app?vid=9181861d-3c4b-4770-b545-363c30923e26","ios":"levelo://app?vid=9181861d-3c4b-4770-b545-363c30923e26"},"vehicle_type_id":"4","last_reported":1770717004,"current_range_meters":7200,"station_id":"st_d3svhcjqgbts73a3dn0g","pricing_plan_id":"cebpf4jnsgd1na2vs0mg"},{"bike_id":"335b6075-e59c-483e-a2bf-f94409097ec2","system_id":"levelo_inurba_marseille","lat":43.30946,"lon":5.39028,"is_reserved":false,"is_disabled":false,"rental_uris":{"android":"levelo://app?vid=335b6075-e59c-483e-a2bf-f94409097ec2","ios":"levelo://app?vid=335b6075-e59c-483e-a2bf-f94409097ec2"},"vehicle_type_id":"4","last_reported":1770717004,"current_range_meters":7200,"station_id":"ce4bgup2rcd13ifvqco0","pricing_plan_id":"cebpf4jnsgd1na2vs0mg"},{"bike_id":"d7de9010-e687-44c0-a96d-641e7c256265","system_id":"levelo_inurba_marseille","lat":43.31108,"lon":5.3777,"is_reserved":false,"is_disabled":false,"rental_uris":{"android":"levelo://app?vid=d7de9010-e687-44c0-a96d-641e7c256265","ios":"levelo://app?vid=d7de9010-e687-44c0-a96d-641e7c256265"},"vehicle_type_id":"4","last_reported":1770717004,"current_range_meters":7200,"station_id":"ce4bgt92rcd13ifvqcg0","pricing_plan_id":"cebpf4jnsgd1na2vs0mg"},{"bike_id":"32df9713-f370-4b5b-937c-67632b06730e","system_id":"levelo_inurba_marseille","lat":43.30563,"lon":5.3667,"is_reserved":false,"is_disabled":false,"rental_uris":{"android":"levelo://app?vid=32df9713-f370-4b5b-937c-67632b06730e","ios":"levelo://app?vid=32df9713-f370-4b5b-937c-67632b06730e"},"vehicle_type_id":"4","last_reported":1770717004,"current_range_meters":7200,"station_id":"","pricing_plan_id":"cebpf4jnsgd1na2vs0mg"},{"bike_id":"7185d1d4-a63f-4bf2-b537-1e3aa83f92bb","system_id":"levelo_inurba_marseille","lat":43.26687,"lon":5.38272,"is_reserved":false,"is_disabled":false,"rental_uris":{"android":"levelo://app?vid=7185d1d4-a63f-4bf2-b537-1e3aa83f92bb","ios":"levelo://app?vid=7185d1d4-a63f-4bf2-b537-1e3aa83f92bb"},"vehicle_type_id":"4","last_reported":1770717004,"current_range_meters":7200,"station_id":"ce4bhg92rcd13ifvqf90","pricing_plan_id":"cebpf4jnsgd1na2vs0mg"},{"bike_id":"bfc07130-be47-4eef-8325-e33d6610d729","system_id":"levelo_inurba_marseille","lat":43.3012,"lon":5.43121,"is_reserved":false,"is_disabled":false,"rental_uris":{"android":"levelo://app?vid=bfc07130-be47-4eef-8325-e33d6610d729","ios":"levelo://app?vid=bfc07130-be47-4eef-8325-e33d6610d729"},"vehicle_type_id":"4","last_reported":1770717004,"current_range_meters":8000,"station_id":"st_d3js3co5814s73ftftug","pricing_plan_id":"cebpf4jnsgd1na2vs0mg"},{"bike_id":"652029fd-7389-40d5-a0bd-e85f7aa43d7c","system_id":"levelo_inurba_marseille","lat":43.22563,"lon":5.41623,"is_reserved":false,"is_disabled":false,"rental_uris":{"android":"levelo://app?vid=652029fd-7389-40d5-a0bd-e85f7aa43d7c","ios":"levelo://app?vid=652029fd-7389-40d5-a0bd-e85f7aa43d7c"},"vehicle_type_id":"4","last_reported":1770717004,"current_range_meters":8000,"station_id":"st_d2o4gvlbi1j2169b742g","pricing_plan_id":"cebpf4jnsgd1na2vs0mg"},{"bike_id":"8ae193d0-6aa6-49c6-83c9-9ea48a09d2ef","system_id":"levelo_inurba_marseille","lat":43.27304,"lon":5.39114,"is_reserved":false,"is_disabled":false,"rental_uris":{"android":"levelo://app?vid=8ae193d0-6aa6-49c6-83c9-9ea48a09d2ef","ios":"levelo://app?vid=8ae193d0-6aa6-49c6-83c9-9ea48a09d2ef"},"vehicle_type_id":"4","last_reported":1770717004,"current_range_meters":8000,"station_id":"ce4bhgp2rcd13ifvqfe0","pricing_plan_id":"cebpf4jnsgd1na2vs0mg"},{"bike_id":"16f56e0d-e274-4306-bb10-a54c8eff076e","system_id":"levelo_inurba_marseille","lat":43.2902,"lon":5.38152,"is_reserved":false,"is_disabled":false,"rental_uris":{"android":"levelo://app?vid=16f56e0d-e274-4306-bb10-a54c8eff076e","ios":"levelo://app?vid=16f56e0d-e274-4306-bb10-a54c8eff076e"},"vehicle_type_id":"4","last_reported":1770717004,"current_range_meters":8000,"station_id":"ce4bh4p2rcd13ifvqe1g","pricing_plan_id":"cebpf4jnsgd1na2vs0mg"},{"bike_id":"5f7df976-2770-4b0d-bd16-1a5d3e4bd86a","system_id":"levelo_inurba_marseille","lat":43.2603,"lon":5.37536,"is_reserved":false,"is_disabled":false,"rental_uris":{"android":"levelo://app?vid=5f7df976-2770-4b0d-bd16-1a5d3e4bd86a","ios":"levelo://app?vid=5f7df976-2770-4b0d-bd16-1a5d3e4bd86a"},"vehicle_type_id":"4","last_reported":1770717004,"current_range_meters":8000,"station_id":"ce4bhgh2rcd13ifvqfa0","pricing_plan_id":"cebpf4jnsgd1na2vs0mg"},{"bike_id":"3b5567a6-efa3-498b-ad01-b9c12c6390c4","system_id":"levelo_inurba_marseille","lat":43.31722,"lon":5.42405,"is_reserved":false,"is_disabled":false,"rental_uris":{"android":"levelo://app?vid=3b5567a6-efa3-498b-ad01-b9c12c6390c4","ios":"levelo://app?vid=3b5567a6-efa3-498b-ad01-b9c12c6390c4"},"vehicle_type_id":"4","last_reported":1770717004,"current_range_meters":8000,"station_id":"ce4bhp92rcd13ifvqhbg","pricing_plan_id":"cebpf4jnsgd1na2vs0mg"},{"bike_id":"c562f2ae-281c-4797-8408-f803dec4352b","system_id":"levelo_inurba_marseille","lat":43.29032,"lon":5.39971,"is_reserved":false,"is_disabled":false,"rental_uris":{"android":"levelo://app?vid=c562f2ae-281c-4797-8408-f803dec4352b","ios":"levelo://app?vid=c562f2ae-281c-4797-8408-f803dec4352b"},"vehicle_type_id":"4","last_reported":1770717004,"current_range_meters":8000,"station_id":"ce4bh392rcd13ifvqdm0","pricing_plan_id":"cebpf4jnsgd1na2vs0mg"},{"bike_id":"d1006334-eff8-445f-9201-a0c70717fbd7","system_id":"levelo_inurba_marseille","lat":43.2793,"lon":5.41142,"is_reserved":false,"is_disabled":false,"rental_uris":{"android":"levelo://app?vid=d1006334-eff8-445f-9201-a0c70717fbd7","ios":"levelo://app?vid=d1006334-eff8-445f-9201-a0c70717fbd7"},"vehicle_type_id":"4","last_reported":1770717004,"current_range_meters":8000,"station_id":"","pricing_plan_id":"cebpf4jnsgd1na2vs0mg"},{"bike_id":"db81a205-ff39-44ae-a1c3-5f6a468be0bf","system_id":"levelo_inurba_marseille","lat":43.3133,"lon":5.36722,"is_reserved":false,"is_disabled":false,"rental_uris":{"android":"levelo://app?vid=db81a205-ff39-44ae-a1c3-5f6a468be0bf","ios":"levelo://app?vid=db81a205-ff39-44ae-a1c3-5f6a468be0bf"},"vehicle_type_id":"4","last_reported":1770717004,"current_range_meters":8000,"station_id":"ce4bgr92rcd13ifvqc6g","pricing_plan_id":"cebpf4jnsgd1na2vs0mg"},{"bike_id":"3e62a0fd-19ac-4f58-93af-6af710db8a94","system_id":"levelo_inurba_marseille","lat":43.22934,"lon":5.35405,"is_reserved":false,"is_disabled":false,"rental_uris":{"android":"levelo://app?vid=3e62a0fd-19ac-4f58-93af-6af710db8a94","ios":"levelo://app?vid=3e62a0fd-19ac-4f58-93af-6af710db8a94"},"vehicle_type_id":"4","last_reported":1770717004,"current_range_meters":8000,"station_id":"cpo3532slgdg3j2ikp40","pricing_plan_id":"cebpf4jnsgd1na2vs0mg"},{"bike_id":"a0773092-16ef-4439-aeaa-18f366b0fb73","system_id":"levelo_inurba_marseille","lat":43.27202,"lon":5.40988,"is_reserved":false,"is_disabled":false,"rental_uris":{"android":"levelo://app?vid=a0773092-16ef-4439-aeaa-18f366b0fb73","ios":"levelo://app?vid=a0773092-16ef-4439-aeaa-18f366b0fb73"},"vehicle_type_id":"4","last_reported":1770717004,"current_range_meters":8000,"station_id":"ce4bhl12rcd13ifvqgf0","pricing_plan_id":"cebpf4jnsgd1na2vs0mg"},{"bike_id":"ea8da4c0-d08c-418d-b183-47656f300355","system_id":"levelo_inurba_marseille","lat":43.309041,"lon":5.368424,"is_reserved":false,"is_disabled":false,"rental_uris":{"android":"levelo://app?vid=ea8da4c0-d08c-418d-b183-47656f300355","ios":"levelo://app?vid=ea8da4c0-d08c-418d-b183-47656f300355"},"vehicle_type_id":"4","last_reported":1770717004,"current_range_meters":8000,"station_id":"ce4bgn92rcd13ifvqbvg","pricing_plan_id":"cebpf4jnsgd1na2vs0mg"},{"bike_id":"7edf82c3-a0c2-49c5-8d36-32b2ee24ec30","system_id":"levelo_inurba_marseille","lat":43.30151,"lon":5.38095,"is_reserved":false,"is_disabled":false,"rental_uris":{"android":"levelo://app?vid=7edf82c3-a0c2-49c5-8d36-32b2ee24ec30","ios":"levelo://app?vid=7edf82c3-a0c2-49c5-8d36-32b2ee24ec30"},"vehicle_type_id":"4","last_reported":1770717004,"current_range_meters":8000,"station_id":"ce4bgjp2rcd13ifvqbh0","pricing_plan_id":"cebpf4jnsgd1na2vs0mg"},{"bike_id":"dcffb64c-9bea-40cd-a5fe-c7eeb8475cd8","system_id":"levelo_inurba_marseille","lat":43.30294,"lon":5.37695,"is_reserved":false,"is_disabled":false,"rental_uris":{"android":"levelo://app?vid=dcffb64c-9bea-40cd-a5fe-c7eeb8475cd8","ios":"levelo://app?vid=dcffb64c-9bea-40cd-a5fe-c7eeb8475cd8"},"vehicle_type_id":"4","last_reported":1770717004,"current_range_meters":8400,"station_id":"ce4bguh2rcd13ifvqcj0","pricing_plan_id":"cebpf4jnsgd1na2vs0mg"},{"bike_id":"55fcccf6-928a-41e2-a987-5e19691aae06","system_id":"levelo_inurba_marseille","lat":43.27968,"lon":5.38702,"is_reserved":false,"is_disabled":false,"rental_uris":{"android":"levelo://app?vid=55fcccf6-928a-41e2-a987-5e19691aae06","ios":"levelo://app?vid=55fcccf6-928a-41e2-a987-5e19691aae06"},"vehicle_type_id":"4","last_reported":1770717004,"current_range_meters":8400,"station_id":"ce4bhg12rcd13ifvqf80","pricing_plan_id":"cebpf4jnsgd1na2vs0mg"},{"bike_id":"6c039895-332d-461f-b642-cc8f2ffe3d53","system_id":"levelo_inurba_marseille","lat":43.2906,"lon":5.39998,"is_reserved":false,"is_disabled":false,"rental_uris":{"android":"levelo://app?vid=6c039895-332d-461f-b642-cc8f2ffe3d53","ios":"levelo://app?vid=6c039895-332d-461f-b642-cc8f2ffe3d53"},"vehicle_type_id":"4","last_reported":1770717004,"current_range_meters":8400,"station_id":"ce4bh392rcd13ifvqdm0","pricing_plan_id":"cebpf4jnsgd1na2vs0mg"},{"bike_id":"e0450db0-c8b3-4403-bc43-ed5a007877b8","system_id":"levelo_inurba_marseille","lat":43.2463,"lon":5.43149,"is_reserved":false,"is_disabled":false,"rental_uris":{"android":"levelo://app?vid=e0450db0-c8b3-4403-bc43-ed5a007877b8","ios":"levelo://app?vid=e0450db0-c8b3-4403-bc43-ed5a007877b8"},"vehicle_type_id":"4","last_reported":1770717004,"current_range_meters":8400,"station_id":"st_d2m6c4gdas8pm72e190g","pricing_plan_id":"cebpf4jnsgd1na2vs0mg"},{"bike_id":"ee213b40-802c-442b-9390-5e22834db5df","system_id":"levelo_inurba_marseille","lat":43.24163,"lon":5.36387,"is_reserved":false,"is_disabled":false,"rental_uris":{"android":"levelo://app?vid=ee213b40-802c-442b-9390-5e22834db5df","ios":"levelo://app?vid=ee213b40-802c-442b-9390-5e22834db5df"},"vehicle_type_id":"4","last_reported":1770717004,"current_range_meters":8400,"station_id":"cpo36qri1sfpv3e86is0","pricing_plan_id":"cebpf4jnsgd1na2vs0mg"},{"bike_id":"eb988073-8fe7-4bb4-897d-222ac9bc4a1f","system_id":"levelo_inurba_marseille","lat":43.25872,"lon":5.39912,"is_reserved":false,"is_disabled":false,"rental_uris":{"android":"levelo://app?vid=eb988073-8fe7-4bb4-897d-222ac9bc4a1f","ios":"levelo://app?vid=eb988073-8fe7-4bb4-897d-222ac9bc4a1f"},"vehicle_type_id":"4","last_reported":1770717004,"current_range_meters":8400,"station_id":"ce4bhl92rcd13ifvqghg","pricing_plan_id":"cebpf4jnsgd1na2vs0mg"},{"bike_id":"07a8983d-5f9a-43d9-b148-241b2c2ab4b5","system_id":"levelo_inurba_marseille","lat":43.30952,"lon":5.39051,"is_reserved":false,"is_disabled":false,"rental_uris":{"android":"levelo://app?vid=07a8983d-5f9a-43d9-b148-241b2c2ab4b5","ios":"levelo://app?vid=07a8983d-5f9a-43d9-b148-241b2c2ab4b5"},"vehicle_type_id":"4","last_reported":1770717004,"current_range_meters":8400,"station_id":"ce4bgup2rcd13ifvqco0","pricing_plan_id":"cebpf4jnsgd1na2vs0mg"},{"bike_id":"77d01ae0-caa8-4229-b1d9-66eebccb18ba","system_id":"levelo_inurba_marseille","lat":43.30323,"lon":5.36897,"is_reserved":false,"is_disabled":false,"rental_uris":{"android":"levelo://app?vid=77d01ae0-caa8-4229-b1d9-66eebccb18ba","ios":"levelo://app?vid=77d01ae0-caa8-4229-b1d9-66eebccb18ba"},"vehicle_type_id":"4","last_reported":1770717004,"current_range_meters":8400,"station_id":"ce4bgqh2rcd13ifvqc5g","pricing_plan_id":"cebpf4jnsgd1na2vs0mg"},{"bike_id":"c6bba051-2987-4068-9b3f-af263ee62dbf","system_id":"levelo_inurba_marseille","lat":43.26496,"lon":5.39524,"is_reserved":false,"is_disabled":false,"rental_uris":{"android":"levelo://app?vid=c6bba051-2987-4068-9b3f-af263ee62dbf","ios":"levelo://app?vid=c6bba051-2987-4068-9b3f-af263ee62dbf"},"vehicle_type_id":"4","last_reported":1770717004,"current_range_meters":8400,"station_id":"ce4bhi12rcd13ifvqfq0","pricing_plan_id":"cebpf4jnsgd1na2vs0mg"},{"bike_id":"46b69bcd-f35a-433e-b9f1-16ab03d0ac0e","system_id":"levelo_inurba_marseille","lat":43.25856,"lon":5.39941,"is_reserved":false,"is_disabled":false,"rental_uris":{"android":"levelo://app?vid=46b69bcd-f35a-433e-b9f1-16ab03d0ac0e","ios":"levelo://app?vid=46b69bcd-f35a-433e-b9f1-16ab03d0ac0e"},"vehicle_type_id":"4","last_reported":1770717004,"current_range_meters":8400,"station_id":"ce4bhl92rcd13ifvqghg","pricing_plan_id":"cebpf4jnsgd1na2vs0mg"},{"bike_id":"ab8ed30d-dd64-45c7-9d56-1700378f985a","system_id":"levelo_inurba_marseille","lat":43.25578,"lon":5.38241,"is_reserved":false,"is_disabled":false,"rental_uris":{"android":"levelo://app?vid=ab8ed30d-dd64-45c7-9d56-1700378f985a","ios":"levelo://app?vid=ab8ed30d-dd64-45c7-9d56-1700378f985a"},"vehicle_type_id":"4","last_reported":1770717004,"current_range_meters":8400,"station_id":"ce4bhih2rcd13ifvqfs0","pricing_plan_id":"cebpf4jnsgd1na2vs0mg"},{"bike_id":"1f6cee9d-2f7f-49e5-85f7-fbc08a02328c","system_id":"levelo_inurba_marseille","lat":43.27507,"lon":5.42459,"is_reserved":false,"is_disabled":false,"rental_uris":{"android":"levelo://app?vid=1f6cee9d-2f7f-49e5-85f7-fbc08a02328c","ios":"levelo://app?vid=1f6cee9d-2f7f-49e5-85f7-fbc08a02328c"},"vehicle_type_id":"4","last_reported":1770717004,"current_range_meters":8400,"station_id":"ce4bhn92rcd13ifvqgrg","pricing_plan_id":"cebpf4jnsgd1na2vs0mg"},{"bike_id":"22d8d839-db4c-4efa-bd5d-d78efaca55ca","system_id":"levelo_inurba_marseille","lat":43.25584,"lon":5.38232,"is_reserved":false,"is_disabled":false,"rental_uris":{"android":"levelo://app?vid=22d8d839-db4c-4efa-bd5d-d78efaca55ca","ios":"levelo://app?vid=22d8d839-db4c-4efa-bd5d-d78efaca55ca"},"vehicle_type_id":"4","last_reported":1770717004,"current_range_meters":8400,"station_id":"ce4bhih2rcd13ifvqfs0","pricing_plan_id":"cebpf4jnsgd1na2vs0mg"},{"bike_id":"ff910ffd-3e5d-4cec-a2f8-726be8b3034c","system_id":"levelo_inurba_marseille","lat":43.27495,"lon":5.42445,"is_reserved":false,"is_disabled":false,"rental_uris":{"android":"levelo://app?vid=ff910ffd-3e5d-4cec-a2f8-726be8b3034c","ios":"levelo://app?vid=ff910ffd-3e5d-4cec-a2f8-726be8b3034c"},"vehicle_type_id":"4","last_reported":1770717004,"current_range_meters":8400,"station_id":"ce4bhn92rcd13ifvqgrg","pricing_plan_id":"cebpf4jnsgd1na2vs0mg"},{"bike_id":"0dc590ec-14e3-4507-a126-5f1063974b22","system_id":"levelo_inurba_marseille","lat":43.24226,"lon":5.36478,"is_reserved":false,"is_disabled":false,"rental_uris":{"android":"levelo://app?vid=0dc590ec-14e3-4507-a126-5f1063974b22","ios":"levelo://app?vid=0dc590ec-14e3-4507-a126-5f1063974b22"},"vehicle_type_id":"4","last_reported":1770717004,"current_range_meters":8400,"station_id":"cpo36qri1sfpv3e86is0","pricing_plan_id":"cebpf4jnsgd1na2vs0mg"},{"bike_id":"cab9c833-d115-4e76-83be-ce0cdefaa264","system_id":"levelo_inurba_marseille","lat":43.27492,"lon":5.42461,"is_reserved":false,"is_disabled":false,"rental_uris":{"android":"levelo://app?vid=cab9c833-d115-4e76-83be-ce0cdefaa264","ios":"levelo://app?vid=cab9c833-d115-4e76-83be-ce0cdefaa264"},"vehicle_type_id":"4","last_reported":1770717004,"current_range_meters":8400,"station_id":"ce4bhn92rcd13ifvqgrg","pricing_plan_id":"cebpf4jnsgd1na2vs0mg"},{"bike_id":"d410c163-5a86-426e-a0fa-0c14fe1e59ca","system_id":"levelo_inurba_marseille","lat":43.25089,"lon":5.39505,"is_reserved":false,"is_disabled":false,"rental_uris":{"android":"levelo://app?vid=d410c163-5a86-426e-a0fa-0c14fe1e59ca","ios":"levelo://app?vid=d410c163-5a86-426e-a0fa-0c14fe1e59ca"},"vehicle_type_id":"4","last_reported":1770717004,"current_range_meters":8800,"station_id":"ce4bhm12rcd13ifvqgkg","pricing_plan_id":"cebpf4jnsgd1na2vs0mg"},{"bike_id":"6f6a04ad-dd00-4f4a-bdfd-a835cfa0cc11","system_id":"levelo_inurba_marseille","lat":43.2707,"lon":5.38309,"is_reserved":false,"is_disabled":false,"rental_uris":{"android":"levelo://app?vid=6f6a04ad-dd00-4f4a-bdfd-a835cfa0cc11","ios":"levelo://app?vid=6f6a04ad-dd00-4f4a-bdfd-a835cfa0cc11"},"vehicle_type_id":"4","last_reported":1770717004,"current_range_meters":8800,"station_id":"st_d3n2fo6cfp8s73cte1j0","pricing_plan_id":"cebpf4jnsgd1na2vs0mg"},{"bike_id":"e044e11a-6684-4879-96be-83a884cff981","system_id":"levelo_inurba_marseille","lat":43.27207,"lon":5.391853,"is_reserved":false,"is_disabled":false,"rental_uris":{"android":"levelo://app?vid=e044e11a-6684-4879-96be-83a884cff981","ios":"levelo://app?vid=e044e11a-6684-4879-96be-83a884cff981"},"vehicle_type_id":"4","last_reported":1770717004,"current_range_meters":8800,"station_id":"ce4bhhp2rcd13ifvqfm0","pricing_plan_id":"cebpf4jnsgd1na2vs0mg"},{"bike_id":"690a04a1-182c-4652-992a-2774b1ea7c6b","system_id":"levelo_inurba_marseille","lat":43.22558,"lon":5.41628,"is_reserved":false,"is_disabled":false,"rental_uris":{"android":"levelo://app?vid=690a04a1-182c-4652-992a-2774b1ea7c6b","ios":"levelo://app?vid=690a04a1-182c-4652-992a-2774b1ea7c6b"},"vehicle_type_id":"4","last_reported":1770717004,"current_range_meters":8800,"station_id":"st_d2o4gvlbi1j2169b742g","pricing_plan_id":"cebpf4jnsgd1na2vs0mg"},{"bike_id":"f2355493-389a-4dbb-a923-521a6009ec86","system_id":"levelo_inurba_marseille","lat":43.30159,"lon":5.38085,"is_reserved":false,"is_disabled":false,"rental_uris":{"android":"levelo://app?vid=f2355493-389a-4dbb-a923-521a6009ec86","ios":"levelo://app?vid=f2355493-389a-4dbb-a923-521a6009ec86"},"vehicle_type_id":"4","last_reported":1770717004,"current_range_meters":8800,"station_id":"ce4bgjp2rcd13ifvqbh0","pricing_plan_id":"cebpf4jnsgd1na2vs0mg"},{"bike_id":"c419d6ff-2dec-4007-bfa6-b30a8ffe9253","system_id":"levelo_inurba_marseille","lat":43.22903,"lon":5.35429,"is_reserved":false,"is_disabled":false,"rental_uris":{"android":"levelo://app?vid=c419d6ff-2dec-4007-bfa6-b30a8ffe9253","ios":"levelo://app?vid=c419d6ff-2dec-4007-bfa6-b30a8ffe9253"},"vehicle_type_id":"4","last_reported":1770717004,"current_range_meters":8800,"station_id":"cpo3532slgdg3j2ikp40","pricing_plan_id":"cebpf4jnsgd1na2vs0mg"},{"bike_id":"508af785-032d-4df0-b8fe-11d0a1bf5f67","system_id":"levelo_inurba_marseille","lat":43.30121,"lon":5.43114,"is_reserved":false,"is_disabled":false,"rental_uris":{"android":"levelo://app?vid=508af785-032d-4df0-b8fe-11d0a1bf5f67","ios":"levelo://app?vid=508af785-032d-4df0-b8fe-11d0a1bf5f67"},"vehicle_type_id":"4","last_reported":1770717004,"current_range_meters":8800,"station_id":"st_d3js3co5814s73ftftug","pricing_plan_id":"cebpf4jnsgd1na2vs0mg"},{"bike_id":"0512ff03-5632-463b-8a2f-a58a24edff66","system_id":"levelo_inurba_marseille","lat":43.26386,"lon":5.41054,"is_reserved":false,"is_disabled":false,"rental_uris":{"android":"levelo://app?vid=0512ff03-5632-463b-8a2f-a58a24edff66","ios":"levelo://app?vid=0512ff03-5632-463b-8a2f-a58a24edff66"},"vehicle_type_id":"4","last_reported":1770717004,"current_range_meters":8800,"station_id":"st_d4e5ca6na9uc73bfl5fg","pricing_plan_id":"cebpf4jnsgd1na2vs0mg"},{"bike_id":"61e7a56e-a3a9-4b6a-8720-cb799648adf1","system_id":"levelo_inurba_marseille","lat":43.30315,"lon":5.369,"is_reserved":false,"is_disabled":false,"rental_uris":{"android":"levelo://app?vid=61e7a56e-a3a9-4b6a-8720-cb799648adf1","ios":"levelo://app?vid=61e7a56e-a3a9-4b6a-8720-cb799648adf1"},"vehicle_type_id":"4","last_reported":1770717004,"current_range_meters":8800,"station_id":"ce4bgqh2rcd13ifvqc5g","pricing_plan_id":"cebpf4jnsgd1na2vs0mg"},{"bike_id":"87056c0a-278d-470f-af70-99a4eb084f35","system_id":"levelo_inurba_marseille","lat":43.24637,"lon":5.43129,"is_reserved":false,"is_disabled":false,"rental_uris":{"android":"levelo://app?vid=87056c0a-278d-470f-af70-99a4eb084f35","ios":"levelo://app?vid=87056c0a-278d-470f-af70-99a4eb084f35"},"vehicle_type_id":"4","last_reported":1770717004,"current_range_meters":8800,"station_id":"st_d2m6c4gdas8pm72e190g","pricing_plan_id":"cebpf4jnsgd1na2vs0mg"},{"bike_id":"3f8bfcbc-5200-4097-84a4-35e09cf8d7ef","system_id":"levelo_inurba_marseille","lat":43.2797,"lon":5.39579,"is_reserved":false,"is_disabled":false,"rental_uris":{"android":"levelo://app?vid=3f8bfcbc-5200-4097-84a4-35e09cf8d7ef","ios":"levelo://app?vid=3f8bfcbc-5200-4097-84a4-35e09cf8d7ef"},"vehicle_type_id":"4","last_reported":1770717004,"current_range_meters":8800,"station_id":"","pricing_plan_id":"cebpf4jnsgd1na2vs0mg"},{"bike_id":"2932c2a7-1dbb-4a48-b5b7-c9a044185445","system_id":"levelo_inurba_marseille","lat":43.2796,"lon":5.38754,"is_reserved":false,"is_disabled":false,"rental_uris":{"android":"levelo://app?vid=2932c2a7-1dbb-4a48-b5b7-c9a044185445","ios":"levelo://app?vid=2932c2a7-1dbb-4a48-b5b7-c9a044185445"},"vehicle_type_id":"4","last_reported":1770717004,"current_range_meters":8800,"station_id":"ce4bhg12rcd13ifvqf80","pricing_plan_id":"cebpf4jnsgd1na2vs0mg"},{"bike_id":"022495c5-b220-47df-a910-640b30b657d5","system_id":"levelo_inurba_marseille","lat":43.30528,"lon":5.36724,"is_reserved":false,"is_disabled":false,"rental_uris":{"android":"levelo://app?vid=022495c5-b220-47df-a910-640b30b657d5","ios":"levelo://app?vid=022495c5-b220-47df-a910-640b30b657d5"},"vehicle_type_id":"4","last_reported":1770717004,"current_range_meters":8800,"station_id":"ce4bgrp2rcd13ifvqc9g","pricing_plan_id":"cebpf4jnsgd1na2vs0mg"},{"bike_id":"f1379115-41bf-4833-8f03-578ffee868ec","system_id":"levelo_inurba_marseille","lat":43.3031,"lon":5.36908,"is_reserved":false,"is_disabled":false,"rental_uris":{"android":"levelo://app?vid=f1379115-41bf-4833-8f03-578ffee868ec","ios":"levelo://app?vid=f1379115-41bf-4833-8f03-578ffee868ec"},"vehicle_type_id":"4","last_reported":1770717004,"current_range_meters":8800,"station_id":"ce4bgqh2rcd13ifvqc5g","pricing_plan_id":"cebpf4jnsgd1na2vs0mg"},{"bike_id":"4bc7a478-218e-4bd9-8812-56b0bf1a5090","system_id":"levelo_inurba_marseille","lat":43.30172,"lon":5.3947,"is_reserved":false,"is_disabled":false,"rental_uris":{"android":"levelo://app?vid=4bc7a478-218e-4bd9-8812-56b0bf1a5090","ios":"levelo://app?vid=4bc7a478-218e-4bd9-8812-56b0bf1a5090"},"vehicle_type_id":"4","last_reported":1770717004,"current_range_meters":8800,"station_id":"ce4bh0p2rcd13ifvqd70","pricing_plan_id":"cebpf4jnsgd1na2vs0mg"},{"bike_id":"b0577ca1-afa8-48fa-be5c-f4673c1a2294","system_id":"levelo_inurba_marseille","lat":43.27973,"lon":5.41315,"is_reserved":false,"is_disabled":false,"rental_uris":{"android":"levelo://app?vid=b0577ca1-afa8-48fa-be5c-f4673c1a2294","ios":"levelo://app?vid=b0577ca1-afa8-48fa-be5c-f4673c1a2294"},"vehicle_type_id":"4","last_reported":1770717004,"current_range_meters":8800,"station_id":"","pricing_plan_id":"cebpf4jnsgd1na2vs0mg"},{"bike_id":"666621fc-a487-4d47-8b78-3d75afaa6c58","system_id":"levelo_inurba_marseille","lat":43.30234,"lon":5.39463,"is_reserved":false,"is_disabled":false,"rental_uris":{"android":"levelo://app?vid=666621fc-a487-4d47-8b78-3d75afaa6c58","ios":"levelo://app?vid=666621fc-a487-4d47-8b78-3d75afaa6c58"},"vehicle_type_id":"4","last_reported":1770717004,"current_range_meters":8800,"station_id":"ce4bh0p2rcd13ifvqd70","pricing_plan_id":"cebpf4jnsgd1na2vs0mg"},{"bike_id":"f3631fda-c0c0-441a-a203-114b757c2c60","system_id":"levelo_inurba_marseille","lat":43.27439,"lon":5.39411,"is_reserved":false,"is_disabled":false,"rental_uris":{"android":"levelo://app?vid=f3631fda-c0c0-441a-a203-114b757c2c60","ios":"levelo://app?vid=f3631fda-c0c0-441a-a203-114b757c2c60"},"vehicle_type_id":"4","last_reported":1770717004,"current_range_meters":8800,"station_id":"ce4bhdp2rcd13ifvqf20","pricing_plan_id":"cebpf4jnsgd1na2vs0mg"},{"bike_id":"dd381a27-44eb-4347-b21c-b054b5fe0254","system_id":"levelo_inurba_marseille","lat":43.30154,"lon":5.38078,"is_reserved":false,"is_disabled":false,"rental_uris":{"android":"levelo://app?vid=dd381a27-44eb-4347-b21c-b054b5fe0254","ios":"levelo://app?vid=dd381a27-44eb-4347-b21c-b054b5fe0254"},"vehicle_type_id":"4","last_reported":1770717004,"current_range_meters":8800,"station_id":"ce4bgjp2rcd13ifvqbh0","pricing_plan_id":"cebpf4jnsgd1na2vs0mg"},{"bike_id":"1d84a6a9-53dd-4546-9d02-4bb696d8451e","system_id":"levelo_inurba_marseille","lat":43.31743,"lon":5.37474,"is_reserved":false,"is_disabled":false,"rental_uris":{"android":"levelo://app?vid=1d84a6a9-53dd-4546-9d02-4bb696d8451e","ios":"levelo://app?vid=1d84a6a9-53dd-4546-9d02-4bb696d8451e"},"vehicle_type_id":"4","last_reported":1770717004,"current_range_meters":8800,"station_id":"","pricing_plan_id":"cebpf4jnsgd1na2vs0mg"},{"bike_id":"f447fcab-942a-4e88-83b2-ae1d7b68e773","system_id":"levelo_inurba_marseille","lat":43.29031,"lon":5.38125,"is_reserved":false,"is_disabled":false,"rental_uris":{"android":"levelo://app?vid=f447fcab-942a-4e88-83b2-ae1d7b68e773","ios":"levelo://app?vid=f447fcab-942a-4e88-83b2-ae1d7b68e773"},"vehicle_type_id":"4","last_reported":1770717004,"current_range_meters":8800,"station_id":"ce4bh4p2rcd13ifvqe1g","pricing_plan_id":"cebpf4jnsgd1na2vs0mg"},{"bike_id":"a595811d-e4a2-4edd-bc38-2905c562c34e","system_id":"levelo_inurba_marseille","lat":43.33542,"lon":5.37459,"is_reserved":false,"is_disabled":false,"rental_uris":{"android":"levelo://app?vid=a595811d-e4a2-4edd-bc38-2905c562c34e","ios":"levelo://app?vid=a595811d-e4a2-4edd-bc38-2905c562c34e"},"vehicle_type_id":"4","last_reported":1770717004,"current_range_meters":8800,"station_id":"st_d46tts09ee8s73dlu43g","pricing_plan_id":"cebpf4jnsgd1na2vs0mg"},{"bike_id":"1eca7ea5-1081-4935-85d7-d1fa9d852070","system_id":"levelo_inurba_marseille","lat":43.29726,"lon":5.37732,"is_reserved":false,"is_disabled":false,"rental_uris":{"android":"levelo://app?vid=1eca7ea5-1081-4935-85d7-d1fa9d852070","ios":"levelo://app?vid=1eca7ea5-1081-4935-85d7-d1fa9d852070"},"vehicle_type_id":"4","last_reported":1770717004,"current_range_meters":9200,"station_id":"ce4bgkh2rcd13ifvqbl0","pricing_plan_id":"cebpf4jnsgd1na2vs0mg"},{"bike_id":"91325359-8737-490e-88df-fb78f1f43233","system_id":"levelo_inurba_marseille","lat":43.27955,"lon":5.38699,"is_reserved":false,"is_disabled":false,"rental_uris":{"android":"levelo://app?vid=91325359-8737-490e-88df-fb78f1f43233","ios":"levelo://app?vid=91325359-8737-490e-88df-fb78f1f43233"},"vehicle_type_id":"4","last_reported":1770717004,"current_range_meters":9200,"station_id":"ce4bhg12rcd13ifvqf80","pricing_plan_id":"cebpf4jnsgd1na2vs0mg"},{"bike_id":"625dc12c-9b14-48da-ab34-7b1b8f83f721","system_id":"levelo_inurba_marseille","lat":43.29734,"lon":5.37684,"is_reserved":false,"is_disabled":false,"rental_uris":{"android":"levelo://app?vid=625dc12c-9b14-48da-ab34-7b1b8f83f721","ios":"levelo://app?vid=625dc12c-9b14-48da-ab34-7b1b8f83f721"},"vehicle_type_id":"4","last_reported":1770717004,"current_range_meters":9200,"station_id":"ce4bgkh2rcd13ifvqbl0","pricing_plan_id":"cebpf4jnsgd1na2vs0mg"},{"bike_id":"1a6931c3-c546-4357-849f-5f88130c949d","system_id":"levelo_inurba_marseille","lat":43.25094,"lon":5.39527,"is_reserved":false,"is_disabled":false,"rental_uris":{"android":"levelo://app?vid=1a6931c3-c546-4357-849f-5f88130c949d","ios":"levelo://app?vid=1a6931c3-c546-4357-849f-5f88130c949d"},"vehicle_type_id":"4","last_reported":1770717004,"current_range_meters":9200,"station_id":"ce4bhm12rcd13ifvqgkg","pricing_plan_id":"cebpf4jnsgd1na2vs0mg"},{"bike_id":"831ec5ed-69af-48bf-919a-3b6703805bc4","system_id":"levelo_inurba_marseille","lat":43.27964,"lon":5.38668,"is_reserved":false,"is_disabled":false,"rental_uris":{"android":"levelo://app?vid=831ec5ed-69af-48bf-919a-3b6703805bc4","ios":"levelo://app?vid=831ec5ed-69af-48bf-919a-3b6703805bc4"},"vehicle_type_id":"4","last_reported":1770717004,"current_range_meters":9200,"station_id":"ce4bhg12rcd13ifvqf80","pricing_plan_id":"cebpf4jnsgd1na2vs0mg"},{"bike_id":"1c120683-67bc-428a-aa0f-bec572dfb863","system_id":"levelo_inurba_marseille","lat":43.25567,"lon":5.38237,"is_reserved":false,"is_disabled":false,"rental_uris":{"android":"levelo://app?vid=1c120683-67bc-428a-aa0f-bec572dfb863","ios":"levelo://app?vid=1c120683-67bc-428a-aa0f-bec572dfb863"},"vehicle_type_id":"4","last_reported":1770717004,"current_range_meters":9200,"station_id":"ce4bhih2rcd13ifvqfs0","pricing_plan_id":"cebpf4jnsgd1na2vs0mg"},{"bike_id":"fe93e1cf-f714-4e41-9dff-90a24aa5f3b8","system_id":"levelo_inurba_marseille","lat":43.244,"lon":5.37053,"is_reserved":false,"is_disabled":false,"rental_uris":{"android":"levelo://app?vid=fe93e1cf-f714-4e41-9dff-90a24aa5f3b8","ios":"levelo://app?vid=fe93e1cf-f714-4e41-9dff-90a24aa5f3b8"},"vehicle_type_id":"4","last_reported":1770717004,"current_range_meters":9200,"station_id":"ce4bhhh2rcd13ifvqfk0","pricing_plan_id":"cebpf4jnsgd1na2vs0mg"},{"bike_id":"50b635d3-0b93-40ca-af60-8fdd9b2f83d2","system_id":"levelo_inurba_marseille","lat":43.29798,"lon":5.38101,"is_reserved":false,"is_disabled":false,"rental_uris":{"android":"levelo://app?vid=50b635d3-0b93-40ca-af60-8fdd9b2f83d2","ios":"levelo://app?vid=50b635d3-0b93-40ca-af60-8fdd9b2f83d2"},"vehicle_type_id":"4","last_reported":1770717004,"current_range_meters":9200,"station_id":"ce4bgip2rcd13ifvqbb0","pricing_plan_id":"cebpf4jnsgd1na2vs0mg"},{"bike_id":"4659f5f2-43a6-4213-b84f-184d5dec64b3","system_id":"levelo_inurba_marseille","lat":43.33549,"lon":5.37465,"is_reserved":false,"is_disabled":false,"rental_uris":{"android":"levelo://app?vid=4659f5f2-43a6-4213-b84f-184d5dec64b3","ios":"levelo://app?vid=4659f5f2-43a6-4213-b84f-184d5dec64b3"},"vehicle_type_id":"4","last_reported":1770717004,"current_range_meters":9200,"station_id":"st_d46tts09ee8s73dlu43g","pricing_plan_id":"cebpf4jnsgd1na2vs0mg"},{"bike_id":"6fd6b1cc-3082-486b-9561-0a705a400cc5","system_id":"levelo_inurba_marseille","lat":43.29617,"lon":5.37716,"is_reserved":false,"is_disabled":false,"rental_uris":{"android":"levelo://app?vid=6fd6b1cc-3082-486b-9561-0a705a400cc5","ios":"levelo://app?vid=6fd6b1cc-3082-486b-9561-0a705a400cc5"},"vehicle_type_id":"4","last_reported":1770717004,"current_range_meters":9200,"station_id":"ce4bgi92rcd13ifvqb90","pricing_plan_id":"cebpf4jnsgd1na2vs0mg"},{"bike_id":"475fae78-75f9-4675-8012-304224f10313","system_id":"levelo_inurba_marseille","lat":43.33534,"lon":5.37455,"is_reserved":false,"is_disabled":false,"rental_uris":{"android":"levelo://app?vid=475fae78-75f9-4675-8012-304224f10313","ios":"levelo://app?vid=475fae78-75f9-4675-8012-304224f10313"},"vehicle_type_id":"4","last_reported":1770717004,"current_range_meters":9200,"station_id":"st_d46tts09ee8s73dlu43g","pricing_plan_id":"cebpf4jnsgd1na2vs0mg"},{"bike_id":"877aaecc-1e03-412a-b7fc-49812ef7fbf6","system_id":"levelo_inurba_marseille","lat":43.29949,"lon":5.37358,"is_reserved":false,"is_disabled":false,"rental_uris":{"android":"levelo://app?vid=877aaecc-1e03-412a-b7fc-49812ef7fbf6","ios":"levelo://app?vid=877aaecc-1e03-412a-b7fc-49812ef7fbf6"},"vehicle_type_id":"4","last_reported":1770717004,"current_range_meters":9200,"station_id":"","pricing_plan_id":"cebpf4jnsgd1na2vs0mg"},{"bike_id":"eb54f403-f5f5-4152-9cd4-d31f05df5ad8","system_id":"levelo_inurba_marseille","lat":43.26227,"lon":5.40467,"is_reserved":false,"is_disabled":false,"rental_uris":{"android":"levelo://app?vid=eb54f403-f5f5-4152-9cd4-d31f05df5ad8","ios":"levelo://app?vid=eb54f403-f5f5-4152-9cd4-d31f05df5ad8"},"vehicle_type_id":"4","last_reported":1770717004,"current_range_meters":9200,"station_id":"ce4bhmh2rcd13ifvqgmg","pricing_plan_id":"cebpf4jnsgd1na2vs0mg"},{"bike_id":"56f36c5c-54b3-48e5-938d-65f443f77268","system_id":"levelo_inurba_marseille","lat":43.313418,"lon":5.3672,"is_reserved":false,"is_disabled":false,"rental_uris":{"android":"levelo://app?vid=56f36c5c-54b3-48e5-938d-65f443f77268","ios":"levelo://app?vid=56f36c5c-54b3-48e5-938d-65f443f77268"},"vehicle_type_id":"4","last_reported":1770717004,"current_range_meters":9200,"station_id":"ce4bgr92rcd13ifvqc6g","pricing_plan_id":"cebpf4jnsgd1na2vs0mg"},{"bike_id":"5afc41bf-68ed-4bf9-9302-374d54f8e143","system_id":"levelo_inurba_marseille","lat":43.28482,"lon":5.38412,"is_reserved":false,"is_disabled":false,"rental_uris":{"android":"levelo://app?vid=5afc41bf-68ed-4bf9-9302-374d54f8e143","ios":"levelo://app?vid=5afc41bf-68ed-4bf9-9302-374d54f8e143"},"vehicle_type_id":"4","last_reported":1770717004,"current_range_meters":9200,"station_id":"ce4bh512rcd13ifvqe3g","pricing_plan_id":"cebpf4jnsgd1na2vs0mg"},{"bike_id":"06d34be2-e563-4859-8e59-dd5a798cf9ac","system_id":"levelo_inurba_marseille","lat":43.26377,"lon":5.41095,"is_reserved":false,"is_disabled":false,"rental_uris":{"android":"levelo://app?vid=06d34be2-e563-4859-8e59-dd5a798cf9ac","ios":"levelo://app?vid=06d34be2-e563-4859-8e59-dd5a798cf9ac"},"vehicle_type_id":"4","last_reported":1770717004,"current_range_meters":9200,"station_id":"st_d4e5ca6na9uc73bfl5fg","pricing_plan_id":"cebpf4jnsgd1na2vs0mg"},{"bike_id":"eaa4e92f-aaf1-4952-bcff-4058cf6fb5be","system_id":"levelo_inurba_marseille","lat":43.301436,"lon":5.380833,"is_reserved":false,"is_disabled":false,"rental_uris":{"android":"levelo://app?vid=eaa4e92f-aaf1-4952-bcff-4058cf6fb5be","ios":"levelo://app?vid=eaa4e92f-aaf1-4952-bcff-4058cf6fb5be"},"vehicle_type_id":"4","last_reported":1770717004,"current_range_meters":9200,"station_id":"ce4bgjp2rcd13ifvqbh0","pricing_plan_id":"cebpf4jnsgd1na2vs0mg"},{"bike_id":"4f81683f-f2d6-4623-9b45-d08bb7426b61","system_id":"levelo_inurba_marseille","lat":43.26686,"lon":5.38271,"is_reserved":false,"is_disabled":false,"rental_uris":{"android":"levelo://app?vid=4f81683f-f2d6-4623-9b45-d08bb7426b61","ios":"levelo://app?vid=4f81683f-f2d6-4623-9b45-d08bb7426b61"},"vehicle_type_id":"4","last_reported":1770717004,"current_range_meters":9200,"station_id":"ce4bhg92rcd13ifvqf90","pricing_plan_id":"cebpf4jnsgd1na2vs0mg"},{"bike_id":"bb58d1ff-0c7f-4e5a-b3bc-0ec03eae9f93","system_id":"levelo_inurba_marseille","lat":43.291945,"lon":5.357523,"is_reserved":false,"is_disabled":false,"rental_uris":{"android":"levelo://app?vid=bb58d1ff-0c7f-4e5a-b3bc-0ec03eae9f93","ios":"levelo://app?vid=bb58d1ff-0c7f-4e5a-b3bc-0ec03eae9f93"},"vehicle_type_id":"4","last_reported":1770717004,"current_range_meters":9600,"station_id":"ce4bhb92rcd13ifvqen0","pricing_plan_id":"cebpf4jnsgd1na2vs0mg"},{"bike_id":"1bf5e301-fb97-4c77-b41d-dd02fbc7baea","system_id":"levelo_inurba_marseille","lat":43.28281,"lon":5.35081,"is_reserved":false,"is_disabled":false,"rental_uris":{"android":"levelo://app?vid=1bf5e301-fb97-4c77-b41d-dd02fbc7baea","ios":"levelo://app?vid=1bf5e301-fb97-4c77-b41d-dd02fbc7baea"},"vehicle_type_id":"4","last_reported":1770717004,"current_range_meters":9600,"station_id":"ce4bhbp2rcd13ifvqerg","pricing_plan_id":"cebpf4jnsgd1na2vs0mg"},{"bike_id":"927d93f1-b3c2-4d54-a48c-ac7038efa5f7","system_id":"levelo_inurba_marseille","lat":43.26578,"lon":5.40332,"is_reserved":false,"is_disabled":false,"rental_uris":{"android":"levelo://app?vid=927d93f1-b3c2-4d54-a48c-ac7038efa5f7","ios":"levelo://app?vid=927d93f1-b3c2-4d54-a48c-ac7038efa5f7"},"vehicle_type_id":"4","last_reported":1770717004,"current_range_meters":9600,"station_id":"ce4bhmp2rcd13ifvqgng","pricing_plan_id":"cebpf4jnsgd1na2vs0mg"},{"bike_id":"137e7803-3693-4f3d-9217-313ba601ddc2","system_id":"levelo_inurba_marseille","lat":43.27607,"lon":5.36119,"is_reserved":false,"is_disabled":true,"rental_uris":{"android":"levelo://app?vid=137e7803-3693-4f3d-9217-313ba601ddc2","ios":"levelo://app?vid=137e7803-3693-4f3d-9217-313ba601ddc2"},"vehicle_type_id":"4","last_reported":1770717004,"current_range_meters":9600,"station_id":"","pricing_plan_id":"cebpf4jnsgd1na2vs0mg"},{"bike_id":"84c788cc-9fd0-40a6-894b-9f9cf2b30096","system_id":"levelo_inurba_marseille","lat":43.29802,"lon":5.38118,"is_reserved":false,"is_disabled":false,"rental_uris":{"android":"levelo://app?vid=84c788cc-9fd0-40a6-894b-9f9cf2b30096","ios":"levelo://app?vid=84c788cc-9fd0-40a6-894b-9f9cf2b30096"},"vehicle_type_id":"4","last_reported":1770717004,"current_range_meters":9600,"station_id":"ce4bgip2rcd13ifvqbb0","pricing_plan_id":"cebpf4jnsgd1na2vs0mg"},{"bike_id":"39cbdcae-9ab3-4efd-baf3-2d75993c8302","system_id":"levelo_inurba_marseille","lat":43.27508,"lon":5.42456,"is_reserved":false,"is_disabled":false,"rental_uris":{"android":"levelo://app?vid=39cbdcae-9ab3-4efd-baf3-2d75993c8302","ios":"levelo://app?vid=39cbdcae-9ab3-4efd-baf3-2d75993c8302"},"vehicle_type_id":"4","last_reported":1770717004,"current_range_meters":9600,"station_id":"ce4bhn92rcd13ifvqgrg","pricing_plan_id":"cebpf4jnsgd1na2vs0mg"},{"bike_id":"f0952065-d287-4372-9708-3e421313bc12","system_id":"levelo_inurba_marseille","lat":43.24077,"lon":5.37823,"is_reserved":false,"is_disabled":false,"rental_uris":{"android":"levelo://app?vid=f0952065-d287-4372-9708-3e421313bc12","ios":"levelo://app?vid=f0952065-d287-4372-9708-3e421313bc12"},"vehicle_type_id":"4","last_reported":1770717004,"current_range_meters":9600,"station_id":"","pricing_plan_id":"cebpf4jnsgd1na2vs0mg"},{"bike_id":"69cb53c0-4939-4da6-a53e-35e4cb2de7f7","system_id":"levelo_inurba_marseille","lat":43.22517,"lon":5.41624,"is_reserved":false,"is_disabled":false,"rental_uris":{"android":"levelo://app?vid=69cb53c0-4939-4da6-a53e-35e4cb2de7f7","ios":"levelo://app?vid=69cb53c0-4939-4da6-a53e-35e4cb2de7f7"},"vehicle_type_id":"4","last_reported":1770717004,"current_range_meters":9600,"station_id":"st_d2o4gvlbi1j2169b742g","pricing_plan_id":"cebpf4jnsgd1na2vs0mg"},{"bike_id":"ecad8e39-3994-426f-a203-097683c275bd","system_id":"levelo_inurba_marseille","lat":43.32597,"lon":5.41448,"is_reserved":false,"is_disabled":false,"rental_uris":{"android":"levelo://app?vid=ecad8e39-3994-426f-a203-097683c275bd","ios":"levelo://app?vid=ecad8e39-3994-426f-a203-097683c275bd"},"vehicle_type_id":"4","last_reported":1770717004,"current_range_meters":9600,"station_id":"","pricing_plan_id":"cebpf4jnsgd1na2vs0mg"},{"bike_id":"09359177-b268-472c-a660-a5f9b4a306c0","system_id":"levelo_inurba_marseille","lat":43.28941,"lon":5.38391,"is_reserved":false,"is_disabled":false,"rental_uris":{"android":"levelo://app?vid=09359177-b268-472c-a660-a5f9b4a306c0","ios":"levelo://app?vid=09359177-b268-472c-a660-a5f9b4a306c0"},"vehicle_type_id":"4","last_reported":1770717004,"current_range_meters":9600,"station_id":"ce4bh612rcd13ifvqe6g","pricing_plan_id":"cebpf4jnsgd1na2vs0mg"},{"bike_id":"80c25458-14f1-447d-9872-22e6f6e1699d","system_id":"levelo_inurba_marseille","lat":43.29074,"lon":5.38175,"is_reserved":false,"is_disabled":false,"rental_uris":{"android":"levelo://app?vid=80c25458-14f1-447d-9872-22e6f6e1699d","ios":"levelo://app?vid=80c25458-14f1-447d-9872-22e6f6e1699d"},"vehicle_type_id":"4","last_reported":1770717004,"current_range_meters":9600,"station_id":"ce4bh512rcd13ifvqe2g","pricing_plan_id":"cebpf4jnsgd1na2vs0mg"},{"bike_id":"a1bea5da-69e6-4684-99cc-f219fc7c2a19","system_id":"levelo_inurba_marseille","lat":43.284802,"lon":5.385653,"is_reserved":false,"is_disabled":false,"rental_uris":{"android":"levelo://app?vid=a1bea5da-69e6-4684-99cc-f219fc7c2a19","ios":"levelo://app?vid=a1bea5da-69e6-4684-99cc-f219fc7c2a19"},"vehicle_type_id":"4","last_reported":1770717004,"current_range_meters":9600,"station_id":"ce4bh8p2rcd13ifvqeb0","pricing_plan_id":"cebpf4jnsgd1na2vs0mg"},{"bike_id":"7a13e2ee-f212-4d4c-8d2c-caa534b4faec","system_id":"levelo_inurba_marseille","lat":43.24207,"lon":5.3972,"is_reserved":false,"is_disabled":false,"rental_uris":{"android":"levelo://app?vid=7a13e2ee-f212-4d4c-8d2c-caa534b4faec","ios":"levelo://app?vid=7a13e2ee-f212-4d4c-8d2c-caa534b4faec"},"vehicle_type_id":"4","last_reported":1770717004,"current_range_meters":9600,"station_id":"ce4bhn12rcd13ifvqgpg","pricing_plan_id":"cebpf4jnsgd1na2vs0mg"},{"bike_id":"dc007c9b-40b2-41f2-8f23-9ee383f58c54","system_id":"levelo_inurba_marseille","lat":43.22929,"lon":5.35377,"is_reserved":false,"is_disabled":false,"rental_uris":{"android":"levelo://app?vid=dc007c9b-40b2-41f2-8f23-9ee383f58c54","ios":"levelo://app?vid=dc007c9b-40b2-41f2-8f23-9ee383f58c54"},"vehicle_type_id":"4","last_reported":1770717004,"current_range_meters":10000,"station_id":"cpo3532slgdg3j2ikp40","pricing_plan_id":"cebpf4jnsgd1na2vs0mg"},{"bike_id":"e746bdcc-4519-4219-b12f-2ce162cafd86","system_id":"levelo_inurba_marseille","lat":43.27815,"lon":5.40757,"is_reserved":false,"is_disabled":false,"rental_uris":{"android":"levelo://app?vid=e746bdcc-4519-4219-b12f-2ce162cafd86","ios":"levelo://app?vid=e746bdcc-4519-4219-b12f-2ce162cafd86"},"vehicle_type_id":"4","last_reported":1770717004,"current_range_meters":10000,"station_id":"ce4bhnh2rcd13ifvqgtg","pricing_plan_id":"cebpf4jnsgd1na2vs0mg"},{"bike_id":"30fc210e-04d3-4eee-92db-5f8dc86a7695","system_id":"levelo_inurba_marseille","lat":43.301282,"lon":5.374411,"is_reserved":false,"is_disabled":false,"rental_uris":{"android":"levelo://app?vid=30fc210e-04d3-4eee-92db-5f8dc86a7695","ios":"levelo://app?vid=30fc210e-04d3-4eee-92db-5f8dc86a7695"},"vehicle_type_id":"4","last_reported":1770717004,"current_range_meters":10000,"station_id":"ce4bgs92rcd13ifvqcc0","pricing_plan_id":"cebpf4jnsgd1na2vs0mg"},{"bike_id":"ea4204c4-f39e-4c65-835e-be050d54a40e","system_id":"levelo_inurba_marseille","lat":43.25921,"lon":5.40924,"is_reserved":false,"is_disabled":false,"rental_uris":{"android":"levelo://app?vid=ea4204c4-f39e-4c65-835e-be050d54a40e","ios":"levelo://app?vid=ea4204c4-f39e-4c65-835e-be050d54a40e"},"vehicle_type_id":"4","last_reported":1770717004,"current_range_meters":10000,"station_id":"ce4bhm92rcd13ifvqglg","pricing_plan_id":"cebpf4jnsgd1na2vs0mg"},{"bike_id":"8af86347-6f64-41f0-b4b7-8d356a71f338","system_id":"levelo_inurba_marseille","lat":43.28817,"lon":5.35847,"is_reserved":false,"is_disabled":true,"rental_uris":{"android":"levelo://app?vid=8af86347-6f64-41f0-b4b7-8d356a71f338","ios":"levelo://app?vid=8af86347-6f64-41f0-b4b7-8d356a71f338"},"vehicle_type_id":"4","last_reported":1770717004,"current_range_meters":10000,"station_id":"ce4bhb12rcd13ifvqem0","pricing_plan_id":"cebpf4jnsgd1na2vs0mg"},{"bike_id":"a8033c18-bf59-458a-9eb0-147256918905","system_id":"levelo_inurba_marseille","lat":43.31072,"lon":5.37159,"is_reserved":false,"is_disabled":false,"rental_uris":{"android":"levelo://app?vid=a8033c18-bf59-458a-9eb0-147256918905","ios":"levelo://app?vid=a8033c18-bf59-458a-9eb0-147256918905"},"vehicle_type_id":"4","last_reported":1770717004,"current_range_meters":10000,"station_id":"st_d4kl2rp97mjs73e7tdfg","pricing_plan_id":"cebpf4jnsgd1na2vs0mg"},{"bike_id":"aaaa13e1-ac7f-4065-b3e5-d38bcf374743","system_id":"levelo_inurba_marseille","lat":43.31169,"lon":5.3718,"is_reserved":false,"is_disabled":false,"rental_uris":{"android":"levelo://app?vid=aaaa13e1-ac7f-4065-b3e5-d38bcf374743","ios":"levelo://app?vid=aaaa13e1-ac7f-4065-b3e5-d38bcf374743"},"vehicle_type_id":"4","last_reported":1770717004,"current_range_meters":10000,"station_id":"","pricing_plan_id":"cebpf4jnsgd1na2vs0mg"},{"bike_id":"7a484bb3-56ca-455b-b22b-b5500ccbeacf","system_id":"levelo_inurba_marseille","lat":43.2798,"lon":5.40053,"is_reserved":false,"is_disabled":false,"rental_uris":{"android":"levelo://app?vid=7a484bb3-56ca-455b-b22b-b5500ccbeacf","ios":"levelo://app?vid=7a484bb3-56ca-455b-b22b-b5500ccbeacf"},"vehicle_type_id":"4","last_reported":1770717004,"current_range_meters":10000,"station_id":"ce4bho92rcd13ifvqh4g","pricing_plan_id":"cebpf4jnsgd1na2vs0mg"},{"bike_id":"45319261-3312-434e-9cfd-3c64977a21d4","system_id":"levelo_inurba_marseille","lat":43.29273,"lon":5.3686,"is_reserved":false,"is_disabled":true,"rental_uris":{"android":"levelo://app?vid=45319261-3312-434e-9cfd-3c64977a21d4","ios":"levelo://app?vid=45319261-3312-434e-9cfd-3c64977a21d4"},"vehicle_type_id":"4","last_reported":1770717004,"current_range_meters":10000,"station_id":"ce4bhbp2rcd13ifvqesg","pricing_plan_id":"cebpf4jnsgd1na2vs0mg"},{"bike_id":"b63d2a7f-0b81-4d1e-af36-f64f1942b4ca","system_id":"levelo_inurba_marseille","lat":43.24945,"lon":5.40493,"is_reserved":false,"is_disabled":false,"rental_uris":{"android":"levelo://app?vid=b63d2a7f-0b81-4d1e-af36-f64f1942b4ca","ios":"levelo://app?vid=b63d2a7f-0b81-4d1e-af36-f64f1942b4ca"},"vehicle_type_id":"4","last_reported":1770717004,"current_range_meters":10000,"station_id":"st_d2ngiaodas8pm72gd1h0","pricing_plan_id":"cebpf4jnsgd1na2vs0mg"},{"bike_id":"9d5f26c4-e1f9-423a-837f-a33fbe90388b","system_id":"levelo_inurba_marseille","lat":43.317247,"lon":5.424059,"is_reserved":false,"is_disabled":false,"rental_uris":{"android":"levelo://app?vid=9d5f26c4-e1f9-423a-837f-a33fbe90388b","ios":"levelo://app?vid=9d5f26c4-e1f9-423a-837f-a33fbe90388b"},"vehicle_type_id":"4","last_reported":1770717004,"current_range_meters":10000,"station_id":"ce4bhp92rcd13ifvqhbg","pricing_plan_id":"cebpf4jnsgd1na2vs0mg"},{"bike_id":"b122fd6e-ebcf-47dc-8445-d187ff434594","system_id":"levelo_inurba_marseille","lat":43.30223,"lon":5.39456,"is_reserved":false,"is_disabled":false,"rental_uris":{"android":"levelo://app?vid=b122fd6e-ebcf-47dc-8445-d187ff434594","ios":"levelo://app?vid=b122fd6e-ebcf-47dc-8445-d187ff434594"},"vehicle_type_id":"4","last_reported":1770717004,"current_range_meters":10000,"station_id":"ce4bh0p2rcd13ifvqd70","pricing_plan_id":"cebpf4jnsgd1na2vs0mg"},{"bike_id":"0db530a1-9821-453a-878e-fb6063868eb6","system_id":"levelo_inurba_marseille","lat":43.22938,"lon":5.35376,"is_reserved":false,"is_disabled":false,"rental_uris":{"android":"levelo://app?vid=0db530a1-9821-453a-878e-fb6063868eb6","ios":"levelo://app?vid=0db530a1-9821-453a-878e-fb6063868eb6"},"vehicle_type_id":"4","last_reported":1770717004,"current_range_meters":10000,"station_id":"cpo3532slgdg3j2ikp40","pricing_plan_id":"cebpf4jnsgd1na2vs0mg"},{"bike_id":"8b4b38ac-f6cb-48ed-90a4-30149ea67fd7","system_id":"levelo_inurba_marseille","lat":43.2908,"lon":5.39909,"is_reserved":false,"is_disabled":false,"rental_uris":{"android":"levelo://app?vid=8b4b38ac-f6cb-48ed-90a4-30149ea67fd7","ios":"levelo://app?vid=8b4b38ac-f6cb-48ed-90a4-30149ea67fd7"},"vehicle_type_id":"4","last_reported":1770717004,"current_range_meters":10000,"station_id":"","pricing_plan_id":"cebpf4jnsgd1na2vs0mg"},{"bike_id":"c177022f-aaf6-4300-a13b-640a1821171a","system_id":"levelo_inurba_marseille","lat":43.29818,"lon":5.44064,"is_reserved":false,"is_disabled":false,"rental_uris":{"android":"levelo://app?vid=c177022f-aaf6-4300-a13b-640a1821171a","ios":"levelo://app?vid=c177022f-aaf6-4300-a13b-640a1821171a"},"vehicle_type_id":"4","last_reported":1770717004,"current_range_meters":10000,"station_id":"st_d3jp68qikq2c7381ktn0","pricing_plan_id":"cebpf4jnsgd1na2vs0mg"},{"bike_id":"07570b8e-02e8-46f0-9f69-f52838f42813","system_id":"levelo_inurba_marseille","lat":43.25939,"lon":5.40899,"is_reserved":false,"is_disabled":false,"rental_uris":{"android":"levelo://app?vid=07570b8e-02e8-46f0-9f69-f52838f42813","ios":"levelo://app?vid=07570b8e-02e8-46f0-9f69-f52838f42813"},"vehicle_type_id":"4","last_reported":1770717004,"current_range_meters":10800,"station_id":"ce4bhm92rcd13ifvqglg","pricing_plan_id":"cebpf4jnsgd1na2vs0mg"},{"bike_id":"d80a7dad-b024-44be-bf46-c2bdc61f664b","system_id":"levelo_inurba_marseille","lat":43.24075,"lon":5.37771,"is_reserved":false,"is_disabled":false,"rental_uris":{"android":"levelo://app?vid=d80a7dad-b024-44be-bf46-c2bdc61f664b","ios":"levelo://app?vid=d80a7dad-b024-44be-bf46-c2bdc61f664b"},"vehicle_type_id":"4","last_reported":1770717004,"current_range_meters":10800,"station_id":"ce4bhnp2rcd13ifvqgvg","pricing_plan_id":"cebpf4jnsgd1na2vs0mg"},{"bike_id":"ec9f0f79-a933-45ea-9056-0d5e8f547deb","system_id":"levelo_inurba_marseille","lat":43.313952,"lon":5.366784,"is_reserved":false,"is_disabled":false,"rental_uris":{"android":"levelo://app?vid=ec9f0f79-a933-45ea-9056-0d5e8f547deb","ios":"levelo://app?vid=ec9f0f79-a933-45ea-9056-0d5e8f547deb"},"vehicle_type_id":"4","last_reported":1770717004,"current_range_meters":10800,"station_id":"ce4bgr92rcd13ifvqc6g","pricing_plan_id":"cebpf4jnsgd1na2vs0mg"},{"bike_id":"9a12c902-fca9-45a4-bd3b-a7cede7a7b01","system_id":"levelo_inurba_marseille","lat":43.26956,"lon":5.38638,"is_reserved":false,"is_disabled":false,"rental_uris":{"android":"levelo://app?vid=9a12c902-fca9-45a4-bd3b-a7cede7a7b01","ios":"levelo://app?vid=9a12c902-fca9-45a4-bd3b-a7cede7a7b01"},"vehicle_type_id":"4","last_reported":1770717004,"current_range_meters":10800,"station_id":"ce4bhh92rcd13ifvqfh0","pricing_plan_id":"cebpf4jnsgd1na2vs0mg"},{"bike_id":"8ff4a9fa-0d2e-4f7f-8193-e7a8dba5ca9a","system_id":"levelo_inurba_marseille","lat":43.2587,"lon":5.39897,"is_reserved":false,"is_disabled":false,"rental_uris":{"android":"levelo://app?vid=8ff4a9fa-0d2e-4f7f-8193-e7a8dba5ca9a","ios":"levelo://app?vid=8ff4a9fa-0d2e-4f7f-8193-e7a8dba5ca9a"},"vehicle_type_id":"4","last_reported":1770717004,"current_range_meters":10800,"station_id":"ce4bhl92rcd13ifvqghg","pricing_plan_id":"cebpf4jnsgd1na2vs0mg"},