{"last_updated":1683543978,"ttl":30,"version":"2.2","data":{"bikes":[{"bike_id":"a4b5013f-a23f-4a38-bfcf-48521d08d46e","system_id":"levelo_inurba_marseille","lat":43.312239,"lon":5.368562,"is_reserved":false,"is_disabled":false,"rental_uris":{"android":"levelo://app?vid=a4b5013f-a23f-4a38-bfcf-48521d08d46e","ios":"levelo://app?vid=a4b5013f-a23f-4a38-bfcf-48521d08d46e"},"vehicle_type_id":"4","last_reported":1683543978,"current_range_meters":0,"station_id":"ce4bgl92rcd13ifvqbq0","pricing_plan_id":"free"},{"bike_id":"b129ce1f-bed3-47aa-959f-78e9b51c9800","system_id":"levelo_inurba_marseille","lat":43.309076,"lon":5.368465,"is_reserved":false,"is_disabled":false,"rental_uris":{"android":"levelo://app?vid=b129ce1f-bed3-47aa-959f-78e9b51c9800","ios":"levelo://app?vid=b129ce1f-bed3-47aa-959f-78e9b51c9800"},"vehicle_type_id":"4","last_reported":1683543978,"current_range_meters":26000,"station_id":"ce4bgn92rcd13ifvqbvg","pricing_plan_id":"free"},{"bike_id":"41e68c09-b2c6-4a32-9872-ae926db9d0c5","system_id":"levelo_inurba_marseille","lat":43.309076,"lon":5.368465,"is_reserved":false,"is_disabled":false,"rental_uris":{"android":"levelo://app?vid=41e68c09-b2c6-4a32-9872-ae926db9d0c5","ios":"levelo://app?vid=41e68c09-b2c6-4a32-9872-ae926db9d0c5"},"vehicle_type_id":"4","last_reported":1683543978,"current_range_meters":21200,"station_id":"ce4bgn92rcd13ifvqbvg","pricing_plan_id":"free"},{"bike_id":"9da21343-2e90-49c0-8078-26d32d4fe9ef","system_id":"levelo_inurba_marseille","lat":43.309076,"lon":5.368465,"is_reserved":false,"is_disabled":false,"rental_uris":{"android":"levelo://app?vid=9da21343-2e90-49c0-8078-26d32d4fe9ef","ios":"levelo://app?vid=9da21343-2e90-49c0-8078-26d32d4fe9ef"},"vehicle_type_id":"4","last_reported":1683543978,"current_range_meters":0,"station_id":"ce4bgn92rcd13ifvqbvg","pricing_plan_id":"free"},{"bike_id":"92c8ad26-f779-4562-9f47-c75c4781c613","system_id":"levelo_inurba_marseille","lat":43.305706,"lon":5.365654,"is_reserved":false,"is_disabled":false,"rental_uris":{"android":"levelo://app?vid=92c8ad26-f779-4562-9f47-c75c4781c613","ios":"levelo://app?vid=92c8ad26-f779-4562-9f47-c75c4781c613"},"vehicle_type_id":"4","last_reported":1683543978,"current_range_meters":12400,"station_id":"ce4bgs12rcd13ifvqcag","pricing_plan_id":"free"},{"bike_id":"50435477-0450-4fe6-9d17-e24557eea1f0","system_id":"levelo_inurba_marseille","lat":43.305706,"lon":5.365654,"is_reserved":false,"is_disabled":false,"rental_uris":{"android":"levelo://app?vid=50435477-0450-4fe6-9d17-e24557eea1f0","ios":"levelo://app?vid=50435477-0450-4fe6-9d17-e24557eea1f0"},"vehicle_type_id":"4","last_reported":1683543978,"current_range_meters":26400,"station_id":"ce4bgs12rcd13ifvqcag","pricing_plan_id":"free"},{"bike_id":"8cc6ff13-7fe9-4190-8141-0fec694e3454","system_id":"levelo_inurba_marseille","lat":43.305368,"lon":5.367343,"is_reserved":false,"is_disabled":false,"rental_uris":{"android":"levelo://app?vid=8cc6ff13-7fe9-4190-8141-0fec694e3454","ios":"levelo://app?vid=8cc6ff13-7fe9-4190-8141-0fec694e3454"},"vehicle_type_id":"4","last_reported":1683543978,"current_range_meters":20000,"station_id":"ce4bgrp2rcd13ifvqc9g","pricing_plan_id":"free"},{"bike_id":"8779acb9-ec77-4d96-a6f4-80c68911dd5a","system_id":"levelo_inurba_marseille","lat":43.305368,"lon":5.367343,"is_reserved":false,"is_disabled":false,"rental_uris":{"android":"levelo://app?vid=8779acb9-ec77-4d96-a6f4-80c68911dd5a","ios":"levelo://app?vid=8779acb9-ec77-4d96-a6f4-80c68911dd5a"},"vehicle_type_id":"4","last_reported":1683543978,"current_range_meters":20800,"station_id":"ce4bgrp2rcd13ifvqc9g","pricing_plan_id":"free"},{"bike_id":"f0f5c720-3e2b-4ba4-973e-ce3a73113ff2","system_id":"levelo_inurba_marseille","lat":43.305989,"lon":5.37225,"is_reserved":false,"is_disabled":false,"rental_uris":{"android":"levelo://app?vid=f0f5c720-3e2b-4ba4-973e-ce3a73113ff2","ios":"levelo://app?vid=f0f5c720-3e2b-4ba4-973e-ce3a73113ff2"},"vehicle_type_id":"4","last_reported":1683543978,"current_range_meters":10800,"station_id":"ce4bgqh2rcd13ifvqc4g","pricing_plan_id":"free"},{"bike_id":"784ec584-40d4-4ca1-951f-507666112302","system_id":"levelo_inurba_marseille","lat":43.311131,"lon":5.377651,"is_reserved":false,"is_disabled":false,"rental_uris":{"android":"levelo://app?vid=784ec584-40d4-4ca1-951f-507666112302","ios":"levelo://app?vid=784ec584-40d4-4ca1-951f-507666112302"},"vehicle_type_id":"4","last_reported":1683543978,"current_range_meters":8800,"station_id":"ce4bgt92rcd13ifvqcg0","pricing_plan_id":"free"},{"bike_id":"8349ef1c-afea-4bb1-aa51-7bc3cd77acf1","system_id":"levelo_inurba_marseille","lat":43.31114,"lon":5.37764,"is_reserved":false,"is_disabled":false,"rental_uris":{"android":"levelo://app?vid=8349ef1c-afea-4bb1-aa51-7bc3cd77acf1","ios":"levelo://app?vid=8349ef1c-afea-4bb1-aa51-7bc3cd77acf1"},"vehicle_type_id":"4","last_reported":1683543978,"current_range_meters":9600,"station_id":"ce4bgt92rcd13ifvqcg0","pricing_plan_id":"free"},{"bike_id":"d261c220-2cf1-4f3c-99cd-92024a9dc4bb","system_id":"levelo_inurba_marseille","lat":43.30296,"lon":5.36849,"is_reserved":false,"is_disabled":false,"rental_uris":{"android":"levelo://app?vid=d261c220-2cf1-4f3c-99cd-92024a9dc4bb","ios":"levelo://app?vid=d261c220-2cf1-4f3c-99cd-92024a9dc4bb"},"vehicle_type_id":"4","last_reported":1683543978,"current_range_meters":0,"station_id":"","pricing_plan_id":"free"},{"bike_id":"243d58c6-677a-4ef5-ac10-1ca5621449fc","system_id":"levelo_inurba_marseille","lat":43.30303,"lon":5.36445,"is_reserved":false,"is_disabled":false,"rental_uris":{"android":"levelo://app?vid=243d58c6-677a-4ef5-ac10-1ca5621449fc","ios":"levelo://app?vid=243d58c6-677a-4ef5-ac10-1ca5621449fc"},"vehicle_type_id":"4","last_reported":1683543978,"current_range_meters":9600,"station_id":"","pricing_plan_id":"free"},{"bike_id":"26a54936-aee3-461c-9d72-83644180986d","system_id":"levelo_inurba_marseille","lat":43.31532,"lon":5.38029,"is_reserved":false,"is_disabled":false,"rental_uris":{"android":"levelo://app?vid=26a54936-aee3-461c-9d72-83644180986d","ios":"levelo://app?vid=26a54936-aee3-461c-9d72-83644180986d"},"vehicle_type_id":"4","last_reported":1683543978,"current_range_meters":400,"station_id":"ce4bhsp2rcd13ifvqi50","pricing_plan_id":"free"},{"bike_id":"49e29974-1fec-4c71-9ff9-1875cb986092","system_id":"levelo_inurba_marseille","lat":43.315293,"lon":5.380349,"is_reserved":false,"is_disabled":false,"rental_uris":{"android":"levelo://app?vid=49e29974-1fec-4c71-9ff9-1875cb986092","ios":"levelo://app?vid=49e29974-1fec-4c71-9ff9-1875cb986092"},"vehicle_type_id":"4","last_reported":1683543978,"current_range_meters":31600,"station_id":"ce4bhsp2rcd13ifvqi50","pricing_plan_id":"free"},{"bike_id":"840c616b-b3af-4daf-9e01-6e7fc6844886","system_id":"levelo_inurba_marseille","lat":43.315293,"lon":5.380349,"is_reserved":false,"is_disabled":false,"rental_uris":{"android":"levelo://app?vid=840c616b-b3af-4daf-9e01-6e7fc6844886","ios":"levelo://app?vid=840c616b-b3af-4daf-9e01-6e7fc6844886"},"vehicle_type_id":"4","last_reported":1683543978,"current_range_meters":28000,"station_id":"ce4bhsp2rcd13ifvqi50","pricing_plan_id":"free"},{"bike_id":"035a2b0a-a8a2-4479-8d2e-5d9516213b51","system_id":"levelo_inurba_marseille","lat":43.31608,"lon":5.38172,"is_reserved":false,"is_disabled":false,"rental_uris":{"android":"levelo://app?vid=035a2b0a-a8a2-4479-8d2e-5d9516213b51","ios":"levelo://app?vid=035a2b0a-a8a2-4479-8d2e-5d9516213b51"},"vehicle_type_id":"4","last_reported":1683543978,"current_range_meters":5600,"station_id":"","pricing_plan_id":"free"},{"bike_id":"5b9dfa8e-bbc8-4444-97e6-3e000090633d","system_id":"levelo_inurba_marseille","lat":43.30802,"lon":5.38163,"is_reserved":false,"is_disabled":false,"rental_uris":{"android":"levelo://app?vid=5b9dfa8e-bbc8-4444-97e6-3e000090633d","ios":"levelo://app?vid=5b9dfa8e-bbc8-4444-97e6-3e000090633d"},"vehicle_type_id":"4","last_reported":1683543978,"current_range_meters":14800,"station_id":"ce4bgt12rcd13ifvqce0","pricing_plan_id":"free"},{"bike_id":"7705f567-3660-40a5-9349-736d3d5cda0e","system_id":"levelo_inurba_marseille","lat":43.308012,"lon":5.381511,"is_reserved":false,"is_disabled":false,"rental_uris":{"android":"levelo://app?vid=7705f567-3660-40a5-9349-736d3d5cda0e","ios":"levelo://app?vid=7705f567-3660-40a5-9349-736d3d5cda0e"},"vehicle_type_id":"4","last_reported":1683543978,"current_range_meters":12000,"station_id":"ce4bgt12rcd13ifvqce0","pricing_plan_id":"free"},{"bike_id":"11355a26-ce04-4637-b186-e63c722271b4","system_id":"levelo_inurba_marseille","lat":43.31362,"lon":5.38532,"is_reserved":false,"is_disabled":false,"rental_uris":{"android":"levelo://app?vid=11355a26-ce04-4637-b186-e63c722271b4","ios":"levelo://app?vid=11355a26-ce04-4637-b186-e63c722271b4"},"vehicle_type_id":"4","last_reported":1683543978,"current_range_meters":27600,"station_id":"","pricing_plan_id":"free"},{"bike_id":"931ab4e1-0bd4-4e54-b429-4e95e6dcf954","system_id":"levelo_inurba_marseille","lat":43.29931,"lon":5.3652,"is_reserved":false,"is_disabled":false,"rental_uris":{"android":"levelo://app?vid=931ab4e1-0bd4-4e54-b429-4e95e6dcf954","ios":"levelo://app?vid=931ab4e1-0bd4-4e54-b429-4e95e6dcf954"},"vehicle_type_id":"4","last_reported":1683543978,"current_range_meters":25200,"station_id":"","pricing_plan_id":"free"},{"bike_id":"a6e12871-e190-4ad6-87ef-3aeb4d64e8e9","system_id":"levelo_inurba_marseille","lat":43.299222,"lon":5.365554,"is_reserved":false,"is_disabled":false,"rental_uris":{"android":"levelo://app?vid=a6e12871-e190-4ad6-87ef-3aeb4d64e8e9","ios":"levelo://app?vid=a6e12871-e190-4ad6-87ef-3aeb4d64e8e9"},"vehicle_type_id":"4","last_reported":1683543978,"current_range_meters":29600,"station_id":"ce4bgm92rcd13ifvqbr0","pricing_plan_id":"free"},{"bike_id":"e67e733c-6b53-4c7c-8dea-0693ac61a34c","system_id":"levelo_inurba_marseille","lat":43.32624,"lon":5.36104,"is_reserved":false,"is_disabled":false,"rental_uris":{"android":"levelo://app?vid=e67e733c-6b53-4c7c-8dea-0693ac61a34c","ios":"levelo://app?vid=e67e733c-6b53-4c7c-8dea-0693ac61a34c"},"vehicle_type_id":"4","last_reported":1683543978,"current_range_meters":10000,"station_id":"","pricing_plan_id":"free"},{"bike_id":"24935ccf-38c1-413c-b68a-0a90db5d9bde","system_id":"levelo_inurba_marseille","lat":43.29849,"lon":5.36285,"is_reserved":false,"is_disabled":false,"rental_uris":{"android":"levelo://app?vid=24935ccf-38c1-413c-b68a-0a90db5d9bde","ios":"levelo://app?vid=24935ccf-38c1-413c-b68a-0a90db5d9bde"},"vehicle_type_id":"4","last_reported":1683543978,"current_range_meters":16800,"station_id":"ce4bgpp2rcd13ifvqc3g","pricing_plan_id":"free"},{"bike_id":"410f5c99-d13b-4a04-a5b5-f4a358204298","system_id":"levelo_inurba_marseille","lat":43.298433,"lon":5.362774,"is_reserved":false,"is_disabled":false,"rental_uris":{"android":"levelo://app?vid=410f5c99-d13b-4a04-a5b5-f4a358204298","ios":"levelo://app?vid=410f5c99-d13b-4a04-a5b5-f4a358204298"},"vehicle_type_id":"4","last_reported":1683543978,"current_range_meters":31600,"station_id":"ce4bgpp2rcd13ifvqc3g","pricing_plan_id":"free"},{"bike_id":"d4d66d06-ab45-4fac-995f-4c5b0df7b28d","system_id":"levelo_inurba_marseille","lat":43.29846,"lon":5.36274,"is_reserved":false,"is_disabled":false,"rental_uris":{"android":"levelo://app?vid=d4d66d06-ab45-4fac-995f-4c5b0df7b28d","ios":"levelo://app?vid=d4d66d06-ab45-4fac-995f-4c5b0df7b28d"},"vehicle_type_id":"4","last_reported":1683543978,"current_range_meters":31200,"station_id":"ce4bgpp2rcd13ifvqc3g","pricing_plan_id":"free"},{"bike_id":"bce049de-ebb8-476c-a439-b2024351ea7f","system_id":"levelo_inurba_marseille","lat":43.299243,"lon":5.374807,"is_reserved":false,"is_disabled":false,"rental_uris":{"android":"levelo://app?vid=bce049de-ebb8-476c-a439-b2024351ea7f","ios":"levelo://app?vid=bce049de-ebb8-476c-a439-b2024351ea7f"},"vehicle_type_id":"4","last_reported":1683543978,"current_range_meters":31200,"station_id":"ce4bgjh2rcd13ifvqbg0","pricing_plan_id":"free"},{"bike_id":"e47cd945-fbc8-406d-bd38-360cb06a5034","system_id":"levelo_inurba_marseille","lat":43.311722,"lon":5.387247,"is_reserved":false,"is_disabled":false,"rental_uris":{"android":"levelo://app?vid=e47cd945-fbc8-406d-bd38-360cb06a5034","ios":"levelo://app?vid=e47cd945-fbc8-406d-bd38-360cb06a5034"},"vehicle_type_id":"4","last_reported":1683543978,"current_range_meters":19600,"station_id":"ce4bgv12rcd13ifvqcp0","pricing_plan_id":"free"},{"bike_id":"f5530676-a85f-4085-88cf-b39955e2de4c","system_id":"levelo_inurba_marseille","lat":43.297794,"lon":5.370888,"is_reserved":false,"is_disabled":false,"rental_uris":{"android":"levelo://app?vid=f5530676-a85f-4085-88cf-b39955e2de4c","ios":"levelo://app?vid=f5530676-a85f-4085-88cf-b39955e2de4c"},"vehicle_type_id":"4","last_reported":1683543978,"current_range_meters":28400,"station_id":"ce4bgop2rcd13ifvqc1g","pricing_plan_id":"free"},{"bike_id":"86ab121a-39d5-45c8-b04d-371f1661ab55","system_id":"levelo_inurba_marseille","lat":43.297774,"lon":5.370875,"is_reserved":false,"is_disabled":false,"rental_uris":{"android":"levelo://app?vid=86ab121a-39d5-45c8-b04d-371f1661ab55","ios":"levelo://app?vid=86ab121a-39d5-45c8-b04d-371f1661ab55"},"vehicle_type_id":"4","last_reported":1683543978,"current_range_meters":26400,"station_id":"ce4bgop2rcd13ifvqc1g","pricing_plan_id":"free"},{"bike_id":"d8488739-d6c1-4042-9a45-08e421169230","system_id":"levelo_inurba_marseille","lat":43.297774,"lon":5.370875,"is_reserved":false,"is_disabled":false,"rental_uris":{"android":"levelo://app?vid=d8488739-d6c1-4042-9a45-08e421169230","ios":"levelo://app?vid=d8488739-d6c1-4042-9a45-08e421169230"},"vehicle_type_id":"4","last_reported":1683543978,"current_range_meters":28400,"station_id":"ce4bgop2rcd13ifvqc1g","pricing_plan_id":"free"},{"bike_id":"ab4ef9bb-23a1-47fc-99b1-19cb7f7dee77","system_id":"levelo_inurba_marseille","lat":43.297794,"lon":5.370888,"is_reserved":false,"is_disabled":false,"rental_uris":{"android":"levelo://app?vid=ab4ef9bb-23a1-47fc-99b1-19cb7f7dee77","ios":"levelo://app?vid=ab4ef9bb-23a1-47fc-99b1-19cb7f7dee77"},"vehicle_type_id":"4","last_reported":1683543978,"current_range_meters":21200,"station_id":"ce4bgop2rcd13ifvqc1g","pricing_plan_id":"free"},{"bike_id":"c7a62ee3-5391-4d08-b40f-0fb4a7f9f216","system_id":"levelo_inurba_marseille","lat":43.328371,"lon":5.366909,"is_reserved":false,"is_disabled":false,"rental_uris":{"android":"levelo://app?vid=c7a62ee3-5391-4d08-b40f-0fb4a7f9f216","ios":"levelo://app?vid=c7a62ee3-5391-4d08-b40f-0fb4a7f9f216"},"vehicle_type_id":"4","last_reported":1683543978,"current_range_meters":26000,"station_id":"ce4bhs92rcd13ifvqi0g","pricing_plan_id":"free"},{"bike_id":"bdcb3609-3046-4ad3-91e1-d02ffa249be7","system_id":"levelo_inurba_marseille","lat":43.328371,"lon":5.366909,"is_reserved":false,"is_disabled":false,"rental_uris":{"android":"levelo://app?vid=bdcb3609-3046-4ad3-91e1-d02ffa249be7","ios":"levelo://app?vid=bdcb3609-3046-4ad3-91e1-d02ffa249be7"},"vehicle_type_id":"4","last_reported":1683543978,"current_range_meters":22800,"station_id":"ce4bhs92rcd13ifvqi0g","pricing_plan_id":"free"},{"bike_id":"f91de8b4-023e-4799-a0a1-2e86398c6909","system_id":"levelo_inurba_marseille","lat":43.32828,"lon":5.36679,"is_reserved":false,"is_disabled":false,"rental_uris":{"android":"levelo://app?vid=f91de8b4-023e-4799-a0a1-2e86398c6909","ios":"levelo://app?vid=f91de8b4-023e-4799-a0a1-2e86398c6909"},"vehicle_type_id":"4","last_reported":1683543978,"current_range_meters":0,"station_id":"ce4bhs92rcd13ifvqi0g","pricing_plan_id":"free"},{"bike_id":"8c6b2916-66b7-43d7-b1f5-4ac8e46bb8ca","system_id":"levelo_inurba_marseille","lat":43.328371,"lon":5.366909,"is_reserved":false,"is_disabled":false,"rental_uris":{"android":"levelo://app?vid=8c6b2916-66b7-43d7-b1f5-4ac8e46bb8ca","ios":"levelo://app?vid=8c6b2916-66b7-43d7-b1f5-4ac8e46bb8ca"},"vehicle_type_id":"4","last_reported":1683543978,"current_range_meters":17600,"station_id":"ce4bhs92rcd13ifvqi0g","pricing_plan_id":"free"},{"bike_id":"a1954fb9-79ca-4e6a-b0e6-eee213707b5e","system_id":"levelo_inurba_marseille","lat":43.328371,"lon":5.366909,"is_reserved":false,"is_disabled":false,"rental_uris":{"android":"levelo://app?vid=a1954fb9-79ca-4e6a-b0e6-eee213707b5e","ios":"levelo://app?vid=a1954fb9-79ca-4e6a-b0e6-eee213707b5e"},"vehicle_type_id":"4","last_reported":1683543978,"current_range_meters":11200,"station_id":"ce4bhs92rcd13ifvqi0g","pricing_plan_id":"free"},{"bike_id":"3110ca4e-35a4-40cf-b257-a851b9586fe6","system_id":"levelo_inurba_marseille","lat":43.32746,"lon":5.37616,"is_reserved":false,"is_disabled":false,"rental_uris":{"android":"levelo://app?vid=3110ca4e-35a4-40cf-b257-a851b9586fe6","ios":"levelo://app?vid=3110ca4e-35a4-40cf-b257-a851b9586fe6"},"vehicle_type_id":"4","last_reported":1683543978,"current_range_meters":0,"station_id":"","pricing_plan_id":"free"},{"bike_id":"380e0e50-5b82-4775-b36d-f7f155d61248","system_id":"levelo_inurba_marseille","lat":43.296131,"lon":5.370773,"is_reserved":false,"is_disabled":false,"rental_uris":{"android":"levelo://app?vid=380e0e50-5b82-4775-b36d-f7f155d61248","ios":"levelo://app?vid=380e0e50-5b82-4775-b36d-f7f155d61248"},"vehicle_type_id":"4","last_reported":1683543978,"current_range_meters":30000,"station_id":"ce4bgnh2rcd13ifvqc0g","pricing_plan_id":"free"},{"bike_id":"b3942bdc-2148-4d0a-8cbf-07b95317fbac","system_id":"levelo_inurba_marseille","lat":43.29622,"lon":5.37166,"is_reserved":false,"is_disabled":false,"rental_uris":{"android":"levelo://app?vid=b3942bdc-2148-4d0a-8cbf-07b95317fbac","ios":"levelo://app?vid=b3942bdc-2148-4d0a-8cbf-07b95317fbac"},"vehicle_type_id":"4","last_reported":1683543978,"current_range_meters":30400,"station_id":"","pricing_plan_id":"free"},{"bike_id":"404912bc-2040-4039-87da-dd8febacbb44","system_id":"levelo_inurba_marseille","lat":43.296223,"lon":5.371738,"is_reserved":false,"is_disabled":false,"rental_uris":{"android":"levelo://app?vid=404912bc-2040-4039-87da-dd8febacbb44","ios":"levelo://app?vid=404912bc-2040-4039-87da-dd8febacbb44"},"vehicle_type_id":"4","last_reported":1683543978,"current_range_meters":20800,"station_id":"","pricing_plan_id":"free"},{"bike_id":"a91bc22c-2ff4-4adb-a57f-2505eec4743d","system_id":"levelo_inurba_marseille","lat":43.29618,"lon":5.37168,"is_reserved":false,"is_disabled":false,"rental_uris":{"android":"levelo://app?vid=a91bc22c-2ff4-4adb-a57f-2505eec4743d","ios":"levelo://app?vid=a91bc22c-2ff4-4adb-a57f-2505eec4743d"},"vehicle_type_id":"4","last_reported":1683543978,"current_range_meters":29600,"station_id":"","pricing_plan_id":"free"},{"bike_id":"5526996e-9579-489e-9ee4-9c3534c2a5db","system_id":"levelo_inurba_marseille","lat":43.29573,"lon":5.367355,"is_reserved":false,"is_disabled":false,"rental_uris":{"android":"levelo://app?vid=5526996e-9579-489e-9ee4-9c3534c2a5db","ios":"levelo://app?vid=5526996e-9579-489e-9ee4-9c3534c2a5db"},"vehicle_type_id":"4","last_reported":1683543978,"current_range_meters":26000,"station_id":"ce4bgph2rcd13ifvqc2g","pricing_plan_id":"free"},{"bike_id":"99c8c000-1443-4d7d-b6cf-2d01142c7308","system_id":"levelo_inurba_marseille","lat":43.29573,"lon":5.367355,"is_reserved":false,"is_disabled":false,"rental_uris":{"android":"levelo://app?vid=99c8c000-1443-4d7d-b6cf-2d01142c7308","ios":"levelo://app?vid=99c8c000-1443-4d7d-b6cf-2d01142c7308"},"vehicle_type_id":"4","last_reported":1683543978,"current_range_meters":3600,"station_id":"ce4bgph2rcd13ifvqc2g","pricing_plan_id":"free"},{"bike_id":"8cbfa8e5-40a9-4e8b-ba70-27ff0674aa39","system_id":"levelo_inurba_marseille","lat":43.296921,"lon":5.376579,"is_reserved":false,"is_disabled":false,"rental_uris":{"android":"levelo://app?vid=8cbfa8e5-40a9-4e8b-ba70-27ff0674aa39","ios":"levelo://app?vid=8cbfa8e5-40a9-4e8b-ba70-27ff0674aa39"},"vehicle_type_id":"4","last_reported":1683543978,"current_range_meters":18000,"station_id":"ce4bgkh2rcd13ifvqbl0","pricing_plan_id":"free"},{"bike_id":"d3a859d7-1dfb-4b12-aa44-805d78e126b8","system_id":"levelo_inurba_marseille","lat":43.296921,"lon":5.376579,"is_reserved":false,"is_disabled":false,"rental_uris":{"android":"levelo://app?vid=d3a859d7-1dfb-4b12-aa44-805d78e126b8","ios":"levelo://app?vid=d3a859d7-1dfb-4b12-aa44-805d78e126b8"},"vehicle_type_id":"4","last_reported":1683543978,"current_range_meters":27200,"station_id":"ce4bgkh2rcd13ifvqbl0","pricing_plan_id":"free"},{"bike_id":"a1aebcb6-cac9-4dad-9933-f037ad2bf8ac","system_id":"levelo_inurba_marseille","lat":43.29912,"lon":5.38251,"is_reserved":false,"is_disabled":false,"rental_uris":{"android":"levelo://app?vid=a1aebcb6-cac9-4dad-9933-f037ad2bf8ac","ios":"levelo://app?vid=a1aebcb6-cac9-4dad-9933-f037ad2bf8ac"},"vehicle_type_id":"4","last_reported":1683543978,"current_range_meters":12800,"station_id":"","pricing_plan_id":"free"},{"bike_id":"bb1d5369-9446-410e-926d-1df221837c55","system_id":"levelo_inurba_marseille","lat":43.295748,"lon":5.37522,"is_reserved":false,"is_disabled":false,"rental_uris":{"android":"levelo://app?vid=bb1d5369-9446-410e-926d-1df221837c55","ios":"levelo://app?vid=bb1d5369-9446-410e-926d-1df221837c55"},"vehicle_type_id":"4","last_reported":1683543978,"current_range_meters":29200,"station_id":"ce4bgh92rcd13ifvqb50","pricing_plan_id":"free"},{"bike_id":"79b65b5f-a326-48e7-80d4-f2fabcee9ed3","system_id":"levelo_inurba_marseille","lat":43.295748,"lon":5.37522,"is_reserved":false,"is_disabled":false,"rental_uris":{"android":"levelo://app?vid=79b65b5f-a326-48e7-80d4-f2fabcee9ed3","ios":"levelo://app?vid=79b65b5f-a326-48e7-80d4-f2fabcee9ed3"},"vehicle_type_id":"4","last_reported":1683543978,"current_range_meters":28400,"station_id":"ce4bgh92rcd13ifvqb50","pricing_plan_id":"free"},{"bike_id":"43d4f608-f891-4661-aec2-35173a4ef48a","system_id":"levelo_inurba_marseille","lat":43.298037,"lon":5.381066,"is_reserved":false,"is_disabled":false,"rental_uris":{"android":"levelo://app?vid=43d4f608-f891-4661-aec2-35173a4ef48a","ios":"levelo://app?vid=43d4f608-f891-4661-aec2-35173a4ef48a"},"vehicle_type_id":"4","last_reported":1683543978,"current_range_meters":26800,"station_id":"ce4bgip2rcd13ifvqbb0","pricing_plan_id":"free"},{"bike_id":"63628638-5847-485e-a0cf-4daac8341236","system_id":"levelo_inurba_marseille","lat":43.29778,"lon":5.38108,"is_reserved":false,"is_disabled":false,"rental_uris":{"android":"levelo://app?vid=63628638-5847-485e-a0cf-4daac8341236","ios":"levelo://app?vid=63628638-5847-485e-a0cf-4daac8341236"},"vehicle_type_id":"4","last_reported":1683543978,"current_range_meters":20800,"station_id":"","pricing_plan_id":"free"},{"bike_id":"56b253c4-518e-4a6d-bce8-0a959e8baa51","system_id":"levelo_inurba_marseille","lat":43.299707,"lon":5.384859,"is_reserved":false,"is_disabled":false,"rental_uris":{"android":"levelo://app?vid=56b253c4-518e-4a6d-bce8-0a959e8baa51","ios":"levelo://app?vid=56b253c4-518e-4a6d-bce8-0a959e8baa51"},"vehicle_type_id":"4","last_reported":1683543978,"current_range_meters":29600,"station_id":"ce4bgj92rcd13ifvqbd0","pricing_plan_id":"free"},{"bike_id":"15e6e28b-e195-404e-9e70-e60c2b74ba1b","system_id":"levelo_inurba_marseille","lat":43.295279,"lon":5.375048,"is_reserved":false,"is_disabled":false,"rental_uris":{"android":"levelo://app?vid=15e6e28b-e195-404e-9e70-e60c2b74ba1b","ios":"levelo://app?vid=15e6e28b-e195-404e-9e70-e60c2b74ba1b"},"vehicle_type_id":"4","last_reported":1683543978,"current_range_meters":20000,"station_id":"ce4bgkp2rcd13ifvqbmg","pricing_plan_id":"free"},{"bike_id":"2896653b-08a5-457c-afa7-eda4b3c8cf5f","system_id":"levelo_inurba_marseille","lat":43.299717,"lon":5.384845,"is_reserved":false,"is_disabled":false,"rental_uris":{"android":"levelo://app?vid=2896653b-08a5-457c-afa7-eda4b3c8cf5f","ios":"levelo://app?vid=2896653b-08a5-457c-afa7-eda4b3c8cf5f"},"vehicle_type_id":"4","last_reported":1683543978,"current_range_meters":1600,"station_id":"ce4bgj92rcd13ifvqbd0","pricing_plan_id":"free"},{"bike_id":"8cb35e39-5968-414e-baf7-621e9818e214","system_id":"levelo_inurba_marseille","lat":43.2997,"lon":5.38493,"is_reserved":false,"is_disabled":false,"rental_uris":{"android":"levelo://app?vid=8cb35e39-5968-414e-baf7-621e9818e214","ios":"levelo://app?vid=8cb35e39-5968-414e-baf7-621e9818e214"},"vehicle_type_id":"4","last_reported":1683543978,"current_range_meters":0,"station_id":"ce4bgj92rcd13ifvqbd0","pricing_plan_id":"free"},{"bike_id":"0c468d74-b003-40d0-b239-26fd87250c6a","system_id":"levelo_inurba_marseille","lat":43.299717,"lon":5.384845,"is_reserved":false,"is_disabled":false,"rental_uris":{"android":"levelo://app?vid=0c468d74-b003-40d0-b239-26fd87250c6a","ios":"levelo://app?vid=0c468d74-b003-40d0-b239-26fd87250c6a"},"vehicle_type_id":"4","last_reported":1683543978,"current_range_meters":28400,"station_id":"ce4bgj92rcd13ifvqbd0","pricing_plan_id":"free"},{"bike_id":"04bc755d-f5f1-4ccf-8d37-cd54e2e8fe2b","system_id":"levelo_inurba_marseille","lat":43.299652,"lon":5.384902,"is_reserved":false,"is_disabled":false,"rental_uris":{"android":"levelo://app?vid=04bc755d-f5f1-4ccf-8d37-cd54e2e8fe2b","ios":"levelo://app?vid=04bc755d-f5f1-4ccf-8d37-cd54e2e8fe2b"},"vehicle_type_id":"4","last_reported":1683543978,"current_range_meters":21600,"station_id":"","pricing_plan_id":"free"},{"bike_id":"4b180fc9-c21f-410a-8913-414bb44433e9","system_id":"levelo_inurba_marseille","lat":43.299717,"lon":5.384845,"is_reserved":false,"is_disabled":false,"rental_uris":{"android":"levelo://app?vid=4b180fc9-c21f-410a-8913-414bb44433e9","ios":"levelo://app?vid=4b180fc9-c21f-410a-8913-414bb44433e9"},"vehicle_type_id":"4","last_reported":1683543978,"current_range_meters":6000,"station_id":"ce4bgj92rcd13ifvqbd0","pricing_plan_id":"free"},{"bike_id":"3e0d3e5f-3499-4c3a-8e4e-1f0f77b086c5","system_id":"levelo_inurba_marseille","lat":43.299717,"lon":5.384845,"is_reserved":false,"is_disabled":false,"rental_uris":{"android":"levelo://app?vid=3e0d3e5f-3499-4c3a-8e4e-1f0f77b086c5","ios":"levelo://app?vid=3e0d3e5f-3499-4c3a-8e4e-1f0f77b086c5"},"vehicle_type_id":"4","last_reported":1683543978,"current_range_meters":28000,"station_id":"ce4bgj92rcd13ifvqbd0","pricing_plan_id":"free"},{"bike_id":"61998b03-7ada-4bd1-a9db-7fa44ef0ef49","system_id":"levelo_inurba_marseille","lat":43.32366,"lon":5.38892,"is_reserved":false,"is_disabled":false,"rental_uris":{"android":"levelo://app?vid=61998b03-7ada-4bd1-a9db-7fa44ef0ef49","ios":"levelo://app?vid=61998b03-7ada-4bd1-a9db-7fa44ef0ef49"},"vehicle_type_id":"4","last_reported":1683543978,"current_range_meters":2800,"station_id":"","pricing_plan_id":"free"},{"bike_id":"6b8f00d1-04ca-4fcd-8a1a-c55374afbb0a","system_id":"levelo_inurba_marseille","lat":43.29595,"lon":5.38102,"is_reserved":false,"is_disabled":false,"rental_uris":{"android":"levelo://app?vid=6b8f00d1-04ca-4fcd-8a1a-c55374afbb0a","ios":"levelo://app?vid=6b8f00d1-04ca-4fcd-8a1a-c55374afbb0a"},"vehicle_type_id":"4","last_reported":1683543978,"current_range_meters":15600,"station_id":"ce4bgl12rcd13ifvqbo0","pricing_plan_id":"free"},{"bike_id":"e650d344-fc6d-4581-bcfb-c1a4f9d75d4a","system_id":"levelo_inurba_marseille","lat":43.29274,"lon":5.36844,"is_reserved":false,"is_disabled":false,"rental_uris":{"android":"levelo://app?vid=e650d344-fc6d-4581-bcfb-c1a4f9d75d4a","ios":"levelo://app?vid=e650d344-fc6d-4581-bcfb-c1a4f9d75d4a"},"vehicle_type_id":"4","last_reported":1683543978,"current_range_meters":24800,"station_id":"ce4bhbp2rcd13ifvqesg","pricing_plan_id":"free"},{"bike_id":"ba80936a-94e6-408c-bc5c-5ea86ae3490f","system_id":"levelo_inurba_marseille","lat":43.293009,"lon":5.374584,"is_reserved":false,"is_disabled":false,"rental_uris":{"android":"levelo://app?vid=ba80936a-94e6-408c-bc5c-5ea86ae3490f","ios":"levelo://app?vid=ba80936a-94e6-408c-bc5c-5ea86ae3490f"},"vehicle_type_id":"4","last_reported":1683543978,"current_range_meters":28000,"station_id":"ce4bgi12rcd13ifvqb70","pricing_plan_id":"free"},{"bike_id":"0b14c1d3-e4f3-487e-be6e-33099429bcc3","system_id":"levelo_inurba_marseille","lat":43.293009,"lon":5.374584,"is_reserved":false,"is_disabled":false,"rental_uris":{"android":"levelo://app?vid=0b14c1d3-e4f3-487e-be6e-33099429bcc3","ios":"levelo://app?vid=0b14c1d3-e4f3-487e-be6e-33099429bcc3"},"vehicle_type_id":"4","last_reported":1683543978,"current_range_meters":20000,"station_id":"ce4bgi12rcd13ifvqb70","pricing_plan_id":"free"},{"bike_id":"9fa54474-7111-410d-893e-190502fecd68","system_id":"levelo_inurba_marseille","lat":43.29224,"lon":5.36051,"is_reserved":false,"is_disabled":false,"rental_uris":{"android":"levelo://app?vid=9fa54474-7111-410d-893e-190502fecd68","ios":"levelo://app?vid=9fa54474-7111-410d-893e-190502fecd68"},"vehicle_type_id":"4","last_reported":1683543978,"current_range_meters":21200,"station_id":"ce4bhbh2rcd13ifvqeqg","pricing_plan_id":"free"},{"bike_id":"828b7ca4-5578-4bb3-bfe2-d53af4e50c5a","system_id":"levelo_inurba_marseille","lat":43.2922,"lon":5.36046,"is_reserved":false,"is_disabled":false,"rental_uris":{"android":"levelo://app?vid=828b7ca4-5578-4bb3-bfe2-d53af4e50c5a","ios":"levelo://app?vid=828b7ca4-5578-4bb3-bfe2-d53af4e50c5a"},"vehicle_type_id":"4","last_reported":1683543978,"current_range_meters":20800,"station_id":"ce4bhbh2rcd13ifvqeqg","pricing_plan_id":"free"},{"bike_id":"f39700e1-5b83-4268-9993-dfc3fac55c78","system_id":"levelo_inurba_marseille","lat":43.290565,"lon":5.359266,"is_reserved":false,"is_disabled":false,"rental_uris":{"android":"levelo://app?vid=f39700e1-5b83-4268-9993-dfc3fac55c78","ios":"levelo://app?vid=f39700e1-5b83-4268-9993-dfc3fac55c78"},"vehicle_type_id":"4","last_reported":1683543978,"current_range_meters":0,"station_id":"ce4bha92rcd13ifvqeg0","pricing_plan_id":"free"},{"bike_id":"32226c15-1e97-46a6-8c2e-5950acf3c3d7","system_id":"levelo_inurba_marseille","lat":43.290584,"lon":5.359028,"is_reserved":false,"is_disabled":false,"rental_uris":{"android":"levelo://app?vid=32226c15-1e97-46a6-8c2e-5950acf3c3d7","ios":"levelo://app?vid=32226c15-1e97-46a6-8c2e-5950acf3c3d7"},"vehicle_type_id":"4","last_reported":1683543978,"current_range_meters":28800,"station_id":"","pricing_plan_id":"free"},{"bike_id":"8f0938b9-7946-4c55-a550-7f197e182bd8","system_id":"levelo_inurba_marseille","lat":43.290624,"lon":5.359245,"is_reserved":false,"is_disabled":false,"rental_uris":{"android":"levelo://app?vid=8f0938b9-7946-4c55-a550-7f197e182bd8","ios":"levelo://app?vid=8f0938b9-7946-4c55-a550-7f197e182bd8"},"vehicle_type_id":"4","last_reported":1683543978,"current_range_meters":12400,"station_id":"ce4bha92rcd13ifvqeg0","pricing_plan_id":"free"},{"bike_id":"a761709b-6971-46b7-ac8a-a4de6e218fbf","system_id":"levelo_inurba_marseille","lat":43.29048,"lon":5.35921,"is_reserved":false,"is_disabled":false,"rental_uris":{"android":"levelo://app?vid=a761709b-6971-46b7-ac8a-a4de6e218fbf","ios":"levelo://app?vid=a761709b-6971-46b7-ac8a-a4de6e218fbf"},"vehicle_type_id":"4","last_reported":1683543978,"current_range_meters":5600,"station_id":"ce4bha92rcd13ifvqeg0","pricing_plan_id":"free"},{"bike_id":"0422c2a0-30b9-48cb-a65c-cc49b6267227","system_id":"levelo_inurba_marseille","lat":43.29046,"lon":5.35922,"is_reserved":false,"is_disabled":false,"rental_uris":{"android":"levelo://app?vid=0422c2a0-30b9-48cb-a65c-cc49b6267227","ios":"levelo://app?vid=0422c2a0-30b9-48cb-a65c-cc49b6267227"},"vehicle_type_id":"4","last_reported":1683543978,"current_range_meters":23200,"station_id":"ce4bha92rcd13ifvqeg0","pricing_plan_id":"free"},{"bike_id":"ba222768-c25c-4fca-8598-76050d6ad8a3","system_id":"levelo_inurba_marseille","lat":43.2905,"lon":5.35895,"is_reserved":false,"is_disabled":false,"rental_uris":{"android":"levelo://app?vid=ba222768-c25c-4fca-8598-76050d6ad8a3","ios":"levelo://app?vid=ba222768-c25c-4fca-8598-76050d6ad8a3"},"vehicle_type_id":"4","last_reported":1683543978,"current_range_meters":29600,"station_id":"ce4bha92rcd13ifvqeg0","pricing_plan_id":"free"},{"bike_id":"6200d5e2-4ac6-428a-a1b7-0e2e5487c913","system_id":"levelo_inurba_marseille","lat":43.29043,"lon":5.35909,"is_reserved":false,"is_disabled":false,"rental_uris":{"android":"levelo://app?vid=6200d5e2-4ac6-428a-a1b7-0e2e5487c913","ios":"levelo://app?vid=6200d5e2-4ac6-428a-a1b7-0e2e5487c913"},"vehicle_type_id":"4","last_reported":1683543978,"current_range_meters":25200,"station_id":"ce4bha92rcd13ifvqeg0","pricing_plan_id":"free"},{"bike_id":"7a20dbfe-24af-4e38-8802-0c11a5a3b54a","system_id":"levelo_inurba_marseille","lat":43.29034,"lon":5.35916,"is_reserved":false,"is_disabled":false,"rental_uris":{"android":"levelo://app?vid=7a20dbfe-24af-4e38-8802-0c11a5a3b54a","ios":"levelo://app?vid=7a20dbfe-24af-4e38-8802-0c11a5a3b54a"},"vehicle_type_id":"4","last_reported":1683543978,"current_range_meters":19600,"station_id":"","pricing_plan_id":"free"},{"bike_id":"37f8185a-7620-49ac-acc8-7a4b8be9e4bd","system_id":"levelo_inurba_marseille","lat":43.290327,"lon":5.375711,"is_reserved":false,"is_disabled":false,"rental_uris":{"android":"levelo://app?vid=37f8185a-7620-49ac-acc8-7a4b8be9e4bd","ios":"levelo://app?vid=37f8185a-7620-49ac-acc8-7a4b8be9e4bd"},"vehicle_type_id":"4","last_reported":1683543978,"current_range_meters":400,"station_id":"ce4bh692rcd13ifvqe90","pricing_plan_id":"free"},{"bike_id":"43a34371-8b31-427b-a127-ae16e59287ce","system_id":"levelo_inurba_marseille","lat":43.29265,"lon":5.38441,"is_reserved":false,"is_disabled":false,"rental_uris":{"android":"levelo://app?vid=43a34371-8b31-427b-a127-ae16e59287ce","ios":"levelo://app?vid=43a34371-8b31-427b-a127-ae16e59287ce"},"vehicle_type_id":"4","last_reported":1683543978,"current_range_meters":17200,"station_id":"ce4bh692rcd13ifvqea0","pricing_plan_id":"free"},{"bike_id":"66fbc1f8-e46b-4c0b-bfbd-c9672b377265","system_id":"levelo_inurba_marseille","lat":43.3304,"lon":5.38914,"is_reserved":false,"is_disabled":false,"rental_uris":{"android":"levelo://app?vid=66fbc1f8-e46b-4c0b-bfbd-c9672b377265","ios":"levelo://app?vid=66fbc1f8-e46b-4c0b-bfbd-c9672b377265"},"vehicle_type_id":"4","last_reported":1683543978,"current_range_meters":7600,"station_id":"ce4bhr92rcd13ifvqhrg","pricing_plan_id":"free"},{"bike_id":"97b18993-18c4-4b2d-ad3d-6adb3a0ede8a","system_id":"levelo_inurba_marseille","lat":43.33044,"lon":5.38914,"is_reserved":false,"is_disabled":false,"rental_uris":{"android":"levelo://app?vid=97b18993-18c4-4b2d-ad3d-6adb3a0ede8a","ios":"levelo://app?vid=97b18993-18c4-4b2d-ad3d-6adb3a0ede8a"},"vehicle_type_id":"4","last_reported":1683543978,"current_range_meters":28000,"station_id":"ce4bhr92rcd13ifvqhrg","pricing_plan_id":"free"},{"bike_id":"8eff2f28-54ed-4514-a6e5-e72085e03804","system_id":"levelo_inurba_marseille","lat":43.33043,"lon":5.38916,"is_reserved":false,"is_disabled":false,"rental_uris":{"android":"levelo://app?vid=8eff2f28-54ed-4514-a6e5-e72085e03804","ios":"levelo://app?vid=8eff2f28-54ed-4514-a6e5-e72085e03804"},"vehicle_type_id":"4","last_reported":1683543978,"current_range_meters":19600,"station_id":"ce4bhr92rcd13ifvqhrg","pricing_plan_id":"free"},{"bike_id":"5708289e-606a-46d3-a66a-8ff35bf21f99","system_id":"levelo_inurba_marseille","lat":43.28856,"lon":5.358371,"is_reserved":false,"is_disabled":false,"rental_uris":{"android":"levelo://app?vid=5708289e-606a-46d3-a66a-8ff35bf21f99","ios":"levelo://app?vid=5708289e-606a-46d3-a66a-8ff35bf21f99"},"vehicle_type_id":"4","last_reported":1683543978,"current_range_meters":18800,"station_id":"ce4bhb12rcd13ifvqem0","pricing_plan_id":"free"},{"bike_id":"20083ae5-f09f-4d10-9758-3cdd331d6a45","system_id":"levelo_inurba_marseille","lat":43.33741,"lon":5.37455,"is_reserved":false,"is_disabled":false,"rental_uris":{"android":"levelo://app?vid=20083ae5-f09f-4d10-9758-3cdd331d6a45","ios":"levelo://app?vid=20083ae5-f09f-4d10-9758-3cdd331d6a45"},"vehicle_type_id":"4","last_reported":1683543978,"current_range_meters":6400,"station_id":"","pricing_plan_id":"free"},{"bike_id":"b4d2bbff-b2dd-43d4-b642-cbde7c159902","system_id":"levelo_inurba_marseille","lat":43.33741,"lon":5.37478,"is_reserved":false,"is_disabled":false,"rental_uris":{"android":"levelo://app?vid=b4d2bbff-b2dd-43d4-b642-cbde7c159902","ios":"levelo://app?vid=b4d2bbff-b2dd-43d4-b642-cbde7c159902"},"vehicle_type_id":"4","last_reported":1683543978,"current_range_meters":28800,"station_id":"","pricing_plan_id":"free"},{"bike_id":"78725f08-8d42-4f1a-9002-0d0b35dc7efd","system_id":"levelo_inurba_marseille","lat":43.33747,"lon":5.3745,"is_reserved":false,"is_disabled":false,"rental_uris":{"android":"levelo://app?vid=78725f08-8d42-4f1a-9002-0d0b35dc7efd","ios":"levelo://app?vid=78725f08-8d42-4f1a-9002-0d0b35dc7efd"},"vehicle_type_id":"4","last_reported":1683543978,"current_range_meters":15200,"station_id":"","pricing_plan_id":"free"},{"bike_id":"f99f3d5e-b67c-4504-be04-4c7c7c21f36b","system_id":"levelo_inurba_marseille","lat":43.302759,"lon":5.400793,"is_reserved":false,"is_disabled":false,"rental_uris":{"android":"levelo://app?vid=f99f3d5e-b67c-4504-be04-4c7c7c21f36b","ios":"levelo://app?vid=f99f3d5e-b67c-4504-be04-4c7c7c21f36b"},"vehicle_type_id":"4","last_reported":1683543978,"current_range_meters":16400,"station_id":"ce4bgvh2rcd13ifvqcs0","pricing_plan_id":"free"},{"bike_id":"ec131f99-e692-4d30-b0ee-c2bdb6fcc55c","system_id":"levelo_inurba_marseille","lat":43.286039,"lon":5.370681,"is_reserved":false,"is_disabled":false,"rental_uris":{"android":"levelo://app?vid=ec131f99-e692-4d30-b0ee-c2bdb6fcc55c","ios":"levelo://app?vid=ec131f99-e692-4d30-b0ee-c2bdb6fcc55c"},"vehicle_type_id":"4","last_reported":1683543978,"current_range_meters":3200,"station_id":"ce4bht12rcd13ifvqi60","pricing_plan_id":"free"},{"bike_id":"d2080f42-5a2c-48a7-8491-40c76fdb6b27","system_id":"levelo_inurba_marseille","lat":43.286,"lon":5.3706,"is_reserved":false,"is_disabled":false,"rental_uris":{"android":"levelo://app?vid=d2080f42-5a2c-48a7-8491-40c76fdb6b27","ios":"levelo://app?vid=d2080f42-5a2c-48a7-8491-40c76fdb6b27"},"vehicle_type_id":"4","last_reported":1683543978,"current_range_meters":18000,"station_id":"ce4bht12rcd13ifvqi60","pricing_plan_id":"free"},{"bike_id":"1308d3f6-26f7-47be-9153-4b6cc1b04195","system_id":"levelo_inurba_marseille","lat":43.316517,"lon":5.404375,"is_reserved":false,"is_disabled":false,"rental_uris":{"android":"levelo://app?vid=1308d3f6-26f7-47be-9153-4b6cc1b04195","ios":"levelo://app?vid=1308d3f6-26f7-47be-9153-4b6cc1b04195"},"vehicle_type_id":"4","last_reported":1683543978,"current_range_meters":19200,"station_id":"ce4bh012rcd13ifvqd00","pricing_plan_id":"free"},{"bike_id":"2f6c67ca-3471-481c-9a25-d7db2e8c72b1","system_id":"levelo_inurba_marseille","lat":43.316517,"lon":5.404375,"is_reserved":false,"is_disabled":false,"rental_uris":{"android":"levelo://app?vid=2f6c67ca-3471-481c-9a25-d7db2e8c72b1","ios":"levelo://app?vid=2f6c67ca-3471-481c-9a25-d7db2e8c72b1"},"vehicle_type_id":"4","last_reported":1683543978,"current_range_meters":4800,"station_id":"ce4bh012rcd13ifvqd00","pricing_plan_id":"free"},{"bike_id":"a81e1a22-9f85-44d9-9827-ac37f0e90c9b","system_id":"levelo_inurba_marseille","lat":43.316517,"lon":5.404375,"is_reserved":false,"is_disabled":false,"rental_uris":{"android":"levelo://app?vid=a81e1a22-9f85-44d9-9827-ac37f0e90c9b","ios":"levelo://app?vid=a81e1a22-9f85-44d9-9827-ac37f0e90c9b"},"vehicle_type_id":"4","last_reported":1683543978,"current_range_meters":10400,"station_id":"ce4bh012rcd13ifvqd00","pricing_plan_id":"free"},{"bike_id":"02590c81-2a6e-4ad3-b955-20d7f5e8e2f5","system_id":"levelo_inurba_marseille","lat":43.284534,"lon":5.358662,"is_reserved":false,"is_disabled":false,"rental_uris":{"android":"levelo://app?vid=02590c81-2a6e-4ad3-b955-20d7f5e8e2f5","ios":"levelo://app?vid=02590c81-2a6e-4ad3-b955-20d7f5e8e2f5"},"vehicle_type_id":"4","last_reported":1683543978,"current_range_meters":8400,"station_id":"ce4bhah2rcd13ifvqei0","pricing_plan_id":"free"},{"bike_id":"17b989f6-c4cf-4692-9fef-f3ca75e12624","system_id":"levelo_inurba_marseille","lat":43.285856,"lon":5.350771,"is_reserved":false,"is_disabled":false,"rental_uris":{"android":"levelo://app?vid=17b989f6-c4cf-4692-9fef-f3ca75e12624","ios":"levelo://app?vid=17b989f6-c4cf-4692-9fef-f3ca75e12624"},"vehicle_type_id":"4","last_reported":1683543978,"current_range_meters":400,"station_id":"ce4bhch2rcd13ifvqeug","pricing_plan_id":"free"},{"bike_id":"a0c053bc-ae16-45e6-8e7b-80dc076ead57","system_id":"levelo_inurba_marseille","lat":43.285856,"lon":5.350771,"is_reserved":false,"is_disabled":false,"rental_uris":{"android":"levelo://app?vid=a0c053bc-ae16-45e6-8e7b-80dc076ead57","ios":"levelo://app?vid=a0c053bc-ae16-45e6-8e7b-80dc076ead57"},"vehicle_type_id":"4","last_reported":1683543978,"current_range_meters":29200,"station_id":"ce4bhch2rcd13ifvqeug","pricing_plan_id":"free"},{"bike_id":"804cc3f7-6844-4110-a823-2b4d77c3eb75","system_id":"levelo_inurba_marseille","lat":43.285856,"lon":5.350771,"is_reserved":false,"is_disabled":false,"rental_uris":{"android":"levelo://app?vid=804cc3f7-6844-4110-a823-2b4d77c3eb75","ios":"levelo://app?vid=804cc3f7-6844-4110-a823-2b4d77c3eb75"},"vehicle_type_id":"4","last_reported":1683543978,"current_range_meters":24400,"station_id":"ce4bhch2rcd13ifvqeug","pricing_plan_id":"free"},{"bike_id":"b5c46aad-80d9-49b2-a4fa-24eef3d30a40","system_id":"levelo_inurba_marseille","lat":43.285856,"lon":5.350771,"is_reserved":false,"is_disabled":false,"rental_uris":{"android":"levelo://app?vid=b5c46aad-80d9-49b2-a4fa-24eef3d30a40","ios":"levelo://app?vid=b5c46aad-80d9-49b2-a4fa-24eef3d30a40"},"vehicle_type_id":"4","last_reported":1683543978,"current_range_meters":26400,"station_id":"ce4bhch2rcd13ifvqeug","pricing_plan_id":"free"},{"bike_id":"a8c6725b-a328-4a5e-b4dc-25ea2923f88f","system_id":"levelo_inurba_marseille","lat":43.285856,"lon":5.350771,"is_reserved":false,"is_disabled":false,"rental_uris":{"android":"levelo://app?vid=a8c6725b-a328-4a5e-b4dc-25ea2923f88f","ios":"levelo://app?vid=a8c6725b-a328-4a5e-b4dc-25ea2923f88f"},"vehicle_type_id":"4","last_reported":1683543978,"current_range_meters":30800,"station_id":"ce4bhch2rcd13ifvqeug","pricing_plan_id":"free"},{"bike_id":"4ad63acb-f7cd-4a4d-a917-6f01d1468a48","system_id":"levelo_inurba_marseille","lat":43.285856,"lon":5.350771,"is_reserved":false,"is_disabled":false,"rental_uris":{"android":"levelo://app?vid=4ad63acb-f7cd-4a4d-a917-6f01d1468a48","ios":"levelo://app?vid=4ad63acb-f7cd-4a4d-a917-6f01d1468a48"},"vehicle_type_id":"4","last_reported":1683543978,"current_range_meters":27600,"station_id":"ce4bhch2rcd13ifvqeug","pricing_plan_id":"free"},{"bike_id":"fef6b1c9-2660-4679-9fef-69c43aaffc4b","system_id":"levelo_inurba_marseille","lat":43.285856,"lon":5.350771,"is_reserved":false,"is_disabled":false,"rental_uris":{"android":"levelo://app?vid=fef6b1c9-2660-4679-9fef-69c43aaffc4b","ios":"levelo://app?vid=fef6b1c9-2660-4679-9fef-69c43aaffc4b"},"vehicle_type_id":"4","last_reported":1683543978,"current_range_meters":25600,"station_id":"ce4bhch2rcd13ifvqeug","pricing_plan_id":"free"},{"bike_id":"5a67765b-277e-477b-8046-d344c4fbff01","system_id":"levelo_inurba_marseille","lat":43.28616,"lon":5.35105,"is_reserved":false,"is_disabled":false,"rental_uris":{"android":"levelo://app?vid=5a67765b-277e-477b-8046-d344c4fbff01","ios":"levelo://app?vid=5a67765b-277e-477b-8046-d344c4fbff01"},"vehicle_type_id":"4","last_reported":1683543978,"current_range_meters":21200,"station_id":"","pricing_plan_id":"free"},{"bike_id":"8965dc90-a03a-4a87-8fa4-571b42ea7ee5","system_id":"levelo_inurba_marseille","lat":43.285856,"lon":5.350771,"is_reserved":false,"is_disabled":false,"rental_uris":{"android":"levelo://app?vid=8965dc90-a03a-4a87-8fa4-571b42ea7ee5","ios":"levelo://app?vid=8965dc90-a03a-4a87-8fa4-571b42ea7ee5"},"vehicle_type_id":"4","last_reported":1683543978,"current_range_meters":30400,"station_id":"ce4bhch2rcd13ifvqeug","pricing_plan_id":"free"},{"bike_id":"9a42d1d4-a772-4b91-a81a-5c8250ea7152","system_id":"levelo_inurba_marseille","lat":43.285856,"lon":5.350771,"is_reserved":false,"is_disabled":false,"rental_uris":{"android":"levelo://app?vid=9a42d1d4-a772-4b91-a81a-5c8250ea7152","ios":"levelo://app?vid=9a42d1d4-a772-4b91-a81a-5c8250ea7152"},"vehicle_type_id":"4","last_reported":1683543978,"current_range_meters":5600,"station_id":"ce4bhch2rcd13ifvqeug","pricing_plan_id":"free"},{"bike_id":"86d67a8f-b281-4a7a-b51b-21228eabeb01","system_id":"levelo_inurba_marseille","lat":43.285856,"lon":5.350771,"is_reserved":false,"is_disabled":false,"rental_uris":{"android":"levelo://app?vid=86d67a8f-b281-4a7a-b51b-21228eabeb01","ios":"levelo://app?vid=86d67a8f-b281-4a7a-b51b-21228eabeb01"},"vehicle_type_id":"4","last_reported":1683543978,"current_range_meters":19200,"station_id":"ce4bhch2rcd13ifvqeug","pricing_plan_id":"free"},{"bike_id":"3f0165dc-8512-4b40-aaa3-4879a443c9cd","system_id":"levelo_inurba_marseille","lat":43.285856,"lon":5.350771,"is_reserved":false,"is_disabled":false,"rental_uris":{"android":"levelo://app?vid=3f0165dc-8512-4b40-aaa3-4879a443c9cd","ios":"levelo://app?vid=3f0165dc-8512-4b40-aaa3-4879a443c9cd"},"vehicle_type_id":"4","last_reported":1683543978,"current_range_meters":15200,"station_id":"ce4bhch2rcd13ifvqeug","pricing_plan_id":"free"},{"bike_id":"73f9a7f7-ecb7-4723-a912-22cbc4a46fa4","system_id":"levelo_inurba_marseille","lat":43.285856,"lon":5.350771,"is_reserved":false,"is_disabled":false,"rental_uris":{"android":"levelo://app?vid=73f9a7f7-ecb7-4723-a912-22cbc4a46fa4","ios":"levelo://app?vid=73f9a7f7-ecb7-4723-a912-22cbc4a46fa4"},"vehicle_type_id":"4","last_reported":1683543978,"current_range_meters":13200,"station_id":"ce4bhch2rcd13ifvqeug","pricing_plan_id":"free"},{"bike_id":"a52be6f1-7533-4d3e-bd88-01baf840ec6c","system_id":"levelo_inurba_marseille","lat":43.28614,"lon":5.35106,"is_reserved":false,"is_disabled":false,"rental_uris":{"android":"levelo://app?vid=a52be6f1-7533-4d3e-bd88-01baf840ec6c","ios":"levelo://app?vid=a52be6f1-7533-4d3e-bd88-01baf840ec6c"},"vehicle_type_id":"4","last_reported":1683543978,"current_range_meters":24800,"station_id":"","pricing_plan_id":"free"},{"bike_id":"3a104016-b88d-4682-83b2-d9767f510773","system_id":"levelo_inurba_marseille","lat":43.28614,"lon":5.35103,"is_reserved":false,"is_disabled":false,"rental_uris":{"android":"levelo://app?vid=3a104016-b88d-4682-83b2-d9767f510773","ios":"levelo://app?vid=3a104016-b88d-4682-83b2-d9767f510773"},"vehicle_type_id":"4","last_reported":1683543978,"current_range_meters":24000,"station_id":"","pricing_plan_id":"free"},{"bike_id":"de076868-7eec-4a06-a47b-24240758503b","system_id":"levelo_inurba_marseille","lat":43.28614,"lon":5.35102,"is_reserved":false,"is_disabled":false,"rental_uris":{"android":"levelo://app?vid=de076868-7eec-4a06-a47b-24240758503b","ios":"levelo://app?vid=de076868-7eec-4a06-a47b-24240758503b"},"vehicle_type_id":"4","last_reported":1683543978,"current_range_meters":16400,"station_id":"","pricing_plan_id":"free"},{"bike_id":"bc44a630-c344-4081-bea1-1b5991ca0a1c","system_id":"levelo_inurba_marseille","lat":43.285856,"lon":5.350771,"is_reserved":false,"is_disabled":false,"rental_uris":{"android":"levelo://app?vid=bc44a630-c344-4081-bea1-1b5991ca0a1c","ios":"levelo://app?vid=bc44a630-c344-4081-bea1-1b5991ca0a1c"},"vehicle_type_id":"4","last_reported":1683543978,"current_range_meters":24400,"station_id":"ce4bhch2rcd13ifvqeug","pricing_plan_id":"free"},{"bike_id":"e1f2ff77-26f3-43dd-a7fd-28315dabbc30","system_id":"levelo_inurba_marseille","lat":43.28614,"lon":5.35101,"is_reserved":false,"is_disabled":false,"rental_uris":{"android":"levelo://app?vid=e1f2ff77-26f3-43dd-a7fd-28315dabbc30","ios":"levelo://app?vid=e1f2ff77-26f3-43dd-a7fd-28315dabbc30"},"vehicle_type_id":"4","last_reported":1683543978,"current_range_meters":24800,"station_id":"","pricing_plan_id":"free"},{"bike_id":"bfbf21bf-3f49-4863-b2fd-796452316abe","system_id":"levelo_inurba_marseille","lat":43.28613,"lon":5.35104,"is_reserved":false,"is_disabled":false,"rental_uris":{"android":"levelo://app?vid=bfbf21bf-3f49-4863-b2fd-796452316abe","ios":"levelo://app?vid=bfbf21bf-3f49-4863-b2fd-796452316abe"},"vehicle_type_id":"4","last_reported":1683543978,"current_range_meters":0,"station_id":"","pricing_plan_id":"free"},{"bike_id":"d05b13e3-4ed2-433b-bb9f-48e352caa560","system_id":"levelo_inurba_marseille","lat":43.28611,"lon":5.35102,"is_reserved":false,"is_disabled":false,"rental_uris":{"android":"levelo://app?vid=d05b13e3-4ed2-433b-bb9f-48e352caa560","ios":"levelo://app?vid=d05b13e3-4ed2-433b-bb9f-48e352caa560"},"vehicle_type_id":"4","last_reported":1683543978,"current_range_meters":800,"station_id":"","pricing_plan_id":"free"},{"bike_id":"00df7a49-7205-41e8-b6f0-c388c2819036","system_id":"levelo_inurba_marseille","lat":43.28609,"lon":5.35104,"is_reserved":false,"is_disabled":false,"rental_uris":{"android":"levelo://app?vid=00df7a49-7205-41e8-b6f0-c388c2819036","ios":"levelo://app?vid=00df7a49-7205-41e8-b6f0-c388c2819036"},"vehicle_type_id":"4","last_reported":1683543978,"current_range_meters":21200,"station_id":"","pricing_plan_id":"free"},{"bike_id":"af59b2a9-baef-4f0a-bd57-7102568549fb","system_id":"levelo_inurba_marseille","lat":43.286595,"lon":5.386795,"is_reserved":false,"is_disabled":false,"rental_uris":{"android":"levelo://app?vid=af59b2a9-baef-4f0a-bd57-7102568549fb","ios":"levelo://app?vid=af59b2a9-baef-4f0a-bd57-7102568549fb"},"vehicle_type_id":"4","last_reported":1683543978,"current_range_meters":23600,"station_id":"ce4bh492rcd13ifvqdug","pricing_plan_id":"free"},{"bike_id":"7cdb1143-1df3-41fc-a179-c2f32ca67ebe","system_id":"levelo_inurba_marseille","lat":43.28508,"lon":5.35128,"is_reserved":false,"is_disabled":false,"rental_uris":{"android":"levelo://app?vid=7cdb1143-1df3-41fc-a179-c2f32ca67ebe","ios":"levelo://app?vid=7cdb1143-1df3-41fc-a179-c2f32ca67ebe"},"vehicle_type_id":"4","last_reported":1683543978,"current_range_meters":0,"station_id":"","pricing_plan_id":"free"},{"bike_id":"eeed33b8-4405-4fee-8d96-fecd07572891","system_id":"levelo_inurba_marseille","lat":43.323464,"lon":5.406297,"is_reserved":false,"is_disabled":false,"rental_uris":{"android":"levelo://app?vid=eeed33b8-4405-4fee-8d96-fecd07572891","ios":"levelo://app?vid=eeed33b8-4405-4fee-8d96-fecd07572891"},"vehicle_type_id":"4","last_reported":1683543978,"current_range_meters":30400,"station_id":"ce4bhq92rcd13ifvqhjg","pricing_plan_id":"free"},{"bike_id":"b4b0acb3-c28c-4dcd-b0d7-90d90b848d96","system_id":"levelo_inurba_marseille","lat":43.323464,"lon":5.406297,"is_reserved":false,"is_disabled":false,"rental_uris":{"android":"levelo://app?vid=b4b0acb3-c28c-4dcd-b0d7-90d90b848d96","ios":"levelo://app?vid=b4b0acb3-c28c-4dcd-b0d7-90d90b848d96"},"vehicle_type_id":"4","last_reported":1683543978,"current_range_meters":29200,"station_id":"ce4bhq92rcd13ifvqhjg","pricing_plan_id":"free"},{"bike_id":"7df44294-8889-4c17-be72-c4b8ea5ba4fe","system_id":"levelo_inurba_marseille","lat":43.33718,"lon":5.39178,"is_reserved":false,"is_disabled":false,"rental_uris":{"android":"levelo://app?vid=7df44294-8889-4c17-be72-c4b8ea5ba4fe","ios":"levelo://app?vid=7df44294-8889-4c17-be72-c4b8ea5ba4fe"},"vehicle_type_id":"4","last_reported":1683543978,"current_range_meters":7600,"station_id":"ce4bhr92rcd13ifvqhsg","pricing_plan_id":"free"},{"bike_id":"f4ff0315-959c-4ef0-ba74-c5016cf91ea0","system_id":"levelo_inurba_marseille","lat":43.323464,"lon":5.406297,"is_reserved":false,"is_disabled":false,"rental_uris":{"android":"levelo://app?vid=f4ff0315-959c-4ef0-ba74-c5016cf91ea0","ios":"levelo://app?vid=f4ff0315-959c-4ef0-ba74-c5016cf91ea0"},"vehicle_type_id":"4","last_reported":1683543978,"current_range_meters":25200,"station_id":"ce4bhq92rcd13ifvqhjg","pricing_plan_id":"free"},{"bike_id":"c67aa893-afd8-43a0-ae84-99171c1a389b","system_id":"levelo_inurba_marseille","lat":43.337168,"lon":5.391825,"is_reserved":false,"is_disabled":false,"rental_uris":{"android":"levelo://app?vid=c67aa893-afd8-43a0-ae84-99171c1a389b","ios":"levelo://app?vid=c67aa893-afd8-43a0-ae84-99171c1a389b"},"vehicle_type_id":"4","last_reported":1683543978,"current_range_meters":4400,"station_id":"ce4bhr92rcd13ifvqhsg","pricing_plan_id":"free"},{"bike_id":"d88b9571-8f30-47b8-b0df-5f3e62834bac","system_id":"levelo_inurba_marseille","lat":43.337168,"lon":5.391825,"is_reserved":false,"is_disabled":false,"rental_uris":{"android":"levelo://app?vid=d88b9571-8f30-47b8-b0df-5f3e62834bac","ios":"levelo://app?vid=d88b9571-8f30-47b8-b0df-5f3e62834bac"},"vehicle_type_id":"4","last_reported":1683543978,"current_range_meters":5200,"station_id":"ce4bhr92rcd13ifvqhsg","pricing_plan_id":"free"},{"bike_id":"f0e64e2e-7b84-48d5-841a-99c6134ce8e4","system_id":"levelo_inurba_marseille","lat":43.323464,"lon":5.406297,"is_reserved":false,"is_disabled":false,"rental_uris":{"android":"levelo://app?vid=f0e64e2e-7b84-48d5-841a-99c6134ce8e4","ios":"levelo://app?vid=f0e64e2e-7b84-48d5-841a-99c6134ce8e4"},"vehicle_type_id":"4","last_reported":1683543978,"current_range_meters":31200,"station_id":"ce4bhq92rcd13ifvqhjg","pricing_plan_id":"free"},{"bike_id":"ad3cdfdb-0864-4cce-8a5d-05a05de94244","system_id":"levelo_inurba_marseille","lat":43.30081,"lon":5.40557,"is_reserved":false,"is_disabled":false,"rental_uris":{"android":"levelo://app?vid=ad3cdfdb-0864-4cce-8a5d-05a05de94244","ios":"levelo://app?vid=ad3cdfdb-0864-4cce-8a5d-05a05de94244"},"vehicle_type_id":"4","last_reported":1683543978,"current_range_meters":11200,"station_id":"","pricing_plan_id":"free"},{"bike_id":"3306c683-e449-46c2-b997-0d411f56338b","system_id":"levelo_inurba_marseille","lat":43.28431,"lon":5.34999,"is_reserved":false,"is_disabled":false,"rental_uris":{"android":"levelo://app?vid=3306c683-e449-46c2-b997-0d411f56338b","ios":"levelo://app?vid=3306c683-e449-46c2-b997-0d411f56338b"},"vehicle_type_id":"4","last_reported":1683543978,"current_range_meters":11200,"station_id":"ce4bhbh2rcd13ifvqepg","pricing_plan_id":"free"},{"bike_id":"c5bc730c-0a5c-4008-8b1a-2cda37abb98c","system_id":"levelo_inurba_marseille","lat":43.28428,"lon":5.35001,"is_reserved":false,"is_disabled":false,"rental_uris":{"android":"levelo://app?vid=c5bc730c-0a5c-4008-8b1a-2cda37abb98c","ios":"levelo://app?vid=c5bc730c-0a5c-4008-8b1a-2cda37abb98c"},"vehicle_type_id":"4","last_reported":1683543978,"current_range_meters":27600,"station_id":"ce4bhbh2rcd13ifvqepg","pricing_plan_id":"free"},{"bike_id":"7ed83cea-587c-41c4-b65b-bace62121ef3","system_id":"levelo_inurba_marseille","lat":43.28426,"lon":5.35005,"is_reserved":false,"is_disabled":false,"rental_uris":{"android":"levelo://app?vid=7ed83cea-587c-41c4-b65b-bace62121ef3","ios":"levelo://app?vid=7ed83cea-587c-41c4-b65b-bace62121ef3"},"vehicle_type_id":"4","last_reported":1683543978,"current_range_meters":17600,"station_id":"ce4bhbh2rcd13ifvqepg","pricing_plan_id":"free"},{"bike_id":"4f9bac14-3495-4349-a16c-4514ef8f1202","system_id":"levelo_inurba_marseille","lat":43.28427,"lon":5.34999,"is_reserved":false,"is_disabled":false,"rental_uris":{"android":"levelo://app?vid=4f9bac14-3495-4349-a16c-4514ef8f1202","ios":"levelo://app?vid=4f9bac14-3495-4349-a16c-4514ef8f1202"},"vehicle_type_id":"4","last_reported":1683543978,"current_range_meters":17600,"station_id":"ce4bhbh2rcd13ifvqepg","pricing_plan_id":"free"},{"bike_id":"d23ba795-b4e6-4138-8475-ea477b43f324","system_id":"levelo_inurba_marseille","lat":43.284219,"lon":5.3497,"is_reserved":false,"is_disabled":false,"rental_uris":{"android":"levelo://app?vid=d23ba795-b4e6-4138-8475-ea477b43f324","ios":"levelo://app?vid=d23ba795-b4e6-4138-8475-ea477b43f324"},"vehicle_type_id":"4","last_reported":1683543978,"current_range_meters":21600,"station_id":"ce4bhbh2rcd13ifvqepg","pricing_plan_id":"free"},{"bike_id":"2a511c83-0fc1-4453-93dd-9540628e33ac","system_id":"levelo_inurba_marseille","lat":43.284219,"lon":5.3497,"is_reserved":false,"is_disabled":false,"rental_uris":{"android":"levelo://app?vid=2a511c83-0fc1-4453-93dd-9540628e33ac","ios":"levelo://app?vid=2a511c83-0fc1-4453-93dd-9540628e33ac"},"vehicle_type_id":"4","last_reported":1683543978,"current_range_meters":12000,"station_id":"ce4bhbh2rcd13ifvqepg","pricing_plan_id":"free"},{"bike_id":"473b40c8-24db-42cd-9eaa-0b475c227c61","system_id":"levelo_inurba_marseille","lat":43.284306,"lon":5.349824,"is_reserved":false,"is_disabled":false,"rental_uris":{"android":"levelo://app?vid=473b40c8-24db-42cd-9eaa-0b475c227c61","ios":"levelo://app?vid=473b40c8-24db-42cd-9eaa-0b475c227c61"},"vehicle_type_id":"4","last_reported":1683543978,"current_range_meters":22400,"station_id":"ce4bhbh2rcd13ifvqepg","pricing_plan_id":"free"},{"bike_id":"8c50d67a-090e-4da3-a177-8c66882d34c4","system_id":"levelo_inurba_marseille","lat":43.28426,"lon":5.34994,"is_reserved":false,"is_disabled":false,"rental_uris":{"android":"levelo://app?vid=8c50d67a-090e-4da3-a177-8c66882d34c4","ios":"levelo://app?vid=8c50d67a-090e-4da3-a177-8c66882d34c4"},"vehicle_type_id":"4","last_reported":1683543978,"current_range_meters":800,"station_id":"ce4bhbh2rcd13ifvqepg","pricing_plan_id":"free"},{"bike_id":"d8659fbd-42f2-4cfa-ac0b-1279388d472c","system_id":"levelo_inurba_marseille","lat":43.28425,"lon":5.34997,"is_reserved":false,"is_disabled":false,"rental_uris":{"android":"levelo://app?vid=d8659fbd-42f2-4cfa-ac0b-1279388d472c","ios":"levelo://app?vid=d8659fbd-42f2-4cfa-ac0b-1279388d472c"},"vehicle_type_id":"4","last_reported":1683543978,"current_range_meters":24400,"station_id":"ce4bhbh2rcd13ifvqepg","pricing_plan_id":"free"},{"bike_id":"5be6217e-084f-4e4e-912b-589ac158e358","system_id":"levelo_inurba_marseille","lat":43.28425,"lon":5.34993,"is_reserved":false,"is_disabled":false,"rental_uris":{"android":"levelo://app?vid=5be6217e-084f-4e4e-912b-589ac158e358","ios":"levelo://app?vid=5be6217e-084f-4e4e-912b-589ac158e358"},"vehicle_type_id":"4","last_reported":1683543978,"current_range_meters":28000,"station_id":"ce4bhbh2rcd13ifvqepg","pricing_plan_id":"free"},{"bike_id":"e191e413-38ce-4ea1-bbf8-4c2b159ace2a","system_id":"levelo_inurba_marseille","lat":43.28427,"lon":5.34981,"is_reserved":false,"is_disabled":false,"rental_uris":{"android":"levelo://app?vid=e191e413-38ce-4ea1-bbf8-4c2b159ace2a","ios":"levelo://app?vid=e191e413-38ce-4ea1-bbf8-4c2b159ace2a"},"vehicle_type_id":"4","last_reported":1683543978,"current_range_meters":14400,"station_id":"ce4bhbh2rcd13ifvqepg","pricing_plan_id":"free"},{"bike_id":"5285da43-c6de-45ce-ba4d-dd01a74b4cb6","system_id":"levelo_inurba_marseille","lat":43.28425,"lon":5.34987,"is_reserved":false,"is_disabled":false,"rental_uris":{"android":"levelo://app?vid=5285da43-c6de-45ce-ba4d-dd01a74b4cb6","ios":"levelo://app?vid=5285da43-c6de-45ce-ba4d-dd01a74b4cb6"},"vehicle_type_id":"4","last_reported":1683543978,"current_range_meters":13200,"station_id":"ce4bhbh2rcd13ifvqepg","pricing_plan_id":"free"},{"bike_id":"35ae92de-1309-4fae-8e20-912af2dcddf5","system_id":"levelo_inurba_marseille","lat":43.28425,"lon":5.34984,"is_reserved":false,"is_disabled":false,"rental_uris":{"android":"levelo://app?vid=35ae92de-1309-4fae-8e20-912af2dcddf5","ios":"levelo://app?vid=35ae92de-1309-4fae-8e20-912af2dcddf5"},"vehicle_type_id":"4","last_reported":1683543978,"current_range_meters":4000,"station_id":"ce4bhbh2rcd13ifvqepg","pricing_plan_id":"free"},{"bike_id":"c8e5295f-ccde-458d-86d6-6053efd6e802","system_id":"levelo_inurba_marseille","lat":43.284217,"lon":5.349697,"is_reserved":false,"is_disabled":false,"rental_uris":{"android":"levelo://app?vid=c8e5295f-ccde-458d-86d6-6053efd6e802","ios":"levelo://app?vid=c8e5295f-ccde-458d-86d6-6053efd6e802"},"vehicle_type_id":"4","last_reported":1683543978,"current_range_meters":31200,"station_id":"ce4bhbh2rcd13ifvqepg","pricing_plan_id":"free"},{"bike_id":"9df6b1ea-0a0b-4915-9b0b-2dd19fa8534c","system_id":"levelo_inurba_marseille","lat":43.28421,"lon":5.34994,"is_reserved":false,"is_disabled":false,"rental_uris":{"android":"levelo://app?vid=9df6b1ea-0a0b-4915-9b0b-2dd19fa8534c","ios":"levelo://app?vid=9df6b1ea-0a0b-4915-9b0b-2dd19fa8534c"},"vehicle_type_id":"4","last_reported":1683543978,"current_range_meters":12400,"station_id":"ce4bhbh2rcd13ifvqepg","pricing_plan_id":"free"},{"bike_id":"9385093c-34fc-4d5a-b6e4-23f05c459ca9","system_id":"levelo_inurba_marseille","lat":43.284219,"lon":5.3497,"is_reserved":false,"is_disabled":false,"rental_uris":{"android":"levelo://app?vid=9385093c-34fc-4d5a-b6e4-23f05c459ca9","ios":"levelo://app?vid=9385093c-34fc-4d5a-b6e4-23f05c459ca9"},"vehicle_type_id":"4","last_reported":1683543978,"current_range_meters":19600,"station_id":"ce4bhbh2rcd13ifvqepg","pricing_plan_id":"free"},{"bike_id":"6778731f-75cb-43a3-bffa-e5b1d48652e2","system_id":"levelo_inurba_marseille","lat":43.28421,"lon":5.34986,"is_reserved":false,"is_disabled":false,"rental_uris":{"android":"levelo://app?vid=6778731f-75cb-43a3-bffa-e5b1d48652e2","ios":"levelo://app?vid=6778731f-75cb-43a3-bffa-e5b1d48652e2"},"vehicle_type_id":"4","last_reported":1683543978,"current_range_meters":7200,"station_id":"ce4bhbh2rcd13ifvqepg","pricing_plan_id":"free"},{"bike_id":"27d9dfab-e90d-4e31-b730-717ef614a535","system_id":"levelo_inurba_marseille","lat":43.2842,"lon":5.34986,"is_reserved":false,"is_disabled":false,"rental_uris":{"android":"levelo://app?vid=27d9dfab-e90d-4e31-b730-717ef614a535","ios":"levelo://app?vid=27d9dfab-e90d-4e31-b730-717ef614a535"},"vehicle_type_id":"4","last_reported":1683543978,"current_range_meters":14400,"station_id":"ce4bhbh2rcd13ifvqepg","pricing_plan_id":"free"},{"bike_id":"fc15d2c3-7d02-469a-9704-226c1011f666","system_id":"levelo_inurba_marseille","lat":43.284219,"lon":5.3497,"is_reserved":false,"is_disabled":false,"rental_uris":{"android":"levelo://app?vid=fc15d2c3-7d02-469a-9704-226c1011f666","ios":"levelo://app?vid=fc15d2c3-7d02-469a-9704-226c1011f666"},"vehicle_type_id":"4","last_reported":1683543978,"current_range_meters":15600,"station_id":"ce4bhbh2rcd13ifvqepg","pricing_plan_id":"free"},{"bike_id":"ff72f6fb-f988-4f8e-b20b-06350ca56e56","system_id":"levelo_inurba_marseille","lat":43.28418,"lon":5.3499,"is_reserved":false,"is_disabled":false,"rental_uris":{"android":"levelo://app?vid=ff72f6fb-f988-4f8e-b20b-06350ca56e56","ios":"levelo://app?vid=ff72f6fb-f988-4f8e-b20b-06350ca56e56"},"vehicle_type_id":"4","last_reported":1683543978,"current_range_meters":26800,"station_id":"ce4bhbh2rcd13ifvqepg","pricing_plan_id":"free"},{"bike_id":"6e460171-7ba9-4e35-810d-2b4a31d7827f","system_id":"levelo_inurba_marseille","lat":43.28417,"lon":5.34985,"is_reserved":false,"is_disabled":false,"rental_uris":{"android":"levelo://app?vid=6e460171-7ba9-4e35-810d-2b4a31d7827f","ios":"levelo://app?vid=6e460171-7ba9-4e35-810d-2b4a31d7827f"},"vehicle_type_id":"4","last_reported":1683543978,"current_range_meters":25600,"station_id":"ce4bhbh2rcd13ifvqepg","pricing_plan_id":"free"},{"bike_id":"3097e127-d6e8-4cfe-b523-ba780550b753","system_id":"levelo_inurba_marseille","lat":43.28417,"lon":5.34984,"is_reserved":false,"is_disabled":false,"rental_uris":{"android":"levelo://app?vid=3097e127-d6e8-4cfe-b523-ba780550b753","ios":"levelo://app?vid=3097e127-d6e8-4cfe-b523-ba780550b753"},"vehicle_type_id":"4","last_reported":1683543978,"current_range_meters":28000,"station_id":"ce4bhbh2rcd13ifvqepg","pricing_plan_id":"free"},{"bike_id":"9e784d6d-12e7-471a-b47a-76186c2a0231","system_id":"levelo_inurba_marseille","lat":43.284219,"lon":5.3497,"is_reserved":false,"is_disabled":false,"rental_uris":{"android":"levelo://app?vid=9e784d6d-12e7-471a-b47a-76186c2a0231","ios":"levelo://app?vid=9e784d6d-12e7-471a-b47a-76186c2a0231"},"vehicle_type_id":"4","last_reported":1683543978,"current_range_meters":2400,"station_id":"ce4bhbh2rcd13ifvqepg","pricing_plan_id":"free"},{"bike_id":"4e2d12e3-a643-4a30-99d4-3c27d3559453","system_id":"levelo_inurba_marseille","lat":43.284103,"lon":5.349875,"is_reserved":false,"is_disabled":false,"rental_uris":{"android":"levelo://app?vid=4e2d12e3-a643-4a30-99d4-3c27d3559453","ios":"levelo://app?vid=4e2d12e3-a643-4a30-99d4-3c27d3559453"},"vehicle_type_id":"4","last_reported":1683543978,"current_range_meters":4800,"station_id":"ce4bhbh2rcd13ifvqepg","pricing_plan_id":"free"},{"bike_id":"aaa538ff-e314-4b5f-81fb-34d132333bf6","system_id":"levelo_inurba_marseille","lat":43.28416,"lon":5.349653,"is_reserved":false,"is_disabled":false,"rental_uris":{"android":"levelo://app?vid=aaa538ff-e314-4b5f-81fb-34d132333bf6","ios":"levelo://app?vid=aaa538ff-e314-4b5f-81fb-34d132333bf6"},"vehicle_type_id":"4","last_reported":1683543978,"current_range_meters":400,"station_id":"","pricing_plan_id":"free"},{"bike_id":"8ab75a12-681b-4a37-8431-7b1fd2eb6104","system_id":"levelo_inurba_marseille","lat":43.28407,"lon":5.34972,"is_reserved":false,"is_disabled":false,"rental_uris":{"android":"levelo://app?vid=8ab75a12-681b-4a37-8431-7b1fd2eb6104","ios":"levelo://app?vid=8ab75a12-681b-4a37-8431-7b1fd2eb6104"},"vehicle_type_id":"4","last_reported":1683543978,"current_range_meters":14000,"station_id":"ce4bhbh2rcd13ifvqepg","pricing_plan_id":"free"},{"bike_id":"c37961e0-d610-4f7a-a8b9-961e26690f91","system_id":"levelo_inurba_marseille","lat":43.292724,"lon":5.401131,"is_reserved":false,"is_disabled":false,"rental_uris":{"android":"levelo://app?vid=c37961e0-d610-4f7a-a8b9-961e26690f91","ios":"levelo://app?vid=c37961e0-d610-4f7a-a8b9-961e26690f91"},"vehicle_type_id":"4","last_reported":1683543978,"current_range_meters":27200,"station_id":"ce4bh312rcd13ifvqdk0","pricing_plan_id":"free"},{"bike_id":"3bb784eb-f0d3-4eb1-b0f6-94fc8106bda7","system_id":"levelo_inurba_marseille","lat":43.28289,"lon":5.35087,"is_reserved":false,"is_disabled":false,"rental_uris":{"android":"levelo://app?vid=3bb784eb-f0d3-4eb1-b0f6-94fc8106bda7","ios":"levelo://app?vid=3bb784eb-f0d3-4eb1-b0f6-94fc8106bda7"},"vehicle_type_id":"4","last_reported":1683543978,"current_range_meters":14400,"station_id":"","pricing_plan_id":"free"},{"bike_id":"dbd71d04-e371-40ce-9141-6f32dea3b088","system_id":"levelo_inurba_marseille","lat":43.28288,"lon":5.35078,"is_reserved":false,"is_disabled":false,"rental_uris":{"android":"levelo://app?vid=dbd71d04-e371-40ce-9141-6f32dea3b088","ios":"levelo://app?vid=dbd71d04-e371-40ce-9141-6f32dea3b088"},"vehicle_type_id":"4","last_reported":1683543978,"current_range_meters":31200,"station_id":"ce4bhbp2rcd13ifvqerg","pricing_plan_id":"free"},{"bike_id":"87111178-9ff6-45fb-b907-b0cf07a672bc","system_id":"levelo_inurba_marseille","lat":43.28279,"lon":5.35085,"is_reserved":false,"is_disabled":false,"rental_uris":{"android":"levelo://app?vid=87111178-9ff6-45fb-b907-b0cf07a672bc","ios":"levelo://app?vid=87111178-9ff6-45fb-b907-b0cf07a672bc"},"vehicle_type_id":"4","last_reported":1683543978,"current_range_meters":14800,"station_id":"ce4bhbp2rcd13ifvqerg","pricing_plan_id":"free"},{"bike_id":"fdc8c920-523e-47f7-bcc1-bb3517321e58","system_id":"levelo_inurba_marseille","lat":43.28279,"lon":5.35083,"is_reserved":false,"is_disabled":false,"rental_uris":{"android":"levelo://app?vid=fdc8c920-523e-47f7-bcc1-bb3517321e58","ios":"levelo://app?vid=fdc8c920-523e-47f7-bcc1-bb3517321e58"},"vehicle_type_id":"4","last_reported":1683543978,"current_range_meters":20400,"station_id":"ce4bhbp2rcd13ifvqerg","pricing_plan_id":"free"},{"bike_id":"3699c439-78a2-4004-bd94-a4236a395020","system_id":"levelo_inurba_marseille","lat":43.2828,"lon":5.35079,"is_reserved":false,"is_disabled":false,"rental_uris":{"android":"levelo://app?vid=3699c439-78a2-4004-bd94-a4236a395020","ios":"levelo://app?vid=3699c439-78a2-4004-bd94-a4236a395020"},"vehicle_type_id":"4","last_reported":1683543978,"current_range_meters":24400,"station_id":"ce4bhbp2rcd13ifvqerg","pricing_plan_id":"free"},{"bike_id":"c3038cc6-532c-4a24-a08e-9b5f864aa49e","system_id":"levelo_inurba_marseille","lat":43.28277,"lon":5.35086,"is_reserved":false,"is_disabled":false,"rental_uris":{"android":"levelo://app?vid=c3038cc6-532c-4a24-a08e-9b5f864aa49e","ios":"levelo://app?vid=c3038cc6-532c-4a24-a08e-9b5f864aa49e"},"vehicle_type_id":"4","last_reported":1683543978,"current_range_meters":16400,"station_id":"ce4bhbp2rcd13ifvqerg","pricing_plan_id":"free"},{"bike_id":"d9584419-27e1-452b-88e9-e988b38d1d42","system_id":"levelo_inurba_marseille","lat":43.28275,"lon":5.35083,"is_reserved":false,"is_disabled":false,"rental_uris":{"android":"levelo://app?vid=d9584419-27e1-452b-88e9-e988b38d1d42","ios":"levelo://app?vid=d9584419-27e1-452b-88e9-e988b38d1d42"},"vehicle_type_id":"4","last_reported":1683543978,"current_range_meters":16000,"station_id":"ce4bhbp2rcd13ifvqerg","pricing_plan_id":"free"},{"bike_id":"0a3d2f0b-a441-4fe3-8e6e-01b702dcf0f2","system_id":"levelo_inurba_marseille","lat":43.28277,"lon":5.35074,"is_reserved":false,"is_disabled":false,"rental_uris":{"android":"levelo://app?vid=0a3d2f0b-a441-4fe3-8e6e-01b702dcf0f2","ios":"levelo://app?vid=0a3d2f0b-a441-4fe3-8e6e-01b702dcf0f2"},"vehicle_type_id":"4","last_reported":1683543978,"current_range_meters":15600,"station_id":"ce4bhbp2rcd13ifvqerg","pricing_plan_id":"free"},{"bike_id":"ede5d17d-be78-4a48-972f-75476437e5e7","system_id":"levelo_inurba_marseille","lat":43.28275,"lon":5.35074,"is_reserved":false,"is_disabled":false,"rental_uris":{"android":"levelo://app?vid=ede5d17d-be78-4a48-972f-75476437e5e7","ios":"levelo://app?vid=ede5d17d-be78-4a48-972f-75476437e5e7"},"vehicle_type_id":"4","last_reported":1683543978,"current_range_meters":30000,"station_id":"ce4bhbp2rcd13ifvqerg","pricing_plan_id":"free"},{"bike_id":"a20c3be1-2edb-4d73-a7ec-ca5b46e54533","system_id":"levelo_inurba_marseille","lat":43.28273,"lon":5.35078,"is_reserved":false,"is_disabled":false,"rental_uris":{"android":"levelo://app?vid=a20c3be1-2edb-4d73-a7ec-ca5b46e54533","ios":"levelo://app?vid=a20c3be1-2edb-4d73-a7ec-ca5b46e54533"},"vehicle_type_id":"4","last_reported":1683543978,"current_range_meters":26400,"station_id":"ce4bhbp2rcd13ifvqerg","pricing_plan_id":"free"},{"bike_id":"4cf8a002-3857-486a-abae-d85e6e41e347","system_id":"levelo_inurba_marseille","lat":43.28274,"lon":5.35074,"is_reserved":false,"is_disabled":false,"rental_uris":{"android":"levelo://app?vid=4cf8a002-3857-486a-abae-d85e6e41e347","ios":"levelo://app?vid=4cf8a002-3857-486a-abae-d85e6e41e347"},"vehicle_type_id":"4","last_reported":1683543978,"current_range_meters":10800,"station_id":"ce4bhbp2rcd13ifvqerg","pricing_plan_id":"free"},{"bike_id":"834e0b10-7178-471f-93b2-60219e9c87e8","system_id":"levelo_inurba_marseille","lat":43.28272,"lon":5.35079,"is_reserved":false,"is_disabled":false,"rental_uris":{"android":"levelo://app?vid=834e0b10-7178-471f-93b2-60219e9c87e8","ios":"levelo://app?vid=834e0b10-7178-471f-93b2-60219e9c87e8"},"vehicle_type_id":"4","last_reported":1683543978,"current_range_meters":31200,"station_id":"ce4bhbp2rcd13ifvqerg","pricing_plan_id":"free"},{"bike_id":"a12cf28b-594f-46f1-a043-a0c66906a595","system_id":"levelo_inurba_marseille","lat":43.28273,"lon":5.35075,"is_reserved":false,"is_disabled":false,"rental_uris":{"android":"levelo://app?vid=a12cf28b-594f-46f1-a043-a0c66906a595","ios":"levelo://app?vid=a12cf28b-594f-46f1-a043-a0c66906a595"},"vehicle_type_id":"4","last_reported":1683543978,"current_range_meters":22000,"station_id":"ce4bhbp2rcd13ifvqerg","pricing_plan_id":"free"},{"bike_id":"659db7a0-4da9-4474-9d4b-164a15486608","system_id":"levelo_inurba_marseille","lat":43.28274,"lon":5.35071,"is_reserved":false,"is_disabled":false,"rental_uris":{"android":"levelo://app?vid=659db7a0-4da9-4474-9d4b-164a15486608","ios":"levelo://app?vid=659db7a0-4da9-4474-9d4b-164a15486608"},"vehicle_type_id":"4","last_reported":1683543978,"current_range_meters":10000,"station_id":"ce4bhbp2rcd13ifvqerg","pricing_plan_id":"free"},{"bike_id":"fa245d1d-849e-4921-ae83-482825d65053","system_id":"levelo_inurba_marseille","lat":43.28271,"lon":5.35081,"is_reserved":false,"is_disabled":false,"rental_uris":{"android":"levelo://app?vid=fa245d1d-849e-4921-ae83-482825d65053","ios":"levelo://app?vid=fa245d1d-849e-4921-ae83-482825d65053"},"vehicle_type_id":"4","last_reported":1683543978,"current_range_meters":24000,"station_id":"ce4bhbp2rcd13ifvqerg","pricing_plan_id":"free"},{"bike_id":"15cdce2a-b8ec-4f2c-a0f1-95af4c89e79a","system_id":"levelo_inurba_marseille","lat":43.282729,"lon":5.350743,"is_reserved":false,"is_disabled":false,"rental_uris":{"android":"levelo://app?vid=15cdce2a-b8ec-4f2c-a0f1-95af4c89e79a","ios":"levelo://app?vid=15cdce2a-b8ec-4f2c-a0f1-95af4c89e79a"},"vehicle_type_id":"4","last_reported":1683543978,"current_range_meters":27600,"station_id":"ce4bhbp2rcd13ifvqerg","pricing_plan_id":"free"},{"bike_id":"65925f9b-ef3a-4b5c-adf2-627a213cd002","system_id":"levelo_inurba_marseille","lat":43.28272,"lon":5.35077,"is_reserved":false,"is_disabled":false,"rental_uris":{"android":"levelo://app?vid=65925f9b-ef3a-4b5c-adf2-627a213cd002","ios":"levelo://app?vid=65925f9b-ef3a-4b5c-adf2-627a213cd002"},"vehicle_type_id":"4","last_reported":1683543978,"current_range_meters":31200,"station_id":"ce4bhbp2rcd13ifvqerg","pricing_plan_id":"free"},{"bike_id":"2940a9ef-79c8-4524-a7e4-f05f28b54870","system_id":"levelo_inurba_marseille","lat":43.2827,"lon":5.35084,"is_reserved":false,"is_disabled":false,"rental_uris":{"android":"levelo://app?vid=2940a9ef-79c8-4524-a7e4-f05f28b54870","ios":"levelo://app?vid=2940a9ef-79c8-4524-a7e4-f05f28b54870"},"vehicle_type_id":"4","last_reported":1683543978,"current_range_meters":20000,"station_id":"ce4bhbp2rcd13ifvqerg","pricing_plan_id":"free"},{"bike_id":"66a28ad7-b044-410e-a143-48f61f5813f8","system_id":"levelo_inurba_marseille","lat":43.28272,"lon":5.35076,"is_reserved":false,"is_disabled":false,"rental_uris":{"android":"levelo://app?vid=66a28ad7-b044-410e-a143-48f61f5813f8","ios":"levelo://app?vid=66a28ad7-b044-410e-a143-48f61f5813f8"},"vehicle_type_id":"4","last_reported":1683543978,"current_range_meters":22000,"station_id":"ce4bhbp2rcd13ifvqerg","pricing_plan_id":"free"},{"bike_id":"1979a971-ddc3-4551-a654-55417d29fc15","system_id":"levelo_inurba_marseille","lat":43.28273,"lon":5.35068,"is_reserved":false,"is_disabled":false,"rental_uris":{"android":"levelo://app?vid=1979a971-ddc3-4551-a654-55417d29fc15","ios":"levelo://app?vid=1979a971-ddc3-4551-a654-55417d29fc15"},"vehicle_type_id":"4","last_reported":1683543978,"current_range_meters":27200,"station_id":"ce4bhbp2rcd13ifvqerg","pricing_plan_id":"free"},{"bike_id":"b634dbff-8da5-4775-af3c-750a5e1fac70","system_id":"levelo_inurba_marseille","lat":43.282754,"lon":5.350519,"is_reserved":false,"is_disabled":false,"rental_uris":{"android":"levelo://app?vid=b634dbff-8da5-4775-af3c-750a5e1fac70","ios":"levelo://app?vid=b634dbff-8da5-4775-af3c-750a5e1fac70"},"vehicle_type_id":"4","last_reported":1683543978,"current_range_meters":30000,"station_id":"ce4bhbp2rcd13ifvqerg","pricing_plan_id":"free"},{"bike_id":"1291d072-bbf8-4e5b-9e5b-0056917f71c6","system_id":"levelo_inurba_marseille","lat":43.2827,"lon":5.35075,"is_reserved":false,"is_disabled":false,"rental_uris":{"android":"levelo://app?vid=1291d072-bbf8-4e5b-9e5b-0056917f71c6","ios":"levelo://app?vid=1291d072-bbf8-4e5b-9e5b-0056917f71c6"},"vehicle_type_id":"4","last_reported":1683543978,"current_range_meters":14400,"station_id":"ce4bhbp2rcd13ifvqerg","pricing_plan_id":"free"},{"bike_id":"0f8bd757-28da-494f-958b-2f075a5bc9b5","system_id":"levelo_inurba_marseille","lat":43.2827,"lon":5.35073,"is_reserved":false,"is_disabled":false,"rental_uris":{"android":"levelo://app?vid=0f8bd757-28da-494f-958b-2f075a5bc9b5","ios":"levelo://app?vid=0f8bd757-28da-494f-958b-2f075a5bc9b5"},"vehicle_type_id":"4","last_reported":1683543978,"current_range_meters":24800,"station_id":"ce4bhbp2rcd13ifvqerg","pricing_plan_id":"free"},{"bike_id":"1426cfa1-b262-4bfc-9679-04415df6a3db","system_id":"levelo_inurba_marseille","lat":43.28269,"lon":5.35073,"is_reserved":false,"is_disabled":false,"rental_uris":{"android":"levelo://app?vid=1426cfa1-b262-4bfc-9679-04415df6a3db","ios":"levelo://app?vid=1426cfa1-b262-4bfc-9679-04415df6a3db"},"vehicle_type_id":"4","last_reported":1683543978,"current_range_meters":20800,"station_id":"ce4bhbp2rcd13ifvqerg","pricing_plan_id":"free"},{"bike_id":"623ca7bf-8b02-43df-8455-60436dac4889","system_id":"levelo_inurba_marseille","lat":43.28267,"lon":5.35075,"is_reserved":false,"is_disabled":false,"rental_uris":{"android":"levelo://app?vid=623ca7bf-8b02-43df-8455-60436dac4889","ios":"levelo://app?vid=623ca7bf-8b02-43df-8455-60436dac4889"},"vehicle_type_id":"4","last_reported":1683543978,"current_range_meters":2400,"station_id":"ce4bhbp2rcd13ifvqerg","pricing_plan_id":"free"},{"bike_id":"137d4907-04a5-43b4-8718-b2f5cb241a7a","system_id":"levelo_inurba_marseille","lat":43.2827,"lon":5.35064,"is_reserved":false,"is_disabled":false,"rental_uris":{"android":"levelo://app?vid=137d4907-04a5-43b4-8718-b2f5cb241a7a","ios":"levelo://app?vid=137d4907-04a5-43b4-8718-b2f5cb241a7a"},"vehicle_type_id":"4","last_reported":1683543978,"current_range_meters":12800,"station_id":"ce4bhbp2rcd13ifvqerg","pricing_plan_id":"free"},{"bike_id":"0010e7fb-d7d1-48fc-b999-6263620ec172","system_id":"levelo_inurba_marseille","lat":43.282744,"lon":5.350533,"is_reserved":false,"is_disabled":false,"rental_uris":{"android":"levelo://app?vid=0010e7fb-d7d1-48fc-b999-6263620ec172","ios":"levelo://app?vid=0010e7fb-d7d1-48fc-b999-6263620ec172"},"vehicle_type_id":"4","last_reported":1683543978,"current_range_meters":31200,"station_id":"ce4bhbp2rcd13ifvqerg","pricing_plan_id":"free"},{"bike_id":"5938b6f9-2cfe-4710-bb19-e853c518f412","system_id":"levelo_inurba_marseille","lat":43.28265,"lon":5.35081,"is_reserved":false,"is_disabled":false,"rental_uris":{"android":"levelo://app?vid=5938b6f9-2cfe-4710-bb19-e853c518f412","ios":"levelo://app?vid=5938b6f9-2cfe-4710-bb19-e853c518f412"},"vehicle_type_id":"4","last_reported":1683543978,"current_range_meters":29600,"station_id":"","pricing_plan_id":"free"},{"bike_id":"76242f32-c407-44d4-84d7-fa1d50b0f9dc","system_id":"levelo_inurba_marseille","lat":43.32444,"lon":5.40831,"is_reserved":false,"is_disabled":false,"rental_uris":{"android":"levelo://app?vid=76242f32-c407-44d4-84d7-fa1d50b0f9dc","ios":"levelo://app?vid=76242f32-c407-44d4-84d7-fa1d50b0f9dc"},"vehicle_type_id":"4","last_reported":1683543978,"current_range_meters":0,"station_id":"","pricing_plan_id":"free"},{"bike_id":"9475d3fd-6453-4826-a501-08ab05101164","system_id":"levelo_inurba_marseille","lat":43.28267,"lon":5.3507,"is_reserved":false,"is_disabled":false,"rental_uris":{"android":"levelo://app?vid=9475d3fd-6453-4826-a501-08ab05101164","ios":"levelo://app?vid=9475d3fd-6453-4826-a501-08ab05101164"},"vehicle_type_id":"4","last_reported":1683543978,"current_range_meters":24800,"station_id":"ce4bhbp2rcd13ifvqerg","pricing_plan_id":"free"},{"bike_id":"7683cb1a-9544-4518-9844-f2fc429990df","system_id":"levelo_inurba_marseille","lat":43.2827,"lon":5.35059,"is_reserved":false,"is_disabled":false,"rental_uris":{"android":"levelo://app?vid=7683cb1a-9544-4518-9844-f2fc429990df","ios":"levelo://app?vid=7683cb1a-9544-4518-9844-f2fc429990df"},"vehicle_type_id":"4","last_reported":1683543978,"current_range_meters":28400,"station_id":"ce4bhbp2rcd13ifvqerg","pricing_plan_id":"free"},{"bike_id":"d0d4bf12-a6e0-43da-8aa6-0e82c9c8431f","system_id":"levelo_inurba_marseille","lat":43.28267,"lon":5.35069,"is_reserved":false,"is_disabled":false,"rental_uris":{"android":"levelo://app?vid=d0d4bf12-a6e0-43da-8aa6-0e82c9c8431f","ios":"levelo://app?vid=d0d4bf12-a6e0-43da-8aa6-0e82c9c8431f"},"vehicle_type_id":"4","last_reported":1683543978,"current_range_meters":28800,"station_id":"ce4bhbp2rcd13ifvqerg","pricing_plan_id":"free"},{"bike_id":"49a800bd-a158-4ac8-bc52-30014dfa9e05","system_id":"levelo_inurba_marseille","lat":43.28266,"lon":5.35064,"is_reserved":false,"is_disabled":false,"rental_uris":{"android":"levelo://app?vid=49a800bd-a158-4ac8-bc52-30014dfa9e05","ios":"levelo://app?vid=49a800bd-a158-4ac8-bc52-30014dfa9e05"},"vehicle_type_id":"4","last_reported":1683543978,"current_range_meters":26000,"station_id":"ce4bhbp2rcd13ifvqerg","pricing_plan_id":"free"},{"bike_id":"4be5e93e-ac06-4ca2-b04f-a84fc3f2f014","system_id":"levelo_inurba_marseille","lat":43.28263,"lon":5.35073,"is_reserved":false,"is_disabled":false,"rental_uris":{"android":"levelo://app?vid=4be5e93e-ac06-4ca2-b04f-a84fc3f2f014","ios":"levelo://app?vid=4be5e93e-ac06-4ca2-b04f-a84fc3f2f014"},"vehicle_type_id":"4","last_reported":1683543978,"current_range_meters":14800,"station_id":"ce4bhbp2rcd13ifvqerg","pricing_plan_id":"free"},{"bike_id":"c3080b70-104e-458c-8c95-32cdc433e160","system_id":"levelo_inurba_marseille","lat":43.28039,"lon":5.369297,"is_reserved":false,"is_disabled":false,"rental_uris":{"android":"levelo://app?vid=c3080b70-104e-458c-8c95-32cdc433e160","ios":"levelo://app?vid=c3080b70-104e-458c-8c95-32cdc433e160"},"vehicle_type_id":"4","last_reported":1683543978,"current_range_meters":2400,"station_id":"ce4bha12rcd13ifvqef0","pricing_plan_id":"free"},{"bike_id":"d4a4470c-6174-4d45-bba3-8faddf92ded4","system_id":"levelo_inurba_marseille","lat":43.28039,"lon":5.369297,"is_reserved":false,"is_disabled":false,"rental_uris":{"android":"levelo://app?vid=d4a4470c-6174-4d45-bba3-8faddf92ded4","ios":"levelo://app?vid=d4a4470c-6174-4d45-bba3-8faddf92ded4"},"vehicle_type_id":"4","last_reported":1683543978,"current_range_meters":26000,"station_id":"ce4bha12rcd13ifvqef0","pricing_plan_id":"free"},{"bike_id":"52739925-fecb-463e-bfe0-3806ea4c691c","system_id":"levelo_inurba_marseille","lat":43.280382,"lon":5.369291,"is_reserved":false,"is_disabled":false,"rental_uris":{"android":"levelo://app?vid=52739925-fecb-463e-bfe0-3806ea4c691c","ios":"levelo://app?vid=52739925-fecb-463e-bfe0-3806ea4c691c"},"vehicle_type_id":"4","last_reported":1683543978,"current_range_meters":16400,"station_id":"ce4bha12rcd13ifvqef0","pricing_plan_id":"free"},{"bike_id":"b2a5986f-5315-4a16-acb4-1636da3c100d","system_id":"levelo_inurba_marseille","lat":43.281044,"lon":5.378308,"is_reserved":false,"is_disabled":false,"rental_uris":{"android":"levelo://app?vid=b2a5986f-5315-4a16-acb4-1636da3c100d","ios":"levelo://app?vid=b2a5986f-5315-4a16-acb4-1636da3c100d"},"vehicle_type_id":"4","last_reported":1683543978,"current_range_meters":5200,"station_id":"ce4bha12rcd13ifvqee0","pricing_plan_id":"free"},{"bike_id":"4f5b8313-17e9-4794-a8ab-dcb1a969e87f","system_id":"levelo_inurba_marseille","lat":43.290412,"lon":5.399633,"is_reserved":false,"is_disabled":false,"rental_uris":{"android":"levelo://app?vid=4f5b8313-17e9-4794-a8ab-dcb1a969e87f","ios":"levelo://app?vid=4f5b8313-17e9-4794-a8ab-dcb1a969e87f"},"vehicle_type_id":"4","last_reported":1683543978,"current_range_meters":11200,"station_id":"ce4bh392rcd13ifvqdm0","pricing_plan_id":"free"},{"bike_id":"d65f008f-3e6d-4728-b43f-8926884c201a","system_id":"levelo_inurba_marseille","lat":43.281044,"lon":5.378308,"is_reserved":false,"is_disabled":false,"rental_uris":{"android":"levelo://app?vid=d65f008f-3e6d-4728-b43f-8926884c201a","ios":"levelo://app?vid=d65f008f-3e6d-4728-b43f-8926884c201a"},"vehicle_type_id":"4","last_reported":1683543978,"current_range_meters":12800,"station_id":"ce4bha12rcd13ifvqee0","pricing_plan_id":"free"},{"bike_id":"3ef21cb5-018c-4838-99a5-f1bad9857f7a","system_id":"levelo_inurba_marseille","lat":43.281044,"lon":5.378308,"is_reserved":false,"is_disabled":false,"rental_uris":{"android":"levelo://app?vid=3ef21cb5-018c-4838-99a5-f1bad9857f7a","ios":"levelo://app?vid=3ef21cb5-018c-4838-99a5-f1bad9857f7a"},"vehicle_type_id":"4","last_reported":1683543978,"current_range_meters":19200,"station_id":"ce4bha12rcd13ifvqee0","pricing_plan_id":"free"},{"bike_id":"ec3d4c8e-3736-48e2-871d-522a0f714856","system_id":"levelo_inurba_marseille","lat":43.281044,"lon":5.378308,"is_reserved":false,"is_disabled":false,"rental_uris":{"android":"levelo://app?vid=ec3d4c8e-3736-48e2-871d-522a0f714856","ios":"levelo://app?vid=ec3d4c8e-3736-48e2-871d-522a0f714856"},"vehicle_type_id":"4","last_reported":1683543978,"current_range_meters":20400,"station_id":"ce4bha12rcd13ifvqee0","pricing_plan_id":"free"},{"bike_id":"22fe0567-dd3b-4dcc-87bd-0d198ce3ebfd","system_id":"levelo_inurba_marseille","lat":43.281044,"lon":5.378308,"is_reserved":false,"is_disabled":false,"rental_uris":{"android":"levelo://app?vid=22fe0567-dd3b-4dcc-87bd-0d198ce3ebfd","ios":"levelo://app?vid=22fe0567-dd3b-4dcc-87bd-0d198ce3ebfd"},"vehicle_type_id":"4","last_reported":1683543978,"current_range_meters":23200,"station_id":"ce4bha12rcd13ifvqee0","pricing_plan_id":"free"},{"bike_id":"63d77255-5e08-488d-84a1-9e4f9da5e3c7","system_id":"levelo_inurba_marseille","lat":43.28573,"lon":5.394992,"is_reserved":false,"is_disabled":false,"rental_uris":{"android":"levelo://app?vid=63d77255-5e08-488d-84a1-9e4f9da5e3c7","ios":"levelo://app?vid=63d77255-5e08-488d-84a1-9e4f9da5e3c7"},"vehicle_type_id":"4","last_reported":1683543978,"current_range_meters":23600,"station_id":"ce4bh292rcd13ifvqdg0","pricing_plan_id":"free"},{"bike_id":"de7ea1e6-fa43-469e-b37b-7f7dd52fa4a5","system_id":"levelo_inurba_marseille","lat":43.32616,"lon":5.41047,"is_reserved":false,"is_disabled":false,"rental_uris":{"android":"levelo://app?vid=de7ea1e6-fa43-469e-b37b-7f7dd52fa4a5","ios":"levelo://app?vid=de7ea1e6-fa43-469e-b37b-7f7dd52fa4a5"},"vehicle_type_id":"4","last_reported":1683543978,"current_range_meters":2800,"station_id":"ce4bhpp2rcd13ifvqhgg","pricing_plan_id":"free"},{"bike_id":"9c7d69a6-2d06-42c0-82fa-a385c3c12ffd","system_id":"levelo_inurba_marseille","lat":43.28135,"lon":5.34622,"is_reserved":false,"is_disabled":false,"rental_uris":{"android":"levelo://app?vid=9c7d69a6-2d06-42c0-82fa-a385c3c12ffd","ios":"levelo://app?vid=9c7d69a6-2d06-42c0-82fa-a385c3c12ffd"},"vehicle_type_id":"4","last_reported":1683543978,"current_range_meters":9200,"station_id":"","pricing_plan_id":"free"},{"bike_id":"002f065b-b78d-4eae-bbdf-f115c999e32c","system_id":"levelo_inurba_marseille","lat":43.320045,"lon":5.415048,"is_reserved":false,"is_disabled":false,"rental_uris":{"android":"levelo://app?vid=002f065b-b78d-4eae-bbdf-f115c999e32c","ios":"levelo://app?vid=002f065b-b78d-4eae-bbdf-f115c999e32c"},"vehicle_type_id":"4","last_reported":1683543978,"current_range_meters":24800,"station_id":"ce4bhq92rcd13ifvqhkg","pricing_plan_id":"free"},{"bike_id":"f2ace3a6-ef21-4aac-84f5-648f8e799c22","system_id":"levelo_inurba_marseille","lat":43.299577,"lon":5.413277,"is_reserved":false,"is_disabled":false,"rental_uris":{"android":"levelo://app?vid=f2ace3a6-ef21-4aac-84f5-648f8e799c22","ios":"levelo://app?vid=f2ace3a6-ef21-4aac-84f5-648f8e799c22"},"vehicle_type_id":"4","last_reported":1683543978,"current_range_meters":30000,"station_id":"ce4bhp12rcd13ifvqh9g","pricing_plan_id":"free"},{"bike_id":"61de6e0d-fb85-4a11-be1e-d6b66c70e872","system_id":"levelo_inurba_marseille","lat":43.299577,"lon":5.413277,"is_reserved":false,"is_disabled":false,"rental_uris":{"android":"levelo://app?vid=61de6e0d-fb85-4a11-be1e-d6b66c70e872","ios":"levelo://app?vid=61de6e0d-fb85-4a11-be1e-d6b66c70e872"},"vehicle_type_id":"4","last_reported":1683543978,"current_range_meters":31200,"station_id":"ce4bhp12rcd13ifvqh9g","pricing_plan_id":"free"},{"bike_id":"2973726b-ebd2-4274-9faf-5a43cd56390a","system_id":"levelo_inurba_marseille","lat":43.320045,"lon":5.415048,"is_reserved":false,"is_disabled":false,"rental_uris":{"android":"levelo://app?vid=2973726b-ebd2-4274-9faf-5a43cd56390a","ios":"levelo://app?vid=2973726b-ebd2-4274-9faf-5a43cd56390a"},"vehicle_type_id":"4","last_reported":1683543978,"current_range_meters":24400,"station_id":"ce4bhq92rcd13ifvqhkg","pricing_plan_id":"free"},{"bike_id":"baf6391e-690a-4d59-a8f3-7bc6637b2885","system_id":"levelo_inurba_marseille","lat":43.320045,"lon":5.415048,"is_reserved":false,"is_disabled":false,"rental_uris":{"android":"levelo://app?vid=baf6391e-690a-4d59-a8f3-7bc6637b2885","ios":"levelo://app?vid=baf6391e-690a-4d59-a8f3-7bc6637b2885"},"vehicle_type_id":"4","last_reported":1683543978,"current_range_meters":20800,"station_id":"ce4bhq92rcd13ifvqhkg","pricing_plan_id":"free"},{"bike_id":"0180b0cc-9c33-48d5-84ad-193feaa7c864","system_id":"levelo_inurba_marseille","lat":43.29263,"lon":5.40907,"is_reserved":false,"is_disabled":false,"rental_uris":{"android":"levelo://app?vid=0180b0cc-9c33-48d5-84ad-193feaa7c864","ios":"levelo://app?vid=0180b0cc-9c33-48d5-84ad-193feaa7c864"},"vehicle_type_id":"4","last_reported":1683543978,"current_range_meters":15600,"station_id":"ce4bh192rcd13ifvqdc0","pricing_plan_id":"free"},{"bike_id":"1e12c9cc-e46f-4db5-96a1-e9619a12fafe","system_id":"levelo_inurba_marseille","lat":43.325233,"lon":5.414318,"is_reserved":false,"is_disabled":false,"rental_uris":{"android":"levelo://app?vid=1e12c9cc-e46f-4db5-96a1-e9619a12fafe","ios":"levelo://app?vid=1e12c9cc-e46f-4db5-96a1-e9619a12fafe"},"vehicle_type_id":"4","last_reported":1683543978,"current_range_meters":31600,"station_id":"ce4bhq12rcd13ifvqhhg","pricing_plan_id":"free"},{"bike_id":"61f420b0-f1b3-468f-9dcd-bff90ce0f0e9","system_id":"levelo_inurba_marseille","lat":43.27618,"lon":5.361009,"is_reserved":false,"is_disabled":false,"rental_uris":{"android":"levelo://app?vid=61f420b0-f1b3-468f-9dcd-bff90ce0f0e9","ios":"levelo://app?vid=61f420b0-f1b3-468f-9dcd-bff90ce0f0e9"},"vehicle_type_id":"4","last_reported":1683543978,"current_range_meters":30000,"station_id":"ce4bgj92rcd13ifvqbe0","pricing_plan_id":"free"},{"bike_id":"98e8fc1f-8ca2-4e2c-a083-1efe6e8e661a","system_id":"levelo_inurba_marseille","lat":43.325233,"lon":5.414318,"is_reserved":false,"is_disabled":false,"rental_uris":{"android":"levelo://app?vid=98e8fc1f-8ca2-4e2c-a083-1efe6e8e661a","ios":"levelo://app?vid=98e8fc1f-8ca2-4e2c-a083-1efe6e8e661a"},"vehicle_type_id":"4","last_reported":1683543978,"current_range_meters":28400,"station_id":"ce4bhq12rcd13ifvqhhg","pricing_plan_id":"free"},{"bike_id":"e31e1ed3-021b-4547-a82f-d502a1fa601e","system_id":"levelo_inurba_marseille","lat":43.325233,"lon":5.414318,"is_reserved":false,"is_disabled":false,"rental_uris":{"android":"levelo://app?vid=e31e1ed3-021b-4547-a82f-d502a1fa601e","ios":"levelo://app?vid=e31e1ed3-021b-4547-a82f-d502a1fa601e"},"vehicle_type_id":"4","last_reported":1683543978,"current_range_meters":12000,"station_id":"ce4bhq12rcd13ifvqhhg","pricing_plan_id":"free"},{"bike_id":"1cbe7a30-8218-45d3-a325-6a9ce7afcee6","system_id":"levelo_inurba_marseille","lat":43.27618,"lon":5.361009,"is_reserved":false,"is_disabled":false,"rental_uris":{"android":"levelo://app?vid=1cbe7a30-8218-45d3-a325-6a9ce7afcee6","ios":"levelo://app?vid=1cbe7a30-8218-45d3-a325-6a9ce7afcee6"},"vehicle_type_id":"4","last_reported":1683543978,"current_range_meters":31600,"station_id":"ce4bgj92rcd13ifvqbe0","pricing_plan_id":"free"},{"bike_id":"1c2a22c5-6330-4a39-9235-617c098450bf","system_id":"levelo_inurba_marseille","lat":43.27618,"lon":5.361009,"is_reserved":false,"is_disabled":false,"rental_uris":{"android":"levelo://app?vid=1c2a22c5-6330-4a39-9235-617c098450bf","ios":"levelo://app?vid=1c2a22c5-6330-4a39-9235-617c098450bf"},"vehicle_type_id":"4","last_reported":1683543978,"current_range_meters":11600,"station_id":"ce4bgj92rcd13ifvqbe0","pricing_plan_id":"free"},{"bike_id":"eb4f510a-b4f2-4513-9e9f-c4b14f0b0170","system_id":"levelo_inurba_marseille","lat":43.325233,"lon":5.414318,"is_reserved":false,"is_disabled":false,"rental_uris":{"android":"levelo://app?vid=eb4f510a-b4f2-4513-9e9f-c4b14f0b0170","ios":"levelo://app?vid=eb4f510a-b4f2-4513-9e9f-c4b14f0b0170"},"vehicle_type_id":"4","last_reported":1683543978,"current_range_meters":32000,"station_id":"ce4bhq12rcd13ifvqhhg","pricing_plan_id":"free"},{"bike_id":"ac19d7fd-ec2f-4f19-a106-96d79320ee4d","system_id":"levelo_inurba_marseille","lat":43.27618,"lon":5.361009,"is_reserved":false,"is_disabled":false,"rental_uris":{"android":"levelo://app?vid=ac19d7fd-ec2f-4f19-a106-96d79320ee4d","ios":"levelo://app?vid=ac19d7fd-ec2f-4f19-a106-96d79320ee4d"},"vehicle_type_id":"4","last_reported":1683543978,"current_range_meters":6400,"station_id":"ce4bgj92rcd13ifvqbe0","pricing_plan_id":"free"},{"bike_id":"5b6d23db-9482-4dfa-ad4d-0a12ff12f09b","system_id":"levelo_inurba_marseille","lat":43.325233,"lon":5.414318,"is_reserved":false,"is_disabled":false,"rental_uris":{"android":"levelo://app?vid=5b6d23db-9482-4dfa-ad4d-0a12ff12f09b","ios":"levelo://app?vid=5b6d23db-9482-4dfa-ad4d-0a12ff12f09b"},"vehicle_type_id":"4","last_reported":1683543978,"current_range_meters":17600,"station_id":"ce4bhq12rcd13ifvqhhg","pricing_plan_id":"free"},{"bike_id":"f9764df3-4651-4fa2-a4e5-661ee224c0dc","system_id":"levelo_inurba_marseille","lat":43.276179,"lon":5.361009,"is_reserved":false,"is_disabled":false,"rental_uris":{"android":"levelo://app?vid=f9764df3-4651-4fa2-a4e5-661ee224c0dc","ios":"levelo://app?vid=f9764df3-4651-4fa2-a4e5-661ee224c0dc"},"vehicle_type_id":"4","last_reported":1683543978,"current_range_meters":16000,"station_id":"ce4bgj92rcd13ifvqbe0","pricing_plan_id":"free"},{"bike_id":"a1038d55-a182-4647-b312-0591199e9189","system_id":"levelo_inurba_marseille","lat":43.325233,"lon":5.414318,"is_reserved":false,"is_disabled":false,"rental_uris":{"android":"levelo://app?vid=a1038d55-a182-4647-b312-0591199e9189","ios":"levelo://app?vid=a1038d55-a182-4647-b312-0591199e9189"},"vehicle_type_id":"4","last_reported":1683543978,"current_range_meters":32000,"station_id":"ce4bhq12rcd13ifvqhhg","pricing_plan_id":"free"},{"bike_id":"2f7e5d7c-56b8-4085-9693-fae39fa688b3","system_id":"levelo_inurba_marseille","lat":43.32552,"lon":5.41448,"is_reserved":false,"is_disabled":false,"rental_uris":{"android":"levelo://app?vid=2f7e5d7c-56b8-4085-9693-fae39fa688b3","ios":"levelo://app?vid=2f7e5d7c-56b8-4085-9693-fae39fa688b3"},"vehicle_type_id":"4","last_reported":1683543978,"current_range_meters":27200,"station_id":"","pricing_plan_id":"free"},{"bike_id":"d12ec49d-0c1d-4a93-a1d3-6b67fcd32ee2","system_id":"levelo_inurba_marseille","lat":43.27543,"lon":5.35977,"is_reserved":false,"is_disabled":false,"rental_uris":{"android":"levelo://app?vid=d12ec49d-0c1d-4a93-a1d3-6b67fcd32ee2","ios":"levelo://app?vid=d12ec49d-0c1d-4a93-a1d3-6b67fcd32ee2"},"vehicle_type_id":"4","last_reported":1683543978,"current_range_meters":4400,"station_id":"ce4bgj92rcd13ifvqbe0","pricing_plan_id":"free"},{"bike_id":"8c0d0c2f-87a5-4954-badf-59feacb5863e","system_id":"levelo_inurba_marseille","lat":43.28082,"lon":5.39659,"is_reserved":false,"is_disabled":false,"rental_uris":{"android":"levelo://app?vid=8c0d0c2f-87a5-4954-badf-59feacb5863e","ios":"levelo://app?vid=8c0d0c2f-87a5-4954-badf-59feacb5863e"},"vehicle_type_id":"4","last_reported":1683543978,"current_range_meters":0,"station_id":"ce4bho12rcd13ifvqh2g","pricing_plan_id":"free"},{"bike_id":"42b8f9ac-e2a4-47b6-8ca3-b2dd79801173","system_id":"levelo_inurba_marseille","lat":43.273613,"lon":5.362705,"is_reserved":false,"is_disabled":false,"rental_uris":{"android":"levelo://app?vid=42b8f9ac-e2a4-47b6-8ca3-b2dd79801173","ios":"levelo://app?vid=42b8f9ac-e2a4-47b6-8ca3-b2dd79801173"},"vehicle_type_id":"4","last_reported":1683543978,"current_range_meters":6000,"station_id":"ce4bhbh2rcd13ifvqeo0","pricing_plan_id":"free"},{"bike_id":"910c5ed1-0c86-4106-9bc5-51ca111d7739","system_id":"levelo_inurba_marseille","lat":43.27379,"lon":5.36252,"is_reserved":false,"is_disabled":false,"rental_uris":{"android":"levelo://app?vid=910c5ed1-0c86-4106-9bc5-51ca111d7739","ios":"levelo://app?vid=910c5ed1-0c86-4106-9bc5-51ca111d7739"},"vehicle_type_id":"4","last_reported":1683543978,"current_range_meters":0,"station_id":"ce4bhbh2rcd13ifvqeo0","pricing_plan_id":"free"},{"bike_id":"917010e9-146a-49bb-847a-43f85ccba8c3","system_id":"levelo_inurba_marseille","lat":43.273613,"lon":5.362705,"is_reserved":false,"is_disabled":false,"rental_uris":{"android":"levelo://app?vid=917010e9-146a-49bb-847a-43f85ccba8c3","ios":"levelo://app?vid=917010e9-146a-49bb-847a-43f85ccba8c3"},"vehicle_type_id":"4","last_reported":1683543978,"current_range_meters":16400,"station_id":"ce4bhbh2rcd13ifvqeo0","pricing_plan_id":"free"},{"bike_id":"21b23107-ef1a-4c23-ac17-2895ce3d923e","system_id":"levelo_inurba_marseille","lat":43.273613,"lon":5.362705,"is_reserved":false,"is_disabled":false,"rental_uris":{"android":"levelo://app?vid=21b23107-ef1a-4c23-ac17-2895ce3d923e","ios":"levelo://app?vid=21b23107-ef1a-4c23-ac17-2895ce3d923e"},"vehicle_type_id":"4","last_reported":1683543978,"current_range_meters":15600,"station_id":"ce4bhbh2rcd13ifvqeo0","pricing_plan_id":"free"},{"bike_id":"fd21131b-c049-487d-bffb-c12c88eb5442","system_id":"levelo_inurba_marseille","lat":43.273613,"lon":5.362705,"is_reserved":false,"is_disabled":false,"rental_uris":{"android":"levelo://app?vid=fd21131b-c049-487d-bffb-c12c88eb5442","ios":"levelo://app?vid=fd21131b-c049-487d-bffb-c12c88eb5442"},"vehicle_type_id":"4","last_reported":1683543978,"current_range_meters":25200,"station_id":"ce4bhbh2rcd13ifvqeo0","pricing_plan_id":"free"},{"bike_id":"de259f98-5707-45d0-8351-bcd6d903837b","system_id":"levelo_inurba_marseille","lat":43.273609,"lon":5.362708,"is_reserved":false,"is_disabled":false,"rental_uris":{"android":"levelo://app?vid=de259f98-5707-45d0-8351-bcd6d903837b","ios":"levelo://app?vid=de259f98-5707-45d0-8351-bcd6d903837b"},"vehicle_type_id":"4","last_reported":1683543978,"current_range_meters":27200,"station_id":"ce4bhbh2rcd13ifvqeo0","pricing_plan_id":"free"},{"bike_id":"5c45b351-8e45-4ce5-b467-e516e498c069","system_id":"levelo_inurba_marseille","lat":43.273609,"lon":5.362708,"is_reserved":false,"is_disabled":false,"rental_uris":{"android":"levelo://app?vid=5c45b351-8e45-4ce5-b467-e516e498c069","ios":"levelo://app?vid=5c45b351-8e45-4ce5-b467-e516e498c069"},"vehicle_type_id":"4","last_reported":1683543978,"current_range_meters":4400,"station_id":"ce4bhbh2rcd13ifvqeo0","pricing_plan_id":"free"},{"bike_id":"3f0c2974-eaa9-4702-9b5d-c19311382717","system_id":"levelo_inurba_marseille","lat":43.273613,"lon":5.362705,"is_reserved":false,"is_disabled":false,"rental_uris":{"android":"levelo://app?vid=3f0c2974-eaa9-4702-9b5d-c19311382717","ios":"levelo://app?vid=3f0c2974-eaa9-4702-9b5d-c19311382717"},"vehicle_type_id":"4","last_reported":1683543978,"current_range_meters":31600,"station_id":"ce4bhbh2rcd13ifvqeo0","pricing_plan_id":"free"},{"bike_id":"5bad95ee-15b4-4563-8dae-a9e73b24b764","system_id":"levelo_inurba_marseille","lat":43.273613,"lon":5.362705,"is_reserved":false,"is_disabled":false,"rental_uris":{"android":"levelo://app?vid=5bad95ee-15b4-4563-8dae-a9e73b24b764","ios":"levelo://app?vid=5bad95ee-15b4-4563-8dae-a9e73b24b764"},"vehicle_type_id":"4","last_reported":1683543978,"current_range_meters":28400,"station_id":"ce4bhbh2rcd13ifvqeo0","pricing_plan_id":"free"},{"bike_id":"0a3b1139-2ca3-43a5-928a-844ddb7944fe","system_id":"levelo_inurba_marseille","lat":43.27366,"lon":5.36247,"is_reserved":false,"is_disabled":false,"rental_uris":{"android":"levelo://app?vid=0a3b1139-2ca3-43a5-928a-844ddb7944fe","ios":"levelo://app?vid=0a3b1139-2ca3-43a5-928a-844ddb7944fe"},"vehicle_type_id":"4","last_reported":1683543978,"current_range_meters":0,"station_id":"ce4bhbh2rcd13ifvqeo0","pricing_plan_id":"free"},{"bike_id":"0c13beec-da10-45bd-a9c8-9bc4b613fc82","system_id":"levelo_inurba_marseille","lat":43.27665,"lon":5.38889,"is_reserved":false,"is_disabled":false,"rental_uris":{"android":"levelo://app?vid=0c13beec-da10-45bd-a9c8-9bc4b613fc82","ios":"levelo://app?vid=0c13beec-da10-45bd-a9c8-9bc4b613fc82"},"vehicle_type_id":"4","last_reported":1683543978,"current_range_meters":0,"station_id":"ce4bhi12rcd13ifvqfo0","pricing_plan_id":"free"},{"bike_id":"3c74701a-f6a0-435d-9b34-35e94fed7183","system_id":"levelo_inurba_marseille","lat":43.32792,"lon":5.41803,"is_reserved":false,"is_disabled":false,"rental_uris":{"android":"levelo://app?vid=3c74701a-f6a0-435d-9b34-35e94fed7183","ios":"levelo://app?vid=3c74701a-f6a0-435d-9b34-35e94fed7183"},"vehicle_type_id":"4","last_reported":1683543978,"current_range_meters":14000,"station_id":"","pricing_plan_id":"free"},{"bike_id":"431dd2df-89ec-45d8-b518-26c549834949","system_id":"levelo_inurba_marseille","lat":43.317121,"lon":5.423936,"is_reserved":false,"is_disabled":false,"rental_uris":{"android":"levelo://app?vid=431dd2df-89ec-45d8-b518-26c549834949","ios":"levelo://app?vid=431dd2df-89ec-45d8-b518-26c549834949"},"vehicle_type_id":"4","last_reported":1683543978,"current_range_meters":28400,"station_id":"ce4bhp92rcd13ifvqhbg","pricing_plan_id":"free"},{"bike_id":"0d7a173a-1607-4cea-ac66-3eb06a6844b1","system_id":"levelo_inurba_marseille","lat":43.317121,"lon":5.423936,"is_reserved":false,"is_disabled":false,"rental_uris":{"android":"levelo://app?vid=0d7a173a-1607-4cea-ac66-3eb06a6844b1","ios":"levelo://app?vid=0d7a173a-1607-4cea-ac66-3eb06a6844b1"},