{"last_updated":1712344030,"ttl":30,"version":"2.2","data":{"bikes":[{"bike_id":"b51c0551-c13c-40c2-86d3-6ee923ef1efa","system_id":"levelo_inurba_marseille","lat":43.312239,"lon":5.368562,"is_reserved":false,"is_disabled":false,"rental_uris":{"android":"levelo://app?vid=b51c0551-c13c-40c2-86d3-6ee923ef1efa","ios":"levelo://app?vid=b51c0551-c13c-40c2-86d3-6ee923ef1efa"},"vehicle_type_id":"4","last_reported":1712344030,"current_range_meters":22400,"station_id":"ce4bgl92rcd13ifvqbq0","pricing_plan_id":"cebpf4jnsgd1na2vs0mg"},{"bike_id":"72dabcdf-9c12-4a94-a9a7-3da0fd883f0c","system_id":"levelo_inurba_marseille","lat":43.312239,"lon":5.368562,"is_reserved":false,"is_disabled":false,"rental_uris":{"android":"levelo://app?vid=72dabcdf-9c12-4a94-a9a7-3da0fd883f0c","ios":"levelo://app?vid=72dabcdf-9c12-4a94-a9a7-3da0fd883f0c"},"vehicle_type_id":"4","last_reported":1712344030,"current_range_meters":400,"station_id":"ce4bgl92rcd13ifvqbq0","pricing_plan_id":"cebpf4jnsgd1na2vs0mg"},{"bike_id":"bb6337d2-cff1-4393-aaad-97d2ec860fae","system_id":"levelo_inurba_marseille","lat":43.3092,"lon":5.36843,"is_reserved":false,"is_disabled":false,"rental_uris":{"android":"levelo://app?vid=bb6337d2-cff1-4393-aaad-97d2ec860fae","ios":"levelo://app?vid=bb6337d2-cff1-4393-aaad-97d2ec860fae"},"vehicle_type_id":"4","last_reported":1712344030,"current_range_meters":400,"station_id":"ce4bgn92rcd13ifvqbvg","pricing_plan_id":"cebpf4jnsgd1na2vs0mg"},{"bike_id":"e69efe2e-a85f-4d1f-bf21-70570abb6e8d","system_id":"levelo_inurba_marseille","lat":43.30909,"lon":5.36848,"is_reserved":false,"is_disabled":false,"rental_uris":{"android":"levelo://app?vid=e69efe2e-a85f-4d1f-bf21-70570abb6e8d","ios":"levelo://app?vid=e69efe2e-a85f-4d1f-bf21-70570abb6e8d"},"vehicle_type_id":"4","last_reported":1712344030,"current_range_meters":0,"station_id":"ce4bgn92rcd13ifvqbvg","pricing_plan_id":"cebpf4jnsgd1na2vs0mg"},{"bike_id":"e2382bd2-c01d-4eee-a041-0f7b3cfa2c03","system_id":"levelo_inurba_marseille","lat":43.309076,"lon":5.368465,"is_reserved":false,"is_disabled":false,"rental_uris":{"android":"levelo://app?vid=e2382bd2-c01d-4eee-a041-0f7b3cfa2c03","ios":"levelo://app?vid=e2382bd2-c01d-4eee-a041-0f7b3cfa2c03"},"vehicle_type_id":"4","last_reported":1712344030,"current_range_meters":0,"station_id":"ce4bgn92rcd13ifvqbvg","pricing_plan_id":"cebpf4jnsgd1na2vs0mg"},{"bike_id":"4b8e5fed-0f98-4962-8a50-81f545644f07","system_id":"levelo_inurba_marseille","lat":43.309076,"lon":5.368465,"is_reserved":false,"is_disabled":false,"rental_uris":{"android":"levelo://app?vid=4b8e5fed-0f98-4962-8a50-81f545644f07","ios":"levelo://app?vid=4b8e5fed-0f98-4962-8a50-81f545644f07"},"vehicle_type_id":"4","last_reported":1712344030,"current_range_meters":0,"station_id":"ce4bgn92rcd13ifvqbvg","pricing_plan_id":"cebpf4jnsgd1na2vs0mg"},{"bike_id":"63420b21-8975-4512-bce6-01b012b3f354","system_id":"levelo_inurba_marseille","lat":43.305989,"lon":5.37225,"is_reserved":false,"is_disabled":false,"rental_uris":{"android":"levelo://app?vid=63420b21-8975-4512-bce6-01b012b3f354","ios":"levelo://app?vid=63420b21-8975-4512-bce6-01b012b3f354"},"vehicle_type_id":"4","last_reported":1712344030,"current_range_meters":0,"station_id":"ce4bgqh2rcd13ifvqc4g","pricing_plan_id":"cebpf4jnsgd1na2vs0mg"},{"bike_id":"6cc17985-e46f-4be4-9eb6-d50c18079039","system_id":"levelo_inurba_marseille","lat":43.324771,"lon":5.36557,"is_reserved":false,"is_disabled":false,"rental_uris":{"android":"levelo://app?vid=6cc17985-e46f-4be4-9eb6-d50c18079039","ios":"levelo://app?vid=6cc17985-e46f-4be4-9eb6-d50c18079039"},"vehicle_type_id":"4","last_reported":1712344030,"current_range_meters":4400,"station_id":"ce4bhs12rcd13ifvqhvg","pricing_plan_id":"cebpf4jnsgd1na2vs0mg"},{"bike_id":"3b97ac33-5941-4645-a12c-84a109b073e5","system_id":"levelo_inurba_marseille","lat":43.309039,"lon":5.371797,"is_reserved":false,"is_disabled":false,"rental_uris":{"android":"levelo://app?vid=3b97ac33-5941-4645-a12c-84a109b073e5","ios":"levelo://app?vid=3b97ac33-5941-4645-a12c-84a109b073e5"},"vehicle_type_id":"4","last_reported":1712344030,"current_range_meters":2000,"station_id":"ce4bguh2rcd13ifvqckg","pricing_plan_id":"cebpf4jnsgd1na2vs0mg"},{"bike_id":"fd55fdfa-3559-47be-8551-7f43d67b32ce","system_id":"levelo_inurba_marseille","lat":43.309039,"lon":5.371797,"is_reserved":false,"is_disabled":false,"rental_uris":{"android":"levelo://app?vid=fd55fdfa-3559-47be-8551-7f43d67b32ce","ios":"levelo://app?vid=fd55fdfa-3559-47be-8551-7f43d67b32ce"},"vehicle_type_id":"4","last_reported":1712344030,"current_range_meters":11200,"station_id":"ce4bguh2rcd13ifvqckg","pricing_plan_id":"cebpf4jnsgd1na2vs0mg"},{"bike_id":"865868ae-7b17-4649-a406-68059cb0a05d","system_id":"levelo_inurba_marseille","lat":43.309039,"lon":5.371797,"is_reserved":false,"is_disabled":false,"rental_uris":{"android":"levelo://app?vid=865868ae-7b17-4649-a406-68059cb0a05d","ios":"levelo://app?vid=865868ae-7b17-4649-a406-68059cb0a05d"},"vehicle_type_id":"4","last_reported":1712344030,"current_range_meters":14400,"station_id":"ce4bguh2rcd13ifvqckg","pricing_plan_id":"cebpf4jnsgd1na2vs0mg"},{"bike_id":"a523551b-bb25-4f4f-afcb-df32d7a1a708","system_id":"levelo_inurba_marseille","lat":43.305368,"lon":5.367343,"is_reserved":false,"is_disabled":false,"rental_uris":{"android":"levelo://app?vid=a523551b-bb25-4f4f-afcb-df32d7a1a708","ios":"levelo://app?vid=a523551b-bb25-4f4f-afcb-df32d7a1a708"},"vehicle_type_id":"4","last_reported":1712344030,"current_range_meters":14400,"station_id":"ce4bgrp2rcd13ifvqc9g","pricing_plan_id":"cebpf4jnsgd1na2vs0mg"},{"bike_id":"0ab626cc-e365-4ceb-b3a7-f3d86ce1e278","system_id":"levelo_inurba_marseille","lat":43.305989,"lon":5.37225,"is_reserved":false,"is_disabled":false,"rental_uris":{"android":"levelo://app?vid=0ab626cc-e365-4ceb-b3a7-f3d86ce1e278","ios":"levelo://app?vid=0ab626cc-e365-4ceb-b3a7-f3d86ce1e278"},"vehicle_type_id":"4","last_reported":1712344030,"current_range_meters":5600,"station_id":"ce4bgqh2rcd13ifvqc4g","pricing_plan_id":"cebpf4jnsgd1na2vs0mg"},{"bike_id":"b89cbe3a-9816-4eef-8b03-b8b0bc580a04","system_id":"levelo_inurba_marseille","lat":43.305989,"lon":5.37225,"is_reserved":false,"is_disabled":false,"rental_uris":{"android":"levelo://app?vid=b89cbe3a-9816-4eef-8b03-b8b0bc580a04","ios":"levelo://app?vid=b89cbe3a-9816-4eef-8b03-b8b0bc580a04"},"vehicle_type_id":"4","last_reported":1712344030,"current_range_meters":7600,"station_id":"ce4bgqh2rcd13ifvqc4g","pricing_plan_id":"cebpf4jnsgd1na2vs0mg"},{"bike_id":"c085e33f-5950-491f-93a6-bf3190df5450","system_id":"levelo_inurba_marseille","lat":43.305989,"lon":5.37225,"is_reserved":false,"is_disabled":false,"rental_uris":{"android":"levelo://app?vid=c085e33f-5950-491f-93a6-bf3190df5450","ios":"levelo://app?vid=c085e33f-5950-491f-93a6-bf3190df5450"},"vehicle_type_id":"4","last_reported":1712344030,"current_range_meters":27600,"station_id":"ce4bgqh2rcd13ifvqc4g","pricing_plan_id":"cebpf4jnsgd1na2vs0mg"},{"bike_id":"b5fb7945-dbfd-4b7c-a4b8-d565424c40f3","system_id":"levelo_inurba_marseille","lat":43.305989,"lon":5.37225,"is_reserved":false,"is_disabled":false,"rental_uris":{"android":"levelo://app?vid=b5fb7945-dbfd-4b7c-a4b8-d565424c40f3","ios":"levelo://app?vid=b5fb7945-dbfd-4b7c-a4b8-d565424c40f3"},"vehicle_type_id":"4","last_reported":1712344030,"current_range_meters":0,"station_id":"ce4bgqh2rcd13ifvqc4g","pricing_plan_id":"cebpf4jnsgd1na2vs0mg"},{"bike_id":"0c9a903e-0fcc-430f-b932-424fe943c046","system_id":"levelo_inurba_marseille","lat":43.31122,"lon":5.37756,"is_reserved":false,"is_disabled":false,"rental_uris":{"android":"levelo://app?vid=0c9a903e-0fcc-430f-b932-424fe943c046","ios":"levelo://app?vid=0c9a903e-0fcc-430f-b932-424fe943c046"},"vehicle_type_id":"4","last_reported":1712344030,"current_range_meters":0,"station_id":"ce4bgt92rcd13ifvqcg0","pricing_plan_id":"cebpf4jnsgd1na2vs0mg"},{"bike_id":"2a0e1734-9893-4751-96e6-ee5c9a95810e","system_id":"levelo_inurba_marseille","lat":43.311131,"lon":5.377651,"is_reserved":false,"is_disabled":false,"rental_uris":{"android":"levelo://app?vid=2a0e1734-9893-4751-96e6-ee5c9a95810e","ios":"levelo://app?vid=2a0e1734-9893-4751-96e6-ee5c9a95810e"},"vehicle_type_id":"4","last_reported":1712344030,"current_range_meters":0,"station_id":"ce4bgt92rcd13ifvqcg0","pricing_plan_id":"cebpf4jnsgd1na2vs0mg"},{"bike_id":"ebcc9eb6-f684-4bdc-b9ef-69708efd7eaa","system_id":"levelo_inurba_marseille","lat":43.311143,"lon":5.377726,"is_reserved":false,"is_disabled":false,"rental_uris":{"android":"levelo://app?vid=ebcc9eb6-f684-4bdc-b9ef-69708efd7eaa","ios":"levelo://app?vid=ebcc9eb6-f684-4bdc-b9ef-69708efd7eaa"},"vehicle_type_id":"4","last_reported":1712344030,"current_range_meters":0,"station_id":"ce4bgt92rcd13ifvqcg0","pricing_plan_id":"cebpf4jnsgd1na2vs0mg"},{"bike_id":"4c9ac561-7fbe-4f54-bd04-59f569ecd8e0","system_id":"levelo_inurba_marseille","lat":43.31127,"lon":5.37781,"is_reserved":false,"is_disabled":false,"rental_uris":{"android":"levelo://app?vid=4c9ac561-7fbe-4f54-bd04-59f569ecd8e0","ios":"levelo://app?vid=4c9ac561-7fbe-4f54-bd04-59f569ecd8e0"},"vehicle_type_id":"4","last_reported":1712344030,"current_range_meters":8000,"station_id":"","pricing_plan_id":"cebpf4jnsgd1na2vs0mg"},{"bike_id":"bbfed310-f5ca-41c8-bf3a-f83cd6959697","system_id":"levelo_inurba_marseille","lat":43.313254,"lon":5.37881,"is_reserved":false,"is_disabled":false,"rental_uris":{"android":"levelo://app?vid=bbfed310-f5ca-41c8-bf3a-f83cd6959697","ios":"levelo://app?vid=bbfed310-f5ca-41c8-bf3a-f83cd6959697"},"vehicle_type_id":"4","last_reported":1712344030,"current_range_meters":4000,"station_id":"","pricing_plan_id":"cebpf4jnsgd1na2vs0mg"},{"bike_id":"538c02de-05b0-424e-8d40-87f24b26eb0e","system_id":"levelo_inurba_marseille","lat":43.317075,"lon":5.377367,"is_reserved":false,"is_disabled":false,"rental_uris":{"android":"levelo://app?vid=538c02de-05b0-424e-8d40-87f24b26eb0e","ios":"levelo://app?vid=538c02de-05b0-424e-8d40-87f24b26eb0e"},"vehicle_type_id":"4","last_reported":1712344030,"current_range_meters":8800,"station_id":"ce4bgth2rcd13ifvqch0","pricing_plan_id":"cebpf4jnsgd1na2vs0mg"},{"bike_id":"cf40ade9-f4d5-468a-9d89-88dfb93d8ae6","system_id":"levelo_inurba_marseille","lat":43.317078,"lon":5.377422,"is_reserved":false,"is_disabled":false,"rental_uris":{"android":"levelo://app?vid=cf40ade9-f4d5-468a-9d89-88dfb93d8ae6","ios":"levelo://app?vid=cf40ade9-f4d5-468a-9d89-88dfb93d8ae6"},"vehicle_type_id":"4","last_reported":1712344030,"current_range_meters":6800,"station_id":"ce4bgth2rcd13ifvqch0","pricing_plan_id":"cebpf4jnsgd1na2vs0mg"},{"bike_id":"0738c54f-e47c-4ab6-8144-a38189daef21","system_id":"levelo_inurba_marseille","lat":43.317023,"lon":5.37747,"is_reserved":false,"is_disabled":false,"rental_uris":{"android":"levelo://app?vid=0738c54f-e47c-4ab6-8144-a38189daef21","ios":"levelo://app?vid=0738c54f-e47c-4ab6-8144-a38189daef21"},"vehicle_type_id":"4","last_reported":1712344030,"current_range_meters":4000,"station_id":"ce4bgth2rcd13ifvqch0","pricing_plan_id":"cebpf4jnsgd1na2vs0mg"},{"bike_id":"7994965a-8f1d-4b10-9b5b-de85eb9f6eab","system_id":"levelo_inurba_marseille","lat":43.317075,"lon":5.377367,"is_reserved":false,"is_disabled":false,"rental_uris":{"android":"levelo://app?vid=7994965a-8f1d-4b10-9b5b-de85eb9f6eab","ios":"levelo://app?vid=7994965a-8f1d-4b10-9b5b-de85eb9f6eab"},"vehicle_type_id":"4","last_reported":1712344030,"current_range_meters":21600,"station_id":"ce4bgth2rcd13ifvqch0","pricing_plan_id":"cebpf4jnsgd1na2vs0mg"},{"bike_id":"4a496ff7-26ba-4480-b5c3-c9bfacf251da","system_id":"levelo_inurba_marseille","lat":43.317104,"lon":5.377466,"is_reserved":false,"is_disabled":false,"rental_uris":{"android":"levelo://app?vid=4a496ff7-26ba-4480-b5c3-c9bfacf251da","ios":"levelo://app?vid=4a496ff7-26ba-4480-b5c3-c9bfacf251da"},"vehicle_type_id":"4","last_reported":1712344030,"current_range_meters":12800,"station_id":"ce4bgth2rcd13ifvqch0","pricing_plan_id":"cebpf4jnsgd1na2vs0mg"},{"bike_id":"5a548eec-e829-48fb-b397-60ff3a1e0a80","system_id":"levelo_inurba_marseille","lat":43.31705,"lon":5.377565,"is_reserved":false,"is_disabled":false,"rental_uris":{"android":"levelo://app?vid=5a548eec-e829-48fb-b397-60ff3a1e0a80","ios":"levelo://app?vid=5a548eec-e829-48fb-b397-60ff3a1e0a80"},"vehicle_type_id":"4","last_reported":1712344030,"current_range_meters":0,"station_id":"ce4bgth2rcd13ifvqch0","pricing_plan_id":"cebpf4jnsgd1na2vs0mg"},{"bike_id":"444cc6e2-6738-4453-877c-dd75392c97e9","system_id":"levelo_inurba_marseille","lat":43.317075,"lon":5.377367,"is_reserved":false,"is_disabled":false,"rental_uris":{"android":"levelo://app?vid=444cc6e2-6738-4453-877c-dd75392c97e9","ios":"levelo://app?vid=444cc6e2-6738-4453-877c-dd75392c97e9"},"vehicle_type_id":"4","last_reported":1712344030,"current_range_meters":30000,"station_id":"ce4bgth2rcd13ifvqch0","pricing_plan_id":"cebpf4jnsgd1na2vs0mg"},{"bike_id":"404c1f0f-57ac-422b-b993-7fd3f61ba3f4","system_id":"levelo_inurba_marseille","lat":43.31703,"lon":5.37773,"is_reserved":false,"is_disabled":false,"rental_uris":{"android":"levelo://app?vid=404c1f0f-57ac-422b-b993-7fd3f61ba3f4","ios":"levelo://app?vid=404c1f0f-57ac-422b-b993-7fd3f61ba3f4"},"vehicle_type_id":"4","last_reported":1712344030,"current_range_meters":28000,"station_id":"ce4bgth2rcd13ifvqch0","pricing_plan_id":"cebpf4jnsgd1na2vs0mg"},{"bike_id":"cdb2e7e5-87ae-45de-80d4-a621e702648d","system_id":"levelo_inurba_marseille","lat":43.30304,"lon":5.368987,"is_reserved":false,"is_disabled":false,"rental_uris":{"android":"levelo://app?vid=cdb2e7e5-87ae-45de-80d4-a621e702648d","ios":"levelo://app?vid=cdb2e7e5-87ae-45de-80d4-a621e702648d"},"vehicle_type_id":"4","last_reported":1712344030,"current_range_meters":2000,"station_id":"ce4bgqh2rcd13ifvqc5g","pricing_plan_id":"cebpf4jnsgd1na2vs0mg"},{"bike_id":"1179b424-e642-4cc9-8eef-6573e93ba9dd","system_id":"levelo_inurba_marseille","lat":43.302957,"lon":5.372327,"is_reserved":false,"is_disabled":false,"rental_uris":{"android":"levelo://app?vid=1179b424-e642-4cc9-8eef-6573e93ba9dd","ios":"levelo://app?vid=1179b424-e642-4cc9-8eef-6573e93ba9dd"},"vehicle_type_id":"4","last_reported":1712344030,"current_range_meters":0,"station_id":"","pricing_plan_id":"cebpf4jnsgd1na2vs0mg"},{"bike_id":"c9133b3d-a1b7-428e-a575-904969329aaf","system_id":"levelo_inurba_marseille","lat":43.301939,"lon":5.366286,"is_reserved":false,"is_disabled":false,"rental_uris":{"android":"levelo://app?vid=c9133b3d-a1b7-428e-a575-904969329aaf","ios":"levelo://app?vid=c9133b3d-a1b7-428e-a575-904969329aaf"},"vehicle_type_id":"4","last_reported":1712344030,"current_range_meters":5200,"station_id":"ce4bgrh2rcd13ifvqc8g","pricing_plan_id":"cebpf4jnsgd1na2vs0mg"},{"bike_id":"7bf5d164-4c07-45cf-8245-2474d8a99266","system_id":"levelo_inurba_marseille","lat":43.32311,"lon":5.37426,"is_reserved":false,"is_disabled":false,"rental_uris":{"android":"levelo://app?vid=7bf5d164-4c07-45cf-8245-2474d8a99266","ios":"levelo://app?vid=7bf5d164-4c07-45cf-8245-2474d8a99266"},"vehicle_type_id":"4","last_reported":1712344030,"current_range_meters":16000,"station_id":"","pricing_plan_id":"cebpf4jnsgd1na2vs0mg"},{"bike_id":"e529e629-6b79-4c92-8071-a76b55803cc1","system_id":"levelo_inurba_marseille","lat":43.304606,"lon":5.379026,"is_reserved":false,"is_disabled":false,"rental_uris":{"android":"levelo://app?vid=e529e629-6b79-4c92-8071-a76b55803cc1","ios":"levelo://app?vid=e529e629-6b79-4c92-8071-a76b55803cc1"},"vehicle_type_id":"4","last_reported":1712344030,"current_range_meters":1600,"station_id":"ce4bgup2rcd13ifvqcn0","pricing_plan_id":"cebpf4jnsgd1na2vs0mg"},{"bike_id":"fba798e4-a458-4703-b9b0-dde2e8100ad1","system_id":"levelo_inurba_marseille","lat":43.304606,"lon":5.379026,"is_reserved":false,"is_disabled":false,"rental_uris":{"android":"levelo://app?vid=fba798e4-a458-4703-b9b0-dde2e8100ad1","ios":"levelo://app?vid=fba798e4-a458-4703-b9b0-dde2e8100ad1"},"vehicle_type_id":"4","last_reported":1712344030,"current_range_meters":0,"station_id":"ce4bgup2rcd13ifvqcn0","pricing_plan_id":"cebpf4jnsgd1na2vs0mg"},{"bike_id":"23180ec4-b47b-44f6-bbc8-a31ea7f6f3fb","system_id":"levelo_inurba_marseille","lat":43.324797,"lon":5.365807,"is_reserved":false,"is_disabled":false,"rental_uris":{"android":"levelo://app?vid=23180ec4-b47b-44f6-bbc8-a31ea7f6f3fb","ios":"levelo://app?vid=23180ec4-b47b-44f6-bbc8-a31ea7f6f3fb"},"vehicle_type_id":"4","last_reported":1712344030,"current_range_meters":0,"station_id":"ce4bhs12rcd13ifvqhvg","pricing_plan_id":"cebpf4jnsgd1na2vs0mg"},{"bike_id":"bf994b08-9e12-459b-87d9-40eb153fee5e","system_id":"levelo_inurba_marseille","lat":43.310694,"lon":5.383438,"is_reserved":false,"is_disabled":false,"rental_uris":{"android":"levelo://app?vid=bf994b08-9e12-459b-87d9-40eb153fee5e","ios":"levelo://app?vid=bf994b08-9e12-459b-87d9-40eb153fee5e"},"vehicle_type_id":"4","last_reported":1712344030,"current_range_meters":0,"station_id":"ce4bgv92rcd13ifvqcr0","pricing_plan_id":"cebpf4jnsgd1na2vs0mg"},{"bike_id":"48412429-161d-414e-8ad9-a34a3002915f","system_id":"levelo_inurba_marseille","lat":43.31069,"lon":5.38362,"is_reserved":false,"is_disabled":false,"rental_uris":{"android":"levelo://app?vid=48412429-161d-414e-8ad9-a34a3002915f","ios":"levelo://app?vid=48412429-161d-414e-8ad9-a34a3002915f"},"vehicle_type_id":"4","last_reported":1712344030,"current_range_meters":0,"station_id":"ce4bgv92rcd13ifvqcr0","pricing_plan_id":"cebpf4jnsgd1na2vs0mg"},{"bike_id":"810df0f3-995c-4f7e-8c06-7dc26accf39c","system_id":"levelo_inurba_marseille","lat":43.301429,"lon":5.37413,"is_reserved":false,"is_disabled":false,"rental_uris":{"android":"levelo://app?vid=810df0f3-995c-4f7e-8c06-7dc26accf39c","ios":"levelo://app?vid=810df0f3-995c-4f7e-8c06-7dc26accf39c"},"vehicle_type_id":"4","last_reported":1712344030,"current_range_meters":8400,"station_id":"ce4bgs92rcd13ifvqcc0","pricing_plan_id":"cebpf4jnsgd1na2vs0mg"},{"bike_id":"f6c92934-8666-40dd-a110-b530dd1f9470","system_id":"levelo_inurba_marseille","lat":43.31992,"lon":5.38149,"is_reserved":false,"is_disabled":false,"rental_uris":{"android":"levelo://app?vid=f6c92934-8666-40dd-a110-b530dd1f9470","ios":"levelo://app?vid=f6c92934-8666-40dd-a110-b530dd1f9470"},"vehicle_type_id":"4","last_reported":1712344030,"current_range_meters":2000,"station_id":"ce4bhr12rcd13ifvqhpg","pricing_plan_id":"cebpf4jnsgd1na2vs0mg"},{"bike_id":"6482488a-baa7-4b18-babc-ebcf4ca26a36","system_id":"levelo_inurba_marseille","lat":43.31996,"lon":5.38151,"is_reserved":false,"is_disabled":false,"rental_uris":{"android":"levelo://app?vid=6482488a-baa7-4b18-babc-ebcf4ca26a36","ios":"levelo://app?vid=6482488a-baa7-4b18-babc-ebcf4ca26a36"},"vehicle_type_id":"4","last_reported":1712344030,"current_range_meters":2400,"station_id":"ce4bhr12rcd13ifvqhpg","pricing_plan_id":"cebpf4jnsgd1na2vs0mg"},{"bike_id":"8b63e9fd-6458-4b2e-af1a-075d30e07f65","system_id":"levelo_inurba_marseille","lat":43.319935,"lon":5.381699,"is_reserved":false,"is_disabled":false,"rental_uris":{"android":"levelo://app?vid=8b63e9fd-6458-4b2e-af1a-075d30e07f65","ios":"levelo://app?vid=8b63e9fd-6458-4b2e-af1a-075d30e07f65"},"vehicle_type_id":"4","last_reported":1712344030,"current_range_meters":2400,"station_id":"ce4bhr12rcd13ifvqhpg","pricing_plan_id":"cebpf4jnsgd1na2vs0mg"},{"bike_id":"5c713080-a34f-478d-a605-26dc9768b27b","system_id":"levelo_inurba_marseille","lat":43.31356,"lon":5.38499,"is_reserved":false,"is_disabled":false,"rental_uris":{"android":"levelo://app?vid=5c713080-a34f-478d-a605-26dc9768b27b","ios":"levelo://app?vid=5c713080-a34f-478d-a605-26dc9768b27b"},"vehicle_type_id":"4","last_reported":1712344030,"current_range_meters":0,"station_id":"ce4bgt92rcd13ifvqcf0","pricing_plan_id":"cebpf4jnsgd1na2vs0mg"},{"bike_id":"d5de851a-293c-4f22-bf69-0d7c961f9349","system_id":"levelo_inurba_marseille","lat":43.299222,"lon":5.365554,"is_reserved":false,"is_disabled":false,"rental_uris":{"android":"levelo://app?vid=d5de851a-293c-4f22-bf69-0d7c961f9349","ios":"levelo://app?vid=d5de851a-293c-4f22-bf69-0d7c961f9349"},"vehicle_type_id":"4","last_reported":1712344030,"current_range_meters":5200,"station_id":"ce4bgm92rcd13ifvqbr0","pricing_plan_id":"cebpf4jnsgd1na2vs0mg"},{"bike_id":"95865911-b474-44cb-8fcf-171bd37d4b2f","system_id":"levelo_inurba_marseille","lat":43.299222,"lon":5.365554,"is_reserved":false,"is_disabled":false,"rental_uris":{"android":"levelo://app?vid=95865911-b474-44cb-8fcf-171bd37d4b2f","ios":"levelo://app?vid=95865911-b474-44cb-8fcf-171bd37d4b2f"},"vehicle_type_id":"4","last_reported":1712344030,"current_range_meters":24400,"station_id":"ce4bgm92rcd13ifvqbr0","pricing_plan_id":"cebpf4jnsgd1na2vs0mg"},{"bike_id":"415c65be-c994-4f63-a374-8423bca8b043","system_id":"levelo_inurba_marseille","lat":43.29981,"lon":5.37192,"is_reserved":false,"is_disabled":false,"rental_uris":{"android":"levelo://app?vid=415c65be-c994-4f63-a374-8423bca8b043","ios":"levelo://app?vid=415c65be-c994-4f63-a374-8423bca8b043"},"vehicle_type_id":"4","last_reported":1712344030,"current_range_meters":0,"station_id":"ce4bgr92rcd13ifvqc7g","pricing_plan_id":"cebpf4jnsgd1na2vs0mg"},{"bike_id":"a960efc8-1837-4d62-b6ba-e6a6d0943e71","system_id":"levelo_inurba_marseille","lat":43.299724,"lon":5.371829,"is_reserved":false,"is_disabled":false,"rental_uris":{"android":"levelo://app?vid=a960efc8-1837-4d62-b6ba-e6a6d0943e71","ios":"levelo://app?vid=a960efc8-1837-4d62-b6ba-e6a6d0943e71"},"vehicle_type_id":"4","last_reported":1712344030,"current_range_meters":22400,"station_id":"ce4bgr92rcd13ifvqc7g","pricing_plan_id":"cebpf4jnsgd1na2vs0mg"},{"bike_id":"ec905da8-66c9-44fa-9331-4ab2ee911561","system_id":"levelo_inurba_marseille","lat":43.299222,"lon":5.365554,"is_reserved":false,"is_disabled":false,"rental_uris":{"android":"levelo://app?vid=ec905da8-66c9-44fa-9331-4ab2ee911561","ios":"levelo://app?vid=ec905da8-66c9-44fa-9331-4ab2ee911561"},"vehicle_type_id":"4","last_reported":1712344030,"current_range_meters":8000,"station_id":"ce4bgm92rcd13ifvqbr0","pricing_plan_id":"cebpf4jnsgd1na2vs0mg"},{"bike_id":"73509241-232a-4c29-9490-72e1f7d5160b","system_id":"levelo_inurba_marseille","lat":43.299222,"lon":5.365554,"is_reserved":false,"is_disabled":false,"rental_uris":{"android":"levelo://app?vid=73509241-232a-4c29-9490-72e1f7d5160b","ios":"levelo://app?vid=73509241-232a-4c29-9490-72e1f7d5160b"},"vehicle_type_id":"4","last_reported":1712344030,"current_range_meters":0,"station_id":"ce4bgm92rcd13ifvqbr0","pricing_plan_id":"cebpf4jnsgd1na2vs0mg"},{"bike_id":"55d36624-4799-4f8a-a112-e62d6c7ecda2","system_id":"levelo_inurba_marseille","lat":43.29945,"lon":5.372164,"is_reserved":false,"is_disabled":false,"rental_uris":{"android":"levelo://app?vid=55d36624-4799-4f8a-a112-e62d6c7ecda2","ios":"levelo://app?vid=55d36624-4799-4f8a-a112-e62d6c7ecda2"},"vehicle_type_id":"4","last_reported":1712344030,"current_range_meters":0,"station_id":"ce4bgr92rcd13ifvqc7g","pricing_plan_id":"cebpf4jnsgd1na2vs0mg"},{"bike_id":"7b959b79-2775-4b72-86bd-746436196d73","system_id":"levelo_inurba_marseille","lat":43.299243,"lon":5.374807,"is_reserved":false,"is_disabled":false,"rental_uris":{"android":"levelo://app?vid=7b959b79-2775-4b72-86bd-746436196d73","ios":"levelo://app?vid=7b959b79-2775-4b72-86bd-746436196d73"},"vehicle_type_id":"4","last_reported":1712344030,"current_range_meters":26800,"station_id":"ce4bgjh2rcd13ifvqbg0","pricing_plan_id":"cebpf4jnsgd1na2vs0mg"},{"bike_id":"979e38f3-58c2-4c2c-94a9-300092106be7","system_id":"levelo_inurba_marseille","lat":43.299243,"lon":5.374807,"is_reserved":false,"is_disabled":false,"rental_uris":{"android":"levelo://app?vid=979e38f3-58c2-4c2c-94a9-300092106be7","ios":"levelo://app?vid=979e38f3-58c2-4c2c-94a9-300092106be7"},"vehicle_type_id":"4","last_reported":1712344030,"current_range_meters":3600,"station_id":"ce4bgjh2rcd13ifvqbg0","pricing_plan_id":"cebpf4jnsgd1na2vs0mg"},{"bike_id":"17ffd54e-38c6-4b84-835a-8eb1ea392d8b","system_id":"levelo_inurba_marseille","lat":43.299243,"lon":5.374807,"is_reserved":false,"is_disabled":false,"rental_uris":{"android":"levelo://app?vid=17ffd54e-38c6-4b84-835a-8eb1ea392d8b","ios":"levelo://app?vid=17ffd54e-38c6-4b84-835a-8eb1ea392d8b"},"vehicle_type_id":"4","last_reported":1712344030,"current_range_meters":0,"station_id":"ce4bgjh2rcd13ifvqbg0","pricing_plan_id":"cebpf4jnsgd1na2vs0mg"},{"bike_id":"ae638c00-78bf-484e-ad00-385c7cd5cab0","system_id":"levelo_inurba_marseille","lat":43.305364,"lon":5.384119,"is_reserved":false,"is_disabled":false,"rental_uris":{"android":"levelo://app?vid=ae638c00-78bf-484e-ad00-385c7cd5cab0","ios":"levelo://app?vid=ae638c00-78bf-484e-ad00-385c7cd5cab0"},"vehicle_type_id":"4","last_reported":1712344030,"current_range_meters":0,"station_id":"ce4bgg92rcd13ifvqb30","pricing_plan_id":"cebpf4jnsgd1na2vs0mg"},{"bike_id":"3ee48762-b7de-4122-a05d-c6bf311464e8","system_id":"levelo_inurba_marseille","lat":43.299243,"lon":5.37481,"is_reserved":false,"is_disabled":false,"rental_uris":{"android":"levelo://app?vid=3ee48762-b7de-4122-a05d-c6bf311464e8","ios":"levelo://app?vid=3ee48762-b7de-4122-a05d-c6bf311464e8"},"vehicle_type_id":"4","last_reported":1712344030,"current_range_meters":2400,"station_id":"ce4bgjh2rcd13ifvqbg0","pricing_plan_id":"cebpf4jnsgd1na2vs0mg"},{"bike_id":"195648f3-6cb4-404f-83aa-c91ad25dc3fb","system_id":"levelo_inurba_marseille","lat":43.299243,"lon":5.37481,"is_reserved":false,"is_disabled":false,"rental_uris":{"android":"levelo://app?vid=195648f3-6cb4-404f-83aa-c91ad25dc3fb","ios":"levelo://app?vid=195648f3-6cb4-404f-83aa-c91ad25dc3fb"},"vehicle_type_id":"4","last_reported":1712344030,"current_range_meters":5600,"station_id":"ce4bgjh2rcd13ifvqbg0","pricing_plan_id":"cebpf4jnsgd1na2vs0mg"},{"bike_id":"fe057326-d3b8-44db-a424-a588155066b4","system_id":"levelo_inurba_marseille","lat":43.311722,"lon":5.387247,"is_reserved":false,"is_disabled":false,"rental_uris":{"android":"levelo://app?vid=fe057326-d3b8-44db-a424-a588155066b4","ios":"levelo://app?vid=fe057326-d3b8-44db-a424-a588155066b4"},"vehicle_type_id":"4","last_reported":1712344030,"current_range_meters":2400,"station_id":"ce4bgv12rcd13ifvqcp0","pricing_plan_id":"cebpf4jnsgd1na2vs0mg"},{"bike_id":"61c7ad58-4521-4ebc-92d7-b8d44ffa6261","system_id":"levelo_inurba_marseille","lat":43.299243,"lon":5.374807,"is_reserved":false,"is_disabled":false,"rental_uris":{"android":"levelo://app?vid=61c7ad58-4521-4ebc-92d7-b8d44ffa6261","ios":"levelo://app?vid=61c7ad58-4521-4ebc-92d7-b8d44ffa6261"},"vehicle_type_id":"4","last_reported":1712344030,"current_range_meters":0,"station_id":"ce4bgjh2rcd13ifvqbg0","pricing_plan_id":"cebpf4jnsgd1na2vs0mg"},{"bike_id":"1ae76166-db2f-4b2c-987e-ecd8d6e1b13f","system_id":"levelo_inurba_marseille","lat":43.311471,"lon":5.3877,"is_reserved":false,"is_disabled":false,"rental_uris":{"android":"levelo://app?vid=1ae76166-db2f-4b2c-987e-ecd8d6e1b13f","ios":"levelo://app?vid=1ae76166-db2f-4b2c-987e-ecd8d6e1b13f"},"vehicle_type_id":"4","last_reported":1712344030,"current_range_meters":24400,"station_id":"ce4bgv12rcd13ifvqcp0","pricing_plan_id":"cebpf4jnsgd1na2vs0mg"},{"bike_id":"0657966b-a7b6-4239-8a1a-d82e2aa21e4a","system_id":"levelo_inurba_marseille","lat":43.297774,"lon":5.370875,"is_reserved":false,"is_disabled":false,"rental_uris":{"android":"levelo://app?vid=0657966b-a7b6-4239-8a1a-d82e2aa21e4a","ios":"levelo://app?vid=0657966b-a7b6-4239-8a1a-d82e2aa21e4a"},"vehicle_type_id":"4","last_reported":1712344030,"current_range_meters":17600,"station_id":"ce4bgop2rcd13ifvqc1g","pricing_plan_id":"cebpf4jnsgd1na2vs0mg"},{"bike_id":"a76f9799-8dd3-48cd-ad4a-c8a6a531e398","system_id":"levelo_inurba_marseille","lat":43.322872,"lon":5.382756,"is_reserved":false,"is_disabled":false,"rental_uris":{"android":"levelo://app?vid=a76f9799-8dd3-48cd-ad4a-c8a6a531e398","ios":"levelo://app?vid=a76f9799-8dd3-48cd-ad4a-c8a6a531e398"},"vehicle_type_id":"4","last_reported":1712344030,"current_range_meters":12400,"station_id":"ce4bhr12rcd13ifvqhqg","pricing_plan_id":"cebpf4jnsgd1na2vs0mg"},{"bike_id":"9f60c347-bfa0-4009-b962-36bad8ab728a","system_id":"levelo_inurba_marseille","lat":43.322872,"lon":5.382756,"is_reserved":false,"is_disabled":false,"rental_uris":{"android":"levelo://app?vid=9f60c347-bfa0-4009-b962-36bad8ab728a","ios":"levelo://app?vid=9f60c347-bfa0-4009-b962-36bad8ab728a"},"vehicle_type_id":"4","last_reported":1712344030,"current_range_meters":4800,"station_id":"ce4bhr12rcd13ifvqhqg","pricing_plan_id":"cebpf4jnsgd1na2vs0mg"},{"bike_id":"d0090b0b-b7ce-4231-a436-3236929d8028","system_id":"levelo_inurba_marseille","lat":43.322872,"lon":5.382756,"is_reserved":false,"is_disabled":false,"rental_uris":{"android":"levelo://app?vid=d0090b0b-b7ce-4231-a436-3236929d8028","ios":"levelo://app?vid=d0090b0b-b7ce-4231-a436-3236929d8028"},"vehicle_type_id":"4","last_reported":1712344030,"current_range_meters":19200,"station_id":"ce4bhr12rcd13ifvqhqg","pricing_plan_id":"cebpf4jnsgd1na2vs0mg"},{"bike_id":"68429282-a577-4dd3-b446-806f0ff86c83","system_id":"levelo_inurba_marseille","lat":43.322872,"lon":5.382756,"is_reserved":false,"is_disabled":false,"rental_uris":{"android":"levelo://app?vid=68429282-a577-4dd3-b446-806f0ff86c83","ios":"levelo://app?vid=68429282-a577-4dd3-b446-806f0ff86c83"},"vehicle_type_id":"4","last_reported":1712344030,"current_range_meters":13200,"station_id":"ce4bhr12rcd13ifvqhqg","pricing_plan_id":"cebpf4jnsgd1na2vs0mg"},{"bike_id":"12868420-cd43-4d41-9cd6-9b5eadd40bbb","system_id":"levelo_inurba_marseille","lat":43.322872,"lon":5.382756,"is_reserved":false,"is_disabled":false,"rental_uris":{"android":"levelo://app?vid=12868420-cd43-4d41-9cd6-9b5eadd40bbb","ios":"levelo://app?vid=12868420-cd43-4d41-9cd6-9b5eadd40bbb"},"vehicle_type_id":"4","last_reported":1712344030,"current_range_meters":31600,"station_id":"ce4bhr12rcd13ifvqhqg","pricing_plan_id":"cebpf4jnsgd1na2vs0mg"},{"bike_id":"760cbcdc-c3dd-40c6-8fa4-2b83a3911ea4","system_id":"levelo_inurba_marseille","lat":43.322872,"lon":5.382756,"is_reserved":false,"is_disabled":false,"rental_uris":{"android":"levelo://app?vid=760cbcdc-c3dd-40c6-8fa4-2b83a3911ea4","ios":"levelo://app?vid=760cbcdc-c3dd-40c6-8fa4-2b83a3911ea4"},"vehicle_type_id":"4","last_reported":1712344030,"current_range_meters":20000,"station_id":"ce4bhr12rcd13ifvqhqg","pricing_plan_id":"cebpf4jnsgd1na2vs0mg"},{"bike_id":"33b985e8-b6d8-4ea8-84fd-34b0b614d5e3","system_id":"levelo_inurba_marseille","lat":43.322872,"lon":5.382756,"is_reserved":false,"is_disabled":false,"rental_uris":{"android":"levelo://app?vid=33b985e8-b6d8-4ea8-84fd-34b0b614d5e3","ios":"levelo://app?vid=33b985e8-b6d8-4ea8-84fd-34b0b614d5e3"},"vehicle_type_id":"4","last_reported":1712344030,"current_range_meters":20800,"station_id":"ce4bhr12rcd13ifvqhqg","pricing_plan_id":"cebpf4jnsgd1na2vs0mg"},{"bike_id":"ba69173e-35ff-45c7-9e05-fd756c6ab02e","system_id":"levelo_inurba_marseille","lat":43.322872,"lon":5.382756,"is_reserved":false,"is_disabled":false,"rental_uris":{"android":"levelo://app?vid=ba69173e-35ff-45c7-9e05-fd756c6ab02e","ios":"levelo://app?vid=ba69173e-35ff-45c7-9e05-fd756c6ab02e"},"vehicle_type_id":"4","last_reported":1712344030,"current_range_meters":2400,"station_id":"ce4bhr12rcd13ifvqhqg","pricing_plan_id":"cebpf4jnsgd1na2vs0mg"},{"bike_id":"f9cbb650-aadf-49f6-a3e7-b397f3d0f9e2","system_id":"levelo_inurba_marseille","lat":43.322872,"lon":5.382756,"is_reserved":false,"is_disabled":false,"rental_uris":{"android":"levelo://app?vid=f9cbb650-aadf-49f6-a3e7-b397f3d0f9e2","ios":"levelo://app?vid=f9cbb650-aadf-49f6-a3e7-b397f3d0f9e2"},"vehicle_type_id":"4","last_reported":1712344030,"current_range_meters":9600,"station_id":"ce4bhr12rcd13ifvqhqg","pricing_plan_id":"cebpf4jnsgd1na2vs0mg"},{"bike_id":"a53d3985-9e33-437a-9979-77b9c3f817ac","system_id":"levelo_inurba_marseille","lat":43.322872,"lon":5.382756,"is_reserved":false,"is_disabled":false,"rental_uris":{"android":"levelo://app?vid=a53d3985-9e33-437a-9979-77b9c3f817ac","ios":"levelo://app?vid=a53d3985-9e33-437a-9979-77b9c3f817ac"},"vehicle_type_id":"4","last_reported":1712344030,"current_range_meters":10800,"station_id":"ce4bhr12rcd13ifvqhqg","pricing_plan_id":"cebpf4jnsgd1na2vs0mg"},{"bike_id":"c78e3508-ec59-44b9-b552-66f435a0864b","system_id":"levelo_inurba_marseille","lat":43.322872,"lon":5.382756,"is_reserved":false,"is_disabled":false,"rental_uris":{"android":"levelo://app?vid=c78e3508-ec59-44b9-b552-66f435a0864b","ios":"levelo://app?vid=c78e3508-ec59-44b9-b552-66f435a0864b"},"vehicle_type_id":"4","last_reported":1712344030,"current_range_meters":31600,"station_id":"ce4bhr12rcd13ifvqhqg","pricing_plan_id":"cebpf4jnsgd1na2vs0mg"},{"bike_id":"3f2835e5-a51e-4529-8eba-48f6b95ac4a9","system_id":"levelo_inurba_marseille","lat":43.322872,"lon":5.382756,"is_reserved":false,"is_disabled":false,"rental_uris":{"android":"levelo://app?vid=3f2835e5-a51e-4529-8eba-48f6b95ac4a9","ios":"levelo://app?vid=3f2835e5-a51e-4529-8eba-48f6b95ac4a9"},"vehicle_type_id":"4","last_reported":1712344030,"current_range_meters":20800,"station_id":"ce4bhr12rcd13ifvqhqg","pricing_plan_id":"cebpf4jnsgd1na2vs0mg"},{"bike_id":"d9d0fad4-bb5e-4fd7-aa14-bc36fdd7e62b","system_id":"levelo_inurba_marseille","lat":43.32288,"lon":5.38277,"is_reserved":false,"is_disabled":false,"rental_uris":{"android":"levelo://app?vid=d9d0fad4-bb5e-4fd7-aa14-bc36fdd7e62b","ios":"levelo://app?vid=d9d0fad4-bb5e-4fd7-aa14-bc36fdd7e62b"},"vehicle_type_id":"4","last_reported":1712344030,"current_range_meters":16800,"station_id":"ce4bhr12rcd13ifvqhqg","pricing_plan_id":"cebpf4jnsgd1na2vs0mg"},{"bike_id":"13f314f6-ce2c-4f4c-8e69-676e19c8f775","system_id":"levelo_inurba_marseille","lat":43.322872,"lon":5.382756,"is_reserved":false,"is_disabled":false,"rental_uris":{"android":"levelo://app?vid=13f314f6-ce2c-4f4c-8e69-676e19c8f775","ios":"levelo://app?vid=13f314f6-ce2c-4f4c-8e69-676e19c8f775"},"vehicle_type_id":"4","last_reported":1712344030,"current_range_meters":18000,"station_id":"ce4bhr12rcd13ifvqhqg","pricing_plan_id":"cebpf4jnsgd1na2vs0mg"},{"bike_id":"dad8de42-b10d-4ad4-b426-d0016e89d810","system_id":"levelo_inurba_marseille","lat":43.32284,"lon":5.3829,"is_reserved":false,"is_disabled":false,"rental_uris":{"android":"levelo://app?vid=dad8de42-b10d-4ad4-b426-d0016e89d810","ios":"levelo://app?vid=dad8de42-b10d-4ad4-b426-d0016e89d810"},"vehicle_type_id":"4","last_reported":1712344030,"current_range_meters":22000,"station_id":"ce4bhr12rcd13ifvqhqg","pricing_plan_id":"cebpf4jnsgd1na2vs0mg"},{"bike_id":"c66a5a8f-f4a2-412f-84b8-5170b4e7c93f","system_id":"levelo_inurba_marseille","lat":43.326999,"lon":5.37496,"is_reserved":false,"is_disabled":false,"rental_uris":{"android":"levelo://app?vid=c66a5a8f-f4a2-412f-84b8-5170b4e7c93f","ios":"levelo://app?vid=c66a5a8f-f4a2-412f-84b8-5170b4e7c93f"},"vehicle_type_id":"4","last_reported":1712344030,"current_range_meters":7600,"station_id":"","pricing_plan_id":"cebpf4jnsgd1na2vs0mg"},{"bike_id":"2320c746-cf24-41de-a378-f6f0d25ec88a","system_id":"levelo_inurba_marseille","lat":43.296792,"lon":5.372964,"is_reserved":false,"is_disabled":false,"rental_uris":{"android":"levelo://app?vid=2320c746-cf24-41de-a378-f6f0d25ec88a","ios":"levelo://app?vid=2320c746-cf24-41de-a378-f6f0d25ec88a"},"vehicle_type_id":"4","last_reported":1712344030,"current_range_meters":2800,"station_id":"ce4bgk12rcd13ifvqbj0","pricing_plan_id":"cebpf4jnsgd1na2vs0mg"},{"bike_id":"53720583-9199-43c0-9a24-dadab74e6609","system_id":"levelo_inurba_marseille","lat":43.29573,"lon":5.367355,"is_reserved":false,"is_disabled":false,"rental_uris":{"android":"levelo://app?vid=53720583-9199-43c0-9a24-dadab74e6609","ios":"levelo://app?vid=53720583-9199-43c0-9a24-dadab74e6609"},"vehicle_type_id":"4","last_reported":1712344030,"current_range_meters":11200,"station_id":"ce4bgph2rcd13ifvqc2g","pricing_plan_id":"cebpf4jnsgd1na2vs0mg"},{"bike_id":"45c33a70-8dce-4732-91e5-2dc515742b4e","system_id":"levelo_inurba_marseille","lat":43.309867,"lon":5.390013,"is_reserved":false,"is_disabled":false,"rental_uris":{"android":"levelo://app?vid=45c33a70-8dce-4732-91e5-2dc515742b4e","ios":"levelo://app?vid=45c33a70-8dce-4732-91e5-2dc515742b4e"},"vehicle_type_id":"4","last_reported":1712344030,"current_range_meters":400,"station_id":"ce4bhr12rcd13ifvqhqg","pricing_plan_id":"cebpf4jnsgd1na2vs0mg"},{"bike_id":"2e7388bf-8163-45fb-9a16-9d9024dde2ee","system_id":"levelo_inurba_marseille","lat":43.299028,"lon":5.381509,"is_reserved":false,"is_disabled":false,"rental_uris":{"android":"levelo://app?vid=2e7388bf-8163-45fb-9a16-9d9024dde2ee","ios":"levelo://app?vid=2e7388bf-8163-45fb-9a16-9d9024dde2ee"},"vehicle_type_id":"4","last_reported":1712344030,"current_range_meters":31200,"station_id":"ce4bgj12rcd13ifvqbc0","pricing_plan_id":"cebpf4jnsgd1na2vs0mg"},{"bike_id":"19815072-a3fe-486a-88da-d8f285da5779","system_id":"levelo_inurba_marseille","lat":43.296935,"lon":5.376544,"is_reserved":false,"is_disabled":false,"rental_uris":{"android":"levelo://app?vid=19815072-a3fe-486a-88da-d8f285da5779","ios":"levelo://app?vid=19815072-a3fe-486a-88da-d8f285da5779"},"vehicle_type_id":"4","last_reported":1712344030,"current_range_meters":16400,"station_id":"ce4bgkh2rcd13ifvqbl0","pricing_plan_id":"cebpf4jnsgd1na2vs0mg"},{"bike_id":"afcd73e4-ad37-4b81-8b0d-dad666974898","system_id":"levelo_inurba_marseille","lat":43.299028,"lon":5.381509,"is_reserved":false,"is_disabled":false,"rental_uris":{"android":"levelo://app?vid=afcd73e4-ad37-4b81-8b0d-dad666974898","ios":"levelo://app?vid=afcd73e4-ad37-4b81-8b0d-dad666974898"},"vehicle_type_id":"4","last_reported":1712344030,"current_range_meters":30000,"station_id":"ce4bgj12rcd13ifvqbc0","pricing_plan_id":"cebpf4jnsgd1na2vs0mg"},{"bike_id":"634ab6a8-83d8-4219-ae0e-b02d63a4b40c","system_id":"levelo_inurba_marseille","lat":43.296921,"lon":5.376579,"is_reserved":false,"is_disabled":false,"rental_uris":{"android":"levelo://app?vid=634ab6a8-83d8-4219-ae0e-b02d63a4b40c","ios":"levelo://app?vid=634ab6a8-83d8-4219-ae0e-b02d63a4b40c"},"vehicle_type_id":"4","last_reported":1712344030,"current_range_meters":400,"station_id":"ce4bgkh2rcd13ifvqbl0","pricing_plan_id":"cebpf4jnsgd1na2vs0mg"},{"bike_id":"5f0765eb-e39f-4d9a-ad78-4bb72eb690d6","system_id":"levelo_inurba_marseille","lat":43.296935,"lon":5.376544,"is_reserved":false,"is_disabled":false,"rental_uris":{"android":"levelo://app?vid=5f0765eb-e39f-4d9a-ad78-4bb72eb690d6","ios":"levelo://app?vid=5f0765eb-e39f-4d9a-ad78-4bb72eb690d6"},"vehicle_type_id":"4","last_reported":1712344030,"current_range_meters":22400,"station_id":"ce4bgkh2rcd13ifvqbl0","pricing_plan_id":"cebpf4jnsgd1na2vs0mg"},{"bike_id":"c5659af7-37af-4b38-aeb8-644e2808238d","system_id":"levelo_inurba_marseille","lat":43.29894,"lon":5.3814,"is_reserved":false,"is_disabled":false,"rental_uris":{"android":"levelo://app?vid=c5659af7-37af-4b38-aeb8-644e2808238d","ios":"levelo://app?vid=c5659af7-37af-4b38-aeb8-644e2808238d"},"vehicle_type_id":"4","last_reported":1712344030,"current_range_meters":0,"station_id":"ce4bgj12rcd13ifvqbc0","pricing_plan_id":"cebpf4jnsgd1na2vs0mg"},{"bike_id":"4b424a2b-b4fc-443b-b6f1-b9ac996d7820","system_id":"levelo_inurba_marseille","lat":43.305989,"lon":5.37225,"is_reserved":false,"is_disabled":false,"rental_uris":{"android":"levelo://app?vid=4b424a2b-b4fc-443b-b6f1-b9ac996d7820","ios":"levelo://app?vid=4b424a2b-b4fc-443b-b6f1-b9ac996d7820"},"vehicle_type_id":"4","last_reported":1712344030,"current_range_meters":400,"station_id":"ce4bgqh2rcd13ifvqc4g","pricing_plan_id":"cebpf4jnsgd1na2vs0mg"},{"bike_id":"9fef4695-53a7-4416-87cd-4e604ab087c6","system_id":"levelo_inurba_marseille","lat":43.31753,"lon":5.39005,"is_reserved":false,"is_disabled":false,"rental_uris":{"android":"levelo://app?vid=9fef4695-53a7-4416-87cd-4e604ab087c6","ios":"levelo://app?vid=9fef4695-53a7-4416-87cd-4e604ab087c6"},"vehicle_type_id":"4","last_reported":1712344030,"current_range_meters":7200,"station_id":"ce4bhqp2rcd13ifvqhng","pricing_plan_id":"cebpf4jnsgd1na2vs0mg"},{"bike_id":"71c78635-7107-46a8-bcd2-3f4d1ed0d02a","system_id":"levelo_inurba_marseille","lat":43.31753,"lon":5.390198,"is_reserved":false,"is_disabled":false,"rental_uris":{"android":"levelo://app?vid=71c78635-7107-46a8-bcd2-3f4d1ed0d02a","ios":"levelo://app?vid=71c78635-7107-46a8-bcd2-3f4d1ed0d02a"},"vehicle_type_id":"4","last_reported":1712344030,"current_range_meters":10000,"station_id":"ce4bhqp2rcd13ifvqhng","pricing_plan_id":"cebpf4jnsgd1na2vs0mg"},{"bike_id":"ec5623be-ef69-448a-b5f5-c0b093b66f68","system_id":"levelo_inurba_marseille","lat":43.317557,"lon":5.390173,"is_reserved":false,"is_disabled":false,"rental_uris":{"android":"levelo://app?vid=ec5623be-ef69-448a-b5f5-c0b093b66f68","ios":"levelo://app?vid=ec5623be-ef69-448a-b5f5-c0b093b66f68"},"vehicle_type_id":"4","last_reported":1712344030,"current_range_meters":4000,"station_id":"ce4bhqp2rcd13ifvqhng","pricing_plan_id":"cebpf4jnsgd1na2vs0mg"},{"bike_id":"80bcd634-b669-4b1d-aef3-c272f54a7720","system_id":"levelo_inurba_marseille","lat":43.29809,"lon":5.381,"is_reserved":false,"is_disabled":false,"rental_uris":{"android":"levelo://app?vid=80bcd634-b669-4b1d-aef3-c272f54a7720","ios":"levelo://app?vid=80bcd634-b669-4b1d-aef3-c272f54a7720"},"vehicle_type_id":"4","last_reported":1712344030,"current_range_meters":1600,"station_id":"ce4bgip2rcd13ifvqbb0","pricing_plan_id":"cebpf4jnsgd1na2vs0mg"},{"bike_id":"8506a98a-adb7-44ee-823e-d0135c510e12","system_id":"levelo_inurba_marseille","lat":43.297986,"lon":5.380826,"is_reserved":false,"is_disabled":false,"rental_uris":{"android":"levelo://app?vid=8506a98a-adb7-44ee-823e-d0135c510e12","ios":"levelo://app?vid=8506a98a-adb7-44ee-823e-d0135c510e12"},"vehicle_type_id":"4","last_reported":1712344030,"current_range_meters":400,"station_id":"ce4bgip2rcd13ifvqbb0","pricing_plan_id":"cebpf4jnsgd1na2vs0mg"},{"bike_id":"80e53fc4-9fa5-4962-a7c6-34bf3dc04be2","system_id":"levelo_inurba_marseille","lat":43.29806,"lon":5.38098,"is_reserved":false,"is_disabled":false,"rental_uris":{"android":"levelo://app?vid=80e53fc4-9fa5-4962-a7c6-34bf3dc04be2","ios":"levelo://app?vid=80e53fc4-9fa5-4962-a7c6-34bf3dc04be2"},"vehicle_type_id":"4","last_reported":1712344030,"current_range_meters":4400,"station_id":"ce4bgip2rcd13ifvqbb0","pricing_plan_id":"cebpf4jnsgd1na2vs0mg"},{"bike_id":"3be3493a-0841-4619-8e0f-6c17d9163139","system_id":"levelo_inurba_marseille","lat":43.298037,"lon":5.381066,"is_reserved":false,"is_disabled":false,"rental_uris":{"android":"levelo://app?vid=3be3493a-0841-4619-8e0f-6c17d9163139","ios":"levelo://app?vid=3be3493a-0841-4619-8e0f-6c17d9163139"},"vehicle_type_id":"4","last_reported":1712344030,"current_range_meters":21600,"station_id":"ce4bgip2rcd13ifvqbb0","pricing_plan_id":"cebpf4jnsgd1na2vs0mg"},{"bike_id":"94358a49-95bb-4503-9271-63312f8ce1e7","system_id":"levelo_inurba_marseille","lat":43.298037,"lon":5.381066,"is_reserved":false,"is_disabled":false,"rental_uris":{"android":"levelo://app?vid=94358a49-95bb-4503-9271-63312f8ce1e7","ios":"levelo://app?vid=94358a49-95bb-4503-9271-63312f8ce1e7"},"vehicle_type_id":"4","last_reported":1712344030,"current_range_meters":13200,"station_id":"ce4bgip2rcd13ifvqbb0","pricing_plan_id":"cebpf4jnsgd1na2vs0mg"},{"bike_id":"5f458a18-4b88-42e9-a10f-d0351586a5dd","system_id":"levelo_inurba_marseille","lat":43.298037,"lon":5.381066,"is_reserved":false,"is_disabled":false,"rental_uris":{"android":"levelo://app?vid=5f458a18-4b88-42e9-a10f-d0351586a5dd","ios":"levelo://app?vid=5f458a18-4b88-42e9-a10f-d0351586a5dd"},"vehicle_type_id":"4","last_reported":1712344030,"current_range_meters":7600,"station_id":"ce4bgip2rcd13ifvqbb0","pricing_plan_id":"cebpf4jnsgd1na2vs0mg"},{"bike_id":"a208f699-afda-426f-afde-20c07a74ea90","system_id":"levelo_inurba_marseille","lat":43.29574,"lon":5.37506,"is_reserved":false,"is_disabled":false,"rental_uris":{"android":"levelo://app?vid=a208f699-afda-426f-afde-20c07a74ea90","ios":"levelo://app?vid=a208f699-afda-426f-afde-20c07a74ea90"},"vehicle_type_id":"4","last_reported":1712344030,"current_range_meters":0,"station_id":"ce4bgh92rcd13ifvqb50","pricing_plan_id":"cebpf4jnsgd1na2vs0mg"},{"bike_id":"7ac1e054-41ad-47d0-a47a-5a5ca7e22271","system_id":"levelo_inurba_marseille","lat":43.296277,"lon":5.377108,"is_reserved":false,"is_disabled":false,"rental_uris":{"android":"levelo://app?vid=7ac1e054-41ad-47d0-a47a-5a5ca7e22271","ios":"levelo://app?vid=7ac1e054-41ad-47d0-a47a-5a5ca7e22271"},"vehicle_type_id":"4","last_reported":1712344030,"current_range_meters":6400,"station_id":"ce4bgi92rcd13ifvqb90","pricing_plan_id":"cebpf4jnsgd1na2vs0mg"},{"bike_id":"d8ea920d-d028-493d-bfa9-0054eaffb2fd","system_id":"levelo_inurba_marseille","lat":43.304274,"lon":5.388873,"is_reserved":false,"is_disabled":false,"rental_uris":{"android":"levelo://app?vid=d8ea920d-d028-493d-bfa9-0054eaffb2fd","ios":"levelo://app?vid=d8ea920d-d028-493d-bfa9-0054eaffb2fd"},"vehicle_type_id":"4","last_reported":1712344030,"current_range_meters":20000,"station_id":"ce4bgk12rcd13ifvqbi0","pricing_plan_id":"cebpf4jnsgd1na2vs0mg"},{"bike_id":"5b839c78-935f-4690-a369-ac16eed03153","system_id":"levelo_inurba_marseille","lat":43.29571,"lon":5.37524,"is_reserved":false,"is_disabled":false,"rental_uris":{"android":"levelo://app?vid=5b839c78-935f-4690-a369-ac16eed03153","ios":"levelo://app?vid=5b839c78-935f-4690-a369-ac16eed03153"},"vehicle_type_id":"4","last_reported":1712344030,"current_range_meters":20800,"station_id":"ce4bgh92rcd13ifvqb50","pricing_plan_id":"cebpf4jnsgd1na2vs0mg"},{"bike_id":"8172d9a9-880d-4188-8452-ffb0d653e691","system_id":"levelo_inurba_marseille","lat":43.298037,"lon":5.381066,"is_reserved":false,"is_disabled":false,"rental_uris":{"android":"levelo://app?vid=8172d9a9-880d-4188-8452-ffb0d653e691","ios":"levelo://app?vid=8172d9a9-880d-4188-8452-ffb0d653e691"},"vehicle_type_id":"4","last_reported":1712344030,"current_range_meters":4400,"station_id":"ce4bgip2rcd13ifvqbb0","pricing_plan_id":"cebpf4jnsgd1na2vs0mg"},{"bike_id":"2211e886-81cc-4c76-a658-3c30c27f5fc8","system_id":"levelo_inurba_marseille","lat":43.297854,"lon":5.381078,"is_reserved":false,"is_disabled":false,"rental_uris":{"android":"levelo://app?vid=2211e886-81cc-4c76-a658-3c30c27f5fc8","ios":"levelo://app?vid=2211e886-81cc-4c76-a658-3c30c27f5fc8"},"vehicle_type_id":"4","last_reported":1712344030,"current_range_meters":0,"station_id":"ce4bgip2rcd13ifvqbb0","pricing_plan_id":"cebpf4jnsgd1na2vs0mg"},{"bike_id":"789c0afc-031f-4e5d-ab66-4a8e93b4a375","system_id":"levelo_inurba_marseille","lat":43.29783,"lon":5.381098,"is_reserved":false,"is_disabled":false,"rental_uris":{"android":"levelo://app?vid=789c0afc-031f-4e5d-ab66-4a8e93b4a375","ios":"levelo://app?vid=789c0afc-031f-4e5d-ab66-4a8e93b4a375"},"vehicle_type_id":"4","last_reported":1712344030,"current_range_meters":0,"station_id":"ce4bgip2rcd13ifvqbb0","pricing_plan_id":"cebpf4jnsgd1na2vs0mg"},{"bike_id":"5b6f500a-972d-4a34-9d93-6fadd3b401a2","system_id":"levelo_inurba_marseille","lat":43.297843,"lon":5.381126,"is_reserved":false,"is_disabled":false,"rental_uris":{"android":"levelo://app?vid=5b6f500a-972d-4a34-9d93-6fadd3b401a2","ios":"levelo://app?vid=5b6f500a-972d-4a34-9d93-6fadd3b401a2"},"vehicle_type_id":"4","last_reported":1712344030,"current_range_meters":0,"station_id":"ce4bgip2rcd13ifvqbb0","pricing_plan_id":"cebpf4jnsgd1na2vs0mg"},{"bike_id":"4a2716fc-a795-4f2d-82e6-a333462a7a99","system_id":"levelo_inurba_marseille","lat":43.308012,"lon":5.381511,"is_reserved":false,"is_disabled":false,"rental_uris":{"android":"levelo://app?vid=4a2716fc-a795-4f2d-82e6-a333462a7a99","ios":"levelo://app?vid=4a2716fc-a795-4f2d-82e6-a333462a7a99"},"vehicle_type_id":"4","last_reported":1712344030,"current_range_meters":2800,"station_id":"ce4bgt12rcd13ifvqce0","pricing_plan_id":"cebpf4jnsgd1na2vs0mg"},{"bike_id":"68fea955-eb2f-4def-b1d7-0790e7afb2fe","system_id":"levelo_inurba_marseille","lat":43.29618,"lon":5.37713,"is_reserved":false,"is_disabled":false,"rental_uris":{"android":"levelo://app?vid=68fea955-eb2f-4def-b1d7-0790e7afb2fe","ios":"levelo://app?vid=68fea955-eb2f-4def-b1d7-0790e7afb2fe"},"vehicle_type_id":"4","last_reported":1712344030,"current_range_meters":0,"station_id":"ce4bgi92rcd13ifvqb90","pricing_plan_id":"cebpf4jnsgd1na2vs0mg"},{"bike_id":"282e8046-29d8-4c24-9e2c-8819712d4aba","system_id":"levelo_inurba_marseille","lat":43.299707,"lon":5.384859,"is_reserved":false,"is_disabled":false,"rental_uris":{"android":"levelo://app?vid=282e8046-29d8-4c24-9e2c-8819712d4aba","ios":"levelo://app?vid=282e8046-29d8-4c24-9e2c-8819712d4aba"},"vehicle_type_id":"4","last_reported":1712344030,"current_range_meters":0,"station_id":"ce4bgj92rcd13ifvqbd0","pricing_plan_id":"cebpf4jnsgd1na2vs0mg"},{"bike_id":"625b182f-bdec-434e-a0d1-03201e4f5fd3","system_id":"levelo_inurba_marseille","lat":43.296263,"lon":5.377094,"is_reserved":false,"is_disabled":false,"rental_uris":{"android":"levelo://app?vid=625b182f-bdec-434e-a0d1-03201e4f5fd3","ios":"levelo://app?vid=625b182f-bdec-434e-a0d1-03201e4f5fd3"},"vehicle_type_id":"4","last_reported":1712344030,"current_range_meters":1600,"station_id":"ce4bgi92rcd13ifvqb90","pricing_plan_id":"cebpf4jnsgd1na2vs0mg"},{"bike_id":"e4d4f7c8-3364-46c7-8c58-e8b126ee2bd1","system_id":"levelo_inurba_marseille","lat":43.29619,"lon":5.37734,"is_reserved":false,"is_disabled":false,"rental_uris":{"android":"levelo://app?vid=e4d4f7c8-3364-46c7-8c58-e8b126ee2bd1","ios":"levelo://app?vid=e4d4f7c8-3364-46c7-8c58-e8b126ee2bd1"},"vehicle_type_id":"4","last_reported":1712344030,"current_range_meters":0,"station_id":"ce4bgi92rcd13ifvqb90","pricing_plan_id":"cebpf4jnsgd1na2vs0mg"},{"bike_id":"4ba22350-92ba-4776-b48c-70c35e6e476b","system_id":"levelo_inurba_marseille","lat":43.299707,"lon":5.384859,"is_reserved":false,"is_disabled":false,"rental_uris":{"android":"levelo://app?vid=4ba22350-92ba-4776-b48c-70c35e6e476b","ios":"levelo://app?vid=4ba22350-92ba-4776-b48c-70c35e6e476b"},"vehicle_type_id":"4","last_reported":1712344030,"current_range_meters":0,"station_id":"ce4bgj92rcd13ifvqbd0","pricing_plan_id":"cebpf4jnsgd1na2vs0mg"},{"bike_id":"14d7d0d3-68af-4098-8d12-83f61c151373","system_id":"levelo_inurba_marseille","lat":43.299707,"lon":5.384859,"is_reserved":false,"is_disabled":false,"rental_uris":{"android":"levelo://app?vid=14d7d0d3-68af-4098-8d12-83f61c151373","ios":"levelo://app?vid=14d7d0d3-68af-4098-8d12-83f61c151373"},"vehicle_type_id":"4","last_reported":1712344030,"current_range_meters":2000,"station_id":"ce4bgj92rcd13ifvqbd0","pricing_plan_id":"cebpf4jnsgd1na2vs0mg"},{"bike_id":"66c3e0d0-61ff-423d-a6b9-8c2dadf70bc7","system_id":"levelo_inurba_marseille","lat":43.287185,"lon":5.379373,"is_reserved":false,"is_disabled":false,"rental_uris":{"android":"levelo://app?vid=66c3e0d0-61ff-423d-a6b9-8c2dadf70bc7","ios":"levelo://app?vid=66c3e0d0-61ff-423d-a6b9-8c2dadf70bc7"},"vehicle_type_id":"4","last_reported":1712344030,"current_range_meters":4000,"station_id":"ce4bh9p2rcd13ifvqec0","pricing_plan_id":"cebpf4jnsgd1na2vs0mg"},{"bike_id":"741c33cc-7534-449f-a8b5-74eee9daeb17","system_id":"levelo_inurba_marseille","lat":43.299707,"lon":5.384859,"is_reserved":false,"is_disabled":false,"rental_uris":{"android":"levelo://app?vid=741c33cc-7534-449f-a8b5-74eee9daeb17","ios":"levelo://app?vid=741c33cc-7534-449f-a8b5-74eee9daeb17"},"vehicle_type_id":"4","last_reported":1712344030,"current_range_meters":0,"station_id":"ce4bgj92rcd13ifvqbd0","pricing_plan_id":"cebpf4jnsgd1na2vs0mg"},{"bike_id":"560d060b-97d2-41b3-bc99-1c0e35cb4dd7","system_id":"levelo_inurba_marseille","lat":43.295279,"lon":5.375048,"is_reserved":false,"is_disabled":false,"rental_uris":{"android":"levelo://app?vid=560d060b-97d2-41b3-bc99-1c0e35cb4dd7","ios":"levelo://app?vid=560d060b-97d2-41b3-bc99-1c0e35cb4dd7"},"vehicle_type_id":"4","last_reported":1712344030,"current_range_meters":0,"station_id":"ce4bgkp2rcd13ifvqbmg","pricing_plan_id":"cebpf4jnsgd1na2vs0mg"},{"bike_id":"577c950c-2b52-44cb-b55d-80a6e7a964ca","system_id":"levelo_inurba_marseille","lat":43.299707,"lon":5.384859,"is_reserved":false,"is_disabled":false,"rental_uris":{"android":"levelo://app?vid=577c950c-2b52-44cb-b55d-80a6e7a964ca","ios":"levelo://app?vid=577c950c-2b52-44cb-b55d-80a6e7a964ca"},"vehicle_type_id":"4","last_reported":1712344030,"current_range_meters":0,"station_id":"ce4bgj92rcd13ifvqbd0","pricing_plan_id":"cebpf4jnsgd1na2vs0mg"},{"bike_id":"e7dae2cf-84ce-4f88-814d-04b2a5d68ff4","system_id":"levelo_inurba_marseille","lat":43.295242,"lon":5.375098,"is_reserved":false,"is_disabled":false,"rental_uris":{"android":"levelo://app?vid=e7dae2cf-84ce-4f88-814d-04b2a5d68ff4","ios":"levelo://app?vid=e7dae2cf-84ce-4f88-814d-04b2a5d68ff4"},"vehicle_type_id":"4","last_reported":1712344030,"current_range_meters":0,"station_id":"ce4bgkp2rcd13ifvqbmg","pricing_plan_id":"cebpf4jnsgd1na2vs0mg"},{"bike_id":"235f7523-b48a-40b7-ad93-d52e18a46215","system_id":"levelo_inurba_marseille","lat":43.298433,"lon":5.362774,"is_reserved":false,"is_disabled":false,"rental_uris":{"android":"levelo://app?vid=235f7523-b48a-40b7-ad93-d52e18a46215","ios":"levelo://app?vid=235f7523-b48a-40b7-ad93-d52e18a46215"},"vehicle_type_id":"4","last_reported":1712344030,"current_range_meters":7600,"station_id":"ce4bgpp2rcd13ifvqc3g","pricing_plan_id":"cebpf4jnsgd1na2vs0mg"},{"bike_id":"a79bdfd9-26b0-4918-8ac3-1a1e65224ad6","system_id":"levelo_inurba_marseille","lat":43.299707,"lon":5.384859,"is_reserved":false,"is_disabled":false,"rental_uris":{"android":"levelo://app?vid=a79bdfd9-26b0-4918-8ac3-1a1e65224ad6","ios":"levelo://app?vid=a79bdfd9-26b0-4918-8ac3-1a1e65224ad6"},"vehicle_type_id":"4","last_reported":1712344030,"current_range_meters":0,"station_id":"ce4bgj92rcd13ifvqbd0","pricing_plan_id":"cebpf4jnsgd1na2vs0mg"},{"bike_id":"b23cccf0-f0cc-46f4-9135-2848cd3cd427","system_id":"levelo_inurba_marseille","lat":43.29963,"lon":5.38492,"is_reserved":false,"is_disabled":false,"rental_uris":{"android":"levelo://app?vid=b23cccf0-f0cc-46f4-9135-2848cd3cd427","ios":"levelo://app?vid=b23cccf0-f0cc-46f4-9135-2848cd3cd427"},"vehicle_type_id":"4","last_reported":1712344030,"current_range_meters":0,"station_id":"ce4bgj92rcd13ifvqbd0","pricing_plan_id":"cebpf4jnsgd1na2vs0mg"},{"bike_id":"8a510e35-76ee-40a8-ad04-ea2590eaa50f","system_id":"levelo_inurba_marseille","lat":43.299717,"lon":5.384845,"is_reserved":false,"is_disabled":false,"rental_uris":{"android":"levelo://app?vid=8a510e35-76ee-40a8-ad04-ea2590eaa50f","ios":"levelo://app?vid=8a510e35-76ee-40a8-ad04-ea2590eaa50f"},"vehicle_type_id":"4","last_reported":1712344030,"current_range_meters":6000,"station_id":"ce4bgj92rcd13ifvqbd0","pricing_plan_id":"cebpf4jnsgd1na2vs0mg"},{"bike_id":"90304bee-81b9-4733-98cf-842b163e379e","system_id":"levelo_inurba_marseille","lat":43.299707,"lon":5.384859,"is_reserved":false,"is_disabled":false,"rental_uris":{"android":"levelo://app?vid=90304bee-81b9-4733-98cf-842b163e379e","ios":"levelo://app?vid=90304bee-81b9-4733-98cf-842b163e379e"},"vehicle_type_id":"4","last_reported":1712344030,"current_range_meters":800,"station_id":"ce4bgj92rcd13ifvqbd0","pricing_plan_id":"cebpf4jnsgd1na2vs0mg"},{"bike_id":"5db13462-703b-4025-8f13-dd59930b11dd","system_id":"levelo_inurba_marseille","lat":43.29968,"lon":5.38508,"is_reserved":false,"is_disabled":false,"rental_uris":{"android":"levelo://app?vid=5db13462-703b-4025-8f13-dd59930b11dd","ios":"levelo://app?vid=5db13462-703b-4025-8f13-dd59930b11dd"},"vehicle_type_id":"4","last_reported":1712344030,"current_range_meters":0,"station_id":"ce4bgj92rcd13ifvqbd0","pricing_plan_id":"cebpf4jnsgd1na2vs0mg"},{"bike_id":"d9b81bd0-b076-4c4f-998b-e90a65555fe9","system_id":"levelo_inurba_marseille","lat":43.32364,"lon":5.38878,"is_reserved":false,"is_disabled":false,"rental_uris":{"android":"levelo://app?vid=d9b81bd0-b076-4c4f-998b-e90a65555fe9","ios":"levelo://app?vid=d9b81bd0-b076-4c4f-998b-e90a65555fe9"},"vehicle_type_id":"4","last_reported":1712344030,"current_range_meters":3200,"station_id":"ce4bhqp2rcd13ifvqhog","pricing_plan_id":"cebpf4jnsgd1na2vs0mg"},{"bike_id":"3abbef0d-ab62-4d7c-a818-d49cb2aafb88","system_id":"levelo_inurba_marseille","lat":43.32367,"lon":5.388836,"is_reserved":false,"is_disabled":false,"rental_uris":{"android":"levelo://app?vid=3abbef0d-ab62-4d7c-a818-d49cb2aafb88","ios":"levelo://app?vid=3abbef0d-ab62-4d7c-a818-d49cb2aafb88"},"vehicle_type_id":"4","last_reported":1712344030,"current_range_meters":10000,"station_id":"ce4bhqp2rcd13ifvqhog","pricing_plan_id":"cebpf4jnsgd1na2vs0mg"},{"bike_id":"e8100ed1-95d7-45ff-979a-1d9df5d4bc49","system_id":"levelo_inurba_marseille","lat":43.32367,"lon":5.388836,"is_reserved":false,"is_disabled":false,"rental_uris":{"android":"levelo://app?vid=e8100ed1-95d7-45ff-979a-1d9df5d4bc49","ios":"levelo://app?vid=e8100ed1-95d7-45ff-979a-1d9df5d4bc49"},"vehicle_type_id":"4","last_reported":1712344030,"current_range_meters":7600,"station_id":"ce4bhqp2rcd13ifvqhog","pricing_plan_id":"cebpf4jnsgd1na2vs0mg"},{"bike_id":"c5ed90dd-85d0-4191-b4fa-f5b81de4b1cc","system_id":"levelo_inurba_marseille","lat":43.32372,"lon":5.388782,"is_reserved":false,"is_disabled":false,"rental_uris":{"android":"levelo://app?vid=c5ed90dd-85d0-4191-b4fa-f5b81de4b1cc","ios":"levelo://app?vid=c5ed90dd-85d0-4191-b4fa-f5b81de4b1cc"},"vehicle_type_id":"4","last_reported":1712344030,"current_range_meters":6000,"station_id":"ce4bhqp2rcd13ifvqhog","pricing_plan_id":"cebpf4jnsgd1na2vs0mg"},{"bike_id":"6ffd0c17-918b-4766-9a8a-720454d66190","system_id":"levelo_inurba_marseille","lat":43.32367,"lon":5.388836,"is_reserved":false,"is_disabled":false,"rental_uris":{"android":"levelo://app?vid=6ffd0c17-918b-4766-9a8a-720454d66190","ios":"levelo://app?vid=6ffd0c17-918b-4766-9a8a-720454d66190"},"vehicle_type_id":"4","last_reported":1712344030,"current_range_meters":18000,"station_id":"ce4bhqp2rcd13ifvqhog","pricing_plan_id":"cebpf4jnsgd1na2vs0mg"},{"bike_id":"63c5e04b-8d84-4205-a085-3e99d1f867ad","system_id":"levelo_inurba_marseille","lat":43.32367,"lon":5.388836,"is_reserved":false,"is_disabled":false,"rental_uris":{"android":"levelo://app?vid=63c5e04b-8d84-4205-a085-3e99d1f867ad","ios":"levelo://app?vid=63c5e04b-8d84-4205-a085-3e99d1f867ad"},"vehicle_type_id":"4","last_reported":1712344030,"current_range_meters":9200,"station_id":"ce4bhqp2rcd13ifvqhog","pricing_plan_id":"cebpf4jnsgd1na2vs0mg"},{"bike_id":"a13425c4-be7b-47c9-bc3c-09535e0327eb","system_id":"levelo_inurba_marseille","lat":43.32355,"lon":5.38897,"is_reserved":false,"is_disabled":false,"rental_uris":{"android":"levelo://app?vid=a13425c4-be7b-47c9-bc3c-09535e0327eb","ios":"levelo://app?vid=a13425c4-be7b-47c9-bc3c-09535e0327eb"},"vehicle_type_id":"4","last_reported":1712344030,"current_range_meters":2000,"station_id":"ce4bhqp2rcd13ifvqhog","pricing_plan_id":"cebpf4jnsgd1na2vs0mg"},{"bike_id":"e961ec59-d062-4d1f-95f8-1f763cab65db","system_id":"levelo_inurba_marseille","lat":43.32367,"lon":5.388836,"is_reserved":false,"is_disabled":false,"rental_uris":{"android":"levelo://app?vid=e961ec59-d062-4d1f-95f8-1f763cab65db","ios":"levelo://app?vid=e961ec59-d062-4d1f-95f8-1f763cab65db"},"vehicle_type_id":"4","last_reported":1712344030,"current_range_meters":2800,"station_id":"ce4bhqp2rcd13ifvqhog","pricing_plan_id":"cebpf4jnsgd1na2vs0mg"},{"bike_id":"41405296-cc57-4517-995e-a1d8f1fd6e67","system_id":"levelo_inurba_marseille","lat":43.32367,"lon":5.388836,"is_reserved":false,"is_disabled":false,"rental_uris":{"android":"levelo://app?vid=41405296-cc57-4517-995e-a1d8f1fd6e67","ios":"levelo://app?vid=41405296-cc57-4517-995e-a1d8f1fd6e67"},"vehicle_type_id":"4","last_reported":1712344030,"current_range_meters":0,"station_id":"ce4bhqp2rcd13ifvqhog","pricing_plan_id":"cebpf4jnsgd1na2vs0mg"},{"bike_id":"3000a369-e1d4-4fff-a9d0-cdc96f9ae1d6","system_id":"levelo_inurba_marseille","lat":43.32367,"lon":5.388836,"is_reserved":false,"is_disabled":false,"rental_uris":{"android":"levelo://app?vid=3000a369-e1d4-4fff-a9d0-cdc96f9ae1d6","ios":"levelo://app?vid=3000a369-e1d4-4fff-a9d0-cdc96f9ae1d6"},"vehicle_type_id":"4","last_reported":1712344030,"current_range_meters":6400,"station_id":"ce4bhqp2rcd13ifvqhog","pricing_plan_id":"cebpf4jnsgd1na2vs0mg"},{"bike_id":"650a6bc4-8a39-48ff-a401-90e04c68aba1","system_id":"levelo_inurba_marseille","lat":43.29601,"lon":5.381084,"is_reserved":false,"is_disabled":false,"rental_uris":{"android":"levelo://app?vid=650a6bc4-8a39-48ff-a401-90e04c68aba1","ios":"levelo://app?vid=650a6bc4-8a39-48ff-a401-90e04c68aba1"},"vehicle_type_id":"4","last_reported":1712344030,"current_range_meters":19600,"station_id":"ce4bgl12rcd13ifvqbo0","pricing_plan_id":"cebpf4jnsgd1na2vs0mg"},{"bike_id":"993c5688-8997-489c-969d-d14a2a728860","system_id":"levelo_inurba_marseille","lat":43.29602,"lon":5.381084,"is_reserved":false,"is_disabled":false,"rental_uris":{"android":"levelo://app?vid=993c5688-8997-489c-969d-d14a2a728860","ios":"levelo://app?vid=993c5688-8997-489c-969d-d14a2a728860"},"vehicle_type_id":"4","last_reported":1712344030,"current_range_meters":13600,"station_id":"ce4bgl12rcd13ifvqbo0","pricing_plan_id":"cebpf4jnsgd1na2vs0mg"},{"bike_id":"66fa3526-927c-4b86-900a-7f1132edf365","system_id":"levelo_inurba_marseille","lat":43.29599,"lon":5.38099,"is_reserved":false,"is_disabled":false,"rental_uris":{"android":"levelo://app?vid=66fa3526-927c-4b86-900a-7f1132edf365","ios":"levelo://app?vid=66fa3526-927c-4b86-900a-7f1132edf365"},"vehicle_type_id":"4","last_reported":1712344030,"current_range_meters":0,"station_id":"ce4bgl12rcd13ifvqbo0","pricing_plan_id":"cebpf4jnsgd1na2vs0mg"},{"bike_id":"c24b8dc0-c886-4751-8209-e8582c6e4b46","system_id":"levelo_inurba_marseille","lat":43.29602,"lon":5.381084,"is_reserved":false,"is_disabled":false,"rental_uris":{"android":"levelo://app?vid=c24b8dc0-c886-4751-8209-e8582c6e4b46","ios":"levelo://app?vid=c24b8dc0-c886-4751-8209-e8582c6e4b46"},"vehicle_type_id":"4","last_reported":1712344030,"current_range_meters":9200,"station_id":"ce4bgl12rcd13ifvqbo0","pricing_plan_id":"cebpf4jnsgd1na2vs0mg"},{"bike_id":"f484bd00-a579-4e0f-aa34-868ce79c826b","system_id":"levelo_inurba_marseille","lat":43.29602,"lon":5.381084,"is_reserved":false,"is_disabled":false,"rental_uris":{"android":"levelo://app?vid=f484bd00-a579-4e0f-aa34-868ce79c826b","ios":"levelo://app?vid=f484bd00-a579-4e0f-aa34-868ce79c826b"},"vehicle_type_id":"4","last_reported":1712344030,"current_range_meters":0,"station_id":"ce4bgl12rcd13ifvqbo0","pricing_plan_id":"cebpf4jnsgd1na2vs0mg"},{"bike_id":"a8234da1-d3fe-48a0-b78d-6eb502b91f18","system_id":"levelo_inurba_marseille","lat":43.29601,"lon":5.381084,"is_reserved":false,"is_disabled":false,"rental_uris":{"android":"levelo://app?vid=a8234da1-d3fe-48a0-b78d-6eb502b91f18","ios":"levelo://app?vid=a8234da1-d3fe-48a0-b78d-6eb502b91f18"},"vehicle_type_id":"4","last_reported":1712344030,"current_range_meters":3200,"station_id":"ce4bgl12rcd13ifvqbo0","pricing_plan_id":"cebpf4jnsgd1na2vs0mg"},{"bike_id":"f5f82a27-81ab-45bf-92c3-6ed346f05b2b","system_id":"levelo_inurba_marseille","lat":43.295953,"lon":5.381043,"is_reserved":false,"is_disabled":false,"rental_uris":{"android":"levelo://app?vid=f5f82a27-81ab-45bf-92c3-6ed346f05b2b","ios":"levelo://app?vid=f5f82a27-81ab-45bf-92c3-6ed346f05b2b"},"vehicle_type_id":"4","last_reported":1712344030,"current_range_meters":0,"station_id":"ce4bgl12rcd13ifvqbo0","pricing_plan_id":"cebpf4jnsgd1na2vs0mg"},{"bike_id":"5f38a37d-29f2-400f-8fa9-7b3a972b0dac","system_id":"levelo_inurba_marseille","lat":43.29594,"lon":5.381033,"is_reserved":false,"is_disabled":false,"rental_uris":{"android":"levelo://app?vid=5f38a37d-29f2-400f-8fa9-7b3a972b0dac","ios":"levelo://app?vid=5f38a37d-29f2-400f-8fa9-7b3a972b0dac"},"vehicle_type_id":"4","last_reported":1712344030,"current_range_meters":0,"station_id":"ce4bgl12rcd13ifvqbo0","pricing_plan_id":"cebpf4jnsgd1na2vs0mg"},{"bike_id":"440296d5-2cc0-474f-993b-90365b34820b","system_id":"levelo_inurba_marseille","lat":43.293181,"lon":5.371634,"is_reserved":false,"is_disabled":false,"rental_uris":{"android":"levelo://app?vid=440296d5-2cc0-474f-993b-90365b34820b","ios":"levelo://app?vid=440296d5-2cc0-474f-993b-90365b34820b"},"vehicle_type_id":"4","last_reported":1712344030,"current_range_meters":6800,"station_id":"ce4bgh92rcd13ifvqb40","pricing_plan_id":"cebpf4jnsgd1na2vs0mg"},{"bike_id":"7232ae08-e2da-409a-a2b4-300d9eaf82a3","system_id":"levelo_inurba_marseille","lat":43.292749,"lon":5.368402,"is_reserved":false,"is_disabled":false,"rental_uris":{"android":"levelo://app?vid=7232ae08-e2da-409a-a2b4-300d9eaf82a3","ios":"levelo://app?vid=7232ae08-e2da-409a-a2b4-300d9eaf82a3"},"vehicle_type_id":"4","last_reported":1712344030,"current_range_meters":0,"station_id":"ce4bhbp2rcd13ifvqesg","pricing_plan_id":"cebpf4jnsgd1na2vs0mg"},{"bike_id":"5be8964a-3570-453f-9b82-f48d4539e992","system_id":"levelo_inurba_marseille","lat":43.29309,"lon":5.37171,"is_reserved":false,"is_disabled":false,"rental_uris":{"android":"levelo://app?vid=5be8964a-3570-453f-9b82-f48d4539e992","ios":"levelo://app?vid=5be8964a-3570-453f-9b82-f48d4539e992"},"vehicle_type_id":"4","last_reported":1712344030,"current_range_meters":19200,"station_id":"ce4bgh92rcd13ifvqb40","pricing_plan_id":"cebpf4jnsgd1na2vs0mg"},{"bike_id":"9208f181-ba2d-48fa-bee3-404e632dcc7b","system_id":"levelo_inurba_marseille","lat":43.29307,"lon":5.37161,"is_reserved":false,"is_disabled":false,"rental_uris":{"android":"levelo://app?vid=9208f181-ba2d-48fa-bee3-404e632dcc7b","ios":"levelo://app?vid=9208f181-ba2d-48fa-bee3-404e632dcc7b"},"vehicle_type_id":"4","last_reported":1712344030,"current_range_meters":5600,"station_id":"ce4bgh92rcd13ifvqb40","pricing_plan_id":"cebpf4jnsgd1na2vs0mg"},{"bike_id":"59755c52-7e24-4717-a7e4-04cd81e50d76","system_id":"levelo_inurba_marseille","lat":43.29309,"lon":5.37183,"is_reserved":false,"is_disabled":false,"rental_uris":{"android":"levelo://app?vid=59755c52-7e24-4717-a7e4-04cd81e50d76","ios":"levelo://app?vid=59755c52-7e24-4717-a7e4-04cd81e50d76"},"vehicle_type_id":"4","last_reported":1712344030,"current_range_meters":800,"station_id":"ce4bgh92rcd13ifvqb40","pricing_plan_id":"cebpf4jnsgd1na2vs0mg"},{"bike_id":"9c197ecd-cabe-4a73-800e-1ceaa2989f07","system_id":"levelo_inurba_marseille","lat":43.29309,"lon":5.37184,"is_reserved":false,"is_disabled":false,"rental_uris":{"android":"levelo://app?vid=9c197ecd-cabe-4a73-800e-1ceaa2989f07","ios":"levelo://app?vid=9c197ecd-cabe-4a73-800e-1ceaa2989f07"},"vehicle_type_id":"4","last_reported":1712344030,"current_range_meters":4800,"station_id":"ce4bgh92rcd13ifvqb40","pricing_plan_id":"cebpf4jnsgd1na2vs0mg"},{"bike_id":"fed5dee7-7115-46e6-bce6-6d656120df80","system_id":"levelo_inurba_marseille","lat":43.29303,"lon":5.37168,"is_reserved":false,"is_disabled":false,"rental_uris":{"android":"levelo://app?vid=fed5dee7-7115-46e6-bce6-6d656120df80","ios":"levelo://app?vid=fed5dee7-7115-46e6-bce6-6d656120df80"},"vehicle_type_id":"4","last_reported":1712344030,"current_range_meters":0,"station_id":"ce4bgh92rcd13ifvqb40","pricing_plan_id":"cebpf4jnsgd1na2vs0mg"},{"bike_id":"f255aabd-1d3f-468c-8feb-b1f50a6b3b23","system_id":"levelo_inurba_marseille","lat":43.292749,"lon":5.368402,"is_reserved":false,"is_disabled":false,"rental_uris":{"android":"levelo://app?vid=f255aabd-1d3f-468c-8feb-b1f50a6b3b23","ios":"levelo://app?vid=f255aabd-1d3f-468c-8feb-b1f50a6b3b23"},"vehicle_type_id":"4","last_reported":1712344030,"current_range_meters":0,"station_id":"ce4bhbp2rcd13ifvqesg","pricing_plan_id":"cebpf4jnsgd1na2vs0mg"},{"bike_id":"fc3af1b9-7620-4440-ae95-1623fa427938","system_id":"levelo_inurba_marseille","lat":43.29301,"lon":5.37179,"is_reserved":false,"is_disabled":false,"rental_uris":{"android":"levelo://app?vid=fc3af1b9-7620-4440-ae95-1623fa427938","ios":"levelo://app?vid=fc3af1b9-7620-4440-ae95-1623fa427938"},"vehicle_type_id":"4","last_reported":1712344030,"current_range_meters":0,"station_id":"ce4bgh92rcd13ifvqb40","pricing_plan_id":"cebpf4jnsgd1na2vs0mg"},{"bike_id":"d978bcfb-0ccb-41c1-8089-725503d1b716","system_id":"levelo_inurba_marseille","lat":43.293,"lon":5.37183,"is_reserved":false,"is_disabled":false,"rental_uris":{"android":"levelo://app?vid=d978bcfb-0ccb-41c1-8089-725503d1b716","ios":"levelo://app?vid=d978bcfb-0ccb-41c1-8089-725503d1b716"},"vehicle_type_id":"4","last_reported":1712344030,"current_range_meters":0,"station_id":"ce4bgh92rcd13ifvqb40","pricing_plan_id":"cebpf4jnsgd1na2vs0mg"},{"bike_id":"59a66b82-0d64-47f1-a592-59554729ab12","system_id":"levelo_inurba_marseille","lat":43.292749,"lon":5.368398,"is_reserved":false,"is_disabled":false,"rental_uris":{"android":"levelo://app?vid=59a66b82-0d64-47f1-a592-59554729ab12","ios":"levelo://app?vid=59a66b82-0d64-47f1-a592-59554729ab12"},"vehicle_type_id":"4","last_reported":1712344030,"current_range_meters":1200,"station_id":"ce4bhbp2rcd13ifvqesg","pricing_plan_id":"cebpf4jnsgd1na2vs0mg"},{"bike_id":"51cdd39c-6297-49e0-8fac-f439a4ba1d11","system_id":"levelo_inurba_marseille","lat":43.29296,"lon":5.3719,"is_reserved":false,"is_disabled":false,"rental_uris":{"android":"levelo://app?vid=51cdd39c-6297-49e0-8fac-f439a4ba1d11","ios":"levelo://app?vid=51cdd39c-6297-49e0-8fac-f439a4ba1d11"},"vehicle_type_id":"4","last_reported":1712344030,"current_range_meters":28800,"station_id":"ce4bgh92rcd13ifvqb40","pricing_plan_id":"cebpf4jnsgd1na2vs0mg"},{"bike_id":"760f0c83-a092-42f8-aeee-c5aec5959aa4","system_id":"levelo_inurba_marseille","lat":43.29292,"lon":5.37161,"is_reserved":false,"is_disabled":false,"rental_uris":{"android":"levelo://app?vid=760f0c83-a092-42f8-aeee-c5aec5959aa4","ios":"levelo://app?vid=760f0c83-a092-42f8-aeee-c5aec5959aa4"},"vehicle_type_id":"4","last_reported":1712344030,"current_range_meters":26400,"station_id":"ce4bgh92rcd13ifvqb40","pricing_plan_id":"cebpf4jnsgd1na2vs0mg"},{"bike_id":"6c0a7585-cccf-4876-9504-2a2ad0f770e5","system_id":"levelo_inurba_marseille","lat":43.29304,"lon":5.37444,"is_reserved":false,"is_disabled":false,"rental_uris":{"android":"levelo://app?vid=6c0a7585-cccf-4876-9504-2a2ad0f770e5","ios":"levelo://app?vid=6c0a7585-cccf-4876-9504-2a2ad0f770e5"},"vehicle_type_id":"4","last_reported":1712344030,"current_range_meters":16000,"station_id":"","pricing_plan_id":"cebpf4jnsgd1na2vs0mg"},{"bike_id":"85aeafd2-6879-4b0f-850f-ae0eded1193d","system_id":"levelo_inurba_marseille","lat":43.290779,"lon":5.371482,"is_reserved":false,"is_disabled":false,"rental_uris":{"android":"levelo://app?vid=85aeafd2-6879-4b0f-850f-ae0eded1193d","ios":"levelo://app?vid=85aeafd2-6879-4b0f-850f-ae0eded1193d"},"vehicle_type_id":"4","last_reported":1712344030,"current_range_meters":16800,"station_id":"ce4bh5p2rcd13ifvqe4g","pricing_plan_id":"cebpf4jnsgd1na2vs0mg"},{"bike_id":"d57227e4-24a4-4a3c-b7a4-710b76c81721","system_id":"levelo_inurba_marseille","lat":43.305994,"lon":5.393687,"is_reserved":false,"is_disabled":false,"rental_uris":{"android":"levelo://app?vid=d57227e4-24a4-4a3c-b7a4-710b76c81721","ios":"levelo://app?vid=d57227e4-24a4-4a3c-b7a4-710b76c81721"},"vehicle_type_id":"4","last_reported":1712344030,"current_range_meters":800,"station_id":"ce4bh0p2rcd13ifvqd80","pricing_plan_id":"cebpf4jnsgd1na2vs0mg"},{"bike_id":"0a5c8814-2456-4202-9dc3-2cabfdf2d4fc","system_id":"levelo_inurba_marseille","lat":43.292967,"lon":5.374582,"is_reserved":false,"is_disabled":false,"rental_uris":{"android":"levelo://app?vid=0a5c8814-2456-4202-9dc3-2cabfdf2d4fc","ios":"levelo://app?vid=0a5c8814-2456-4202-9dc3-2cabfdf2d4fc"},"vehicle_type_id":"4","last_reported":1712344030,"current_range_meters":0,"station_id":"ce4bgi12rcd13ifvqb70","pricing_plan_id":"cebpf4jnsgd1na2vs0mg"},{"bike_id":"38e045ba-5f6f-4c9f-8504-2296027b490d","system_id":"levelo_inurba_marseille","lat":43.302992,"lon":5.392136,"is_reserved":false,"is_disabled":false,"rental_uris":{"android":"levelo://app?vid=38e045ba-5f6f-4c9f-8504-2296027b490d","ios":"levelo://app?vid=38e045ba-5f6f-4c9f-8504-2296027b490d"},"vehicle_type_id":"4","last_reported":1712344030,"current_range_meters":8400,"station_id":"ce4bgkh2rcd13ifvqbk0","pricing_plan_id":"cebpf4jnsgd1na2vs0mg"},{"bike_id":"f527322a-891b-41a6-9be8-329b8be46480","system_id":"levelo_inurba_marseille","lat":43.29287,"lon":5.37475,"is_reserved":false,"is_disabled":false,"rental_uris":{"android":"levelo://app?vid=f527322a-891b-41a6-9be8-329b8be46480","ios":"levelo://app?vid=f527322a-891b-41a6-9be8-329b8be46480"},"vehicle_type_id":"4","last_reported":1712344030,"current_range_meters":0,"station_id":"ce4bgi12rcd13ifvqb70","pricing_plan_id":"cebpf4jnsgd1na2vs0mg"},{"bike_id":"99789bba-069c-425f-875a-a0bfd4036ead","system_id":"levelo_inurba_marseille","lat":43.30308,"lon":5.392141,"is_reserved":false,"is_disabled":false,"rental_uris":{"android":"levelo://app?vid=99789bba-069c-425f-875a-a0bfd4036ead","ios":"levelo://app?vid=99789bba-069c-425f-875a-a0bfd4036ead"},"vehicle_type_id":"4","last_reported":1712344030,"current_range_meters":0,"station_id":"ce4bgkh2rcd13ifvqbk0","pricing_plan_id":"cebpf4jnsgd1na2vs0mg"},{"bike_id":"f62e62fc-632b-478e-90d9-9c90e09ddfc8","system_id":"levelo_inurba_marseille","lat":43.302992,"lon":5.392079,"is_reserved":false,"is_disabled":false,"rental_uris":{"android":"levelo://app?vid=f62e62fc-632b-478e-90d9-9c90e09ddfc8","ios":"levelo://app?vid=f62e62fc-632b-478e-90d9-9c90e09ddfc8"},"vehicle_type_id":"4","last_reported":1712344030,"current_range_meters":0,"station_id":"ce4bgkh2rcd13ifvqbk0","pricing_plan_id":"cebpf4jnsgd1na2vs0mg"},{"bike_id":"325b3643-5a39-486a-8c03-f79e2525e33c","system_id":"levelo_inurba_marseille","lat":43.303002,"lon":5.392142,"is_reserved":false,"is_disabled":false,"rental_uris":{"android":"levelo://app?vid=325b3643-5a39-486a-8c03-f79e2525e33c","ios":"levelo://app?vid=325b3643-5a39-486a-8c03-f79e2525e33c"},"vehicle_type_id":"4","last_reported":1712344030,"current_range_meters":20000,"station_id":"ce4bgkh2rcd13ifvqbk0","pricing_plan_id":"cebpf4jnsgd1na2vs0mg"},{"bike_id":"047dadda-3a70-4d43-81d7-5ee39b0f5010","system_id":"levelo_inurba_marseille","lat":43.2936,"lon":5.37835,"is_reserved":false,"is_disabled":false,"rental_uris":{"android":"levelo://app?vid=047dadda-3a70-4d43-81d7-5ee39b0f5010","ios":"levelo://app?vid=047dadda-3a70-4d43-81d7-5ee39b0f5010"},"vehicle_type_id":"4","last_reported":1712344030,"current_range_meters":17200,"station_id":"ce4bgjh2rcd13ifvqbf0","pricing_plan_id":"cebpf4jnsgd1na2vs0mg"},{"bike_id":"1f02e51b-d607-462b-aa72-c5620c3dd982","system_id":"levelo_inurba_marseille","lat":43.303002,"lon":5.392142,"is_reserved":false,"is_disabled":false,"rental_uris":{"android":"levelo://app?vid=1f02e51b-d607-462b-aa72-c5620c3dd982","ios":"levelo://app?vid=1f02e51b-d607-462b-aa72-c5620c3dd982"},"vehicle_type_id":"4","last_reported":1712344030,"current_range_meters":3200,"station_id":"ce4bgkh2rcd13ifvqbk0","pricing_plan_id":"cebpf4jnsgd1na2vs0mg"},{"bike_id":"8ece573e-c6e5-45c4-b000-bb02fcfa8ddb","system_id":"levelo_inurba_marseille","lat":43.2936,"lon":5.37835,"is_reserved":false,"is_disabled":false,"rental_uris":{"android":"levelo://app?vid=8ece573e-c6e5-45c4-b000-bb02fcfa8ddb","ios":"levelo://app?vid=8ece573e-c6e5-45c4-b000-bb02fcfa8ddb"},"vehicle_type_id":"4","last_reported":1712344030,"current_range_meters":4800,"station_id":"ce4bgjh2rcd13ifvqbf0","pricing_plan_id":"cebpf4jnsgd1na2vs0mg"},{"bike_id":"de072a53-0e44-47e3-941c-b745ef0dc91e","system_id":"levelo_inurba_marseille","lat":43.292311,"lon":5.360731,"is_reserved":false,"is_disabled":false,"rental_uris":{"android":"levelo://app?vid=de072a53-0e44-47e3-941c-b745ef0dc91e","ios":"levelo://app?vid=de072a53-0e44-47e3-941c-b745ef0dc91e"},"vehicle_type_id":"4","last_reported":1712344030,"current_range_meters":0,"station_id":"ce4bhbh2rcd13ifvqeqg","pricing_plan_id":"cebpf4jnsgd1na2vs0mg"},{"bike_id":"355e60a6-c74f-492b-a6dc-366551afc6ae","system_id":"levelo_inurba_marseille","lat":43.292136,"lon":5.360497,"is_reserved":false,"is_disabled":false,"rental_uris":{"android":"levelo://app?vid=355e60a6-c74f-492b-a6dc-366551afc6ae","ios":"levelo://app?vid=355e60a6-c74f-492b-a6dc-366551afc6ae"},"vehicle_type_id":"4","last_reported":1712344030,"current_range_meters":0,"station_id":"ce4bhbh2rcd13ifvqeqg","pricing_plan_id":"cebpf4jnsgd1na2vs0mg"},{"bike_id":"a6d92e58-8f20-4e35-9cfb-fc390b4945fe","system_id":"levelo_inurba_marseille","lat":43.298764,"lon":5.388973,"is_reserved":false,"is_disabled":false,"rental_uris":{"android":"levelo://app?vid=a6d92e58-8f20-4e35-9cfb-fc390b4945fe","ios":"levelo://app?vid=a6d92e58-8f20-4e35-9cfb-fc390b4945fe"},"vehicle_type_id":"4","last_reported":1712344030,"current_range_meters":10000,"station_id":"ce4bh392rcd13ifvqdl0","pricing_plan_id":"cebpf4jnsgd1na2vs0mg"},{"bike_id":"fcf9384b-7e3b-4717-a1ab-47e8b925e719","system_id":"levelo_inurba_marseille","lat":43.293259,"lon":5.371586,"is_reserved":false,"is_disabled":false,"rental_uris":{"android":"levelo://app?vid=fcf9384b-7e3b-4717-a1ab-47e8b925e719","ios":"levelo://app?vid=fcf9384b-7e3b-4717-a1ab-47e8b925e719"},"vehicle_type_id":"4","last_reported":1712344030,"current_range_meters":26800,"station_id":"ce4bgh92rcd13ifvqb40","pricing_plan_id":"cebpf4jnsgd1na2vs0mg"},{"bike_id":"5a4878b9-510c-44b7-9f65-5d95249fdfca","system_id":"levelo_inurba_marseille","lat":43.2919,"lon":5.35798,"is_reserved":false,"is_disabled":false,"rental_uris":{"android":"levelo://app?vid=5a4878b9-510c-44b7-9f65-5d95249fdfca","ios":"levelo://app?vid=5a4878b9-510c-44b7-9f65-5d95249fdfca"},"vehicle_type_id":"4","last_reported":1712344030,"current_range_meters":0,"station_id":"ce4bhb12rcd13ifvqel0","pricing_plan_id":"cebpf4jnsgd1na2vs0mg"},{"bike_id":"3c939e08-7dac-479e-bdc8-d0d8da9dc2e3","system_id":"levelo_inurba_marseille","lat":43.313291,"lon":5.396838,"is_reserved":false,"is_disabled":false,"rental_uris":{"android":"levelo://app?vid=3c939e08-7dac-479e-bdc8-d0d8da9dc2e3","ios":"levelo://app?vid=3c939e08-7dac-479e-bdc8-d0d8da9dc2e3"},"vehicle_type_id":"4","last_reported":1712344030,"current_range_meters":0,"station_id":"ce4bgvp2rcd13ifvqcu0","pricing_plan_id":"cebpf4jnsgd1na2vs0mg"},{"bike_id":"a00e75e3-ef3c-4534-8d10-012b8d884a1f","system_id":"levelo_inurba_marseille","lat":43.291994,"lon":5.357886,"is_reserved":false,"is_disabled":false,"rental_uris":{"android":"levelo://app?vid=a00e75e3-ef3c-4534-8d10-012b8d884a1f","ios":"levelo://app?vid=a00e75e3-ef3c-4534-8d10-012b8d884a1f"},"vehicle_type_id":"4","last_reported":1712344030,"current_range_meters":0,"station_id":"ce4bhb12rcd13ifvqel0","pricing_plan_id":"cebpf4jnsgd1na2vs0mg"},{"bike_id":"5efb1ceb-6872-495b-8d52-21f1dac9a5e8","system_id":"levelo_inurba_marseille","lat":43.313291,"lon":5.396838,"is_reserved":false,"is_disabled":false,"rental_uris":{"android":"levelo://app?vid=5efb1ceb-6872-495b-8d52-21f1dac9a5e8","ios":"levelo://app?vid=5efb1ceb-6872-495b-8d52-21f1dac9a5e8"},"vehicle_type_id":"4","last_reported":1712344030,"current_range_meters":8800,"station_id":"ce4bgvp2rcd13ifvqcu0","pricing_plan_id":"cebpf4jnsgd1na2vs0mg"},{"bike_id":"7019b86d-4402-4fbe-89e8-b6fd78f8f739","system_id":"levelo_inurba_marseille","lat":43.30886,"lon":5.39658,"is_reserved":false,"is_disabled":false,"rental_uris":{"android":"levelo://app?vid=7019b86d-4402-4fbe-89e8-b6fd78f8f739","ios":"levelo://app?vid=7019b86d-4402-4fbe-89e8-b6fd78f8f739"},"vehicle_type_id":"4","last_reported":1712344030,"current_range_meters":0,"station_id":"ce4bh012rcd13ifvqcv0","pricing_plan_id":"cebpf4jnsgd1na2vs0mg"},{"bike_id":"7f643a8a-ebfb-48b4-9e2e-28a53c346ef5","system_id":"levelo_inurba_marseille","lat":43.309038,"lon":5.396546,"is_reserved":false,"is_disabled":false,"rental_uris":{"android":"levelo://app?vid=7f643a8a-ebfb-48b4-9e2e-28a53c346ef5","ios":"levelo://app?vid=7f643a8a-ebfb-48b4-9e2e-28a53c346ef5"},"vehicle_type_id":"4","last_reported":1712344030,"current_range_meters":13200,"station_id":"ce4bh012rcd13ifvqcv0","pricing_plan_id":"cebpf4jnsgd1na2vs0mg"},{"bike_id":"0b5e0625-b9ba-4c94-b4cc-2bfb9aae58b6","system_id":"levelo_inurba_marseille","lat":43.29529,"lon":5.385581,"is_reserved":false,"is_disabled":false,"rental_uris":{"android":"levelo://app?vid=0b5e0625-b9ba-4c94-b4cc-2bfb9aae58b6","ios":"levelo://app?vid=0b5e0625-b9ba-4c94-b4cc-2bfb9aae58b6"},"vehicle_type_id":"4","last_reported":1712344030,"current_range_meters":21600,"station_id":"ce4bgih2rcd13ifvqba0","pricing_plan_id":"cebpf4jnsgd1na2vs0mg"},{"bike_id":"e80a90c3-f830-45d5-a2d8-9de37ce20e6b","system_id":"levelo_inurba_marseille","lat":43.30882,"lon":5.39665,"is_reserved":false,"is_disabled":false,"rental_uris":{"android":"levelo://app?vid=e80a90c3-f830-45d5-a2d8-9de37ce20e6b","ios":"levelo://app?vid=e80a90c3-f830-45d5-a2d8-9de37ce20e6b"},"vehicle_type_id":"4","last_reported":1712344030,"current_range_meters":0,"station_id":"ce4bh012rcd13ifvqcv0","pricing_plan_id":"cebpf4jnsgd1na2vs0mg"},{"bike_id":"423b7626-1cb9-4f0f-951e-96097382a8fe","system_id":"levelo_inurba_marseille","lat":43.29537,"lon":5.38549,"is_reserved":false,"is_disabled":false,"rental_uris":{"android":"levelo://app?vid=423b7626-1cb9-4f0f-951e-96097382a8fe","ios":"levelo://app?vid=423b7626-1cb9-4f0f-951e-96097382a8fe"},"vehicle_type_id":"4","last_reported":1712344030,"current_range_meters":400,"station_id":"ce4bgih2rcd13ifvqba0","pricing_plan_id":"cebpf4jnsgd1na2vs0mg"},{"bike_id":"a92ede05-0c10-4f23-be21-94369cc2999d","system_id":"levelo_inurba_marseille","lat":43.29529,"lon":5.385581,"is_reserved":false,"is_disabled":false,"rental_uris":{"android":"levelo://app?vid=a92ede05-0c10-4f23-be21-94369cc2999d","ios":"levelo://app?vid=a92ede05-0c10-4f23-be21-94369cc2999d"},"vehicle_type_id":"4","last_reported":1712344030,"current_range_meters":3600,"station_id":"ce4bgih2rcd13ifvqba0","pricing_plan_id":"cebpf4jnsgd1na2vs0mg"},{"bike_id":"2d26ae96-1c9a-4e73-b1d7-c3036ae80f5e","system_id":"levelo_inurba_marseille","lat":43.29529,"lon":5.385581,"is_reserved":false,"is_disabled":false,"rental_uris":{"android":"levelo://app?vid=2d26ae96-1c9a-4e73-b1d7-c3036ae80f5e","ios":"levelo://app?vid=2d26ae96-1c9a-4e73-b1d7-c3036ae80f5e"},"vehicle_type_id":"4","last_reported":1712344030,"current_range_meters":0,"station_id":"ce4bgih2rcd13ifvqba0","pricing_plan_id":"cebpf4jnsgd1na2vs0mg"},{"bike_id":"cafeb797-becc-481b-a875-02371bb960a2","system_id":"levelo_inurba_marseille","lat":43.29529,"lon":5.385581,"is_reserved":false,"is_disabled":false,"rental_uris":{"android":"levelo://app?vid=cafeb797-becc-481b-a875-02371bb960a2","ios":"levelo://app?vid=cafeb797-becc-481b-a875-02371bb960a2"},"vehicle_type_id":"4","last_reported":1712344030,"current_range_meters":0,"station_id":"ce4bgih2rcd13ifvqba0","pricing_plan_id":"cebpf4jnsgd1na2vs0mg"},{"bike_id":"0fbda1cc-bf61-4055-9092-f744beff268e","system_id":"levelo_inurba_marseille","lat":43.2953,"lon":5.38541,"is_reserved":false,"is_disabled":false,"rental_uris":{"android":"levelo://app?vid=0fbda1cc-bf61-4055-9092-f744beff268e","ios":"levelo://app?vid=0fbda1cc-bf61-4055-9092-f744beff268e"},"vehicle_type_id":"4","last_reported":1712344030,"current_range_meters":8400,"station_id":"ce4bgih2rcd13ifvqba0","pricing_plan_id":"cebpf4jnsgd1na2vs0mg"},{"bike_id":"121f6c9f-2715-4db5-9093-fdbd45acbf7f","system_id":"levelo_inurba_marseille","lat":43.29525,"lon":5.38533,"is_reserved":false,"is_disabled":false,"rental_uris":{"android":"levelo://app?vid=121f6c9f-2715-4db5-9093-fdbd45acbf7f","ios":"levelo://app?vid=121f6c9f-2715-4db5-9093-fdbd45acbf7f"},"vehicle_type_id":"4","last_reported":1712344030,"current_range_meters":0,"station_id":"ce4bgih2rcd13ifvqba0","pricing_plan_id":"cebpf4jnsgd1na2vs0mg"},{"bike_id":"8e6b3429-d71d-480f-a73b-0d31b3527297","system_id":"levelo_inurba_marseille","lat":43.29527,"lon":5.38541,"is_reserved":false,"is_disabled":false,"rental_uris":{"android":"levelo://app?vid=8e6b3429-d71d-480f-a73b-0d31b3527297","ios":"levelo://app?vid=8e6b3429-d71d-480f-a73b-0d31b3527297"},"vehicle_type_id":"4","last_reported":1712344030,"current_range_meters":5600,"station_id":"ce4bgih2rcd13ifvqba0","pricing_plan_id":"cebpf4jnsgd1na2vs0mg"},{"bike_id":"08bc09dc-81b5-4c4f-9d25-5aabbf182807","system_id":"levelo_inurba_marseille","lat":43.29529,"lon":5.385581,"is_reserved":false,"is_disabled":false,"rental_uris":{"android":"levelo://app?vid=08bc09dc-81b5-4c4f-9d25-5aabbf182807","ios":"levelo://app?vid=08bc09dc-81b5-4c4f-9d25-5aabbf182807"},"vehicle_type_id":"4","last_reported":1712344030,"current_range_meters":0,"station_id":"ce4bgih2rcd13ifvqba0","pricing_plan_id":"cebpf4jnsgd1na2vs0mg"},{"bike_id":"5bf553a1-2d02-462e-84d1-ee745eded685","system_id":"levelo_inurba_marseille","lat":43.29529,"lon":5.385581,"is_reserved":false,"is_disabled":false,"rental_uris":{"android":"levelo://app?vid=5bf553a1-2d02-462e-84d1-ee745eded685","ios":"levelo://app?vid=5bf553a1-2d02-462e-84d1-ee745eded685"},"vehicle_type_id":"4","last_reported":1712344030,"current_range_meters":10000,"station_id":"ce4bgih2rcd13ifvqba0","pricing_plan_id":"cebpf4jnsgd1na2vs0mg"},{"bike_id":"12c352c8-ff75-4fd1-b544-b39f9cccb882","system_id":"levelo_inurba_marseille","lat":43.290779,"lon":5.371482,"is_reserved":false,"is_disabled":false,"rental_uris":{"android":"levelo://app?vid=12c352c8-ff75-4fd1-b544-b39f9cccb882","ios":"levelo://app?vid=12c352c8-ff75-4fd1-b544-b39f9cccb882"},"vehicle_type_id":"4","last_reported":1712344030,"current_range_meters":11600,"station_id":"ce4bh5p2rcd13ifvqe4g","pricing_plan_id":"cebpf4jnsgd1na2vs0mg"},{"bike_id":"1e726e04-2c83-4d04-b1c5-0298a9819265","system_id":"levelo_inurba_marseille","lat":43.290779,"lon":5.371482,"is_reserved":false,"is_disabled":false,"rental_uris":{"android":"levelo://app?vid=1e726e04-2c83-4d04-b1c5-0298a9819265","ios":"levelo://app?vid=1e726e04-2c83-4d04-b1c5-0298a9819265"},"vehicle_type_id":"4","last_reported":1712344030,"current_range_meters":12000,"station_id":"ce4bh5p2rcd13ifvqe4g","pricing_plan_id":"cebpf4jnsgd1na2vs0mg"},{"bike_id":"29dddf59-9913-4e98-b98d-5deb19eb8f4f","system_id":"levelo_inurba_marseille","lat":43.290779,"lon":5.371482,"is_reserved":false,"is_disabled":false,"rental_uris":{"android":"levelo://app?vid=29dddf59-9913-4e98-b98d-5deb19eb8f4f","ios":"levelo://app?vid=29dddf59-9913-4e98-b98d-5deb19eb8f4f"},"vehicle_type_id":"4","last_reported":1712344030,"current_range_meters":23600,"station_id":"ce4bh5p2rcd13ifvqe4g","pricing_plan_id":"cebpf4jnsgd1na2vs0mg"},{"bike_id":"1a94302e-8b8d-47a9-bb1c-0982bff8ad6e","system_id":"levelo_inurba_marseille","lat":43.294796,"lon":5.385595,"is_reserved":false,"is_disabled":false,"rental_uris":{"android":"levelo://app?vid=1a94302e-8b8d-47a9-bb1c-0982bff8ad6e","ios":"levelo://app?vid=1a94302e-8b8d-47a9-bb1c-0982bff8ad6e"},"vehicle_type_id":"4","last_reported":1712344030,"current_range_meters":0,"station_id":"ce4bgih2rcd13ifvqba0","pricing_plan_id":"cebpf4jnsgd1na2vs0mg"},{"bike_id":"0f2dd51c-2fe4-40bb-b9a9-fdc7d4cd1776","system_id":"levelo_inurba_marseille","lat":43.289184,"lon":5.366408,"is_reserved":false,"is_disabled":false,"rental_uris":{"android":"levelo://app?vid=0f2dd51c-2fe4-40bb-b9a9-fdc7d4cd1776","ios":"levelo://app?vid=0f2dd51c-2fe4-40bb-b9a9-fdc7d4cd1776"},"vehicle_type_id":"4","last_reported":1712344030,"current_range_meters":30000,"station_id":"ce4bhap2rcd13ifvqek0","pricing_plan_id":"cebpf4jnsgd1na2vs0mg"},{"bike_id":"31184820-fb24-47a2-8fb2-6701f6e106ce","system_id":"levelo_inurba_marseille","lat":43.302008,"lon":5.394694,"is_reserved":false,"is_disabled":false,"rental_uris":{"android":"levelo://app?vid=31184820-fb24-47a2-8fb2-6701f6e106ce","ios":"levelo://app?vid=31184820-fb24-47a2-8fb2-6701f6e106ce"},"vehicle_type_id":"4","last_reported":1712344030,"current_range_meters":0,"station_id":"ce4bh0p2rcd13ifvqd70","pricing_plan_id":"cebpf4jnsgd1na2vs0mg"},{"bike_id":"e371a5c5-90fe-4e00-8202-29d78138f131","system_id":"levelo_inurba_marseille","lat":43.294153,"lon":5.386305,"is_reserved":false,"is_disabled":false,"rental_uris":{"android":"levelo://app?vid=e371a5c5-90fe-4e00-8202-29d78138f131","ios":"levelo://app?vid=e371a5c5-90fe-4e00-8202-29d78138f131"},"vehicle_type_id":"4","last_reported":1712344030,"current_range_meters":2800,"station_id":"ce4bh2h2rcd13ifvqdh0","pricing_plan_id":"cebpf4jnsgd1na2vs0mg"},{"bike_id":"0e6396a8-ea2b-44f0-a524-f80d412f4ad2","system_id":"levelo_inurba_marseille","lat":43.290327,"lon":5.375711,"is_reserved":false,"is_disabled":false,"rental_uris":{"android":"levelo://app?vid=0e6396a8-ea2b-44f0-a524-f80d412f4ad2","ios":"levelo://app?vid=0e6396a8-ea2b-44f0-a524-f80d412f4ad2"},"vehicle_type_id":"4","last_reported":1712344030,"current_range_meters":6400,"station_id":"ce4bh692rcd13ifvqe90","pricing_plan_id":"cebpf4jnsgd1na2vs0mg"},{"bike_id":"c8d11e6e-d3b9-4154-bb58-9a5bc2ad4395","system_id":"levelo_inurba_marseille","lat":43.29426,"lon":5.38619,"is_reserved":false,"is_disabled":false,"rental_uris":{"android":"levelo://app?vid=c8d11e6e-d3b9-4154-bb58-9a5bc2ad4395","ios":"levelo://app?vid=c8d11e6e-d3b9-4154-bb58-9a5bc2ad4395"},"vehicle_type_id":"4","last_reported":1712344030,"current_range_meters":16400,"station_id":"ce4bh2h2rcd13ifvqdh0","pricing_plan_id":"cebpf4jnsgd1na2vs0mg"},{"bike_id":"0bcb4b35-32eb-41c9-9c72-f18c4c913eca","system_id":"levelo_inurba_marseille","lat":43.29424,"lon":5.3862,"is_reserved":false,"is_disabled":false,"rental_uris":{"android":"levelo://app?vid=0bcb4b35-32eb-41c9-9c72-f18c4c913eca","ios":"levelo://app?vid=0bcb4b35-32eb-41c9-9c72-f18c4c913eca"},"vehicle_type_id":"4","last_reported":1712344030,"current_range_meters":5200,"station_id":"ce4bh2h2rcd13ifvqdh0","pricing_plan_id":"cebpf4jnsgd1na2vs0mg"},{"bike_id":"61b29c34-3746-415e-8718-36340a692594","system_id":"levelo_inurba_marseille","lat":43.29421,"lon":5.38617,"is_reserved":false,"is_disabled":false,"rental_uris":{"android":"levelo://app?vid=61b29c34-3746-415e-8718-36340a692594","ios":"levelo://app?vid=61b29c34-3746-415e-8718-36340a692594"},"vehicle_type_id":"4","last_reported":1712344030,"current_range_meters":2000,"station_id":"ce4bh2h2rcd13ifvqdh0","pricing_plan_id":"cebpf4jnsgd1na2vs0mg"},{"bike_id":"0c88e092-f358-4378-8199-b58f7c939c8b","system_id":"levelo_inurba_marseille","lat":43.29422,"lon":5.3862,"is_reserved":false,"is_disabled":false,"rental_uris":{"android":"levelo://app?vid=0c88e092-f358-4378-8199-b58f7c939c8b","ios":"levelo://app?vid=0c88e092-f358-4378-8199-b58f7c939c8b"},"vehicle_type_id":"4","last_reported":1712344030,"current_range_meters":0,"station_id":"ce4bh2h2rcd13ifvqdh0","pricing_plan_id":"cebpf4jnsgd1na2vs0mg"},{"bike_id":"b9847b03-6da1-40c6-8e67-30dfb34d9852","system_id":"levelo_inurba_marseille","lat":43.30085,"lon":5.390856,"is_reserved":false,"is_disabled":false,"rental_uris":{"android":"levelo://app?vid=b9847b03-6da1-40c6-8e67-30dfb34d9852","ios":"levelo://app?vid=b9847b03-6da1-40c6-8e67-30dfb34d9852"},"vehicle_type_id":"4","last_reported":1712344030,"current_range_meters":26400,"station_id":"ce4bh192rcd13ifvqdb0","pricing_plan_id":"cebpf4jnsgd1na2vs0mg"},{"bike_id":"76fe8137-ee58-48bc-b4ad-e6e33d530ee2","system_id":"levelo_inurba_marseille","lat":43.29422,"lon":5.38625,"is_reserved":false,"is_disabled":false,"rental_uris":{"android":"levelo://app?vid=76fe8137-ee58-48bc-b4ad-e6e33d530ee2","ios":"levelo://app?vid=76fe8137-ee58-48bc-b4ad-e6e33d530ee2"},"vehicle_type_id":"4","last_reported":1712344030,"current_range_meters":8000,"station_id":"ce4bh2h2rcd13ifvqdh0","pricing_plan_id":"cebpf4jnsgd1na2vs0mg"},{"bike_id":"30f4151a-76ef-49f1-b687-f929f4e17ae1","system_id":"levelo_inurba_marseille","lat":43.294151,"lon":5.386141,"is_reserved":false,"is_disabled":false,"rental_uris":{"android":"levelo://app?vid=30f4151a-76ef-49f1-b687-f929f4e17ae1","ios":"levelo://app?vid=30f4151a-76ef-49f1-b687-f929f4e17ae1"},"vehicle_type_id":"4","last_reported":1712344030,"current_range_meters":10400,"station_id":"ce4bh2h2rcd13ifvqdh0","pricing_plan_id":"cebpf4jnsgd1na2vs0mg"},{"bike_id":"a7569774-f51f-4423-a76e-71c5deb3f2e0","system_id":"levelo_inurba_marseille","lat":43.29033,"lon":5.37551,"is_reserved":false,"is_disabled":false,"rental_uris":{"android":"levelo://app?vid=a7569774-f51f-4423-a76e-71c5deb3f2e0","ios":"levelo://app?vid=a7569774-f51f-4423-a76e-71c5deb3f2e0"},"vehicle_type_id":"4","last_reported":1712344030,"current_range_meters":0,"station_id":"ce4bh692rcd13ifvqe90","pricing_plan_id":"cebpf4jnsgd1na2vs0mg"},{"bike_id":"0a246558-7ff5-4086-a87f-a0ed49b75372","system_id":"levelo_inurba_marseille","lat":43.29419,"lon":5.38622,"is_reserved":false,"is_disabled":false,"rental_uris":{"android":"levelo://app?vid=0a246558-7ff5-4086-a87f-a0ed49b75372","ios":"levelo://app?vid=0a246558-7ff5-4086-a87f-a0ed49b75372"},"vehicle_type_id":"4","last_reported":1712344030,"current_range_meters":800,"station_id":"ce4bh2h2rcd13ifvqdh0","pricing_plan_id":"cebpf4jnsgd1na2vs0mg"},{"bike_id":"935351d0-1ea7-4537-9707-91650239e152","system_id":"levelo_inurba_marseille","lat":43.29416,"lon":5.38619,"is_reserved":false,"is_disabled":false,"rental_uris":{"android":"levelo://app?vid=935351d0-1ea7-4537-9707-91650239e152","ios":"levelo://app?vid=935351d0-1ea7-4537-9707-91650239e152"},"vehicle_type_id":"4","last_reported":1712344030,"current_range_meters":11200,"station_id":"ce4bh2h2rcd13ifvqdh0","pricing_plan_id":"cebpf4jnsgd1na2vs0mg"},{"bike_id":"a4f7a88d-d26b-4b69-8806-d7ba3f0d59cf","system_id":"levelo_inurba_marseille","lat":43.302008,"lon":5.394694,"is_reserved":false,"is_disabled":false,"rental_uris":{"android":"levelo://app?vid=a4f7a88d-d26b-4b69-8806-d7ba3f0d59cf","ios":"levelo://app?vid=a4f7a88d-d26b-4b69-8806-d7ba3f0d59cf"},"vehicle_type_id":"4","last_reported":1712344030,"current_range_meters":2400,"station_id":"ce4bh0p2rcd13ifvqd70","pricing_plan_id":"cebpf4jnsgd1na2vs0mg"},{"bike_id":"16cd2dea-dcbf-4b0f-a6a0-80d00a5ca5fa","system_id":"levelo_inurba_marseille","lat":43.29421,"lon":5.3863,"is_reserved":false,"is_disabled":false,"rental_uris":{"android":"levelo://app?vid=16cd2dea-dcbf-4b0f-a6a0-80d00a5ca5fa","ios":"levelo://app?vid=16cd2dea-dcbf-4b0f-a6a0-80d00a5ca5fa"},"vehicle_type_id":"4","last_reported":1712344030,"current_range_meters":24000,"station_id":"ce4bh2h2rcd13ifvqdh0","pricing_plan_id":"cebpf4jnsgd1na2vs0mg"},{"bike_id":"258c6510-b103-482f-8774-0f6864e8783e","system_id":"levelo_inurba_marseille","lat":43.294153,"lon":5.386305,"is_reserved":false,"is_disabled":false,"rental_uris":{"android":"levelo://app?vid=258c6510-b103-482f-8774-0f6864e8783e","ios":"levelo://app?vid=258c6510-b103-482f-8774-0f6864e8783e"},"vehicle_type_id":"4","last_reported":1712344030,"current_range_meters":9600,"station_id":"ce4bh2h2rcd13ifvqdh0","pricing_plan_id":"cebpf4jnsgd1na2vs0mg"},{"bike_id":"d4c7fb7e-56a4-428e-b3a7-065593620fe2","system_id":"levelo_inurba_marseille","lat":43.2942,"lon":5.38629,"is_reserved":false,"is_disabled":false,"rental_uris":{"android":"levelo://app?vid=d4c7fb7e-56a4-428e-b3a7-065593620fe2","ios":"levelo://app?vid=d4c7fb7e-56a4-428e-b3a7-065593620fe2"},"vehicle_type_id":"4","last_reported":1712344030,"current_range_meters":6800,"station_id":"ce4bh2h2rcd13ifvqdh0","pricing_plan_id":"cebpf4jnsgd1na2vs0mg"},{"bike_id":"cd8811d9-c027-43bd-8d4e-2b18af14f110","system_id":"levelo_inurba_marseille","lat":43.29418,"lon":5.38626,"is_reserved":false,"is_disabled":false,"rental_uris":{"android":"levelo://app?vid=cd8811d9-c027-43bd-8d4e-2b18af14f110","ios":"levelo://app?vid=cd8811d9-c027-43bd-8d4e-2b18af14f110"},"vehicle_type_id":"4","last_reported":1712344030,"current_range_meters":5600,"station_id":"ce4bh2h2rcd13ifvqdh0","pricing_plan_id":"cebpf4jnsgd1na2vs0mg"},{"bike_id":"d937284d-3c3f-49f4-b586-6e72309a7d1b","system_id":"levelo_inurba_marseille","lat":43.289184,"lon":5.366408,"is_reserved":false,"is_disabled":false,"rental_uris":{"android":"levelo://app?vid=d937284d-3c3f-49f4-b586-6e72309a7d1b","ios":"levelo://app?vid=d937284d-3c3f-49f4-b586-6e72309a7d1b"},"vehicle_type_id":"4","last_reported":1712344030,"current_range_meters":27600,"station_id":"ce4bhap2rcd13ifvqek0","pricing_plan_id":"cebpf4jnsgd1na2vs0mg"},{"bike_id":"c0b7ecfc-148a-421f-b7fa-8c2d4643dde1","system_id":"levelo_inurba_marseille","lat":43.29418,"lon":5.38627,"is_reserved":false,"is_disabled":false,"rental_uris":{"android":"levelo://app?vid=c0b7ecfc-148a-421f-b7fa-8c2d4643dde1","ios":"levelo://app?vid=c0b7ecfc-148a-421f-b7fa-8c2d4643dde1"},"vehicle_type_id":"4","last_reported":1712344030,"current_range_meters":18000,"station_id":"ce4bh2h2rcd13ifvqdh0","pricing_plan_id":"cebpf4jnsgd1na2vs0mg"},{"bike_id":"6586bc41-ed39-4ae6-97df-8e84d7e4a0de","system_id":"levelo_inurba_marseille","lat":43.294153,"lon":5.386305,"is_reserved":false,"is_disabled":false,"rental_uris":{"android":"levelo://app?vid=6586bc41-ed39-4ae6-97df-8e84d7e4a0de","ios":"levelo://app?vid=6586bc41-ed39-4ae6-97df-8e84d7e4a0de"},"vehicle_type_id":"4","last_reported":1712344030,"current_range_meters":1600,"station_id":"ce4bh2h2rcd13ifvqdh0","pricing_plan_id":"cebpf4jnsgd1na2vs0mg"},{"bike_id":"e370740b-b621-4ab1-8e89-479a9c40ae32","system_id":"levelo_inurba_marseille","lat":43.294153,"lon":5.386305,"is_reserved":false,"is_disabled":false,"rental_uris":{"android":"levelo://app?vid=e370740b-b621-4ab1-8e89-479a9c40ae32","ios":"levelo://app?vid=e370740b-b621-4ab1-8e89-479a9c40ae32"},"vehicle_type_id":"4","last_reported":1712344030,"current_range_meters":6000,"station_id":"ce4bh2h2rcd13ifvqdh0","pricing_plan_id":"cebpf4jnsgd1na2vs0mg"},{"bike_id":"bf0e2dd0-0b9e-420b-90de-bea213d2f193","system_id":"levelo_inurba_marseille","lat":43.29419,"lon":5.38631,"is_reserved":false,"is_disabled":false,"rental_uris":{"android":"levelo://app?vid=bf0e2dd0-0b9e-420b-90de-bea213d2f193","ios":"levelo://app?vid=bf0e2dd0-0b9e-420b-90de-bea213d2f193"},"vehicle_type_id":"4","last_reported":1712344030,"current_range_meters":0,"station_id":"ce4bh2h2rcd13ifvqdh0","pricing_plan_id":"cebpf4jnsgd1na2vs0mg"},{"bike_id":"2df40929-c5c2-432f-bad0-79ca9ad8a05a","system_id":"levelo_inurba_marseille","lat":43.255756,"lon":5.382303,"is_reserved":false,"is_disabled":false,"rental_uris":{"android":"levelo://app?vid=2df40929-c5c2-432f-bad0-79ca9ad8a05a","ios":"levelo://app?vid=2df40929-c5c2-432f-bad0-79ca9ad8a05a"},"vehicle_type_id":"4","last_reported":1712344030,"current_range_meters":17200,"station_id":"ce4bhih2rcd13ifvqfs0","pricing_plan_id":"cebpf4jnsgd1na2vs0mg"},{"bike_id":"d462b2e8-9573-4913-a28e-61e20eb1cb49","system_id":"levelo_inurba_marseille","lat":43.294162,"lon":5.386292,"is_reserved":false,"is_disabled":false,"rental_uris":{"android":"levelo://app?vid=d462b2e8-9573-4913-a28e-61e20eb1cb49","ios":"levelo://app?vid=d462b2e8-9573-4913-a28e-61e20eb1cb49"},"vehicle_type_id":"4","last_reported":1712344030,"current_range_meters":10000,"station_id":"ce4bh2h2rcd13ifvqdh0","pricing_plan_id":"cebpf4jnsgd1na2vs0mg"},{"bike_id":"8b0900b3-575f-4335-8ac5-aae033d3e604","system_id":"levelo_inurba_marseille","lat":43.294153,"lon":5.386305,"is_reserved":false,"is_disabled":false,"rental_uris":{"android":"levelo://app?vid=8b0900b3-575f-4335-8ac5-aae033d3e604","ios":"levelo://app?vid=8b0900b3-575f-4335-8ac5-aae033d3e604"},"vehicle_type_id":"4","last_reported":1712344030,"current_range_meters":3600,"station_id":"ce4bh2h2rcd13ifvqdh0","pricing_plan_id":"cebpf4jnsgd1na2vs0mg"},{"bike_id":"574e94f0-9829-46ed-80b4-61177d56694c","system_id":"levelo_inurba_marseille","lat":43.289184,"lon":5.366408,"is_reserved":false,"is_disabled":false,"rental_uris":{"android":"levelo://app?vid=574e94f0-9829-46ed-80b4-61177d56694c","ios":"levelo://app?vid=574e94f0-9829-46ed-80b4-61177d56694c"},"vehicle_type_id":"4","last_reported":1712344030,"current_range_meters":30800,"station_id":"ce4bhap2rcd13ifvqek0","pricing_plan_id":"cebpf4jnsgd1na2vs0mg"},{"bike_id":"81d3fff8-4165-4b61-a61b-9ea38bd5efb8","system_id":"levelo_inurba_marseille","lat":43.29409,"lon":5.38621,"is_reserved":false,"is_disabled":false,"rental_uris":{"android":"levelo://app?vid=81d3fff8-4165-4b61-a61b-9ea38bd5efb8","ios":"levelo://app?vid=81d3fff8-4165-4b61-a61b-9ea38bd5efb8"},"vehicle_type_id":"4","last_reported":1712344030,"current_range_meters":3600,"station_id":"ce4bh2h2rcd13ifvqdh0","pricing_plan_id":"cebpf4jnsgd1na2vs0mg"},{"bike_id":"4fcc261e-5bd0-4729-9f85-f4d0d47795d7","system_id":"levelo_inurba_marseille","lat":43.29413,"lon":5.38629,"is_reserved":false,"is_disabled":false,"rental_uris":{"android":"levelo://app?vid=4fcc261e-5bd0-4729-9f85-f4d0d47795d7","ios":"levelo://app?vid=4fcc261e-5bd0-4729-9f85-f4d0d47795d7"},"vehicle_type_id":"4","last_reported":1712344030,"current_range_meters":0,"station_id":"ce4bh2h2rcd13ifvqdh0","pricing_plan_id":"cebpf4jnsgd1na2vs0mg"},