{"last_updated":1741180706,"ttl":60,"version":"2.2","data":{"bikes":[{"bike_id":"511d8bfb-54fb-4e3b-8b58-cd0179111dc0","system_id":"levelo_inurba_marseille","lat":43.252563,"lon":5.403123,"is_reserved":false,"is_disabled":true,"rental_uris":{"android":"levelo://app?vid=511d8bfb-54fb-4e3b-8b58-cd0179111dc0","ios":"levelo://app?vid=511d8bfb-54fb-4e3b-8b58-cd0179111dc0"},"vehicle_type_id":"4","last_reported":1741180706,"current_range_meters":0,"station_id":"","pricing_plan_id":"cebpf4jnsgd1na2vs0mg"},{"bike_id":"a84c6e4f-a9f2-4e23-b9f2-9120c82fe342","system_id":"levelo_inurba_marseille","lat":43.28669,"lon":5.39964,"is_reserved":false,"is_disabled":true,"rental_uris":{"android":"levelo://app?vid=a84c6e4f-a9f2-4e23-b9f2-9120c82fe342","ios":"levelo://app?vid=a84c6e4f-a9f2-4e23-b9f2-9120c82fe342"},"vehicle_type_id":"4","last_reported":1741180706,"current_range_meters":0,"station_id":"","pricing_plan_id":"cebpf4jnsgd1na2vs0mg"},{"bike_id":"d42aed35-7fd0-4756-98a4-c384630d40fd","system_id":"levelo_inurba_marseille","lat":43.250183,"lon":5.39575,"is_reserved":false,"is_disabled":true,"rental_uris":{"android":"levelo://app?vid=d42aed35-7fd0-4756-98a4-c384630d40fd","ios":"levelo://app?vid=d42aed35-7fd0-4756-98a4-c384630d40fd"},"vehicle_type_id":"4","last_reported":1741180706,"current_range_meters":0,"station_id":"","pricing_plan_id":"cebpf4jnsgd1na2vs0mg"},{"bike_id":"96539938-b07b-425e-9ece-35c3d1c7eab3","system_id":"levelo_inurba_marseille","lat":43.30956,"lon":5.39047,"is_reserved":false,"is_disabled":true,"rental_uris":{"android":"levelo://app?vid=96539938-b07b-425e-9ece-35c3d1c7eab3","ios":"levelo://app?vid=96539938-b07b-425e-9ece-35c3d1c7eab3"},"vehicle_type_id":"4","last_reported":1741180706,"current_range_meters":0,"station_id":"ce4bgup2rcd13ifvqco0","pricing_plan_id":"cebpf4jnsgd1na2vs0mg"},{"bike_id":"e0cc20c2-ac86-48eb-bba5-08003d5e10de","system_id":"levelo_inurba_marseille","lat":43.30955,"lon":5.39029,"is_reserved":false,"is_disabled":true,"rental_uris":{"android":"levelo://app?vid=e0cc20c2-ac86-48eb-bba5-08003d5e10de","ios":"levelo://app?vid=e0cc20c2-ac86-48eb-bba5-08003d5e10de"},"vehicle_type_id":"4","last_reported":1741180706,"current_range_meters":0,"station_id":"ce4bgup2rcd13ifvqco0","pricing_plan_id":"cebpf4jnsgd1na2vs0mg"},{"bike_id":"92939342-e723-4712-ad9f-677d8e71f7f2","system_id":"levelo_inurba_marseille","lat":43.29168,"lon":5.37159,"is_reserved":false,"is_disabled":true,"rental_uris":{"android":"levelo://app?vid=92939342-e723-4712-ad9f-677d8e71f7f2","ios":"levelo://app?vid=92939342-e723-4712-ad9f-677d8e71f7f2"},"vehicle_type_id":"4","last_reported":1741180706,"current_range_meters":0,"station_id":"ce4bha92rcd13ifvqeh0","pricing_plan_id":"cebpf4jnsgd1na2vs0mg"},{"bike_id":"77e2384d-b561-4506-a153-6a0942910900","system_id":"levelo_inurba_marseille","lat":43.27378,"lon":5.36258,"is_reserved":false,"is_disabled":true,"rental_uris":{"android":"levelo://app?vid=77e2384d-b561-4506-a153-6a0942910900","ios":"levelo://app?vid=77e2384d-b561-4506-a153-6a0942910900"},"vehicle_type_id":"4","last_reported":1741180706,"current_range_meters":0,"station_id":"ce4bhbh2rcd13ifvqeo0","pricing_plan_id":"cebpf4jnsgd1na2vs0mg"},{"bike_id":"e7d2428b-0a31-4113-a767-f5ecaee33f51","system_id":"levelo_inurba_marseille","lat":43.28274,"lon":5.35064,"is_reserved":false,"is_disabled":true,"rental_uris":{"android":"levelo://app?vid=e7d2428b-0a31-4113-a767-f5ecaee33f51","ios":"levelo://app?vid=e7d2428b-0a31-4113-a767-f5ecaee33f51"},"vehicle_type_id":"4","last_reported":1741180706,"current_range_meters":0,"station_id":"ce4bhbp2rcd13ifvqerg","pricing_plan_id":"cebpf4jnsgd1na2vs0mg"},{"bike_id":"fe024980-db38-47ac-a2ec-d06a226c7828","system_id":"levelo_inurba_marseille","lat":43.290303,"lon":5.377433,"is_reserved":false,"is_disabled":true,"rental_uris":{"android":"levelo://app?vid=fe024980-db38-47ac-a2ec-d06a226c7828","ios":"levelo://app?vid=fe024980-db38-47ac-a2ec-d06a226c7828"},"vehicle_type_id":"4","last_reported":1741180706,"current_range_meters":0,"station_id":"ce4bhc92rcd13ifvqetg","pricing_plan_id":"cebpf4jnsgd1na2vs0mg"},{"bike_id":"b3e795d2-59ce-430c-8494-ffa25da19517","system_id":"levelo_inurba_marseille","lat":43.26557,"lon":5.3729,"is_reserved":false,"is_disabled":true,"rental_uris":{"android":"levelo://app?vid=b3e795d2-59ce-430c-8494-ffa25da19517","ios":"levelo://app?vid=b3e795d2-59ce-430c-8494-ffa25da19517"},"vehicle_type_id":"4","last_reported":1741180706,"current_range_meters":0,"station_id":"ce4bhg12rcd13ifvqf70","pricing_plan_id":"cebpf4jnsgd1na2vs0mg"},{"bike_id":"c13f884d-6fd8-4a40-a8e5-ae56bf400a54","system_id":"levelo_inurba_marseille","lat":43.26825,"lon":5.3935,"is_reserved":false,"is_disabled":true,"rental_uris":{"android":"levelo://app?vid=c13f884d-6fd8-4a40-a8e5-ae56bf400a54","ios":"levelo://app?vid=c13f884d-6fd8-4a40-a8e5-ae56bf400a54"},"vehicle_type_id":"4","last_reported":1741180706,"current_range_meters":0,"station_id":"ce4bhh12rcd13ifvqfg0","pricing_plan_id":"cebpf4jnsgd1na2vs0mg"},{"bike_id":"a4e809bd-307c-464e-8bbe-a7f8c1f7ac73","system_id":"levelo_inurba_marseille","lat":43.27211,"lon":5.39189,"is_reserved":false,"is_disabled":true,"rental_uris":{"android":"levelo://app?vid=a4e809bd-307c-464e-8bbe-a7f8c1f7ac73","ios":"levelo://app?vid=a4e809bd-307c-464e-8bbe-a7f8c1f7ac73"},"vehicle_type_id":"4","last_reported":1741180706,"current_range_meters":0,"station_id":"ce4bhhp2rcd13ifvqfm0","pricing_plan_id":"cebpf4jnsgd1na2vs0mg"},{"bike_id":"0316320e-f930-405f-aba5-55593aa9dd36","system_id":"levelo_inurba_marseille","lat":43.23962,"lon":5.36627,"is_reserved":false,"is_disabled":true,"rental_uris":{"android":"levelo://app?vid=0316320e-f930-405f-aba5-55593aa9dd36","ios":"levelo://app?vid=0316320e-f930-405f-aba5-55593aa9dd36"},"vehicle_type_id":"4","last_reported":1741180706,"current_range_meters":0,"station_id":"ce4bhi12rcd13ifvqfp0","pricing_plan_id":"cebpf4jnsgd1na2vs0mg"},{"bike_id":"3b592065-43a4-406e-9fdb-ffe4c42b5c76","system_id":"levelo_inurba_marseille","lat":43.26165,"lon":5.40417,"is_reserved":false,"is_disabled":true,"rental_uris":{"android":"levelo://app?vid=3b592065-43a4-406e-9fdb-ffe4c42b5c76","ios":"levelo://app?vid=3b592065-43a4-406e-9fdb-ffe4c42b5c76"},"vehicle_type_id":"4","last_reported":1741180706,"current_range_meters":0,"station_id":"ce4bhmh2rcd13ifvqgmg","pricing_plan_id":"cebpf4jnsgd1na2vs0mg"},{"bike_id":"f87cbb3c-8851-4815-be2f-76c7bc4c1fee","system_id":"levelo_inurba_marseille","lat":43.23141,"lon":5.43712,"is_reserved":false,"is_disabled":true,"rental_uris":{"android":"levelo://app?vid=f87cbb3c-8851-4815-be2f-76c7bc4c1fee","ios":"levelo://app?vid=f87cbb3c-8851-4815-be2f-76c7bc4c1fee"},"vehicle_type_id":"4","last_reported":1741180706,"current_range_meters":0,"station_id":"ce4bhmp2rcd13ifvqgog","pricing_plan_id":"cebpf4jnsgd1na2vs0mg"},{"bike_id":"51066435-ddc0-4d5e-b6a1-d2e89b12b17b","system_id":"levelo_inurba_marseille","lat":43.2315,"lon":5.4372,"is_reserved":false,"is_disabled":true,"rental_uris":{"android":"levelo://app?vid=51066435-ddc0-4d5e-b6a1-d2e89b12b17b","ios":"levelo://app?vid=51066435-ddc0-4d5e-b6a1-d2e89b12b17b"},"vehicle_type_id":"4","last_reported":1741180706,"current_range_meters":0,"station_id":"ce4bhmp2rcd13ifvqgog","pricing_plan_id":"cebpf4jnsgd1na2vs0mg"},{"bike_id":"5887f75c-a86f-46d8-a82d-f3b33ad04cac","system_id":"levelo_inurba_marseille","lat":43.279441,"lon":5.410456,"is_reserved":false,"is_disabled":true,"rental_uris":{"android":"levelo://app?vid=5887f75c-a86f-46d8-a82d-f3b33ad04cac","ios":"levelo://app?vid=5887f75c-a86f-46d8-a82d-f3b33ad04cac"},"vehicle_type_id":"4","last_reported":1741180706,"current_range_meters":0,"station_id":"ce4bhnp2rcd13ifvqh0g","pricing_plan_id":"cebpf4jnsgd1na2vs0mg"},{"bike_id":"e432fcbc-da49-4827-bc18-4179d60243bb","system_id":"levelo_inurba_marseille","lat":43.3124,"lon":5.36855,"is_reserved":false,"is_disabled":true,"rental_uris":{"android":"levelo://app?vid=e432fcbc-da49-4827-bc18-4179d60243bb","ios":"levelo://app?vid=e432fcbc-da49-4827-bc18-4179d60243bb"},"vehicle_type_id":"4","last_reported":1741180706,"current_range_meters":400,"station_id":"ce4bgl92rcd13ifvqbq0","pricing_plan_id":"cebpf4jnsgd1na2vs0mg"},{"bike_id":"ffd52573-229a-456c-b60e-6776591f4dbb","system_id":"levelo_inurba_marseille","lat":43.31376,"lon":5.38484,"is_reserved":false,"is_disabled":true,"rental_uris":{"android":"levelo://app?vid=ffd52573-229a-456c-b60e-6776591f4dbb","ios":"levelo://app?vid=ffd52573-229a-456c-b60e-6776591f4dbb"},"vehicle_type_id":"4","last_reported":1741180706,"current_range_meters":400,"station_id":"ce4bgt92rcd13ifvqcf0","pricing_plan_id":"cebpf4jnsgd1na2vs0mg"},{"bike_id":"ffd5a068-8bc9-4fb7-8777-b8a8d248d147","system_id":"levelo_inurba_marseille","lat":43.28923,"lon":5.38396,"is_reserved":false,"is_disabled":true,"rental_uris":{"android":"levelo://app?vid=ffd5a068-8bc9-4fb7-8777-b8a8d248d147","ios":"levelo://app?vid=ffd5a068-8bc9-4fb7-8777-b8a8d248d147"},"vehicle_type_id":"4","last_reported":1741180706,"current_range_meters":400,"station_id":"ce4bh612rcd13ifvqe6g","pricing_plan_id":"cebpf4jnsgd1na2vs0mg"},{"bike_id":"4372ab9e-5fa5-4be1-aa4c-f3fc2f5b18e7","system_id":"levelo_inurba_marseille","lat":43.32973,"lon":5.40033,"is_reserved":false,"is_disabled":true,"rental_uris":{"android":"levelo://app?vid=4372ab9e-5fa5-4be1-aa4c-f3fc2f5b18e7","ios":"levelo://app?vid=4372ab9e-5fa5-4be1-aa4c-f3fc2f5b18e7"},"vehicle_type_id":"4","last_reported":1741180706,"current_range_meters":400,"station_id":"ce4bhr92rcd13ifvqhrg","pricing_plan_id":"cebpf4jnsgd1na2vs0mg"},{"bike_id":"c5e8cd2d-bc8c-432b-b100-b523341f5479","system_id":"levelo_inurba_marseille","lat":43.30858,"lon":5.38562,"is_reserved":false,"is_disabled":true,"rental_uris":{"android":"levelo://app?vid=c5e8cd2d-bc8c-432b-b100-b523341f5479","ios":"levelo://app?vid=c5e8cd2d-bc8c-432b-b100-b523341f5479"},"vehicle_type_id":"4","last_reported":1741180706,"current_range_meters":800,"station_id":"","pricing_plan_id":"cebpf4jnsgd1na2vs0mg"},{"bike_id":"e7ec1ac1-2323-47bd-a2b5-7cd3afb282cf","system_id":"levelo_inurba_marseille","lat":43.26948,"lon":5.36672,"is_reserved":false,"is_disabled":true,"rental_uris":{"android":"levelo://app?vid=e7ec1ac1-2323-47bd-a2b5-7cd3afb282cf","ios":"levelo://app?vid=e7ec1ac1-2323-47bd-a2b5-7cd3afb282cf"},"vehicle_type_id":"4","last_reported":1741180706,"current_range_meters":800,"station_id":"","pricing_plan_id":"cebpf4jnsgd1na2vs0mg"},{"bike_id":"a7069f9f-570c-4bee-b0b6-2d8f783246c0","system_id":"levelo_inurba_marseille","lat":43.28408,"lon":5.37516,"is_reserved":false,"is_disabled":true,"rental_uris":{"android":"levelo://app?vid=a7069f9f-570c-4bee-b0b6-2d8f783246c0","ios":"levelo://app?vid=a7069f9f-570c-4bee-b0b6-2d8f783246c0"},"vehicle_type_id":"4","last_reported":1741180706,"current_range_meters":800,"station_id":"ce4bh412rcd13ifvqds0","pricing_plan_id":"cebpf4jnsgd1na2vs0mg"},{"bike_id":"6a2a9cb3-6c92-43ec-aec2-8f4a3c3e340a","system_id":"levelo_inurba_marseille","lat":43.28471,"lon":5.38425,"is_reserved":false,"is_disabled":true,"rental_uris":{"android":"levelo://app?vid=6a2a9cb3-6c92-43ec-aec2-8f4a3c3e340a","ios":"levelo://app?vid=6a2a9cb3-6c92-43ec-aec2-8f4a3c3e340a"},"vehicle_type_id":"4","last_reported":1741180706,"current_range_meters":800,"station_id":"ce4bh512rcd13ifvqe3g","pricing_plan_id":"cebpf4jnsgd1na2vs0mg"},{"bike_id":"03848332-8d7c-4d6c-ab55-cb60b7a925c0","system_id":"levelo_inurba_marseille","lat":43.28002,"lon":5.41655,"is_reserved":false,"is_disabled":true,"rental_uris":{"android":"levelo://app?vid=03848332-8d7c-4d6c-ab55-cb60b7a925c0","ios":"levelo://app?vid=03848332-8d7c-4d6c-ab55-cb60b7a925c0"},"vehicle_type_id":"4","last_reported":1741180706,"current_range_meters":800,"station_id":"ce4bho12rcd13ifvqh1g","pricing_plan_id":"cebpf4jnsgd1na2vs0mg"},{"bike_id":"cb772bf5-94a0-49b4-8038-b991c9b5211a","system_id":"levelo_inurba_marseille","lat":43.32592,"lon":5.41487,"is_reserved":false,"is_disabled":true,"rental_uris":{"android":"levelo://app?vid=cb772bf5-94a0-49b4-8038-b991c9b5211a","ios":"levelo://app?vid=cb772bf5-94a0-49b4-8038-b991c9b5211a"},"vehicle_type_id":"4","last_reported":1741180706,"current_range_meters":1200,"station_id":"","pricing_plan_id":"cebpf4jnsgd1na2vs0mg"},{"bike_id":"31d239a5-848e-47b6-8f79-9101edd30e60","system_id":"levelo_inurba_marseille","lat":43.29271,"lon":5.37632,"is_reserved":false,"is_disabled":true,"rental_uris":{"android":"levelo://app?vid=31d239a5-848e-47b6-8f79-9101edd30e60","ios":"levelo://app?vid=31d239a5-848e-47b6-8f79-9101edd30e60"},"vehicle_type_id":"4","last_reported":1741180706,"current_range_meters":1200,"station_id":"ce4bgi12rcd13ifvqb80","pricing_plan_id":"cebpf4jnsgd1na2vs0mg"},{"bike_id":"916892b1-433c-4ac0-9196-7a493482b977","system_id":"levelo_inurba_marseille","lat":43.28695,"lon":5.37393,"is_reserved":false,"is_disabled":true,"rental_uris":{"android":"levelo://app?vid=916892b1-433c-4ac0-9196-7a493482b977","ios":"levelo://app?vid=916892b1-433c-4ac0-9196-7a493482b977"},"vehicle_type_id":"4","last_reported":1741180706,"current_range_meters":1200,"station_id":"ce4bh3p2rcd13ifvqdq0","pricing_plan_id":"cebpf4jnsgd1na2vs0mg"},{"bike_id":"597a7c07-5bd4-48dd-9da2-9a371268236c","system_id":"levelo_inurba_marseille","lat":43.2846,"lon":5.3589,"is_reserved":false,"is_disabled":true,"rental_uris":{"android":"levelo://app?vid=597a7c07-5bd4-48dd-9da2-9a371268236c","ios":"levelo://app?vid=597a7c07-5bd4-48dd-9da2-9a371268236c"},"vehicle_type_id":"4","last_reported":1741180706,"current_range_meters":1200,"station_id":"ce4bhah2rcd13ifvqei0","pricing_plan_id":"cebpf4jnsgd1na2vs0mg"},{"bike_id":"0443d763-de06-49ce-b296-19769c38ed08","system_id":"levelo_inurba_marseille","lat":43.29198,"lon":5.358,"is_reserved":false,"is_disabled":true,"rental_uris":{"android":"levelo://app?vid=0443d763-de06-49ce-b296-19769c38ed08","ios":"levelo://app?vid=0443d763-de06-49ce-b296-19769c38ed08"},"vehicle_type_id":"4","last_reported":1741180706,"current_range_meters":1200,"station_id":"ce4bhb12rcd13ifvqel0","pricing_plan_id":"cebpf4jnsgd1na2vs0mg"},{"bike_id":"2827c1b7-4d70-4620-8c2c-a7027487d714","system_id":"levelo_inurba_marseille","lat":43.27934,"lon":5.41047,"is_reserved":false,"is_disabled":true,"rental_uris":{"android":"levelo://app?vid=2827c1b7-4d70-4620-8c2c-a7027487d714","ios":"levelo://app?vid=2827c1b7-4d70-4620-8c2c-a7027487d714"},"vehicle_type_id":"4","last_reported":1741180706,"current_range_meters":1200,"station_id":"ce4bhnp2rcd13ifvqh0g","pricing_plan_id":"cebpf4jnsgd1na2vs0mg"},{"bike_id":"ef6330e8-b670-4e82-9bbf-5cc3df053f5f","system_id":"levelo_inurba_marseille","lat":43.28423,"lon":5.37515,"is_reserved":false,"is_disabled":true,"rental_uris":{"android":"levelo://app?vid=ef6330e8-b670-4e82-9bbf-5cc3df053f5f","ios":"levelo://app?vid=ef6330e8-b670-4e82-9bbf-5cc3df053f5f"},"vehicle_type_id":"4","last_reported":1741180706,"current_range_meters":1600,"station_id":"ce4bh412rcd13ifvqds0","pricing_plan_id":"cebpf4jnsgd1na2vs0mg"},{"bike_id":"ececf881-67fc-456c-89af-6febea3df5d2","system_id":"levelo_inurba_marseille","lat":43.29072,"lon":5.3717,"is_reserved":false,"is_disabled":true,"rental_uris":{"android":"levelo://app?vid=ececf881-67fc-456c-89af-6febea3df5d2","ios":"levelo://app?vid=ececf881-67fc-456c-89af-6febea3df5d2"},"vehicle_type_id":"4","last_reported":1741180706,"current_range_meters":1600,"station_id":"ce4bh5p2rcd13ifvqe4g","pricing_plan_id":"cebpf4jnsgd1na2vs0mg"},{"bike_id":"eafac906-ec1e-4d30-bea4-95f6df9dd5a9","system_id":"levelo_inurba_marseille","lat":43.28469,"lon":5.38607,"is_reserved":false,"is_disabled":true,"rental_uris":{"android":"levelo://app?vid=eafac906-ec1e-4d30-bea4-95f6df9dd5a9","ios":"levelo://app?vid=eafac906-ec1e-4d30-bea4-95f6df9dd5a9"},"vehicle_type_id":"4","last_reported":1741180706,"current_range_meters":1600,"station_id":"ce4bh8p2rcd13ifvqeb0","pricing_plan_id":"cebpf4jnsgd1na2vs0mg"},{"bike_id":"9c2994a3-21a6-4ac3-8afc-29aef973c860","system_id":"levelo_inurba_marseille","lat":43.28719,"lon":5.37934,"is_reserved":false,"is_disabled":true,"rental_uris":{"android":"levelo://app?vid=9c2994a3-21a6-4ac3-8afc-29aef973c860","ios":"levelo://app?vid=9c2994a3-21a6-4ac3-8afc-29aef973c860"},"vehicle_type_id":"4","last_reported":1741180706,"current_range_meters":1600,"station_id":"ce4bh9p2rcd13ifvqec0","pricing_plan_id":"cebpf4jnsgd1na2vs0mg"},{"bike_id":"654c41e3-6bc1-44b2-bbc8-9175276856fe","system_id":"levelo_inurba_marseille","lat":43.292023,"lon":5.358675,"is_reserved":false,"is_disabled":true,"rental_uris":{"android":"levelo://app?vid=654c41e3-6bc1-44b2-bbc8-9175276856fe","ios":"levelo://app?vid=654c41e3-6bc1-44b2-bbc8-9175276856fe"},"vehicle_type_id":"4","last_reported":1741180706,"current_range_meters":1600,"station_id":"ce4bhbh2rcd13ifvqeqg","pricing_plan_id":"cebpf4jnsgd1na2vs0mg"},{"bike_id":"b6ff06d5-5f83-4be2-b662-9e529596bfc6","system_id":"levelo_inurba_marseille","lat":43.283508,"lon":5.38107,"is_reserved":false,"is_disabled":true,"rental_uris":{"android":"levelo://app?vid=b6ff06d5-5f83-4be2-b662-9e529596bfc6","ios":"levelo://app?vid=b6ff06d5-5f83-4be2-b662-9e529596bfc6"},"vehicle_type_id":"4","last_reported":1741180706,"current_range_meters":2000,"station_id":"ce4bh412rcd13ifvqdr0","pricing_plan_id":"cebpf4jnsgd1na2vs0mg"},{"bike_id":"7c0eac0c-1b91-4cab-9708-3d73f681ea2b","system_id":"levelo_inurba_marseille","lat":43.259349,"lon":5.409064,"is_reserved":false,"is_disabled":true,"rental_uris":{"android":"levelo://app?vid=7c0eac0c-1b91-4cab-9708-3d73f681ea2b","ios":"levelo://app?vid=7c0eac0c-1b91-4cab-9708-3d73f681ea2b"},"vehicle_type_id":"4","last_reported":1741180706,"current_range_meters":2000,"station_id":"ce4bhah2rcd13ifvqei0","pricing_plan_id":"cebpf4jnsgd1na2vs0mg"},{"bike_id":"394516f0-9c39-4ed6-bc42-527caade5f69","system_id":"levelo_inurba_marseille","lat":43.23146,"lon":5.43704,"is_reserved":false,"is_disabled":true,"rental_uris":{"android":"levelo://app?vid=394516f0-9c39-4ed6-bc42-527caade5f69","ios":"levelo://app?vid=394516f0-9c39-4ed6-bc42-527caade5f69"},"vehicle_type_id":"4","last_reported":1741180706,"current_range_meters":2000,"station_id":"ce4bhmp2rcd13ifvqgog","pricing_plan_id":"cebpf4jnsgd1na2vs0mg"},{"bike_id":"f498309b-f40a-4def-97a8-c4d9da7682e1","system_id":"levelo_inurba_marseille","lat":43.30319,"lon":5.39195,"is_reserved":false,"is_disabled":false,"rental_uris":{"android":"levelo://app?vid=f498309b-f40a-4def-97a8-c4d9da7682e1","ios":"levelo://app?vid=f498309b-f40a-4def-97a8-c4d9da7682e1"},"vehicle_type_id":"4","last_reported":1741180706,"current_range_meters":2800,"station_id":"ce4bgkh2rcd13ifvqbk0","pricing_plan_id":"cebpf4jnsgd1na2vs0mg"},{"bike_id":"67f54b6d-6c31-4375-be24-382b5125c72a","system_id":"levelo_inurba_marseille","lat":43.29047,"lon":5.39958,"is_reserved":false,"is_disabled":false,"rental_uris":{"android":"levelo://app?vid=67f54b6d-6c31-4375-be24-382b5125c72a","ios":"levelo://app?vid=67f54b6d-6c31-4375-be24-382b5125c72a"},"vehicle_type_id":"4","last_reported":1741180706,"current_range_meters":2800,"station_id":"ce4bh392rcd13ifvqdm0","pricing_plan_id":"cebpf4jnsgd1na2vs0mg"},{"bike_id":"728a62ff-c1d9-401b-a47b-d32a36342a07","system_id":"levelo_inurba_marseille","lat":43.28723,"lon":5.37938,"is_reserved":false,"is_disabled":false,"rental_uris":{"android":"levelo://app?vid=728a62ff-c1d9-401b-a47b-d32a36342a07","ios":"levelo://app?vid=728a62ff-c1d9-401b-a47b-d32a36342a07"},"vehicle_type_id":"4","last_reported":1741180706,"current_range_meters":2800,"station_id":"ce4bh9p2rcd13ifvqec0","pricing_plan_id":"cebpf4jnsgd1na2vs0mg"},{"bike_id":"f62edf1a-6819-4f22-bce2-a65eeb9c0119","system_id":"levelo_inurba_marseille","lat":43.27921,"lon":5.39584,"is_reserved":false,"is_disabled":false,"rental_uris":{"android":"levelo://app?vid=f62edf1a-6819-4f22-bce2-a65eeb9c0119","ios":"levelo://app?vid=f62edf1a-6819-4f22-bce2-a65eeb9c0119"},"vehicle_type_id":"4","last_reported":1741180706,"current_range_meters":2800,"station_id":"ce4bhf92rcd13ifvqf40","pricing_plan_id":"cebpf4jnsgd1na2vs0mg"},{"bike_id":"de8d4ea0-6d36-4836-9890-57cd6c20e85e","system_id":"levelo_inurba_marseille","lat":43.25115,"lon":5.40316,"is_reserved":false,"is_disabled":false,"rental_uris":{"android":"levelo://app?vid=de8d4ea0-6d36-4836-9890-57cd6c20e85e","ios":"levelo://app?vid=de8d4ea0-6d36-4836-9890-57cd6c20e85e"},"vehicle_type_id":"4","last_reported":1741180706,"current_range_meters":2800,"station_id":"ce4bhlh2rcd13ifvqgig","pricing_plan_id":"cebpf4jnsgd1na2vs0mg"},{"bike_id":"eb35d1fa-d14c-4f61-a2bf-76fb6a8697a5","system_id":"levelo_inurba_marseille","lat":43.29035,"lon":5.39961,"is_reserved":false,"is_disabled":false,"rental_uris":{"android":"levelo://app?vid=eb35d1fa-d14c-4f61-a2bf-76fb6a8697a5","ios":"levelo://app?vid=eb35d1fa-d14c-4f61-a2bf-76fb6a8697a5"},"vehicle_type_id":"4","last_reported":1741180706,"current_range_meters":3200,"station_id":"ce4bh392rcd13ifvqdm0","pricing_plan_id":"cebpf4jnsgd1na2vs0mg"},{"bike_id":"3cbdea59-5b2e-4f1a-a299-029bdcbc6b93","system_id":"levelo_inurba_marseille","lat":43.28941,"lon":5.36392,"is_reserved":false,"is_disabled":false,"rental_uris":{"android":"levelo://app?vid=3cbdea59-5b2e-4f1a-a299-029bdcbc6b93","ios":"levelo://app?vid=3cbdea59-5b2e-4f1a-a299-029bdcbc6b93"},"vehicle_type_id":"4","last_reported":1741180706,"current_range_meters":3200,"station_id":"ce4bhc92rcd13ifvqetg","pricing_plan_id":"cebpf4jnsgd1na2vs0mg"},{"bike_id":"4bff5985-8ff0-4b76-8a3b-d3ec6a1ab99f","system_id":"levelo_inurba_marseille","lat":43.27911,"lon":5.39573,"is_reserved":false,"is_disabled":false,"rental_uris":{"android":"levelo://app?vid=4bff5985-8ff0-4b76-8a3b-d3ec6a1ab99f","ios":"levelo://app?vid=4bff5985-8ff0-4b76-8a3b-d3ec6a1ab99f"},"vehicle_type_id":"4","last_reported":1741180706,"current_range_meters":3200,"station_id":"ce4bhf92rcd13ifvqf40","pricing_plan_id":"cebpf4jnsgd1na2vs0mg"},{"bike_id":"42508867-a26e-42e8-b099-c34f8d88d5a7","system_id":"levelo_inurba_marseille","lat":43.29187,"lon":5.3581,"is_reserved":false,"is_disabled":false,"rental_uris":{"android":"levelo://app?vid=42508867-a26e-42e8-b099-c34f8d88d5a7","ios":"levelo://app?vid=42508867-a26e-42e8-b099-c34f8d88d5a7"},"vehicle_type_id":"4","last_reported":1741180706,"current_range_meters":3600,"station_id":"ce4bhb12rcd13ifvqel0","pricing_plan_id":"cebpf4jnsgd1na2vs0mg"},{"bike_id":"6c84e1f9-12fa-470f-a60a-952ad29b2d5e","system_id":"levelo_inurba_marseille","lat":43.32547,"lon":5.41451,"is_reserved":false,"is_disabled":false,"rental_uris":{"android":"levelo://app?vid=6c84e1f9-12fa-470f-a60a-952ad29b2d5e","ios":"levelo://app?vid=6c84e1f9-12fa-470f-a60a-952ad29b2d5e"},"vehicle_type_id":"4","last_reported":1741180706,"current_range_meters":3600,"station_id":"ce4bhq12rcd13ifvqhhg","pricing_plan_id":"cebpf4jnsgd1na2vs0mg"},{"bike_id":"89c09a69-1f3b-4073-9576-8061d963cfd4","system_id":"levelo_inurba_marseille","lat":43.32376,"lon":5.38885,"is_reserved":false,"is_disabled":false,"rental_uris":{"android":"levelo://app?vid=89c09a69-1f3b-4073-9576-8061d963cfd4","ios":"levelo://app?vid=89c09a69-1f3b-4073-9576-8061d963cfd4"},"vehicle_type_id":"4","last_reported":1741180706,"current_range_meters":3600,"station_id":"ce4bhqp2rcd13ifvqhog","pricing_plan_id":"cebpf4jnsgd1na2vs0mg"},{"bike_id":"58189279-0267-49c7-a32b-26638c010141","system_id":"levelo_inurba_marseille","lat":43.31346,"lon":5.36719,"is_reserved":false,"is_disabled":false,"rental_uris":{"android":"levelo://app?vid=58189279-0267-49c7-a32b-26638c010141","ios":"levelo://app?vid=58189279-0267-49c7-a32b-26638c010141"},"vehicle_type_id":"4","last_reported":1741180706,"current_range_meters":4000,"station_id":"ce4bgr92rcd13ifvqc6g","pricing_plan_id":"cebpf4jnsgd1na2vs0mg"},{"bike_id":"a114e1e4-7e1b-458b-8b2b-2574bc710d69","system_id":"levelo_inurba_marseille","lat":43.27839,"lon":5.3921,"is_reserved":false,"is_disabled":false,"rental_uris":{"android":"levelo://app?vid=a114e1e4-7e1b-458b-8b2b-2574bc710d69","ios":"levelo://app?vid=a114e1e4-7e1b-458b-8b2b-2574bc710d69"},"vehicle_type_id":"4","last_reported":1741180706,"current_range_meters":4000,"station_id":"ce4bhjp2rcd13ifvqga0","pricing_plan_id":"cebpf4jnsgd1na2vs0mg"},{"bike_id":"c5bacb55-d7af-472b-bf96-4d487921dc77","system_id":"levelo_inurba_marseille","lat":43.33614,"lon":5.4102,"is_reserved":false,"is_disabled":false,"rental_uris":{"android":"levelo://app?vid=c5bacb55-d7af-472b-bf96-4d487921dc77","ios":"levelo://app?vid=c5bacb55-d7af-472b-bf96-4d487921dc77"},"vehicle_type_id":"4","last_reported":1741180706,"current_range_meters":4000,"station_id":"ce4bhqh2rcd13ifvqhmg","pricing_plan_id":"cebpf4jnsgd1na2vs0mg"},{"bike_id":"29046509-128a-4309-9d7a-a38034fa7bd8","system_id":"levelo_inurba_marseille","lat":43.33616,"lon":5.41023,"is_reserved":false,"is_disabled":false,"rental_uris":{"android":"levelo://app?vid=29046509-128a-4309-9d7a-a38034fa7bd8","ios":"levelo://app?vid=29046509-128a-4309-9d7a-a38034fa7bd8"},"vehicle_type_id":"4","last_reported":1741180706,"current_range_meters":4000,"station_id":"ce4bhqh2rcd13ifvqhmg","pricing_plan_id":"cebpf4jnsgd1na2vs0mg"},{"bike_id":"37369d02-1198-46a3-bc49-cbe1383fb941","system_id":"levelo_inurba_marseille","lat":43.29707,"lon":5.36617,"is_reserved":false,"is_disabled":false,"rental_uris":{"android":"levelo://app?vid=37369d02-1198-46a3-bc49-cbe1383fb941","ios":"levelo://app?vid=37369d02-1198-46a3-bc49-cbe1383fb941"},"vehicle_type_id":"4","last_reported":1741180706,"current_range_meters":4400,"station_id":"ce4bgn12rcd13ifvqbt0","pricing_plan_id":"cebpf4jnsgd1na2vs0mg"},{"bike_id":"274e53b9-52d4-4068-bafb-3eed813636e2","system_id":"levelo_inurba_marseille","lat":43.25934,"lon":5.40912,"is_reserved":false,"is_disabled":false,"rental_uris":{"android":"levelo://app?vid=274e53b9-52d4-4068-bafb-3eed813636e2","ios":"levelo://app?vid=274e53b9-52d4-4068-bafb-3eed813636e2"},"vehicle_type_id":"4","last_reported":1741180706,"current_range_meters":4400,"station_id":"ce4bhm92rcd13ifvqglg","pricing_plan_id":"cebpf4jnsgd1na2vs0mg"},{"bike_id":"6e9ceb54-a468-4ac3-9110-e55969bbb4f6","system_id":"levelo_inurba_marseille","lat":43.23146,"lon":5.43723,"is_reserved":false,"is_disabled":false,"rental_uris":{"android":"levelo://app?vid=6e9ceb54-a468-4ac3-9110-e55969bbb4f6","ios":"levelo://app?vid=6e9ceb54-a468-4ac3-9110-e55969bbb4f6"},"vehicle_type_id":"4","last_reported":1741180706,"current_range_meters":4400,"station_id":"ce4bhmp2rcd13ifvqgog","pricing_plan_id":"cebpf4jnsgd1na2vs0mg"},{"bike_id":"f99ca2ba-cc4d-4372-8543-b9b3a2793c9c","system_id":"levelo_inurba_marseille","lat":43.22933,"lon":5.35376,"is_reserved":false,"is_disabled":false,"rental_uris":{"android":"levelo://app?vid=f99ca2ba-cc4d-4372-8543-b9b3a2793c9c","ios":"levelo://app?vid=f99ca2ba-cc4d-4372-8543-b9b3a2793c9c"},"vehicle_type_id":"4","last_reported":1741180706,"current_range_meters":4400,"station_id":"cpo3532slgdg3j2ikp40","pricing_plan_id":"cebpf4jnsgd1na2vs0mg"},{"bike_id":"eaf16725-d0d1-403e-b3bf-8ee996e1da2e","system_id":"levelo_inurba_marseille","lat":43.31481,"lon":5.37309,"is_reserved":false,"is_disabled":false,"rental_uris":{"android":"levelo://app?vid=eaf16725-d0d1-403e-b3bf-8ee996e1da2e","ios":"levelo://app?vid=eaf16725-d0d1-403e-b3bf-8ee996e1da2e"},"vehicle_type_id":"4","last_reported":1741180706,"current_range_meters":4800,"station_id":"ce4bgt12rcd13ifvqcd0","pricing_plan_id":"cebpf4jnsgd1na2vs0mg"},{"bike_id":"a3e9bd98-08e9-4ba3-b68c-dbb668b78c23","system_id":"levelo_inurba_marseille","lat":43.31118,"lon":5.3777,"is_reserved":false,"is_disabled":false,"rental_uris":{"android":"levelo://app?vid=a3e9bd98-08e9-4ba3-b68c-dbb668b78c23","ios":"levelo://app?vid=a3e9bd98-08e9-4ba3-b68c-dbb668b78c23"},"vehicle_type_id":"4","last_reported":1741180706,"current_range_meters":4800,"station_id":"ce4bgt92rcd13ifvqcg0","pricing_plan_id":"cebpf4jnsgd1na2vs0mg"},{"bike_id":"6cfe3368-0930-438e-899e-153a9677577d","system_id":"levelo_inurba_marseille","lat":43.30435,"lon":5.39745,"is_reserved":false,"is_disabled":false,"rental_uris":{"android":"levelo://app?vid=6cfe3368-0930-438e-899e-153a9677577d","ios":"levelo://app?vid=6cfe3368-0930-438e-899e-153a9677577d"},"vehicle_type_id":"4","last_reported":1741180706,"current_range_meters":4800,"station_id":"ce4bh092rcd13ifvqd20","pricing_plan_id":"cebpf4jnsgd1na2vs0mg"},{"bike_id":"5b825490-72c0-43cc-ba39-31dc76d39bb2","system_id":"levelo_inurba_marseille","lat":43.28937,"lon":5.38389,"is_reserved":false,"is_disabled":false,"rental_uris":{"android":"levelo://app?vid=5b825490-72c0-43cc-ba39-31dc76d39bb2","ios":"levelo://app?vid=5b825490-72c0-43cc-ba39-31dc76d39bb2"},"vehicle_type_id":"4","last_reported":1741180706,"current_range_meters":4800,"station_id":"ce4bh612rcd13ifvqe6g","pricing_plan_id":"cebpf4jnsgd1na2vs0mg"},{"bike_id":"f9ba3212-afcc-4e66-a650-559ac2af04a9","system_id":"levelo_inurba_marseille","lat":43.26061,"lon":5.39406,"is_reserved":false,"is_disabled":false,"rental_uris":{"android":"levelo://app?vid=f9ba3212-afcc-4e66-a650-559ac2af04a9","ios":"levelo://app?vid=f9ba3212-afcc-4e66-a650-559ac2af04a9"},"vehicle_type_id":"4","last_reported":1741180706,"current_range_meters":4800,"station_id":"ce4bhh92rcd13ifvqfj0","pricing_plan_id":"cebpf4jnsgd1na2vs0mg"},{"bike_id":"26fabc43-69b9-4504-aef8-6ce81c1cecc2","system_id":"levelo_inurba_marseille","lat":43.2768,"lon":5.38867,"is_reserved":false,"is_disabled":false,"rental_uris":{"android":"levelo://app?vid=26fabc43-69b9-4504-aef8-6ce81c1cecc2","ios":"levelo://app?vid=26fabc43-69b9-4504-aef8-6ce81c1cecc2"},"vehicle_type_id":"4","last_reported":1741180706,"current_range_meters":4800,"station_id":"ce4bhi12rcd13ifvqfo0","pricing_plan_id":"cebpf4jnsgd1na2vs0mg"},{"bike_id":"7931da41-08d3-4758-aa78-f18822b81d9a","system_id":"levelo_inurba_marseille","lat":43.27059,"lon":5.40255,"is_reserved":false,"is_disabled":false,"rental_uris":{"android":"levelo://app?vid=7931da41-08d3-4758-aa78-f18822b81d9a","ios":"levelo://app?vid=7931da41-08d3-4758-aa78-f18822b81d9a"},"vehicle_type_id":"4","last_reported":1741180706,"current_range_meters":4800,"station_id":"ce4bhk92rcd13ifvqgc0","pricing_plan_id":"cebpf4jnsgd1na2vs0mg"},{"bike_id":"26cd7f29-99f6-46a2-a5d8-e1f367c4e1a6","system_id":"levelo_inurba_marseille","lat":43.23153,"lon":5.43738,"is_reserved":false,"is_disabled":false,"rental_uris":{"android":"levelo://app?vid=26cd7f29-99f6-46a2-a5d8-e1f367c4e1a6","ios":"levelo://app?vid=26cd7f29-99f6-46a2-a5d8-e1f367c4e1a6"},"vehicle_type_id":"4","last_reported":1741180706,"current_range_meters":4800,"station_id":"ce4bhmp2rcd13ifvqgog","pricing_plan_id":"cebpf4jnsgd1na2vs0mg"},{"bike_id":"2f932698-cf21-4455-8444-5743cdb76ab1","system_id":"levelo_inurba_marseille","lat":43.33718,"lon":5.39189,"is_reserved":false,"is_disabled":false,"rental_uris":{"android":"levelo://app?vid=2f932698-cf21-4455-8444-5743cdb76ab1","ios":"levelo://app?vid=2f932698-cf21-4455-8444-5743cdb76ab1"},"vehicle_type_id":"4","last_reported":1741180706,"current_range_meters":4800,"station_id":"ce4bhr92rcd13ifvqhsg","pricing_plan_id":"cebpf4jnsgd1na2vs0mg"},{"bike_id":"2176bc7a-2d69-495a-8803-70bd284b0b53","system_id":"levelo_inurba_marseille","lat":43.28726,"lon":5.36086,"is_reserved":false,"is_disabled":false,"rental_uris":{"android":"levelo://app?vid=2176bc7a-2d69-495a-8803-70bd284b0b53","ios":"levelo://app?vid=2176bc7a-2d69-495a-8803-70bd284b0b53"},"vehicle_type_id":"4","last_reported":1741180706,"current_range_meters":4800,"station_id":"cki0cbj6b192h4jlfktg","pricing_plan_id":"cebpf4jnsgd1na2vs0mg"},{"bike_id":"3f9fae04-f1f3-4869-8154-8b5321664179","system_id":"levelo_inurba_marseille","lat":43.23047,"lon":5.35508,"is_reserved":false,"is_disabled":false,"rental_uris":{"android":"levelo://app?vid=3f9fae04-f1f3-4869-8154-8b5321664179","ios":"levelo://app?vid=3f9fae04-f1f3-4869-8154-8b5321664179"},"vehicle_type_id":"4","last_reported":1741180706,"current_range_meters":4800,"station_id":"cpo3342slgdg3j2ifvpg","pricing_plan_id":"cebpf4jnsgd1na2vs0mg"},{"bike_id":"ef5d1e84-183f-4e92-a2eb-37435ba749e3","system_id":"levelo_inurba_marseille","lat":43.303,"lon":5.39212,"is_reserved":false,"is_disabled":false,"rental_uris":{"android":"levelo://app?vid=ef5d1e84-183f-4e92-a2eb-37435ba749e3","ios":"levelo://app?vid=ef5d1e84-183f-4e92-a2eb-37435ba749e3"},"vehicle_type_id":"4","last_reported":1741180706,"current_range_meters":5600,"station_id":"ce4bgkh2rcd13ifvqbk0","pricing_plan_id":"cebpf4jnsgd1na2vs0mg"},{"bike_id":"c3d1cbdc-3247-44ac-b3f9-898edb144369","system_id":"levelo_inurba_marseille","lat":43.31034,"lon":5.38359,"is_reserved":false,"is_disabled":false,"rental_uris":{"android":"levelo://app?vid=c3d1cbdc-3247-44ac-b3f9-898edb144369","ios":"levelo://app?vid=c3d1cbdc-3247-44ac-b3f9-898edb144369"},"vehicle_type_id":"4","last_reported":1741180706,"current_range_meters":5600,"station_id":"ce4bgv92rcd13ifvqcr0","pricing_plan_id":"cebpf4jnsgd1na2vs0mg"},{"bike_id":"807e1ba7-b9c0-467a-933d-f847d446cc7c","system_id":"levelo_inurba_marseille","lat":43.28456,"lon":5.359,"is_reserved":false,"is_disabled":false,"rental_uris":{"android":"levelo://app?vid=807e1ba7-b9c0-467a-933d-f847d446cc7c","ios":"levelo://app?vid=807e1ba7-b9c0-467a-933d-f847d446cc7c"},"vehicle_type_id":"4","last_reported":1741180706,"current_range_meters":5600,"station_id":"ce4bhah2rcd13ifvqei0","pricing_plan_id":"cebpf4jnsgd1na2vs0mg"},{"bike_id":"5e5770fc-e0ec-48fb-8086-ae11741871eb","system_id":"levelo_inurba_marseille","lat":43.30488,"lon":5.37877,"is_reserved":false,"is_disabled":false,"rental_uris":{"android":"levelo://app?vid=5e5770fc-e0ec-48fb-8086-ae11741871eb","ios":"levelo://app?vid=5e5770fc-e0ec-48fb-8086-ae11741871eb"},"vehicle_type_id":"4","last_reported":1741180706,"current_range_meters":6000,"station_id":"ce4bgup2rcd13ifvqcn0","pricing_plan_id":"cebpf4jnsgd1na2vs0mg"},{"bike_id":"e54adfdb-5954-4fdb-a377-1eebf9af18ee","system_id":"levelo_inurba_marseille","lat":43.31687,"lon":5.40461,"is_reserved":false,"is_disabled":false,"rental_uris":{"android":"levelo://app?vid=e54adfdb-5954-4fdb-a377-1eebf9af18ee","ios":"levelo://app?vid=e54adfdb-5954-4fdb-a377-1eebf9af18ee"},"vehicle_type_id":"4","last_reported":1741180706,"current_range_meters":6000,"station_id":"ce4bh012rcd13ifvqd00","pricing_plan_id":"cebpf4jnsgd1na2vs0mg"},{"bike_id":"37a5e5c3-755f-40eb-b1ba-0f53709ff394","system_id":"levelo_inurba_marseille","lat":43.286846,"lon":5.373932,"is_reserved":false,"is_disabled":false,"rental_uris":{"android":"levelo://app?vid=37a5e5c3-755f-40eb-b1ba-0f53709ff394","ios":"levelo://app?vid=37a5e5c3-755f-40eb-b1ba-0f53709ff394"},"vehicle_type_id":"4","last_reported":1741180706,"current_range_meters":6400,"station_id":"ce4bh3p2rcd13ifvqdq0","pricing_plan_id":"cebpf4jnsgd1na2vs0mg"},{"bike_id":"2d3b3c09-42a9-4d38-ad3f-30c0062d2ff1","system_id":"levelo_inurba_marseille","lat":43.25836,"lon":5.39413,"is_reserved":false,"is_disabled":false,"rental_uris":{"android":"levelo://app?vid=2d3b3c09-42a9-4d38-ad3f-30c0062d2ff1","ios":"levelo://app?vid=2d3b3c09-42a9-4d38-ad3f-30c0062d2ff1"},"vehicle_type_id":"4","last_reported":1741180706,"current_range_meters":6400,"station_id":"ce4bhip2rcd13ifvqft0","pricing_plan_id":"cebpf4jnsgd1na2vs0mg"},{"bike_id":"8e83f4d3-dd65-4542-8785-b15b9a5e7357","system_id":"levelo_inurba_marseille","lat":43.25942,"lon":5.40906,"is_reserved":false,"is_disabled":false,"rental_uris":{"android":"levelo://app?vid=8e83f4d3-dd65-4542-8785-b15b9a5e7357","ios":"levelo://app?vid=8e83f4d3-dd65-4542-8785-b15b9a5e7357"},"vehicle_type_id":"4","last_reported":1741180706,"current_range_meters":6400,"station_id":"ce4bhm92rcd13ifvqglg","pricing_plan_id":"cebpf4jnsgd1na2vs0mg"},{"bike_id":"4bc22bc8-57d9-4e3e-bbf9-5bb2e57875a0","system_id":"levelo_inurba_marseille","lat":43.27894,"lon":5.40651,"is_reserved":false,"is_disabled":false,"rental_uris":{"android":"levelo://app?vid=4bc22bc8-57d9-4e3e-bbf9-5bb2e57875a0","ios":"levelo://app?vid=4bc22bc8-57d9-4e3e-bbf9-5bb2e57875a0"},"vehicle_type_id":"4","last_reported":1741180706,"current_range_meters":6800,"station_id":"","pricing_plan_id":"cebpf4jnsgd1na2vs0mg"},{"bike_id":"d87757d9-8219-47be-affb-01494df1f179","system_id":"levelo_inurba_marseille","lat":43.28846,"lon":5.35839,"is_reserved":false,"is_disabled":false,"rental_uris":{"android":"levelo://app?vid=d87757d9-8219-47be-affb-01494df1f179","ios":"levelo://app?vid=d87757d9-8219-47be-affb-01494df1f179"},"vehicle_type_id":"4","last_reported":1741180706,"current_range_meters":6800,"station_id":"ce4bhb12rcd13ifvqem0","pricing_plan_id":"cebpf4jnsgd1na2vs0mg"},{"bike_id":"f8ce6365-0ca5-4bb4-b8bb-09392fed751a","system_id":"levelo_inurba_marseille","lat":43.27428,"lon":5.39393,"is_reserved":false,"is_disabled":false,"rental_uris":{"android":"levelo://app?vid=f8ce6365-0ca5-4bb4-b8bb-09392fed751a","ios":"levelo://app?vid=f8ce6365-0ca5-4bb4-b8bb-09392fed751a"},"vehicle_type_id":"4","last_reported":1741180706,"current_range_meters":6800,"station_id":"ce4bhdp2rcd13ifvqf20","pricing_plan_id":"cebpf4jnsgd1na2vs0mg"},{"bike_id":"5a6f6465-c6c2-41f4-954c-6c9f3e199226","system_id":"levelo_inurba_marseille","lat":43.26564,"lon":5.37291,"is_reserved":false,"is_disabled":false,"rental_uris":{"android":"levelo://app?vid=5a6f6465-c6c2-41f4-954c-6c9f3e199226","ios":"levelo://app?vid=5a6f6465-c6c2-41f4-954c-6c9f3e199226"},"vehicle_type_id":"4","last_reported":1741180706,"current_range_meters":6800,"station_id":"ce4bhg12rcd13ifvqf70","pricing_plan_id":"cebpf4jnsgd1na2vs0mg"},{"bike_id":"0dd5de0e-f54b-4eab-9871-40ec85094f61","system_id":"levelo_inurba_marseille","lat":43.25868,"lon":5.399,"is_reserved":false,"is_disabled":false,"rental_uris":{"android":"levelo://app?vid=0dd5de0e-f54b-4eab-9871-40ec85094f61","ios":"levelo://app?vid=0dd5de0e-f54b-4eab-9871-40ec85094f61"},"vehicle_type_id":"4","last_reported":1741180706,"current_range_meters":6800,"station_id":"ce4bhl92rcd13ifvqghg","pricing_plan_id":"cebpf4jnsgd1na2vs0mg"},{"bike_id":"c747a8f4-bff7-4bd4-bbf2-c93831c34bdf","system_id":"levelo_inurba_marseille","lat":43.24543,"lon":5.39527,"is_reserved":false,"is_disabled":false,"rental_uris":{"android":"levelo://app?vid=c747a8f4-bff7-4bd4-bbf2-c93831c34bdf","ios":"levelo://app?vid=c747a8f4-bff7-4bd4-bbf2-c93831c34bdf"},"vehicle_type_id":"4","last_reported":1741180706,"current_range_meters":6800,"station_id":"ce4bhlp2rcd13ifvqgjg","pricing_plan_id":"cebpf4jnsgd1na2vs0mg"},{"bike_id":"a88c142e-d928-4561-88fe-ca6968b4c6c1","system_id":"levelo_inurba_marseille","lat":43.26208,"lon":5.40385,"is_reserved":false,"is_disabled":false,"rental_uris":{"android":"levelo://app?vid=a88c142e-d928-4561-88fe-ca6968b4c6c1","ios":"levelo://app?vid=a88c142e-d928-4561-88fe-ca6968b4c6c1"},"vehicle_type_id":"4","last_reported":1741180706,"current_range_meters":6800,"station_id":"ce4bhmh2rcd13ifvqgmg","pricing_plan_id":"cebpf4jnsgd1na2vs0mg"},{"bike_id":"997217d4-9110-4f1d-bb92-525e0e2d4061","system_id":"levelo_inurba_marseille","lat":43.2316,"lon":5.43701,"is_reserved":false,"is_disabled":false,"rental_uris":{"android":"levelo://app?vid=997217d4-9110-4f1d-bb92-525e0e2d4061","ios":"levelo://app?vid=997217d4-9110-4f1d-bb92-525e0e2d4061"},"vehicle_type_id":"4","last_reported":1741180706,"current_range_meters":6800,"station_id":"ce4bhmp2rcd13ifvqgog","pricing_plan_id":"cebpf4jnsgd1na2vs0mg"},{"bike_id":"4d96a45d-8e1d-4f5c-846e-3a9ab83111fb","system_id":"levelo_inurba_marseille","lat":43.32343,"lon":5.36741,"is_reserved":false,"is_disabled":false,"rental_uris":{"android":"levelo://app?vid=4d96a45d-8e1d-4f5c-846e-3a9ab83111fb","ios":"levelo://app?vid=4d96a45d-8e1d-4f5c-846e-3a9ab83111fb"},"vehicle_type_id":"4","last_reported":1741180706,"current_range_meters":6800,"station_id":"ce4bhsh2rcd13ifvqi2g","pricing_plan_id":"cebpf4jnsgd1na2vs0mg"},{"bike_id":"21b19842-9ad9-4db0-bc46-3d2827c0069e","system_id":"levelo_inurba_marseille","lat":43.23194,"lon":5.35556,"is_reserved":false,"is_disabled":false,"rental_uris":{"android":"levelo://app?vid=21b19842-9ad9-4db0-bc46-3d2827c0069e","ios":"levelo://app?vid=21b19842-9ad9-4db0-bc46-3d2827c0069e"},"vehicle_type_id":"4","last_reported":1741180706,"current_range_meters":6800,"station_id":"ce4bhu92rcd13ifvqi70","pricing_plan_id":"cebpf4jnsgd1na2vs0mg"},{"bike_id":"ee1d2ad1-36ca-49dd-a328-f2a9a9994ecb","system_id":"levelo_inurba_marseille","lat":43.31083,"lon":5.3814,"is_reserved":false,"is_disabled":false,"rental_uris":{"android":"levelo://app?vid=ee1d2ad1-36ca-49dd-a328-f2a9a9994ecb","ios":"levelo://app?vid=ee1d2ad1-36ca-49dd-a328-f2a9a9994ecb"},"vehicle_type_id":"4","last_reported":1741180706,"current_range_meters":7200,"station_id":"","pricing_plan_id":"cebpf4jnsgd1na2vs0mg"},{"bike_id":"9963b732-e7cc-4ea5-b313-0f01d9fe9045","system_id":"levelo_inurba_marseille","lat":43.28109,"lon":5.39863,"is_reserved":false,"is_disabled":false,"rental_uris":{"android":"levelo://app?vid=9963b732-e7cc-4ea5-b313-0f01d9fe9045","ios":"levelo://app?vid=9963b732-e7cc-4ea5-b313-0f01d9fe9045"},"vehicle_type_id":"4","last_reported":1741180706,"current_range_meters":7200,"station_id":"","pricing_plan_id":"cebpf4jnsgd1na2vs0mg"},{"bike_id":"c822b442-c1bb-45e6-914c-d2fcdb7669be","system_id":"levelo_inurba_marseille","lat":43.29616,"lon":5.37729,"is_reserved":false,"is_disabled":false,"rental_uris":{"android":"levelo://app?vid=c822b442-c1bb-45e6-914c-d2fcdb7669be","ios":"levelo://app?vid=c822b442-c1bb-45e6-914c-d2fcdb7669be"},"vehicle_type_id":"4","last_reported":1741180706,"current_range_meters":7200,"station_id":"ce4bgi92rcd13ifvqb90","pricing_plan_id":"cebpf4jnsgd1na2vs0mg"},{"bike_id":"dae721b9-3d6d-4db6-9eec-1cb4081dbd74","system_id":"levelo_inurba_marseille","lat":43.26214,"lon":5.37438,"is_reserved":false,"is_disabled":false,"rental_uris":{"android":"levelo://app?vid=dae721b9-3d6d-4db6-9eec-1cb4081dbd74","ios":"levelo://app?vid=dae721b9-3d6d-4db6-9eec-1cb4081dbd74"},"vehicle_type_id":"4","last_reported":1741180706,"current_range_meters":7200,"station_id":"ce4bhgp2rcd13ifvqfc0","pricing_plan_id":"cebpf4jnsgd1na2vs0mg"},{"bike_id":"080dce8f-de4e-4fec-80ae-3af3ec102029","system_id":"levelo_inurba_marseille","lat":43.253696,"lon":5.401802,"is_reserved":false,"is_disabled":false,"rental_uris":{"android":"levelo://app?vid=080dce8f-de4e-4fec-80ae-3af3ec102029","ios":"levelo://app?vid=080dce8f-de4e-4fec-80ae-3af3ec102029"},"vehicle_type_id":"4","last_reported":1741180706,"current_range_meters":7200,"station_id":"ce4bhhp2rcd13ifvqfm0","pricing_plan_id":"cebpf4jnsgd1na2vs0mg"},{"bike_id":"3b4067b0-12ee-4699-90b5-ffca4ece714e","system_id":"levelo_inurba_marseille","lat":43.24545,"lon":5.39546,"is_reserved":false,"is_disabled":false,"rental_uris":{"android":"levelo://app?vid=3b4067b0-12ee-4699-90b5-ffca4ece714e","ios":"levelo://app?vid=3b4067b0-12ee-4699-90b5-ffca4ece714e"},"vehicle_type_id":"4","last_reported":1741180706,"current_range_meters":7200,"station_id":"ce4bhlp2rcd13ifvqgjg","pricing_plan_id":"cebpf4jnsgd1na2vs0mg"},{"bike_id":"5259c561-fdff-45e4-b300-9239edc9950c","system_id":"levelo_inurba_marseille","lat":43.26211,"lon":5.40431,"is_reserved":false,"is_disabled":false,"rental_uris":{"android":"levelo://app?vid=5259c561-fdff-45e4-b300-9239edc9950c","ios":"levelo://app?vid=5259c561-fdff-45e4-b300-9239edc9950c"},"vehicle_type_id":"4","last_reported":1741180706,"current_range_meters":7200,"station_id":"ce4bhmh2rcd13ifvqgmg","pricing_plan_id":"cebpf4jnsgd1na2vs0mg"},{"bike_id":"acc909e7-3836-42b3-b51d-082940d4d9ec","system_id":"levelo_inurba_marseille","lat":43.26231,"lon":5.40494,"is_reserved":false,"is_disabled":false,"rental_uris":{"android":"levelo://app?vid=acc909e7-3836-42b3-b51d-082940d4d9ec","ios":"levelo://app?vid=acc909e7-3836-42b3-b51d-082940d4d9ec"},"vehicle_type_id":"4","last_reported":1741180706,"current_range_meters":7200,"station_id":"ce4bhmh2rcd13ifvqgmg","pricing_plan_id":"cebpf4jnsgd1na2vs0mg"},{"bike_id":"41da4b56-604c-4398-a7b9-104be2ad83f3","system_id":"levelo_inurba_marseille","lat":43.23154,"lon":5.43756,"is_reserved":false,"is_disabled":false,"rental_uris":{"android":"levelo://app?vid=41da4b56-604c-4398-a7b9-104be2ad83f3","ios":"levelo://app?vid=41da4b56-604c-4398-a7b9-104be2ad83f3"},"vehicle_type_id":"4","last_reported":1741180706,"current_range_meters":8000,"station_id":"","pricing_plan_id":"cebpf4jnsgd1na2vs0mg"},{"bike_id":"136bb51c-d012-4916-adf9-aed8533144cf","system_id":"levelo_inurba_marseille","lat":43.3055,"lon":5.36524,"is_reserved":false,"is_disabled":false,"rental_uris":{"android":"levelo://app?vid=136bb51c-d012-4916-adf9-aed8533144cf","ios":"levelo://app?vid=136bb51c-d012-4916-adf9-aed8533144cf"},"vehicle_type_id":"4","last_reported":1741180706,"current_range_meters":8000,"station_id":"ce4bgs12rcd13ifvqcag","pricing_plan_id":"cebpf4jnsgd1na2vs0mg"},{"bike_id":"6496d1fd-4f5a-4136-93cc-783d2e3a4cc9","system_id":"levelo_inurba_marseille","lat":43.30284,"lon":5.37709,"is_reserved":false,"is_disabled":false,"rental_uris":{"android":"levelo://app?vid=6496d1fd-4f5a-4136-93cc-783d2e3a4cc9","ios":"levelo://app?vid=6496d1fd-4f5a-4136-93cc-783d2e3a4cc9"},"vehicle_type_id":"4","last_reported":1741180706,"current_range_meters":8000,"station_id":"ce4bguh2rcd13ifvqcj0","pricing_plan_id":"cebpf4jnsgd1na2vs0mg"},{"bike_id":"d4b1b587-cdfc-497a-825f-6d26e6c7709a","system_id":"levelo_inurba_marseille","lat":43.28464,"lon":5.35881,"is_reserved":false,"is_disabled":false,"rental_uris":{"android":"levelo://app?vid=d4b1b587-cdfc-497a-825f-6d26e6c7709a","ios":"levelo://app?vid=d4b1b587-cdfc-497a-825f-6d26e6c7709a"},"vehicle_type_id":"4","last_reported":1741180706,"current_range_meters":8000,"station_id":"ce4bhah2rcd13ifvqei0","pricing_plan_id":"cebpf4jnsgd1na2vs0mg"},{"bike_id":"1251622a-c93e-431e-90d0-4106b158ac93","system_id":"levelo_inurba_marseille","lat":43.28417,"lon":5.34998,"is_reserved":false,"is_disabled":false,"rental_uris":{"android":"levelo://app?vid=1251622a-c93e-431e-90d0-4106b158ac93","ios":"levelo://app?vid=1251622a-c93e-431e-90d0-4106b158ac93"},"vehicle_type_id":"4","last_reported":1741180706,"current_range_meters":8000,"station_id":"ce4bhbh2rcd13ifvqepg","pricing_plan_id":"cebpf4jnsgd1na2vs0mg"},{"bike_id":"6b4ccd0a-d8d4-47e8-a23e-db23c42b230c","system_id":"levelo_inurba_marseille","lat":43.25009,"lon":5.3894,"is_reserved":false,"is_disabled":false,"rental_uris":{"android":"levelo://app?vid=6b4ccd0a-d8d4-47e8-a23e-db23c42b230c","ios":"levelo://app?vid=6b4ccd0a-d8d4-47e8-a23e-db23c42b230c"},"vehicle_type_id":"4","last_reported":1741180706,"current_range_meters":8000,"station_id":"ce4bhgp2rcd13ifvqfd0","pricing_plan_id":"cebpf4jnsgd1na2vs0mg"},{"bike_id":"e6a4f953-5895-4fa8-ac31-a0a59838afae","system_id":"levelo_inurba_marseille","lat":43.25951,"lon":5.40919,"is_reserved":false,"is_disabled":false,"rental_uris":{"android":"levelo://app?vid=e6a4f953-5895-4fa8-ac31-a0a59838afae","ios":"levelo://app?vid=e6a4f953-5895-4fa8-ac31-a0a59838afae"},"vehicle_type_id":"4","last_reported":1741180706,"current_range_meters":8000,"station_id":"ce4bhm92rcd13ifvqglg","pricing_plan_id":"cebpf4jnsgd1na2vs0mg"},{"bike_id":"44a7153b-0fd7-4509-836b-676bbf84fb06","system_id":"levelo_inurba_marseille","lat":43.23182,"lon":5.35557,"is_reserved":false,"is_disabled":false,"rental_uris":{"android":"levelo://app?vid=44a7153b-0fd7-4509-836b-676bbf84fb06","ios":"levelo://app?vid=44a7153b-0fd7-4509-836b-676bbf84fb06"},"vehicle_type_id":"4","last_reported":1741180706,"current_range_meters":8000,"station_id":"ce4bhu92rcd13ifvqi70","pricing_plan_id":"cebpf4jnsgd1na2vs0mg"},{"bike_id":"4ad5376b-c5a0-445d-b2ad-e25962d6fac1","system_id":"levelo_inurba_marseille","lat":43.2417,"lon":5.36396,"is_reserved":false,"is_disabled":false,"rental_uris":{"android":"levelo://app?vid=4ad5376b-c5a0-445d-b2ad-e25962d6fac1","ios":"levelo://app?vid=4ad5376b-c5a0-445d-b2ad-e25962d6fac1"},"vehicle_type_id":"4","last_reported":1741180706,"current_range_meters":8000,"station_id":"cpo36qri1sfpv3e86is0","pricing_plan_id":"cebpf4jnsgd1na2vs0mg"},{"bike_id":"de44d09a-d4db-4ce3-a2dd-62f4dc2e96ab","system_id":"levelo_inurba_marseille","lat":43.2817,"lon":5.42823,"is_reserved":false,"is_disabled":false,"rental_uris":{"android":"levelo://app?vid=de44d09a-d4db-4ce3-a2dd-62f4dc2e96ab","ios":"levelo://app?vid=de44d09a-d4db-4ce3-a2dd-62f4dc2e96ab"},"vehicle_type_id":"4","last_reported":1741180706,"current_range_meters":8400,"station_id":"","pricing_plan_id":"cebpf4jnsgd1na2vs0mg"},{"bike_id":"32cbc2c0-55e5-4fbf-a795-71fbcea30cb5","system_id":"levelo_inurba_marseille","lat":43.29625,"lon":5.3716,"is_reserved":false,"is_disabled":false,"rental_uris":{"android":"levelo://app?vid=32cbc2c0-55e5-4fbf-a795-71fbcea30cb5","ios":"levelo://app?vid=32cbc2c0-55e5-4fbf-a795-71fbcea30cb5"},"vehicle_type_id":"4","last_reported":1741180706,"current_range_meters":8400,"station_id":"ce4bgnh2rcd13ifvqc0g","pricing_plan_id":"cebpf4jnsgd1na2vs0mg"},{"bike_id":"a1d96764-b7ca-46b6-9e03-c09428bfdfd0","system_id":"levelo_inurba_marseille","lat":43.29258,"lon":5.40913,"is_reserved":false,"is_disabled":false,"rental_uris":{"android":"levelo://app?vid=a1d96764-b7ca-46b6-9e03-c09428bfdfd0","ios":"levelo://app?vid=a1d96764-b7ca-46b6-9e03-c09428bfdfd0"},"vehicle_type_id":"4","last_reported":1741180706,"current_range_meters":8400,"station_id":"ce4bh192rcd13ifvqdc0","pricing_plan_id":"cebpf4jnsgd1na2vs0mg"},{"bike_id":"8d9af722-a054-4282-b14a-664805154d10","system_id":"levelo_inurba_marseille","lat":43.29102,"lon":5.38138,"is_reserved":false,"is_disabled":false,"rental_uris":{"android":"levelo://app?vid=8d9af722-a054-4282-b14a-664805154d10","ios":"levelo://app?vid=8d9af722-a054-4282-b14a-664805154d10"},"vehicle_type_id":"4","last_reported":1741180706,"current_range_meters":8400,"station_id":"ce4bh512rcd13ifvqe2g","pricing_plan_id":"cebpf4jnsgd1na2vs0mg"},{"bike_id":"ee6214b6-f75f-45de-a5bd-adbc3541f4f5","system_id":"levelo_inurba_marseille","lat":43.28423,"lon":5.34992,"is_reserved":false,"is_disabled":false,"rental_uris":{"android":"levelo://app?vid=ee6214b6-f75f-45de-a5bd-adbc3541f4f5","ios":"levelo://app?vid=ee6214b6-f75f-45de-a5bd-adbc3541f4f5"},"vehicle_type_id":"4","last_reported":1741180706,"current_range_meters":8400,"station_id":"ce4bhbh2rcd13ifvqepg","pricing_plan_id":"cebpf4jnsgd1na2vs0mg"},{"bike_id":"e45f8d2c-06b2-4ed3-951d-fb4bbbe91c71","system_id":"levelo_inurba_marseille","lat":43.28417,"lon":5.34986,"is_reserved":false,"is_disabled":false,"rental_uris":{"android":"levelo://app?vid=e45f8d2c-06b2-4ed3-951d-fb4bbbe91c71","ios":"levelo://app?vid=e45f8d2c-06b2-4ed3-951d-fb4bbbe91c71"},"vehicle_type_id":"4","last_reported":1741180706,"current_range_meters":8400,"station_id":"ce4bhbh2rcd13ifvqepg","pricing_plan_id":"cebpf4jnsgd1na2vs0mg"},{"bike_id":"346c5faf-5c6d-40f5-b832-4598b852a63c","system_id":"levelo_inurba_marseille","lat":43.26561,"lon":5.37273,"is_reserved":false,"is_disabled":false,"rental_uris":{"android":"levelo://app?vid=346c5faf-5c6d-40f5-b832-4598b852a63c","ios":"levelo://app?vid=346c5faf-5c6d-40f5-b832-4598b852a63c"},"vehicle_type_id":"4","last_reported":1741180706,"current_range_meters":8400,"station_id":"ce4bhg12rcd13ifvqf70","pricing_plan_id":"cebpf4jnsgd1na2vs0mg"},{"bike_id":"04b3858c-122b-4917-a962-845e3d360d0c","system_id":"levelo_inurba_marseille","lat":43.2514,"lon":5.40296,"is_reserved":false,"is_disabled":false,"rental_uris":{"android":"levelo://app?vid=04b3858c-122b-4917-a962-845e3d360d0c","ios":"levelo://app?vid=04b3858c-122b-4917-a962-845e3d360d0c"},"vehicle_type_id":"4","last_reported":1741180706,"current_range_meters":8400,"station_id":"ce4bhlh2rcd13ifvqgig","pricing_plan_id":"cebpf4jnsgd1na2vs0mg"},{"bike_id":"d5846449-7219-4265-90f9-a2ede6b6465f","system_id":"levelo_inurba_marseille","lat":43.2418,"lon":5.39714,"is_reserved":false,"is_disabled":false,"rental_uris":{"android":"levelo://app?vid=d5846449-7219-4265-90f9-a2ede6b6465f","ios":"levelo://app?vid=d5846449-7219-4265-90f9-a2ede6b6465f"},"vehicle_type_id":"4","last_reported":1741180706,"current_range_meters":8400,"station_id":"ce4bhn12rcd13ifvqgpg","pricing_plan_id":"cebpf4jnsgd1na2vs0mg"},{"bike_id":"875e8a70-b504-4210-b16b-025f0da5b5e7","system_id":"levelo_inurba_marseille","lat":43.27496,"lon":5.42441,"is_reserved":false,"is_disabled":false,"rental_uris":{"android":"levelo://app?vid=875e8a70-b504-4210-b16b-025f0da5b5e7","ios":"levelo://app?vid=875e8a70-b504-4210-b16b-025f0da5b5e7"},"vehicle_type_id":"4","last_reported":1741180706,"current_range_meters":8400,"station_id":"ce4bhn92rcd13ifvqgrg","pricing_plan_id":"cebpf4jnsgd1na2vs0mg"},{"bike_id":"332abda5-2296-4955-8d29-1593f717e1c9","system_id":"levelo_inurba_marseille","lat":43.27969,"lon":5.41581,"is_reserved":false,"is_disabled":false,"rental_uris":{"android":"levelo://app?vid=332abda5-2296-4955-8d29-1593f717e1c9","ios":"levelo://app?vid=332abda5-2296-4955-8d29-1593f717e1c9"},"vehicle_type_id":"4","last_reported":1741180706,"current_range_meters":8800,"station_id":"","pricing_plan_id":"cebpf4jnsgd1na2vs0mg"},{"bike_id":"6e1ffe09-5dfe-450f-9985-0896186f45b9","system_id":"levelo_inurba_marseille","lat":43.3123,"lon":5.36863,"is_reserved":false,"is_disabled":false,"rental_uris":{"android":"levelo://app?vid=6e1ffe09-5dfe-450f-9985-0896186f45b9","ios":"levelo://app?vid=6e1ffe09-5dfe-450f-9985-0896186f45b9"},"vehicle_type_id":"4","last_reported":1741180706,"current_range_meters":8800,"station_id":"ce4bgl92rcd13ifvqbq0","pricing_plan_id":"cebpf4jnsgd1na2vs0mg"},{"bike_id":"47f880eb-4975-4b5b-a7eb-799e6f5501eb","system_id":"levelo_inurba_marseille","lat":43.30423,"lon":5.39758,"is_reserved":false,"is_disabled":false,"rental_uris":{"android":"levelo://app?vid=47f880eb-4975-4b5b-a7eb-799e6f5501eb","ios":"levelo://app?vid=47f880eb-4975-4b5b-a7eb-799e6f5501eb"},"vehicle_type_id":"4","last_reported":1741180706,"current_range_meters":8800,"station_id":"ce4bh092rcd13ifvqd20","pricing_plan_id":"cebpf4jnsgd1na2vs0mg"},{"bike_id":"99ba4b32-7aa5-4cba-a7a2-6427953d4f2c","system_id":"levelo_inurba_marseille","lat":43.306425,"lon":5.400906,"is_reserved":false,"is_disabled":false,"rental_uris":{"android":"levelo://app?vid=99ba4b32-7aa5-4cba-a7a2-6427953d4f2c","ios":"levelo://app?vid=99ba4b32-7aa5-4cba-a7a2-6427953d4f2c"},"vehicle_type_id":"4","last_reported":1741180706,"current_range_meters":8800,"station_id":"ce4bh3h2rcd13ifvqdo0","pricing_plan_id":"cebpf4jnsgd1na2vs0mg"},{"bike_id":"8eff49c3-f55b-4909-bf3e-64d48a163074","system_id":"levelo_inurba_marseille","lat":43.28419,"lon":5.34983,"is_reserved":false,"is_disabled":false,"rental_uris":{"android":"levelo://app?vid=8eff49c3-f55b-4909-bf3e-64d48a163074","ios":"levelo://app?vid=8eff49c3-f55b-4909-bf3e-64d48a163074"},"vehicle_type_id":"4","last_reported":1741180706,"current_range_meters":8800,"station_id":"ce4bhbh2rcd13ifvqepg","pricing_plan_id":"cebpf4jnsgd1na2vs0mg"},{"bike_id":"d3ab4470-0890-4fe8-a531-ea6c6b67a8a2","system_id":"levelo_inurba_marseille","lat":43.28936,"lon":5.36375,"is_reserved":false,"is_disabled":false,"rental_uris":{"android":"levelo://app?vid=d3ab4470-0890-4fe8-a531-ea6c6b67a8a2","ios":"levelo://app?vid=d3ab4470-0890-4fe8-a531-ea6c6b67a8a2"},"vehicle_type_id":"4","last_reported":1741180706,"current_range_meters":8800,"station_id":"ce4bhc92rcd13ifvqetg","pricing_plan_id":"cebpf4jnsgd1na2vs0mg"},{"bike_id":"d3622817-d227-4e1d-8783-77424544b6af","system_id":"levelo_inurba_marseille","lat":43.270294,"lon":5.401959,"is_reserved":false,"is_disabled":false,"rental_uris":{"android":"levelo://app?vid=d3622817-d227-4e1d-8783-77424544b6af","ios":"levelo://app?vid=d3622817-d227-4e1d-8783-77424544b6af"},"vehicle_type_id":"4","last_reported":1741180706,"current_range_meters":8800,"station_id":"ce4bhk92rcd13ifvqgc0","pricing_plan_id":"cebpf4jnsgd1na2vs0mg"},{"bike_id":"ca41b35a-457f-4c0d-91dc-f7329a18ac5b","system_id":"levelo_inurba_marseille","lat":43.25947,"lon":5.40862,"is_reserved":false,"is_disabled":false,"rental_uris":{"android":"levelo://app?vid=ca41b35a-457f-4c0d-91dc-f7329a18ac5b","ios":"levelo://app?vid=ca41b35a-457f-4c0d-91dc-f7329a18ac5b"},"vehicle_type_id":"4","last_reported":1741180706,"current_range_meters":8800,"station_id":"ce4bhm92rcd13ifvqglg","pricing_plan_id":"cebpf4jnsgd1na2vs0mg"},{"bike_id":"d4f45980-efd3-482d-8bab-c251301222b2","system_id":"levelo_inurba_marseille","lat":43.23163,"lon":5.43696,"is_reserved":false,"is_disabled":false,"rental_uris":{"android":"levelo://app?vid=d4f45980-efd3-482d-8bab-c251301222b2","ios":"levelo://app?vid=d4f45980-efd3-482d-8bab-c251301222b2"},"vehicle_type_id":"4","last_reported":1741180706,"current_range_meters":8800,"station_id":"ce4bhmp2rcd13ifvqgog","pricing_plan_id":"cebpf4jnsgd1na2vs0mg"},{"bike_id":"017a401a-e2dd-42af-b9e1-5e499d8c4ed9","system_id":"levelo_inurba_marseille","lat":43.24173,"lon":5.39721,"is_reserved":false,"is_disabled":false,"rental_uris":{"android":"levelo://app?vid=017a401a-e2dd-42af-b9e1-5e499d8c4ed9","ios":"levelo://app?vid=017a401a-e2dd-42af-b9e1-5e499d8c4ed9"},"vehicle_type_id":"4","last_reported":1741180706,"current_range_meters":8800,"station_id":"ce4bhn12rcd13ifvqgpg","pricing_plan_id":"cebpf4jnsgd1na2vs0mg"},{"bike_id":"187ecd8a-d75b-4775-85e8-0c588afbf768","system_id":"levelo_inurba_marseille","lat":43.24179,"lon":5.39734,"is_reserved":false,"is_disabled":false,"rental_uris":{"android":"levelo://app?vid=187ecd8a-d75b-4775-85e8-0c588afbf768","ios":"levelo://app?vid=187ecd8a-d75b-4775-85e8-0c588afbf768"},"vehicle_type_id":"4","last_reported":1741180706,"current_range_meters":8800,"station_id":"ce4bhn12rcd13ifvqgpg","pricing_plan_id":"cebpf4jnsgd1na2vs0mg"},{"bike_id":"7fc144a3-e1c7-467b-ad05-efeab871ace5","system_id":"levelo_inurba_marseille","lat":43.29713,"lon":5.37708,"is_reserved":false,"is_disabled":false,"rental_uris":{"android":"levelo://app?vid=7fc144a3-e1c7-467b-ad05-efeab871ace5","ios":"levelo://app?vid=7fc144a3-e1c7-467b-ad05-efeab871ace5"},"vehicle_type_id":"4","last_reported":1741180706,"current_range_meters":9200,"station_id":"ce4bgkh2rcd13ifvqbl0","pricing_plan_id":"cebpf4jnsgd1na2vs0mg"},{"bike_id":"073ebcb9-1ff9-4112-9039-3bf45dfd698c","system_id":"levelo_inurba_marseille","lat":43.28696,"lon":5.37392,"is_reserved":false,"is_disabled":false,"rental_uris":{"android":"levelo://app?vid=073ebcb9-1ff9-4112-9039-3bf45dfd698c","ios":"levelo://app?vid=073ebcb9-1ff9-4112-9039-3bf45dfd698c"},"vehicle_type_id":"4","last_reported":1741180706,"current_range_meters":9200,"station_id":"ce4bh3p2rcd13ifvqdq0","pricing_plan_id":"cebpf4jnsgd1na2vs0mg"},{"bike_id":"b3358aa3-24d6-46b8-8db5-a94faec34ed1","system_id":"levelo_inurba_marseille","lat":43.29039,"lon":5.375567,"is_reserved":false,"is_disabled":false,"rental_uris":{"android":"levelo://app?vid=b3358aa3-24d6-46b8-8db5-a94faec34ed1","ios":"levelo://app?vid=b3358aa3-24d6-46b8-8db5-a94faec34ed1"},"vehicle_type_id":"4","last_reported":1741180706,"current_range_meters":9200,"station_id":"ce4bh692rcd13ifvqe90","pricing_plan_id":"cebpf4jnsgd1na2vs0mg"},{"bike_id":"96794ea4-770a-4927-923a-493e9670ecf8","system_id":"levelo_inurba_marseille","lat":43.284232,"lon":5.349843,"is_reserved":false,"is_disabled":false,"rental_uris":{"android":"levelo://app?vid=96794ea4-770a-4927-923a-493e9670ecf8","ios":"levelo://app?vid=96794ea4-770a-4927-923a-493e9670ecf8"},"vehicle_type_id":"4","last_reported":1741180706,"current_range_meters":9200,"station_id":"ce4bhbh2rcd13ifvqepg","pricing_plan_id":"cebpf4jnsgd1na2vs0mg"},{"bike_id":"dbf19b49-9fb1-48cb-9393-1f39fece9e33","system_id":"levelo_inurba_marseille","lat":43.24178,"lon":5.39731,"is_reserved":false,"is_disabled":false,"rental_uris":{"android":"levelo://app?vid=dbf19b49-9fb1-48cb-9393-1f39fece9e33","ios":"levelo://app?vid=dbf19b49-9fb1-48cb-9393-1f39fece9e33"},"vehicle_type_id":"4","last_reported":1741180706,"current_range_meters":9200,"station_id":"ce4bhn12rcd13ifvqgpg","pricing_plan_id":"cebpf4jnsgd1na2vs0mg"},{"bike_id":"d6f66471-1aca-4c22-8054-36f85ba1d961","system_id":"levelo_inurba_marseille","lat":43.28705,"lon":5.39989,"is_reserved":false,"is_disabled":false,"rental_uris":{"android":"levelo://app?vid=d6f66471-1aca-4c22-8054-36f85ba1d961","ios":"levelo://app?vid=d6f66471-1aca-4c22-8054-36f85ba1d961"},"vehicle_type_id":"4","last_reported":1741180706,"current_range_meters":9200,"station_id":"ce4bho92rcd13ifvqh3g","pricing_plan_id":"cebpf4jnsgd1na2vs0mg"},{"bike_id":"51f6f578-8898-487a-9da7-ff3d6d379d1b","system_id":"levelo_inurba_marseille","lat":43.32102,"lon":5.36775,"is_reserved":false,"is_disabled":false,"rental_uris":{"android":"levelo://app?vid=51f6f578-8898-487a-9da7-ff3d6d379d1b","ios":"levelo://app?vid=51f6f578-8898-487a-9da7-ff3d6d379d1b"},"vehicle_type_id":"4","last_reported":1741180706,"current_range_meters":9200,"station_id":"ce4bhrh2rcd13ifvqhug","pricing_plan_id":"cebpf4jnsgd1na2vs0mg"},{"bike_id":"4c0e314a-87e2-48f0-a7b0-ec6605046de8","system_id":"levelo_inurba_marseille","lat":43.32122,"lon":5.36766,"is_reserved":false,"is_disabled":false,"rental_uris":{"android":"levelo://app?vid=4c0e314a-87e2-48f0-a7b0-ec6605046de8","ios":"levelo://app?vid=4c0e314a-87e2-48f0-a7b0-ec6605046de8"},"vehicle_type_id":"4","last_reported":1741180706,"current_range_meters":9200,"station_id":"ce4bhrh2rcd13ifvqhug","pricing_plan_id":"cebpf4jnsgd1na2vs0mg"},{"bike_id":"818e83bd-d382-4e8c-bb23-be908a7e9d0b","system_id":"levelo_inurba_marseille","lat":43.31353,"lon":5.36708,"is_reserved":false,"is_disabled":false,"rental_uris":{"android":"levelo://app?vid=818e83bd-d382-4e8c-bb23-be908a7e9d0b","ios":"levelo://app?vid=818e83bd-d382-4e8c-bb23-be908a7e9d0b"},"vehicle_type_id":"4","last_reported":1741180706,"current_range_meters":9600,"station_id":"ce4bgr92rcd13ifvqc6g","pricing_plan_id":"cebpf4jnsgd1na2vs0mg"},{"bike_id":"e0bcb74f-20ba-41dd-bd0e-fec9fe81ee7e","system_id":"levelo_inurba_marseille","lat":43.30146,"lon":5.39955,"is_reserved":false,"is_disabled":false,"rental_uris":{"android":"levelo://app?vid=e0bcb74f-20ba-41dd-bd0e-fec9fe81ee7e","ios":"levelo://app?vid=e0bcb74f-20ba-41dd-bd0e-fec9fe81ee7e"},"vehicle_type_id":"4","last_reported":1741180706,"current_range_meters":9600,"station_id":"ce4bgvh2rcd13ifvqcs0","pricing_plan_id":"cebpf4jnsgd1na2vs0mg"},{"bike_id":"5f785c81-e9ba-4991-8abb-32c82eb964ff","system_id":"levelo_inurba_marseille","lat":43.27209,"lon":5.39174,"is_reserved":false,"is_disabled":false,"rental_uris":{"android":"levelo://app?vid=5f785c81-e9ba-4991-8abb-32c82eb964ff","ios":"levelo://app?vid=5f785c81-e9ba-4991-8abb-32c82eb964ff"},"vehicle_type_id":"4","last_reported":1741180706,"current_range_meters":9600,"station_id":"ce4bhhp2rcd13ifvqfm0","pricing_plan_id":"cebpf4jnsgd1na2vs0mg"},{"bike_id":"5144b9c8-c4df-4ccc-8d10-8a21030b87de","system_id":"levelo_inurba_marseille","lat":43.2593,"lon":5.4091,"is_reserved":false,"is_disabled":false,"rental_uris":{"android":"levelo://app?vid=5144b9c8-c4df-4ccc-8d10-8a21030b87de","ios":"levelo://app?vid=5144b9c8-c4df-4ccc-8d10-8a21030b87de"},"vehicle_type_id":"4","last_reported":1741180706,"current_range_meters":9600,"station_id":"ce4bhm92rcd13ifvqglg","pricing_plan_id":"cebpf4jnsgd1na2vs0mg"},{"bike_id":"da012e55-56aa-4836-97eb-401c7578f569","system_id":"levelo_inurba_marseille","lat":43.25925,"lon":5.40903,"is_reserved":false,"is_disabled":false,"rental_uris":{"android":"levelo://app?vid=da012e55-56aa-4836-97eb-401c7578f569","ios":"levelo://app?vid=da012e55-56aa-4836-97eb-401c7578f569"},"vehicle_type_id":"4","last_reported":1741180706,"current_range_meters":9600,"station_id":"ce4bhm92rcd13ifvqglg","pricing_plan_id":"cebpf4jnsgd1na2vs0mg"},{"bike_id":"33568998-277b-4e37-b0e7-d91ab66c4edb","system_id":"levelo_inurba_marseille","lat":43.28076,"lon":5.39648,"is_reserved":false,"is_disabled":false,"rental_uris":{"android":"levelo://app?vid=33568998-277b-4e37-b0e7-d91ab66c4edb","ios":"levelo://app?vid=33568998-277b-4e37-b0e7-d91ab66c4edb"},"vehicle_type_id":"4","last_reported":1741180706,"current_range_meters":9600,"station_id":"ce4bho12rcd13ifvqh2g","pricing_plan_id":"cebpf4jnsgd1na2vs0mg"},{"bike_id":"277a6481-081d-4981-bb8e-40ef977ff57c","system_id":"levelo_inurba_marseille","lat":43.30533,"lon":5.38426,"is_reserved":false,"is_disabled":false,"rental_uris":{"android":"levelo://app?vid=277a6481-081d-4981-bb8e-40ef977ff57c","ios":"levelo://app?vid=277a6481-081d-4981-bb8e-40ef977ff57c"},"vehicle_type_id":"4","last_reported":1741180706,"current_range_meters":10000,"station_id":"ce4bgg92rcd13ifvqb30","pricing_plan_id":"cebpf4jnsgd1na2vs0mg"},{"bike_id":"3de42499-332f-4f37-855f-942539a949a7","system_id":"levelo_inurba_marseille","lat":43.29749,"lon":5.37115,"is_reserved":false,"is_disabled":false,"rental_uris":{"android":"levelo://app?vid=3de42499-332f-4f37-855f-942539a949a7","ios":"levelo://app?vid=3de42499-332f-4f37-855f-942539a949a7"},"vehicle_type_id":"4","last_reported":1741180706,"current_range_meters":10000,"station_id":"ce4bgop2rcd13ifvqc1g","pricing_plan_id":"cebpf4jnsgd1na2vs0mg"},{"bike_id":"6a78d4b8-b99d-41ea-abad-64b5ba339e56","system_id":"levelo_inurba_marseille","lat":43.29845,"lon":5.36272,"is_reserved":false,"is_disabled":false,"rental_uris":{"android":"levelo://app?vid=6a78d4b8-b99d-41ea-abad-64b5ba339e56","ios":"levelo://app?vid=6a78d4b8-b99d-41ea-abad-64b5ba339e56"},"vehicle_type_id":"4","last_reported":1741180706,"current_range_meters":10000,"station_id":"ce4bgpp2rcd13ifvqc3g","pricing_plan_id":"cebpf4jnsgd1na2vs0mg"},{"bike_id":"e41202be-8360-490f-911d-79d5429714eb","system_id":"levelo_inurba_marseille","lat":43.28408,"lon":5.37516,"is_reserved":false,"is_disabled":false,"rental_uris":{"android":"levelo://app?vid=e41202be-8360-490f-911d-79d5429714eb","ios":"levelo://app?vid=e41202be-8360-490f-911d-79d5429714eb"},"vehicle_type_id":"4","last_reported":1741180706,"current_range_meters":10000,"station_id":"ce4bh412rcd13ifvqds0","pricing_plan_id":"cebpf4jnsgd1na2vs0mg"},{"bike_id":"91a1ee83-54b8-4fad-90b0-b60f1de63a24","system_id":"levelo_inurba_marseille","lat":43.28408,"lon":5.34991,"is_reserved":false,"is_disabled":false,"rental_uris":{"android":"levelo://app?vid=91a1ee83-54b8-4fad-90b0-b60f1de63a24","ios":"levelo://app?vid=91a1ee83-54b8-4fad-90b0-b60f1de63a24"},"vehicle_type_id":"4","last_reported":1741180706,"current_range_meters":10000,"station_id":"ce4bhbh2rcd13ifvqepg","pricing_plan_id":"cebpf4jnsgd1na2vs0mg"},{"bike_id":"6f826fd5-6fff-49c3-ad6d-6cff987496be","system_id":"levelo_inurba_marseille","lat":43.26788,"lon":5.39421,"is_reserved":false,"is_disabled":false,"rental_uris":{"android":"levelo://app?vid=6f826fd5-6fff-49c3-ad6d-6cff987496be","ios":"levelo://app?vid=6f826fd5-6fff-49c3-ad6d-6cff987496be"},"vehicle_type_id":"4","last_reported":1741180706,"current_range_meters":10000,"station_id":"ce4bhh12rcd13ifvqfg0","pricing_plan_id":"cebpf4jnsgd1na2vs0mg"},{"bike_id":"3b219114-afa7-412a-84e6-60bc704150c0","system_id":"levelo_inurba_marseille","lat":43.23151,"lon":5.43701,"is_reserved":false,"is_disabled":false,"rental_uris":{"android":"levelo://app?vid=3b219114-afa7-412a-84e6-60bc704150c0","ios":"levelo://app?vid=3b219114-afa7-412a-84e6-60bc704150c0"},"vehicle_type_id":"4","last_reported":1741180706,"current_range_meters":10000,"station_id":"ce4bhmp2rcd13ifvqgog","pricing_plan_id":"cebpf4jnsgd1na2vs0mg"},{"bike_id":"a78978ba-53b1-4faa-9a35-dbb67443cb73","system_id":"levelo_inurba_marseille","lat":43.23145,"lon":5.43711,"is_reserved":false,"is_disabled":false,"rental_uris":{"android":"levelo://app?vid=a78978ba-53b1-4faa-9a35-dbb67443cb73","ios":"levelo://app?vid=a78978ba-53b1-4faa-9a35-dbb67443cb73"},"vehicle_type_id":"4","last_reported":1741180706,"current_range_meters":10000,"station_id":"ce4bhmp2rcd13ifvqgog","pricing_plan_id":"cebpf4jnsgd1na2vs0mg"},{"bike_id":"7cd5e07c-ad2a-4af8-99d9-77c41335ce79","system_id":"levelo_inurba_marseille","lat":43.24169,"lon":5.36389,"is_reserved":false,"is_disabled":false,"rental_uris":{"android":"levelo://app?vid=7cd5e07c-ad2a-4af8-99d9-77c41335ce79","ios":"levelo://app?vid=7cd5e07c-ad2a-4af8-99d9-77c41335ce79"},"vehicle_type_id":"4","last_reported":1741180706,"current_range_meters":10000,"station_id":"cpo36qri1sfpv3e86is0","pricing_plan_id":"cebpf4jnsgd1na2vs0mg"},{"bike_id":"c55557ad-1ed5-4997-aee7-ac92107f14b6","system_id":"levelo_inurba_marseille","lat":43.26482,"lon":5.37494,"is_reserved":false,"is_disabled":false,"rental_uris":{"android":"levelo://app?vid=c55557ad-1ed5-4997-aee7-ac92107f14b6","ios":"levelo://app?vid=c55557ad-1ed5-4997-aee7-ac92107f14b6"},"vehicle_type_id":"4","last_reported":1741180706,"current_range_meters":10800,"station_id":"","pricing_plan_id":"cebpf4jnsgd1na2vs0mg"},{"bike_id":"db84a347-6bb9-47e8-a936-48e1381c1a88","system_id":"levelo_inurba_marseille","lat":43.23843,"lon":5.43573,"is_reserved":false,"is_disabled":false,"rental_uris":{"android":"levelo://app?vid=db84a347-6bb9-47e8-a936-48e1381c1a88","ios":"levelo://app?vid=db84a347-6bb9-47e8-a936-48e1381c1a88"},"vehicle_type_id":"4","last_reported":1741180706,"current_range_meters":10800,"station_id":"","pricing_plan_id":"cebpf4jnsgd1na2vs0mg"},{"bike_id":"bcc19ea8-d841-4c77-85e5-5471979ce287","system_id":"levelo_inurba_marseille","lat":43.29268,"lon":5.3762,"is_reserved":false,"is_disabled":false,"rental_uris":{"android":"levelo://app?vid=bcc19ea8-d841-4c77-85e5-5471979ce287","ios":"levelo://app?vid=bcc19ea8-d841-4c77-85e5-5471979ce287"},"vehicle_type_id":"4","last_reported":1741180706,"current_range_meters":10800,"station_id":"ce4bgi12rcd13ifvqb80","pricing_plan_id":"cebpf4jnsgd1na2vs0mg"},{"bike_id":"8453c40d-e4b9-4aae-8de9-2d8a3dc08f69","system_id":"levelo_inurba_marseille","lat":43.30539,"lon":5.36715,"is_reserved":false,"is_disabled":false,"rental_uris":{"android":"levelo://app?vid=8453c40d-e4b9-4aae-8de9-2d8a3dc08f69","ios":"levelo://app?vid=8453c40d-e4b9-4aae-8de9-2d8a3dc08f69"},"vehicle_type_id":"4","last_reported":1741180706,"current_range_meters":10800,"station_id":"ce4bgrp2rcd13ifvqc9g","pricing_plan_id":"cebpf4jnsgd1na2vs0mg"},{"bike_id":"37149dd2-7b39-4f37-9963-7af13fddee90","system_id":"levelo_inurba_marseille","lat":43.30146,"lon":5.37423,"is_reserved":false,"is_disabled":false,"rental_uris":{"android":"levelo://app?vid=37149dd2-7b39-4f37-9963-7af13fddee90","ios":"levelo://app?vid=37149dd2-7b39-4f37-9963-7af13fddee90"},"vehicle_type_id":"4","last_reported":1741180706,"current_range_meters":10800,"station_id":"ce4bgs92rcd13ifvqcc0","pricing_plan_id":"cebpf4jnsgd1na2vs0mg"},{"bike_id":"37f772a6-95dc-4f2b-9654-ad0a7d1fed38","system_id":"levelo_inurba_marseille","lat":43.290206,"lon":5.375547,"is_reserved":false,"is_disabled":false,"rental_uris":{"android":"levelo://app?vid=37f772a6-95dc-4f2b-9654-ad0a7d1fed38","ios":"levelo://app?vid=37f772a6-95dc-4f2b-9654-ad0a7d1fed38"},"vehicle_type_id":"4","last_reported":1741180706,"current_range_meters":10800,"station_id":"ce4bh512rcd13ifvqe2g","pricing_plan_id":"cebpf4jnsgd1na2vs0mg"},{"bike_id":"6dcd7069-97e1-4c34-83b8-ce6f544a9361","system_id":"levelo_inurba_marseille","lat":43.26555,"lon":5.37287,"is_reserved":false,"is_disabled":false,"rental_uris":{"android":"levelo://app?vid=6dcd7069-97e1-4c34-83b8-ce6f544a9361","ios":"levelo://app?vid=6dcd7069-97e1-4c34-83b8-ce6f544a9361"},"vehicle_type_id":"4","last_reported":1741180706,"current_range_meters":10800,"station_id":"ce4bhg12rcd13ifvqf70","pricing_plan_id":"cebpf4jnsgd1na2vs0mg"},{"bike_id":"e3d7bc68-e1c3-463f-8323-6b168c27cfde","system_id":"levelo_inurba_marseille","lat":43.23145,"lon":5.43726,"is_reserved":false,"is_disabled":false,"rental_uris":{"android":"levelo://app?vid=e3d7bc68-e1c3-463f-8323-6b168c27cfde","ios":"levelo://app?vid=e3d7bc68-e1c3-463f-8323-6b168c27cfde"},"vehicle_type_id":"4","last_reported":1741180706,"current_range_meters":10800,"station_id":"ce4bhmp2rcd13ifvqgog","pricing_plan_id":"cebpf4jnsgd1na2vs0mg"},{"bike_id":"3a596ab9-9103-4f48-9700-a5a62e1fc109","system_id":"levelo_inurba_marseille","lat":43.33609,"lon":5.41022,"is_reserved":false,"is_disabled":false,"rental_uris":{"android":"levelo://app?vid=3a596ab9-9103-4f48-9700-a5a62e1fc109","ios":"levelo://app?vid=3a596ab9-9103-4f48-9700-a5a62e1fc109"},"vehicle_type_id":"4","last_reported":1741180706,"current_range_meters":10800,"station_id":"ce4bhqh2rcd13ifvqhmg","pricing_plan_id":"cebpf4jnsgd1na2vs0mg"},{"bike_id":"ce158af8-0c78-4f59-aa06-010abe515e4d","system_id":"levelo_inurba_marseille","lat":43.30135,"lon":5.37424,"is_reserved":false,"is_disabled":false,"rental_uris":{"android":"levelo://app?vid=ce158af8-0c78-4f59-aa06-010abe515e4d","ios":"levelo://app?vid=ce158af8-0c78-4f59-aa06-010abe515e4d"},"vehicle_type_id":"4","last_reported":1741180706,"current_range_meters":11200,"station_id":"ce4bgs92rcd13ifvqcc0","pricing_plan_id":"cebpf4jnsgd1na2vs0mg"},{"bike_id":"e9211653-c994-4e4a-9048-d3090c49c3f9","system_id":"levelo_inurba_marseille","lat":43.30426,"lon":5.39745,"is_reserved":false,"is_disabled":false,"rental_uris":{"android":"levelo://app?vid=e9211653-c994-4e4a-9048-d3090c49c3f9","ios":"levelo://app?vid=e9211653-c994-4e4a-9048-d3090c49c3f9"},"vehicle_type_id":"4","last_reported":1741180706,"current_range_meters":11200,"station_id":"ce4bh092rcd13ifvqd20","pricing_plan_id":"cebpf4jnsgd1na2vs0mg"},{"bike_id":"a2c6c6ee-6573-49c2-8de9-0b50ef603f6d","system_id":"levelo_inurba_marseille","lat":43.28454,"lon":5.35898,"is_reserved":false,"is_disabled":false,"rental_uris":{"android":"levelo://app?vid=a2c6c6ee-6573-49c2-8de9-0b50ef603f6d","ios":"levelo://app?vid=a2c6c6ee-6573-49c2-8de9-0b50ef603f6d"},"vehicle_type_id":"4","last_reported":1741180706,"current_range_meters":11200,"station_id":"ce4bhah2rcd13ifvqei0","pricing_plan_id":"cebpf4jnsgd1na2vs0mg"},{"bike_id":"c9ed15b4-49bd-497b-af4e-de9877f3d01d","system_id":"levelo_inurba_marseille","lat":43.28152,"lon":5.4264,"is_reserved":false,"is_disabled":false,"rental_uris":{"android":"levelo://app?vid=c9ed15b4-49bd-497b-af4e-de9877f3d01d","ios":"levelo://app?vid=c9ed15b4-49bd-497b-af4e-de9877f3d01d"},"vehicle_type_id":"4","last_reported":1741180706,"current_range_meters":11600,"station_id":"","pricing_plan_id":"cebpf4jnsgd1na2vs0mg"},{"bike_id":"bace7ca6-63f6-4445-9d23-df16145ec0b4","system_id":"levelo_inurba_marseille","lat":43.286064,"lon":5.384685,"is_reserved":false,"is_disabled":false,"rental_uris":{"android":"levelo://app?vid=bace7ca6-63f6-4445-9d23-df16145ec0b4","ios":"levelo://app?vid=bace7ca6-63f6-4445-9d23-df16145ec0b4"},"vehicle_type_id":"4","last_reported":1741180706,"current_range_meters":11600,"station_id":"ce4bgi92rcd13ifvqb90","pricing_plan_id":"cebpf4jnsgd1na2vs0mg"},{"bike_id":"123bf396-08a6-409a-9f1f-2b7035f48e55","system_id":"levelo_inurba_marseille","lat":43.3046,"lon":5.37908,"is_reserved":false,"is_disabled":false,"rental_uris":{"android":"levelo://app?vid=123bf396-08a6-409a-9f1f-2b7035f48e55","ios":"levelo://app?vid=123bf396-08a6-409a-9f1f-2b7035f48e55"},"vehicle_type_id":"4","last_reported":1741180706,"current_range_meters":11600,"station_id":"ce4bgup2rcd13ifvqcn0","pricing_plan_id":"cebpf4jnsgd1na2vs0mg"},{"bike_id":"7719fffd-06d1-4abd-aa39-2872c0484a35","system_id":"levelo_inurba_marseille","lat":43.28463,"lon":5.35884,"is_reserved":false,"is_disabled":false,"rental_uris":{"android":"levelo://app?vid=7719fffd-06d1-4abd-aa39-2872c0484a35","ios":"levelo://app?vid=7719fffd-06d1-4abd-aa39-2872c0484a35"},"vehicle_type_id":"4","last_reported":1741180706,"current_range_meters":11600,"station_id":"ce4bhah2rcd13ifvqei0","pricing_plan_id":"cebpf4jnsgd1na2vs0mg"},{"bike_id":"a9daf814-96d5-457d-bc10-40144d84f133","system_id":"levelo_inurba_marseille","lat":43.26504,"lon":5.39531,"is_reserved":false,"is_disabled":false,"rental_uris":{"android":"levelo://app?vid=a9daf814-96d5-457d-bc10-40144d84f133","ios":"levelo://app?vid=a9daf814-96d5-457d-bc10-40144d84f133"},"vehicle_type_id":"4","last_reported":1741180706,"current_range_meters":11600,"station_id":"ce4bhi12rcd13ifvqfq0","pricing_plan_id":"cebpf4jnsgd1na2vs0mg"},{"bike_id":"414cacaa-b827-4748-9179-3fc1a6b854ee","system_id":"levelo_inurba_marseille","lat":43.33601,"lon":5.4103,"is_reserved":false,"is_disabled":false,"rental_uris":{"android":"levelo://app?vid=414cacaa-b827-4748-9179-3fc1a6b854ee","ios":"levelo://app?vid=414cacaa-b827-4748-9179-3fc1a6b854ee"},"vehicle_type_id":"4","last_reported":1741180706,"current_range_meters":11600,"station_id":"ce4bhqh2rcd13ifvqhmg","pricing_plan_id":"cebpf4jnsgd1na2vs0mg"},{"bike_id":"9ee1557e-12f8-4abb-8698-ed877fde5ca8","system_id":"levelo_inurba_marseille","lat":43.29265,"lon":5.37611,"is_reserved":false,"is_disabled":false,"rental_uris":{"android":"levelo://app?vid=9ee1557e-12f8-4abb-8698-ed877fde5ca8","ios":"levelo://app?vid=9ee1557e-12f8-4abb-8698-ed877fde5ca8"},"vehicle_type_id":"4","last_reported":1741180706,"current_range_meters":12000,"station_id":"ce4bgi12rcd13ifvqb80","pricing_plan_id":"cebpf4jnsgd1na2vs0mg"},{"bike_id":"acda02c9-2d19-45ad-a92b-967081d47c32","system_id":"levelo_inurba_marseille","lat":43.28978,"lon":5.3784,"is_reserved":false,"is_disabled":false,"rental_uris":{"android":"levelo://app?vid=acda02c9-2d19-45ad-a92b-967081d47c32","ios":"levelo://app?vid=acda02c9-2d19-45ad-a92b-967081d47c32"},"vehicle_type_id":"4","last_reported":1741180706,"current_range_meters":12000,"station_id":"ce4bh9p2rcd13ifvqed0","pricing_plan_id":"cebpf4jnsgd1na2vs0mg"},{"bike_id":"97426c98-75f5-4a4f-8feb-1a9b69318a58","system_id":"levelo_inurba_marseille","lat":43.29003,"lon":5.35613,"is_reserved":false,"is_disabled":false,"rental_uris":{"android":"levelo://app?vid=97426c98-75f5-4a4f-8feb-1a9b69318a58","ios":"levelo://app?vid=97426c98-75f5-4a4f-8feb-1a9b69318a58"},"vehicle_type_id":"4","last_reported":1741180706,"current_range_meters":12000,"station_id":"ce4bhb92rcd13ifvqen0","pricing_plan_id":"cebpf4jnsgd1na2vs0mg"},{"bike_id":"33f9c223-058c-44d8-aeaa-d8821412a059","system_id":"levelo_inurba_marseille","lat":43.27371,"lon":5.36262,"is_reserved":false,"is_disabled":false,"rental_uris":{"android":"levelo://app?vid=33f9c223-058c-44d8-aeaa-d8821412a059","ios":"levelo://app?vid=33f9c223-058c-44d8-aeaa-d8821412a059"},"vehicle_type_id":"4","last_reported":1741180706,"current_range_meters":12000,"station_id":"ce4bhbh2rcd13ifvqeo0","pricing_plan_id":"cebpf4jnsgd1na2vs0mg"},{"bike_id":"a779ad18-ca56-4d89-afc4-19b5aa3f1bbf","system_id":"levelo_inurba_marseille","lat":43.23963,"lon":5.36635,"is_reserved":false,"is_disabled":false,"rental_uris":{"android":"levelo://app?vid=a779ad18-ca56-4d89-afc4-19b5aa3f1bbf","ios":"levelo://app?vid=a779ad18-ca56-4d89-afc4-19b5aa3f1bbf"},"vehicle_type_id":"4","last_reported":1741180706,"current_range_meters":12000,"station_id":"ce4bhi12rcd13ifvqfp0","pricing_plan_id":"cebpf4jnsgd1na2vs0mg"},{"bike_id":"88a22b1d-d9d1-4f92-ba32-0732f4e154bc","system_id":"levelo_inurba_marseille","lat":43.23167,"lon":5.43705,"is_reserved":false,"is_disabled":false,"rental_uris":{"android":"levelo://app?vid=88a22b1d-d9d1-4f92-ba32-0732f4e154bc","ios":"levelo://app?vid=88a22b1d-d9d1-4f92-ba32-0732f4e154bc"},"vehicle_type_id":"4","last_reported":1741180706,"current_range_meters":12000,"station_id":"ce4bhmp2rcd13ifvqgog","pricing_plan_id":"cebpf4jnsgd1na2vs0mg"},{"bike_id":"ef279e35-4956-4d14-a5e1-1d46218556c0","system_id":"levelo_inurba_marseille","lat":43.30411,"lon":5.41286,"is_reserved":false,"is_disabled":false,"rental_uris":{"android":"levelo://app?vid=ef279e35-4956-4d14-a5e1-1d46218556c0","ios":"levelo://app?vid=ef279e35-4956-4d14-a5e1-1d46218556c0"},"vehicle_type_id":"4","last_reported":1741180706,"current_range_meters":12000,"station_id":"ce4bhop2rcd13ifvqh8g","pricing_plan_id":"cebpf4jnsgd1na2vs0mg"},{"bike_id":"cba6a766-3158-4fdc-849a-5887af830bdc","system_id":"levelo_inurba_marseille","lat":43.29252,"lon":5.382157,"is_reserved":false,"is_disabled":false,"rental_uris":{"android":"levelo://app?vid=cba6a766-3158-4fdc-849a-5887af830bdc","ios":"levelo://app?vid=cba6a766-3158-4fdc-849a-5887af830bdc"},"vehicle_type_id":"4","last_reported":1741180706,"current_range_meters":12400,"station_id":"","pricing_plan_id":"cebpf4jnsgd1na2vs0mg"},{"bike_id":"b085864c-7a49-40e2-a7c7-9880dec7dbc8","system_id":"levelo_inurba_marseille","lat":43.28998,"lon":5.35605,"is_reserved":false,"is_disabled":false,"rental_uris":{"android":"levelo://app?vid=b085864c-7a49-40e2-a7c7-9880dec7dbc8","ios":"levelo://app?vid=b085864c-7a49-40e2-a7c7-9880dec7dbc8"},"vehicle_type_id":"4","last_reported":1741180706,"current_range_meters":12400,"station_id":"ce4bhb92rcd13ifvqen0","pricing_plan_id":"cebpf4jnsgd1na2vs0mg"},{"bike_id":"37899c76-96a5-493d-91c7-3e87b63b47d1","system_id":"levelo_inurba_marseille","lat":43.23151,"lon":5.43719,"is_reserved":false,"is_disabled":false,"rental_uris":{"android":"levelo://app?vid=37899c76-96a5-493d-91c7-3e87b63b47d1","ios":"levelo://app?vid=37899c76-96a5-493d-91c7-3e87b63b47d1"},"vehicle_type_id":"4","last_reported":1741180706,"current_range_meters":12400,"station_id":"ce4bhmp2rcd13ifvqgog","pricing_plan_id":"cebpf4jnsgd1na2vs0mg"},{"bike_id":"b68f056f-2ffd-4a10-b467-0e7927db620f","system_id":"levelo_inurba_marseille","lat":43.23162,"lon":5.43736,"is_reserved":false,"is_disabled":false,"rental_uris":{"android":"levelo://app?vid=b68f056f-2ffd-4a10-b467-0e7927db620f","ios":"levelo://app?vid=b68f056f-2ffd-4a10-b467-0e7927db620f"},"vehicle_type_id":"4","last_reported":1741180706,"current_range_meters":12400,"station_id":"ce4bhmp2rcd13ifvqgog","pricing_plan_id":"cebpf4jnsgd1na2vs0mg"},{"bike_id":"8e67c6c2-1f86-420e-855b-676e159ed831","system_id":"levelo_inurba_marseille","lat":43.23062,"lon":5.35483,"is_reserved":false,"is_disabled":false,"rental_uris":{"android":"levelo://app?vid=8e67c6c2-1f86-420e-855b-676e159ed831","ios":"levelo://app?vid=8e67c6c2-1f86-420e-855b-676e159ed831"},"vehicle_type_id":"4","last_reported":1741180706,"current_range_meters":12400,"station_id":"cpo3342slgdg3j2ifvpg","pricing_plan_id":"cebpf4jnsgd1na2vs0mg"},{"bike_id":"ffcfdfb5-48d6-4d87-aa7b-9c76123c5be0","system_id":"levelo_inurba_marseille","lat":43.29256,"lon":5.37627,"is_reserved":false,"is_disabled":false,"rental_uris":{"android":"levelo://app?vid=ffcfdfb5-48d6-4d87-aa7b-9c76123c5be0","ios":"levelo://app?vid=ffcfdfb5-48d6-4d87-aa7b-9c76123c5be0"},"vehicle_type_id":"4","last_reported":1741180706,"current_range_meters":12800,"station_id":"ce4bgi12rcd13ifvqb80","pricing_plan_id":"cebpf4jnsgd1na2vs0mg"},{"bike_id":"7e141603-5076-446b-a90d-8e44d6246006","system_id":"levelo_inurba_marseille","lat":43.31245,"lon":5.36859,"is_reserved":false,"is_disabled":false,"rental_uris":{"android":"levelo://app?vid=7e141603-5076-446b-a90d-8e44d6246006","ios":"levelo://app?vid=7e141603-5076-446b-a90d-8e44d6246006"},"vehicle_type_id":"4","last_reported":1741180706,"current_range_meters":12800,"station_id":"ce4bgl92rcd13ifvqbq0","pricing_plan_id":"cebpf4jnsgd1na2vs0mg"},{"bike_id":"52b3301f-85a9-4d55-83ad-d5819a468bb8","system_id":"levelo_inurba_marseille","lat":43.2315,"lon":5.43711,"is_reserved":false,"is_disabled":false,"rental_uris":{"android":"levelo://app?vid=52b3301f-85a9-4d55-83ad-d5819a468bb8","ios":"levelo://app?vid=52b3301f-85a9-4d55-83ad-d5819a468bb8"},"vehicle_type_id":"4","last_reported":1741180706,"current_range_meters":12800,"station_id":"ce4bhmp2rcd13ifvqgog","pricing_plan_id":"cebpf4jnsgd1na2vs0mg"},{"bike_id":"330426bc-0af9-4c3e-8e4c-6ec10833df11","system_id":"levelo_inurba_marseille","lat":43.29903,"lon":5.43674,"is_reserved":false,"is_disabled":false,"rental_uris":{"android":"levelo://app?vid=330426bc-0af9-4c3e-8e4c-6ec10833df11","ios":"levelo://app?vid=330426bc-0af9-4c3e-8e4c-6ec10833df11"},"vehicle_type_id":"4","last_reported":1741180706,"current_range_meters":12800,"station_id":"ce4bhpp2rcd13ifvqhfg","pricing_plan_id":"cebpf4jnsgd1na2vs0mg"},{"bike_id":"5117e644-2ab7-42d6-b684-5b568df5f040","system_id":"levelo_inurba_marseille","lat":43.31581,"lon":5.38924,"is_reserved":false,"is_disabled":false,"rental_uris":{"android":"levelo://app?vid=5117e644-2ab7-42d6-b684-5b568df5f040","ios":"levelo://app?vid=5117e644-2ab7-42d6-b684-5b568df5f040"},"vehicle_type_id":"4","last_reported":1741180706,"current_range_meters":13600,"station_id":"","pricing_plan_id":"cebpf4jnsgd1na2vs0mg"},{"bike_id":"e9758a22-7305-4d3a-99e0-978cb7c26713","system_id":"levelo_inurba_marseille","lat":43.28851,"lon":5.3586,"is_reserved":false,"is_disabled":false,"rental_uris":{"android":"levelo://app?vid=e9758a22-7305-4d3a-99e0-978cb7c26713","ios":"levelo://app?vid=e9758a22-7305-4d3a-99e0-978cb7c26713"},"vehicle_type_id":"4","last_reported":1741180706,"current_range_meters":13600,"station_id":"ce4bhb12rcd13ifvqem0","pricing_plan_id":"cebpf4jnsgd1na2vs0mg"},{"bike_id":"95a7f661-84a3-41c8-b322-371de73d76ec","system_id":"levelo_inurba_marseille","lat":43.25948,"lon":5.40909,"is_reserved":false,"is_disabled":false,"rental_uris":{"android":"levelo://app?vid=95a7f661-84a3-41c8-b322-371de73d76ec","ios":"levelo://app?vid=95a7f661-84a3-41c8-b322-371de73d76ec"},"vehicle_type_id":"4","last_reported":1741180706,"current_range_meters":13600,"station_id":"ce4bhm92rcd13ifvqglg","pricing_plan_id":"cebpf4jnsgd1na2vs0mg"},{"bike_id":"89793f9c-9010-4d75-9cdd-d3c9b0d5a4ee","system_id":"levelo_inurba_marseille","lat":43.24203,"lon":5.39715,"is_reserved":false,"is_disabled":false,"rental_uris":{"android":"levelo://app?vid=89793f9c-9010-4d75-9cdd-d3c9b0d5a4ee","ios":"levelo://app?vid=89793f9c-9010-4d75-9cdd-d3c9b0d5a4ee"},"vehicle_type_id":"4","last_reported":1741180706,"current_range_meters":13600,"station_id":"ce4bhn12rcd13ifvqgpg","pricing_plan_id":"cebpf4jnsgd1na2vs0mg"},{"bike_id":"ee59b3a3-0f87-489f-91b5-15c91569f1b2","system_id":"levelo_inurba_marseille","lat":43.24159,"lon":5.36365,"is_reserved":false,"is_disabled":false,"rental_uris":{"android":"levelo://app?vid=ee59b3a3-0f87-489f-91b5-15c91569f1b2","ios":"levelo://app?vid=ee59b3a3-0f87-489f-91b5-15c91569f1b2"},"vehicle_type_id":"4","last_reported":1741180706,"current_range_meters":13600,"station_id":"cpo36qri1sfpv3e86is0","pricing_plan_id":"cebpf4jnsgd1na2vs0mg"},{"bike_id":"bba40334-948e-40d3-a34a-d638712325e8","system_id":"levelo_inurba_marseille","lat":43.28415,"lon":5.35012,"is_reserved":false,"is_disabled":false,"rental_uris":{"android":"levelo://app?vid=bba40334-948e-40d3-a34a-d638712325e8","ios":"levelo://app?vid=bba40334-948e-40d3-a34a-d638712325e8"},"vehicle_type_id":"4","last_reported":1741180706,"current_range_meters":14000,"station_id":"ce4bhbh2rcd13ifvqepg","pricing_plan_id":"cebpf4jnsgd1na2vs0mg"},{"bike_id":"38b02743-0b90-423d-bc6e-b1a9f17e760d","system_id":"levelo_inurba_marseille","lat":43.24646,"lon":5.38893,"is_reserved":false,"is_disabled":false,"rental_uris":{"android":"levelo://app?vid=38b02743-0b90-423d-bc6e-b1a9f17e760d","ios":"levelo://app?vid=38b02743-0b90-423d-bc6e-b1a9f17e760d"},"vehicle_type_id":"4","last_reported":1741180706,"current_range_meters":14000,"station_id":"ce4bhg12rcd13ifvqf60","pricing_plan_id":"cebpf4jnsgd1na2vs0mg"},{"bike_id":"423ad07b-87b6-4eb9-820f-e88ffff376e7","system_id":"levelo_inurba_marseille","lat":43.27216,"lon":5.39182,"is_reserved":false,"is_disabled":false,"rental_uris":{"android":"levelo://app?vid=423ad07b-87b6-4eb9-820f-e88ffff376e7","ios":"levelo://app?vid=423ad07b-87b6-4eb9-820f-e88ffff376e7"},"vehicle_type_id":"4","last_reported":1741180706,"current_range_meters":14000,"station_id":"ce4bhhp2rcd13ifvqfm0","pricing_plan_id":"cebpf4jnsgd1na2vs0mg"},{"bike_id":"82a4183b-389b-4e85-8a6c-59cf9ab99275","system_id":"levelo_inurba_marseille","lat":43.278495,"lon":5.406598,"is_reserved":false,"is_disabled":false,"rental_uris":{"android":"levelo://app?vid=82a4183b-389b-4e85-8a6c-59cf9ab99275","ios":"levelo://app?vid=82a4183b-389b-4e85-8a6c-59cf9ab99275"},"vehicle_type_id":"4","last_reported":1741180706,"current_range_meters":14000,"station_id":"ce4bhnh2rcd13ifvqgtg","pricing_plan_id":"cebpf4jnsgd1na2vs0mg"},{"bike_id":"5cb3e475-d1c3-4bea-bb58-71ceaca27c06","system_id":"levelo_inurba_marseille","lat":43.28404,"lon":5.34986,"is_reserved":false,"is_disabled":false,"rental_uris":{"android":"levelo://app?vid=5cb3e475-d1c3-4bea-bb58-71ceaca27c06","ios":"levelo://app?vid=5cb3e475-d1c3-4bea-bb58-71ceaca27c06"},"vehicle_type_id":"4","last_reported":1741180706,"current_range_meters":14400,"station_id":"ce4bhbh2rcd13ifvqepg","pricing_plan_id":"cebpf4jnsgd1na2vs0mg"},{"bike_id":"c6e44657-4c24-4155-a3ca-80dbacc2b5da","system_id":"levelo_inurba_marseille","lat":43.23151,"lon":5.4372,"is_reserved":false,"is_disabled":false,"rental_uris":{"android":"levelo://app?vid=c6e44657-4c24-4155-a3ca-80dbacc2b5da","ios":"levelo://app?vid=c6e44657-4c24-4155-a3ca-80dbacc2b5da"},"vehicle_type_id":"4","last_reported":1741180706,"current_range_meters":14400,"station_id":"ce4bhmp2rcd13ifvqgog","pricing_plan_id":"cebpf4jnsgd1na2vs0mg"},{"bike_id":"c11f530c-99ab-49c1-bdcc-785cd598698f","system_id":"levelo_inurba_marseille","lat":43.32542,"lon":5.41437,"is_reserved":false,"is_disabled":false,"rental_uris":{"android":"levelo://app?vid=c11f530c-99ab-49c1-bdcc-785cd598698f","ios":"levelo://app?vid=c11f530c-99ab-49c1-bdcc-785cd598698f"},"vehicle_type_id":"4","last_reported":1741180706,"current_range_meters":14400,"station_id":"ce4bhq12rcd13ifvqhhg","pricing_plan_id":"cebpf4jnsgd1na2vs0mg"},{"bike_id":"0dbad763-3a14-4b0c-8cd0-7cb3ab196e97","system_id":"levelo_inurba_marseille","lat":43.26207,"lon":5.40451,"is_reserved":false,"is_disabled":false,"rental_uris":{"android":"levelo://app?vid=0dbad763-3a14-4b0c-8cd0-7cb3ab196e97","ios":"levelo://app?vid=0dbad763-3a14-4b0c-8cd0-7cb3ab196e97"},"vehicle_type_id":"4","last_reported":1741180706,"current_range_meters":14800,"station_id":"ce4bhmh2rcd13ifvqgmg","pricing_plan_id":"cebpf4jnsgd1na2vs0mg"},{"bike_id":"61dd0b5e-50ca-4d46-827f-f735879d0166","system_id":"levelo_inurba_marseille","lat":43.29002,"lon":5.35619,"is_reserved":false,"is_disabled":false,"rental_uris":{"android":"levelo://app?vid=61dd0b5e-50ca-4d46-827f-f735879d0166","ios":"levelo://app?vid=61dd0b5e-50ca-4d46-827f-f735879d0166"},"vehicle_type_id":"4","last_reported":1741180706,"current_range_meters":15200,"station_id":"ce4bhb92rcd13ifvqen0","pricing_plan_id":"cebpf4jnsgd1na2vs0mg"},{"bike_id":"edcd9924-5b20-4d66-be93-81ab8a8ab236","system_id":"levelo_inurba_marseille","lat":43.25582,"lon":5.3823,"is_reserved":false,"is_disabled":false,"rental_uris":{"android":"levelo://app?vid=edcd9924-5b20-4d66-be93-81ab8a8ab236","ios":"levelo://app?vid=edcd9924-5b20-4d66-be93-81ab8a8ab236"},"vehicle_type_id":"4","last_reported":1741180706,"current_range_meters":15200,"station_id":"ce4bhih2rcd13ifvqfs0","pricing_plan_id":"cebpf4jnsgd1na2vs0mg"},{"bike_id":"1cfc9c5f-54af-40e6-8245-4f580f3f70f1","system_id":"levelo_inurba_marseille","lat":43.33022,"lon":5.39044,"is_reserved":false,"is_disabled":false,"rental_uris":{"android":"levelo://app?vid=1cfc9c5f-54af-40e6-8245-4f580f3f70f1","ios":"levelo://app?vid=1cfc9c5f-54af-40e6-8245-4f580f3f70f1"},"vehicle_type_id":"4","last_reported":1741180706,"current_range_meters":15200,"station_id":"ce4bhr92rcd13ifvqhrg","pricing_plan_id":"cebpf4jnsgd1na2vs0mg"},{"bike_id":"4d3f25a7-3e82-444b-9593-527025ecf900","system_id":"levelo_inurba_marseille","lat":43.2926,"lon":5.37607,"is_reserved":false,"is_disabled":false,"rental_uris":{"android":"levelo://app?vid=4d3f25a7-3e82-444b-9593-527025ecf900","ios":"levelo://app?vid=4d3f25a7-3e82-444b-9593-527025ecf900"},"vehicle_type_id":"4","last_reported":1741180706,"current_range_meters":16000,"station_id":"ce4bgi12rcd13ifvqb80","pricing_plan_id":"cebpf4jnsgd1na2vs0mg"},{"bike_id":"ba9d4a82-0ce6-487f-bc4b-86c56883a8c8","system_id":"levelo_inurba_marseille","lat":43.31286,"lon":5.36794,"is_reserved":false,"is_disabled":false,"rental_uris":{"android":"levelo://app?vid=ba9d4a82-0ce6-487f-bc4b-86c56883a8c8","ios":"levelo://app?vid=ba9d4a82-0ce6-487f-bc4b-86c56883a8c8"},"vehicle_type_id":"4","last_reported":1741180706,"current_range_meters":16000,"station_id":"ce4bgl92rcd13ifvqbq0","pricing_plan_id":"cebpf4jnsgd1na2vs0mg"},{"bike_id":"7a4a9fca-a4db-4a2f-9666-4adc7290a5c2","system_id":"levelo_inurba_marseille","lat":43.29595,"lon":5.36737,"is_reserved":false,"is_disabled":false,"rental_uris":{"android":"levelo://app?vid=7a4a9fca-a4db-4a2f-9666-4adc7290a5c2","ios":"levelo://app?vid=7a4a9fca-a4db-4a2f-9666-4adc7290a5c2"},"vehicle_type_id":"4","last_reported":1741180706,"current_range_meters":16000,"station_id":"ce4bgph2rcd13ifvqc2g","pricing_plan_id":"cebpf4jnsgd1na2vs0mg"},{"bike_id":"5cccd927-e86b-4020-9894-5f1ad718832a","system_id":"levelo_inurba_marseille","lat":43.28422,"lon":5.34993,"is_reserved":false,"is_disabled":false,"rental_uris":{"android":"levelo://app?vid=5cccd927-e86b-4020-9894-5f1ad718832a","ios":"levelo://app?vid=5cccd927-e86b-4020-9894-5f1ad718832a"},"vehicle_type_id":"4","last_reported":1741180706,"current_range_meters":16000,"station_id":"ce4bhbh2rcd13ifvqepg","pricing_plan_id":"cebpf4jnsgd1na2vs0mg"},{"bike_id":"660705de-1dec-412e-a6f0-2eb1fee22e23","system_id":"levelo_inurba_marseille","lat":43.28418,"lon":5.35,"is_reserved":false,"is_disabled":false,"rental_uris":{"android":"levelo://app?vid=660705de-1dec-412e-a6f0-2eb1fee22e23","ios":"levelo://app?vid=660705de-1dec-412e-a6f0-2eb1fee22e23"},"vehicle_type_id":"4","last_reported":1741180706,"current_range_meters":16000,"station_id":"ce4bhbh2rcd13ifvqepg","pricing_plan_id":"cebpf4jnsgd1na2vs0mg"},{"bike_id":"dd6b6d2e-770a-4727-82e2-a2e948d7db46","system_id":"levelo_inurba_marseille","lat":43.27916,"lon":5.39577,"is_reserved":false,"is_disabled":false,"rental_uris":{"android":"levelo://app?vid=dd6b6d2e-770a-4727-82e2-a2e948d7db46","ios":"levelo://app?vid=dd6b6d2e-770a-4727-82e2-a2e948d7db46"},"vehicle_type_id":"4","last_reported":1741180706,"current_range_meters":16000,"station_id":"ce4bhf92rcd13ifvqf40","pricing_plan_id":"cebpf4jnsgd1na2vs0mg"},{"bike_id":"002c5d64-010d-481c-aebc-685c04821c05","system_id":"levelo_inurba_marseille","lat":43.26217,"lon":5.37438,"is_reserved":false,"is_disabled":false,"rental_uris":{"android":"levelo://app?vid=002c5d64-010d-481c-aebc-685c04821c05","ios":"levelo://app?vid=002c5d64-010d-481c-aebc-685c04821c05"},"vehicle_type_id":"4","last_reported":1741180706,"current_range_meters":16000,"station_id":"ce4bhgp2rcd13ifvqfc0","pricing_plan_id":"cebpf4jnsgd1na2vs0mg"},{"bike_id":"ba60ddd0-090a-4921-a3fa-f07dc23829f3","system_id":"levelo_inurba_marseille","lat":43.27992,"lon":5.41661,"is_reserved":false,"is_disabled":false,"rental_uris":{"android":"levelo://app?vid=ba60ddd0-090a-4921-a3fa-f07dc23829f3","ios":"levelo://app?vid=ba60ddd0-090a-4921-a3fa-f07dc23829f3"},"vehicle_type_id":"4","last_reported":1741180706,"current_range_meters":16000,"station_id":"ce4bho12rcd13ifvqh1g","pricing_plan_id":"cebpf4jnsgd1na2vs0mg"},{"bike_id":"7f1905bf-da4d-4f13-af14-c5d46804e585","system_id":"levelo_inurba_marseille","lat":43.23188,"lon":5.35561,"is_reserved":false,"is_disabled":false,"rental_uris":{"android":"levelo://app?vid=7f1905bf-da4d-4f13-af14-c5d46804e585","ios":"levelo://app?vid=7f1905bf-da4d-4f13-af14-c5d46804e585"},"vehicle_type_id":"4","last_reported":1741180706,"current_range_meters":16000,"station_id":"ce4bhu92rcd13ifvqi70","pricing_plan_id":"cebpf4jnsgd1na2vs0mg"},{"bike_id":"0b3cb245-c1ab-4265-9e03-36f6b9bfa685","system_id":"levelo_inurba_marseille","lat":43.23071,"lon":5.35507,"is_reserved":false,"is_disabled":false,"rental_uris":{"android":"levelo://app?vid=0b3cb245-c1ab-4265-9e03-36f6b9bfa685","ios":"levelo://app?vid=0b3cb245-c1ab-4265-9e03-36f6b9bfa685"},"vehicle_type_id":"4","last_reported":1741180706,"current_range_meters":16000,"station_id":"cpo3342slgdg3j2ifvpg","pricing_plan_id":"cebpf4jnsgd1na2vs0mg"},{"bike_id":"7a4782ea-f4b9-42ce-be87-61d097d475da","system_id":"levelo_inurba_marseille","lat":43.28977,"lon":5.37833,"is_reserved":false,"is_disabled":false,"rental_uris":{"android":"levelo://app?vid=7a4782ea-f4b9-42ce-be87-61d097d475da","ios":"levelo://app?vid=7a4782ea-f4b9-42ce-be87-61d097d475da"},"vehicle_type_id":"4","last_reported":1741180706,"current_range_meters":16400,"station_id":"ce4bh9p2rcd13ifvqed0","pricing_plan_id":"cebpf4jnsgd1na2vs0mg"},{"bike_id":"c5e46d82-d9a0-452c-a125-bbbee3eb847e","system_id":"levelo_inurba_marseille","lat":43.28274,"lon":5.35087,"is_reserved":false,"is_disabled":false,"rental_uris":{"android":"levelo://app?vid=c5e46d82-d9a0-452c-a125-bbbee3eb847e","ios":"levelo://app?vid=c5e46d82-d9a0-452c-a125-bbbee3eb847e"},"vehicle_type_id":"4","last_reported":1741180706,"current_range_meters":16400,"station_id":"ce4bhbp2rcd13ifvqerg","pricing_plan_id":"cebpf4jnsgd1na2vs0mg"},{"bike_id":"b7d46c19-8fbd-4d11-994c-f336dd0acbae","system_id":"levelo_inurba_marseille","lat":43.25009,"lon":5.38941,"is_reserved":false,"is_disabled":false,"rental_uris":{"android":"levelo://app?vid=b7d46c19-8fbd-4d11-994c-f336dd0acbae","ios":"levelo://app?vid=b7d46c19-8fbd-4d11-994c-f336dd0acbae"},"vehicle_type_id":"4","last_reported":1741180706,"current_range_meters":16400,"station_id":"ce4bhgp2rcd13ifvqfd0","pricing_plan_id":"cebpf4jnsgd1na2vs0mg"},{"bike_id":"ecd52ca5-00d0-4ce7-bcc7-3898d621c5a1","system_id":"levelo_inurba_marseille","lat":43.33608,"lon":5.40991,"is_reserved":false,"is_disabled":false,"rental_uris":{"android":"levelo://app?vid=ecd52ca5-00d0-4ce7-bcc7-3898d621c5a1","ios":"levelo://app?vid=ecd52ca5-00d0-4ce7-bcc7-3898d621c5a1"},"vehicle_type_id":"4","last_reported":1741180706,"current_range_meters":16400,"station_id":"ce4bhqh2rcd13ifvqhmg","pricing_plan_id":"cebpf4jnsgd1na2vs0mg"},{"bike_id":"5981e5fd-8ca3-4e17-921d-10437ee17d35","system_id":"levelo_inurba_marseille","lat":43.24168,"lon":5.36413,"is_reserved":false,"is_disabled":false,"rental_uris":{"android":"levelo://app?vid=5981e5fd-8ca3-4e17-921d-10437ee17d35","ios":"levelo://app?vid=5981e5fd-8ca3-4e17-921d-10437ee17d35"},"vehicle_type_id":"4","last_reported":1741180706,"current_range_meters":16400,"station_id":"cpo36qri1sfpv3e86is0","pricing_plan_id":"cebpf4jnsgd1na2vs0mg"},{"bike_id":"f5aa958a-c460-4c3f-bc59-586c61be584f","system_id":"levelo_inurba_marseille","lat":43.29843,"lon":5.36275,"is_reserved":false,"is_disabled":false,"rental_uris":{"android":"levelo://app?vid=f5aa958a-c460-4c3f-bc59-586c61be584f","ios":"levelo://app?vid=f5aa958a-c460-4c3f-bc59-586c61be584f"},"vehicle_type_id":"4","last_reported":1741180706,"current_range_meters":16800,"station_id":"ce4bgpp2rcd13ifvqc3g","pricing_plan_id":"cebpf4jnsgd1na2vs0mg"},{"bike_id":"fec41063-132e-42fc-b9d3-bb8288f18b96","system_id":"levelo_inurba_marseille","lat":43.30466,"lon":5.37904,"is_reserved":false,"is_disabled":false,"rental_uris":{"android":"levelo://app?vid=fec41063-132e-42fc-b9d3-bb8288f18b96","ios":"levelo://app?vid=fec41063-132e-42fc-b9d3-bb8288f18b96"},"vehicle_type_id":"4","last_reported":1741180706,"current_range_meters":16800,"station_id":"ce4bgup2rcd13ifvqcn0","pricing_plan_id":"cebpf4jnsgd1na2vs0mg"},{"bike_id":"fd62624f-b6ce-4cec-80ff-922ab569158a","system_id":"levelo_inurba_marseille","lat":43.29892,"lon":5.38905,"is_reserved":false,"is_disabled":false,"rental_uris":{"android":"levelo://app?vid=fd62624f-b6ce-4cec-80ff-922ab569158a","ios":"levelo://app?vid=fd62624f-b6ce-4cec-80ff-922ab569158a"},"vehicle_type_id":"4","last_reported":1741180706,"current_range_meters":16800,"station_id":"ce4bh392rcd13ifvqdl0","pricing_plan_id":"cebpf4jnsgd1na2vs0mg"},{"bike_id":"48dd4a66-c4e0-4334-8dbe-e71a1ce9eb4d","system_id":"levelo_inurba_marseille","lat":43.28117,"lon":5.37841,"is_reserved":false,"is_disabled":false,"rental_uris":{"android":"levelo://app?vid=48dd4a66-c4e0-4334-8dbe-e71a1ce9eb4d","ios":"levelo://app?vid=48dd4a66-c4e0-4334-8dbe-e71a1ce9eb4d"},"vehicle_type_id":"4","last_reported":1741180706,"current_range_meters":16800,"station_id":"ce4bha12rcd13ifvqee0","pricing_plan_id":"cebpf4jnsgd1na2vs0mg"},{"bike_id":"c0779466-6d8a-4b74-9888-6ca221314c9c","system_id":"levelo_inurba_marseille","lat":43.28419,"lon":5.34987,"is_reserved":false,"is_disabled":false,"rental_uris":{"android":"levelo://app?vid=c0779466-6d8a-4b74-9888-6ca221314c9c","ios":"levelo://app?vid=c0779466-6d8a-4b74-9888-6ca221314c9c"},"vehicle_type_id":"4","last_reported":1741180706,"current_range_meters":16800,"station_id":"ce4bhbh2rcd13ifvqepg","pricing_plan_id":"cebpf4jnsgd1na2vs0mg"},{"bike_id":"18829b6d-5b15-4f1f-a789-08550fc2e73d","system_id":"levelo_inurba_marseille","lat":43.26032,"lon":5.37546,"is_reserved":false,"is_disabled":false,"rental_uris":{"android":"levelo://app?vid=18829b6d-5b15-4f1f-a789-08550fc2e73d","ios":"levelo://app?vid=18829b6d-5b15-4f1f-a789-08550fc2e73d"},