{"last_updated":1746392917,"ttl":60,"version":"2.2","data":{"bikes":[{"bike_id":"ccd5790a-ee27-4b55-8880-7cee5aeb7cdf","system_id":"levelo_inurba_marseille","lat":43.217495,"lon":5.346104,"is_reserved":false,"is_disabled":true,"rental_uris":{"android":"levelo://app?vid=ccd5790a-ee27-4b55-8880-7cee5aeb7cdf","ios":"levelo://app?vid=ccd5790a-ee27-4b55-8880-7cee5aeb7cdf"},"vehicle_type_id":"4","last_reported":1746392917,"current_range_meters":0,"station_id":"","pricing_plan_id":"cebpf4jnsgd1na2vs0mg"},{"bike_id":"2d87f24b-bb92-4f5a-9c64-611905425c8d","system_id":"levelo_inurba_marseille","lat":43.23667,"lon":5.39143,"is_reserved":false,"is_disabled":true,"rental_uris":{"android":"levelo://app?vid=2d87f24b-bb92-4f5a-9c64-611905425c8d","ios":"levelo://app?vid=2d87f24b-bb92-4f5a-9c64-611905425c8d"},"vehicle_type_id":"4","last_reported":1746392917,"current_range_meters":0,"station_id":"","pricing_plan_id":"cebpf4jnsgd1na2vs0mg"},{"bike_id":"f73daf93-45c7-48c0-a61a-2d28ac89db8d","system_id":"levelo_inurba_marseille","lat":43.33895,"lon":5.42053,"is_reserved":false,"is_disabled":true,"rental_uris":{"android":"levelo://app?vid=f73daf93-45c7-48c0-a61a-2d28ac89db8d","ios":"levelo://app?vid=f73daf93-45c7-48c0-a61a-2d28ac89db8d"},"vehicle_type_id":"4","last_reported":1746392917,"current_range_meters":0,"station_id":"","pricing_plan_id":"cebpf4jnsgd1na2vs0mg"},{"bike_id":"f0d9958c-fef5-4f95-873c-52f048f53a76","system_id":"levelo_inurba_marseille","lat":43.27702,"lon":5.41994,"is_reserved":false,"is_disabled":true,"rental_uris":{"android":"levelo://app?vid=f0d9958c-fef5-4f95-873c-52f048f53a76","ios":"levelo://app?vid=f0d9958c-fef5-4f95-873c-52f048f53a76"},"vehicle_type_id":"4","last_reported":1746392917,"current_range_meters":0,"station_id":"","pricing_plan_id":"cebpf4jnsgd1na2vs0mg"},{"bike_id":"e93b949e-1738-47f2-ad13-8f512df2ffaf","system_id":"levelo_inurba_marseille","lat":43.28168,"lon":5.44307,"is_reserved":false,"is_disabled":true,"rental_uris":{"android":"levelo://app?vid=e93b949e-1738-47f2-ad13-8f512df2ffaf","ios":"levelo://app?vid=e93b949e-1738-47f2-ad13-8f512df2ffaf"},"vehicle_type_id":"4","last_reported":1746392917,"current_range_meters":0,"station_id":"","pricing_plan_id":"cebpf4jnsgd1na2vs0mg"},{"bike_id":"ce7eaa2a-3d8b-45c5-8379-cd758fb93612","system_id":"levelo_inurba_marseille","lat":43.217427,"lon":5.346067,"is_reserved":false,"is_disabled":true,"rental_uris":{"android":"levelo://app?vid=ce7eaa2a-3d8b-45c5-8379-cd758fb93612","ios":"levelo://app?vid=ce7eaa2a-3d8b-45c5-8379-cd758fb93612"},"vehicle_type_id":"4","last_reported":1746392917,"current_range_meters":0,"station_id":"st_cvj6r9ubvosntc0bgbag","pricing_plan_id":"cebpf4jnsgd1na2vs0mg"},{"bike_id":"ed81ad13-da53-482c-b849-b96a88e788b0","system_id":"levelo_inurba_marseille","lat":43.294547,"lon":5.457993,"is_reserved":false,"is_disabled":true,"rental_uris":{"android":"levelo://app?vid=ed81ad13-da53-482c-b849-b96a88e788b0","ios":"levelo://app?vid=ed81ad13-da53-482c-b849-b96a88e788b0"},"vehicle_type_id":"4","last_reported":1746392917,"current_range_meters":400,"station_id":"","pricing_plan_id":"cebpf4jnsgd1na2vs0mg"},{"bike_id":"1e647515-6c7f-48aa-a10d-fac1d349ac41","system_id":"levelo_inurba_marseille","lat":43.23056,"lon":5.35491,"is_reserved":false,"is_disabled":true,"rental_uris":{"android":"levelo://app?vid=1e647515-6c7f-48aa-a10d-fac1d349ac41","ios":"levelo://app?vid=1e647515-6c7f-48aa-a10d-fac1d349ac41"},"vehicle_type_id":"4","last_reported":1746392917,"current_range_meters":800,"station_id":"cpo3342slgdg3j2ifvpg","pricing_plan_id":"cebpf4jnsgd1na2vs0mg"},{"bike_id":"e9e1572f-0374-4bcf-914f-8f2eeda7905b","system_id":"levelo_inurba_marseille","lat":43.21209,"lon":5.35089,"is_reserved":false,"is_disabled":true,"rental_uris":{"android":"levelo://app?vid=e9e1572f-0374-4bcf-914f-8f2eeda7905b","ios":"levelo://app?vid=e9e1572f-0374-4bcf-914f-8f2eeda7905b"},"vehicle_type_id":"4","last_reported":1746392917,"current_range_meters":1200,"station_id":"st_cvj6sg6p6f1abm77japg","pricing_plan_id":"cebpf4jnsgd1na2vs0mg"},{"bike_id":"570b486c-50df-4f1f-97df-caa86c0d419e","system_id":"levelo_inurba_marseille","lat":43.33688,"lon":5.35616,"is_reserved":false,"is_disabled":true,"rental_uris":{"android":"levelo://app?vid=570b486c-50df-4f1f-97df-caa86c0d419e","ios":"levelo://app?vid=570b486c-50df-4f1f-97df-caa86c0d419e"},"vehicle_type_id":"4","last_reported":1746392917,"current_range_meters":2000,"station_id":"","pricing_plan_id":"cebpf4jnsgd1na2vs0mg"},{"bike_id":"441771cd-0001-4237-b26e-f2e1502d0768","system_id":"levelo_inurba_marseille","lat":43.23642,"lon":5.366,"is_reserved":false,"is_disabled":true,"rental_uris":{"android":"levelo://app?vid=441771cd-0001-4237-b26e-f2e1502d0768","ios":"levelo://app?vid=441771cd-0001-4237-b26e-f2e1502d0768"},"vehicle_type_id":"4","last_reported":1746392917,"current_range_meters":2000,"station_id":"","pricing_plan_id":"cebpf4jnsgd1na2vs0mg"},{"bike_id":"20df041c-a6f2-4643-9d23-e8d01f5c1c92","system_id":"levelo_inurba_marseille","lat":43.28855,"lon":5.35864,"is_reserved":false,"is_disabled":true,"rental_uris":{"android":"levelo://app?vid=20df041c-a6f2-4643-9d23-e8d01f5c1c92","ios":"levelo://app?vid=20df041c-a6f2-4643-9d23-e8d01f5c1c92"},"vehicle_type_id":"4","last_reported":1746392917,"current_range_meters":2000,"station_id":"ce4bhb12rcd13ifvqem0","pricing_plan_id":"cebpf4jnsgd1na2vs0mg"},{"bike_id":"a62c4081-0a00-4338-a99f-b605c981f909","system_id":"levelo_inurba_marseille","lat":43.21145,"lon":5.35096,"is_reserved":false,"is_disabled":true,"rental_uris":{"android":"levelo://app?vid=a62c4081-0a00-4338-a99f-b605c981f909","ios":"levelo://app?vid=a62c4081-0a00-4338-a99f-b605c981f909"},"vehicle_type_id":"4","last_reported":1746392917,"current_range_meters":2000,"station_id":"st_cvj6sg6p6f1abm77japg","pricing_plan_id":"cebpf4jnsgd1na2vs0mg"},{"bike_id":"fefd08ec-5881-4aed-9781-2a8173dd5fb9","system_id":"levelo_inurba_marseille","lat":43.2942,"lon":5.38253,"is_reserved":false,"is_disabled":false,"rental_uris":{"android":"levelo://app?vid=fefd08ec-5881-4aed-9781-2a8173dd5fb9","ios":"levelo://app?vid=fefd08ec-5881-4aed-9781-2a8173dd5fb9"},"vehicle_type_id":"4","last_reported":1746392917,"current_range_meters":2800,"station_id":"","pricing_plan_id":"cebpf4jnsgd1na2vs0mg"},{"bike_id":"9cde6059-11db-499a-b1c2-8c0fc9848a41","system_id":"levelo_inurba_marseille","lat":43.30601,"lon":5.37226,"is_reserved":false,"is_disabled":false,"rental_uris":{"android":"levelo://app?vid=9cde6059-11db-499a-b1c2-8c0fc9848a41","ios":"levelo://app?vid=9cde6059-11db-499a-b1c2-8c0fc9848a41"},"vehicle_type_id":"4","last_reported":1746392917,"current_range_meters":2800,"station_id":"ce4bgqh2rcd13ifvqc4g","pricing_plan_id":"cebpf4jnsgd1na2vs0mg"},{"bike_id":"0139c81b-3678-4800-8454-c4e45f4988a9","system_id":"levelo_inurba_marseille","lat":43.24386,"lon":5.37059,"is_reserved":false,"is_disabled":false,"rental_uris":{"android":"levelo://app?vid=0139c81b-3678-4800-8454-c4e45f4988a9","ios":"levelo://app?vid=0139c81b-3678-4800-8454-c4e45f4988a9"},"vehicle_type_id":"4","last_reported":1746392917,"current_range_meters":3600,"station_id":"ce4bhhh2rcd13ifvqfk0","pricing_plan_id":"cebpf4jnsgd1na2vs0mg"},{"bike_id":"dfb3396e-96f5-457c-af11-f6f27dad33e9","system_id":"levelo_inurba_marseille","lat":43.27203,"lon":5.3647,"is_reserved":false,"is_disabled":false,"rental_uris":{"android":"levelo://app?vid=dfb3396e-96f5-457c-af11-f6f27dad33e9","ios":"levelo://app?vid=dfb3396e-96f5-457c-af11-f6f27dad33e9"},"vehicle_type_id":"4","last_reported":1746392917,"current_range_meters":4800,"station_id":"","pricing_plan_id":"cebpf4jnsgd1na2vs0mg"},{"bike_id":"8df6e310-0880-40a9-a691-cd475dfa3928","system_id":"levelo_inurba_marseille","lat":43.285826,"lon":5.442419,"is_reserved":false,"is_disabled":false,"rental_uris":{"android":"levelo://app?vid=8df6e310-0880-40a9-a691-cd475dfa3928","ios":"levelo://app?vid=8df6e310-0880-40a9-a691-cd475dfa3928"},"vehicle_type_id":"4","last_reported":1746392917,"current_range_meters":4800,"station_id":"","pricing_plan_id":"cebpf4jnsgd1na2vs0mg"},{"bike_id":"078539f0-6cce-4441-a33f-c057d59a73da","system_id":"levelo_inurba_marseille","lat":43.26198,"lon":5.37454,"is_reserved":false,"is_disabled":false,"rental_uris":{"android":"levelo://app?vid=078539f0-6cce-4441-a33f-c057d59a73da","ios":"levelo://app?vid=078539f0-6cce-4441-a33f-c057d59a73da"},"vehicle_type_id":"4","last_reported":1746392917,"current_range_meters":4800,"station_id":"ce4bhgp2rcd13ifvqfc0","pricing_plan_id":"cebpf4jnsgd1na2vs0mg"},{"bike_id":"15d82010-d2bc-400d-927f-79f55d37d3cc","system_id":"levelo_inurba_marseille","lat":43.27834,"lon":5.39213,"is_reserved":false,"is_disabled":false,"rental_uris":{"android":"levelo://app?vid=15d82010-d2bc-400d-927f-79f55d37d3cc","ios":"levelo://app?vid=15d82010-d2bc-400d-927f-79f55d37d3cc"},"vehicle_type_id":"4","last_reported":1746392917,"current_range_meters":4800,"station_id":"ce4bhjp2rcd13ifvqga0","pricing_plan_id":"cebpf4jnsgd1na2vs0mg"},{"bike_id":"8df37787-a611-4ce6-9e65-032cb168f59b","system_id":"levelo_inurba_marseille","lat":43.21195,"lon":5.3507,"is_reserved":false,"is_disabled":false,"rental_uris":{"android":"levelo://app?vid=8df37787-a611-4ce6-9e65-032cb168f59b","ios":"levelo://app?vid=8df37787-a611-4ce6-9e65-032cb168f59b"},"vehicle_type_id":"4","last_reported":1746392917,"current_range_meters":4800,"station_id":"st_cvj6sg6p6f1abm77japg","pricing_plan_id":"cebpf4jnsgd1na2vs0mg"},{"bike_id":"c9a801f5-424c-467a-87a1-0c5468a6bf61","system_id":"levelo_inurba_marseille","lat":43.24671,"lon":5.38159,"is_reserved":false,"is_disabled":false,"rental_uris":{"android":"levelo://app?vid=c9a801f5-424c-467a-87a1-0c5468a6bf61","ios":"levelo://app?vid=c9a801f5-424c-467a-87a1-0c5468a6bf61"},"vehicle_type_id":"4","last_reported":1746392917,"current_range_meters":6000,"station_id":"ce4bhih2rcd13ifvqfr0","pricing_plan_id":"cebpf4jnsgd1na2vs0mg"},{"bike_id":"6ae9068b-8534-47e2-832a-cb0e5255371d","system_id":"levelo_inurba_marseille","lat":43.337444,"lon":5.374475,"is_reserved":false,"is_disabled":false,"rental_uris":{"android":"levelo://app?vid=6ae9068b-8534-47e2-832a-cb0e5255371d","ios":"levelo://app?vid=6ae9068b-8534-47e2-832a-cb0e5255371d"},"vehicle_type_id":"4","last_reported":1746392917,"current_range_meters":6400,"station_id":"ce4bgvp2rcd13ifvqct0","pricing_plan_id":"cebpf4jnsgd1na2vs0mg"},{"bike_id":"04290b2c-247f-478e-94c5-5ed6e367660d","system_id":"levelo_inurba_marseille","lat":43.24399,"lon":5.37065,"is_reserved":false,"is_disabled":false,"rental_uris":{"android":"levelo://app?vid=04290b2c-247f-478e-94c5-5ed6e367660d","ios":"levelo://app?vid=04290b2c-247f-478e-94c5-5ed6e367660d"},"vehicle_type_id":"4","last_reported":1746392917,"current_range_meters":6400,"station_id":"ce4bhhh2rcd13ifvqfk0","pricing_plan_id":"cebpf4jnsgd1na2vs0mg"},{"bike_id":"4009a77b-fe27-4d0e-82d7-e7e29be4a9e9","system_id":"levelo_inurba_marseille","lat":43.242191,"lon":5.367354,"is_reserved":false,"is_disabled":false,"rental_uris":{"android":"levelo://app?vid=4009a77b-fe27-4d0e-82d7-e7e29be4a9e9","ios":"levelo://app?vid=4009a77b-fe27-4d0e-82d7-e7e29be4a9e9"},"vehicle_type_id":"4","last_reported":1746392917,"current_range_meters":6800,"station_id":"","pricing_plan_id":"cebpf4jnsgd1na2vs0mg"},{"bike_id":"374dd859-82fc-4168-94d4-d7c0e9baadfe","system_id":"levelo_inurba_marseille","lat":43.2439,"lon":5.3706,"is_reserved":false,"is_disabled":false,"rental_uris":{"android":"levelo://app?vid=374dd859-82fc-4168-94d4-d7c0e9baadfe","ios":"levelo://app?vid=374dd859-82fc-4168-94d4-d7c0e9baadfe"},"vehicle_type_id":"4","last_reported":1746392917,"current_range_meters":6800,"station_id":"ce4bhhh2rcd13ifvqfk0","pricing_plan_id":"cebpf4jnsgd1na2vs0mg"},{"bike_id":"e646b196-74ed-4130-b886-e4387cef6213","system_id":"levelo_inurba_marseille","lat":43.25105,"lon":5.40326,"is_reserved":false,"is_disabled":false,"rental_uris":{"android":"levelo://app?vid=e646b196-74ed-4130-b886-e4387cef6213","ios":"levelo://app?vid=e646b196-74ed-4130-b886-e4387cef6213"},"vehicle_type_id":"4","last_reported":1746392917,"current_range_meters":6800,"station_id":"ce4bhlh2rcd13ifvqgig","pricing_plan_id":"cebpf4jnsgd1na2vs0mg"},{"bike_id":"f0259f55-382d-4317-a5a3-c63365a0d76b","system_id":"levelo_inurba_marseille","lat":43.25517,"lon":5.41792,"is_reserved":false,"is_disabled":false,"rental_uris":{"android":"levelo://app?vid=f0259f55-382d-4317-a5a3-c63365a0d76b","ios":"levelo://app?vid=f0259f55-382d-4317-a5a3-c63365a0d76b"},"vehicle_type_id":"4","last_reported":1746392917,"current_range_meters":7200,"station_id":"","pricing_plan_id":"cebpf4jnsgd1na2vs0mg"},{"bike_id":"4d9c785a-6a14-4f60-8bcb-eb74d56c9262","system_id":"levelo_inurba_marseille","lat":43.27119,"lon":5.42236,"is_reserved":false,"is_disabled":false,"rental_uris":{"android":"levelo://app?vid=4d9c785a-6a14-4f60-8bcb-eb74d56c9262","ios":"levelo://app?vid=4d9c785a-6a14-4f60-8bcb-eb74d56c9262"},"vehicle_type_id":"4","last_reported":1746392917,"current_range_meters":7200,"station_id":"","pricing_plan_id":"cebpf4jnsgd1na2vs0mg"},{"bike_id":"6bfbb116-0497-430b-92bf-ec271b411f23","system_id":"levelo_inurba_marseille","lat":43.2439,"lon":5.37063,"is_reserved":false,"is_disabled":false,"rental_uris":{"android":"levelo://app?vid=6bfbb116-0497-430b-92bf-ec271b411f23","ios":"levelo://app?vid=6bfbb116-0497-430b-92bf-ec271b411f23"},"vehicle_type_id":"4","last_reported":1746392917,"current_range_meters":7200,"station_id":"ce4bhhh2rcd13ifvqfk0","pricing_plan_id":"cebpf4jnsgd1na2vs0mg"},{"bike_id":"a0aac932-6b84-4bac-a7c4-3a8fc55fef05","system_id":"levelo_inurba_marseille","lat":43.27064,"lon":5.40256,"is_reserved":false,"is_disabled":false,"rental_uris":{"android":"levelo://app?vid=a0aac932-6b84-4bac-a7c4-3a8fc55fef05","ios":"levelo://app?vid=a0aac932-6b84-4bac-a7c4-3a8fc55fef05"},"vehicle_type_id":"4","last_reported":1746392917,"current_range_meters":7200,"station_id":"ce4bhk92rcd13ifvqgc0","pricing_plan_id":"cebpf4jnsgd1na2vs0mg"},{"bike_id":"3a3b5ccf-db25-43cb-b3b0-1b438725671a","system_id":"levelo_inurba_marseille","lat":43.24539,"lon":5.39522,"is_reserved":false,"is_disabled":false,"rental_uris":{"android":"levelo://app?vid=3a3b5ccf-db25-43cb-b3b0-1b438725671a","ios":"levelo://app?vid=3a3b5ccf-db25-43cb-b3b0-1b438725671a"},"vehicle_type_id":"4","last_reported":1746392917,"current_range_meters":8000,"station_id":"ce4bhlp2rcd13ifvqgjg","pricing_plan_id":"cebpf4jnsgd1na2vs0mg"},{"bike_id":"e9405e4b-4ceb-4e25-aee8-7f27a943dc95","system_id":"levelo_inurba_marseille","lat":43.28361,"lon":5.38635,"is_reserved":false,"is_disabled":false,"rental_uris":{"android":"levelo://app?vid=e9405e4b-4ceb-4e25-aee8-7f27a943dc95","ios":"levelo://app?vid=e9405e4b-4ceb-4e25-aee8-7f27a943dc95"},"vehicle_type_id":"4","last_reported":1746392917,"current_range_meters":8400,"station_id":"ce4bh492rcd13ifvqdvg","pricing_plan_id":"cebpf4jnsgd1na2vs0mg"},{"bike_id":"482edc50-583e-4eec-bc5f-69c08404e8a0","system_id":"levelo_inurba_marseille","lat":43.29099,"lon":5.38121,"is_reserved":false,"is_disabled":false,"rental_uris":{"android":"levelo://app?vid=482edc50-583e-4eec-bc5f-69c08404e8a0","ios":"levelo://app?vid=482edc50-583e-4eec-bc5f-69c08404e8a0"},"vehicle_type_id":"4","last_reported":1746392917,"current_range_meters":8400,"station_id":"ce4bh512rcd13ifvqe2g","pricing_plan_id":"cebpf4jnsgd1na2vs0mg"},{"bike_id":"a7cd7cac-5a32-4d14-92f2-2738618b7e69","system_id":"levelo_inurba_marseille","lat":43.25933,"lon":5.40856,"is_reserved":false,"is_disabled":false,"rental_uris":{"android":"levelo://app?vid=a7cd7cac-5a32-4d14-92f2-2738618b7e69","ios":"levelo://app?vid=a7cd7cac-5a32-4d14-92f2-2738618b7e69"},"vehicle_type_id":"4","last_reported":1746392917,"current_range_meters":8400,"station_id":"ce4bhm92rcd13ifvqglg","pricing_plan_id":"cebpf4jnsgd1na2vs0mg"},{"bike_id":"f2f259d1-36b8-4370-b79f-1e8086cc6d08","system_id":"levelo_inurba_marseille","lat":43.27074,"lon":5.4228,"is_reserved":false,"is_disabled":false,"rental_uris":{"android":"levelo://app?vid=f2f259d1-36b8-4370-b79f-1e8086cc6d08","ios":"levelo://app?vid=f2f259d1-36b8-4370-b79f-1e8086cc6d08"},"vehicle_type_id":"4","last_reported":1746392917,"current_range_meters":8800,"station_id":"ce4bhk92rcd13ifvqgb0","pricing_plan_id":"cebpf4jnsgd1na2vs0mg"},{"bike_id":"51e137dc-06d4-4721-8a2f-24e002c6d5d0","system_id":"levelo_inurba_marseille","lat":43.24065,"lon":5.37754,"is_reserved":false,"is_disabled":false,"rental_uris":{"android":"levelo://app?vid=51e137dc-06d4-4721-8a2f-24e002c6d5d0","ios":"levelo://app?vid=51e137dc-06d4-4721-8a2f-24e002c6d5d0"},"vehicle_type_id":"4","last_reported":1746392917,"current_range_meters":8800,"station_id":"ce4bhnp2rcd13ifvqgvg","pricing_plan_id":"cebpf4jnsgd1na2vs0mg"},{"bike_id":"029d1da9-ddaa-4b16-929e-555a1ebde3de","system_id":"levelo_inurba_marseille","lat":43.3111,"lon":5.42406,"is_reserved":false,"is_disabled":false,"rental_uris":{"android":"levelo://app?vid=029d1da9-ddaa-4b16-929e-555a1ebde3de","ios":"levelo://app?vid=029d1da9-ddaa-4b16-929e-555a1ebde3de"},"vehicle_type_id":"4","last_reported":1746392917,"current_range_meters":8800,"station_id":"ce4bhp92rcd13ifvqhag","pricing_plan_id":"cebpf4jnsgd1na2vs0mg"},{"bike_id":"d55c8237-2304-4efd-993e-dc727f0f1b6a","system_id":"levelo_inurba_marseille","lat":43.22498,"lon":5.34769,"is_reserved":false,"is_disabled":false,"rental_uris":{"android":"levelo://app?vid=d55c8237-2304-4efd-993e-dc727f0f1b6a","ios":"levelo://app?vid=d55c8237-2304-4efd-993e-dc727f0f1b6a"},"vehicle_type_id":"4","last_reported":1746392917,"current_range_meters":8800,"station_id":"st_cvj5dfep6f1abm77gieg","pricing_plan_id":"cebpf4jnsgd1na2vs0mg"},{"bike_id":"aedf206f-89f3-4f30-9da6-56fb7ff8915b","system_id":"levelo_inurba_marseille","lat":43.281141,"lon":5.403999,"is_reserved":false,"is_disabled":false,"rental_uris":{"android":"levelo://app?vid=aedf206f-89f3-4f30-9da6-56fb7ff8915b","ios":"levelo://app?vid=aedf206f-89f3-4f30-9da6-56fb7ff8915b"},"vehicle_type_id":"4","last_reported":1746392917,"current_range_meters":9200,"station_id":"","pricing_plan_id":"cebpf4jnsgd1na2vs0mg"},{"bike_id":"2104859a-a35c-4db2-b05c-3b3590f3ec5c","system_id":"levelo_inurba_marseille","lat":43.3091,"lon":5.3684,"is_reserved":false,"is_disabled":false,"rental_uris":{"android":"levelo://app?vid=2104859a-a35c-4db2-b05c-3b3590f3ec5c","ios":"levelo://app?vid=2104859a-a35c-4db2-b05c-3b3590f3ec5c"},"vehicle_type_id":"4","last_reported":1746392917,"current_range_meters":9200,"station_id":"ce4bgn92rcd13ifvqbvg","pricing_plan_id":"cebpf4jnsgd1na2vs0mg"},{"bike_id":"c59dd5c1-a195-4870-b3d7-afb523598e23","system_id":"levelo_inurba_marseille","lat":43.30804,"lon":5.43518,"is_reserved":false,"is_disabled":false,"rental_uris":{"android":"levelo://app?vid=c59dd5c1-a195-4870-b3d7-afb523598e23","ios":"levelo://app?vid=c59dd5c1-a195-4870-b3d7-afb523598e23"},"vehicle_type_id":"4","last_reported":1746392917,"current_range_meters":9200,"station_id":"ce4bhph2rcd13ifvqheg","pricing_plan_id":"cebpf4jnsgd1na2vs0mg"},{"bike_id":"77e5fc0c-8247-4eae-976e-b65c5c479c47","system_id":"levelo_inurba_marseille","lat":43.24412,"lon":5.37038,"is_reserved":false,"is_disabled":false,"rental_uris":{"android":"levelo://app?vid=77e5fc0c-8247-4eae-976e-b65c5c479c47","ios":"levelo://app?vid=77e5fc0c-8247-4eae-976e-b65c5c479c47"},"vehicle_type_id":"4","last_reported":1746392917,"current_range_meters":9600,"station_id":"ce4bhhh2rcd13ifvqfk0","pricing_plan_id":"cebpf4jnsgd1na2vs0mg"},{"bike_id":"1658d859-00dc-4bbc-b527-5df1d4eb43db","system_id":"levelo_inurba_marseille","lat":43.27054,"lon":5.40261,"is_reserved":false,"is_disabled":false,"rental_uris":{"android":"levelo://app?vid=1658d859-00dc-4bbc-b527-5df1d4eb43db","ios":"levelo://app?vid=1658d859-00dc-4bbc-b527-5df1d4eb43db"},"vehicle_type_id":"4","last_reported":1746392917,"current_range_meters":9600,"station_id":"ce4bhk92rcd13ifvqgc0","pricing_plan_id":"cebpf4jnsgd1na2vs0mg"},{"bike_id":"29b58c37-cff3-4c0d-a588-184999f8685f","system_id":"levelo_inurba_marseille","lat":43.28706,"lon":5.39972,"is_reserved":false,"is_disabled":false,"rental_uris":{"android":"levelo://app?vid=29b58c37-cff3-4c0d-a588-184999f8685f","ios":"levelo://app?vid=29b58c37-cff3-4c0d-a588-184999f8685f"},"vehicle_type_id":"4","last_reported":1746392917,"current_range_meters":9600,"station_id":"ce4bho92rcd13ifvqh3g","pricing_plan_id":"cebpf4jnsgd1na2vs0mg"},{"bike_id":"11e449b2-acad-4b2b-b811-47bd1346b7a8","system_id":"levelo_inurba_marseille","lat":43.24405,"lon":5.37043,"is_reserved":false,"is_disabled":false,"rental_uris":{"android":"levelo://app?vid=11e449b2-acad-4b2b-b811-47bd1346b7a8","ios":"levelo://app?vid=11e449b2-acad-4b2b-b811-47bd1346b7a8"},"vehicle_type_id":"4","last_reported":1746392917,"current_range_meters":10000,"station_id":"ce4bhhh2rcd13ifvqfk0","pricing_plan_id":"cebpf4jnsgd1na2vs0mg"},{"bike_id":"e0f477fa-43e0-437f-aa44-25c8d96e5853","system_id":"levelo_inurba_marseille","lat":43.310835,"lon":5.424283,"is_reserved":false,"is_disabled":false,"rental_uris":{"android":"levelo://app?vid=e0f477fa-43e0-437f-aa44-25c8d96e5853","ios":"levelo://app?vid=e0f477fa-43e0-437f-aa44-25c8d96e5853"},"vehicle_type_id":"4","last_reported":1746392917,"current_range_meters":10000,"station_id":"ce4bhp92rcd13ifvqhag","pricing_plan_id":"cebpf4jnsgd1na2vs0mg"},{"bike_id":"1289b118-18ac-49c9-9878-4479fd6a84e6","system_id":"levelo_inurba_marseille","lat":43.29277,"lon":5.37615,"is_reserved":false,"is_disabled":false,"rental_uris":{"android":"levelo://app?vid=1289b118-18ac-49c9-9878-4479fd6a84e6","ios":"levelo://app?vid=1289b118-18ac-49c9-9878-4479fd6a84e6"},"vehicle_type_id":"4","last_reported":1746392917,"current_range_meters":10800,"station_id":"ce4bgi12rcd13ifvqb80","pricing_plan_id":"cebpf4jnsgd1na2vs0mg"},{"bike_id":"5a6c6b7c-e3d3-43dc-9fcd-5701295c6aa5","system_id":"levelo_inurba_marseille","lat":43.31118,"lon":5.37768,"is_reserved":false,"is_disabled":false,"rental_uris":{"android":"levelo://app?vid=5a6c6b7c-e3d3-43dc-9fcd-5701295c6aa5","ios":"levelo://app?vid=5a6c6b7c-e3d3-43dc-9fcd-5701295c6aa5"},"vehicle_type_id":"4","last_reported":1746392917,"current_range_meters":10800,"station_id":"ce4bgt92rcd13ifvqcg0","pricing_plan_id":"cebpf4jnsgd1na2vs0mg"},{"bike_id":"c041e647-a532-4271-ab4c-b8d07e0d410f","system_id":"levelo_inurba_marseille","lat":43.24564,"lon":5.39528,"is_reserved":false,"is_disabled":false,"rental_uris":{"android":"levelo://app?vid=c041e647-a532-4271-ab4c-b8d07e0d410f","ios":"levelo://app?vid=c041e647-a532-4271-ab4c-b8d07e0d410f"},"vehicle_type_id":"4","last_reported":1746392917,"current_range_meters":10800,"station_id":"ce4bhlp2rcd13ifvqgjg","pricing_plan_id":"cebpf4jnsgd1na2vs0mg"},{"bike_id":"5dd43bf0-0cc1-45c3-ba92-ba5d5d1109e0","system_id":"levelo_inurba_marseille","lat":43.287011,"lon":5.399933,"is_reserved":false,"is_disabled":false,"rental_uris":{"android":"levelo://app?vid=5dd43bf0-0cc1-45c3-ba92-ba5d5d1109e0","ios":"levelo://app?vid=5dd43bf0-0cc1-45c3-ba92-ba5d5d1109e0"},"vehicle_type_id":"4","last_reported":1746392917,"current_range_meters":10800,"station_id":"ce4bho92rcd13ifvqh3g","pricing_plan_id":"cebpf4jnsgd1na2vs0mg"},{"bike_id":"b8ebe123-18b6-4e5d-addb-12ec10c089ac","system_id":"levelo_inurba_marseille","lat":43.32104,"lon":5.36775,"is_reserved":false,"is_disabled":false,"rental_uris":{"android":"levelo://app?vid=b8ebe123-18b6-4e5d-addb-12ec10c089ac","ios":"levelo://app?vid=b8ebe123-18b6-4e5d-addb-12ec10c089ac"},"vehicle_type_id":"4","last_reported":1746392917,"current_range_meters":11200,"station_id":"ce4bhrh2rcd13ifvqhug","pricing_plan_id":"cebpf4jnsgd1na2vs0mg"},{"bike_id":"e234c9c4-65cf-42bc-b2d9-38acc77199c3","system_id":"levelo_inurba_marseille","lat":43.37425,"lon":5.43784,"is_reserved":false,"is_disabled":false,"rental_uris":{"android":"levelo://app?vid=e234c9c4-65cf-42bc-b2d9-38acc77199c3","ios":"levelo://app?vid=e234c9c4-65cf-42bc-b2d9-38acc77199c3"},"vehicle_type_id":"4","last_reported":1746392917,"current_range_meters":11600,"station_id":"","pricing_plan_id":"cebpf4jnsgd1na2vs0mg"},{"bike_id":"33b03ba8-3f3c-47e1-bc9e-a63ed84d39b3","system_id":"levelo_inurba_marseille","lat":43.290013,"lon":5.356113,"is_reserved":false,"is_disabled":false,"rental_uris":{"android":"levelo://app?vid=33b03ba8-3f3c-47e1-bc9e-a63ed84d39b3","ios":"levelo://app?vid=33b03ba8-3f3c-47e1-bc9e-a63ed84d39b3"},"vehicle_type_id":"4","last_reported":1746392917,"current_range_meters":11600,"station_id":"ce4bhb92rcd13ifvqen0","pricing_plan_id":"cebpf4jnsgd1na2vs0mg"},{"bike_id":"01d67fd8-ff6a-49d8-b9b8-a97ee824ce65","system_id":"levelo_inurba_marseille","lat":43.28037,"lon":5.36938,"is_reserved":false,"is_disabled":false,"rental_uris":{"android":"levelo://app?vid=01d67fd8-ff6a-49d8-b9b8-a97ee824ce65","ios":"levelo://app?vid=01d67fd8-ff6a-49d8-b9b8-a97ee824ce65"},"vehicle_type_id":"4","last_reported":1746392917,"current_range_meters":12000,"station_id":"ce4bha12rcd13ifvqef0","pricing_plan_id":"cebpf4jnsgd1na2vs0mg"},{"bike_id":"6fa37660-dd23-4a8f-8ac3-f6c97ec4896d","system_id":"levelo_inurba_marseille","lat":43.26793,"lon":5.40251,"is_reserved":false,"is_disabled":false,"rental_uris":{"android":"levelo://app?vid=6fa37660-dd23-4a8f-8ac3-f6c97ec4896d","ios":"levelo://app?vid=6fa37660-dd23-4a8f-8ac3-f6c97ec4896d"},"vehicle_type_id":"4","last_reported":1746392917,"current_range_meters":12000,"station_id":"ce501612rcd8frsf0b60","pricing_plan_id":"cebpf4jnsgd1na2vs0mg"},{"bike_id":"883f13a3-7510-4e69-8571-35eb92a4f62b","system_id":"levelo_inurba_marseille","lat":43.24654,"lon":5.38157,"is_reserved":false,"is_disabled":false,"rental_uris":{"android":"levelo://app?vid=883f13a3-7510-4e69-8571-35eb92a4f62b","ios":"levelo://app?vid=883f13a3-7510-4e69-8571-35eb92a4f62b"},"vehicle_type_id":"4","last_reported":1746392917,"current_range_meters":12400,"station_id":"ce4bhih2rcd13ifvqfr0","pricing_plan_id":"cebpf4jnsgd1na2vs0mg"},{"bike_id":"e84eee43-7ebe-4b56-a08b-27d6e58561fd","system_id":"levelo_inurba_marseille","lat":43.241809,"lon":5.397428,"is_reserved":false,"is_disabled":false,"rental_uris":{"android":"levelo://app?vid=e84eee43-7ebe-4b56-a08b-27d6e58561fd","ios":"levelo://app?vid=e84eee43-7ebe-4b56-a08b-27d6e58561fd"},"vehicle_type_id":"4","last_reported":1746392917,"current_range_meters":12400,"station_id":"ce4bhn12rcd13ifvqgpg","pricing_plan_id":"cebpf4jnsgd1na2vs0mg"},{"bike_id":"610f5703-5c7a-4e92-bb0e-da46bb15c29e","system_id":"levelo_inurba_marseille","lat":43.30736,"lon":5.42449,"is_reserved":false,"is_disabled":false,"rental_uris":{"android":"levelo://app?vid=610f5703-5c7a-4e92-bb0e-da46bb15c29e","ios":"levelo://app?vid=610f5703-5c7a-4e92-bb0e-da46bb15c29e"},"vehicle_type_id":"4","last_reported":1746392917,"current_range_meters":12400,"station_id":"st_cvj6ca6bvosntc0bfgr0","pricing_plan_id":"cebpf4jnsgd1na2vs0mg"},{"bike_id":"43f220ab-0408-46b3-abe5-60437ce3bc1e","system_id":"levelo_inurba_marseille","lat":43.23152,"lon":5.35549,"is_reserved":false,"is_disabled":false,"rental_uris":{"android":"levelo://app?vid=43f220ab-0408-46b3-abe5-60437ce3bc1e","ios":"levelo://app?vid=43f220ab-0408-46b3-abe5-60437ce3bc1e"},"vehicle_type_id":"4","last_reported":1746392917,"current_range_meters":12800,"station_id":"ce4bhu92rcd13ifvqi70","pricing_plan_id":"cebpf4jnsgd1na2vs0mg"},{"bike_id":"91149c37-e52f-4fbb-b2a2-78ea2f7134c3","system_id":"levelo_inurba_marseille","lat":43.25108,"lon":5.40321,"is_reserved":false,"is_disabled":false,"rental_uris":{"android":"levelo://app?vid=91149c37-e52f-4fbb-b2a2-78ea2f7134c3","ios":"levelo://app?vid=91149c37-e52f-4fbb-b2a2-78ea2f7134c3"},"vehicle_type_id":"4","last_reported":1746392917,"current_range_meters":14000,"station_id":"ce4bhlh2rcd13ifvqgig","pricing_plan_id":"cebpf4jnsgd1na2vs0mg"},{"bike_id":"cec02868-da4c-46a9-bbda-15dc1c82835b","system_id":"levelo_inurba_marseille","lat":43.24393,"lon":5.440601,"is_reserved":false,"is_disabled":false,"rental_uris":{"android":"levelo://app?vid=cec02868-da4c-46a9-bbda-15dc1c82835b","ios":"levelo://app?vid=cec02868-da4c-46a9-bbda-15dc1c82835b"},"vehicle_type_id":"4","last_reported":1746392917,"current_range_meters":14000,"station_id":"ce4bhmp2rcd13ifvqgog","pricing_plan_id":"cebpf4jnsgd1na2vs0mg"},{"bike_id":"8ab46f99-9644-474c-9745-b78357bd9ec9","system_id":"levelo_inurba_marseille","lat":43.37407,"lon":5.437928,"is_reserved":false,"is_disabled":false,"rental_uris":{"android":"levelo://app?vid=8ab46f99-9644-474c-9745-b78357bd9ec9","ios":"levelo://app?vid=8ab46f99-9644-474c-9745-b78357bd9ec9"},"vehicle_type_id":"4","last_reported":1746392917,"current_range_meters":14400,"station_id":"","pricing_plan_id":"cebpf4jnsgd1na2vs0mg"},{"bike_id":"20fed548-2724-4bfa-b5dc-4cf9ea2bcac7","system_id":"levelo_inurba_marseille","lat":43.30885,"lon":5.37192,"is_reserved":false,"is_disabled":false,"rental_uris":{"android":"levelo://app?vid=20fed548-2724-4bfa-b5dc-4cf9ea2bcac7","ios":"levelo://app?vid=20fed548-2724-4bfa-b5dc-4cf9ea2bcac7"},"vehicle_type_id":"4","last_reported":1746392917,"current_range_meters":14800,"station_id":"ce4bguh2rcd13ifvqckg","pricing_plan_id":"cebpf4jnsgd1na2vs0mg"},{"bike_id":"6541fd63-6c6b-4f6b-b5ad-83b6829727f2","system_id":"levelo_inurba_marseille","lat":43.27509,"lon":5.42475,"is_reserved":false,"is_disabled":false,"rental_uris":{"android":"levelo://app?vid=6541fd63-6c6b-4f6b-b5ad-83b6829727f2","ios":"levelo://app?vid=6541fd63-6c6b-4f6b-b5ad-83b6829727f2"},"vehicle_type_id":"4","last_reported":1746392917,"current_range_meters":14800,"station_id":"ce4bhn92rcd13ifvqgrg","pricing_plan_id":"cebpf4jnsgd1na2vs0mg"},{"bike_id":"37c6684c-8b36-4fd4-9901-e8ae133092d9","system_id":"levelo_inurba_marseille","lat":43.28033,"lon":5.36938,"is_reserved":false,"is_disabled":false,"rental_uris":{"android":"levelo://app?vid=37c6684c-8b36-4fd4-9901-e8ae133092d9","ios":"levelo://app?vid=37c6684c-8b36-4fd4-9901-e8ae133092d9"},"vehicle_type_id":"4","last_reported":1746392917,"current_range_meters":16000,"station_id":"ce4bha12rcd13ifvqef0","pricing_plan_id":"cebpf4jnsgd1na2vs0mg"},{"bike_id":"d342a70b-0490-4dea-b796-15cb5536d152","system_id":"levelo_inurba_marseille","lat":43.32099,"lon":5.36767,"is_reserved":false,"is_disabled":false,"rental_uris":{"android":"levelo://app?vid=d342a70b-0490-4dea-b796-15cb5536d152","ios":"levelo://app?vid=d342a70b-0490-4dea-b796-15cb5536d152"},"vehicle_type_id":"4","last_reported":1746392917,"current_range_meters":16000,"station_id":"ce4bhrh2rcd13ifvqhug","pricing_plan_id":"cebpf4jnsgd1na2vs0mg"},{"bike_id":"336c6afb-1b51-4cba-a855-ea7fe0b45e0a","system_id":"levelo_inurba_marseille","lat":43.292677,"lon":5.37634,"is_reserved":false,"is_disabled":false,"rental_uris":{"android":"levelo://app?vid=336c6afb-1b51-4cba-a855-ea7fe0b45e0a","ios":"levelo://app?vid=336c6afb-1b51-4cba-a855-ea7fe0b45e0a"},"vehicle_type_id":"4","last_reported":1746392917,"current_range_meters":16400,"station_id":"ce4bgi12rcd13ifvqb80","pricing_plan_id":"cebpf4jnsgd1na2vs0mg"},{"bike_id":"1885e4e4-787e-4399-a182-13afb5671e8f","system_id":"levelo_inurba_marseille","lat":43.31765,"lon":5.39005,"is_reserved":false,"is_disabled":false,"rental_uris":{"android":"levelo://app?vid=1885e4e4-787e-4399-a182-13afb5671e8f","ios":"levelo://app?vid=1885e4e4-787e-4399-a182-13afb5671e8f"},"vehicle_type_id":"4","last_reported":1746392917,"current_range_meters":16400,"station_id":"ce4bhqp2rcd13ifvqhng","pricing_plan_id":"cebpf4jnsgd1na2vs0mg"},{"bike_id":"0eb03b21-ded2-4839-b379-667e677a96e6","system_id":"levelo_inurba_marseille","lat":43.26803,"lon":5.40265,"is_reserved":false,"is_disabled":false,"rental_uris":{"android":"levelo://app?vid=0eb03b21-ded2-4839-b379-667e677a96e6","ios":"levelo://app?vid=0eb03b21-ded2-4839-b379-667e677a96e6"},"vehicle_type_id":"4","last_reported":1746392917,"current_range_meters":16400,"station_id":"ce501612rcd8frsf0b60","pricing_plan_id":"cebpf4jnsgd1na2vs0mg"},{"bike_id":"614797f0-44b7-4a68-aa9a-d035bcc3269f","system_id":"levelo_inurba_marseille","lat":43.30921,"lon":5.40145,"is_reserved":false,"is_disabled":false,"rental_uris":{"android":"levelo://app?vid=614797f0-44b7-4a68-aa9a-d035bcc3269f","ios":"levelo://app?vid=614797f0-44b7-4a68-aa9a-d035bcc3269f"},"vehicle_type_id":"4","last_reported":1746392917,"current_range_meters":16800,"station_id":"ce4bgvp2rcd13ifvqct0","pricing_plan_id":"cebpf4jnsgd1na2vs0mg"},{"bike_id":"89c1c22e-4deb-4a12-b25d-9d0f09a1f79b","system_id":"levelo_inurba_marseille","lat":43.21741,"lon":5.34605,"is_reserved":false,"is_disabled":false,"rental_uris":{"android":"levelo://app?vid=89c1c22e-4deb-4a12-b25d-9d0f09a1f79b","ios":"levelo://app?vid=89c1c22e-4deb-4a12-b25d-9d0f09a1f79b"},"vehicle_type_id":"4","last_reported":1746392917,"current_range_meters":16800,"station_id":"st_cvj6r9ubvosntc0bgbag","pricing_plan_id":"cebpf4jnsgd1na2vs0mg"},{"bike_id":"d252a272-7b85-44ee-b117-a17b072d1a91","system_id":"levelo_inurba_marseille","lat":43.2175,"lon":5.34601,"is_reserved":false,"is_disabled":false,"rental_uris":{"android":"levelo://app?vid=d252a272-7b85-44ee-b117-a17b072d1a91","ios":"levelo://app?vid=d252a272-7b85-44ee-b117-a17b072d1a91"},"vehicle_type_id":"4","last_reported":1746392917,"current_range_meters":16800,"station_id":"st_cvj6r9ubvosntc0bgbag","pricing_plan_id":"cebpf4jnsgd1na2vs0mg"},{"bike_id":"a7393548-1ca4-426f-bec8-e094325f844e","system_id":"levelo_inurba_marseille","lat":43.26279,"lon":5.37469,"is_reserved":false,"is_disabled":false,"rental_uris":{"android":"levelo://app?vid=a7393548-1ca4-426f-bec8-e094325f844e","ios":"levelo://app?vid=a7393548-1ca4-426f-bec8-e094325f844e"},"vehicle_type_id":"4","last_reported":1746392917,"current_range_meters":17200,"station_id":"","pricing_plan_id":"cebpf4jnsgd1na2vs0mg"},{"bike_id":"52898d8f-0861-44ef-b7ed-4dc509543592","system_id":"levelo_inurba_marseille","lat":43.29635,"lon":5.40594,"is_reserved":false,"is_disabled":false,"rental_uris":{"android":"levelo://app?vid=52898d8f-0861-44ef-b7ed-4dc509543592","ios":"levelo://app?vid=52898d8f-0861-44ef-b7ed-4dc509543592"},"vehicle_type_id":"4","last_reported":1746392917,"current_range_meters":17200,"station_id":"ce4bh0h2rcd13ifvqd60","pricing_plan_id":"cebpf4jnsgd1na2vs0mg"},{"bike_id":"3d7ee76c-e45d-49a5-bcd6-83b7b0c7bcbe","system_id":"levelo_inurba_marseille","lat":43.30634,"lon":5.40109,"is_reserved":false,"is_disabled":false,"rental_uris":{"android":"levelo://app?vid=3d7ee76c-e45d-49a5-bcd6-83b7b0c7bcbe","ios":"levelo://app?vid=3d7ee76c-e45d-49a5-bcd6-83b7b0c7bcbe"},"vehicle_type_id":"4","last_reported":1746392917,"current_range_meters":17200,"station_id":"ce4bh112rcd13ifvqda0","pricing_plan_id":"cebpf4jnsgd1na2vs0mg"},{"bike_id":"8e852f06-3946-4e5e-91e5-3f7d8a8dbd54","system_id":"levelo_inurba_marseille","lat":43.29287,"lon":5.40127,"is_reserved":false,"is_disabled":false,"rental_uris":{"android":"levelo://app?vid=8e852f06-3946-4e5e-91e5-3f7d8a8dbd54","ios":"levelo://app?vid=8e852f06-3946-4e5e-91e5-3f7d8a8dbd54"},"vehicle_type_id":"4","last_reported":1746392917,"current_range_meters":17200,"station_id":"ce4bh312rcd13ifvqdk0","pricing_plan_id":"cebpf4jnsgd1na2vs0mg"},{"bike_id":"f662e7cd-b4d2-4ab5-9419-ae14f3c0e84b","system_id":"levelo_inurba_marseille","lat":43.29262,"lon":5.37614,"is_reserved":false,"is_disabled":false,"rental_uris":{"android":"levelo://app?vid=f662e7cd-b4d2-4ab5-9419-ae14f3c0e84b","ios":"levelo://app?vid=f662e7cd-b4d2-4ab5-9419-ae14f3c0e84b"},"vehicle_type_id":"4","last_reported":1746392917,"current_range_meters":17600,"station_id":"ce4bgi12rcd13ifvqb80","pricing_plan_id":"cebpf4jnsgd1na2vs0mg"},{"bike_id":"fe4bac6c-d7c8-46b7-90f4-7d3e6d9bbb05","system_id":"levelo_inurba_marseille","lat":43.24805,"lon":5.37422,"is_reserved":false,"is_disabled":false,"rental_uris":{"android":"levelo://app?vid=fe4bac6c-d7c8-46b7-90f4-7d3e6d9bbb05","ios":"levelo://app?vid=fe4bac6c-d7c8-46b7-90f4-7d3e6d9bbb05"},"vehicle_type_id":"4","last_reported":1746392917,"current_range_meters":17600,"station_id":"ce4bhgh2rcd13ifvqfb0","pricing_plan_id":"cebpf4jnsgd1na2vs0mg"},{"bike_id":"0e42e81c-9a07-4a97-bdd7-e94210c258de","system_id":"levelo_inurba_marseille","lat":43.24585,"lon":5.40495,"is_reserved":false,"is_disabled":false,"rental_uris":{"android":"levelo://app?vid=0e42e81c-9a07-4a97-bdd7-e94210c258de","ios":"levelo://app?vid=0e42e81c-9a07-4a97-bdd7-e94210c258de"},"vehicle_type_id":"4","last_reported":1746392917,"current_range_meters":18000,"station_id":"","pricing_plan_id":"cebpf4jnsgd1na2vs0mg"},{"bike_id":"ece486b1-81d9-44e7-a9c7-4c1b605167fa","system_id":"levelo_inurba_marseille","lat":43.29797,"lon":5.40395,"is_reserved":false,"is_disabled":false,"rental_uris":{"android":"levelo://app?vid=ece486b1-81d9-44e7-a9c7-4c1b605167fa","ios":"levelo://app?vid=ece486b1-81d9-44e7-a9c7-4c1b605167fa"},"vehicle_type_id":"4","last_reported":1746392917,"current_range_meters":18000,"station_id":"ce4bh112rcd13ifvqd90","pricing_plan_id":"cebpf4jnsgd1na2vs0mg"},{"bike_id":"da5e71c1-d5a4-473a-9054-609bbfb0ae80","system_id":"levelo_inurba_marseille","lat":43.28632,"lon":5.35087,"is_reserved":false,"is_disabled":false,"rental_uris":{"android":"levelo://app?vid=da5e71c1-d5a4-473a-9054-609bbfb0ae80","ios":"levelo://app?vid=da5e71c1-d5a4-473a-9054-609bbfb0ae80"},"vehicle_type_id":"4","last_reported":1746392917,"current_range_meters":18000,"station_id":"ce4bhch2rcd13ifvqeug","pricing_plan_id":"cebpf4jnsgd1na2vs0mg"},{"bike_id":"cbb8a7de-179d-48a4-b8a0-a4ebcc1268ba","system_id":"levelo_inurba_marseille","lat":43.31714,"lon":5.4371,"is_reserved":false,"is_disabled":false,"rental_uris":{"android":"levelo://app?vid=cbb8a7de-179d-48a4-b8a0-a4ebcc1268ba","ios":"levelo://app?vid=cbb8a7de-179d-48a4-b8a0-a4ebcc1268ba"},"vehicle_type_id":"4","last_reported":1746392917,"current_range_meters":18800,"station_id":"","pricing_plan_id":"cebpf4jnsgd1na2vs0mg"},{"bike_id":"f6990bbf-7200-4595-9d3c-805bae17a99e","system_id":"levelo_inurba_marseille","lat":43.22493,"lon":5.34767,"is_reserved":false,"is_disabled":false,"rental_uris":{"android":"levelo://app?vid=f6990bbf-7200-4595-9d3c-805bae17a99e","ios":"levelo://app?vid=f6990bbf-7200-4595-9d3c-805bae17a99e"},"vehicle_type_id":"4","last_reported":1746392917,"current_range_meters":18800,"station_id":"","pricing_plan_id":"cebpf4jnsgd1na2vs0mg"},{"bike_id":"1bc89dec-24f6-4cf3-9a07-0634e2bc1366","system_id":"levelo_inurba_marseille","lat":43.23184,"lon":5.39983,"is_reserved":false,"is_disabled":false,"rental_uris":{"android":"levelo://app?vid=1bc89dec-24f6-4cf3-9a07-0634e2bc1366","ios":"levelo://app?vid=1bc89dec-24f6-4cf3-9a07-0634e2bc1366"},"vehicle_type_id":"4","last_reported":1746392917,"current_range_meters":18800,"station_id":"ce4bhn12rcd13ifvqgqg","pricing_plan_id":"cebpf4jnsgd1na2vs0mg"},{"bike_id":"bbba4a42-41f1-4d4c-a0ec-15062e1d6496","system_id":"levelo_inurba_marseille","lat":43.30814,"lon":5.4352,"is_reserved":false,"is_disabled":false,"rental_uris":{"android":"levelo://app?vid=bbba4a42-41f1-4d4c-a0ec-15062e1d6496","ios":"levelo://app?vid=bbba4a42-41f1-4d4c-a0ec-15062e1d6496"},"vehicle_type_id":"4","last_reported":1746392917,"current_range_meters":18800,"station_id":"ce4bhph2rcd13ifvqheg","pricing_plan_id":"cebpf4jnsgd1na2vs0mg"},{"bike_id":"65808fbe-2959-42e9-a56a-88f03257b471","system_id":"levelo_inurba_marseille","lat":43.32009,"lon":5.38099,"is_reserved":false,"is_disabled":false,"rental_uris":{"android":"levelo://app?vid=65808fbe-2959-42e9-a56a-88f03257b471","ios":"levelo://app?vid=65808fbe-2959-42e9-a56a-88f03257b471"},"vehicle_type_id":"4","last_reported":1746392917,"current_range_meters":19200,"station_id":"","pricing_plan_id":"cebpf4jnsgd1na2vs0mg"},{"bike_id":"d258162d-95d3-4b67-8024-af8df53800bc","system_id":"levelo_inurba_marseille","lat":43.28343,"lon":5.38105,"is_reserved":false,"is_disabled":false,"rental_uris":{"android":"levelo://app?vid=d258162d-95d3-4b67-8024-af8df53800bc","ios":"levelo://app?vid=d258162d-95d3-4b67-8024-af8df53800bc"},"vehicle_type_id":"4","last_reported":1746392917,"current_range_meters":19200,"station_id":"ce4bh412rcd13ifvqdr0","pricing_plan_id":"cebpf4jnsgd1na2vs0mg"},{"bike_id":"2dce38cf-a8d4-49cd-9fcf-ef494d90a125","system_id":"levelo_inurba_marseille","lat":43.27144,"lon":5.36373,"is_reserved":false,"is_disabled":false,"rental_uris":{"android":"levelo://app?vid=2dce38cf-a8d4-49cd-9fcf-ef494d90a125","ios":"levelo://app?vid=2dce38cf-a8d4-49cd-9fcf-ef494d90a125"},"vehicle_type_id":"4","last_reported":1746392917,"current_range_meters":19600,"station_id":"","pricing_plan_id":"cebpf4jnsgd1na2vs0mg"},{"bike_id":"ce7dbab7-9310-4b7e-bf0c-465a151ac403","system_id":"levelo_inurba_marseille","lat":43.35234,"lon":5.43743,"is_reserved":false,"is_disabled":false,"rental_uris":{"android":"levelo://app?vid=ce7dbab7-9310-4b7e-bf0c-465a151ac403","ios":"levelo://app?vid=ce7dbab7-9310-4b7e-bf0c-465a151ac403"},"vehicle_type_id":"4","last_reported":1746392917,"current_range_meters":19600,"station_id":"","pricing_plan_id":"cebpf4jnsgd1na2vs0mg"},{"bike_id":"41f8ab62-eb9f-49f3-b0bb-176aa0ff455f","system_id":"levelo_inurba_marseille","lat":43.231506,"lon":5.437095,"is_reserved":false,"is_disabled":false,"rental_uris":{"android":"levelo://app?vid=41f8ab62-eb9f-49f3-b0bb-176aa0ff455f","ios":"levelo://app?vid=41f8ab62-eb9f-49f3-b0bb-176aa0ff455f"},"vehicle_type_id":"4","last_reported":1746392917,"current_range_meters":19600,"station_id":"ce4bhmp2rcd13ifvqgog","pricing_plan_id":"cebpf4jnsgd1na2vs0mg"},{"bike_id":"fedc619d-d7cc-4df1-a967-c5d0953b5b95","system_id":"levelo_inurba_marseille","lat":43.246056,"lon":5.408369,"is_reserved":false,"is_disabled":false,"rental_uris":{"android":"levelo://app?vid=fedc619d-d7cc-4df1-a967-c5d0953b5b95","ios":"levelo://app?vid=fedc619d-d7cc-4df1-a967-c5d0953b5b95"},"vehicle_type_id":"4","last_reported":1746392917,"current_range_meters":20000,"station_id":"","pricing_plan_id":"cebpf4jnsgd1na2vs0mg"},{"bike_id":"55e2365c-b270-4dfe-a830-699a54b79cdb","system_id":"levelo_inurba_marseille","lat":43.255768,"lon":5.421003,"is_reserved":false,"is_disabled":false,"rental_uris":{"android":"levelo://app?vid=55e2365c-b270-4dfe-a830-699a54b79cdb","ios":"levelo://app?vid=55e2365c-b270-4dfe-a830-699a54b79cdb"},"vehicle_type_id":"4","last_reported":1746392917,"current_range_meters":20000,"station_id":"","pricing_plan_id":"cebpf4jnsgd1na2vs0mg"},{"bike_id":"fed02b09-1f80-415a-8b19-d606d7bc59ef","system_id":"levelo_inurba_marseille","lat":43.28465,"lon":5.35882,"is_reserved":false,"is_disabled":false,"rental_uris":{"android":"levelo://app?vid=fed02b09-1f80-415a-8b19-d606d7bc59ef","ios":"levelo://app?vid=fed02b09-1f80-415a-8b19-d606d7bc59ef"},"vehicle_type_id":"4","last_reported":1746392917,"current_range_meters":20000,"station_id":"ce4bhah2rcd13ifvqei0","pricing_plan_id":"cebpf4jnsgd1na2vs0mg"},{"bike_id":"c630188e-b9c9-4288-90ff-127ef2e644b2","system_id":"levelo_inurba_marseille","lat":43.25726,"lon":5.41106,"is_reserved":false,"is_disabled":false,"rental_uris":{"android":"levelo://app?vid=c630188e-b9c9-4288-90ff-127ef2e644b2","ios":"levelo://app?vid=c630188e-b9c9-4288-90ff-127ef2e644b2"},"vehicle_type_id":"4","last_reported":1746392917,"current_range_meters":20000,"station_id":"ce4bhkp2rcd13ifvqgd0","pricing_plan_id":"cebpf4jnsgd1na2vs0mg"},{"bike_id":"83f6b08d-f27a-482d-a4cc-4e8c70cf89b3","system_id":"levelo_inurba_marseille","lat":43.24545,"lon":5.39521,"is_reserved":false,"is_disabled":false,"rental_uris":{"android":"levelo://app?vid=83f6b08d-f27a-482d-a4cc-4e8c70cf89b3","ios":"levelo://app?vid=83f6b08d-f27a-482d-a4cc-4e8c70cf89b3"},"vehicle_type_id":"4","last_reported":1746392917,"current_range_meters":20000,"station_id":"ce4bhlp2rcd13ifvqgjg","pricing_plan_id":"cebpf4jnsgd1na2vs0mg"},{"bike_id":"0cdf18f7-acd7-4c32-bd78-96ff79b6a3da","system_id":"levelo_inurba_marseille","lat":43.24108,"lon":5.37752,"is_reserved":false,"is_disabled":false,"rental_uris":{"android":"levelo://app?vid=0cdf18f7-acd7-4c32-bd78-96ff79b6a3da","ios":"levelo://app?vid=0cdf18f7-acd7-4c32-bd78-96ff79b6a3da"},"vehicle_type_id":"4","last_reported":1746392917,"current_range_meters":20000,"station_id":"ce4bhnp2rcd13ifvqgvg","pricing_plan_id":"cebpf4jnsgd1na2vs0mg"},{"bike_id":"9d3079b4-9314-4257-a997-2ad565ea33c8","system_id":"levelo_inurba_marseille","lat":43.28001,"lon":5.40008,"is_reserved":false,"is_disabled":false,"rental_uris":{"android":"levelo://app?vid=9d3079b4-9314-4257-a997-2ad565ea33c8","ios":"levelo://app?vid=9d3079b4-9314-4257-a997-2ad565ea33c8"},"vehicle_type_id":"4","last_reported":1746392917,"current_range_meters":20000,"station_id":"ce4bho92rcd13ifvqh4g","pricing_plan_id":"cebpf4jnsgd1na2vs0mg"},{"bike_id":"09a3cfd4-2a2c-4bff-b6ae-ee5d0a1f053e","system_id":"levelo_inurba_marseille","lat":43.33603,"lon":5.41022,"is_reserved":false,"is_disabled":false,"rental_uris":{"android":"levelo://app?vid=09a3cfd4-2a2c-4bff-b6ae-ee5d0a1f053e","ios":"levelo://app?vid=09a3cfd4-2a2c-4bff-b6ae-ee5d0a1f053e"},"vehicle_type_id":"4","last_reported":1746392917,"current_range_meters":20000,"station_id":"ce4bhqh2rcd13ifvqhmg","pricing_plan_id":"cebpf4jnsgd1na2vs0mg"},{"bike_id":"b9c4d27b-24f4-4260-8ad3-f9dc7d6406b5","system_id":"levelo_inurba_marseille","lat":43.27896,"lon":5.38001,"is_reserved":false,"is_disabled":false,"rental_uris":{"android":"levelo://app?vid=b9c4d27b-24f4-4260-8ad3-f9dc7d6406b5","ios":"levelo://app?vid=b9c4d27b-24f4-4260-8ad3-f9dc7d6406b5"},"vehicle_type_id":"4","last_reported":1746392917,"current_range_meters":20400,"station_id":"ce4bhf92rcd13ifvqf50","pricing_plan_id":"cebpf4jnsgd1na2vs0mg"},{"bike_id":"76d2b5e4-c2ba-4c6a-ae1f-8e0e8f954baf","system_id":"levelo_inurba_marseille","lat":43.28852,"lon":5.39311,"is_reserved":false,"is_disabled":false,"rental_uris":{"android":"levelo://app?vid=76d2b5e4-c2ba-4c6a-ae1f-8e0e8f954baf","ios":"levelo://app?vid=76d2b5e4-c2ba-4c6a-ae1f-8e0e8f954baf"},"vehicle_type_id":"4","last_reported":1746392917,"current_range_meters":20800,"station_id":"ce4bh2p2rcd13ifvqdi0","pricing_plan_id":"cebpf4jnsgd1na2vs0mg"},{"bike_id":"21a4b78c-5f0d-4732-914a-f21e5d98f8f2","system_id":"levelo_inurba_marseille","lat":43.30917,"lon":5.36833,"is_reserved":false,"is_disabled":false,"rental_uris":{"android":"levelo://app?vid=21a4b78c-5f0d-4732-914a-f21e5d98f8f2","ios":"levelo://app?vid=21a4b78c-5f0d-4732-914a-f21e5d98f8f2"},"vehicle_type_id":"4","last_reported":1746392917,"current_range_meters":21600,"station_id":"ce4bgn92rcd13ifvqbvg","pricing_plan_id":"cebpf4jnsgd1na2vs0mg"},{"bike_id":"e6ce42df-4e60-47ef-899c-9ec88f083a71","system_id":"levelo_inurba_marseille","lat":43.34156,"lon":5.40898,"is_reserved":false,"is_disabled":false,"rental_uris":{"android":"levelo://app?vid=e6ce42df-4e60-47ef-899c-9ec88f083a71","ios":"levelo://app?vid=e6ce42df-4e60-47ef-899c-9ec88f083a71"},"vehicle_type_id":"4","last_reported":1746392917,"current_range_meters":21600,"station_id":"ce4bhqh2rcd13ifvqhlg","pricing_plan_id":"cebpf4jnsgd1na2vs0mg"},{"bike_id":"3f72b7ea-5944-4b5c-833d-de535a116f71","system_id":"levelo_inurba_marseille","lat":43.31167,"lon":5.38709,"is_reserved":false,"is_disabled":false,"rental_uris":{"android":"levelo://app?vid=3f72b7ea-5944-4b5c-833d-de535a116f71","ios":"levelo://app?vid=3f72b7ea-5944-4b5c-833d-de535a116f71"},"vehicle_type_id":"4","last_reported":1746392917,"current_range_meters":22000,"station_id":"ce4bgv12rcd13ifvqcp0","pricing_plan_id":"cebpf4jnsgd1na2vs0mg"},{"bike_id":"29d03aa6-cfe4-4d48-a249-8bf35c2be982","system_id":"levelo_inurba_marseille","lat":43.30326,"lon":5.40442,"is_reserved":false,"is_disabled":false,"rental_uris":{"android":"levelo://app?vid=29d03aa6-cfe4-4d48-a249-8bf35c2be982","ios":"levelo://app?vid=29d03aa6-cfe4-4d48-a249-8bf35c2be982"},"vehicle_type_id":"4","last_reported":1746392917,"current_range_meters":22000,"station_id":"ce4bh012rcd13ifvqd10","pricing_plan_id":"cebpf4jnsgd1na2vs0mg"},{"bike_id":"f1df9eb0-42af-4dc8-a4ab-d962068bfa70","system_id":"levelo_inurba_marseille","lat":43.29556,"lon":5.37507,"is_reserved":false,"is_disabled":false,"rental_uris":{"android":"levelo://app?vid=f1df9eb0-42af-4dc8-a4ab-d962068bfa70","ios":"levelo://app?vid=f1df9eb0-42af-4dc8-a4ab-d962068bfa70"},"vehicle_type_id":"4","last_reported":1746392917,"current_range_meters":22400,"station_id":"ce4bgh92rcd13ifvqb50","pricing_plan_id":"cebpf4jnsgd1na2vs0mg"},{"bike_id":"0aa4a36d-0981-486d-b07b-8a99840ac71d","system_id":"levelo_inurba_marseille","lat":43.30326,"lon":5.40446,"is_reserved":false,"is_disabled":false,"rental_uris":{"android":"levelo://app?vid=0aa4a36d-0981-486d-b07b-8a99840ac71d","ios":"levelo://app?vid=0aa4a36d-0981-486d-b07b-8a99840ac71d"},"vehicle_type_id":"4","last_reported":1746392917,"current_range_meters":22400,"station_id":"ce4bh012rcd13ifvqd10","pricing_plan_id":"cebpf4jnsgd1na2vs0mg"},{"bike_id":"29a9e836-7d4f-4a10-a574-86b692767c26","system_id":"levelo_inurba_marseille","lat":43.29517,"lon":5.39048,"is_reserved":false,"is_disabled":false,"rental_uris":{"android":"levelo://app?vid=29a9e836-7d4f-4a10-a574-86b692767c26","ios":"levelo://app?vid=29a9e836-7d4f-4a10-a574-86b692767c26"},"vehicle_type_id":"4","last_reported":1746392917,"current_range_meters":22400,"station_id":"ce4bh3p2rcd13ifvqdp0","pricing_plan_id":"cebpf4jnsgd1na2vs0mg"},{"bike_id":"d7883752-48a4-43eb-9ccc-2950f68567df","system_id":"levelo_inurba_marseille","lat":43.33597,"lon":5.41022,"is_reserved":false,"is_disabled":false,"rental_uris":{"android":"levelo://app?vid=d7883752-48a4-43eb-9ccc-2950f68567df","ios":"levelo://app?vid=d7883752-48a4-43eb-9ccc-2950f68567df"},"vehicle_type_id":"4","last_reported":1746392917,"current_range_meters":22400,"station_id":"ce4bhqh2rcd13ifvqhmg","pricing_plan_id":"cebpf4jnsgd1na2vs0mg"},{"bike_id":"e4c0e2c1-3ec1-400b-b207-609f3d8889aa","system_id":"levelo_inurba_marseille","lat":43.23634,"lon":5.36597,"is_reserved":false,"is_disabled":false,"rental_uris":{"android":"levelo://app?vid=e4c0e2c1-3ec1-400b-b207-609f3d8889aa","ios":"levelo://app?vid=e4c0e2c1-3ec1-400b-b207-609f3d8889aa"},"vehicle_type_id":"4","last_reported":1746392917,"current_range_meters":22800,"station_id":"","pricing_plan_id":"cebpf4jnsgd1na2vs0mg"},{"bike_id":"b44cbc78-3810-410f-85e5-1b043b9f7abf","system_id":"levelo_inurba_marseille","lat":43.28416,"lon":5.37509,"is_reserved":false,"is_disabled":false,"rental_uris":{"android":"levelo://app?vid=b44cbc78-3810-410f-85e5-1b043b9f7abf","ios":"levelo://app?vid=b44cbc78-3810-410f-85e5-1b043b9f7abf"},"vehicle_type_id":"4","last_reported":1746392917,"current_range_meters":22800,"station_id":"ce4bh412rcd13ifvqds0","pricing_plan_id":"cebpf4jnsgd1na2vs0mg"},{"bike_id":"e2584ce3-2abc-49db-818f-ddb939ea4d71","system_id":"levelo_inurba_marseille","lat":43.28147,"lon":5.42637,"is_reserved":false,"is_disabled":false,"rental_uris":{"android":"levelo://app?vid=e2584ce3-2abc-49db-818f-ddb939ea4d71","ios":"levelo://app?vid=e2584ce3-2abc-49db-818f-ddb939ea4d71"},"vehicle_type_id":"4","last_reported":1746392917,"current_range_meters":22800,"station_id":"ce4bhnh2rcd13ifvqgug","pricing_plan_id":"cebpf4jnsgd1na2vs0mg"},{"bike_id":"48406110-a345-43b2-b145-b3298828c686","system_id":"levelo_inurba_marseille","lat":43.295339,"lon":5.422835,"is_reserved":false,"is_disabled":false,"rental_uris":{"android":"levelo://app?vid=48406110-a345-43b2-b145-b3298828c686","ios":"levelo://app?vid=48406110-a345-43b2-b145-b3298828c686"},"vehicle_type_id":"4","last_reported":1746392917,"current_range_meters":22800,"station_id":"ce4bhph2rcd13ifvqhdg","pricing_plan_id":"cebpf4jnsgd1na2vs0mg"},{"bike_id":"243b49a7-8924-4b7d-8d65-fa1ee8c16a75","system_id":"levelo_inurba_marseille","lat":43.29055,"lon":5.40528,"is_reserved":false,"is_disabled":false,"rental_uris":{"android":"levelo://app?vid=243b49a7-8924-4b7d-8d65-fa1ee8c16a75","ios":"levelo://app?vid=243b49a7-8924-4b7d-8d65-fa1ee8c16a75"},"vehicle_type_id":"4","last_reported":1746392917,"current_range_meters":23200,"station_id":"","pricing_plan_id":"cebpf4jnsgd1na2vs0mg"},{"bike_id":"8db6af33-c048-445f-97f1-3ec02533b1fa","system_id":"levelo_inurba_marseille","lat":43.29908,"lon":5.37483,"is_reserved":false,"is_disabled":false,"rental_uris":{"android":"levelo://app?vid=8db6af33-c048-445f-97f1-3ec02533b1fa","ios":"levelo://app?vid=8db6af33-c048-445f-97f1-3ec02533b1fa"},"vehicle_type_id":"4","last_reported":1746392917,"current_range_meters":23200,"station_id":"ce4bgjh2rcd13ifvqbg0","pricing_plan_id":"cebpf4jnsgd1na2vs0mg"},{"bike_id":"4b20c193-e56c-4ab2-9636-05e5dde4e4bc","system_id":"levelo_inurba_marseille","lat":43.24666,"lon":5.38148,"is_reserved":false,"is_disabled":false,"rental_uris":{"android":"levelo://app?vid=4b20c193-e56c-4ab2-9636-05e5dde4e4bc","ios":"levelo://app?vid=4b20c193-e56c-4ab2-9636-05e5dde4e4bc"},"vehicle_type_id":"4","last_reported":1746392917,"current_range_meters":23200,"station_id":"ce4bhih2rcd13ifvqfr0","pricing_plan_id":"cebpf4jnsgd1na2vs0mg"},{"bike_id":"faad0d22-da6f-46ff-bdce-0eb642da23b3","system_id":"levelo_inurba_marseille","lat":43.25711,"lon":5.41122,"is_reserved":false,"is_disabled":false,"rental_uris":{"android":"levelo://app?vid=faad0d22-da6f-46ff-bdce-0eb642da23b3","ios":"levelo://app?vid=faad0d22-da6f-46ff-bdce-0eb642da23b3"},"vehicle_type_id":"4","last_reported":1746392917,"current_range_meters":23200,"station_id":"ce4bhkp2rcd13ifvqgd0","pricing_plan_id":"cebpf4jnsgd1na2vs0mg"},{"bike_id":"c990b85a-0c11-4b40-a452-45a632160a0b","system_id":"levelo_inurba_marseille","lat":43.33022,"lon":5.39038,"is_reserved":false,"is_disabled":false,"rental_uris":{"android":"levelo://app?vid=c990b85a-0c11-4b40-a452-45a632160a0b","ios":"levelo://app?vid=c990b85a-0c11-4b40-a452-45a632160a0b"},"vehicle_type_id":"4","last_reported":1746392917,"current_range_meters":23200,"station_id":"ce4bhr92rcd13ifvqhrg","pricing_plan_id":"cebpf4jnsgd1na2vs0mg"},{"bike_id":"d4f6b9d7-a1e2-42ac-9fe1-75c7c9bda882","system_id":"levelo_inurba_marseille","lat":43.3211,"lon":5.36763,"is_reserved":false,"is_disabled":false,"rental_uris":{"android":"levelo://app?vid=d4f6b9d7-a1e2-42ac-9fe1-75c7c9bda882","ios":"levelo://app?vid=d4f6b9d7-a1e2-42ac-9fe1-75c7c9bda882"},"vehicle_type_id":"4","last_reported":1746392917,"current_range_meters":23200,"station_id":"ce4bhrh2rcd13ifvqhug","pricing_plan_id":"cebpf4jnsgd1na2vs0mg"},{"bike_id":"679eefb6-7262-4571-ab75-845bd2640fee","system_id":"levelo_inurba_marseille","lat":43.28848,"lon":5.39316,"is_reserved":false,"is_disabled":false,"rental_uris":{"android":"levelo://app?vid=679eefb6-7262-4571-ab75-845bd2640fee","ios":"levelo://app?vid=679eefb6-7262-4571-ab75-845bd2640fee"},"vehicle_type_id":"4","last_reported":1746392917,"current_range_meters":24000,"station_id":"ce4bh2p2rcd13ifvqdi0","pricing_plan_id":"cebpf4jnsgd1na2vs0mg"},{"bike_id":"8e30af91-24f7-47e6-a1ab-d023efed48a2","system_id":"levelo_inurba_marseille","lat":43.28698,"lon":5.37415,"is_reserved":false,"is_disabled":false,"rental_uris":{"android":"levelo://app?vid=8e30af91-24f7-47e6-a1ab-d023efed48a2","ios":"levelo://app?vid=8e30af91-24f7-47e6-a1ab-d023efed48a2"},"vehicle_type_id":"4","last_reported":1746392917,"current_range_meters":24000,"station_id":"ce4bh3p2rcd13ifvqdq0","pricing_plan_id":"cebpf4jnsgd1na2vs0mg"},{"bike_id":"ca733877-fb93-4b0f-86f5-4834f3b48999","system_id":"levelo_inurba_marseille","lat":43.28922,"lon":5.3839,"is_reserved":false,"is_disabled":false,"rental_uris":{"android":"levelo://app?vid=ca733877-fb93-4b0f-86f5-4834f3b48999","ios":"levelo://app?vid=ca733877-fb93-4b0f-86f5-4834f3b48999"},"vehicle_type_id":"4","last_reported":1746392917,"current_range_meters":24000,"station_id":"ce4bh612rcd13ifvqe6g","pricing_plan_id":"cebpf4jnsgd1na2vs0mg"},{"bike_id":"a7af80b7-ee16-4834-aa52-5a952e396de1","system_id":"levelo_inurba_marseille","lat":43.251071,"lon":5.403227,"is_reserved":false,"is_disabled":false,"rental_uris":{"android":"levelo://app?vid=a7af80b7-ee16-4834-aa52-5a952e396de1","ios":"levelo://app?vid=a7af80b7-ee16-4834-aa52-5a952e396de1"},"vehicle_type_id":"4","last_reported":1746392917,"current_range_meters":24000,"station_id":"ce4bhlh2rcd13ifvqgig","pricing_plan_id":"cebpf4jnsgd1na2vs0mg"},{"bike_id":"d81a05d5-5084-4696-ba60-390fdac5ecbd","system_id":"levelo_inurba_marseille","lat":43.281573,"lon":5.42647,"is_reserved":false,"is_disabled":false,"rental_uris":{"android":"levelo://app?vid=d81a05d5-5084-4696-ba60-390fdac5ecbd","ios":"levelo://app?vid=d81a05d5-5084-4696-ba60-390fdac5ecbd"},"vehicle_type_id":"4","last_reported":1746392917,"current_range_meters":24000,"station_id":"ce4bhnh2rcd13ifvqgug","pricing_plan_id":"cebpf4jnsgd1na2vs0mg"},{"bike_id":"6da6273f-ed15-4143-92fd-9d1568116870","system_id":"levelo_inurba_marseille","lat":43.28,"lon":5.40012,"is_reserved":false,"is_disabled":false,"rental_uris":{"android":"levelo://app?vid=6da6273f-ed15-4143-92fd-9d1568116870","ios":"levelo://app?vid=6da6273f-ed15-4143-92fd-9d1568116870"},"vehicle_type_id":"4","last_reported":1746392917,"current_range_meters":24000,"station_id":"ce4bho92rcd13ifvqh4g","pricing_plan_id":"cebpf4jnsgd1na2vs0mg"},{"bike_id":"788046ab-4020-4c6e-a0e2-de3aee25f874","system_id":"levelo_inurba_marseille","lat":43.21214,"lon":5.35073,"is_reserved":false,"is_disabled":false,"rental_uris":{"android":"levelo://app?vid=788046ab-4020-4c6e-a0e2-de3aee25f874","ios":"levelo://app?vid=788046ab-4020-4c6e-a0e2-de3aee25f874"},"vehicle_type_id":"4","last_reported":1746392917,"current_range_meters":24000,"station_id":"st_cvj6sg6p6f1abm77japg","pricing_plan_id":"cebpf4jnsgd1na2vs0mg"},{"bike_id":"b92243f4-c85b-49e6-94c6-e8d2563e6104","system_id":"levelo_inurba_marseille","lat":43.298688,"lon":5.397471,"is_reserved":false,"is_disabled":false,"rental_uris":{"android":"levelo://app?vid=b92243f4-c85b-49e6-94c6-e8d2563e6104","ios":"levelo://app?vid=b92243f4-c85b-49e6-94c6-e8d2563e6104"},"vehicle_type_id":"4","last_reported":1746392917,"current_range_meters":24400,"station_id":"ce4bh0h2rcd13ifvqd50","pricing_plan_id":"cebpf4jnsgd1na2vs0mg"},{"bike_id":"24b5a3fc-5a36-418d-a927-13628250e23d","system_id":"levelo_inurba_marseille","lat":43.28406,"lon":5.37487,"is_reserved":false,"is_disabled":false,"rental_uris":{"android":"levelo://app?vid=24b5a3fc-5a36-418d-a927-13628250e23d","ios":"levelo://app?vid=24b5a3fc-5a36-418d-a927-13628250e23d"},"vehicle_type_id":"4","last_reported":1746392917,"current_range_meters":24400,"station_id":"ce4bh412rcd13ifvqds0","pricing_plan_id":"cebpf4jnsgd1na2vs0mg"},{"bike_id":"54b79687-5de6-4817-86f6-d1516225e932","system_id":"levelo_inurba_marseille","lat":43.28039,"lon":5.36946,"is_reserved":false,"is_disabled":false,"rental_uris":{"android":"levelo://app?vid=54b79687-5de6-4817-86f6-d1516225e932","ios":"levelo://app?vid=54b79687-5de6-4817-86f6-d1516225e932"},"vehicle_type_id":"4","last_reported":1746392917,"current_range_meters":24400,"station_id":"ce4bha12rcd13ifvqef0","pricing_plan_id":"cebpf4jnsgd1na2vs0mg"},{"bike_id":"6e7bfab6-96a9-44fd-a07e-def317f61fd3","system_id":"levelo_inurba_marseille","lat":43.27492,"lon":5.42453,"is_reserved":false,"is_disabled":false,"rental_uris":{"android":"levelo://app?vid=6e7bfab6-96a9-44fd-a07e-def317f61fd3","ios":"levelo://app?vid=6e7bfab6-96a9-44fd-a07e-def317f61fd3"},"vehicle_type_id":"4","last_reported":1746392917,"current_range_meters":24400,"station_id":"ce4bhn92rcd13ifvqgrg","pricing_plan_id":"cebpf4jnsgd1na2vs0mg"},{"bike_id":"cde0fa0e-c4c6-4bc4-a852-f4c917846b32","system_id":"levelo_inurba_marseille","lat":43.2307,"lon":5.35492,"is_reserved":false,"is_disabled":false,"rental_uris":{"android":"levelo://app?vid=cde0fa0e-c4c6-4bc4-a852-f4c917846b32","ios":"levelo://app?vid=cde0fa0e-c4c6-4bc4-a852-f4c917846b32"},"vehicle_type_id":"4","last_reported":1746392917,"current_range_meters":24400,"station_id":"cpo3342slgdg3j2ifvpg","pricing_plan_id":"cebpf4jnsgd1na2vs0mg"},{"bike_id":"6196fcf0-a902-4fba-87f7-efd34c1c86b2","system_id":"levelo_inurba_marseille","lat":43.311178,"lon":5.377674,"is_reserved":false,"is_disabled":false,"rental_uris":{"android":"levelo://app?vid=6196fcf0-a902-4fba-87f7-efd34c1c86b2","ios":"levelo://app?vid=6196fcf0-a902-4fba-87f7-efd34c1c86b2"},"vehicle_type_id":"4","last_reported":1746392917,"current_range_meters":24800,"station_id":"ce4bgt92rcd13ifvqcg0","pricing_plan_id":"cebpf4jnsgd1na2vs0mg"},{"bike_id":"e027643a-8302-46ca-9f45-b648f67d63bd","system_id":"levelo_inurba_marseille","lat":43.29275,"lon":5.36844,"is_reserved":false,"is_disabled":false,"rental_uris":{"android":"levelo://app?vid=e027643a-8302-46ca-9f45-b648f67d63bd","ios":"levelo://app?vid=e027643a-8302-46ca-9f45-b648f67d63bd"},"vehicle_type_id":"4","last_reported":1746392917,"current_range_meters":24800,"station_id":"ce4bhbp2rcd13ifvqesg","pricing_plan_id":"cebpf4jnsgd1na2vs0mg"},{"bike_id":"a50a4a67-05bb-4583-976f-db292240aa19","system_id":"levelo_inurba_marseille","lat":43.28612,"lon":5.35106,"is_reserved":false,"is_disabled":false,"rental_uris":{"android":"levelo://app?vid=a50a4a67-05bb-4583-976f-db292240aa19","ios":"levelo://app?vid=a50a4a67-05bb-4583-976f-db292240aa19"},"vehicle_type_id":"4","last_reported":1746392917,"current_range_meters":24800,"station_id":"ce4bhch2rcd13ifvqeug","pricing_plan_id":"cebpf4jnsgd1na2vs0mg"},{"bike_id":"15f5b4a4-5450-4c88-bc42-7c6d79fccc70","system_id":"levelo_inurba_marseille","lat":43.27919,"lon":5.39577,"is_reserved":false,"is_disabled":false,"rental_uris":{"android":"levelo://app?vid=15f5b4a4-5450-4c88-bc42-7c6d79fccc70","ios":"levelo://app?vid=15f5b4a4-5450-4c88-bc42-7c6d79fccc70"},"vehicle_type_id":"4","last_reported":1746392917,"current_range_meters":24800,"station_id":"ce4bhf92rcd13ifvqf40","pricing_plan_id":"cebpf4jnsgd1na2vs0mg"},{"bike_id":"a50010f5-5697-410d-b819-2a07956aac4a","system_id":"levelo_inurba_marseille","lat":43.24407,"lon":5.37067,"is_reserved":false,"is_disabled":false,"rental_uris":{"android":"levelo://app?vid=a50010f5-5697-410d-b819-2a07956aac4a","ios":"levelo://app?vid=a50010f5-5697-410d-b819-2a07956aac4a"},"vehicle_type_id":"4","last_reported":1746392917,"current_range_meters":24800,"station_id":"ce4bhhh2rcd13ifvqfk0","pricing_plan_id":"cebpf4jnsgd1na2vs0mg"},{"bike_id":"484e30fa-005c-450e-898d-f32682d7f1bf","system_id":"levelo_inurba_marseille","lat":43.27531,"lon":5.4243,"is_reserved":false,"is_disabled":false,"rental_uris":{"android":"levelo://app?vid=484e30fa-005c-450e-898d-f32682d7f1bf","ios":"levelo://app?vid=484e30fa-005c-450e-898d-f32682d7f1bf"},"vehicle_type_id":"4","last_reported":1746392917,"current_range_meters":24800,"station_id":"ce4bhn92rcd13ifvqgrg","pricing_plan_id":"cebpf4jnsgd1na2vs0mg"},{"bike_id":"9ced7d40-bb66-4eb0-b94c-fff072cd844f","system_id":"levelo_inurba_marseille","lat":43.33532,"lon":5.39759,"is_reserved":false,"is_disabled":false,"rental_uris":{"android":"levelo://app?vid=9ced7d40-bb66-4eb0-b94c-fff072cd844f","ios":"levelo://app?vid=9ced7d40-bb66-4eb0-b94c-fff072cd844f"},"vehicle_type_id":"4","last_reported":1746392917,"current_range_meters":25200,"station_id":"","pricing_plan_id":"cebpf4jnsgd1na2vs0mg"},{"bike_id":"d3a852b4-655d-4d40-9d50-42e796c56f96","system_id":"levelo_inurba_marseille","lat":43.32359,"lon":5.36747,"is_reserved":false,"is_disabled":false,"rental_uris":{"android":"levelo://app?vid=d3a852b4-655d-4d40-9d50-42e796c56f96","ios":"levelo://app?vid=d3a852b4-655d-4d40-9d50-42e796c56f96"},"vehicle_type_id":"4","last_reported":1746392917,"current_range_meters":25200,"station_id":"ce4bhsh2rcd13ifvqi2g","pricing_plan_id":"cebpf4jnsgd1na2vs0mg"},{"bike_id":"63823126-a26d-4c93-8b5a-bec0bbb254ed","system_id":"levelo_inurba_marseille","lat":43.26933,"lon":5.38916,"is_reserved":false,"is_disabled":false,"rental_uris":{"android":"levelo://app?vid=63823126-a26d-4c93-8b5a-bec0bbb254ed","ios":"levelo://app?vid=63823126-a26d-4c93-8b5a-bec0bbb254ed"},"vehicle_type_id":"4","last_reported":1746392917,"current_range_meters":25600,"station_id":"ce4bhhh2rcd13ifvqfl0","pricing_plan_id":"cebpf4jnsgd1na2vs0mg"},{"bike_id":"2aed8b76-a3c7-4fd8-8f7b-676f955ad685","system_id":"levelo_inurba_marseille","lat":43.30244,"lon":5.40051,"is_reserved":false,"is_disabled":false,"rental_uris":{"android":"levelo://app?vid=2aed8b76-a3c7-4fd8-8f7b-676f955ad685","ios":"levelo://app?vid=2aed8b76-a3c7-4fd8-8f7b-676f955ad685"},"vehicle_type_id":"4","last_reported":1746392917,"current_range_meters":26000,"station_id":"ce4bgvh2rcd13ifvqcs0","pricing_plan_id":"cebpf4jnsgd1na2vs0mg"},{"bike_id":"78f8bc1b-2eb0-4644-9381-ca03397abd63","system_id":"levelo_inurba_marseille","lat":43.25945,"lon":5.40953,"is_reserved":false,"is_disabled":false,"rental_uris":{"android":"levelo://app?vid=78f8bc1b-2eb0-4644-9381-ca03397abd63","ios":"levelo://app?vid=78f8bc1b-2eb0-4644-9381-ca03397abd63"},"vehicle_type_id":"4","last_reported":1746392917,"current_range_meters":26000,"station_id":"ce4bhm92rcd13ifvqglg","pricing_plan_id":"cebpf4jnsgd1na2vs0mg"},{"bike_id":"638d16bc-c6e8-422e-8907-cb54e849c916","system_id":"levelo_inurba_marseille","lat":43.229242,"lon":5.353819,"is_reserved":false,"is_disabled":false,"rental_uris":{"android":"levelo://app?vid=638d16bc-c6e8-422e-8907-cb54e849c916","ios":"levelo://app?vid=638d16bc-c6e8-422e-8907-cb54e849c916"},"vehicle_type_id":"4","last_reported":1746392917,"current_range_meters":26000,"station_id":"cpo3532slgdg3j2ikp40","pricing_plan_id":"cebpf4jnsgd1na2vs0mg"},{"bike_id":"0cc228c5-dbf0-4858-9512-59a3e6467e33","system_id":"levelo_inurba_marseille","lat":43.29008,"lon":5.35609,"is_reserved":false,"is_disabled":false,"rental_uris":{"android":"levelo://app?vid=0cc228c5-dbf0-4858-9512-59a3e6467e33","ios":"levelo://app?vid=0cc228c5-dbf0-4858-9512-59a3e6467e33"},"vehicle_type_id":"4","last_reported":1746392917,"current_range_meters":26800,"station_id":"ce4bhb92rcd13ifvqen0","pricing_plan_id":"cebpf4jnsgd1na2vs0mg"},{"bike_id":"7e58533c-6e99-49b2-aa19-279baf411c23","system_id":"levelo_inurba_marseille","lat":43.26225,"lon":5.40449,"is_reserved":false,"is_disabled":false,"rental_uris":{"android":"levelo://app?vid=7e58533c-6e99-49b2-aa19-279baf411c23","ios":"levelo://app?vid=7e58533c-6e99-49b2-aa19-279baf411c23"},"vehicle_type_id":"4","last_reported":1746392917,"current_range_meters":26800,"station_id":"ce4bhmh2rcd13ifvqgmg","pricing_plan_id":"cebpf4jnsgd1na2vs0mg"},{"bike_id":"aff7f353-1d59-47ca-961c-89eac1a9e879","system_id":"levelo_inurba_marseille","lat":43.2481,"lon":5.37459,"is_reserved":false,"is_disabled":false,"rental_uris":{"android":"levelo://app?vid=aff7f353-1d59-47ca-961c-89eac1a9e879","ios":"levelo://app?vid=aff7f353-1d59-47ca-961c-89eac1a9e879"},"vehicle_type_id":"4","last_reported":1746392917,"current_range_meters":27200,"station_id":"ce4bhgh2rcd13ifvqfb0","pricing_plan_id":"cebpf4jnsgd1na2vs0mg"},{"bike_id":"92f78ba2-c8d8-488a-9053-425f4217a9a3","system_id":"levelo_inurba_marseille","lat":43.29563,"lon":5.42283,"is_reserved":false,"is_disabled":false,"rental_uris":{"android":"levelo://app?vid=92f78ba2-c8d8-488a-9053-425f4217a9a3","ios":"levelo://app?vid=92f78ba2-c8d8-488a-9053-425f4217a9a3"},"vehicle_type_id":"4","last_reported":1746392917,"current_range_meters":27200,"station_id":"ce4bhph2rcd13ifvqhdg","pricing_plan_id":"cebpf4jnsgd1na2vs0mg"},{"bike_id":"ee5ad966-a73f-42cf-9c54-205676d83b0e","system_id":"levelo_inurba_marseille","lat":43.32363,"lon":5.38882,"is_reserved":false,"is_disabled":false,"rental_uris":{"android":"levelo://app?vid=ee5ad966-a73f-42cf-9c54-205676d83b0e","ios":"levelo://app?vid=ee5ad966-a73f-42cf-9c54-205676d83b0e"},"vehicle_type_id":"4","last_reported":1746392917,"current_range_meters":27200,"station_id":"ce4bhqp2rcd13ifvqhog","pricing_plan_id":"cebpf4jnsgd1na2vs0mg"},{"bike_id":"3a63acc5-b352-4e5e-8ce6-37badecb6507","system_id":"levelo_inurba_marseille","lat":43.29523,"lon":5.4185,"is_reserved":false,"is_disabled":false,"rental_uris":{"android":"levelo://app?vid=3a63acc5-b352-4e5e-8ce6-37badecb6507","ios":"levelo://app?vid=3a63acc5-b352-4e5e-8ce6-37badecb6507"},"vehicle_type_id":"4","last_reported":1746392917,"current_range_meters":27600,"station_id":"","pricing_plan_id":"cebpf4jnsgd1na2vs0mg"},{"bike_id":"90dcb8cb-8c67-4289-87e8-d33cd070827f","system_id":"levelo_inurba_marseille","lat":43.27832,"lon":5.41844,"is_reserved":false,"is_disabled":false,"rental_uris":{"android":"levelo://app?vid=90dcb8cb-8c67-4289-87e8-d33cd070827f","ios":"levelo://app?vid=90dcb8cb-8c67-4289-87e8-d33cd070827f"},"vehicle_type_id":"4","last_reported":1746392917,"current_range_meters":27600,"station_id":"","pricing_plan_id":"cebpf4jnsgd1na2vs0mg"},{"bike_id":"b78ca32a-8d97-46c7-95b8-e5399ad356a6","system_id":"levelo_inurba_marseille","lat":43.258092,"lon":5.394428,"is_reserved":false,"is_disabled":false,"rental_uris":{"android":"levelo://app?vid=b78ca32a-8d97-46c7-95b8-e5399ad356a6","ios":"levelo://app?vid=b78ca32a-8d97-46c7-95b8-e5399ad356a6"},"vehicle_type_id":"4","last_reported":1746392917,"current_range_meters":27600,"station_id":"ce4bhip2rcd13ifvqft0","pricing_plan_id":"cebpf4jnsgd1na2vs0mg"},{"bike_id":"82b48ae8-6591-44c0-b17f-2e42a828b2ab","system_id":"levelo_inurba_marseille","lat":43.27067,"lon":5.42296,"is_reserved":false,"is_disabled":false,"rental_uris":{"android":"levelo://app?vid=82b48ae8-6591-44c0-b17f-2e42a828b2ab","ios":"levelo://app?vid=82b48ae8-6591-44c0-b17f-2e42a828b2ab"},"vehicle_type_id":"4","last_reported":1746392917,"current_range_meters":27600,"station_id":"ce4bhk92rcd13ifvqgb0","pricing_plan_id":"cebpf4jnsgd1na2vs0mg"},{"bike_id":"38214a63-ce33-4893-9845-0c7338a97e1e","system_id":"levelo_inurba_marseille","lat":43.32291,"lon":5.38299,"is_reserved":false,"is_disabled":false,"rental_uris":{"android":"levelo://app?vid=38214a63-ce33-4893-9845-0c7338a97e1e","ios":"levelo://app?vid=38214a63-ce33-4893-9845-0c7338a97e1e"},"vehicle_type_id":"4","last_reported":1746392917,"current_range_meters":27600,"station_id":"ce4bhr12rcd13ifvqhqg","pricing_plan_id":"cebpf4jnsgd1na2vs0mg"},{"bike_id":"ded42051-0039-4cc2-a841-aeed54376989","system_id":"levelo_inurba_marseille","lat":43.265125,"lon":5.424519,"is_reserved":false,"is_disabled":false,"rental_uris":{"android":"levelo://app?vid=ded42051-0039-4cc2-a841-aeed54376989","ios":"levelo://app?vid=ded42051-0039-4cc2-a841-aeed54376989"},"vehicle_type_id":"4","last_reported":1746392917,"current_range_meters":28000,"station_id":"","pricing_plan_id":"cebpf4jnsgd1na2vs0mg"},{"bike_id":"1bcedd05-90fb-4c2c-b71e-896ea9a48d5f","system_id":"levelo_inurba_marseille","lat":43.29399,"lon":5.43348,"is_reserved":false,"is_disabled":false,"rental_uris":{"android":"levelo://app?vid=1bcedd05-90fb-4c2c-b71e-896ea9a48d5f","ios":"levelo://app?vid=1bcedd05-90fb-4c2c-b71e-896ea9a48d5f"},"vehicle_type_id":"4","last_reported":1746392917,"current_range_meters":28000,"station_id":"","pricing_plan_id":"cebpf4jnsgd1na2vs0mg"},{"bike_id":"5d02be9b-19c3-4361-80e9-b1638646d396","system_id":"levelo_inurba_marseille","lat":43.30597,"lon":5.39359,"is_reserved":false,"is_disabled":false,"rental_uris":{"android":"levelo://app?vid=5d02be9b-19c3-4361-80e9-b1638646d396","ios":"levelo://app?vid=5d02be9b-19c3-4361-80e9-b1638646d396"},"vehicle_type_id":"4","last_reported":1746392917,"current_range_meters":28000,"station_id":"ce4bh0p2rcd13ifvqd80","pricing_plan_id":"cebpf4jnsgd1na2vs0mg"},{"bike_id":"88d088bd-cc4b-4d60-8404-5bc3ecc3d02b","system_id":"levelo_inurba_marseille","lat":43.290425,"lon":5.39976,"is_reserved":false,"is_disabled":false,"rental_uris":{"android":"levelo://app?vid=88d088bd-cc4b-4d60-8404-5bc3ecc3d02b","ios":"levelo://app?vid=88d088bd-cc4b-4d60-8404-5bc3ecc3d02b"},"vehicle_type_id":"4","last_reported":1746392917,"current_range_meters":28000,"station_id":"ce4bh392rcd13ifvqdm0","pricing_plan_id":"cebpf4jnsgd1na2vs0mg"},{"bike_id":"3f7d39f4-9a63-4744-bd7a-aa4c505b6554","system_id":"levelo_inurba_marseille","lat":43.28398,"lon":5.37513,"is_reserved":false,"is_disabled":false,"rental_uris":{"android":"levelo://app?vid=3f7d39f4-9a63-4744-bd7a-aa4c505b6554","ios":"levelo://app?vid=3f7d39f4-9a63-4744-bd7a-aa4c505b6554"},"vehicle_type_id":"4","last_reported":1746392917,"current_range_meters":28000,"station_id":"ce4bh412rcd13ifvqds0","pricing_plan_id":"cebpf4jnsgd1na2vs0mg"},{"bike_id":"f47d0254-f25d-454e-accf-27f925ab57e9","system_id":"levelo_inurba_marseille","lat":43.27674,"lon":5.38892,"is_reserved":false,"is_disabled":false,"rental_uris":{"android":"levelo://app?vid=f47d0254-f25d-454e-accf-27f925ab57e9","ios":"levelo://app?vid=f47d0254-f25d-454e-accf-27f925ab57e9"},"vehicle_type_id":"4","last_reported":1746392917,"current_range_meters":28000,"station_id":"ce4bhi12rcd13ifvqfo0","pricing_plan_id":"cebpf4jnsgd1na2vs0mg"},{"bike_id":"0aa5b90f-550a-4efd-9bbc-22b1b2133141","system_id":"levelo_inurba_marseille","lat":43.27107,"lon":5.42247,"is_reserved":false,"is_disabled":false,"rental_uris":{"android":"levelo://app?vid=0aa5b90f-550a-4efd-9bbc-22b1b2133141","ios":"levelo://app?vid=0aa5b90f-550a-4efd-9bbc-22b1b2133141"},"vehicle_type_id":"4","last_reported":1746392917,"current_range_meters":28000,"station_id":"ce4bhk92rcd13ifvqgb0","pricing_plan_id":"cebpf4jnsgd1na2vs0mg"},{"bike_id":"977f4bb4-3d44-493d-b5a1-22093907125a","system_id":"levelo_inurba_marseille","lat":43.27068,"lon":5.42275,"is_reserved":false,"is_disabled":false,"rental_uris":{"android":"levelo://app?vid=977f4bb4-3d44-493d-b5a1-22093907125a","ios":"levelo://app?vid=977f4bb4-3d44-493d-b5a1-22093907125a"},"vehicle_type_id":"4","last_reported":1746392917,"current_range_meters":28000,"station_id":"ce4bhk92rcd13ifvqgb0","pricing_plan_id":"cebpf4jnsgd1na2vs0mg"},{"bike_id":"f9bfae8a-1012-46dd-9b76-5e8a3e687dde","system_id":"levelo_inurba_marseille","lat":43.245453,"lon":5.395213,"is_reserved":false,"is_disabled":false,"rental_uris":{"android":"levelo://app?vid=f9bfae8a-1012-46dd-9b76-5e8a3e687dde","ios":"levelo://app?vid=f9bfae8a-1012-46dd-9b76-5e8a3e687dde"},"vehicle_type_id":"4","last_reported":1746392917,"current_range_meters":28000,"station_id":"ce4bhlp2rcd13ifvqgjg","pricing_plan_id":"cebpf4jnsgd1na2vs0mg"},{"bike_id":"f8b0b83e-3275-4842-8279-54953a201dd7","system_id":"levelo_inurba_marseille","lat":43.26229,"lon":5.40452,"is_reserved":false,"is_disabled":false,"rental_uris":{"android":"levelo://app?vid=f8b0b83e-3275-4842-8279-54953a201dd7","ios":"levelo://app?vid=f8b0b83e-3275-4842-8279-54953a201dd7"},"vehicle_type_id":"4","last_reported":1746392917,"current_range_meters":28000,"station_id":"ce4bhmh2rcd13ifvqgmg","pricing_plan_id":"cebpf4jnsgd1na2vs0mg"},{"bike_id":"9d9a157b-58a1-4298-a5a8-917957c7ddfe","system_id":"levelo_inurba_marseille","lat":43.32329,"lon":5.40636,"is_reserved":false,"is_disabled":false,"rental_uris":{"android":"levelo://app?vid=9d9a157b-58a1-4298-a5a8-917957c7ddfe","ios":"levelo://app?vid=9d9a157b-58a1-4298-a5a8-917957c7ddfe"},"vehicle_type_id":"4","last_reported":1746392917,"current_range_meters":28000,"station_id":"ce4bhq92rcd13ifvqhjg","pricing_plan_id":"cebpf4jnsgd1na2vs0mg"},{"bike_id":"0fcf575b-fef3-4c9d-a132-31fcfd35ca83","system_id":"levelo_inurba_marseille","lat":43.31268,"lon":5.40169,"is_reserved":false,"is_disabled":false,"rental_uris":{"android":"levelo://app?vid=0fcf575b-fef3-4c9d-a132-31fcfd35ca83","ios":"levelo://app?vid=0fcf575b-fef3-4c9d-a132-31fcfd35ca83"},"vehicle_type_id":"4","last_reported":1746392917,"current_range_meters":28400,"station_id":"ce4bh092rcd13ifvqd30","pricing_plan_id":"cebpf4jnsgd1na2vs0mg"},{"bike_id":"0ad7d0a1-5a9d-4e0c-88bb-12590dcc7c7a","system_id":"levelo_inurba_marseille","lat":43.28359,"lon":5.38094,"is_reserved":false,"is_disabled":false,"rental_uris":{"android":"levelo://app?vid=0ad7d0a1-5a9d-4e0c-88bb-12590dcc7c7a","ios":"levelo://app?vid=0ad7d0a1-5a9d-4e0c-88bb-12590dcc7c7a"},"vehicle_type_id":"4","last_reported":1746392917,"current_range_meters":28400,"station_id":"ce4bh412rcd13ifvqdr0","pricing_plan_id":"cebpf4jnsgd1na2vs0mg"},{"bike_id":"1012c63f-ebc6-4c00-af36-f46523df0831","system_id":"levelo_inurba_marseille","lat":43.27833,"lon":5.39205,"is_reserved":false,"is_disabled":false,"rental_uris":{"android":"levelo://app?vid=1012c63f-ebc6-4c00-af36-f46523df0831","ios":"levelo://app?vid=1012c63f-ebc6-4c00-af36-f46523df0831"},"vehicle_type_id":"4","last_reported":1746392917,"current_range_meters":28400,"station_id":"ce4bhjp2rcd13ifvqga0","pricing_plan_id":"cebpf4jnsgd1na2vs0mg"},{"bike_id":"3cf90fdc-4134-4300-840d-06fac8bdb9d9","system_id":"levelo_inurba_marseille","lat":43.2771,"lon":5.388246,"is_reserved":false,"is_disabled":false,"rental_uris":{"android":"levelo://app?vid=3cf90fdc-4134-4300-840d-06fac8bdb9d9","ios":"levelo://app?vid=3cf90fdc-4134-4300-840d-06fac8bdb9d9"},"vehicle_type_id":"4","last_reported":1746392917,"current_range_meters":28800,"station_id":"","pricing_plan_id":"cebpf4jnsgd1na2vs0mg"},{"bike_id":"67bd7648-4c66-4bcb-88b7-f51e82080dea","system_id":"levelo_inurba_marseille","lat":43.28475,"lon":5.3841,"is_reserved":false,"is_disabled":false,"rental_uris":{"android":"levelo://app?vid=67bd7648-4c66-4bcb-88b7-f51e82080dea","ios":"levelo://app?vid=67bd7648-4c66-4bcb-88b7-f51e82080dea"},"vehicle_type_id":"4","last_reported":1746392917,"current_range_meters":28800,"station_id":"ce4bh512rcd13ifvqe3g","pricing_plan_id":"cebpf4jnsgd1na2vs0mg"},{"bike_id":"0d3ba053-9c7a-4c0a-9ab6-975c98bb3ba4","system_id":"levelo_inurba_marseille","lat":43.25093,"lon":5.395,"is_reserved":false,"is_disabled":false,"rental_uris":{"android":"levelo://app?vid=0d3ba053-9c7a-4c0a-9ab6-975c98bb3ba4","ios":"levelo://app?vid=0d3ba053-9c7a-4c0a-9ab6-975c98bb3ba4"},"vehicle_type_id":"4","last_reported":1746392917,"current_range_meters":28800,"station_id":"ce4bhm12rcd13ifvqgkg","pricing_plan_id":"cebpf4jnsgd1na2vs0mg"},{"bike_id":"79b06513-1be3-43fd-a1aa-b7c7c6c1c8db","system_id":"levelo_inurba_marseille","lat":43.30822,"lon":5.435275,"is_reserved":false,"is_disabled":false,"rental_uris":{"android":"levelo://app?vid=79b06513-1be3-43fd-a1aa-b7c7c6c1c8db","ios":"levelo://app?vid=79b06513-1be3-43fd-a1aa-b7c7c6c1c8db"},"vehicle_type_id":"4","last_reported":1746392917,"current_range_meters":28800,"station_id":"ce4bhph2rcd13ifvqheg","pricing_plan_id":"cebpf4jnsgd1na2vs0mg"},{"bike_id":"6f10c397-2fb9-4802-915f-b2f2dce9e14a","system_id":"levelo_inurba_marseille","lat":43.23066,"lon":5.35486,"is_reserved":false,"is_disabled":false,"rental_uris":{"android":"levelo://app?vid=6f10c397-2fb9-4802-915f-b2f2dce9e14a","ios":"levelo://app?vid=6f10c397-2fb9-4802-915f-b2f2dce9e14a"},"vehicle_type_id":"4","last_reported":1746392917,"current_range_meters":28800,"station_id":"cpo3342slgdg3j2ifvpg","pricing_plan_id":"cebpf4jnsgd1na2vs0mg"},{"bike_id":"89a87ac7-bc3b-476b-9481-69c3b8e589cc","system_id":"levelo_inurba_marseille","lat":43.28505,"lon":5.37077,"is_reserved":false,"is_disabled":false,"rental_uris":{"android":"levelo://app?vid=89a87ac7-bc3b-476b-9481-69c3b8e589cc","ios":"levelo://app?vid=89a87ac7-bc3b-476b-9481-69c3b8e589cc"},"vehicle_type_id":"4","last_reported":1746392917,"current_range_meters":29600,"station_id":"","pricing_plan_id":"cebpf4jnsgd1na2vs0mg"},{"bike_id":"45848cce-a2e5-47bf-b11f-ae69f79a743b","system_id":"levelo_inurba_marseille","lat":43.28336,"lon":5.35135,"is_reserved":false,"is_disabled":false,"rental_uris":{"android":"levelo://app?vid=45848cce-a2e5-47bf-b11f-ae69f79a743b","ios":"levelo://app?vid=45848cce-a2e5-47bf-b11f-ae69f79a743b"},"vehicle_type_id":"4","last_reported":1746392917,"current_range_meters":29600,"station_id":"ce4bhbp2rcd13ifvqerg","pricing_plan_id":"cebpf4jnsgd1na2vs0mg"},{"bike_id":"c5f22f3e-90d0-4715-a01c-fc03f969f0e3","system_id":"levelo_inurba_marseille","lat":43.23149,"lon":5.43723,"is_reserved":false,"is_disabled":false,"rental_uris":{"android":"levelo://app?vid=c5f22f3e-90d0-4715-a01c-fc03f969f0e3","ios":"levelo://app?vid=c5f22f3e-90d0-4715-a01c-fc03f969f0e3"},"vehicle_type_id":"4","last_reported":1746392917,"current_range_meters":29600,"station_id":"ce4bhmp2rcd13ifvqgog","pricing_plan_id":"cebpf4jnsgd1na2vs0mg"},{"bike_id":"a5e1891a-c555-402f-bcab-d5c3234447e8","system_id":"levelo_inurba_marseille","lat":43.28155,"lon":5.42642,"is_reserved":false,"is_disabled":false,"rental_uris":{"android":"levelo://app?vid=a5e1891a-c555-402f-bcab-d5c3234447e8","ios":"levelo://app?vid=a5e1891a-c555-402f-bcab-d5c3234447e8"},"vehicle_type_id":"4","last_reported":1746392917,"current_range_meters":29600,"station_id":"ce4bhnh2rcd13ifvqgug","pricing_plan_id":"cebpf4jnsgd1na2vs0mg"},{"bike_id":"c4202619-f587-4cea-9caf-4972decee2c9","system_id":"levelo_inurba_marseille","lat":43.29598,"lon":5.38104,"is_reserved":false,"is_disabled":false,"rental_uris":{"android":"levelo://app?vid=c4202619-f587-4cea-9caf-4972decee2c9","ios":"levelo://app?vid=c4202619-f587-4cea-9caf-4972decee2c9"},"vehicle_type_id":"4","last_reported":1746392917,"current_range_meters":30000,"station_id":"ce4bgl12rcd13ifvqbo0","pricing_plan_id":"cebpf4jnsgd1na2vs0mg"},{"bike_id":"1cdd413c-3e3d-43ba-bfe4-d5d62a73d7b4","system_id":"levelo_inurba_marseille","lat":43.30133,"lon":5.39842,"is_reserved":false,"is_disabled":false,"rental_uris":{"android":"levelo://app?vid=1cdd413c-3e3d-43ba-bfe4-d5d62a73d7b4","ios":"levelo://app?vid=1cdd413c-3e3d-43ba-bfe4-d5d62a73d7b4"},"vehicle_type_id":"4","last_reported":1746392917,"current_range_meters":30000,"station_id":"ce4bh0h2rcd13ifvqd40","pricing_plan_id":"cebpf4jnsgd1na2vs0mg"},{"bike_id":"0fd66003-5e86-4aac-bedf-6522b816c71f","system_id":"levelo_inurba_marseille","lat":43.26241,"lon":5.40433,"is_reserved":false,"is_disabled":false,"rental_uris":{"android":"levelo://app?vid=0fd66003-5e86-4aac-bedf-6522b816c71f","ios":"levelo://app?vid=0fd66003-5e86-4aac-bedf-6522b816c71f"},"vehicle_type_id":"4","last_reported":1746392917,"current_range_meters":30000,"station_id":"ce4bhmh2rcd13ifvqgmg","pricing_plan_id":"cebpf4jnsgd1na2vs0mg"},{"bike_id":"2d86816c-79e5-4ae1-96e4-025782f2700a","system_id":"levelo_inurba_marseille","lat":43.27515,"lon":5.4246,"is_reserved":false,"is_disabled":false,"rental_uris":{"android":"levelo://app?vid=2d86816c-79e5-4ae1-96e4-025782f2700a","ios":"levelo://app?vid=2d86816c-79e5-4ae1-96e4-025782f2700a"},"vehicle_type_id":"4","last_reported":1746392917,"current_range_meters":30000,"station_id":"ce4bhn92rcd13ifvqgrg","pricing_plan_id":"cebpf4jnsgd1na2vs0mg"},{"bike_id":"314f0f23-b455-4388-a1c0-34afb13b4fa1","system_id":"levelo_inurba_marseille","lat":43.23054,"lon":5.35495,"is_reserved":false,"is_disabled":false,"rental_uris":{"android":"levelo://app?vid=314f0f23-b455-4388-a1c0-34afb13b4fa1","ios":"levelo://app?vid=314f0f23-b455-4388-a1c0-34afb13b4fa1"},"vehicle_type_id":"4","last_reported":1746392917,"current_range_meters":30000,"station_id":"cpo3342slgdg3j2ifvpg","pricing_plan_id":"cebpf4jnsgd1na2vs0mg"},{"bike_id":"b5f5085e-bf00-48c1-bc4a-cdc9bdafda9e","system_id":"levelo_inurba_marseille","lat":43.30297,"lon":5.39215,"is_reserved":false,"is_disabled":false,"rental_uris":{"android":"levelo://app?vid=b5f5085e-bf00-48c1-bc4a-cdc9bdafda9e","ios":"levelo://app?vid=b5f5085e-bf00-48c1-bc4a-cdc9bdafda9e"},"vehicle_type_id":"4","last_reported":1746392917,"current_range_meters":30400,"station_id":"ce4bgkh2rcd13ifvqbk0","pricing_plan_id":"cebpf4jnsgd1na2vs0mg"},{"bike_id":"14cfb6c8-d1a9-446d-a45e-a3a2e96bb041","system_id":"levelo_inurba_marseille","lat":43.30328,"lon":5.40431,"is_reserved":false,"is_disabled":false,"rental_uris":{"android":"levelo://app?vid=14cfb6c8-d1a9-446d-a45e-a3a2e96bb041","ios":"levelo://app?vid=14cfb6c8-d1a9-446d-a45e-a3a2e96bb041"},"vehicle_type_id":"4","last_reported":1746392917,"current_range_meters":30400,"station_id":"ce4bh012rcd13ifvqd10","pricing_plan_id":"cebpf4jnsgd1na2vs0mg"},{"bike_id":"701f882b-db45-4614-a44f-902731bc9728","system_id":"levelo_inurba_marseille","lat":43.28105,"lon":5.37843,"is_reserved":false,"is_disabled":false,"rental_uris":{"android":"levelo://app?vid=701f882b-db45-4614-a44f-902731bc9728","ios":"levelo://app?vid=701f882b-db45-4614-a44f-902731bc9728"},"vehicle_type_id":"4","last_reported":1746392917,"current_range_meters":30400,"station_id":"ce4bha12rcd13ifvqee0","pricing_plan_id":"cebpf4jnsgd1na2vs0mg"},{"bike_id":"98eec17a-2e0a-43c2-8358-7c8d5d006e64","system_id":"levelo_inurba_marseille","lat":43.28156,"lon":5.42631,"is_reserved":false,"is_disabled":false,"rental_uris":{"android":"levelo://app?vid=98eec17a-2e0a-43c2-8358-7c8d5d006e64","ios":"levelo://app?vid=98eec17a-2e0a-43c2-8358-7c8d5d006e64"},"vehicle_type_id":"4","last_reported":1746392917,"current_range_meters":30400,"station_id":"ce4bhnh2rcd13ifvqgug","pricing_plan_id":"cebpf4jnsgd1na2vs0mg"},{"bike_id":"607f5a81-5db3-4d32-88be-8c0d80a3fa8a","system_id":"levelo_inurba_marseille","lat":43.295654,"lon":5.42285,"is_reserved":false,"is_disabled":false,"rental_uris":{"android":"levelo://app?vid=607f5a81-5db3-4d32-88be-8c0d80a3fa8a","ios":"levelo://app?vid=607f5a81-5db3-4d32-88be-8c0d80a3fa8a"},"vehicle_type_id":"4","last_reported":1746392917,"current_range_meters":30400,"station_id":"ce4bhph2rcd13ifvqhdg","pricing_plan_id":"cebpf4jnsgd1na2vs0mg"},{"bike_id":"dd2b968c-69a3-4930-a55c-61d4d42604cf","system_id":"levelo_inurba_marseille","lat":43.32504,"lon":5.36629,"is_reserved":false,"is_disabled":false,"rental_uris":{"android":"levelo://app?vid=dd2b968c-69a3-4930-a55c-61d4d42604cf","ios":"levelo://app?vid=dd2b968c-69a3-4930-a55c-61d4d42604cf"},"vehicle_type_id":"4","last_reported":1746392917,"current_range_meters":30800,"station_id":"","pricing_plan_id":"cebpf4jnsgd1na2vs0mg"},{"bike_id":"a5d8083e-8dca-43e3-a7dc-af9106c7882d","system_id":"levelo_inurba_marseille","lat":43.280265,"lon":5.387243,"is_reserved":false,"is_disabled":false,"rental_uris":{"android":"levelo://app?vid=a5d8083e-8dca-43e3-a7dc-af9106c7882d","ios":"levelo://app?vid=a5d8083e-8dca-43e3-a7dc-af9106c7882d"},"vehicle_type_id":"4","last_reported":1746392917,"current_range_meters":30800,"station_id":"","pricing_plan_id":"cebpf4jnsgd1na2vs0mg"},{"bike_id":"9fb76896-0d8b-47b8-b010-d4fd08b1c584","system_id":"levelo_inurba_marseille","lat":43.29097,"lon":5.38147,"is_reserved":false,"is_disabled":false,"rental_uris":{"android":"levelo://app?vid=9fb76896-0d8b-47b8-b010-d4fd08b1c584","ios":"levelo://app?vid=9fb76896-0d8b-47b8-b010-d4fd08b1c584"},"vehicle_type_id":"4","last_reported":1746392917,"current_range_meters":30800,"station_id":"ce4bh512rcd13ifvqe2g","pricing_plan_id":"cebpf4jnsgd1na2vs0mg"},{"bike_id":"01cf93c7-ffdc-476e-acbc-a82dc4eafe5f","system_id":"levelo_inurba_marseille","lat":43.28445,"lon":5.35897,"is_reserved":false,"is_disabled":false,"rental_uris":{"android":"levelo://app?vid=01cf93c7-ffdc-476e-acbc-a82dc4eafe5f","ios":"levelo://app?vid=01cf93c7-ffdc-476e-acbc-a82dc4eafe5f"},"vehicle_type_id":"4","last_reported":1746392917,"current_range_meters":30800,"station_id":"ce4bhah2rcd13ifvqei0","pricing_plan_id":"cebpf4jnsgd1na2vs0mg"},{"bike_id":"4953cb18-2937-4ba3-a7f8-f32ee3cd8b7d","system_id":"levelo_inurba_marseille","lat":43.28467,"lon":5.35889,"is_reserved":false,"is_disabled":false,"rental_uris":{"android":"levelo://app?vid=4953cb18-2937-4ba3-a7f8-f32ee3cd8b7d","ios":"levelo://app?vid=4953cb18-2937-4ba3-a7f8-f32ee3cd8b7d"},"vehicle_type_id":"4","last_reported":1746392917,"current_range_meters":30800,"station_id":"ce4bhah2rcd13ifvqei0","pricing_plan_id":"cebpf4jnsgd1na2vs0mg"},{"bike_id":"bc45d86a-a349-4a05-9057-e364a34803a0","system_id":"levelo_inurba_marseille","lat":43.250058,"lon":5.389213,"is_reserved":false,"is_disabled":false,"rental_uris":{"android":"levelo://app?vid=bc45d86a-a349-4a05-9057-e364a34803a0","ios":"levelo://app?vid=bc45d86a-a349-4a05-9057-e364a34803a0"},"vehicle_type_id":"4","last_reported":1746392917,"current_range_meters":30800,"station_id":"ce4bhgp2rcd13ifvqfd0","pricing_plan_id":"cebpf4jnsgd1na2vs0mg"},{"bike_id":"c1815c39-11a0-4a09-b64e-4682a6916113","system_id":"levelo_inurba_marseille","lat":43.27678,"lon":5.3887,"is_reserved":false,"is_disabled":false,"rental_uris":{"android":"levelo://app?vid=c1815c39-11a0-4a09-b64e-4682a6916113","ios":"levelo://app?vid=c1815c39-11a0-4a09-b64e-4682a6916113"},"vehicle_type_id":"4","last_reported":1746392917,"current_range_meters":30800,"station_id":"ce4bhi12rcd13ifvqfo0","pricing_plan_id":"cebpf4jnsgd1na2vs0mg"},{"bike_id":"7faa8382-e6a7-4e11-b27b-40509fff2962","system_id":"levelo_inurba_marseille","lat":43.25723,"lon":5.41115,"is_reserved":false,"is_disabled":false,"rental_uris":{"android":"levelo://app?vid=7faa8382-e6a7-4e11-b27b-40509fff2962","ios":"levelo://app?vid=7faa8382-e6a7-4e11-b27b-40509fff2962"},"vehicle_type_id":"4","last_reported":1746392917,"current_range_meters":30800,"station_id":"ce4bhkp2rcd13ifvqgd0","pricing_plan_id":"cebpf4jnsgd1na2vs0mg"},{"bike_id":"5308ac6d-2fa9-400c-b8c9-04e89f61a5dc","system_id":"levelo_inurba_marseille","lat":43.28139,"lon":5.42657,"is_reserved":false,"is_disabled":false,"rental_uris":{"android":"levelo://app?vid=5308ac6d-2fa9-400c-b8c9-04e89f61a5dc","ios":"levelo://app?vid=5308ac6d-2fa9-400c-b8c9-04e89f61a5dc"},"vehicle_type_id":"4","last_reported":1746392917,"current_range_meters":30800,"station_id":"ce4bhnh2rcd13ifvqgug","pricing_plan_id":"cebpf4jnsgd1na2vs0mg"},{"bike_id":"feb8e8cf-0340-43a7-b399-bac0cd045c7a","system_id":"levelo_inurba_marseille","lat":43.30429,"lon":5.41268,"is_reserved":false,"is_disabled":false,"rental_uris":{"android":"levelo://app?vid=feb8e8cf-0340-43a7-b399-bac0cd045c7a","ios":"levelo://app?vid=feb8e8cf-0340-43a7-b399-bac0cd045c7a"},"vehicle_type_id":"4","last_reported":1746392917,"current_range_meters":30800,"station_id":"ce4bhop2rcd13ifvqh8g","pricing_plan_id":"cebpf4jnsgd1na2vs0mg"},{"bike_id":"7a22694a-a9f2-4be0-923f-1afc67566546","system_id":"levelo_inurba_marseille","lat":43.322937,"lon":5.382791,"is_reserved":false,"is_disabled":false,"rental_uris":{"android":"levelo://app?vid=7a22694a-a9f2-4be0-923f-1afc67566546","ios":"levelo://app?vid=7a22694a-a9f2-4be0-923f-1afc67566546"},"vehicle_type_id":"4","last_reported":1746392917,"current_range_meters":30800,"station_id":"ce4bhr12rcd13ifvqhqg","pricing_plan_id":"cebpf4jnsgd1na2vs0mg"},{"bike_id":"a6ef1a95-4d7b-4fa1-aca4-666b791716c9","system_id":"levelo_inurba_marseille","lat":43.33585,"lon":5.42838,"is_reserved":false,"is_disabled":false,"rental_uris":{"android":"levelo://app?vid=a6ef1a95-4d7b-4fa1-aca4-666b791716c9","ios":"levelo://app?vid=a6ef1a95-4d7b-4fa1-aca4-666b791716c9"},"vehicle_type_id":"4","last_reported":1746392917,"current_range_meters":31200,"station_id":"","pricing_plan_id":"cebpf4jnsgd1na2vs0mg"},{"bike_id":"dd89bd5a-39f6-4371-8817-df56ac76fbc5","system_id":"levelo_inurba_marseille","lat":43.28718,"lon":5.3794,"is_reserved":false,"is_disabled":false,"rental_uris":{"android":"levelo://app?vid=dd89bd5a-39f6-4371-8817-df56ac76fbc5","ios":"levelo://app?vid=dd89bd5a-39f6-4371-8817-df56ac76fbc5"},"vehicle_type_id":"4","last_reported":1746392917,"current_range_meters":31200,"station_id":"ce4bh9p2rcd13ifvqec0","pricing_plan_id":"cebpf4jnsgd1na2vs0mg"},{"bike_id":"7fe16ca6-3d6b-4a33-843c-7a996bf999e3","system_id":"levelo_inurba_marseille","lat":43.28936,"lon":5.36639,"is_reserved":false,"is_disabled":false,"rental_uris":{"android":"levelo://app?vid=7fe16ca6-3d6b-4a33-843c-7a996bf999e3","ios":"levelo://app?vid=7fe16ca6-3d6b-4a33-843c-7a996bf999e3"},"vehicle_type_id":"4","last_reported":1746392917,"current_range_meters":31200,"station_id":"ce4bhap2rcd13ifvqek0","pricing_plan_id":"cebpf4jnsgd1na2vs0mg"},{"bike_id":"8615739d-0c96-4e53-93f8-ee0893ee0487","system_id":"levelo_inurba_marseille","lat":43.26234,"lon":5.4045,"is_reserved":false,"is_disabled":false,"rental_uris":{"android":"levelo://app?vid=8615739d-0c96-4e53-93f8-ee0893ee0487","ios":"levelo://app?vid=8615739d-0c96-4e53-93f8-ee0893ee0487"},"vehicle_type_id":"4","last_reported":1746392917,"current_range_meters":31200,"station_id":"ce4bhmh2rcd13ifvqgmg","pricing_plan_id":"cebpf4jnsgd1na2vs0mg"},{"bike_id":"a3e3ebd3-f4e0-4218-a42e-7765fbba2ac1","system_id":"levelo_inurba_marseille","lat":43.30751,"lon":5.37575,"is_reserved":false,"is_disabled":false,"rental_uris":{"android":"levelo://app?vid=a3e3ebd3-f4e0-4218-a42e-7765fbba2ac1","ios":"levelo://app?vid=a3e3ebd3-f4e0-4218-a42e-7765fbba2ac1"},"vehicle_type_id":"4","last_reported":1746392917,"current_range_meters":32000,"station_id":"","pricing_plan_id":"cebpf4jnsgd1na2vs0mg"},{"bike_id":"9b8fa0d0-8f6e-498c-b135-205d7175ac8c","system_id":"levelo_inurba_marseille","lat":43.29603,"lon":5.36292,"is_reserved":false,"is_disabled":false,"rental_uris":{"android":"levelo://app?vid=9b8fa0d0-8f6e-498c-b135-205d7175ac8c","ios":"levelo://app?vid=9b8fa0d0-8f6e-498c-b135-205d7175ac8c"},"vehicle_type_id":"4","last_reported":1746392917,"current_range_meters":32000,"station_id":"","pricing_plan_id":"cebpf4jnsgd1na2vs0mg"},{"bike_id":"72599c3c-a76f-4d93-83e3-a62eb795aa00","system_id":"levelo_inurba_marseille","lat":43.29072,"lon":5.37161,"is_reserved":false,"is_disabled":false,"rental_uris":{"android":"levelo://app?vid=72599c3c-a76f-4d93-83e3-a62eb795aa00","ios":"levelo://app?vid=72599c3c-a76f-4d93-83e3-a62eb795aa00"},"vehicle_type_id":"4","last_reported":1746392917,"current_range_meters":32000,"station_id":"ce4bh5p2rcd13ifvqe4g","pricing_plan_id":"cebpf4jnsgd1na2vs0mg"},{"bike_id":"d09fc9c8-9eac-4773-b424-1b87f407405b","system_id":"levelo_inurba_marseille","lat":43.24551,"lon":5.39514,"is_reserved":false,"is_disabled":false,"rental_uris":{"android":"levelo://app?vid=d09fc9c8-9eac-4773-b424-1b87f407405b","ios":"levelo://app?vid=d09fc9c8-9eac-4773-b424-1b87f407405b"},"vehicle_type_id":"4","last_reported":1746392917,"current_range_meters":32000,"station_id":"ce4bhlp2rcd13ifvqgjg","pricing_plan_id":"cebpf4jnsgd1na2vs0mg"},{"bike_id":"6cc88791-95e4-46dd-a33c-ae4d94ca2c4b","system_id":"levelo_inurba_marseille","lat":43.31503,"lon":5.3806,"is_reserved":false,"is_disabled":false,"rental_uris":{"android":"levelo://app?vid=6cc88791-95e4-46dd-a33c-ae4d94ca2c4b","ios":"levelo://app?vid=6cc88791-95e4-46dd-a33c-ae4d94ca2c4b"},"vehicle_type_id":"4","last_reported":1746392917,"current_range_meters":32000,"station_id":"ce4bhsp2rcd13ifvqi50","pricing_plan_id":"cebpf4jnsgd1na2vs0mg"},{"bike_id":"85736180-1322-425a-9a7d-ffde4ce6e8c0","system_id":"levelo_inurba_marseille","lat":43.31527,"lon":5.38033,"is_reserved":false,"is_disabled":false,"rental_uris":{"android":"levelo://app?vid=85736180-1322-425a-9a7d-ffde4ce6e8c0","ios":"levelo://app?vid=85736180-1322-425a-9a7d-ffde4ce6e8c0"},"vehicle_type_id":"4","last_reported":1746392917,"current_range_meters":32000,"station_id":"ce4bhsp2rcd13ifvqi50","pricing_plan_id":"cebpf4jnsgd1na2vs0mg"},{"bike_id":"42d1c704-a423-4b66-885e-a6affeff7482","system_id":"levelo_inurba_marseille","lat":43.2979,"lon":5.3934,"is_reserved":false,"is_disabled":false,"rental_uris":{"android":"levelo://app?vid=42d1c704-a423-4b66-885e-a6affeff7482","ios":"levelo://app?vid=42d1c704-a423-4b66-885e-a6affeff7482"},"vehicle_type_id":"4","last_reported":1746392917,"current_range_meters":32000,"station_id":"chh1huq6cuj3fo74tm60","pricing_plan_id":"cebpf4jnsgd1na2vs0mg"},{"bike_id":"c0d68ead-8455-4c98-ad39-9862d397060d","system_id":"levelo_inurba_marseille","lat":43.29028,"lon":5.38652,"is_reserved":false,"is_disabled":false,"rental_uris":{"android":"levelo://app?vid=c0d68ead-8455-4c98-ad39-9862d397060d","ios":"levelo://app?vid=c0d68ead-8455-4c98-ad39-9862d397060d"},"vehicle_type_id":"4","last_reported":1746392917,"current_range_meters":32400,"station_id":"ce4bh4p2rcd13ifvqe0g","pricing_plan_id":"cebpf4jnsgd1na2vs0mg"},{"bike_id":"2c10f141-60d0-49e5-8b26-2783a380b45e","system_id":"levelo_inurba_marseille","lat":43.27525,"lon":5.42452,"is_reserved":false,"is_disabled":false,"rental_uris":{"android":"levelo://app?vid=2c10f141-60d0-49e5-8b26-2783a380b45e","ios":"levelo://app?vid=2c10f141-60d0-49e5-8b26-2783a380b45e"},"vehicle_type_id":"4","last_reported":1746392917,"current_range_meters":32400,"station_id":"ce4bhn92rcd13ifvqgrg","pricing_plan_id":"cebpf4jnsgd1na2vs0mg"},{"bike_id":"604ccb54-912d-459c-8237-1779eae4ef9c","system_id":"levelo_inurba_marseille","lat":43.28947,"lon":5.363995,"is_reserved":false,"is_disabled":false,"rental_uris":{"android":"levelo://app?vid=604ccb54-912d-459c-8237-1779eae4ef9c","ios":"levelo://app?vid=604ccb54-912d-459c-8237-1779eae4ef9c"},"vehicle_type_id":"4","last_reported":1746392917,"current_range_meters":32800,"station_id":"ce4bhc92rcd13ifvqetg","pricing_plan_id":"cebpf4jnsgd1na2vs0mg"},{"bike_id":"b4027732-16e5-4664-8b83-58028a6cd010","system_id":"levelo_inurba_marseille","lat":43.27897,"lon":5.38004,"is_reserved":false,"is_disabled":false,"rental_uris":{"android":"levelo://app?vid=b4027732-16e5-4664-8b83-58028a6cd010","ios":"levelo://app?vid=b4027732-16e5-4664-8b83-58028a6cd010"},"vehicle_type_id":"4","last_reported":1746392917,"current_range_meters":32800,"station_id":"ce4bhf92rcd13ifvqf50","pricing_plan_id":"cebpf4jnsgd1na2vs0mg"},{"bike_id":"f62544d0-f534-4321-9dc0-48230257fa25","system_id":"levelo_inurba_marseille","lat":43.26226,"lon":5.40448,"is_reserved":false,"is_disabled":false,"rental_uris":{"android":"levelo://app?vid=f62544d0-f534-4321-9dc0-48230257fa25","ios":"levelo://app?vid=f62544d0-f534-4321-9dc0-48230257fa25"},"vehicle_type_id":"4","last_reported":1746392917,"current_range_meters":32800,"station_id":"ce4bhmh2rcd13ifvqgmg","pricing_plan_id":"cebpf4jnsgd1na2vs0mg"},{"bike_id":"66de1ca3-3095-4785-b376-9cad4758c4f1","system_id":"levelo_inurba_marseille","lat":43.28156,"lon":5.42634,"is_reserved":false,"is_disabled":false,"rental_uris":{"android":"levelo://app?vid=66de1ca3-3095-4785-b376-9cad4758c4f1","ios":"levelo://app?vid=66de1ca3-3095-4785-b376-9cad4758c4f1"},"vehicle_type_id":"4","last_reported":1746392917,"current_range_meters":32800,"station_id":"ce4bhnh2rcd13ifvqgug","pricing_plan_id":"cebpf4jnsgd1na2vs0mg"},{"bike_id":"b4c911b2-8672-44bf-b2cb-3dfea9b6e77f","system_id":"levelo_inurba_marseille","lat":43.30296,"lon":5.39196,"is_reserved":false,"is_disabled":false,"rental_uris":{"android":"levelo://app?vid=b4c911b2-8672-44bf-b2cb-3dfea9b6e77f","ios":"levelo://app?vid=b4c911b2-8672-44bf-b2cb-3dfea9b6e77f"},"vehicle_type_id":"4","last_reported":1746392917,"current_range_meters":33200,"station_id":"ce4bgkh2rcd13ifvqbk0","pricing_plan_id":"cebpf4jnsgd1na2vs0mg"},{"bike_id":"ee58882a-6003-40dc-b87f-4fc97f8778a3","system_id":"levelo_inurba_marseille","lat":43.31324,"lon":5.39685,"is_reserved":false,"is_disabled":false,"rental_uris":{"android":"levelo://app?vid=ee58882a-6003-40dc-b87f-4fc97f8778a3","ios":"levelo://app?vid=ee58882a-6003-40dc-b87f-4fc97f8778a3"},"vehicle_type_id":"4","last_reported":1746392917,"current_range_meters":33200,"station_id":"ce4bgvp2rcd13ifvqcu0","pricing_plan_id":"cebpf4jnsgd1na2vs0mg"},{"bike_id":"a4b72e89-1584-4293-bb07-a9758cd8b42a","system_id":"levelo_inurba_marseille","lat":43.29443,"lon":5.3976,"is_reserved":false,"is_disabled":false,"rental_uris":{"android":"levelo://app?vid=a4b72e89-1584-4293-bb07-a9758cd8b42a","ios":"levelo://app?vid=a4b72e89-1584-4293-bb07-a9758cd8b42a"},"vehicle_type_id":"4","last_reported":1746392917,"current_range_meters":33200,"station_id":"ce4bh3h2rcd13ifvqdo0","pricing_plan_id":"cebpf4jnsgd1na2vs0mg"},{"bike_id":"51a72026-491d-4484-9e80-8cc3fa956648","system_id":"levelo_inurba_marseille","lat":43.32358,"lon":5.36752,"is_reserved":false,"is_disabled":false,"rental_uris":{"android":"levelo://app?vid=51a72026-491d-4484-9e80-8cc3fa956648","ios":"levelo://app?vid=51a72026-491d-4484-9e80-8cc3fa956648"},"vehicle_type_id":"4","last_reported":1746392917,"current_range_meters":33200,"station_id":"ce4bhsh2rcd13ifvqi2g","pricing_plan_id":"cebpf4jnsgd1na2vs0mg"},{"bike_id":"e914354c-86c9-412f-b268-6472ee24abb1","system_id":"levelo_inurba_marseille","lat":43.307379,"lon":5.424386,"is_reserved":false,"is_disabled":false,"rental_uris":{"android":"levelo://app?vid=e914354c-86c9-412f-b268-6472ee24abb1","ios":"levelo://app?vid=e914354c-86c9-412f-b268-6472ee24abb1"},"vehicle_type_id":"4","last_reported":1746392917,"current_range_meters":33200,"station_id":"st_cvj6ca6bvosntc0bfgr0","pricing_plan_id":"cebpf4jnsgd1na2vs0mg"},{"bike_id":"859dd97b-ff6d-4640-a603-36b76bebd2f2","system_id":"levelo_inurba_marseille","lat":43.313596,"lon":5.385006,"is_reserved":false,"is_disabled":false,"rental_uris":{"android":"levelo://app?vid=859dd97b-ff6d-4640-a603-36b76bebd2f2","ios":"levelo://app?vid=859dd97b-ff6d-4640-a603-36b76bebd2f2"},"vehicle_type_id":"4","last_reported":1746392917,"current_range_meters":33600,"station_id":"ce4bgt92rcd13ifvqcf0","pricing_plan_id":"cebpf4jnsgd1na2vs0mg"},