{"last_updated":1752765138,"ttl":60,"version":"2.2","data":{"bikes":[{"bike_id":"53b742a7-31ae-4272-9bba-7740339e2a2f","system_id":"levelo_inurba_marseille","lat":43.33747,"lon":5.37463,"is_reserved":false,"is_disabled":false,"rental_uris":{"android":"levelo://app?vid=53b742a7-31ae-4272-9bba-7740339e2a2f","ios":"levelo://app?vid=53b742a7-31ae-4272-9bba-7740339e2a2f"},"vehicle_type_id":"1","last_reported":1752765138,"current_range_meters":24000,"station_id":"","pricing_plan_id":"cebpf4jnsgd1na2vs0mg"},{"bike_id":"18af5497-f880-4897-8e71-a80a3c1d4085","system_id":"levelo_inurba_marseille","lat":43.29626,"lon":5.37749,"is_reserved":false,"is_disabled":false,"rental_uris":{"android":"levelo://app?vid=18af5497-f880-4897-8e71-a80a3c1d4085","ios":"levelo://app?vid=18af5497-f880-4897-8e71-a80a3c1d4085"},"vehicle_type_id":"4","last_reported":1752765138,"current_range_meters":2800,"station_id":"ce4bgi92rcd13ifvqb90","pricing_plan_id":"cebpf4jnsgd1na2vs0mg"},{"bike_id":"1a9209b1-3b27-4de7-b210-a32083d30d11","system_id":"levelo_inurba_marseille","lat":43.29531,"lon":5.38545,"is_reserved":false,"is_disabled":false,"rental_uris":{"android":"levelo://app?vid=1a9209b1-3b27-4de7-b210-a32083d30d11","ios":"levelo://app?vid=1a9209b1-3b27-4de7-b210-a32083d30d11"},"vehicle_type_id":"4","last_reported":1752765138,"current_range_meters":2800,"station_id":"ce4bgih2rcd13ifvqba0","pricing_plan_id":"cebpf4jnsgd1na2vs0mg"},{"bike_id":"38b6d7e6-2d59-4ace-b300-3e45477cb386","system_id":"levelo_inurba_marseille","lat":43.29037,"lon":5.39963,"is_reserved":false,"is_disabled":false,"rental_uris":{"android":"levelo://app?vid=38b6d7e6-2d59-4ace-b300-3e45477cb386","ios":"levelo://app?vid=38b6d7e6-2d59-4ace-b300-3e45477cb386"},"vehicle_type_id":"4","last_reported":1752765138,"current_range_meters":3200,"station_id":"ce4bh392rcd13ifvqdm0","pricing_plan_id":"cebpf4jnsgd1na2vs0mg"},{"bike_id":"5d92fed9-5f48-4fd8-a6ef-c53a79efe2c2","system_id":"levelo_inurba_marseille","lat":43.28719,"lon":5.3609,"is_reserved":false,"is_disabled":false,"rental_uris":{"android":"levelo://app?vid=5d92fed9-5f48-4fd8-a6ef-c53a79efe2c2","ios":"levelo://app?vid=5d92fed9-5f48-4fd8-a6ef-c53a79efe2c2"},"vehicle_type_id":"4","last_reported":1752765138,"current_range_meters":3200,"station_id":"cki0cbj6b192h4jlfktg","pricing_plan_id":"cebpf4jnsgd1na2vs0mg"},{"bike_id":"e73db4ab-cb65-49e2-aeab-e8d76799777d","system_id":"levelo_inurba_marseille","lat":43.23145,"lon":5.43737,"is_reserved":false,"is_disabled":false,"rental_uris":{"android":"levelo://app?vid=e73db4ab-cb65-49e2-aeab-e8d76799777d","ios":"levelo://app?vid=e73db4ab-cb65-49e2-aeab-e8d76799777d"},"vehicle_type_id":"4","last_reported":1752765138,"current_range_meters":3600,"station_id":"ce4bhmp2rcd13ifvqgog","pricing_plan_id":"cebpf4jnsgd1na2vs0mg"},{"bike_id":"ab4f8854-11af-41d1-8c5c-35eb2cc14951","system_id":"levelo_inurba_marseille","lat":43.29064,"lon":5.37165,"is_reserved":false,"is_disabled":false,"rental_uris":{"android":"levelo://app?vid=ab4f8854-11af-41d1-8c5c-35eb2cc14951","ios":"levelo://app?vid=ab4f8854-11af-41d1-8c5c-35eb2cc14951"},"vehicle_type_id":"4","last_reported":1752765138,"current_range_meters":3600,"station_id":"ce4bh5p2rcd13ifvqe4g","pricing_plan_id":"cebpf4jnsgd1na2vs0mg"},{"bike_id":"ebe38834-1058-4352-b028-891189a98d17","system_id":"levelo_inurba_marseille","lat":43.30728,"lon":5.42427,"is_reserved":false,"is_disabled":false,"rental_uris":{"android":"levelo://app?vid=ebe38834-1058-4352-b028-891189a98d17","ios":"levelo://app?vid=ebe38834-1058-4352-b028-891189a98d17"},"vehicle_type_id":"4","last_reported":1752765138,"current_range_meters":4000,"station_id":"st_cvj6ca6bvosntc0bfgr0","pricing_plan_id":"cebpf4jnsgd1na2vs0mg"},{"bike_id":"080b0f22-14dd-4044-a18f-ee7f74366cea","system_id":"levelo_inurba_marseille","lat":43.32005,"lon":5.38154,"is_reserved":false,"is_disabled":true,"rental_uris":{"android":"levelo://app?vid=080b0f22-14dd-4044-a18f-ee7f74366cea","ios":"levelo://app?vid=080b0f22-14dd-4044-a18f-ee7f74366cea"},"vehicle_type_id":"4","last_reported":1752765138,"current_range_meters":4000,"station_id":"ce4bhr12rcd13ifvqhpg","pricing_plan_id":"cebpf4jnsgd1na2vs0mg"},{"bike_id":"76e21353-1565-44ae-8fdb-358128799968","system_id":"levelo_inurba_marseille","lat":43.30256,"lon":5.40074,"is_reserved":false,"is_disabled":false,"rental_uris":{"android":"levelo://app?vid=76e21353-1565-44ae-8fdb-358128799968","ios":"levelo://app?vid=76e21353-1565-44ae-8fdb-358128799968"},"vehicle_type_id":"4","last_reported":1752765138,"current_range_meters":4800,"station_id":"ce4bgvh2rcd13ifvqcs0","pricing_plan_id":"cebpf4jnsgd1na2vs0mg"},{"bike_id":"d98ef30e-38a0-41ef-a00a-304afa979a1e","system_id":"levelo_inurba_marseille","lat":43.29938,"lon":5.43665,"is_reserved":false,"is_disabled":false,"rental_uris":{"android":"levelo://app?vid=d98ef30e-38a0-41ef-a00a-304afa979a1e","ios":"levelo://app?vid=d98ef30e-38a0-41ef-a00a-304afa979a1e"},"vehicle_type_id":"4","last_reported":1752765138,"current_range_meters":5600,"station_id":"","pricing_plan_id":"cebpf4jnsgd1na2vs0mg"},{"bike_id":"0cad0354-ace9-4b2f-a5bb-28900cd47111","system_id":"levelo_inurba_marseille","lat":43.30549,"lon":5.36542,"is_reserved":false,"is_disabled":false,"rental_uris":{"android":"levelo://app?vid=0cad0354-ace9-4b2f-a5bb-28900cd47111","ios":"levelo://app?vid=0cad0354-ace9-4b2f-a5bb-28900cd47111"},"vehicle_type_id":"4","last_reported":1752765138,"current_range_meters":5600,"station_id":"ce4bgs12rcd13ifvqcag","pricing_plan_id":"cebpf4jnsgd1na2vs0mg"},{"bike_id":"767595d6-0a1d-4d9f-862e-ac0639b69118","system_id":"levelo_inurba_marseille","lat":43.30789,"lon":5.43537,"is_reserved":false,"is_disabled":false,"rental_uris":{"android":"levelo://app?vid=767595d6-0a1d-4d9f-862e-ac0639b69118","ios":"levelo://app?vid=767595d6-0a1d-4d9f-862e-ac0639b69118"},"vehicle_type_id":"4","last_reported":1752765138,"current_range_meters":6000,"station_id":"ce4bhph2rcd13ifvqheg","pricing_plan_id":"cebpf4jnsgd1na2vs0mg"},{"bike_id":"a5755f23-320d-45fb-8ac8-2a6828403340","system_id":"levelo_inurba_marseille","lat":43.28036,"lon":5.369512,"is_reserved":false,"is_disabled":true,"rental_uris":{"android":"levelo://app?vid=a5755f23-320d-45fb-8ac8-2a6828403340","ios":"levelo://app?vid=a5755f23-320d-45fb-8ac8-2a6828403340"},"vehicle_type_id":"4","last_reported":1752765138,"current_range_meters":6000,"station_id":"ce4bha12rcd13ifvqef0","pricing_plan_id":"cebpf4jnsgd1na2vs0mg"},{"bike_id":"e99e96af-8a4a-4589-8aca-79ba62f59e96","system_id":"levelo_inurba_marseille","lat":43.29575,"lon":5.3998,"is_reserved":false,"is_disabled":false,"rental_uris":{"android":"levelo://app?vid=e99e96af-8a4a-4589-8aca-79ba62f59e96","ios":"levelo://app?vid=e99e96af-8a4a-4589-8aca-79ba62f59e96"},"vehicle_type_id":"4","last_reported":1752765138,"current_range_meters":6400,"station_id":"ce4bh312rcd13ifvqdj0","pricing_plan_id":"cebpf4jnsgd1na2vs0mg"},{"bike_id":"8dbe856f-3fbe-484e-b944-bb18d7dc8f5b","system_id":"levelo_inurba_marseille","lat":43.25121,"lon":5.4031,"is_reserved":false,"is_disabled":false,"rental_uris":{"android":"levelo://app?vid=8dbe856f-3fbe-484e-b944-bb18d7dc8f5b","ios":"levelo://app?vid=8dbe856f-3fbe-484e-b944-bb18d7dc8f5b"},"vehicle_type_id":"4","last_reported":1752765138,"current_range_meters":6400,"station_id":"ce4bhlh2rcd13ifvqgig","pricing_plan_id":"cebpf4jnsgd1na2vs0mg"},{"bike_id":"dd242b8d-2d53-47e4-822d-90a95e5eb0d1","system_id":"levelo_inurba_marseille","lat":43.307922,"lon":5.396185,"is_reserved":false,"is_disabled":false,"rental_uris":{"android":"levelo://app?vid=dd242b8d-2d53-47e4-822d-90a95e5eb0d1","ios":"levelo://app?vid=dd242b8d-2d53-47e4-822d-90a95e5eb0d1"},"vehicle_type_id":"4","last_reported":1752765138,"current_range_meters":6400,"station_id":"ce4bh012rcd13ifvqcv0","pricing_plan_id":"cebpf4jnsgd1na2vs0mg"},{"bike_id":"a4820bca-a349-4951-8a48-1a55661d4065","system_id":"levelo_inurba_marseille","lat":43.29767,"lon":5.38105,"is_reserved":false,"is_disabled":false,"rental_uris":{"android":"levelo://app?vid=a4820bca-a349-4951-8a48-1a55661d4065","ios":"levelo://app?vid=a4820bca-a349-4951-8a48-1a55661d4065"},"vehicle_type_id":"4","last_reported":1752765138,"current_range_meters":6400,"station_id":"ce4bgip2rcd13ifvqbb0","pricing_plan_id":"cebpf4jnsgd1na2vs0mg"},{"bike_id":"f668d1a2-154f-4b3a-9672-303a2c6d23bf","system_id":"levelo_inurba_marseille","lat":43.31077,"lon":5.38363,"is_reserved":false,"is_disabled":true,"rental_uris":{"android":"levelo://app?vid=f668d1a2-154f-4b3a-9672-303a2c6d23bf","ios":"levelo://app?vid=f668d1a2-154f-4b3a-9672-303a2c6d23bf"},"vehicle_type_id":"4","last_reported":1752765138,"current_range_meters":6800,"station_id":"ce4bgv92rcd13ifvqcr0","pricing_plan_id":"cebpf4jnsgd1na2vs0mg"},{"bike_id":"4cbc2220-f1a6-4d70-9c95-ed9dcbf5a5fa","system_id":"levelo_inurba_marseille","lat":43.29318,"lon":5.37445,"is_reserved":false,"is_disabled":true,"rental_uris":{"android":"levelo://app?vid=4cbc2220-f1a6-4d70-9c95-ed9dcbf5a5fa","ios":"levelo://app?vid=4cbc2220-f1a6-4d70-9c95-ed9dcbf5a5fa"},"vehicle_type_id":"4","last_reported":1752765138,"current_range_meters":6800,"station_id":"ce4bgi12rcd13ifvqb70","pricing_plan_id":"cebpf4jnsgd1na2vs0mg"},{"bike_id":"51ab5ecb-6b35-470e-88a3-d9f349085202","system_id":"levelo_inurba_marseille","lat":43.24181,"lon":5.39729,"is_reserved":false,"is_disabled":false,"rental_uris":{"android":"levelo://app?vid=51ab5ecb-6b35-470e-88a3-d9f349085202","ios":"levelo://app?vid=51ab5ecb-6b35-470e-88a3-d9f349085202"},"vehicle_type_id":"4","last_reported":1752765138,"current_range_meters":6800,"station_id":"ce4bhn12rcd13ifvqgpg","pricing_plan_id":"cebpf4jnsgd1na2vs0mg"},{"bike_id":"c4e3adcf-b133-4a48-ad8a-5f7284a8ca7c","system_id":"levelo_inurba_marseille","lat":43.231511,"lon":5.437254,"is_reserved":false,"is_disabled":false,"rental_uris":{"android":"levelo://app?vid=c4e3adcf-b133-4a48-ad8a-5f7284a8ca7c","ios":"levelo://app?vid=c4e3adcf-b133-4a48-ad8a-5f7284a8ca7c"},"vehicle_type_id":"4","last_reported":1752765138,"current_range_meters":6800,"station_id":"ce4bhmp2rcd13ifvqgog","pricing_plan_id":"cebpf4jnsgd1na2vs0mg"},{"bike_id":"25a8da3e-98ef-4441-8ef7-364200903723","system_id":"levelo_inurba_marseille","lat":43.28274,"lon":5.35069,"is_reserved":false,"is_disabled":false,"rental_uris":{"android":"levelo://app?vid=25a8da3e-98ef-4441-8ef7-364200903723","ios":"levelo://app?vid=25a8da3e-98ef-4441-8ef7-364200903723"},"vehicle_type_id":"4","last_reported":1752765138,"current_range_meters":7200,"station_id":"","pricing_plan_id":"cebpf4jnsgd1na2vs0mg"},{"bike_id":"e6decac7-8084-4c10-8266-d20895c614d0","system_id":"levelo_inurba_marseille","lat":43.31086,"lon":5.42421,"is_reserved":false,"is_disabled":false,"rental_uris":{"android":"levelo://app?vid=e6decac7-8084-4c10-8266-d20895c614d0","ios":"levelo://app?vid=e6decac7-8084-4c10-8266-d20895c614d0"},"vehicle_type_id":"4","last_reported":1752765138,"current_range_meters":7200,"station_id":"ce4bhp92rcd13ifvqhag","pricing_plan_id":"cebpf4jnsgd1na2vs0mg"},{"bike_id":"d1e94785-07c9-4567-977b-a1d086ccac8d","system_id":"levelo_inurba_marseille","lat":43.29892,"lon":5.43661,"is_reserved":false,"is_disabled":false,"rental_uris":{"android":"levelo://app?vid=d1e94785-07c9-4567-977b-a1d086ccac8d","ios":"levelo://app?vid=d1e94785-07c9-4567-977b-a1d086ccac8d"},"vehicle_type_id":"4","last_reported":1752765138,"current_range_meters":8000,"station_id":"ce4bhpp2rcd13ifvqhfg","pricing_plan_id":"cebpf4jnsgd1na2vs0mg"},{"bike_id":"94277d88-f9a9-45b0-9c05-b48a817d336a","system_id":"levelo_inurba_marseille","lat":43.25579,"lon":5.38238,"is_reserved":false,"is_disabled":false,"rental_uris":{"android":"levelo://app?vid=94277d88-f9a9-45b0-9c05-b48a817d336a","ios":"levelo://app?vid=94277d88-f9a9-45b0-9c05-b48a817d336a"},"vehicle_type_id":"4","last_reported":1752765138,"current_range_meters":8000,"station_id":"ce4bhih2rcd13ifvqfs0","pricing_plan_id":"cebpf4jnsgd1na2vs0mg"},{"bike_id":"da1727f3-0524-4436-8768-516686a70c7c","system_id":"levelo_inurba_marseille","lat":43.29871,"lon":5.39728,"is_reserved":false,"is_disabled":false,"rental_uris":{"android":"levelo://app?vid=da1727f3-0524-4436-8768-516686a70c7c","ios":"levelo://app?vid=da1727f3-0524-4436-8768-516686a70c7c"},"vehicle_type_id":"4","last_reported":1752765138,"current_range_meters":8000,"station_id":"ce4bh0h2rcd13ifvqd50","pricing_plan_id":"cebpf4jnsgd1na2vs0mg"},{"bike_id":"79f4fba5-de1c-45a4-975e-beab53a8842d","system_id":"levelo_inurba_marseille","lat":43.30554,"lon":5.36699,"is_reserved":false,"is_disabled":false,"rental_uris":{"android":"levelo://app?vid=79f4fba5-de1c-45a4-975e-beab53a8842d","ios":"levelo://app?vid=79f4fba5-de1c-45a4-975e-beab53a8842d"},"vehicle_type_id":"4","last_reported":1752765138,"current_range_meters":8000,"station_id":"ce4bgrp2rcd13ifvqc9g","pricing_plan_id":"cebpf4jnsgd1na2vs0mg"},{"bike_id":"68ad8dec-7e10-49a5-bbca-49852b3ff110","system_id":"levelo_inurba_marseille","lat":43.2901,"lon":5.35618,"is_reserved":false,"is_disabled":false,"rental_uris":{"android":"levelo://app?vid=68ad8dec-7e10-49a5-bbca-49852b3ff110","ios":"levelo://app?vid=68ad8dec-7e10-49a5-bbca-49852b3ff110"},"vehicle_type_id":"4","last_reported":1752765138,"current_range_meters":8000,"station_id":"ce4bhb92rcd13ifvqen0","pricing_plan_id":"cebpf4jnsgd1na2vs0mg"},{"bike_id":"9e56c119-b243-4113-b710-6cfcbd16002a","system_id":"levelo_inurba_marseille","lat":43.3234,"lon":5.40626,"is_reserved":false,"is_disabled":false,"rental_uris":{"android":"levelo://app?vid=9e56c119-b243-4113-b710-6cfcbd16002a","ios":"levelo://app?vid=9e56c119-b243-4113-b710-6cfcbd16002a"},"vehicle_type_id":"4","last_reported":1752765138,"current_range_meters":8400,"station_id":"ce4bhq92rcd13ifvqhjg","pricing_plan_id":"cebpf4jnsgd1na2vs0mg"},{"bike_id":"86e1af14-51b3-4cea-a93e-a1dc1fd60a12","system_id":"levelo_inurba_marseille","lat":43.28406,"lon":5.37525,"is_reserved":false,"is_disabled":false,"rental_uris":{"android":"levelo://app?vid=86e1af14-51b3-4cea-a93e-a1dc1fd60a12","ios":"levelo://app?vid=86e1af14-51b3-4cea-a93e-a1dc1fd60a12"},"vehicle_type_id":"4","last_reported":1752765138,"current_range_meters":8400,"station_id":"ce4bh412rcd13ifvqds0","pricing_plan_id":"cebpf4jnsgd1na2vs0mg"},{"bike_id":"675a4573-a1f2-4f9d-b1bd-48fb0f00616c","system_id":"levelo_inurba_marseille","lat":43.28623,"lon":5.3511,"is_reserved":false,"is_disabled":false,"rental_uris":{"android":"levelo://app?vid=675a4573-a1f2-4f9d-b1bd-48fb0f00616c","ios":"levelo://app?vid=675a4573-a1f2-4f9d-b1bd-48fb0f00616c"},"vehicle_type_id":"4","last_reported":1752765138,"current_range_meters":8400,"station_id":"ce4bhch2rcd13ifvqeug","pricing_plan_id":"cebpf4jnsgd1na2vs0mg"},{"bike_id":"7e690ad1-a776-4d6b-9efb-25da00d0f0e3","system_id":"levelo_inurba_marseille","lat":43.29579,"lon":5.36742,"is_reserved":false,"is_disabled":false,"rental_uris":{"android":"levelo://app?vid=7e690ad1-a776-4d6b-9efb-25da00d0f0e3","ios":"levelo://app?vid=7e690ad1-a776-4d6b-9efb-25da00d0f0e3"},"vehicle_type_id":"4","last_reported":1752765138,"current_range_meters":8800,"station_id":"ce4bgph2rcd13ifvqc2g","pricing_plan_id":"cebpf4jnsgd1na2vs0mg"},{"bike_id":"cc7cf92b-b8db-4c30-8fa7-0479f52f1930","system_id":"levelo_inurba_marseille","lat":43.24169,"lon":5.36399,"is_reserved":false,"is_disabled":false,"rental_uris":{"android":"levelo://app?vid=cc7cf92b-b8db-4c30-8fa7-0479f52f1930","ios":"levelo://app?vid=cc7cf92b-b8db-4c30-8fa7-0479f52f1930"},"vehicle_type_id":"4","last_reported":1752765138,"current_range_meters":8800,"station_id":"cpo36qri1sfpv3e86is0","pricing_plan_id":"cebpf4jnsgd1na2vs0mg"},{"bike_id":"d454dce6-37cf-4004-904a-2e4e4e2009fa","system_id":"levelo_inurba_marseille","lat":43.27434,"lon":5.39418,"is_reserved":false,"is_disabled":false,"rental_uris":{"android":"levelo://app?vid=d454dce6-37cf-4004-904a-2e4e4e2009fa","ios":"levelo://app?vid=d454dce6-37cf-4004-904a-2e4e4e2009fa"},"vehicle_type_id":"4","last_reported":1752765138,"current_range_meters":9200,"station_id":"ce4bhdp2rcd13ifvqf20","pricing_plan_id":"cebpf4jnsgd1na2vs0mg"},{"bike_id":"61a9e916-b95f-4f2c-8dca-c5b11be80287","system_id":"levelo_inurba_marseille","lat":43.29235,"lon":5.36064,"is_reserved":false,"is_disabled":false,"rental_uris":{"android":"levelo://app?vid=61a9e916-b95f-4f2c-8dca-c5b11be80287","ios":"levelo://app?vid=61a9e916-b95f-4f2c-8dca-c5b11be80287"},"vehicle_type_id":"4","last_reported":1752765138,"current_range_meters":9200,"station_id":"ce4bhbh2rcd13ifvqeqg","pricing_plan_id":"cebpf4jnsgd1na2vs0mg"},{"bike_id":"9c2aacb5-318d-43e4-a644-6a42c1d98ac7","system_id":"levelo_inurba_marseille","lat":43.29435,"lon":5.38532,"is_reserved":false,"is_disabled":false,"rental_uris":{"android":"levelo://app?vid=9c2aacb5-318d-43e4-a644-6a42c1d98ac7","ios":"levelo://app?vid=9c2aacb5-318d-43e4-a644-6a42c1d98ac7"},"vehicle_type_id":"4","last_reported":1752765138,"current_range_meters":9200,"station_id":"","pricing_plan_id":"cebpf4jnsgd1na2vs0mg"},{"bike_id":"aa486e73-1d27-41ec-b417-f88dfd6c1e5e","system_id":"levelo_inurba_marseille","lat":43.290303,"lon":5.386471,"is_reserved":false,"is_disabled":true,"rental_uris":{"android":"levelo://app?vid=aa486e73-1d27-41ec-b417-f88dfd6c1e5e","ios":"levelo://app?vid=aa486e73-1d27-41ec-b417-f88dfd6c1e5e"},"vehicle_type_id":"4","last_reported":1752765138,"current_range_meters":9600,"station_id":"ce4bh4p2rcd13ifvqe0g","pricing_plan_id":"cebpf4jnsgd1na2vs0mg"},{"bike_id":"a4fd652b-34f8-4c68-a6e6-032a5cc5e418","system_id":"levelo_inurba_marseille","lat":43.312449,"lon":5.368239,"is_reserved":false,"is_disabled":true,"rental_uris":{"android":"levelo://app?vid=a4fd652b-34f8-4c68-a6e6-032a5cc5e418","ios":"levelo://app?vid=a4fd652b-34f8-4c68-a6e6-032a5cc5e418"},"vehicle_type_id":"4","last_reported":1752765138,"current_range_meters":9600,"station_id":"ce4bgl92rcd13ifvqbq0","pricing_plan_id":"cebpf4jnsgd1na2vs0mg"},{"bike_id":"63b68163-23ff-4509-a7ff-da745c70a782","system_id":"levelo_inurba_marseille","lat":43.295232,"lon":5.394075,"is_reserved":false,"is_disabled":false,"rental_uris":{"android":"levelo://app?vid=63b68163-23ff-4509-a7ff-da745c70a782","ios":"levelo://app?vid=63b68163-23ff-4509-a7ff-da745c70a782"},"vehicle_type_id":"4","last_reported":1752765138,"current_range_meters":9600,"station_id":"","pricing_plan_id":"cebpf4jnsgd1na2vs0mg"},{"bike_id":"563e63f6-ffc8-4a13-88da-d9ab7649c95c","system_id":"levelo_inurba_marseille","lat":43.31755,"lon":5.39013,"is_reserved":false,"is_disabled":false,"rental_uris":{"android":"levelo://app?vid=563e63f6-ffc8-4a13-88da-d9ab7649c95c","ios":"levelo://app?vid=563e63f6-ffc8-4a13-88da-d9ab7649c95c"},"vehicle_type_id":"4","last_reported":1752765138,"current_range_meters":10000,"station_id":"ce4bhqp2rcd13ifvqhng","pricing_plan_id":"cebpf4jnsgd1na2vs0mg"},{"bike_id":"483c41fe-0cb0-4c23-94c2-4b9337e21a42","system_id":"levelo_inurba_marseille","lat":43.29162,"lon":5.37311,"is_reserved":false,"is_disabled":false,"rental_uris":{"android":"levelo://app?vid=483c41fe-0cb0-4c23-94c2-4b9337e21a42","ios":"levelo://app?vid=483c41fe-0cb0-4c23-94c2-4b9337e21a42"},"vehicle_type_id":"4","last_reported":1752765138,"current_range_meters":10800,"station_id":"ce4bh5p2rcd13ifvqe4g","pricing_plan_id":"cebpf4jnsgd1na2vs0mg"},{"bike_id":"9ff813f5-7ffe-477a-a652-434a34f03c1a","system_id":"levelo_inurba_marseille","lat":43.29271,"lon":5.38423,"is_reserved":false,"is_disabled":true,"rental_uris":{"android":"levelo://app?vid=9ff813f5-7ffe-477a-a652-434a34f03c1a","ios":"levelo://app?vid=9ff813f5-7ffe-477a-a652-434a34f03c1a"},"vehicle_type_id":"4","last_reported":1752765138,"current_range_meters":10800,"station_id":"ce4bh692rcd13ifvqea0","pricing_plan_id":"cebpf4jnsgd1na2vs0mg"},{"bike_id":"57239988-9161-49ce-a0a2-4581baf1b159","system_id":"levelo_inurba_marseille","lat":43.33798,"lon":5.37427,"is_reserved":false,"is_disabled":false,"rental_uris":{"android":"levelo://app?vid=57239988-9161-49ce-a0a2-4581baf1b159","ios":"levelo://app?vid=57239988-9161-49ce-a0a2-4581baf1b159"},"vehicle_type_id":"4","last_reported":1752765138,"current_range_meters":10800,"station_id":"","pricing_plan_id":"cebpf4jnsgd1na2vs0mg"},{"bike_id":"90f54ea4-e306-4792-9966-1cc1bc24176c","system_id":"levelo_inurba_marseille","lat":43.26495,"lon":5.39545,"is_reserved":false,"is_disabled":true,"rental_uris":{"android":"levelo://app?vid=90f54ea4-e306-4792-9966-1cc1bc24176c","ios":"levelo://app?vid=90f54ea4-e306-4792-9966-1cc1bc24176c"},"vehicle_type_id":"4","last_reported":1752765138,"current_range_meters":10800,"station_id":"ce4bhi12rcd13ifvqfq0","pricing_plan_id":"cebpf4jnsgd1na2vs0mg"},{"bike_id":"0a81d3d5-1a88-4207-bfeb-dce61510f31f","system_id":"levelo_inurba_marseille","lat":43.295221,"lon":5.394359,"is_reserved":false,"is_disabled":true,"rental_uris":{"android":"levelo://app?vid=0a81d3d5-1a88-4207-bfeb-dce61510f31f","ios":"levelo://app?vid=0a81d3d5-1a88-4207-bfeb-dce61510f31f"},"vehicle_type_id":"4","last_reported":1752765138,"current_range_meters":10800,"station_id":"ce4bh292rcd13ifvqdf0","pricing_plan_id":"cebpf4jnsgd1na2vs0mg"},{"bike_id":"81f88721-00d0-431c-83bf-446e11578408","system_id":"levelo_inurba_marseille","lat":43.225044,"lon":5.347758,"is_reserved":false,"is_disabled":false,"rental_uris":{"android":"levelo://app?vid=81f88721-00d0-431c-83bf-446e11578408","ios":"levelo://app?vid=81f88721-00d0-431c-83bf-446e11578408"},"vehicle_type_id":"4","last_reported":1752765138,"current_range_meters":10800,"station_id":"st_cvj5dfep6f1abm77gieg","pricing_plan_id":"cebpf4jnsgd1na2vs0mg"},{"bike_id":"555bc53e-5286-4fb6-9154-af42b3fd9792","system_id":"levelo_inurba_marseille","lat":43.30072,"lon":5.37281,"is_reserved":false,"is_disabled":false,"rental_uris":{"android":"levelo://app?vid=555bc53e-5286-4fb6-9154-af42b3fd9792","ios":"levelo://app?vid=555bc53e-5286-4fb6-9154-af42b3fd9792"},"vehicle_type_id":"4","last_reported":1752765138,"current_range_meters":11200,"station_id":"","pricing_plan_id":"cebpf4jnsgd1na2vs0mg"},{"bike_id":"8fefde04-d8dc-4eb7-88e6-9377ab0af933","system_id":"levelo_inurba_marseille","lat":43.28269,"lon":5.35057,"is_reserved":false,"is_disabled":false,"rental_uris":{"android":"levelo://app?vid=8fefde04-d8dc-4eb7-88e6-9377ab0af933","ios":"levelo://app?vid=8fefde04-d8dc-4eb7-88e6-9377ab0af933"},"vehicle_type_id":"4","last_reported":1752765138,"current_range_meters":11200,"station_id":"ce4bhbp2rcd13ifvqerg","pricing_plan_id":"cebpf4jnsgd1na2vs0mg"},{"bike_id":"6a69d0cc-faf8-4dc3-8ded-5ef811a5de8d","system_id":"levelo_inurba_marseille","lat":43.3074,"lon":5.42435,"is_reserved":false,"is_disabled":false,"rental_uris":{"android":"levelo://app?vid=6a69d0cc-faf8-4dc3-8ded-5ef811a5de8d","ios":"levelo://app?vid=6a69d0cc-faf8-4dc3-8ded-5ef811a5de8d"},"vehicle_type_id":"4","last_reported":1752765138,"current_range_meters":11200,"station_id":"st_cvj6ca6bvosntc0bfgr0","pricing_plan_id":"cebpf4jnsgd1na2vs0mg"},{"bike_id":"73bca0b0-4c74-4529-b2c1-e6eee305216b","system_id":"levelo_inurba_marseille","lat":43.22944,"lon":5.35374,"is_reserved":false,"is_disabled":false,"rental_uris":{"android":"levelo://app?vid=73bca0b0-4c74-4529-b2c1-e6eee305216b","ios":"levelo://app?vid=73bca0b0-4c74-4529-b2c1-e6eee305216b"},"vehicle_type_id":"4","last_reported":1752765138,"current_range_meters":11600,"station_id":"cpo3532slgdg3j2ikp40","pricing_plan_id":"cebpf4jnsgd1na2vs0mg"},{"bike_id":"15fec89e-48d0-49c2-8dd5-9b714e6502e1","system_id":"levelo_inurba_marseille","lat":43.28617,"lon":5.3511,"is_reserved":false,"is_disabled":false,"rental_uris":{"android":"levelo://app?vid=15fec89e-48d0-49c2-8dd5-9b714e6502e1","ios":"levelo://app?vid=15fec89e-48d0-49c2-8dd5-9b714e6502e1"},"vehicle_type_id":"4","last_reported":1752765138,"current_range_meters":11600,"station_id":"ce4bhch2rcd13ifvqeug","pricing_plan_id":"cebpf4jnsgd1na2vs0mg"},{"bike_id":"63c1bf79-a994-4e57-950b-ce9e3d3a58bb","system_id":"levelo_inurba_marseille","lat":43.28275,"lon":5.35063,"is_reserved":false,"is_disabled":false,"rental_uris":{"android":"levelo://app?vid=63c1bf79-a994-4e57-950b-ce9e3d3a58bb","ios":"levelo://app?vid=63c1bf79-a994-4e57-950b-ce9e3d3a58bb"},"vehicle_type_id":"4","last_reported":1752765138,"current_range_meters":11600,"station_id":"ce4bhbp2rcd13ifvqerg","pricing_plan_id":"cebpf4jnsgd1na2vs0mg"},{"bike_id":"0da7ec10-5e3e-4395-9239-68b369e25155","system_id":"levelo_inurba_marseille","lat":43.29965,"lon":5.38495,"is_reserved":false,"is_disabled":false,"rental_uris":{"android":"levelo://app?vid=0da7ec10-5e3e-4395-9239-68b369e25155","ios":"levelo://app?vid=0da7ec10-5e3e-4395-9239-68b369e25155"},"vehicle_type_id":"4","last_reported":1752765138,"current_range_meters":12000,"station_id":"ce4bgj92rcd13ifvqbd0","pricing_plan_id":"cebpf4jnsgd1na2vs0mg"},{"bike_id":"4fc804f4-9110-4a15-b1bd-74c1bf1c3bfe","system_id":"levelo_inurba_marseille","lat":43.28293,"lon":5.38916,"is_reserved":false,"is_disabled":false,"rental_uris":{"android":"levelo://app?vid=4fc804f4-9110-4a15-b1bd-74c1bf1c3bfe","ios":"levelo://app?vid=4fc804f4-9110-4a15-b1bd-74c1bf1c3bfe"},"vehicle_type_id":"4","last_reported":1752765138,"current_range_meters":12000,"station_id":"","pricing_plan_id":"cebpf4jnsgd1na2vs0mg"},{"bike_id":"98daf460-c45d-4be9-b03d-fde500644729","system_id":"levelo_inurba_marseille","lat":43.296223,"lon":5.377025,"is_reserved":false,"is_disabled":false,"rental_uris":{"android":"levelo://app?vid=98daf460-c45d-4be9-b03d-fde500644729","ios":"levelo://app?vid=98daf460-c45d-4be9-b03d-fde500644729"},"vehicle_type_id":"4","last_reported":1752765138,"current_range_meters":12400,"station_id":"","pricing_plan_id":"cebpf4jnsgd1na2vs0mg"},{"bike_id":"3444bdc6-514a-4ba6-9650-f9073305e33d","system_id":"levelo_inurba_marseille","lat":43.29682,"lon":5.3698,"is_reserved":false,"is_disabled":false,"rental_uris":{"android":"levelo://app?vid=3444bdc6-514a-4ba6-9650-f9073305e33d","ios":"levelo://app?vid=3444bdc6-514a-4ba6-9650-f9073305e33d"},"vehicle_type_id":"4","last_reported":1752765138,"current_range_meters":12400,"station_id":"","pricing_plan_id":"cebpf4jnsgd1na2vs0mg"},{"bike_id":"fa7bb580-3d13-4ef7-aebd-7f9052a84d9d","system_id":"levelo_inurba_marseille","lat":43.28533,"lon":5.38618,"is_reserved":false,"is_disabled":false,"rental_uris":{"android":"levelo://app?vid=fa7bb580-3d13-4ef7-aebd-7f9052a84d9d","ios":"levelo://app?vid=fa7bb580-3d13-4ef7-aebd-7f9052a84d9d"},"vehicle_type_id":"4","last_reported":1752765138,"current_range_meters":12400,"station_id":"","pricing_plan_id":"cebpf4jnsgd1na2vs0mg"},{"bike_id":"c6f2dae8-ae8b-4ac7-b2fb-aa1ab1f4cbb0","system_id":"levelo_inurba_marseille","lat":43.301483,"lon":5.380824,"is_reserved":false,"is_disabled":false,"rental_uris":{"android":"levelo://app?vid=c6f2dae8-ae8b-4ac7-b2fb-aa1ab1f4cbb0","ios":"levelo://app?vid=c6f2dae8-ae8b-4ac7-b2fb-aa1ab1f4cbb0"},"vehicle_type_id":"4","last_reported":1752765138,"current_range_meters":12400,"station_id":"ce4bgjp2rcd13ifvqbh0","pricing_plan_id":"cebpf4jnsgd1na2vs0mg"},{"bike_id":"1a1de22c-864f-4087-990e-227151d55abc","system_id":"levelo_inurba_marseille","lat":43.2121,"lon":5.35081,"is_reserved":false,"is_disabled":false,"rental_uris":{"android":"levelo://app?vid=1a1de22c-864f-4087-990e-227151d55abc","ios":"levelo://app?vid=1a1de22c-864f-4087-990e-227151d55abc"},"vehicle_type_id":"4","last_reported":1752765138,"current_range_meters":12800,"station_id":"st_cvj6sg6p6f1abm77japg","pricing_plan_id":"cebpf4jnsgd1na2vs0mg"},{"bike_id":"41ee9dcd-b187-4958-a82b-103d3d60828f","system_id":"levelo_inurba_marseille","lat":43.2862,"lon":5.35106,"is_reserved":false,"is_disabled":false,"rental_uris":{"android":"levelo://app?vid=41ee9dcd-b187-4958-a82b-103d3d60828f","ios":"levelo://app?vid=41ee9dcd-b187-4958-a82b-103d3d60828f"},"vehicle_type_id":"4","last_reported":1752765138,"current_range_meters":12800,"station_id":"ce4bhch2rcd13ifvqeug","pricing_plan_id":"cebpf4jnsgd1na2vs0mg"},{"bike_id":"a7223ff8-19eb-451a-8bed-3d0dd4b19a2d","system_id":"levelo_inurba_marseille","lat":43.29283,"lon":5.36832,"is_reserved":false,"is_disabled":false,"rental_uris":{"android":"levelo://app?vid=a7223ff8-19eb-451a-8bed-3d0dd4b19a2d","ios":"levelo://app?vid=a7223ff8-19eb-451a-8bed-3d0dd4b19a2d"},"vehicle_type_id":"4","last_reported":1752765138,"current_range_meters":12800,"station_id":"ce4bhbp2rcd13ifvqesg","pricing_plan_id":"cebpf4jnsgd1na2vs0mg"},{"bike_id":"a6ad2597-d35f-40c2-9606-f75afa3aba4c","system_id":"levelo_inurba_marseille","lat":43.28269,"lon":5.35069,"is_reserved":false,"is_disabled":false,"rental_uris":{"android":"levelo://app?vid=a6ad2597-d35f-40c2-9606-f75afa3aba4c","ios":"levelo://app?vid=a6ad2597-d35f-40c2-9606-f75afa3aba4c"},"vehicle_type_id":"4","last_reported":1752765138,"current_range_meters":12800,"station_id":"ce4bhbp2rcd13ifvqerg","pricing_plan_id":"cebpf4jnsgd1na2vs0mg"},{"bike_id":"ad6a4f4d-f142-4af5-91cb-0a68309a31a0","system_id":"levelo_inurba_marseille","lat":43.31122,"lon":5.37749,"is_reserved":false,"is_disabled":false,"rental_uris":{"android":"levelo://app?vid=ad6a4f4d-f142-4af5-91cb-0a68309a31a0","ios":"levelo://app?vid=ad6a4f4d-f142-4af5-91cb-0a68309a31a0"},"vehicle_type_id":"4","last_reported":1752765138,"current_range_meters":12800,"station_id":"ce4bgt92rcd13ifvqcg0","pricing_plan_id":"cebpf4jnsgd1na2vs0mg"},{"bike_id":"28d27c17-e6ca-4cec-aec9-f1f6696b8a12","system_id":"levelo_inurba_marseille","lat":43.29962,"lon":5.43485,"is_reserved":false,"is_disabled":true,"rental_uris":{"android":"levelo://app?vid=28d27c17-e6ca-4cec-aec9-f1f6696b8a12","ios":"levelo://app?vid=28d27c17-e6ca-4cec-aec9-f1f6696b8a12"},"vehicle_type_id":"4","last_reported":1752765138,"current_range_meters":12800,"station_id":"ce4bhpp2rcd13ifvqhfg","pricing_plan_id":"cebpf4jnsgd1na2vs0mg"},{"bike_id":"35c5f7ca-7f7a-4b86-bbfe-93c09f5e603d","system_id":"levelo_inurba_marseille","lat":43.31274,"lon":5.4017,"is_reserved":false,"is_disabled":false,"rental_uris":{"android":"levelo://app?vid=35c5f7ca-7f7a-4b86-bbfe-93c09f5e603d","ios":"levelo://app?vid=35c5f7ca-7f7a-4b86-bbfe-93c09f5e603d"},"vehicle_type_id":"4","last_reported":1752765138,"current_range_meters":12800,"station_id":"ce4bh092rcd13ifvqd30","pricing_plan_id":"cebpf4jnsgd1na2vs0mg"},{"bike_id":"8900e705-65c2-469c-b21e-1d0a4391c964","system_id":"levelo_inurba_marseille","lat":43.230661,"lon":5.354908,"is_reserved":false,"is_disabled":false,"rental_uris":{"android":"levelo://app?vid=8900e705-65c2-469c-b21e-1d0a4391c964","ios":"levelo://app?vid=8900e705-65c2-469c-b21e-1d0a4391c964"},"vehicle_type_id":"4","last_reported":1752765138,"current_range_meters":13600,"station_id":"cpo3342slgdg3j2ifvpg","pricing_plan_id":"cebpf4jnsgd1na2vs0mg"},{"bike_id":"c303be8a-04b5-403f-a92a-eac34b716859","system_id":"levelo_inurba_marseille","lat":43.22934,"lon":5.35373,"is_reserved":false,"is_disabled":false,"rental_uris":{"android":"levelo://app?vid=c303be8a-04b5-403f-a92a-eac34b716859","ios":"levelo://app?vid=c303be8a-04b5-403f-a92a-eac34b716859"},"vehicle_type_id":"4","last_reported":1752765138,"current_range_meters":13600,"station_id":"cpo3532slgdg3j2ikp40","pricing_plan_id":"cebpf4jnsgd1na2vs0mg"},{"bike_id":"65f4aa8e-527d-4cbf-850a-78dd07846d37","system_id":"levelo_inurba_marseille","lat":43.31715,"lon":5.43703,"is_reserved":false,"is_disabled":false,"rental_uris":{"android":"levelo://app?vid=65f4aa8e-527d-4cbf-850a-78dd07846d37","ios":"levelo://app?vid=65f4aa8e-527d-4cbf-850a-78dd07846d37"},"vehicle_type_id":"4","last_reported":1752765138,"current_range_meters":13600,"station_id":"ce4bhp92rcd13ifvqhcg","pricing_plan_id":"cebpf4jnsgd1na2vs0mg"},{"bike_id":"07f5ae19-0925-43ef-aab4-48ec58bc62b9","system_id":"levelo_inurba_marseille","lat":43.314483,"lon":5.374418,"is_reserved":false,"is_disabled":false,"rental_uris":{"android":"levelo://app?vid=07f5ae19-0925-43ef-aab4-48ec58bc62b9","ios":"levelo://app?vid=07f5ae19-0925-43ef-aab4-48ec58bc62b9"},"vehicle_type_id":"4","last_reported":1752765138,"current_range_meters":13600,"station_id":"","pricing_plan_id":"cebpf4jnsgd1na2vs0mg"},{"bike_id":"b6e40dbb-482e-43e6-bc56-ee373b6225ae","system_id":"levelo_inurba_marseille","lat":43.314962,"lon":5.373136,"is_reserved":false,"is_disabled":false,"rental_uris":{"android":"levelo://app?vid=b6e40dbb-482e-43e6-bc56-ee373b6225ae","ios":"levelo://app?vid=b6e40dbb-482e-43e6-bc56-ee373b6225ae"},"vehicle_type_id":"4","last_reported":1752765138,"current_range_meters":14000,"station_id":"ce4bgt12rcd13ifvqcd0","pricing_plan_id":"cebpf4jnsgd1na2vs0mg"},{"bike_id":"46c96891-232a-46d4-9792-b24766fc0c2c","system_id":"levelo_inurba_marseille","lat":43.31227,"lon":5.36876,"is_reserved":false,"is_disabled":false,"rental_uris":{"android":"levelo://app?vid=46c96891-232a-46d4-9792-b24766fc0c2c","ios":"levelo://app?vid=46c96891-232a-46d4-9792-b24766fc0c2c"},"vehicle_type_id":"4","last_reported":1752765138,"current_range_meters":14000,"station_id":"ce4bgl92rcd13ifvqbq0","pricing_plan_id":"cebpf4jnsgd1na2vs0mg"},{"bike_id":"3e2535f8-7d7e-418e-8d9a-1404dd8a8196","system_id":"levelo_inurba_marseille","lat":43.29319,"lon":5.37153,"is_reserved":false,"is_disabled":true,"rental_uris":{"android":"levelo://app?vid=3e2535f8-7d7e-418e-8d9a-1404dd8a8196","ios":"levelo://app?vid=3e2535f8-7d7e-418e-8d9a-1404dd8a8196"},"vehicle_type_id":"4","last_reported":1752765138,"current_range_meters":14000,"station_id":"ce4bgh92rcd13ifvqb40","pricing_plan_id":"cebpf4jnsgd1na2vs0mg"},{"bike_id":"e8db7860-c461-4659-866b-a14a730ae823","system_id":"levelo_inurba_marseille","lat":43.31507,"lon":5.37298,"is_reserved":false,"is_disabled":false,"rental_uris":{"android":"levelo://app?vid=e8db7860-c461-4659-866b-a14a730ae823","ios":"levelo://app?vid=e8db7860-c461-4659-866b-a14a730ae823"},"vehicle_type_id":"4","last_reported":1752765138,"current_range_meters":14000,"station_id":"ce4bgt12rcd13ifvqcd0","pricing_plan_id":"cebpf4jnsgd1na2vs0mg"},{"bike_id":"879c6f3b-44db-445e-be8a-b534d3638e3a","system_id":"levelo_inurba_marseille","lat":43.2655,"lon":5.39036,"is_reserved":false,"is_disabled":false,"rental_uris":{"android":"levelo://app?vid=879c6f3b-44db-445e-be8a-b534d3638e3a","ios":"levelo://app?vid=879c6f3b-44db-445e-be8a-b534d3638e3a"},"vehicle_type_id":"4","last_reported":1752765138,"current_range_meters":14000,"station_id":"ce4bhe12rcd13ifvqf30","pricing_plan_id":"cebpf4jnsgd1na2vs0mg"},{"bike_id":"b57413d0-cbc6-4c45-99a2-a13531e6906c","system_id":"levelo_inurba_marseille","lat":43.27899,"lon":5.35426,"is_reserved":false,"is_disabled":false,"rental_uris":{"android":"levelo://app?vid=b57413d0-cbc6-4c45-99a2-a13531e6906c","ios":"levelo://app?vid=b57413d0-cbc6-4c45-99a2-a13531e6906c"},"vehicle_type_id":"4","last_reported":1752765138,"current_range_meters":14400,"station_id":"","pricing_plan_id":"cebpf4jnsgd1na2vs0mg"},{"bike_id":"88343056-72e1-47ac-8d7d-555033a5d733","system_id":"levelo_inurba_marseille","lat":43.26231,"lon":5.4045,"is_reserved":false,"is_disabled":false,"rental_uris":{"android":"levelo://app?vid=88343056-72e1-47ac-8d7d-555033a5d733","ios":"levelo://app?vid=88343056-72e1-47ac-8d7d-555033a5d733"},"vehicle_type_id":"4","last_reported":1752765138,"current_range_meters":14400,"station_id":"ce4bhmh2rcd13ifvqgmg","pricing_plan_id":"cebpf4jnsgd1na2vs0mg"},{"bike_id":"fec0f980-3485-4095-b4d2-a568d83d7d17","system_id":"levelo_inurba_marseille","lat":43.28411,"lon":5.34988,"is_reserved":false,"is_disabled":false,"rental_uris":{"android":"levelo://app?vid=fec0f980-3485-4095-b4d2-a568d83d7d17","ios":"levelo://app?vid=fec0f980-3485-4095-b4d2-a568d83d7d17"},"vehicle_type_id":"4","last_reported":1752765138,"current_range_meters":14400,"station_id":"ce4bhbh2rcd13ifvqepg","pricing_plan_id":"cebpf4jnsgd1na2vs0mg"},{"bike_id":"920a032a-ff26-4e5c-9524-0f56cdb197c4","system_id":"levelo_inurba_marseille","lat":43.30563,"lon":5.36707,"is_reserved":false,"is_disabled":false,"rental_uris":{"android":"levelo://app?vid=920a032a-ff26-4e5c-9524-0f56cdb197c4","ios":"levelo://app?vid=920a032a-ff26-4e5c-9524-0f56cdb197c4"},"vehicle_type_id":"4","last_reported":1752765138,"current_range_meters":14400,"station_id":"ce4bgrp2rcd13ifvqc9g","pricing_plan_id":"cebpf4jnsgd1na2vs0mg"},{"bike_id":"fd07f785-948d-48e7-9c57-46cccfaa2b14","system_id":"levelo_inurba_marseille","lat":43.28415,"lon":5.34986,"is_reserved":false,"is_disabled":false,"rental_uris":{"android":"levelo://app?vid=fd07f785-948d-48e7-9c57-46cccfaa2b14","ios":"levelo://app?vid=fd07f785-948d-48e7-9c57-46cccfaa2b14"},"vehicle_type_id":"4","last_reported":1752765138,"current_range_meters":14400,"station_id":"ce4bhbh2rcd13ifvqepg","pricing_plan_id":"cebpf4jnsgd1na2vs0mg"},{"bike_id":"580a442f-2122-4aac-a8b9-ee6fd6ecbdb8","system_id":"levelo_inurba_marseille","lat":43.25119,"lon":5.40318,"is_reserved":false,"is_disabled":false,"rental_uris":{"android":"levelo://app?vid=580a442f-2122-4aac-a8b9-ee6fd6ecbdb8","ios":"levelo://app?vid=580a442f-2122-4aac-a8b9-ee6fd6ecbdb8"},"vehicle_type_id":"4","last_reported":1752765138,"current_range_meters":14400,"station_id":"ce4bhlh2rcd13ifvqgig","pricing_plan_id":"cebpf4jnsgd1na2vs0mg"},{"bike_id":"6d70d6d4-7776-4d1e-a307-46e9e54de733","system_id":"levelo_inurba_marseille","lat":43.29569,"lon":5.39968,"is_reserved":false,"is_disabled":true,"rental_uris":{"android":"levelo://app?vid=6d70d6d4-7776-4d1e-a307-46e9e54de733","ios":"levelo://app?vid=6d70d6d4-7776-4d1e-a307-46e9e54de733"},"vehicle_type_id":"4","last_reported":1752765138,"current_range_meters":14800,"station_id":"ce4bh312rcd13ifvqdj0","pricing_plan_id":"cebpf4jnsgd1na2vs0mg"},{"bike_id":"aa913e1e-5ffe-4b0d-9cff-72f8c663c70d","system_id":"levelo_inurba_marseille","lat":43.25107,"lon":5.4032,"is_reserved":false,"is_disabled":false,"rental_uris":{"android":"levelo://app?vid=aa913e1e-5ffe-4b0d-9cff-72f8c663c70d","ios":"levelo://app?vid=aa913e1e-5ffe-4b0d-9cff-72f8c663c70d"},"vehicle_type_id":"4","last_reported":1752765138,"current_range_meters":14800,"station_id":"ce4bhlh2rcd13ifvqgig","pricing_plan_id":"cebpf4jnsgd1na2vs0mg"},{"bike_id":"2dfb31a6-b7cc-4555-ace2-2ecf80d68453","system_id":"levelo_inurba_marseille","lat":43.30144,"lon":5.38053,"is_reserved":false,"is_disabled":false,"rental_uris":{"android":"levelo://app?vid=2dfb31a6-b7cc-4555-ace2-2ecf80d68453","ios":"levelo://app?vid=2dfb31a6-b7cc-4555-ace2-2ecf80d68453"},"vehicle_type_id":"4","last_reported":1752765138,"current_range_meters":14800,"station_id":"ce4bgjp2rcd13ifvqbh0","pricing_plan_id":"cebpf4jnsgd1na2vs0mg"},{"bike_id":"ed278f73-2f98-4e76-90c7-39ed55890ff3","system_id":"levelo_inurba_marseille","lat":43.28355,"lon":5.38103,"is_reserved":false,"is_disabled":false,"rental_uris":{"android":"levelo://app?vid=ed278f73-2f98-4e76-90c7-39ed55890ff3","ios":"levelo://app?vid=ed278f73-2f98-4e76-90c7-39ed55890ff3"},"vehicle_type_id":"4","last_reported":1752765138,"current_range_meters":14800,"station_id":"ce4bh412rcd13ifvqdr0","pricing_plan_id":"cebpf4jnsgd1na2vs0mg"},{"bike_id":"f97ec58d-e44a-4dfd-a56e-28f2696e8ce6","system_id":"levelo_inurba_marseille","lat":43.28426,"lon":5.34972,"is_reserved":false,"is_disabled":false,"rental_uris":{"android":"levelo://app?vid=f97ec58d-e44a-4dfd-a56e-28f2696e8ce6","ios":"levelo://app?vid=f97ec58d-e44a-4dfd-a56e-28f2696e8ce6"},"vehicle_type_id":"4","last_reported":1752765138,"current_range_meters":14800,"station_id":"","pricing_plan_id":"cebpf4jnsgd1na2vs0mg"},{"bike_id":"be8db29c-af24-41b6-8134-2579df328339","system_id":"levelo_inurba_marseille","lat":43.30308,"lon":5.36897,"is_reserved":false,"is_disabled":false,"rental_uris":{"android":"levelo://app?vid=be8db29c-af24-41b6-8134-2579df328339","ios":"levelo://app?vid=be8db29c-af24-41b6-8134-2579df328339"},"vehicle_type_id":"4","last_reported":1752765138,"current_range_meters":14800,"station_id":"ce4bgqh2rcd13ifvqc5g","pricing_plan_id":"cebpf4jnsgd1na2vs0mg"},{"bike_id":"2ac93549-5c94-4228-8eea-782a21384d10","system_id":"levelo_inurba_marseille","lat":43.29634,"lon":5.37793,"is_reserved":false,"is_disabled":false,"rental_uris":{"android":"levelo://app?vid=2ac93549-5c94-4228-8eea-782a21384d10","ios":"levelo://app?vid=2ac93549-5c94-4228-8eea-782a21384d10"},"vehicle_type_id":"4","last_reported":1752765138,"current_range_meters":14800,"station_id":"","pricing_plan_id":"cebpf4jnsgd1na2vs0mg"},{"bike_id":"8190b158-4f1a-4f58-a07b-5b1c4e7d71cb","system_id":"levelo_inurba_marseille","lat":43.292209,"lon":5.360402,"is_reserved":false,"is_disabled":false,"rental_uris":{"android":"levelo://app?vid=8190b158-4f1a-4f58-a07b-5b1c4e7d71cb","ios":"levelo://app?vid=8190b158-4f1a-4f58-a07b-5b1c4e7d71cb"},"vehicle_type_id":"4","last_reported":1752765138,"current_range_meters":14800,"station_id":"ce4bhbh2rcd13ifvqeqg","pricing_plan_id":"cebpf4jnsgd1na2vs0mg"},{"bike_id":"fd75f631-a93f-469d-bea7-4e480ab41eae","system_id":"levelo_inurba_marseille","lat":43.28274,"lon":5.35072,"is_reserved":false,"is_disabled":false,"rental_uris":{"android":"levelo://app?vid=fd75f631-a93f-469d-bea7-4e480ab41eae","ios":"levelo://app?vid=fd75f631-a93f-469d-bea7-4e480ab41eae"},"vehicle_type_id":"4","last_reported":1752765138,"current_range_meters":14800,"station_id":"ce4bhbp2rcd13ifvqerg","pricing_plan_id":"cebpf4jnsgd1na2vs0mg"},{"bike_id":"582d5e63-4946-44ff-8da5-cdf3e52be7b6","system_id":"levelo_inurba_marseille","lat":43.27062,"lon":5.40238,"is_reserved":false,"is_disabled":false,"rental_uris":{"android":"levelo://app?vid=582d5e63-4946-44ff-8da5-cdf3e52be7b6","ios":"levelo://app?vid=582d5e63-4946-44ff-8da5-cdf3e52be7b6"},"vehicle_type_id":"4","last_reported":1752765138,"current_range_meters":14800,"station_id":"ce4bhk92rcd13ifvqgc0","pricing_plan_id":"cebpf4jnsgd1na2vs0mg"},{"bike_id":"2c6e34ec-e4ad-4b55-908f-732bdcecdb2f","system_id":"levelo_inurba_marseille","lat":43.211924,"lon":5.350766,"is_reserved":false,"is_disabled":false,"rental_uris":{"android":"levelo://app?vid=2c6e34ec-e4ad-4b55-908f-732bdcecdb2f","ios":"levelo://app?vid=2c6e34ec-e4ad-4b55-908f-732bdcecdb2f"},"vehicle_type_id":"4","last_reported":1752765138,"current_range_meters":15200,"station_id":"st_cvj6sg6p6f1abm77japg","pricing_plan_id":"cebpf4jnsgd1na2vs0mg"},{"bike_id":"4e5ad5c9-c42b-45d7-be37-0630c0b24a37","system_id":"levelo_inurba_marseille","lat":43.29052,"lon":5.35919,"is_reserved":false,"is_disabled":false,"rental_uris":{"android":"levelo://app?vid=4e5ad5c9-c42b-45d7-be37-0630c0b24a37","ios":"levelo://app?vid=4e5ad5c9-c42b-45d7-be37-0630c0b24a37"},"vehicle_type_id":"4","last_reported":1752765138,"current_range_meters":15200,"station_id":"ce4bha92rcd13ifvqeg0","pricing_plan_id":"cebpf4jnsgd1na2vs0mg"},{"bike_id":"da891840-0cec-4ccc-961c-48903736c6fa","system_id":"levelo_inurba_marseille","lat":43.31139,"lon":5.37692,"is_reserved":false,"is_disabled":false,"rental_uris":{"android":"levelo://app?vid=da891840-0cec-4ccc-961c-48903736c6fa","ios":"levelo://app?vid=da891840-0cec-4ccc-961c-48903736c6fa"},"vehicle_type_id":"4","last_reported":1752765138,"current_range_meters":15200,"station_id":"","pricing_plan_id":"cebpf4jnsgd1na2vs0mg"},{"bike_id":"f2bd9d96-bd62-4421-a079-cb06dd65d7d3","system_id":"levelo_inurba_marseille","lat":43.311099,"lon":5.377641,"is_reserved":false,"is_disabled":false,"rental_uris":{"android":"levelo://app?vid=f2bd9d96-bd62-4421-a079-cb06dd65d7d3","ios":"levelo://app?vid=f2bd9d96-bd62-4421-a079-cb06dd65d7d3"},"vehicle_type_id":"4","last_reported":1752765138,"current_range_meters":15200,"station_id":"ce4bgt92rcd13ifvqcg0","pricing_plan_id":"cebpf4jnsgd1na2vs0mg"},{"bike_id":"4ce23f9a-ac9e-46f9-8867-f89caa95c0e6","system_id":"levelo_inurba_marseille","lat":43.31325,"lon":5.39686,"is_reserved":false,"is_disabled":false,"rental_uris":{"android":"levelo://app?vid=4ce23f9a-ac9e-46f9-8867-f89caa95c0e6","ios":"levelo://app?vid=4ce23f9a-ac9e-46f9-8867-f89caa95c0e6"},"vehicle_type_id":"4","last_reported":1752765138,"current_range_meters":15200,"station_id":"ce4bgvp2rcd13ifvqcu0","pricing_plan_id":"cebpf4jnsgd1na2vs0mg"},{"bike_id":"e555b545-304c-4dce-8496-1643c0f2600e","system_id":"levelo_inurba_marseille","lat":43.337444,"lon":5.374475,"is_reserved":false,"is_disabled":false,"rental_uris":{"android":"levelo://app?vid=e555b545-304c-4dce-8496-1643c0f2600e","ios":"levelo://app?vid=e555b545-304c-4dce-8496-1643c0f2600e"},"vehicle_type_id":"4","last_reported":1752765138,"current_range_meters":15200,"station_id":"","pricing_plan_id":"cebpf4jnsgd1na2vs0mg"},{"bike_id":"e0d9b48c-1035-424d-812a-3f3b035f8232","system_id":"levelo_inurba_marseille","lat":43.27371,"lon":5.36255,"is_reserved":false,"is_disabled":false,"rental_uris":{"android":"levelo://app?vid=e0d9b48c-1035-424d-812a-3f3b035f8232","ios":"levelo://app?vid=e0d9b48c-1035-424d-812a-3f3b035f8232"},"vehicle_type_id":"4","last_reported":1752765138,"current_range_meters":16000,"station_id":"ce4bhbh2rcd13ifvqeo0","pricing_plan_id":"cebpf4jnsgd1na2vs0mg"},{"bike_id":"aebeee84-419c-4ac0-8ad4-257b0df9d04f","system_id":"levelo_inurba_marseille","lat":43.33624,"lon":5.41056,"is_reserved":false,"is_disabled":false,"rental_uris":{"android":"levelo://app?vid=aebeee84-419c-4ac0-8ad4-257b0df9d04f","ios":"levelo://app?vid=aebeee84-419c-4ac0-8ad4-257b0df9d04f"},"vehicle_type_id":"4","last_reported":1752765138,"current_range_meters":16000,"station_id":"ce4bhqh2rcd13ifvqhmg","pricing_plan_id":"cebpf4jnsgd1na2vs0mg"},{"bike_id":"bc44911b-3357-4596-a598-6662ffc8e77f","system_id":"levelo_inurba_marseille","lat":43.273788,"lon":5.36257,"is_reserved":false,"is_disabled":false,"rental_uris":{"android":"levelo://app?vid=bc44911b-3357-4596-a598-6662ffc8e77f","ios":"levelo://app?vid=bc44911b-3357-4596-a598-6662ffc8e77f"},"vehicle_type_id":"4","last_reported":1752765138,"current_range_meters":16000,"station_id":"ce4bhbh2rcd13ifvqeo0","pricing_plan_id":"cebpf4jnsgd1na2vs0mg"},{"bike_id":"08047682-4828-4af3-8084-134e8a9fbd3f","system_id":"levelo_inurba_marseille","lat":43.26816,"lon":5.40266,"is_reserved":false,"is_disabled":false,"rental_uris":{"android":"levelo://app?vid=08047682-4828-4af3-8084-134e8a9fbd3f","ios":"levelo://app?vid=08047682-4828-4af3-8084-134e8a9fbd3f"},"vehicle_type_id":"4","last_reported":1752765138,"current_range_meters":16000,"station_id":"ce501612rcd8frsf0b60","pricing_plan_id":"cebpf4jnsgd1na2vs0mg"},{"bike_id":"a092d05c-8017-44f5-ba8a-35792463d6a3","system_id":"levelo_inurba_marseille","lat":43.22536,"lon":5.34792,"is_reserved":false,"is_disabled":false,"rental_uris":{"android":"levelo://app?vid=a092d05c-8017-44f5-ba8a-35792463d6a3","ios":"levelo://app?vid=a092d05c-8017-44f5-ba8a-35792463d6a3"},"vehicle_type_id":"4","last_reported":1752765138,"current_range_meters":16000,"station_id":"st_cvj5dfep6f1abm77gieg","pricing_plan_id":"cebpf4jnsgd1na2vs0mg"},{"bike_id":"8b76c999-ba4d-4434-ac3c-53677889ef62","system_id":"levelo_inurba_marseille","lat":43.27893,"lon":5.35425,"is_reserved":false,"is_disabled":false,"rental_uris":{"android":"levelo://app?vid=8b76c999-ba4d-4434-ac3c-53677889ef62","ios":"levelo://app?vid=8b76c999-ba4d-4434-ac3c-53677889ef62"},"vehicle_type_id":"4","last_reported":1752765138,"current_range_meters":16000,"station_id":"","pricing_plan_id":"cebpf4jnsgd1na2vs0mg"},{"bike_id":"c3a061f7-b76c-4dd1-a988-11757c15f2b6","system_id":"levelo_inurba_marseille","lat":43.26561,"lon":5.37291,"is_reserved":false,"is_disabled":false,"rental_uris":{"android":"levelo://app?vid=c3a061f7-b76c-4dd1-a988-11757c15f2b6","ios":"levelo://app?vid=c3a061f7-b76c-4dd1-a988-11757c15f2b6"},"vehicle_type_id":"4","last_reported":1752765138,"current_range_meters":16000,"station_id":"ce4bhg12rcd13ifvqf70","pricing_plan_id":"cebpf4jnsgd1na2vs0mg"},{"bike_id":"d0573d96-ddb4-4622-bd15-49483cac3810","system_id":"levelo_inurba_marseille","lat":43.258623,"lon":5.398988,"is_reserved":false,"is_disabled":true,"rental_uris":{"android":"levelo://app?vid=d0573d96-ddb4-4622-bd15-49483cac3810","ios":"levelo://app?vid=d0573d96-ddb4-4622-bd15-49483cac3810"},"vehicle_type_id":"4","last_reported":1752765138,"current_range_meters":16000,"station_id":"ce4bhl92rcd13ifvqghg","pricing_plan_id":"cebpf4jnsgd1na2vs0mg"},{"bike_id":"b3af22de-804c-4b6e-9abb-abf742899dd0","system_id":"levelo_inurba_marseille","lat":43.24168,"lon":5.36389,"is_reserved":false,"is_disabled":false,"rental_uris":{"android":"levelo://app?vid=b3af22de-804c-4b6e-9abb-abf742899dd0","ios":"levelo://app?vid=b3af22de-804c-4b6e-9abb-abf742899dd0"},"vehicle_type_id":"4","last_reported":1752765138,"current_range_meters":16000,"station_id":"cpo36qri1sfpv3e86is0","pricing_plan_id":"cebpf4jnsgd1na2vs0mg"},{"bike_id":"5983b9f0-2dbc-4cb0-9457-c9b8b90078c7","system_id":"levelo_inurba_marseille","lat":43.28268,"lon":5.35066,"is_reserved":false,"is_disabled":false,"rental_uris":{"android":"levelo://app?vid=5983b9f0-2dbc-4cb0-9457-c9b8b90078c7","ios":"levelo://app?vid=5983b9f0-2dbc-4cb0-9457-c9b8b90078c7"},"vehicle_type_id":"4","last_reported":1752765138,"current_range_meters":16000,"station_id":"ce4bhbp2rcd13ifvqerg","pricing_plan_id":"cebpf4jnsgd1na2vs0mg"},{"bike_id":"531dca68-8617-41b0-a6cd-abffc94e1d45","system_id":"levelo_inurba_marseille","lat":43.31209,"lon":5.37322,"is_reserved":false,"is_disabled":false,"rental_uris":{"android":"levelo://app?vid=531dca68-8617-41b0-a6cd-abffc94e1d45","ios":"levelo://app?vid=531dca68-8617-41b0-a6cd-abffc94e1d45"},"vehicle_type_id":"4","last_reported":1752765138,"current_range_meters":16000,"station_id":"","pricing_plan_id":"cebpf4jnsgd1na2vs0mg"},{"bike_id":"f47a7ed0-e3fa-49ab-93a0-72f1407c2801","system_id":"levelo_inurba_marseille","lat":43.29076,"lon":5.37182,"is_reserved":false,"is_disabled":false,"rental_uris":{"android":"levelo://app?vid=f47a7ed0-e3fa-49ab-93a0-72f1407c2801","ios":"levelo://app?vid=f47a7ed0-e3fa-49ab-93a0-72f1407c2801"},"vehicle_type_id":"4","last_reported":1752765138,"current_range_meters":16000,"station_id":"ce4bh5p2rcd13ifvqe4g","pricing_plan_id":"cebpf4jnsgd1na2vs0mg"},{"bike_id":"cc0b299f-a8bc-4830-9032-e9d84b599482","system_id":"levelo_inurba_marseille","lat":43.26023,"lon":5.37558,"is_reserved":false,"is_disabled":false,"rental_uris":{"android":"levelo://app?vid=cc0b299f-a8bc-4830-9032-e9d84b599482","ios":"levelo://app?vid=cc0b299f-a8bc-4830-9032-e9d84b599482"},"vehicle_type_id":"4","last_reported":1752765138,"current_range_meters":16400,"station_id":"ce4bhgh2rcd13ifvqfa0","pricing_plan_id":"cebpf4jnsgd1na2vs0mg"},{"bike_id":"f99a19e7-80c6-45c4-b24c-d169bb7cdb6b","system_id":"levelo_inurba_marseille","lat":43.25503,"lon":5.3765,"is_reserved":false,"is_disabled":false,"rental_uris":{"android":"levelo://app?vid=f99a19e7-80c6-45c4-b24c-d169bb7cdb6b","ios":"levelo://app?vid=f99a19e7-80c6-45c4-b24c-d169bb7cdb6b"},"vehicle_type_id":"4","last_reported":1752765138,"current_range_meters":16400,"station_id":"ce4bhh12rcd13ifvqff0","pricing_plan_id":"cebpf4jnsgd1na2vs0mg"},{"bike_id":"778d24c4-0e7c-4abd-97ee-0cf7e003e57e","system_id":"levelo_inurba_marseille","lat":43.25497,"lon":5.37645,"is_reserved":false,"is_disabled":false,"rental_uris":{"android":"levelo://app?vid=778d24c4-0e7c-4abd-97ee-0cf7e003e57e","ios":"levelo://app?vid=778d24c4-0e7c-4abd-97ee-0cf7e003e57e"},"vehicle_type_id":"4","last_reported":1752765138,"current_range_meters":16400,"station_id":"ce4bhh12rcd13ifvqff0","pricing_plan_id":"cebpf4jnsgd1na2vs0mg"},{"bike_id":"214e6057-eeae-4fa3-a3cb-c3134c66b409","system_id":"levelo_inurba_marseille","lat":43.23065,"lon":5.35487,"is_reserved":false,"is_disabled":false,"rental_uris":{"android":"levelo://app?vid=214e6057-eeae-4fa3-a3cb-c3134c66b409","ios":"levelo://app?vid=214e6057-eeae-4fa3-a3cb-c3134c66b409"},"vehicle_type_id":"4","last_reported":1752765138,"current_range_meters":16400,"station_id":"cpo3342slgdg3j2ifvpg","pricing_plan_id":"cebpf4jnsgd1na2vs0mg"},{"bike_id":"4e697868-2805-4840-a45c-cac462b99665","system_id":"levelo_inurba_marseille","lat":43.29263,"lon":5.36833,"is_reserved":false,"is_disabled":false,"rental_uris":{"android":"levelo://app?vid=4e697868-2805-4840-a45c-cac462b99665","ios":"levelo://app?vid=4e697868-2805-4840-a45c-cac462b99665"},"vehicle_type_id":"4","last_reported":1752765138,"current_range_meters":16400,"station_id":"ce4bhbp2rcd13ifvqesg","pricing_plan_id":"cebpf4jnsgd1na2vs0mg"},{"bike_id":"b26d307c-9171-4b3b-a115-102cc22a2ba9","system_id":"levelo_inurba_marseille","lat":43.3093,"lon":5.40152,"is_reserved":false,"is_disabled":false,"rental_uris":{"android":"levelo://app?vid=b26d307c-9171-4b3b-a115-102cc22a2ba9","ios":"levelo://app?vid=b26d307c-9171-4b3b-a115-102cc22a2ba9"},"vehicle_type_id":"4","last_reported":1752765138,"current_range_meters":16400,"station_id":"ce4bgvp2rcd13ifvqct0","pricing_plan_id":"cebpf4jnsgd1na2vs0mg"},{"bike_id":"2272a1cb-30d4-47dd-bed5-39b01483f853","system_id":"levelo_inurba_marseille","lat":43.22929,"lon":5.35368,"is_reserved":false,"is_disabled":false,"rental_uris":{"android":"levelo://app?vid=2272a1cb-30d4-47dd-bed5-39b01483f853","ios":"levelo://app?vid=2272a1cb-30d4-47dd-bed5-39b01483f853"},"vehicle_type_id":"4","last_reported":1752765138,"current_range_meters":16400,"station_id":"cpo3532slgdg3j2ikp40","pricing_plan_id":"cebpf4jnsgd1na2vs0mg"},{"bike_id":"b900d64b-35d4-4d6c-9be3-53917bd5ac56","system_id":"levelo_inurba_marseille","lat":43.28268,"lon":5.35064,"is_reserved":false,"is_disabled":false,"rental_uris":{"android":"levelo://app?vid=b900d64b-35d4-4d6c-9be3-53917bd5ac56","ios":"levelo://app?vid=b900d64b-35d4-4d6c-9be3-53917bd5ac56"},"vehicle_type_id":"4","last_reported":1752765138,"current_range_meters":16400,"station_id":"ce4bhbp2rcd13ifvqerg","pricing_plan_id":"cebpf4jnsgd1na2vs0mg"},{"bike_id":"911c05c3-659f-4cff-be02-94641e04507a","system_id":"levelo_inurba_marseille","lat":43.30788,"lon":5.37651,"is_reserved":false,"is_disabled":false,"rental_uris":{"android":"levelo://app?vid=911c05c3-659f-4cff-be02-94641e04507a","ios":"levelo://app?vid=911c05c3-659f-4cff-be02-94641e04507a"},"vehicle_type_id":"4","last_reported":1752765138,"current_range_meters":16400,"station_id":"ce4bgv92rcd13ifvqcq0","pricing_plan_id":"cebpf4jnsgd1na2vs0mg"},{"bike_id":"17d5835f-94fc-4b49-af95-c93c2311a156","system_id":"levelo_inurba_marseille","lat":43.24404,"lon":5.37054,"is_reserved":false,"is_disabled":false,"rental_uris":{"android":"levelo://app?vid=17d5835f-94fc-4b49-af95-c93c2311a156","ios":"levelo://app?vid=17d5835f-94fc-4b49-af95-c93c2311a156"},"vehicle_type_id":"4","last_reported":1752765138,"current_range_meters":16800,"station_id":"ce4bhhh2rcd13ifvqfk0","pricing_plan_id":"cebpf4jnsgd1na2vs0mg"},{"bike_id":"31695fe3-ba1a-451d-a7a2-e6e81aefdddc","system_id":"levelo_inurba_marseille","lat":43.28636,"lon":5.35107,"is_reserved":false,"is_disabled":true,"rental_uris":{"android":"levelo://app?vid=31695fe3-ba1a-451d-a7a2-e6e81aefdddc","ios":"levelo://app?vid=31695fe3-ba1a-451d-a7a2-e6e81aefdddc"},"vehicle_type_id":"4","last_reported":1752765138,"current_range_meters":16800,"station_id":"ce4bhch2rcd13ifvqeug","pricing_plan_id":"cebpf4jnsgd1na2vs0mg"},{"bike_id":"36c99f2a-ae20-4b30-a93b-ec43a5e74e82","system_id":"levelo_inurba_marseille","lat":43.28577,"lon":5.39492,"is_reserved":false,"is_disabled":false,"rental_uris":{"android":"levelo://app?vid=36c99f2a-ae20-4b30-a93b-ec43a5e74e82","ios":"levelo://app?vid=36c99f2a-ae20-4b30-a93b-ec43a5e74e82"},"vehicle_type_id":"4","last_reported":1752765138,"current_range_meters":16800,"station_id":"ce4bh292rcd13ifvqdg0","pricing_plan_id":"cebpf4jnsgd1na2vs0mg"},{"bike_id":"e54582ed-ba92-4640-a97f-9e97144ce87f","system_id":"levelo_inurba_marseille","lat":43.32267,"lon":5.40657,"is_reserved":false,"is_disabled":false,"rental_uris":{"android":"levelo://app?vid=e54582ed-ba92-4640-a97f-9e97144ce87f","ios":"levelo://app?vid=e54582ed-ba92-4640-a97f-9e97144ce87f"},"vehicle_type_id":"4","last_reported":1752765138,"current_range_meters":16800,"station_id":"","pricing_plan_id":"cebpf4jnsgd1na2vs0mg"},{"bike_id":"e99909ee-baf4-4da8-895c-13041fbf9966","system_id":"levelo_inurba_marseille","lat":43.2885,"lon":5.35847,"is_reserved":false,"is_disabled":false,"rental_uris":{"android":"levelo://app?vid=e99909ee-baf4-4da8-895c-13041fbf9966","ios":"levelo://app?vid=e99909ee-baf4-4da8-895c-13041fbf9966"},"vehicle_type_id":"4","last_reported":1752765138,"current_range_meters":16800,"station_id":"ce4bhb12rcd13ifvqem0","pricing_plan_id":"cebpf4jnsgd1na2vs0mg"},{"bike_id":"78274e74-ab73-4fa7-b1a3-d1a684863996","system_id":"levelo_inurba_marseille","lat":43.225041,"lon":5.347796,"is_reserved":false,"is_disabled":false,"rental_uris":{"android":"levelo://app?vid=78274e74-ab73-4fa7-b1a3-d1a684863996","ios":"levelo://app?vid=78274e74-ab73-4fa7-b1a3-d1a684863996"},"vehicle_type_id":"4","last_reported":1752765138,"current_range_meters":16800,"station_id":"st_cvj5dfep6f1abm77gieg","pricing_plan_id":"cebpf4jnsgd1na2vs0mg"},{"bike_id":"6bcbec8e-1571-4730-8bdf-6e3f1a397fd8","system_id":"levelo_inurba_marseille","lat":43.26203,"lon":5.37454,"is_reserved":false,"is_disabled":false,"rental_uris":{"android":"levelo://app?vid=6bcbec8e-1571-4730-8bdf-6e3f1a397fd8","ios":"levelo://app?vid=6bcbec8e-1571-4730-8bdf-6e3f1a397fd8"},"vehicle_type_id":"4","last_reported":1752765138,"current_range_meters":16800,"station_id":"ce4bhgp2rcd13ifvqfc0","pricing_plan_id":"cebpf4jnsgd1na2vs0mg"},{"bike_id":"43c41d74-e827-4455-bdbc-da0b9f2a4518","system_id":"levelo_inurba_marseille","lat":43.21754,"lon":5.34599,"is_reserved":false,"is_disabled":false,"rental_uris":{"android":"levelo://app?vid=43c41d74-e827-4455-bdbc-da0b9f2a4518","ios":"levelo://app?vid=43c41d74-e827-4455-bdbc-da0b9f2a4518"},"vehicle_type_id":"4","last_reported":1752765138,"current_range_meters":17200,"station_id":"st_cvj6r9ubvosntc0bgbag","pricing_plan_id":"cebpf4jnsgd1na2vs0mg"},{"bike_id":"a07d2709-212a-469a-9e86-fe6624f858b0","system_id":"levelo_inurba_marseille","lat":43.21775,"lon":5.34581,"is_reserved":false,"is_disabled":false,"rental_uris":{"android":"levelo://app?vid=a07d2709-212a-469a-9e86-fe6624f858b0","ios":"levelo://app?vid=a07d2709-212a-469a-9e86-fe6624f858b0"},"vehicle_type_id":"4","last_reported":1752765138,"current_range_meters":17200,"station_id":"st_cvj6r9ubvosntc0bgbag","pricing_plan_id":"cebpf4jnsgd1na2vs0mg"},{"bike_id":"660d6db3-3d46-4bf1-a04a-db097cd3027d","system_id":"levelo_inurba_marseille","lat":43.282517,"lon":5.350774,"is_reserved":false,"is_disabled":false,"rental_uris":{"android":"levelo://app?vid=660d6db3-3d46-4bf1-a04a-db097cd3027d","ios":"levelo://app?vid=660d6db3-3d46-4bf1-a04a-db097cd3027d"},"vehicle_type_id":"4","last_reported":1752765138,"current_range_meters":17200,"station_id":"ce4bhbp2rcd13ifvqerg","pricing_plan_id":"cebpf4jnsgd1na2vs0mg"},{"bike_id":"2f49c0bd-1fa3-4487-8922-9564c7b35ecb","system_id":"levelo_inurba_marseille","lat":43.27521,"lon":5.42468,"is_reserved":false,"is_disabled":false,"rental_uris":{"android":"levelo://app?vid=2f49c0bd-1fa3-4487-8922-9564c7b35ecb","ios":"levelo://app?vid=2f49c0bd-1fa3-4487-8922-9564c7b35ecb"},"vehicle_type_id":"4","last_reported":1752765138,"current_range_meters":17200,"station_id":"ce4bhn92rcd13ifvqgrg","pricing_plan_id":"cebpf4jnsgd1na2vs0mg"},{"bike_id":"d8b55396-0a3b-4c30-95c1-a87c7c7246d7","system_id":"levelo_inurba_marseille","lat":43.31491,"lon":5.37303,"is_reserved":false,"is_disabled":false,"rental_uris":{"android":"levelo://app?vid=d8b55396-0a3b-4c30-95c1-a87c7c7246d7","ios":"levelo://app?vid=d8b55396-0a3b-4c30-95c1-a87c7c7246d7"},"vehicle_type_id":"4","last_reported":1752765138,"current_range_meters":17200,"station_id":"ce4bgt12rcd13ifvqcd0","pricing_plan_id":"cebpf4jnsgd1na2vs0mg"},{"bike_id":"b925a594-2a55-4ac7-8b80-54cd02d7e3a1","system_id":"levelo_inurba_marseille","lat":43.284149,"lon":5.349856,"is_reserved":false,"is_disabled":false,"rental_uris":{"android":"levelo://app?vid=b925a594-2a55-4ac7-8b80-54cd02d7e3a1","ios":"levelo://app?vid=b925a594-2a55-4ac7-8b80-54cd02d7e3a1"},"vehicle_type_id":"4","last_reported":1752765138,"current_range_meters":17200,"station_id":"ce4bhbh2rcd13ifvqepg","pricing_plan_id":"cebpf4jnsgd1na2vs0mg"},{"bike_id":"2bb77186-0f3c-482b-8496-1b1017aa4b6e","system_id":"levelo_inurba_marseille","lat":43.291768,"lon":5.355977,"is_reserved":false,"is_disabled":false,"rental_uris":{"android":"levelo://app?vid=2bb77186-0f3c-482b-8496-1b1017aa4b6e","ios":"levelo://app?vid=2bb77186-0f3c-482b-8496-1b1017aa4b6e"},"vehicle_type_id":"4","last_reported":1752765138,"current_range_meters":17200,"station_id":"ce4bhch2rcd13ifvqeug","pricing_plan_id":"cebpf4jnsgd1na2vs0mg"},{"bike_id":"160f11be-7f00-4e88-8425-5303a1102a47","system_id":"levelo_inurba_marseille","lat":43.28414,"lon":5.34984,"is_reserved":false,"is_disabled":false,"rental_uris":{"android":"levelo://app?vid=160f11be-7f00-4e88-8425-5303a1102a47","ios":"levelo://app?vid=160f11be-7f00-4e88-8425-5303a1102a47"},"vehicle_type_id":"4","last_reported":1752765138,"current_range_meters":17200,"station_id":"ce4bhbh2rcd13ifvqepg","pricing_plan_id":"cebpf4jnsgd1na2vs0mg"},{"bike_id":"6be86623-c65c-4a0d-b3a4-c58891bfa931","system_id":"levelo_inurba_marseille","lat":43.22503,"lon":5.34769,"is_reserved":false,"is_disabled":false,"rental_uris":{"android":"levelo://app?vid=6be86623-c65c-4a0d-b3a4-c58891bfa931","ios":"levelo://app?vid=6be86623-c65c-4a0d-b3a4-c58891bfa931"},"vehicle_type_id":"4","last_reported":1752765138,"current_range_meters":17600,"station_id":"st_cvj5dfep6f1abm77gieg","pricing_plan_id":"cebpf4jnsgd1na2vs0mg"},{"bike_id":"5725b692-5e13-4664-ab1b-3c59587f7b53","system_id":"levelo_inurba_marseille","lat":43.284186,"lon":5.357886,"is_reserved":false,"is_disabled":false,"rental_uris":{"android":"levelo://app?vid=5725b692-5e13-4664-ab1b-3c59587f7b53","ios":"levelo://app?vid=5725b692-5e13-4664-ab1b-3c59587f7b53"},"vehicle_type_id":"4","last_reported":1752765138,"current_range_meters":17600,"station_id":"ce4bhah2rcd13ifvqei0","pricing_plan_id":"cebpf4jnsgd1na2vs0mg"},{"bike_id":"084eace8-045f-4012-9455-c501cad7ce10","system_id":"levelo_inurba_marseille","lat":43.22504,"lon":5.34771,"is_reserved":false,"is_disabled":false,"rental_uris":{"android":"levelo://app?vid=084eace8-045f-4012-9455-c501cad7ce10","ios":"levelo://app?vid=084eace8-045f-4012-9455-c501cad7ce10"},"vehicle_type_id":"4","last_reported":1752765138,"current_range_meters":17600,"station_id":"st_cvj5dfep6f1abm77gieg","pricing_plan_id":"cebpf4jnsgd1na2vs0mg"},{"bike_id":"ed822664-f978-4865-b4d3-8b7323601ddf","system_id":"levelo_inurba_marseille","lat":43.2979,"lon":5.39376,"is_reserved":false,"is_disabled":true,"rental_uris":{"android":"levelo://app?vid=ed822664-f978-4865-b4d3-8b7323601ddf","ios":"levelo://app?vid=ed822664-f978-4865-b4d3-8b7323601ddf"},"vehicle_type_id":"4","last_reported":1752765138,"current_range_meters":17600,"station_id":"chh1huq6cuj3fo74tm60","pricing_plan_id":"cebpf4jnsgd1na2vs0mg"},{"bike_id":"24e76283-1bd6-4787-a90c-6356fe25fb1a","system_id":"levelo_inurba_marseille","lat":43.29008,"lon":5.35613,"is_reserved":false,"is_disabled":false,"rental_uris":{"android":"levelo://app?vid=24e76283-1bd6-4787-a90c-6356fe25fb1a","ios":"levelo://app?vid=24e76283-1bd6-4787-a90c-6356fe25fb1a"},"vehicle_type_id":"4","last_reported":1752765138,"current_range_meters":17600,"station_id":"ce4bhb92rcd13ifvqen0","pricing_plan_id":"cebpf4jnsgd1na2vs0mg"},{"bike_id":"4c0580d4-f2e2-4c67-8250-a65c39c0f7d6","system_id":"levelo_inurba_marseille","lat":43.22513,"lon":5.34788,"is_reserved":false,"is_disabled":false,"rental_uris":{"android":"levelo://app?vid=4c0580d4-f2e2-4c67-8250-a65c39c0f7d6","ios":"levelo://app?vid=4c0580d4-f2e2-4c67-8250-a65c39c0f7d6"},"vehicle_type_id":"4","last_reported":1752765138,"current_range_meters":17600,"station_id":"st_cvj5dfep6f1abm77gieg","pricing_plan_id":"cebpf4jnsgd1na2vs0mg"},{"bike_id":"5b4e5f0f-cac3-450a-9463-e6a77e2c277e","system_id":"levelo_inurba_marseille","lat":43.246423,"lon":5.388921,"is_reserved":false,"is_disabled":true,"rental_uris":{"android":"levelo://app?vid=5b4e5f0f-cac3-450a-9463-e6a77e2c277e","ios":"levelo://app?vid=5b4e5f0f-cac3-450a-9463-e6a77e2c277e"},"vehicle_type_id":"4","last_reported":1752765138,"current_range_meters":17600,"station_id":"ce4bhg12rcd13ifvqf60","pricing_plan_id":"cebpf4jnsgd1na2vs0mg"},{"bike_id":"c2dba01e-7253-4f47-be7e-556b63c0e205","system_id":"levelo_inurba_marseille","lat":43.30275,"lon":5.37719,"is_reserved":false,"is_disabled":false,"rental_uris":{"android":"levelo://app?vid=c2dba01e-7253-4f47-be7e-556b63c0e205","ios":"levelo://app?vid=c2dba01e-7253-4f47-be7e-556b63c0e205"},"vehicle_type_id":"4","last_reported":1752765138,"current_range_meters":17600,"station_id":"ce4bguh2rcd13ifvqcj0","pricing_plan_id":"cebpf4jnsgd1na2vs0mg"},{"bike_id":"db5e1d5a-066d-41f1-8e98-cb9ce80fb8b3","system_id":"levelo_inurba_marseille","lat":43.30806,"lon":5.37649,"is_reserved":false,"is_disabled":false,"rental_uris":{"android":"levelo://app?vid=db5e1d5a-066d-41f1-8e98-cb9ce80fb8b3","ios":"levelo://app?vid=db5e1d5a-066d-41f1-8e98-cb9ce80fb8b3"},"vehicle_type_id":"4","last_reported":1752765138,"current_range_meters":18000,"station_id":"ce4bgv92rcd13ifvqcq0","pricing_plan_id":"cebpf4jnsgd1na2vs0mg"},{"bike_id":"c6db0f6a-96fe-4e1d-8ded-c2ef38c9bab4","system_id":"levelo_inurba_marseille","lat":43.304183,"lon":5.412838,"is_reserved":false,"is_disabled":true,"rental_uris":{"android":"levelo://app?vid=c6db0f6a-96fe-4e1d-8ded-c2ef38c9bab4","ios":"levelo://app?vid=c6db0f6a-96fe-4e1d-8ded-c2ef38c9bab4"},"vehicle_type_id":"4","last_reported":1752765138,"current_range_meters":18000,"station_id":"ce4bhop2rcd13ifvqh8g","pricing_plan_id":"cebpf4jnsgd1na2vs0mg"},{"bike_id":"dc5f5a9e-bdfb-495e-902a-909f8687d937","system_id":"levelo_inurba_marseille","lat":43.29439,"lon":5.43335,"is_reserved":false,"is_disabled":false,"rental_uris":{"android":"levelo://app?vid=dc5f5a9e-bdfb-495e-902a-909f8687d937","ios":"levelo://app?vid=dc5f5a9e-bdfb-495e-902a-909f8687d937"},"vehicle_type_id":"4","last_reported":1752765138,"current_range_meters":18000,"station_id":"","pricing_plan_id":"cebpf4jnsgd1na2vs0mg"},{"bike_id":"f99ff1e4-4111-475a-aa3e-cb902d081040","system_id":"levelo_inurba_marseille","lat":43.23198,"lon":5.35549,"is_reserved":false,"is_disabled":false,"rental_uris":{"android":"levelo://app?vid=f99ff1e4-4111-475a-aa3e-cb902d081040","ios":"levelo://app?vid=f99ff1e4-4111-475a-aa3e-cb902d081040"},"vehicle_type_id":"4","last_reported":1752765138,"current_range_meters":18000,"station_id":"ce4bhu92rcd13ifvqi70","pricing_plan_id":"cebpf4jnsgd1na2vs0mg"},{"bike_id":"715485f6-4125-4423-80fd-2024c0a54a34","system_id":"levelo_inurba_marseille","lat":43.2827,"lon":5.35074,"is_reserved":false,"is_disabled":false,"rental_uris":{"android":"levelo://app?vid=715485f6-4125-4423-80fd-2024c0a54a34","ios":"levelo://app?vid=715485f6-4125-4423-80fd-2024c0a54a34"},"vehicle_type_id":"4","last_reported":1752765138,"current_range_meters":18000,"station_id":"ce4bhbp2rcd13ifvqerg","pricing_plan_id":"cebpf4jnsgd1na2vs0mg"},{"bike_id":"080ee0f3-5635-4d04-b7b6-5c5d8d6224c0","system_id":"levelo_inurba_marseille","lat":43.23206,"lon":5.35542,"is_reserved":false,"is_disabled":false,"rental_uris":{"android":"levelo://app?vid=080ee0f3-5635-4d04-b7b6-5c5d8d6224c0","ios":"levelo://app?vid=080ee0f3-5635-4d04-b7b6-5c5d8d6224c0"},"vehicle_type_id":"4","last_reported":1752765138,"current_range_meters":18000,"station_id":"ce4bhu92rcd13ifvqi70","pricing_plan_id":"cebpf4jnsgd1na2vs0mg"},{"bike_id":"b1411f20-9712-40f9-a9cc-407b4e40f865","system_id":"levelo_inurba_marseille","lat":43.26843,"lon":5.41489,"is_reserved":false,"is_disabled":false,"rental_uris":{"android":"levelo://app?vid=b1411f20-9712-40f9-a9cc-407b4e40f865","ios":"levelo://app?vid=b1411f20-9712-40f9-a9cc-407b4e40f865"},"vehicle_type_id":"4","last_reported":1752765138,"current_range_meters":18000,"station_id":"","pricing_plan_id":"cebpf4jnsgd1na2vs0mg"},{"bike_id":"ea8239c6-d099-42a9-b54c-af65493c715d","system_id":"levelo_inurba_marseille","lat":43.28448,"lon":5.34983,"is_reserved":false,"is_disabled":false,"rental_uris":{"android":"levelo://app?vid=ea8239c6-d099-42a9-b54c-af65493c715d","ios":"levelo://app?vid=ea8239c6-d099-42a9-b54c-af65493c715d"},"vehicle_type_id":"4","last_reported":1752765138,"current_range_meters":18000,"station_id":"ce4bhbh2rcd13ifvqepg","pricing_plan_id":"cebpf4jnsgd1na2vs0mg"},{"bike_id":"ea75efb2-ac36-4344-b925-58a5bd2f6327","system_id":"levelo_inurba_marseille","lat":43.271854,"lon":5.362776,"is_reserved":false,"is_disabled":false,"rental_uris":{"android":"levelo://app?vid=ea75efb2-ac36-4344-b925-58a5bd2f6327","ios":"levelo://app?vid=ea75efb2-ac36-4344-b925-58a5bd2f6327"},"vehicle_type_id":"4","last_reported":1752765138,"current_range_meters":18000,"station_id":"","pricing_plan_id":"cebpf4jnsgd1na2vs0mg"},{"bike_id":"409515f8-3415-426d-b0c7-61f840c7c187","system_id":"levelo_inurba_marseille","lat":43.22507,"lon":5.34773,"is_reserved":false,"is_disabled":false,"rental_uris":{"android":"levelo://app?vid=409515f8-3415-426d-b0c7-61f840c7c187","ios":"levelo://app?vid=409515f8-3415-426d-b0c7-61f840c7c187"},"vehicle_type_id":"4","last_reported":1752765138,"current_range_meters":18000,"station_id":"st_cvj5dfep6f1abm77gieg","pricing_plan_id":"cebpf4jnsgd1na2vs0mg"},{"bike_id":"f74814ba-cf24-403f-8b90-2a003c5401e3","system_id":"levelo_inurba_marseille","lat":43.27383,"lon":5.36251,"is_reserved":false,"is_disabled":false,"rental_uris":{"android":"levelo://app?vid=f74814ba-cf24-403f-8b90-2a003c5401e3","ios":"levelo://app?vid=f74814ba-cf24-403f-8b90-2a003c5401e3"},"vehicle_type_id":"4","last_reported":1752765138,"current_range_meters":18800,"station_id":"ce4bhbh2rcd13ifvqeo0","pricing_plan_id":"cebpf4jnsgd1na2vs0mg"},{"bike_id":"627d2d3b-237c-42fb-9bf6-0cf421eebeef","system_id":"levelo_inurba_marseille","lat":43.21758,"lon":5.34608,"is_reserved":false,"is_disabled":false,"rental_uris":{"android":"levelo://app?vid=627d2d3b-237c-42fb-9bf6-0cf421eebeef","ios":"levelo://app?vid=627d2d3b-237c-42fb-9bf6-0cf421eebeef"},"vehicle_type_id":"4","last_reported":1752765138,"current_range_meters":18800,"station_id":"st_cvj6r9ubvosntc0bgbag","pricing_plan_id":"cebpf4jnsgd1na2vs0mg"},{"bike_id":"72790707-035c-4bca-b9bf-a8b4e9ad2919","system_id":"levelo_inurba_marseille","lat":43.23151,"lon":5.43728,"is_reserved":false,"is_disabled":false,"rental_uris":{"android":"levelo://app?vid=72790707-035c-4bca-b9bf-a8b4e9ad2919","ios":"levelo://app?vid=72790707-035c-4bca-b9bf-a8b4e9ad2919"},"vehicle_type_id":"4","last_reported":1752765138,"current_range_meters":18800,"station_id":"ce4bhmp2rcd13ifvqgog","pricing_plan_id":"cebpf4jnsgd1na2vs0mg"},{"bike_id":"f880ee96-c065-450a-a1a6-ccd8b757954c","system_id":"levelo_inurba_marseille","lat":43.28617,"lon":5.35107,"is_reserved":false,"is_disabled":false,"rental_uris":{"android":"levelo://app?vid=f880ee96-c065-450a-a1a6-ccd8b757954c","ios":"levelo://app?vid=f880ee96-c065-450a-a1a6-ccd8b757954c"},"vehicle_type_id":"4","last_reported":1752765138,"current_range_meters":18800,"station_id":"ce4bhch2rcd13ifvqeug","pricing_plan_id":"cebpf4jnsgd1na2vs0mg"},{"bike_id":"7c2714b5-8653-4071-8e53-ef0997174f4c","system_id":"levelo_inurba_marseille","lat":43.29263,"lon":5.40902,"is_reserved":false,"is_disabled":false,"rental_uris":{"android":"levelo://app?vid=7c2714b5-8653-4071-8e53-ef0997174f4c","ios":"levelo://app?vid=7c2714b5-8653-4071-8e53-ef0997174f4c"},"vehicle_type_id":"4","last_reported":1752765138,"current_range_meters":18000,"station_id":"ce4bh192rcd13ifvqdc0","pricing_plan_id":"cebpf4jnsgd1na2vs0mg"},{"bike_id":"ce40837d-3edf-4cc2-a747-2f8d4ee2c7fb","system_id":"levelo_inurba_marseille","lat":43.22529,"lon":5.34781,"is_reserved":false,"is_disabled":false,"rental_uris":{"android":"levelo://app?vid=ce40837d-3edf-4cc2-a747-2f8d4ee2c7fb","ios":"levelo://app?vid=ce40837d-3edf-4cc2-a747-2f8d4ee2c7fb"},"vehicle_type_id":"4","last_reported":1752765138,"current_range_meters":18800,"station_id":"st_cvj5dfep6f1abm77gieg","pricing_plan_id":"cebpf4jnsgd1na2vs0mg"},{"bike_id":"1fa6e47a-247c-43f3-a2d5-2457ee6c5d39","system_id":"levelo_inurba_marseille","lat":43.21199,"lon":5.35082,"is_reserved":false,"is_disabled":false,"rental_uris":{"android":"levelo://app?vid=1fa6e47a-247c-43f3-a2d5-2457ee6c5d39","ios":"levelo://app?vid=1fa6e47a-247c-43f3-a2d5-2457ee6c5d39"},"vehicle_type_id":"4","last_reported":1752765138,"current_range_meters":18800,"station_id":"st_cvj6sg6p6f1abm77japg","pricing_plan_id":"cebpf4jnsgd1na2vs0mg"},{"bike_id":"9e46aa88-7b19-47c3-b789-71b8902b53cb","system_id":"levelo_inurba_marseille","lat":43.2819,"lon":5.42661,"is_reserved":false,"is_disabled":false,"rental_uris":{"android":"levelo://app?vid=9e46aa88-7b19-47c3-b789-71b8902b53cb","ios":"levelo://app?vid=9e46aa88-7b19-47c3-b789-71b8902b53cb"},"vehicle_type_id":"4","last_reported":1752765138,"current_range_meters":18800,"station_id":"ce4bhnh2rcd13ifvqgug","pricing_plan_id":"cebpf4jnsgd1na2vs0mg"},{"bike_id":"66867a12-d88b-4820-bc2a-9a8726321e3c","system_id":"levelo_inurba_marseille","lat":43.295549,"lon":5.423009,"is_reserved":false,"is_disabled":false,"rental_uris":{"android":"levelo://app?vid=66867a12-d88b-4820-bc2a-9a8726321e3c","ios":"levelo://app?vid=66867a12-d88b-4820-bc2a-9a8726321e3c"},"vehicle_type_id":"4","last_reported":1752765138,"current_range_meters":18800,"station_id":"ce4bhph2rcd13ifvqhdg","pricing_plan_id":"cebpf4jnsgd1na2vs0mg"},{"bike_id":"ce7bd25b-5213-4881-a28b-f582e6a1d712","system_id":"levelo_inurba_marseille","lat":43.31389,"lon":5.36725,"is_reserved":false,"is_disabled":true,"rental_uris":{"android":"levelo://app?vid=ce7bd25b-5213-4881-a28b-f582e6a1d712","ios":"levelo://app?vid=ce7bd25b-5213-4881-a28b-f582e6a1d712"},"vehicle_type_id":"4","last_reported":1752765138,"current_range_meters":18800,"station_id":"","pricing_plan_id":"cebpf4jnsgd1na2vs0mg"},{"bike_id":"d8eb8f2f-df0a-4c63-af99-112cd7385b86","system_id":"levelo_inurba_marseille","lat":43.286232,"lon":5.351057,"is_reserved":false,"is_disabled":false,"rental_uris":{"android":"levelo://app?vid=d8eb8f2f-df0a-4c63-af99-112cd7385b86","ios":"levelo://app?vid=d8eb8f2f-df0a-4c63-af99-112cd7385b86"},"vehicle_type_id":"4","last_reported":1752765138,"current_range_meters":18800,"station_id":"ce4bhch2rcd13ifvqeug","pricing_plan_id":"cebpf4jnsgd1na2vs0mg"},{"bike_id":"ac0ed4be-466c-4caa-b855-3c6bbe5a11b5","system_id":"levelo_inurba_marseille","lat":43.26745,"lon":5.37202,"is_reserved":false,"is_disabled":false,"rental_uris":{"android":"levelo://app?vid=ac0ed4be-466c-4caa-b855-3c6bbe5a11b5","ios":"levelo://app?vid=ac0ed4be-466c-4caa-b855-3c6bbe5a11b5"},"vehicle_type_id":"4","last_reported":1752765138,"current_range_meters":19200,"station_id":"","pricing_plan_id":"cebpf4jnsgd1na2vs0mg"},{"bike_id":"01c4cad4-ab83-4c6c-bb99-def54328b75f","system_id":"levelo_inurba_marseille","lat":43.286199,"lon":5.350951,"is_reserved":false,"is_disabled":false,"rental_uris":{"android":"levelo://app?vid=01c4cad4-ab83-4c6c-bb99-def54328b75f","ios":"levelo://app?vid=01c4cad4-ab83-4c6c-bb99-def54328b75f"},"vehicle_type_id":"4","last_reported":1752765138,"current_range_meters":19200,"station_id":"ce4bhch2rcd13ifvqeug","pricing_plan_id":"cebpf4jnsgd1na2vs0mg"},{"bike_id":"98353f7b-2069-4ac8-b03c-9dcf9627abf1","system_id":"levelo_inurba_marseille","lat":43.26225,"lon":5.404491,"is_reserved":false,"is_disabled":false,"rental_uris":{"android":"levelo://app?vid=98353f7b-2069-4ac8-b03c-9dcf9627abf1","ios":"levelo://app?vid=98353f7b-2069-4ac8-b03c-9dcf9627abf1"},"vehicle_type_id":"4","last_reported":1752765138,"current_range_meters":19200,"station_id":"ce4bhmh2rcd13ifvqgmg","pricing_plan_id":"cebpf4jnsgd1na2vs0mg"},{"bike_id":"3114c6b7-9bdf-404b-aa15-a60feb5a787b","system_id":"levelo_inurba_marseille","lat":43.31491,"lon":5.37289,"is_reserved":false,"is_disabled":false,"rental_uris":{"android":"levelo://app?vid=3114c6b7-9bdf-404b-aa15-a60feb5a787b","ios":"levelo://app?vid=3114c6b7-9bdf-404b-aa15-a60feb5a787b"},"vehicle_type_id":"4","last_reported":1752765138,"current_range_meters":19200,"station_id":"ce4bgt12rcd13ifvqcd0","pricing_plan_id":"cebpf4jnsgd1na2vs0mg"},{"bike_id":"d6ef0d4c-c127-4b83-85cf-9c4335791702","system_id":"levelo_inurba_marseille","lat":43.29224,"lon":5.36064,"is_reserved":false,"is_disabled":false,"rental_uris":{"android":"levelo://app?vid=d6ef0d4c-c127-4b83-85cf-9c4335791702","ios":"levelo://app?vid=d6ef0d4c-c127-4b83-85cf-9c4335791702"},"vehicle_type_id":"4","last_reported":1752765138,"current_range_meters":19200,"station_id":"ce4bhbh2rcd13ifvqeqg","pricing_plan_id":"cebpf4jnsgd1na2vs0mg"},{"bike_id":"e63db760-60f2-4063-aa2b-9e0100a40135","system_id":"levelo_inurba_marseille","lat":43.30737,"lon":5.42449,"is_reserved":false,"is_disabled":false,"rental_uris":{"android":"levelo://app?vid=e63db760-60f2-4063-aa2b-9e0100a40135","ios":"levelo://app?vid=e63db760-60f2-4063-aa2b-9e0100a40135"},"vehicle_type_id":"4","last_reported":1752765138,"current_range_meters":19200,"station_id":"st_cvj6ca6bvosntc0bfgr0","pricing_plan_id":"cebpf4jnsgd1na2vs0mg"},{"bike_id":"19ad3498-cf12-46e7-82a8-66fa131ccc4c","system_id":"levelo_inurba_marseille","lat":43.32367,"lon":5.36741,"is_reserved":false,"is_disabled":false,"rental_uris":{"android":"levelo://app?vid=19ad3498-cf12-46e7-82a8-66fa131ccc4c","ios":"levelo://app?vid=19ad3498-cf12-46e7-82a8-66fa131ccc4c"},"vehicle_type_id":"4","last_reported":1752765138,"current_range_meters":19200,"station_id":"ce4bhsh2rcd13ifvqi2g","pricing_plan_id":"cebpf4jnsgd1na2vs0mg"},{"bike_id":"84d4903e-f3e9-487a-a1be-a3d7f31aa7ca","system_id":"levelo_inurba_marseille","lat":43.32364,"lon":5.3889,"is_reserved":false,"is_disabled":false,"rental_uris":{"android":"levelo://app?vid=84d4903e-f3e9-487a-a1be-a3d7f31aa7ca","ios":"levelo://app?vid=84d4903e-f3e9-487a-a1be-a3d7f31aa7ca"},"vehicle_type_id":"4","last_reported":1752765138,"current_range_meters":19200,"station_id":"ce4bhqp2rcd13ifvqhog","pricing_plan_id":"cebpf4jnsgd1na2vs0mg"},{"bike_id":"cfb52d04-9134-4c86-8269-771716b20f27","system_id":"levelo_inurba_marseille","lat":43.21194,"lon":5.35072,"is_reserved":false,"is_disabled":false,"rental_uris":{"android":"levelo://app?vid=cfb52d04-9134-4c86-8269-771716b20f27","ios":"levelo://app?vid=cfb52d04-9134-4c86-8269-771716b20f27"},"vehicle_type_id":"4","last_reported":1752765138,"current_range_meters":19200,"station_id":"st_cvj6sg6p6f1abm77japg","pricing_plan_id":"cebpf4jnsgd1na2vs0mg"},{"bike_id":"c83e5866-3057-41c7-b1dc-bfd42f8bcd2a","system_id":"levelo_inurba_marseille","lat":43.231411,"lon":5.437144,"is_reserved":false,"is_disabled":false,"rental_uris":{"android":"levelo://app?vid=c83e5866-3057-41c7-b1dc-bfd42f8bcd2a","ios":"levelo://app?vid=c83e5866-3057-41c7-b1dc-bfd42f8bcd2a"},"vehicle_type_id":"4","last_reported":1752765138,"current_range_meters":19600,"station_id":"ce4bhmp2rcd13ifvqgog","pricing_plan_id":"cebpf4jnsgd1na2vs0mg"},{"bike_id":"65de2c7b-bb6b-4532-ad81-ade1b6378a63","system_id":"levelo_inurba_marseille","lat":43.27869,"lon":5.35416,"is_reserved":false,"is_disabled":false,"rental_uris":{"android":"levelo://app?vid=65de2c7b-bb6b-4532-ad81-ade1b6378a63","ios":"levelo://app?vid=65de2c7b-bb6b-4532-ad81-ade1b6378a63"},"vehicle_type_id":"4","last_reported":1752765138,"current_range_meters":19600,"station_id":"","pricing_plan_id":"cebpf4jnsgd1na2vs0mg"},{"bike_id":"9e599d24-8bd8-4636-ad57-522e6529d764","system_id":"levelo_inurba_marseille","lat":43.284166,"lon":5.349988,"is_reserved":false,"is_disabled":false,"rental_uris":{"android":"levelo://app?vid=9e599d24-8bd8-4636-ad57-522e6529d764","ios":"levelo://app?vid=9e599d24-8bd8-4636-ad57-522e6529d764"},"vehicle_type_id":"4","last_reported":1752765138,"current_range_meters":19600,"station_id":"ce4bhbh2rcd13ifvqepg","pricing_plan_id":"cebpf4jnsgd1na2vs0mg"},{"bike_id":"c120b10e-3c54-499a-96f4-fb08d196aabd","system_id":"levelo_inurba_marseille","lat":43.260266,"lon":5.375489,"is_reserved":false,"is_disabled":false,"rental_uris":{"android":"levelo://app?vid=c120b10e-3c54-499a-96f4-fb08d196aabd","ios":"levelo://app?vid=c120b10e-3c54-499a-96f4-fb08d196aabd"},"vehicle_type_id":"4","last_reported":1752765138,"current_range_meters":19600,"station_id":"ce4bh112rcd13ifvqda0","pricing_plan_id":"cebpf4jnsgd1na2vs0mg"},{"bike_id":"2b348072-72a0-403b-a082-93a7f8c38338","system_id":"levelo_inurba_marseille","lat":43.28707,"lon":5.39956,"is_reserved":false,"is_disabled":false,"rental_uris":{"android":"levelo://app?vid=2b348072-72a0-403b-a082-93a7f8c38338","ios":"levelo://app?vid=2b348072-72a0-403b-a082-93a7f8c38338"},"vehicle_type_id":"4","last_reported":1752765138,"current_range_meters":19600,"station_id":"ce4bho92rcd13ifvqh3g","pricing_plan_id":"cebpf4jnsgd1na2vs0mg"},{"bike_id":"8ce9b80c-19c6-4985-81c6-50f285c26740","system_id":"levelo_inurba_marseille","lat":43.23955,"lon":5.36649,"is_reserved":false,"is_disabled":false,"rental_uris":{"android":"levelo://app?vid=8ce9b80c-19c6-4985-81c6-50f285c26740","ios":"levelo://app?vid=8ce9b80c-19c6-4985-81c6-50f285c26740"},"vehicle_type_id":"4","last_reported":1752765138,"current_range_meters":19600,"station_id":"ce4bhi12rcd13ifvqfp0","pricing_plan_id":"cebpf4jnsgd1na2vs0mg"},{"bike_id":"db42604b-c15c-49d3-b62c-7cc2ce8e29c6","system_id":"levelo_inurba_marseille","lat":43.21191,"lon":5.3507,"is_reserved":false,"is_disabled":false,"rental_uris":{"android":"levelo://app?vid=db42604b-c15c-49d3-b62c-7cc2ce8e29c6","ios":"levelo://app?vid=db42604b-c15c-49d3-b62c-7cc2ce8e29c6"},"vehicle_type_id":"4","last_reported":1752765138,"current_range_meters":19600,"station_id":"st_cvj6sg6p6f1abm77japg","pricing_plan_id":"cebpf4jnsgd1na2vs0mg"},{"bike_id":"d6d17411-0526-45dc-841f-3cde305afeae","system_id":"levelo_inurba_marseille","lat":43.21747,"lon":5.34598,"is_reserved":false,"is_disabled":false,"rental_uris":{"android":"levelo://app?vid=d6d17411-0526-45dc-841f-3cde305afeae","ios":"levelo://app?vid=d6d17411-0526-45dc-841f-3cde305afeae"},"vehicle_type_id":"4","last_reported":1752765138,"current_range_meters":19600,"station_id":"st_cvj6r9ubvosntc0bgbag","pricing_plan_id":"cebpf4jnsgd1na2vs0mg"},{"bike_id":"c770cd78-195a-4aad-a4a0-a86f06eedc3f","system_id":"levelo_inurba_marseille","lat":43.260284,"lon":5.37551,"is_reserved":false,"is_disabled":false,"rental_uris":{"android":"levelo://app?vid=c770cd78-195a-4aad-a4a0-a86f06eedc3f","ios":"levelo://app?vid=c770cd78-195a-4aad-a4a0-a86f06eedc3f"},"vehicle_type_id":"4","last_reported":1752765138,"current_range_meters":19600,"station_id":"ce4bhgh2rcd13ifvqfa0","pricing_plan_id":"cebpf4jnsgd1na2vs0mg"},{"bike_id":"6a737cae-81af-4cea-a9c2-583961550529","system_id":"levelo_inurba_marseille","lat":43.23215,"lon":5.35551,"is_reserved":false,"is_disabled":false,"rental_uris":{"android":"levelo://app?vid=6a737cae-81af-4cea-a9c2-583961550529","ios":"levelo://app?vid=6a737cae-81af-4cea-a9c2-583961550529"},"vehicle_type_id":"4","last_reported":1752765138,"current_range_meters":19600,"station_id":"ce4bhu92rcd13ifvqi70","pricing_plan_id":"cebpf4jnsgd1na2vs0mg"},{"bike_id":"f7ab05ba-30fa-46e1-8d9c-6c1f3a8b08e9","system_id":"levelo_inurba_marseille","lat":43.30474,"lon":5.37917,"is_reserved":false,"is_disabled":false,"rental_uris":{"android":"levelo://app?vid=f7ab05ba-30fa-46e1-8d9c-6c1f3a8b08e9","ios":"levelo://app?vid=f7ab05ba-30fa-46e1-8d9c-6c1f3a8b08e9"},"vehicle_type_id":"4","last_reported":1752765138,"current_range_meters":19600,"station_id":"ce4bgup2rcd13ifvqcn0","pricing_plan_id":"cebpf4jnsgd1na2vs0mg"},{"bike_id":"a67156ae-789e-45f5-ab3f-ed7d95b24540","system_id":"levelo_inurba_marseille","lat":43.211898,"lon":5.350729,"is_reserved":false,"is_disabled":false,"rental_uris":{"android":"levelo://app?vid=a67156ae-789e-45f5-ab3f-ed7d95b24540","ios":"levelo://app?vid=a67156ae-789e-45f5-ab3f-ed7d95b24540"},"vehicle_type_id":"4","last_reported":1752765138,"current_range_meters":19600,"station_id":"st_cvj6sg6p6f1abm77japg","pricing_plan_id":"cebpf4jnsgd1na2vs0mg"},{"bike_id":"29cbb13b-b2a7-4c6f-83bc-f3e6368d002f","system_id":"levelo_inurba_marseille","lat":43.29619,"lon":5.37736,"is_reserved":false,"is_disabled":false,"rental_uris":{"android":"levelo://app?vid=29cbb13b-b2a7-4c6f-83bc-f3e6368d002f","ios":"levelo://app?vid=29cbb13b-b2a7-4c6f-83bc-f3e6368d002f"},"vehicle_type_id":"4","last_reported":1752765138,"current_range_meters":17200,"station_id":"ce4bgi92rcd13ifvqb90","pricing_plan_id":"cebpf4jnsgd1na2vs0mg"},{"bike_id":"03c4e37a-9d44-4a60-b09e-c2fe99e2bf34","system_id":"levelo_inurba_marseille","lat":43.22937,"lon":5.3537,"is_reserved":false,"is_disabled":false,"rental_uris":{"android":"levelo://app?vid=03c4e37a-9d44-4a60-b09e-c2fe99e2bf34","ios":"levelo://app?vid=03c4e37a-9d44-4a60-b09e-c2fe99e2bf34"},"vehicle_type_id":"4","last_reported":1752765138,"current_range_meters":19600,"station_id":"cpo3532slgdg3j2ikp40","pricing_plan_id":"cebpf4jnsgd1na2vs0mg"},{"bike_id":"5ac93e7c-286a-4c1e-b6c0-4e9963e5a9f8","system_id":"levelo_inurba_marseille","lat":43.211924,"lon":5.350724,"is_reserved":false,"is_disabled":false,"rental_uris":{"android":"levelo://app?vid=5ac93e7c-286a-4c1e-b6c0-4e9963e5a9f8","ios":"levelo://app?vid=5ac93e7c-286a-4c1e-b6c0-4e9963e5a9f8"},"vehicle_type_id":"4","last_reported":1752765138,"current_range_meters":19600,"station_id":"st_cvj6sg6p6f1abm77japg","pricing_plan_id":"cebpf4jnsgd1na2vs0mg"},{"bike_id":"eb5e954c-b3bf-48c3-aa20-b166f84e680c","system_id":"levelo_inurba_marseille","lat":43.28416,"lon":5.35003,"is_reserved":false,"is_disabled":false,"rental_uris":{"android":"levelo://app?vid=eb5e954c-b3bf-48c3-aa20-b166f84e680c","ios":"levelo://app?vid=eb5e954c-b3bf-48c3-aa20-b166f84e680c"},"vehicle_type_id":"4","last_reported":1752765138,"current_range_meters":20000,"station_id":"ce4bhbh2rcd13ifvqepg","pricing_plan_id":"cebpf4jnsgd1na2vs0mg"},{"bike_id":"9e7bd4c8-c6d4-4892-8738-e35c92d3a2d5","system_id":"levelo_inurba_marseille","lat":43.28647,"lon":5.35094,"is_reserved":false,"is_disabled":false,"rental_uris":{"android":"levelo://app?vid=9e7bd4c8-c6d4-4892-8738-e35c92d3a2d5","ios":"levelo://app?vid=9e7bd4c8-c6d4-4892-8738-e35c92d3a2d5"},"vehicle_type_id":"4","last_reported":1752765138,"current_range_meters":20000,"station_id":"ce4bhch2rcd13ifvqeug","pricing_plan_id":"cebpf4jnsgd1na2vs0mg"},{"bike_id":"11f8bac9-cf42-45fc-afe4-bc93c656499e","system_id":"levelo_inurba_marseille","lat":43.2655,"lon":5.37287,"is_reserved":false,"is_disabled":false,"rental_uris":{"android":"levelo://app?vid=11f8bac9-cf42-45fc-afe4-bc93c656499e","ios":"levelo://app?vid=11f8bac9-cf42-45fc-afe4-bc93c656499e"},"vehicle_type_id":"4","last_reported":1752765138,"current_range_meters":20000,"station_id":"ce4bhg12rcd13ifvqf70","pricing_plan_id":"cebpf4jnsgd1na2vs0mg"},{"bike_id":"39156484-d3df-4ce6-9da5-beeab1f9c214","system_id":"levelo_inurba_marseille","lat":43.2176,"lon":5.34619,"is_reserved":false,"is_disabled":false,"rental_uris":{"android":"levelo://app?vid=39156484-d3df-4ce6-9da5-beeab1f9c214","ios":"levelo://app?vid=39156484-d3df-4ce6-9da5-beeab1f9c214"},"vehicle_type_id":"4","last_reported":1752765138,"current_range_meters":20000,"station_id":"st_cvj6r9ubvosntc0bgbag","pricing_plan_id":"cebpf4jnsgd1na2vs0mg"},{"bike_id":"47657a3c-cfff-47a5-a825-8e5d2c13bd73","system_id":"levelo_inurba_marseille","lat":43.268092,"lon":5.402697,"is_reserved":false,"is_disabled":false,"rental_uris":{"android":"levelo://app?vid=47657a3c-cfff-47a5-a825-8e5d2c13bd73","ios":"levelo://app?vid=47657a3c-cfff-47a5-a825-8e5d2c13bd73"},"vehicle_type_id":"4","last_reported":1752765138,"current_range_meters":20000,"station_id":"ce501612rcd8frsf0b60","pricing_plan_id":"cebpf4jnsgd1na2vs0mg"},{"bike_id":"8221c589-5c69-4dcf-9c54-6b35c0d5ae21","system_id":"levelo_inurba_marseille","lat":43.29009,"lon":5.35613,"is_reserved":false,"is_disabled":false,"rental_uris":{"android":"levelo://app?vid=8221c589-5c69-4dcf-9c54-6b35c0d5ae21","ios":"levelo://app?vid=8221c589-5c69-4dcf-9c54-6b35c0d5ae21"},"vehicle_type_id":"4","last_reported":1752765138,"current_range_meters":20000,"station_id":"ce4bhb92rcd13ifvqen0","pricing_plan_id":"cebpf4jnsgd1na2vs0mg"},{"bike_id":"2d95b47d-d06f-40a4-bb6e-c13e954e3c8f","system_id":"levelo_inurba_marseille","lat":43.27735,"lon":5.41436,"is_reserved":false,"is_disabled":false,"rental_uris":{"android":"levelo://app?vid=2d95b47d-d06f-40a4-bb6e-c13e954e3c8f","ios":"levelo://app?vid=2d95b47d-d06f-40a4-bb6e-c13e954e3c8f"},"vehicle_type_id":"4","last_reported":1752765138,"current_range_meters":20000,"station_id":"","pricing_plan_id":"cebpf4jnsgd1na2vs0mg"},{"bike_id":"a988c46c-9158-4c7c-9c55-9aa54a5ca273","system_id":"levelo_inurba_marseille","lat":43.26561,"lon":5.39008,"is_reserved":false,"is_disabled":false,"rental_uris":{"android":"levelo://app?vid=a988c46c-9158-4c7c-9c55-9aa54a5ca273","ios":"levelo://app?vid=a988c46c-9158-4c7c-9c55-9aa54a5ca273"},"vehicle_type_id":"4","last_reported":1752765138,"current_range_meters":20000,"station_id":"ce4bhe12rcd13ifvqf30","pricing_plan_id":"cebpf4jnsgd1na2vs0mg"},{"bike_id":"1b8883b7-2255-4b92-83fa-dd4fb823413d","system_id":"levelo_inurba_marseille","lat":43.296981,"lon":5.376627,"is_reserved":false,"is_disabled":false,"rental_uris":{"android":"levelo://app?vid=1b8883b7-2255-4b92-83fa-dd4fb823413d","ios":"levelo://app?vid=1b8883b7-2255-4b92-83fa-dd4fb823413d"},"vehicle_type_id":"4","last_reported":1752765138,"current_range_meters":20000,"station_id":"ce4bgkh2rcd13ifvqbl0","pricing_plan_id":"cebpf4jnsgd1na2vs0mg"},{"bike_id":"db7bad39-17ec-4f0b-95ae-0ccbb39420e1","system_id":"levelo_inurba_marseille","lat":43.22506,"lon":5.34786,"is_reserved":false,"is_disabled":false,"rental_uris":{"android":"levelo://app?vid=db7bad39-17ec-4f0b-95ae-0ccbb39420e1","ios":"levelo://app?vid=db7bad39-17ec-4f0b-95ae-0ccbb39420e1"},"vehicle_type_id":"4","last_reported":1752765138,"current_range_meters":20000,"station_id":"st_cvj5dfep6f1abm77gieg","pricing_plan_id":"cebpf4jnsgd1na2vs0mg"},{"bike_id":"a675df32-16e1-46de-af30-d0726fd89292","system_id":"levelo_inurba_marseille","lat":43.24384,"lon":5.37022,"is_reserved":false,"is_disabled":false,"rental_uris":{"android":"levelo://app?vid=a675df32-16e1-46de-af30-d0726fd89292","ios":"levelo://app?vid=a675df32-16e1-46de-af30-d0726fd89292"},"vehicle_type_id":"4","last_reported":1752765138,"current_range_meters":20000,"station_id":"ce4bhhh2rcd13ifvqfk0","pricing_plan_id":"cebpf4jnsgd1na2vs0mg"},{"bike_id":"edd0079d-996b-4ae3-9a31-d781f3a059ec","system_id":"levelo_inurba_marseille","lat":43.33786,"lon":5.37426,"is_reserved":false,"is_disabled":false,"rental_uris":{"android":"levelo://app?vid=edd0079d-996b-4ae3-9a31-d781f3a059ec","ios":"levelo://app?vid=edd0079d-996b-4ae3-9a31-d781f3a059ec"},"vehicle_type_id":"4","last_reported":1752765138,"current_range_meters":20000,"station_id":"","pricing_plan_id":"cebpf4jnsgd1na2vs0mg"},{"bike_id":"8f609962-a3af-4718-b65f-433127f49f16","system_id":"levelo_inurba_marseille","lat":43.30562,"lon":5.36543,"is_reserved":false,"is_disabled":false,"rental_uris":{"android":"levelo://app?vid=8f609962-a3af-4718-b65f-433127f49f16","ios":"levelo://app?vid=8f609962-a3af-4718-b65f-433127f49f16"},"vehicle_type_id":"4","last_reported":1752765138,"current_range_meters":20000,"station_id":"ce4bgs12rcd13ifvqcag","pricing_plan_id":"cebpf4jnsgd1na2vs0mg"},{"bike_id":"1d9bf584-41ef-4bf3-aa4f-c2cce8d3727b","system_id":"levelo_inurba_marseille","lat":43.22521,"lon":5.3478,"is_reserved":false,"is_disabled":false,"rental_uris":{"android":"levelo://app?vid=1d9bf584-41ef-4bf3-aa4f-c2cce8d3727b","ios":"levelo://app?vid=1d9bf584-41ef-4bf3-aa4f-c2cce8d3727b"},"vehicle_type_id":"4","last_reported":1752765138,"current_range_meters":20400,"station_id":"st_cvj5dfep6f1abm77gieg","pricing_plan_id":"cebpf4jnsgd1na2vs0mg"},{"bike_id":"98796bfc-f10c-44f8-a5aa-8a51dd096a85","system_id":"levelo_inurba_marseille","lat":43.28422,"lon":5.35013,"is_reserved":false,"is_disabled":false,"rental_uris":{"android":"levelo://app?vid=98796bfc-f10c-44f8-a5aa-8a51dd096a85","ios":"levelo://app?vid=98796bfc-f10c-44f8-a5aa-8a51dd096a85"},"vehicle_type_id":"4","last_reported":1752765138,"current_range_meters":20400,"station_id":"ce4bhbh2rcd13ifvqepg","pricing_plan_id":"cebpf4jnsgd1na2vs0mg"},{"bike_id":"58cb234b-86ec-4b63-99db-717c732d6291","system_id":"levelo_inurba_marseille","lat":43.31204,"lon":5.36865,"is_reserved":false,"is_disabled":false,"rental_uris":{"android":"levelo://app?vid=58cb234b-86ec-4b63-99db-717c732d6291","ios":"levelo://app?vid=58cb234b-86ec-4b63-99db-717c732d6291"},"vehicle_type_id":"4","last_reported":1752765138,"current_range_meters":20400,"station_id":"ce4bgl92rcd13ifvqbq0","pricing_plan_id":"cebpf4jnsgd1na2vs0mg"},{"bike_id":"78145243-508b-4baf-91dc-fa6c58fa0126","system_id":"levelo_inurba_marseille","lat":43.291757,"lon":5.371447,"is_reserved":false,"is_disabled":false,"rental_uris":{"android":"levelo://app?vid=78145243-508b-4baf-91dc-fa6c58fa0126","ios":"levelo://app?vid=78145243-508b-4baf-91dc-fa6c58fa0126"},"vehicle_type_id":"4","last_reported":1752765138,"current_range_meters":20400,"station_id":"ce4bha92rcd13ifvqeh0","pricing_plan_id":"cebpf4jnsgd1na2vs0mg"},{"bike_id":"5f609dac-09f6-4f7d-905f-6338275679f0","system_id":"levelo_inurba_marseille","lat":43.30379,"lon":5.42491,"is_reserved":false,"is_disabled":false,"rental_uris":{"android":"levelo://app?vid=5f609dac-09f6-4f7d-905f-6338275679f0","ios":"levelo://app?vid=5f609dac-09f6-4f7d-905f-6338275679f0"},"vehicle_type_id":"4","last_reported":1752765138,"current_range_meters":20400,"station_id":"ce4bhoh2rcd13ifvqh6g","pricing_plan_id":"cebpf4jnsgd1na2vs0mg"},{"bike_id":"c6f84f71-1687-4395-b70b-22135a4f5015","system_id":"levelo_inurba_marseille","lat":43.29269,"lon":5.37624,"is_reserved":false,"is_disabled":false,"rental_uris":{"android":"levelo://app?vid=c6f84f71-1687-4395-b70b-22135a4f5015","ios":"levelo://app?vid=c6f84f71-1687-4395-b70b-22135a4f5015"},"vehicle_type_id":"4","last_reported":1752765138,"current_range_meters":20400,"station_id":"ce4bgi12rcd13ifvqb80","pricing_plan_id":"cebpf4jnsgd1na2vs0mg"},{"bike_id":"e486650a-4a92-4236-ad0b-f4a6cb4e0658","system_id":"levelo_inurba_marseille","lat":43.27381,"lon":5.36257,"is_reserved":false,"is_disabled":false,"rental_uris":{"android":"levelo://app?vid=e486650a-4a92-4236-ad0b-f4a6cb4e0658","ios":"levelo://app?vid=e486650a-4a92-4236-ad0b-f4a6cb4e0658"},"vehicle_type_id":"4","last_reported":1752765138,"current_range_meters":20400,"station_id":"ce4bhbh2rcd13ifvqeo0","pricing_plan_id":"cebpf4jnsgd1na2vs0mg"},{"bike_id":"b9354840-2204-42f6-a2ce-76c0ad8aa4f1","system_id":"levelo_inurba_marseille","lat":43.28266,"lon":5.35078,"is_reserved":false,"is_disabled":false,"rental_uris":{"android":"levelo://app?vid=b9354840-2204-42f6-a2ce-76c0ad8aa4f1","ios":"levelo://app?vid=b9354840-2204-42f6-a2ce-76c0ad8aa4f1"},"vehicle_type_id":"4","last_reported":1752765138,"current_range_meters":20400,"station_id":"ce4bhbp2rcd13ifvqerg","pricing_plan_id":"cebpf4jnsgd1na2vs0mg"},{"bike_id":"4aa575b6-a204-4fdb-acf3-66934cd34b50","system_id":"levelo_inurba_marseille","lat":43.32458,"lon":5.36595,"is_reserved":false,"is_disabled":false,"rental_uris":{"android":"levelo://app?vid=4aa575b6-a204-4fdb-acf3-66934cd34b50","ios":"levelo://app?vid=4aa575b6-a204-4fdb-acf3-66934cd34b50"},"vehicle_type_id":"4","last_reported":1752765138,"current_range_meters":20400,"station_id":"ce4bhs12rcd13ifvqhvg","pricing_plan_id":"cebpf4jnsgd1na2vs0mg"},{"bike_id":"c4505469-0f36-4262-8ebb-1522d5b3e8fb","system_id":"levelo_inurba_marseille","lat":43.21195,"lon":5.35075,"is_reserved":false,"is_disabled":false,"rental_uris":{"android":"levelo://app?vid=c4505469-0f36-4262-8ebb-1522d5b3e8fb","ios":"levelo://app?vid=c4505469-0f36-4262-8ebb-1522d5b3e8fb"},"vehicle_type_id":"4","last_reported":1752765138,"current_range_meters":20400,"station_id":"st_cvj6sg6p6f1abm77japg","pricing_plan_id":"cebpf4jnsgd1na2vs0mg"},{"bike_id":"5cbbd004-2b03-4039-a1d0-b7d96a33c28c","system_id":"levelo_inurba_marseille","lat":43.27377,"lon":5.36261,"is_reserved":false,"is_disabled":false,"rental_uris":{"android":"levelo://app?vid=5cbbd004-2b03-4039-a1d0-b7d96a33c28c","ios":"levelo://app?vid=5cbbd004-2b03-4039-a1d0-b7d96a33c28c"},"vehicle_type_id":"4","last_reported":1752765138,"current_range_meters":20400,"station_id":"ce4bhbh2rcd13ifvqeo0","pricing_plan_id":"cebpf4jnsgd1na2vs0mg"},{"bike_id":"241f48e1-0c3d-4895-989d-e8e91bee1cdb","system_id":"levelo_inurba_marseille","lat":43.29029,"lon":5.38647,"is_reserved":false,"is_disabled":false,"rental_uris":{"android":"levelo://app?vid=241f48e1-0c3d-4895-989d-e8e91bee1cdb","ios":"levelo://app?vid=241f48e1-0c3d-4895-989d-e8e91bee1cdb"},"vehicle_type_id":"4","last_reported":1752765138,"current_range_meters":20000,"station_id":"ce4bh4p2rcd13ifvqe0g","pricing_plan_id":"cebpf4jnsgd1na2vs0mg"},{"bike_id":"87f4e8ca-c6fe-4be7-bb4d-810b71b16ba0","system_id":"levelo_inurba_marseille","lat":43.30328,"lon":5.40431,"is_reserved":false,"is_disabled":false,"rental_uris":{"android":"levelo://app?vid=87f4e8ca-c6fe-4be7-bb4d-810b71b16ba0","ios":"levelo://app?vid=87f4e8ca-c6fe-4be7-bb4d-810b71b16ba0"},"vehicle_type_id":"4","last_reported":1752765138,"current_range_meters":20400,"station_id":"ce4bh012rcd13ifvqd10","pricing_plan_id":"cebpf4jnsgd1na2vs0mg"},{"bike_id":"20abd928-fdbc-49de-92d4-3be0957db393","system_id":"levelo_inurba_marseille","lat":43.3134,"lon":5.39685,"is_reserved":false,"is_disabled":false,"rental_uris":{"android":"levelo://app?vid=20abd928-fdbc-49de-92d4-3be0957db393","ios":"levelo://app?vid=20abd928-fdbc-49de-92d4-3be0957db393"},"vehicle_type_id":"4","last_reported":1752765138,"current_range_meters":20400,"station_id":"ce4bgvp2rcd13ifvqcu0","pricing_plan_id":"cebpf4jnsgd1na2vs0mg"},{"bike_id":"b7fe52dd-f025-4212-9e78-19e7f6f09593","system_id":"levelo_inurba_marseille","lat":43.211929,"lon":5.350782,"is_reserved":false,"is_disabled":false,"rental_uris":{"android":"levelo://app?vid=b7fe52dd-f025-4212-9e78-19e7f6f09593","ios":"levelo://app?vid=b7fe52dd-f025-4212-9e78-19e7f6f09593"},"vehicle_type_id":"4","last_reported":1752765138,"current_range_meters":20400,"station_id":"st_cvj6sg6p6f1abm77japg","pricing_plan_id":"cebpf4jnsgd1na2vs0mg"},{"bike_id":"ffa2ee83-2cef-4aab-92df-68c776cd54ff","system_id":"levelo_inurba_marseille","lat":43.23966,"lon":5.36632,"is_reserved":false,"is_disabled":false,"rental_uris":{"android":"levelo://app?vid=ffa2ee83-2cef-4aab-92df-68c776cd54ff","ios":"levelo://app?vid=ffa2ee83-2cef-4aab-92df-68c776cd54ff"},"vehicle_type_id":"4","last_reported":1752765138,"current_range_meters":20400,"station_id":"ce4bhi12rcd13ifvqfp0","pricing_plan_id":"cebpf4jnsgd1na2vs0mg"},{"bike_id":"953974ea-0fba-4837-b9f8-89f4ce6b280f","system_id":"levelo_inurba_marseille","lat":43.27995,"lon":5.40013,"is_reserved":false,"is_disabled":false,"rental_uris":{"android":"levelo://app?vid=953974ea-0fba-4837-b9f8-89f4ce6b280f","ios":"levelo://app?vid=953974ea-0fba-4837-b9f8-89f4ce6b280f"},"vehicle_type_id":"4","last_reported":1752765138,"current_range_meters":20400,"station_id":"ce4bho92rcd13ifvqh4g","pricing_plan_id":"cebpf4jnsgd1na2vs0mg"},{"bike_id":"60eaa34b-6ac3-46fb-bb86-b401b04a3215","system_id":"levelo_inurba_marseille","lat":43.28507,"lon":5.38381,"is_reserved":false,"is_disabled":false,"rental_uris":{"android":"levelo://app?vid=60eaa34b-6ac3-46fb-bb86-b401b04a3215","ios":"levelo://app?vid=60eaa34b-6ac3-46fb-bb86-b401b04a3215"},"vehicle_type_id":"4","last_reported":1752765138,"current_range_meters":20400,"station_id":"ce4bh512rcd13ifvqe3g","pricing_plan_id":"cebpf4jnsgd1na2vs0mg"},{"bike_id":"50c911ae-f1ca-45ee-9ed7-9a227c3a6fc5","system_id":"levelo_inurba_marseille","lat":43.31979,"lon":5.38092,"is_reserved":false,"is_disabled":false,"rental_uris":{"android":"levelo://app?vid=50c911ae-f1ca-45ee-9ed7-9a227c3a6fc5","ios":"levelo://app?vid=50c911ae-f1ca-45ee-9ed7-9a227c3a6fc5"},"vehicle_type_id":"4","last_reported":1752765138,"current_range_meters":20800,"station_id":"","pricing_plan_id":"cebpf4jnsgd1na2vs0mg"},{"bike_id":"7d11b2f6-67d9-4d1a-8f35-4103f3161280","system_id":"levelo_inurba_marseille","lat":43.211989,"lon":5.350826,"is_reserved":false,"is_disabled":false,"rental_uris":{"android":"levelo://app?vid=7d11b2f6-67d9-4d1a-8f35-4103f3161280","ios":"levelo://app?vid=7d11b2f6-67d9-4d1a-8f35-4103f3161280"},"vehicle_type_id":"4","last_reported":1752765138,"current_range_meters":20800,"station_id":"st_cvj6sg6p6f1abm77japg","pricing_plan_id":"cebpf4jnsgd1na2vs0mg"},{"bike_id":"793d4ec3-9f7a-47ee-aee7-1db0c16e63c1","system_id":"levelo_inurba_marseille","lat":43.28258,"lon":5.35066,"is_reserved":false,"is_disabled":false,"rental_uris":{"android":"levelo://app?vid=793d4ec3-9f7a-47ee-aee7-1db0c16e63c1","ios":"levelo://app?vid=793d4ec3-9f7a-47ee-aee7-1db0c16e63c1"},