{"last_updated":1698588338,"ttl":30,"version":"2.2","data":{"bikes":[{"bike_id":"b98199d2-bf65-43cb-ae27-329b3fbc2828","system_id":"levelo_inurba_marseille","lat":43.31341,"lon":5.367098,"is_reserved":false,"is_disabled":false,"rental_uris":{"android":"levelo://app?vid=b98199d2-bf65-43cb-ae27-329b3fbc2828","ios":"levelo://app?vid=b98199d2-bf65-43cb-ae27-329b3fbc2828"},"vehicle_type_id":"4","last_reported":1698588338,"current_range_meters":16800,"station_id":"ce4bgr92rcd13ifvqc6g","pricing_plan_id":"free"},{"bike_id":"2dedfa71-6fef-4c62-bd91-5a9354346763","system_id":"levelo_inurba_marseille","lat":43.313391,"lon":5.36706,"is_reserved":false,"is_disabled":false,"rental_uris":{"android":"levelo://app?vid=2dedfa71-6fef-4c62-bd91-5a9354346763","ios":"levelo://app?vid=2dedfa71-6fef-4c62-bd91-5a9354346763"},"vehicle_type_id":"4","last_reported":1698588338,"current_range_meters":27600,"station_id":"ce4bgr92rcd13ifvqc6g","pricing_plan_id":"free"},{"bike_id":"7d10a6da-1bda-4389-849c-138fae09f0b6","system_id":"levelo_inurba_marseille","lat":43.309076,"lon":5.368465,"is_reserved":false,"is_disabled":false,"rental_uris":{"android":"levelo://app?vid=7d10a6da-1bda-4389-849c-138fae09f0b6","ios":"levelo://app?vid=7d10a6da-1bda-4389-849c-138fae09f0b6"},"vehicle_type_id":"4","last_reported":1698588338,"current_range_meters":14800,"station_id":"ce4bgn92rcd13ifvqbvg","pricing_plan_id":"free"},{"bike_id":"b1cb48cb-22d4-4cd4-97b0-038c1cf723b7","system_id":"levelo_inurba_marseille","lat":43.315186,"lon":5.371432,"is_reserved":false,"is_disabled":false,"rental_uris":{"android":"levelo://app?vid=b1cb48cb-22d4-4cd4-97b0-038c1cf723b7","ios":"levelo://app?vid=b1cb48cb-22d4-4cd4-97b0-038c1cf723b7"},"vehicle_type_id":"4","last_reported":1698588338,"current_range_meters":15200,"station_id":"","pricing_plan_id":"free"},{"bike_id":"165196f5-abb1-4bb7-8c7c-05ea1bad5576","system_id":"levelo_inurba_marseille","lat":43.314811,"lon":5.373104,"is_reserved":false,"is_disabled":false,"rental_uris":{"android":"levelo://app?vid=165196f5-abb1-4bb7-8c7c-05ea1bad5576","ios":"levelo://app?vid=165196f5-abb1-4bb7-8c7c-05ea1bad5576"},"vehicle_type_id":"4","last_reported":1698588338,"current_range_meters":28000,"station_id":"ce4bgt12rcd13ifvqcd0","pricing_plan_id":"free"},{"bike_id":"d321de1e-04da-45a1-b061-c4d8d7ec5d61","system_id":"levelo_inurba_marseille","lat":43.30903,"lon":5.37176,"is_reserved":false,"is_disabled":false,"rental_uris":{"android":"levelo://app?vid=d321de1e-04da-45a1-b061-c4d8d7ec5d61","ios":"levelo://app?vid=d321de1e-04da-45a1-b061-c4d8d7ec5d61"},"vehicle_type_id":"4","last_reported":1698588338,"current_range_meters":20800,"station_id":"","pricing_plan_id":"free"},{"bike_id":"f52d864e-e175-42c5-b352-0ae9d928ca3f","system_id":"levelo_inurba_marseille","lat":43.309039,"lon":5.371797,"is_reserved":false,"is_disabled":false,"rental_uris":{"android":"levelo://app?vid=f52d864e-e175-42c5-b352-0ae9d928ca3f","ios":"levelo://app?vid=f52d864e-e175-42c5-b352-0ae9d928ca3f"},"vehicle_type_id":"4","last_reported":1698588338,"current_range_meters":10000,"station_id":"ce4bguh2rcd13ifvqckg","pricing_plan_id":"free"},{"bike_id":"a34553a3-1c5a-4f1f-b532-5b50effe49fb","system_id":"levelo_inurba_marseille","lat":43.30543,"lon":5.36557,"is_reserved":false,"is_disabled":false,"rental_uris":{"android":"levelo://app?vid=a34553a3-1c5a-4f1f-b532-5b50effe49fb","ios":"levelo://app?vid=a34553a3-1c5a-4f1f-b532-5b50effe49fb"},"vehicle_type_id":"4","last_reported":1698588338,"current_range_meters":22000,"station_id":"ce4bgs12rcd13ifvqcag","pricing_plan_id":"free"},{"bike_id":"ab5a0bbc-71f7-455b-a3ff-28c5e249f832","system_id":"levelo_inurba_marseille","lat":43.305309,"lon":5.367202,"is_reserved":false,"is_disabled":false,"rental_uris":{"android":"levelo://app?vid=ab5a0bbc-71f7-455b-a3ff-28c5e249f832","ios":"levelo://app?vid=ab5a0bbc-71f7-455b-a3ff-28c5e249f832"},"vehicle_type_id":"4","last_reported":1698588338,"current_range_meters":0,"station_id":"ce4bgrp2rcd13ifvqc9g","pricing_plan_id":"free"},{"bike_id":"f252b071-dddd-4e5f-ad07-506846af6d1a","system_id":"levelo_inurba_marseille","lat":43.30535,"lon":5.36521,"is_reserved":false,"is_disabled":false,"rental_uris":{"android":"levelo://app?vid=f252b071-dddd-4e5f-ad07-506846af6d1a","ios":"levelo://app?vid=f252b071-dddd-4e5f-ad07-506846af6d1a"},"vehicle_type_id":"4","last_reported":1698588338,"current_range_meters":14400,"station_id":"ce4bgs12rcd13ifvqcag","pricing_plan_id":"free"},{"bike_id":"0630f30a-ea9b-4942-a504-bca42f8d2088","system_id":"levelo_inurba_marseille","lat":43.305989,"lon":5.37225,"is_reserved":false,"is_disabled":false,"rental_uris":{"android":"levelo://app?vid=0630f30a-ea9b-4942-a504-bca42f8d2088","ios":"levelo://app?vid=0630f30a-ea9b-4942-a504-bca42f8d2088"},"vehicle_type_id":"4","last_reported":1698588338,"current_range_meters":6000,"station_id":"ce4bgqh2rcd13ifvqc4g","pricing_plan_id":"free"},{"bike_id":"fc6fc194-f20a-4d71-90fd-0f83a1b1d458","system_id":"levelo_inurba_marseille","lat":43.30304,"lon":5.368987,"is_reserved":false,"is_disabled":false,"rental_uris":{"android":"levelo://app?vid=fc6fc194-f20a-4d71-90fd-0f83a1b1d458","ios":"levelo://app?vid=fc6fc194-f20a-4d71-90fd-0f83a1b1d458"},"vehicle_type_id":"4","last_reported":1698588338,"current_range_meters":0,"station_id":"ce4bgqh2rcd13ifvqc5g","pricing_plan_id":"free"},{"bike_id":"c8743d09-6f28-4aac-91cc-2f9facaa9f44","system_id":"levelo_inurba_marseille","lat":43.315368,"lon":5.380331,"is_reserved":false,"is_disabled":false,"rental_uris":{"android":"levelo://app?vid=c8743d09-6f28-4aac-91cc-2f9facaa9f44","ios":"levelo://app?vid=c8743d09-6f28-4aac-91cc-2f9facaa9f44"},"vehicle_type_id":"4","last_reported":1698588338,"current_range_meters":0,"station_id":"ce4bhsp2rcd13ifvqi50","pricing_plan_id":"free"},{"bike_id":"76ccd7e9-5a84-4823-97ba-75798160fcd4","system_id":"levelo_inurba_marseille","lat":43.315373,"lon":5.38034,"is_reserved":false,"is_disabled":false,"rental_uris":{"android":"levelo://app?vid=76ccd7e9-5a84-4823-97ba-75798160fcd4","ios":"levelo://app?vid=76ccd7e9-5a84-4823-97ba-75798160fcd4"},"vehicle_type_id":"4","last_reported":1698588338,"current_range_meters":21600,"station_id":"ce4bhsp2rcd13ifvqi50","pricing_plan_id":"free"},{"bike_id":"c5b5aa01-1e48-4259-8192-8b1130da731e","system_id":"levelo_inurba_marseille","lat":43.301939,"lon":5.366286,"is_reserved":false,"is_disabled":false,"rental_uris":{"android":"levelo://app?vid=c5b5aa01-1e48-4259-8192-8b1130da731e","ios":"levelo://app?vid=c5b5aa01-1e48-4259-8192-8b1130da731e"},"vehicle_type_id":"4","last_reported":1698588338,"current_range_meters":6800,"station_id":"ce4bgrh2rcd13ifvqc8g","pricing_plan_id":"free"},{"bike_id":"f49ed036-72c2-4c11-bd9e-15f4fd9f1b85","system_id":"levelo_inurba_marseille","lat":43.308012,"lon":5.381511,"is_reserved":false,"is_disabled":false,"rental_uris":{"android":"levelo://app?vid=f49ed036-72c2-4c11-bd9e-15f4fd9f1b85","ios":"levelo://app?vid=f49ed036-72c2-4c11-bd9e-15f4fd9f1b85"},"vehicle_type_id":"4","last_reported":1698588338,"current_range_meters":2800,"station_id":"ce4bgt12rcd13ifvqce0","pricing_plan_id":"free"},{"bike_id":"413b6c27-22da-400d-88a7-9b9c7ea17f0a","system_id":"levelo_inurba_marseille","lat":43.30799,"lon":5.38149,"is_reserved":false,"is_disabled":false,"rental_uris":{"android":"levelo://app?vid=413b6c27-22da-400d-88a7-9b9c7ea17f0a","ios":"levelo://app?vid=413b6c27-22da-400d-88a7-9b9c7ea17f0a"},"vehicle_type_id":"4","last_reported":1698588338,"current_range_meters":29200,"station_id":"ce4bgt12rcd13ifvqce0","pricing_plan_id":"free"},{"bike_id":"e3f253a1-9788-4492-938f-39b642fbd881","system_id":"levelo_inurba_marseille","lat":43.3245,"lon":5.36788,"is_reserved":false,"is_disabled":false,"rental_uris":{"android":"levelo://app?vid=e3f253a1-9788-4492-938f-39b642fbd881","ios":"levelo://app?vid=e3f253a1-9788-4492-938f-39b642fbd881"},"vehicle_type_id":"4","last_reported":1698588338,"current_range_meters":6000,"station_id":"","pricing_plan_id":"free"},{"bike_id":"d797f1e6-f3ca-4ad7-8b56-5ed6191da53c","system_id":"levelo_inurba_marseille","lat":43.304606,"lon":5.379026,"is_reserved":false,"is_disabled":false,"rental_uris":{"android":"levelo://app?vid=d797f1e6-f3ca-4ad7-8b56-5ed6191da53c","ios":"levelo://app?vid=d797f1e6-f3ca-4ad7-8b56-5ed6191da53c"},"vehicle_type_id":"4","last_reported":1698588338,"current_range_meters":26000,"station_id":"ce4bgup2rcd13ifvqcn0","pricing_plan_id":"free"},{"bike_id":"8b432bf0-3f88-4f9e-9a0a-dbe647e28646","system_id":"levelo_inurba_marseille","lat":43.304606,"lon":5.379026,"is_reserved":false,"is_disabled":false,"rental_uris":{"android":"levelo://app?vid=8b432bf0-3f88-4f9e-9a0a-dbe647e28646","ios":"levelo://app?vid=8b432bf0-3f88-4f9e-9a0a-dbe647e28646"},"vehicle_type_id":"4","last_reported":1698588338,"current_range_meters":10800,"station_id":"ce4bgup2rcd13ifvqcn0","pricing_plan_id":"free"},{"bike_id":"1f1b0f55-a04a-4348-9a91-5676d9261468","system_id":"levelo_inurba_marseille","lat":43.3248,"lon":5.36559,"is_reserved":false,"is_disabled":false,"rental_uris":{"android":"levelo://app?vid=1f1b0f55-a04a-4348-9a91-5676d9261468","ios":"levelo://app?vid=1f1b0f55-a04a-4348-9a91-5676d9261468"},"vehicle_type_id":"4","last_reported":1698588338,"current_range_meters":10400,"station_id":"","pricing_plan_id":"free"},{"bike_id":"dd1c0b20-019a-4f88-ae15-bb2c3eed70ed","system_id":"levelo_inurba_marseille","lat":43.31944,"lon":5.38124,"is_reserved":false,"is_disabled":false,"rental_uris":{"android":"levelo://app?vid=dd1c0b20-019a-4f88-ae15-bb2c3eed70ed","ios":"levelo://app?vid=dd1c0b20-019a-4f88-ae15-bb2c3eed70ed"},"vehicle_type_id":"4","last_reported":1698588338,"current_range_meters":0,"station_id":"","pricing_plan_id":"free"},{"bike_id":"563c758c-c5d9-4f39-af3a-39eb75d565ff","system_id":"levelo_inurba_marseille","lat":43.301429,"lon":5.37413,"is_reserved":false,"is_disabled":false,"rental_uris":{"android":"levelo://app?vid=563c758c-c5d9-4f39-af3a-39eb75d565ff","ios":"levelo://app?vid=563c758c-c5d9-4f39-af3a-39eb75d565ff"},"vehicle_type_id":"4","last_reported":1698588338,"current_range_meters":27200,"station_id":"ce4bgs92rcd13ifvqcc0","pricing_plan_id":"free"},{"bike_id":"f695e2fb-1f44-4229-9675-ab42f5ede987","system_id":"levelo_inurba_marseille","lat":43.301429,"lon":5.37413,"is_reserved":false,"is_disabled":false,"rental_uris":{"android":"levelo://app?vid=f695e2fb-1f44-4229-9675-ab42f5ede987","ios":"levelo://app?vid=f695e2fb-1f44-4229-9675-ab42f5ede987"},"vehicle_type_id":"4","last_reported":1698588338,"current_range_meters":15200,"station_id":"ce4bgs92rcd13ifvqcc0","pricing_plan_id":"free"},{"bike_id":"ffc72f24-fc0b-4121-af5e-eb9d2e581b0e","system_id":"levelo_inurba_marseille","lat":43.30143,"lon":5.37413,"is_reserved":false,"is_disabled":false,"rental_uris":{"android":"levelo://app?vid=ffc72f24-fc0b-4121-af5e-eb9d2e581b0e","ios":"levelo://app?vid=ffc72f24-fc0b-4121-af5e-eb9d2e581b0e"},"vehicle_type_id":"4","last_reported":1698588338,"current_range_meters":26400,"station_id":"ce4bgs92rcd13ifvqcc0","pricing_plan_id":"free"},{"bike_id":"86e1e09a-aea6-474e-a806-ec5c7eade5d7","system_id":"levelo_inurba_marseille","lat":43.313571,"lon":5.384829,"is_reserved":false,"is_disabled":false,"rental_uris":{"android":"levelo://app?vid=86e1e09a-aea6-474e-a806-ec5c7eade5d7","ios":"levelo://app?vid=86e1e09a-aea6-474e-a806-ec5c7eade5d7"},"vehicle_type_id":"4","last_reported":1698588338,"current_range_meters":5600,"station_id":"ce4bgt92rcd13ifvqcf0","pricing_plan_id":"free"},{"bike_id":"963fee42-6994-431d-92a1-c3555acdd1ff","system_id":"levelo_inurba_marseille","lat":43.29934,"lon":5.36535,"is_reserved":false,"is_disabled":false,"rental_uris":{"android":"levelo://app?vid=963fee42-6994-431d-92a1-c3555acdd1ff","ios":"levelo://app?vid=963fee42-6994-431d-92a1-c3555acdd1ff"},"vehicle_type_id":"4","last_reported":1698588338,"current_range_meters":18400,"station_id":"ce4bgm92rcd13ifvqbr0","pricing_plan_id":"free"},{"bike_id":"5ba66772-20b6-408d-a6c3-0df1cd4bb678","system_id":"levelo_inurba_marseille","lat":43.3264,"lon":5.367334,"is_reserved":false,"is_disabled":false,"rental_uris":{"android":"levelo://app?vid=5ba66772-20b6-408d-a6c3-0df1cd4bb678","ios":"levelo://app?vid=5ba66772-20b6-408d-a6c3-0df1cd4bb678"},"vehicle_type_id":"4","last_reported":1698588338,"current_range_meters":13600,"station_id":"","pricing_plan_id":"free"},{"bike_id":"3b2c36a8-5e3e-4360-9494-fdf3ca6ef316","system_id":"levelo_inurba_marseille","lat":43.319225,"lon":5.384179,"is_reserved":false,"is_disabled":false,"rental_uris":{"android":"levelo://app?vid=3b2c36a8-5e3e-4360-9494-fdf3ca6ef316","ios":"levelo://app?vid=3b2c36a8-5e3e-4360-9494-fdf3ca6ef316"},"vehicle_type_id":"4","last_reported":1698588338,"current_range_meters":0,"station_id":"","pricing_plan_id":"free"},{"bike_id":"32ccaa37-8c7a-42fc-ab6a-4b9901ad5461","system_id":"levelo_inurba_marseille","lat":43.298433,"lon":5.362774,"is_reserved":false,"is_disabled":false,"rental_uris":{"android":"levelo://app?vid=32ccaa37-8c7a-42fc-ab6a-4b9901ad5461","ios":"levelo://app?vid=32ccaa37-8c7a-42fc-ab6a-4b9901ad5461"},"vehicle_type_id":"4","last_reported":1698588338,"current_range_meters":4000,"station_id":"ce4bgpp2rcd13ifvqc3g","pricing_plan_id":"free"},{"bike_id":"f0a83082-b96a-4128-b9ba-804afd1bb2f0","system_id":"levelo_inurba_marseille","lat":43.298433,"lon":5.362774,"is_reserved":false,"is_disabled":false,"rental_uris":{"android":"levelo://app?vid=f0a83082-b96a-4128-b9ba-804afd1bb2f0","ios":"levelo://app?vid=f0a83082-b96a-4128-b9ba-804afd1bb2f0"},"vehicle_type_id":"4","last_reported":1698588338,"current_range_meters":18000,"station_id":"ce4bgpp2rcd13ifvqc3g","pricing_plan_id":"free"},{"bike_id":"7b1466f9-241c-492c-9d3a-f5ceb3a5abe2","system_id":"levelo_inurba_marseille","lat":43.299243,"lon":5.37481,"is_reserved":false,"is_disabled":false,"rental_uris":{"android":"levelo://app?vid=7b1466f9-241c-492c-9d3a-f5ceb3a5abe2","ios":"levelo://app?vid=7b1466f9-241c-492c-9d3a-f5ceb3a5abe2"},"vehicle_type_id":"4","last_reported":1698588338,"current_range_meters":0,"station_id":"ce4bgjh2rcd13ifvqbg0","pricing_plan_id":"free"},{"bike_id":"52ab48c4-3b2c-4f8b-9145-ec80ca964b91","system_id":"levelo_inurba_marseille","lat":43.299243,"lon":5.374807,"is_reserved":false,"is_disabled":false,"rental_uris":{"android":"levelo://app?vid=52ab48c4-3b2c-4f8b-9145-ec80ca964b91","ios":"levelo://app?vid=52ab48c4-3b2c-4f8b-9145-ec80ca964b91"},"vehicle_type_id":"4","last_reported":1698588338,"current_range_meters":26000,"station_id":"ce4bgjh2rcd13ifvqbg0","pricing_plan_id":"free"},{"bike_id":"22a209c9-2302-40d5-9def-44392e5bd248","system_id":"levelo_inurba_marseille","lat":43.299243,"lon":5.37481,"is_reserved":false,"is_disabled":false,"rental_uris":{"android":"levelo://app?vid=22a209c9-2302-40d5-9def-44392e5bd248","ios":"levelo://app?vid=22a209c9-2302-40d5-9def-44392e5bd248"},"vehicle_type_id":"4","last_reported":1698588338,"current_range_meters":25200,"station_id":"ce4bgjh2rcd13ifvqbg0","pricing_plan_id":"free"},{"bike_id":"23ef33b7-5f15-4880-b52e-080bc32e58c9","system_id":"levelo_inurba_marseille","lat":43.322872,"lon":5.382756,"is_reserved":false,"is_disabled":false,"rental_uris":{"android":"levelo://app?vid=23ef33b7-5f15-4880-b52e-080bc32e58c9","ios":"levelo://app?vid=23ef33b7-5f15-4880-b52e-080bc32e58c9"},"vehicle_type_id":"4","last_reported":1698588338,"current_range_meters":16400,"station_id":"ce4bhr12rcd13ifvqhqg","pricing_plan_id":"free"},{"bike_id":"686fcd16-35ad-4a6e-93b2-0c8bbe33ead4","system_id":"levelo_inurba_marseille","lat":43.297794,"lon":5.370888,"is_reserved":false,"is_disabled":false,"rental_uris":{"android":"levelo://app?vid=686fcd16-35ad-4a6e-93b2-0c8bbe33ead4","ios":"levelo://app?vid=686fcd16-35ad-4a6e-93b2-0c8bbe33ead4"},"vehicle_type_id":"4","last_reported":1698588338,"current_range_meters":18000,"station_id":"ce4bgop2rcd13ifvqc1g","pricing_plan_id":"free"},{"bike_id":"de3c62df-30bd-453f-beb1-667898b8adcf","system_id":"levelo_inurba_marseille","lat":43.322872,"lon":5.382756,"is_reserved":false,"is_disabled":false,"rental_uris":{"android":"levelo://app?vid=de3c62df-30bd-453f-beb1-667898b8adcf","ios":"levelo://app?vid=de3c62df-30bd-453f-beb1-667898b8adcf"},"vehicle_type_id":"4","last_reported":1698588338,"current_range_meters":23600,"station_id":"ce4bhr12rcd13ifvqhqg","pricing_plan_id":"free"},{"bike_id":"deb05987-5bcd-42a7-bd6f-81b335a9433e","system_id":"levelo_inurba_marseille","lat":43.32829,"lon":5.36686,"is_reserved":false,"is_disabled":false,"rental_uris":{"android":"levelo://app?vid=deb05987-5bcd-42a7-bd6f-81b335a9433e","ios":"levelo://app?vid=deb05987-5bcd-42a7-bd6f-81b335a9433e"},"vehicle_type_id":"4","last_reported":1698588338,"current_range_meters":2000,"station_id":"ce4bhs92rcd13ifvqi0g","pricing_plan_id":"free"},{"bike_id":"86bb0a20-8123-4e0e-84f3-756c4bdb05df","system_id":"levelo_inurba_marseille","lat":43.3283,"lon":5.3669,"is_reserved":false,"is_disabled":false,"rental_uris":{"android":"levelo://app?vid=86bb0a20-8123-4e0e-84f3-756c4bdb05df","ios":"levelo://app?vid=86bb0a20-8123-4e0e-84f3-756c4bdb05df"},"vehicle_type_id":"4","last_reported":1698588338,"current_range_meters":20400,"station_id":"ce4bhs92rcd13ifvqi0g","pricing_plan_id":"free"},{"bike_id":"2bf09692-7151-4aba-9fa7-8ce1d6106004","system_id":"levelo_inurba_marseille","lat":43.328303,"lon":5.366873,"is_reserved":false,"is_disabled":false,"rental_uris":{"android":"levelo://app?vid=2bf09692-7151-4aba-9fa7-8ce1d6106004","ios":"levelo://app?vid=2bf09692-7151-4aba-9fa7-8ce1d6106004"},"vehicle_type_id":"4","last_reported":1698588338,"current_range_meters":9200,"station_id":"","pricing_plan_id":"free"},{"bike_id":"d7197a87-95ba-4b24-ba88-10c6ae102454","system_id":"levelo_inurba_marseille","lat":43.328318,"lon":5.366878,"is_reserved":false,"is_disabled":false,"rental_uris":{"android":"levelo://app?vid=d7197a87-95ba-4b24-ba88-10c6ae102454","ios":"levelo://app?vid=d7197a87-95ba-4b24-ba88-10c6ae102454"},"vehicle_type_id":"4","last_reported":1698588338,"current_range_meters":0,"station_id":"ce4bhs92rcd13ifvqi0g","pricing_plan_id":"free"},{"bike_id":"9e186f55-d906-4b54-9553-eed70e222375","system_id":"levelo_inurba_marseille","lat":43.323159,"lon":5.382863,"is_reserved":false,"is_disabled":false,"rental_uris":{"android":"levelo://app?vid=9e186f55-d906-4b54-9553-eed70e222375","ios":"levelo://app?vid=9e186f55-d906-4b54-9553-eed70e222375"},"vehicle_type_id":"4","last_reported":1698588338,"current_range_meters":23200,"station_id":"ce4bhr12rcd13ifvqhqg","pricing_plan_id":"free"},{"bike_id":"0e8233d2-0d57-470f-8c07-e9f753046a4f","system_id":"levelo_inurba_marseille","lat":43.323172,"lon":5.382921,"is_reserved":false,"is_disabled":false,"rental_uris":{"android":"levelo://app?vid=0e8233d2-0d57-470f-8c07-e9f753046a4f","ios":"levelo://app?vid=0e8233d2-0d57-470f-8c07-e9f753046a4f"},"vehicle_type_id":"4","last_reported":1698588338,"current_range_meters":26800,"station_id":"ce4bhr12rcd13ifvqhqg","pricing_plan_id":"free"},{"bike_id":"094f0bdf-ccba-4f59-8c05-b116c1e359a8","system_id":"levelo_inurba_marseille","lat":43.297163,"lon":5.365866,"is_reserved":false,"is_disabled":false,"rental_uris":{"android":"levelo://app?vid=094f0bdf-ccba-4f59-8c05-b116c1e359a8","ios":"levelo://app?vid=094f0bdf-ccba-4f59-8c05-b116c1e359a8"},"vehicle_type_id":"4","last_reported":1698588338,"current_range_meters":22000,"station_id":"ce4bgn12rcd13ifvqbt0","pricing_plan_id":"free"},{"bike_id":"6a2a19d9-8942-4860-a963-5e646ed9dc8a","system_id":"levelo_inurba_marseille","lat":43.297163,"lon":5.365866,"is_reserved":false,"is_disabled":false,"rental_uris":{"android":"levelo://app?vid=6a2a19d9-8942-4860-a963-5e646ed9dc8a","ios":"levelo://app?vid=6a2a19d9-8942-4860-a963-5e646ed9dc8a"},"vehicle_type_id":"4","last_reported":1698588338,"current_range_meters":3200,"station_id":"ce4bgn12rcd13ifvqbt0","pricing_plan_id":"free"},{"bike_id":"5fb6f389-a656-46ff-9541-df714a6fb662","system_id":"levelo_inurba_marseille","lat":43.297163,"lon":5.365866,"is_reserved":false,"is_disabled":false,"rental_uris":{"android":"levelo://app?vid=5fb6f389-a656-46ff-9541-df714a6fb662","ios":"levelo://app?vid=5fb6f389-a656-46ff-9541-df714a6fb662"},"vehicle_type_id":"4","last_reported":1698588338,"current_range_meters":5200,"station_id":"ce4bgn12rcd13ifvqbt0","pricing_plan_id":"free"},{"bike_id":"54a45cdd-116f-46ed-bf0d-669c7e9f68ae","system_id":"levelo_inurba_marseille","lat":43.296131,"lon":5.370773,"is_reserved":false,"is_disabled":false,"rental_uris":{"android":"levelo://app?vid=54a45cdd-116f-46ed-bf0d-669c7e9f68ae","ios":"levelo://app?vid=54a45cdd-116f-46ed-bf0d-669c7e9f68ae"},"vehicle_type_id":"4","last_reported":1698588338,"current_range_meters":22800,"station_id":"ce4bgnh2rcd13ifvqc0g","pricing_plan_id":"free"},{"bike_id":"d23f3784-e68e-4e92-b534-9c5c66428c7a","system_id":"levelo_inurba_marseille","lat":43.29573,"lon":5.367355,"is_reserved":false,"is_disabled":false,"rental_uris":{"android":"levelo://app?vid=d23f3784-e68e-4e92-b534-9c5c66428c7a","ios":"levelo://app?vid=d23f3784-e68e-4e92-b534-9c5c66428c7a"},"vehicle_type_id":"4","last_reported":1698588338,"current_range_meters":30800,"station_id":"ce4bgph2rcd13ifvqc2g","pricing_plan_id":"free"},{"bike_id":"ac556d6b-c942-4e7d-b681-3977605a755d","system_id":"levelo_inurba_marseille","lat":43.296129,"lon":5.370777,"is_reserved":false,"is_disabled":false,"rental_uris":{"android":"levelo://app?vid=ac556d6b-c942-4e7d-b681-3977605a755d","ios":"levelo://app?vid=ac556d6b-c942-4e7d-b681-3977605a755d"},"vehicle_type_id":"4","last_reported":1698588338,"current_range_meters":0,"station_id":"ce4bgnh2rcd13ifvqc0g","pricing_plan_id":"free"},{"bike_id":"024a5047-7675-4c29-abb3-562ca2651346","system_id":"levelo_inurba_marseille","lat":43.296131,"lon":5.370791,"is_reserved":false,"is_disabled":false,"rental_uris":{"android":"levelo://app?vid=024a5047-7675-4c29-abb3-562ca2651346","ios":"levelo://app?vid=024a5047-7675-4c29-abb3-562ca2651346"},"vehicle_type_id":"4","last_reported":1698588338,"current_range_meters":29600,"station_id":"ce4bgnh2rcd13ifvqc0g","pricing_plan_id":"free"},{"bike_id":"bac8336b-2ba2-43e0-9992-e30ad29c55b4","system_id":"levelo_inurba_marseille","lat":43.296131,"lon":5.370791,"is_reserved":false,"is_disabled":false,"rental_uris":{"android":"levelo://app?vid=bac8336b-2ba2-43e0-9992-e30ad29c55b4","ios":"levelo://app?vid=bac8336b-2ba2-43e0-9992-e30ad29c55b4"},"vehicle_type_id":"4","last_reported":1698588338,"current_range_meters":3600,"station_id":"ce4bgnh2rcd13ifvqc0g","pricing_plan_id":"free"},{"bike_id":"5da5c749-5874-4f42-9916-b7c72b2e9d8c","system_id":"levelo_inurba_marseille","lat":43.29573,"lon":5.367355,"is_reserved":false,"is_disabled":false,"rental_uris":{"android":"levelo://app?vid=5da5c749-5874-4f42-9916-b7c72b2e9d8c","ios":"levelo://app?vid=5da5c749-5874-4f42-9916-b7c72b2e9d8c"},"vehicle_type_id":"4","last_reported":1698588338,"current_range_meters":26000,"station_id":"ce4bgph2rcd13ifvqc2g","pricing_plan_id":"free"},{"bike_id":"c0f0d5e9-e584-45b0-a6b7-e87b10daee49","system_id":"levelo_inurba_marseille","lat":43.29573,"lon":5.367355,"is_reserved":false,"is_disabled":false,"rental_uris":{"android":"levelo://app?vid=c0f0d5e9-e584-45b0-a6b7-e87b10daee49","ios":"levelo://app?vid=c0f0d5e9-e584-45b0-a6b7-e87b10daee49"},"vehicle_type_id":"4","last_reported":1698588338,"current_range_meters":28800,"station_id":"ce4bgph2rcd13ifvqc2g","pricing_plan_id":"free"},{"bike_id":"f3d0381f-7a2d-409e-a12f-bd3d9095653d","system_id":"levelo_inurba_marseille","lat":43.329673,"lon":5.365468,"is_reserved":false,"is_disabled":false,"rental_uris":{"android":"levelo://app?vid=f3d0381f-7a2d-409e-a12f-bd3d9095653d","ios":"levelo://app?vid=f3d0381f-7a2d-409e-a12f-bd3d9095653d"},"vehicle_type_id":"4","last_reported":1698588338,"current_range_meters":1200,"station_id":"","pricing_plan_id":"free"},{"bike_id":"21c7d586-a251-45c6-b4c4-9a49607eb34d","system_id":"levelo_inurba_marseille","lat":43.29573,"lon":5.367355,"is_reserved":false,"is_disabled":false,"rental_uris":{"android":"levelo://app?vid=21c7d586-a251-45c6-b4c4-9a49607eb34d","ios":"levelo://app?vid=21c7d586-a251-45c6-b4c4-9a49607eb34d"},"vehicle_type_id":"4","last_reported":1698588338,"current_range_meters":31200,"station_id":"ce4bgph2rcd13ifvqc2g","pricing_plan_id":"free"},{"bike_id":"c6950ff5-2425-4427-9cd1-9d11c00ca07f","system_id":"levelo_inurba_marseille","lat":43.296921,"lon":5.376579,"is_reserved":false,"is_disabled":false,"rental_uris":{"android":"levelo://app?vid=c6950ff5-2425-4427-9cd1-9d11c00ca07f","ios":"levelo://app?vid=c6950ff5-2425-4427-9cd1-9d11c00ca07f"},"vehicle_type_id":"4","last_reported":1698588338,"current_range_meters":23600,"station_id":"ce4bgkh2rcd13ifvqbl0","pricing_plan_id":"free"},{"bike_id":"3d6f1177-0232-4740-80ab-e357d95ae4a3","system_id":"levelo_inurba_marseille","lat":43.309589,"lon":5.390258,"is_reserved":false,"is_disabled":false,"rental_uris":{"android":"levelo://app?vid=3d6f1177-0232-4740-80ab-e357d95ae4a3","ios":"levelo://app?vid=3d6f1177-0232-4740-80ab-e357d95ae4a3"},"vehicle_type_id":"4","last_reported":1698588338,"current_range_meters":24000,"station_id":"ce4bgup2rcd13ifvqco0","pricing_plan_id":"free"},{"bike_id":"e11a0e1e-fd9f-4a60-b29f-e1d46eb5e8e2","system_id":"levelo_inurba_marseille","lat":43.2958,"lon":5.37522,"is_reserved":false,"is_disabled":false,"rental_uris":{"android":"levelo://app?vid=e11a0e1e-fd9f-4a60-b29f-e1d46eb5e8e2","ios":"levelo://app?vid=e11a0e1e-fd9f-4a60-b29f-e1d46eb5e8e2"},"vehicle_type_id":"4","last_reported":1698588338,"current_range_meters":28800,"station_id":"ce4bgh92rcd13ifvqb50","pricing_plan_id":"free"},{"bike_id":"7c4f9e56-d67b-4fb1-b05b-2af2149a9461","system_id":"levelo_inurba_marseille","lat":43.29794,"lon":5.38098,"is_reserved":false,"is_disabled":false,"rental_uris":{"android":"levelo://app?vid=7c4f9e56-d67b-4fb1-b05b-2af2149a9461","ios":"levelo://app?vid=7c4f9e56-d67b-4fb1-b05b-2af2149a9461"},"vehicle_type_id":"4","last_reported":1698588338,"current_range_meters":19200,"station_id":"ce4bgip2rcd13ifvqbb0","pricing_plan_id":"free"},{"bike_id":"1697ac1f-bd5d-4e6f-95df-92b6257f6852","system_id":"levelo_inurba_marseille","lat":43.29793,"lon":5.38112,"is_reserved":false,"is_disabled":false,"rental_uris":{"android":"levelo://app?vid=1697ac1f-bd5d-4e6f-95df-92b6257f6852","ios":"levelo://app?vid=1697ac1f-bd5d-4e6f-95df-92b6257f6852"},"vehicle_type_id":"4","last_reported":1698588338,"current_range_meters":31200,"station_id":"ce4bgip2rcd13ifvqbb0","pricing_plan_id":"free"},{"bike_id":"74cb1d4c-9bcd-4c1e-b702-a70550f7da36","system_id":"levelo_inurba_marseille","lat":43.304274,"lon":5.388873,"is_reserved":false,"is_disabled":false,"rental_uris":{"android":"levelo://app?vid=74cb1d4c-9bcd-4c1e-b702-a70550f7da36","ios":"levelo://app?vid=74cb1d4c-9bcd-4c1e-b702-a70550f7da36"},"vehicle_type_id":"4","last_reported":1698588338,"current_range_meters":25200,"station_id":"ce4bgk12rcd13ifvqbi0","pricing_plan_id":"free"},{"bike_id":"9957ade7-6819-4544-9d48-b05fea392ade","system_id":"levelo_inurba_marseille","lat":43.304278,"lon":5.388868,"is_reserved":false,"is_disabled":false,"rental_uris":{"android":"levelo://app?vid=9957ade7-6819-4544-9d48-b05fea392ade","ios":"levelo://app?vid=9957ade7-6819-4544-9d48-b05fea392ade"},"vehicle_type_id":"4","last_reported":1698588338,"current_range_meters":0,"station_id":"ce4bgk12rcd13ifvqbi0","pricing_plan_id":"free"},{"bike_id":"a90b494c-c273-4621-a540-2910d4329aef","system_id":"levelo_inurba_marseille","lat":43.296263,"lon":5.377094,"is_reserved":false,"is_disabled":false,"rental_uris":{"android":"levelo://app?vid=a90b494c-c273-4621-a540-2910d4329aef","ios":"levelo://app?vid=a90b494c-c273-4621-a540-2910d4329aef"},"vehicle_type_id":"4","last_reported":1698588338,"current_range_meters":14000,"station_id":"ce4bgi92rcd13ifvqb90","pricing_plan_id":"free"},{"bike_id":"9e7281ba-7bde-4d96-b7fc-2f9d4891b5a0","system_id":"levelo_inurba_marseille","lat":43.296263,"lon":5.377094,"is_reserved":false,"is_disabled":false,"rental_uris":{"android":"levelo://app?vid=9e7281ba-7bde-4d96-b7fc-2f9d4891b5a0","ios":"levelo://app?vid=9e7281ba-7bde-4d96-b7fc-2f9d4891b5a0"},"vehicle_type_id":"4","last_reported":1698588338,"current_range_meters":18400,"station_id":"ce4bgi92rcd13ifvqb90","pricing_plan_id":"free"},{"bike_id":"913d05c3-2a7f-4602-944f-9c029a885cb6","system_id":"levelo_inurba_marseille","lat":43.296263,"lon":5.377094,"is_reserved":false,"is_disabled":false,"rental_uris":{"android":"levelo://app?vid=913d05c3-2a7f-4602-944f-9c029a885cb6","ios":"levelo://app?vid=913d05c3-2a7f-4602-944f-9c029a885cb6"},"vehicle_type_id":"4","last_reported":1698588338,"current_range_meters":8800,"station_id":"ce4bgi92rcd13ifvqb90","pricing_plan_id":"free"},{"bike_id":"55ab1115-4029-412e-832b-33f250d15102","system_id":"levelo_inurba_marseille","lat":43.296263,"lon":5.377094,"is_reserved":false,"is_disabled":false,"rental_uris":{"android":"levelo://app?vid=55ab1115-4029-412e-832b-33f250d15102","ios":"levelo://app?vid=55ab1115-4029-412e-832b-33f250d15102"},"vehicle_type_id":"4","last_reported":1698588338,"current_range_meters":14400,"station_id":"ce4bgi92rcd13ifvqb90","pricing_plan_id":"free"},{"bike_id":"389f5cc1-8d9a-4ba2-992e-ac9ac0e9dcd7","system_id":"levelo_inurba_marseille","lat":43.296263,"lon":5.377094,"is_reserved":false,"is_disabled":false,"rental_uris":{"android":"levelo://app?vid=389f5cc1-8d9a-4ba2-992e-ac9ac0e9dcd7","ios":"levelo://app?vid=389f5cc1-8d9a-4ba2-992e-ac9ac0e9dcd7"},"vehicle_type_id":"4","last_reported":1698588338,"current_range_meters":12400,"station_id":"ce4bgi92rcd13ifvqb90","pricing_plan_id":"free"},{"bike_id":"946e3f5f-8b7f-4022-b3a6-2cf59396d6ce","system_id":"levelo_inurba_marseille","lat":43.29532,"lon":5.37496,"is_reserved":false,"is_disabled":false,"rental_uris":{"android":"levelo://app?vid=946e3f5f-8b7f-4022-b3a6-2cf59396d6ce","ios":"levelo://app?vid=946e3f5f-8b7f-4022-b3a6-2cf59396d6ce"},"vehicle_type_id":"4","last_reported":1698588338,"current_range_meters":12400,"station_id":"ce4bgkp2rcd13ifvqbmg","pricing_plan_id":"free"},{"bike_id":"7dcf66e9-7b83-46af-bcf8-1e051126962e","system_id":"levelo_inurba_marseille","lat":43.29514,"lon":5.37503,"is_reserved":false,"is_disabled":false,"rental_uris":{"android":"levelo://app?vid=7dcf66e9-7b83-46af-bcf8-1e051126962e","ios":"levelo://app?vid=7dcf66e9-7b83-46af-bcf8-1e051126962e"},"vehicle_type_id":"4","last_reported":1698588338,"current_range_meters":25200,"station_id":"ce4bgkp2rcd13ifvqbmg","pricing_plan_id":"free"},{"bike_id":"c6852441-3c84-4813-be08-1a235019ab17","system_id":"levelo_inurba_marseille","lat":43.295748,"lon":5.37522,"is_reserved":false,"is_disabled":false,"rental_uris":{"android":"levelo://app?vid=c6852441-3c84-4813-be08-1a235019ab17","ios":"levelo://app?vid=c6852441-3c84-4813-be08-1a235019ab17"},"vehicle_type_id":"4","last_reported":1698588338,"current_range_meters":14000,"station_id":"ce4bgh92rcd13ifvqb50","pricing_plan_id":"free"},{"bike_id":"f444eb71-d1d8-4cfb-b23b-54cdbd784d46","system_id":"levelo_inurba_marseille","lat":43.29413,"lon":5.35891,"is_reserved":false,"is_disabled":false,"rental_uris":{"android":"levelo://app?vid=f444eb71-d1d8-4cfb-b23b-54cdbd784d46","ios":"levelo://app?vid=f444eb71-d1d8-4cfb-b23b-54cdbd784d46"},"vehicle_type_id":"4","last_reported":1698588338,"current_range_meters":15600,"station_id":"","pricing_plan_id":"free"},{"bike_id":"11cb5472-2c78-4fe3-9ee3-638b80f173e4","system_id":"levelo_inurba_marseille","lat":43.29601,"lon":5.381084,"is_reserved":false,"is_disabled":false,"rental_uris":{"android":"levelo://app?vid=11cb5472-2c78-4fe3-9ee3-638b80f173e4","ios":"levelo://app?vid=11cb5472-2c78-4fe3-9ee3-638b80f173e4"},"vehicle_type_id":"4","last_reported":1698588338,"current_range_meters":10400,"station_id":"ce4bgl12rcd13ifvqbo0","pricing_plan_id":"free"},{"bike_id":"7b1ae06b-0422-40dc-8283-7985b6d1e469","system_id":"levelo_inurba_marseille","lat":43.29602,"lon":5.381084,"is_reserved":false,"is_disabled":false,"rental_uris":{"android":"levelo://app?vid=7b1ae06b-0422-40dc-8283-7985b6d1e469","ios":"levelo://app?vid=7b1ae06b-0422-40dc-8283-7985b6d1e469"},"vehicle_type_id":"4","last_reported":1698588338,"current_range_meters":1200,"station_id":"ce4bgl12rcd13ifvqbo0","pricing_plan_id":"free"},{"bike_id":"7b0e76ce-566c-4fa9-8527-f1c9d6f92ec7","system_id":"levelo_inurba_marseille","lat":43.292813,"lon":5.368445,"is_reserved":false,"is_disabled":false,"rental_uris":{"android":"levelo://app?vid=7b0e76ce-566c-4fa9-8527-f1c9d6f92ec7","ios":"levelo://app?vid=7b0e76ce-566c-4fa9-8527-f1c9d6f92ec7"},"vehicle_type_id":"4","last_reported":1698588338,"current_range_meters":13600,"station_id":"ce4bhbp2rcd13ifvqesg","pricing_plan_id":"free"},{"bike_id":"68a2b8e1-ae63-482f-a5a6-807dd96226bb","system_id":"levelo_inurba_marseille","lat":43.292808,"lon":5.368322,"is_reserved":false,"is_disabled":false,"rental_uris":{"android":"levelo://app?vid=68a2b8e1-ae63-482f-a5a6-807dd96226bb","ios":"levelo://app?vid=68a2b8e1-ae63-482f-a5a6-807dd96226bb"},"vehicle_type_id":"4","last_reported":1698588338,"current_range_meters":4800,"station_id":"ce4bhbp2rcd13ifvqesg","pricing_plan_id":"free"},{"bike_id":"84bfa6da-335e-403d-8b9e-7da9edfd32d0","system_id":"levelo_inurba_marseille","lat":43.29281,"lon":5.36845,"is_reserved":false,"is_disabled":false,"rental_uris":{"android":"levelo://app?vid=84bfa6da-335e-403d-8b9e-7da9edfd32d0","ios":"levelo://app?vid=84bfa6da-335e-403d-8b9e-7da9edfd32d0"},"vehicle_type_id":"4","last_reported":1698588338,"current_range_meters":28800,"station_id":"ce4bhbp2rcd13ifvqesg","pricing_plan_id":"free"},{"bike_id":"06d34172-77dc-4cbe-a8dc-64f2d4c69035","system_id":"levelo_inurba_marseille","lat":43.29278,"lon":5.36845,"is_reserved":false,"is_disabled":false,"rental_uris":{"android":"levelo://app?vid=06d34172-77dc-4cbe-a8dc-64f2d4c69035","ios":"levelo://app?vid=06d34172-77dc-4cbe-a8dc-64f2d4c69035"},"vehicle_type_id":"4","last_reported":1698588338,"current_range_meters":14000,"station_id":"ce4bhbp2rcd13ifvqesg","pricing_plan_id":"free"},{"bike_id":"61dff958-723d-49bd-b5a4-e5a4db0fc02e","system_id":"levelo_inurba_marseille","lat":43.293259,"lon":5.371586,"is_reserved":false,"is_disabled":false,"rental_uris":{"android":"levelo://app?vid=61dff958-723d-49bd-b5a4-e5a4db0fc02e","ios":"levelo://app?vid=61dff958-723d-49bd-b5a4-e5a4db0fc02e"},"vehicle_type_id":"4","last_reported":1698588338,"current_range_meters":23200,"station_id":"ce4bgh92rcd13ifvqb40","pricing_plan_id":"free"},{"bike_id":"8d8f99db-8900-43f1-b950-b2b4ca60d999","system_id":"levelo_inurba_marseille","lat":43.292758,"lon":5.368458,"is_reserved":false,"is_disabled":false,"rental_uris":{"android":"levelo://app?vid=8d8f99db-8900-43f1-b950-b2b4ca60d999","ios":"levelo://app?vid=8d8f99db-8900-43f1-b950-b2b4ca60d999"},"vehicle_type_id":"4","last_reported":1698588338,"current_range_meters":16800,"station_id":"ce4bhbp2rcd13ifvqesg","pricing_plan_id":"free"},{"bike_id":"835daa3e-09fa-4f29-88f6-bd85f6655bcd","system_id":"levelo_inurba_marseille","lat":43.29275,"lon":5.3684,"is_reserved":false,"is_disabled":false,"rental_uris":{"android":"levelo://app?vid=835daa3e-09fa-4f29-88f6-bd85f6655bcd","ios":"levelo://app?vid=835daa3e-09fa-4f29-88f6-bd85f6655bcd"},"vehicle_type_id":"4","last_reported":1698588338,"current_range_meters":26000,"station_id":"ce4bhbp2rcd13ifvqesg","pricing_plan_id":"free"},{"bike_id":"a347a0f5-703e-40af-9ba7-ec87a8080be3","system_id":"levelo_inurba_marseille","lat":43.29275,"lon":5.36844,"is_reserved":false,"is_disabled":false,"rental_uris":{"android":"levelo://app?vid=a347a0f5-703e-40af-9ba7-ec87a8080be3","ios":"levelo://app?vid=a347a0f5-703e-40af-9ba7-ec87a8080be3"},"vehicle_type_id":"4","last_reported":1698588338,"current_range_meters":31200,"station_id":"ce4bhbp2rcd13ifvqesg","pricing_plan_id":"free"},{"bike_id":"bf812456-6183-4bcc-a5aa-cb6f7c7878bb","system_id":"levelo_inurba_marseille","lat":43.29275,"lon":5.36847,"is_reserved":false,"is_disabled":false,"rental_uris":{"android":"levelo://app?vid=bf812456-6183-4bcc-a5aa-cb6f7c7878bb","ios":"levelo://app?vid=bf812456-6183-4bcc-a5aa-cb6f7c7878bb"},"vehicle_type_id":"4","last_reported":1698588338,"current_range_meters":25600,"station_id":"ce4bhbp2rcd13ifvqesg","pricing_plan_id":"free"},{"bike_id":"4c679ebc-02f1-405a-a61f-da1d88e85a51","system_id":"levelo_inurba_marseille","lat":43.29274,"lon":5.36845,"is_reserved":false,"is_disabled":false,"rental_uris":{"android":"levelo://app?vid=4c679ebc-02f1-405a-a61f-da1d88e85a51","ios":"levelo://app?vid=4c679ebc-02f1-405a-a61f-da1d88e85a51"},"vehicle_type_id":"4","last_reported":1698588338,"current_range_meters":27600,"station_id":"ce4bhbp2rcd13ifvqesg","pricing_plan_id":"free"},{"bike_id":"a7db09b2-5c1d-4c68-a183-b9ca0ed69e67","system_id":"levelo_inurba_marseille","lat":43.29302,"lon":5.37176,"is_reserved":false,"is_disabled":false,"rental_uris":{"android":"levelo://app?vid=a7db09b2-5c1d-4c68-a183-b9ca0ed69e67","ios":"levelo://app?vid=a7db09b2-5c1d-4c68-a183-b9ca0ed69e67"},"vehicle_type_id":"4","last_reported":1698588338,"current_range_meters":14800,"station_id":"ce4bgh92rcd13ifvqb40","pricing_plan_id":"free"},{"bike_id":"13541381-a278-43e0-8612-8f2f0ca7951f","system_id":"levelo_inurba_marseille","lat":43.293022,"lon":5.374501,"is_reserved":false,"is_disabled":false,"rental_uris":{"android":"levelo://app?vid=13541381-a278-43e0-8612-8f2f0ca7951f","ios":"levelo://app?vid=13541381-a278-43e0-8612-8f2f0ca7951f"},"vehicle_type_id":"4","last_reported":1698588338,"current_range_meters":0,"station_id":"ce4bgi12rcd13ifvqb70","pricing_plan_id":"free"},{"bike_id":"bce82eb9-5143-4582-a34b-5d6ad2068d73","system_id":"levelo_inurba_marseille","lat":43.305994,"lon":5.393687,"is_reserved":false,"is_disabled":false,"rental_uris":{"android":"levelo://app?vid=bce82eb9-5143-4582-a34b-5d6ad2068d73","ios":"levelo://app?vid=bce82eb9-5143-4582-a34b-5d6ad2068d73"},"vehicle_type_id":"4","last_reported":1698588338,"current_range_meters":17600,"station_id":"ce4bh0p2rcd13ifvqd80","pricing_plan_id":"free"},{"bike_id":"c73707c8-8f00-4cce-87b2-0dcdcef85e8a","system_id":"levelo_inurba_marseille","lat":43.305994,"lon":5.393687,"is_reserved":false,"is_disabled":false,"rental_uris":{"android":"levelo://app?vid=c73707c8-8f00-4cce-87b2-0dcdcef85e8a","ios":"levelo://app?vid=c73707c8-8f00-4cce-87b2-0dcdcef85e8a"},"vehicle_type_id":"4","last_reported":1698588338,"current_range_meters":7200,"station_id":"ce4bh0p2rcd13ifvqd80","pricing_plan_id":"free"},{"bike_id":"20610160-4b3c-426f-8c9e-1eae321ef3e0","system_id":"levelo_inurba_marseille","lat":43.29229,"lon":5.36241,"is_reserved":false,"is_disabled":false,"rental_uris":{"android":"levelo://app?vid=20610160-4b3c-426f-8c9e-1eae321ef3e0","ios":"levelo://app?vid=20610160-4b3c-426f-8c9e-1eae321ef3e0"},"vehicle_type_id":"4","last_reported":1698588338,"current_range_meters":2000,"station_id":"","pricing_plan_id":"free"},{"bike_id":"0da60092-819b-45cb-a1d2-83e884792b7a","system_id":"levelo_inurba_marseille","lat":43.292311,"lon":5.360731,"is_reserved":false,"is_disabled":false,"rental_uris":{"android":"levelo://app?vid=0da60092-819b-45cb-a1d2-83e884792b7a","ios":"levelo://app?vid=0da60092-819b-45cb-a1d2-83e884792b7a"},"vehicle_type_id":"4","last_reported":1698588338,"current_range_meters":16000,"station_id":"ce4bhbh2rcd13ifvqeqg","pricing_plan_id":"free"},{"bike_id":"f1ac2fb5-71b4-40ac-9cd8-853bab9d064c","system_id":"levelo_inurba_marseille","lat":43.292663,"lon":5.376389,"is_reserved":false,"is_disabled":false,"rental_uris":{"android":"levelo://app?vid=f1ac2fb5-71b4-40ac-9cd8-853bab9d064c","ios":"levelo://app?vid=f1ac2fb5-71b4-40ac-9cd8-853bab9d064c"},"vehicle_type_id":"4","last_reported":1698588338,"current_range_meters":25200,"station_id":"ce4bgi12rcd13ifvqb80","pricing_plan_id":"free"},{"bike_id":"852c1bc4-d507-4b75-a1c9-448b5bd603b9","system_id":"levelo_inurba_marseille","lat":43.292663,"lon":5.376389,"is_reserved":false,"is_disabled":false,"rental_uris":{"android":"levelo://app?vid=852c1bc4-d507-4b75-a1c9-448b5bd603b9","ios":"levelo://app?vid=852c1bc4-d507-4b75-a1c9-448b5bd603b9"},"vehicle_type_id":"4","last_reported":1698588338,"current_range_meters":30800,"station_id":"ce4bgi12rcd13ifvqb80","pricing_plan_id":"free"},{"bike_id":"67347ad4-6d6c-4f3b-befa-99a111206cb1","system_id":"levelo_inurba_marseille","lat":43.298711,"lon":5.389101,"is_reserved":false,"is_disabled":false,"rental_uris":{"android":"levelo://app?vid=67347ad4-6d6c-4f3b-befa-99a111206cb1","ios":"levelo://app?vid=67347ad4-6d6c-4f3b-befa-99a111206cb1"},"vehicle_type_id":"4","last_reported":1698588338,"current_range_meters":27200,"station_id":"ce4bh392rcd13ifvqdl0","pricing_plan_id":"free"},{"bike_id":"de9bbc20-18f8-4e3f-9b03-b82a29a39131","system_id":"levelo_inurba_marseille","lat":43.29199,"lon":5.35791,"is_reserved":false,"is_disabled":false,"rental_uris":{"android":"levelo://app?vid=de9bbc20-18f8-4e3f-9b03-b82a29a39131","ios":"levelo://app?vid=de9bbc20-18f8-4e3f-9b03-b82a29a39131"},"vehicle_type_id":"4","last_reported":1698588338,"current_range_meters":25200,"station_id":"ce4bhb12rcd13ifvqel0","pricing_plan_id":"free"},{"bike_id":"ff6f09f3-fe12-4e06-85df-c37623c4a944","system_id":"levelo_inurba_marseille","lat":43.29192,"lon":5.35801,"is_reserved":false,"is_disabled":false,"rental_uris":{"android":"levelo://app?vid=ff6f09f3-fe12-4e06-85df-c37623c4a944","ios":"levelo://app?vid=ff6f09f3-fe12-4e06-85df-c37623c4a944"},"vehicle_type_id":"4","last_reported":1698588338,"current_range_meters":25200,"station_id":"ce4bhb12rcd13ifvqel0","pricing_plan_id":"free"},{"bike_id":"6381bb1a-6a8c-4106-8b85-0a656d37dd53","system_id":"levelo_inurba_marseille","lat":43.313291,"lon":5.396838,"is_reserved":false,"is_disabled":false,"rental_uris":{"android":"levelo://app?vid=6381bb1a-6a8c-4106-8b85-0a656d37dd53","ios":"levelo://app?vid=6381bb1a-6a8c-4106-8b85-0a656d37dd53"},"vehicle_type_id":"4","last_reported":1698588338,"current_range_meters":27200,"station_id":"ce4bgvp2rcd13ifvqcu0","pricing_plan_id":"free"},{"bike_id":"cd3faad1-3eea-45ef-8e0a-ecf8541d1a0a","system_id":"levelo_inurba_marseille","lat":43.291917,"lon":5.357979,"is_reserved":false,"is_disabled":false,"rental_uris":{"android":"levelo://app?vid=cd3faad1-3eea-45ef-8e0a-ecf8541d1a0a","ios":"levelo://app?vid=cd3faad1-3eea-45ef-8e0a-ecf8541d1a0a"},"vehicle_type_id":"4","last_reported":1698588338,"current_range_meters":30800,"station_id":"ce4bhb12rcd13ifvqel0","pricing_plan_id":"free"},{"bike_id":"eb01d4e7-ea6b-457b-a371-4b7c8a557b04","system_id":"levelo_inurba_marseille","lat":43.291896,"lon":5.358051,"is_reserved":false,"is_disabled":false,"rental_uris":{"android":"levelo://app?vid=eb01d4e7-ea6b-457b-a371-4b7c8a557b04","ios":"levelo://app?vid=eb01d4e7-ea6b-457b-a371-4b7c8a557b04"},"vehicle_type_id":"4","last_reported":1698588338,"current_range_meters":12800,"station_id":"","pricing_plan_id":"free"},{"bike_id":"f5326885-d81c-4ea9-b206-c12d4bcf544f","system_id":"levelo_inurba_marseille","lat":43.290631,"lon":5.359244,"is_reserved":false,"is_disabled":false,"rental_uris":{"android":"levelo://app?vid=f5326885-d81c-4ea9-b206-c12d4bcf544f","ios":"levelo://app?vid=f5326885-d81c-4ea9-b206-c12d4bcf544f"},"vehicle_type_id":"4","last_reported":1698588338,"current_range_meters":18000,"station_id":"ce4bha92rcd13ifvqeg0","pricing_plan_id":"free"},{"bike_id":"1bd013cb-7d17-45a5-a9c5-481768a44e5d","system_id":"levelo_inurba_marseille","lat":43.290631,"lon":5.359244,"is_reserved":false,"is_disabled":false,"rental_uris":{"android":"levelo://app?vid=1bd013cb-7d17-45a5-a9c5-481768a44e5d","ios":"levelo://app?vid=1bd013cb-7d17-45a5-a9c5-481768a44e5d"},"vehicle_type_id":"4","last_reported":1698588338,"current_range_meters":26800,"station_id":"ce4bha92rcd13ifvqeg0","pricing_plan_id":"free"},{"bike_id":"27b72424-4452-430b-8332-465ad6cac8b5","system_id":"levelo_inurba_marseille","lat":43.290631,"lon":5.359244,"is_reserved":false,"is_disabled":false,"rental_uris":{"android":"levelo://app?vid=27b72424-4452-430b-8332-465ad6cac8b5","ios":"levelo://app?vid=27b72424-4452-430b-8332-465ad6cac8b5"},"vehicle_type_id":"4","last_reported":1698588338,"current_range_meters":27600,"station_id":"ce4bha92rcd13ifvqeg0","pricing_plan_id":"free"},{"bike_id":"78657ec6-3d7d-46b2-aa8d-da064d520dda","system_id":"levelo_inurba_marseille","lat":43.29412,"lon":5.3863,"is_reserved":false,"is_disabled":false,"rental_uris":{"android":"levelo://app?vid=78657ec6-3d7d-46b2-aa8d-da064d520dda","ios":"levelo://app?vid=78657ec6-3d7d-46b2-aa8d-da064d520dda"},"vehicle_type_id":"4","last_reported":1698588338,"current_range_meters":0,"station_id":"ce4bh2h2rcd13ifvqdh0","pricing_plan_id":"free"},{"bike_id":"748a04e2-a13d-4e86-85b6-f8c628662226","system_id":"levelo_inurba_marseille","lat":43.289356,"lon":5.363807,"is_reserved":false,"is_disabled":false,"rental_uris":{"android":"levelo://app?vid=748a04e2-a13d-4e86-85b6-f8c628662226","ios":"levelo://app?vid=748a04e2-a13d-4e86-85b6-f8c628662226"},"vehicle_type_id":"4","last_reported":1698588338,"current_range_meters":0,"station_id":"ce4bhb92rcd13ifvqen0","pricing_plan_id":"free"},{"bike_id":"8c3f8d1d-6dab-49a3-a019-28aed2fd9437","system_id":"levelo_inurba_marseille","lat":43.292642,"lon":5.384254,"is_reserved":false,"is_disabled":false,"rental_uris":{"android":"levelo://app?vid=8c3f8d1d-6dab-49a3-a019-28aed2fd9437","ios":"levelo://app?vid=8c3f8d1d-6dab-49a3-a019-28aed2fd9437"},"vehicle_type_id":"4","last_reported":1698588338,"current_range_meters":29200,"station_id":"ce4bh692rcd13ifvqea0","pricing_plan_id":"free"},{"bike_id":"9ec36c4f-10bd-4ea0-989a-ea28d576b0bf","system_id":"levelo_inurba_marseille","lat":43.292644,"lon":5.384257,"is_reserved":false,"is_disabled":false,"rental_uris":{"android":"levelo://app?vid=9ec36c4f-10bd-4ea0-989a-ea28d576b0bf","ios":"levelo://app?vid=9ec36c4f-10bd-4ea0-989a-ea28d576b0bf"},"vehicle_type_id":"4","last_reported":1698588338,"current_range_meters":22000,"station_id":"ce4bh692rcd13ifvqea0","pricing_plan_id":"free"},{"bike_id":"03acd9bb-1095-4d84-9b33-69f44d6054ed","system_id":"levelo_inurba_marseille","lat":43.292642,"lon":5.384254,"is_reserved":false,"is_disabled":false,"rental_uris":{"android":"levelo://app?vid=03acd9bb-1095-4d84-9b33-69f44d6054ed","ios":"levelo://app?vid=03acd9bb-1095-4d84-9b33-69f44d6054ed"},"vehicle_type_id":"4","last_reported":1698588338,"current_range_meters":21600,"station_id":"ce4bh692rcd13ifvqea0","pricing_plan_id":"free"},{"bike_id":"3ba8fa1c-5d50-4016-a9f8-0f37a296e900","system_id":"levelo_inurba_marseille","lat":43.33611,"lon":5.37443,"is_reserved":false,"is_disabled":false,"rental_uris":{"android":"levelo://app?vid=3ba8fa1c-5d50-4016-a9f8-0f37a296e900","ios":"levelo://app?vid=3ba8fa1c-5d50-4016-a9f8-0f37a296e900"},"vehicle_type_id":"4","last_reported":1698588338,"current_range_meters":30000,"station_id":"","pricing_plan_id":"free"},{"bike_id":"f7b52180-fed9-4b75-9aab-68dbeacef3f6","system_id":"levelo_inurba_marseille","lat":43.290104,"lon":5.356111,"is_reserved":false,"is_disabled":false,"rental_uris":{"android":"levelo://app?vid=f7b52180-fed9-4b75-9aab-68dbeacef3f6","ios":"levelo://app?vid=f7b52180-fed9-4b75-9aab-68dbeacef3f6"},"vehicle_type_id":"4","last_reported":1698588338,"current_range_meters":1200,"station_id":"ce4bhb92rcd13ifvqen0","pricing_plan_id":"free"},{"bike_id":"74326218-7718-4f68-ae49-290743204592","system_id":"levelo_inurba_marseille","lat":43.290103,"lon":5.356114,"is_reserved":false,"is_disabled":false,"rental_uris":{"android":"levelo://app?vid=74326218-7718-4f68-ae49-290743204592","ios":"levelo://app?vid=74326218-7718-4f68-ae49-290743204592"},"vehicle_type_id":"4","last_reported":1698588338,"current_range_meters":24400,"station_id":"ce4bhb92rcd13ifvqen0","pricing_plan_id":"free"},{"bike_id":"e0d713cd-ec81-44ec-8ba4-571dd76a2b05","system_id":"levelo_inurba_marseille","lat":43.295169,"lon":5.390426,"is_reserved":false,"is_disabled":false,"rental_uris":{"android":"levelo://app?vid=e0d713cd-ec81-44ec-8ba4-571dd76a2b05","ios":"levelo://app?vid=e0d713cd-ec81-44ec-8ba4-571dd76a2b05"},"vehicle_type_id":"4","last_reported":1698588338,"current_range_meters":24400,"station_id":"ce4bh3p2rcd13ifvqdp0","pricing_plan_id":"free"},{"bike_id":"af286a6d-d49b-4114-a047-9052cd19f331","system_id":"levelo_inurba_marseille","lat":43.297936,"lon":5.393531,"is_reserved":false,"is_disabled":false,"rental_uris":{"android":"levelo://app?vid=af286a6d-d49b-4114-a047-9052cd19f331","ios":"levelo://app?vid=af286a6d-d49b-4114-a047-9052cd19f331"},"vehicle_type_id":"4","last_reported":1698588338,"current_range_meters":0,"station_id":"chh1huq6cuj3fo74tm60","pricing_plan_id":"free"},{"bike_id":"7eee132d-c16f-40b1-a30e-ed37e62e7857","system_id":"levelo_inurba_marseille","lat":43.2901,"lon":5.381269,"is_reserved":false,"is_disabled":false,"rental_uris":{"android":"levelo://app?vid=7eee132d-c16f-40b1-a30e-ed37e62e7857","ios":"levelo://app?vid=7eee132d-c16f-40b1-a30e-ed37e62e7857"},"vehicle_type_id":"4","last_reported":1698588338,"current_range_meters":14000,"station_id":"ce4bh4p2rcd13ifvqe1g","pricing_plan_id":"free"},{"bike_id":"8ccde129-faed-4ec2-bc84-c098af0cd8be","system_id":"levelo_inurba_marseille","lat":43.28856,"lon":5.358371,"is_reserved":false,"is_disabled":false,"rental_uris":{"android":"levelo://app?vid=8ccde129-faed-4ec2-bc84-c098af0cd8be","ios":"levelo://app?vid=8ccde129-faed-4ec2-bc84-c098af0cd8be"},"vehicle_type_id":"4","last_reported":1698588338,"current_range_meters":12000,"station_id":"ce4bhb12rcd13ifvqem0","pricing_plan_id":"free"},{"bike_id":"4063bd88-bb05-47bf-832f-90d6d968cfbe","system_id":"levelo_inurba_marseille","lat":43.28843,"lon":5.358407,"is_reserved":false,"is_disabled":false,"rental_uris":{"android":"levelo://app?vid=4063bd88-bb05-47bf-832f-90d6d968cfbe","ios":"levelo://app?vid=4063bd88-bb05-47bf-832f-90d6d968cfbe"},"vehicle_type_id":"4","last_reported":1698588338,"current_range_meters":0,"station_id":"ce4bhb12rcd13ifvqem0","pricing_plan_id":"free"},{"bike_id":"ffc3fe4d-9429-4086-94ef-8f19136b3b3f","system_id":"levelo_inurba_marseille","lat":43.33744,"lon":5.37447,"is_reserved":false,"is_disabled":false,"rental_uris":{"android":"levelo://app?vid=ffc3fe4d-9429-4086-94ef-8f19136b3b3f","ios":"levelo://app?vid=ffc3fe4d-9429-4086-94ef-8f19136b3b3f"},"vehicle_type_id":"4","last_reported":1698588338,"current_range_meters":30400,"station_id":"","pricing_plan_id":"free"},{"bike_id":"cea80227-f531-4975-8ee7-b08414d0de0d","system_id":"levelo_inurba_marseille","lat":43.306412,"lon":5.401035,"is_reserved":false,"is_disabled":false,"rental_uris":{"android":"levelo://app?vid=cea80227-f531-4975-8ee7-b08414d0de0d","ios":"levelo://app?vid=cea80227-f531-4975-8ee7-b08414d0de0d"},"vehicle_type_id":"4","last_reported":1698588338,"current_range_meters":9600,"station_id":"ce4bh112rcd13ifvqda0","pricing_plan_id":"free"},{"bike_id":"b231822a-119b-4312-911c-e2fb07219e92","system_id":"levelo_inurba_marseille","lat":43.337564,"lon":5.374701,"is_reserved":false,"is_disabled":false,"rental_uris":{"android":"levelo://app?vid=b231822a-119b-4312-911c-e2fb07219e92","ios":"levelo://app?vid=b231822a-119b-4312-911c-e2fb07219e92"},"vehicle_type_id":"4","last_reported":1698588338,"current_range_meters":28400,"station_id":"","pricing_plan_id":"free"},{"bike_id":"ea6c4e17-4ac4-48df-8d47-4b4ec147b928","system_id":"levelo_inurba_marseille","lat":43.33761,"lon":5.37447,"is_reserved":false,"is_disabled":false,"rental_uris":{"android":"levelo://app?vid=ea6c4e17-4ac4-48df-8d47-4b4ec147b928","ios":"levelo://app?vid=ea6c4e17-4ac4-48df-8d47-4b4ec147b928"},"vehicle_type_id":"4","last_reported":1698588338,"current_range_meters":31200,"station_id":"","pricing_plan_id":"free"},{"bike_id":"32380048-e302-4a4f-9b54-c4ededcaef77","system_id":"levelo_inurba_marseille","lat":43.33769,"lon":5.37436,"is_reserved":false,"is_disabled":false,"rental_uris":{"android":"levelo://app?vid=32380048-e302-4a4f-9b54-c4ededcaef77","ios":"levelo://app?vid=32380048-e302-4a4f-9b54-c4ededcaef77"},"vehicle_type_id":"4","last_reported":1698588338,"current_range_meters":30800,"station_id":"","pricing_plan_id":"free"},{"bike_id":"4477084d-efeb-4b5b-b8b9-9711d64db7b3","system_id":"levelo_inurba_marseille","lat":43.33774,"lon":5.37444,"is_reserved":false,"is_disabled":false,"rental_uris":{"android":"levelo://app?vid=4477084d-efeb-4b5b-b8b9-9711d64db7b3","ios":"levelo://app?vid=4477084d-efeb-4b5b-b8b9-9711d64db7b3"},"vehicle_type_id":"4","last_reported":1698588338,"current_range_meters":27600,"station_id":"","pricing_plan_id":"free"},{"bike_id":"2097ad9d-d237-4bb6-95c0-16fbefda5172","system_id":"levelo_inurba_marseille","lat":43.306412,"lon":5.401035,"is_reserved":false,"is_disabled":false,"rental_uris":{"android":"levelo://app?vid=2097ad9d-d237-4bb6-95c0-16fbefda5172","ios":"levelo://app?vid=2097ad9d-d237-4bb6-95c0-16fbefda5172"},"vehicle_type_id":"4","last_reported":1698588338,"current_range_meters":18400,"station_id":"ce4bh112rcd13ifvqda0","pricing_plan_id":"free"},{"bike_id":"ffa3171c-f29f-4b91-a1bd-61a39da4b471","system_id":"levelo_inurba_marseille","lat":43.33775,"lon":5.37441,"is_reserved":false,"is_disabled":false,"rental_uris":{"android":"levelo://app?vid=ffa3171c-f29f-4b91-a1bd-61a39da4b471","ios":"levelo://app?vid=ffa3171c-f29f-4b91-a1bd-61a39da4b471"},"vehicle_type_id":"4","last_reported":1698588338,"current_range_meters":28000,"station_id":"","pricing_plan_id":"free"},{"bike_id":"90882c14-c2fd-428d-a6c7-9a75f92bec97","system_id":"levelo_inurba_marseille","lat":43.28727,"lon":5.36078,"is_reserved":false,"is_disabled":false,"rental_uris":{"android":"levelo://app?vid=90882c14-c2fd-428d-a6c7-9a75f92bec97","ios":"levelo://app?vid=90882c14-c2fd-428d-a6c7-9a75f92bec97"},"vehicle_type_id":"4","last_reported":1698588338,"current_range_meters":16400,"station_id":"cki0cbj6b192h4jlfktg","pricing_plan_id":"free"},{"bike_id":"fe8f8858-9ec9-4184-b03b-959b5188e245","system_id":"levelo_inurba_marseille","lat":43.286593,"lon":5.363346,"is_reserved":false,"is_disabled":false,"rental_uris":{"android":"levelo://app?vid=fe8f8858-9ec9-4184-b03b-959b5188e245","ios":"levelo://app?vid=fe8f8858-9ec9-4184-b03b-959b5188e245"},"vehicle_type_id":"4","last_reported":1698588338,"current_range_meters":26000,"station_id":"ce4bhah2rcd13ifvqej0","pricing_plan_id":"free"},{"bike_id":"d6727cca-b931-46e2-b50d-3827928b41af","system_id":"levelo_inurba_marseille","lat":43.29034,"lon":5.3864,"is_reserved":false,"is_disabled":false,"rental_uris":{"android":"levelo://app?vid=d6727cca-b931-46e2-b50d-3827928b41af","ios":"levelo://app?vid=d6727cca-b931-46e2-b50d-3827928b41af"},"vehicle_type_id":"4","last_reported":1698588338,"current_range_meters":23200,"station_id":"ce4bh4p2rcd13ifvqe0g","pricing_plan_id":"free"},{"bike_id":"1b3c1128-6263-4526-b8db-7d5b1ddc2fa5","system_id":"levelo_inurba_marseille","lat":43.29032,"lon":5.38644,"is_reserved":false,"is_disabled":false,"rental_uris":{"android":"levelo://app?vid=1b3c1128-6263-4526-b8db-7d5b1ddc2fa5","ios":"levelo://app?vid=1b3c1128-6263-4526-b8db-7d5b1ddc2fa5"},"vehicle_type_id":"4","last_reported":1698588338,"current_range_meters":5600,"station_id":"ce4bh4p2rcd13ifvqe0g","pricing_plan_id":"free"},{"bike_id":"bcdd8f9d-4cb0-4788-818e-ae036283b112","system_id":"levelo_inurba_marseille","lat":43.29029,"lon":5.386417,"is_reserved":false,"is_disabled":false,"rental_uris":{"android":"levelo://app?vid=bcdd8f9d-4cb0-4788-818e-ae036283b112","ios":"levelo://app?vid=bcdd8f9d-4cb0-4788-818e-ae036283b112"},"vehicle_type_id":"4","last_reported":1698588338,"current_range_meters":17600,"station_id":"ce4bh4p2rcd13ifvqe0g","pricing_plan_id":"free"},{"bike_id":"6488b21b-8008-4ab5-aa7c-acea0649f11f","system_id":"levelo_inurba_marseille","lat":43.289307,"lon":5.38406,"is_reserved":false,"is_disabled":false,"rental_uris":{"android":"levelo://app?vid=6488b21b-8008-4ab5-aa7c-acea0649f11f","ios":"levelo://app?vid=6488b21b-8008-4ab5-aa7c-acea0649f11f"},"vehicle_type_id":"4","last_reported":1698588338,"current_range_meters":31200,"station_id":"ce4bh612rcd13ifvqe6g","pricing_plan_id":"free"},{"bike_id":"84171853-3d9f-4b38-9a7b-0da3cdad53ff","system_id":"levelo_inurba_marseille","lat":43.29031,"lon":5.38649,"is_reserved":false,"is_disabled":false,"rental_uris":{"android":"levelo://app?vid=84171853-3d9f-4b38-9a7b-0da3cdad53ff","ios":"levelo://app?vid=84171853-3d9f-4b38-9a7b-0da3cdad53ff"},"vehicle_type_id":"4","last_reported":1698588338,"current_range_meters":28400,"station_id":"ce4bh4p2rcd13ifvqe0g","pricing_plan_id":"free"},{"bike_id":"2195f49e-4704-4f8f-ae9e-a8fdb45b0ac9","system_id":"levelo_inurba_marseille","lat":43.29029,"lon":5.38645,"is_reserved":false,"is_disabled":false,"rental_uris":{"android":"levelo://app?vid=2195f49e-4704-4f8f-ae9e-a8fdb45b0ac9","ios":"levelo://app?vid=2195f49e-4704-4f8f-ae9e-a8fdb45b0ac9"},"vehicle_type_id":"4","last_reported":1698588338,"current_range_meters":20000,"station_id":"ce4bh4p2rcd13ifvqe0g","pricing_plan_id":"free"},{"bike_id":"faef47ac-f379-456e-955d-1bff7b87b84b","system_id":"levelo_inurba_marseille","lat":43.286127,"lon":5.370727,"is_reserved":false,"is_disabled":false,"rental_uris":{"android":"levelo://app?vid=faef47ac-f379-456e-955d-1bff7b87b84b","ios":"levelo://app?vid=faef47ac-f379-456e-955d-1bff7b87b84b"},"vehicle_type_id":"4","last_reported":1698588338,"current_range_meters":29600,"station_id":"ce4bht12rcd13ifvqi60","pricing_plan_id":"free"},{"bike_id":"6ee514ad-bd64-401d-a3e0-7667740d0033","system_id":"levelo_inurba_marseille","lat":43.28612,"lon":5.37066,"is_reserved":false,"is_disabled":false,"rental_uris":{"android":"levelo://app?vid=6ee514ad-bd64-401d-a3e0-7667740d0033","ios":"levelo://app?vid=6ee514ad-bd64-401d-a3e0-7667740d0033"},"vehicle_type_id":"4","last_reported":1698588338,"current_range_meters":9200,"station_id":"ce4bht12rcd13ifvqi60","pricing_plan_id":"free"},{"bike_id":"191c5f13-27df-4271-95fb-7d43294976fd","system_id":"levelo_inurba_marseille","lat":43.287185,"lon":5.379373,"is_reserved":false,"is_disabled":false,"rental_uris":{"android":"levelo://app?vid=191c5f13-27df-4271-95fb-7d43294976fd","ios":"levelo://app?vid=191c5f13-27df-4271-95fb-7d43294976fd"},"vehicle_type_id":"4","last_reported":1698588338,"current_range_meters":4000,"station_id":"ce4bh9p2rcd13ifvqec0","pricing_plan_id":"free"},{"bike_id":"221223a7-d328-4e18-a83a-462ac224d99f","system_id":"levelo_inurba_marseille","lat":43.284308,"lon":5.35801,"is_reserved":false,"is_disabled":false,"rental_uris":{"android":"levelo://app?vid=221223a7-d328-4e18-a83a-462ac224d99f","ios":"levelo://app?vid=221223a7-d328-4e18-a83a-462ac224d99f"},"vehicle_type_id":"4","last_reported":1698588338,"current_range_meters":4400,"station_id":"","pricing_plan_id":"free"},{"bike_id":"851bb45b-b6dd-4655-8b09-84f0e9094739","system_id":"levelo_inurba_marseille","lat":43.283998,"lon":5.375062,"is_reserved":false,"is_disabled":false,"rental_uris":{"android":"levelo://app?vid=851bb45b-b6dd-4655-8b09-84f0e9094739","ios":"levelo://app?vid=851bb45b-b6dd-4655-8b09-84f0e9094739"},"vehicle_type_id":"4","last_reported":1698588338,"current_range_meters":0,"station_id":"ce4bh412rcd13ifvqds0","pricing_plan_id":"free"},{"bike_id":"54ac729f-fd02-4514-9f0f-38e24bc2ea7a","system_id":"levelo_inurba_marseille","lat":43.28411,"lon":5.37513,"is_reserved":false,"is_disabled":false,"rental_uris":{"android":"levelo://app?vid=54ac729f-fd02-4514-9f0f-38e24bc2ea7a","ios":"levelo://app?vid=54ac729f-fd02-4514-9f0f-38e24bc2ea7a"},"vehicle_type_id":"4","last_reported":1698588338,"current_range_meters":400,"station_id":"ce4bh412rcd13ifvqds0","pricing_plan_id":"free"},{"bike_id":"ac59a86d-6c3c-4ba6-8709-bf75b4347724","system_id":"levelo_inurba_marseille","lat":43.295713,"lon":5.399639,"is_reserved":false,"is_disabled":false,"rental_uris":{"android":"levelo://app?vid=ac59a86d-6c3c-4ba6-8709-bf75b4347724","ios":"levelo://app?vid=ac59a86d-6c3c-4ba6-8709-bf75b4347724"},"vehicle_type_id":"4","last_reported":1698588338,"current_range_meters":0,"station_id":"ce4bh312rcd13ifvqdj0","pricing_plan_id":"free"},{"bike_id":"875606ad-e77c-471b-b42e-5dc282285cfc","system_id":"levelo_inurba_marseille","lat":43.286595,"lon":5.386795,"is_reserved":false,"is_disabled":false,"rental_uris":{"android":"levelo://app?vid=875606ad-e77c-471b-b42e-5dc282285cfc","ios":"levelo://app?vid=875606ad-e77c-471b-b42e-5dc282285cfc"},"vehicle_type_id":"4","last_reported":1698588338,"current_range_meters":0,"station_id":"ce4bh492rcd13ifvqdug","pricing_plan_id":"free"},{"bike_id":"15bdef24-340e-4fcc-8b69-a97001c44759","system_id":"levelo_inurba_marseille","lat":43.33752,"lon":5.39113,"is_reserved":false,"is_disabled":false,"rental_uris":{"android":"levelo://app?vid=15bdef24-340e-4fcc-8b69-a97001c44759","ios":"levelo://app?vid=15bdef24-340e-4fcc-8b69-a97001c44759"},"vehicle_type_id":"4","last_reported":1698588338,"current_range_meters":31200,"station_id":"","pricing_plan_id":"free"},{"bike_id":"2f666bbb-190f-4291-ade2-95e2c0cfd815","system_id":"levelo_inurba_marseille","lat":43.325281,"lon":5.405683,"is_reserved":false,"is_disabled":false,"rental_uris":{"android":"levelo://app?vid=2f666bbb-190f-4291-ade2-95e2c0cfd815","ios":"levelo://app?vid=2f666bbb-190f-4291-ade2-95e2c0cfd815"},"vehicle_type_id":"4","last_reported":1698588338,"current_range_meters":14000,"station_id":"","pricing_plan_id":"free"},{"bike_id":"cea74d8b-0b74-417f-9fe1-f4b880ce4c4c","system_id":"levelo_inurba_marseille","lat":43.288501,"lon":5.393087,"is_reserved":false,"is_disabled":false,"rental_uris":{"android":"levelo://app?vid=cea74d8b-0b74-417f-9fe1-f4b880ce4c4c","ios":"levelo://app?vid=cea74d8b-0b74-417f-9fe1-f4b880ce4c4c"},"vehicle_type_id":"4","last_reported":1698588338,"current_range_meters":14400,"station_id":"ce4bh2p2rcd13ifvqdi0","pricing_plan_id":"free"},{"bike_id":"76809126-fee5-4975-bc1f-901cfb802076","system_id":"levelo_inurba_marseille","lat":43.283494,"lon":5.380945,"is_reserved":false,"is_disabled":false,"rental_uris":{"android":"levelo://app?vid=76809126-fee5-4975-bc1f-901cfb802076","ios":"levelo://app?vid=76809126-fee5-4975-bc1f-901cfb802076"},"vehicle_type_id":"4","last_reported":1698588338,"current_range_meters":9200,"station_id":"ce4bh412rcd13ifvqdr0","pricing_plan_id":"free"},{"bike_id":"21b9f2a6-70f2-4a7a-83a4-0124e6597b1f","system_id":"levelo_inurba_marseille","lat":43.284217,"lon":5.349697,"is_reserved":false,"is_disabled":false,"rental_uris":{"android":"levelo://app?vid=21b9f2a6-70f2-4a7a-83a4-0124e6597b1f","ios":"levelo://app?vid=21b9f2a6-70f2-4a7a-83a4-0124e6597b1f"},"vehicle_type_id":"4","last_reported":1698588338,"current_range_meters":22800,"station_id":"ce4bhbh2rcd13ifvqepg","pricing_plan_id":"free"},{"bike_id":"1e08f629-62fc-400d-8bae-2895c32e4b1a","system_id":"levelo_inurba_marseille","lat":43.284217,"lon":5.349697,"is_reserved":false,"is_disabled":false,"rental_uris":{"android":"levelo://app?vid=1e08f629-62fc-400d-8bae-2895c32e4b1a","ios":"levelo://app?vid=1e08f629-62fc-400d-8bae-2895c32e4b1a"},"vehicle_type_id":"4","last_reported":1698588338,"current_range_meters":17600,"station_id":"ce4bhbh2rcd13ifvqepg","pricing_plan_id":"free"},{"bike_id":"2b77c20b-8fe7-4502-bf7d-f1ffd7741ad4","system_id":"levelo_inurba_marseille","lat":43.289363,"lon":5.396322,"is_reserved":false,"is_disabled":false,"rental_uris":{"android":"levelo://app?vid=2b77c20b-8fe7-4502-bf7d-f1ffd7741ad4","ios":"levelo://app?vid=2b77c20b-8fe7-4502-bf7d-f1ffd7741ad4"},"vehicle_type_id":"4","last_reported":1698588338,"current_range_meters":1200,"station_id":"ce4bh3h2rcd13ifvqdn0","pricing_plan_id":"free"},{"bike_id":"61d15685-e0ea-4144-8e7e-5a721649d528","system_id":"levelo_inurba_marseille","lat":43.289363,"lon":5.396322,"is_reserved":false,"is_disabled":false,"rental_uris":{"android":"levelo://app?vid=61d15685-e0ea-4144-8e7e-5a721649d528","ios":"levelo://app?vid=61d15685-e0ea-4144-8e7e-5a721649d528"},"vehicle_type_id":"4","last_reported":1698588338,"current_range_meters":19600,"station_id":"ce4bh3h2rcd13ifvqdn0","pricing_plan_id":"free"},{"bike_id":"3caa917f-05a9-4ed1-9e87-803a5e66d2e0","system_id":"levelo_inurba_marseille","lat":43.289363,"lon":5.396322,"is_reserved":false,"is_disabled":false,"rental_uris":{"android":"levelo://app?vid=3caa917f-05a9-4ed1-9e87-803a5e66d2e0","ios":"levelo://app?vid=3caa917f-05a9-4ed1-9e87-803a5e66d2e0"},"vehicle_type_id":"4","last_reported":1698588338,"current_range_meters":20000,"station_id":"ce4bh3h2rcd13ifvqdn0","pricing_plan_id":"free"},{"bike_id":"667c2a8c-a935-4a0f-b031-f37c0c031a6f","system_id":"levelo_inurba_marseille","lat":43.282744,"lon":5.350533,"is_reserved":false,"is_disabled":false,"rental_uris":{"android":"levelo://app?vid=667c2a8c-a935-4a0f-b031-f37c0c031a6f","ios":"levelo://app?vid=667c2a8c-a935-4a0f-b031-f37c0c031a6f"},"vehicle_type_id":"4","last_reported":1698588338,"current_range_meters":8800,"station_id":"ce4bhbp2rcd13ifvqerg","pricing_plan_id":"free"},{"bike_id":"90003d45-20f1-415f-9029-2feca507faeb","system_id":"levelo_inurba_marseille","lat":43.282754,"lon":5.350519,"is_reserved":false,"is_disabled":false,"rental_uris":{"android":"levelo://app?vid=90003d45-20f1-415f-9029-2feca507faeb","ios":"levelo://app?vid=90003d45-20f1-415f-9029-2feca507faeb"},"vehicle_type_id":"4","last_reported":1698588338,"current_range_meters":7200,"station_id":"ce4bhbp2rcd13ifvqerg","pricing_plan_id":"free"},{"bike_id":"40f5e0a7-199c-45fb-be2c-160f7bf5e3ec","system_id":"levelo_inurba_marseille","lat":43.282744,"lon":5.350533,"is_reserved":false,"is_disabled":false,"rental_uris":{"android":"levelo://app?vid=40f5e0a7-199c-45fb-be2c-160f7bf5e3ec","ios":"levelo://app?vid=40f5e0a7-199c-45fb-be2c-160f7bf5e3ec"},"vehicle_type_id":"4","last_reported":1698588338,"current_range_meters":12400,"station_id":"ce4bhbp2rcd13ifvqerg","pricing_plan_id":"free"},{"bike_id":"1ca242fe-6084-4f9b-8b54-35d465872844","system_id":"levelo_inurba_marseille","lat":43.29041,"lon":5.399634,"is_reserved":false,"is_disabled":false,"rental_uris":{"android":"levelo://app?vid=1ca242fe-6084-4f9b-8b54-35d465872844","ios":"levelo://app?vid=1ca242fe-6084-4f9b-8b54-35d465872844"},"vehicle_type_id":"4","last_reported":1698588338,"current_range_meters":20800,"station_id":"ce4bh392rcd13ifvqdm0","pricing_plan_id":"free"},{"bike_id":"76d932a3-7d4e-44ca-ac75-3492f5c38e12","system_id":"levelo_inurba_marseille","lat":43.281044,"lon":5.378308,"is_reserved":false,"is_disabled":false,"rental_uris":{"android":"levelo://app?vid=76d932a3-7d4e-44ca-ac75-3492f5c38e12","ios":"levelo://app?vid=76d932a3-7d4e-44ca-ac75-3492f5c38e12"},"vehicle_type_id":"4","last_reported":1698588338,"current_range_meters":22000,"station_id":"ce4bha12rcd13ifvqee0","pricing_plan_id":"free"},{"bike_id":"b6e36e42-462f-4055-8b27-dbb7a189fd2e","system_id":"levelo_inurba_marseille","lat":43.29632,"lon":5.40597,"is_reserved":false,"is_disabled":false,"rental_uris":{"android":"levelo://app?vid=b6e36e42-462f-4055-8b27-dbb7a189fd2e","ios":"levelo://app?vid=b6e36e42-462f-4055-8b27-dbb7a189fd2e"},"vehicle_type_id":"4","last_reported":1698588338,"current_range_meters":27200,"station_id":"","pricing_plan_id":"free"},{"bike_id":"d445e7dc-8f39-4198-8d15-1838ad42556e","system_id":"levelo_inurba_marseille","lat":43.296263,"lon":5.40601,"is_reserved":false,"is_disabled":false,"rental_uris":{"android":"levelo://app?vid=d445e7dc-8f39-4198-8d15-1838ad42556e","ios":"levelo://app?vid=d445e7dc-8f39-4198-8d15-1838ad42556e"},"vehicle_type_id":"4","last_reported":1698588338,"current_range_meters":20000,"station_id":"ce4bh0h2rcd13ifvqd60","pricing_plan_id":"free"},{"bike_id":"2ff4290a-953b-40dc-9c7e-2436150f81c2","system_id":"levelo_inurba_marseille","lat":43.281456,"lon":5.383459,"is_reserved":false,"is_disabled":false,"rental_uris":{"android":"levelo://app?vid=2ff4290a-953b-40dc-9c7e-2436150f81c2","ios":"levelo://app?vid=2ff4290a-953b-40dc-9c7e-2436150f81c2"},"vehicle_type_id":"4","last_reported":1698588338,"current_range_meters":4400,"station_id":"","pricing_plan_id":"free"},{"bike_id":"ad9df0b1-648b-442f-a1d4-94cd8cc2d7cd","system_id":"levelo_inurba_marseille","lat":43.284462,"lon":5.392121,"is_reserved":false,"is_disabled":false,"rental_uris":{"android":"levelo://app?vid=ad9df0b1-648b-442f-a1d4-94cd8cc2d7cd","ios":"levelo://app?vid=ad9df0b1-648b-442f-a1d4-94cd8cc2d7cd"},"vehicle_type_id":"4","last_reported":1698588338,"current_range_meters":19200,"station_id":"ce4bhoh2rcd13ifvqh5g","pricing_plan_id":"free"},{"bike_id":"b3deb942-1097-4ba0-a632-929fd9c53d41","system_id":"levelo_inurba_marseille","lat":43.285693,"lon":5.394963,"is_reserved":false,"is_disabled":false,"rental_uris":{"android":"levelo://app?vid=b3deb942-1097-4ba0-a632-929fd9c53d41","ios":"levelo://app?vid=b3deb942-1097-4ba0-a632-929fd9c53d41"},"vehicle_type_id":"4","last_reported":1698588338,"current_range_meters":31200,"station_id":"ce4bh292rcd13ifvqdg0","pricing_plan_id":"free"},{"bike_id":"b992903f-0b47-4967-bc94-6e937c332861","system_id":"levelo_inurba_marseille","lat":43.326605,"lon":5.409903,"is_reserved":false,"is_disabled":false,"rental_uris":{"android":"levelo://app?vid=b992903f-0b47-4967-bc94-6e937c332861","ios":"levelo://app?vid=b992903f-0b47-4967-bc94-6e937c332861"},"vehicle_type_id":"4","last_reported":1698588338,"current_range_meters":13200,"station_id":"ce4bhpp2rcd13ifvqhgg","pricing_plan_id":"free"},{"bike_id":"9c3d6cb4-ff9e-4690-8c6e-8837e2258e55","system_id":"levelo_inurba_marseille","lat":43.3042,"lon":5.41282,"is_reserved":false,"is_disabled":false,"rental_uris":{"android":"levelo://app?vid=9c3d6cb4-ff9e-4690-8c6e-8837e2258e55","ios":"levelo://app?vid=9c3d6cb4-ff9e-4690-8c6e-8837e2258e55"},"vehicle_type_id":"4","last_reported":1698588338,"current_range_meters":27600,"station_id":"ce4bhop2rcd13ifvqh8g","pricing_plan_id":"free"},{"bike_id":"0ef10d53-1899-4f4b-a413-2ad0e86a3e23","system_id":"levelo_inurba_marseille","lat":43.304188,"lon":5.412904,"is_reserved":false,"is_disabled":false,"rental_uris":{"android":"levelo://app?vid=0ef10d53-1899-4f4b-a413-2ad0e86a3e23","ios":"levelo://app?vid=0ef10d53-1899-4f4b-a413-2ad0e86a3e23"},"vehicle_type_id":"4","last_reported":1698588338,"current_range_meters":28400,"station_id":"ce4bhop2rcd13ifvqh8g","pricing_plan_id":"free"},{"bike_id":"28c0fbb2-1d22-4605-bec3-c0641c691004","system_id":"levelo_inurba_marseille","lat":43.279087,"lon":5.380114,"is_reserved":false,"is_disabled":false,"rental_uris":{"android":"levelo://app?vid=28c0fbb2-1d22-4605-bec3-c0641c691004","ios":"levelo://app?vid=28c0fbb2-1d22-4605-bec3-c0641c691004"},"vehicle_type_id":"4","last_reported":1698588338,"current_range_meters":27200,"station_id":"ce4bhf92rcd13ifvqf50","pricing_plan_id":"free"},{"bike_id":"c646ce1a-5931-48ab-ac8a-6bc05ebd7839","system_id":"levelo_inurba_marseille","lat":43.279087,"lon":5.380114,"is_reserved":false,"is_disabled":false,"rental_uris":{"android":"levelo://app?vid=c646ce1a-5931-48ab-ac8a-6bc05ebd7839","ios":"levelo://app?vid=c646ce1a-5931-48ab-ac8a-6bc05ebd7839"},"vehicle_type_id":"4","last_reported":1698588338,"current_range_meters":22000,"station_id":"ce4bhf92rcd13ifvqf50","pricing_plan_id":"free"},{"bike_id":"00c7ab47-89e4-43d6-85c8-2d1ca0629742","system_id":"levelo_inurba_marseille","lat":43.287154,"lon":5.399979,"is_reserved":false,"is_disabled":false,"rental_uris":{"android":"levelo://app?vid=00c7ab47-89e4-43d6-85c8-2d1ca0629742","ios":"levelo://app?vid=00c7ab47-89e4-43d6-85c8-2d1ca0629742"},"vehicle_type_id":"4","last_reported":1698588338,"current_range_meters":19600,"station_id":"ce4bho92rcd13ifvqh3g","pricing_plan_id":"free"},{"bike_id":"4ea18102-481b-48ed-9a89-487e08a0efca","system_id":"levelo_inurba_marseille","lat":43.287154,"lon":5.399979,"is_reserved":false,"is_disabled":false,"rental_uris":{"android":"levelo://app?vid=4ea18102-481b-48ed-9a89-487e08a0efca","ios":"levelo://app?vid=4ea18102-481b-48ed-9a89-487e08a0efca"},"vehicle_type_id":"4","last_reported":1698588338,"current_range_meters":23200,"station_id":"ce4bho92rcd13ifvqh3g","pricing_plan_id":"free"},{"bike_id":"a59c8d49-d9ba-46d3-929a-c62d3b6a781c","system_id":"levelo_inurba_marseille","lat":43.287154,"lon":5.399979,"is_reserved":false,"is_disabled":false,"rental_uris":{"android":"levelo://app?vid=a59c8d49-d9ba-46d3-929a-c62d3b6a781c","ios":"levelo://app?vid=a59c8d49-d9ba-46d3-929a-c62d3b6a781c"},"vehicle_type_id":"4","last_reported":1698588338,"current_range_meters":29200,"station_id":"ce4bho92rcd13ifvqh3g","pricing_plan_id":"free"},{"bike_id":"e3d2c9cc-c6f9-4236-b083-c2c335dc163e","system_id":"levelo_inurba_marseille","lat":43.299579,"lon":5.413255,"is_reserved":false,"is_disabled":false,"rental_uris":{"android":"levelo://app?vid=e3d2c9cc-c6f9-4236-b083-c2c335dc163e","ios":"levelo://app?vid=e3d2c9cc-c6f9-4236-b083-c2c335dc163e"},"vehicle_type_id":"4","last_reported":1698588338,"current_range_meters":19600,"station_id":"ce4bhp12rcd13ifvqh9g","pricing_plan_id":"free"},{"bike_id":"1c530810-2fa9-49c5-b19a-10fd7dbbd27b","system_id":"levelo_inurba_marseille","lat":43.279742,"lon":5.38744,"is_reserved":false,"is_disabled":false,"rental_uris":{"android":"levelo://app?vid=1c530810-2fa9-49c5-b19a-10fd7dbbd27b","ios":"levelo://app?vid=1c530810-2fa9-49c5-b19a-10fd7dbbd27b"},"vehicle_type_id":"4","last_reported":1698588338,"current_range_meters":28400,"station_id":"ce4bhg12rcd13ifvqf80","pricing_plan_id":"free"},{"bike_id":"063aab5d-df81-449d-aacd-9053f0eb8bd4","system_id":"levelo_inurba_marseille","lat":43.32033,"lon":5.4157,"is_reserved":false,"is_disabled":false,"rental_uris":{"android":"levelo://app?vid=063aab5d-df81-449d-aacd-9053f0eb8bd4","ios":"levelo://app?vid=063aab5d-df81-449d-aacd-9053f0eb8bd4"},"vehicle_type_id":"4","last_reported":1698588338,"current_range_meters":18000,"station_id":"ce4bhq92rcd13ifvqhkg","pricing_plan_id":"free"},{"bike_id":"c55dd507-80a3-413b-b1b6-effbd2d0e14d","system_id":"levelo_inurba_marseille","lat":43.28547,"lon":5.39986,"is_reserved":false,"is_disabled":false,"rental_uris":{"android":"levelo://app?vid=c55dd507-80a3-413b-b1b6-effbd2d0e14d","ios":"levelo://app?vid=c55dd507-80a3-413b-b1b6-effbd2d0e14d"},"vehicle_type_id":"4","last_reported":1698588338,"current_range_meters":26400,"station_id":"ce4bho92rcd13ifvqh4g","pricing_plan_id":"free"},{"bike_id":"ab441268-3e03-4104-94cc-7705d60c6788","system_id":"levelo_inurba_marseille","lat":43.347892,"lon":5.348552,"is_reserved":false,"is_disabled":false,"rental_uris":{"android":"levelo://app?vid=ab441268-3e03-4104-94cc-7705d60c6788","ios":"levelo://app?vid=ab441268-3e03-4104-94cc-7705d60c6788"},"vehicle_type_id":"4","last_reported":1698588338,"current_range_meters":15600,"station_id":"","pricing_plan_id":"free"},{"bike_id":"e3e7ba4f-82b7-45be-84d0-2e81a251141d","system_id":"levelo_inurba_marseille","lat":43.278399,"lon":5.392139,"is_reserved":false,"is_disabled":false,"rental_uris":{"android":"levelo://app?vid=e3e7ba4f-82b7-45be-84d0-2e81a251141d","ios":"levelo://app?vid=e3e7ba4f-82b7-45be-84d0-2e81a251141d"},"vehicle_type_id":"4","last_reported":1698588338,"current_range_meters":26000,"station_id":"ce4bhjp2rcd13ifvqga0","pricing_plan_id":"free"},{"bike_id":"808c2ddb-768b-419b-8dad-bf086e396b0b","system_id":"levelo_inurba_marseille","lat":43.2738,"lon":5.36252,"is_reserved":false,"is_disabled":false,"rental_uris":{"android":"levelo://app?vid=808c2ddb-768b-419b-8dad-bf086e396b0b","ios":"levelo://app?vid=808c2ddb-768b-419b-8dad-bf086e396b0b"},"vehicle_type_id":"4","last_reported":1698588338,"current_range_meters":20400,"station_id":"ce4bhbh2rcd13ifvqeo0","pricing_plan_id":"free"},{"bike_id":"c152fca7-ae91-46ef-b5d8-b8f2d831ec9c","system_id":"levelo_inurba_marseille","lat":43.27379,"lon":5.36245,"is_reserved":false,"is_disabled":false,"rental_uris":{"android":"levelo://app?vid=c152fca7-ae91-46ef-b5d8-b8f2d831ec9c","ios":"levelo://app?vid=c152fca7-ae91-46ef-b5d8-b8f2d831ec9c"},"vehicle_type_id":"4","last_reported":1698588338,"current_range_meters":31200,"station_id":"ce4bhbh2rcd13ifvqeo0","pricing_plan_id":"free"},{"bike_id":"77bf4ab8-2b61-4643-bef1-1eb9c876dce7","system_id":"levelo_inurba_marseille","lat":43.273613,"lon":5.362705,"is_reserved":false,"is_disabled":false,"rental_uris":{"android":"levelo://app?vid=77bf4ab8-2b61-4643-bef1-1eb9c876dce7","ios":"levelo://app?vid=77bf4ab8-2b61-4643-bef1-1eb9c876dce7"},"vehicle_type_id":"4","last_reported":1698588338,"current_range_meters":11600,"station_id":"ce4bhbh2rcd13ifvqeo0","pricing_plan_id":"free"},{"bike_id":"05fc0e8e-b0da-4e47-b235-43c51679b3a6","system_id":"levelo_inurba_marseille","lat":43.273613,"lon":5.362705,"is_reserved":false,"is_disabled":false,"rental_uris":{"android":"levelo://app?vid=05fc0e8e-b0da-4e47-b235-43c51679b3a6","ios":"levelo://app?vid=05fc0e8e-b0da-4e47-b235-43c51679b3a6"},"vehicle_type_id":"4","last_reported":1698588338,"current_range_meters":23200,"station_id":"ce4bhbh2rcd13ifvqeo0","pricing_plan_id":"free"},{"bike_id":"3a1a0e80-ca41-4673-8326-26552cfa2130","system_id":"levelo_inurba_marseille","lat":43.273613,"lon":5.362705,"is_reserved":false,"is_disabled":false,"rental_uris":{"android":"levelo://app?vid=3a1a0e80-ca41-4673-8326-26552cfa2130","ios":"levelo://app?vid=3a1a0e80-ca41-4673-8326-26552cfa2130"},"vehicle_type_id":"4","last_reported":1698588338,"current_range_meters":31200,"station_id":"ce4bhbh2rcd13ifvqeo0","pricing_plan_id":"free"},{"bike_id":"474945e5-ec59-4c62-9947-18dc33672a83","system_id":"levelo_inurba_marseille","lat":43.33643,"lon":5.41025,"is_reserved":false,"is_disabled":false,"rental_uris":{"android":"levelo://app?vid=474945e5-ec59-4c62-9947-18dc33672a83","ios":"levelo://app?vid=474945e5-ec59-4c62-9947-18dc33672a83"},"vehicle_type_id":"4","last_reported":1698588338,"current_range_meters":28800,"station_id":"ce4bhqh2rcd13ifvqhmg","pricing_plan_id":"free"},{"bike_id":"01b14aaf-b7fc-41e8-b11c-f5f9ba41824f","system_id":"levelo_inurba_marseille","lat":43.275299,"lon":5.385795,"is_reserved":false,"is_disabled":false,"rental_uris":{"android":"levelo://app?vid=01b14aaf-b7fc-41e8-b11c-f5f9ba41824f","ios":"levelo://app?vid=01b14aaf-b7fc-41e8-b11c-f5f9ba41824f"},"vehicle_type_id":"4","last_reported":1698588338,"current_range_meters":6000,"station_id":"","pricing_plan_id":"free"},{"bike_id":"c75201a1-4f5f-41a4-950a-3dce2f6a6902","system_id":"levelo_inurba_marseille","lat":43.28004,"lon":5.40009,"is_reserved":false,"is_disabled":false,"rental_uris":{"android":"levelo://app?vid=c75201a1-4f5f-41a4-950a-3dce2f6a6902","ios":"levelo://app?vid=c75201a1-4f5f-41a4-950a-3dce2f6a6902"},"vehicle_type_id":"4","last_reported":1698588338,"current_range_meters":31200,"station_id":"ce4bho92rcd13ifvqh4g","pricing_plan_id":"free"},{"bike_id":"b551e140-c728-4830-8633-76944f446eec","system_id":"levelo_inurba_marseille","lat":43.279952,"lon":5.400085,"is_reserved":false,"is_disabled":false,"rental_uris":{"android":"levelo://app?vid=b551e140-c728-4830-8633-76944f446eec","ios":"levelo://app?vid=b551e140-c728-4830-8633-76944f446eec"},"vehicle_type_id":"4","last_reported":1698588338,"current_range_meters":400,"station_id":"ce4bho92rcd13ifvqh4g","pricing_plan_id":"free"},{"bike_id":"43bb6a08-e402-4c46-96c9-c73bb00ecfd3","system_id":"levelo_inurba_marseille","lat":43.279952,"lon":5.400085,"is_reserved":false,"is_disabled":false,"rental_uris":{"android":"levelo://app?vid=43bb6a08-e402-4c46-96c9-c73bb00ecfd3","ios":"levelo://app?vid=43bb6a08-e402-4c46-96c9-c73bb00ecfd3"},"vehicle_type_id":"4","last_reported":1698588338,"current_range_meters":16000,"station_id":"ce4bho92rcd13ifvqh4g","pricing_plan_id":"free"},{"bike_id":"82047b19-780e-4f24-a5c7-850b68a0b058","system_id":"levelo_inurba_marseille","lat":43.279952,"lon":5.400085,"is_reserved":false,"is_disabled":false,"rental_uris":{"android":"levelo://app?vid=82047b19-780e-4f24-a5c7-850b68a0b058","ios":"levelo://app?vid=82047b19-780e-4f24-a5c7-850b68a0b058"},"vehicle_type_id":"4","last_reported":1698588338,"current_range_meters":31200,"station_id":"ce4bho92rcd13ifvqh4g","pricing_plan_id":"free"},{"bike_id":"e64ec2c4-5126-435b-ac80-9840575e2e21","system_id":"levelo_inurba_marseille","lat":43.279952,"lon":5.400085,"is_reserved":false,"is_disabled":false,"rental_uris":{"android":"levelo://app?vid=e64ec2c4-5126-435b-ac80-9840575e2e21","ios":"levelo://app?vid=e64ec2c4-5126-435b-ac80-9840575e2e21"},"vehicle_type_id":"4","last_reported":1698588338,"current_range_meters":1600,"station_id":"ce4bho92rcd13ifvqh4g","pricing_plan_id":"free"},{"bike_id":"c08f1a51-d1c7-444a-b8cf-e0bbc1214c97","system_id":"levelo_inurba_marseille","lat":43.317121,"lon":5.423936,"is_reserved":false,"is_disabled":false,"rental_uris":{"android":"levelo://app?vid=c08f1a51-d1c7-444a-b8cf-e0bbc1214c97","ios":"levelo://app?vid=c08f1a51-d1c7-444a-b8cf-e0bbc1214c97"},"vehicle_type_id":"4","last_reported":1698588338,"current_range_meters":30000,"station_id":"ce4bhp92rcd13ifvqhbg","pricing_plan_id":"free"},{"bike_id":"69af5f81-4e43-4e05-8090-98f54655cd52","system_id":"levelo_inurba_marseille","lat":43.310785,"lon":5.424305,"is_reserved":false,"is_disabled":false,"rental_uris":{"android":"levelo://app?vid=69af5f81-4e43-4e05-8090-98f54655cd52","ios":"levelo://app?vid=69af5f81-4e43-4e05-8090-98f54655cd52"},"vehicle_type_id":"4","last_reported":1698588338,"current_range_meters":31200,"station_id":"ce4bhp92rcd13ifvqhag","pricing_plan_id":"free"},{"bike_id":"c5547a94-5c4c-4dba-8cdf-afe6b163ecda","system_id":"levelo_inurba_marseille","lat":43.310785,"lon":5.424305,"is_reserved":false,"is_disabled":false,"rental_uris":{"android":"levelo://app?vid=c5547a94-5c4c-4dba-8cdf-afe6b163ecda","ios":"levelo://app?vid=c5547a94-5c4c-4dba-8cdf-afe6b163ecda"},"vehicle_type_id":"4","last_reported":1698588338,"current_range_meters":16400,"station_id":"ce4bhp92rcd13ifvqhag","pricing_plan_id":"free"},{"bike_id":"8a2b96c9-70db-40c5-8ffe-c8ce325e8c8f","system_id":"levelo_inurba_marseille","lat":43.310785,"lon":5.424305,"is_reserved":false,"is_disabled":false,"rental_uris":{"android":"levelo://app?vid=8a2b96c9-70db-40c5-8ffe-c8ce325e8c8f","ios":"levelo://app?vid=8a2b96c9-70db-40c5-8ffe-c8ce325e8c8f"},"vehicle_type_id":"4","last_reported":1698588338,"current_range_meters":30000,"station_id":"ce4bhp92rcd13ifvqhag","pricing_plan_id":"free"},{"bike_id":"d58dc1b0-a920-45a9-b8ae-bc43ae7fdaaf","system_id":"levelo_inurba_marseille","lat":43.31078,"lon":5.42434,"is_reserved":false,"is_disabled":false,"rental_uris":{"android":"levelo://app?vid=d58dc1b0-a920-45a9-b8ae-bc43ae7fdaaf","ios":"levelo://app?vid=d58dc1b0-a920-45a9-b8ae-bc43ae7fdaaf"},"vehicle_type_id":"4","last_reported":1698588338,"current_range_meters":14000,"station_id":"ce4bhp92rcd13ifvqhag","pricing_plan_id":"free"},{"bike_id":"10771e27-9dfa-483f-a879-18ff14f74247","system_id":"levelo_inurba_marseille","lat":43.310021,"lon":5.425067,"is_reserved":false,"is_disabled":false,"rental_uris":{"android":"levelo://app?vid=10771e27-9dfa-483f-a879-18ff14f74247","ios":"levelo://app?vid=10771e27-9dfa-483f-a879-18ff14f74247"},"vehicle_type_id":"4","last_reported":1698588338,"current_range_meters":0,"station_id":"","pricing_plan_id":"free"},{"bike_id":"a64e395e-9f70-4339-b8ba-887d6ae572e4","system_id":"levelo_inurba_marseille","lat":43.274099,"lon":5.394019,"is_reserved":false,"is_disabled":false,"rental_uris":{"android":"levelo://app?vid=a64e395e-9f70-4339-b8ba-887d6ae572e4","ios":"levelo://app?vid=a64e395e-9f70-4339-b8ba-887d6ae572e4"},"vehicle_type_id":"4","last_reported":1698588338,"current_range_meters":0,"station_id":"ce4bhdp2rcd13ifvqf20","pricing_plan_id":"free"},{"bike_id":"17469883-1d0f-49c7-b9fa-878bd4964871","system_id":"levelo_inurba_marseille","lat":43.304096,"lon":5.425385,"is_reserved":false,"is_disabled":false,"rental_uris":{"android":"levelo://app?vid=17469883-1d0f-49c7-b9fa-878bd4964871","ios":"levelo://app?vid=17469883-1d0f-49c7-b9fa-878bd4964871"},"vehicle_type_id":"4","last_reported":1698588338,"current_range_meters":22400,"station_id":"ce4bhoh2rcd13ifvqh6g","pricing_plan_id":"free"},{"bike_id":"291a32c9-e8fe-4c60-819c-bf8d640a2016","system_id":"levelo_inurba_marseille","lat":43.2936,"lon":5.37835,"is_reserved":false,"is_disabled":false,"rental_uris":{"android":"levelo://app?vid=291a32c9-e8fe-4c60-819c-bf8d640a2016","ios":"levelo://app?vid=291a32c9-e8fe-4c60-819c-bf8d640a2016"},"vehicle_type_id":"4","last_reported":1698588338,"current_range_meters":19600,"station_id":"ce4bgjh2rcd13ifvqbf0","pricing_plan_id":"free"},{"bike_id":"8bc9eab4-3d56-4372-b56b-1be40fa89abc","system_id":"levelo_inurba_marseille","lat":43.278128,"lon":5.407195,"is_reserved":false,"is_disabled":false,"rental_uris":{"android":"levelo://app?vid=8bc9eab4-3d56-4372-b56b-1be40fa89abc","ios":"levelo://app?vid=8bc9eab4-3d56-4372-b56b-1be40fa89abc"},"vehicle_type_id":"4","last_reported":1698588338,"current_range_meters":26400,"station_id":"ce4bhnh2rcd13ifvqgtg","pricing_plan_id":"free"},{"bike_id":"b4089e34-c2d4-41cc-9d82-32af2b37902d","system_id":"levelo_inurba_marseille","lat":43.278128,"lon":5.407195,"is_reserved":false,"is_disabled":false,"rental_uris":{"android":"levelo://app?vid=b4089e34-c2d4-41cc-9d82-32af2b37902d","ios":"levelo://app?vid=b4089e34-c2d4-41cc-9d82-32af2b37902d"},"vehicle_type_id":"4","last_reported":1698588338,"current_range_meters":24400,"station_id":"ce4bhnh2rcd13ifvqgtg","pricing_plan_id":"free"},{"bike_id":"78d6fad6-b4de-4475-815d-f0e6e945c3da","system_id":"levelo_inurba_marseille","lat":43.27813,"lon":5.40715,"is_reserved":false,"is_disabled":false,"rental_uris":{"android":"levelo://app?vid=78d6fad6-b4de-4475-815d-f0e6e945c3da","ios":"levelo://app?vid=78d6fad6-b4de-4475-815d-f0e6e945c3da"},"vehicle_type_id":"4","last_reported":1698588338,"current_range_meters":8400,"station_id":"ce4bhnh2rcd13ifvqgtg","pricing_plan_id":"free"},{"bike_id":"00c97efd-b495-443e-bdc1-0c3565cedcdb","system_id":"levelo_inurba_marseille","lat":43.278128,"lon":5.407195,"is_reserved":false,"is_disabled":false,"rental_uris":{"android":"levelo://app?vid=00c97efd-b495-443e-bdc1-0c3565cedcdb","ios":"levelo://app?vid=00c97efd-b495-443e-bdc1-0c3565cedcdb"},"vehicle_type_id":"4","last_reported":1698588338,"current_range_meters":12000,"station_id":"ce4bhnh2rcd13ifvqgtg","pricing_plan_id":"free"},{"bike_id":"891e1734-0f2b-4304-8bd4-989a6a3bbdb4","system_id":"levelo_inurba_marseille","lat":43.279465,"lon":5.410561,"is_reserved":false,"is_disabled":false,"rental_uris":{"android":"levelo://app?vid=891e1734-0f2b-4304-8bd4-989a6a3bbdb4","ios":"levelo://app?vid=891e1734-0f2b-4304-8bd4-989a6a3bbdb4"},"vehicle_type_id":"4","last_reported":1698588338,"current_range_meters":22400,"station_id":"ce4bhnp2rcd13ifvqh0g","pricing_plan_id":"free"},{"bike_id":"fdf817ff-671a-40f5-af16-4b014a09f881","system_id":"levelo_inurba_marseille","lat":43.279465,"lon":5.410561,"is_reserved":false,"is_disabled":false,"rental_uris":{"android":"levelo://app?vid=fdf817ff-671a-40f5-af16-4b014a09f881","ios":"levelo://app?vid=fdf817ff-671a-40f5-af16-4b014a09f881"},"vehicle_type_id":"4","last_reported":1698588338,"current_range_meters":31200,"station_id":"ce4bhnp2rcd13ifvqh0g","pricing_plan_id":"free"},{"bike_id":"7972e31a-4996-4a8e-8bac-ba8485508dfc","system_id":"levelo_inurba_marseille","lat":43.279465,"lon":5.410561,"is_reserved":false,"is_disabled":false,"rental_uris":{"android":"levelo://app?vid=7972e31a-4996-4a8e-8bac-ba8485508dfc","ios":"levelo://app?vid=7972e31a-4996-4a8e-8bac-ba8485508dfc"},"vehicle_type_id":"4","last_reported":1698588338,"current_range_meters":19200,"station_id":"ce4bhnp2rcd13ifvqh0g","pricing_plan_id":"free"},{"bike_id":"3c9fff95-a8ba-455a-977f-2650e7018629","system_id":"levelo_inurba_marseille","lat":43.27937,"lon":5.41047,"is_reserved":false,"is_disabled":false,"rental_uris":{"android":"levelo://app?vid=3c9fff95-a8ba-455a-977f-2650e7018629","ios":"levelo://app?vid=3c9fff95-a8ba-455a-977f-2650e7018629"},"vehicle_type_id":"4","last_reported":1698588338,"current_range_meters":30400,"station_id":"ce4bhnp2rcd13ifvqh0g","pricing_plan_id":"free"},{"bike_id":"9d69e8ac-f2c1-4923-9b1f-884e2594e7b5","system_id":"levelo_inurba_marseille","lat":43.269319,"lon":5.389397,"is_reserved":false,"is_disabled":false,"rental_uris":{"android":"levelo://app?vid=9d69e8ac-f2c1-4923-9b1f-884e2594e7b5","ios":"levelo://app?vid=9d69e8ac-f2c1-4923-9b1f-884e2594e7b5"},"vehicle_type_id":"4","last_reported":1698588338,"current_range_meters":0,"station_id":"ce4bhhh2rcd13ifvqfl0","pricing_plan_id":"free"},{"bike_id":"66a46cce-2509-423f-8e36-ccbf8c1330ab","system_id":"levelo_inurba_marseille","lat":43.269319,"lon":5.389397,"is_reserved":false,"is_disabled":false,"rental_uris":{"android":"levelo://app?vid=66a46cce-2509-423f-8e36-ccbf8c1330ab","ios":"levelo://app?vid=66a46cce-2509-423f-8e36-ccbf8c1330ab"},"vehicle_type_id":"4","last_reported":1698588338,"current_range_meters":21200,"station_id":"ce4bhhh2rcd13ifvqfl0","pricing_plan_id":"free"},{"bike_id":"6338a59f-e80c-4c61-93e9-6182385578cc","system_id":"levelo_inurba_marseille","lat":43.26559,"lon":5.37284,"is_reserved":false,"is_disabled":false,"rental_uris":{"android":"levelo://app?vid=6338a59f-e80c-4c61-93e9-6182385578cc","ios":"levelo://app?vid=6338a59f-e80c-4c61-93e9-6182385578cc"},"vehicle_type_id":"4","last_reported":1698588338,"current_range_meters":21600,"station_id":"ce4bhg12rcd13ifvqf70","pricing_plan_id":"free"},{"bike_id":"c9f738ee-2e63-4152-98ac-06f464a9ea1f","system_id":"levelo_inurba_marseille","lat":43.26558,"lon":5.37281,"is_reserved":false,"is_disabled":false,"rental_uris":{"android":"levelo://app?vid=c9f738ee-2e63-4152-98ac-06f464a9ea1f","ios":"levelo://app?vid=c9f738ee-2e63-4152-98ac-06f464a9ea1f"},"vehicle_type_id":"4","last_reported":1698588338,"current_range_meters":24800,"station_id":"ce4bhg12rcd13ifvqf70","pricing_plan_id":"free"},{"bike_id":"54e8fba7-4a18-46ac-a0ea-265111899c76","system_id":"levelo_inurba_marseille","lat":43.26556,"lon":5.37281,"is_reserved":false,"is_disabled":false,"rental_uris":{"android":"levelo://app?vid=54e8fba7-4a18-46ac-a0ea-265111899c76","ios":"levelo://app?vid=54e8fba7-4a18-46ac-a0ea-265111899c76"},"vehicle_type_id":"4","last_reported":1698588338,"current_range_meters":22800,"station_id":"ce4bhg12rcd13ifvqf70","pricing_plan_id":"free"},{"bike_id":"07b7734e-5f2a-4f5c-95f1-19ad8a5c215e","system_id":"levelo_inurba_marseille","lat":43.26552,"lon":5.37283,"is_reserved":false,"is_disabled":false,"rental_uris":{"android":"levelo://app?vid=07b7734e-5f2a-4f5c-95f1-19ad8a5c215e","ios":"levelo://app?vid=07b7734e-5f2a-4f5c-95f1-19ad8a5c215e"},"vehicle_type_id":"4","last_reported":1698588338,"current_range_meters":31200,"station_id":"ce4bhg12rcd13ifvqf70","pricing_plan_id":"free"},{"bike_id":"ba4017f2-d26c-4031-b34e-56f7e882d0e1","system_id":"levelo_inurba_marseille","lat":43.26552,"lon":5.37284,"is_reserved":false,"is_disabled":false,"rental_uris":{"android":"levelo://app?vid=ba4017f2-d26c-4031-b34e-56f7e882d0e1","ios":"levelo://app?vid=ba4017f2-d26c-4031-b34e-56f7e882d0e1"},"vehicle_type_id":"4","last_reported":1698588338,"current_range_meters":11600,"station_id":"ce4bhg12rcd13ifvqf70","pricing_plan_id":"free"},{"bike_id":"1234a1b4-d89c-4ae2-8a41-9c22dafa1c18","system_id":"levelo_inurba_marseille","lat":43.26552,"lon":5.372851,"is_reserved":false,"is_disabled":false,"rental_uris":{"android":"levelo://app?vid=1234a1b4-d89c-4ae2-8a41-9c22dafa1c18","ios":"levelo://app?vid=1234a1b4-d89c-4ae2-8a41-9c22dafa1c18"},"vehicle_type_id":"4","last_reported":1698588338,"current_range_meters":22400,"station_id":"ce4bhg12rcd13ifvqf70","pricing_plan_id":"free"},{"bike_id":"257c7ee0-6046-499b-b7a2-17bbbfe3947a","system_id":"levelo_inurba_marseille","lat":43.26552,"lon":5.37286,"is_reserved":false,"is_disabled":false,"rental_uris":{"android":"levelo://app?vid=257c7ee0-6046-499b-b7a2-17bbbfe3947a","ios":"levelo://app?vid=257c7ee0-6046-499b-b7a2-17bbbfe3947a"},"vehicle_type_id":"4","last_reported":1698588338,"current_range_meters":20800,"station_id":"ce4bhg12rcd13ifvqf70","pricing_plan_id":"free"},{"bike_id":"d76c4b2d-800f-4d30-a8a7-a189376a95c3","system_id":"levelo_inurba_marseille","lat":43.279961,"lon":5.416569,"is_reserved":false,"is_disabled":false,"rental_uris":{"android":"levelo://app?vid=d76c4b2d-800f-4d30-a8a7-a189376a95c3","ios":"levelo://app?vid=d76c4b2d-800f-4d30-a8a7-a189376a95c3"},"vehicle_type_id":"4","last_reported":1698588338,"current_range_meters":28400,"station_id":"ce4bho12rcd13ifvqh1g","pricing_plan_id":"free"},{"bike_id":"38b34bb4-c31f-48eb-b3a9-3d6331d360df","system_id":"levelo_inurba_marseille","lat":43.279995,"lon":5.416634,"is_reserved":false,"is_disabled":false,"rental_uris":{"android":"levelo://app?vid=38b34bb4-c31f-48eb-b3a9-3d6331d360df","ios":"levelo://app?vid=38b34bb4-c31f-48eb-b3a9-3d6331d360df"},"vehicle_type_id":"4","last_reported":1698588338,"current_range_meters":21200,"station_id":"ce4bho12rcd13ifvqh1g","pricing_plan_id":"free"},{"bike_id":"a627ab3d-3d6d-4b31-a48c-e9678c0e9d3f","system_id":"levelo_inurba_marseille","lat":43.279946,"lon":5.416579,"is_reserved":false,"is_disabled":false,"rental_uris":{"android":"levelo://app?vid=a627ab3d-3d6d-4b31-a48c-e9678c0e9d3f","ios":"levelo://app?vid=a627ab3d-3d6d-4b31-a48c-e9678c0e9d3f"},"vehicle_type_id":"4","last_reported":1698588338,"current_range_meters":26800,"station_id":"ce4bho12rcd13ifvqh1g","pricing_plan_id":"free"},{"bike_id":"e610933f-f657-4bb4-a514-3746cfe6b8b3","system_id":"levelo_inurba_marseille","lat":43.27992,"lon":5.416566,"is_reserved":false,"is_disabled":false,"rental_uris":{"android":"levelo://app?vid=e610933f-f657-4bb4-a514-3746cfe6b8b3","ios":"levelo://app?vid=e610933f-f657-4bb4-a514-3746cfe6b8b3"},"vehicle_type_id":"4","last_reported":1698588338,"current_range_meters":26400,"station_id":"ce4bho12rcd13ifvqh1g","pricing_plan_id":"free"},{"bike_id":"02c3d2a3-96a1-40bf-931b-41d3bec661f0","system_id":"levelo_inurba_marseille","lat":43.27992,"lon":5.41659,"is_reserved":false,"is_disabled":false,"rental_uris":{"android":"levelo://app?vid=02c3d2a3-96a1-40bf-931b-41d3bec661f0","ios":"levelo://app?vid=02c3d2a3-96a1-40bf-931b-41d3bec661f0"},"vehicle_type_id":"4","last_reported":1698588338,"current_range_meters":30400,"station_id":"ce4bho12rcd13ifvqh1g","pricing_plan_id":"free"},{"bike_id":"2687313b-4537-4b0d-956b-7965a5770ee1","system_id":"levelo_inurba_marseille","lat":43.328212,"lon":5.431596,"is_reserved":false,"is_disabled":false,"rental_uris":{"android":"levelo://app?vid=2687313b-4537-4b0d-956b-7965a5770ee1","ios":"levelo://app?vid=2687313b-4537-4b0d-956b-7965a5770ee1"},"vehicle_type_id":"4","last_reported":1698588338,"current_range_meters":15600,"station_id":"","pricing_plan_id":"free"},{"bike_id":"1cb3f577-fb04-4e28-a15d-87951d1577d9","system_id":"levelo_inurba_marseille","lat":43.308051,"lon":5.43527,"is_reserved":false,"is_disabled":false,"rental_uris":{"android":"levelo://app?vid=1cb3f577-fb04-4e28-a15d-87951d1577d9","ios":"levelo://app?vid=1cb3f577-fb04-4e28-a15d-87951d1577d9"},"vehicle_type_id":"4","last_reported":1698588338,"current_range_meters":27200,"station_id":"ce4bhph2rcd13ifvqheg","pricing_plan_id":"free"},{"bike_id":"7000f71a-2820-4372-ac03-f3cef5c79dca","system_id":"levelo_inurba_marseille","lat":43.26576,"lon":5.390143,"is_reserved":false,"is_disabled":false,"rental_uris":{"android":"levelo://app?vid=7000f71a-2820-4372-ac03-f3cef5c79dca","ios":"levelo://app?vid=7000f71a-2820-4372-ac03-f3cef5c79dca"},"vehicle_type_id":"4","last_reported":1698588338,"current_range_meters":30400,"station_id":"ce4bhe12rcd13ifvqf30","pricing_plan_id":"free"},{"bike_id":"65845971-d0c7-463b-b358-7eee340858da","system_id":"levelo_inurba_marseille","lat":43.2781,"lon":5.41654,"is_reserved":false,"is_disabled":false,"rental_uris":{"android":"levelo://app?vid=65845971-d0c7-463b-b358-7eee340858da","ios":"levelo://app?vid=65845971-d0c7-463b-b358-7eee340858da"},"vehicle_type_id":"4","last_reported":1698588338,"current_range_meters":17200,"station_id":"","pricing_plan_id":"free"},{"bike_id":"2d46cc0c-65c6-4834-956d-7090ad78794e","system_id":"levelo_inurba_marseille","lat":43.265434,"lon":5.389958,"is_reserved":false,"is_disabled":false,"rental_uris":{"android":"levelo://app?vid=2d46cc0c-65c6-4834-956d-7090ad78794e","ios":"levelo://app?vid=2d46cc0c-65c6-4834-956d-7090ad78794e"},"vehicle_type_id":"4","last_reported":1698588338,"current_range_meters":6000,"station_id":"ce4bhe12rcd13ifvqf30","pricing_plan_id":"free"},{"bike_id":"160e5d81-1669-440c-ba28-bc7fb9824630","system_id":"levelo_inurba_marseille","lat":43.26943,"lon":5.40245,"is_reserved":false,"is_disabled":false,"rental_uris":{"android":"levelo://app?vid=160e5d81-1669-440c-ba28-bc7fb9824630","ios":"levelo://app?vid=160e5d81-1669-440c-ba28-bc7fb9824630"},"vehicle_type_id":"4","last_reported":1698588338,"current_range_meters":20800,"station_id":"cjm6bp8fraef2m0cb0m0","pricing_plan_id":"free"},{"bike_id":"45ef9769-e3c1-4f9e-b204-2e6a0ab904cc","system_id":"levelo_inurba_marseille","lat":43.26939,"lon":5.40251,"is_reserved":false,"is_disabled":false,"rental_uris":{"android":"levelo://app?vid=45ef9769-e3c1-4f9e-b204-2e6a0ab904cc","ios":"levelo://app?vid=45ef9769-e3c1-4f9e-b204-2e6a0ab904cc"},"vehicle_type_id":"4","last_reported":1698588338,"current_range_meters":27600,"station_id":"cjm6bp8fraef2m0cb0m0","pricing_plan_id":"free"},{"bike_id":"2bb5d85e-0c84-41a2-b9d7-05c8930d80bf","system_id":"levelo_inurba_marseille","lat":43.269408,"lon":5.402563,"is_reserved":false,"is_disabled":false,"rental_uris":{"android":"levelo://app?vid=2bb5d85e-0c84-41a2-b9d7-05c8930d80bf","ios":"levelo://app?vid=2bb5d85e-0c84-41a2-b9d7-05c8930d80bf"},"vehicle_type_id":"4","last_reported":1698588338,"current_range_meters":23600,"station_id":"cjm6bp8fraef2m0cb0m0","pricing_plan_id":"free"},{"bike_id":"7b10437c-cfae-4327-b21f-5a820684a6c2","system_id":"levelo_inurba_marseille","lat":43.269389,"lon":5.402562,"is_reserved":false,"is_disabled":false,"rental_uris":{"android":"levelo://app?vid=7b10437c-cfae-4327-b21f-5a820684a6c2","ios":"levelo://app?vid=7b10437c-cfae-4327-b21f-5a820684a6c2"},"vehicle_type_id":"4","last_reported":1698588338,"current_range_meters":25600,"station_id":"cjm6bp8fraef2m0cb0m0","pricing_plan_id":"free"},{"bike_id":"6972960f-6ecd-4bd9-ace5-3c0d7d26ea39","system_id":"levelo_inurba_marseille","lat":43.331883,"lon":5.431859,"is_reserved":false,"is_disabled":false,"rental_uris":{"android":"levelo://app?vid=6972960f-6ecd-4bd9-ace5-3c0d7d26ea39","ios":"levelo://app?vid=6972960f-6ecd-4bd9-ace5-3c0d7d26ea39"},"vehicle_type_id":"4","last_reported":1698588338,"current_range_meters":0,"station_id":"","pricing_plan_id":"free"},{"bike_id":"45c5f447-58c3-4010-9243-79c09e267325","system_id":"levelo_inurba_marseille","lat":43.317104,"lon":5.436818,"is_reserved":false,"is_disabled":false,"rental_uris":{"android":"levelo://app?vid=45c5f447-58c3-4010-9243-79c09e267325","ios":"levelo://app?vid=45c5f447-58c3-4010-9243-79c09e267325"},"vehicle_type_id":"4","last_reported":1698588338,"current_range_meters":17200,"station_id":"ce4bhp92rcd13ifvqhcg","pricing_plan_id":"free"},{"bike_id":"379a37f8-5906-4962-b246-dcc5e1990ab5","system_id":"levelo_inurba_marseille","lat":43.26159,"lon":5.37306,"is_reserved":false,"is_disabled":false,"rental_uris":{"android":"levelo://app?vid=379a37f8-5906-4962-b246-dcc5e1990ab5","ios":"levelo://app?vid=379a37f8-5906-4962-b246-dcc5e1990ab5"},"vehicle_type_id":"4","last_reported":1698588338,"current_range_meters":21600,"station_id":"","pricing_plan_id":"free"},{"bike_id":"dd00137b-64e8-465a-acaa-33d2468f97ba","system_id":"levelo_inurba_marseille","lat":43.26202,"lon":5.379299,"is_reserved":false,"is_disabled":false,"rental_uris":{"android":"levelo://app?vid=dd00137b-64e8-465a-acaa-33d2468f97ba","ios":"levelo://app?vid=dd00137b-64e8-465a-acaa-33d2468f97ba"},"vehicle_type_id":"4","last_reported":1698588338,"current_range_meters":28800,"station_id":"ce4bhjp2rcd13ifvqg90","pricing_plan_id":"free"},{"bike_id":"452c0fa6-5be7-49b1-9dec-25d54584958f","system_id":"levelo_inurba_marseille","lat":43.271388,"lon":5.409269,"is_reserved":false,"is_disabled":false,"rental_uris":{"android":"levelo://app?vid=452c0fa6-5be7-49b1-9dec-25d54584958f","ios":"levelo://app?vid=452c0fa6-5be7-49b1-9dec-25d54584958f"},"vehicle_type_id":"4","last_reported":1698588338,"current_range_meters":13200,"station_id":"ce4bhl12rcd13ifvqgf0","pricing_plan_id":"free"},