{"last_updated":1777179070,"ttl":60,"version":"2.2","data":{"bikes":[{"bike_id":"77c42c67-1c0c-4f50-8a8b-8bc130b53e9b","system_id":"levelo_inurba_marseille","lat":43.31378,"lon":5.37225,"is_reserved":false,"is_disabled":false,"rental_uris":{"android":"levelo://app?vid=77c42c67-1c0c-4f50-8a8b-8bc130b53e9b","ios":"levelo://app?vid=77c42c67-1c0c-4f50-8a8b-8bc130b53e9b"},"vehicle_type_id":"4","last_reported":1777179071,"current_range_meters":2800,"station_id":"","pricing_plan_id":"cebpf4jnsgd1na2vs0mg"},{"bike_id":"c35ef435-7351-4292-8bd0-8be9078d3a7d","system_id":"levelo_inurba_marseille","lat":43.30943,"lon":5.39033,"is_reserved":false,"is_disabled":true,"rental_uris":{"android":"levelo://app?vid=c35ef435-7351-4292-8bd0-8be9078d3a7d","ios":"levelo://app?vid=c35ef435-7351-4292-8bd0-8be9078d3a7d"},"vehicle_type_id":"4","last_reported":1777179071,"current_range_meters":2800,"station_id":"ce4bgup2rcd13ifvqco0","pricing_plan_id":"cebpf4jnsgd1na2vs0mg"},{"bike_id":"74e18527-c63a-4927-add3-5ea35404ad1a","system_id":"levelo_inurba_marseille","lat":43.25072,"lon":5.3974,"is_reserved":false,"is_disabled":false,"rental_uris":{"android":"levelo://app?vid=74e18527-c63a-4927-add3-5ea35404ad1a","ios":"levelo://app?vid=74e18527-c63a-4927-add3-5ea35404ad1a"},"vehicle_type_id":"4","last_reported":1777179071,"current_range_meters":2800,"station_id":"","pricing_plan_id":"cebpf4jnsgd1na2vs0mg"},{"bike_id":"021c3599-d960-4255-bf18-8b3b47549997","system_id":"levelo_inurba_marseille","lat":43.30181,"lon":5.4308,"is_reserved":false,"is_disabled":false,"rental_uris":{"android":"levelo://app?vid=021c3599-d960-4255-bf18-8b3b47549997","ios":"levelo://app?vid=021c3599-d960-4255-bf18-8b3b47549997"},"vehicle_type_id":"4","last_reported":1777179071,"current_range_meters":2800,"station_id":"","pricing_plan_id":"cebpf4jnsgd1na2vs0mg"},{"bike_id":"2819c843-5932-40f6-8bae-f669751e2d4f","system_id":"levelo_inurba_marseille","lat":43.24815,"lon":5.37458,"is_reserved":false,"is_disabled":false,"rental_uris":{"android":"levelo://app?vid=2819c843-5932-40f6-8bae-f669751e2d4f","ios":"levelo://app?vid=2819c843-5932-40f6-8bae-f669751e2d4f"},"vehicle_type_id":"4","last_reported":1777179071,"current_range_meters":2800,"station_id":"ce4bhgh2rcd13ifvqfb0","pricing_plan_id":"cebpf4jnsgd1na2vs0mg"},{"bike_id":"100957f5-1e21-452c-989e-3ce86a522bf5","system_id":"levelo_inurba_marseille","lat":43.31312,"lon":5.41605,"is_reserved":false,"is_disabled":false,"rental_uris":{"android":"levelo://app?vid=100957f5-1e21-452c-989e-3ce86a522bf5","ios":"levelo://app?vid=100957f5-1e21-452c-989e-3ce86a522bf5"},"vehicle_type_id":"4","last_reported":1777179071,"current_range_meters":2800,"station_id":"","pricing_plan_id":"cebpf4jnsgd1na2vs0mg"},{"bike_id":"b2674f6d-a684-4c0e-a1d8-c5e0a7e2942c","system_id":"levelo_inurba_marseille","lat":43.29548,"lon":5.38549,"is_reserved":false,"is_disabled":false,"rental_uris":{"android":"levelo://app?vid=b2674f6d-a684-4c0e-a1d8-c5e0a7e2942c","ios":"levelo://app?vid=b2674f6d-a684-4c0e-a1d8-c5e0a7e2942c"},"vehicle_type_id":"4","last_reported":1777179071,"current_range_meters":2800,"station_id":"ce4bgih2rcd13ifvqba0","pricing_plan_id":"cebpf4jnsgd1na2vs0mg"},{"bike_id":"f8b71621-9ee0-4284-b9b2-be8fa047ba8a","system_id":"levelo_inurba_marseille","lat":43.30125,"lon":5.43124,"is_reserved":false,"is_disabled":false,"rental_uris":{"android":"levelo://app?vid=f8b71621-9ee0-4284-b9b2-be8fa047ba8a","ios":"levelo://app?vid=f8b71621-9ee0-4284-b9b2-be8fa047ba8a"},"vehicle_type_id":"4","last_reported":1777179071,"current_range_meters":2800,"station_id":"st_d3js3co5814s73ftftug","pricing_plan_id":"cebpf4jnsgd1na2vs0mg"},{"bike_id":"931d703e-4043-4cf3-8b49-a4394f33276a","system_id":"levelo_inurba_marseille","lat":43.27805,"lon":5.40723,"is_reserved":false,"is_disabled":false,"rental_uris":{"android":"levelo://app?vid=931d703e-4043-4cf3-8b49-a4394f33276a","ios":"levelo://app?vid=931d703e-4043-4cf3-8b49-a4394f33276a"},"vehicle_type_id":"4","last_reported":1777179071,"current_range_meters":2800,"station_id":"ce4bhnh2rcd13ifvqgtg","pricing_plan_id":"cebpf4jnsgd1na2vs0mg"},{"bike_id":"e243155c-2775-42d9-9d4e-ad6e7e6fab95","system_id":"levelo_inurba_marseille","lat":43.23889,"lon":5.37456,"is_reserved":false,"is_disabled":false,"rental_uris":{"android":"levelo://app?vid=e243155c-2775-42d9-9d4e-ad6e7e6fab95","ios":"levelo://app?vid=e243155c-2775-42d9-9d4e-ad6e7e6fab95"},"vehicle_type_id":"4","last_reported":1777179071,"current_range_meters":2800,"station_id":"","pricing_plan_id":"cebpf4jnsgd1na2vs0mg"},{"bike_id":"8c8d3a1e-3e2c-407c-b8ad-af868cc54226","system_id":"levelo_inurba_marseille","lat":43.294882,"lon":5.393907,"is_reserved":false,"is_disabled":false,"rental_uris":{"android":"levelo://app?vid=8c8d3a1e-3e2c-407c-b8ad-af868cc54226","ios":"levelo://app?vid=8c8d3a1e-3e2c-407c-b8ad-af868cc54226"},"vehicle_type_id":"4","last_reported":1777179071,"current_range_meters":3200,"station_id":"","pricing_plan_id":"cebpf4jnsgd1na2vs0mg"},{"bike_id":"229e4557-384d-4a68-9d9c-a426b264692f","system_id":"levelo_inurba_marseille","lat":43.26027,"lon":5.37557,"is_reserved":false,"is_disabled":false,"rental_uris":{"android":"levelo://app?vid=229e4557-384d-4a68-9d9c-a426b264692f","ios":"levelo://app?vid=229e4557-384d-4a68-9d9c-a426b264692f"},"vehicle_type_id":"4","last_reported":1777179071,"current_range_meters":3200,"station_id":"ce4bhgh2rcd13ifvqfa0","pricing_plan_id":"cebpf4jnsgd1na2vs0mg"},{"bike_id":"a3dee876-3af2-46d4-9131-1dd0997e500a","system_id":"levelo_inurba_marseille","lat":43.24402,"lon":5.37066,"is_reserved":false,"is_disabled":true,"rental_uris":{"android":"levelo://app?vid=a3dee876-3af2-46d4-9131-1dd0997e500a","ios":"levelo://app?vid=a3dee876-3af2-46d4-9131-1dd0997e500a"},"vehicle_type_id":"4","last_reported":1777179071,"current_range_meters":3200,"station_id":"ce4bhhh2rcd13ifvqfk0","pricing_plan_id":"cebpf4jnsgd1na2vs0mg"},{"bike_id":"5091d3df-140a-4a96-ba1e-f44ab742c57b","system_id":"levelo_inurba_marseille","lat":43.23191,"lon":5.3999,"is_reserved":false,"is_disabled":true,"rental_uris":{"android":"levelo://app?vid=5091d3df-140a-4a96-ba1e-f44ab742c57b","ios":"levelo://app?vid=5091d3df-140a-4a96-ba1e-f44ab742c57b"},"vehicle_type_id":"4","last_reported":1777179071,"current_range_meters":3200,"station_id":"ce4bhn12rcd13ifvqgqg","pricing_plan_id":"cebpf4jnsgd1na2vs0mg"},{"bike_id":"0f2cf9e4-d965-4fa3-9b24-a683c9850ccf","system_id":"levelo_inurba_marseille","lat":43.30479,"lon":5.37357,"is_reserved":false,"is_disabled":false,"rental_uris":{"android":"levelo://app?vid=0f2cf9e4-d965-4fa3-9b24-a683c9850ccf","ios":"levelo://app?vid=0f2cf9e4-d965-4fa3-9b24-a683c9850ccf"},"vehicle_type_id":"4","last_reported":1777179071,"current_range_meters":3200,"station_id":"","pricing_plan_id":"cebpf4jnsgd1na2vs0mg"},{"bike_id":"f645e30b-5616-45b3-a17d-faf4a49d971d","system_id":"levelo_inurba_marseille","lat":43.31,"lon":5.37533,"is_reserved":false,"is_disabled":false,"rental_uris":{"android":"levelo://app?vid=f645e30b-5616-45b3-a17d-faf4a49d971d","ios":"levelo://app?vid=f645e30b-5616-45b3-a17d-faf4a49d971d"},"vehicle_type_id":"4","last_reported":1777179071,"current_range_meters":3600,"station_id":"","pricing_plan_id":"cebpf4jnsgd1na2vs0mg"},{"bike_id":"45ad0d0e-efdd-4c05-bbcd-19b309dc3892","system_id":"levelo_inurba_marseille","lat":43.27998,"lon":5.41664,"is_reserved":false,"is_disabled":false,"rental_uris":{"android":"levelo://app?vid=45ad0d0e-efdd-4c05-bbcd-19b309dc3892","ios":"levelo://app?vid=45ad0d0e-efdd-4c05-bbcd-19b309dc3892"},"vehicle_type_id":"4","last_reported":1777179071,"current_range_meters":3600,"station_id":"ce4bho12rcd13ifvqh1g","pricing_plan_id":"cebpf4jnsgd1na2vs0mg"},{"bike_id":"68e8032b-cde0-4866-a7f8-ca3872527ef7","system_id":"levelo_inurba_marseille","lat":43.28506,"lon":5.38451,"is_reserved":false,"is_disabled":false,"rental_uris":{"android":"levelo://app?vid=68e8032b-cde0-4866-a7f8-ca3872527ef7","ios":"levelo://app?vid=68e8032b-cde0-4866-a7f8-ca3872527ef7"},"vehicle_type_id":"4","last_reported":1777179071,"current_range_meters":3600,"station_id":"ce4bh512rcd13ifvqe3g","pricing_plan_id":"cebpf4jnsgd1na2vs0mg"},{"bike_id":"75471a09-e4ee-4438-b4e9-ebcc3c66f359","system_id":"levelo_inurba_marseille","lat":43.21183,"lon":5.35096,"is_reserved":false,"is_disabled":false,"rental_uris":{"android":"levelo://app?vid=75471a09-e4ee-4438-b4e9-ebcc3c66f359","ios":"levelo://app?vid=75471a09-e4ee-4438-b4e9-ebcc3c66f359"},"vehicle_type_id":"4","last_reported":1777179071,"current_range_meters":3600,"station_id":"st_cvj6sg6p6f1abm77japg","pricing_plan_id":"cebpf4jnsgd1na2vs0mg"},{"bike_id":"aac02f88-2943-44c0-9e61-860a24c009bc","system_id":"levelo_inurba_marseille","lat":43.29258,"lon":5.40187,"is_reserved":false,"is_disabled":false,"rental_uris":{"android":"levelo://app?vid=aac02f88-2943-44c0-9e61-860a24c009bc","ios":"levelo://app?vid=aac02f88-2943-44c0-9e61-860a24c009bc"},"vehicle_type_id":"4","last_reported":1777179071,"current_range_meters":3600,"station_id":"ce4bh312rcd13ifvqdk0","pricing_plan_id":"cebpf4jnsgd1na2vs0mg"},{"bike_id":"ab6f758a-3eca-407e-a136-980b0d3ef21b","system_id":"levelo_inurba_marseille","lat":43.29883,"lon":5.3973,"is_reserved":false,"is_disabled":false,"rental_uris":{"android":"levelo://app?vid=ab6f758a-3eca-407e-a136-980b0d3ef21b","ios":"levelo://app?vid=ab6f758a-3eca-407e-a136-980b0d3ef21b"},"vehicle_type_id":"4","last_reported":1777179071,"current_range_meters":3600,"station_id":"ce4bh0h2rcd13ifvqd50","pricing_plan_id":"cebpf4jnsgd1na2vs0mg"},{"bike_id":"c6e7d3cb-7e19-483f-a191-0c88543be223","system_id":"levelo_inurba_marseille","lat":43.30134,"lon":5.39075,"is_reserved":false,"is_disabled":false,"rental_uris":{"android":"levelo://app?vid=c6e7d3cb-7e19-483f-a191-0c88543be223","ios":"levelo://app?vid=c6e7d3cb-7e19-483f-a191-0c88543be223"},"vehicle_type_id":"4","last_reported":1777179071,"current_range_meters":3600,"station_id":"","pricing_plan_id":"cebpf4jnsgd1na2vs0mg"},{"bike_id":"318b0f19-64fa-4af9-92a2-6b5d9e2e4a7b","system_id":"levelo_inurba_marseille","lat":43.21188,"lon":5.35074,"is_reserved":false,"is_disabled":false,"rental_uris":{"android":"levelo://app?vid=318b0f19-64fa-4af9-92a2-6b5d9e2e4a7b","ios":"levelo://app?vid=318b0f19-64fa-4af9-92a2-6b5d9e2e4a7b"},"vehicle_type_id":"4","last_reported":1777179071,"current_range_meters":3600,"station_id":"st_cvj6sg6p6f1abm77japg","pricing_plan_id":"cebpf4jnsgd1na2vs0mg"},{"bike_id":"6b498e23-233c-44e7-bdf2-4e8481886ee3","system_id":"levelo_inurba_marseille","lat":43.25497,"lon":5.3765,"is_reserved":false,"is_disabled":false,"rental_uris":{"android":"levelo://app?vid=6b498e23-233c-44e7-bdf2-4e8481886ee3","ios":"levelo://app?vid=6b498e23-233c-44e7-bdf2-4e8481886ee3"},"vehicle_type_id":"4","last_reported":1777179071,"current_range_meters":3600,"station_id":"ce4bhh12rcd13ifvqff0","pricing_plan_id":"cebpf4jnsgd1na2vs0mg"},{"bike_id":"26588d92-9c0a-4e9d-9c77-864123119f50","system_id":"levelo_inurba_marseille","lat":43.24394,"lon":5.37064,"is_reserved":false,"is_disabled":false,"rental_uris":{"android":"levelo://app?vid=26588d92-9c0a-4e9d-9c77-864123119f50","ios":"levelo://app?vid=26588d92-9c0a-4e9d-9c77-864123119f50"},"vehicle_type_id":"4","last_reported":1777179071,"current_range_meters":3600,"station_id":"ce4bhhh2rcd13ifvqfk0","pricing_plan_id":"cebpf4jnsgd1na2vs0mg"},{"bike_id":"ed395cef-1ea4-40d0-b29f-5f792c9147d0","system_id":"levelo_inurba_marseille","lat":43.25639,"lon":5.41847,"is_reserved":false,"is_disabled":false,"rental_uris":{"android":"levelo://app?vid=ed395cef-1ea4-40d0-b29f-5f792c9147d0","ios":"levelo://app?vid=ed395cef-1ea4-40d0-b29f-5f792c9147d0"},"vehicle_type_id":"4","last_reported":1777179071,"current_range_meters":3600,"station_id":"","pricing_plan_id":"cebpf4jnsgd1na2vs0mg"},{"bike_id":"0ce641a1-ca62-4f05-b894-4a72f77b98f2","system_id":"levelo_inurba_marseille","lat":43.3235,"lon":5.36743,"is_reserved":false,"is_disabled":false,"rental_uris":{"android":"levelo://app?vid=0ce641a1-ca62-4f05-b894-4a72f77b98f2","ios":"levelo://app?vid=0ce641a1-ca62-4f05-b894-4a72f77b98f2"},"vehicle_type_id":"4","last_reported":1777179071,"current_range_meters":4000,"station_id":"ce4bhsh2rcd13ifvqi2g","pricing_plan_id":"cebpf4jnsgd1na2vs0mg"},{"bike_id":"c639e9dd-379a-46f8-b469-b2b3bc25eac4","system_id":"levelo_inurba_marseille","lat":43.28963,"lon":5.35602,"is_reserved":false,"is_disabled":true,"rental_uris":{"android":"levelo://app?vid=c639e9dd-379a-46f8-b469-b2b3bc25eac4","ios":"levelo://app?vid=c639e9dd-379a-46f8-b469-b2b3bc25eac4"},"vehicle_type_id":"4","last_reported":1777179071,"current_range_meters":4000,"station_id":"","pricing_plan_id":"cebpf4jnsgd1na2vs0mg"},{"bike_id":"d70320f1-5e83-436f-822f-c8457a777236","system_id":"levelo_inurba_marseille","lat":43.26211,"lon":5.4049,"is_reserved":false,"is_disabled":false,"rental_uris":{"android":"levelo://app?vid=d70320f1-5e83-436f-822f-c8457a777236","ios":"levelo://app?vid=d70320f1-5e83-436f-822f-c8457a777236"},"vehicle_type_id":"4","last_reported":1777179071,"current_range_meters":4000,"station_id":"ce4bhmh2rcd13ifvqgmg","pricing_plan_id":"cebpf4jnsgd1na2vs0mg"},{"bike_id":"9bcb5bad-dbb2-431c-9005-5d79941461cd","system_id":"levelo_inurba_marseille","lat":43.24392,"lon":5.37068,"is_reserved":false,"is_disabled":false,"rental_uris":{"android":"levelo://app?vid=9bcb5bad-dbb2-431c-9005-5d79941461cd","ios":"levelo://app?vid=9bcb5bad-dbb2-431c-9005-5d79941461cd"},"vehicle_type_id":"4","last_reported":1777179071,"current_range_meters":4000,"station_id":"ce4bhhh2rcd13ifvqfk0","pricing_plan_id":"cebpf4jnsgd1na2vs0mg"},{"bike_id":"3c21f0ef-7f78-49a9-8bbf-12a3b7f18f2e","system_id":"levelo_inurba_marseille","lat":43.27489,"lon":5.42447,"is_reserved":false,"is_disabled":false,"rental_uris":{"android":"levelo://app?vid=3c21f0ef-7f78-49a9-8bbf-12a3b7f18f2e","ios":"levelo://app?vid=3c21f0ef-7f78-49a9-8bbf-12a3b7f18f2e"},"vehicle_type_id":"4","last_reported":1777179071,"current_range_meters":4000,"station_id":"ce4bhn92rcd13ifvqgrg","pricing_plan_id":"cebpf4jnsgd1na2vs0mg"},{"bike_id":"b7808ecd-7c49-495a-ae8b-eadddd23df3d","system_id":"levelo_inurba_marseille","lat":43.29061,"lon":5.37156,"is_reserved":false,"is_disabled":false,"rental_uris":{"android":"levelo://app?vid=b7808ecd-7c49-495a-ae8b-eadddd23df3d","ios":"levelo://app?vid=b7808ecd-7c49-495a-ae8b-eadddd23df3d"},"vehicle_type_id":"4","last_reported":1777179071,"current_range_meters":4000,"station_id":"ce4bh5p2rcd13ifvqe4g","pricing_plan_id":"cebpf4jnsgd1na2vs0mg"},{"bike_id":"e5708470-62e9-4d64-a45f-a0cac4d1b2a0","system_id":"levelo_inurba_marseille","lat":43.262094,"lon":5.374404,"is_reserved":false,"is_disabled":true,"rental_uris":{"android":"levelo://app?vid=e5708470-62e9-4d64-a45f-a0cac4d1b2a0","ios":"levelo://app?vid=e5708470-62e9-4d64-a45f-a0cac4d1b2a0"},"vehicle_type_id":"4","last_reported":1777179071,"current_range_meters":4000,"station_id":"ce4bhgp2rcd13ifvqfc0","pricing_plan_id":"cebpf4jnsgd1na2vs0mg"},{"bike_id":"008d0ebd-86b1-42a9-92a3-bd520d96b1d4","system_id":"levelo_inurba_marseille","lat":43.26968,"lon":5.3864,"is_reserved":false,"is_disabled":false,"rental_uris":{"android":"levelo://app?vid=008d0ebd-86b1-42a9-92a3-bd520d96b1d4","ios":"levelo://app?vid=008d0ebd-86b1-42a9-92a3-bd520d96b1d4"},"vehicle_type_id":"4","last_reported":1777179071,"current_range_meters":4400,"station_id":"ce4bhh92rcd13ifvqfh0","pricing_plan_id":"cebpf4jnsgd1na2vs0mg"},{"bike_id":"8d087c60-78e6-40f1-847c-41984b3a6f63","system_id":"levelo_inurba_marseille","lat":43.24817,"lon":5.37473,"is_reserved":false,"is_disabled":false,"rental_uris":{"android":"levelo://app?vid=8d087c60-78e6-40f1-847c-41984b3a6f63","ios":"levelo://app?vid=8d087c60-78e6-40f1-847c-41984b3a6f63"},"vehicle_type_id":"4","last_reported":1777179071,"current_range_meters":4400,"station_id":"ce4bhgh2rcd13ifvqfb0","pricing_plan_id":"cebpf4jnsgd1na2vs0mg"},{"bike_id":"90610949-5042-40f1-8252-076aeddd7d81","system_id":"levelo_inurba_marseille","lat":43.31885,"lon":5.36807,"is_reserved":false,"is_disabled":false,"rental_uris":{"android":"levelo://app?vid=90610949-5042-40f1-8252-076aeddd7d81","ios":"levelo://app?vid=90610949-5042-40f1-8252-076aeddd7d81"},"vehicle_type_id":"4","last_reported":1777179071,"current_range_meters":4400,"station_id":"st_d6o2h0d0559c73evc1b0","pricing_plan_id":"cebpf4jnsgd1na2vs0mg"},{"bike_id":"15815817-f529-4745-88e8-c2811e1eae5e","system_id":"levelo_inurba_marseille","lat":43.31259,"lon":5.40165,"is_reserved":false,"is_disabled":false,"rental_uris":{"android":"levelo://app?vid=15815817-f529-4745-88e8-c2811e1eae5e","ios":"levelo://app?vid=15815817-f529-4745-88e8-c2811e1eae5e"},"vehicle_type_id":"4","last_reported":1777179071,"current_range_meters":4400,"station_id":"ce4bh092rcd13ifvqd30","pricing_plan_id":"cebpf4jnsgd1na2vs0mg"},{"bike_id":"47cdfd85-c850-4193-aaa5-b5a23a2b2f3d","system_id":"levelo_inurba_marseille","lat":43.31096,"lon":5.37235,"is_reserved":false,"is_disabled":false,"rental_uris":{"android":"levelo://app?vid=47cdfd85-c850-4193-aaa5-b5a23a2b2f3d","ios":"levelo://app?vid=47cdfd85-c850-4193-aaa5-b5a23a2b2f3d"},"vehicle_type_id":"4","last_reported":1777179071,"current_range_meters":4400,"station_id":"st_d4kl2rp97mjs73e7tdfg","pricing_plan_id":"cebpf4jnsgd1na2vs0mg"},{"bike_id":"724d0869-017c-4e7e-9911-705be0df09b1","system_id":"levelo_inurba_marseille","lat":43.29645,"lon":5.38033,"is_reserved":false,"is_disabled":false,"rental_uris":{"android":"levelo://app?vid=724d0869-017c-4e7e-9911-705be0df09b1","ios":"levelo://app?vid=724d0869-017c-4e7e-9911-705be0df09b1"},"vehicle_type_id":"4","last_reported":1777179071,"current_range_meters":4400,"station_id":"","pricing_plan_id":"cebpf4jnsgd1na2vs0mg"},{"bike_id":"5764bbec-ad28-443f-ba05-86ed46bc41bf","system_id":"levelo_inurba_marseille","lat":43.24815,"lon":5.37475,"is_reserved":false,"is_disabled":false,"rental_uris":{"android":"levelo://app?vid=5764bbec-ad28-443f-ba05-86ed46bc41bf","ios":"levelo://app?vid=5764bbec-ad28-443f-ba05-86ed46bc41bf"},"vehicle_type_id":"4","last_reported":1777179071,"current_range_meters":4400,"station_id":"ce4bhgh2rcd13ifvqfb0","pricing_plan_id":"cebpf4jnsgd1na2vs0mg"},{"bike_id":"eeebb936-b5b7-45d3-a735-157ee3ffcadc","system_id":"levelo_inurba_marseille","lat":43.27477,"lon":5.42455,"is_reserved":false,"is_disabled":false,"rental_uris":{"android":"levelo://app?vid=eeebb936-b5b7-45d3-a735-157ee3ffcadc","ios":"levelo://app?vid=eeebb936-b5b7-45d3-a735-157ee3ffcadc"},"vehicle_type_id":"4","last_reported":1777179071,"current_range_meters":4400,"station_id":"ce4bhn92rcd13ifvqgrg","pricing_plan_id":"cebpf4jnsgd1na2vs0mg"},{"bike_id":"25208a2a-f4bf-4534-b534-5cdf57ee0b64","system_id":"levelo_inurba_marseille","lat":43.30915,"lon":5.40138,"is_reserved":false,"is_disabled":true,"rental_uris":{"android":"levelo://app?vid=25208a2a-f4bf-4534-b534-5cdf57ee0b64","ios":"levelo://app?vid=25208a2a-f4bf-4534-b534-5cdf57ee0b64"},"vehicle_type_id":"4","last_reported":1777179071,"current_range_meters":4400,"station_id":"ce4bgvp2rcd13ifvqct0","pricing_plan_id":"cebpf4jnsgd1na2vs0mg"},{"bike_id":"e53875db-8fb1-4310-88b3-479047493865","system_id":"levelo_inurba_marseille","lat":43.26239,"lon":5.40444,"is_reserved":false,"is_disabled":false,"rental_uris":{"android":"levelo://app?vid=e53875db-8fb1-4310-88b3-479047493865","ios":"levelo://app?vid=e53875db-8fb1-4310-88b3-479047493865"},"vehicle_type_id":"4","last_reported":1777179071,"current_range_meters":4400,"station_id":"ce4bhmh2rcd13ifvqgmg","pricing_plan_id":"cebpf4jnsgd1na2vs0mg"},{"bike_id":"eb11a421-6108-4872-ae92-51981318b67d","system_id":"levelo_inurba_marseille","lat":43.23959,"lon":5.36624,"is_reserved":false,"is_disabled":false,"rental_uris":{"android":"levelo://app?vid=eb11a421-6108-4872-ae92-51981318b67d","ios":"levelo://app?vid=eb11a421-6108-4872-ae92-51981318b67d"},"vehicle_type_id":"4","last_reported":1777179071,"current_range_meters":4800,"station_id":"ce4bhi12rcd13ifvqfp0","pricing_plan_id":"cebpf4jnsgd1na2vs0mg"},{"bike_id":"35f763f0-2040-4017-9c4b-1f9f4cbf81cc","system_id":"levelo_inurba_marseille","lat":43.29682,"lon":5.36615,"is_reserved":false,"is_disabled":true,"rental_uris":{"android":"levelo://app?vid=35f763f0-2040-4017-9c4b-1f9f4cbf81cc","ios":"levelo://app?vid=35f763f0-2040-4017-9c4b-1f9f4cbf81cc"},"vehicle_type_id":"4","last_reported":1777179071,"current_range_meters":4800,"station_id":"ce4bgn12rcd13ifvqbt0","pricing_plan_id":"cebpf4jnsgd1na2vs0mg"},{"bike_id":"548e4a82-32b2-49d2-a8d0-a6b1676f8a48","system_id":"levelo_inurba_marseille","lat":43.32476,"lon":5.36564,"is_reserved":false,"is_disabled":false,"rental_uris":{"android":"levelo://app?vid=548e4a82-32b2-49d2-a8d0-a6b1676f8a48","ios":"levelo://app?vid=548e4a82-32b2-49d2-a8d0-a6b1676f8a48"},"vehicle_type_id":"4","last_reported":1777179071,"current_range_meters":4800,"station_id":"ce4bhs12rcd13ifvqhvg","pricing_plan_id":"cebpf4jnsgd1na2vs0mg"},{"bike_id":"c2a19799-f2f0-472a-a7f0-eb79008af8c3","system_id":"levelo_inurba_marseille","lat":43.31353,"lon":5.36888,"is_reserved":false,"is_disabled":false,"rental_uris":{"android":"levelo://app?vid=c2a19799-f2f0-472a-a7f0-eb79008af8c3","ios":"levelo://app?vid=c2a19799-f2f0-472a-a7f0-eb79008af8c3"},"vehicle_type_id":"4","last_reported":1777179071,"current_range_meters":4800,"station_id":"ce4bgr92rcd13ifvqc6g","pricing_plan_id":"cebpf4jnsgd1na2vs0mg"},{"bike_id":"c0c5f549-d55a-40a7-bb49-6eb0b1139cc6","system_id":"levelo_inurba_marseille","lat":43.31249,"lon":5.3716,"is_reserved":false,"is_disabled":false,"rental_uris":{"android":"levelo://app?vid=c0c5f549-d55a-40a7-bb49-6eb0b1139cc6","ios":"levelo://app?vid=c0c5f549-d55a-40a7-bb49-6eb0b1139cc6"},"vehicle_type_id":"4","last_reported":1777179071,"current_range_meters":4800,"station_id":"","pricing_plan_id":"cebpf4jnsgd1na2vs0mg"},{"bike_id":"40d69b45-a292-4d7d-b8e6-837b8b5a9d0c","system_id":"levelo_inurba_marseille","lat":43.2847,"lon":5.48413,"is_reserved":false,"is_disabled":false,"rental_uris":{"android":"levelo://app?vid=40d69b45-a292-4d7d-b8e6-837b8b5a9d0c","ios":"levelo://app?vid=40d69b45-a292-4d7d-b8e6-837b8b5a9d0c"},"vehicle_type_id":"4","last_reported":1777179071,"current_range_meters":4800,"station_id":"","pricing_plan_id":"cebpf4jnsgd1na2vs0mg"},{"bike_id":"6b228a66-7f85-41f8-990d-b6ec59786856","system_id":"levelo_inurba_marseille","lat":43.25572,"lon":5.3824,"is_reserved":false,"is_disabled":false,"rental_uris":{"android":"levelo://app?vid=6b228a66-7f85-41f8-990d-b6ec59786856","ios":"levelo://app?vid=6b228a66-7f85-41f8-990d-b6ec59786856"},"vehicle_type_id":"4","last_reported":1777179071,"current_range_meters":4800,"station_id":"ce4bhih2rcd13ifvqfs0","pricing_plan_id":"cebpf4jnsgd1na2vs0mg"},{"bike_id":"beb35a66-2a0b-4c30-9c87-55becd2d8005","system_id":"levelo_inurba_marseille","lat":43.28485,"lon":5.38469,"is_reserved":false,"is_disabled":false,"rental_uris":{"android":"levelo://app?vid=beb35a66-2a0b-4c30-9c87-55becd2d8005","ios":"levelo://app?vid=beb35a66-2a0b-4c30-9c87-55becd2d8005"},"vehicle_type_id":"4","last_reported":1777179071,"current_range_meters":4800,"station_id":"ce4bh512rcd13ifvqe3g","pricing_plan_id":"cebpf4jnsgd1na2vs0mg"},{"bike_id":"00cadce8-7903-4092-8b5c-5695ce27b5b2","system_id":"levelo_inurba_marseille","lat":43.295,"lon":5.38565,"is_reserved":false,"is_disabled":true,"rental_uris":{"android":"levelo://app?vid=00cadce8-7903-4092-8b5c-5695ce27b5b2","ios":"levelo://app?vid=00cadce8-7903-4092-8b5c-5695ce27b5b2"},"vehicle_type_id":"4","last_reported":1777179071,"current_range_meters":4800,"station_id":"ce4bgih2rcd13ifvqba0","pricing_plan_id":"cebpf4jnsgd1na2vs0mg"},{"bike_id":"541dbded-315f-4ca8-ac49-47fcb4294bb7","system_id":"levelo_inurba_marseille","lat":43.33538,"lon":5.37466,"is_reserved":false,"is_disabled":false,"rental_uris":{"android":"levelo://app?vid=541dbded-315f-4ca8-ac49-47fcb4294bb7","ios":"levelo://app?vid=541dbded-315f-4ca8-ac49-47fcb4294bb7"},"vehicle_type_id":"4","last_reported":1777179071,"current_range_meters":4800,"station_id":"st_d46tts09ee8s73dlu43g","pricing_plan_id":"cebpf4jnsgd1na2vs0mg"},{"bike_id":"28dc652e-391e-4daa-a243-946582e83158","system_id":"levelo_inurba_marseille","lat":43.31703,"lon":5.40482,"is_reserved":false,"is_disabled":false,"rental_uris":{"android":"levelo://app?vid=28dc652e-391e-4daa-a243-946582e83158","ios":"levelo://app?vid=28dc652e-391e-4daa-a243-946582e83158"},"vehicle_type_id":"4","last_reported":1777179071,"current_range_meters":4800,"station_id":"ce4bh012rcd13ifvqd00","pricing_plan_id":"cebpf4jnsgd1na2vs0mg"},{"bike_id":"64ac9fae-b475-417f-a34c-330f1877ccbc","system_id":"levelo_inurba_marseille","lat":43.2861,"lon":5.3989,"is_reserved":false,"is_disabled":false,"rental_uris":{"android":"levelo://app?vid=64ac9fae-b475-417f-a34c-330f1877ccbc","ios":"levelo://app?vid=64ac9fae-b475-417f-a34c-330f1877ccbc"},"vehicle_type_id":"4","last_reported":1777179071,"current_range_meters":4800,"station_id":"st_d4a7ka997mjs738ck50g","pricing_plan_id":"cebpf4jnsgd1na2vs0mg"},{"bike_id":"0852722a-7690-41d8-85ee-3e7c6221932f","system_id":"levelo_inurba_marseille","lat":43.24557,"lon":5.39538,"is_reserved":false,"is_disabled":false,"rental_uris":{"android":"levelo://app?vid=0852722a-7690-41d8-85ee-3e7c6221932f","ios":"levelo://app?vid=0852722a-7690-41d8-85ee-3e7c6221932f"},"vehicle_type_id":"4","last_reported":1777179071,"current_range_meters":4800,"station_id":"ce4bhlp2rcd13ifvqgjg","pricing_plan_id":"cebpf4jnsgd1na2vs0mg"},{"bike_id":"1b529109-add0-4c33-914f-a5e1836723a0","system_id":"levelo_inurba_marseille","lat":43.23197,"lon":5.3997,"is_reserved":false,"is_disabled":false,"rental_uris":{"android":"levelo://app?vid=1b529109-add0-4c33-914f-a5e1836723a0","ios":"levelo://app?vid=1b529109-add0-4c33-914f-a5e1836723a0"},"vehicle_type_id":"4","last_reported":1777179071,"current_range_meters":4800,"station_id":"ce4bhn12rcd13ifvqgqg","pricing_plan_id":"cebpf4jnsgd1na2vs0mg"},{"bike_id":"12c7b883-3105-45cd-b0e0-1a2a2fc1bd18","system_id":"levelo_inurba_marseille","lat":43.28635,"lon":5.39908,"is_reserved":false,"is_disabled":false,"rental_uris":{"android":"levelo://app?vid=12c7b883-3105-45cd-b0e0-1a2a2fc1bd18","ios":"levelo://app?vid=12c7b883-3105-45cd-b0e0-1a2a2fc1bd18"},"vehicle_type_id":"4","last_reported":1777179071,"current_range_meters":5600,"station_id":"st_d4a7ka997mjs738ck50g","pricing_plan_id":"cebpf4jnsgd1na2vs0mg"},{"bike_id":"06558e5b-846f-4e20-b375-c8972d75dc5a","system_id":"levelo_inurba_marseille","lat":43.27329,"lon":5.43102,"is_reserved":false,"is_disabled":false,"rental_uris":{"android":"levelo://app?vid=06558e5b-846f-4e20-b375-c8972d75dc5a","ios":"levelo://app?vid=06558e5b-846f-4e20-b375-c8972d75dc5a"},"vehicle_type_id":"4","last_reported":1777179071,"current_range_meters":5600,"station_id":"","pricing_plan_id":"cebpf4jnsgd1na2vs0mg"},{"bike_id":"0cd2fd7c-6402-466e-aa1b-fa186d7a7ed3","system_id":"levelo_inurba_marseille","lat":43.33194,"lon":5.37792,"is_reserved":false,"is_disabled":false,"rental_uris":{"android":"levelo://app?vid=0cd2fd7c-6402-466e-aa1b-fa186d7a7ed3","ios":"levelo://app?vid=0cd2fd7c-6402-466e-aa1b-fa186d7a7ed3"},"vehicle_type_id":"4","last_reported":1777179071,"current_range_meters":6000,"station_id":"","pricing_plan_id":"cebpf4jnsgd1na2vs0mg"},{"bike_id":"2b233eb4-2eeb-42bb-9ad0-67e2d68b88c2","system_id":"levelo_inurba_marseille","lat":43.3173,"lon":5.42398,"is_reserved":false,"is_disabled":false,"rental_uris":{"android":"levelo://app?vid=2b233eb4-2eeb-42bb-9ad0-67e2d68b88c2","ios":"levelo://app?vid=2b233eb4-2eeb-42bb-9ad0-67e2d68b88c2"},"vehicle_type_id":"4","last_reported":1777179071,"current_range_meters":6000,"station_id":"ce4bhp92rcd13ifvqhbg","pricing_plan_id":"cebpf4jnsgd1na2vs0mg"},{"bike_id":"eff582aa-6701-4afc-a871-185d3fc7ef33","system_id":"levelo_inurba_marseille","lat":43.30116,"lon":5.39858,"is_reserved":false,"is_disabled":false,"rental_uris":{"android":"levelo://app?vid=eff582aa-6701-4afc-a871-185d3fc7ef33","ios":"levelo://app?vid=eff582aa-6701-4afc-a871-185d3fc7ef33"},"vehicle_type_id":"4","last_reported":1777179071,"current_range_meters":6000,"station_id":"ce4bh0h2rcd13ifvqd40","pricing_plan_id":"cebpf4jnsgd1na2vs0mg"},{"bike_id":"cd5ae753-0ce4-45ab-886c-3f79fabdb3b1","system_id":"levelo_inurba_marseille","lat":43.24766,"lon":5.37485,"is_reserved":false,"is_disabled":false,"rental_uris":{"android":"levelo://app?vid=cd5ae753-0ce4-45ab-886c-3f79fabdb3b1","ios":"levelo://app?vid=cd5ae753-0ce4-45ab-886c-3f79fabdb3b1"},"vehicle_type_id":"4","last_reported":1777179071,"current_range_meters":6000,"station_id":"ce4bhgh2rcd13ifvqfb0","pricing_plan_id":"cebpf4jnsgd1na2vs0mg"},{"bike_id":"ecd64a32-c4f0-4ed5-8545-f9f9d20fb753","system_id":"levelo_inurba_marseille","lat":43.2956,"lon":5.39967,"is_reserved":false,"is_disabled":false,"rental_uris":{"android":"levelo://app?vid=ecd64a32-c4f0-4ed5-8545-f9f9d20fb753","ios":"levelo://app?vid=ecd64a32-c4f0-4ed5-8545-f9f9d20fb753"},"vehicle_type_id":"4","last_reported":1777179071,"current_range_meters":6000,"station_id":"ce4bh312rcd13ifvqdj0","pricing_plan_id":"cebpf4jnsgd1na2vs0mg"},{"bike_id":"044ce3d4-5f89-49a7-a22e-6dad240318c7","system_id":"levelo_inurba_marseille","lat":43.31238,"lon":5.40157,"is_reserved":false,"is_disabled":false,"rental_uris":{"android":"levelo://app?vid=044ce3d4-5f89-49a7-a22e-6dad240318c7","ios":"levelo://app?vid=044ce3d4-5f89-49a7-a22e-6dad240318c7"},"vehicle_type_id":"4","last_reported":1777179071,"current_range_meters":6000,"station_id":"ce4bh092rcd13ifvqd30","pricing_plan_id":"cebpf4jnsgd1na2vs0mg"},{"bike_id":"604b3f24-5a7b-43f3-a49b-efaf9578af27","system_id":"levelo_inurba_marseille","lat":43.29851,"lon":5.39747,"is_reserved":false,"is_disabled":false,"rental_uris":{"android":"levelo://app?vid=604b3f24-5a7b-43f3-a49b-efaf9578af27","ios":"levelo://app?vid=604b3f24-5a7b-43f3-a49b-efaf9578af27"},"vehicle_type_id":"4","last_reported":1777179071,"current_range_meters":6000,"station_id":"ce4bh0h2rcd13ifvqd50","pricing_plan_id":"cebpf4jnsgd1na2vs0mg"},{"bike_id":"6f02ef59-da8c-49c3-97f5-4aa33500fc96","system_id":"levelo_inurba_marseille","lat":43.3198,"lon":5.38143,"is_reserved":false,"is_disabled":false,"rental_uris":{"android":"levelo://app?vid=6f02ef59-da8c-49c3-97f5-4aa33500fc96","ios":"levelo://app?vid=6f02ef59-da8c-49c3-97f5-4aa33500fc96"},"vehicle_type_id":"4","last_reported":1777179071,"current_range_meters":6000,"station_id":"ce4bhr12rcd13ifvqhpg","pricing_plan_id":"cebpf4jnsgd1na2vs0mg"},{"bike_id":"e5bab3d4-51df-40f4-acb7-898a38cfd436","system_id":"levelo_inurba_marseille","lat":43.21197,"lon":5.35076,"is_reserved":false,"is_disabled":false,"rental_uris":{"android":"levelo://app?vid=e5bab3d4-51df-40f4-acb7-898a38cfd436","ios":"levelo://app?vid=e5bab3d4-51df-40f4-acb7-898a38cfd436"},"vehicle_type_id":"4","last_reported":1777179071,"current_range_meters":6000,"station_id":"st_cvj6sg6p6f1abm77japg","pricing_plan_id":"cebpf4jnsgd1na2vs0mg"},{"bike_id":"17fe3f56-b486-40dd-ac6a-710ede14c97d","system_id":"levelo_inurba_marseille","lat":43.314869,"lon":5.373029,"is_reserved":false,"is_disabled":false,"rental_uris":{"android":"levelo://app?vid=17fe3f56-b486-40dd-ac6a-710ede14c97d","ios":"levelo://app?vid=17fe3f56-b486-40dd-ac6a-710ede14c97d"},"vehicle_type_id":"4","last_reported":1777179071,"current_range_meters":6000,"station_id":"","pricing_plan_id":"cebpf4jnsgd1na2vs0mg"},{"bike_id":"25524946-f75a-4ff3-a7e0-4a6cdf5be097","system_id":"levelo_inurba_marseille","lat":43.30645,"lon":5.40081,"is_reserved":false,"is_disabled":false,"rental_uris":{"android":"levelo://app?vid=25524946-f75a-4ff3-a7e0-4a6cdf5be097","ios":"levelo://app?vid=25524946-f75a-4ff3-a7e0-4a6cdf5be097"},"vehicle_type_id":"4","last_reported":1777179071,"current_range_meters":6000,"station_id":"ce4bh112rcd13ifvqda0","pricing_plan_id":"cebpf4jnsgd1na2vs0mg"},{"bike_id":"d1d5c7cf-8e64-4123-ad8a-ccd792fc4d10","system_id":"levelo_inurba_marseille","lat":43.2935,"lon":5.39874,"is_reserved":false,"is_disabled":false,"rental_uris":{"android":"levelo://app?vid=d1d5c7cf-8e64-4123-ad8a-ccd792fc4d10","ios":"levelo://app?vid=d1d5c7cf-8e64-4123-ad8a-ccd792fc4d10"},"vehicle_type_id":"4","last_reported":1777179071,"current_range_meters":6000,"station_id":"","pricing_plan_id":"cebpf4jnsgd1na2vs0mg"},{"bike_id":"27bea82e-98f4-48ad-bcf5-0d1961af4a26","system_id":"levelo_inurba_marseille","lat":43.28204,"lon":5.3905,"is_reserved":false,"is_disabled":false,"rental_uris":{"android":"levelo://app?vid=27bea82e-98f4-48ad-bcf5-0d1961af4a26","ios":"levelo://app?vid=27bea82e-98f4-48ad-bcf5-0d1961af4a26"},"vehicle_type_id":"4","last_reported":1777179071,"current_range_meters":6000,"station_id":"ce4bhn92rcd13ifvqgsg","pricing_plan_id":"cebpf4jnsgd1na2vs0mg"},{"bike_id":"8d1cc07a-c87d-4a7b-8797-cd61ba104d31","system_id":"levelo_inurba_marseille","lat":43.29529,"lon":5.39025,"is_reserved":false,"is_disabled":true,"rental_uris":{"android":"levelo://app?vid=8d1cc07a-c87d-4a7b-8797-cd61ba104d31","ios":"levelo://app?vid=8d1cc07a-c87d-4a7b-8797-cd61ba104d31"},"vehicle_type_id":"4","last_reported":1777179071,"current_range_meters":6000,"station_id":"ce4bh3p2rcd13ifvqdp0","pricing_plan_id":"cebpf4jnsgd1na2vs0mg"},{"bike_id":"3deb095f-0346-4d9f-aae1-8d59d80b3d6e","system_id":"levelo_inurba_marseille","lat":43.24383,"lon":5.37088,"is_reserved":false,"is_disabled":false,"rental_uris":{"android":"levelo://app?vid=3deb095f-0346-4d9f-aae1-8d59d80b3d6e","ios":"levelo://app?vid=3deb095f-0346-4d9f-aae1-8d59d80b3d6e"},"vehicle_type_id":"4","last_reported":1777179071,"current_range_meters":6000,"station_id":"ce4bhhh2rcd13ifvqfk0","pricing_plan_id":"cebpf4jnsgd1na2vs0mg"},{"bike_id":"90fac789-06e9-4c33-94b9-e82543e03c21","system_id":"levelo_inurba_marseille","lat":43.22553,"lon":5.41636,"is_reserved":false,"is_disabled":true,"rental_uris":{"android":"levelo://app?vid=90fac789-06e9-4c33-94b9-e82543e03c21","ios":"levelo://app?vid=90fac789-06e9-4c33-94b9-e82543e03c21"},"vehicle_type_id":"4","last_reported":1777179071,"current_range_meters":6000,"station_id":"st_d2o4gvlbi1j2169b742g","pricing_plan_id":"cebpf4jnsgd1na2vs0mg"},{"bike_id":"ab3d9b6d-f0f4-4275-84b8-4965c453f7cc","system_id":"levelo_inurba_marseille","lat":43.30259,"lon":5.39223,"is_reserved":false,"is_disabled":false,"rental_uris":{"android":"levelo://app?vid=ab3d9b6d-f0f4-4275-84b8-4965c453f7cc","ios":"levelo://app?vid=ab3d9b6d-f0f4-4275-84b8-4965c453f7cc"},"vehicle_type_id":"4","last_reported":1777179071,"current_range_meters":6400,"station_id":"ce4bgkh2rcd13ifvqbk0","pricing_plan_id":"cebpf4jnsgd1na2vs0mg"},{"bike_id":"c0126e79-e455-4033-aa6f-9cd2537e8b04","system_id":"levelo_inurba_marseille","lat":43.28706,"lon":5.46695,"is_reserved":false,"is_disabled":false,"rental_uris":{"android":"levelo://app?vid=c0126e79-e455-4033-aa6f-9cd2537e8b04","ios":"levelo://app?vid=c0126e79-e455-4033-aa6f-9cd2537e8b04"},"vehicle_type_id":"4","last_reported":1777179071,"current_range_meters":6400,"station_id":"st_d6tc3vkotcvc738tfjhg","pricing_plan_id":"cebpf4jnsgd1na2vs0mg"},{"bike_id":"a03ce919-3949-4c06-bbb8-c0f13ba943b2","system_id":"levelo_inurba_marseille","lat":43.25516,"lon":5.37663,"is_reserved":false,"is_disabled":true,"rental_uris":{"android":"levelo://app?vid=a03ce919-3949-4c06-bbb8-c0f13ba943b2","ios":"levelo://app?vid=a03ce919-3949-4c06-bbb8-c0f13ba943b2"},"vehicle_type_id":"4","last_reported":1777179071,"current_range_meters":6400,"station_id":"ce4bhh12rcd13ifvqff0","pricing_plan_id":"cebpf4jnsgd1na2vs0mg"},{"bike_id":"ace34436-51fe-4536-a1f6-cfa009f56977","system_id":"levelo_inurba_marseille","lat":43.33535,"lon":5.37469,"is_reserved":false,"is_disabled":false,"rental_uris":{"android":"levelo://app?vid=ace34436-51fe-4536-a1f6-cfa009f56977","ios":"levelo://app?vid=ace34436-51fe-4536-a1f6-cfa009f56977"},"vehicle_type_id":"4","last_reported":1777179071,"current_range_meters":6400,"station_id":"st_d46tts09ee8s73dlu43g","pricing_plan_id":"cebpf4jnsgd1na2vs0mg"},{"bike_id":"36fe2575-22d8-45fc-b110-398032622606","system_id":"levelo_inurba_marseille","lat":43.28475,"lon":5.38441,"is_reserved":false,"is_disabled":true,"rental_uris":{"android":"levelo://app?vid=36fe2575-22d8-45fc-b110-398032622606","ios":"levelo://app?vid=36fe2575-22d8-45fc-b110-398032622606"},"vehicle_type_id":"4","last_reported":1777179071,"current_range_meters":6400,"station_id":"ce4bh512rcd13ifvqe3g","pricing_plan_id":"cebpf4jnsgd1na2vs0mg"},{"bike_id":"f45c6cef-0c24-46b7-81bc-53822d8483bd","system_id":"levelo_inurba_marseille","lat":43.31373,"lon":5.38487,"is_reserved":false,"is_disabled":false,"rental_uris":{"android":"levelo://app?vid=f45c6cef-0c24-46b7-81bc-53822d8483bd","ios":"levelo://app?vid=f45c6cef-0c24-46b7-81bc-53822d8483bd"},"vehicle_type_id":"4","last_reported":1777179071,"current_range_meters":6400,"station_id":"ce4bgt92rcd13ifvqcf0","pricing_plan_id":"cebpf4jnsgd1na2vs0mg"},{"bike_id":"648bc781-8e68-4ccd-aedc-987a153e904f","system_id":"levelo_inurba_marseille","lat":43.29265,"lon":5.38457,"is_reserved":false,"is_disabled":false,"rental_uris":{"android":"levelo://app?vid=648bc781-8e68-4ccd-aedc-987a153e904f","ios":"levelo://app?vid=648bc781-8e68-4ccd-aedc-987a153e904f"},"vehicle_type_id":"4","last_reported":1777179071,"current_range_meters":6400,"station_id":"ce4bh692rcd13ifvqea0","pricing_plan_id":"cebpf4jnsgd1na2vs0mg"},{"bike_id":"73b29586-6035-4b17-8f89-10c778399a16","system_id":"levelo_inurba_marseille","lat":43.31987,"lon":5.38175,"is_reserved":false,"is_disabled":false,"rental_uris":{"android":"levelo://app?vid=73b29586-6035-4b17-8f89-10c778399a16","ios":"levelo://app?vid=73b29586-6035-4b17-8f89-10c778399a16"},"vehicle_type_id":"4","last_reported":1777179071,"current_range_meters":6400,"station_id":"ce4bhr12rcd13ifvqhpg","pricing_plan_id":"cebpf4jnsgd1na2vs0mg"},{"bike_id":"f052f3ed-28f6-4c29-844b-cc3bffd83805","system_id":"levelo_inurba_marseille","lat":43.32354,"lon":5.36742,"is_reserved":false,"is_disabled":false,"rental_uris":{"android":"levelo://app?vid=f052f3ed-28f6-4c29-844b-cc3bffd83805","ios":"levelo://app?vid=f052f3ed-28f6-4c29-844b-cc3bffd83805"},"vehicle_type_id":"4","last_reported":1777179071,"current_range_meters":6400,"station_id":"ce4bhsh2rcd13ifvqi2g","pricing_plan_id":"cebpf4jnsgd1na2vs0mg"},{"bike_id":"0f126928-5121-4469-a9c9-6740d8de1e82","system_id":"levelo_inurba_marseille","lat":43.24413,"lon":5.37431,"is_reserved":false,"is_disabled":false,"rental_uris":{"android":"levelo://app?vid=0f126928-5121-4469-a9c9-6740d8de1e82","ios":"levelo://app?vid=0f126928-5121-4469-a9c9-6740d8de1e82"},"vehicle_type_id":"4","last_reported":1777179071,"current_range_meters":6400,"station_id":"","pricing_plan_id":"cebpf4jnsgd1na2vs0mg"},{"bike_id":"05a33fd5-e436-4ad0-a907-865e546c41d5","system_id":"levelo_inurba_marseille","lat":43.22554,"lon":5.41613,"is_reserved":false,"is_disabled":true,"rental_uris":{"android":"levelo://app?vid=05a33fd5-e436-4ad0-a907-865e546c41d5","ios":"levelo://app?vid=05a33fd5-e436-4ad0-a907-865e546c41d5"},"vehicle_type_id":"4","last_reported":1777179071,"current_range_meters":6400,"station_id":"","pricing_plan_id":"cebpf4jnsgd1na2vs0mg"},{"bike_id":"daa21ad2-9f82-4ef7-9256-e0ffe3b8479b","system_id":"levelo_inurba_marseille","lat":43.28613,"lon":5.39907,"is_reserved":false,"is_disabled":false,"rental_uris":{"android":"levelo://app?vid=daa21ad2-9f82-4ef7-9256-e0ffe3b8479b","ios":"levelo://app?vid=daa21ad2-9f82-4ef7-9256-e0ffe3b8479b"},"vehicle_type_id":"4","last_reported":1777179071,"current_range_meters":6400,"station_id":"st_d4a7ka997mjs738ck50g","pricing_plan_id":"cebpf4jnsgd1na2vs0mg"},{"bike_id":"18f0b378-8f5d-40bc-97a7-ebf73f9ff7bd","system_id":"levelo_inurba_marseille","lat":43.31723,"lon":5.42389,"is_reserved":false,"is_disabled":false,"rental_uris":{"android":"levelo://app?vid=18f0b378-8f5d-40bc-97a7-ebf73f9ff7bd","ios":"levelo://app?vid=18f0b378-8f5d-40bc-97a7-ebf73f9ff7bd"},"vehicle_type_id":"4","last_reported":1777179071,"current_range_meters":6400,"station_id":"ce4bhp92rcd13ifvqhbg","pricing_plan_id":"cebpf4jnsgd1na2vs0mg"},{"bike_id":"a9fede3f-8571-4c94-a0d6-ea7d5bf6cfe5","system_id":"levelo_inurba_marseille","lat":43.28021,"lon":5.41641,"is_reserved":false,"is_disabled":false,"rental_uris":{"android":"levelo://app?vid=a9fede3f-8571-4c94-a0d6-ea7d5bf6cfe5","ios":"levelo://app?vid=a9fede3f-8571-4c94-a0d6-ea7d5bf6cfe5"},"vehicle_type_id":"4","last_reported":1777179071,"current_range_meters":6400,"station_id":"ce4bho12rcd13ifvqh1g","pricing_plan_id":"cebpf4jnsgd1na2vs0mg"},{"bike_id":"413e4623-e4a6-44c0-8fe0-f06c3e224af8","system_id":"levelo_inurba_marseille","lat":43.31901,"lon":5.3681,"is_reserved":false,"is_disabled":false,"rental_uris":{"android":"levelo://app?vid=413e4623-e4a6-44c0-8fe0-f06c3e224af8","ios":"levelo://app?vid=413e4623-e4a6-44c0-8fe0-f06c3e224af8"},"vehicle_type_id":"4","last_reported":1777179071,"current_range_meters":6800,"station_id":"st_d6o2h0d0559c73evc1b0","pricing_plan_id":"cebpf4jnsgd1na2vs0mg"},{"bike_id":"84c8a771-33c9-421f-a5d6-bf9791123e26","system_id":"levelo_inurba_marseille","lat":43.31891,"lon":5.38123,"is_reserved":false,"is_disabled":false,"rental_uris":{"android":"levelo://app?vid=84c8a771-33c9-421f-a5d6-bf9791123e26","ios":"levelo://app?vid=84c8a771-33c9-421f-a5d6-bf9791123e26"},"vehicle_type_id":"4","last_reported":1777179071,"current_range_meters":6800,"station_id":"ce4bhr12rcd13ifvqhpg","pricing_plan_id":"cebpf4jnsgd1na2vs0mg"},{"bike_id":"e7760414-c99e-4edb-8d77-254918982c51","system_id":"levelo_inurba_marseille","lat":43.280813,"lon":5.396654,"is_reserved":false,"is_disabled":false,"rental_uris":{"android":"levelo://app?vid=e7760414-c99e-4edb-8d77-254918982c51","ios":"levelo://app?vid=e7760414-c99e-4edb-8d77-254918982c51"},"vehicle_type_id":"4","last_reported":1777179071,"current_range_meters":6800,"station_id":"ce4bho12rcd13ifvqh2g","pricing_plan_id":"cebpf4jnsgd1na2vs0mg"},{"bike_id":"70578acc-b935-4f77-be23-bcde1db99b26","system_id":"levelo_inurba_marseille","lat":43.29794,"lon":5.38155,"is_reserved":false,"is_disabled":false,"rental_uris":{"android":"levelo://app?vid=70578acc-b935-4f77-be23-bcde1db99b26","ios":"levelo://app?vid=70578acc-b935-4f77-be23-bcde1db99b26"},"vehicle_type_id":"4","last_reported":1777179071,"current_range_meters":6800,"station_id":"ce4bgip2rcd13ifvqbb0","pricing_plan_id":"cebpf4jnsgd1na2vs0mg"},{"bike_id":"0bcee4ef-988a-49ff-8485-9fd826ecb075","system_id":"levelo_inurba_marseille","lat":43.30827,"lon":5.39627,"is_reserved":false,"is_disabled":false,"rental_uris":{"android":"levelo://app?vid=0bcee4ef-988a-49ff-8485-9fd826ecb075","ios":"levelo://app?vid=0bcee4ef-988a-49ff-8485-9fd826ecb075"},"vehicle_type_id":"4","last_reported":1777179071,"current_range_meters":6800,"station_id":"","pricing_plan_id":"cebpf4jnsgd1na2vs0mg"},{"bike_id":"fea5a28c-0167-4a62-9062-e629ed9b3e8f","system_id":"levelo_inurba_marseille","lat":43.28475,"lon":5.4841,"is_reserved":false,"is_disabled":false,"rental_uris":{"android":"levelo://app?vid=fea5a28c-0167-4a62-9062-e629ed9b3e8f","ios":"levelo://app?vid=fea5a28c-0167-4a62-9062-e629ed9b3e8f"},"vehicle_type_id":"4","last_reported":1777179071,"current_range_meters":6800,"station_id":"st_d3svhcjqgbts73a3dn0g","pricing_plan_id":"cebpf4jnsgd1na2vs0mg"},{"bike_id":"3a1dde76-eca1-4259-a733-fe668960caa8","system_id":"levelo_inurba_marseille","lat":43.24424,"lon":5.39065,"is_reserved":false,"is_disabled":false,"rental_uris":{"android":"levelo://app?vid=3a1dde76-eca1-4259-a733-fe668960caa8","ios":"levelo://app?vid=3a1dde76-eca1-4259-a733-fe668960caa8"},"vehicle_type_id":"4","last_reported":1777179071,"current_range_meters":6800,"station_id":"","pricing_plan_id":"cebpf4jnsgd1na2vs0mg"},{"bike_id":"74a07065-5ef1-4c40-b13a-af5eee7e9ca0","system_id":"levelo_inurba_marseille","lat":43.30885,"lon":5.37196,"is_reserved":false,"is_disabled":false,"rental_uris":{"android":"levelo://app?vid=74a07065-5ef1-4c40-b13a-af5eee7e9ca0","ios":"levelo://app?vid=74a07065-5ef1-4c40-b13a-af5eee7e9ca0"},"vehicle_type_id":"4","last_reported":1777179071,"current_range_meters":6800,"station_id":"ce4bguh2rcd13ifvqckg","pricing_plan_id":"cebpf4jnsgd1na2vs0mg"},{"bike_id":"bfa7c1d6-71d5-4139-8708-a911840c9801","system_id":"levelo_inurba_marseille","lat":43.28479,"lon":5.38571,"is_reserved":false,"is_disabled":true,"rental_uris":{"android":"levelo://app?vid=bfa7c1d6-71d5-4139-8708-a911840c9801","ios":"levelo://app?vid=bfa7c1d6-71d5-4139-8708-a911840c9801"},"vehicle_type_id":"4","last_reported":1777179071,"current_range_meters":7200,"station_id":"ce4bh8p2rcd13ifvqeb0","pricing_plan_id":"cebpf4jnsgd1na2vs0mg"},{"bike_id":"9a7c39d8-ef30-4694-b180-b6fe0a089530","system_id":"levelo_inurba_marseille","lat":43.3014,"lon":5.43119,"is_reserved":false,"is_disabled":false,"rental_uris":{"android":"levelo://app?vid=9a7c39d8-ef30-4694-b180-b6fe0a089530","ios":"levelo://app?vid=9a7c39d8-ef30-4694-b180-b6fe0a089530"},"vehicle_type_id":"4","last_reported":1777179071,"current_range_meters":7200,"station_id":"st_d3js3co5814s73ftftug","pricing_plan_id":"cebpf4jnsgd1na2vs0mg"},{"bike_id":"27cd71a7-0940-4415-a67f-21597fbf1cd9","system_id":"levelo_inurba_marseille","lat":43.34842,"lon":5.37387,"is_reserved":false,"is_disabled":false,"rental_uris":{"android":"levelo://app?vid=27cd71a7-0940-4415-a67f-21597fbf1cd9","ios":"levelo://app?vid=27cd71a7-0940-4415-a67f-21597fbf1cd9"},"vehicle_type_id":"4","last_reported":1777179071,"current_range_meters":7200,"station_id":"","pricing_plan_id":"cebpf4jnsgd1na2vs0mg"},{"bike_id":"cdd270f0-5f2f-4bbf-9ea6-e320df8433a0","system_id":"levelo_inurba_marseille","lat":43.29888,"lon":5.38899,"is_reserved":false,"is_disabled":false,"rental_uris":{"android":"levelo://app?vid=cdd270f0-5f2f-4bbf-9ea6-e320df8433a0","ios":"levelo://app?vid=cdd270f0-5f2f-4bbf-9ea6-e320df8433a0"},"vehicle_type_id":"4","last_reported":1777179071,"current_range_meters":7200,"station_id":"ce4bh392rcd13ifvqdl0","pricing_plan_id":"cebpf4jnsgd1na2vs0mg"},{"bike_id":"5687bcf3-d7dc-457c-91e4-c37491638fcd","system_id":"levelo_inurba_marseille","lat":43.24167,"lon":5.36404,"is_reserved":false,"is_disabled":false,"rental_uris":{"android":"levelo://app?vid=5687bcf3-d7dc-457c-91e4-c37491638fcd","ios":"levelo://app?vid=5687bcf3-d7dc-457c-91e4-c37491638fcd"},"vehicle_type_id":"4","last_reported":1777179071,"current_range_meters":7200,"station_id":"cpo36qri1sfpv3e86is0","pricing_plan_id":"cebpf4jnsgd1na2vs0mg"},{"bike_id":"085eefc3-42b6-4e5f-8fa3-5e096f60ac23","system_id":"levelo_inurba_marseille","lat":43.21752,"lon":5.34606,"is_reserved":false,"is_disabled":true,"rental_uris":{"android":"levelo://app?vid=085eefc3-42b6-4e5f-8fa3-5e096f60ac23","ios":"levelo://app?vid=085eefc3-42b6-4e5f-8fa3-5e096f60ac23"},"vehicle_type_id":"4","last_reported":1777179071,"current_range_meters":7200,"station_id":"st_cvj6r9ubvosntc0bgbag","pricing_plan_id":"cebpf4jnsgd1na2vs0mg"},{"bike_id":"9a179763-1687-4b2b-8886-1b18924799ad","system_id":"levelo_inurba_marseille","lat":43.25876,"lon":5.39916,"is_reserved":false,"is_disabled":false,"rental_uris":{"android":"levelo://app?vid=9a179763-1687-4b2b-8886-1b18924799ad","ios":"levelo://app?vid=9a179763-1687-4b2b-8886-1b18924799ad"},"vehicle_type_id":"4","last_reported":1777179071,"current_range_meters":7200,"station_id":"ce4bhl92rcd13ifvqghg","pricing_plan_id":"cebpf4jnsgd1na2vs0mg"},{"bike_id":"e6321f91-04b7-4b15-ad0f-2d58077126c7","system_id":"levelo_inurba_marseille","lat":43.29838,"lon":5.42089,"is_reserved":false,"is_disabled":false,"rental_uris":{"android":"levelo://app?vid=e6321f91-04b7-4b15-ad0f-2d58077126c7","ios":"levelo://app?vid=e6321f91-04b7-4b15-ad0f-2d58077126c7"},"vehicle_type_id":"4","last_reported":1777179071,"current_range_meters":7200,"station_id":"","pricing_plan_id":"cebpf4jnsgd1na2vs0mg"},{"bike_id":"e6d41d3d-70fe-4d53-9c1a-113d50efa6af","system_id":"levelo_inurba_marseille","lat":43.29885,"lon":5.389,"is_reserved":false,"is_disabled":false,"rental_uris":{"android":"levelo://app?vid=e6d41d3d-70fe-4d53-9c1a-113d50efa6af","ios":"levelo://app?vid=e6d41d3d-70fe-4d53-9c1a-113d50efa6af"},"vehicle_type_id":"4","last_reported":1777179071,"current_range_meters":7200,"station_id":"ce4bh392rcd13ifvqdl0","pricing_plan_id":"cebpf4jnsgd1na2vs0mg"},{"bike_id":"7f14f307-ed9b-4bde-a995-2c9126a5e681","system_id":"levelo_inurba_marseille","lat":43.30494,"lon":5.37889,"is_reserved":false,"is_disabled":true,"rental_uris":{"android":"levelo://app?vid=7f14f307-ed9b-4bde-a995-2c9126a5e681","ios":"levelo://app?vid=7f14f307-ed9b-4bde-a995-2c9126a5e681"},"vehicle_type_id":"4","last_reported":1777179071,"current_range_meters":7200,"station_id":"ce4bgup2rcd13ifvqcn0","pricing_plan_id":"cebpf4jnsgd1na2vs0mg"},{"bike_id":"8dac6c76-9c56-49ee-9c52-aa853cc488e1","system_id":"levelo_inurba_marseille","lat":43.31325,"lon":5.39704,"is_reserved":false,"is_disabled":false,"rental_uris":{"android":"levelo://app?vid=8dac6c76-9c56-49ee-9c52-aa853cc488e1","ios":"levelo://app?vid=8dac6c76-9c56-49ee-9c52-aa853cc488e1"},"vehicle_type_id":"4","last_reported":1777179071,"current_range_meters":7200,"station_id":"ce4bgvp2rcd13ifvqcu0","pricing_plan_id":"cebpf4jnsgd1na2vs0mg"},{"bike_id":"d635b6a9-26d7-4024-944b-3b30f7178297","system_id":"levelo_inurba_marseille","lat":43.24045,"lon":5.36251,"is_reserved":false,"is_disabled":false,"rental_uris":{"android":"levelo://app?vid=d635b6a9-26d7-4024-944b-3b30f7178297","ios":"levelo://app?vid=d635b6a9-26d7-4024-944b-3b30f7178297"},"vehicle_type_id":"4","last_reported":1777179071,"current_range_meters":7200,"station_id":"","pricing_plan_id":"cebpf4jnsgd1na2vs0mg"},{"bike_id":"e79bde01-2f2e-4687-9114-2908a926683e","system_id":"levelo_inurba_marseille","lat":43.33539,"lon":5.37458,"is_reserved":false,"is_disabled":false,"rental_uris":{"android":"levelo://app?vid=e79bde01-2f2e-4687-9114-2908a926683e","ios":"levelo://app?vid=e79bde01-2f2e-4687-9114-2908a926683e"},"vehicle_type_id":"4","last_reported":1777179071,"current_range_meters":7200,"station_id":"st_d46tts09ee8s73dlu43g","pricing_plan_id":"cebpf4jnsgd1na2vs0mg"},{"bike_id":"0e385029-f21e-4196-be6e-7feb5fd87d07","system_id":"levelo_inurba_marseille","lat":43.31901,"lon":5.36835,"is_reserved":false,"is_disabled":false,"rental_uris":{"android":"levelo://app?vid=0e385029-f21e-4196-be6e-7feb5fd87d07","ios":"levelo://app?vid=0e385029-f21e-4196-be6e-7feb5fd87d07"},"vehicle_type_id":"4","last_reported":1777179071,"current_range_meters":7200,"station_id":"st_d6o2h0d0559c73evc1b0","pricing_plan_id":"cebpf4jnsgd1na2vs0mg"},{"bike_id":"488bf401-74f7-4dcc-8384-b9d2ae512400","system_id":"levelo_inurba_marseille","lat":43.27952,"lon":5.38719,"is_reserved":false,"is_disabled":false,"rental_uris":{"android":"levelo://app?vid=488bf401-74f7-4dcc-8384-b9d2ae512400","ios":"levelo://app?vid=488bf401-74f7-4dcc-8384-b9d2ae512400"},"vehicle_type_id":"4","last_reported":1777179071,"current_range_meters":7200,"station_id":"ce4bhg12rcd13ifvqf80","pricing_plan_id":"cebpf4jnsgd1na2vs0mg"},{"bike_id":"e5cde18f-11fd-4bba-9f22-8e6ee9593bdd","system_id":"levelo_inurba_marseille","lat":43.28665,"lon":5.36335,"is_reserved":false,"is_disabled":false,"rental_uris":{"android":"levelo://app?vid=e5cde18f-11fd-4bba-9f22-8e6ee9593bdd","ios":"levelo://app?vid=e5cde18f-11fd-4bba-9f22-8e6ee9593bdd"},"vehicle_type_id":"4","last_reported":1777179071,"current_range_meters":7200,"station_id":"ce4bhah2rcd13ifvqej0","pricing_plan_id":"cebpf4jnsgd1na2vs0mg"},{"bike_id":"833d7be3-421b-4c5f-bc44-1a51dc01aed7","system_id":"levelo_inurba_marseille","lat":43.29673,"lon":5.37284,"is_reserved":false,"is_disabled":true,"rental_uris":{"android":"levelo://app?vid=833d7be3-421b-4c5f-bc44-1a51dc01aed7","ios":"levelo://app?vid=833d7be3-421b-4c5f-bc44-1a51dc01aed7"},"vehicle_type_id":"4","last_reported":1777179071,"current_range_meters":7200,"station_id":"ce4bgk12rcd13ifvqbj0","pricing_plan_id":"cebpf4jnsgd1na2vs0mg"},{"bike_id":"e4e1ba2d-0652-40f6-a3b8-d8fe660d6a69","system_id":"levelo_inurba_marseille","lat":43.28695,"lon":5.37928,"is_reserved":false,"is_disabled":false,"rental_uris":{"android":"levelo://app?vid=e4e1ba2d-0652-40f6-a3b8-d8fe660d6a69","ios":"levelo://app?vid=e4e1ba2d-0652-40f6-a3b8-d8fe660d6a69"},"vehicle_type_id":"4","last_reported":1777179071,"current_range_meters":7200,"station_id":"ce4bh9p2rcd13ifvqec0","pricing_plan_id":"cebpf4jnsgd1na2vs0mg"},{"bike_id":"f33c6c9d-346a-4c73-9b31-f3ca6fe92254","system_id":"levelo_inurba_marseille","lat":43.29623,"lon":5.37717,"is_reserved":false,"is_disabled":true,"rental_uris":{"android":"levelo://app?vid=f33c6c9d-346a-4c73-9b31-f3ca6fe92254","ios":"levelo://app?vid=f33c6c9d-346a-4c73-9b31-f3ca6fe92254"},"vehicle_type_id":"4","last_reported":1777179071,"current_range_meters":7200,"station_id":"ce4bgi92rcd13ifvqb90","pricing_plan_id":"cebpf4jnsgd1na2vs0mg"},{"bike_id":"fc29bf68-a4a4-425a-93b6-68c4374f7320","system_id":"levelo_inurba_marseille","lat":43.23192,"lon":5.39969,"is_reserved":false,"is_disabled":false,"rental_uris":{"android":"levelo://app?vid=fc29bf68-a4a4-425a-93b6-68c4374f7320","ios":"levelo://app?vid=fc29bf68-a4a4-425a-93b6-68c4374f7320"},"vehicle_type_id":"4","last_reported":1777179071,"current_range_meters":7200,"station_id":"ce4bhn12rcd13ifvqgqg","pricing_plan_id":"cebpf4jnsgd1na2vs0mg"},{"bike_id":"1a53a67e-9022-4580-83c0-fc3f72c9ef8d","system_id":"levelo_inurba_marseille","lat":43.29611,"lon":5.3809,"is_reserved":false,"is_disabled":false,"rental_uris":{"android":"levelo://app?vid=1a53a67e-9022-4580-83c0-fc3f72c9ef8d","ios":"levelo://app?vid=1a53a67e-9022-4580-83c0-fc3f72c9ef8d"},"vehicle_type_id":"4","last_reported":1777179071,"current_range_meters":7200,"station_id":"ce4bgl12rcd13ifvqbo0","pricing_plan_id":"cebpf4jnsgd1na2vs0mg"},{"bike_id":"566d96b8-5e9f-424c-a211-21ad768be894","system_id":"levelo_inurba_marseille","lat":43.28531,"lon":5.44106,"is_reserved":false,"is_disabled":false,"rental_uris":{"android":"levelo://app?vid=566d96b8-5e9f-424c-a211-21ad768be894","ios":"levelo://app?vid=566d96b8-5e9f-424c-a211-21ad768be894"},"vehicle_type_id":"4","last_reported":1777179071,"current_range_meters":8000,"station_id":"st_d3j3df2ikq2c7380ej80","pricing_plan_id":"cebpf4jnsgd1na2vs0mg"},{"bike_id":"757fdfcb-45d7-4c45-8e18-f9ab346e8260","system_id":"levelo_inurba_marseille","lat":43.24615,"lon":5.3984,"is_reserved":false,"is_disabled":false,"rental_uris":{"android":"levelo://app?vid=757fdfcb-45d7-4c45-8e18-f9ab346e8260","ios":"levelo://app?vid=757fdfcb-45d7-4c45-8e18-f9ab346e8260"},"vehicle_type_id":"4","last_reported":1777179071,"current_range_meters":8000,"station_id":"","pricing_plan_id":"cebpf4jnsgd1na2vs0mg"},{"bike_id":"26d26955-b302-4311-88a8-057f7b19117a","system_id":"levelo_inurba_marseille","lat":43.29652,"lon":5.36063,"is_reserved":false,"is_disabled":false,"rental_uris":{"android":"levelo://app?vid=26d26955-b302-4311-88a8-057f7b19117a","ios":"levelo://app?vid=26d26955-b302-4311-88a8-057f7b19117a"},"vehicle_type_id":"4","last_reported":1777179071,"current_range_meters":8000,"station_id":"","pricing_plan_id":"cebpf4jnsgd1na2vs0mg"},{"bike_id":"4c45330a-366b-4405-9568-32534dd9d2d8","system_id":"levelo_inurba_marseille","lat":43.29668,"lon":5.36601,"is_reserved":false,"is_disabled":false,"rental_uris":{"android":"levelo://app?vid=4c45330a-366b-4405-9568-32534dd9d2d8","ios":"levelo://app?vid=4c45330a-366b-4405-9568-32534dd9d2d8"},"vehicle_type_id":"4","last_reported":1777179071,"current_range_meters":8000,"station_id":"ce4bgn12rcd13ifvqbt0","pricing_plan_id":"cebpf4jnsgd1na2vs0mg"},{"bike_id":"a880954a-cea6-4ce4-9197-65927b00a10f","system_id":"levelo_inurba_marseille","lat":43.28909,"lon":5.38416,"is_reserved":false,"is_disabled":false,"rental_uris":{"android":"levelo://app?vid=a880954a-cea6-4ce4-9197-65927b00a10f","ios":"levelo://app?vid=a880954a-cea6-4ce4-9197-65927b00a10f"},"vehicle_type_id":"4","last_reported":1777179071,"current_range_meters":8000,"station_id":"ce4bh612rcd13ifvqe6g","pricing_plan_id":"cebpf4jnsgd1na2vs0mg"},{"bike_id":"00a4be9d-414e-43c5-b7fd-5c120acfedbb","system_id":"levelo_inurba_marseille","lat":43.29308,"lon":5.37176,"is_reserved":false,"is_disabled":false,"rental_uris":{"android":"levelo://app?vid=00a4be9d-414e-43c5-b7fd-5c120acfedbb","ios":"levelo://app?vid=00a4be9d-414e-43c5-b7fd-5c120acfedbb"},"vehicle_type_id":"4","last_reported":1777179071,"current_range_meters":8000,"station_id":"ce4bgh92rcd13ifvqb40","pricing_plan_id":"cebpf4jnsgd1na2vs0mg"},{"bike_id":"e6e0181d-d51b-42d7-93b1-7e8f4d00629c","system_id":"levelo_inurba_marseille","lat":43.29827,"lon":5.42036,"is_reserved":false,"is_disabled":true,"rental_uris":{"android":"levelo://app?vid=e6e0181d-d51b-42d7-93b1-7e8f4d00629c","ios":"levelo://app?vid=e6e0181d-d51b-42d7-93b1-7e8f4d00629c"},"vehicle_type_id":"4","last_reported":1777179071,"current_range_meters":8000,"station_id":"","pricing_plan_id":"cebpf4jnsgd1na2vs0mg"},{"bike_id":"4c502954-85d5-4261-9789-b82be50dfc6c","system_id":"levelo_inurba_marseille","lat":43.30876,"lon":5.39661,"is_reserved":false,"is_disabled":false,"rental_uris":{"android":"levelo://app?vid=4c502954-85d5-4261-9789-b82be50dfc6c","ios":"levelo://app?vid=4c502954-85d5-4261-9789-b82be50dfc6c"},"vehicle_type_id":"4","last_reported":1777179071,"current_range_meters":8000,"station_id":"ce4bh012rcd13ifvqcv0","pricing_plan_id":"cebpf4jnsgd1na2vs0mg"},{"bike_id":"1cba9e91-927d-4b81-94d3-7f5f353747f0","system_id":"levelo_inurba_marseille","lat":43.30771,"lon":5.37687,"is_reserved":false,"is_disabled":false,"rental_uris":{"android":"levelo://app?vid=1cba9e91-927d-4b81-94d3-7f5f353747f0","ios":"levelo://app?vid=1cba9e91-927d-4b81-94d3-7f5f353747f0"},"vehicle_type_id":"4","last_reported":1777179071,"current_range_meters":8000,"station_id":"ce4bgv92rcd13ifvqcq0","pricing_plan_id":"cebpf4jnsgd1na2vs0mg"},{"bike_id":"c7584058-e4ae-45d6-ab29-3281470f45e4","system_id":"levelo_inurba_marseille","lat":43.30618,"lon":5.37223,"is_reserved":false,"is_disabled":false,"rental_uris":{"android":"levelo://app?vid=c7584058-e4ae-45d6-ab29-3281470f45e4","ios":"levelo://app?vid=c7584058-e4ae-45d6-ab29-3281470f45e4"},"vehicle_type_id":"4","last_reported":1777179071,"current_range_meters":8000,"station_id":"ce4bgqh2rcd13ifvqc4g","pricing_plan_id":"cebpf4jnsgd1na2vs0mg"},{"bike_id":"b80773d4-554f-42d6-acd8-3c7ad3ffd5e4","system_id":"levelo_inurba_marseille","lat":43.24945,"lon":5.40498,"is_reserved":false,"is_disabled":false,"rental_uris":{"android":"levelo://app?vid=b80773d4-554f-42d6-acd8-3c7ad3ffd5e4","ios":"levelo://app?vid=b80773d4-554f-42d6-acd8-3c7ad3ffd5e4"},"vehicle_type_id":"4","last_reported":1777179071,"current_range_meters":8000,"station_id":"st_d2ngiaodas8pm72gd1h0","pricing_plan_id":"cebpf4jnsgd1na2vs0mg"},{"bike_id":"ecb5e875-9534-4bc7-889a-b6aad0b06327","system_id":"levelo_inurba_marseille","lat":43.30542,"lon":5.36561,"is_reserved":false,"is_disabled":false,"rental_uris":{"android":"levelo://app?vid=ecb5e875-9534-4bc7-889a-b6aad0b06327","ios":"levelo://app?vid=ecb5e875-9534-4bc7-889a-b6aad0b06327"},"vehicle_type_id":"4","last_reported":1777179071,"current_range_meters":8000,"station_id":"ce4bgs12rcd13ifvqcag","pricing_plan_id":"cebpf4jnsgd1na2vs0mg"},{"bike_id":"0fb5bdad-cf89-4b49-8199-c24f462ae13f","system_id":"levelo_inurba_marseille","lat":43.29878,"lon":5.38902,"is_reserved":false,"is_disabled":false,"rental_uris":{"android":"levelo://app?vid=0fb5bdad-cf89-4b49-8199-c24f462ae13f","ios":"levelo://app?vid=0fb5bdad-cf89-4b49-8199-c24f462ae13f"},"vehicle_type_id":"4","last_reported":1777179071,"current_range_meters":8000,"station_id":"ce4bh392rcd13ifvqdl0","pricing_plan_id":"cebpf4jnsgd1na2vs0mg"},{"bike_id":"89f8435a-8f74-41a7-a78d-90d1d9bd4779","system_id":"levelo_inurba_marseille","lat":43.27777,"lon":5.40677,"is_reserved":false,"is_disabled":false,"rental_uris":{"android":"levelo://app?vid=89f8435a-8f74-41a7-a78d-90d1d9bd4779","ios":"levelo://app?vid=89f8435a-8f74-41a7-a78d-90d1d9bd4779"},"vehicle_type_id":"4","last_reported":1777179071,"current_range_meters":8000,"station_id":"","pricing_plan_id":"cebpf4jnsgd1na2vs0mg"},{"bike_id":"5fdff1d7-b2d7-4e39-ad7f-00ed09411d1d","system_id":"levelo_inurba_marseille","lat":43.28469,"lon":5.48385,"is_reserved":false,"is_disabled":false,"rental_uris":{"android":"levelo://app?vid=5fdff1d7-b2d7-4e39-ad7f-00ed09411d1d","ios":"levelo://app?vid=5fdff1d7-b2d7-4e39-ad7f-00ed09411d1d"},"vehicle_type_id":"4","last_reported":1777179071,"current_range_meters":8400,"station_id":"st_d3svhcjqgbts73a3dn0g","pricing_plan_id":"cebpf4jnsgd1na2vs0mg"},{"bike_id":"c3f56438-50d4-49f5-8cb0-4e8633dbea49","system_id":"levelo_inurba_marseille","lat":43.28083,"lon":5.3963,"is_reserved":false,"is_disabled":false,"rental_uris":{"android":"levelo://app?vid=c3f56438-50d4-49f5-8cb0-4e8633dbea49","ios":"levelo://app?vid=c3f56438-50d4-49f5-8cb0-4e8633dbea49"},"vehicle_type_id":"4","last_reported":1777179071,"current_range_meters":8400,"station_id":"ce4bho12rcd13ifvqh2g","pricing_plan_id":"cebpf4jnsgd1na2vs0mg"},{"bike_id":"bee91535-8fd4-46d9-82b4-d1ffaa22017e","system_id":"levelo_inurba_marseille","lat":43.28357,"lon":5.38109,"is_reserved":false,"is_disabled":true,"rental_uris":{"android":"levelo://app?vid=bee91535-8fd4-46d9-82b4-d1ffaa22017e","ios":"levelo://app?vid=bee91535-8fd4-46d9-82b4-d1ffaa22017e"},"vehicle_type_id":"4","last_reported":1777179071,"current_range_meters":8400,"station_id":"ce4bh412rcd13ifvqdr0","pricing_plan_id":"cebpf4jnsgd1na2vs0mg"},{"bike_id":"acc43cd0-68ad-48c2-bac0-06fac0cec35e","system_id":"levelo_inurba_marseille","lat":43.225198,"lon":5.348323,"is_reserved":false,"is_disabled":false,"rental_uris":{"android":"levelo://app?vid=acc43cd0-68ad-48c2-bac0-06fac0cec35e","ios":"levelo://app?vid=acc43cd0-68ad-48c2-bac0-06fac0cec35e"},"vehicle_type_id":"4","last_reported":1777179071,"current_range_meters":8400,"station_id":"st_cvj5dfep6f1abm77gieg","pricing_plan_id":"cebpf4jnsgd1na2vs0mg"},{"bike_id":"1fa7c290-baf4-43ed-aa99-7181dabef99e","system_id":"levelo_inurba_marseille","lat":43.33549,"lon":5.37457,"is_reserved":false,"is_disabled":false,"rental_uris":{"android":"levelo://app?vid=1fa7c290-baf4-43ed-aa99-7181dabef99e","ios":"levelo://app?vid=1fa7c290-baf4-43ed-aa99-7181dabef99e"},"vehicle_type_id":"4","last_reported":1777179071,"current_range_meters":8400,"station_id":"st_d46tts09ee8s73dlu43g","pricing_plan_id":"cebpf4jnsgd1na2vs0mg"},{"bike_id":"bb7e8b34-29dc-4233-a471-666210872040","system_id":"levelo_inurba_marseille","lat":43.28938,"lon":5.36633,"is_reserved":false,"is_disabled":true,"rental_uris":{"android":"levelo://app?vid=bb7e8b34-29dc-4233-a471-666210872040","ios":"levelo://app?vid=bb7e8b34-29dc-4233-a471-666210872040"},"vehicle_type_id":"4","last_reported":1777179071,"current_range_meters":8400,"station_id":"ce4bhap2rcd13ifvqek0","pricing_plan_id":"cebpf4jnsgd1na2vs0mg"},{"bike_id":"756855cf-0ed2-406b-b79a-e0230b1df3f4","system_id":"levelo_inurba_marseille","lat":43.24413,"lon":5.37084,"is_reserved":false,"is_disabled":false,"rental_uris":{"android":"levelo://app?vid=756855cf-0ed2-406b-b79a-e0230b1df3f4","ios":"levelo://app?vid=756855cf-0ed2-406b-b79a-e0230b1df3f4"},"vehicle_type_id":"4","last_reported":1777179071,"current_range_meters":8400,"station_id":"ce4bhhh2rcd13ifvqfk0","pricing_plan_id":"cebpf4jnsgd1na2vs0mg"},{"bike_id":"b88e78bf-d930-4595-a07d-749e043ddd96","system_id":"levelo_inurba_marseille","lat":43.31117,"lon":5.37767,"is_reserved":false,"is_disabled":false,"rental_uris":{"android":"levelo://app?vid=b88e78bf-d930-4595-a07d-749e043ddd96","ios":"levelo://app?vid=b88e78bf-d930-4595-a07d-749e043ddd96"},"vehicle_type_id":"4","last_reported":1777179071,"current_range_meters":8400,"station_id":"ce4bgt92rcd13ifvqcg0","pricing_plan_id":"cebpf4jnsgd1na2vs0mg"},{"bike_id":"14dc7c16-df1d-4ac1-9de4-15960425fff4","system_id":"levelo_inurba_marseille","lat":43.27375,"lon":5.36253,"is_reserved":false,"is_disabled":false,"rental_uris":{"android":"levelo://app?vid=14dc7c16-df1d-4ac1-9de4-15960425fff4","ios":"levelo://app?vid=14dc7c16-df1d-4ac1-9de4-15960425fff4"},"vehicle_type_id":"4","last_reported":1777179071,"current_range_meters":8400,"station_id":"ce4bhbh2rcd13ifvqeo0","pricing_plan_id":"cebpf4jnsgd1na2vs0mg"},{"bike_id":"6b60b3c8-da35-492c-9411-418199a97ad7","system_id":"levelo_inurba_marseille","lat":43.28476,"lon":5.48379,"is_reserved":false,"is_disabled":false,"rental_uris":{"android":"levelo://app?vid=6b60b3c8-da35-492c-9411-418199a97ad7","ios":"levelo://app?vid=6b60b3c8-da35-492c-9411-418199a97ad7"},"vehicle_type_id":"4","last_reported":1777179071,"current_range_meters":8400,"station_id":"","pricing_plan_id":"cebpf4jnsgd1na2vs0mg"},{"bike_id":"f54ccc15-12bb-43a9-bcae-01eb62b17984","system_id":"levelo_inurba_marseille","lat":43.24814,"lon":5.37472,"is_reserved":false,"is_disabled":false,"rental_uris":{"android":"levelo://app?vid=f54ccc15-12bb-43a9-bcae-01eb62b17984","ios":"levelo://app?vid=f54ccc15-12bb-43a9-bcae-01eb62b17984"},"vehicle_type_id":"4","last_reported":1777179071,"current_range_meters":8400,"station_id":"ce4bhgh2rcd13ifvqfb0","pricing_plan_id":"cebpf4jnsgd1na2vs0mg"},{"bike_id":"fb350924-3b39-4197-a891-8208914eef37","system_id":"levelo_inurba_marseille","lat":43.24813,"lon":5.37496,"is_reserved":false,"is_disabled":false,"rental_uris":{"android":"levelo://app?vid=fb350924-3b39-4197-a891-8208914eef37","ios":"levelo://app?vid=fb350924-3b39-4197-a891-8208914eef37"},"vehicle_type_id":"4","last_reported":1777179071,"current_range_meters":8400,"station_id":"ce4bhgh2rcd13ifvqfb0","pricing_plan_id":"cebpf4jnsgd1na2vs0mg"},{"bike_id":"145ae6f0-7a6f-408a-aa85-a7c3130e0fcb","system_id":"levelo_inurba_marseille","lat":43.30926,"lon":5.40155,"is_reserved":false,"is_disabled":false,"rental_uris":{"android":"levelo://app?vid=145ae6f0-7a6f-408a-aa85-a7c3130e0fcb","ios":"levelo://app?vid=145ae6f0-7a6f-408a-aa85-a7c3130e0fcb"},"vehicle_type_id":"4","last_reported":1777179071,"current_range_meters":8400,"station_id":"ce4bgvp2rcd13ifvqct0","pricing_plan_id":"cebpf4jnsgd1na2vs0mg"},{"bike_id":"d0d29561-5aac-4540-9fd8-4ef61a6610e0","system_id":"levelo_inurba_marseille","lat":43.29193,"lon":5.36088,"is_reserved":false,"is_disabled":true,"rental_uris":{"android":"levelo://app?vid=d0d29561-5aac-4540-9fd8-4ef61a6610e0","ios":"levelo://app?vid=d0d29561-5aac-4540-9fd8-4ef61a6610e0"},"vehicle_type_id":"4","last_reported":1777179071,"current_range_meters":8400,"station_id":"ce4bhbh2rcd13ifvqeqg","pricing_plan_id":"cebpf4jnsgd1na2vs0mg"},{"bike_id":"fda983b3-301e-40f3-bb07-e5c67ab620e4","system_id":"levelo_inurba_marseille","lat":43.25064,"lon":5.40464,"is_reserved":false,"is_disabled":false,"rental_uris":{"android":"levelo://app?vid=fda983b3-301e-40f3-bb07-e5c67ab620e4","ios":"levelo://app?vid=fda983b3-301e-40f3-bb07-e5c67ab620e4"},"vehicle_type_id":"4","last_reported":1777179071,"current_range_meters":8400,"station_id":"","pricing_plan_id":"cebpf4jnsgd1na2vs0mg"},{"bike_id":"b7166d00-058e-4f8a-ac08-8d7664362d9a","system_id":"levelo_inurba_marseille","lat":43.26554,"lon":5.37308,"is_reserved":false,"is_disabled":true,"rental_uris":{"android":"levelo://app?vid=b7166d00-058e-4f8a-ac08-8d7664362d9a","ios":"levelo://app?vid=b7166d00-058e-4f8a-ac08-8d7664362d9a"},"vehicle_type_id":"4","last_reported":1777179071,"current_range_meters":8400,"station_id":"ce4bhg12rcd13ifvqf70","pricing_plan_id":"cebpf4jnsgd1na2vs0mg"},{"bike_id":"661352ad-320f-4fec-900e-52bef15be9f8","system_id":"levelo_inurba_marseille","lat":43.3082,"lon":5.39613,"is_reserved":false,"is_disabled":false,"rental_uris":{"android":"levelo://app?vid=661352ad-320f-4fec-900e-52bef15be9f8","ios":"levelo://app?vid=661352ad-320f-4fec-900e-52bef15be9f8"},"vehicle_type_id":"4","last_reported":1777179071,"current_range_meters":8400,"station_id":"","pricing_plan_id":"cebpf4jnsgd1na2vs0mg"},{"bike_id":"3bfba921-f9d7-478a-a976-9de667afdfd8","system_id":"levelo_inurba_marseille","lat":43.29545,"lon":5.38538,"is_reserved":false,"is_disabled":false,"rental_uris":{"android":"levelo://app?vid=3bfba921-f9d7-478a-a976-9de667afdfd8","ios":"levelo://app?vid=3bfba921-f9d7-478a-a976-9de667afdfd8"},"vehicle_type_id":"4","last_reported":1777179071,"current_range_meters":8400,"station_id":"ce4bgih2rcd13ifvqba0","pricing_plan_id":"cebpf4jnsgd1na2vs0mg"},{"bike_id":"79b9c4b7-da23-4d20-b352-ce75e5e71656","system_id":"levelo_inurba_marseille","lat":43.29331,"lon":5.37112,"is_reserved":false,"is_disabled":false,"rental_uris":{"android":"levelo://app?vid=79b9c4b7-da23-4d20-b352-ce75e5e71656","ios":"levelo://app?vid=79b9c4b7-da23-4d20-b352-ce75e5e71656"},"vehicle_type_id":"4","last_reported":1777179071,"current_range_meters":8400,"station_id":"","pricing_plan_id":"cebpf4jnsgd1na2vs0mg"},{"bike_id":"dafd656b-9d98-4eb6-a5ea-ec862117ba28","system_id":"levelo_inurba_marseille","lat":43.24944,"lon":5.40501,"is_reserved":false,"is_disabled":false,"rental_uris":{"android":"levelo://app?vid=dafd656b-9d98-4eb6-a5ea-ec862117ba28","ios":"levelo://app?vid=dafd656b-9d98-4eb6-a5ea-ec862117ba28"},"vehicle_type_id":"4","last_reported":1777179071,"current_range_meters":8400,"station_id":"st_d2ngiaodas8pm72gd1h0","pricing_plan_id":"cebpf4jnsgd1na2vs0mg"},{"bike_id":"452a27a7-4742-4a75-a90f-adbec51bbe80","system_id":"levelo_inurba_marseille","lat":43.30877,"lon":5.39632,"is_reserved":false,"is_disabled":false,"rental_uris":{"android":"levelo://app?vid=452a27a7-4742-4a75-a90f-adbec51bbe80","ios":"levelo://app?vid=452a27a7-4742-4a75-a90f-adbec51bbe80"},"vehicle_type_id":"4","last_reported":1777179071,"current_range_meters":8400,"station_id":"ce4bh012rcd13ifvqcv0","pricing_plan_id":"cebpf4jnsgd1na2vs0mg"},{"bike_id":"6c2f22b6-367a-49b4-aa6e-f4cde028ffca","system_id":"levelo_inurba_marseille","lat":43.28337,"lon":5.3862,"is_reserved":false,"is_disabled":false,"rental_uris":{"android":"levelo://app?vid=6c2f22b6-367a-49b4-aa6e-f4cde028ffca","ios":"levelo://app?vid=6c2f22b6-367a-49b4-aa6e-f4cde028ffca"},"vehicle_type_id":"4","last_reported":1777179071,"current_range_meters":8400,"station_id":"ce4bh492rcd13ifvqdvg","pricing_plan_id":"cebpf4jnsgd1na2vs0mg"},{"bike_id":"5e2c924d-4925-4620-9644-807ef3bda283","system_id":"levelo_inurba_marseille","lat":43.31373,"lon":5.38513,"is_reserved":false,"is_disabled":false,"rental_uris":{"android":"levelo://app?vid=5e2c924d-4925-4620-9644-807ef3bda283","ios":"levelo://app?vid=5e2c924d-4925-4620-9644-807ef3bda283"},"vehicle_type_id":"4","last_reported":1777179071,"current_range_meters":8400,"station_id":"ce4bgt92rcd13ifvqcf0","pricing_plan_id":"cebpf4jnsgd1na2vs0mg"},{"bike_id":"f7716b3d-5dc6-4c1f-94ea-dd8b69d23a22","system_id":"levelo_inurba_marseille","lat":43.27499,"lon":5.43495,"is_reserved":false,"is_disabled":false,"rental_uris":{"android":"levelo://app?vid=f7716b3d-5dc6-4c1f-94ea-dd8b69d23a22","ios":"levelo://app?vid=f7716b3d-5dc6-4c1f-94ea-dd8b69d23a22"},"vehicle_type_id":"4","last_reported":1777179071,"current_range_meters":8400,"station_id":"","pricing_plan_id":"cebpf4jnsgd1na2vs0mg"},{"bike_id":"494fd0fc-3b39-4504-a26b-321afbf22977","system_id":"levelo_inurba_marseille","lat":43.23846,"lon":5.38573,"is_reserved":false,"is_disabled":false,"rental_uris":{"android":"levelo://app?vid=494fd0fc-3b39-4504-a26b-321afbf22977","ios":"levelo://app?vid=494fd0fc-3b39-4504-a26b-321afbf22977"},"vehicle_type_id":"4","last_reported":1777179071,"current_range_meters":8800,"station_id":"","pricing_plan_id":"cebpf4jnsgd1na2vs0mg"},{"bike_id":"df75676a-7c3f-4d29-80c0-260795f2c62d","system_id":"levelo_inurba_marseille","lat":43.27965,"lon":5.40787,"is_reserved":false,"is_disabled":false,"rental_uris":{"android":"levelo://app?vid=df75676a-7c3f-4d29-80c0-260795f2c62d","ios":"levelo://app?vid=df75676a-7c3f-4d29-80c0-260795f2c62d"},"vehicle_type_id":"4","last_reported":1777179071,"current_range_meters":8800,"station_id":"","pricing_plan_id":"cebpf4jnsgd1na2vs0mg"},{"bike_id":"72337c7c-15fe-4d9d-a055-b6365e7a1881","system_id":"levelo_inurba_marseille","lat":43.24957,"lon":5.40499,"is_reserved":false,"is_disabled":false,"rental_uris":{"android":"levelo://app?vid=72337c7c-15fe-4d9d-a055-b6365e7a1881","ios":"levelo://app?vid=72337c7c-15fe-4d9d-a055-b6365e7a1881"},"vehicle_type_id":"4","last_reported":1777179071,"current_range_meters":8800,"station_id":"st_d2ngiaodas8pm72gd1h0","pricing_plan_id":"cebpf4jnsgd1na2vs0mg"},{"bike_id":"d84dad1f-3355-427c-a81e-a3f872caa973","system_id":"levelo_inurba_marseille","lat":43.28719,"lon":5.46689,"is_reserved":false,"is_disabled":false,"rental_uris":{"android":"levelo://app?vid=d84dad1f-3355-427c-a81e-a3f872caa973","ios":"levelo://app?vid=d84dad1f-3355-427c-a81e-a3f872caa973"},"vehicle_type_id":"4","last_reported":1777179071,"current_range_meters":8800,"station_id":"st_d6tc3vkotcvc738tfjhg","pricing_plan_id":"cebpf4jnsgd1na2vs0mg"},{"bike_id":"6cf3a600-b22f-4888-b1ea-a099526102d1","system_id":"levelo_inurba_marseille","lat":43.24657,"lon":5.38156,"is_reserved":false,"is_disabled":false,"rental_uris":{"android":"levelo://app?vid=6cf3a600-b22f-4888-b1ea-a099526102d1","ios":"levelo://app?vid=6cf3a600-b22f-4888-b1ea-a099526102d1"},"vehicle_type_id":"4","last_reported":1777179071,"current_range_meters":8800,"station_id":"ce4bhih2rcd13ifvqfr0","pricing_plan_id":"cebpf4jnsgd1na2vs0mg"},{"bike_id":"755bd556-2b0c-40ea-9564-8ecb4a543f6e","system_id":"levelo_inurba_marseille","lat":43.28418,"lon":5.39201,"is_reserved":false,"is_disabled":false,"rental_uris":{"android":"levelo://app?vid=755bd556-2b0c-40ea-9564-8ecb4a543f6e","ios":"levelo://app?vid=755bd556-2b0c-40ea-9564-8ecb4a543f6e"},"vehicle_type_id":"4","last_reported":1777179071,"current_range_meters":8800,"station_id":"ce4bhoh2rcd13ifvqh5g","pricing_plan_id":"cebpf4jnsgd1na2vs0mg"},{"bike_id":"d6bc117c-2966-4f26-b647-0de41eb8e14c","system_id":"levelo_inurba_marseille","lat":43.26022,"lon":5.39433,"is_reserved":false,"is_disabled":false,"rental_uris":{"android":"levelo://app?vid=d6bc117c-2966-4f26-b647-0de41eb8e14c","ios":"levelo://app?vid=d6bc117c-2966-4f26-b647-0de41eb8e14c"},"vehicle_type_id":"4","last_reported":1777179071,"current_range_meters":8800,"station_id":"","pricing_plan_id":"cebpf4jnsgd1na2vs0mg"},{"bike_id":"be3dbaca-317c-43ef-8335-8f03df566046","system_id":"levelo_inurba_marseille","lat":43.28473,"lon":5.48404,"is_reserved":false,"is_disabled":true,"rental_uris":{"android":"levelo://app?vid=be3dbaca-317c-43ef-8335-8f03df566046","ios":"levelo://app?vid=be3dbaca-317c-43ef-8335-8f03df566046"},"vehicle_type_id":"4","last_reported":1777179071,"current_range_meters":8800,"station_id":"st_d3svhcjqgbts73a3dn0g","pricing_plan_id":"cebpf4jnsgd1na2vs0mg"},{"bike_id":"21e5ee49-46ea-4654-9ee8-cd56506e5559","system_id":"levelo_inurba_marseille","lat":43.28015,"lon":5.36934,"is_reserved":false,"is_disabled":false,"rental_uris":{"android":"levelo://app?vid=21e5ee49-46ea-4654-9ee8-cd56506e5559","ios":"levelo://app?vid=21e5ee49-46ea-4654-9ee8-cd56506e5559"},"vehicle_type_id":"4","last_reported":1777179071,"current_range_meters":8800,"station_id":"ce4bha12rcd13ifvqef0","pricing_plan_id":"cebpf4jnsgd1na2vs0mg"},{"bike_id":"5218b5d2-e5a8-4955-bf7f-c01acae496ac","system_id":"levelo_inurba_marseille","lat":43.29591,"lon":5.38083,"is_reserved":false,"is_disabled":false,"rental_uris":{"android":"levelo://app?vid=5218b5d2-e5a8-4955-bf7f-c01acae496ac","ios":"levelo://app?vid=5218b5d2-e5a8-4955-bf7f-c01acae496ac"},"vehicle_type_id":"4","last_reported":1777179071,"current_range_meters":8800,"station_id":"ce4bgl12rcd13ifvqbo0","pricing_plan_id":"cebpf4jnsgd1na2vs0mg"},{"bike_id":"4961aed3-fe8f-453c-875e-01e0abd954bd","system_id":"levelo_inurba_marseille","lat":43.25815,"lon":5.39449,"is_reserved":false,"is_disabled":false,"rental_uris":{"android":"levelo://app?vid=4961aed3-fe8f-453c-875e-01e0abd954bd","ios":"levelo://app?vid=4961aed3-fe8f-453c-875e-01e0abd954bd"},"vehicle_type_id":"4","last_reported":1777179071,"current_range_meters":8800,"station_id":"ce4bhip2rcd13ifvqft0","pricing_plan_id":"cebpf4jnsgd1na2vs0mg"},{"bike_id":"8382b8e2-42a0-4cae-8f3d-d1af83bab971","system_id":"levelo_inurba_marseille","lat":43.24638,"lon":5.38895,"is_reserved":false,"is_disabled":false,"rental_uris":{"android":"levelo://app?vid=8382b8e2-42a0-4cae-8f3d-d1af83bab971","ios":"levelo://app?vid=8382b8e2-42a0-4cae-8f3d-d1af83bab971"},"vehicle_type_id":"4","last_reported":1777179071,"current_range_meters":8800,"station_id":"ce4bhg12rcd13ifvqf60","pricing_plan_id":"cebpf4jnsgd1na2vs0mg"},{"bike_id":"a5d1c5f8-e551-41de-b7f3-a52119a1050b","system_id":"levelo_inurba_marseille","lat":43.27811,"lon":5.37454,"is_reserved":false,"is_disabled":false,"rental_uris":{"android":"levelo://app?vid=a5d1c5f8-e551-41de-b7f3-a52119a1050b","ios":"levelo://app?vid=a5d1c5f8-e551-41de-b7f3-a52119a1050b"},"vehicle_type_id":"4","last_reported":1777179071,"current_range_meters":8800,"station_id":"","pricing_plan_id":"cebpf4jnsgd1na2vs0mg"},{"bike_id":"232bec04-918b-46bf-b2c9-c4a5b6d81d7e","system_id":"levelo_inurba_marseille","lat":43.29879,"lon":5.36552,"is_reserved":false,"is_disabled":false,"rental_uris":{"android":"levelo://app?vid=232bec04-918b-46bf-b2c9-c4a5b6d81d7e","ios":"levelo://app?vid=232bec04-918b-46bf-b2c9-c4a5b6d81d7e"},"vehicle_type_id":"4","last_reported":1777179071,"current_range_meters":8800,"station_id":"ce4bgm92rcd13ifvqbr0","pricing_plan_id":"cebpf4jnsgd1na2vs0mg"},{"bike_id":"9096d725-a365-4ad7-8ff9-a7f2a5190902","system_id":"levelo_inurba_marseille","lat":43.26948,"lon":5.38618,"is_reserved":false,"is_disabled":true,"rental_uris":{"android":"levelo://app?vid=9096d725-a365-4ad7-8ff9-a7f2a5190902","ios":"levelo://app?vid=9096d725-a365-4ad7-8ff9-a7f2a5190902"},"vehicle_type_id":"4","last_reported":1777179071,"current_range_meters":8800,"station_id":"ce4bhh92rcd13ifvqfh0","pricing_plan_id":"cebpf4jnsgd1na2vs0mg"},{"bike_id":"f86f8c18-a73c-41ff-b670-a5d257f01b66","system_id":"levelo_inurba_marseille","lat":43.30605,"lon":5.39358,"is_reserved":false,"is_disabled":false,"rental_uris":{"android":"levelo://app?vid=f86f8c18-a73c-41ff-b670-a5d257f01b66","ios":"levelo://app?vid=f86f8c18-a73c-41ff-b670-a5d257f01b66"},"vehicle_type_id":"4","last_reported":1777179071,"current_range_meters":8800,"station_id":"ce4bh0p2rcd13ifvqd80","pricing_plan_id":"cebpf4jnsgd1na2vs0mg"},{"bike_id":"ef4d8f5c-0cb3-48f9-b42c-c6865b4f2c93","system_id":"levelo_inurba_marseille","lat":43.28598,"lon":5.39886,"is_reserved":false,"is_disabled":false,"rental_uris":{"android":"levelo://app?vid=ef4d8f5c-0cb3-48f9-b42c-c6865b4f2c93","ios":"levelo://app?vid=ef4d8f5c-0cb3-48f9-b42c-c6865b4f2c93"},"vehicle_type_id":"4","last_reported":1777179071,"current_range_meters":8800,"station_id":"st_d4a7ka997mjs738ck50g","pricing_plan_id":"cebpf4jnsgd1na2vs0mg"},{"bike_id":"ced48241-f330-4cf7-b786-efae86bb562a","system_id":"levelo_inurba_marseille","lat":43.30311,"lon":5.40443,"is_reserved":false,"is_disabled":false,"rental_uris":{"android":"levelo://app?vid=ced48241-f330-4cf7-b786-efae86bb562a","ios":"levelo://app?vid=ced48241-f330-4cf7-b786-efae86bb562a"},"vehicle_type_id":"4","last_reported":1777179071,"current_range_meters":8800,"station_id":"ce4bh012rcd13ifvqd10","pricing_plan_id":"cebpf4jnsgd1na2vs0mg"},{"bike_id":"d054276e-6372-4793-ae37-6281dafb78f8","system_id":"levelo_inurba_marseille","lat":43.3376,"lon":5.37435,"is_reserved":false,"is_disabled":false,"rental_uris":{"android":"levelo://app?vid=d054276e-6372-4793-ae37-6281dafb78f8","ios":"levelo://app?vid=d054276e-6372-4793-ae37-6281dafb78f8"},"vehicle_type_id":"4","last_reported":1777179071,"current_range_meters":8800,"station_id":"","pricing_plan_id":"cebpf4jnsgd1na2vs0mg"},{"bike_id":"b12bf633-9f12-430a-81ca-afd5314247a4","system_id":"levelo_inurba_marseille","lat":43.31316,"lon":5.38533,"is_reserved":false,"is_disabled":false,"rental_uris":{"android":"levelo://app?vid=b12bf633-9f12-430a-81ca-afd5314247a4","ios":"levelo://app?vid=b12bf633-9f12-430a-81ca-afd5314247a4"},"vehicle_type_id":"4","last_reported":1777179071,"current_range_meters":8800,"station_id":"","pricing_plan_id":"cebpf4jnsgd1na2vs0mg"},{"bike_id":"7823ad82-47ee-4874-a221-0f59ad06630d","system_id":"levelo_inurba_marseille","lat":43.29857,"lon":5.38903,"is_reserved":false,"is_disabled":false,"rental_uris":{"android":"levelo://app?vid=7823ad82-47ee-4874-a221-0f59ad06630d","ios":"levelo://app?vid=7823ad82-47ee-4874-a221-0f59ad06630d"},"vehicle_type_id":"4","last_reported":1777179071,"current_range_meters":8800,"station_id":"ce4bh392rcd13ifvqdl0","pricing_plan_id":"cebpf4jnsgd1na2vs0mg"},{"bike_id":"867e4efb-03e8-466f-a027-d873140a375d","system_id":"levelo_inurba_marseille","lat":43.24818,"lon":5.3746,"is_reserved":false,"is_disabled":false,"rental_uris":{"android":"levelo://app?vid=867e4efb-03e8-466f-a027-d873140a375d","ios":"levelo://app?vid=867e4efb-03e8-466f-a027-d873140a375d"},"vehicle_type_id":"4","last_reported":1777179071,"current_range_meters":8800,"station_id":"ce4bhgh2rcd13ifvqfb0","pricing_plan_id":"cebpf4jnsgd1na2vs0mg"},{"bike_id":"350def6a-49cd-4481-a898-fd3c43c0f642","system_id":"levelo_inurba_marseille","lat":43.30432,"lon":5.41301,"is_reserved":false,"is_disabled":false,"rental_uris":{"android":"levelo://app?vid=350def6a-49cd-4481-a898-fd3c43c0f642","ios":"levelo://app?vid=350def6a-49cd-4481-a898-fd3c43c0f642"},"vehicle_type_id":"4","last_reported":1777179071,"current_range_meters":9200,"station_id":"ce4bhop2rcd13ifvqh8g","pricing_plan_id":"cebpf4jnsgd1na2vs0mg"},{"bike_id":"5354cf07-79ed-432a-b193-14addfafc2f9","system_id":"levelo_inurba_marseille","lat":43.24389,"lon":5.37053,"is_reserved":false,"is_disabled":false,"rental_uris":{"android":"levelo://app?vid=5354cf07-79ed-432a-b193-14addfafc2f9","ios":"levelo://app?vid=5354cf07-79ed-432a-b193-14addfafc2f9"},"vehicle_type_id":"4","last_reported":1777179071,"current_range_meters":9200,"station_id":"ce4bhhh2rcd13ifvqfk0","pricing_plan_id":"cebpf4jnsgd1na2vs0mg"},{"bike_id":"5676b1df-3102-49f0-94ea-6bd037dc90c9","system_id":"levelo_inurba_marseille","lat":43.31096,"lon":5.38037,"is_reserved":false,"is_disabled":false,"rental_uris":{"android":"levelo://app?vid=5676b1df-3102-49f0-94ea-6bd037dc90c9","ios":"levelo://app?vid=5676b1df-3102-49f0-94ea-6bd037dc90c9"},"vehicle_type_id":"4","last_reported":1777179071,"current_range_meters":9200,"station_id":"","pricing_plan_id":"cebpf4jnsgd1na2vs0mg"},{"bike_id":"3641d640-2b8a-4f13-b91c-6c317e71d939","system_id":"levelo_inurba_marseille","lat":43.24163,"lon":5.36373,"is_reserved":false,"is_disabled":false,"rental_uris":{"android":"levelo://app?vid=3641d640-2b8a-4f13-b91c-6c317e71d939","ios":"levelo://app?vid=3641d640-2b8a-4f13-b91c-6c317e71d939"},"vehicle_type_id":"4","last_reported":1777179071,"current_range_meters":9200,"station_id":"cpo36qri1sfpv3e86is0","pricing_plan_id":"cebpf4jnsgd1na2vs0mg"},{"bike_id":"3142bc3c-82f8-47a3-b9b7-bdb5ae2f4136","system_id":"levelo_inurba_marseille","lat":43.26,"lon":5.3755,"is_reserved":false,"is_disabled":false,"rental_uris":{"android":"levelo://app?vid=3142bc3c-82f8-47a3-b9b7-bdb5ae2f4136","ios":"levelo://app?vid=3142bc3c-82f8-47a3-b9b7-bdb5ae2f4136"},"vehicle_type_id":"4","last_reported":1777179071,"current_range_meters":9200,"station_id":"ce4bhgh2rcd13ifvqfa0","pricing_plan_id":"cebpf4jnsgd1na2vs0mg"},{"bike_id":"bee2faa6-b5bc-4110-b099-1849d29fd358","system_id":"levelo_inurba_marseille","lat":43.23191,"lon":5.39978,"is_reserved":false,"is_disabled":false,"rental_uris":{"android":"levelo://app?vid=bee2faa6-b5bc-4110-b099-1849d29fd358","ios":"levelo://app?vid=bee2faa6-b5bc-4110-b099-1849d29fd358"},"vehicle_type_id":"4","last_reported":1777179071,"current_range_meters":9200,"station_id":"ce4bhn12rcd13ifvqgqg","pricing_plan_id":"cebpf4jnsgd1na2vs0mg"},{"bike_id":"154ee52d-6390-4e50-a4b7-48651d4386b6","system_id":"levelo_inurba_marseille","lat":43.28167,"lon":5.42657,"is_reserved":false,"is_disabled":false,"rental_uris":{"android":"levelo://app?vid=154ee52d-6390-4e50-a4b7-48651d4386b6","ios":"levelo://app?vid=154ee52d-6390-4e50-a4b7-48651d4386b6"},"vehicle_type_id":"4","last_reported":1777179071,"current_range_meters":9200,"station_id":"ce4bhnh2rcd13ifvqgug","pricing_plan_id":"cebpf4jnsgd1na2vs0mg"},{"bike_id":"23f59568-fe60-42a6-ae28-c54710fded03","system_id":"levelo_inurba_marseille","lat":43.30931,"lon":5.40141,"is_reserved":false,"is_disabled":false,"rental_uris":{"android":"levelo://app?vid=23f59568-fe60-42a6-ae28-c54710fded03","ios":"levelo://app?vid=23f59568-fe60-42a6-ae28-c54710fded03"},"vehicle_type_id":"4","last_reported":1777179071,"current_range_meters":9200,"station_id":"ce4bgvp2rcd13ifvqct0","pricing_plan_id":"cebpf4jnsgd1na2vs0mg"},{"bike_id":"b21748b2-fb24-4ee6-8e6a-c7c61264faec","system_id":"levelo_inurba_marseille","lat":43.27382,"lon":5.42179,"is_reserved":false,"is_disabled":false,"rental_uris":{"android":"levelo://app?vid=b21748b2-fb24-4ee6-8e6a-c7c61264faec","ios":"levelo://app?vid=b21748b2-fb24-4ee6-8e6a-c7c61264faec"},"vehicle_type_id":"4","last_reported":1777179071,"current_range_meters":9200,"station_id":"","pricing_plan_id":"cebpf4jnsgd1na2vs0mg"},{"bike_id":"c243790c-fc78-4a41-b0ff-9face0fb6eca","system_id":"levelo_inurba_marseille","lat":43.28653,"lon":5.36354,"is_reserved":false,"is_disabled":false,"rental_uris":{"android":"levelo://app?vid=c243790c-fc78-4a41-b0ff-9face0fb6eca","ios":"levelo://app?vid=c243790c-fc78-4a41-b0ff-9face0fb6eca"},"vehicle_type_id":"4","last_reported":1777179071,"current_range_meters":9200,"station_id":"ce4bhah2rcd13ifvqej0","pricing_plan_id":"cebpf4jnsgd1na2vs0mg"},{"bike_id":"1c94fb5c-542d-4cb1-8558-d07c486a04ae","system_id":"levelo_inurba_marseille","lat":43.32505,"lon":5.38286,"is_reserved":false,"is_disabled":false,"rental_uris":{"android":"levelo://app?vid=1c94fb5c-542d-4cb1-8558-d07c486a04ae","ios":"levelo://app?vid=1c94fb5c-542d-4cb1-8558-d07c486a04ae"},"vehicle_type_id":"4","last_reported":1777179071,"current_range_meters":9200,"station_id":"st_d4asgbiv49dc73anf9m0","pricing_plan_id":"cebpf4jnsgd1na2vs0mg"},{"bike_id":"64b8cd49-d03e-4536-b5ba-e449cf73178d","system_id":"levelo_inurba_marseille","lat":43.29922,"lon":5.36534,"is_reserved":false,"is_disabled":false,"rental_uris":{"android":"levelo://app?vid=64b8cd49-d03e-4536-b5ba-e449cf73178d","ios":"levelo://app?vid=64b8cd49-d03e-4536-b5ba-e449cf73178d"},"vehicle_type_id":"4","last_reported":1777179071,"current_range_meters":9200,"station_id":"ce4bgm92rcd13ifvqbr0","pricing_plan_id":"cebpf4jnsgd1na2vs0mg"},{"bike_id":"c41b2147-e75f-4d0a-9ad5-9c124fa8d754","system_id":"levelo_inurba_marseille","lat":43.29225,"lon":5.38484,"is_reserved":false,"is_disabled":false,"rental_uris":{"android":"levelo://app?vid=c41b2147-e75f-4d0a-9ad5-9c124fa8d754","ios":"levelo://app?vid=c41b2147-e75f-4d0a-9ad5-9c124fa8d754"},"vehicle_type_id":"4","last_reported":1777179071,"current_range_meters":9200,"station_id":"","pricing_plan_id":"cebpf4jnsgd1na2vs0mg"},{"bike_id":"9016c02d-92d3-4cdb-bc04-cf65b648a362","system_id":"levelo_inurba_marseille","lat":43.27988,"lon":5.38697,"is_reserved":false,"is_disabled":false,"rental_uris":{"android":"levelo://app?vid=9016c02d-92d3-4cdb-bc04-cf65b648a362","ios":"levelo://app?vid=9016c02d-92d3-4cdb-bc04-cf65b648a362"},"vehicle_type_id":"4","last_reported":1777179071,"current_range_meters":9600,"station_id":"ce4bhg12rcd13ifvqf80","pricing_plan_id":"cebpf4jnsgd1na2vs0mg"},{"bike_id":"d710e251-fad5-471b-bfaf-1dcc26c8e783","system_id":"levelo_inurba_marseille","lat":43.24484,"lon":5.42536,"is_reserved":false,"is_disabled":false,"rental_uris":{"android":"levelo://app?vid=d710e251-fad5-471b-bfaf-1dcc26c8e783","ios":"levelo://app?vid=d710e251-fad5-471b-bfaf-1dcc26c8e783"},"vehicle_type_id":"4","last_reported":1777179071,"current_range_meters":9600,"station_id":"st_d4a3vfp97mjs738cd8kg","pricing_plan_id":"cebpf4jnsgd1na2vs0mg"},{"bike_id":"17f5223a-84d1-46d9-b55d-6a7e95a08bd7","system_id":"levelo_inurba_marseille","lat":43.24816,"lon":5.37458,"is_reserved":false,"is_disabled":false,"rental_uris":{"android":"levelo://app?vid=17f5223a-84d1-46d9-b55d-6a7e95a08bd7","ios":"levelo://app?vid=17f5223a-84d1-46d9-b55d-6a7e95a08bd7"},"vehicle_type_id":"4","last_reported":1777179071,"current_range_meters":9600,"station_id":"ce4bhgh2rcd13ifvqfb0","pricing_plan_id":"cebpf4jnsgd1na2vs0mg"},{"bike_id":"e9caee44-b787-4c36-a632-4bd6c1ec7cfa","system_id":"levelo_inurba_marseille","lat":43.28511,"lon":5.48427,"is_reserved":false,"is_disabled":false,"rental_uris":{"android":"levelo://app?vid=e9caee44-b787-4c36-a632-4bd6c1ec7cfa","ios":"levelo://app?vid=e9caee44-b787-4c36-a632-4bd6c1ec7cfa"},"vehicle_type_id":"4","last_reported":1777179071,"current_range_meters":9600,"station_id":"st_d3svhcjqgbts73a3dn0g","pricing_plan_id":"cebpf4jnsgd1na2vs0mg"},{"bike_id":"1db00e34-5de7-4dcd-8e5e-0acb9338b4b7","system_id":"levelo_inurba_marseille","lat":43.32095,"lon":5.36785,"is_reserved":false,"is_disabled":false,"rental_uris":{"android":"levelo://app?vid=1db00e34-5de7-4dcd-8e5e-0acb9338b4b7","ios":"levelo://app?vid=1db00e34-5de7-4dcd-8e5e-0acb9338b4b7"},"vehicle_type_id":"4","last_reported":1777179071,"current_range_meters":9600,"station_id":"ce4bhrh2rcd13ifvqhug","pricing_plan_id":"cebpf4jnsgd1na2vs0mg"},{"bike_id":"fa751cf9-28f3-4d65-b8f1-30773d90354d","system_id":"levelo_inurba_marseille","lat":43.2495,"lon":5.40503,"is_reserved":false,"is_disabled":false,"rental_uris":{"android":"levelo://app?vid=fa751cf9-28f3-4d65-b8f1-30773d90354d","ios":"levelo://app?vid=fa751cf9-28f3-4d65-b8f1-30773d90354d"},"vehicle_type_id":"4","last_reported":1777179071,"current_range_meters":9600,"station_id":"st_d2ngiaodas8pm72gd1h0","pricing_plan_id":"cebpf4jnsgd1na2vs0mg"},{"bike_id":"1f13452b-ac27-48ca-bbd2-1255b0865067","system_id":"levelo_inurba_marseille","lat":43.27849,"lon":5.37951,"is_reserved":false,"is_disabled":false,"rental_uris":{"android":"levelo://app?vid=1f13452b-ac27-48ca-bbd2-1255b0865067","ios":"levelo://app?vid=1f13452b-ac27-48ca-bbd2-1255b0865067"},"vehicle_type_id":"4","last_reported":1777179071,"current_range_meters":9600,"station_id":"","pricing_plan_id":"cebpf4jnsgd1na2vs0mg"},{"bike_id":"93378c7e-8a33-4e07-ab2a-fc9cc927fe7a","system_id":"levelo_inurba_marseille","lat":43.2885,"lon":5.39344,"is_reserved":false,"is_disabled":true,"rental_uris":{"android":"levelo://app?vid=93378c7e-8a33-4e07-ab2a-fc9cc927fe7a","ios":"levelo://app?vid=93378c7e-8a33-4e07-ab2a-fc9cc927fe7a"},"vehicle_type_id":"4","last_reported":1777179071,"current_range_meters":9600,"station_id":"ce4bh2p2rcd13ifvqdi0","pricing_plan_id":"cebpf4jnsgd1na2vs0mg"},{"bike_id":"7fda4e76-4d16-41e6-8883-1545539b8b8b","system_id":"levelo_inurba_marseille","lat":43.30156,"lon":5.38088,"is_reserved":false,"is_disabled":false,"rental_uris":{"android":"levelo://app?vid=7fda4e76-4d16-41e6-8883-1545539b8b8b","ios":"levelo://app?vid=7fda4e76-4d16-41e6-8883-1545539b8b8b"},"vehicle_type_id":"4","last_reported":1777179071,"current_range_meters":9600,"station_id":"ce4bgjp2rcd13ifvqbh0","pricing_plan_id":"cebpf4jnsgd1na2vs0mg"},{"bike_id":"ad2c1c72-a698-4a21-bec7-d42a60a7d2c0","system_id":"levelo_inurba_marseille","lat":43.26311,"lon":5.40571,"is_reserved":false,"is_disabled":false,"rental_uris":{"android":"levelo://app?vid=ad2c1c72-a698-4a21-bec7-d42a60a7d2c0","ios":"levelo://app?vid=ad2c1c72-a698-4a21-bec7-d42a60a7d2c0"},"vehicle_type_id":"4","last_reported":1777179071,"current_range_meters":9600,"station_id":"ce4bhmh2rcd13ifvqgmg","pricing_plan_id":"cebpf4jnsgd1na2vs0mg"},{"bike_id":"daccedaa-0e05-40e0-b340-1dbf821fac87","system_id":"levelo_inurba_marseille","lat":43.27915,"lon":5.3959,"is_reserved":false,"is_disabled":false,"rental_uris":{"android":"levelo://app?vid=daccedaa-0e05-40e0-b340-1dbf821fac87","ios":"levelo://app?vid=daccedaa-0e05-40e0-b340-1dbf821fac87"},"vehicle_type_id":"4","last_reported":1777179071,"current_range_meters":9600,"station_id":"ce4bhf92rcd13ifvqf40","pricing_plan_id":"cebpf4jnsgd1na2vs0mg"},{"bike_id":"8b1f6105-5306-4b9a-bf9d-4d0536e39931","system_id":"levelo_inurba_marseille","lat":43.29301,"lon":5.37085,"is_reserved":false,"is_disabled":false,"rental_uris":{"android":"levelo://app?vid=8b1f6105-5306-4b9a-bf9d-4d0536e39931","ios":"levelo://app?vid=8b1f6105-5306-4b9a-bf9d-4d0536e39931"},"vehicle_type_id":"4","last_reported":1777179071,"current_range_meters":9600,"station_id":"","pricing_plan_id":"cebpf4jnsgd1na2vs0mg"},{"bike_id":"7b9926f3-1d2b-4da5-87b5-bf4a0fec5f8c","system_id":"levelo_inurba_marseille","lat":43.24161,"lon":5.36412,"is_reserved":false,"is_disabled":false,"rental_uris":{"android":"levelo://app?vid=7b9926f3-1d2b-4da5-87b5-bf4a0fec5f8c","ios":"levelo://app?vid=7b9926f3-1d2b-4da5-87b5-bf4a0fec5f8c"},"vehicle_type_id":"4","last_reported":1777179071,"current_range_meters":9600,"station_id":"cpo36qri1sfpv3e86is0","pricing_plan_id":"cebpf4jnsgd1na2vs0mg"},{"bike_id":"8613700e-d0db-4d74-978e-b495e9b9fac0","system_id":"levelo_inurba_marseille","lat":43.29868,"lon":5.38893,"is_reserved":false,"is_disabled":true,"rental_uris":{"android":"levelo://app?vid=8613700e-d0db-4d74-978e-b495e9b9fac0","ios":"levelo://app?vid=8613700e-d0db-4d74-978e-b495e9b9fac0"},"vehicle_type_id":"4","last_reported":1777179071,"current_range_meters":10000,"station_id":"ce4bh392rcd13ifvqdl0","pricing_plan_id":"cebpf4jnsgd1na2vs0mg"},{"bike_id":"1e9f9db4-b187-4918-aff6-e443af638e80","system_id":"levelo_inurba_marseille","lat":43.30862,"lon":5.37184,"is_reserved":false,"is_disabled":false,"rental_uris":{"android":"levelo://app?vid=1e9f9db4-b187-4918-aff6-e443af638e80","ios":"levelo://app?vid=1e9f9db4-b187-4918-aff6-e443af638e80"},"vehicle_type_id":"4","last_reported":1777179071,"current_range_meters":10000,"station_id":"ce4bguh2rcd13ifvqckg","pricing_plan_id":"cebpf4jnsgd1na2vs0mg"},{"bike_id":"cea31a32-5e3a-46c4-9d32-5011edfbb303","system_id":"levelo_inurba_marseille","lat":43.337444,"lon":5.374475,"is_reserved":false,"is_disabled":true,"rental_uris":{"android":"levelo://app?vid=cea31a32-5e3a-46c4-9d32-5011edfbb303","ios":"levelo://app?vid=cea31a32-5e3a-46c4-9d32-5011edfbb303"},"vehicle_type_id":"4","last_reported":1777179071,"current_range_meters":10000,"station_id":"","pricing_plan_id":"cebpf4jnsgd1na2vs0mg"},{"bike_id":"5901e1eb-e640-4fe6-a4a2-4c4a5f30afa8","system_id":"levelo_inurba_marseille","lat":43.27936,"lon":5.4103,"is_reserved":false,"is_disabled":false,"rental_uris":{"android":"levelo://app?vid=5901e1eb-e640-4fe6-a4a2-4c4a5f30afa8","ios":"levelo://app?vid=5901e1eb-e640-4fe6-a4a2-4c4a5f30afa8"},"vehicle_type_id":"4","last_reported":1777179071,"current_range_meters":10000,"station_id":"ce4bhnp2rcd13ifvqh0g","pricing_plan_id":"cebpf4jnsgd1na2vs0mg"},{"bike_id":"32d8062d-b01e-46bc-92b9-65d5fbd8fc06","system_id":"levelo_inurba_marseille","lat":43.23958,"lon":5.36609,"is_reserved":false,"is_disabled":false,"rental_uris":{"android":"levelo://app?vid=32d8062d-b01e-46bc-92b9-65d5fbd8fc06","ios":"levelo://app?vid=32d8062d-b01e-46bc-92b9-65d5fbd8fc06"},"vehicle_type_id":"4","last_reported":1777179071,"current_range_meters":10000,"station_id":"ce4bhi12rcd13ifvqfp0","pricing_plan_id":"cebpf4jnsgd1na2vs0mg"},{"bike_id":"cb91dfe4-b80c-46dd-9175-cedd46c69150","system_id":"levelo_inurba_marseille","lat":43.26605,"lon":5.39037,"is_reserved":false,"is_disabled":false,"rental_uris":{"android":"levelo://app?vid=cb91dfe4-b80c-46dd-9175-cedd46c69150","ios":"levelo://app?vid=cb91dfe4-b80c-46dd-9175-cedd46c69150"},"vehicle_type_id":"4","last_reported":1777179071,"current_range_meters":10000,"station_id":"","pricing_plan_id":"cebpf4jnsgd1na2vs0mg"},{"bike_id":"43eb6742-af1d-4f9d-95d5-21eb4994077c","system_id":"levelo_inurba_marseille","lat":43.25844,"lon":5.39416,"is_reserved":false,"is_disabled":false,"rental_uris":{"android":"levelo://app?vid=43eb6742-af1d-4f9d-95d5-21eb4994077c","ios":"levelo://app?vid=43eb6742-af1d-4f9d-95d5-21eb4994077c"},"vehicle_type_id":"4","last_reported":1777179071,"current_range_meters":10000,"station_id":"ce4bhip2rcd13ifvqft0","pricing_plan_id":"cebpf4jnsgd1na2vs0mg"},{"bike_id":"e974079b-b025-4c5d-912e-f159441947ae","system_id":"levelo_inurba_marseille","lat":43.28209,"lon":5.39066,"is_reserved":false,"is_disabled":false,"rental_uris":{"android":"levelo://app?vid=e974079b-b025-4c5d-912e-f159441947ae","ios":"levelo://app?vid=e974079b-b025-4c5d-912e-f159441947ae"},"vehicle_type_id":"4","last_reported":1777179071,"current_range_meters":10000,"station_id":"ce4bhn92rcd13ifvqgsg","pricing_plan_id":"cebpf4jnsgd1na2vs0mg"},{"bike_id":"0cff5f0c-5644-4c31-bea2-e7d7e457b847","system_id":"levelo_inurba_marseille","lat":43.30972,"lon":5.40169,"is_reserved":false,"is_disabled":false,"rental_uris":{"android":"levelo://app?vid=0cff5f0c-5644-4c31-bea2-e7d7e457b847","ios":"levelo://app?vid=0cff5f0c-5644-4c31-bea2-e7d7e457b847"},"vehicle_type_id":"4","last_reported":1777179071,"current_range_meters":10000,"station_id":"ce4bgvp2rcd13ifvqct0","pricing_plan_id":"cebpf4jnsgd1na2vs0mg"},{"bike_id":"a17a356a-6340-4eae-b4d5-d59f3247dda3","system_id":"levelo_inurba_marseille","lat":43.25977,"lon":5.3924,"is_reserved":false,"is_disabled":false,"rental_uris":{"android":"levelo://app?vid=a17a356a-6340-4eae-b4d5-d59f3247dda3","ios":"levelo://app?vid=a17a356a-6340-4eae-b4d5-d59f3247dda3"},"vehicle_type_id":"4","last_reported":1777179071,"current_range_meters":10000,"station_id":"","pricing_plan_id":"cebpf4jnsgd1na2vs0mg"},{"bike_id":"f26c5eac-6db0-4a91-90a4-27220fffb6a1","system_id":"levelo_inurba_marseille","lat":43.30139,"lon":5.38785,"is_reserved":false,"is_disabled":false,"rental_uris":{"android":"levelo://app?vid=f26c5eac-6db0-4a91-90a4-27220fffb6a1","ios":"levelo://app?vid=f26c5eac-6db0-4a91-90a4-27220fffb6a1"},"vehicle_type_id":"4","last_reported":1777179071,"current_range_meters":10000,"station_id":"ce4bghh2rcd13ifvqb60","pricing_plan_id":"cebpf4jnsgd1na2vs0mg"},{"bike_id":"d68cd392-a214-40e4-8e5f-e39fa567524a","system_id":"levelo_inurba_marseille","lat":43.30189,"lon":5.37414,"is_reserved":false,"is_disabled":true,"rental_uris":{"android":"levelo://app?vid=d68cd392-a214-40e4-8e5f-e39fa567524a","ios":"levelo://app?vid=d68cd392-a214-40e4-8e5f-e39fa567524a"},"vehicle_type_id":"4","last_reported":1777179071,"current_range_meters":10000,"station_id":"","pricing_plan_id":"cebpf4jnsgd1na2vs0mg"},{"bike_id":"01cb88ae-f09e-4542-a076-88352fccca6e","system_id":"levelo_inurba_marseille","lat":43.24667,"lon":5.38142,"is_reserved":false,"is_disabled":false,"rental_uris":{"android":"levelo://app?vid=01cb88ae-f09e-4542-a076-88352fccca6e","ios":"levelo://app?vid=01cb88ae-f09e-4542-a076-88352fccca6e"},"vehicle_type_id":"4","last_reported":1777179071,"current_range_meters":10000,"station_id":"ce4bhih2rcd13ifvqfr0","pricing_plan_id":"cebpf4jnsgd1na2vs0mg"},{"bike_id":"d85faab4-ca4b-43ad-a048-ea22fb73e941","system_id":"levelo_inurba_marseille","lat":43.31337,"lon":5.39721,"is_reserved":false,"is_disabled":false,"rental_uris":{"android":"levelo://app?vid=d85faab4-ca4b-43ad-a048-ea22fb73e941","ios":"levelo://app?vid=d85faab4-ca4b-43ad-a048-ea22fb73e941"},"vehicle_type_id":"4","last_reported":1777179071,"current_range_meters":10000,"station_id":"ce4bgvp2rcd13ifvqcu0","pricing_plan_id":"cebpf4jnsgd1na2vs0mg"},{"bike_id":"0d8c3362-be20-49ce-8a46-7df1fa0c42ea","system_id":"levelo_inurba_marseille","lat":43.24809,"lon":5.37476,"is_reserved":false,"is_disabled":false,"rental_uris":{"android":"levelo://app?vid=0d8c3362-be20-49ce-8a46-7df1fa0c42ea","ios":"levelo://app?vid=0d8c3362-be20-49ce-8a46-7df1fa0c42ea"},"vehicle_type_id":"4","last_reported":1777179071,"current_range_meters":10000,"station_id":"ce4bhgh2rcd13ifvqfb0","pricing_plan_id":"cebpf4jnsgd1na2vs0mg"},{"bike_id":"7df5a73c-54d9-4df0-a5db-351499d6dc87","system_id":"levelo_inurba_marseille","lat":43.3316,"lon":5.37696,"is_reserved":false,"is_disabled":false,"rental_uris":{"android":"levelo://app?vid=7df5a73c-54d9-4df0-a5db-351499d6dc87","ios":"levelo://app?vid=7df5a73c-54d9-4df0-a5db-351499d6dc87"},"vehicle_type_id":"4","last_reported":1777179071,"current_range_meters":10000,"station_id":"st_d46cu089ee8s73dldbu0","pricing_plan_id":"cebpf4jnsgd1na2vs0mg"},{"bike_id":"50f8bdff-b169-44f8-8920-840c94d5e30a","system_id":"levelo_inurba_marseille","lat":43.28485,"lon":5.48394,"is_reserved":false,"is_disabled":true,"rental_uris":{"android":"levelo://app?vid=50f8bdff-b169-44f8-8920-840c94d5e30a","ios":"levelo://app?vid=50f8bdff-b169-44f8-8920-840c94d5e30a"},"vehicle_type_id":"4","last_reported":1777179071,"current_range_meters":10000,"station_id":"","pricing_plan_id":"cebpf4jnsgd1na2vs0mg"},