{"last_updated":1684062254,"ttl":30,"version":"2.2","data":{"bikes":[{"bike_id":"24abea9d-acff-40a0-8816-0a2f4e1dca42","system_id":"levelo_inurba_marseille","lat":43.31341,"lon":5.367098,"is_reserved":false,"is_disabled":false,"rental_uris":{"android":"levelo://app?vid=24abea9d-acff-40a0-8816-0a2f4e1dca42","ios":"levelo://app?vid=24abea9d-acff-40a0-8816-0a2f4e1dca42"},"vehicle_type_id":"4","last_reported":1684062255,"current_range_meters":31200,"station_id":"ce4bgr92rcd13ifvqc6g","pricing_plan_id":"free"},{"bike_id":"e6987441-362a-40f3-92bc-e5f9ecf6b8a9","system_id":"levelo_inurba_marseille","lat":43.31341,"lon":5.367098,"is_reserved":false,"is_disabled":false,"rental_uris":{"android":"levelo://app?vid=e6987441-362a-40f3-92bc-e5f9ecf6b8a9","ios":"levelo://app?vid=e6987441-362a-40f3-92bc-e5f9ecf6b8a9"},"vehicle_type_id":"4","last_reported":1684062255,"current_range_meters":31200,"station_id":"ce4bgr92rcd13ifvqc6g","pricing_plan_id":"free"},{"bike_id":"dcd566cd-4193-4d6e-8699-75ef45649505","system_id":"levelo_inurba_marseille","lat":43.313391,"lon":5.36706,"is_reserved":false,"is_disabled":false,"rental_uris":{"android":"levelo://app?vid=dcd566cd-4193-4d6e-8699-75ef45649505","ios":"levelo://app?vid=dcd566cd-4193-4d6e-8699-75ef45649505"},"vehicle_type_id":"4","last_reported":1684062255,"current_range_meters":26400,"station_id":"ce4bgr92rcd13ifvqc6g","pricing_plan_id":"free"},{"bike_id":"febc23c5-0cf4-48a3-bb4c-63084f78e6ac","system_id":"levelo_inurba_marseille","lat":43.31341,"lon":5.367098,"is_reserved":false,"is_disabled":false,"rental_uris":{"android":"levelo://app?vid=febc23c5-0cf4-48a3-bb4c-63084f78e6ac","ios":"levelo://app?vid=febc23c5-0cf4-48a3-bb4c-63084f78e6ac"},"vehicle_type_id":"4","last_reported":1684062255,"current_range_meters":31200,"station_id":"ce4bgr92rcd13ifvqc6g","pricing_plan_id":"free"},{"bike_id":"78639281-da9b-4878-980b-0e688644d586","system_id":"levelo_inurba_marseille","lat":43.312239,"lon":5.368562,"is_reserved":false,"is_disabled":false,"rental_uris":{"android":"levelo://app?vid=78639281-da9b-4878-980b-0e688644d586","ios":"levelo://app?vid=78639281-da9b-4878-980b-0e688644d586"},"vehicle_type_id":"4","last_reported":1684062255,"current_range_meters":22400,"station_id":"ce4bgl92rcd13ifvqbq0","pricing_plan_id":"free"},{"bike_id":"829c0407-bdb9-4ad0-9813-d9eaac6e7d71","system_id":"levelo_inurba_marseille","lat":43.312239,"lon":5.368562,"is_reserved":false,"is_disabled":false,"rental_uris":{"android":"levelo://app?vid=829c0407-bdb9-4ad0-9813-d9eaac6e7d71","ios":"levelo://app?vid=829c0407-bdb9-4ad0-9813-d9eaac6e7d71"},"vehicle_type_id":"4","last_reported":1684062255,"current_range_meters":21600,"station_id":"ce4bgl92rcd13ifvqbq0","pricing_plan_id":"free"},{"bike_id":"4f01b1ad-c2e9-42d8-961b-a2e8ffaa4b1e","system_id":"levelo_inurba_marseille","lat":43.31232,"lon":5.3686,"is_reserved":false,"is_disabled":false,"rental_uris":{"android":"levelo://app?vid=4f01b1ad-c2e9-42d8-961b-a2e8ffaa4b1e","ios":"levelo://app?vid=4f01b1ad-c2e9-42d8-961b-a2e8ffaa4b1e"},"vehicle_type_id":"4","last_reported":1684062255,"current_range_meters":28400,"station_id":"ce4bgl92rcd13ifvqbq0","pricing_plan_id":"free"},{"bike_id":"71b4b514-8551-431a-9fa6-dd4d82ac9363","system_id":"levelo_inurba_marseille","lat":43.312239,"lon":5.368562,"is_reserved":false,"is_disabled":false,"rental_uris":{"android":"levelo://app?vid=71b4b514-8551-431a-9fa6-dd4d82ac9363","ios":"levelo://app?vid=71b4b514-8551-431a-9fa6-dd4d82ac9363"},"vehicle_type_id":"4","last_reported":1684062255,"current_range_meters":31600,"station_id":"ce4bgl92rcd13ifvqbq0","pricing_plan_id":"free"},{"bike_id":"217c6120-0703-456b-824e-02d5fc27eb6b","system_id":"levelo_inurba_marseille","lat":43.312239,"lon":5.368562,"is_reserved":false,"is_disabled":false,"rental_uris":{"android":"levelo://app?vid=217c6120-0703-456b-824e-02d5fc27eb6b","ios":"levelo://app?vid=217c6120-0703-456b-824e-02d5fc27eb6b"},"vehicle_type_id":"4","last_reported":1684062255,"current_range_meters":20000,"station_id":"ce4bgl92rcd13ifvqbq0","pricing_plan_id":"free"},{"bike_id":"831b07ab-f194-4459-8e8b-0f4fa3d89a6c","system_id":"levelo_inurba_marseille","lat":43.312239,"lon":5.368562,"is_reserved":false,"is_disabled":false,"rental_uris":{"android":"levelo://app?vid=831b07ab-f194-4459-8e8b-0f4fa3d89a6c","ios":"levelo://app?vid=831b07ab-f194-4459-8e8b-0f4fa3d89a6c"},"vehicle_type_id":"4","last_reported":1684062255,"current_range_meters":30000,"station_id":"ce4bgl92rcd13ifvqbq0","pricing_plan_id":"free"},{"bike_id":"cc9fd6aa-3aab-4bd7-87bf-d26db6eea85a","system_id":"levelo_inurba_marseille","lat":43.309076,"lon":5.368465,"is_reserved":false,"is_disabled":false,"rental_uris":{"android":"levelo://app?vid=cc9fd6aa-3aab-4bd7-87bf-d26db6eea85a","ios":"levelo://app?vid=cc9fd6aa-3aab-4bd7-87bf-d26db6eea85a"},"vehicle_type_id":"4","last_reported":1684062255,"current_range_meters":16800,"station_id":"ce4bgn92rcd13ifvqbvg","pricing_plan_id":"free"},{"bike_id":"1d93fcc2-b93a-40ec-83bf-d6e9a533d6b0","system_id":"levelo_inurba_marseille","lat":43.30886,"lon":5.37188,"is_reserved":false,"is_disabled":false,"rental_uris":{"android":"levelo://app?vid=1d93fcc2-b93a-40ec-83bf-d6e9a533d6b0","ios":"levelo://app?vid=1d93fcc2-b93a-40ec-83bf-d6e9a533d6b0"},"vehicle_type_id":"4","last_reported":1684062255,"current_range_meters":31200,"station_id":"","pricing_plan_id":"free"},{"bike_id":"ef42665b-7a58-430a-a09b-24ad7325a98d","system_id":"levelo_inurba_marseille","lat":43.30588,"lon":5.36563,"is_reserved":false,"is_disabled":false,"rental_uris":{"android":"levelo://app?vid=ef42665b-7a58-430a-a09b-24ad7325a98d","ios":"levelo://app?vid=ef42665b-7a58-430a-a09b-24ad7325a98d"},"vehicle_type_id":"4","last_reported":1684062255,"current_range_meters":12400,"station_id":"","pricing_plan_id":"free"},{"bike_id":"522945ca-0974-429c-8543-5f54bd7cc11a","system_id":"levelo_inurba_marseille","lat":43.305714,"lon":5.365633,"is_reserved":false,"is_disabled":false,"rental_uris":{"android":"levelo://app?vid=522945ca-0974-429c-8543-5f54bd7cc11a","ios":"levelo://app?vid=522945ca-0974-429c-8543-5f54bd7cc11a"},"vehicle_type_id":"4","last_reported":1684062255,"current_range_meters":22000,"station_id":"ce4bgs12rcd13ifvqcag","pricing_plan_id":"free"},{"bike_id":"87458fa8-4792-4fb7-9853-ce1572ad6276","system_id":"levelo_inurba_marseille","lat":43.305714,"lon":5.365633,"is_reserved":false,"is_disabled":false,"rental_uris":{"android":"levelo://app?vid=87458fa8-4792-4fb7-9853-ce1572ad6276","ios":"levelo://app?vid=87458fa8-4792-4fb7-9853-ce1572ad6276"},"vehicle_type_id":"4","last_reported":1684062255,"current_range_meters":31200,"station_id":"ce4bgs12rcd13ifvqcag","pricing_plan_id":"free"},{"bike_id":"9018c11a-b4a2-49d9-bb89-e1d8612f7a9a","system_id":"levelo_inurba_marseille","lat":43.305714,"lon":5.365633,"is_reserved":false,"is_disabled":false,"rental_uris":{"android":"levelo://app?vid=9018c11a-b4a2-49d9-bb89-e1d8612f7a9a","ios":"levelo://app?vid=9018c11a-b4a2-49d9-bb89-e1d8612f7a9a"},"vehicle_type_id":"4","last_reported":1684062255,"current_range_meters":26800,"station_id":"ce4bgs12rcd13ifvqcag","pricing_plan_id":"free"},{"bike_id":"bbf65cba-864c-452e-b529-be663686e771","system_id":"levelo_inurba_marseille","lat":43.305706,"lon":5.365654,"is_reserved":false,"is_disabled":false,"rental_uris":{"android":"levelo://app?vid=bbf65cba-864c-452e-b529-be663686e771","ios":"levelo://app?vid=bbf65cba-864c-452e-b529-be663686e771"},"vehicle_type_id":"4","last_reported":1684062255,"current_range_meters":25600,"station_id":"ce4bgs12rcd13ifvqcag","pricing_plan_id":"free"},{"bike_id":"c5c5d909-f70c-4643-a35f-7abeffaa3930","system_id":"levelo_inurba_marseille","lat":43.305368,"lon":5.367343,"is_reserved":false,"is_disabled":false,"rental_uris":{"android":"levelo://app?vid=c5c5d909-f70c-4643-a35f-7abeffaa3930","ios":"levelo://app?vid=c5c5d909-f70c-4643-a35f-7abeffaa3930"},"vehicle_type_id":"4","last_reported":1684062255,"current_range_meters":25600,"station_id":"ce4bgrp2rcd13ifvqc9g","pricing_plan_id":"free"},{"bike_id":"16c5cbb5-9cd5-4f5f-af46-f2cadf6be593","system_id":"levelo_inurba_marseille","lat":43.305706,"lon":5.365654,"is_reserved":false,"is_disabled":false,"rental_uris":{"android":"levelo://app?vid=16c5cbb5-9cd5-4f5f-af46-f2cadf6be593","ios":"levelo://app?vid=16c5cbb5-9cd5-4f5f-af46-f2cadf6be593"},"vehicle_type_id":"4","last_reported":1684062255,"current_range_meters":23200,"station_id":"ce4bgs12rcd13ifvqcag","pricing_plan_id":"free"},{"bike_id":"0db3ca76-8d39-470d-82e1-4167226e3252","system_id":"levelo_inurba_marseille","lat":43.305706,"lon":5.365654,"is_reserved":false,"is_disabled":false,"rental_uris":{"android":"levelo://app?vid=0db3ca76-8d39-470d-82e1-4167226e3252","ios":"levelo://app?vid=0db3ca76-8d39-470d-82e1-4167226e3252"},"vehicle_type_id":"4","last_reported":1684062255,"current_range_meters":31200,"station_id":"ce4bgs12rcd13ifvqcag","pricing_plan_id":"free"},{"bike_id":"2ad787c7-02e3-46f4-bfe3-51a52df73058","system_id":"levelo_inurba_marseille","lat":43.305706,"lon":5.365654,"is_reserved":false,"is_disabled":false,"rental_uris":{"android":"levelo://app?vid=2ad787c7-02e3-46f4-bfe3-51a52df73058","ios":"levelo://app?vid=2ad787c7-02e3-46f4-bfe3-51a52df73058"},"vehicle_type_id":"4","last_reported":1684062255,"current_range_meters":29600,"station_id":"ce4bgs12rcd13ifvqcag","pricing_plan_id":"free"},{"bike_id":"200eaba4-b409-4b23-9802-e4111d101ffd","system_id":"levelo_inurba_marseille","lat":43.305706,"lon":5.365654,"is_reserved":false,"is_disabled":false,"rental_uris":{"android":"levelo://app?vid=200eaba4-b409-4b23-9802-e4111d101ffd","ios":"levelo://app?vid=200eaba4-b409-4b23-9802-e4111d101ffd"},"vehicle_type_id":"4","last_reported":1684062255,"current_range_meters":29200,"station_id":"ce4bgs12rcd13ifvqcag","pricing_plan_id":"free"},{"bike_id":"fca00784-2e75-4453-a59d-99531596f0c9","system_id":"levelo_inurba_marseille","lat":43.305706,"lon":5.365654,"is_reserved":false,"is_disabled":false,"rental_uris":{"android":"levelo://app?vid=fca00784-2e75-4453-a59d-99531596f0c9","ios":"levelo://app?vid=fca00784-2e75-4453-a59d-99531596f0c9"},"vehicle_type_id":"4","last_reported":1684062255,"current_range_meters":30000,"station_id":"ce4bgs12rcd13ifvqcag","pricing_plan_id":"free"},{"bike_id":"151d50bc-3aee-48d5-9527-783274464e00","system_id":"levelo_inurba_marseille","lat":43.31183,"lon":5.37769,"is_reserved":false,"is_disabled":false,"rental_uris":{"android":"levelo://app?vid=151d50bc-3aee-48d5-9527-783274464e00","ios":"levelo://app?vid=151d50bc-3aee-48d5-9527-783274464e00"},"vehicle_type_id":"4","last_reported":1684062255,"current_range_meters":9200,"station_id":"","pricing_plan_id":"free"},{"bike_id":"d69f5f95-b022-49ac-82b6-eefceab630e6","system_id":"levelo_inurba_marseille","lat":43.303046,"lon":5.368981,"is_reserved":false,"is_disabled":false,"rental_uris":{"android":"levelo://app?vid=d69f5f95-b022-49ac-82b6-eefceab630e6","ios":"levelo://app?vid=d69f5f95-b022-49ac-82b6-eefceab630e6"},"vehicle_type_id":"4","last_reported":1684062255,"current_range_meters":28400,"station_id":"ce4bgqh2rcd13ifvqc5g","pricing_plan_id":"free"},{"bike_id":"ba3562fb-b5a9-4a2b-8528-44950a2399be","system_id":"levelo_inurba_marseille","lat":43.303046,"lon":5.368981,"is_reserved":false,"is_disabled":false,"rental_uris":{"android":"levelo://app?vid=ba3562fb-b5a9-4a2b-8528-44950a2399be","ios":"levelo://app?vid=ba3562fb-b5a9-4a2b-8528-44950a2399be"},"vehicle_type_id":"4","last_reported":1684062255,"current_range_meters":16800,"station_id":"ce4bgqh2rcd13ifvqc5g","pricing_plan_id":"free"},{"bike_id":"9bd4c1b1-0050-453b-ab29-0bcfc4375104","system_id":"levelo_inurba_marseille","lat":43.31539,"lon":5.38033,"is_reserved":false,"is_disabled":false,"rental_uris":{"android":"levelo://app?vid=9bd4c1b1-0050-453b-ab29-0bcfc4375104","ios":"levelo://app?vid=9bd4c1b1-0050-453b-ab29-0bcfc4375104"},"vehicle_type_id":"4","last_reported":1684062255,"current_range_meters":23200,"station_id":"ce4bhsp2rcd13ifvqi50","pricing_plan_id":"free"},{"bike_id":"4f771b04-864c-4e16-9678-f9511e13d0df","system_id":"levelo_inurba_marseille","lat":43.30244,"lon":5.36928,"is_reserved":false,"is_disabled":false,"rental_uris":{"android":"levelo://app?vid=4f771b04-864c-4e16-9678-f9511e13d0df","ios":"levelo://app?vid=4f771b04-864c-4e16-9678-f9511e13d0df"},"vehicle_type_id":"4","last_reported":1684062255,"current_range_meters":21600,"station_id":"","pricing_plan_id":"free"},{"bike_id":"22db9de9-d3cf-4578-bf45-d686bea36ace","system_id":"levelo_inurba_marseille","lat":43.304606,"lon":5.379026,"is_reserved":false,"is_disabled":false,"rental_uris":{"android":"levelo://app?vid=22db9de9-d3cf-4578-bf45-d686bea36ace","ios":"levelo://app?vid=22db9de9-d3cf-4578-bf45-d686bea36ace"},"vehicle_type_id":"4","last_reported":1684062255,"current_range_meters":31200,"station_id":"ce4bgup2rcd13ifvqcn0","pricing_plan_id":"free"},{"bike_id":"29e9a853-df39-4486-a555-83e2b2b1e45f","system_id":"levelo_inurba_marseille","lat":43.313571,"lon":5.384829,"is_reserved":false,"is_disabled":false,"rental_uris":{"android":"levelo://app?vid=29e9a853-df39-4486-a555-83e2b2b1e45f","ios":"levelo://app?vid=29e9a853-df39-4486-a555-83e2b2b1e45f"},"vehicle_type_id":"4","last_reported":1684062255,"current_range_meters":30400,"station_id":"ce4bgt92rcd13ifvqcf0","pricing_plan_id":"free"},{"bike_id":"bd2b2b0d-79c3-42ff-b76d-7afcfa29b0d4","system_id":"levelo_inurba_marseille","lat":43.299222,"lon":5.365554,"is_reserved":false,"is_disabled":false,"rental_uris":{"android":"levelo://app?vid=bd2b2b0d-79c3-42ff-b76d-7afcfa29b0d4","ios":"levelo://app?vid=bd2b2b0d-79c3-42ff-b76d-7afcfa29b0d4"},"vehicle_type_id":"4","last_reported":1684062255,"current_range_meters":12800,"station_id":"ce4bgm92rcd13ifvqbr0","pricing_plan_id":"free"},{"bike_id":"1715fa30-05f3-492f-bdb8-0bba119431c1","system_id":"levelo_inurba_marseille","lat":43.299166,"lon":5.365565,"is_reserved":false,"is_disabled":false,"rental_uris":{"android":"levelo://app?vid=1715fa30-05f3-492f-bdb8-0bba119431c1","ios":"levelo://app?vid=1715fa30-05f3-492f-bdb8-0bba119431c1"},"vehicle_type_id":"4","last_reported":1684062255,"current_range_meters":2800,"station_id":"ce4bgm92rcd13ifvqbr0","pricing_plan_id":"free"},{"bike_id":"70a1ff4b-2f9d-4421-8a7a-3c559bb9171d","system_id":"levelo_inurba_marseille","lat":43.298433,"lon":5.362774,"is_reserved":false,"is_disabled":false,"rental_uris":{"android":"levelo://app?vid=70a1ff4b-2f9d-4421-8a7a-3c559bb9171d","ios":"levelo://app?vid=70a1ff4b-2f9d-4421-8a7a-3c559bb9171d"},"vehicle_type_id":"4","last_reported":1684062255,"current_range_meters":10000,"station_id":"ce4bgpp2rcd13ifvqc3g","pricing_plan_id":"free"},{"bike_id":"81598e6c-c3c6-4cb1-9140-0072d9774e2a","system_id":"levelo_inurba_marseille","lat":43.305364,"lon":5.384119,"is_reserved":false,"is_disabled":false,"rental_uris":{"android":"levelo://app?vid=81598e6c-c3c6-4cb1-9140-0072d9774e2a","ios":"levelo://app?vid=81598e6c-c3c6-4cb1-9140-0072d9774e2a"},"vehicle_type_id":"4","last_reported":1684062255,"current_range_meters":8400,"station_id":"ce4bgg92rcd13ifvqb30","pricing_plan_id":"free"},{"bike_id":"2c5a502a-a69f-4464-9ab3-d9535cd51164","system_id":"levelo_inurba_marseille","lat":43.311722,"lon":5.387247,"is_reserved":false,"is_disabled":false,"rental_uris":{"android":"levelo://app?vid=2c5a502a-a69f-4464-9ab3-d9535cd51164","ios":"levelo://app?vid=2c5a502a-a69f-4464-9ab3-d9535cd51164"},"vehicle_type_id":"4","last_reported":1684062255,"current_range_meters":28800,"station_id":"ce4bgv12rcd13ifvqcp0","pricing_plan_id":"free"},{"bike_id":"cd61ec5e-d7fa-4b46-a4d8-499d7a86216e","system_id":"levelo_inurba_marseille","lat":43.299243,"lon":5.37481,"is_reserved":false,"is_disabled":false,"rental_uris":{"android":"levelo://app?vid=cd61ec5e-d7fa-4b46-a4d8-499d7a86216e","ios":"levelo://app?vid=cd61ec5e-d7fa-4b46-a4d8-499d7a86216e"},"vehicle_type_id":"4","last_reported":1684062255,"current_range_meters":29200,"station_id":"ce4bgjh2rcd13ifvqbg0","pricing_plan_id":"free"},{"bike_id":"bdf0a25f-3c50-4dad-9dd7-dbcd86a04883","system_id":"levelo_inurba_marseille","lat":43.311722,"lon":5.387247,"is_reserved":false,"is_disabled":false,"rental_uris":{"android":"levelo://app?vid=bdf0a25f-3c50-4dad-9dd7-dbcd86a04883","ios":"levelo://app?vid=bdf0a25f-3c50-4dad-9dd7-dbcd86a04883"},"vehicle_type_id":"4","last_reported":1684062255,"current_range_meters":27200,"station_id":"ce4bgv12rcd13ifvqcp0","pricing_plan_id":"free"},{"bike_id":"12c5b9bd-5c7e-4e57-88ac-db15e0105275","system_id":"levelo_inurba_marseille","lat":43.311722,"lon":5.387247,"is_reserved":false,"is_disabled":false,"rental_uris":{"android":"levelo://app?vid=12c5b9bd-5c7e-4e57-88ac-db15e0105275","ios":"levelo://app?vid=12c5b9bd-5c7e-4e57-88ac-db15e0105275"},"vehicle_type_id":"4","last_reported":1684062255,"current_range_meters":14000,"station_id":"ce4bgv12rcd13ifvqcp0","pricing_plan_id":"free"},{"bike_id":"757f50e4-4c75-4682-8988-c20dbd260609","system_id":"levelo_inurba_marseille","lat":43.311722,"lon":5.387247,"is_reserved":false,"is_disabled":false,"rental_uris":{"android":"levelo://app?vid=757f50e4-4c75-4682-8988-c20dbd260609","ios":"levelo://app?vid=757f50e4-4c75-4682-8988-c20dbd260609"},"vehicle_type_id":"4","last_reported":1684062255,"current_range_meters":24000,"station_id":"ce4bgv12rcd13ifvqcp0","pricing_plan_id":"free"},{"bike_id":"2f96f4b7-d3f1-4b87-b98f-caf50ba6d13d","system_id":"levelo_inurba_marseille","lat":43.32764,"lon":5.36699,"is_reserved":false,"is_disabled":false,"rental_uris":{"android":"levelo://app?vid=2f96f4b7-d3f1-4b87-b98f-caf50ba6d13d","ios":"levelo://app?vid=2f96f4b7-d3f1-4b87-b98f-caf50ba6d13d"},"vehicle_type_id":"4","last_reported":1684062255,"current_range_meters":8000,"station_id":"","pricing_plan_id":"free"},{"bike_id":"df04b9df-b5da-4f20-aaea-6166d2b66781","system_id":"levelo_inurba_marseille","lat":43.297794,"lon":5.370888,"is_reserved":false,"is_disabled":false,"rental_uris":{"android":"levelo://app?vid=df04b9df-b5da-4f20-aaea-6166d2b66781","ios":"levelo://app?vid=df04b9df-b5da-4f20-aaea-6166d2b66781"},"vehicle_type_id":"4","last_reported":1684062255,"current_range_meters":4800,"station_id":"ce4bgop2rcd13ifvqc1g","pricing_plan_id":"free"},{"bike_id":"ad50fbdc-6818-49a3-976a-84468e8cc53b","system_id":"levelo_inurba_marseille","lat":43.328371,"lon":5.366912,"is_reserved":false,"is_disabled":false,"rental_uris":{"android":"levelo://app?vid=ad50fbdc-6818-49a3-976a-84468e8cc53b","ios":"levelo://app?vid=ad50fbdc-6818-49a3-976a-84468e8cc53b"},"vehicle_type_id":"4","last_reported":1684062255,"current_range_meters":31200,"station_id":"ce4bhs92rcd13ifvqi0g","pricing_plan_id":"free"},{"bike_id":"98fc616f-05d8-4d1d-9c58-d04644bf4fef","system_id":"levelo_inurba_marseille","lat":43.328371,"lon":5.366912,"is_reserved":false,"is_disabled":false,"rental_uris":{"android":"levelo://app?vid=98fc616f-05d8-4d1d-9c58-d04644bf4fef","ios":"levelo://app?vid=98fc616f-05d8-4d1d-9c58-d04644bf4fef"},"vehicle_type_id":"4","last_reported":1684062255,"current_range_meters":29200,"station_id":"ce4bhs92rcd13ifvqi0g","pricing_plan_id":"free"},{"bike_id":"b60b2146-6e25-4d40-acc1-c67a07b5be20","system_id":"levelo_inurba_marseille","lat":43.328371,"lon":5.366909,"is_reserved":false,"is_disabled":false,"rental_uris":{"android":"levelo://app?vid=b60b2146-6e25-4d40-acc1-c67a07b5be20","ios":"levelo://app?vid=b60b2146-6e25-4d40-acc1-c67a07b5be20"},"vehicle_type_id":"4","last_reported":1684062255,"current_range_meters":30800,"station_id":"ce4bhs92rcd13ifvqi0g","pricing_plan_id":"free"},{"bike_id":"b449a4e4-2b40-420f-9a30-3bbbb718557f","system_id":"levelo_inurba_marseille","lat":43.328371,"lon":5.366912,"is_reserved":false,"is_disabled":false,"rental_uris":{"android":"levelo://app?vid=b449a4e4-2b40-420f-9a30-3bbbb718557f","ios":"levelo://app?vid=b449a4e4-2b40-420f-9a30-3bbbb718557f"},"vehicle_type_id":"4","last_reported":1684062255,"current_range_meters":17200,"station_id":"ce4bhs92rcd13ifvqi0g","pricing_plan_id":"free"},{"bike_id":"8b551262-3438-4831-9812-be7a47f77893","system_id":"levelo_inurba_marseille","lat":43.328371,"lon":5.366909,"is_reserved":false,"is_disabled":false,"rental_uris":{"android":"levelo://app?vid=8b551262-3438-4831-9812-be7a47f77893","ios":"levelo://app?vid=8b551262-3438-4831-9812-be7a47f77893"},"vehicle_type_id":"4","last_reported":1684062255,"current_range_meters":30400,"station_id":"ce4bhs92rcd13ifvqi0g","pricing_plan_id":"free"},{"bike_id":"fc0b1b04-c329-4dcf-bf4d-f47a83066660","system_id":"levelo_inurba_marseille","lat":43.328371,"lon":5.366909,"is_reserved":false,"is_disabled":false,"rental_uris":{"android":"levelo://app?vid=fc0b1b04-c329-4dcf-bf4d-f47a83066660","ios":"levelo://app?vid=fc0b1b04-c329-4dcf-bf4d-f47a83066660"},"vehicle_type_id":"4","last_reported":1684062255,"current_range_meters":23600,"station_id":"ce4bhs92rcd13ifvqi0g","pricing_plan_id":"free"},{"bike_id":"34c470f1-ed41-47d6-8d65-5c286939ee04","system_id":"levelo_inurba_marseille","lat":43.328371,"lon":5.366912,"is_reserved":false,"is_disabled":false,"rental_uris":{"android":"levelo://app?vid=34c470f1-ed41-47d6-8d65-5c286939ee04","ios":"levelo://app?vid=34c470f1-ed41-47d6-8d65-5c286939ee04"},"vehicle_type_id":"4","last_reported":1684062255,"current_range_meters":16000,"station_id":"ce4bhs92rcd13ifvqi0g","pricing_plan_id":"free"},{"bike_id":"05dd3660-fb8d-4649-b95f-77a48f876534","system_id":"levelo_inurba_marseille","lat":43.328371,"lon":5.366909,"is_reserved":false,"is_disabled":false,"rental_uris":{"android":"levelo://app?vid=05dd3660-fb8d-4649-b95f-77a48f876534","ios":"levelo://app?vid=05dd3660-fb8d-4649-b95f-77a48f876534"},"vehicle_type_id":"4","last_reported":1684062255,"current_range_meters":31200,"station_id":"ce4bhs92rcd13ifvqi0g","pricing_plan_id":"free"},{"bike_id":"5bc79a87-8c51-4256-972d-10ecdbdb6305","system_id":"levelo_inurba_marseille","lat":43.328371,"lon":5.366912,"is_reserved":false,"is_disabled":false,"rental_uris":{"android":"levelo://app?vid=5bc79a87-8c51-4256-972d-10ecdbdb6305","ios":"levelo://app?vid=5bc79a87-8c51-4256-972d-10ecdbdb6305"},"vehicle_type_id":"4","last_reported":1684062255,"current_range_meters":15600,"station_id":"ce4bhs92rcd13ifvqi0g","pricing_plan_id":"free"},{"bike_id":"439e171b-885c-4b84-971d-3c43043903d7","system_id":"levelo_inurba_marseille","lat":43.328371,"lon":5.366912,"is_reserved":false,"is_disabled":false,"rental_uris":{"android":"levelo://app?vid=439e171b-885c-4b84-971d-3c43043903d7","ios":"levelo://app?vid=439e171b-885c-4b84-971d-3c43043903d7"},"vehicle_type_id":"4","last_reported":1684062255,"current_range_meters":24000,"station_id":"ce4bhs92rcd13ifvqi0g","pricing_plan_id":"free"},{"bike_id":"9a3d7d7e-a3a8-457b-98eb-b021d728676d","system_id":"levelo_inurba_marseille","lat":43.328371,"lon":5.366909,"is_reserved":false,"is_disabled":false,"rental_uris":{"android":"levelo://app?vid=9a3d7d7e-a3a8-457b-98eb-b021d728676d","ios":"levelo://app?vid=9a3d7d7e-a3a8-457b-98eb-b021d728676d"},"vehicle_type_id":"4","last_reported":1684062255,"current_range_meters":20000,"station_id":"ce4bhs92rcd13ifvqi0g","pricing_plan_id":"free"},{"bike_id":"ef619222-d86f-4984-a46f-cda033f9cc5b","system_id":"levelo_inurba_marseille","lat":43.328371,"lon":5.366912,"is_reserved":false,"is_disabled":false,"rental_uris":{"android":"levelo://app?vid=ef619222-d86f-4984-a46f-cda033f9cc5b","ios":"levelo://app?vid=ef619222-d86f-4984-a46f-cda033f9cc5b"},"vehicle_type_id":"4","last_reported":1684062255,"current_range_meters":30400,"station_id":"ce4bhs92rcd13ifvqi0g","pricing_plan_id":"free"},{"bike_id":"216acc05-cd3c-4a35-b67b-82ab6e8e46bc","system_id":"levelo_inurba_marseille","lat":43.32833,"lon":5.36681,"is_reserved":false,"is_disabled":false,"rental_uris":{"android":"levelo://app?vid=216acc05-cd3c-4a35-b67b-82ab6e8e46bc","ios":"levelo://app?vid=216acc05-cd3c-4a35-b67b-82ab6e8e46bc"},"vehicle_type_id":"4","last_reported":1684062255,"current_range_meters":16000,"station_id":"ce4bhs92rcd13ifvqi0g","pricing_plan_id":"free"},{"bike_id":"aaca5fdf-1dee-4b81-aa4f-2d7102ec2d0c","system_id":"levelo_inurba_marseille","lat":43.32833,"lon":5.36678,"is_reserved":false,"is_disabled":false,"rental_uris":{"android":"levelo://app?vid=aaca5fdf-1dee-4b81-aa4f-2d7102ec2d0c","ios":"levelo://app?vid=aaca5fdf-1dee-4b81-aa4f-2d7102ec2d0c"},"vehicle_type_id":"4","last_reported":1684062255,"current_range_meters":19200,"station_id":"ce4bhs92rcd13ifvqi0g","pricing_plan_id":"free"},{"bike_id":"f7e16b9b-dda5-4bba-9d80-00bc064f0f46","system_id":"levelo_inurba_marseille","lat":43.32836,"lon":5.36678,"is_reserved":false,"is_disabled":false,"rental_uris":{"android":"levelo://app?vid=f7e16b9b-dda5-4bba-9d80-00bc064f0f46","ios":"levelo://app?vid=f7e16b9b-dda5-4bba-9d80-00bc064f0f46"},"vehicle_type_id":"4","last_reported":1684062255,"current_range_meters":14400,"station_id":"ce4bhs92rcd13ifvqi0g","pricing_plan_id":"free"},{"bike_id":"19dbfe5d-9e77-4915-8c62-a8b2b75c629f","system_id":"levelo_inurba_marseille","lat":43.29708,"lon":5.36611,"is_reserved":false,"is_disabled":false,"rental_uris":{"android":"levelo://app?vid=19dbfe5d-9e77-4915-8c62-a8b2b75c629f","ios":"levelo://app?vid=19dbfe5d-9e77-4915-8c62-a8b2b75c629f"},"vehicle_type_id":"4","last_reported":1684062255,"current_range_meters":4400,"station_id":"","pricing_plan_id":"free"},{"bike_id":"aa8e4371-19f6-4480-9899-007472146187","system_id":"levelo_inurba_marseille","lat":43.296131,"lon":5.370773,"is_reserved":false,"is_disabled":false,"rental_uris":{"android":"levelo://app?vid=aa8e4371-19f6-4480-9899-007472146187","ios":"levelo://app?vid=aa8e4371-19f6-4480-9899-007472146187"},"vehicle_type_id":"4","last_reported":1684062255,"current_range_meters":29600,"station_id":"ce4bgnh2rcd13ifvqc0g","pricing_plan_id":"free"},{"bike_id":"c069ee89-7959-4bfa-8138-bd8f4ba7ab9e","system_id":"levelo_inurba_marseille","lat":43.296131,"lon":5.370773,"is_reserved":false,"is_disabled":false,"rental_uris":{"android":"levelo://app?vid=c069ee89-7959-4bfa-8138-bd8f4ba7ab9e","ios":"levelo://app?vid=c069ee89-7959-4bfa-8138-bd8f4ba7ab9e"},"vehicle_type_id":"4","last_reported":1684062255,"current_range_meters":8000,"station_id":"ce4bgnh2rcd13ifvqc0g","pricing_plan_id":"free"},{"bike_id":"36c1aadb-052a-4c38-850a-030e2c659880","system_id":"levelo_inurba_marseille","lat":43.296131,"lon":5.370773,"is_reserved":false,"is_disabled":false,"rental_uris":{"android":"levelo://app?vid=36c1aadb-052a-4c38-850a-030e2c659880","ios":"levelo://app?vid=36c1aadb-052a-4c38-850a-030e2c659880"},"vehicle_type_id":"4","last_reported":1684062255,"current_range_meters":12000,"station_id":"ce4bgnh2rcd13ifvqc0g","pricing_plan_id":"free"},{"bike_id":"eccbc263-0c5a-4cd5-a44d-6c7ea73118e0","system_id":"levelo_inurba_marseille","lat":43.296129,"lon":5.370777,"is_reserved":false,"is_disabled":false,"rental_uris":{"android":"levelo://app?vid=eccbc263-0c5a-4cd5-a44d-6c7ea73118e0","ios":"levelo://app?vid=eccbc263-0c5a-4cd5-a44d-6c7ea73118e0"},"vehicle_type_id":"4","last_reported":1684062255,"current_range_meters":31200,"station_id":"ce4bgnh2rcd13ifvqc0g","pricing_plan_id":"free"},{"bike_id":"e5c1a1a1-30bb-4beb-b3f1-647e2082be5c","system_id":"levelo_inurba_marseille","lat":43.29573,"lon":5.367355,"is_reserved":false,"is_disabled":false,"rental_uris":{"android":"levelo://app?vid=e5c1a1a1-30bb-4beb-b3f1-647e2082be5c","ios":"levelo://app?vid=e5c1a1a1-30bb-4beb-b3f1-647e2082be5c"},"vehicle_type_id":"4","last_reported":1684062255,"current_range_meters":27600,"station_id":"ce4bgph2rcd13ifvqc2g","pricing_plan_id":"free"},{"bike_id":"1197b576-82d3-4fa6-8faa-9fbc5b30e25b","system_id":"levelo_inurba_marseille","lat":43.29726,"lon":5.37689,"is_reserved":false,"is_disabled":false,"rental_uris":{"android":"levelo://app?vid=1197b576-82d3-4fa6-8faa-9fbc5b30e25b","ios":"levelo://app?vid=1197b576-82d3-4fa6-8faa-9fbc5b30e25b"},"vehicle_type_id":"4","last_reported":1684062255,"current_range_meters":0,"station_id":"","pricing_plan_id":"free"},{"bike_id":"551add96-7593-4738-bea6-93de66f42765","system_id":"levelo_inurba_marseille","lat":43.296921,"lon":5.376579,"is_reserved":false,"is_disabled":false,"rental_uris":{"android":"levelo://app?vid=551add96-7593-4738-bea6-93de66f42765","ios":"levelo://app?vid=551add96-7593-4738-bea6-93de66f42765"},"vehicle_type_id":"4","last_reported":1684062255,"current_range_meters":30800,"station_id":"ce4bgkh2rcd13ifvqbl0","pricing_plan_id":"free"},{"bike_id":"4a974746-1102-477d-9635-72c3d4d7bdd6","system_id":"levelo_inurba_marseille","lat":43.296921,"lon":5.376579,"is_reserved":false,"is_disabled":false,"rental_uris":{"android":"levelo://app?vid=4a974746-1102-477d-9635-72c3d4d7bdd6","ios":"levelo://app?vid=4a974746-1102-477d-9635-72c3d4d7bdd6"},"vehicle_type_id":"4","last_reported":1684062255,"current_range_meters":0,"station_id":"ce4bgkh2rcd13ifvqbl0","pricing_plan_id":"free"},{"bike_id":"2392ce1e-5ef5-4003-8954-3c40e2c992fe","system_id":"levelo_inurba_marseille","lat":43.296921,"lon":5.376579,"is_reserved":false,"is_disabled":false,"rental_uris":{"android":"levelo://app?vid=2392ce1e-5ef5-4003-8954-3c40e2c992fe","ios":"levelo://app?vid=2392ce1e-5ef5-4003-8954-3c40e2c992fe"},"vehicle_type_id":"4","last_reported":1684062255,"current_range_meters":11200,"station_id":"ce4bgkh2rcd13ifvqbl0","pricing_plan_id":"free"},{"bike_id":"5a6c3b1b-b8eb-4eaa-82db-1c51f70c2b79","system_id":"levelo_inurba_marseille","lat":43.30941,"lon":5.39032,"is_reserved":false,"is_disabled":false,"rental_uris":{"android":"levelo://app?vid=5a6c3b1b-b8eb-4eaa-82db-1c51f70c2b79","ios":"levelo://app?vid=5a6c3b1b-b8eb-4eaa-82db-1c51f70c2b79"},"vehicle_type_id":"4","last_reported":1684062255,"current_range_meters":28800,"station_id":"ce4bgup2rcd13ifvqco0","pricing_plan_id":"free"},{"bike_id":"57c3029e-a82c-41e0-8094-bac2abcea413","system_id":"levelo_inurba_marseille","lat":43.309589,"lon":5.390258,"is_reserved":false,"is_disabled":false,"rental_uris":{"android":"levelo://app?vid=57c3029e-a82c-41e0-8094-bac2abcea413","ios":"levelo://app?vid=57c3029e-a82c-41e0-8094-bac2abcea413"},"vehicle_type_id":"4","last_reported":1684062255,"current_range_meters":31200,"station_id":"ce4bgup2rcd13ifvqco0","pricing_plan_id":"free"},{"bike_id":"eeb98850-8a68-43a8-9551-47d4b2fb7662","system_id":"levelo_inurba_marseille","lat":43.30943,"lon":5.39042,"is_reserved":false,"is_disabled":false,"rental_uris":{"android":"levelo://app?vid=eeb98850-8a68-43a8-9551-47d4b2fb7662","ios":"levelo://app?vid=eeb98850-8a68-43a8-9551-47d4b2fb7662"},"vehicle_type_id":"4","last_reported":1684062255,"current_range_meters":31200,"station_id":"ce4bgup2rcd13ifvqco0","pricing_plan_id":"free"},{"bike_id":"309d0d2d-1b44-4f27-b750-6baa1f46ccba","system_id":"levelo_inurba_marseille","lat":43.30954,"lon":5.39046,"is_reserved":false,"is_disabled":false,"rental_uris":{"android":"levelo://app?vid=309d0d2d-1b44-4f27-b750-6baa1f46ccba","ios":"levelo://app?vid=309d0d2d-1b44-4f27-b750-6baa1f46ccba"},"vehicle_type_id":"4","last_reported":1684062255,"current_range_meters":31200,"station_id":"ce4bgup2rcd13ifvqco0","pricing_plan_id":"free"},{"bike_id":"808e25be-9bda-49c7-af44-68800ae9ce5e","system_id":"levelo_inurba_marseille","lat":43.3094,"lon":5.39043,"is_reserved":false,"is_disabled":false,"rental_uris":{"android":"levelo://app?vid=808e25be-9bda-49c7-af44-68800ae9ce5e","ios":"levelo://app?vid=808e25be-9bda-49c7-af44-68800ae9ce5e"},"vehicle_type_id":"4","last_reported":1684062255,"current_range_meters":30000,"station_id":"ce4bgup2rcd13ifvqco0","pricing_plan_id":"free"},{"bike_id":"b9c5ccae-9ed6-43fa-b427-0fb6eac72783","system_id":"levelo_inurba_marseille","lat":43.30947,"lon":5.39047,"is_reserved":false,"is_disabled":false,"rental_uris":{"android":"levelo://app?vid=b9c5ccae-9ed6-43fa-b427-0fb6eac72783","ios":"levelo://app?vid=b9c5ccae-9ed6-43fa-b427-0fb6eac72783"},"vehicle_type_id":"4","last_reported":1684062255,"current_range_meters":31200,"station_id":"ce4bgup2rcd13ifvqco0","pricing_plan_id":"free"},{"bike_id":"94be6cd6-74a7-4bdc-9692-2dd9a507def6","system_id":"levelo_inurba_marseille","lat":43.309589,"lon":5.390258,"is_reserved":false,"is_disabled":false,"rental_uris":{"android":"levelo://app?vid=94be6cd6-74a7-4bdc-9692-2dd9a507def6","ios":"levelo://app?vid=94be6cd6-74a7-4bdc-9692-2dd9a507def6"},"vehicle_type_id":"4","last_reported":1684062255,"current_range_meters":26800,"station_id":"ce4bgup2rcd13ifvqco0","pricing_plan_id":"free"},{"bike_id":"92e339d3-21f3-438e-8201-fe359df47132","system_id":"levelo_inurba_marseille","lat":43.29701,"lon":5.37753,"is_reserved":false,"is_disabled":false,"rental_uris":{"android":"levelo://app?vid=92e339d3-21f3-438e-8201-fe359df47132","ios":"levelo://app?vid=92e339d3-21f3-438e-8201-fe359df47132"},"vehicle_type_id":"4","last_reported":1684062255,"current_range_meters":29200,"station_id":"","pricing_plan_id":"free"},{"bike_id":"6b77c43c-960d-417c-8233-25f3afef3740","system_id":"levelo_inurba_marseille","lat":43.317557,"lon":5.390173,"is_reserved":false,"is_disabled":false,"rental_uris":{"android":"levelo://app?vid=6b77c43c-960d-417c-8233-25f3afef3740","ios":"levelo://app?vid=6b77c43c-960d-417c-8233-25f3afef3740"},"vehicle_type_id":"4","last_reported":1684062255,"current_range_meters":27200,"station_id":"ce4bhqp2rcd13ifvqhng","pricing_plan_id":"free"},{"bike_id":"4bca6dab-d89c-4659-af83-558644b096a0","system_id":"levelo_inurba_marseille","lat":43.31755,"lon":5.39015,"is_reserved":false,"is_disabled":false,"rental_uris":{"android":"levelo://app?vid=4bca6dab-d89c-4659-af83-558644b096a0","ios":"levelo://app?vid=4bca6dab-d89c-4659-af83-558644b096a0"},"vehicle_type_id":"4","last_reported":1684062255,"current_range_meters":25600,"station_id":"ce4bhqp2rcd13ifvqhng","pricing_plan_id":"free"},{"bike_id":"7e101d88-7926-4513-a08a-b2a6fdb92c65","system_id":"levelo_inurba_marseille","lat":43.31757,"lon":5.39015,"is_reserved":false,"is_disabled":false,"rental_uris":{"android":"levelo://app?vid=7e101d88-7926-4513-a08a-b2a6fdb92c65","ios":"levelo://app?vid=7e101d88-7926-4513-a08a-b2a6fdb92c65"},"vehicle_type_id":"4","last_reported":1684062255,"current_range_meters":25600,"station_id":"ce4bhqp2rcd13ifvqhng","pricing_plan_id":"free"},{"bike_id":"1b325cea-ceaa-42a6-b5b5-d830a284156d","system_id":"levelo_inurba_marseille","lat":43.31757,"lon":5.39017,"is_reserved":false,"is_disabled":false,"rental_uris":{"android":"levelo://app?vid=1b325cea-ceaa-42a6-b5b5-d830a284156d","ios":"levelo://app?vid=1b325cea-ceaa-42a6-b5b5-d830a284156d"},"vehicle_type_id":"4","last_reported":1684062255,"current_range_meters":22800,"station_id":"ce4bhqp2rcd13ifvqhng","pricing_plan_id":"free"},{"bike_id":"46fe8492-485e-4b45-949b-3fd957712adc","system_id":"levelo_inurba_marseille","lat":43.31756,"lon":5.39018,"is_reserved":false,"is_disabled":false,"rental_uris":{"android":"levelo://app?vid=46fe8492-485e-4b45-949b-3fd957712adc","ios":"levelo://app?vid=46fe8492-485e-4b45-949b-3fd957712adc"},"vehicle_type_id":"4","last_reported":1684062255,"current_range_meters":31200,"station_id":"ce4bhqp2rcd13ifvqhng","pricing_plan_id":"free"},{"bike_id":"1b8e8455-d974-44bb-9a4e-7e7867c76231","system_id":"levelo_inurba_marseille","lat":43.31758,"lon":5.39018,"is_reserved":false,"is_disabled":false,"rental_uris":{"android":"levelo://app?vid=1b8e8455-d974-44bb-9a4e-7e7867c76231","ios":"levelo://app?vid=1b8e8455-d974-44bb-9a4e-7e7867c76231"},"vehicle_type_id":"4","last_reported":1684062255,"current_range_meters":28000,"station_id":"ce4bhqp2rcd13ifvqhng","pricing_plan_id":"free"},{"bike_id":"eba61a71-acf0-4df7-a38a-e85ada3a7edb","system_id":"levelo_inurba_marseille","lat":43.31754,"lon":5.39021,"is_reserved":false,"is_disabled":false,"rental_uris":{"android":"levelo://app?vid=eba61a71-acf0-4df7-a38a-e85ada3a7edb","ios":"levelo://app?vid=eba61a71-acf0-4df7-a38a-e85ada3a7edb"},"vehicle_type_id":"4","last_reported":1684062255,"current_range_meters":31200,"station_id":"ce4bhqp2rcd13ifvqhng","pricing_plan_id":"free"},{"bike_id":"2e4072c4-97ae-412f-891d-364f103e5e6c","system_id":"levelo_inurba_marseille","lat":43.31754,"lon":5.39023,"is_reserved":false,"is_disabled":false,"rental_uris":{"android":"levelo://app?vid=2e4072c4-97ae-412f-891d-364f103e5e6c","ios":"levelo://app?vid=2e4072c4-97ae-412f-891d-364f103e5e6c"},"vehicle_type_id":"4","last_reported":1684062255,"current_range_meters":31200,"station_id":"ce4bhqp2rcd13ifvqhng","pricing_plan_id":"free"},{"bike_id":"92c8f5e0-6efe-4720-83da-745663d7069e","system_id":"levelo_inurba_marseille","lat":43.317557,"lon":5.390173,"is_reserved":false,"is_disabled":false,"rental_uris":{"android":"levelo://app?vid=92c8f5e0-6efe-4720-83da-745663d7069e","ios":"levelo://app?vid=92c8f5e0-6efe-4720-83da-745663d7069e"},"vehicle_type_id":"4","last_reported":1684062255,"current_range_meters":0,"station_id":"ce4bhqp2rcd13ifvqhng","pricing_plan_id":"free"},{"bike_id":"2832b4e9-f4dd-48ca-996c-209db63d9b4a","system_id":"levelo_inurba_marseille","lat":43.295748,"lon":5.37522,"is_reserved":false,"is_disabled":false,"rental_uris":{"android":"levelo://app?vid=2832b4e9-f4dd-48ca-996c-209db63d9b4a","ios":"levelo://app?vid=2832b4e9-f4dd-48ca-996c-209db63d9b4a"},"vehicle_type_id":"4","last_reported":1684062255,"current_range_meters":15200,"station_id":"ce4bgh92rcd13ifvqb50","pricing_plan_id":"free"},{"bike_id":"09b85855-fd68-4ee5-befc-658df823e75d","system_id":"levelo_inurba_marseille","lat":43.304274,"lon":5.388873,"is_reserved":false,"is_disabled":false,"rental_uris":{"android":"levelo://app?vid=09b85855-fd68-4ee5-befc-658df823e75d","ios":"levelo://app?vid=09b85855-fd68-4ee5-befc-658df823e75d"},"vehicle_type_id":"4","last_reported":1684062255,"current_range_meters":22400,"station_id":"ce4bgk12rcd13ifvqbi0","pricing_plan_id":"free"},{"bike_id":"63117c00-21cb-49f3-9963-499cbb45d1bc","system_id":"levelo_inurba_marseille","lat":43.304274,"lon":5.388873,"is_reserved":false,"is_disabled":false,"rental_uris":{"android":"levelo://app?vid=63117c00-21cb-49f3-9963-499cbb45d1bc","ios":"levelo://app?vid=63117c00-21cb-49f3-9963-499cbb45d1bc"},"vehicle_type_id":"4","last_reported":1684062255,"current_range_meters":19200,"station_id":"ce4bgk12rcd13ifvqbi0","pricing_plan_id":"free"},{"bike_id":"c09a1723-afa3-458f-b186-995e0826ee1a","system_id":"levelo_inurba_marseille","lat":43.304274,"lon":5.388873,"is_reserved":false,"is_disabled":false,"rental_uris":{"android":"levelo://app?vid=c09a1723-afa3-458f-b186-995e0826ee1a","ios":"levelo://app?vid=c09a1723-afa3-458f-b186-995e0826ee1a"},"vehicle_type_id":"4","last_reported":1684062255,"current_range_meters":29600,"station_id":"ce4bgk12rcd13ifvqbi0","pricing_plan_id":"free"},{"bike_id":"e4d55940-cd20-4491-89ac-919888e6b4d5","system_id":"levelo_inurba_marseille","lat":43.296277,"lon":5.377108,"is_reserved":false,"is_disabled":false,"rental_uris":{"android":"levelo://app?vid=e4d55940-cd20-4491-89ac-919888e6b4d5","ios":"levelo://app?vid=e4d55940-cd20-4491-89ac-919888e6b4d5"},"vehicle_type_id":"4","last_reported":1684062255,"current_range_meters":4400,"station_id":"ce4bgi92rcd13ifvqb90","pricing_plan_id":"free"},{"bike_id":"80daa141-fc1d-41c3-a4d4-27777f8c2a14","system_id":"levelo_inurba_marseille","lat":43.304274,"lon":5.388873,"is_reserved":false,"is_disabled":false,"rental_uris":{"android":"levelo://app?vid=80daa141-fc1d-41c3-a4d4-27777f8c2a14","ios":"levelo://app?vid=80daa141-fc1d-41c3-a4d4-27777f8c2a14"},"vehicle_type_id":"4","last_reported":1684062255,"current_range_meters":4400,"station_id":"ce4bgk12rcd13ifvqbi0","pricing_plan_id":"free"},{"bike_id":"a822cb5c-77c0-499b-a294-fdcdec4d458a","system_id":"levelo_inurba_marseille","lat":43.295279,"lon":5.375048,"is_reserved":false,"is_disabled":false,"rental_uris":{"android":"levelo://app?vid=a822cb5c-77c0-499b-a294-fdcdec4d458a","ios":"levelo://app?vid=a822cb5c-77c0-499b-a294-fdcdec4d458a"},"vehicle_type_id":"4","last_reported":1684062255,"current_range_meters":27600,"station_id":"ce4bgkp2rcd13ifvqbmg","pricing_plan_id":"free"},{"bike_id":"0ca55b47-cd60-4403-a167-05f43bcd6711","system_id":"levelo_inurba_marseille","lat":43.304274,"lon":5.388873,"is_reserved":false,"is_disabled":false,"rental_uris":{"android":"levelo://app?vid=0ca55b47-cd60-4403-a167-05f43bcd6711","ios":"levelo://app?vid=0ca55b47-cd60-4403-a167-05f43bcd6711"},"vehicle_type_id":"4","last_reported":1684062255,"current_range_meters":800,"station_id":"ce4bgk12rcd13ifvqbi0","pricing_plan_id":"free"},{"bike_id":"9858cc6a-2c99-463b-97c9-420c03f3c091","system_id":"levelo_inurba_marseille","lat":43.295279,"lon":5.375048,"is_reserved":false,"is_disabled":false,"rental_uris":{"android":"levelo://app?vid=9858cc6a-2c99-463b-97c9-420c03f3c091","ios":"levelo://app?vid=9858cc6a-2c99-463b-97c9-420c03f3c091"},"vehicle_type_id":"4","last_reported":1684062255,"current_range_meters":31200,"station_id":"ce4bgkp2rcd13ifvqbmg","pricing_plan_id":"free"},{"bike_id":"2937ecd6-4b53-4747-b6f1-a7351838dd45","system_id":"levelo_inurba_marseille","lat":43.299717,"lon":5.384845,"is_reserved":false,"is_disabled":false,"rental_uris":{"android":"levelo://app?vid=2937ecd6-4b53-4747-b6f1-a7351838dd45","ios":"levelo://app?vid=2937ecd6-4b53-4747-b6f1-a7351838dd45"},"vehicle_type_id":"4","last_reported":1684062255,"current_range_meters":11200,"station_id":"ce4bgj92rcd13ifvqbd0","pricing_plan_id":"free"},{"bike_id":"98d43089-ff1e-40ee-a123-f18e174ce1c4","system_id":"levelo_inurba_marseille","lat":43.31455,"lon":5.39228,"is_reserved":false,"is_disabled":false,"rental_uris":{"android":"levelo://app?vid=98d43089-ff1e-40ee-a123-f18e174ce1c4","ios":"levelo://app?vid=98d43089-ff1e-40ee-a123-f18e174ce1c4"},"vehicle_type_id":"4","last_reported":1684062255,"current_range_meters":0,"station_id":"","pricing_plan_id":"free"},{"bike_id":"df23aa09-1630-4892-94d7-996b34d140ff","system_id":"levelo_inurba_marseille","lat":43.299717,"lon":5.384845,"is_reserved":false,"is_disabled":false,"rental_uris":{"android":"levelo://app?vid=df23aa09-1630-4892-94d7-996b34d140ff","ios":"levelo://app?vid=df23aa09-1630-4892-94d7-996b34d140ff"},"vehicle_type_id":"4","last_reported":1684062255,"current_range_meters":13200,"station_id":"ce4bgj92rcd13ifvqbd0","pricing_plan_id":"free"},{"bike_id":"ca0031b2-73a1-48eb-b28e-22c3f8e9897f","system_id":"levelo_inurba_marseille","lat":43.295279,"lon":5.375048,"is_reserved":false,"is_disabled":false,"rental_uris":{"android":"levelo://app?vid=ca0031b2-73a1-48eb-b28e-22c3f8e9897f","ios":"levelo://app?vid=ca0031b2-73a1-48eb-b28e-22c3f8e9897f"},"vehicle_type_id":"4","last_reported":1684062255,"current_range_meters":18000,"station_id":"ce4bgkp2rcd13ifvqbmg","pricing_plan_id":"free"},{"bike_id":"696708e1-d1f6-4a82-8bc8-9c4c2199c9da","system_id":"levelo_inurba_marseille","lat":43.295279,"lon":5.375048,"is_reserved":false,"is_disabled":false,"rental_uris":{"android":"levelo://app?vid=696708e1-d1f6-4a82-8bc8-9c4c2199c9da","ios":"levelo://app?vid=696708e1-d1f6-4a82-8bc8-9c4c2199c9da"},"vehicle_type_id":"4","last_reported":1684062255,"current_range_meters":30800,"station_id":"ce4bgkp2rcd13ifvqbmg","pricing_plan_id":"free"},{"bike_id":"6f6b02ce-a50b-443a-a31d-aed834771e7b","system_id":"levelo_inurba_marseille","lat":43.31441,"lon":5.39281,"is_reserved":false,"is_disabled":false,"rental_uris":{"android":"levelo://app?vid=6f6b02ce-a50b-443a-a31d-aed834771e7b","ios":"levelo://app?vid=6f6b02ce-a50b-443a-a31d-aed834771e7b"},"vehicle_type_id":"4","last_reported":1684062255,"current_range_meters":2400,"station_id":"","pricing_plan_id":"free"},{"bike_id":"bfd7b061-12e0-4424-9240-2874d8d085d0","system_id":"levelo_inurba_marseille","lat":43.29601,"lon":5.381084,"is_reserved":false,"is_disabled":false,"rental_uris":{"android":"levelo://app?vid=bfd7b061-12e0-4424-9240-2874d8d085d0","ios":"levelo://app?vid=bfd7b061-12e0-4424-9240-2874d8d085d0"},"vehicle_type_id":"4","last_reported":1684062255,"current_range_meters":18000,"station_id":"ce4bgl12rcd13ifvqbo0","pricing_plan_id":"free"},{"bike_id":"f6683e60-62de-492d-9376-cb16b7922295","system_id":"levelo_inurba_marseille","lat":43.293085,"lon":5.371775,"is_reserved":false,"is_disabled":false,"rental_uris":{"android":"levelo://app?vid=f6683e60-62de-492d-9376-cb16b7922295","ios":"levelo://app?vid=f6683e60-62de-492d-9376-cb16b7922295"},"vehicle_type_id":"4","last_reported":1684062255,"current_range_meters":21200,"station_id":"ce4bgqh2rcd13ifvqc5g","pricing_plan_id":"free"},{"bike_id":"74a32d01-3dbb-4b35-a63f-3fa3c5860f3a","system_id":"levelo_inurba_marseille","lat":43.293249,"lon":5.371578,"is_reserved":false,"is_disabled":false,"rental_uris":{"android":"levelo://app?vid=74a32d01-3dbb-4b35-a63f-3fa3c5860f3a","ios":"levelo://app?vid=74a32d01-3dbb-4b35-a63f-3fa3c5860f3a"},"vehicle_type_id":"4","last_reported":1684062255,"current_range_meters":12000,"station_id":"ce4bgh92rcd13ifvqb40","pricing_plan_id":"free"},{"bike_id":"5edafd4e-aa32-4e69-b457-c4b669ebf4b7","system_id":"levelo_inurba_marseille","lat":43.293249,"lon":5.371578,"is_reserved":false,"is_disabled":false,"rental_uris":{"android":"levelo://app?vid=5edafd4e-aa32-4e69-b457-c4b669ebf4b7","ios":"levelo://app?vid=5edafd4e-aa32-4e69-b457-c4b669ebf4b7"},"vehicle_type_id":"4","last_reported":1684062255,"current_range_meters":23200,"station_id":"ce4bgh92rcd13ifvqb40","pricing_plan_id":"free"},{"bike_id":"02c5f416-3498-4f43-93c9-e403e2eaf50a","system_id":"levelo_inurba_marseille","lat":43.29265,"lon":5.36839,"is_reserved":false,"is_disabled":false,"rental_uris":{"android":"levelo://app?vid=02c5f416-3498-4f43-93c9-e403e2eaf50a","ios":"levelo://app?vid=02c5f416-3498-4f43-93c9-e403e2eaf50a"},"vehicle_type_id":"4","last_reported":1684062255,"current_range_meters":30400,"station_id":"ce4bhbp2rcd13ifvqesg","pricing_plan_id":"free"},{"bike_id":"e32ad5ca-2dea-4191-b03e-f4541502abf5","system_id":"levelo_inurba_marseille","lat":43.30603,"lon":5.39356,"is_reserved":false,"is_disabled":false,"rental_uris":{"android":"levelo://app?vid=e32ad5ca-2dea-4191-b03e-f4541502abf5","ios":"levelo://app?vid=e32ad5ca-2dea-4191-b03e-f4541502abf5"},"vehicle_type_id":"4","last_reported":1684062255,"current_range_meters":24000,"station_id":"ce4bh0p2rcd13ifvqd80","pricing_plan_id":"free"},{"bike_id":"aaaf2792-05d0-4b10-b0e2-c903062bd0a8","system_id":"levelo_inurba_marseille","lat":43.2936,"lon":5.37835,"is_reserved":false,"is_disabled":false,"rental_uris":{"android":"levelo://app?vid=aaaf2792-05d0-4b10-b0e2-c903062bd0a8","ios":"levelo://app?vid=aaaf2792-05d0-4b10-b0e2-c903062bd0a8"},"vehicle_type_id":"4","last_reported":1684062255,"current_range_meters":14800,"station_id":"ce4bgjh2rcd13ifvqbf0","pricing_plan_id":"free"},{"bike_id":"e3f49e70-7a03-426f-98b5-70fa6d183236","system_id":"levelo_inurba_marseille","lat":43.2936,"lon":5.37835,"is_reserved":false,"is_disabled":false,"rental_uris":{"android":"levelo://app?vid=e3f49e70-7a03-426f-98b5-70fa6d183236","ios":"levelo://app?vid=e3f49e70-7a03-426f-98b5-70fa6d183236"},"vehicle_type_id":"4","last_reported":1684062255,"current_range_meters":22800,"station_id":"ce4bgjh2rcd13ifvqbf0","pricing_plan_id":"free"},{"bike_id":"cc51b18e-e6df-4818-9120-fd0fef91e899","system_id":"levelo_inurba_marseille","lat":43.2936,"lon":5.37835,"is_reserved":false,"is_disabled":false,"rental_uris":{"android":"levelo://app?vid=cc51b18e-e6df-4818-9120-fd0fef91e899","ios":"levelo://app?vid=cc51b18e-e6df-4818-9120-fd0fef91e899"},"vehicle_type_id":"4","last_reported":1684062255,"current_range_meters":26400,"station_id":"ce4bgjh2rcd13ifvqbf0","pricing_plan_id":"free"},{"bike_id":"7efffde5-95ac-4e13-97d0-9c6c5eef4e59","system_id":"levelo_inurba_marseille","lat":43.2936,"lon":5.37835,"is_reserved":false,"is_disabled":false,"rental_uris":{"android":"levelo://app?vid=7efffde5-95ac-4e13-97d0-9c6c5eef4e59","ios":"levelo://app?vid=7efffde5-95ac-4e13-97d0-9c6c5eef4e59"},"vehicle_type_id":"4","last_reported":1684062255,"current_range_meters":0,"station_id":"ce4bgjh2rcd13ifvqbf0","pricing_plan_id":"free"},{"bike_id":"ae7c5f60-c5af-4e70-b49e-93d07487ba92","system_id":"levelo_inurba_marseille","lat":43.292663,"lon":5.376389,"is_reserved":false,"is_disabled":false,"rental_uris":{"android":"levelo://app?vid=ae7c5f60-c5af-4e70-b49e-93d07487ba92","ios":"levelo://app?vid=ae7c5f60-c5af-4e70-b49e-93d07487ba92"},"vehicle_type_id":"4","last_reported":1684062255,"current_range_meters":10000,"station_id":"ce4bgi12rcd13ifvqb80","pricing_plan_id":"free"},{"bike_id":"516971db-bcd7-4e6d-a02c-705ecc2b6e8e","system_id":"levelo_inurba_marseille","lat":43.30085,"lon":5.390856,"is_reserved":false,"is_disabled":false,"rental_uris":{"android":"levelo://app?vid=516971db-bcd7-4e6d-a02c-705ecc2b6e8e","ios":"levelo://app?vid=516971db-bcd7-4e6d-a02c-705ecc2b6e8e"},"vehicle_type_id":"4","last_reported":1684062255,"current_range_meters":14400,"station_id":"ce4bh192rcd13ifvqdb0","pricing_plan_id":"free"},{"bike_id":"9240a77d-ff68-4817-aafa-c3c60fa55fe7","system_id":"levelo_inurba_marseille","lat":43.298764,"lon":5.388973,"is_reserved":false,"is_disabled":false,"rental_uris":{"android":"levelo://app?vid=9240a77d-ff68-4817-aafa-c3c60fa55fe7","ios":"levelo://app?vid=9240a77d-ff68-4817-aafa-c3c60fa55fe7"},"vehicle_type_id":"4","last_reported":1684062255,"current_range_meters":14400,"station_id":"ce4bh392rcd13ifvqdl0","pricing_plan_id":"free"},{"bike_id":"f7d991c9-ed45-40db-8af1-73f50580a84d","system_id":"levelo_inurba_marseille","lat":43.291671,"lon":5.371575,"is_reserved":false,"is_disabled":false,"rental_uris":{"android":"levelo://app?vid=f7d991c9-ed45-40db-8af1-73f50580a84d","ios":"levelo://app?vid=f7d991c9-ed45-40db-8af1-73f50580a84d"},"vehicle_type_id":"4","last_reported":1684062255,"current_range_meters":30000,"station_id":"ce4bha92rcd13ifvqeh0","pricing_plan_id":"free"},{"bike_id":"b7a2e2ad-636a-4b2a-b630-30b25c6a2cd1","system_id":"levelo_inurba_marseille","lat":43.29199,"lon":5.358092,"is_reserved":false,"is_disabled":false,"rental_uris":{"android":"levelo://app?vid=b7a2e2ad-636a-4b2a-b630-30b25c6a2cd1","ios":"levelo://app?vid=b7a2e2ad-636a-4b2a-b630-30b25c6a2cd1"},"vehicle_type_id":"4","last_reported":1684062255,"current_range_meters":23600,"station_id":"","pricing_plan_id":"free"},{"bike_id":"a2c8ae3a-2fd3-424b-ba60-0d27fd4d1488","system_id":"levelo_inurba_marseille","lat":43.29196,"lon":5.35808,"is_reserved":false,"is_disabled":false,"rental_uris":{"android":"levelo://app?vid=a2c8ae3a-2fd3-424b-ba60-0d27fd4d1488","ios":"levelo://app?vid=a2c8ae3a-2fd3-424b-ba60-0d27fd4d1488"},"vehicle_type_id":"4","last_reported":1684062255,"current_range_meters":24000,"station_id":"","pricing_plan_id":"free"},{"bike_id":"a6a45ea6-1c7d-46fa-8d71-587d2d76205b","system_id":"levelo_inurba_marseille","lat":43.313291,"lon":5.396838,"is_reserved":false,"is_disabled":false,"rental_uris":{"android":"levelo://app?vid=a6a45ea6-1c7d-46fa-8d71-587d2d76205b","ios":"levelo://app?vid=a6a45ea6-1c7d-46fa-8d71-587d2d76205b"},"vehicle_type_id":"4","last_reported":1684062255,"current_range_meters":19200,"station_id":"ce4bgvp2rcd13ifvqcu0","pricing_plan_id":"free"},{"bike_id":"caa3a155-042e-4332-ae2d-e502e48a4926","system_id":"levelo_inurba_marseille","lat":43.30883,"lon":5.39637,"is_reserved":false,"is_disabled":false,"rental_uris":{"android":"levelo://app?vid=caa3a155-042e-4332-ae2d-e502e48a4926","ios":"levelo://app?vid=caa3a155-042e-4332-ae2d-e502e48a4926"},"vehicle_type_id":"4","last_reported":1684062255,"current_range_meters":28400,"station_id":"","pricing_plan_id":"free"},{"bike_id":"bb459314-17f6-417f-93dd-1cdb5c32a679","system_id":"levelo_inurba_marseille","lat":43.313291,"lon":5.396838,"is_reserved":false,"is_disabled":false,"rental_uris":{"android":"levelo://app?vid=bb459314-17f6-417f-93dd-1cdb5c32a679","ios":"levelo://app?vid=bb459314-17f6-417f-93dd-1cdb5c32a679"},"vehicle_type_id":"4","last_reported":1684062255,"current_range_meters":26400,"station_id":"ce4bgvp2rcd13ifvqcu0","pricing_plan_id":"free"},{"bike_id":"e45f9ceb-d7cf-44ac-ac01-ed8ef1fde44f","system_id":"levelo_inurba_marseille","lat":43.313291,"lon":5.396838,"is_reserved":false,"is_disabled":false,"rental_uris":{"android":"levelo://app?vid=e45f9ceb-d7cf-44ac-ac01-ed8ef1fde44f","ios":"levelo://app?vid=e45f9ceb-d7cf-44ac-ac01-ed8ef1fde44f"},"vehicle_type_id":"4","last_reported":1684062255,"current_range_meters":21200,"station_id":"ce4bgvp2rcd13ifvqcu0","pricing_plan_id":"free"},{"bike_id":"0d8cc75d-5f68-4936-850b-f817c08f61c7","system_id":"levelo_inurba_marseille","lat":43.313291,"lon":5.396838,"is_reserved":false,"is_disabled":false,"rental_uris":{"android":"levelo://app?vid=0d8cc75d-5f68-4936-850b-f817c08f61c7","ios":"levelo://app?vid=0d8cc75d-5f68-4936-850b-f817c08f61c7"},"vehicle_type_id":"4","last_reported":1684062255,"current_range_meters":24800,"station_id":"ce4bgvp2rcd13ifvqcu0","pricing_plan_id":"free"},{"bike_id":"a1cbd7f1-b1d6-46ee-8d7a-e685f12f07db","system_id":"levelo_inurba_marseille","lat":43.313291,"lon":5.396838,"is_reserved":false,"is_disabled":false,"rental_uris":{"android":"levelo://app?vid=a1cbd7f1-b1d6-46ee-8d7a-e685f12f07db","ios":"levelo://app?vid=a1cbd7f1-b1d6-46ee-8d7a-e685f12f07db"},"vehicle_type_id":"4","last_reported":1684062255,"current_range_meters":22000,"station_id":"ce4bgvp2rcd13ifvqcu0","pricing_plan_id":"free"},{"bike_id":"0224122d-f279-40dd-b0eb-e1950749c8e5","system_id":"levelo_inurba_marseille","lat":43.313291,"lon":5.396838,"is_reserved":false,"is_disabled":false,"rental_uris":{"android":"levelo://app?vid=0224122d-f279-40dd-b0eb-e1950749c8e5","ios":"levelo://app?vid=0224122d-f279-40dd-b0eb-e1950749c8e5"},"vehicle_type_id":"4","last_reported":1684062255,"current_range_meters":18400,"station_id":"ce4bgvp2rcd13ifvqcu0","pricing_plan_id":"free"},{"bike_id":"22aed5c7-5c5b-40ee-9c7d-44dca8575e86","system_id":"levelo_inurba_marseille","lat":43.31328,"lon":5.3969,"is_reserved":false,"is_disabled":false,"rental_uris":{"android":"levelo://app?vid=22aed5c7-5c5b-40ee-9c7d-44dca8575e86","ios":"levelo://app?vid=22aed5c7-5c5b-40ee-9c7d-44dca8575e86"},"vehicle_type_id":"4","last_reported":1684062255,"current_range_meters":28400,"station_id":"ce4bgvp2rcd13ifvqcu0","pricing_plan_id":"free"},{"bike_id":"7af9fdb4-a41c-43a6-83ff-28b5846ace7e","system_id":"levelo_inurba_marseille","lat":43.313291,"lon":5.396838,"is_reserved":false,"is_disabled":false,"rental_uris":{"android":"levelo://app?vid=7af9fdb4-a41c-43a6-83ff-28b5846ace7e","ios":"levelo://app?vid=7af9fdb4-a41c-43a6-83ff-28b5846ace7e"},"vehicle_type_id":"4","last_reported":1684062255,"current_range_meters":5200,"station_id":"ce4bgvp2rcd13ifvqcu0","pricing_plan_id":"free"},{"bike_id":"f875a024-7f43-4210-8a9d-11fdb1548604","system_id":"levelo_inurba_marseille","lat":43.2919,"lon":5.35799,"is_reserved":false,"is_disabled":false,"rental_uris":{"android":"levelo://app?vid=f875a024-7f43-4210-8a9d-11fdb1548604","ios":"levelo://app?vid=f875a024-7f43-4210-8a9d-11fdb1548604"},"vehicle_type_id":"4","last_reported":1684062255,"current_range_meters":17600,"station_id":"","pricing_plan_id":"free"},{"bike_id":"e69bd5a3-6887-4cec-a5f7-f2af98ffa583","system_id":"levelo_inurba_marseille","lat":43.29189,"lon":5.35803,"is_reserved":false,"is_disabled":false,"rental_uris":{"android":"levelo://app?vid=e69bd5a3-6887-4cec-a5f7-f2af98ffa583","ios":"levelo://app?vid=e69bd5a3-6887-4cec-a5f7-f2af98ffa583"},"vehicle_type_id":"4","last_reported":1684062255,"current_range_meters":29600,"station_id":"","pricing_plan_id":"free"},{"bike_id":"da42fdc4-1e46-4b6a-9199-894601431afa","system_id":"levelo_inurba_marseille","lat":43.309038,"lon":5.396546,"is_reserved":false,"is_disabled":false,"rental_uris":{"android":"levelo://app?vid=da42fdc4-1e46-4b6a-9199-894601431afa","ios":"levelo://app?vid=da42fdc4-1e46-4b6a-9199-894601431afa"},"vehicle_type_id":"4","last_reported":1684062255,"current_range_meters":30000,"station_id":"ce4bh012rcd13ifvqcv0","pricing_plan_id":"free"},{"bike_id":"e913c90c-6433-45c2-8dae-31a2dfaa947c","system_id":"levelo_inurba_marseille","lat":43.309038,"lon":5.396546,"is_reserved":false,"is_disabled":false,"rental_uris":{"android":"levelo://app?vid=e913c90c-6433-45c2-8dae-31a2dfaa947c","ios":"levelo://app?vid=e913c90c-6433-45c2-8dae-31a2dfaa947c"},"vehicle_type_id":"4","last_reported":1684062255,"current_range_meters":21600,"station_id":"ce4bh012rcd13ifvqcv0","pricing_plan_id":"free"},{"bike_id":"08e758c1-0412-4c02-982a-42cdc55b5264","system_id":"levelo_inurba_marseille","lat":43.290624,"lon":5.359245,"is_reserved":false,"is_disabled":false,"rental_uris":{"android":"levelo://app?vid=08e758c1-0412-4c02-982a-42cdc55b5264","ios":"levelo://app?vid=08e758c1-0412-4c02-982a-42cdc55b5264"},"vehicle_type_id":"4","last_reported":1684062255,"current_range_meters":24000,"station_id":"ce4bha92rcd13ifvqeg0","pricing_plan_id":"free"},{"bike_id":"cf373089-51da-4680-82f9-df0dfd0ac64b","system_id":"levelo_inurba_marseille","lat":43.290631,"lon":5.359244,"is_reserved":false,"is_disabled":false,"rental_uris":{"android":"levelo://app?vid=cf373089-51da-4680-82f9-df0dfd0ac64b","ios":"levelo://app?vid=cf373089-51da-4680-82f9-df0dfd0ac64b"},"vehicle_type_id":"4","last_reported":1684062255,"current_range_meters":30400,"station_id":"ce4bha92rcd13ifvqeg0","pricing_plan_id":"free"},{"bike_id":"320baac6-b88f-4162-a5e3-9acbab70c92d","system_id":"levelo_inurba_marseille","lat":43.290631,"lon":5.359244,"is_reserved":false,"is_disabled":false,"rental_uris":{"android":"levelo://app?vid=320baac6-b88f-4162-a5e3-9acbab70c92d","ios":"levelo://app?vid=320baac6-b88f-4162-a5e3-9acbab70c92d"},"vehicle_type_id":"4","last_reported":1684062255,"current_range_meters":22000,"station_id":"ce4bha92rcd13ifvqeg0","pricing_plan_id":"free"},{"bike_id":"9e5fb5d3-09ce-492d-a505-1e7e0ee4dbdb","system_id":"levelo_inurba_marseille","lat":43.290327,"lon":5.375711,"is_reserved":false,"is_disabled":false,"rental_uris":{"android":"levelo://app?vid=9e5fb5d3-09ce-492d-a505-1e7e0ee4dbdb","ios":"levelo://app?vid=9e5fb5d3-09ce-492d-a505-1e7e0ee4dbdb"},"vehicle_type_id":"4","last_reported":1684062255,"current_range_meters":11200,"station_id":"ce4bh692rcd13ifvqe90","pricing_plan_id":"free"},{"bike_id":"bedee10e-5dfc-450e-8b51-ca83bf1109a6","system_id":"levelo_inurba_marseille","lat":43.30488,"lon":5.39703,"is_reserved":false,"is_disabled":false,"rental_uris":{"android":"levelo://app?vid=bedee10e-5dfc-450e-8b51-ca83bf1109a6","ios":"levelo://app?vid=bedee10e-5dfc-450e-8b51-ca83bf1109a6"},"vehicle_type_id":"4","last_reported":1684062255,"current_range_meters":0,"station_id":"","pricing_plan_id":"free"},{"bike_id":"9f129774-36e1-42f1-8229-a7c2be11d89e","system_id":"levelo_inurba_marseille","lat":43.30482,"lon":5.39703,"is_reserved":false,"is_disabled":false,"rental_uris":{"android":"levelo://app?vid=9f129774-36e1-42f1-8229-a7c2be11d89e","ios":"levelo://app?vid=9f129774-36e1-42f1-8229-a7c2be11d89e"},"vehicle_type_id":"4","last_reported":1684062255,"current_range_meters":16000,"station_id":"","pricing_plan_id":"free"},{"bike_id":"b1274423-db18-4a8a-b706-35c1cf49cba0","system_id":"levelo_inurba_marseille","lat":43.290319,"lon":5.375732,"is_reserved":false,"is_disabled":false,"rental_uris":{"android":"levelo://app?vid=b1274423-db18-4a8a-b706-35c1cf49cba0","ios":"levelo://app?vid=b1274423-db18-4a8a-b706-35c1cf49cba0"},"vehicle_type_id":"4","last_reported":1684062255,"current_range_meters":31200,"station_id":"ce4bh692rcd13ifvqe90","pricing_plan_id":"free"},{"bike_id":"6661960c-9432-4e40-8c49-259a2f186593","system_id":"levelo_inurba_marseille","lat":43.289184,"lon":5.366408,"is_reserved":false,"is_disabled":false,"rental_uris":{"android":"levelo://app?vid=6661960c-9432-4e40-8c49-259a2f186593","ios":"levelo://app?vid=6661960c-9432-4e40-8c49-259a2f186593"},"vehicle_type_id":"4","last_reported":1684062255,"current_range_meters":13200,"station_id":"ce4bhap2rcd13ifvqek0","pricing_plan_id":"free"},{"bike_id":"7bc250a0-2cbd-4f98-9030-682183dfeaf5","system_id":"levelo_inurba_marseille","lat":43.289468,"lon":5.363719,"is_reserved":false,"is_disabled":false,"rental_uris":{"android":"levelo://app?vid=7bc250a0-2cbd-4f98-9030-682183dfeaf5","ios":"levelo://app?vid=7bc250a0-2cbd-4f98-9030-682183dfeaf5"},"vehicle_type_id":"4","last_reported":1684062255,"current_range_meters":24800,"station_id":"ce4bhc92rcd13ifvqetg","pricing_plan_id":"free"},{"bike_id":"a2f35923-396d-4153-b5cb-8f396fc42a04","system_id":"levelo_inurba_marseille","lat":43.289468,"lon":5.363719,"is_reserved":false,"is_disabled":false,"rental_uris":{"android":"levelo://app?vid=a2f35923-396d-4153-b5cb-8f396fc42a04","ios":"levelo://app?vid=a2f35923-396d-4153-b5cb-8f396fc42a04"},"vehicle_type_id":"4","last_reported":1684062255,"current_range_meters":17600,"station_id":"ce4bhc92rcd13ifvqetg","pricing_plan_id":"free"},{"bike_id":"ce43308e-c9dc-44e7-9cf6-4429ff6e3a9c","system_id":"levelo_inurba_marseille","lat":43.304296,"lon":5.397513,"is_reserved":false,"is_disabled":false,"rental_uris":{"android":"levelo://app?vid=ce43308e-c9dc-44e7-9cf6-4429ff6e3a9c","ios":"levelo://app?vid=ce43308e-c9dc-44e7-9cf6-4429ff6e3a9c"},"vehicle_type_id":"4","last_reported":1684062255,"current_range_meters":24400,"station_id":"ce4bh092rcd13ifvqd20","pricing_plan_id":"free"},{"bike_id":"0ffd4919-c659-4f55-957b-990388ad0407","system_id":"levelo_inurba_marseille","lat":43.304296,"lon":5.397513,"is_reserved":false,"is_disabled":false,"rental_uris":{"android":"levelo://app?vid=0ffd4919-c659-4f55-957b-990388ad0407","ios":"levelo://app?vid=0ffd4919-c659-4f55-957b-990388ad0407"},"vehicle_type_id":"4","last_reported":1684062255,"current_range_meters":16400,"station_id":"ce4bh092rcd13ifvqd20","pricing_plan_id":"free"},{"bike_id":"12c51a24-94fc-42c9-adce-c9658b9c69d8","system_id":"levelo_inurba_marseille","lat":43.29013,"lon":5.35636,"is_reserved":false,"is_disabled":false,"rental_uris":{"android":"levelo://app?vid=12c51a24-94fc-42c9-adce-c9658b9c69d8","ios":"levelo://app?vid=12c51a24-94fc-42c9-adce-c9658b9c69d8"},"vehicle_type_id":"4","last_reported":1684062255,"current_range_meters":31200,"station_id":"ce4bhb92rcd13ifvqen0","pricing_plan_id":"free"},{"bike_id":"2784b14e-83cb-4a0e-abb2-8117c2669720","system_id":"levelo_inurba_marseille","lat":43.290103,"lon":5.356114,"is_reserved":false,"is_disabled":false,"rental_uris":{"android":"levelo://app?vid=2784b14e-83cb-4a0e-abb2-8117c2669720","ios":"levelo://app?vid=2784b14e-83cb-4a0e-abb2-8117c2669720"},"vehicle_type_id":"4","last_reported":1684062255,"current_range_meters":14000,"station_id":"ce4bhb92rcd13ifvqen0","pricing_plan_id":"free"},{"bike_id":"f3562043-b80d-45e3-967d-ba21f94bef01","system_id":"levelo_inurba_marseille","lat":43.33038,"lon":5.3892,"is_reserved":false,"is_disabled":false,"rental_uris":{"android":"levelo://app?vid=f3562043-b80d-45e3-967d-ba21f94bef01","ios":"levelo://app?vid=f3562043-b80d-45e3-967d-ba21f94bef01"},"vehicle_type_id":"4","last_reported":1684062255,"current_range_meters":30800,"station_id":"ce4bhr92rcd13ifvqhrg","pricing_plan_id":"free"},{"bike_id":"19d810ab-8370-4eb6-8eb4-3f94413eb503","system_id":"levelo_inurba_marseille","lat":43.33042,"lon":5.38915,"is_reserved":false,"is_disabled":false,"rental_uris":{"android":"levelo://app?vid=19d810ab-8370-4eb6-8eb4-3f94413eb503","ios":"levelo://app?vid=19d810ab-8370-4eb6-8eb4-3f94413eb503"},"vehicle_type_id":"4","last_reported":1684062255,"current_range_meters":12400,"station_id":"ce4bhr92rcd13ifvqhrg","pricing_plan_id":"free"},{"bike_id":"45267953-7b14-4eb9-9ce6-09c9bf50dfb4","system_id":"levelo_inurba_marseille","lat":43.33041,"lon":5.38919,"is_reserved":false,"is_disabled":false,"rental_uris":{"android":"levelo://app?vid=45267953-7b14-4eb9-9ce6-09c9bf50dfb4","ios":"levelo://app?vid=45267953-7b14-4eb9-9ce6-09c9bf50dfb4"},"vehicle_type_id":"4","last_reported":1684062255,"current_range_meters":26800,"station_id":"ce4bhr92rcd13ifvqhrg","pricing_plan_id":"free"},{"bike_id":"9b34a26f-1256-4b06-a2cd-2e6177e89d22","system_id":"levelo_inurba_marseille","lat":43.33042,"lon":5.38918,"is_reserved":false,"is_disabled":false,"rental_uris":{"android":"levelo://app?vid=9b34a26f-1256-4b06-a2cd-2e6177e89d22","ios":"levelo://app?vid=9b34a26f-1256-4b06-a2cd-2e6177e89d22"},"vehicle_type_id":"4","last_reported":1684062255,"current_range_meters":24000,"station_id":"ce4bhr92rcd13ifvqhrg","pricing_plan_id":"free"},{"bike_id":"b9b646b4-78b1-402c-930e-3d487dde0f8e","system_id":"levelo_inurba_marseille","lat":43.3304,"lon":5.38921,"is_reserved":false,"is_disabled":false,"rental_uris":{"android":"levelo://app?vid=b9b646b4-78b1-402c-930e-3d487dde0f8e","ios":"levelo://app?vid=b9b646b4-78b1-402c-930e-3d487dde0f8e"},"vehicle_type_id":"4","last_reported":1684062255,"current_range_meters":29200,"station_id":"ce4bhr92rcd13ifvqhrg","pricing_plan_id":"free"},{"bike_id":"716f196f-bdac-4a6a-9628-97caa9d0581b","system_id":"levelo_inurba_marseille","lat":43.33043,"lon":5.38919,"is_reserved":false,"is_disabled":false,"rental_uris":{"android":"levelo://app?vid=716f196f-bdac-4a6a-9628-97caa9d0581b","ios":"levelo://app?vid=716f196f-bdac-4a6a-9628-97caa9d0581b"},"vehicle_type_id":"4","last_reported":1684062255,"current_range_meters":9600,"station_id":"ce4bhr92rcd13ifvqhrg","pricing_plan_id":"free"},{"bike_id":"b8d0a2d7-4443-405c-9e1e-71d351b2ac12","system_id":"levelo_inurba_marseille","lat":43.33041,"lon":5.38922,"is_reserved":false,"is_disabled":false,"rental_uris":{"android":"levelo://app?vid=b8d0a2d7-4443-405c-9e1e-71d351b2ac12","ios":"levelo://app?vid=b8d0a2d7-4443-405c-9e1e-71d351b2ac12"},"vehicle_type_id":"4","last_reported":1684062255,"current_range_meters":18400,"station_id":"ce4bhr92rcd13ifvqhrg","pricing_plan_id":"free"},{"bike_id":"d9c65fb5-b538-43a6-8b06-cce8ee9f5b2a","system_id":"levelo_inurba_marseille","lat":43.33042,"lon":5.38921,"is_reserved":false,"is_disabled":false,"rental_uris":{"android":"levelo://app?vid=d9c65fb5-b538-43a6-8b06-cce8ee9f5b2a","ios":"levelo://app?vid=d9c65fb5-b538-43a6-8b06-cce8ee9f5b2a"},"vehicle_type_id":"4","last_reported":1684062255,"current_range_meters":26000,"station_id":"ce4bhr92rcd13ifvqhrg","pricing_plan_id":"free"},{"bike_id":"99d11ff8-cd4f-4243-907c-822c17bc769b","system_id":"levelo_inurba_marseille","lat":43.33042,"lon":5.38922,"is_reserved":false,"is_disabled":false,"rental_uris":{"android":"levelo://app?vid=99d11ff8-cd4f-4243-907c-822c17bc769b","ios":"levelo://app?vid=99d11ff8-cd4f-4243-907c-822c17bc769b"},"vehicle_type_id":"4","last_reported":1684062255,"current_range_meters":17200,"station_id":"ce4bhr92rcd13ifvqhrg","pricing_plan_id":"free"},{"bike_id":"c2a280b5-3784-4d2a-91c4-b2b720ede26b","system_id":"levelo_inurba_marseille","lat":43.290104,"lon":5.356111,"is_reserved":false,"is_disabled":false,"rental_uris":{"android":"levelo://app?vid=c2a280b5-3784-4d2a-91c4-b2b720ede26b","ios":"levelo://app?vid=c2a280b5-3784-4d2a-91c4-b2b720ede26b"},"vehicle_type_id":"4","last_reported":1684062255,"current_range_meters":22400,"station_id":"ce4bhb92rcd13ifvqen0","pricing_plan_id":"free"},{"bike_id":"a199472c-599b-48b9-b057-11d6b4adaa39","system_id":"levelo_inurba_marseille","lat":43.290061,"lon":5.356122,"is_reserved":false,"is_disabled":false,"rental_uris":{"android":"levelo://app?vid=a199472c-599b-48b9-b057-11d6b4adaa39","ios":"levelo://app?vid=a199472c-599b-48b9-b057-11d6b4adaa39"},"vehicle_type_id":"4","last_reported":1684062255,"current_range_meters":8800,"station_id":"ce4bhb92rcd13ifvqen0","pricing_plan_id":"free"},{"bike_id":"754ef565-0150-4f0d-8c0d-a8a5d6927613","system_id":"levelo_inurba_marseille","lat":43.33044,"lon":5.38922,"is_reserved":false,"is_disabled":false,"rental_uris":{"android":"levelo://app?vid=754ef565-0150-4f0d-8c0d-a8a5d6927613","ios":"levelo://app?vid=754ef565-0150-4f0d-8c0d-a8a5d6927613"},"vehicle_type_id":"4","last_reported":1684062255,"current_range_meters":15200,"station_id":"ce4bhr92rcd13ifvqhrg","pricing_plan_id":"free"},{"bike_id":"127ebec0-5800-449e-bff9-d1fd823ca15c","system_id":"levelo_inurba_marseille","lat":43.33046,"lon":5.38921,"is_reserved":false,"is_disabled":false,"rental_uris":{"android":"levelo://app?vid=127ebec0-5800-449e-bff9-d1fd823ca15c","ios":"levelo://app?vid=127ebec0-5800-449e-bff9-d1fd823ca15c"},"vehicle_type_id":"4","last_reported":1684062255,"current_range_meters":1200,"station_id":"ce4bhr92rcd13ifvqhrg","pricing_plan_id":"free"},{"bike_id":"3cf264e4-a51e-4ef1-9a17-776750f9da80","system_id":"levelo_inurba_marseille","lat":43.290026,"lon":5.356148,"is_reserved":false,"is_disabled":false,"rental_uris":{"android":"levelo://app?vid=3cf264e4-a51e-4ef1-9a17-776750f9da80","ios":"levelo://app?vid=3cf264e4-a51e-4ef1-9a17-776750f9da80"},"vehicle_type_id":"4","last_reported":1684062255,"current_range_meters":20000,"station_id":"ce4bhb92rcd13ifvqen0","pricing_plan_id":"free"},{"bike_id":"1001b891-1ff1-4dc1-8d16-d756bcc38d00","system_id":"levelo_inurba_marseille","lat":43.29002,"lon":5.35615,"is_reserved":false,"is_disabled":false,"rental_uris":{"android":"levelo://app?vid=1001b891-1ff1-4dc1-8d16-d756bcc38d00","ios":"levelo://app?vid=1001b891-1ff1-4dc1-8d16-d756bcc38d00"},"vehicle_type_id":"4","last_reported":1684062255,"current_range_meters":16800,"station_id":"ce4bhb92rcd13ifvqen0","pricing_plan_id":"free"},{"bike_id":"c7fe7d92-5ba3-4e22-90d1-b6f490203368","system_id":"levelo_inurba_marseille","lat":43.290104,"lon":5.356111,"is_reserved":false,"is_disabled":false,"rental_uris":{"android":"levelo://app?vid=c7fe7d92-5ba3-4e22-90d1-b6f490203368","ios":"levelo://app?vid=c7fe7d92-5ba3-4e22-90d1-b6f490203368"},"vehicle_type_id":"4","last_reported":1684062255,"current_range_meters":20000,"station_id":"ce4bhb92rcd13ifvqen0","pricing_plan_id":"free"},{"bike_id":"aac48ae3-93fe-4e38-a809-e07bbf42fa63","system_id":"levelo_inurba_marseille","lat":43.290103,"lon":5.356114,"is_reserved":false,"is_disabled":false,"rental_uris":{"android":"levelo://app?vid=aac48ae3-93fe-4e38-a809-e07bbf42fa63","ios":"levelo://app?vid=aac48ae3-93fe-4e38-a809-e07bbf42fa63"},"vehicle_type_id":"4","last_reported":1684062255,"current_range_meters":16400,"station_id":"ce4bhb92rcd13ifvqen0","pricing_plan_id":"free"},{"bike_id":"dc0692ec-341e-479a-8203-e6c1224b7166","system_id":"levelo_inurba_marseille","lat":43.29002,"lon":5.3561,"is_reserved":false,"is_disabled":false,"rental_uris":{"android":"levelo://app?vid=dc0692ec-341e-479a-8203-e6c1224b7166","ios":"levelo://app?vid=dc0692ec-341e-479a-8203-e6c1224b7166"},"vehicle_type_id":"4","last_reported":1684062255,"current_range_meters":23200,"station_id":"ce4bhb92rcd13ifvqen0","pricing_plan_id":"free"},{"bike_id":"28c1e377-839a-4343-9a7a-489f5c05ed8f","system_id":"levelo_inurba_marseille","lat":43.290104,"lon":5.356111,"is_reserved":false,"is_disabled":false,"rental_uris":{"android":"levelo://app?vid=28c1e377-839a-4343-9a7a-489f5c05ed8f","ios":"levelo://app?vid=28c1e377-839a-4343-9a7a-489f5c05ed8f"},"vehicle_type_id":"4","last_reported":1684062255,"current_range_meters":28400,"station_id":"ce4bhb92rcd13ifvqen0","pricing_plan_id":"free"},{"bike_id":"c77189a6-03f3-4824-bc42-770ea478ccb2","system_id":"levelo_inurba_marseille","lat":43.28996,"lon":5.35602,"is_reserved":false,"is_disabled":false,"rental_uris":{"android":"levelo://app?vid=c77189a6-03f3-4824-bc42-770ea478ccb2","ios":"levelo://app?vid=c77189a6-03f3-4824-bc42-770ea478ccb2"},"vehicle_type_id":"4","last_reported":1684062255,"current_range_meters":30000,"station_id":"ce4bhb92rcd13ifvqen0","pricing_plan_id":"free"},{"bike_id":"90fdd493-f41e-471d-b0fc-27b5421b4c88","system_id":"levelo_inurba_marseille","lat":43.290995,"lon":5.381361,"is_reserved":false,"is_disabled":false,"rental_uris":{"android":"levelo://app?vid=90fdd493-f41e-471d-b0fc-27b5421b4c88","ios":"levelo://app?vid=90fdd493-f41e-471d-b0fc-27b5421b4c88"},"vehicle_type_id":"4","last_reported":1684062255,"current_range_meters":17200,"station_id":"ce4bh512rcd13ifvqe2g","pricing_plan_id":"free"},{"bike_id":"3ceab6e2-b91d-4af9-b8c2-2384a265f423","system_id":"levelo_inurba_marseille","lat":43.290995,"lon":5.381361,"is_reserved":false,"is_disabled":false,"rental_uris":{"android":"levelo://app?vid=3ceab6e2-b91d-4af9-b8c2-2384a265f423","ios":"levelo://app?vid=3ceab6e2-b91d-4af9-b8c2-2384a265f423"},"vehicle_type_id":"4","last_reported":1684062255,"current_range_meters":31600,"station_id":"ce4bh512rcd13ifvqe2g","pricing_plan_id":"free"},{"bike_id":"cad193f2-44f3-4b2a-bd83-5b224084ecef","system_id":"levelo_inurba_marseille","lat":43.29787,"lon":5.39337,"is_reserved":false,"is_disabled":false,"rental_uris":{"android":"levelo://app?vid=cad193f2-44f3-4b2a-bd83-5b224084ecef","ios":"levelo://app?vid=cad193f2-44f3-4b2a-bd83-5b224084ecef"},"vehicle_type_id":"4","last_reported":1684062255,"current_range_meters":26400,"station_id":"ce4bh212rcd13ifvqde0","pricing_plan_id":"free"},{"bike_id":"532f0202-2457-43ba-a31a-ad5cc26cd471","system_id":"levelo_inurba_marseille","lat":43.289743,"lon":5.378304,"is_reserved":false,"is_disabled":false,"rental_uris":{"android":"levelo://app?vid=532f0202-2457-43ba-a31a-ad5cc26cd471","ios":"levelo://app?vid=532f0202-2457-43ba-a31a-ad5cc26cd471"},"vehicle_type_id":"4","last_reported":1684062255,"current_range_meters":24000,"station_id":"ce4bh9p2rcd13ifvqed0","pricing_plan_id":"free"},{"bike_id":"34134f35-0daa-4695-8450-93e13823eb23","system_id":"levelo_inurba_marseille","lat":43.289741,"lon":5.378306,"is_reserved":false,"is_disabled":false,"rental_uris":{"android":"levelo://app?vid=34134f35-0daa-4695-8450-93e13823eb23","ios":"levelo://app?vid=34134f35-0daa-4695-8450-93e13823eb23"},"vehicle_type_id":"4","last_reported":1684062255,"current_range_meters":4400,"station_id":"ce4bh9p2rcd13ifvqed0","pricing_plan_id":"free"},{"bike_id":"98a62e2d-5b37-47b5-9b2a-70dea06f0e25","system_id":"levelo_inurba_marseille","lat":43.2901,"lon":5.381269,"is_reserved":false,"is_disabled":false,"rental_uris":{"android":"levelo://app?vid=98a62e2d-5b37-47b5-9b2a-70dea06f0e25","ios":"levelo://app?vid=98a62e2d-5b37-47b5-9b2a-70dea06f0e25"},"vehicle_type_id":"4","last_reported":1684062255,"current_range_meters":20000,"station_id":"ce4bh4p2rcd13ifvqe1g","pricing_plan_id":"free"},{"bike_id":"0f3d0ade-8c75-4465-b9f9-fe3d325ba96f","system_id":"levelo_inurba_marseille","lat":43.28856,"lon":5.358371,"is_reserved":false,"is_disabled":false,"rental_uris":{"android":"levelo://app?vid=0f3d0ade-8c75-4465-b9f9-fe3d325ba96f","ios":"levelo://app?vid=0f3d0ade-8c75-4465-b9f9-fe3d325ba96f"},"vehicle_type_id":"4","last_reported":1684062255,"current_range_meters":31200,"station_id":"ce4bhb12rcd13ifvqem0","pricing_plan_id":"free"},{"bike_id":"c5050c0f-75b4-405c-9177-e064db157527","system_id":"levelo_inurba_marseille","lat":43.28859,"lon":5.35852,"is_reserved":false,"is_disabled":false,"rental_uris":{"android":"levelo://app?vid=c5050c0f-75b4-405c-9177-e064db157527","ios":"levelo://app?vid=c5050c0f-75b4-405c-9177-e064db157527"},"vehicle_type_id":"4","last_reported":1684062255,"current_range_meters":22400,"station_id":"ce4bhb12rcd13ifvqem0","pricing_plan_id":"free"},{"bike_id":"d0c6242d-05be-453c-b970-30e8eb5ff77d","system_id":"levelo_inurba_marseille","lat":43.288616,"lon":5.358303,"is_reserved":false,"is_disabled":false,"rental_uris":{"android":"levelo://app?vid=d0c6242d-05be-453c-b970-30e8eb5ff77d","ios":"levelo://app?vid=d0c6242d-05be-453c-b970-30e8eb5ff77d"},"vehicle_type_id":"4","last_reported":1684062255,"current_range_meters":28800,"station_id":"","pricing_plan_id":"free"},{"bike_id":"d7d214a5-f096-47fe-8849-2781beede765","system_id":"levelo_inurba_marseille","lat":43.288594,"lon":5.358376,"is_reserved":false,"is_disabled":false,"rental_uris":{"android":"levelo://app?vid=d7d214a5-f096-47fe-8849-2781beede765","ios":"levelo://app?vid=d7d214a5-f096-47fe-8849-2781beede765"},"vehicle_type_id":"4","last_reported":1684062255,"current_range_meters":30400,"station_id":"ce4bhb12rcd13ifvqem0","pricing_plan_id":"free"},{"bike_id":"5a088574-d7f5-4a76-92c5-f5899b00acf5","system_id":"levelo_inurba_marseille","lat":43.28856,"lon":5.358371,"is_reserved":false,"is_disabled":false,"rental_uris":{"android":"levelo://app?vid=5a088574-d7f5-4a76-92c5-f5899b00acf5","ios":"levelo://app?vid=5a088574-d7f5-4a76-92c5-f5899b00acf5"},"vehicle_type_id":"4","last_reported":1684062255,"current_range_meters":7200,"station_id":"ce4bhb12rcd13ifvqem0","pricing_plan_id":"free"},{"bike_id":"f4be8b80-ae3d-457a-ace1-b7a5ab3b21b3","system_id":"levelo_inurba_marseille","lat":43.28856,"lon":5.358371,"is_reserved":false,"is_disabled":false,"rental_uris":{"android":"levelo://app?vid=f4be8b80-ae3d-457a-ace1-b7a5ab3b21b3","ios":"levelo://app?vid=f4be8b80-ae3d-457a-ace1-b7a5ab3b21b3"},"vehicle_type_id":"4","last_reported":1684062255,"current_range_meters":6000,"station_id":"ce4bhb12rcd13ifvqem0","pricing_plan_id":"free"},{"bike_id":"33151970-d958-4c4f-a0f0-8db44a3363cb","system_id":"levelo_inurba_marseille","lat":43.28856,"lon":5.358371,"is_reserved":false,"is_disabled":false,"rental_uris":{"android":"levelo://app?vid=33151970-d958-4c4f-a0f0-8db44a3363cb","ios":"levelo://app?vid=33151970-d958-4c4f-a0f0-8db44a3363cb"},"vehicle_type_id":"4","last_reported":1684062255,"current_range_meters":31200,"station_id":"ce4bhb12rcd13ifvqem0","pricing_plan_id":"free"},{"bike_id":"c9895c35-e481-4cba-8c08-70f6c85b24c8","system_id":"levelo_inurba_marseille","lat":43.28856,"lon":5.358371,"is_reserved":false,"is_disabled":false,"rental_uris":{"android":"levelo://app?vid=c9895c35-e481-4cba-8c08-70f6c85b24c8","ios":"levelo://app?vid=c9895c35-e481-4cba-8c08-70f6c85b24c8"},"vehicle_type_id":"4","last_reported":1684062255,"current_range_meters":25600,"station_id":"ce4bhb12rcd13ifvqem0","pricing_plan_id":"free"},{"bike_id":"92c9fa20-618d-458b-a3ba-c596be695720","system_id":"levelo_inurba_marseille","lat":43.28843,"lon":5.35844,"is_reserved":false,"is_disabled":false,"rental_uris":{"android":"levelo://app?vid=92c9fa20-618d-458b-a3ba-c596be695720","ios":"levelo://app?vid=92c9fa20-618d-458b-a3ba-c596be695720"},"vehicle_type_id":"4","last_reported":1684062255,"current_range_meters":6000,"station_id":"ce4bhb12rcd13ifvqem0","pricing_plan_id":"free"},{"bike_id":"084466b0-90e4-4c18-8448-2af407a74801","system_id":"levelo_inurba_marseille","lat":43.28856,"lon":5.358371,"is_reserved":false,"is_disabled":false,"rental_uris":{"android":"levelo://app?vid=084466b0-90e4-4c18-8448-2af407a74801","ios":"levelo://app?vid=084466b0-90e4-4c18-8448-2af407a74801"},"vehicle_type_id":"4","last_reported":1684062255,"current_range_meters":31200,"station_id":"ce4bhb12rcd13ifvqem0","pricing_plan_id":"free"},{"bike_id":"235bfca5-3523-4573-9b75-a1fadb68ed6a","system_id":"levelo_inurba_marseille","lat":43.337328,"lon":5.374538,"is_reserved":false,"is_disabled":false,"rental_uris":{"android":"levelo://app?vid=235bfca5-3523-4573-9b75-a1fadb68ed6a","ios":"levelo://app?vid=235bfca5-3523-4573-9b75-a1fadb68ed6a"},"vehicle_type_id":"4","last_reported":1684062255,"current_range_meters":27600,"station_id":"ce4bhah2rcd13ifvqei0","pricing_plan_id":"free"},{"bike_id":"5b3ce0e7-ddde-4f08-9689-05c27b8dd4cc","system_id":"levelo_inurba_marseille","lat":43.337436,"lon":5.374627,"is_reserved":false,"is_disabled":false,"rental_uris":{"android":"levelo://app?vid=5b3ce0e7-ddde-4f08-9689-05c27b8dd4cc","ios":"levelo://app?vid=5b3ce0e7-ddde-4f08-9689-05c27b8dd4cc"},"vehicle_type_id":"4","last_reported":1684062255,"current_range_meters":28400,"station_id":"ce4bhnp2rcd13ifvqgvg","pricing_plan_id":"free"},{"bike_id":"45f3e3e5-45c4-4d10-b097-9e5b26f29a9f","system_id":"levelo_inurba_marseille","lat":43.286593,"lon":5.363346,"is_reserved":false,"is_disabled":false,"rental_uris":{"android":"levelo://app?vid=45f3e3e5-45c4-4d10-b097-9e5b26f29a9f","ios":"levelo://app?vid=45f3e3e5-45c4-4d10-b097-9e5b26f29a9f"},"vehicle_type_id":"4","last_reported":1684062255,"current_range_meters":8400,"station_id":"ce4bhah2rcd13ifvqej0","pricing_plan_id":"free"},{"bike_id":"4e694e8e-c5fc-46ac-bc98-16e75cbf6f33","system_id":"levelo_inurba_marseille","lat":43.286593,"lon":5.363346,"is_reserved":false,"is_disabled":false,"rental_uris":{"android":"levelo://app?vid=4e694e8e-c5fc-46ac-bc98-16e75cbf6f33","ios":"levelo://app?vid=4e694e8e-c5fc-46ac-bc98-16e75cbf6f33"},"vehicle_type_id":"4","last_reported":1684062255,"current_range_meters":29600,"station_id":"ce4bhah2rcd13ifvqej0","pricing_plan_id":"free"},{"bike_id":"9aa6d738-d9ae-4daa-a149-dbc028502389","system_id":"levelo_inurba_marseille","lat":43.302759,"lon":5.400793,"is_reserved":false,"is_disabled":false,"rental_uris":{"android":"levelo://app?vid=9aa6d738-d9ae-4daa-a149-dbc028502389","ios":"levelo://app?vid=9aa6d738-d9ae-4daa-a149-dbc028502389"},"vehicle_type_id":"4","last_reported":1684062255,"current_range_meters":32000,"station_id":"ce4bgvh2rcd13ifvqcs0","pricing_plan_id":"free"},{"bike_id":"319b0325-452e-4caa-9d50-775d3fb357ee","system_id":"levelo_inurba_marseille","lat":43.302759,"lon":5.400793,"is_reserved":false,"is_disabled":false,"rental_uris":{"android":"levelo://app?vid=319b0325-452e-4caa-9d50-775d3fb357ee","ios":"levelo://app?vid=319b0325-452e-4caa-9d50-775d3fb357ee"},"vehicle_type_id":"4","last_reported":1684062255,"current_range_meters":19600,"station_id":"ce4bgvh2rcd13ifvqcs0","pricing_plan_id":"free"},{"bike_id":"7bf141eb-5f71-4617-8809-05f44db90ed5","system_id":"levelo_inurba_marseille","lat":43.302759,"lon":5.400793,"is_reserved":false,"is_disabled":false,"rental_uris":{"android":"levelo://app?vid=7bf141eb-5f71-4617-8809-05f44db90ed5","ios":"levelo://app?vid=7bf141eb-5f71-4617-8809-05f44db90ed5"},"vehicle_type_id":"4","last_reported":1684062255,"current_range_meters":23600,"station_id":"ce4bgvh2rcd13ifvqcs0","pricing_plan_id":"free"},{"bike_id":"6cb39e52-7c4f-47f8-ab27-b4b36887149f","system_id":"levelo_inurba_marseille","lat":43.28757,"lon":5.3544,"is_reserved":false,"is_disabled":false,"rental_uris":{"android":"levelo://app?vid=6cb39e52-7c4f-47f8-ab27-b4b36887149f","ios":"levelo://app?vid=6cb39e52-7c4f-47f8-ab27-b4b36887149f"},"vehicle_type_id":"4","last_reported":1684062255,"current_range_meters":31200,"station_id":"","pricing_plan_id":"free"},{"bike_id":"66872349-a42f-4feb-aa36-0ce811a03fe4","system_id":"levelo_inurba_marseille","lat":43.287184,"lon":5.37937,"is_reserved":false,"is_disabled":false,"rental_uris":{"android":"levelo://app?vid=66872349-a42f-4feb-aa36-0ce811a03fe4","ios":"levelo://app?vid=66872349-a42f-4feb-aa36-0ce811a03fe4"},"vehicle_type_id":"4","last_reported":1684062255,"current_range_meters":26400,"station_id":"ce4bh9p2rcd13ifvqec0","pricing_plan_id":"free"},{"bike_id":"5216cc93-6c0e-42b4-a413-222bd3326d6b","system_id":"levelo_inurba_marseille","lat":43.287185,"lon":5.379373,"is_reserved":false,"is_disabled":false,"rental_uris":{"android":"levelo://app?vid=5216cc93-6c0e-42b4-a413-222bd3326d6b","ios":"levelo://app?vid=5216cc93-6c0e-42b4-a413-222bd3326d6b"},"vehicle_type_id":"4","last_reported":1684062255,"current_range_meters":28800,"station_id":"ce4bh9p2rcd13ifvqec0","pricing_plan_id":"free"},{"bike_id":"d5e44422-8eb4-4aa9-a466-a183c3161511","system_id":"levelo_inurba_marseille","lat":43.316517,"lon":5.404375,"is_reserved":false,"is_disabled":false,"rental_uris":{"android":"levelo://app?vid=d5e44422-8eb4-4aa9-a466-a183c3161511","ios":"levelo://app?vid=d5e44422-8eb4-4aa9-a466-a183c3161511"},"vehicle_type_id":"4","last_reported":1684062255,"current_range_meters":28400,"station_id":"ce4bh012rcd13ifvqd00","pricing_plan_id":"free"},{"bike_id":"214edfc7-bc54-4d52-89e9-505ef891953a","system_id":"levelo_inurba_marseille","lat":43.316517,"lon":5.404375,"is_reserved":false,"is_disabled":false,"rental_uris":{"android":"levelo://app?vid=214edfc7-bc54-4d52-89e9-505ef891953a","ios":"levelo://app?vid=214edfc7-bc54-4d52-89e9-505ef891953a"},"vehicle_type_id":"4","last_reported":1684062255,"current_range_meters":8400,"station_id":"ce4bh012rcd13ifvqd00","pricing_plan_id":"free"},{"bike_id":"0fa6c8da-f0c9-46a2-9541-e5b8b4cbd0b0","system_id":"levelo_inurba_marseille","lat":43.291994,"lon":5.392907,"is_reserved":false,"is_disabled":false,"rental_uris":{"android":"levelo://app?vid=0fa6c8da-f0c9-46a2-9541-e5b8b4cbd0b0","ios":"levelo://app?vid=0fa6c8da-f0c9-46a2-9541-e5b8b4cbd0b0"},"vehicle_type_id":"4","last_reported":1684062255,"current_range_meters":20800,"station_id":"ce4bh192rcd13ifvqdd0","pricing_plan_id":"free"},{"bike_id":"a22fa013-b76d-4e53-b9a0-4ab9ca8eca79","system_id":"levelo_inurba_marseille","lat":43.29198,"lon":5.39326,"is_reserved":false,"is_disabled":false,"rental_uris":{"android":"levelo://app?vid=a22fa013-b76d-4e53-b9a0-4ab9ca8eca79","ios":"levelo://app?vid=a22fa013-b76d-4e53-b9a0-4ab9ca8eca79"},"vehicle_type_id":"4","last_reported":1684062255,"current_range_meters":1600,"station_id":"","pricing_plan_id":"free"},{"bike_id":"f3ab2412-a434-4f99-81a1-dc58f472dee0","system_id":"levelo_inurba_marseille","lat":43.284534,"lon":5.358662,"is_reserved":false,"is_disabled":false,"rental_uris":{"android":"levelo://app?vid=f3ab2412-a434-4f99-81a1-dc58f472dee0","ios":"levelo://app?vid=f3ab2412-a434-4f99-81a1-dc58f472dee0"},"vehicle_type_id":"4","last_reported":1684062255,"current_range_meters":30000,"station_id":"ce4bhah2rcd13ifvqei0","pricing_plan_id":"free"},{"bike_id":"11d665f9-31b2-421b-9ed7-76cf0e8d0c93","system_id":"levelo_inurba_marseille","lat":43.284534,"lon":5.358662,"is_reserved":false,"is_disabled":false,"rental_uris":{"android":"levelo://app?vid=11d665f9-31b2-421b-9ed7-76cf0e8d0c93","ios":"levelo://app?vid=11d665f9-31b2-421b-9ed7-76cf0e8d0c93"},"vehicle_type_id":"4","last_reported":1684062255,"current_range_meters":18400,"station_id":"ce4bhah2rcd13ifvqei0","pricing_plan_id":"free"},{"bike_id":"5753093b-6168-4ca1-8d37-9f8158eca916","system_id":"levelo_inurba_marseille","lat":43.284534,"lon":5.358662,"is_reserved":false,"is_disabled":false,"rental_uris":{"android":"levelo://app?vid=5753093b-6168-4ca1-8d37-9f8158eca916","ios":"levelo://app?vid=5753093b-6168-4ca1-8d37-9f8158eca916"},"vehicle_type_id":"4","last_reported":1684062255,"current_range_meters":22400,"station_id":"ce4bhah2rcd13ifvqei0","pricing_plan_id":"free"},{"bike_id":"709d8fe9-7d4f-455e-a5b2-9705774cd476","system_id":"levelo_inurba_marseille","lat":43.284534,"lon":5.358662,"is_reserved":false,"is_disabled":false,"rental_uris":{"android":"levelo://app?vid=709d8fe9-7d4f-455e-a5b2-9705774cd476","ios":"levelo://app?vid=709d8fe9-7d4f-455e-a5b2-9705774cd476"},"vehicle_type_id":"4","last_reported":1684062255,"current_range_meters":28800,"station_id":"ce4bhah2rcd13ifvqei0","pricing_plan_id":"free"},{"bike_id":"e99e1340-d960-4ad8-bf5d-6c645bbff405","system_id":"levelo_inurba_marseille","lat":43.284534,"lon":5.358662,"is_reserved":false,"is_disabled":false,"rental_uris":{"android":"levelo://app?vid=e99e1340-d960-4ad8-bf5d-6c645bbff405","ios":"levelo://app?vid=e99e1340-d960-4ad8-bf5d-6c645bbff405"},"vehicle_type_id":"4","last_reported":1684062255,"current_range_meters":26800,"station_id":"ce4bhah2rcd13ifvqei0","pricing_plan_id":"free"},{"bike_id":"93ac3e58-5841-4543-a334-c5e3db753d63","system_id":"levelo_inurba_marseille","lat":43.284534,"lon":5.358662,"is_reserved":false,"is_disabled":false,"rental_uris":{"android":"levelo://app?vid=93ac3e58-5841-4543-a334-c5e3db753d63","ios":"levelo://app?vid=93ac3e58-5841-4543-a334-c5e3db753d63"},"vehicle_type_id":"4","last_reported":1684062255,"current_range_meters":16000,"station_id":"ce4bhah2rcd13ifvqei0","pricing_plan_id":"free"},{"bike_id":"4bad07d8-f11b-4092-aa56-072d0a9454e4","system_id":"levelo_inurba_marseille","lat":43.285848,"lon":5.350787,"is_reserved":false,"is_disabled":false,"rental_uris":{"android":"levelo://app?vid=4bad07d8-f11b-4092-aa56-072d0a9454e4","ios":"levelo://app?vid=4bad07d8-f11b-4092-aa56-072d0a9454e4"},"vehicle_type_id":"4","last_reported":1684062255,"current_range_meters":9200,"station_id":"ce4bhch2rcd13ifvqeug","pricing_plan_id":"free"},{"bike_id":"00e77349-fab1-4e61-8bfe-fa70c56aa04b","system_id":"levelo_inurba_marseille","lat":43.285848,"lon":5.350787,"is_reserved":false,"is_disabled":false,"rental_uris":{"android":"levelo://app?vid=00e77349-fab1-4e61-8bfe-fa70c56aa04b","ios":"levelo://app?vid=00e77349-fab1-4e61-8bfe-fa70c56aa04b"},"vehicle_type_id":"4","last_reported":1684062255,"current_range_meters":26400,"station_id":"ce4bhch2rcd13ifvqeug","pricing_plan_id":"free"},{"bike_id":"470af7ff-41e7-40c3-9106-1c4321a7ab75","system_id":"levelo_inurba_marseille","lat":43.29894,"lon":5.40238,"is_reserved":false,"is_disabled":false,"rental_uris":{"android":"levelo://app?vid=470af7ff-41e7-40c3-9106-1c4321a7ab75","ios":"levelo://app?vid=470af7ff-41e7-40c3-9106-1c4321a7ab75"},"vehicle_type_id":"4","last_reported":1684062255,"current_range_meters":14000,"station_id":"ce4bh112rcd13ifvqd90","pricing_plan_id":"free"},{"bike_id":"4e827552-b7fe-40ee-ae3f-44353bb18d25","system_id":"levelo_inurba_marseille","lat":43.33716,"lon":5.3919,"is_reserved":false,"is_disabled":false,"rental_uris":{"android":"levelo://app?vid=4e827552-b7fe-40ee-ae3f-44353bb18d25","ios":"levelo://app?vid=4e827552-b7fe-40ee-ae3f-44353bb18d25"},"vehicle_type_id":"4","last_reported":1684062255,"current_range_meters":8800,"station_id":"","pricing_plan_id":"free"},{"bike_id":"2d0e8c76-e00b-418c-b455-5ad364cfba93","system_id":"levelo_inurba_marseille","lat":43.33719,"lon":5.39185,"is_reserved":false,"is_disabled":false,"rental_uris":{"android":"levelo://app?vid=2d0e8c76-e00b-418c-b455-5ad364cfba93","ios":"levelo://app?vid=2d0e8c76-e00b-418c-b455-5ad364cfba93"},"vehicle_type_id":"4","last_reported":1684062255,"current_range_meters":3600,"station_id":"ce4bhr92rcd13ifvqhsg","pricing_plan_id":"free"},{"bike_id":"ba7aa913-9040-4670-8e19-c182538420d2","system_id":"levelo_inurba_marseille","lat":43.31928,"lon":5.40794,"is_reserved":false,"is_disabled":false,"rental_uris":{"android":"levelo://app?vid=ba7aa913-9040-4670-8e19-c182538420d2","ios":"levelo://app?vid=ba7aa913-9040-4670-8e19-c182538420d2"},"vehicle_type_id":"4","last_reported":1684062255,"current_range_meters":20800,"station_id":"ce4bhq12rcd13ifvqhig","pricing_plan_id":"free"},{"bike_id":"aad10681-c601-4052-acaf-c3198d41e36d","system_id":"levelo_inurba_marseille","lat":43.28426,"lon":5.34986,"is_reserved":false,"is_disabled":false,"rental_uris":{"android":"levelo://app?vid=aad10681-c601-4052-acaf-c3198d41e36d","ios":"levelo://app?vid=aad10681-c601-4052-acaf-c3198d41e36d"},"vehicle_type_id":"4","last_reported":1684062255,"current_range_meters":12000,"station_id":"ce4bhbh2rcd13ifvqepg","pricing_plan_id":"free"},{"bike_id":"d7586cbc-e77d-40c8-b696-8b274e28ee9c","system_id":"levelo_inurba_marseille","lat":43.28425,"lon":5.34989,"is_reserved":false,"is_disabled":false,"rental_uris":{"android":"levelo://app?vid=d7586cbc-e77d-40c8-b696-8b274e28ee9c","ios":"levelo://app?vid=d7586cbc-e77d-40c8-b696-8b274e28ee9c"},"vehicle_type_id":"4","last_reported":1684062255,"current_range_meters":29200,"station_id":"ce4bhbh2rcd13ifvqepg","pricing_plan_id":"free"},{"bike_id":"b377e307-90b4-4c46-98a0-67193b5de737","system_id":"levelo_inurba_marseille","lat":43.28422,"lon":5.34986,"is_reserved":false,"is_disabled":false,"rental_uris":{"android":"levelo://app?vid=b377e307-90b4-4c46-98a0-67193b5de737","ios":"levelo://app?vid=b377e307-90b4-4c46-98a0-67193b5de737"},"vehicle_type_id":"4","last_reported":1684062255,"current_range_meters":27200,"station_id":"ce4bhbh2rcd13ifvqepg","pricing_plan_id":"free"},{"bike_id":"22b2ee16-ef0c-4af1-ac16-70d1a8e7e0cc","system_id":"levelo_inurba_marseille","lat":43.284217,"lon":5.349697,"is_reserved":false,"is_disabled":false,"rental_uris":{"android":"levelo://app?vid=22b2ee16-ef0c-4af1-ac16-70d1a8e7e0cc","ios":"levelo://app?vid=22b2ee16-ef0c-4af1-ac16-70d1a8e7e0cc"},"vehicle_type_id":"4","last_reported":1684062255,"current_range_meters":23600,"station_id":"ce4bhbh2rcd13ifvqepg","pricing_plan_id":"free"},{"bike_id":"86e0845f-9aa9-4ddf-baae-38e4d42a8573","system_id":"levelo_inurba_marseille","lat":43.2842,"lon":5.34987,"is_reserved":false,"is_disabled":false,"rental_uris":{"android":"levelo://app?vid=86e0845f-9aa9-4ddf-baae-38e4d42a8573","ios":"levelo://app?vid=86e0845f-9aa9-4ddf-baae-38e4d42a8573"},"vehicle_type_id":"4","last_reported":1684062255,"current_range_meters":24800,"station_id":"ce4bhbh2rcd13ifvqepg","pricing_plan_id":"free"},{"bike_id":"f303f4ab-5af2-4189-ae23-91eaece09faa","system_id":"levelo_inurba_marseille","lat":43.284217,"lon":5.349697,"is_reserved":false,"is_disabled":false,"rental_uris":{"android":"levelo://app?vid=f303f4ab-5af2-4189-ae23-91eaece09faa","ios":"levelo://app?vid=f303f4ab-5af2-4189-ae23-91eaece09faa"},"vehicle_type_id":"4","last_reported":1684062255,"current_range_meters":31600,"station_id":"ce4bhbh2rcd13ifvqepg","pricing_plan_id":"free"},{"bike_id":"cfcf673e-9136-4182-bff1-e056089aa3a7","system_id":"levelo_inurba_marseille","lat":43.28417,"lon":5.34993,"is_reserved":false,"is_disabled":false,"rental_uris":{"android":"levelo://app?vid=cfcf673e-9136-4182-bff1-e056089aa3a7","ios":"levelo://app?vid=cfcf673e-9136-4182-bff1-e056089aa3a7"},"vehicle_type_id":"4","last_reported":1684062255,"current_range_meters":28400,"station_id":"ce4bhbh2rcd13ifvqepg","pricing_plan_id":"free"},{"bike_id":"8115e081-1ffd-44ff-8923-ed5ac68553b8","system_id":"levelo_inurba_marseille","lat":43.28419,"lon":5.34983,"is_reserved":false,"is_disabled":false,"rental_uris":{"android":"levelo://app?vid=8115e081-1ffd-44ff-8923-ed5ac68553b8","ios":"levelo://app?vid=8115e081-1ffd-44ff-8923-ed5ac68553b8"},"vehicle_type_id":"4","last_reported":1684062255,"current_range_meters":11600,"station_id":"ce4bhbh2rcd13ifvqepg","pricing_plan_id":"free"},{"bike_id":"3f8484fd-2dc0-4f9b-b391-62a8259ca52c","system_id":"levelo_inurba_marseille","lat":43.28418,"lon":5.34986,"is_reserved":false,"is_disabled":false,"rental_uris":{"android":"levelo://app?vid=3f8484fd-2dc0-4f9b-b391-62a8259ca52c","ios":"levelo://app?vid=3f8484fd-2dc0-4f9b-b391-62a8259ca52c"},"vehicle_type_id":"4","last_reported":1684062255,"current_range_meters":6400,"station_id":"ce4bhbh2rcd13ifvqepg","pricing_plan_id":"free"},{"bike_id":"0fbecca7-7108-4e40-a971-251fecba0da6","system_id":"levelo_inurba_marseille","lat":43.28421,"lon":5.34974,"is_reserved":false,"is_disabled":false,"rental_uris":{"android":"levelo://app?vid=0fbecca7-7108-4e40-a971-251fecba0da6","ios":"levelo://app?vid=0fbecca7-7108-4e40-a971-251fecba0da6"},"vehicle_type_id":"4","last_reported":1684062255,"current_range_meters":30800,"station_id":"ce4bhbh2rcd13ifvqepg","pricing_plan_id":"free"},{"bike_id":"802456b4-f5fc-4d14-93d6-849c12f57f19","system_id":"levelo_inurba_marseille","lat":43.28417,"lon":5.34986,"is_reserved":false,"is_disabled":false,"rental_uris":{"android":"levelo://app?vid=802456b4-f5fc-4d14-93d6-849c12f57f19","ios":"levelo://app?vid=802456b4-f5fc-4d14-93d6-849c12f57f19"},"vehicle_type_id":"4","last_reported":1684062255,"current_range_meters":25600,"station_id":"ce4bhbh2rcd13ifvqepg","pricing_plan_id":"free"},{"bike_id":"2945fd78-4a04-4f2e-9bda-4ab4da76ef42","system_id":"levelo_inurba_marseille","lat":43.284217,"lon":5.349697,"is_reserved":false,"is_disabled":false,"rental_uris":{"android":"levelo://app?vid=2945fd78-4a04-4f2e-9bda-4ab4da76ef42","ios":"levelo://app?vid=2945fd78-4a04-4f2e-9bda-4ab4da76ef42"},"vehicle_type_id":"4","last_reported":1684062255,"current_range_meters":31600,"station_id":"ce4bhbh2rcd13ifvqepg","pricing_plan_id":"free"},{"bike_id":"4f42351a-8ddb-492c-aafc-6e6da096c697","system_id":"levelo_inurba_marseille","lat":43.28418,"lon":5.34979,"is_reserved":false,"is_disabled":false,"rental_uris":{"android":"levelo://app?vid=4f42351a-8ddb-492c-aafc-6e6da096c697","ios":"levelo://app?vid=4f42351a-8ddb-492c-aafc-6e6da096c697"},"vehicle_type_id":"4","last_reported":1684062255,"current_range_meters":30000,"station_id":"ce4bhbh2rcd13ifvqepg","pricing_plan_id":"free"},{"bike_id":"29180647-6fdc-476c-935e-8f34b3738a70","system_id":"levelo_inurba_marseille","lat":43.284217,"lon":5.349697,"is_reserved":false,"is_disabled":false,"rental_uris":{"android":"levelo://app?vid=29180647-6fdc-476c-935e-8f34b3738a70","ios":"levelo://app?vid=29180647-6fdc-476c-935e-8f34b3738a70"},"vehicle_type_id":"4","last_reported":1684062255,"current_range_meters":31600,"station_id":"ce4bhbh2rcd13ifvqepg","pricing_plan_id":"free"},{"bike_id":"3a63213d-b79a-464e-8909-2eaae08f446a","system_id":"levelo_inurba_marseille","lat":43.284217,"lon":5.349697,"is_reserved":false,"is_disabled":false,"rental_uris":{"android":"levelo://app?vid=3a63213d-b79a-464e-8909-2eaae08f446a","ios":"levelo://app?vid=3a63213d-b79a-464e-8909-2eaae08f446a"},"vehicle_type_id":"4","last_reported":1684062255,"current_range_meters":32000,"station_id":"ce4bhbh2rcd13ifvqepg","pricing_plan_id":"free"},{"bike_id":"f80b5cf1-88d5-4fb4-9140-2934b7a28f4a","system_id":"levelo_inurba_marseille","lat":43.28418,"lon":5.34977,"is_reserved":false,"is_disabled":false,"rental_uris":{"android":"levelo://app?vid=f80b5cf1-88d5-4fb4-9140-2934b7a28f4a","ios":"levelo://app?vid=f80b5cf1-88d5-4fb4-9140-2934b7a28f4a"},"vehicle_type_id":"4","last_reported":1684062255,"current_range_meters":800,"station_id":"ce4bhbh2rcd13ifvqepg","pricing_plan_id":"free"},{"bike_id":"a2f5c0f1-f70c-4eb1-862c-454c499c3094","system_id":"levelo_inurba_marseille","lat":43.284217,"lon":5.349697,"is_reserved":false,"is_disabled":false,"rental_uris":{"android":"levelo://app?vid=a2f5c0f1-f70c-4eb1-862c-454c499c3094","ios":"levelo://app?vid=a2f5c0f1-f70c-4eb1-862c-454c499c3094"},"vehicle_type_id":"4","last_reported":1684062255,"current_range_meters":31600,"station_id":"ce4bhbh2rcd13ifvqepg","pricing_plan_id":"free"},{"bike_id":"62060680-6764-4e1f-833a-ab72f12cbce4","system_id":"levelo_inurba_marseille","lat":43.284217,"lon":5.349697,"is_reserved":false,"is_disabled":false,"rental_uris":{"android":"levelo://app?vid=62060680-6764-4e1f-833a-ab72f12cbce4","ios":"levelo://app?vid=62060680-6764-4e1f-833a-ab72f12cbce4"},"vehicle_type_id":"4","last_reported":1684062255,"current_range_meters":31600,"station_id":"ce4bhbh2rcd13ifvqepg","pricing_plan_id":"free"},{"bike_id":"dcf9921c-3a06-480e-854f-02f0f48efcb6","system_id":"levelo_inurba_marseille","lat":43.284217,"lon":5.349697,"is_reserved":false,"is_disabled":false,"rental_uris":{"android":"levelo://app?vid=dcf9921c-3a06-480e-854f-02f0f48efcb6","ios":"levelo://app?vid=dcf9921c-3a06-480e-854f-02f0f48efcb6"},"vehicle_type_id":"4","last_reported":1684062255,"current_range_meters":31600,"station_id":"ce4bhbh2rcd13ifvqepg","pricing_plan_id":"free"},{"bike_id":"0dd2b3a1-48e9-47b4-907b-180dddfee122","system_id":"levelo_inurba_marseille","lat":43.284217,"lon":5.349697,"is_reserved":false,"is_disabled":false,"rental_uris":{"android":"levelo://app?vid=0dd2b3a1-48e9-47b4-907b-180dddfee122","ios":"levelo://app?vid=0dd2b3a1-48e9-47b4-907b-180dddfee122"},"vehicle_type_id":"4","last_reported":1684062255,"current_range_meters":28000,"station_id":"ce4bhbh2rcd13ifvqepg","pricing_plan_id":"free"},{"bike_id":"87865e73-0e9b-4b82-97d6-73ed79802a41","system_id":"levelo_inurba_marseille","lat":43.284217,"lon":5.349697,"is_reserved":false,"is_disabled":false,"rental_uris":{"android":"levelo://app?vid=87865e73-0e9b-4b82-97d6-73ed79802a41","ios":"levelo://app?vid=87865e73-0e9b-4b82-97d6-73ed79802a41"},"vehicle_type_id":"4","last_reported":1684062255,"current_range_meters":31200,"station_id":"ce4bhbh2rcd13ifvqepg","pricing_plan_id":"free"},{"bike_id":"26c0607b-1300-4026-85c1-51dc04af3bb2","system_id":"levelo_inurba_marseille","lat":43.28392,"lon":5.34982,"is_reserved":false,"is_disabled":false,"rental_uris":{"android":"levelo://app?vid=26c0607b-1300-4026-85c1-51dc04af3bb2","ios":"levelo://app?vid=26c0607b-1300-4026-85c1-51dc04af3bb2"},"vehicle_type_id":"4","last_reported":1684062255,"current_range_meters":0,"station_id":"","pricing_plan_id":"free"},{"bike_id":"78490d57-5d0c-47ac-be7c-40dfbd675f87","system_id":"levelo_inurba_marseille","lat":43.289363,"lon":5.396322,"is_reserved":false,"is_disabled":false,"rental_uris":{"android":"levelo://app?vid=78490d57-5d0c-47ac-be7c-40dfbd675f87","ios":"levelo://app?vid=78490d57-5d0c-47ac-be7c-40dfbd675f87"},"vehicle_type_id":"4","last_reported":1684062255,"current_range_meters":24800,"station_id":"ce4bh3h2rcd13ifvqdn0","pricing_plan_id":"free"},{"bike_id":"969f7ac6-8d2d-4667-bb61-ed63e73522a3","system_id":"levelo_inurba_marseille","lat":43.289363,"lon":5.396322,"is_reserved":false,"is_disabled":false,"rental_uris":{"android":"levelo://app?vid=969f7ac6-8d2d-4667-bb61-ed63e73522a3","ios":"levelo://app?vid=969f7ac6-8d2d-4667-bb61-ed63e73522a3"},"vehicle_type_id":"4","last_reported":1684062255,"current_range_meters":30000,"station_id":"ce4bh3h2rcd13ifvqdn0","pricing_plan_id":"free"},