{"last_updated":1749942602,"ttl":60,"version":"2.2","data":{"bikes":[{"bike_id":"b31f0139-170f-4194-984f-4386218a1e9d","system_id":"levelo_inurba_marseille","lat":43.33771,"lon":5.37424,"is_reserved":false,"is_disabled":true,"rental_uris":{"android":"levelo://app?vid=b31f0139-170f-4194-984f-4386218a1e9d","ios":"levelo://app?vid=b31f0139-170f-4194-984f-4386218a1e9d"},"vehicle_type_id":"4","last_reported":1749942602,"current_range_meters":0,"station_id":"","pricing_plan_id":"cebpf4jnsgd1na2vs0mg"},{"bike_id":"1acfb620-cad7-48c0-8901-d7a5b74a5b65","system_id":"levelo_inurba_marseille","lat":43.33751,"lon":5.37456,"is_reserved":false,"is_disabled":true,"rental_uris":{"android":"levelo://app?vid=1acfb620-cad7-48c0-8901-d7a5b74a5b65","ios":"levelo://app?vid=1acfb620-cad7-48c0-8901-d7a5b74a5b65"},"vehicle_type_id":"4","last_reported":1749942602,"current_range_meters":0,"station_id":"","pricing_plan_id":"cebpf4jnsgd1na2vs0mg"},{"bike_id":"bf89d78c-eb96-40d5-beb0-f402ef102cc1","system_id":"levelo_inurba_marseille","lat":43.337444,"lon":5.374475,"is_reserved":false,"is_disabled":true,"rental_uris":{"android":"levelo://app?vid=bf89d78c-eb96-40d5-beb0-f402ef102cc1","ios":"levelo://app?vid=bf89d78c-eb96-40d5-beb0-f402ef102cc1"},"vehicle_type_id":"4","last_reported":1749942602,"current_range_meters":0,"station_id":"","pricing_plan_id":"cebpf4jnsgd1na2vs0mg"},{"bike_id":"5077581b-cebb-46fc-ba69-4fa8272d4810","system_id":"levelo_inurba_marseille","lat":43.21366,"lon":5.35535,"is_reserved":false,"is_disabled":true,"rental_uris":{"android":"levelo://app?vid=5077581b-cebb-46fc-ba69-4fa8272d4810","ios":"levelo://app?vid=5077581b-cebb-46fc-ba69-4fa8272d4810"},"vehicle_type_id":"4","last_reported":1749942602,"current_range_meters":0,"station_id":"","pricing_plan_id":"cebpf4jnsgd1na2vs0mg"},{"bike_id":"b700b739-d84e-40eb-a0b6-5cbfa9485ee2","system_id":"levelo_inurba_marseille","lat":43.2785,"lon":5.42182,"is_reserved":false,"is_disabled":true,"rental_uris":{"android":"levelo://app?vid=b700b739-d84e-40eb-a0b6-5cbfa9485ee2","ios":"levelo://app?vid=b700b739-d84e-40eb-a0b6-5cbfa9485ee2"},"vehicle_type_id":"4","last_reported":1749942602,"current_range_meters":0,"station_id":"","pricing_plan_id":"cebpf4jnsgd1na2vs0mg"},{"bike_id":"fe5a9aaf-2d36-4b9d-abdd-dc360a59de38","system_id":"levelo_inurba_marseille","lat":43.21779,"lon":5.34632,"is_reserved":false,"is_disabled":true,"rental_uris":{"android":"levelo://app?vid=fe5a9aaf-2d36-4b9d-abdd-dc360a59de38","ios":"levelo://app?vid=fe5a9aaf-2d36-4b9d-abdd-dc360a59de38"},"vehicle_type_id":"4","last_reported":1749942602,"current_range_meters":0,"station_id":"","pricing_plan_id":"cebpf4jnsgd1na2vs0mg"},{"bike_id":"ebf89cec-3e1a-4275-9cd0-a3d19d69b5cf","system_id":"levelo_inurba_marseille","lat":43.2797,"lon":5.38497,"is_reserved":false,"is_disabled":true,"rental_uris":{"android":"levelo://app?vid=ebf89cec-3e1a-4275-9cd0-a3d19d69b5cf","ios":"levelo://app?vid=ebf89cec-3e1a-4275-9cd0-a3d19d69b5cf"},"vehicle_type_id":"4","last_reported":1749942602,"current_range_meters":0,"station_id":"","pricing_plan_id":"cebpf4jnsgd1na2vs0mg"},{"bike_id":"8d60347d-541c-40fb-90ca-203bf6bd520a","system_id":"levelo_inurba_marseille","lat":43.27109,"lon":5.3643,"is_reserved":false,"is_disabled":true,"rental_uris":{"android":"levelo://app?vid=8d60347d-541c-40fb-90ca-203bf6bd520a","ios":"levelo://app?vid=8d60347d-541c-40fb-90ca-203bf6bd520a"},"vehicle_type_id":"4","last_reported":1749942602,"current_range_meters":0,"station_id":"","pricing_plan_id":"cebpf4jnsgd1na2vs0mg"},{"bike_id":"492f4bbd-1190-4ef2-b66a-479ffe91b09b","system_id":"levelo_inurba_marseille","lat":43.337444,"lon":5.374475,"is_reserved":false,"is_disabled":true,"rental_uris":{"android":"levelo://app?vid=492f4bbd-1190-4ef2-b66a-479ffe91b09b","ios":"levelo://app?vid=492f4bbd-1190-4ef2-b66a-479ffe91b09b"},"vehicle_type_id":"4","last_reported":1749942602,"current_range_meters":0,"station_id":"","pricing_plan_id":"cebpf4jnsgd1na2vs0mg"},{"bike_id":"05be4d55-79c4-4041-9bfa-07752692e32c","system_id":"levelo_inurba_marseille","lat":43.29729,"lon":5.35933,"is_reserved":false,"is_disabled":true,"rental_uris":{"android":"levelo://app?vid=05be4d55-79c4-4041-9bfa-07752692e32c","ios":"levelo://app?vid=05be4d55-79c4-4041-9bfa-07752692e32c"},"vehicle_type_id":"4","last_reported":1749942602,"current_range_meters":0,"station_id":"","pricing_plan_id":"cebpf4jnsgd1na2vs0mg"},{"bike_id":"a9b6bf99-4070-4437-bb20-72962ae30b90","system_id":"levelo_inurba_marseille","lat":43.274574,"lon":5.363868,"is_reserved":false,"is_disabled":true,"rental_uris":{"android":"levelo://app?vid=a9b6bf99-4070-4437-bb20-72962ae30b90","ios":"levelo://app?vid=a9b6bf99-4070-4437-bb20-72962ae30b90"},"vehicle_type_id":"4","last_reported":1749942602,"current_range_meters":0,"station_id":"","pricing_plan_id":"cebpf4jnsgd1na2vs0mg"},{"bike_id":"015ad6ee-29b0-4f56-b775-6c955c7d0bb0","system_id":"levelo_inurba_marseille","lat":43.30886,"lon":5.39661,"is_reserved":false,"is_disabled":true,"rental_uris":{"android":"levelo://app?vid=015ad6ee-29b0-4f56-b775-6c955c7d0bb0","ios":"levelo://app?vid=015ad6ee-29b0-4f56-b775-6c955c7d0bb0"},"vehicle_type_id":"4","last_reported":1749942602,"current_range_meters":0,"station_id":"ce4bh012rcd13ifvqcv0","pricing_plan_id":"cebpf4jnsgd1na2vs0mg"},{"bike_id":"baa430cc-6926-4ae9-8e4d-305335939bde","system_id":"levelo_inurba_marseille","lat":43.304241,"lon":5.397471,"is_reserved":false,"is_disabled":true,"rental_uris":{"android":"levelo://app?vid=baa430cc-6926-4ae9-8e4d-305335939bde","ios":"levelo://app?vid=baa430cc-6926-4ae9-8e4d-305335939bde"},"vehicle_type_id":"4","last_reported":1749942602,"current_range_meters":0,"station_id":"ce4bh092rcd13ifvqd20","pricing_plan_id":"cebpf4jnsgd1na2vs0mg"},{"bike_id":"b0cb9319-fbc1-4594-9ef9-62c174fa728b","system_id":"levelo_inurba_marseille","lat":43.29221,"lon":5.36055,"is_reserved":false,"is_disabled":true,"rental_uris":{"android":"levelo://app?vid=b0cb9319-fbc1-4594-9ef9-62c174fa728b","ios":"levelo://app?vid=b0cb9319-fbc1-4594-9ef9-62c174fa728b"},"vehicle_type_id":"4","last_reported":1749942602,"current_range_meters":0,"station_id":"ce4bhbh2rcd13ifvqeqg","pricing_plan_id":"cebpf4jnsgd1na2vs0mg"},{"bike_id":"6a4286c7-3ceb-4573-9e2d-669d801c2568","system_id":"levelo_inurba_marseille","lat":43.28268,"lon":5.35084,"is_reserved":false,"is_disabled":true,"rental_uris":{"android":"levelo://app?vid=6a4286c7-3ceb-4573-9e2d-669d801c2568","ios":"levelo://app?vid=6a4286c7-3ceb-4573-9e2d-669d801c2568"},"vehicle_type_id":"4","last_reported":1749942602,"current_range_meters":0,"station_id":"ce4bhbp2rcd13ifvqerg","pricing_plan_id":"cebpf4jnsgd1na2vs0mg"},{"bike_id":"73ca7f7b-26f9-41d5-8f54-c28896d5b894","system_id":"levelo_inurba_marseille","lat":43.262,"lon":5.37411,"is_reserved":false,"is_disabled":true,"rental_uris":{"android":"levelo://app?vid=73ca7f7b-26f9-41d5-8f54-c28896d5b894","ios":"levelo://app?vid=73ca7f7b-26f9-41d5-8f54-c28896d5b894"},"vehicle_type_id":"4","last_reported":1749942602,"current_range_meters":0,"station_id":"ce4bhgp2rcd13ifvqfc0","pricing_plan_id":"cebpf4jnsgd1na2vs0mg"},{"bike_id":"c5aff4af-137e-478d-ba0c-539bf55ed037","system_id":"levelo_inurba_marseille","lat":43.26208,"lon":5.37449,"is_reserved":false,"is_disabled":true,"rental_uris":{"android":"levelo://app?vid=c5aff4af-137e-478d-ba0c-539bf55ed037","ios":"levelo://app?vid=c5aff4af-137e-478d-ba0c-539bf55ed037"},"vehicle_type_id":"4","last_reported":1749942602,"current_range_meters":0,"station_id":"ce4bhgp2rcd13ifvqfc0","pricing_plan_id":"cebpf4jnsgd1na2vs0mg"},{"bike_id":"e3686de9-adad-4516-853c-dcb14e703b5c","system_id":"levelo_inurba_marseille","lat":43.24073,"lon":5.37758,"is_reserved":false,"is_disabled":true,"rental_uris":{"android":"levelo://app?vid=e3686de9-adad-4516-853c-dcb14e703b5c","ios":"levelo://app?vid=e3686de9-adad-4516-853c-dcb14e703b5c"},"vehicle_type_id":"4","last_reported":1749942602,"current_range_meters":0,"station_id":"ce4bhnp2rcd13ifvqgvg","pricing_plan_id":"cebpf4jnsgd1na2vs0mg"},{"bike_id":"1e9901eb-7efb-4988-a52a-c3d747dd71a0","system_id":"levelo_inurba_marseille","lat":43.2955,"lon":5.42295,"is_reserved":false,"is_disabled":true,"rental_uris":{"android":"levelo://app?vid=1e9901eb-7efb-4988-a52a-c3d747dd71a0","ios":"levelo://app?vid=1e9901eb-7efb-4988-a52a-c3d747dd71a0"},"vehicle_type_id":"4","last_reported":1749942602,"current_range_meters":0,"station_id":"ce4bhph2rcd13ifvqhdg","pricing_plan_id":"cebpf4jnsgd1na2vs0mg"},{"bike_id":"04005531-52ef-4a8c-a6d8-546a39325ee5","system_id":"levelo_inurba_marseille","lat":43.225,"lon":5.34795,"is_reserved":false,"is_disabled":true,"rental_uris":{"android":"levelo://app?vid=04005531-52ef-4a8c-a6d8-546a39325ee5","ios":"levelo://app?vid=04005531-52ef-4a8c-a6d8-546a39325ee5"},"vehicle_type_id":"4","last_reported":1749942602,"current_range_meters":0,"station_id":"st_cvj5dfep6f1abm77gieg","pricing_plan_id":"cebpf4jnsgd1na2vs0mg"},{"bike_id":"0f50c2eb-d288-4d90-a9a3-cd0743222590","system_id":"levelo_inurba_marseille","lat":43.22478,"lon":5.34805,"is_reserved":false,"is_disabled":true,"rental_uris":{"android":"levelo://app?vid=0f50c2eb-d288-4d90-a9a3-cd0743222590","ios":"levelo://app?vid=0f50c2eb-d288-4d90-a9a3-cd0743222590"},"vehicle_type_id":"4","last_reported":1749942602,"current_range_meters":0,"station_id":"st_cvj5dfep6f1abm77gieg","pricing_plan_id":"cebpf4jnsgd1na2vs0mg"},{"bike_id":"77e1b72a-e412-4bf7-b26d-9074f78abf68","system_id":"levelo_inurba_marseille","lat":43.22492,"lon":5.34806,"is_reserved":false,"is_disabled":true,"rental_uris":{"android":"levelo://app?vid=77e1b72a-e412-4bf7-b26d-9074f78abf68","ios":"levelo://app?vid=77e1b72a-e412-4bf7-b26d-9074f78abf68"},"vehicle_type_id":"4","last_reported":1749942602,"current_range_meters":0,"station_id":"st_cvj5dfep6f1abm77gieg","pricing_plan_id":"cebpf4jnsgd1na2vs0mg"},{"bike_id":"c59f710e-a568-48ee-b718-470006db13cd","system_id":"levelo_inurba_marseille","lat":43.21753,"lon":5.34628,"is_reserved":false,"is_disabled":true,"rental_uris":{"android":"levelo://app?vid=c59f710e-a568-48ee-b718-470006db13cd","ios":"levelo://app?vid=c59f710e-a568-48ee-b718-470006db13cd"},"vehicle_type_id":"4","last_reported":1749942602,"current_range_meters":0,"station_id":"st_cvj6r9ubvosntc0bgbag","pricing_plan_id":"cebpf4jnsgd1na2vs0mg"},{"bike_id":"ceed8e49-424f-4eba-95a3-d0aed3600067","system_id":"levelo_inurba_marseille","lat":43.2122,"lon":5.35083,"is_reserved":false,"is_disabled":true,"rental_uris":{"android":"levelo://app?vid=ceed8e49-424f-4eba-95a3-d0aed3600067","ios":"levelo://app?vid=ceed8e49-424f-4eba-95a3-d0aed3600067"},"vehicle_type_id":"4","last_reported":1749942602,"current_range_meters":0,"station_id":"st_cvj6sg6p6f1abm77japg","pricing_plan_id":"cebpf4jnsgd1na2vs0mg"},{"bike_id":"e0e0204a-c4d7-468e-ab5c-c5967d90b602","system_id":"levelo_inurba_marseille","lat":43.31886,"lon":5.40743,"is_reserved":false,"is_disabled":true,"rental_uris":{"android":"levelo://app?vid=e0e0204a-c4d7-468e-ab5c-c5967d90b602","ios":"levelo://app?vid=e0e0204a-c4d7-468e-ab5c-c5967d90b602"},"vehicle_type_id":"4","last_reported":1749942602,"current_range_meters":400,"station_id":"ce4bhq12rcd13ifvqhig","pricing_plan_id":"cebpf4jnsgd1na2vs0mg"},{"bike_id":"3e7cccc9-0045-4f91-929b-c9e69ec07a78","system_id":"levelo_inurba_marseille","lat":43.29529,"lon":5.38537,"is_reserved":false,"is_disabled":true,"rental_uris":{"android":"levelo://app?vid=3e7cccc9-0045-4f91-929b-c9e69ec07a78","ios":"levelo://app?vid=3e7cccc9-0045-4f91-929b-c9e69ec07a78"},"vehicle_type_id":"4","last_reported":1749942602,"current_range_meters":800,"station_id":"ce4bgih2rcd13ifvqba0","pricing_plan_id":"cebpf4jnsgd1na2vs0mg"},{"bike_id":"30725613-0f6a-416a-a7f3-d693a3594de2","system_id":"levelo_inurba_marseille","lat":43.25496,"lon":5.37654,"is_reserved":false,"is_disabled":true,"rental_uris":{"android":"levelo://app?vid=30725613-0f6a-416a-a7f3-d693a3594de2","ios":"levelo://app?vid=30725613-0f6a-416a-a7f3-d693a3594de2"},"vehicle_type_id":"4","last_reported":1749942602,"current_range_meters":1200,"station_id":"ce4bhh12rcd13ifvqff0","pricing_plan_id":"cebpf4jnsgd1na2vs0mg"},{"bike_id":"832bfcb7-263a-4c9f-8b46-3b007c204918","system_id":"levelo_inurba_marseille","lat":43.25585,"lon":5.38257,"is_reserved":false,"is_disabled":true,"rental_uris":{"android":"levelo://app?vid=832bfcb7-263a-4c9f-8b46-3b007c204918","ios":"levelo://app?vid=832bfcb7-263a-4c9f-8b46-3b007c204918"},"vehicle_type_id":"4","last_reported":1749942602,"current_range_meters":1200,"station_id":"ce4bhih2rcd13ifvqfs0","pricing_plan_id":"cebpf4jnsgd1na2vs0mg"},{"bike_id":"590fca8e-c69e-4ea9-ac36-4274b0a55e09","system_id":"levelo_inurba_marseille","lat":43.30331,"lon":5.39214,"is_reserved":false,"is_disabled":true,"rental_uris":{"android":"levelo://app?vid=590fca8e-c69e-4ea9-ac36-4274b0a55e09","ios":"levelo://app?vid=590fca8e-c69e-4ea9-ac36-4274b0a55e09"},"vehicle_type_id":"4","last_reported":1749942602,"current_range_meters":1600,"station_id":"ce4bgkh2rcd13ifvqbk0","pricing_plan_id":"cebpf4jnsgd1na2vs0mg"},{"bike_id":"97421c04-2630-4fc1-9da9-b17d88602c5f","system_id":"levelo_inurba_marseille","lat":43.337682,"lon":5.374519,"is_reserved":false,"is_disabled":true,"rental_uris":{"android":"levelo://app?vid=97421c04-2630-4fc1-9da9-b17d88602c5f","ios":"levelo://app?vid=97421c04-2630-4fc1-9da9-b17d88602c5f"},"vehicle_type_id":"4","last_reported":1749942602,"current_range_meters":2000,"station_id":"","pricing_plan_id":"cebpf4jnsgd1na2vs0mg"},{"bike_id":"98afa141-26c5-45c8-a0a6-15fd54ac73ab","system_id":"levelo_inurba_marseille","lat":43.21521,"lon":5.34776,"is_reserved":false,"is_disabled":true,"rental_uris":{"android":"levelo://app?vid=98afa141-26c5-45c8-a0a6-15fd54ac73ab","ios":"levelo://app?vid=98afa141-26c5-45c8-a0a6-15fd54ac73ab"},"vehicle_type_id":"4","last_reported":1749942602,"current_range_meters":2000,"station_id":"","pricing_plan_id":"cebpf4jnsgd1na2vs0mg"},{"bike_id":"f963078c-9d63-448d-a533-0acc36de606e","system_id":"levelo_inurba_marseille","lat":43.29271,"lon":5.40138,"is_reserved":false,"is_disabled":true,"rental_uris":{"android":"levelo://app?vid=f963078c-9d63-448d-a533-0acc36de606e","ios":"levelo://app?vid=f963078c-9d63-448d-a533-0acc36de606e"},"vehicle_type_id":"4","last_reported":1749942602,"current_range_meters":2000,"station_id":"ce4bh312rcd13ifvqdk0","pricing_plan_id":"cebpf4jnsgd1na2vs0mg"},{"bike_id":"fedc7fa4-56d5-473d-bfa4-8a4ae860906a","system_id":"levelo_inurba_marseille","lat":43.239532,"lon":5.366161,"is_reserved":false,"is_disabled":true,"rental_uris":{"android":"levelo://app?vid=fedc7fa4-56d5-473d-bfa4-8a4ae860906a","ios":"levelo://app?vid=fedc7fa4-56d5-473d-bfa4-8a4ae860906a"},"vehicle_type_id":"4","last_reported":1749942602,"current_range_meters":2000,"station_id":"ce4bhi12rcd13ifvqfp0","pricing_plan_id":"cebpf4jnsgd1na2vs0mg"},{"bike_id":"8848361b-3ca5-45b5-a9ae-9ca031b07e7b","system_id":"levelo_inurba_marseille","lat":43.25824,"lon":5.39433,"is_reserved":false,"is_disabled":true,"rental_uris":{"android":"levelo://app?vid=8848361b-3ca5-45b5-a9ae-9ca031b07e7b","ios":"levelo://app?vid=8848361b-3ca5-45b5-a9ae-9ca031b07e7b"},"vehicle_type_id":"4","last_reported":1749942602,"current_range_meters":2000,"station_id":"ce4bhip2rcd13ifvqft0","pricing_plan_id":"cebpf4jnsgd1na2vs0mg"},{"bike_id":"3d6ef34c-1ec6-4ed3-88e4-07359f729c42","system_id":"levelo_inurba_marseille","lat":43.27565,"lon":5.43377,"is_reserved":false,"is_disabled":false,"rental_uris":{"android":"levelo://app?vid=3d6ef34c-1ec6-4ed3-88e4-07359f729c42","ios":"levelo://app?vid=3d6ef34c-1ec6-4ed3-88e4-07359f729c42"},"vehicle_type_id":"4","last_reported":1749942602,"current_range_meters":2800,"station_id":"","pricing_plan_id":"cebpf4jnsgd1na2vs0mg"},{"bike_id":"ebfd4275-d6b3-4fd7-9858-e35580fcf548","system_id":"levelo_inurba_marseille","lat":43.30948,"lon":5.39027,"is_reserved":false,"is_disabled":false,"rental_uris":{"android":"levelo://app?vid=ebfd4275-d6b3-4fd7-9858-e35580fcf548","ios":"levelo://app?vid=ebfd4275-d6b3-4fd7-9858-e35580fcf548"},"vehicle_type_id":"4","last_reported":1749942602,"current_range_meters":2800,"station_id":"ce4bgup2rcd13ifvqco0","pricing_plan_id":"cebpf4jnsgd1na2vs0mg"},{"bike_id":"905eb0c4-e352-4e9b-81bd-32f725f625a8","system_id":"levelo_inurba_marseille","lat":43.31069,"lon":5.38353,"is_reserved":false,"is_disabled":false,"rental_uris":{"android":"levelo://app?vid=905eb0c4-e352-4e9b-81bd-32f725f625a8","ios":"levelo://app?vid=905eb0c4-e352-4e9b-81bd-32f725f625a8"},"vehicle_type_id":"4","last_reported":1749942602,"current_range_meters":3200,"station_id":"ce4bgv92rcd13ifvqcr0","pricing_plan_id":"cebpf4jnsgd1na2vs0mg"},{"bike_id":"775f0e07-2604-4c17-96bc-23fa27c3cafc","system_id":"levelo_inurba_marseille","lat":43.30209,"lon":5.39468,"is_reserved":false,"is_disabled":false,"rental_uris":{"android":"levelo://app?vid=775f0e07-2604-4c17-96bc-23fa27c3cafc","ios":"levelo://app?vid=775f0e07-2604-4c17-96bc-23fa27c3cafc"},"vehicle_type_id":"4","last_reported":1749942602,"current_range_meters":3200,"station_id":"ce4bh0p2rcd13ifvqd70","pricing_plan_id":"cebpf4jnsgd1na2vs0mg"},{"bike_id":"4b0a53dc-e41d-444b-97ea-9b4317596cba","system_id":"levelo_inurba_marseille","lat":43.2835,"lon":5.38108,"is_reserved":false,"is_disabled":false,"rental_uris":{"android":"levelo://app?vid=4b0a53dc-e41d-444b-97ea-9b4317596cba","ios":"levelo://app?vid=4b0a53dc-e41d-444b-97ea-9b4317596cba"},"vehicle_type_id":"4","last_reported":1749942602,"current_range_meters":3600,"station_id":"ce4bh412rcd13ifvqdr0","pricing_plan_id":"cebpf4jnsgd1na2vs0mg"},{"bike_id":"c6192e50-9df3-4555-95f5-ca469b25e358","system_id":"levelo_inurba_marseille","lat":43.27054,"lon":5.40259,"is_reserved":false,"is_disabled":false,"rental_uris":{"android":"levelo://app?vid=c6192e50-9df3-4555-95f5-ca469b25e358","ios":"levelo://app?vid=c6192e50-9df3-4555-95f5-ca469b25e358"},"vehicle_type_id":"4","last_reported":1749942602,"current_range_meters":3600,"station_id":"ce4bhk92rcd13ifvqgc0","pricing_plan_id":"cebpf4jnsgd1na2vs0mg"},{"bike_id":"7a537d98-1b02-4ff5-8391-57eb2d6c9e36","system_id":"levelo_inurba_marseille","lat":43.29557,"lon":5.42301,"is_reserved":false,"is_disabled":false,"rental_uris":{"android":"levelo://app?vid=7a537d98-1b02-4ff5-8391-57eb2d6c9e36","ios":"levelo://app?vid=7a537d98-1b02-4ff5-8391-57eb2d6c9e36"},"vehicle_type_id":"4","last_reported":1749942602,"current_range_meters":3600,"station_id":"ce4bhph2rcd13ifvqhdg","pricing_plan_id":"cebpf4jnsgd1na2vs0mg"},{"bike_id":"f053ee2f-b0a9-4944-9983-ac7f640159db","system_id":"levelo_inurba_marseille","lat":43.26719,"lon":5.42799,"is_reserved":false,"is_disabled":false,"rental_uris":{"android":"levelo://app?vid=f053ee2f-b0a9-4944-9983-ac7f640159db","ios":"levelo://app?vid=f053ee2f-b0a9-4944-9983-ac7f640159db"},"vehicle_type_id":"4","last_reported":1749942602,"current_range_meters":4000,"station_id":"","pricing_plan_id":"cebpf4jnsgd1na2vs0mg"},{"bike_id":"14c3899f-6092-4cea-99a6-84bffe066ca8","system_id":"levelo_inurba_marseille","lat":43.31365,"lon":5.3849,"is_reserved":false,"is_disabled":false,"rental_uris":{"android":"levelo://app?vid=14c3899f-6092-4cea-99a6-84bffe066ca8","ios":"levelo://app?vid=14c3899f-6092-4cea-99a6-84bffe066ca8"},"vehicle_type_id":"4","last_reported":1749942602,"current_range_meters":4000,"station_id":"ce4bgt92rcd13ifvqcf0","pricing_plan_id":"cebpf4jnsgd1na2vs0mg"},{"bike_id":"86af750e-453c-4ab1-89ac-177f7dfb9fb7","system_id":"levelo_inurba_marseille","lat":43.24071,"lon":5.37764,"is_reserved":false,"is_disabled":false,"rental_uris":{"android":"levelo://app?vid=86af750e-453c-4ab1-89ac-177f7dfb9fb7","ios":"levelo://app?vid=86af750e-453c-4ab1-89ac-177f7dfb9fb7"},"vehicle_type_id":"4","last_reported":1749942602,"current_range_meters":4400,"station_id":"ce4bhnp2rcd13ifvqgvg","pricing_plan_id":"cebpf4jnsgd1na2vs0mg"},{"bike_id":"2f3c3c7b-c1ea-4a1f-ad98-396c622da2c8","system_id":"levelo_inurba_marseille","lat":43.29281,"lon":5.40125,"is_reserved":false,"is_disabled":false,"rental_uris":{"android":"levelo://app?vid=2f3c3c7b-c1ea-4a1f-ad98-396c622da2c8","ios":"levelo://app?vid=2f3c3c7b-c1ea-4a1f-ad98-396c622da2c8"},"vehicle_type_id":"4","last_reported":1749942602,"current_range_meters":4800,"station_id":"ce4bh312rcd13ifvqdk0","pricing_plan_id":"cebpf4jnsgd1na2vs0mg"},{"bike_id":"f0d1c6d2-55cb-4192-91be-03477d604b89","system_id":"levelo_inurba_marseille","lat":43.28105,"lon":5.37846,"is_reserved":false,"is_disabled":false,"rental_uris":{"android":"levelo://app?vid=f0d1c6d2-55cb-4192-91be-03477d604b89","ios":"levelo://app?vid=f0d1c6d2-55cb-4192-91be-03477d604b89"},"vehicle_type_id":"4","last_reported":1749942602,"current_range_meters":4800,"station_id":"ce4bha12rcd13ifvqee0","pricing_plan_id":"cebpf4jnsgd1na2vs0mg"},{"bike_id":"c8966199-8bfb-40ea-bb76-157efac96902","system_id":"levelo_inurba_marseille","lat":43.30941,"lon":5.39024,"is_reserved":false,"is_disabled":false,"rental_uris":{"android":"levelo://app?vid=c8966199-8bfb-40ea-bb76-157efac96902","ios":"levelo://app?vid=c8966199-8bfb-40ea-bb76-157efac96902"},"vehicle_type_id":"4","last_reported":1749942602,"current_range_meters":5600,"station_id":"ce4bgup2rcd13ifvqco0","pricing_plan_id":"cebpf4jnsgd1na2vs0mg"},{"bike_id":"d58d91cc-d504-414a-b858-466645878712","system_id":"levelo_inurba_marseille","lat":43.30212,"lon":5.39462,"is_reserved":false,"is_disabled":false,"rental_uris":{"android":"levelo://app?vid=d58d91cc-d504-414a-b858-466645878712","ios":"levelo://app?vid=d58d91cc-d504-414a-b858-466645878712"},"vehicle_type_id":"4","last_reported":1749942602,"current_range_meters":5600,"station_id":"ce4bh0p2rcd13ifvqd70","pricing_plan_id":"cebpf4jnsgd1na2vs0mg"},{"bike_id":"95147544-c26a-4310-a105-e9299bb0f59a","system_id":"levelo_inurba_marseille","lat":43.29569,"lon":5.39977,"is_reserved":false,"is_disabled":false,"rental_uris":{"android":"levelo://app?vid=95147544-c26a-4310-a105-e9299bb0f59a","ios":"levelo://app?vid=95147544-c26a-4310-a105-e9299bb0f59a"},"vehicle_type_id":"4","last_reported":1749942602,"current_range_meters":5600,"station_id":"ce4bh312rcd13ifvqdj0","pricing_plan_id":"cebpf4jnsgd1na2vs0mg"},{"bike_id":"2b9dc343-fedb-428e-8b31-834ea4d39765","system_id":"levelo_inurba_marseille","lat":43.31244,"lon":5.3689,"is_reserved":false,"is_disabled":false,"rental_uris":{"android":"levelo://app?vid=2b9dc343-fedb-428e-8b31-834ea4d39765","ios":"levelo://app?vid=2b9dc343-fedb-428e-8b31-834ea4d39765"},"vehicle_type_id":"4","last_reported":1749942602,"current_range_meters":6000,"station_id":"ce4bgl92rcd13ifvqbq0","pricing_plan_id":"cebpf4jnsgd1na2vs0mg"},{"bike_id":"978b574b-60e1-44db-92eb-5d21d612d5d3","system_id":"levelo_inurba_marseille","lat":43.30101,"lon":5.39067,"is_reserved":false,"is_disabled":false,"rental_uris":{"android":"levelo://app?vid=978b574b-60e1-44db-92eb-5d21d612d5d3","ios":"levelo://app?vid=978b574b-60e1-44db-92eb-5d21d612d5d3"},"vehicle_type_id":"4","last_reported":1749942602,"current_range_meters":6000,"station_id":"ce4bh192rcd13ifvqdb0","pricing_plan_id":"cebpf4jnsgd1na2vs0mg"},{"bike_id":"08abeba5-794d-4002-9dc0-873fd5f3556e","system_id":"levelo_inurba_marseille","lat":43.28941,"lon":5.39632,"is_reserved":false,"is_disabled":false,"rental_uris":{"android":"levelo://app?vid=08abeba5-794d-4002-9dc0-873fd5f3556e","ios":"levelo://app?vid=08abeba5-794d-4002-9dc0-873fd5f3556e"},"vehicle_type_id":"4","last_reported":1749942602,"current_range_meters":6000,"station_id":"ce4bh3h2rcd13ifvqdn0","pricing_plan_id":"cebpf4jnsgd1na2vs0mg"},{"bike_id":"6d21c11b-dfc1-476f-adae-f1fe3d427b69","system_id":"levelo_inurba_marseille","lat":43.21536,"lon":5.34749,"is_reserved":false,"is_disabled":false,"rental_uris":{"android":"levelo://app?vid=6d21c11b-dfc1-476f-adae-f1fe3d427b69","ios":"levelo://app?vid=6d21c11b-dfc1-476f-adae-f1fe3d427b69"},"vehicle_type_id":"4","last_reported":1749942602,"current_range_meters":6800,"station_id":"","pricing_plan_id":"cebpf4jnsgd1na2vs0mg"},{"bike_id":"8aa49f33-008f-4a75-9547-9a0d82966061","system_id":"levelo_inurba_marseille","lat":43.31362,"lon":5.38495,"is_reserved":false,"is_disabled":false,"rental_uris":{"android":"levelo://app?vid=8aa49f33-008f-4a75-9547-9a0d82966061","ios":"levelo://app?vid=8aa49f33-008f-4a75-9547-9a0d82966061"},"vehicle_type_id":"4","last_reported":1749942602,"current_range_meters":6800,"station_id":"ce4bgt92rcd13ifvqcf0","pricing_plan_id":"cebpf4jnsgd1na2vs0mg"},{"bike_id":"8412a9e5-495c-4e7e-aee4-97aadcc6e241","system_id":"levelo_inurba_marseille","lat":43.29576,"lon":5.40021,"is_reserved":false,"is_disabled":false,"rental_uris":{"android":"levelo://app?vid=8412a9e5-495c-4e7e-aee4-97aadcc6e241","ios":"levelo://app?vid=8412a9e5-495c-4e7e-aee4-97aadcc6e241"},"vehicle_type_id":"4","last_reported":1749942602,"current_range_meters":6800,"station_id":"ce4bh312rcd13ifvqdj0","pricing_plan_id":"cebpf4jnsgd1na2vs0mg"},{"bike_id":"2556c983-bfd9-4c69-b7a8-3ae79408d65d","system_id":"levelo_inurba_marseille","lat":43.29884,"lon":5.38911,"is_reserved":false,"is_disabled":false,"rental_uris":{"android":"levelo://app?vid=2556c983-bfd9-4c69-b7a8-3ae79408d65d","ios":"levelo://app?vid=2556c983-bfd9-4c69-b7a8-3ae79408d65d"},"vehicle_type_id":"4","last_reported":1749942602,"current_range_meters":6800,"station_id":"ce4bh392rcd13ifvqdl0","pricing_plan_id":"cebpf4jnsgd1na2vs0mg"},{"bike_id":"1dfd4a2e-66e9-4d4d-abaa-14bd20fe8a7c","system_id":"levelo_inurba_marseille","lat":43.2707,"lon":5.42284,"is_reserved":false,"is_disabled":false,"rental_uris":{"android":"levelo://app?vid=1dfd4a2e-66e9-4d4d-abaa-14bd20fe8a7c","ios":"levelo://app?vid=1dfd4a2e-66e9-4d4d-abaa-14bd20fe8a7c"},"vehicle_type_id":"4","last_reported":1749942602,"current_range_meters":6800,"station_id":"ce4bhk92rcd13ifvqgb0","pricing_plan_id":"cebpf4jnsgd1na2vs0mg"},{"bike_id":"3127b479-83b8-4c50-8797-211477a111c0","system_id":"levelo_inurba_marseille","lat":43.308,"lon":5.38161,"is_reserved":false,"is_disabled":false,"rental_uris":{"android":"levelo://app?vid=3127b479-83b8-4c50-8797-211477a111c0","ios":"levelo://app?vid=3127b479-83b8-4c50-8797-211477a111c0"},"vehicle_type_id":"4","last_reported":1749942602,"current_range_meters":7200,"station_id":"ce4bgt12rcd13ifvqce0","pricing_plan_id":"cebpf4jnsgd1na2vs0mg"},{"bike_id":"8ad42f6f-e14f-4fda-8c9e-e0eba376bcae","system_id":"levelo_inurba_marseille","lat":43.30423,"lon":5.39751,"is_reserved":false,"is_disabled":false,"rental_uris":{"android":"levelo://app?vid=8ad42f6f-e14f-4fda-8c9e-e0eba376bcae","ios":"levelo://app?vid=8ad42f6f-e14f-4fda-8c9e-e0eba376bcae"},"vehicle_type_id":"4","last_reported":1749942602,"current_range_meters":7200,"station_id":"ce4bh092rcd13ifvqd20","pricing_plan_id":"cebpf4jnsgd1na2vs0mg"},{"bike_id":"fa958dd4-c9ca-428a-af44-c36639175395","system_id":"levelo_inurba_marseille","lat":43.30206,"lon":5.3946,"is_reserved":false,"is_disabled":false,"rental_uris":{"android":"levelo://app?vid=fa958dd4-c9ca-428a-af44-c36639175395","ios":"levelo://app?vid=fa958dd4-c9ca-428a-af44-c36639175395"},"vehicle_type_id":"4","last_reported":1749942602,"current_range_meters":7200,"station_id":"ce4bh0p2rcd13ifvqd70","pricing_plan_id":"cebpf4jnsgd1na2vs0mg"},{"bike_id":"93224d35-1cfc-45e2-affd-e7375adb8d1c","system_id":"levelo_inurba_marseille","lat":43.29271,"lon":5.40127,"is_reserved":false,"is_disabled":false,"rental_uris":{"android":"levelo://app?vid=93224d35-1cfc-45e2-affd-e7375adb8d1c","ios":"levelo://app?vid=93224d35-1cfc-45e2-affd-e7375adb8d1c"},"vehicle_type_id":"4","last_reported":1749942602,"current_range_meters":7200,"station_id":"ce4bh312rcd13ifvqdk0","pricing_plan_id":"cebpf4jnsgd1na2vs0mg"},{"bike_id":"4fdbd593-f828-4f83-a15a-d5f42967868b","system_id":"levelo_inurba_marseille","lat":43.28666,"lon":5.36354,"is_reserved":false,"is_disabled":false,"rental_uris":{"android":"levelo://app?vid=4fdbd593-f828-4f83-a15a-d5f42967868b","ios":"levelo://app?vid=4fdbd593-f828-4f83-a15a-d5f42967868b"},"vehicle_type_id":"4","last_reported":1749942602,"current_range_meters":7200,"station_id":"ce4bhah2rcd13ifvqej0","pricing_plan_id":"cebpf4jnsgd1na2vs0mg"},{"bike_id":"f3ae88b3-cc30-46eb-a70b-ca40315ca933","system_id":"levelo_inurba_marseille","lat":43.27947,"lon":5.41036,"is_reserved":false,"is_disabled":false,"rental_uris":{"android":"levelo://app?vid=f3ae88b3-cc30-46eb-a70b-ca40315ca933","ios":"levelo://app?vid=f3ae88b3-cc30-46eb-a70b-ca40315ca933"},"vehicle_type_id":"4","last_reported":1749942602,"current_range_meters":7200,"station_id":"ce4bhnp2rcd13ifvqh0g","pricing_plan_id":"cebpf4jnsgd1na2vs0mg"},{"bike_id":"00caa925-4ae6-4edc-8f78-c05a0c6d4cdd","system_id":"levelo_inurba_marseille","lat":43.29554,"lon":5.42297,"is_reserved":false,"is_disabled":false,"rental_uris":{"android":"levelo://app?vid=00caa925-4ae6-4edc-8f78-c05a0c6d4cdd","ios":"levelo://app?vid=00caa925-4ae6-4edc-8f78-c05a0c6d4cdd"},"vehicle_type_id":"4","last_reported":1749942602,"current_range_meters":7200,"station_id":"ce4bhph2rcd13ifvqhdg","pricing_plan_id":"cebpf4jnsgd1na2vs0mg"},{"bike_id":"f8e1da3d-81aa-4f22-834f-caefbb30291b","system_id":"levelo_inurba_marseille","lat":43.295328,"lon":5.422992,"is_reserved":false,"is_disabled":false,"rental_uris":{"android":"levelo://app?vid=f8e1da3d-81aa-4f22-834f-caefbb30291b","ios":"levelo://app?vid=f8e1da3d-81aa-4f22-834f-caefbb30291b"},"vehicle_type_id":"4","last_reported":1749942602,"current_range_meters":7200,"station_id":"ce4bhph2rcd13ifvqhdg","pricing_plan_id":"cebpf4jnsgd1na2vs0mg"},{"bike_id":"13900630-84d4-4155-b155-5c1e9ce2fce9","system_id":"levelo_inurba_marseille","lat":43.2955,"lon":5.42295,"is_reserved":false,"is_disabled":false,"rental_uris":{"android":"levelo://app?vid=13900630-84d4-4155-b155-5c1e9ce2fce9","ios":"levelo://app?vid=13900630-84d4-4155-b155-5c1e9ce2fce9"},"vehicle_type_id":"4","last_reported":1749942602,"current_range_meters":7200,"station_id":"ce4bhph2rcd13ifvqhdg","pricing_plan_id":"cebpf4jnsgd1na2vs0mg"},{"bike_id":"dfb86e6f-a992-4359-be1e-0e623ac81ef3","system_id":"levelo_inurba_marseille","lat":43.23964,"lon":5.36637,"is_reserved":false,"is_disabled":false,"rental_uris":{"android":"levelo://app?vid=dfb86e6f-a992-4359-be1e-0e623ac81ef3","ios":"levelo://app?vid=dfb86e6f-a992-4359-be1e-0e623ac81ef3"},"vehicle_type_id":"4","last_reported":1749942602,"current_range_meters":8000,"station_id":"ce4bhi12rcd13ifvqfp0","pricing_plan_id":"cebpf4jnsgd1na2vs0mg"},{"bike_id":"a80d64a2-8bc6-47ff-a4e1-a5a6326e8cbe","system_id":"levelo_inurba_marseille","lat":43.28153,"lon":5.42646,"is_reserved":false,"is_disabled":false,"rental_uris":{"android":"levelo://app?vid=a80d64a2-8bc6-47ff-a4e1-a5a6326e8cbe","ios":"levelo://app?vid=a80d64a2-8bc6-47ff-a4e1-a5a6326e8cbe"},"vehicle_type_id":"4","last_reported":1749942602,"current_range_meters":8000,"station_id":"ce4bhnh2rcd13ifvqgug","pricing_plan_id":"cebpf4jnsgd1na2vs0mg"},{"bike_id":"5cf82ba1-6d4e-4510-ad1f-eea8a5d7ab7b","system_id":"levelo_inurba_marseille","lat":43.27205,"lon":5.40982,"is_reserved":false,"is_disabled":false,"rental_uris":{"android":"levelo://app?vid=5cf82ba1-6d4e-4510-ad1f-eea8a5d7ab7b","ios":"levelo://app?vid=5cf82ba1-6d4e-4510-ad1f-eea8a5d7ab7b"},"vehicle_type_id":"4","last_reported":1749942602,"current_range_meters":8400,"station_id":"ce4bhl12rcd13ifvqgf0","pricing_plan_id":"cebpf4jnsgd1na2vs0mg"},{"bike_id":"ac9daff0-9141-4550-bfcf-52b4a421181e","system_id":"levelo_inurba_marseille","lat":43.32359,"lon":5.40642,"is_reserved":false,"is_disabled":false,"rental_uris":{"android":"levelo://app?vid=ac9daff0-9141-4550-bfcf-52b4a421181e","ios":"levelo://app?vid=ac9daff0-9141-4550-bfcf-52b4a421181e"},"vehicle_type_id":"4","last_reported":1749942602,"current_range_meters":8400,"station_id":"ce4bhq92rcd13ifvqhjg","pricing_plan_id":"cebpf4jnsgd1na2vs0mg"},{"bike_id":"2ab31527-f915-4286-b3a0-0beafd2cdd50","system_id":"levelo_inurba_marseille","lat":43.30014,"lon":5.37,"is_reserved":false,"is_disabled":false,"rental_uris":{"android":"levelo://app?vid=2ab31527-f915-4286-b3a0-0beafd2cdd50","ios":"levelo://app?vid=2ab31527-f915-4286-b3a0-0beafd2cdd50"},"vehicle_type_id":"4","last_reported":1749942602,"current_range_meters":8800,"station_id":"","pricing_plan_id":"cebpf4jnsgd1na2vs0mg"},{"bike_id":"e8c2afe6-4691-4906-9a06-e079d5a0ee21","system_id":"levelo_inurba_marseille","lat":43.28462,"lon":5.38393,"is_reserved":false,"is_disabled":false,"rental_uris":{"android":"levelo://app?vid=e8c2afe6-4691-4906-9a06-e079d5a0ee21","ios":"levelo://app?vid=e8c2afe6-4691-4906-9a06-e079d5a0ee21"},"vehicle_type_id":"4","last_reported":1749942602,"current_range_meters":8800,"station_id":"ce4bh512rcd13ifvqe3g","pricing_plan_id":"cebpf4jnsgd1na2vs0mg"},{"bike_id":"672bcfed-c785-4266-8396-960f8f6dd2cd","system_id":"levelo_inurba_marseille","lat":43.28607,"lon":5.37068,"is_reserved":false,"is_disabled":false,"rental_uris":{"android":"levelo://app?vid=672bcfed-c785-4266-8396-960f8f6dd2cd","ios":"levelo://app?vid=672bcfed-c785-4266-8396-960f8f6dd2cd"},"vehicle_type_id":"4","last_reported":1749942602,"current_range_meters":8800,"station_id":"ce4bht12rcd13ifvqi60","pricing_plan_id":"cebpf4jnsgd1na2vs0mg"},{"bike_id":"87c270dc-4fcf-4263-8f57-a07ca944f869","system_id":"levelo_inurba_marseille","lat":43.31257,"lon":5.39498,"is_reserved":false,"is_disabled":false,"rental_uris":{"android":"levelo://app?vid=87c270dc-4fcf-4263-8f57-a07ca944f869","ios":"levelo://app?vid=87c270dc-4fcf-4263-8f57-a07ca944f869"},"vehicle_type_id":"4","last_reported":1749942602,"current_range_meters":9200,"station_id":"","pricing_plan_id":"cebpf4jnsgd1na2vs0mg"},{"bike_id":"17a55d39-ff85-46ee-8e50-ad575e65b847","system_id":"levelo_inurba_marseille","lat":43.30256,"lon":5.40053,"is_reserved":false,"is_disabled":false,"rental_uris":{"android":"levelo://app?vid=17a55d39-ff85-46ee-8e50-ad575e65b847","ios":"levelo://app?vid=17a55d39-ff85-46ee-8e50-ad575e65b847"},"vehicle_type_id":"4","last_reported":1749942602,"current_range_meters":9200,"station_id":"ce4bgvh2rcd13ifvqcs0","pricing_plan_id":"cebpf4jnsgd1na2vs0mg"},{"bike_id":"3c8c4031-b935-4a88-ba65-f766cdd6931a","system_id":"levelo_inurba_marseille","lat":43.29038,"lon":5.39981,"is_reserved":false,"is_disabled":false,"rental_uris":{"android":"levelo://app?vid=3c8c4031-b935-4a88-ba65-f766cdd6931a","ios":"levelo://app?vid=3c8c4031-b935-4a88-ba65-f766cdd6931a"},"vehicle_type_id":"4","last_reported":1749942602,"current_range_meters":9200,"station_id":"ce4bh392rcd13ifvqdm0","pricing_plan_id":"cebpf4jnsgd1na2vs0mg"},{"bike_id":"7540981b-5d6e-41a2-bba7-246ee5f05e68","system_id":"levelo_inurba_marseille","lat":43.28695,"lon":5.37391,"is_reserved":false,"is_disabled":false,"rental_uris":{"android":"levelo://app?vid=7540981b-5d6e-41a2-bba7-246ee5f05e68","ios":"levelo://app?vid=7540981b-5d6e-41a2-bba7-246ee5f05e68"},"vehicle_type_id":"4","last_reported":1749942602,"current_range_meters":9200,"station_id":"ce4bh3p2rcd13ifvqdq0","pricing_plan_id":"cebpf4jnsgd1na2vs0mg"},{"bike_id":"aa1c0bf0-62de-4738-ad2c-1768a495b061","system_id":"levelo_inurba_marseille","lat":43.28401,"lon":5.37508,"is_reserved":false,"is_disabled":false,"rental_uris":{"android":"levelo://app?vid=aa1c0bf0-62de-4738-ad2c-1768a495b061","ios":"levelo://app?vid=aa1c0bf0-62de-4738-ad2c-1768a495b061"},"vehicle_type_id":"4","last_reported":1749942602,"current_range_meters":9200,"station_id":"ce4bh412rcd13ifvqds0","pricing_plan_id":"cebpf4jnsgd1na2vs0mg"},{"bike_id":"0a176c0c-78a3-474b-b917-3fc9a4ed2ff7","system_id":"levelo_inurba_marseille","lat":43.255752,"lon":5.382231,"is_reserved":false,"is_disabled":false,"rental_uris":{"android":"levelo://app?vid=0a176c0c-78a3-474b-b917-3fc9a4ed2ff7","ios":"levelo://app?vid=0a176c0c-78a3-474b-b917-3fc9a4ed2ff7"},"vehicle_type_id":"4","last_reported":1749942602,"current_range_meters":9200,"station_id":"ce4bhih2rcd13ifvqfs0","pricing_plan_id":"cebpf4jnsgd1na2vs0mg"},{"bike_id":"ba75e811-087f-4c46-b711-f7458b3d95b4","system_id":"levelo_inurba_marseille","lat":43.231804,"lon":5.399831,"is_reserved":false,"is_disabled":false,"rental_uris":{"android":"levelo://app?vid=ba75e811-087f-4c46-b711-f7458b3d95b4","ios":"levelo://app?vid=ba75e811-087f-4c46-b711-f7458b3d95b4"},"vehicle_type_id":"4","last_reported":1749942602,"current_range_meters":9200,"station_id":"ce4bhn12rcd13ifvqgqg","pricing_plan_id":"cebpf4jnsgd1na2vs0mg"},{"bike_id":"0975fc91-0921-4784-90fb-c4d13d8dd350","system_id":"levelo_inurba_marseille","lat":43.30599,"lon":5.39355,"is_reserved":false,"is_disabled":false,"rental_uris":{"android":"levelo://app?vid=0975fc91-0921-4784-90fb-c4d13d8dd350","ios":"levelo://app?vid=0975fc91-0921-4784-90fb-c4d13d8dd350"},"vehicle_type_id":"4","last_reported":1749942602,"current_range_meters":9600,"station_id":"ce4bh0p2rcd13ifvqd80","pricing_plan_id":"cebpf4jnsgd1na2vs0mg"},{"bike_id":"7f3a60c0-0971-4538-9b06-fb77d68a29f7","system_id":"levelo_inurba_marseille","lat":43.29244,"lon":5.40914,"is_reserved":false,"is_disabled":false,"rental_uris":{"android":"levelo://app?vid=7f3a60c0-0971-4538-9b06-fb77d68a29f7","ios":"levelo://app?vid=7f3a60c0-0971-4538-9b06-fb77d68a29f7"},"vehicle_type_id":"4","last_reported":1749942602,"current_range_meters":9600,"station_id":"ce4bh192rcd13ifvqdc0","pricing_plan_id":"cebpf4jnsgd1na2vs0mg"},{"bike_id":"c19e58e1-722d-47ff-8b4d-f21c009a40fc","system_id":"levelo_inurba_marseille","lat":43.29432,"lon":5.39761,"is_reserved":false,"is_disabled":false,"rental_uris":{"android":"levelo://app?vid=c19e58e1-722d-47ff-8b4d-f21c009a40fc","ios":"levelo://app?vid=c19e58e1-722d-47ff-8b4d-f21c009a40fc"},"vehicle_type_id":"4","last_reported":1749942602,"current_range_meters":9600,"station_id":"ce4bh3h2rcd13ifvqdo0","pricing_plan_id":"cebpf4jnsgd1na2vs0mg"},{"bike_id":"b21ffaab-6a3c-4d11-84e1-8d9f93e6f4ce","system_id":"levelo_inurba_marseille","lat":43.28673,"lon":5.3636,"is_reserved":false,"is_disabled":false,"rental_uris":{"android":"levelo://app?vid=b21ffaab-6a3c-4d11-84e1-8d9f93e6f4ce","ios":"levelo://app?vid=b21ffaab-6a3c-4d11-84e1-8d9f93e6f4ce"},"vehicle_type_id":"4","last_reported":1749942602,"current_range_meters":9600,"station_id":"ce4bhah2rcd13ifvqej0","pricing_plan_id":"cebpf4jnsgd1na2vs0mg"},{"bike_id":"5301cfe6-b3b5-433c-a60e-751462d9b4b2","system_id":"levelo_inurba_marseille","lat":43.239665,"lon":5.366305,"is_reserved":false,"is_disabled":false,"rental_uris":{"android":"levelo://app?vid=5301cfe6-b3b5-433c-a60e-751462d9b4b2","ios":"levelo://app?vid=5301cfe6-b3b5-433c-a60e-751462d9b4b2"},"vehicle_type_id":"4","last_reported":1749942602,"current_range_meters":9600,"station_id":"ce4bhi12rcd13ifvqfp0","pricing_plan_id":"cebpf4jnsgd1na2vs0mg"},{"bike_id":"cb1c0c28-8bb6-4c12-b06d-ee70e3db587c","system_id":"levelo_inurba_marseille","lat":43.30417,"lon":5.41285,"is_reserved":false,"is_disabled":false,"rental_uris":{"android":"levelo://app?vid=cb1c0c28-8bb6-4c12-b06d-ee70e3db587c","ios":"levelo://app?vid=cb1c0c28-8bb6-4c12-b06d-ee70e3db587c"},"vehicle_type_id":"4","last_reported":1749942602,"current_range_meters":9600,"station_id":"ce4bhop2rcd13ifvqh8g","pricing_plan_id":"cebpf4jnsgd1na2vs0mg"},{"bike_id":"285e8765-a1d4-4d59-a197-57bf5a87ed6d","system_id":"levelo_inurba_marseille","lat":43.29775,"lon":5.39322,"is_reserved":false,"is_disabled":false,"rental_uris":{"android":"levelo://app?vid=285e8765-a1d4-4d59-a197-57bf5a87ed6d","ios":"levelo://app?vid=285e8765-a1d4-4d59-a197-57bf5a87ed6d"},"vehicle_type_id":"4","last_reported":1749942602,"current_range_meters":9600,"station_id":"chh1huq6cuj3fo74tm60","pricing_plan_id":"cebpf4jnsgd1na2vs0mg"},{"bike_id":"7f8eda5f-bb88-436a-b31e-c347870c7c42","system_id":"levelo_inurba_marseille","lat":43.298694,"lon":5.397235,"is_reserved":false,"is_disabled":false,"rental_uris":{"android":"levelo://app?vid=7f8eda5f-bb88-436a-b31e-c347870c7c42","ios":"levelo://app?vid=7f8eda5f-bb88-436a-b31e-c347870c7c42"},"vehicle_type_id":"4","last_reported":1749942602,"current_range_meters":10000,"station_id":"ce4bh0h2rcd13ifvqd50","pricing_plan_id":"cebpf4jnsgd1na2vs0mg"},{"bike_id":"bfe7365e-7ee9-442e-8244-d1e51ad4ddaf","system_id":"levelo_inurba_marseille","lat":43.29434,"lon":5.39753,"is_reserved":false,"is_disabled":false,"rental_uris":{"android":"levelo://app?vid=bfe7365e-7ee9-442e-8244-d1e51ad4ddaf","ios":"levelo://app?vid=bfe7365e-7ee9-442e-8244-d1e51ad4ddaf"},"vehicle_type_id":"4","last_reported":1749942602,"current_range_meters":10000,"station_id":"ce4bh3h2rcd13ifvqdo0","pricing_plan_id":"cebpf4jnsgd1na2vs0mg"},{"bike_id":"9b868e35-8967-47d7-89e7-f6bbab6c380b","system_id":"levelo_inurba_marseille","lat":43.28706,"lon":5.37945,"is_reserved":false,"is_disabled":false,"rental_uris":{"android":"levelo://app?vid=9b868e35-8967-47d7-89e7-f6bbab6c380b","ios":"levelo://app?vid=9b868e35-8967-47d7-89e7-f6bbab6c380b"},"vehicle_type_id":"4","last_reported":1749942602,"current_range_meters":10000,"station_id":"ce4bh9p2rcd13ifvqec0","pricing_plan_id":"cebpf4jnsgd1na2vs0mg"},{"bike_id":"07f373f4-616c-497d-8898-738bc9fb3edf","system_id":"levelo_inurba_marseille","lat":43.26699,"lon":5.38262,"is_reserved":false,"is_disabled":false,"rental_uris":{"android":"levelo://app?vid=07f373f4-616c-497d-8898-738bc9fb3edf","ios":"levelo://app?vid=07f373f4-616c-497d-8898-738bc9fb3edf"},"vehicle_type_id":"4","last_reported":1749942602,"current_range_meters":10000,"station_id":"ce4bhg92rcd13ifvqf90","pricing_plan_id":"cebpf4jnsgd1na2vs0mg"},{"bike_id":"97bb7578-c267-4640-a98d-31ca8e7d75f4","system_id":"levelo_inurba_marseille","lat":43.27174,"lon":5.40995,"is_reserved":false,"is_disabled":false,"rental_uris":{"android":"levelo://app?vid=97bb7578-c267-4640-a98d-31ca8e7d75f4","ios":"levelo://app?vid=97bb7578-c267-4640-a98d-31ca8e7d75f4"},"vehicle_type_id":"4","last_reported":1749942602,"current_range_meters":10000,"station_id":"ce4bhl12rcd13ifvqgf0","pricing_plan_id":"cebpf4jnsgd1na2vs0mg"},{"bike_id":"403f2c90-38d1-4521-9c89-c7514d1c463e","system_id":"levelo_inurba_marseille","lat":43.28703,"lon":5.39993,"is_reserved":false,"is_disabled":false,"rental_uris":{"android":"levelo://app?vid=403f2c90-38d1-4521-9c89-c7514d1c463e","ios":"levelo://app?vid=403f2c90-38d1-4521-9c89-c7514d1c463e"},"vehicle_type_id":"4","last_reported":1749942602,"current_range_meters":10000,"station_id":"ce4bho92rcd13ifvqh3g","pricing_plan_id":"cebpf4jnsgd1na2vs0mg"},{"bike_id":"684f4e0c-56e1-4f68-9d5c-52873241ab72","system_id":"levelo_inurba_marseille","lat":43.31517,"lon":5.37314,"is_reserved":false,"is_disabled":false,"rental_uris":{"android":"levelo://app?vid=684f4e0c-56e1-4f68-9d5c-52873241ab72","ios":"levelo://app?vid=684f4e0c-56e1-4f68-9d5c-52873241ab72"},"vehicle_type_id":"4","last_reported":1749942602,"current_range_meters":10800,"station_id":"ce4bgt12rcd13ifvqcd0","pricing_plan_id":"cebpf4jnsgd1na2vs0mg"},{"bike_id":"7b71b28e-da3b-4577-a1dd-9c2656fe2f24","system_id":"levelo_inurba_marseille","lat":43.31353,"lon":5.38517,"is_reserved":false,"is_disabled":false,"rental_uris":{"android":"levelo://app?vid=7b71b28e-da3b-4577-a1dd-9c2656fe2f24","ios":"levelo://app?vid=7b71b28e-da3b-4577-a1dd-9c2656fe2f24"},"vehicle_type_id":"4","last_reported":1749942602,"current_range_meters":10800,"station_id":"ce4bgt92rcd13ifvqcf0","pricing_plan_id":"cebpf4jnsgd1na2vs0mg"},{"bike_id":"a1e3c796-d0ce-44fb-957a-cff5ec21e82d","system_id":"levelo_inurba_marseille","lat":43.29018,"lon":5.37583,"is_reserved":false,"is_disabled":false,"rental_uris":{"android":"levelo://app?vid=a1e3c796-d0ce-44fb-957a-cff5ec21e82d","ios":"levelo://app?vid=a1e3c796-d0ce-44fb-957a-cff5ec21e82d"},"vehicle_type_id":"4","last_reported":1749942602,"current_range_meters":10800,"station_id":"ce4bh692rcd13ifvqe90","pricing_plan_id":"cebpf4jnsgd1na2vs0mg"},{"bike_id":"33a5ae76-fedf-41f8-94fe-0f03745d1877","system_id":"levelo_inurba_marseille","lat":43.25586,"lon":5.38268,"is_reserved":false,"is_disabled":false,"rental_uris":{"android":"levelo://app?vid=33a5ae76-fedf-41f8-94fe-0f03745d1877","ios":"levelo://app?vid=33a5ae76-fedf-41f8-94fe-0f03745d1877"},"vehicle_type_id":"4","last_reported":1749942602,"current_range_meters":10800,"station_id":"ce4bhih2rcd13ifvqfs0","pricing_plan_id":"cebpf4jnsgd1na2vs0mg"},{"bike_id":"2eb2516b-5f9f-4f58-8493-07049b393727","system_id":"levelo_inurba_marseille","lat":43.33734,"lon":5.39198,"is_reserved":false,"is_disabled":false,"rental_uris":{"android":"levelo://app?vid=2eb2516b-5f9f-4f58-8493-07049b393727","ios":"levelo://app?vid=2eb2516b-5f9f-4f58-8493-07049b393727"},"vehicle_type_id":"4","last_reported":1749942602,"current_range_meters":10800,"station_id":"ce4bhr92rcd13ifvqhsg","pricing_plan_id":"cebpf4jnsgd1na2vs0mg"},{"bike_id":"2af3346f-e943-41d9-9f0c-a12eb70967f4","system_id":"levelo_inurba_marseille","lat":43.301357,"lon":5.387747,"is_reserved":false,"is_disabled":false,"rental_uris":{"android":"levelo://app?vid=2af3346f-e943-41d9-9f0c-a12eb70967f4","ios":"levelo://app?vid=2af3346f-e943-41d9-9f0c-a12eb70967f4"},"vehicle_type_id":"4","last_reported":1749942602,"current_range_meters":11200,"station_id":"ce4bghh2rcd13ifvqb60","pricing_plan_id":"cebpf4jnsgd1na2vs0mg"},{"bike_id":"ff5248ff-3c95-43e2-b614-80d426984170","system_id":"levelo_inurba_marseille","lat":43.30417,"lon":5.41282,"is_reserved":false,"is_disabled":false,"rental_uris":{"android":"levelo://app?vid=ff5248ff-3c95-43e2-b614-80d426984170","ios":"levelo://app?vid=ff5248ff-3c95-43e2-b614-80d426984170"},"vehicle_type_id":"4","last_reported":1749942602,"current_range_meters":11200,"station_id":"ce4bhop2rcd13ifvqh8g","pricing_plan_id":"cebpf4jnsgd1na2vs0mg"},{"bike_id":"e1986663-e7eb-455b-bbe5-4964cd19661b","system_id":"levelo_inurba_marseille","lat":43.29706,"lon":5.36612,"is_reserved":false,"is_disabled":false,"rental_uris":{"android":"levelo://app?vid=e1986663-e7eb-455b-bbe5-4964cd19661b","ios":"levelo://app?vid=e1986663-e7eb-455b-bbe5-4964cd19661b"},"vehicle_type_id":"4","last_reported":1749942602,"current_range_meters":11600,"station_id":"ce4bgn12rcd13ifvqbt0","pricing_plan_id":"cebpf4jnsgd1na2vs0mg"},{"bike_id":"507c5d85-77a4-4cbc-a02c-82380c8bfef1","system_id":"levelo_inurba_marseille","lat":43.31105,"lon":5.37764,"is_reserved":false,"is_disabled":false,"rental_uris":{"android":"levelo://app?vid=507c5d85-77a4-4cbc-a02c-82380c8bfef1","ios":"levelo://app?vid=507c5d85-77a4-4cbc-a02c-82380c8bfef1"},"vehicle_type_id":"4","last_reported":1749942602,"current_range_meters":11600,"station_id":"ce4bgt92rcd13ifvqcg0","pricing_plan_id":"cebpf4jnsgd1na2vs0mg"},{"bike_id":"9c76f206-28ee-441c-bb61-11a6329ac7d3","system_id":"levelo_inurba_marseille","lat":43.2928,"lon":5.40121,"is_reserved":false,"is_disabled":false,"rental_uris":{"android":"levelo://app?vid=9c76f206-28ee-441c-bb61-11a6329ac7d3","ios":"levelo://app?vid=9c76f206-28ee-441c-bb61-11a6329ac7d3"},"vehicle_type_id":"4","last_reported":1749942602,"current_range_meters":11600,"station_id":"ce4bh312rcd13ifvqdk0","pricing_plan_id":"cebpf4jnsgd1na2vs0mg"},{"bike_id":"5a21e497-33bb-4066-baf7-e010c7ab35fe","system_id":"levelo_inurba_marseille","lat":43.24081,"lon":5.3776,"is_reserved":false,"is_disabled":false,"rental_uris":{"android":"levelo://app?vid=5a21e497-33bb-4066-baf7-e010c7ab35fe","ios":"levelo://app?vid=5a21e497-33bb-4066-baf7-e010c7ab35fe"},"vehicle_type_id":"4","last_reported":1749942602,"current_range_meters":11600,"station_id":"ce4bhnp2rcd13ifvqgvg","pricing_plan_id":"cebpf4jnsgd1na2vs0mg"},{"bike_id":"19863f21-4648-420e-94ae-4b7989376ed7","system_id":"levelo_inurba_marseille","lat":43.29777,"lon":5.39334,"is_reserved":false,"is_disabled":false,"rental_uris":{"android":"levelo://app?vid=19863f21-4648-420e-94ae-4b7989376ed7","ios":"levelo://app?vid=19863f21-4648-420e-94ae-4b7989376ed7"},"vehicle_type_id":"4","last_reported":1749942602,"current_range_meters":11600,"station_id":"chh1huq6cuj3fo74tm60","pricing_plan_id":"cebpf4jnsgd1na2vs0mg"},{"bike_id":"39bd2a97-fa26-44cc-80c6-77260f16427e","system_id":"levelo_inurba_marseille","lat":43.287038,"lon":5.37391,"is_reserved":false,"is_disabled":false,"rental_uris":{"android":"levelo://app?vid=39bd2a97-fa26-44cc-80c6-77260f16427e","ios":"levelo://app?vid=39bd2a97-fa26-44cc-80c6-77260f16427e"},"vehicle_type_id":"4","last_reported":1749942602,"current_range_meters":12000,"station_id":"ce4bh3p2rcd13ifvqdq0","pricing_plan_id":"cebpf4jnsgd1na2vs0mg"},{"bike_id":"ea625ec6-b745-4aa8-8194-9c73c74d4fed","system_id":"levelo_inurba_marseille","lat":43.25112,"lon":5.40327,"is_reserved":false,"is_disabled":false,"rental_uris":{"android":"levelo://app?vid=ea625ec6-b745-4aa8-8194-9c73c74d4fed","ios":"levelo://app?vid=ea625ec6-b745-4aa8-8194-9c73c74d4fed"},"vehicle_type_id":"4","last_reported":1749942602,"current_range_meters":12000,"station_id":"ce4bhlh2rcd13ifvqgig","pricing_plan_id":"cebpf4jnsgd1na2vs0mg"},{"bike_id":"d2729172-f4bf-4eb8-9964-c217269a3492","system_id":"levelo_inurba_marseille","lat":43.211924,"lon":5.35075,"is_reserved":false,"is_disabled":false,"rental_uris":{"android":"levelo://app?vid=d2729172-f4bf-4eb8-9964-c217269a3492","ios":"levelo://app?vid=d2729172-f4bf-4eb8-9964-c217269a3492"},"vehicle_type_id":"4","last_reported":1749942602,"current_range_meters":12000,"station_id":"st_cvj6sg6p6f1abm77japg","pricing_plan_id":"cebpf4jnsgd1na2vs0mg"},{"bike_id":"bd081d41-5eed-4495-82ed-9e27cd112239","system_id":"levelo_inurba_marseille","lat":43.249488,"lon":5.396613,"is_reserved":false,"is_disabled":false,"rental_uris":{"android":"levelo://app?vid=bd081d41-5eed-4495-82ed-9e27cd112239","ios":"levelo://app?vid=bd081d41-5eed-4495-82ed-9e27cd112239"},"vehicle_type_id":"4","last_reported":1749942602,"current_range_meters":12400,"station_id":"","pricing_plan_id":"cebpf4jnsgd1na2vs0mg"},{"bike_id":"df1254ac-0833-4d4e-87e1-bdd09ea2bd36","system_id":"levelo_inurba_marseille","lat":43.295,"lon":5.38465,"is_reserved":false,"is_disabled":false,"rental_uris":{"android":"levelo://app?vid=df1254ac-0833-4d4e-87e1-bdd09ea2bd36","ios":"levelo://app?vid=df1254ac-0833-4d4e-87e1-bdd09ea2bd36"},"vehicle_type_id":"4","last_reported":1749942602,"current_range_meters":12400,"station_id":"","pricing_plan_id":"cebpf4jnsgd1na2vs0mg"},{"bike_id":"c97104d2-e5d6-47c3-afd0-bebd57865cf9","system_id":"levelo_inurba_marseille","lat":43.31176,"lon":5.38714,"is_reserved":false,"is_disabled":false,"rental_uris":{"android":"levelo://app?vid=c97104d2-e5d6-47c3-afd0-bebd57865cf9","ios":"levelo://app?vid=c97104d2-e5d6-47c3-afd0-bebd57865cf9"},"vehicle_type_id":"4","last_reported":1749942602,"current_range_meters":12400,"station_id":"ce4bgv12rcd13ifvqcp0","pricing_plan_id":"cebpf4jnsgd1na2vs0mg"},{"bike_id":"dbe1ca70-dcc2-44ca-825e-8088b4f52fb9","system_id":"levelo_inurba_marseille","lat":43.29251,"lon":5.40914,"is_reserved":false,"is_disabled":false,"rental_uris":{"android":"levelo://app?vid=dbe1ca70-dcc2-44ca-825e-8088b4f52fb9","ios":"levelo://app?vid=dbe1ca70-dcc2-44ca-825e-8088b4f52fb9"},"vehicle_type_id":"4","last_reported":1749942602,"current_range_meters":12400,"station_id":"ce4bh192rcd13ifvqdc0","pricing_plan_id":"cebpf4jnsgd1na2vs0mg"},{"bike_id":"594c2798-0156-4d9d-8d0a-9b3ca937eb12","system_id":"levelo_inurba_marseille","lat":43.29074,"lon":5.38132,"is_reserved":false,"is_disabled":false,"rental_uris":{"android":"levelo://app?vid=594c2798-0156-4d9d-8d0a-9b3ca937eb12","ios":"levelo://app?vid=594c2798-0156-4d9d-8d0a-9b3ca937eb12"},"vehicle_type_id":"4","last_reported":1749942602,"current_range_meters":12400,"station_id":"ce4bh512rcd13ifvqe2g","pricing_plan_id":"cebpf4jnsgd1na2vs0mg"},{"bike_id":"9f3c069e-45fb-44a0-9a68-af101cd947df","system_id":"levelo_inurba_marseille","lat":43.28464,"lon":5.35894,"is_reserved":false,"is_disabled":false,"rental_uris":{"android":"levelo://app?vid=9f3c069e-45fb-44a0-9a68-af101cd947df","ios":"levelo://app?vid=9f3c069e-45fb-44a0-9a68-af101cd947df"},"vehicle_type_id":"4","last_reported":1749942602,"current_range_meters":12400,"station_id":"ce4bhah2rcd13ifvqei0","pricing_plan_id":"cebpf4jnsgd1na2vs0mg"},{"bike_id":"7a11dc11-7c4a-4f9f-b03d-16b4bbec9039","system_id":"levelo_inurba_marseille","lat":43.29867,"lon":5.39738,"is_reserved":false,"is_disabled":false,"rental_uris":{"android":"levelo://app?vid=7a11dc11-7c4a-4f9f-b03d-16b4bbec9039","ios":"levelo://app?vid=7a11dc11-7c4a-4f9f-b03d-16b4bbec9039"},"vehicle_type_id":"4","last_reported":1749942602,"current_range_meters":12800,"station_id":"ce4bh0h2rcd13ifvqd50","pricing_plan_id":"cebpf4jnsgd1na2vs0mg"},{"bike_id":"24d3cb3d-df24-4eb1-8e12-d265a6a88ddd","system_id":"levelo_inurba_marseille","lat":43.30586,"lon":5.39366,"is_reserved":false,"is_disabled":false,"rental_uris":{"android":"levelo://app?vid=24d3cb3d-df24-4eb1-8e12-d265a6a88ddd","ios":"levelo://app?vid=24d3cb3d-df24-4eb1-8e12-d265a6a88ddd"},"vehicle_type_id":"4","last_reported":1749942602,"current_range_meters":12800,"station_id":"ce4bh0p2rcd13ifvqd80","pricing_plan_id":"cebpf4jnsgd1na2vs0mg"},{"bike_id":"89c611bb-9ded-47ba-b07a-064ce17e9a17","system_id":"levelo_inurba_marseille","lat":43.29026,"lon":5.39975,"is_reserved":false,"is_disabled":false,"rental_uris":{"android":"levelo://app?vid=89c611bb-9ded-47ba-b07a-064ce17e9a17","ios":"levelo://app?vid=89c611bb-9ded-47ba-b07a-064ce17e9a17"},"vehicle_type_id":"4","last_reported":1749942602,"current_range_meters":12800,"station_id":"ce4bh392rcd13ifvqdm0","pricing_plan_id":"cebpf4jnsgd1na2vs0mg"},{"bike_id":"e973c3f5-96dc-485e-8d47-04670c7282bd","system_id":"levelo_inurba_marseille","lat":43.26792,"lon":5.39414,"is_reserved":false,"is_disabled":false,"rental_uris":{"android":"levelo://app?vid=e973c3f5-96dc-485e-8d47-04670c7282bd","ios":"levelo://app?vid=e973c3f5-96dc-485e-8d47-04670c7282bd"},"vehicle_type_id":"4","last_reported":1749942602,"current_range_meters":12800,"station_id":"ce4bhh12rcd13ifvqfg0","pricing_plan_id":"cebpf4jnsgd1na2vs0mg"},{"bike_id":"869a0222-35e2-418d-b0cf-22817ffa9463","system_id":"levelo_inurba_marseille","lat":43.33606,"lon":5.41034,"is_reserved":false,"is_disabled":false,"rental_uris":{"android":"levelo://app?vid=869a0222-35e2-418d-b0cf-22817ffa9463","ios":"levelo://app?vid=869a0222-35e2-418d-b0cf-22817ffa9463"},"vehicle_type_id":"4","last_reported":1749942602,"current_range_meters":12800,"station_id":"ce4bhqh2rcd13ifvqhmg","pricing_plan_id":"cebpf4jnsgd1na2vs0mg"},{"bike_id":"5c21e5b2-da0b-4690-b93f-46bdbdfa01b9","system_id":"levelo_inurba_marseille","lat":43.30253,"lon":5.40052,"is_reserved":false,"is_disabled":false,"rental_uris":{"android":"levelo://app?vid=5c21e5b2-da0b-4690-b93f-46bdbdfa01b9","ios":"levelo://app?vid=5c21e5b2-da0b-4690-b93f-46bdbdfa01b9"},"vehicle_type_id":"4","last_reported":1749942602,"current_range_meters":13600,"station_id":"ce4bgvh2rcd13ifvqcs0","pricing_plan_id":"cebpf4jnsgd1na2vs0mg"},{"bike_id":"ff9c28e2-9979-4729-ad77-87f98ebe918c","system_id":"levelo_inurba_marseille","lat":43.28971,"lon":5.37833,"is_reserved":false,"is_disabled":false,"rental_uris":{"android":"levelo://app?vid=ff9c28e2-9979-4729-ad77-87f98ebe918c","ios":"levelo://app?vid=ff9c28e2-9979-4729-ad77-87f98ebe918c"},"vehicle_type_id":"4","last_reported":1749942602,"current_range_meters":13600,"station_id":"ce4bh9p2rcd13ifvqed0","pricing_plan_id":"cebpf4jnsgd1na2vs0mg"},{"bike_id":"3ba53083-f560-4fb5-b3cc-01a71156c6ba","system_id":"levelo_inurba_marseille","lat":43.23189,"lon":5.35554,"is_reserved":false,"is_disabled":false,"rental_uris":{"android":"levelo://app?vid=3ba53083-f560-4fb5-b3cc-01a71156c6ba","ios":"levelo://app?vid=3ba53083-f560-4fb5-b3cc-01a71156c6ba"},"vehicle_type_id":"4","last_reported":1749942602,"current_range_meters":13600,"station_id":"ce4bhu92rcd13ifvqi70","pricing_plan_id":"cebpf4jnsgd1na2vs0mg"},{"bike_id":"2f9f4971-4f64-4c22-8036-6a29388d563c","system_id":"levelo_inurba_marseille","lat":43.29617,"lon":5.37721,"is_reserved":false,"is_disabled":false,"rental_uris":{"android":"levelo://app?vid=2f9f4971-4f64-4c22-8036-6a29388d563c","ios":"levelo://app?vid=2f9f4971-4f64-4c22-8036-6a29388d563c"},"vehicle_type_id":"4","last_reported":1749942602,"current_range_meters":14000,"station_id":"ce4bgi92rcd13ifvqb90","pricing_plan_id":"cebpf4jnsgd1na2vs0mg"},{"bike_id":"cb295e70-c6fa-4712-99cd-66c188db954d","system_id":"levelo_inurba_marseille","lat":43.31357,"lon":5.38497,"is_reserved":false,"is_disabled":false,"rental_uris":{"android":"levelo://app?vid=cb295e70-c6fa-4712-99cd-66c188db954d","ios":"levelo://app?vid=cb295e70-c6fa-4712-99cd-66c188db954d"},"vehicle_type_id":"4","last_reported":1749942602,"current_range_meters":14000,"station_id":"ce4bgt92rcd13ifvqcf0","pricing_plan_id":"cebpf4jnsgd1na2vs0mg"},{"bike_id":"4ec18ca3-48e4-4983-a048-825e57e3490f","system_id":"levelo_inurba_marseille","lat":43.29566,"lon":5.39969,"is_reserved":false,"is_disabled":false,"rental_uris":{"android":"levelo://app?vid=4ec18ca3-48e4-4983-a048-825e57e3490f","ios":"levelo://app?vid=4ec18ca3-48e4-4983-a048-825e57e3490f"},"vehicle_type_id":"4","last_reported":1749942602,"current_range_meters":14000,"station_id":"ce4bh312rcd13ifvqdj0","pricing_plan_id":"cebpf4jnsgd1na2vs0mg"},{"bike_id":"dc7b5cec-79da-4053-83dc-33decaaafb85","system_id":"levelo_inurba_marseille","lat":43.29437,"lon":5.39753,"is_reserved":false,"is_disabled":false,"rental_uris":{"android":"levelo://app?vid=dc7b5cec-79da-4053-83dc-33decaaafb85","ios":"levelo://app?vid=dc7b5cec-79da-4053-83dc-33decaaafb85"},"vehicle_type_id":"4","last_reported":1749942602,"current_range_meters":14000,"station_id":"ce4bh3h2rcd13ifvqdo0","pricing_plan_id":"cebpf4jnsgd1na2vs0mg"},{"bike_id":"b3f8d6a0-7082-4c22-9f20-414b32dd61c5","system_id":"levelo_inurba_marseille","lat":43.25008,"lon":5.3897,"is_reserved":false,"is_disabled":false,"rental_uris":{"android":"levelo://app?vid=b3f8d6a0-7082-4c22-9f20-414b32dd61c5","ios":"levelo://app?vid=b3f8d6a0-7082-4c22-9f20-414b32dd61c5"},"vehicle_type_id":"4","last_reported":1749942602,"current_range_meters":14000,"station_id":"ce4bhgp2rcd13ifvqfd0","pricing_plan_id":"cebpf4jnsgd1na2vs0mg"},{"bike_id":"c515dfd2-b009-4a32-a947-de6adf20e33b","system_id":"levelo_inurba_marseille","lat":43.30421,"lon":5.4128,"is_reserved":false,"is_disabled":false,"rental_uris":{"android":"levelo://app?vid=c515dfd2-b009-4a32-a947-de6adf20e33b","ios":"levelo://app?vid=c515dfd2-b009-4a32-a947-de6adf20e33b"},"vehicle_type_id":"4","last_reported":1749942602,"current_range_meters":14000,"station_id":"ce4bhop2rcd13ifvqh8g","pricing_plan_id":"cebpf4jnsgd1na2vs0mg"},{"bike_id":"dc3a672d-f06d-40eb-9b9a-8ab2fda159f0","system_id":"levelo_inurba_marseille","lat":43.29095,"lon":5.38147,"is_reserved":false,"is_disabled":false,"rental_uris":{"android":"levelo://app?vid=dc3a672d-f06d-40eb-9b9a-8ab2fda159f0","ios":"levelo://app?vid=dc3a672d-f06d-40eb-9b9a-8ab2fda159f0"},"vehicle_type_id":"4","last_reported":1749942602,"current_range_meters":14400,"station_id":"ce4bh512rcd13ifvqe2g","pricing_plan_id":"cebpf4jnsgd1na2vs0mg"},{"bike_id":"9137e496-b1b2-4e17-af66-a72384857ce9","system_id":"levelo_inurba_marseille","lat":43.28114,"lon":5.37848,"is_reserved":false,"is_disabled":false,"rental_uris":{"android":"levelo://app?vid=9137e496-b1b2-4e17-af66-a72384857ce9","ios":"levelo://app?vid=9137e496-b1b2-4e17-af66-a72384857ce9"},"vehicle_type_id":"4","last_reported":1749942602,"current_range_meters":14400,"station_id":"ce4bha12rcd13ifvqee0","pricing_plan_id":"cebpf4jnsgd1na2vs0mg"},{"bike_id":"0ffaeec4-e03c-4b6d-a1b2-64c4a318c31b","system_id":"levelo_inurba_marseille","lat":43.28699,"lon":5.39988,"is_reserved":false,"is_disabled":false,"rental_uris":{"android":"levelo://app?vid=0ffaeec4-e03c-4b6d-a1b2-64c4a318c31b","ios":"levelo://app?vid=0ffaeec4-e03c-4b6d-a1b2-64c4a318c31b"},"vehicle_type_id":"4","last_reported":1749942602,"current_range_meters":14400,"station_id":"ce4bho92rcd13ifvqh3g","pricing_plan_id":"cebpf4jnsgd1na2vs0mg"},{"bike_id":"a8283606-6fdf-49b2-991a-62bc6fc9988a","system_id":"levelo_inurba_marseille","lat":43.22511,"lon":5.34758,"is_reserved":false,"is_disabled":false,"rental_uris":{"android":"levelo://app?vid=a8283606-6fdf-49b2-991a-62bc6fc9988a","ios":"levelo://app?vid=a8283606-6fdf-49b2-991a-62bc6fc9988a"},"vehicle_type_id":"4","last_reported":1749942602,"current_range_meters":14400,"station_id":"st_cvj5dfep6f1abm77gieg","pricing_plan_id":"cebpf4jnsgd1na2vs0mg"},{"bike_id":"c8cfe1c9-4383-4994-ae84-611684a80a07","system_id":"levelo_inurba_marseille","lat":43.28033,"lon":5.36951,"is_reserved":false,"is_disabled":false,"rental_uris":{"android":"levelo://app?vid=c8cfe1c9-4383-4994-ae84-611684a80a07","ios":"levelo://app?vid=c8cfe1c9-4383-4994-ae84-611684a80a07"},"vehicle_type_id":"4","last_reported":1749942602,"current_range_meters":14800,"station_id":"ce4bha12rcd13ifvqef0","pricing_plan_id":"cebpf4jnsgd1na2vs0mg"},{"bike_id":"bacee95f-1e37-48fc-b0ea-777c7bb416d2","system_id":"levelo_inurba_marseille","lat":43.279053,"lon":5.380039,"is_reserved":false,"is_disabled":false,"rental_uris":{"android":"levelo://app?vid=bacee95f-1e37-48fc-b0ea-777c7bb416d2","ios":"levelo://app?vid=bacee95f-1e37-48fc-b0ea-777c7bb416d2"},"vehicle_type_id":"4","last_reported":1749942602,"current_range_meters":14800,"station_id":"ce4bhf92rcd13ifvqf50","pricing_plan_id":"cebpf4jnsgd1na2vs0mg"},{"bike_id":"dc1e1319-b0f9-4bfb-9dd0-07f4d0186ec2","system_id":"levelo_inurba_marseille","lat":43.26209,"lon":5.40464,"is_reserved":false,"is_disabled":false,"rental_uris":{"android":"levelo://app?vid=dc1e1319-b0f9-4bfb-9dd0-07f4d0186ec2","ios":"levelo://app?vid=dc1e1319-b0f9-4bfb-9dd0-07f4d0186ec2"},"vehicle_type_id":"4","last_reported":1749942602,"current_range_meters":14800,"station_id":"ce4bhmh2rcd13ifvqgmg","pricing_plan_id":"cebpf4jnsgd1na2vs0mg"},{"bike_id":"f4671957-0f8a-4a0a-8f9c-e6c969ba90c9","system_id":"levelo_inurba_marseille","lat":43.2815,"lon":5.42646,"is_reserved":false,"is_disabled":false,"rental_uris":{"android":"levelo://app?vid=f4671957-0f8a-4a0a-8f9c-e6c969ba90c9","ios":"levelo://app?vid=f4671957-0f8a-4a0a-8f9c-e6c969ba90c9"},"vehicle_type_id":"4","last_reported":1749942602,"current_range_meters":14800,"station_id":"ce4bhnh2rcd13ifvqgug","pricing_plan_id":"cebpf4jnsgd1na2vs0mg"},{"bike_id":"fc7b21c8-0f5d-4631-bcab-bd35a4a72cd6","system_id":"levelo_inurba_marseille","lat":43.29549,"lon":5.42295,"is_reserved":false,"is_disabled":false,"rental_uris":{"android":"levelo://app?vid=fc7b21c8-0f5d-4631-bcab-bd35a4a72cd6","ios":"levelo://app?vid=fc7b21c8-0f5d-4631-bcab-bd35a4a72cd6"},"vehicle_type_id":"4","last_reported":1749942602,"current_range_meters":14800,"station_id":"ce4bhph2rcd13ifvqhdg","pricing_plan_id":"cebpf4jnsgd1na2vs0mg"},{"bike_id":"999da278-5307-4e03-a984-e6ea40b1e299","system_id":"levelo_inurba_marseille","lat":43.29579,"lon":5.38179,"is_reserved":false,"is_disabled":false,"rental_uris":{"android":"levelo://app?vid=999da278-5307-4e03-a984-e6ea40b1e299","ios":"levelo://app?vid=999da278-5307-4e03-a984-e6ea40b1e299"},"vehicle_type_id":"4","last_reported":1749942602,"current_range_meters":15200,"station_id":"","pricing_plan_id":"cebpf4jnsgd1na2vs0mg"},{"bike_id":"4aea0af7-bf24-4e87-b71f-3bf5a4e07cb0","system_id":"levelo_inurba_marseille","lat":43.2519,"lon":5.42205,"is_reserved":false,"is_disabled":false,"rental_uris":{"android":"levelo://app?vid=4aea0af7-bf24-4e87-b71f-3bf5a4e07cb0","ios":"levelo://app?vid=4aea0af7-bf24-4e87-b71f-3bf5a4e07cb0"},"vehicle_type_id":"4","last_reported":1749942602,"current_range_meters":15200,"station_id":"","pricing_plan_id":"cebpf4jnsgd1na2vs0mg"},{"bike_id":"82e60a7c-618f-42a6-88ba-e5bdb42b1470","system_id":"levelo_inurba_marseille","lat":43.26581,"lon":5.39,"is_reserved":false,"is_disabled":false,"rental_uris":{"android":"levelo://app?vid=82e60a7c-618f-42a6-88ba-e5bdb42b1470","ios":"levelo://app?vid=82e60a7c-618f-42a6-88ba-e5bdb42b1470"},"vehicle_type_id":"4","last_reported":1749942602,"current_range_meters":15200,"station_id":"ce4bhe12rcd13ifvqf30","pricing_plan_id":"cebpf4jnsgd1na2vs0mg"},{"bike_id":"3a95f8e3-09c1-4acd-b275-cd2e9d48d424","system_id":"levelo_inurba_marseille","lat":43.27919,"lon":5.39585,"is_reserved":false,"is_disabled":false,"rental_uris":{"android":"levelo://app?vid=3a95f8e3-09c1-4acd-b275-cd2e9d48d424","ios":"levelo://app?vid=3a95f8e3-09c1-4acd-b275-cd2e9d48d424"},"vehicle_type_id":"4","last_reported":1749942602,"current_range_meters":15200,"station_id":"ce4bhf92rcd13ifvqf40","pricing_plan_id":"cebpf4jnsgd1na2vs0mg"},{"bike_id":"a5ee4afe-a8c2-43ea-a8c6-a0a152038509","system_id":"levelo_inurba_marseille","lat":43.24995,"lon":5.38951,"is_reserved":false,"is_disabled":false,"rental_uris":{"android":"levelo://app?vid=a5ee4afe-a8c2-43ea-a8c6-a0a152038509","ios":"levelo://app?vid=a5ee4afe-a8c2-43ea-a8c6-a0a152038509"},"vehicle_type_id":"4","last_reported":1749942602,"current_range_meters":15200,"station_id":"ce4bhgp2rcd13ifvqfd0","pricing_plan_id":"cebpf4jnsgd1na2vs0mg"},{"bike_id":"923c0d10-0896-4292-b996-ed13cd7a062d","system_id":"levelo_inurba_marseille","lat":43.26225,"lon":5.40456,"is_reserved":false,"is_disabled":false,"rental_uris":{"android":"levelo://app?vid=923c0d10-0896-4292-b996-ed13cd7a062d","ios":"levelo://app?vid=923c0d10-0896-4292-b996-ed13cd7a062d"},"vehicle_type_id":"4","last_reported":1749942602,"current_range_meters":15200,"station_id":"ce4bhmh2rcd13ifvqgmg","pricing_plan_id":"cebpf4jnsgd1na2vs0mg"},{"bike_id":"5573bcde-5770-4925-a762-891e280a65f1","system_id":"levelo_inurba_marseille","lat":43.31512,"lon":5.37306,"is_reserved":false,"is_disabled":false,"rental_uris":{"android":"levelo://app?vid=5573bcde-5770-4925-a762-891e280a65f1","ios":"levelo://app?vid=5573bcde-5770-4925-a762-891e280a65f1"},"vehicle_type_id":"4","last_reported":1749942602,"current_range_meters":16000,"station_id":"ce4bgt12rcd13ifvqcd0","pricing_plan_id":"cebpf4jnsgd1na2vs0mg"},{"bike_id":"c6228c1a-1951-41b0-9fb5-a65f4dc8bda1","system_id":"levelo_inurba_marseille","lat":43.29285,"lon":5.40116,"is_reserved":false,"is_disabled":false,"rental_uris":{"android":"levelo://app?vid=c6228c1a-1951-41b0-9fb5-a65f4dc8bda1","ios":"levelo://app?vid=c6228c1a-1951-41b0-9fb5-a65f4dc8bda1"},"vehicle_type_id":"4","last_reported":1749942602,"current_range_meters":16000,"station_id":"ce4bh312rcd13ifvqdk0","pricing_plan_id":"cebpf4jnsgd1na2vs0mg"},{"bike_id":"bfc7e323-870b-4776-881e-03a67f21d550","system_id":"levelo_inurba_marseille","lat":43.28409,"lon":5.37512,"is_reserved":false,"is_disabled":false,"rental_uris":{"android":"levelo://app?vid=bfc7e323-870b-4776-881e-03a67f21d550","ios":"levelo://app?vid=bfc7e323-870b-4776-881e-03a67f21d550"},"vehicle_type_id":"4","last_reported":1749942602,"current_range_meters":16000,"station_id":"ce4bh412rcd13ifvqds0","pricing_plan_id":"cebpf4jnsgd1na2vs0mg"},{"bike_id":"e6b25393-95ce-4474-87b5-3ad21856e99f","system_id":"levelo_inurba_marseille","lat":43.284824,"lon":5.384154,"is_reserved":false,"is_disabled":false,"rental_uris":{"android":"levelo://app?vid=e6b25393-95ce-4474-87b5-3ad21856e99f","ios":"levelo://app?vid=e6b25393-95ce-4474-87b5-3ad21856e99f"},"vehicle_type_id":"4","last_reported":1749942602,"current_range_meters":16000,"station_id":"ce4bh512rcd13ifvqe3g","pricing_plan_id":"cebpf4jnsgd1na2vs0mg"},{"bike_id":"e5b62466-ff9e-49e2-bd3e-be88bf15cda8","system_id":"levelo_inurba_marseille","lat":43.21184,"lon":5.35082,"is_reserved":false,"is_disabled":false,"rental_uris":{"android":"levelo://app?vid=e5b62466-ff9e-49e2-bd3e-be88bf15cda8","ios":"levelo://app?vid=e5b62466-ff9e-49e2-bd3e-be88bf15cda8"},"vehicle_type_id":"4","last_reported":1749942602,"current_range_meters":16000,"station_id":"st_cvj6sg6p6f1abm77japg","pricing_plan_id":"cebpf4jnsgd1na2vs0mg"},{"bike_id":"2319ce10-a51c-42ad-ad50-827b68e4f300","system_id":"levelo_inurba_marseille","lat":43.297167,"lon":5.380263,"is_reserved":false,"is_disabled":false,"rental_uris":{"android":"levelo://app?vid=2319ce10-a51c-42ad-ad50-827b68e4f300","ios":"levelo://app?vid=2319ce10-a51c-42ad-ad50-827b68e4f300"},"vehicle_type_id":"4","last_reported":1749942602,"current_range_meters":16800,"station_id":"","pricing_plan_id":"cebpf4jnsgd1na2vs0mg"},{"bike_id":"856ac60b-343f-4dad-a856-20e8881aec56","system_id":"levelo_inurba_marseille","lat":43.300874,"lon":5.390791,"is_reserved":false,"is_disabled":false,"rental_uris":{"android":"levelo://app?vid=856ac60b-343f-4dad-a856-20e8881aec56","ios":"levelo://app?vid=856ac60b-343f-4dad-a856-20e8881aec56"},"vehicle_type_id":"4","last_reported":1749942602,"current_range_meters":16800,"station_id":"ce4bh192rcd13ifvqdb0","pricing_plan_id":"cebpf4jnsgd1na2vs0mg"},{"bike_id":"6a9b7a23-0b3b-4503-b16f-b8e7322c49be","system_id":"levelo_inurba_marseille","lat":43.29276,"lon":5.40121,"is_reserved":false,"is_disabled":false,"rental_uris":{"android":"levelo://app?vid=6a9b7a23-0b3b-4503-b16f-b8e7322c49be","ios":"levelo://app?vid=6a9b7a23-0b3b-4503-b16f-b8e7322c49be"},"vehicle_type_id":"4","last_reported":1749942602,"current_range_meters":16800,"station_id":"ce4bh312rcd13ifvqdk0","pricing_plan_id":"cebpf4jnsgd1na2vs0mg"},{"bike_id":"1b95dd9b-6f52-44a4-af3a-7d6a65e50199","system_id":"levelo_inurba_marseille","lat":43.27892,"lon":5.38002,"is_reserved":false,"is_disabled":false,"rental_uris":{"android":"levelo://app?vid=1b95dd9b-6f52-44a4-af3a-7d6a65e50199","ios":"levelo://app?vid=1b95dd9b-6f52-44a4-af3a-7d6a65e50199"},"vehicle_type_id":"4","last_reported":1749942602,"current_range_meters":16800,"station_id":"ce4bhf92rcd13ifvqf50","pricing_plan_id":"cebpf4jnsgd1na2vs0mg"},{"bike_id":"9e6d838f-f8e6-4902-8cdd-7c766c7443fa","system_id":"levelo_inurba_marseille","lat":43.25015,"lon":5.38946,"is_reserved":false,"is_disabled":false,"rental_uris":{"android":"levelo://app?vid=9e6d838f-f8e6-4902-8cdd-7c766c7443fa","ios":"levelo://app?vid=9e6d838f-f8e6-4902-8cdd-7c766c7443fa"},"vehicle_type_id":"4","last_reported":1749942602,"current_range_meters":16800,"station_id":"ce4bhgp2rcd13ifvqfd0","pricing_plan_id":"cebpf4jnsgd1na2vs0mg"},{"bike_id":"eb1f9d44-bc44-48c8-9994-b8634d2b18ef","system_id":"levelo_inurba_marseille","lat":43.310747,"lon":5.387006,"is_reserved":false,"is_disabled":false,"rental_uris":{"android":"levelo://app?vid=eb1f9d44-bc44-48c8-9994-b8634d2b18ef","ios":"levelo://app?vid=eb1f9d44-bc44-48c8-9994-b8634d2b18ef"},"vehicle_type_id":"4","last_reported":1749942602,"current_range_meters":17200,"station_id":"","pricing_plan_id":"cebpf4jnsgd1na2vs0mg"},{"bike_id":"be2d3750-b555-45bc-b659-68989d46a854","system_id":"levelo_inurba_marseille","lat":43.31366,"lon":5.38494,"is_reserved":false,"is_disabled":false,"rental_uris":{"android":"levelo://app?vid=be2d3750-b555-45bc-b659-68989d46a854","ios":"levelo://app?vid=be2d3750-b555-45bc-b659-68989d46a854"},"vehicle_type_id":"4","last_reported":1749942602,"current_range_meters":17200,"station_id":"ce4bgt92rcd13ifvqcf0","pricing_plan_id":"cebpf4jnsgd1na2vs0mg"},{"bike_id":"9a7d0435-8192-45a1-a100-e840d18be92a","system_id":"levelo_inurba_marseille","lat":43.31361,"lon":5.38491,"is_reserved":false,"is_disabled":false,"rental_uris":{"android":"levelo://app?vid=9a7d0435-8192-45a1-a100-e840d18be92a","ios":"levelo://app?vid=9a7d0435-8192-45a1-a100-e840d18be92a"},"vehicle_type_id":"4","last_reported":1749942602,"current_range_meters":17200,"station_id":"ce4bgt92rcd13ifvqcf0","pricing_plan_id":"cebpf4jnsgd1na2vs0mg"},{"bike_id":"bfbc50fd-996e-428a-8e17-5efb2cb18647","system_id":"levelo_inurba_marseille","lat":43.28101,"lon":5.37835,"is_reserved":false,"is_disabled":false,"rental_uris":{"android":"levelo://app?vid=bfbc50fd-996e-428a-8e17-5efb2cb18647","ios":"levelo://app?vid=bfbc50fd-996e-428a-8e17-5efb2cb18647"},"vehicle_type_id":"4","last_reported":1749942602,"current_range_meters":17200,"station_id":"ce4bha12rcd13ifvqee0","pricing_plan_id":"cebpf4jnsgd1na2vs0mg"},{"bike_id":"c5ba29cb-cede-43d7-9de9-185392539853","system_id":"levelo_inurba_marseille","lat":43.26945,"lon":5.38645,"is_reserved":false,"is_disabled":false,"rental_uris":{"android":"levelo://app?vid=c5ba29cb-cede-43d7-9de9-185392539853","ios":"levelo://app?vid=c5ba29cb-cede-43d7-9de9-185392539853"},"vehicle_type_id":"4","last_reported":1749942602,"current_range_meters":17200,"station_id":"ce4bhh92rcd13ifvqfh0","pricing_plan_id":"cebpf4jnsgd1na2vs0mg"},{"bike_id":"af54e57f-f161-4317-9bd4-1d43f8702955","system_id":"levelo_inurba_marseille","lat":43.23195,"lon":5.35567,"is_reserved":false,"is_disabled":false,"rental_uris":{"android":"levelo://app?vid=af54e57f-f161-4317-9bd4-1d43f8702955","ios":"levelo://app?vid=af54e57f-f161-4317-9bd4-1d43f8702955"},"vehicle_type_id":"4","last_reported":1749942602,"current_range_meters":17200,"station_id":"ce4bhu92rcd13ifvqi70","pricing_plan_id":"cebpf4jnsgd1na2vs0mg"},{"bike_id":"83c0c99d-9206-4f6f-8bd2-edceb1772c91","system_id":"levelo_inurba_marseille","lat":43.26679,"lon":5.38264,"is_reserved":false,"is_disabled":false,"rental_uris":{"android":"levelo://app?vid=83c0c99d-9206-4f6f-8bd2-edceb1772c91","ios":"levelo://app?vid=83c0c99d-9206-4f6f-8bd2-edceb1772c91"},"vehicle_type_id":"4","last_reported":1749942602,"current_range_meters":17600,"station_id":"ce4bhg92rcd13ifvqf90","pricing_plan_id":"cebpf4jnsgd1na2vs0mg"},{"bike_id":"28bda757-7ced-46fa-be0c-03b8c45a2e07","system_id":"levelo_inurba_marseille","lat":43.27812,"lon":5.40722,"is_reserved":false,"is_disabled":false,"rental_uris":{"android":"levelo://app?vid=28bda757-7ced-46fa-be0c-03b8c45a2e07","ios":"levelo://app?vid=28bda757-7ced-46fa-be0c-03b8c45a2e07"},"vehicle_type_id":"4","last_reported":1749942602,"current_range_meters":17600,"station_id":"ce4bhnh2rcd13ifvqgtg","pricing_plan_id":"cebpf4jnsgd1na2vs0mg"},{"bike_id":"15ca4f83-8df1-4b73-bad2-b0f1f9fd9e02","system_id":"levelo_inurba_marseille","lat":43.23049,"lon":5.35519,"is_reserved":false,"is_disabled":false,"rental_uris":{"android":"levelo://app?vid=15ca4f83-8df1-4b73-bad2-b0f1f9fd9e02","ios":"levelo://app?vid=15ca4f83-8df1-4b73-bad2-b0f1f9fd9e02"},"vehicle_type_id":"4","last_reported":1749942602,"current_range_meters":17600,"station_id":"cpo3342slgdg3j2ifvpg","pricing_plan_id":"cebpf4jnsgd1na2vs0mg"},{"bike_id":"a8640db0-fab0-4ce0-aa63-010370d12726","system_id":"levelo_inurba_marseille","lat":43.29662,"lon":5.37661,"is_reserved":false,"is_disabled":false,"rental_uris":{"android":"levelo://app?vid=a8640db0-fab0-4ce0-aa63-010370d12726","ios":"levelo://app?vid=a8640db0-fab0-4ce0-aa63-010370d12726"},"vehicle_type_id":"4","last_reported":1749942602,"current_range_meters":18000,"station_id":"","pricing_plan_id":"cebpf4jnsgd1na2vs0mg"},{"bike_id":"bc4d8edb-92bd-45fd-aee3-77a8016e3901","system_id":"levelo_inurba_marseille","lat":43.30801,"lon":5.38151,"is_reserved":false,"is_disabled":false,"rental_uris":{"android":"levelo://app?vid=bc4d8edb-92bd-45fd-aee3-77a8016e3901","ios":"levelo://app?vid=bc4d8edb-92bd-45fd-aee3-77a8016e3901"},"vehicle_type_id":"4","last_reported":1749942602,"current_range_meters":18000,"station_id":"ce4bgt12rcd13ifvqce0","pricing_plan_id":"cebpf4jnsgd1na2vs0mg"},{"bike_id":"2fb8bde0-3041-4420-82f5-d8a3e9394c5c","system_id":"levelo_inurba_marseille","lat":43.27919,"lon":5.39577,"is_reserved":false,"is_disabled":false,"rental_uris":{"android":"levelo://app?vid=2fb8bde0-3041-4420-82f5-d8a3e9394c5c","ios":"levelo://app?vid=2fb8bde0-3041-4420-82f5-d8a3e9394c5c"},"vehicle_type_id":"4","last_reported":1749942602,"current_range_meters":18000,"station_id":"ce4bhf92rcd13ifvqf40","pricing_plan_id":"cebpf4jnsgd1na2vs0mg"},{"bike_id":"cb2cd33c-a3fa-42d7-8089-fa160fb317fd","system_id":"levelo_inurba_marseille","lat":43.24676,"lon":5.38152,"is_reserved":false,"is_disabled":false,"rental_uris":{"android":"levelo://app?vid=cb2cd33c-a3fa-42d7-8089-fa160fb317fd","ios":"levelo://app?vid=cb2cd33c-a3fa-42d7-8089-fa160fb317fd"},"vehicle_type_id":"4","last_reported":1749942602,"current_range_meters":18000,"station_id":"ce4bhih2rcd13ifvqfr0","pricing_plan_id":"cebpf4jnsgd1na2vs0mg"},{"bike_id":"cae08f8a-9511-476d-9ad2-fc5efb61a8eb","system_id":"levelo_inurba_marseille","lat":43.21549,"lon":5.34743,"is_reserved":false,"is_disabled":false,"rental_uris":{"android":"levelo://app?vid=cae08f8a-9511-476d-9ad2-fc5efb61a8eb","ios":"levelo://app?vid=cae08f8a-9511-476d-9ad2-fc5efb61a8eb"},"vehicle_type_id":"4","last_reported":1749942602,"current_range_meters":18800,"station_id":"","pricing_plan_id":"cebpf4jnsgd1na2vs0mg"},{"bike_id":"c544f41c-f54d-4fcd-a8b6-97ab98a672c6","system_id":"levelo_inurba_marseille","lat":43.33041,"lon":5.42747,"is_reserved":false,"is_disabled":false,"rental_uris":{"android":"levelo://app?vid=c544f41c-f54d-4fcd-a8b6-97ab98a672c6","ios":"levelo://app?vid=c544f41c-f54d-4fcd-a8b6-97ab98a672c6"},"vehicle_type_id":"4","last_reported":1749942602,"current_range_meters":18800,"station_id":"","pricing_plan_id":"cebpf4jnsgd1na2vs0mg"},{"bike_id":"baa307a3-b6a6-4e57-a62b-95e038f4b745","system_id":"levelo_inurba_marseille","lat":43.31705,"lon":5.37744,"is_reserved":false,"is_disabled":false,"rental_uris":{"android":"levelo://app?vid=baa307a3-b6a6-4e57-a62b-95e038f4b745","ios":"levelo://app?vid=baa307a3-b6a6-4e57-a62b-95e038f4b745"},"vehicle_type_id":"4","last_reported":1749942602,"current_range_meters":18800,"station_id":"ce4bgth2rcd13ifvqch0","pricing_plan_id":"cebpf4jnsgd1na2vs0mg"},{"bike_id":"36538ebf-cbf1-4cbd-a6a2-67cd6c76a6f2","system_id":"levelo_inurba_marseille","lat":43.30241,"lon":5.40043,"is_reserved":false,"is_disabled":false,"rental_uris":{"android":"levelo://app?vid=36538ebf-cbf1-4cbd-a6a2-67cd6c76a6f2","ios":"levelo://app?vid=36538ebf-cbf1-4cbd-a6a2-67cd6c76a6f2"},"vehicle_type_id":"4","last_reported":1749942602,"current_range_meters":18800,"station_id":"ce4bgvh2rcd13ifvqcs0","pricing_plan_id":"cebpf4jnsgd1na2vs0mg"},{"bike_id":"84e05728-d9fa-49fe-9e8e-6c86f74ed4e9","system_id":"levelo_inurba_marseille","lat":43.28837,"lon":5.393,"is_reserved":false,"is_disabled":false,"rental_uris":{"android":"levelo://app?vid=84e05728-d9fa-49fe-9e8e-6c86f74ed4e9","ios":"levelo://app?vid=84e05728-d9fa-49fe-9e8e-6c86f74ed4e9"},"vehicle_type_id":"4","last_reported":1749942602,"current_range_meters":18800,"station_id":"ce4bh2p2rcd13ifvqdi0","pricing_plan_id":"cebpf4jnsgd1na2vs0mg"},{"bike_id":"96e4068a-df82-4a43-8c83-fe4dce4fac3f","system_id":"levelo_inurba_marseille","lat":43.30412,"lon":5.41275,"is_reserved":false,"is_disabled":false,"rental_uris":{"android":"levelo://app?vid=96e4068a-df82-4a43-8c83-fe4dce4fac3f","ios":"levelo://app?vid=96e4068a-df82-4a43-8c83-fe4dce4fac3f"},"vehicle_type_id":"4","last_reported":1749942602,"current_range_meters":18800,"station_id":"ce4bhop2rcd13ifvqh8g","pricing_plan_id":"cebpf4jnsgd1na2vs0mg"},{"bike_id":"51c5e4a5-dcff-45b1-b7f9-5daefba3310a","system_id":"levelo_inurba_marseille","lat":43.3361,"lon":5.41028,"is_reserved":false,"is_disabled":false,"rental_uris":{"android":"levelo://app?vid=51c5e4a5-dcff-45b1-b7f9-5daefba3310a","ios":"levelo://app?vid=51c5e4a5-dcff-45b1-b7f9-5daefba3310a"},"vehicle_type_id":"4","last_reported":1749942602,"current_range_meters":18800,"station_id":"ce4bhqh2rcd13ifvqhmg","pricing_plan_id":"cebpf4jnsgd1na2vs0mg"},{"bike_id":"fad5d127-62c8-4126-9b0d-15b6b7ce3484","system_id":"levelo_inurba_marseille","lat":43.273777,"lon":5.362576,"is_reserved":false,"is_disabled":false,"rental_uris":{"android":"levelo://app?vid=fad5d127-62c8-4126-9b0d-15b6b7ce3484","ios":"levelo://app?vid=fad5d127-62c8-4126-9b0d-15b6b7ce3484"},"vehicle_type_id":"4","last_reported":1749942602,"current_range_meters":19200,"station_id":"","pricing_plan_id":"cebpf4jnsgd1na2vs0mg"},{"bike_id":"38e08ec6-738b-4a04-a092-dec10c6891d3","system_id":"levelo_inurba_marseille","lat":43.26877,"lon":5.40679,"is_reserved":false,"is_disabled":false,"rental_uris":{"android":"levelo://app?vid=38e08ec6-738b-4a04-a092-dec10c6891d3","ios":"levelo://app?vid=38e08ec6-738b-4a04-a092-dec10c6891d3"},"vehicle_type_id":"4","last_reported":1749942602,"current_range_meters":19200,"station_id":"","pricing_plan_id":"cebpf4jnsgd1na2vs0mg"},{"bike_id":"b2757b00-e1cc-4f8e-86cc-a53dfd57c9d1","system_id":"levelo_inurba_marseille","lat":43.29596,"lon":5.38122,"is_reserved":false,"is_disabled":false,"rental_uris":{"android":"levelo://app?vid=b2757b00-e1cc-4f8e-86cc-a53dfd57c9d1","ios":"levelo://app?vid=b2757b00-e1cc-4f8e-86cc-a53dfd57c9d1"},"vehicle_type_id":"4","last_reported":1749942602,"current_range_meters":19200,"station_id":"ce4bgl12rcd13ifvqbo0","pricing_plan_id":"cebpf4jnsgd1na2vs0mg"},{"bike_id":"93031b25-7546-4c21-86df-c096a6e174fc","system_id":"levelo_inurba_marseille","lat":43.30261,"lon":5.40091,"is_reserved":false,"is_disabled":false,"rental_uris":{"android":"levelo://app?vid=93031b25-7546-4c21-86df-c096a6e174fc","ios":"levelo://app?vid=93031b25-7546-4c21-86df-c096a6e174fc"},"vehicle_type_id":"4","last_reported":1749942602,"current_range_meters":19200,"station_id":"ce4bgvh2rcd13ifvqcs0","pricing_plan_id":"cebpf4jnsgd1na2vs0mg"},{"bike_id":"793aff16-17a3-4144-9b63-d89900475286","system_id":"levelo_inurba_marseille","lat":43.309309,"lon":5.401426,"is_reserved":false,"is_disabled":false,"rental_uris":{"android":"levelo://app?vid=793aff16-17a3-4144-9b63-d89900475286","ios":"levelo://app?vid=793aff16-17a3-4144-9b63-d89900475286"},"vehicle_type_id":"4","last_reported":1749942602,"current_range_meters":19200,"station_id":"ce4bgvp2rcd13ifvqct0","pricing_plan_id":"cebpf4jnsgd1na2vs0mg"},{"bike_id":"a8ed1321-a89f-4464-9127-430c16b94a42","system_id":"levelo_inurba_marseille","lat":43.28699,"lon":5.37392,"is_reserved":false,"is_disabled":false,"rental_uris":{"android":"levelo://app?vid=a8ed1321-a89f-4464-9127-430c16b94a42","ios":"levelo://app?vid=a8ed1321-a89f-4464-9127-430c16b94a42"},"vehicle_type_id":"4","last_reported":1749942602,"current_range_meters":19200,"station_id":"ce4bh3p2rcd13ifvqdq0","pricing_plan_id":"cebpf4jnsgd1na2vs0mg"},{"bike_id":"c92619e9-9f05-45dc-b624-7adfd6b5f0d8","system_id":"levelo_inurba_marseille","lat":43.26557,"lon":5.3904,"is_reserved":false,"is_disabled":false,"rental_uris":{"android":"levelo://app?vid=c92619e9-9f05-45dc-b624-7adfd6b5f0d8","ios":"levelo://app?vid=c92619e9-9f05-45dc-b624-7adfd6b5f0d8"},"vehicle_type_id":"4","last_reported":1749942602,"current_range_meters":19200,"station_id":"ce4bhe12rcd13ifvqf30","pricing_plan_id":"cebpf4jnsgd1na2vs0mg"},{"bike_id":"877ec881-e120-45bd-8e7d-bf2b52475d78","system_id":"levelo_inurba_marseille","lat":43.27667,"lon":5.35746,"is_reserved":false,"is_disabled":false,"rental_uris":{"android":"levelo://app?vid=877ec881-e120-45bd-8e7d-bf2b52475d78","ios":"levelo://app?vid=877ec881-e120-45bd-8e7d-bf2b52475d78"},"vehicle_type_id":"4","last_reported":1749942602,"current_range_meters":19600,"station_id":"","pricing_plan_id":"cebpf4jnsgd1na2vs0mg"},{"bike_id":"9f15a372-129d-4b38-9575-e5dcd339707c","system_id":"levelo_inurba_marseille","lat":43.28696,"lon":5.37392,"is_reserved":false,"is_disabled":false,"rental_uris":{"android":"levelo://app?vid=9f15a372-129d-4b38-9575-e5dcd339707c","ios":"levelo://app?vid=9f15a372-129d-4b38-9575-e5dcd339707c"},"vehicle_type_id":"4","last_reported":1749942602,"current_range_meters":19600,"station_id":"ce4bh3p2rcd13ifvqdq0","pricing_plan_id":"cebpf4jnsgd1na2vs0mg"},{"bike_id":"ad4d588a-8ad5-43e5-bdb4-8b8c781d10aa","system_id":"levelo_inurba_marseille","lat":43.28935,"lon":5.36627,"is_reserved":false,"is_disabled":false,"rental_uris":{"android":"levelo://app?vid=ad4d588a-8ad5-43e5-bdb4-8b8c781d10aa","ios":"levelo://app?vid=ad4d588a-8ad5-43e5-bdb4-8b8c781d10aa"},"vehicle_type_id":"4","last_reported":1749942602,"current_range_meters":19600,"station_id":"ce4bhap2rcd13ifvqek0","pricing_plan_id":"cebpf4jnsgd1na2vs0mg"},{"bike_id":"826f0ca3-e5fc-4cf8-8696-cb1fe62172b3","system_id":"levelo_inurba_marseille","lat":43.21198,"lon":5.35075,"is_reserved":false,"is_disabled":false,"rental_uris":{"android":"levelo://app?vid=826f0ca3-e5fc-4cf8-8696-cb1fe62172b3","ios":"levelo://app?vid=826f0ca3-e5fc-4cf8-8696-cb1fe62172b3"},"vehicle_type_id":"4","last_reported":1749942602,"current_range_meters":20000,"station_id":"","pricing_plan_id":"cebpf4jnsgd1na2vs0mg"},{"bike_id":"9e083605-49ae-4934-8e58-9726e7a2a9cb","system_id":"levelo_inurba_marseille","lat":43.31078,"lon":5.38352,"is_reserved":false,"is_disabled":false,"rental_uris":{"android":"levelo://app?vid=9e083605-49ae-4934-8e58-9726e7a2a9cb","ios":"levelo://app?vid=9e083605-49ae-4934-8e58-9726e7a2a9cb"},"vehicle_type_id":"4","last_reported":1749942602,"current_range_meters":20000,"station_id":"ce4bgv92rcd13ifvqcr0","pricing_plan_id":"cebpf4jnsgd1na2vs0mg"},{"bike_id":"9a424da8-d5d6-4a57-8318-8340cd331a5f","system_id":"levelo_inurba_marseille","lat":43.28403,"lon":5.37513,"is_reserved":false,"is_disabled":false,"rental_uris":{"android":"levelo://app?vid=9a424da8-d5d6-4a57-8318-8340cd331a5f","ios":"levelo://app?vid=9a424da8-d5d6-4a57-8318-8340cd331a5f"},"vehicle_type_id":"4","last_reported":1749942602,"current_range_meters":20000,"station_id":"ce4bh412rcd13ifvqds0","pricing_plan_id":"cebpf4jnsgd1na2vs0mg"},{"bike_id":"86b9d729-d0a1-4afb-83ad-3eacec7c5d0d","system_id":"levelo_inurba_marseille","lat":43.25003,"lon":5.38955,"is_reserved":false,"is_disabled":false,"rental_uris":{"android":"levelo://app?vid=86b9d729-d0a1-4afb-83ad-3eacec7c5d0d","ios":"levelo://app?vid=86b9d729-d0a1-4afb-83ad-3eacec7c5d0d"},"vehicle_type_id":"4","last_reported":1749942602,"current_range_meters":20000,"station_id":"ce4bhgp2rcd13ifvqfd0","pricing_plan_id":"cebpf4jnsgd1na2vs0mg"},{"bike_id":"9b46c789-bce1-4ce2-b46d-e058bd6e8bcc","system_id":"levelo_inurba_marseille","lat":43.2558,"lon":5.38237,"is_reserved":false,"is_disabled":false,"rental_uris":{"android":"levelo://app?vid=9b46c789-bce1-4ce2-b46d-e058bd6e8bcc","ios":"levelo://app?vid=9b46c789-bce1-4ce2-b46d-e058bd6e8bcc"},"vehicle_type_id":"4","last_reported":1749942602,"current_range_meters":20000,"station_id":"ce4bhih2rcd13ifvqfs0","pricing_plan_id":"cebpf4jnsgd1na2vs0mg"},{"bike_id":"8d73ec79-c41f-4c88-b565-4724423261f7","system_id":"levelo_inurba_marseille","lat":43.29956,"lon":5.41323,"is_reserved":false,"is_disabled":false,"rental_uris":{"android":"levelo://app?vid=8d73ec79-c41f-4c88-b565-4724423261f7","ios":"levelo://app?vid=8d73ec79-c41f-4c88-b565-4724423261f7"},"vehicle_type_id":"4","last_reported":1749942602,"current_range_meters":20000,"station_id":"ce4bhp12rcd13ifvqh9g","pricing_plan_id":"cebpf4jnsgd1na2vs0mg"},{"bike_id":"d01b7a03-1602-485d-ad5c-c188f6e24284","system_id":"levelo_inurba_marseille","lat":43.31145,"lon":5.38716,"is_reserved":false,"is_disabled":false,"rental_uris":{"android":"levelo://app?vid=d01b7a03-1602-485d-ad5c-c188f6e24284","ios":"levelo://app?vid=d01b7a03-1602-485d-ad5c-c188f6e24284"},"vehicle_type_id":"4","last_reported":1749942602,"current_range_meters":20400,"station_id":"ce4bgv12rcd13ifvqcp0","pricing_plan_id":"cebpf4jnsgd1na2vs0mg"},{"bike_id":"bc433635-f0b9-49b1-8c8a-518bb6ec31c9","system_id":"levelo_inurba_marseille","lat":43.310687,"lon":5.383533,"is_reserved":false,"is_disabled":false,"rental_uris":{"android":"levelo://app?vid=bc433635-f0b9-49b1-8c8a-518bb6ec31c9","ios":"levelo://app?vid=bc433635-f0b9-49b1-8c8a-518bb6ec31c9"},"vehicle_type_id":"4","last_reported":1749942602,"current_range_meters":20400,"station_id":"ce4bgv92rcd13ifvqcr0","pricing_plan_id":"cebpf4jnsgd1na2vs0mg"},{"bike_id":"9a32d2f6-c260-479b-ab12-82ece30eb590","system_id":"levelo_inurba_marseille","lat":43.28925,"lon":5.38409,"is_reserved":false,"is_disabled":false,"rental_uris":{"android":"levelo://app?vid=9a32d2f6-c260-479b-ab12-82ece30eb590","ios":"levelo://app?vid=9a32d2f6-c260-479b-ab12-82ece30eb590"},"vehicle_type_id":"4","last_reported":1749942602,"current_range_meters":20400,"station_id":"ce4bh612rcd13ifvqe6g","pricing_plan_id":"cebpf4jnsgd1na2vs0mg"},{"bike_id":"dcbf2e6f-7420-4e0a-9811-53354f5a9538","system_id":"levelo_inurba_marseille","lat":43.28716,"lon":5.37928,"is_reserved":false,"is_disabled":false,"rental_uris":{"android":"levelo://app?vid=dcbf2e6f-7420-4e0a-9811-53354f5a9538","ios":"levelo://app?vid=dcbf2e6f-7420-4e0a-9811-53354f5a9538"},"vehicle_type_id":"4","last_reported":1749942602,"current_range_meters":20400,"station_id":"ce4bh9p2rcd13ifvqec0","pricing_plan_id":"cebpf4jnsgd1na2vs0mg"},{"bike_id":"37170334-bea7-424f-a9b4-f6e1976c07f4","system_id":"levelo_inurba_marseille","lat":43.26692,"lon":5.38278,"is_reserved":false,"is_disabled":false,"rental_uris":{"android":"levelo://app?vid=37170334-bea7-424f-a9b4-f6e1976c07f4","ios":"levelo://app?vid=37170334-bea7-424f-a9b4-f6e1976c07f4"},"vehicle_type_id":"4","last_reported":1749942602,"current_range_meters":20400,"station_id":"ce4bhg92rcd13ifvqf90","pricing_plan_id":"cebpf4jnsgd1na2vs0mg"},{"bike_id":"04e17da7-c423-45ab-82d0-1023ac33a411","system_id":"levelo_inurba_marseille","lat":43.25498,"lon":5.37652,"is_reserved":false,"is_disabled":false,"rental_uris":{"android":"levelo://app?vid=04e17da7-c423-45ab-82d0-1023ac33a411","ios":"levelo://app?vid=04e17da7-c423-45ab-82d0-1023ac33a411"},"vehicle_type_id":"4","last_reported":1749942602,"current_range_meters":20400,"station_id":"ce4bhh12rcd13ifvqff0","pricing_plan_id":"cebpf4jnsgd1na2vs0mg"},{"bike_id":"3933ce2c-8ebd-4740-a391-acd15afd5a8b","system_id":"levelo_inurba_marseille","lat":43.27866,"lon":5.39217,"is_reserved":false,"is_disabled":false,"rental_uris":{"android":"levelo://app?vid=3933ce2c-8ebd-4740-a391-acd15afd5a8b","ios":"levelo://app?vid=3933ce2c-8ebd-4740-a391-acd15afd5a8b"},"vehicle_type_id":"4","last_reported":1749942602,"current_range_meters":20400,"station_id":"ce4bhjp2rcd13ifvqga0","pricing_plan_id":"cebpf4jnsgd1na2vs0mg"},{"bike_id":"f4960cb7-92f3-48e4-a1cc-a2b8a605a4b3","system_id":"levelo_inurba_marseille","lat":43.33751,"lon":5.37429,"is_reserved":false,"is_disabled":false,"rental_uris":{"android":"levelo://app?vid=f4960cb7-92f3-48e4-a1cc-a2b8a605a4b3","ios":"levelo://app?vid=f4960cb7-92f3-48e4-a1cc-a2b8a605a4b3"},"vehicle_type_id":"4","last_reported":1749942602,"current_range_meters":20800,"station_id":"","pricing_plan_id":"cebpf4jnsgd1na2vs0mg"},{"bike_id":"e30a9c01-c5b9-4792-a72d-6f953e8559ab","system_id":"levelo_inurba_marseille","lat":43.27617,"lon":5.36108,"is_reserved":false,"is_disabled":false,"rental_uris":{"android":"levelo://app?vid=e30a9c01-c5b9-4792-a72d-6f953e8559ab","ios":"levelo://app?vid=e30a9c01-c5b9-4792-a72d-6f953e8559ab"},"vehicle_type_id":"4","last_reported":1749942602,"current_range_meters":20800,"station_id":"ce4bgj92rcd13ifvqbe0","pricing_plan_id":"cebpf4jnsgd1na2vs0mg"},{"bike_id":"a9fda4f4-b328-47ec-ae9e-3d481b33bf01","system_id":"levelo_inurba_marseille","lat":43.29868,"lon":5.39737,"is_reserved":false,"is_disabled":false,"rental_uris":{"android":"levelo://app?vid=a9fda4f4-b328-47ec-ae9e-3d481b33bf01","ios":"levelo://app?vid=a9fda4f4-b328-47ec-ae9e-3d481b33bf01"},"vehicle_type_id":"4","last_reported":1749942602,"current_range_meters":20800,"station_id":"ce4bh0h2rcd13ifvqd50","pricing_plan_id":"cebpf4jnsgd1na2vs0mg"},{"bike_id":"4b57ef6f-427e-4435-8f8b-8fdd243759a4","system_id":"levelo_inurba_marseille","lat":43.23175,"lon":5.39993,"is_reserved":false,"is_disabled":false,"rental_uris":{"android":"levelo://app?vid=4b57ef6f-427e-4435-8f8b-8fdd243759a4","ios":"levelo://app?vid=4b57ef6f-427e-4435-8f8b-8fdd243759a4"},"vehicle_type_id":"4","last_reported":1749942602,"current_range_meters":20800,"station_id":"ce4bhn12rcd13ifvqgqg","pricing_plan_id":"cebpf4jnsgd1na2vs0mg"},{"bike_id":"37dcf10e-aa78-4d52-bd34-5417e8c6cc62","system_id":"levelo_inurba_marseille","lat":43.23177,"lon":5.39995,"is_reserved":false,"is_disabled":false,"rental_uris":{"android":"levelo://app?vid=37dcf10e-aa78-4d52-bd34-5417e8c6cc62","ios":"levelo://app?vid=37dcf10e-aa78-4d52-bd34-5417e8c6cc62"},"vehicle_type_id":"4","last_reported":1749942602,"current_range_meters":20800,"station_id":"ce4bhn12rcd13ifvqgqg","pricing_plan_id":"cebpf4jnsgd1na2vs0mg"},{"bike_id":"c2b612ed-e451-4a90-a158-fd967ad6f1c3","system_id":"levelo_inurba_marseille","lat":43.31895,"lon":5.40742,"is_reserved":false,"is_disabled":false,"rental_uris":{"android":"levelo://app?vid=c2b612ed-e451-4a90-a158-fd967ad6f1c3","ios":"levelo://app?vid=c2b612ed-e451-4a90-a158-fd967ad6f1c3"},"vehicle_type_id":"4","last_reported":1749942602,"current_range_meters":20800,"station_id":"ce4bhq12rcd13ifvqhig","pricing_plan_id":"cebpf4jnsgd1na2vs0mg"},{"bike_id":"b42b9d95-2fdb-47a3-9ae1-45a1f3f1e97f","system_id":"levelo_inurba_marseille","lat":43.21177,"lon":5.35097,"is_reserved":false,"is_disabled":false,"rental_uris":{"android":"levelo://app?vid=b42b9d95-2fdb-47a3-9ae1-45a1f3f1e97f","ios":"levelo://app?vid=b42b9d95-2fdb-47a3-9ae1-45a1f3f1e97f"},"vehicle_type_id":"4","last_reported":1749942602,"current_range_meters":20800,"station_id":"st_cvj6sg6p6f1abm77japg","pricing_plan_id":"cebpf4jnsgd1na2vs0mg"},{"bike_id":"488e2241-99f3-4fa4-9211-a3b838c6257f","system_id":"levelo_inurba_marseille","lat":43.27415,"lon":5.39407,"is_reserved":false,"is_disabled":false,"rental_uris":{"android":"levelo://app?vid=488e2241-99f3-4fa4-9211-a3b838c6257f","ios":"levelo://app?vid=488e2241-99f3-4fa4-9211-a3b838c6257f"},"vehicle_type_id":"4","last_reported":1749942602,"current_range_meters":21600,"station_id":"ce4bhdp2rcd13ifvqf20","pricing_plan_id":"cebpf4jnsgd1na2vs0mg"},{"bike_id":"e7a74824-bd92-420f-875d-7d4a8ac6f7ed","system_id":"levelo_inurba_marseille","lat":43.28154,"lon":5.42641,"is_reserved":false,"is_disabled":false,"rental_uris":{"android":"levelo://app?vid=e7a74824-bd92-420f-875d-7d4a8ac6f7ed","ios":"levelo://app?vid=e7a74824-bd92-420f-875d-7d4a8ac6f7ed"},"vehicle_type_id":"4","last_reported":1749942602,"current_range_meters":21600,"station_id":"ce4bhnh2rcd13ifvqgug","pricing_plan_id":"cebpf4jnsgd1na2vs0mg"},{"bike_id":"43fb2830-cf9b-43af-ad4e-2df7e068ccf6","system_id":"levelo_inurba_marseille","lat":43.30419,"lon":5.41282,"is_reserved":false,"is_disabled":false,"rental_uris":{"android":"levelo://app?vid=43fb2830-cf9b-43af-ad4e-2df7e068ccf6","ios":"levelo://app?vid=43fb2830-cf9b-43af-ad4e-2df7e068ccf6"},"vehicle_type_id":"4","last_reported":1749942602,"current_range_meters":21600,"station_id":"ce4bhop2rcd13ifvqh8g","pricing_plan_id":"cebpf4jnsgd1na2vs0mg"},{"bike_id":"40113766-7c0a-496b-a35c-c0171664c664","system_id":"levelo_inurba_marseille","lat":43.31357,"lon":5.38496,"is_reserved":false,"is_disabled":false,"rental_uris":{"android":"levelo://app?vid=40113766-7c0a-496b-a35c-c0171664c664","ios":"levelo://app?vid=40113766-7c0a-496b-a35c-c0171664c664"},"vehicle_type_id":"4","last_reported":1749942602,"current_range_meters":22000,"station_id":"ce4bgt92rcd13ifvqcf0","pricing_plan_id":"cebpf4jnsgd1na2vs0mg"},{"bike_id":"b771cc4e-6bf6-4cdf-bc4b-f89402c9e056","system_id":"levelo_inurba_marseille","lat":43.30932,"lon":5.40143,"is_reserved":false,"is_disabled":false,"rental_uris":{"android":"levelo://app?vid=b771cc4e-6bf6-4cdf-bc4b-f89402c9e056","ios":"levelo://app?vid=b771cc4e-6bf6-4cdf-bc4b-f89402c9e056"},"vehicle_type_id":"4","last_reported":1749942602,"current_range_meters":22000,"station_id":"ce4bgvp2rcd13ifvqct0","pricing_plan_id":"cebpf4jnsgd1na2vs0mg"},{"bike_id":"9ad2a6bf-7a27-4b2d-829c-2ad15ebf22b7","system_id":"levelo_inurba_marseille","lat":43.29525,"lon":5.39065,"is_reserved":false,"is_disabled":false,"rental_uris":{"android":"levelo://app?vid=9ad2a6bf-7a27-4b2d-829c-2ad15ebf22b7","ios":"levelo://app?vid=9ad2a6bf-7a27-4b2d-829c-2ad15ebf22b7"},"vehicle_type_id":"4","last_reported":1749942602,"current_range_meters":22000,"station_id":"ce4bh3p2rcd13ifvqdp0","pricing_plan_id":"cebpf4jnsgd1na2vs0mg"},{"bike_id":"fa0f439c-626b-41d6-a5df-4b5fc8749deb","system_id":"levelo_inurba_marseille","lat":43.28715,"lon":5.37937,"is_reserved":false,"is_disabled":false,"rental_uris":{"android":"levelo://app?vid=fa0f439c-626b-41d6-a5df-4b5fc8749deb","ios":"levelo://app?vid=fa0f439c-626b-41d6-a5df-4b5fc8749deb"},"vehicle_type_id":"4","last_reported":1749942602,"current_range_meters":22000,"station_id":"ce4bh9p2rcd13ifvqec0","pricing_plan_id":"cebpf4jnsgd1na2vs0mg"},{"bike_id":"ef32f861-6947-4d11-b1dc-37d1c85d5b49","system_id":"levelo_inurba_marseille","lat":43.27828,"lon":5.39235,"is_reserved":false,"is_disabled":false,"rental_uris":{"android":"levelo://app?vid=ef32f861-6947-4d11-b1dc-37d1c85d5b49","ios":"levelo://app?vid=ef32f861-6947-4d11-b1dc-37d1c85d5b49"},"vehicle_type_id":"4","last_reported":1749942602,"current_range_meters":22000,"station_id":"ce4bhjp2rcd13ifvqga0","pricing_plan_id":"cebpf4jnsgd1na2vs0mg"},{"bike_id":"7aedb84b-9ef9-4167-a4d5-21314131e5ad","system_id":"levelo_inurba_marseille","lat":43.28399,"lon":5.36034,"is_reserved":false,"is_disabled":false,"rental_uris":{"android":"levelo://app?vid=7aedb84b-9ef9-4167-a4d5-21314131e5ad","ios":"levelo://app?vid=7aedb84b-9ef9-4167-a4d5-21314131e5ad"},"vehicle_type_id":"4","last_reported":1749942602,"current_range_meters":22400,"station_id":"","pricing_plan_id":"cebpf4jnsgd1na2vs0mg"},{"bike_id":"5f126747-9e3b-4da1-9592-433d72612709","system_id":"levelo_inurba_marseille","lat":43.30786,"lon":5.38147,"is_reserved":false,"is_disabled":false,"rental_uris":{"android":"levelo://app?vid=5f126747-9e3b-4da1-9592-433d72612709","ios":"levelo://app?vid=5f126747-9e3b-4da1-9592-433d72612709"},"vehicle_type_id":"4","last_reported":1749942602,"current_range_meters":22400,"station_id":"ce4bgt12rcd13ifvqce0","pricing_plan_id":"cebpf4jnsgd1na2vs0mg"},{"bike_id":"1e7cd964-1f7c-435d-b368-27ca5a71a63f","system_id":"levelo_inurba_marseille","lat":43.30946,"lon":5.39041,"is_reserved":false,"is_disabled":false,"rental_uris":{"android":"levelo://app?vid=1e7cd964-1f7c-435d-b368-27ca5a71a63f","ios":"levelo://app?vid=1e7cd964-1f7c-435d-b368-27ca5a71a63f"},"vehicle_type_id":"4","last_reported":1749942602,"current_range_meters":22400,"station_id":"ce4bgup2rcd13ifvqco0","pricing_plan_id":"cebpf4jnsgd1na2vs0mg"},{"bike_id":"77f6c7f9-c480-41e8-bc99-237babb29871","system_id":"levelo_inurba_marseille","lat":43.28671,"lon":5.3866,"is_reserved":false,"is_disabled":false,"rental_uris":{"android":"levelo://app?vid=77f6c7f9-c480-41e8-bc99-237babb29871","ios":"levelo://app?vid=77f6c7f9-c480-41e8-bc99-237babb29871"},"vehicle_type_id":"4","last_reported":1749942602,"current_range_meters":22400,"station_id":"ce4bh492rcd13ifvqdug","pricing_plan_id":"cebpf4jnsgd1na2vs0mg"},{"bike_id":"d173f26c-ad28-43e8-b45e-424f4b0d99c6","system_id":"levelo_inurba_marseille","lat":43.29034,"lon":5.37572,"is_reserved":false,"is_disabled":false,"rental_uris":{"android":"levelo://app?vid=d173f26c-ad28-43e8-b45e-424f4b0d99c6","ios":"levelo://app?vid=d173f26c-ad28-43e8-b45e-424f4b0d99c6"},"vehicle_type_id":"4","last_reported":1749942602,"current_range_meters":22400,"station_id":"ce4bh692rcd13ifvqe90","pricing_plan_id":"cebpf4jnsgd1na2vs0mg"},{"bike_id":"5e5a7597-87fa-419d-b72b-d01b70d3d6df","system_id":"levelo_inurba_marseille","lat":43.275717,"lon":5.384076,"is_reserved":false,"is_disabled":false,"rental_uris":{"android":"levelo://app?vid=5e5a7597-87fa-419d-b72b-d01b70d3d6df","ios":"levelo://app?vid=5e5a7597-87fa-419d-b72b-d01b70d3d6df"},"vehicle_type_id":"4","last_reported":1749942602,"current_range_meters":22400,"station_id":"ce4bhh92rcd13ifvqfi0","pricing_plan_id":"cebpf4jnsgd1na2vs0mg"},{"bike_id":"1335282d-db61-4036-8207-dfc2e9f8c326","system_id":"levelo_inurba_marseille","lat":43.25579,"lon":5.38245,"is_reserved":false,"is_disabled":false,"rental_uris":{"android":"levelo://app?vid=1335282d-db61-4036-8207-dfc2e9f8c326","ios":"levelo://app?vid=1335282d-db61-4036-8207-dfc2e9f8c326"},"vehicle_type_id":"4","last_reported":1749942602,"current_range_meters":22400,"station_id":"ce4bhih2rcd13ifvqfs0","pricing_plan_id":"cebpf4jnsgd1na2vs0mg"},{"bike_id":"6e154486-a3fc-4d4d-ad1c-bd0397b62913","system_id":"levelo_inurba_marseille","lat":43.28705,"lon":5.39997,"is_reserved":false,"is_disabled":false,"rental_uris":{"android":"levelo://app?vid=6e154486-a3fc-4d4d-ad1c-bd0397b62913","ios":"levelo://app?vid=6e154486-a3fc-4d4d-ad1c-bd0397b62913"},"vehicle_type_id":"4","last_reported":1749942602,"current_range_meters":22400,"station_id":"ce4bho92rcd13ifvqh3g","pricing_plan_id":"cebpf4jnsgd1na2vs0mg"},{"bike_id":"6f904e79-074e-44f7-a4ee-8b0cd00a4a95","system_id":"levelo_inurba_marseille","lat":43.212204,"lon":5.350545,"is_reserved":false,"is_disabled":false,"rental_uris":{"android":"levelo://app?vid=6f904e79-074e-44f7-a4ee-8b0cd00a4a95","ios":"levelo://app?vid=6f904e79-074e-44f7-a4ee-8b0cd00a4a95"},"vehicle_type_id":"4","last_reported":1749942602,"current_range_meters":22800,"station_id":"","pricing_plan_id":"cebpf4jnsgd1na2vs0mg"},