{"last_updated":1751623932,"ttl":60,"version":"2.2","data":{"bikes":[{"bike_id":"3da29fb8-fc97-44c6-b9ac-31dd456b2fd4","system_id":"levelo_inurba_marseille","lat":43.33771,"lon":5.37424,"is_reserved":false,"is_disabled":true,"rental_uris":{"android":"levelo://app?vid=3da29fb8-fc97-44c6-b9ac-31dd456b2fd4","ios":"levelo://app?vid=3da29fb8-fc97-44c6-b9ac-31dd456b2fd4"},"vehicle_type_id":"4","last_reported":1751623932,"current_range_meters":0,"station_id":"","pricing_plan_id":"cebpf4jnsgd1na2vs0mg"},{"bike_id":"01861ad8-a8d7-4be6-816e-651927c87584","system_id":"levelo_inurba_marseille","lat":43.33751,"lon":5.37456,"is_reserved":false,"is_disabled":true,"rental_uris":{"android":"levelo://app?vid=01861ad8-a8d7-4be6-816e-651927c87584","ios":"levelo://app?vid=01861ad8-a8d7-4be6-816e-651927c87584"},"vehicle_type_id":"4","last_reported":1751623932,"current_range_meters":0,"station_id":"","pricing_plan_id":"cebpf4jnsgd1na2vs0mg"},{"bike_id":"cd2a3af2-854b-4519-92e5-1eaf70ba8a37","system_id":"levelo_inurba_marseille","lat":43.21229,"lon":5.35068,"is_reserved":false,"is_disabled":true,"rental_uris":{"android":"levelo://app?vid=cd2a3af2-854b-4519-92e5-1eaf70ba8a37","ios":"levelo://app?vid=cd2a3af2-854b-4519-92e5-1eaf70ba8a37"},"vehicle_type_id":"4","last_reported":1751623932,"current_range_meters":0,"station_id":"","pricing_plan_id":"cebpf4jnsgd1na2vs0mg"},{"bike_id":"2700b069-ae8c-4c07-bfa4-414cf16e9691","system_id":"levelo_inurba_marseille","lat":43.285404,"lon":5.385198,"is_reserved":false,"is_disabled":true,"rental_uris":{"android":"levelo://app?vid=2700b069-ae8c-4c07-bfa4-414cf16e9691","ios":"levelo://app?vid=2700b069-ae8c-4c07-bfa4-414cf16e9691"},"vehicle_type_id":"4","last_reported":1751623932,"current_range_meters":0,"station_id":"","pricing_plan_id":"cebpf4jnsgd1na2vs0mg"},{"bike_id":"cf0d09b3-3594-4749-a4e3-3ea31dc419a2","system_id":"levelo_inurba_marseille","lat":43.30301,"lon":5.39202,"is_reserved":false,"is_disabled":true,"rental_uris":{"android":"levelo://app?vid=cf0d09b3-3594-4749-a4e3-3ea31dc419a2","ios":"levelo://app?vid=cf0d09b3-3594-4749-a4e3-3ea31dc419a2"},"vehicle_type_id":"4","last_reported":1751623932,"current_range_meters":0,"station_id":"ce4bgkh2rcd13ifvqbk0","pricing_plan_id":"cebpf4jnsgd1na2vs0mg"},{"bike_id":"777ded39-77c4-47e6-aa6d-2fe4cf8f6510","system_id":"levelo_inurba_marseille","lat":43.305302,"lon":5.366394,"is_reserved":false,"is_disabled":true,"rental_uris":{"android":"levelo://app?vid=777ded39-77c4-47e6-aa6d-2fe4cf8f6510","ios":"levelo://app?vid=777ded39-77c4-47e6-aa6d-2fe4cf8f6510"},"vehicle_type_id":"4","last_reported":1751623932,"current_range_meters":0,"station_id":"ce4bgrp2rcd13ifvqc9g","pricing_plan_id":"cebpf4jnsgd1na2vs0mg"},{"bike_id":"a639ca0d-1298-494d-89ee-728c7e78b8cf","system_id":"levelo_inurba_marseille","lat":43.3046,"lon":5.379,"is_reserved":false,"is_disabled":true,"rental_uris":{"android":"levelo://app?vid=a639ca0d-1298-494d-89ee-728c7e78b8cf","ios":"levelo://app?vid=a639ca0d-1298-494d-89ee-728c7e78b8cf"},"vehicle_type_id":"4","last_reported":1751623932,"current_range_meters":0,"station_id":"ce4bgup2rcd13ifvqcn0","pricing_plan_id":"cebpf4jnsgd1na2vs0mg"},{"bike_id":"4d64a4fd-d7a6-4b0f-b85d-5077edd949d7","system_id":"levelo_inurba_marseille","lat":43.23146,"lon":5.43741,"is_reserved":false,"is_disabled":true,"rental_uris":{"android":"levelo://app?vid=4d64a4fd-d7a6-4b0f-b85d-5077edd949d7","ios":"levelo://app?vid=4d64a4fd-d7a6-4b0f-b85d-5077edd949d7"},"vehicle_type_id":"4","last_reported":1751623932,"current_range_meters":0,"station_id":"ce4bhmp2rcd13ifvqgog","pricing_plan_id":"cebpf4jnsgd1na2vs0mg"},{"bike_id":"4d96d07b-6152-4656-af83-a3dfd0fa2ea5","system_id":"levelo_inurba_marseille","lat":43.27805,"lon":5.40721,"is_reserved":false,"is_disabled":true,"rental_uris":{"android":"levelo://app?vid=4d96d07b-6152-4656-af83-a3dfd0fa2ea5","ios":"levelo://app?vid=4d96d07b-6152-4656-af83-a3dfd0fa2ea5"},"vehicle_type_id":"4","last_reported":1751623932,"current_range_meters":0,"station_id":"ce4bhnh2rcd13ifvqgtg","pricing_plan_id":"cebpf4jnsgd1na2vs0mg"},{"bike_id":"60112702-ffb5-4fae-8ae6-522bc105fa3d","system_id":"levelo_inurba_marseille","lat":43.28695,"lon":5.39982,"is_reserved":false,"is_disabled":true,"rental_uris":{"android":"levelo://app?vid=60112702-ffb5-4fae-8ae6-522bc105fa3d","ios":"levelo://app?vid=60112702-ffb5-4fae-8ae6-522bc105fa3d"},"vehicle_type_id":"4","last_reported":1751623932,"current_range_meters":0,"station_id":"ce4bho92rcd13ifvqh3g","pricing_plan_id":"cebpf4jnsgd1na2vs0mg"},{"bike_id":"761bdf2f-6881-430c-86f7-0cd1297cf6c7","system_id":"levelo_inurba_marseille","lat":43.31077,"lon":5.42428,"is_reserved":false,"is_disabled":true,"rental_uris":{"android":"levelo://app?vid=761bdf2f-6881-430c-86f7-0cd1297cf6c7","ios":"levelo://app?vid=761bdf2f-6881-430c-86f7-0cd1297cf6c7"},"vehicle_type_id":"4","last_reported":1751623932,"current_range_meters":0,"station_id":"ce4bhp92rcd13ifvqhag","pricing_plan_id":"cebpf4jnsgd1na2vs0mg"},{"bike_id":"455da016-0809-474d-a83e-71bd13033fdb","system_id":"levelo_inurba_marseille","lat":43.22929,"lon":5.35382,"is_reserved":false,"is_disabled":true,"rental_uris":{"android":"levelo://app?vid=455da016-0809-474d-a83e-71bd13033fdb","ios":"levelo://app?vid=455da016-0809-474d-a83e-71bd13033fdb"},"vehicle_type_id":"4","last_reported":1751623932,"current_range_meters":0,"station_id":"cpo3532slgdg3j2ikp40","pricing_plan_id":"cebpf4jnsgd1na2vs0mg"},{"bike_id":"2db7de25-6c57-447b-bff5-ea01c3753780","system_id":"levelo_inurba_marseille","lat":43.21753,"lon":5.34624,"is_reserved":false,"is_disabled":true,"rental_uris":{"android":"levelo://app?vid=2db7de25-6c57-447b-bff5-ea01c3753780","ios":"levelo://app?vid=2db7de25-6c57-447b-bff5-ea01c3753780"},"vehicle_type_id":"4","last_reported":1751623932,"current_range_meters":0,"station_id":"st_cvj6r9ubvosntc0bgbag","pricing_plan_id":"cebpf4jnsgd1na2vs0mg"},{"bike_id":"7d5936d1-f2a9-4842-90c8-760de0654623","system_id":"levelo_inurba_marseille","lat":43.21751,"lon":5.34616,"is_reserved":false,"is_disabled":true,"rental_uris":{"android":"levelo://app?vid=7d5936d1-f2a9-4842-90c8-760de0654623","ios":"levelo://app?vid=7d5936d1-f2a9-4842-90c8-760de0654623"},"vehicle_type_id":"4","last_reported":1751623932,"current_range_meters":0,"station_id":"st_cvj6r9ubvosntc0bgbag","pricing_plan_id":"cebpf4jnsgd1na2vs0mg"},{"bike_id":"8e365e3c-559a-4ba6-a6c5-4c159e2434fc","system_id":"levelo_inurba_marseille","lat":43.21741,"lon":5.34588,"is_reserved":false,"is_disabled":true,"rental_uris":{"android":"levelo://app?vid=8e365e3c-559a-4ba6-a6c5-4c159e2434fc","ios":"levelo://app?vid=8e365e3c-559a-4ba6-a6c5-4c159e2434fc"},"vehicle_type_id":"4","last_reported":1751623932,"current_range_meters":0,"station_id":"st_cvj6r9ubvosntc0bgbag","pricing_plan_id":"cebpf4jnsgd1na2vs0mg"},{"bike_id":"67c871a4-2131-44f3-8062-fb4fb32db992","system_id":"levelo_inurba_marseille","lat":43.28985,"lon":5.35582,"is_reserved":false,"is_disabled":true,"rental_uris":{"android":"levelo://app?vid=67c871a4-2131-44f3-8062-fb4fb32db992","ios":"levelo://app?vid=67c871a4-2131-44f3-8062-fb4fb32db992"},"vehicle_type_id":"4","last_reported":1751623932,"current_range_meters":400,"station_id":"ce4bhb92rcd13ifvqen0","pricing_plan_id":"cebpf4jnsgd1na2vs0mg"},{"bike_id":"c000af40-3745-474c-a982-7afc8cf1a526","system_id":"levelo_inurba_marseille","lat":43.21746,"lon":5.34598,"is_reserved":false,"is_disabled":true,"rental_uris":{"android":"levelo://app?vid=c000af40-3745-474c-a982-7afc8cf1a526","ios":"levelo://app?vid=c000af40-3745-474c-a982-7afc8cf1a526"},"vehicle_type_id":"4","last_reported":1751623932,"current_range_meters":400,"station_id":"st_cvj6r9ubvosntc0bgbag","pricing_plan_id":"cebpf4jnsgd1na2vs0mg"},{"bike_id":"58499af8-5cb1-4bec-ab39-bcbdc7e69fcf","system_id":"levelo_inurba_marseille","lat":43.28961,"lon":5.37832,"is_reserved":false,"is_disabled":true,"rental_uris":{"android":"levelo://app?vid=58499af8-5cb1-4bec-ab39-bcbdc7e69fcf","ios":"levelo://app?vid=58499af8-5cb1-4bec-ab39-bcbdc7e69fcf"},"vehicle_type_id":"4","last_reported":1751623932,"current_range_meters":800,"station_id":"ce4bh9p2rcd13ifvqed0","pricing_plan_id":"cebpf4jnsgd1na2vs0mg"},{"bike_id":"b5f9c177-e511-4a26-9abb-a8c98a9e71b2","system_id":"levelo_inurba_marseille","lat":43.21191,"lon":5.35093,"is_reserved":false,"is_disabled":true,"rental_uris":{"android":"levelo://app?vid=b5f9c177-e511-4a26-9abb-a8c98a9e71b2","ios":"levelo://app?vid=b5f9c177-e511-4a26-9abb-a8c98a9e71b2"},"vehicle_type_id":"4","last_reported":1751623932,"current_range_meters":800,"station_id":"st_cvj6sg6p6f1abm77japg","pricing_plan_id":"cebpf4jnsgd1na2vs0mg"},{"bike_id":"edc44628-247c-47a9-a2eb-42e90257fc5d","system_id":"levelo_inurba_marseille","lat":43.292723,"lon":5.408686,"is_reserved":false,"is_disabled":true,"rental_uris":{"android":"levelo://app?vid=edc44628-247c-47a9-a2eb-42e90257fc5d","ios":"levelo://app?vid=edc44628-247c-47a9-a2eb-42e90257fc5d"},"vehicle_type_id":"4","last_reported":1751623932,"current_range_meters":1200,"station_id":"ce4bh192rcd13ifvqdc0","pricing_plan_id":"cebpf4jnsgd1na2vs0mg"},{"bike_id":"cec723ba-3c55-48fd-a194-5349b869555d","system_id":"levelo_inurba_marseille","lat":43.28942,"lon":5.36631,"is_reserved":false,"is_disabled":true,"rental_uris":{"android":"levelo://app?vid=cec723ba-3c55-48fd-a194-5349b869555d","ios":"levelo://app?vid=cec723ba-3c55-48fd-a194-5349b869555d"},"vehicle_type_id":"4","last_reported":1751623932,"current_range_meters":1200,"station_id":"ce4bhap2rcd13ifvqek0","pricing_plan_id":"cebpf4jnsgd1na2vs0mg"},{"bike_id":"4d2c5f6a-380d-43fc-b259-d1f683bd5b74","system_id":"levelo_inurba_marseille","lat":43.25727,"lon":5.41105,"is_reserved":false,"is_disabled":false,"rental_uris":{"android":"levelo://app?vid=4d2c5f6a-380d-43fc-b259-d1f683bd5b74","ios":"levelo://app?vid=4d2c5f6a-380d-43fc-b259-d1f683bd5b74"},"vehicle_type_id":"4","last_reported":1751623932,"current_range_meters":2000,"station_id":"ce4bhkp2rcd13ifvqgd0","pricing_plan_id":"cebpf4jnsgd1na2vs0mg"},{"bike_id":"de000f2c-e4cb-4446-81c1-73b32a61adde","system_id":"levelo_inurba_marseille","lat":43.23193,"lon":5.35556,"is_reserved":false,"is_disabled":true,"rental_uris":{"android":"levelo://app?vid=de000f2c-e4cb-4446-81c1-73b32a61adde","ios":"levelo://app?vid=de000f2c-e4cb-4446-81c1-73b32a61adde"},"vehicle_type_id":"4","last_reported":1751623932,"current_range_meters":2000,"station_id":"ce4bhu92rcd13ifvqi70","pricing_plan_id":"cebpf4jnsgd1na2vs0mg"},{"bike_id":"6e168ebb-5659-4beb-9792-c749c725292c","system_id":"levelo_inurba_marseille","lat":43.29846,"lon":5.36287,"is_reserved":false,"is_disabled":false,"rental_uris":{"android":"levelo://app?vid=6e168ebb-5659-4beb-9792-c749c725292c","ios":"levelo://app?vid=6e168ebb-5659-4beb-9792-c749c725292c"},"vehicle_type_id":"4","last_reported":1751623932,"current_range_meters":2800,"station_id":"ce4bgpp2rcd13ifvqc3g","pricing_plan_id":"cebpf4jnsgd1na2vs0mg"},{"bike_id":"05c24ff2-ee17-48d8-ba70-7d360b4d07b1","system_id":"levelo_inurba_marseille","lat":43.30887,"lon":5.37196,"is_reserved":false,"is_disabled":false,"rental_uris":{"android":"levelo://app?vid=05c24ff2-ee17-48d8-ba70-7d360b4d07b1","ios":"levelo://app?vid=05c24ff2-ee17-48d8-ba70-7d360b4d07b1"},"vehicle_type_id":"4","last_reported":1751623932,"current_range_meters":2800,"station_id":"ce4bguh2rcd13ifvqckg","pricing_plan_id":"cebpf4jnsgd1na2vs0mg"},{"bike_id":"cee0b5b6-9b90-457a-85f4-540287a23b84","system_id":"levelo_inurba_marseille","lat":43.21185,"lon":5.35064,"is_reserved":false,"is_disabled":false,"rental_uris":{"android":"levelo://app?vid=cee0b5b6-9b90-457a-85f4-540287a23b84","ios":"levelo://app?vid=cee0b5b6-9b90-457a-85f4-540287a23b84"},"vehicle_type_id":"4","last_reported":1751623932,"current_range_meters":2800,"station_id":"st_cvj6sg6p6f1abm77japg","pricing_plan_id":"cebpf4jnsgd1na2vs0mg"},{"bike_id":"05c7b799-9781-4950-8cd4-d185fec2ae95","system_id":"levelo_inurba_marseille","lat":43.21193,"lon":5.35075,"is_reserved":false,"is_disabled":false,"rental_uris":{"android":"levelo://app?vid=05c7b799-9781-4950-8cd4-d185fec2ae95","ios":"levelo://app?vid=05c7b799-9781-4950-8cd4-d185fec2ae95"},"vehicle_type_id":"4","last_reported":1751623932,"current_range_meters":2800,"station_id":"st_cvj6sg6p6f1abm77japg","pricing_plan_id":"cebpf4jnsgd1na2vs0mg"},{"bike_id":"34c6e3d0-b005-424f-a0a7-52f9f8bd654f","system_id":"levelo_inurba_marseille","lat":43.23622,"lon":5.36207,"is_reserved":false,"is_disabled":false,"rental_uris":{"android":"levelo://app?vid=34c6e3d0-b005-424f-a0a7-52f9f8bd654f","ios":"levelo://app?vid=34c6e3d0-b005-424f-a0a7-52f9f8bd654f"},"vehicle_type_id":"4","last_reported":1751623932,"current_range_meters":3200,"station_id":"","pricing_plan_id":"cebpf4jnsgd1na2vs0mg"},{"bike_id":"cf4ee29d-707e-44c0-8e61-f081693ebd6d","system_id":"levelo_inurba_marseille","lat":43.30803,"lon":5.43522,"is_reserved":false,"is_disabled":false,"rental_uris":{"android":"levelo://app?vid=cf4ee29d-707e-44c0-8e61-f081693ebd6d","ios":"levelo://app?vid=cf4ee29d-707e-44c0-8e61-f081693ebd6d"},"vehicle_type_id":"4","last_reported":1751623932,"current_range_meters":3200,"station_id":"ce4bhph2rcd13ifvqheg","pricing_plan_id":"cebpf4jnsgd1na2vs0mg"},{"bike_id":"0f3c1067-4608-4d02-a67d-cd5b75df132d","system_id":"levelo_inurba_marseille","lat":43.21179,"lon":5.35037,"is_reserved":false,"is_disabled":false,"rental_uris":{"android":"levelo://app?vid=0f3c1067-4608-4d02-a67d-cd5b75df132d","ios":"levelo://app?vid=0f3c1067-4608-4d02-a67d-cd5b75df132d"},"vehicle_type_id":"4","last_reported":1751623932,"current_range_meters":3200,"station_id":"st_cvj6sg6p6f1abm77japg","pricing_plan_id":"cebpf4jnsgd1na2vs0mg"},{"bike_id":"e27cfcb6-3cf8-4ca3-99bb-cfc890ae6210","system_id":"levelo_inurba_marseille","lat":43.30543,"lon":5.36549,"is_reserved":false,"is_disabled":false,"rental_uris":{"android":"levelo://app?vid=e27cfcb6-3cf8-4ca3-99bb-cfc890ae6210","ios":"levelo://app?vid=e27cfcb6-3cf8-4ca3-99bb-cfc890ae6210"},"vehicle_type_id":"4","last_reported":1751623932,"current_range_meters":3600,"station_id":"ce4bgs12rcd13ifvqcag","pricing_plan_id":"cebpf4jnsgd1na2vs0mg"},{"bike_id":"9ba4e188-72a6-44f4-87f4-f9d0a72871bc","system_id":"levelo_inurba_marseille","lat":43.255,"lon":5.37648,"is_reserved":false,"is_disabled":false,"rental_uris":{"android":"levelo://app?vid=9ba4e188-72a6-44f4-87f4-f9d0a72871bc","ios":"levelo://app?vid=9ba4e188-72a6-44f4-87f4-f9d0a72871bc"},"vehicle_type_id":"4","last_reported":1751623932,"current_range_meters":3600,"station_id":"ce4bhh12rcd13ifvqff0","pricing_plan_id":"cebpf4jnsgd1na2vs0mg"},{"bike_id":"5cd647ef-551c-4190-88c3-8418a1c18235","system_id":"levelo_inurba_marseille","lat":43.211904,"lon":5.350702,"is_reserved":false,"is_disabled":false,"rental_uris":{"android":"levelo://app?vid=5cd647ef-551c-4190-88c3-8418a1c18235","ios":"levelo://app?vid=5cd647ef-551c-4190-88c3-8418a1c18235"},"vehicle_type_id":"4","last_reported":1751623932,"current_range_meters":3600,"station_id":"st_cvj6sg6p6f1abm77japg","pricing_plan_id":"cebpf4jnsgd1na2vs0mg"},{"bike_id":"c2c4277e-1fcd-4d64-8a3e-b38a24470324","system_id":"levelo_inurba_marseille","lat":43.29045,"lon":5.39943,"is_reserved":false,"is_disabled":false,"rental_uris":{"android":"levelo://app?vid=c2c4277e-1fcd-4d64-8a3e-b38a24470324","ios":"levelo://app?vid=c2c4277e-1fcd-4d64-8a3e-b38a24470324"},"vehicle_type_id":"4","last_reported":1751623932,"current_range_meters":4000,"station_id":"ce4bh392rcd13ifvqdm0","pricing_plan_id":"cebpf4jnsgd1na2vs0mg"},{"bike_id":"1be79713-0c41-4319-884c-0d20b971be6d","system_id":"levelo_inurba_marseille","lat":43.28449,"lon":5.39215,"is_reserved":false,"is_disabled":false,"rental_uris":{"android":"levelo://app?vid=1be79713-0c41-4319-884c-0d20b971be6d","ios":"levelo://app?vid=1be79713-0c41-4319-884c-0d20b971be6d"},"vehicle_type_id":"4","last_reported":1751623932,"current_range_meters":4000,"station_id":"ce4bhoh2rcd13ifvqh5g","pricing_plan_id":"cebpf4jnsgd1na2vs0mg"},{"bike_id":"8de9185d-84d8-43df-a3d1-d41feb3eba81","system_id":"levelo_inurba_marseille","lat":43.333488,"lon":5.39058,"is_reserved":false,"is_disabled":false,"rental_uris":{"android":"levelo://app?vid=8de9185d-84d8-43df-a3d1-d41feb3eba81","ios":"levelo://app?vid=8de9185d-84d8-43df-a3d1-d41feb3eba81"},"vehicle_type_id":"4","last_reported":1751623932,"current_range_meters":4400,"station_id":"","pricing_plan_id":"cebpf4jnsgd1na2vs0mg"},{"bike_id":"ce34f192-b753-4c40-b068-2b6be454c1c8","system_id":"levelo_inurba_marseille","lat":43.25081,"lon":5.39526,"is_reserved":false,"is_disabled":true,"rental_uris":{"android":"levelo://app?vid=ce34f192-b753-4c40-b068-2b6be454c1c8","ios":"levelo://app?vid=ce34f192-b753-4c40-b068-2b6be454c1c8"},"vehicle_type_id":"4","last_reported":1751623932,"current_range_meters":4800,"station_id":"ce4bhm12rcd13ifvqgkg","pricing_plan_id":"cebpf4jnsgd1na2vs0mg"},{"bike_id":"6dc403cb-7149-4f77-bd98-54e846b58460","system_id":"levelo_inurba_marseille","lat":43.28152,"lon":5.42635,"is_reserved":false,"is_disabled":false,"rental_uris":{"android":"levelo://app?vid=6dc403cb-7149-4f77-bd98-54e846b58460","ios":"levelo://app?vid=6dc403cb-7149-4f77-bd98-54e846b58460"},"vehicle_type_id":"4","last_reported":1751623932,"current_range_meters":4800,"station_id":"ce4bhnh2rcd13ifvqgug","pricing_plan_id":"cebpf4jnsgd1na2vs0mg"},{"bike_id":"776c3bbd-8754-4e2c-9386-6594db9fca09","system_id":"levelo_inurba_marseille","lat":43.26212,"lon":5.37438,"is_reserved":false,"is_disabled":false,"rental_uris":{"android":"levelo://app?vid=776c3bbd-8754-4e2c-9386-6594db9fca09","ios":"levelo://app?vid=776c3bbd-8754-4e2c-9386-6594db9fca09"},"vehicle_type_id":"4","last_reported":1751623932,"current_range_meters":5600,"station_id":"ce4bhgp2rcd13ifvqfc0","pricing_plan_id":"cebpf4jnsgd1na2vs0mg"},{"bike_id":"457dc061-49eb-4be7-80d4-b043557b0990","system_id":"levelo_inurba_marseille","lat":43.25481,"lon":5.376546,"is_reserved":false,"is_disabled":false,"rental_uris":{"android":"levelo://app?vid=457dc061-49eb-4be7-80d4-b043557b0990","ios":"levelo://app?vid=457dc061-49eb-4be7-80d4-b043557b0990"},"vehicle_type_id":"4","last_reported":1751623932,"current_range_meters":5600,"station_id":"ce4bhh12rcd13ifvqff0","pricing_plan_id":"cebpf4jnsgd1na2vs0mg"},{"bike_id":"47a60aa0-0d9a-4204-9a8e-a7fd2684f5e2","system_id":"levelo_inurba_marseille","lat":43.2318,"lon":5.39986,"is_reserved":false,"is_disabled":false,"rental_uris":{"android":"levelo://app?vid=47a60aa0-0d9a-4204-9a8e-a7fd2684f5e2","ios":"levelo://app?vid=47a60aa0-0d9a-4204-9a8e-a7fd2684f5e2"},"vehicle_type_id":"4","last_reported":1751623932,"current_range_meters":5600,"station_id":"ce4bhn12rcd13ifvqgqg","pricing_plan_id":"cebpf4jnsgd1na2vs0mg"},{"bike_id":"9a7d342a-ff8e-46c4-af1e-6e0519bd67dc","system_id":"levelo_inurba_marseille","lat":43.291433,"lon":5.355899,"is_reserved":false,"is_disabled":false,"rental_uris":{"android":"levelo://app?vid=9a7d342a-ff8e-46c4-af1e-6e0519bd67dc","ios":"levelo://app?vid=9a7d342a-ff8e-46c4-af1e-6e0519bd67dc"},"vehicle_type_id":"4","last_reported":1751623932,"current_range_meters":6000,"station_id":"","pricing_plan_id":"cebpf4jnsgd1na2vs0mg"},{"bike_id":"0f7e77e2-8bad-46d1-8d81-11b86051aefa","system_id":"levelo_inurba_marseille","lat":43.23147,"lon":5.43672,"is_reserved":false,"is_disabled":false,"rental_uris":{"android":"levelo://app?vid=0f7e77e2-8bad-46d1-8d81-11b86051aefa","ios":"levelo://app?vid=0f7e77e2-8bad-46d1-8d81-11b86051aefa"},"vehicle_type_id":"4","last_reported":1751623932,"current_range_meters":6000,"station_id":"ce4bhmp2rcd13ifvqgog","pricing_plan_id":"cebpf4jnsgd1na2vs0mg"},{"bike_id":"46529fc7-9047-4467-8066-805a06158159","system_id":"levelo_inurba_marseille","lat":43.23195,"lon":5.35555,"is_reserved":false,"is_disabled":false,"rental_uris":{"android":"levelo://app?vid=46529fc7-9047-4467-8066-805a06158159","ios":"levelo://app?vid=46529fc7-9047-4467-8066-805a06158159"},"vehicle_type_id":"4","last_reported":1751623932,"current_range_meters":6000,"station_id":"ce4bhu92rcd13ifvqi70","pricing_plan_id":"cebpf4jnsgd1na2vs0mg"},{"bike_id":"1fcc86a2-13fa-48f8-94bf-c524b2d28cd8","system_id":"levelo_inurba_marseille","lat":43.21183,"lon":5.35066,"is_reserved":false,"is_disabled":false,"rental_uris":{"android":"levelo://app?vid=1fcc86a2-13fa-48f8-94bf-c524b2d28cd8","ios":"levelo://app?vid=1fcc86a2-13fa-48f8-94bf-c524b2d28cd8"},"vehicle_type_id":"4","last_reported":1751623932,"current_range_meters":6000,"station_id":"st_cvj6sg6p6f1abm77japg","pricing_plan_id":"cebpf4jnsgd1na2vs0mg"},{"bike_id":"f134c005-51cd-4c05-9a22-9257253144ef","system_id":"levelo_inurba_marseille","lat":43.30545,"lon":5.36699,"is_reserved":false,"is_disabled":false,"rental_uris":{"android":"levelo://app?vid=f134c005-51cd-4c05-9a22-9257253144ef","ios":"levelo://app?vid=f134c005-51cd-4c05-9a22-9257253144ef"},"vehicle_type_id":"4","last_reported":1751623932,"current_range_meters":6400,"station_id":"ce4bgrp2rcd13ifvqc9g","pricing_plan_id":"cebpf4jnsgd1na2vs0mg"},{"bike_id":"fd7eedf4-b601-4a3d-a178-6ce65f6334fc","system_id":"levelo_inurba_marseille","lat":43.28422,"lon":5.34981,"is_reserved":false,"is_disabled":false,"rental_uris":{"android":"levelo://app?vid=fd7eedf4-b601-4a3d-a178-6ce65f6334fc","ios":"levelo://app?vid=fd7eedf4-b601-4a3d-a178-6ce65f6334fc"},"vehicle_type_id":"4","last_reported":1751623932,"current_range_meters":6400,"station_id":"ce4bhbh2rcd13ifvqepg","pricing_plan_id":"cebpf4jnsgd1na2vs0mg"},{"bike_id":"2ac974d3-2b34-4ab0-8fdc-ef9d03ba4a1b","system_id":"levelo_inurba_marseille","lat":43.231913,"lon":5.355473,"is_reserved":false,"is_disabled":false,"rental_uris":{"android":"levelo://app?vid=2ac974d3-2b34-4ab0-8fdc-ef9d03ba4a1b","ios":"levelo://app?vid=2ac974d3-2b34-4ab0-8fdc-ef9d03ba4a1b"},"vehicle_type_id":"4","last_reported":1751623932,"current_range_meters":6400,"station_id":"ce4bhu92rcd13ifvqi70","pricing_plan_id":"cebpf4jnsgd1na2vs0mg"},{"bike_id":"e9f93152-c103-42e7-8290-70a0dd64d0c1","system_id":"levelo_inurba_marseille","lat":43.292182,"lon":5.376506,"is_reserved":false,"is_disabled":false,"rental_uris":{"android":"levelo://app?vid=e9f93152-c103-42e7-8290-70a0dd64d0c1","ios":"levelo://app?vid=e9f93152-c103-42e7-8290-70a0dd64d0c1"},"vehicle_type_id":"4","last_reported":1751623932,"current_range_meters":6800,"station_id":"","pricing_plan_id":"cebpf4jnsgd1na2vs0mg"},{"bike_id":"e26ba497-efc7-4420-b8c5-9fa5e27f2ce4","system_id":"levelo_inurba_marseille","lat":43.31372,"lon":5.37021,"is_reserved":false,"is_disabled":false,"rental_uris":{"android":"levelo://app?vid=e26ba497-efc7-4420-b8c5-9fa5e27f2ce4","ios":"levelo://app?vid=e26ba497-efc7-4420-b8c5-9fa5e27f2ce4"},"vehicle_type_id":"4","last_reported":1751623932,"current_range_meters":6800,"station_id":"","pricing_plan_id":"cebpf4jnsgd1na2vs0mg"},{"bike_id":"fcf3a049-0dc2-4164-87b0-96401de71d0b","system_id":"levelo_inurba_marseille","lat":43.29256,"lon":5.38443,"is_reserved":false,"is_disabled":false,"rental_uris":{"android":"levelo://app?vid=fcf3a049-0dc2-4164-87b0-96401de71d0b","ios":"levelo://app?vid=fcf3a049-0dc2-4164-87b0-96401de71d0b"},"vehicle_type_id":"4","last_reported":1751623932,"current_range_meters":6800,"station_id":"ce4bh692rcd13ifvqea0","pricing_plan_id":"cebpf4jnsgd1na2vs0mg"},{"bike_id":"4d8e3b01-a659-4741-8263-860e998b1ee4","system_id":"levelo_inurba_marseille","lat":43.21188,"lon":5.35074,"is_reserved":false,"is_disabled":false,"rental_uris":{"android":"levelo://app?vid=4d8e3b01-a659-4741-8263-860e998b1ee4","ios":"levelo://app?vid=4d8e3b01-a659-4741-8263-860e998b1ee4"},"vehicle_type_id":"4","last_reported":1751623932,"current_range_meters":6800,"station_id":"st_cvj6sg6p6f1abm77japg","pricing_plan_id":"cebpf4jnsgd1na2vs0mg"},{"bike_id":"8ce059c6-943f-4088-8f5e-2a90844178c5","system_id":"levelo_inurba_marseille","lat":43.246507,"lon":5.388906,"is_reserved":false,"is_disabled":false,"rental_uris":{"android":"levelo://app?vid=8ce059c6-943f-4088-8f5e-2a90844178c5","ios":"levelo://app?vid=8ce059c6-943f-4088-8f5e-2a90844178c5"},"vehicle_type_id":"4","last_reported":1751623932,"current_range_meters":7200,"station_id":"ce4bhg12rcd13ifvqf60","pricing_plan_id":"cebpf4jnsgd1na2vs0mg"},{"bike_id":"744d482c-aebb-4b06-a609-9c4ce78a4368","system_id":"levelo_inurba_marseille","lat":43.24998,"lon":5.3893,"is_reserved":false,"is_disabled":false,"rental_uris":{"android":"levelo://app?vid=744d482c-aebb-4b06-a609-9c4ce78a4368","ios":"levelo://app?vid=744d482c-aebb-4b06-a609-9c4ce78a4368"},"vehicle_type_id":"4","last_reported":1751623932,"current_range_meters":8000,"station_id":"ce4bhgp2rcd13ifvqfd0","pricing_plan_id":"cebpf4jnsgd1na2vs0mg"},{"bike_id":"d567a98a-7952-4227-875f-9176613e0a81","system_id":"levelo_inurba_marseille","lat":43.30393,"lon":5.42476,"is_reserved":false,"is_disabled":false,"rental_uris":{"android":"levelo://app?vid=d567a98a-7952-4227-875f-9176613e0a81","ios":"levelo://app?vid=d567a98a-7952-4227-875f-9176613e0a81"},"vehicle_type_id":"4","last_reported":1751623932,"current_range_meters":8000,"station_id":"ce4bhoh2rcd13ifvqh6g","pricing_plan_id":"cebpf4jnsgd1na2vs0mg"},{"bike_id":"09454f46-e55e-4559-820c-cbc05b531847","system_id":"levelo_inurba_marseille","lat":43.322903,"lon":5.389773,"is_reserved":false,"is_disabled":false,"rental_uris":{"android":"levelo://app?vid=09454f46-e55e-4559-820c-cbc05b531847","ios":"levelo://app?vid=09454f46-e55e-4559-820c-cbc05b531847"},"vehicle_type_id":"4","last_reported":1751623932,"current_range_meters":8400,"station_id":"","pricing_plan_id":"cebpf4jnsgd1na2vs0mg"},{"bike_id":"f004b3ad-0d6b-49b2-a60d-2b9ad5661974","system_id":"levelo_inurba_marseille","lat":43.21195,"lon":5.35077,"is_reserved":false,"is_disabled":false,"rental_uris":{"android":"levelo://app?vid=f004b3ad-0d6b-49b2-a60d-2b9ad5661974","ios":"levelo://app?vid=f004b3ad-0d6b-49b2-a60d-2b9ad5661974"},"vehicle_type_id":"4","last_reported":1751623932,"current_range_meters":8800,"station_id":"st_cvj6sg6p6f1abm77japg","pricing_plan_id":"cebpf4jnsgd1na2vs0mg"},{"bike_id":"be4e2ba2-f83c-4be6-923a-932d435bb5ce","system_id":"levelo_inurba_marseille","lat":43.28223,"lon":5.4048,"is_reserved":false,"is_disabled":false,"rental_uris":{"android":"levelo://app?vid=be4e2ba2-f83c-4be6-923a-932d435bb5ce","ios":"levelo://app?vid=be4e2ba2-f83c-4be6-923a-932d435bb5ce"},"vehicle_type_id":"4","last_reported":1751623932,"current_range_meters":9200,"station_id":"","pricing_plan_id":"cebpf4jnsgd1na2vs0mg"},{"bike_id":"3b2e1de2-e08a-4478-85a0-653e89c941c9","system_id":"levelo_inurba_marseille","lat":43.32475,"lon":5.36572,"is_reserved":false,"is_disabled":false,"rental_uris":{"android":"levelo://app?vid=3b2e1de2-e08a-4478-85a0-653e89c941c9","ios":"levelo://app?vid=3b2e1de2-e08a-4478-85a0-653e89c941c9"},"vehicle_type_id":"4","last_reported":1751623932,"current_range_meters":9200,"station_id":"ce4bhs12rcd13ifvqhvg","pricing_plan_id":"cebpf4jnsgd1na2vs0mg"},{"bike_id":"bcfd0eda-b9ab-4bec-9ca3-3f2b86617415","system_id":"levelo_inurba_marseille","lat":43.21185,"lon":5.35066,"is_reserved":false,"is_disabled":false,"rental_uris":{"android":"levelo://app?vid=bcfd0eda-b9ab-4bec-9ca3-3f2b86617415","ios":"levelo://app?vid=bcfd0eda-b9ab-4bec-9ca3-3f2b86617415"},"vehicle_type_id":"4","last_reported":1751623932,"current_range_meters":9200,"station_id":"st_cvj6sg6p6f1abm77japg","pricing_plan_id":"cebpf4jnsgd1na2vs0mg"},{"bike_id":"c5d796ce-ab0c-4b2c-aadb-499b20153b6d","system_id":"levelo_inurba_marseille","lat":43.21193,"lon":5.35079,"is_reserved":false,"is_disabled":false,"rental_uris":{"android":"levelo://app?vid=c5d796ce-ab0c-4b2c-aadb-499b20153b6d","ios":"levelo://app?vid=c5d796ce-ab0c-4b2c-aadb-499b20153b6d"},"vehicle_type_id":"4","last_reported":1751623932,"current_range_meters":9200,"station_id":"st_cvj6sg6p6f1abm77japg","pricing_plan_id":"cebpf4jnsgd1na2vs0mg"},{"bike_id":"d799b321-3a7d-4201-b46e-ffe2ad124f19","system_id":"levelo_inurba_marseille","lat":43.329201,"lon":5.383829,"is_reserved":false,"is_disabled":false,"rental_uris":{"android":"levelo://app?vid=d799b321-3a7d-4201-b46e-ffe2ad124f19","ios":"levelo://app?vid=d799b321-3a7d-4201-b46e-ffe2ad124f19"},"vehicle_type_id":"4","last_reported":1751623932,"current_range_meters":9600,"station_id":"","pricing_plan_id":"cebpf4jnsgd1na2vs0mg"},{"bike_id":"7abf3bc0-b6ef-4335-b95a-0b42ccce9603","system_id":"levelo_inurba_marseille","lat":43.305403,"lon":5.366957,"is_reserved":false,"is_disabled":false,"rental_uris":{"android":"levelo://app?vid=7abf3bc0-b6ef-4335-b95a-0b42ccce9603","ios":"levelo://app?vid=7abf3bc0-b6ef-4335-b95a-0b42ccce9603"},"vehicle_type_id":"4","last_reported":1751623932,"current_range_meters":9600,"station_id":"ce4bgrp2rcd13ifvqc9g","pricing_plan_id":"cebpf4jnsgd1na2vs0mg"},{"bike_id":"35702c2d-1b7e-4969-983d-390fb69c8956","system_id":"levelo_inurba_marseille","lat":43.29006,"lon":5.35606,"is_reserved":false,"is_disabled":false,"rental_uris":{"android":"levelo://app?vid=35702c2d-1b7e-4969-983d-390fb69c8956","ios":"levelo://app?vid=35702c2d-1b7e-4969-983d-390fb69c8956"},"vehicle_type_id":"4","last_reported":1751623932,"current_range_meters":9600,"station_id":"ce4bhb92rcd13ifvqen0","pricing_plan_id":"cebpf4jnsgd1na2vs0mg"},{"bike_id":"aaa40a2f-5137-4631-ac61-aba8086bdeb7","system_id":"levelo_inurba_marseille","lat":43.2655,"lon":5.37281,"is_reserved":false,"is_disabled":false,"rental_uris":{"android":"levelo://app?vid=aaa40a2f-5137-4631-ac61-aba8086bdeb7","ios":"levelo://app?vid=aaa40a2f-5137-4631-ac61-aba8086bdeb7"},"vehicle_type_id":"4","last_reported":1751623932,"current_range_meters":9600,"station_id":"ce4bhg12rcd13ifvqf70","pricing_plan_id":"cebpf4jnsgd1na2vs0mg"},{"bike_id":"6f833bbe-9ecc-4242-8dd2-92d879920ad2","system_id":"levelo_inurba_marseille","lat":43.24995,"lon":5.38929,"is_reserved":false,"is_disabled":false,"rental_uris":{"android":"levelo://app?vid=6f833bbe-9ecc-4242-8dd2-92d879920ad2","ios":"levelo://app?vid=6f833bbe-9ecc-4242-8dd2-92d879920ad2"},"vehicle_type_id":"4","last_reported":1751623932,"current_range_meters":9600,"station_id":"ce4bhgp2rcd13ifvqfd0","pricing_plan_id":"cebpf4jnsgd1na2vs0mg"},{"bike_id":"ba872a93-17ea-43dd-8b95-1853e7fc745d","system_id":"levelo_inurba_marseille","lat":43.30239,"lon":5.37929,"is_reserved":false,"is_disabled":false,"rental_uris":{"android":"levelo://app?vid=ba872a93-17ea-43dd-8b95-1853e7fc745d","ios":"levelo://app?vid=ba872a93-17ea-43dd-8b95-1853e7fc745d"},"vehicle_type_id":"4","last_reported":1751623932,"current_range_meters":10000,"station_id":"","pricing_plan_id":"cebpf4jnsgd1na2vs0mg"},{"bike_id":"94193d9e-8a76-48e3-ab9d-2d6f2137cccf","system_id":"levelo_inurba_marseille","lat":43.29437,"lon":5.38609,"is_reserved":false,"is_disabled":false,"rental_uris":{"android":"levelo://app?vid=94193d9e-8a76-48e3-ab9d-2d6f2137cccf","ios":"levelo://app?vid=94193d9e-8a76-48e3-ab9d-2d6f2137cccf"},"vehicle_type_id":"4","last_reported":1751623932,"current_range_meters":10000,"station_id":"ce4bh2h2rcd13ifvqdh0","pricing_plan_id":"cebpf4jnsgd1na2vs0mg"},{"bike_id":"76c30e8b-0065-4c2b-810c-a1cc2e422760","system_id":"levelo_inurba_marseille","lat":43.25013,"lon":5.38935,"is_reserved":false,"is_disabled":false,"rental_uris":{"android":"levelo://app?vid=76c30e8b-0065-4c2b-810c-a1cc2e422760","ios":"levelo://app?vid=76c30e8b-0065-4c2b-810c-a1cc2e422760"},"vehicle_type_id":"4","last_reported":1751623932,"current_range_meters":10000,"station_id":"ce4bhgp2rcd13ifvqfd0","pricing_plan_id":"cebpf4jnsgd1na2vs0mg"},{"bike_id":"c76381fd-b6b9-4d02-a8a4-fd4e6891e706","system_id":"levelo_inurba_marseille","lat":43.30257,"lon":5.39047,"is_reserved":false,"is_disabled":false,"rental_uris":{"android":"levelo://app?vid=c76381fd-b6b9-4d02-a8a4-fd4e6891e706","ios":"levelo://app?vid=c76381fd-b6b9-4d02-a8a4-fd4e6891e706"},"vehicle_type_id":"4","last_reported":1751623932,"current_range_meters":10800,"station_id":"","pricing_plan_id":"cebpf4jnsgd1na2vs0mg"},{"bike_id":"fa9860e8-6631-43ee-bc2a-ff67c440410d","system_id":"levelo_inurba_marseille","lat":43.31276,"lon":5.40161,"is_reserved":false,"is_disabled":false,"rental_uris":{"android":"levelo://app?vid=fa9860e8-6631-43ee-bc2a-ff67c440410d","ios":"levelo://app?vid=fa9860e8-6631-43ee-bc2a-ff67c440410d"},"vehicle_type_id":"4","last_reported":1751623932,"current_range_meters":10800,"station_id":"ce4bh092rcd13ifvqd30","pricing_plan_id":"cebpf4jnsgd1na2vs0mg"},{"bike_id":"9d8ec144-e015-4792-8a88-e67325a34e7d","system_id":"levelo_inurba_marseille","lat":43.32487,"lon":5.3657,"is_reserved":false,"is_disabled":false,"rental_uris":{"android":"levelo://app?vid=9d8ec144-e015-4792-8a88-e67325a34e7d","ios":"levelo://app?vid=9d8ec144-e015-4792-8a88-e67325a34e7d"},"vehicle_type_id":"4","last_reported":1751623932,"current_range_meters":10800,"station_id":"ce4bhs12rcd13ifvqhvg","pricing_plan_id":"cebpf4jnsgd1na2vs0mg"},{"bike_id":"ba154a12-11bd-42a5-958a-5992f5d043d1","system_id":"levelo_inurba_marseille","lat":43.305062,"lon":5.37074,"is_reserved":false,"is_disabled":false,"rental_uris":{"android":"levelo://app?vid=ba154a12-11bd-42a5-958a-5992f5d043d1","ios":"levelo://app?vid=ba154a12-11bd-42a5-958a-5992f5d043d1"},"vehicle_type_id":"4","last_reported":1751623932,"current_range_meters":11200,"station_id":"","pricing_plan_id":"cebpf4jnsgd1na2vs0mg"},{"bike_id":"f4484b94-f949-488d-b243-9c52538bed99","system_id":"levelo_inurba_marseille","lat":43.25003,"lon":5.389287,"is_reserved":false,"is_disabled":false,"rental_uris":{"android":"levelo://app?vid=f4484b94-f949-488d-b243-9c52538bed99","ios":"levelo://app?vid=f4484b94-f949-488d-b243-9c52538bed99"},"vehicle_type_id":"4","last_reported":1751623932,"current_range_meters":11200,"station_id":"ce4bhgp2rcd13ifvqfd0","pricing_plan_id":"cebpf4jnsgd1na2vs0mg"},{"bike_id":"91e59c2f-2410-4bc3-9d5f-b9f81a7eb2c0","system_id":"levelo_inurba_marseille","lat":43.32538,"lon":5.41443,"is_reserved":false,"is_disabled":false,"rental_uris":{"android":"levelo://app?vid=91e59c2f-2410-4bc3-9d5f-b9f81a7eb2c0","ios":"levelo://app?vid=91e59c2f-2410-4bc3-9d5f-b9f81a7eb2c0"},"vehicle_type_id":"4","last_reported":1751623932,"current_range_meters":11200,"station_id":"ce4bhq12rcd13ifvqhhg","pricing_plan_id":"cebpf4jnsgd1na2vs0mg"},{"bike_id":"a10f52d5-f0b3-4e38-8e1b-891c225cb35e","system_id":"levelo_inurba_marseille","lat":43.211879,"lon":5.350707,"is_reserved":false,"is_disabled":false,"rental_uris":{"android":"levelo://app?vid=a10f52d5-f0b3-4e38-8e1b-891c225cb35e","ios":"levelo://app?vid=a10f52d5-f0b3-4e38-8e1b-891c225cb35e"},"vehicle_type_id":"4","last_reported":1751623932,"current_range_meters":11200,"station_id":"st_cvj6sg6p6f1abm77japg","pricing_plan_id":"cebpf4jnsgd1na2vs0mg"},{"bike_id":"37b84a38-055a-4a6e-a56a-8ff3d0c1b2ec","system_id":"levelo_inurba_marseille","lat":43.2119,"lon":5.35083,"is_reserved":false,"is_disabled":false,"rental_uris":{"android":"levelo://app?vid=37b84a38-055a-4a6e-a56a-8ff3d0c1b2ec","ios":"levelo://app?vid=37b84a38-055a-4a6e-a56a-8ff3d0c1b2ec"},"vehicle_type_id":"4","last_reported":1751623932,"current_range_meters":11200,"station_id":"st_cvj6sg6p6f1abm77japg","pricing_plan_id":"cebpf4jnsgd1na2vs0mg"},{"bike_id":"8dd19761-22a5-4806-a2fd-c6905a8ecac2","system_id":"levelo_inurba_marseille","lat":43.322898,"lon":5.382674,"is_reserved":false,"is_disabled":false,"rental_uris":{"android":"levelo://app?vid=8dd19761-22a5-4806-a2fd-c6905a8ecac2","ios":"levelo://app?vid=8dd19761-22a5-4806-a2fd-c6905a8ecac2"},"vehicle_type_id":"4","last_reported":1751623932,"current_range_meters":11600,"station_id":"","pricing_plan_id":"cebpf4jnsgd1na2vs0mg"},{"bike_id":"922159a2-2710-421b-bef7-a0a4229105c2","system_id":"levelo_inurba_marseille","lat":43.29675,"lon":5.37291,"is_reserved":false,"is_disabled":false,"rental_uris":{"android":"levelo://app?vid=922159a2-2710-421b-bef7-a0a4229105c2","ios":"levelo://app?vid=922159a2-2710-421b-bef7-a0a4229105c2"},"vehicle_type_id":"4","last_reported":1751623932,"current_range_meters":12000,"station_id":"ce4bgk12rcd13ifvqbj0","pricing_plan_id":"cebpf4jnsgd1na2vs0mg"},{"bike_id":"14cde01a-04f0-47b7-a979-573da08f216a","system_id":"levelo_inurba_marseille","lat":43.28429,"lon":5.34988,"is_reserved":false,"is_disabled":false,"rental_uris":{"android":"levelo://app?vid=14cde01a-04f0-47b7-a979-573da08f216a","ios":"levelo://app?vid=14cde01a-04f0-47b7-a979-573da08f216a"},"vehicle_type_id":"4","last_reported":1751623932,"current_range_meters":12000,"station_id":"ce4bhbh2rcd13ifvqepg","pricing_plan_id":"cebpf4jnsgd1na2vs0mg"},{"bike_id":"3f6253c5-a6bc-4b75-891a-97571b92879b","system_id":"levelo_inurba_marseille","lat":43.2572,"lon":5.41112,"is_reserved":false,"is_disabled":false,"rental_uris":{"android":"levelo://app?vid=3f6253c5-a6bc-4b75-891a-97571b92879b","ios":"levelo://app?vid=3f6253c5-a6bc-4b75-891a-97571b92879b"},"vehicle_type_id":"4","last_reported":1751623932,"current_range_meters":12000,"station_id":"ce4bhkp2rcd13ifvqgd0","pricing_plan_id":"cebpf4jnsgd1na2vs0mg"},{"bike_id":"0c4b7fdb-b39e-49b3-a2b0-ae3d0f43e89d","system_id":"levelo_inurba_marseille","lat":43.329025,"lon":5.405687,"is_reserved":false,"is_disabled":false,"rental_uris":{"android":"levelo://app?vid=0c4b7fdb-b39e-49b3-a2b0-ae3d0f43e89d","ios":"levelo://app?vid=0c4b7fdb-b39e-49b3-a2b0-ae3d0f43e89d"},"vehicle_type_id":"4","last_reported":1751623932,"current_range_meters":12400,"station_id":"","pricing_plan_id":"cebpf4jnsgd1na2vs0mg"},{"bike_id":"175513bb-dce2-48e2-83c8-1e9f1cb23cd0","system_id":"levelo_inurba_marseille","lat":43.286255,"lon":5.412651,"is_reserved":false,"is_disabled":false,"rental_uris":{"android":"levelo://app?vid=175513bb-dce2-48e2-83c8-1e9f1cb23cd0","ios":"levelo://app?vid=175513bb-dce2-48e2-83c8-1e9f1cb23cd0"},"vehicle_type_id":"4","last_reported":1751623932,"current_range_meters":12400,"station_id":"","pricing_plan_id":"cebpf4jnsgd1na2vs0mg"},{"bike_id":"6060b5e0-9c58-4802-a917-166cbe874b99","system_id":"levelo_inurba_marseille","lat":43.28421,"lon":5.34975,"is_reserved":false,"is_disabled":false,"rental_uris":{"android":"levelo://app?vid=6060b5e0-9c58-4802-a917-166cbe874b99","ios":"levelo://app?vid=6060b5e0-9c58-4802-a917-166cbe874b99"},"vehicle_type_id":"4","last_reported":1751623932,"current_range_meters":12400,"station_id":"ce4bhbh2rcd13ifvqepg","pricing_plan_id":"cebpf4jnsgd1na2vs0mg"},{"bike_id":"19169f2b-9ec4-4bc9-9902-2d819a4aac32","system_id":"levelo_inurba_marseille","lat":43.28271,"lon":5.35086,"is_reserved":false,"is_disabled":false,"rental_uris":{"android":"levelo://app?vid=19169f2b-9ec4-4bc9-9902-2d819a4aac32","ios":"levelo://app?vid=19169f2b-9ec4-4bc9-9902-2d819a4aac32"},"vehicle_type_id":"4","last_reported":1751623932,"current_range_meters":12400,"station_id":"ce4bhbp2rcd13ifvqerg","pricing_plan_id":"cebpf4jnsgd1na2vs0mg"},{"bike_id":"a201c986-8a12-4960-bcc8-f2c379ceddde","system_id":"levelo_inurba_marseille","lat":43.26552,"lon":5.39029,"is_reserved":false,"is_disabled":false,"rental_uris":{"android":"levelo://app?vid=a201c986-8a12-4960-bcc8-f2c379ceddde","ios":"levelo://app?vid=a201c986-8a12-4960-bcc8-f2c379ceddde"},"vehicle_type_id":"4","last_reported":1751623932,"current_range_meters":12400,"station_id":"ce4bhe12rcd13ifvqf30","pricing_plan_id":"cebpf4jnsgd1na2vs0mg"},{"bike_id":"3d07085a-bd26-49f0-a1f0-3f3eff4118e5","system_id":"levelo_inurba_marseille","lat":43.24802,"lon":5.37451,"is_reserved":false,"is_disabled":false,"rental_uris":{"android":"levelo://app?vid=3d07085a-bd26-49f0-a1f0-3f3eff4118e5","ios":"levelo://app?vid=3d07085a-bd26-49f0-a1f0-3f3eff4118e5"},"vehicle_type_id":"4","last_reported":1751623932,"current_range_meters":12400,"station_id":"ce4bhgh2rcd13ifvqfb0","pricing_plan_id":"cebpf4jnsgd1na2vs0mg"},{"bike_id":"62e288d8-e99a-4ebc-a826-066ab28ebb35","system_id":"levelo_inurba_marseille","lat":43.308257,"lon":5.435345,"is_reserved":false,"is_disabled":false,"rental_uris":{"android":"levelo://app?vid=62e288d8-e99a-4ebc-a826-066ab28ebb35","ios":"levelo://app?vid=62e288d8-e99a-4ebc-a826-066ab28ebb35"},"vehicle_type_id":"4","last_reported":1751623932,"current_range_meters":12400,"station_id":"ce4bhph2rcd13ifvqheg","pricing_plan_id":"cebpf4jnsgd1na2vs0mg"},{"bike_id":"17bbba49-1225-4b76-9710-bd3e4a04da0e","system_id":"levelo_inurba_marseille","lat":43.26668,"lon":5.38277,"is_reserved":false,"is_disabled":false,"rental_uris":{"android":"levelo://app?vid=17bbba49-1225-4b76-9710-bd3e4a04da0e","ios":"levelo://app?vid=17bbba49-1225-4b76-9710-bd3e4a04da0e"},"vehicle_type_id":"4","last_reported":1751623932,"current_range_meters":12800,"station_id":"ce4bhg92rcd13ifvqf90","pricing_plan_id":"cebpf4jnsgd1na2vs0mg"},{"bike_id":"6de437bd-d967-4b11-b7a7-ea342f94aa35","system_id":"levelo_inurba_marseille","lat":43.337444,"lon":5.374475,"is_reserved":false,"is_disabled":false,"rental_uris":{"android":"levelo://app?vid=6de437bd-d967-4b11-b7a7-ea342f94aa35","ios":"levelo://app?vid=6de437bd-d967-4b11-b7a7-ea342f94aa35"},"vehicle_type_id":"4","last_reported":1751623932,"current_range_meters":13600,"station_id":"","pricing_plan_id":"cebpf4jnsgd1na2vs0mg"},{"bike_id":"5e197122-e8ec-4f01-b370-6bbfc10c6950","system_id":"levelo_inurba_marseille","lat":43.21189,"lon":5.35066,"is_reserved":false,"is_disabled":false,"rental_uris":{"android":"levelo://app?vid=5e197122-e8ec-4f01-b370-6bbfc10c6950","ios":"levelo://app?vid=5e197122-e8ec-4f01-b370-6bbfc10c6950"},"vehicle_type_id":"4","last_reported":1751623932,"current_range_meters":13600,"station_id":"st_cvj6sg6p6f1abm77japg","pricing_plan_id":"cebpf4jnsgd1na2vs0mg"},{"bike_id":"43b8b648-960e-46ea-bfad-839bb09cb576","system_id":"levelo_inurba_marseille","lat":43.26213,"lon":5.37076,"is_reserved":false,"is_disabled":false,"rental_uris":{"android":"levelo://app?vid=43b8b648-960e-46ea-bfad-839bb09cb576","ios":"levelo://app?vid=43b8b648-960e-46ea-bfad-839bb09cb576"},"vehicle_type_id":"4","last_reported":1751623932,"current_range_meters":14000,"station_id":"","pricing_plan_id":"cebpf4jnsgd1na2vs0mg"},{"bike_id":"f180b4cb-724c-4dd7-90c4-ef2fbf955905","system_id":"levelo_inurba_marseille","lat":43.29042,"lon":5.38649,"is_reserved":false,"is_disabled":false,"rental_uris":{"android":"levelo://app?vid=f180b4cb-724c-4dd7-90c4-ef2fbf955905","ios":"levelo://app?vid=f180b4cb-724c-4dd7-90c4-ef2fbf955905"},"vehicle_type_id":"4","last_reported":1751623932,"current_range_meters":14000,"station_id":"ce4bh4p2rcd13ifvqe0g","pricing_plan_id":"cebpf4jnsgd1na2vs0mg"},{"bike_id":"6e703efe-d004-492b-a4e1-8f9a45caf618","system_id":"levelo_inurba_marseille","lat":43.30387,"lon":5.42486,"is_reserved":false,"is_disabled":false,"rental_uris":{"android":"levelo://app?vid=6e703efe-d004-492b-a4e1-8f9a45caf618","ios":"levelo://app?vid=6e703efe-d004-492b-a4e1-8f9a45caf618"},"vehicle_type_id":"4","last_reported":1751623932,"current_range_meters":14000,"station_id":"ce4bhoh2rcd13ifvqh6g","pricing_plan_id":"cebpf4jnsgd1na2vs0mg"},{"bike_id":"62d894a9-49a7-4047-9b1e-68c4f6b28f0b","system_id":"levelo_inurba_marseille","lat":43.29526,"lon":5.37506,"is_reserved":false,"is_disabled":false,"rental_uris":{"android":"levelo://app?vid=62d894a9-49a7-4047-9b1e-68c4f6b28f0b","ios":"levelo://app?vid=62d894a9-49a7-4047-9b1e-68c4f6b28f0b"},"vehicle_type_id":"4","last_reported":1751623932,"current_range_meters":14400,"station_id":"ce4bgkp2rcd13ifvqbmg","pricing_plan_id":"cebpf4jnsgd1na2vs0mg"},{"bike_id":"2a511ad2-ec04-4906-9a1e-84226866d707","system_id":"levelo_inurba_marseille","lat":43.29844,"lon":5.36279,"is_reserved":false,"is_disabled":false,"rental_uris":{"android":"levelo://app?vid=2a511ad2-ec04-4906-9a1e-84226866d707","ios":"levelo://app?vid=2a511ad2-ec04-4906-9a1e-84226866d707"},"vehicle_type_id":"4","last_reported":1751623932,"current_range_meters":14400,"station_id":"ce4bgpp2rcd13ifvqc3g","pricing_plan_id":"cebpf4jnsgd1na2vs0mg"},{"bike_id":"3b611aa5-8130-49fe-a7f9-24f1d46f0dd8","system_id":"levelo_inurba_marseille","lat":43.30515,"lon":5.36689,"is_reserved":false,"is_disabled":false,"rental_uris":{"android":"levelo://app?vid=3b611aa5-8130-49fe-a7f9-24f1d46f0dd8","ios":"levelo://app?vid=3b611aa5-8130-49fe-a7f9-24f1d46f0dd8"},"vehicle_type_id":"4","last_reported":1751623932,"current_range_meters":14400,"station_id":"ce4bgrp2rcd13ifvqc9g","pricing_plan_id":"cebpf4jnsgd1na2vs0mg"},{"bike_id":"df8334f1-5854-4f04-83d4-f882a7cf6b67","system_id":"levelo_inurba_marseille","lat":43.305485,"lon":5.365308,"is_reserved":false,"is_disabled":false,"rental_uris":{"android":"levelo://app?vid=df8334f1-5854-4f04-83d4-f882a7cf6b67","ios":"levelo://app?vid=df8334f1-5854-4f04-83d4-f882a7cf6b67"},"vehicle_type_id":"4","last_reported":1751623932,"current_range_meters":14400,"station_id":"ce4bgs12rcd13ifvqcag","pricing_plan_id":"cebpf4jnsgd1na2vs0mg"},{"bike_id":"aa8708a8-d8fb-4ce6-b460-8a3daf817691","system_id":"levelo_inurba_marseille","lat":43.29416,"lon":5.38598,"is_reserved":false,"is_disabled":false,"rental_uris":{"android":"levelo://app?vid=aa8708a8-d8fb-4ce6-b460-8a3daf817691","ios":"levelo://app?vid=aa8708a8-d8fb-4ce6-b460-8a3daf817691"},"vehicle_type_id":"4","last_reported":1751623932,"current_range_meters":14400,"station_id":"ce4bh2h2rcd13ifvqdh0","pricing_plan_id":"cebpf4jnsgd1na2vs0mg"},{"bike_id":"0c3a5f80-633d-40dd-84f8-61ca94019512","system_id":"levelo_inurba_marseille","lat":43.26192,"lon":5.37451,"is_reserved":false,"is_disabled":false,"rental_uris":{"android":"levelo://app?vid=0c3a5f80-633d-40dd-84f8-61ca94019512","ios":"levelo://app?vid=0c3a5f80-633d-40dd-84f8-61ca94019512"},"vehicle_type_id":"4","last_reported":1751623932,"current_range_meters":14400,"station_id":"ce4bhgp2rcd13ifvqfc0","pricing_plan_id":"cebpf4jnsgd1na2vs0mg"},{"bike_id":"9c9df26d-0f90-4acc-b196-d64e2ead2aa6","system_id":"levelo_inurba_marseille","lat":43.255,"lon":5.37689,"is_reserved":false,"is_disabled":false,"rental_uris":{"android":"levelo://app?vid=9c9df26d-0f90-4acc-b196-d64e2ead2aa6","ios":"levelo://app?vid=9c9df26d-0f90-4acc-b196-d64e2ead2aa6"},"vehicle_type_id":"4","last_reported":1751623932,"current_range_meters":14400,"station_id":"ce4bhh12rcd13ifvqff0","pricing_plan_id":"cebpf4jnsgd1na2vs0mg"},{"bike_id":"6eebadd3-99fa-48af-8556-1f64731f83a2","system_id":"levelo_inurba_marseille","lat":43.2308,"lon":5.35505,"is_reserved":false,"is_disabled":false,"rental_uris":{"android":"levelo://app?vid=6eebadd3-99fa-48af-8556-1f64731f83a2","ios":"levelo://app?vid=6eebadd3-99fa-48af-8556-1f64731f83a2"},"vehicle_type_id":"4","last_reported":1751623932,"current_range_meters":14400,"station_id":"cpo3342slgdg3j2ifvpg","pricing_plan_id":"cebpf4jnsgd1na2vs0mg"},{"bike_id":"d7d5b776-bcc7-423d-8a89-6abd09a6c07c","system_id":"levelo_inurba_marseille","lat":43.24151,"lon":5.36406,"is_reserved":false,"is_disabled":false,"rental_uris":{"android":"levelo://app?vid=d7d5b776-bcc7-423d-8a89-6abd09a6c07c","ios":"levelo://app?vid=d7d5b776-bcc7-423d-8a89-6abd09a6c07c"},"vehicle_type_id":"4","last_reported":1751623932,"current_range_meters":14400,"station_id":"cpo36qri1sfpv3e86is0","pricing_plan_id":"cebpf4jnsgd1na2vs0mg"},{"bike_id":"1c8ab180-05fd-405f-9922-b2b2c2d5142f","system_id":"levelo_inurba_marseille","lat":43.337951,"lon":5.381174,"is_reserved":false,"is_disabled":false,"rental_uris":{"android":"levelo://app?vid=1c8ab180-05fd-405f-9922-b2b2c2d5142f","ios":"levelo://app?vid=1c8ab180-05fd-405f-9922-b2b2c2d5142f"},"vehicle_type_id":"4","last_reported":1751623932,"current_range_meters":14800,"station_id":"","pricing_plan_id":"cebpf4jnsgd1na2vs0mg"},{"bike_id":"9c19f28e-d473-4f99-970d-c68304be080e","system_id":"levelo_inurba_marseille","lat":43.248107,"lon":5.374601,"is_reserved":false,"is_disabled":false,"rental_uris":{"android":"levelo://app?vid=9c19f28e-d473-4f99-970d-c68304be080e","ios":"levelo://app?vid=9c19f28e-d473-4f99-970d-c68304be080e"},"vehicle_type_id":"4","last_reported":1751623932,"current_range_meters":14800,"station_id":"ce4bhgh2rcd13ifvqfb0","pricing_plan_id":"cebpf4jnsgd1na2vs0mg"},{"bike_id":"2269140f-4ec7-4a6a-8b17-343f459ef511","system_id":"levelo_inurba_marseille","lat":43.336037,"lon":5.410286,"is_reserved":false,"is_disabled":false,"rental_uris":{"android":"levelo://app?vid=2269140f-4ec7-4a6a-8b17-343f459ef511","ios":"levelo://app?vid=2269140f-4ec7-4a6a-8b17-343f459ef511"},"vehicle_type_id":"4","last_reported":1751623932,"current_range_meters":14800,"station_id":"ce4bhqh2rcd13ifvqhmg","pricing_plan_id":"cebpf4jnsgd1na2vs0mg"},{"bike_id":"a81e5527-7d91-4d7c-bd50-ec4f2a259819","system_id":"levelo_inurba_marseille","lat":43.296212,"lon":5.371749,"is_reserved":false,"is_disabled":false,"rental_uris":{"android":"levelo://app?vid=a81e5527-7d91-4d7c-bd50-ec4f2a259819","ios":"levelo://app?vid=a81e5527-7d91-4d7c-bd50-ec4f2a259819"},"vehicle_type_id":"4","last_reported":1751623932,"current_range_meters":15200,"station_id":"","pricing_plan_id":"cebpf4jnsgd1na2vs0mg"},{"bike_id":"9d245003-dbeb-490d-9153-63ab4820c146","system_id":"levelo_inurba_marseille","lat":43.28839,"lon":5.39307,"is_reserved":false,"is_disabled":false,"rental_uris":{"android":"levelo://app?vid=9d245003-dbeb-490d-9153-63ab4820c146","ios":"levelo://app?vid=9d245003-dbeb-490d-9153-63ab4820c146"},"vehicle_type_id":"4","last_reported":1751623932,"current_range_meters":15200,"station_id":"ce4bh2p2rcd13ifvqdi0","pricing_plan_id":"cebpf4jnsgd1na2vs0mg"},{"bike_id":"b13877a6-4825-4d82-b46b-67fa8ad66c5d","system_id":"levelo_inurba_marseille","lat":43.21213,"lon":5.3503,"is_reserved":false,"is_disabled":false,"rental_uris":{"android":"levelo://app?vid=b13877a6-4825-4d82-b46b-67fa8ad66c5d","ios":"levelo://app?vid=b13877a6-4825-4d82-b46b-67fa8ad66c5d"},"vehicle_type_id":"4","last_reported":1751623932,"current_range_meters":16000,"station_id":"","pricing_plan_id":"cebpf4jnsgd1na2vs0mg"},{"bike_id":"de92352c-fe58-42d6-9c66-eb3c0e72a3f0","system_id":"levelo_inurba_marseille","lat":43.30543,"lon":5.36528,"is_reserved":false,"is_disabled":false,"rental_uris":{"android":"levelo://app?vid=de92352c-fe58-42d6-9c66-eb3c0e72a3f0","ios":"levelo://app?vid=de92352c-fe58-42d6-9c66-eb3c0e72a3f0"},"vehicle_type_id":"4","last_reported":1751623932,"current_range_meters":16000,"station_id":"ce4bgs12rcd13ifvqcag","pricing_plan_id":"cebpf4jnsgd1na2vs0mg"},{"bike_id":"95bd9665-5ca2-45eb-b356-fac399ecd692","system_id":"levelo_inurba_marseille","lat":43.28859,"lon":5.39306,"is_reserved":false,"is_disabled":false,"rental_uris":{"android":"levelo://app?vid=95bd9665-5ca2-45eb-b356-fac399ecd692","ios":"levelo://app?vid=95bd9665-5ca2-45eb-b356-fac399ecd692"},"vehicle_type_id":"4","last_reported":1751623932,"current_range_meters":16000,"station_id":"ce4bh2p2rcd13ifvqdi0","pricing_plan_id":"cebpf4jnsgd1na2vs0mg"},{"bike_id":"19f786e4-85da-41b1-a02f-c4779bde271f","system_id":"levelo_inurba_marseille","lat":43.26209,"lon":5.37439,"is_reserved":false,"is_disabled":false,"rental_uris":{"android":"levelo://app?vid=19f786e4-85da-41b1-a02f-c4779bde271f","ios":"levelo://app?vid=19f786e4-85da-41b1-a02f-c4779bde271f"},"vehicle_type_id":"4","last_reported":1751623932,"current_range_meters":16000,"station_id":"ce4bhgp2rcd13ifvqfc0","pricing_plan_id":"cebpf4jnsgd1na2vs0mg"},{"bike_id":"ba926bfc-9632-4680-b0ed-32a040d6fb83","system_id":"levelo_inurba_marseille","lat":43.21759,"lon":5.34602,"is_reserved":false,"is_disabled":false,"rental_uris":{"android":"levelo://app?vid=ba926bfc-9632-4680-b0ed-32a040d6fb83","ios":"levelo://app?vid=ba926bfc-9632-4680-b0ed-32a040d6fb83"},"vehicle_type_id":"4","last_reported":1751623932,"current_range_meters":16000,"station_id":"st_cvj6r9ubvosntc0bgbag","pricing_plan_id":"cebpf4jnsgd1na2vs0mg"},{"bike_id":"7712491c-e18b-4b09-bb79-30880b357c07","system_id":"levelo_inurba_marseille","lat":43.21193,"lon":5.35071,"is_reserved":false,"is_disabled":false,"rental_uris":{"android":"levelo://app?vid=7712491c-e18b-4b09-bb79-30880b357c07","ios":"levelo://app?vid=7712491c-e18b-4b09-bb79-30880b357c07"},"vehicle_type_id":"4","last_reported":1751623932,"current_range_meters":16000,"station_id":"st_cvj6sg6p6f1abm77japg","pricing_plan_id":"cebpf4jnsgd1na2vs0mg"},{"bike_id":"2c8d6737-b89d-408d-8770-af93b507a41f","system_id":"levelo_inurba_marseille","lat":43.30176,"lon":5.40068,"is_reserved":false,"is_disabled":false,"rental_uris":{"android":"levelo://app?vid=2c8d6737-b89d-408d-8770-af93b507a41f","ios":"levelo://app?vid=2c8d6737-b89d-408d-8770-af93b507a41f"},"vehicle_type_id":"4","last_reported":1751623932,"current_range_meters":16400,"station_id":"","pricing_plan_id":"cebpf4jnsgd1na2vs0mg"},{"bike_id":"8ab8a305-2312-4a47-a904-bdd1f1c3dfc7","system_id":"levelo_inurba_marseille","lat":43.31238,"lon":5.3685,"is_reserved":false,"is_disabled":false,"rental_uris":{"android":"levelo://app?vid=8ab8a305-2312-4a47-a904-bdd1f1c3dfc7","ios":"levelo://app?vid=8ab8a305-2312-4a47-a904-bdd1f1c3dfc7"},"vehicle_type_id":"4","last_reported":1751623932,"current_range_meters":16400,"station_id":"ce4bgl92rcd13ifvqbq0","pricing_plan_id":"cebpf4jnsgd1na2vs0mg"},{"bike_id":"f8adfd7b-cefd-44a3-9f60-db1ab2a29318","system_id":"levelo_inurba_marseille","lat":43.28344,"lon":5.38103,"is_reserved":false,"is_disabled":false,"rental_uris":{"android":"levelo://app?vid=f8adfd7b-cefd-44a3-9f60-db1ab2a29318","ios":"levelo://app?vid=f8adfd7b-cefd-44a3-9f60-db1ab2a29318"},"vehicle_type_id":"4","last_reported":1751623932,"current_range_meters":16400,"station_id":"ce4bh412rcd13ifvqdr0","pricing_plan_id":"cebpf4jnsgd1na2vs0mg"},{"bike_id":"16175ea0-dfce-4fe5-9965-65da986ba2ca","system_id":"levelo_inurba_marseille","lat":43.28664,"lon":5.38668,"is_reserved":false,"is_disabled":false,"rental_uris":{"android":"levelo://app?vid=16175ea0-dfce-4fe5-9965-65da986ba2ca","ios":"levelo://app?vid=16175ea0-dfce-4fe5-9965-65da986ba2ca"},"vehicle_type_id":"4","last_reported":1751623932,"current_range_meters":16400,"station_id":"ce4bh492rcd13ifvqdug","pricing_plan_id":"cebpf4jnsgd1na2vs0mg"},{"bike_id":"11069914-c649-4cdd-b0cf-b4577e6037a4","system_id":"levelo_inurba_marseille","lat":43.266851,"lon":5.38253,"is_reserved":false,"is_disabled":false,"rental_uris":{"android":"levelo://app?vid=11069914-c649-4cdd-b0cf-b4577e6037a4","ios":"levelo://app?vid=11069914-c649-4cdd-b0cf-b4577e6037a4"},"vehicle_type_id":"4","last_reported":1751623932,"current_range_meters":16400,"station_id":"ce4bhg92rcd13ifvqf90","pricing_plan_id":"cebpf4jnsgd1na2vs0mg"},{"bike_id":"094015c2-44e4-40f7-a843-9cd2d9cb1f82","system_id":"levelo_inurba_marseille","lat":43.21761,"lon":5.346,"is_reserved":false,"is_disabled":false,"rental_uris":{"android":"levelo://app?vid=094015c2-44e4-40f7-a843-9cd2d9cb1f82","ios":"levelo://app?vid=094015c2-44e4-40f7-a843-9cd2d9cb1f82"},"vehicle_type_id":"4","last_reported":1751623932,"current_range_meters":16400,"station_id":"st_cvj6r9ubvosntc0bgbag","pricing_plan_id":"cebpf4jnsgd1na2vs0mg"},{"bike_id":"4b8da722-ee9e-48a4-a5e5-3a8a10364708","system_id":"levelo_inurba_marseille","lat":43.3122,"lon":5.37805,"is_reserved":false,"is_disabled":false,"rental_uris":{"android":"levelo://app?vid=4b8da722-ee9e-48a4-a5e5-3a8a10364708","ios":"levelo://app?vid=4b8da722-ee9e-48a4-a5e5-3a8a10364708"},"vehicle_type_id":"4","last_reported":1751623932,"current_range_meters":16800,"station_id":"","pricing_plan_id":"cebpf4jnsgd1na2vs0mg"},{"bike_id":"2e0ea20e-2a7e-42a9-a497-6bd358a9deec","system_id":"levelo_inurba_marseille","lat":43.30521,"lon":5.36698,"is_reserved":false,"is_disabled":false,"rental_uris":{"android":"levelo://app?vid=2e0ea20e-2a7e-42a9-a497-6bd358a9deec","ios":"levelo://app?vid=2e0ea20e-2a7e-42a9-a497-6bd358a9deec"},"vehicle_type_id":"4","last_reported":1751623932,"current_range_meters":16800,"station_id":"ce4bgrp2rcd13ifvqc9g","pricing_plan_id":"cebpf4jnsgd1na2vs0mg"},{"bike_id":"cad1cd7e-34ac-4400-83bd-503aa2619497","system_id":"levelo_inurba_marseille","lat":43.2843,"lon":5.34986,"is_reserved":false,"is_disabled":false,"rental_uris":{"android":"levelo://app?vid=cad1cd7e-34ac-4400-83bd-503aa2619497","ios":"levelo://app?vid=cad1cd7e-34ac-4400-83bd-503aa2619497"},"vehicle_type_id":"4","last_reported":1751623932,"current_range_meters":16800,"station_id":"ce4bhbh2rcd13ifvqepg","pricing_plan_id":"cebpf4jnsgd1na2vs0mg"},{"bike_id":"247580a9-eb21-4664-8e29-25bf1fab4a65","system_id":"levelo_inurba_marseille","lat":43.27056,"lon":5.4028,"is_reserved":false,"is_disabled":false,"rental_uris":{"android":"levelo://app?vid=247580a9-eb21-4664-8e29-25bf1fab4a65","ios":"levelo://app?vid=247580a9-eb21-4664-8e29-25bf1fab4a65"},"vehicle_type_id":"4","last_reported":1751623932,"current_range_meters":16800,"station_id":"ce4bhk92rcd13ifvqgc0","pricing_plan_id":"cebpf4jnsgd1na2vs0mg"},{"bike_id":"803ea62c-5ad8-4299-85e2-9c9608aedc4a","system_id":"levelo_inurba_marseille","lat":43.25728,"lon":5.41123,"is_reserved":false,"is_disabled":false,"rental_uris":{"android":"levelo://app?vid=803ea62c-5ad8-4299-85e2-9c9608aedc4a","ios":"levelo://app?vid=803ea62c-5ad8-4299-85e2-9c9608aedc4a"},"vehicle_type_id":"4","last_reported":1751623932,"current_range_meters":16800,"station_id":"ce4bhkp2rcd13ifvqgd0","pricing_plan_id":"cebpf4jnsgd1na2vs0mg"},{"bike_id":"fcde7ec1-c822-490b-b66f-c815c08d7815","system_id":"levelo_inurba_marseille","lat":43.32464,"lon":5.36585,"is_reserved":false,"is_disabled":false,"rental_uris":{"android":"levelo://app?vid=fcde7ec1-c822-490b-b66f-c815c08d7815","ios":"levelo://app?vid=fcde7ec1-c822-490b-b66f-c815c08d7815"},"vehicle_type_id":"4","last_reported":1751623932,"current_range_meters":16800,"station_id":"ce4bhs12rcd13ifvqhvg","pricing_plan_id":"cebpf4jnsgd1na2vs0mg"},{"bike_id":"9fd23e4f-0256-4154-a556-7f39a460d046","system_id":"levelo_inurba_marseille","lat":43.30348,"lon":5.37884,"is_reserved":false,"is_disabled":false,"rental_uris":{"android":"levelo://app?vid=9fd23e4f-0256-4154-a556-7f39a460d046","ios":"levelo://app?vid=9fd23e4f-0256-4154-a556-7f39a460d046"},"vehicle_type_id":"4","last_reported":1751623932,"current_range_meters":17200,"station_id":"","pricing_plan_id":"cebpf4jnsgd1na2vs0mg"},{"bike_id":"6bcca8da-9d3d-49cd-a79a-564cb18e1427","system_id":"levelo_inurba_marseille","lat":43.29513,"lon":5.37503,"is_reserved":false,"is_disabled":false,"rental_uris":{"android":"levelo://app?vid=6bcca8da-9d3d-49cd-a79a-564cb18e1427","ios":"levelo://app?vid=6bcca8da-9d3d-49cd-a79a-564cb18e1427"},"vehicle_type_id":"4","last_reported":1751623932,"current_range_meters":17200,"station_id":"ce4bgkp2rcd13ifvqbmg","pricing_plan_id":"cebpf4jnsgd1na2vs0mg"},{"bike_id":"46bf0f8e-888c-4cc0-8476-7df88d54b178","system_id":"levelo_inurba_marseille","lat":43.267853,"lon":5.394117,"is_reserved":false,"is_disabled":false,"rental_uris":{"android":"levelo://app?vid=46bf0f8e-888c-4cc0-8476-7df88d54b178","ios":"levelo://app?vid=46bf0f8e-888c-4cc0-8476-7df88d54b178"},"vehicle_type_id":"4","last_reported":1751623932,"current_range_meters":17200,"station_id":"ce4bhh12rcd13ifvqfg0","pricing_plan_id":"cebpf4jnsgd1na2vs0mg"},{"bike_id":"1bbe87fa-7751-4499-9c9f-02df3ce5b80c","system_id":"levelo_inurba_marseille","lat":43.25017,"lon":5.38926,"is_reserved":false,"is_disabled":false,"rental_uris":{"android":"levelo://app?vid=1bbe87fa-7751-4499-9c9f-02df3ce5b80c","ios":"levelo://app?vid=1bbe87fa-7751-4499-9c9f-02df3ce5b80c"},"vehicle_type_id":"4","last_reported":1751623932,"current_range_meters":17600,"station_id":"ce4bhgp2rcd13ifvqfd0","pricing_plan_id":"cebpf4jnsgd1na2vs0mg"},{"bike_id":"c13c93ac-6b62-443c-9e36-caf61b27325a","system_id":"levelo_inurba_marseille","lat":43.21193,"lon":5.35067,"is_reserved":false,"is_disabled":false,"rental_uris":{"android":"levelo://app?vid=c13c93ac-6b62-443c-9e36-caf61b27325a","ios":"levelo://app?vid=c13c93ac-6b62-443c-9e36-caf61b27325a"},"vehicle_type_id":"4","last_reported":1751623932,"current_range_meters":17600,"station_id":"st_cvj6sg6p6f1abm77japg","pricing_plan_id":"cebpf4jnsgd1na2vs0mg"},{"bike_id":"29049025-09ac-4757-9f06-75d542b3ee3b","system_id":"levelo_inurba_marseille","lat":43.29416,"lon":5.38615,"is_reserved":false,"is_disabled":false,"rental_uris":{"android":"levelo://app?vid=29049025-09ac-4757-9f06-75d542b3ee3b","ios":"levelo://app?vid=29049025-09ac-4757-9f06-75d542b3ee3b"},"vehicle_type_id":"4","last_reported":1751623932,"current_range_meters":18000,"station_id":"ce4bh2h2rcd13ifvqdh0","pricing_plan_id":"cebpf4jnsgd1na2vs0mg"},{"bike_id":"926fe6aa-eaee-40ae-80ac-71f3d3a7b4a6","system_id":"levelo_inurba_marseille","lat":43.29414,"lon":5.38627,"is_reserved":false,"is_disabled":false,"rental_uris":{"android":"levelo://app?vid=926fe6aa-eaee-40ae-80ac-71f3d3a7b4a6","ios":"levelo://app?vid=926fe6aa-eaee-40ae-80ac-71f3d3a7b4a6"},"vehicle_type_id":"4","last_reported":1751623932,"current_range_meters":18000,"station_id":"ce4bh2h2rcd13ifvqdh0","pricing_plan_id":"cebpf4jnsgd1na2vs0mg"},{"bike_id":"af5aaf96-f7b1-4bfb-9557-efbc087b3e8f","system_id":"levelo_inurba_marseille","lat":43.29415,"lon":5.38624,"is_reserved":false,"is_disabled":false,"rental_uris":{"android":"levelo://app?vid=af5aaf96-f7b1-4bfb-9557-efbc087b3e8f","ios":"levelo://app?vid=af5aaf96-f7b1-4bfb-9557-efbc087b3e8f"},"vehicle_type_id":"4","last_reported":1751623932,"current_range_meters":18000,"station_id":"ce4bh2h2rcd13ifvqdh0","pricing_plan_id":"cebpf4jnsgd1na2vs0mg"},{"bike_id":"40e5031b-7015-4c42-b5f7-92b42a6e7f18","system_id":"levelo_inurba_marseille","lat":43.26951,"lon":5.38678,"is_reserved":false,"is_disabled":false,"rental_uris":{"android":"levelo://app?vid=40e5031b-7015-4c42-b5f7-92b42a6e7f18","ios":"levelo://app?vid=40e5031b-7015-4c42-b5f7-92b42a6e7f18"},"vehicle_type_id":"4","last_reported":1751623932,"current_range_meters":18000,"station_id":"ce4bhh92rcd13ifvqfh0","pricing_plan_id":"cebpf4jnsgd1na2vs0mg"},{"bike_id":"098ecd40-b596-4066-a6d8-156ade02875f","system_id":"levelo_inurba_marseille","lat":43.3254,"lon":5.41458,"is_reserved":false,"is_disabled":false,"rental_uris":{"android":"levelo://app?vid=098ecd40-b596-4066-a6d8-156ade02875f","ios":"levelo://app?vid=098ecd40-b596-4066-a6d8-156ade02875f"},"vehicle_type_id":"4","last_reported":1751623932,"current_range_meters":18000,"station_id":"ce4bhq12rcd13ifvqhhg","pricing_plan_id":"cebpf4jnsgd1na2vs0mg"},{"bike_id":"5f470112-8139-4343-b082-08a74e0b7074","system_id":"levelo_inurba_marseille","lat":43.21187,"lon":5.35093,"is_reserved":false,"is_disabled":false,"rental_uris":{"android":"levelo://app?vid=5f470112-8139-4343-b082-08a74e0b7074","ios":"levelo://app?vid=5f470112-8139-4343-b082-08a74e0b7074"},"vehicle_type_id":"4","last_reported":1751623932,"current_range_meters":18000,"station_id":"st_cvj6sg6p6f1abm77japg","pricing_plan_id":"cebpf4jnsgd1na2vs0mg"},{"bike_id":"132f514e-93f0-43c7-839f-d57c0515d3ec","system_id":"levelo_inurba_marseille","lat":43.24995,"lon":5.38929,"is_reserved":false,"is_disabled":false,"rental_uris":{"android":"levelo://app?vid=132f514e-93f0-43c7-839f-d57c0515d3ec","ios":"levelo://app?vid=132f514e-93f0-43c7-839f-d57c0515d3ec"},"vehicle_type_id":"4","last_reported":1751623932,"current_range_meters":18800,"station_id":"ce4bhgp2rcd13ifvqfd0","pricing_plan_id":"cebpf4jnsgd1na2vs0mg"},{"bike_id":"5715b556-e66f-4b39-8f33-920a402dceaf","system_id":"levelo_inurba_marseille","lat":43.24998,"lon":5.38921,"is_reserved":false,"is_disabled":false,"rental_uris":{"android":"levelo://app?vid=5715b556-e66f-4b39-8f33-920a402dceaf","ios":"levelo://app?vid=5715b556-e66f-4b39-8f33-920a402dceaf"},"vehicle_type_id":"4","last_reported":1751623932,"current_range_meters":18800,"station_id":"ce4bhgp2rcd13ifvqfd0","pricing_plan_id":"cebpf4jnsgd1na2vs0mg"},{"bike_id":"94a043cb-47ff-4ca6-93d7-c0fbfc1b02b6","system_id":"levelo_inurba_marseille","lat":43.32663,"lon":5.40983,"is_reserved":false,"is_disabled":false,"rental_uris":{"android":"levelo://app?vid=94a043cb-47ff-4ca6-93d7-c0fbfc1b02b6","ios":"levelo://app?vid=94a043cb-47ff-4ca6-93d7-c0fbfc1b02b6"},"vehicle_type_id":"4","last_reported":1751623932,"current_range_meters":18800,"station_id":"ce4bhpp2rcd13ifvqhgg","pricing_plan_id":"cebpf4jnsgd1na2vs0mg"},{"bike_id":"4a7062f8-6786-497e-af85-b5d0bf6aba4a","system_id":"levelo_inurba_marseille","lat":43.33725,"lon":5.39185,"is_reserved":false,"is_disabled":false,"rental_uris":{"android":"levelo://app?vid=4a7062f8-6786-497e-af85-b5d0bf6aba4a","ios":"levelo://app?vid=4a7062f8-6786-497e-af85-b5d0bf6aba4a"},"vehicle_type_id":"4","last_reported":1751623932,"current_range_meters":18800,"station_id":"ce4bhr92rcd13ifvqhsg","pricing_plan_id":"cebpf4jnsgd1na2vs0mg"},{"bike_id":"4fad03db-6790-4ca6-be49-ac7cb1765f8a","system_id":"levelo_inurba_marseille","lat":43.27373,"lon":5.36261,"is_reserved":false,"is_disabled":false,"rental_uris":{"android":"levelo://app?vid=4fad03db-6790-4ca6-be49-ac7cb1765f8a","ios":"levelo://app?vid=4fad03db-6790-4ca6-be49-ac7cb1765f8a"},"vehicle_type_id":"4","last_reported":1751623932,"current_range_meters":19200,"station_id":"ce4bhbh2rcd13ifvqeo0","pricing_plan_id":"cebpf4jnsgd1na2vs0mg"},{"bike_id":"efb3358b-3f44-4947-90d1-801b05df49b1","system_id":"levelo_inurba_marseille","lat":43.26212,"lon":5.37435,"is_reserved":false,"is_disabled":false,"rental_uris":{"android":"levelo://app?vid=efb3358b-3f44-4947-90d1-801b05df49b1","ios":"levelo://app?vid=efb3358b-3f44-4947-90d1-801b05df49b1"},"vehicle_type_id":"4","last_reported":1751623932,"current_range_meters":19200,"station_id":"ce4bhgp2rcd13ifvqfc0","pricing_plan_id":"cebpf4jnsgd1na2vs0mg"},{"bike_id":"ab0517af-d74a-4310-8be7-b29545ac4328","system_id":"levelo_inurba_marseille","lat":43.3266,"lon":5.40985,"is_reserved":false,"is_disabled":false,"rental_uris":{"android":"levelo://app?vid=ab0517af-d74a-4310-8be7-b29545ac4328","ios":"levelo://app?vid=ab0517af-d74a-4310-8be7-b29545ac4328"},"vehicle_type_id":"4","last_reported":1751623932,"current_range_meters":19200,"station_id":"ce4bhpp2rcd13ifvqhgg","pricing_plan_id":"cebpf4jnsgd1na2vs0mg"},{"bike_id":"d5467415-be19-4598-b2a8-d393a9144be1","system_id":"levelo_inurba_marseille","lat":43.21185,"lon":5.35071,"is_reserved":false,"is_disabled":false,"rental_uris":{"android":"levelo://app?vid=d5467415-be19-4598-b2a8-d393a9144be1","ios":"levelo://app?vid=d5467415-be19-4598-b2a8-d393a9144be1"},"vehicle_type_id":"4","last_reported":1751623932,"current_range_meters":19200,"station_id":"st_cvj6sg6p6f1abm77japg","pricing_plan_id":"cebpf4jnsgd1na2vs0mg"},{"bike_id":"25d65b54-2483-49ad-9e8c-b4102ded682f","system_id":"levelo_inurba_marseille","lat":43.21205,"lon":5.35119,"is_reserved":false,"is_disabled":false,"rental_uris":{"android":"levelo://app?vid=25d65b54-2483-49ad-9e8c-b4102ded682f","ios":"levelo://app?vid=25d65b54-2483-49ad-9e8c-b4102ded682f"},"vehicle_type_id":"4","last_reported":1751623932,"current_range_meters":19200,"station_id":"st_cvj6sg6p6f1abm77japg","pricing_plan_id":"cebpf4jnsgd1na2vs0mg"},{"bike_id":"1036f3b5-5954-48a3-93e5-d291f1ca0c73","system_id":"levelo_inurba_marseille","lat":43.29519,"lon":5.37547,"is_reserved":false,"is_disabled":false,"rental_uris":{"android":"levelo://app?vid=1036f3b5-5954-48a3-93e5-d291f1ca0c73","ios":"levelo://app?vid=1036f3b5-5954-48a3-93e5-d291f1ca0c73"},"vehicle_type_id":"4","last_reported":1751623932,"current_range_meters":19600,"station_id":"ce4bgkp2rcd13ifvqbmg","pricing_plan_id":"cebpf4jnsgd1na2vs0mg"},{"bike_id":"833d4012-1850-408d-892e-fbe658c67e46","system_id":"levelo_inurba_marseille","lat":43.31242,"lon":5.36879,"is_reserved":false,"is_disabled":false,"rental_uris":{"android":"levelo://app?vid=833d4012-1850-408d-892e-fbe658c67e46","ios":"levelo://app?vid=833d4012-1850-408d-892e-fbe658c67e46"},"vehicle_type_id":"4","last_reported":1751623932,"current_range_meters":19600,"station_id":"ce4bgl92rcd13ifvqbq0","pricing_plan_id":"cebpf4jnsgd1na2vs0mg"},{"bike_id":"8b3bde99-1e56-4f80-be0c-adf2588f3f11","system_id":"levelo_inurba_marseille","lat":43.29255,"lon":5.38436,"is_reserved":false,"is_disabled":false,"rental_uris":{"android":"levelo://app?vid=8b3bde99-1e56-4f80-be0c-adf2588f3f11","ios":"levelo://app?vid=8b3bde99-1e56-4f80-be0c-adf2588f3f11"},"vehicle_type_id":"4","last_reported":1751623932,"current_range_meters":19600,"station_id":"ce4bh692rcd13ifvqea0","pricing_plan_id":"cebpf4jnsgd1na2vs0mg"},{"bike_id":"6d5ba58c-dd8b-489d-ae8f-89052454adc1","system_id":"levelo_inurba_marseille","lat":43.31527,"lon":5.38037,"is_reserved":false,"is_disabled":false,"rental_uris":{"android":"levelo://app?vid=6d5ba58c-dd8b-489d-ae8f-89052454adc1","ios":"levelo://app?vid=6d5ba58c-dd8b-489d-ae8f-89052454adc1"},"vehicle_type_id":"4","last_reported":1751623932,"current_range_meters":19600,"station_id":"ce4bhsp2rcd13ifvqi50","pricing_plan_id":"cebpf4jnsgd1na2vs0mg"},{"bike_id":"134a6fd1-cb8b-4ade-a0c2-0b22bf7dca76","system_id":"levelo_inurba_marseille","lat":43.21191,"lon":5.3507,"is_reserved":false,"is_disabled":false,"rental_uris":{"android":"levelo://app?vid=134a6fd1-cb8b-4ade-a0c2-0b22bf7dca76","ios":"levelo://app?vid=134a6fd1-cb8b-4ade-a0c2-0b22bf7dca76"},"vehicle_type_id":"4","last_reported":1751623932,"current_range_meters":19600,"station_id":"st_cvj6sg6p6f1abm77japg","pricing_plan_id":"cebpf4jnsgd1na2vs0mg"},{"bike_id":"b09408bb-9baf-4cc2-85c8-41d4cd91b9c6","system_id":"levelo_inurba_marseille","lat":43.289715,"lon":5.398132,"is_reserved":false,"is_disabled":false,"rental_uris":{"android":"levelo://app?vid=b09408bb-9baf-4cc2-85c8-41d4cd91b9c6","ios":"levelo://app?vid=b09408bb-9baf-4cc2-85c8-41d4cd91b9c6"},"vehicle_type_id":"4","last_reported":1751623932,"current_range_meters":20000,"station_id":"ce4bgi92rcd13ifvqb90","pricing_plan_id":"cebpf4jnsgd1na2vs0mg"},{"bike_id":"b5664604-8e8e-4ec1-9f49-27d0276bcadf","system_id":"levelo_inurba_marseille","lat":43.295127,"lon":5.390363,"is_reserved":false,"is_disabled":false,"rental_uris":{"android":"levelo://app?vid=b5664604-8e8e-4ec1-9f49-27d0276bcadf","ios":"levelo://app?vid=b5664604-8e8e-4ec1-9f49-27d0276bcadf"},"vehicle_type_id":"4","last_reported":1751623932,"current_range_meters":20000,"station_id":"ce4bh3p2rcd13ifvqdp0","pricing_plan_id":"cebpf4jnsgd1na2vs0mg"},{"bike_id":"e6f5b10a-f2b7-44bc-88d3-8d846dc2bc1e","system_id":"levelo_inurba_marseille","lat":43.250123,"lon":5.38912,"is_reserved":false,"is_disabled":false,"rental_uris":{"android":"levelo://app?vid=e6f5b10a-f2b7-44bc-88d3-8d846dc2bc1e","ios":"levelo://app?vid=e6f5b10a-f2b7-44bc-88d3-8d846dc2bc1e"},"vehicle_type_id":"4","last_reported":1751623932,"current_range_meters":20000,"station_id":"ce4bhgp2rcd13ifvqfd0","pricing_plan_id":"cebpf4jnsgd1na2vs0mg"},{"bike_id":"39a359e9-c2ba-43dc-8897-db923128eb22","system_id":"levelo_inurba_marseille","lat":43.32493,"lon":5.36588,"is_reserved":false,"is_disabled":false,"rental_uris":{"android":"levelo://app?vid=39a359e9-c2ba-43dc-8897-db923128eb22","ios":"levelo://app?vid=39a359e9-c2ba-43dc-8897-db923128eb22"},"vehicle_type_id":"4","last_reported":1751623932,"current_range_meters":20000,"station_id":"ce4bhs12rcd13ifvqhvg","pricing_plan_id":"cebpf4jnsgd1na2vs0mg"},{"bike_id":"10c9a7c7-0ad3-453f-8453-0006ffba2fec","system_id":"levelo_inurba_marseille","lat":43.211907,"lon":5.350706,"is_reserved":false,"is_disabled":false,"rental_uris":{"android":"levelo://app?vid=10c9a7c7-0ad3-453f-8453-0006ffba2fec","ios":"levelo://app?vid=10c9a7c7-0ad3-453f-8453-0006ffba2fec"},"vehicle_type_id":"4","last_reported":1751623932,"current_range_meters":20000,"station_id":"st_cvj6sg6p6f1abm77japg","pricing_plan_id":"cebpf4jnsgd1na2vs0mg"},{"bike_id":"3130cf75-37ee-497a-ad7c-c4e550ea64f0","system_id":"levelo_inurba_marseille","lat":43.313506,"lon":5.367306,"is_reserved":false,"is_disabled":false,"rental_uris":{"android":"levelo://app?vid=3130cf75-37ee-497a-ad7c-c4e550ea64f0","ios":"levelo://app?vid=3130cf75-37ee-497a-ad7c-c4e550ea64f0"},"vehicle_type_id":"4","last_reported":1751623932,"current_range_meters":20400,"station_id":"ce4bgr92rcd13ifvqc6g","pricing_plan_id":"cebpf4jnsgd1na2vs0mg"},{"bike_id":"7a53855e-65a3-46aa-9935-d1bd71ac29a1","system_id":"levelo_inurba_marseille","lat":43.30544,"lon":5.36532,"is_reserved":false,"is_disabled":false,"rental_uris":{"android":"levelo://app?vid=7a53855e-65a3-46aa-9935-d1bd71ac29a1","ios":"levelo://app?vid=7a53855e-65a3-46aa-9935-d1bd71ac29a1"},"vehicle_type_id":"4","last_reported":1751623932,"current_range_meters":20400,"station_id":"ce4bgs12rcd13ifvqcag","pricing_plan_id":"cebpf4jnsgd1na2vs0mg"},{"bike_id":"82f31ee6-7247-4664-9db2-8958b71061c4","system_id":"levelo_inurba_marseille","lat":43.30463,"lon":5.37901,"is_reserved":false,"is_disabled":false,"rental_uris":{"android":"levelo://app?vid=82f31ee6-7247-4664-9db2-8958b71061c4","ios":"levelo://app?vid=82f31ee6-7247-4664-9db2-8958b71061c4"},"vehicle_type_id":"4","last_reported":1751623932,"current_range_meters":20400,"station_id":"ce4bgup2rcd13ifvqcn0","pricing_plan_id":"cebpf4jnsgd1na2vs0mg"},{"bike_id":"299277ca-31f9-4302-bbfe-19478cb82de0","system_id":"levelo_inurba_marseille","lat":43.30126,"lon":5.39841,"is_reserved":false,"is_disabled":false,"rental_uris":{"android":"levelo://app?vid=299277ca-31f9-4302-bbfe-19478cb82de0","ios":"levelo://app?vid=299277ca-31f9-4302-bbfe-19478cb82de0"},"vehicle_type_id":"4","last_reported":1751623932,"current_range_meters":20400,"station_id":"ce4bh0h2rcd13ifvqd40","pricing_plan_id":"cebpf4jnsgd1na2vs0mg"},{"bike_id":"fdc4aafa-c344-457f-80ba-5893e37bc863","system_id":"levelo_inurba_marseille","lat":43.28875,"lon":5.35874,"is_reserved":false,"is_disabled":false,"rental_uris":{"android":"levelo://app?vid=fdc4aafa-c344-457f-80ba-5893e37bc863","ios":"levelo://app?vid=fdc4aafa-c344-457f-80ba-5893e37bc863"},"vehicle_type_id":"4","last_reported":1751623932,"current_range_meters":20400,"station_id":"ce4bhb12rcd13ifvqem0","pricing_plan_id":"cebpf4jnsgd1na2vs0mg"},{"bike_id":"16f8d0d2-f9eb-44c1-a1c6-6e3f1b685f7e","system_id":"levelo_inurba_marseille","lat":43.3037,"lon":5.42493,"is_reserved":false,"is_disabled":false,"rental_uris":{"android":"levelo://app?vid=16f8d0d2-f9eb-44c1-a1c6-6e3f1b685f7e","ios":"levelo://app?vid=16f8d0d2-f9eb-44c1-a1c6-6e3f1b685f7e"},"vehicle_type_id":"4","last_reported":1751623932,"current_range_meters":20400,"station_id":"ce4bhoh2rcd13ifvqh6g","pricing_plan_id":"cebpf4jnsgd1na2vs0mg"},{"bike_id":"d5ef770d-9759-47e3-b3a5-7d2785ef76db","system_id":"levelo_inurba_marseille","lat":43.33028,"lon":5.39054,"is_reserved":false,"is_disabled":false,"rental_uris":{"android":"levelo://app?vid=d5ef770d-9759-47e3-b3a5-7d2785ef76db","ios":"levelo://app?vid=d5ef770d-9759-47e3-b3a5-7d2785ef76db"},"vehicle_type_id":"4","last_reported":1751623932,"current_range_meters":20400,"station_id":"ce4bhr92rcd13ifvqhrg","pricing_plan_id":"cebpf4jnsgd1na2vs0mg"},{"bike_id":"0e95c039-e344-4ef2-8ae3-2271111801b3","system_id":"levelo_inurba_marseille","lat":43.22499,"lon":5.34793,"is_reserved":false,"is_disabled":false,"rental_uris":{"android":"levelo://app?vid=0e95c039-e344-4ef2-8ae3-2271111801b3","ios":"levelo://app?vid=0e95c039-e344-4ef2-8ae3-2271111801b3"},"vehicle_type_id":"4","last_reported":1751623932,"current_range_meters":20800,"station_id":"","pricing_plan_id":"cebpf4jnsgd1na2vs0mg"},{"bike_id":"fe8ee84c-fdfc-40aa-a1c2-6e36409c0740","system_id":"levelo_inurba_marseille","lat":43.268186,"lon":5.390559,"is_reserved":false,"is_disabled":false,"rental_uris":{"android":"levelo://app?vid=fe8ee84c-fdfc-40aa-a1c2-6e36409c0740","ios":"levelo://app?vid=fe8ee84c-fdfc-40aa-a1c2-6e36409c0740"},"vehicle_type_id":"4","last_reported":1751623932,"current_range_meters":20800,"station_id":"","pricing_plan_id":"cebpf4jnsgd1na2vs0mg"},{"bike_id":"bd5b2d33-4c45-43aa-8e94-e6402b1b3ccc","system_id":"levelo_inurba_marseille","lat":43.30476,"lon":5.37902,"is_reserved":false,"is_disabled":false,"rental_uris":{"android":"levelo://app?vid=bd5b2d33-4c45-43aa-8e94-e6402b1b3ccc","ios":"levelo://app?vid=bd5b2d33-4c45-43aa-8e94-e6402b1b3ccc"},"vehicle_type_id":"4","last_reported":1751623932,"current_range_meters":20800,"station_id":"ce4bgup2rcd13ifvqcn0","pricing_plan_id":"cebpf4jnsgd1na2vs0mg"},{"bike_id":"4ab99d3b-f6ee-45fa-a31c-fed6034b9db7","system_id":"levelo_inurba_marseille","lat":43.2573,"lon":5.41107,"is_reserved":false,"is_disabled":false,"rental_uris":{"android":"levelo://app?vid=4ab99d3b-f6ee-45fa-a31c-fed6034b9db7","ios":"levelo://app?vid=4ab99d3b-f6ee-45fa-a31c-fed6034b9db7"},"vehicle_type_id":"4","last_reported":1751623932,"current_range_meters":20800,"station_id":"ce4bhmh2rcd13ifvqgmg","pricing_plan_id":"cebpf4jnsgd1na2vs0mg"},{"bike_id":"5de814c8-f2c3-4f5f-84fd-6ec1a99ac78a","system_id":"levelo_inurba_marseille","lat":43.324811,"lon":5.365559,"is_reserved":false,"is_disabled":false,"rental_uris":{"android":"levelo://app?vid=5de814c8-f2c3-4f5f-84fd-6ec1a99ac78a","ios":"levelo://app?vid=5de814c8-f2c3-4f5f-84fd-6ec1a99ac78a"},"vehicle_type_id":"4","last_reported":1751623932,"current_range_meters":20800,"station_id":"ce4bhs12rcd13ifvqhvg","pricing_plan_id":"cebpf4jnsgd1na2vs0mg"},{"bike_id":"2d010dde-28b6-4b22-8515-deab65fcc05c","system_id":"levelo_inurba_marseille","lat":43.313586,"lon":5.36728,"is_reserved":false,"is_disabled":false,"rental_uris":{"android":"levelo://app?vid=2d010dde-28b6-4b22-8515-deab65fcc05c","ios":"levelo://app?vid=2d010dde-28b6-4b22-8515-deab65fcc05c"},"vehicle_type_id":"4","last_reported":1751623932,"current_range_meters":21600,"station_id":"ce4bgr92rcd13ifvqc6g","pricing_plan_id":"cebpf4jnsgd1na2vs0mg"},{"bike_id":"5b5ca915-19f5-4c5c-ba88-71fe4a9869eb","system_id":"levelo_inurba_marseille","lat":43.31682,"lon":5.37785,"is_reserved":false,"is_disabled":false,"rental_uris":{"android":"levelo://app?vid=5b5ca915-19f5-4c5c-ba88-71fe4a9869eb","ios":"levelo://app?vid=5b5ca915-19f5-4c5c-ba88-71fe4a9869eb"},"vehicle_type_id":"4","last_reported":1751623932,"current_range_meters":21600,"station_id":"ce4bgth2rcd13ifvqch0","pricing_plan_id":"cebpf4jnsgd1na2vs0mg"},{"bike_id":"deb01d3e-ca47-4671-90bf-d8abe3a9759a","system_id":"levelo_inurba_marseille","lat":43.321,"lon":5.36797,"is_reserved":false,"is_disabled":false,"rental_uris":{"android":"levelo://app?vid=deb01d3e-ca47-4671-90bf-d8abe3a9759a","ios":"levelo://app?vid=deb01d3e-ca47-4671-90bf-d8abe3a9759a"},"vehicle_type_id":"4","last_reported":1751623932,"current_range_meters":21600,"station_id":"ce4bhrh2rcd13ifvqhug","pricing_plan_id":"cebpf4jnsgd1na2vs0mg"},{"bike_id":"bf24b26e-7f51-4120-9a48-54c87edaa2f7","system_id":"levelo_inurba_marseille","lat":43.211944,"lon":5.350679,"is_reserved":false,"is_disabled":false,"rental_uris":{"android":"levelo://app?vid=bf24b26e-7f51-4120-9a48-54c87edaa2f7","ios":"levelo://app?vid=bf24b26e-7f51-4120-9a48-54c87edaa2f7"},"vehicle_type_id":"4","last_reported":1751623932,"current_range_meters":21600,"station_id":"st_cvj6sg6p6f1abm77japg","pricing_plan_id":"cebpf4jnsgd1na2vs0mg"},{"bike_id":"37b15466-7142-4c73-b5ac-dbdc9ad7d9be","system_id":"levelo_inurba_marseille","lat":43.30533,"lon":5.36695,"is_reserved":false,"is_disabled":false,"rental_uris":{"android":"levelo://app?vid=37b15466-7142-4c73-b5ac-dbdc9ad7d9be","ios":"levelo://app?vid=37b15466-7142-4c73-b5ac-dbdc9ad7d9be"},"vehicle_type_id":"4","last_reported":1751623932,"current_range_meters":22000,"station_id":"ce4bgrp2rcd13ifvqc9g","pricing_plan_id":"cebpf4jnsgd1na2vs0mg"},{"bike_id":"b6c14319-e14a-496c-9468-1ca9ce035cfe","system_id":"levelo_inurba_marseille","lat":43.304298,"lon":5.39746,"is_reserved":false,"is_disabled":false,"rental_uris":{"android":"levelo://app?vid=b6c14319-e14a-496c-9468-1ca9ce035cfe","ios":"levelo://app?vid=b6c14319-e14a-496c-9468-1ca9ce035cfe"},"vehicle_type_id":"4","last_reported":1751623932,"current_range_meters":22000,"station_id":"ce4bh092rcd13ifvqd20","pricing_plan_id":"cebpf4jnsgd1na2vs0mg"},{"bike_id":"d867e655-4e55-4ba6-98d0-aed0566977ec","system_id":"levelo_inurba_marseille","lat":43.28269,"lon":5.3506,"is_reserved":false,"is_disabled":false,"rental_uris":{"android":"levelo://app?vid=d867e655-4e55-4ba6-98d0-aed0566977ec","ios":"levelo://app?vid=d867e655-4e55-4ba6-98d0-aed0566977ec"},"vehicle_type_id":"4","last_reported":1751623932,"current_range_meters":22000,"station_id":"ce4bhbp2rcd13ifvqerg","pricing_plan_id":"cebpf4jnsgd1na2vs0mg"},{"bike_id":"a5569f1f-6749-443f-8051-64d77109baf2","system_id":"levelo_inurba_marseille","lat":43.23957,"lon":5.3663,"is_reserved":false,"is_disabled":false,"rental_uris":{"android":"levelo://app?vid=a5569f1f-6749-443f-8051-64d77109baf2","ios":"levelo://app?vid=a5569f1f-6749-443f-8051-64d77109baf2"},"vehicle_type_id":"4","last_reported":1751623932,"current_range_meters":22000,"station_id":"ce4bhi12rcd13ifvqfp0","pricing_plan_id":"cebpf4jnsgd1na2vs0mg"},{"bike_id":"54e2ff83-51a3-4168-a836-2707bf5f6a00","system_id":"levelo_inurba_marseille","lat":43.29562,"lon":5.37502,"is_reserved":false,"is_disabled":false,"rental_uris":{"android":"levelo://app?vid=54e2ff83-51a3-4168-a836-2707bf5f6a00","ios":"levelo://app?vid=54e2ff83-51a3-4168-a836-2707bf5f6a00"},"vehicle_type_id":"4","last_reported":1751623932,"current_range_meters":22400,"station_id":"ce4bgh92rcd13ifvqb50","pricing_plan_id":"cebpf4jnsgd1na2vs0mg"},{"bike_id":"7db7ae85-4919-423b-8954-1ea126f77885","system_id":"levelo_inurba_marseille","lat":43.30146,"lon":5.38085,"is_reserved":false,"is_disabled":false,"rental_uris":{"android":"levelo://app?vid=7db7ae85-4919-423b-8954-1ea126f77885","ios":"levelo://app?vid=7db7ae85-4919-423b-8954-1ea126f77885"},"vehicle_type_id":"4","last_reported":1751623932,"current_range_meters":22400,"station_id":"ce4bgjp2rcd13ifvqbh0","pricing_plan_id":"cebpf4jnsgd1na2vs0mg"},{"bike_id":"ec10a1c2-254f-4f03-8c49-160ff77dd2b0","system_id":"levelo_inurba_marseille","lat":43.25966,"lon":5.40919,"is_reserved":false,"is_disabled":false,"rental_uris":{"android":"levelo://app?vid=ec10a1c2-254f-4f03-8c49-160ff77dd2b0","ios":"levelo://app?vid=ec10a1c2-254f-4f03-8c49-160ff77dd2b0"},"vehicle_type_id":"4","last_reported":1751623932,"current_range_meters":22400,"station_id":"ce4bhm92rcd13ifvqglg","pricing_plan_id":"cebpf4jnsgd1na2vs0mg"},{"bike_id":"a2f4feb5-e1ee-496b-9627-dde237a6a62c","system_id":"levelo_inurba_marseille","lat":43.27988,"lon":5.41658,"is_reserved":false,"is_disabled":false,"rental_uris":{"android":"levelo://app?vid=a2f4feb5-e1ee-496b-9627-dde237a6a62c","ios":"levelo://app?vid=a2f4feb5-e1ee-496b-9627-dde237a6a62c"},"vehicle_type_id":"4","last_reported":1751623932,"current_range_meters":22400,"station_id":"ce4bho12rcd13ifvqh1g","pricing_plan_id":"cebpf4jnsgd1na2vs0mg"},{"bike_id":"5ab5ebc1-9843-493a-b04c-b3a3d072652b","system_id":"levelo_inurba_marseille","lat":43.324845,"lon":5.365624,"is_reserved":false,"is_disabled":false,"rental_uris":{"android":"levelo://app?vid=5ab5ebc1-9843-493a-b04c-b3a3d072652b","ios":"levelo://app?vid=5ab5ebc1-9843-493a-b04c-b3a3d072652b"},"vehicle_type_id":"4","last_reported":1751623932,"current_range_meters":22400,"station_id":"ce4bhs12rcd13ifvqhvg","pricing_plan_id":"cebpf4jnsgd1na2vs0mg"},{"bike_id":"f37760c6-ab8b-450e-9ddc-f3de596404e2","system_id":"levelo_inurba_marseille","lat":43.290224,"lon":5.375486,"is_reserved":false,"is_disabled":false,"rental_uris":{"android":"levelo://app?vid=f37760c6-ab8b-450e-9ddc-f3de596404e2","ios":"levelo://app?vid=f37760c6-ab8b-450e-9ddc-f3de596404e2"},"vehicle_type_id":"4","last_reported":1751623932,"current_range_meters":22800,"station_id":"","pricing_plan_id":"cebpf4jnsgd1na2vs0mg"},{"bike_id":"488f7164-6a81-4bc2-9321-8e991109ccf8","system_id":"levelo_inurba_marseille","lat":43.31862,"lon":5.38995,"is_reserved":false,"is_disabled":false,"rental_uris":{"android":"levelo://app?vid=488f7164-6a81-4bc2-9321-8e991109ccf8","ios":"levelo://app?vid=488f7164-6a81-4bc2-9321-8e991109ccf8"},"vehicle_type_id":"4","last_reported":1751623932,"current_range_meters":22800,"station_id":"","pricing_plan_id":"cebpf4jnsgd1na2vs0mg"},{"bike_id":"db9353b0-14dd-4746-add7-0f7865d381f6","system_id":"levelo_inurba_marseille","lat":43.30897,"lon":5.36835,"is_reserved":false,"is_disabled":false,"rental_uris":{"android":"levelo://app?vid=db9353b0-14dd-4746-add7-0f7865d381f6","ios":"levelo://app?vid=db9353b0-14dd-4746-add7-0f7865d381f6"},"vehicle_type_id":"4","last_reported":1751623932,"current_range_meters":22800,"station_id":"ce4bgn92rcd13ifvqbvg","pricing_plan_id":"cebpf4jnsgd1na2vs0mg"},{"bike_id":"f0d7d96c-32d8-4950-bba3-25d69e8aba8d","system_id":"levelo_inurba_marseille","lat":43.30425,"lon":5.3975,"is_reserved":false,"is_disabled":false,"rental_uris":{"android":"levelo://app?vid=f0d7d96c-32d8-4950-bba3-25d69e8aba8d","ios":"levelo://app?vid=f0d7d96c-32d8-4950-bba3-25d69e8aba8d"},"vehicle_type_id":"4","last_reported":1751623932,"current_range_meters":22800,"station_id":"ce4bh092rcd13ifvqd20","pricing_plan_id":"cebpf4jnsgd1na2vs0mg"},{"bike_id":"0f09e0f1-3ff8-4b28-93fc-d58b4c32a833","system_id":"levelo_inurba_marseille","lat":43.28272,"lon":5.3506,"is_reserved":false,"is_disabled":false,"rental_uris":{"android":"levelo://app?vid=0f09e0f1-3ff8-4b28-93fc-d58b4c32a833","ios":"levelo://app?vid=0f09e0f1-3ff8-4b28-93fc-d58b4c32a833"},"vehicle_type_id":"4","last_reported":1751623932,"current_range_meters":22800,"station_id":"ce4bhbp2rcd13ifvqerg","pricing_plan_id":"cebpf4jnsgd1na2vs0mg"},{"bike_id":"60b26546-ce98-47d2-a53b-241fe2cc6932","system_id":"levelo_inurba_marseille","lat":43.279663,"lon":5.387529,"is_reserved":false,"is_disabled":false,"rental_uris":{"android":"levelo://app?vid=60b26546-ce98-47d2-a53b-241fe2cc6932","ios":"levelo://app?vid=60b26546-ce98-47d2-a53b-241fe2cc6932"},"vehicle_type_id":"4","last_reported":1751623932,"current_range_meters":22800,"station_id":"ce4bhg12rcd13ifvqf80","pricing_plan_id":"cebpf4jnsgd1na2vs0mg"},{"bike_id":"87c4e338-d7a5-4fef-98a1-6901cbbdf006","system_id":"levelo_inurba_marseille","lat":43.2407,"lon":5.3776,"is_reserved":false,"is_disabled":false,"rental_uris":{"android":"levelo://app?vid=87c4e338-d7a5-4fef-98a1-6901cbbdf006","ios":"levelo://app?vid=87c4e338-d7a5-4fef-98a1-6901cbbdf006"},"vehicle_type_id":"4","last_reported":1751623932,"current_range_meters":22800,"station_id":"ce4bhnp2rcd13ifvqgvg","pricing_plan_id":"cebpf4jnsgd1na2vs0mg"},{"bike_id":"f09dc403-e8f5-40b0-ab8c-c3ff30a67cb9","system_id":"levelo_inurba_marseille","lat":43.32476,"lon":5.36555,"is_reserved":false,"is_disabled":false,"rental_uris":{"android":"levelo://app?vid=f09dc403-e8f5-40b0-ab8c-c3ff30a67cb9","ios":"levelo://app?vid=f09dc403-e8f5-40b0-ab8c-c3ff30a67cb9"},"vehicle_type_id":"4","last_reported":1751623932,"current_range_meters":22800,"station_id":"ce4bhs12rcd13ifvqhvg","pricing_plan_id":"cebpf4jnsgd1na2vs0mg"},{"bike_id":"369fd0cd-8044-4812-9c4f-bc06b51c05e2","system_id":"levelo_inurba_marseille","lat":43.23194,"lon":5.35552,"is_reserved":false,"is_disabled":false,"rental_uris":{"android":"levelo://app?vid=369fd0cd-8044-4812-9c4f-bc06b51c05e2","ios":"levelo://app?vid=369fd0cd-8044-4812-9c4f-bc06b51c05e2"},"vehicle_type_id":"4","last_reported":1751623932,"current_range_meters":22800,"station_id":"ce4bhu92rcd13ifvqi70","pricing_plan_id":"cebpf4jnsgd1na2vs0mg"},{"bike_id":"208f3ca8-5ae1-4afa-bf93-2fb945fa389b","system_id":"levelo_inurba_marseille","lat":43.230642,"lon":5.354892,"is_reserved":false,"is_disabled":false,"rental_uris":{"android":"levelo://app?vid=208f3ca8-5ae1-4afa-bf93-2fb945fa389b","ios":"levelo://app?vid=208f3ca8-5ae1-4afa-bf93-2fb945fa389b"},"vehicle_type_id":"4","last_reported":1751623932,"current_range_meters":22800,"station_id":"cpo3342slgdg3j2ifvpg","pricing_plan_id":"cebpf4jnsgd1na2vs0mg"},{"bike_id":"2ada1317-c2ce-4488-a0b8-84f07d933f1c","system_id":"levelo_inurba_marseille","lat":43.24167,"lon":5.36405,"is_reserved":false,"is_disabled":false,"rental_uris":{"android":"levelo://app?vid=2ada1317-c2ce-4488-a0b8-84f07d933f1c","ios":"levelo://app?vid=2ada1317-c2ce-4488-a0b8-84f07d933f1c"},"vehicle_type_id":"4","last_reported":1751623932,"current_range_meters":22800,"station_id":"cpo36qri1sfpv3e86is0","pricing_plan_id":"cebpf4jnsgd1na2vs0mg"},{"bike_id":"e449aa29-cae1-4432-9aec-dedc13360b20","system_id":"levelo_inurba_marseille","lat":43.21192,"lon":5.35063,"is_reserved":false,"is_disabled":false,"rental_uris":{"android":"levelo://app?vid=e449aa29-cae1-4432-9aec-dedc13360b20","ios":"levelo://app?vid=e449aa29-cae1-4432-9aec-dedc13360b20"},"vehicle_type_id":"4","last_reported":1751623932,"current_range_meters":22800,"station_id":"st_cvj6sg6p6f1abm77japg","pricing_plan_id":"cebpf4jnsgd1na2vs0mg"},{"bike_id":"057ab877-3f4f-4065-b61e-946bbeae92be","system_id":"levelo_inurba_marseille","lat":43.27803,"lon":5.37692,"is_reserved":false,"is_disabled":false,"rental_uris":{"android":"levelo://app?vid=057ab877-3f4f-4065-b61e-946bbeae92be","ios":"levelo://app?vid=057ab877-3f4f-4065-b61e-946bbeae92be"},"vehicle_type_id":"4","last_reported":1751623932,"current_range_meters":23200,"station_id":"","pricing_plan_id":"cebpf4jnsgd1na2vs0mg"},{"bike_id":"f43c6f92-997d-4d5f-aa6d-f76d2a93f2a5","system_id":"levelo_inurba_marseille","lat":43.27682,"lon":5.38387,"is_reserved":false,"is_disabled":false,"rental_uris":{"android":"levelo://app?vid=f43c6f92-997d-4d5f-aa6d-f76d2a93f2a5","ios":"levelo://app?vid=f43c6f92-997d-4d5f-aa6d-f76d2a93f2a5"},"vehicle_type_id":"4","last_reported":1751623932,"current_range_meters":23200,"station_id":"","pricing_plan_id":"cebpf4jnsgd1na2vs0mg"},{"bike_id":"0d149a14-0552-44ad-9f8b-ce3f0718cc03","system_id":"levelo_inurba_marseille","lat":43.297807,"lon":5.371078,"is_reserved":false,"is_disabled":false,"rental_uris":{"android":"levelo://app?vid=0d149a14-0552-44ad-9f8b-ce3f0718cc03","ios":"levelo://app?vid=0d149a14-0552-44ad-9f8b-ce3f0718cc03"},"vehicle_type_id":"4","last_reported":1751623932,"current_range_meters":23200,"station_id":"ce4bgop2rcd13ifvqc1g","pricing_plan_id":"cebpf4jnsgd1na2vs0mg"},{"bike_id":"611d1f12-2191-462e-bc74-b631388d44fb","system_id":"levelo_inurba_marseille","lat":43.29841,"lon":5.36277,"is_reserved":false,"is_disabled":false,"rental_uris":{"android":"levelo://app?vid=611d1f12-2191-462e-bc74-b631388d44fb","ios":"levelo://app?vid=611d1f12-2191-462e-bc74-b631388d44fb"},"vehicle_type_id":"4","last_reported":1751623932,"current_range_meters":23200,"station_id":"ce4bgpp2rcd13ifvqc3g","pricing_plan_id":"cebpf4jnsgd1na2vs0mg"},{"bike_id":"33f60e3e-864f-4cd7-86bb-9fc18a60ef72","system_id":"levelo_inurba_marseille","lat":43.301831,"lon":5.366281,"is_reserved":false,"is_disabled":false,"rental_uris":{"android":"levelo://app?vid=33f60e3e-864f-4cd7-86bb-9fc18a60ef72","ios":"levelo://app?vid=33f60e3e-864f-4cd7-86bb-9fc18a60ef72"},"vehicle_type_id":"4","last_reported":1751623932,"current_range_meters":23200,"station_id":"ce4bgrh2rcd13ifvqc8g","pricing_plan_id":"cebpf4jnsgd1na2vs0mg"},{"bike_id":"3d0f29e5-1fd2-44c3-adf8-8c0f9f627c3b","system_id":"levelo_inurba_marseille","lat":43.30569,"lon":5.36711,"is_reserved":false,"is_disabled":false,"rental_uris":{"android":"levelo://app?vid=3d0f29e5-1fd2-44c3-adf8-8c0f9f627c3b","ios":"levelo://app?vid=3d0f29e5-1fd2-44c3-adf8-8c0f9f627c3b"},"vehicle_type_id":"4","last_reported":1751623932,"current_range_meters":23200,"station_id":"ce4bgrp2rcd13ifvqc9g","pricing_plan_id":"cebpf4jnsgd1na2vs0mg"},{"bike_id":"73dc139b-da6b-4314-b230-e37e69fe6cf8","system_id":"levelo_inurba_marseille","lat":43.29028,"lon":5.38135,"is_reserved":false,"is_disabled":false,"rental_uris":{"android":"levelo://app?vid=73dc139b-da6b-4314-b230-e37e69fe6cf8","ios":"levelo://app?vid=73dc139b-da6b-4314-b230-e37e69fe6cf8"},"vehicle_type_id":"4","last_reported":1751623932,"current_range_meters":23200,"station_id":"ce4bh4p2rcd13ifvqe1g","pricing_plan_id":"cebpf4jnsgd1na2vs0mg"},{"bike_id":"56b6ad19-4256-414e-8b98-58ab83afe68e","system_id":"levelo_inurba_marseille","lat":43.29026,"lon":5.35596,"is_reserved":false,"is_disabled":false,"rental_uris":{"android":"levelo://app?vid=56b6ad19-4256-414e-8b98-58ab83afe68e","ios":"levelo://app?vid=56b6ad19-4256-414e-8b98-58ab83afe68e"},"vehicle_type_id":"4","last_reported":1751623932,"current_range_meters":23200,"station_id":"ce4bhb92rcd13ifvqen0","pricing_plan_id":"cebpf4jnsgd1na2vs0mg"},{"bike_id":"31b2ddf3-53f2-4913-a4d6-6c8bc264b1ea","system_id":"levelo_inurba_marseille","lat":43.27809,"lon":5.40706,"is_reserved":false,"is_disabled":false,"rental_uris":{"android":"levelo://app?vid=31b2ddf3-53f2-4913-a4d6-6c8bc264b1ea","ios":"levelo://app?vid=31b2ddf3-53f2-4913-a4d6-6c8bc264b1ea"},"vehicle_type_id":"4","last_reported":1751623932,"current_range_meters":23200,"station_id":"ce4bhnh2rcd13ifvqgtg","pricing_plan_id":"cebpf4jnsgd1na2vs0mg"},{"bike_id":"aad2184a-bfc0-43f6-9887-b4d62815b208","system_id":"levelo_inurba_marseille","lat":43.22929,"lon":5.35383,"is_reserved":false,"is_disabled":false,"rental_uris":{"android":"levelo://app?vid=aad2184a-bfc0-43f6-9887-b4d62815b208","ios":"levelo://app?vid=aad2184a-bfc0-43f6-9887-b4d62815b208"},"vehicle_type_id":"4","last_reported":1751623932,"current_range_meters":23200,"station_id":"cpo3532slgdg3j2ikp40","pricing_plan_id":"cebpf4jnsgd1na2vs0mg"},{"bike_id":"26db8b44-d658-4aaf-8d6a-5aa35415f6bc","system_id":"levelo_inurba_marseille","lat":43.211899,"lon":5.350689,"is_reserved":false,"is_disabled":false,"rental_uris":{"android":"levelo://app?vid=26db8b44-d658-4aaf-8d6a-5aa35415f6bc","ios":"levelo://app?vid=26db8b44-d658-4aaf-8d6a-5aa35415f6bc"},"vehicle_type_id":"4","last_reported":1751623932,"current_range_meters":23200,"station_id":"st_cvj6sg6p6f1abm77japg","pricing_plan_id":"cebpf4jnsgd1na2vs0mg"},{"bike_id":"d62928af-7001-48cc-b9b7-cf8ad71feceb","system_id":"levelo_inurba_marseille","lat":43.29976,"lon":5.37184,"is_reserved":false,"is_disabled":false,"rental_uris":{"android":"levelo://app?vid=d62928af-7001-48cc-b9b7-cf8ad71feceb","ios":"levelo://app?vid=d62928af-7001-48cc-b9b7-cf8ad71feceb"},"vehicle_type_id":"4","last_reported":1751623932,"current_range_meters":24000,"station_id":"ce4bgr92rcd13ifvqc7g","pricing_plan_id":"cebpf4jnsgd1na2vs0mg"},{"bike_id":"b0ec5ab7-6042-48d9-8954-78e88fb1c1c1","system_id":"levelo_inurba_marseille","lat":43.31167,"lon":5.3872,"is_reserved":false,"is_disabled":false,"rental_uris":{"android":"levelo://app?vid=b0ec5ab7-6042-48d9-8954-78e88fb1c1c1","ios":"levelo://app?vid=b0ec5ab7-6042-48d9-8954-78e88fb1c1c1"},"vehicle_type_id":"4","last_reported":1751623932,"current_range_meters":24000,"station_id":"ce4bgv12rcd13ifvqcp0","pricing_plan_id":"cebpf4jnsgd1na2vs0mg"},{"bike_id":"f8c21735-deaf-4c11-9fdd-fd3106387613","system_id":"levelo_inurba_marseille","lat":43.30277,"lon":5.37767,"is_reserved":false,"is_disabled":false,"rental_uris":{"android":"levelo://app?vid=f8c21735-deaf-4c11-9fdd-fd3106387613","ios":"levelo://app?vid=f8c21735-deaf-4c11-9fdd-fd3106387613"},"vehicle_type_id":"4","last_reported":1751623932,"current_range_meters":24000,"station_id":"ce4bh092rcd13ifvqd20","pricing_plan_id":"cebpf4jnsgd1na2vs0mg"},{"bike_id":"7c114285-a48d-45c1-bd05-494eeb0bd1cb","system_id":"levelo_inurba_marseille","lat":43.29518,"lon":5.3905,"is_reserved":false,"is_disabled":false,"rental_uris":{"android":"levelo://app?vid=7c114285-a48d-45c1-bd05-494eeb0bd1cb","ios":"levelo://app?vid=7c114285-a48d-45c1-bd05-494eeb0bd1cb"},"vehicle_type_id":"4","last_reported":1751623932,"current_range_meters":24000,"station_id":"ce4bh3p2rcd13ifvqdp0","pricing_plan_id":"cebpf4jnsgd1na2vs0mg"},{"bike_id":"a71eeef0-9771-4589-95c6-e96b0ec245e7","system_id":"levelo_inurba_marseille","lat":43.2797,"lon":5.38746,"is_reserved":false,"is_disabled":false,"rental_uris":{"android":"levelo://app?vid=a71eeef0-9771-4589-95c6-e96b0ec245e7","ios":"levelo://app?vid=a71eeef0-9771-4589-95c6-e96b0ec245e7"},"vehicle_type_id":"4","last_reported":1751623932,"current_range_meters":24000,"station_id":"ce4bhg12rcd13ifvqf80","pricing_plan_id":"cebpf4jnsgd1na2vs0mg"},{"bike_id":"a150a857-bb2f-4aa4-bb24-e510f27d6fc1","system_id":"levelo_inurba_marseille","lat":43.24169,"lon":5.36426,"is_reserved":false,"is_disabled":false,"rental_uris":{"android":"levelo://app?vid=a150a857-bb2f-4aa4-bb24-e510f27d6fc1","ios":"levelo://app?vid=a150a857-bb2f-4aa4-bb24-e510f27d6fc1"},"vehicle_type_id":"4","last_reported":1751623932,"current_range_meters":24000,"station_id":"cpo36qri1sfpv3e86is0","pricing_plan_id":"cebpf4jnsgd1na2vs0mg"},{"bike_id":"355c4347-d492-4426-9595-eb2fa42f1c20","system_id":"levelo_inurba_marseille","lat":43.22503,"lon":5.34783,"is_reserved":false,"is_disabled":false,"rental_uris":{"android":"levelo://app?vid=355c4347-d492-4426-9595-eb2fa42f1c20","ios":"levelo://app?vid=355c4347-d492-4426-9595-eb2fa42f1c20"},"vehicle_type_id":"4","last_reported":1751623932,"current_range_meters":24000,"station_id":"st_cvj5dfep6f1abm77gieg","pricing_plan_id":"cebpf4jnsgd1na2vs0mg"},{"bike_id":"8bf0d992-d2a0-428e-940a-091ee9b7c2a4","system_id":"levelo_inurba_marseille","lat":43.21195,"lon":5.35072,"is_reserved":false,"is_disabled":false,"rental_uris":{"android":"levelo://app?vid=8bf0d992-d2a0-428e-940a-091ee9b7c2a4","ios":"levelo://app?vid=8bf0d992-d2a0-428e-940a-091ee9b7c2a4"},"vehicle_type_id":"4","last_reported":1751623932,"current_range_meters":24000,"station_id":"st_cvj6sg6p6f1abm77japg","pricing_plan_id":"cebpf4jnsgd1na2vs0mg"},{"bike_id":"655a110d-474d-43b1-a203-d9e462e1a783","system_id":"levelo_inurba_marseille","lat":43.21181,"lon":5.35098,"is_reserved":false,"is_disabled":false,"rental_uris":{"android":"levelo://app?vid=655a110d-474d-43b1-a203-d9e462e1a783","ios":"levelo://app?vid=655a110d-474d-43b1-a203-d9e462e1a783"},"vehicle_type_id":"4","last_reported":1751623932,"current_range_meters":24000,"station_id":"st_cvj6sg6p6f1abm77japg","pricing_plan_id":"cebpf4jnsgd1na2vs0mg"},{"bike_id":"452e8211-4f44-45d0-814a-3e9e25b8c44e","system_id":"levelo_inurba_marseille","lat":43.211918,"lon":5.350705,"is_reserved":false,"is_disabled":false,"rental_uris":{"android":"levelo://app?vid=452e8211-4f44-45d0-814a-3e9e25b8c44e","ios":"levelo://app?vid=452e8211-4f44-45d0-814a-3e9e25b8c44e"},"vehicle_type_id":"4","last_reported":1751623932,"current_range_meters":24000,"station_id":"st_cvj6sg6p6f1abm77japg","pricing_plan_id":"cebpf4jnsgd1na2vs0mg"},{"bike_id":"497688f5-8f5b-4a3b-bf32-1a398847343f","system_id":"levelo_inurba_marseille","lat":43.30811,"lon":5.37666,"is_reserved":false,"is_disabled":false,"rental_uris":{"android":"levelo://app?vid=497688f5-8f5b-4a3b-bf32-1a398847343f","ios":"levelo://app?vid=497688f5-8f5b-4a3b-bf32-1a398847343f"},"vehicle_type_id":"4","last_reported":1751623932,"current_range_meters":24400,"station_id":"ce4bgv92rcd13ifvqcq0","pricing_plan_id":"cebpf4jnsgd1na2vs0mg"},{"bike_id":"e753b65c-3531-4c48-bc59-5ae654810b7f","system_id":"levelo_inurba_marseille","lat":43.30126,"lon":5.39863,"is_reserved":false,"is_disabled":false,"rental_uris":{"android":"levelo://app?vid=e753b65c-3531-4c48-bc59-5ae654810b7f","ios":"levelo://app?vid=e753b65c-3531-4c48-bc59-5ae654810b7f"},"vehicle_type_id":"4","last_reported":1751623932,"current_range_meters":24400,"station_id":"ce4bh0h2rcd13ifvqd40","pricing_plan_id":"cebpf4jnsgd1na2vs0mg"},{"bike_id":"1f8473d1-ca1b-44b0-8a61-fdae254dc30c","system_id":"levelo_inurba_marseille","lat":43.26681,"lon":5.38274,"is_reserved":false,"is_disabled":false,"rental_uris":{"android":"levelo://app?vid=1f8473d1-ca1b-44b0-8a61-fdae254dc30c","ios":"levelo://app?vid=1f8473d1-ca1b-44b0-8a61-fdae254dc30c"},"vehicle_type_id":"4","last_reported":1751623932,"current_range_meters":24400,"station_id":"ce4bhg92rcd13ifvqf90","pricing_plan_id":"cebpf4jnsgd1na2vs0mg"},{"bike_id":"b4017108-eca5-493f-adbd-5cd57a27c161","system_id":"levelo_inurba_marseille","lat":43.2695,"lon":5.38638,"is_reserved":false,"is_disabled":false,"rental_uris":{"android":"levelo://app?vid=b4017108-eca5-493f-adbd-5cd57a27c161","ios":"levelo://app?vid=b4017108-eca5-493f-adbd-5cd57a27c161"},"vehicle_type_id":"4","last_reported":1751623932,"current_range_meters":24400,"station_id":"ce4bhh92rcd13ifvqfh0","pricing_plan_id":"cebpf4jnsgd1na2vs0mg"},{"bike_id":"3de24168-dca2-41ac-b30a-9ecaaef942cb","system_id":"levelo_inurba_marseille","lat":43.27059,"lon":5.40261,"is_reserved":false,"is_disabled":false,"rental_uris":{"android":"levelo://app?vid=3de24168-dca2-41ac-b30a-9ecaaef942cb","ios":"levelo://app?vid=3de24168-dca2-41ac-b30a-9ecaaef942cb"},"vehicle_type_id":"4","last_reported":1751623932,"current_range_meters":24400,"station_id":"ce4bhk92rcd13ifvqgc0","pricing_plan_id":"cebpf4jnsgd1na2vs0mg"},{"bike_id":"fdfbaab4-d7d4-4e53-beb9-f117457382a8","system_id":"levelo_inurba_marseille","lat":43.29889,"lon":5.43666,"is_reserved":false,"is_disabled":false,"rental_uris":{"android":"levelo://app?vid=fdfbaab4-d7d4-4e53-beb9-f117457382a8","ios":"levelo://app?vid=fdfbaab4-d7d4-4e53-beb9-f117457382a8"},"vehicle_type_id":"4","last_reported":1751623932,"current_range_meters":24400,"station_id":"ce4bhpp2rcd13ifvqhfg","pricing_plan_id":"cebpf4jnsgd1na2vs0mg"},