{"last_updated":1762899018,"ttl":60,"version":"2.2","data":{"bikes":[{"bike_id":"d7db12ce-11cc-4c98-8751-ac59baa5d7aa","system_id":"levelo_inurba_marseille","lat":43.337444,"lon":5.374475,"is_reserved":false,"is_disabled":false,"rental_uris":{"android":"levelo://app?vid=d7db12ce-11cc-4c98-8751-ac59baa5d7aa","ios":"levelo://app?vid=d7db12ce-11cc-4c98-8751-ac59baa5d7aa"},"vehicle_type_id":"4","last_reported":1762899018,"current_range_meters":0,"station_id":"","pricing_plan_id":"cebpf4jnsgd1na2vs0mg"},{"bike_id":"1b267de1-bcca-40ed-87d1-2e39c381830d","system_id":"levelo_inurba_marseille","lat":43.225342,"lon":5.348387,"is_reserved":false,"is_disabled":false,"rental_uris":{"android":"levelo://app?vid=1b267de1-bcca-40ed-87d1-2e39c381830d","ios":"levelo://app?vid=1b267de1-bcca-40ed-87d1-2e39c381830d"},"vehicle_type_id":"4","last_reported":1762899018,"current_range_meters":3200,"station_id":"","pricing_plan_id":"cebpf4jnsgd1na2vs0mg"},{"bike_id":"71ab641e-e198-4d03-b32c-808c119ba3d5","system_id":"levelo_inurba_marseille","lat":43.30139,"lon":5.38781,"is_reserved":false,"is_disabled":false,"rental_uris":{"android":"levelo://app?vid=71ab641e-e198-4d03-b32c-808c119ba3d5","ios":"levelo://app?vid=71ab641e-e198-4d03-b32c-808c119ba3d5"},"vehicle_type_id":"4","last_reported":1762899018,"current_range_meters":3200,"station_id":"ce4bghh2rcd13ifvqb60","pricing_plan_id":"cebpf4jnsgd1na2vs0mg"},{"bike_id":"28ef66cd-c149-44da-b66f-74a0aa1a78fa","system_id":"levelo_inurba_marseille","lat":43.31165,"lon":5.38719,"is_reserved":false,"is_disabled":false,"rental_uris":{"android":"levelo://app?vid=28ef66cd-c149-44da-b66f-74a0aa1a78fa","ios":"levelo://app?vid=28ef66cd-c149-44da-b66f-74a0aa1a78fa"},"vehicle_type_id":"4","last_reported":1762899018,"current_range_meters":3600,"station_id":"ce4bgv12rcd13ifvqcp0","pricing_plan_id":"cebpf4jnsgd1na2vs0mg"},{"bike_id":"6b0131cb-16f8-42e3-9fa2-f34e6bf456ba","system_id":"levelo_inurba_marseille","lat":43.27677,"lon":5.38869,"is_reserved":false,"is_disabled":false,"rental_uris":{"android":"levelo://app?vid=6b0131cb-16f8-42e3-9fa2-f34e6bf456ba","ios":"levelo://app?vid=6b0131cb-16f8-42e3-9fa2-f34e6bf456ba"},"vehicle_type_id":"4","last_reported":1762899018,"current_range_meters":3600,"station_id":"ce4bhi12rcd13ifvqfo0","pricing_plan_id":"cebpf4jnsgd1na2vs0mg"},{"bike_id":"18ddb359-6d3a-42e0-ae1e-5cd244df844d","system_id":"levelo_inurba_marseille","lat":43.29899,"lon":5.3758,"is_reserved":false,"is_disabled":false,"rental_uris":{"android":"levelo://app?vid=18ddb359-6d3a-42e0-ae1e-5cd244df844d","ios":"levelo://app?vid=18ddb359-6d3a-42e0-ae1e-5cd244df844d"},"vehicle_type_id":"4","last_reported":1762899018,"current_range_meters":4800,"station_id":"","pricing_plan_id":"cebpf4jnsgd1na2vs0mg"},{"bike_id":"355d0a72-63a4-43ac-addc-15604eb0aa69","system_id":"levelo_inurba_marseille","lat":43.29926,"lon":5.36387,"is_reserved":false,"is_disabled":false,"rental_uris":{"android":"levelo://app?vid=355d0a72-63a4-43ac-addc-15604eb0aa69","ios":"levelo://app?vid=355d0a72-63a4-43ac-addc-15604eb0aa69"},"vehicle_type_id":"4","last_reported":1762899018,"current_range_meters":4800,"station_id":"","pricing_plan_id":"cebpf4jnsgd1na2vs0mg"},{"bike_id":"73177cfa-5136-451e-b441-b50ac15f6f39","system_id":"levelo_inurba_marseille","lat":43.28376,"lon":5.3878,"is_reserved":false,"is_disabled":false,"rental_uris":{"android":"levelo://app?vid=73177cfa-5136-451e-b441-b50ac15f6f39","ios":"levelo://app?vid=73177cfa-5136-451e-b441-b50ac15f6f39"},"vehicle_type_id":"4","last_reported":1762899018,"current_range_meters":5600,"station_id":"","pricing_plan_id":"cebpf4jnsgd1na2vs0mg"},{"bike_id":"92842b53-5046-480e-aad7-bbcf36691d95","system_id":"levelo_inurba_marseille","lat":43.28177,"lon":5.36508,"is_reserved":false,"is_disabled":false,"rental_uris":{"android":"levelo://app?vid=92842b53-5046-480e-aad7-bbcf36691d95","ios":"levelo://app?vid=92842b53-5046-480e-aad7-bbcf36691d95"},"vehicle_type_id":"4","last_reported":1762899018,"current_range_meters":5600,"station_id":"","pricing_plan_id":"cebpf4jnsgd1na2vs0mg"},{"bike_id":"285edc02-c40d-4315-906b-2d38b29ac259","system_id":"levelo_inurba_marseille","lat":43.33799,"lon":5.3746,"is_reserved":false,"is_disabled":false,"rental_uris":{"android":"levelo://app?vid=285edc02-c40d-4315-906b-2d38b29ac259","ios":"levelo://app?vid=285edc02-c40d-4315-906b-2d38b29ac259"},"vehicle_type_id":"4","last_reported":1762899018,"current_range_meters":6000,"station_id":"","pricing_plan_id":"cebpf4jnsgd1na2vs0mg"},{"bike_id":"a153bb7a-facf-4d89-8fb0-01e6272ba505","system_id":"levelo_inurba_marseille","lat":43.26969,"lon":5.38814,"is_reserved":false,"is_disabled":false,"rental_uris":{"android":"levelo://app?vid=a153bb7a-facf-4d89-8fb0-01e6272ba505","ios":"levelo://app?vid=a153bb7a-facf-4d89-8fb0-01e6272ba505"},"vehicle_type_id":"4","last_reported":1762899018,"current_range_meters":6000,"station_id":"","pricing_plan_id":"cebpf4jnsgd1na2vs0mg"},{"bike_id":"9a7c2dc7-2180-4633-bc7e-23c0c093b3c2","system_id":"levelo_inurba_marseille","lat":43.33028,"lon":5.39047,"is_reserved":false,"is_disabled":false,"rental_uris":{"android":"levelo://app?vid=9a7c2dc7-2180-4633-bc7e-23c0c093b3c2","ios":"levelo://app?vid=9a7c2dc7-2180-4633-bc7e-23c0c093b3c2"},"vehicle_type_id":"4","last_reported":1762899018,"current_range_meters":6400,"station_id":"ce4bhr92rcd13ifvqhrg","pricing_plan_id":"cebpf4jnsgd1na2vs0mg"},{"bike_id":"9ade1fe7-d83f-4045-9bd3-74892e77626e","system_id":"levelo_inurba_marseille","lat":43.24083,"lon":5.37729,"is_reserved":false,"is_disabled":true,"rental_uris":{"android":"levelo://app?vid=9ade1fe7-d83f-4045-9bd3-74892e77626e","ios":"levelo://app?vid=9ade1fe7-d83f-4045-9bd3-74892e77626e"},"vehicle_type_id":"4","last_reported":1762899018,"current_range_meters":6400,"station_id":"ce4bhnp2rcd13ifvqgvg","pricing_plan_id":"cebpf4jnsgd1na2vs0mg"},{"bike_id":"ae8df7c2-dced-4c87-8be6-83ffc212bba9","system_id":"levelo_inurba_marseille","lat":43.282608,"lon":5.350607,"is_reserved":false,"is_disabled":true,"rental_uris":{"android":"levelo://app?vid=ae8df7c2-dced-4c87-8be6-83ffc212bba9","ios":"levelo://app?vid=ae8df7c2-dced-4c87-8be6-83ffc212bba9"},"vehicle_type_id":"4","last_reported":1762899018,"current_range_meters":6400,"station_id":"ce4bhbp2rcd13ifvqerg","pricing_plan_id":"cebpf4jnsgd1na2vs0mg"},{"bike_id":"41aeabc1-9035-4e06-a213-c274eace9205","system_id":"levelo_inurba_marseille","lat":43.28852,"lon":5.42515,"is_reserved":false,"is_disabled":false,"rental_uris":{"android":"levelo://app?vid=41aeabc1-9035-4e06-a213-c274eace9205","ios":"levelo://app?vid=41aeabc1-9035-4e06-a213-c274eace9205"},"vehicle_type_id":"4","last_reported":1762899018,"current_range_meters":6400,"station_id":"st_d3b462108ojc7389ooeg","pricing_plan_id":"cebpf4jnsgd1na2vs0mg"},{"bike_id":"a3231d5e-6ab6-4833-9ef3-41bddcf19fed","system_id":"levelo_inurba_marseille","lat":43.24941,"lon":5.40498,"is_reserved":false,"is_disabled":false,"rental_uris":{"android":"levelo://app?vid=a3231d5e-6ab6-4833-9ef3-41bddcf19fed","ios":"levelo://app?vid=a3231d5e-6ab6-4833-9ef3-41bddcf19fed"},"vehicle_type_id":"4","last_reported":1762899018,"current_range_meters":6800,"station_id":"st_d2ngiaodas8pm72gd1h0","pricing_plan_id":"cebpf4jnsgd1na2vs0mg"},{"bike_id":"2f4a1353-5626-4d1f-95e5-fcd7341284f4","system_id":"levelo_inurba_marseille","lat":43.308811,"lon":5.39642,"is_reserved":false,"is_disabled":false,"rental_uris":{"android":"levelo://app?vid=2f4a1353-5626-4d1f-95e5-fcd7341284f4","ios":"levelo://app?vid=2f4a1353-5626-4d1f-95e5-fcd7341284f4"},"vehicle_type_id":"4","last_reported":1762899018,"current_range_meters":6800,"station_id":"ce4bh012rcd13ifvqcv0","pricing_plan_id":"cebpf4jnsgd1na2vs0mg"},{"bike_id":"b2be4fa2-44ee-40dc-acc7-1755c74f1c5d","system_id":"levelo_inurba_marseille","lat":43.29756,"lon":5.41118,"is_reserved":false,"is_disabled":false,"rental_uris":{"android":"levelo://app?vid=b2be4fa2-44ee-40dc-acc7-1755c74f1c5d","ios":"levelo://app?vid=b2be4fa2-44ee-40dc-acc7-1755c74f1c5d"},"vehicle_type_id":"4","last_reported":1762899018,"current_range_meters":6800,"station_id":"","pricing_plan_id":"cebpf4jnsgd1na2vs0mg"},{"bike_id":"349b2ad9-adea-4dd9-9ac9-fffb121b5424","system_id":"levelo_inurba_marseille","lat":43.29892,"lon":5.37537,"is_reserved":false,"is_disabled":false,"rental_uris":{"android":"levelo://app?vid=349b2ad9-adea-4dd9-9ac9-fffb121b5424","ios":"levelo://app?vid=349b2ad9-adea-4dd9-9ac9-fffb121b5424"},"vehicle_type_id":"4","last_reported":1762899018,"current_range_meters":7200,"station_id":"","pricing_plan_id":"cebpf4jnsgd1na2vs0mg"},{"bike_id":"30efddd0-6453-4796-81a6-738ca9aad512","system_id":"levelo_inurba_marseille","lat":43.31055,"lon":5.38695,"is_reserved":false,"is_disabled":true,"rental_uris":{"android":"levelo://app?vid=30efddd0-6453-4796-81a6-738ca9aad512","ios":"levelo://app?vid=30efddd0-6453-4796-81a6-738ca9aad512"},"vehicle_type_id":"4","last_reported":1762899018,"current_range_meters":7200,"station_id":"ce4bgv12rcd13ifvqcp0","pricing_plan_id":"cebpf4jnsgd1na2vs0mg"},{"bike_id":"c620c9fc-398f-4dca-8fdd-2b652311235d","system_id":"levelo_inurba_marseille","lat":43.21211,"lon":5.35085,"is_reserved":false,"is_disabled":true,"rental_uris":{"android":"levelo://app?vid=c620c9fc-398f-4dca-8fdd-2b652311235d","ios":"levelo://app?vid=c620c9fc-398f-4dca-8fdd-2b652311235d"},"vehicle_type_id":"4","last_reported":1762899018,"current_range_meters":7200,"station_id":"st_cvj6sg6p6f1abm77japg","pricing_plan_id":"cebpf4jnsgd1na2vs0mg"},{"bike_id":"b41e24d8-65c5-426b-bb45-4cabc1a8ec44","system_id":"levelo_inurba_marseille","lat":43.29604,"lon":5.377,"is_reserved":false,"is_disabled":true,"rental_uris":{"android":"levelo://app?vid=b41e24d8-65c5-426b-bb45-4cabc1a8ec44","ios":"levelo://app?vid=b41e24d8-65c5-426b-bb45-4cabc1a8ec44"},"vehicle_type_id":"4","last_reported":1762899018,"current_range_meters":7200,"station_id":"ce4bgi92rcd13ifvqb90","pricing_plan_id":"cebpf4jnsgd1na2vs0mg"},{"bike_id":"7535d2c1-ca38-4eda-9cb7-f6141b4f0400","system_id":"levelo_inurba_marseille","lat":43.28926,"lon":5.38406,"is_reserved":false,"is_disabled":false,"rental_uris":{"android":"levelo://app?vid=7535d2c1-ca38-4eda-9cb7-f6141b4f0400","ios":"levelo://app?vid=7535d2c1-ca38-4eda-9cb7-f6141b4f0400"},"vehicle_type_id":"4","last_reported":1762899018,"current_range_meters":8000,"station_id":"ce4bh612rcd13ifvqe6g","pricing_plan_id":"cebpf4jnsgd1na2vs0mg"},{"bike_id":"95e32340-1dfd-4000-941b-e5f36491f95b","system_id":"levelo_inurba_marseille","lat":43.31511,"lon":5.37292,"is_reserved":false,"is_disabled":false,"rental_uris":{"android":"levelo://app?vid=95e32340-1dfd-4000-941b-e5f36491f95b","ios":"levelo://app?vid=95e32340-1dfd-4000-941b-e5f36491f95b"},"vehicle_type_id":"4","last_reported":1762899018,"current_range_meters":8000,"station_id":"ce4bgt12rcd13ifvqcd0","pricing_plan_id":"cebpf4jnsgd1na2vs0mg"},{"bike_id":"c5742480-ee75-4c3f-94f3-a721d0bfdfa0","system_id":"levelo_inurba_marseille","lat":43.29084,"lon":5.36557,"is_reserved":false,"is_disabled":false,"rental_uris":{"android":"levelo://app?vid=c5742480-ee75-4c3f-94f3-a721d0bfdfa0","ios":"levelo://app?vid=c5742480-ee75-4c3f-94f3-a721d0bfdfa0"},"vehicle_type_id":"4","last_reported":1762899018,"current_range_meters":8000,"station_id":"","pricing_plan_id":"cebpf4jnsgd1na2vs0mg"},{"bike_id":"e45501cc-3d1e-46df-a086-3efed18eb993","system_id":"levelo_inurba_marseille","lat":43.2824,"lon":5.36512,"is_reserved":false,"is_disabled":false,"rental_uris":{"android":"levelo://app?vid=e45501cc-3d1e-46df-a086-3efed18eb993","ios":"levelo://app?vid=e45501cc-3d1e-46df-a086-3efed18eb993"},"vehicle_type_id":"4","last_reported":1762899018,"current_range_meters":8400,"station_id":"","pricing_plan_id":"cebpf4jnsgd1na2vs0mg"},{"bike_id":"e0467342-2ee8-4c36-aeb9-27d25d94ead5","system_id":"levelo_inurba_marseille","lat":43.28156,"lon":5.42628,"is_reserved":false,"is_disabled":true,"rental_uris":{"android":"levelo://app?vid=e0467342-2ee8-4c36-aeb9-27d25d94ead5","ios":"levelo://app?vid=e0467342-2ee8-4c36-aeb9-27d25d94ead5"},"vehicle_type_id":"4","last_reported":1762899018,"current_range_meters":8400,"station_id":"ce4bhnh2rcd13ifvqgug","pricing_plan_id":"cebpf4jnsgd1na2vs0mg"},{"bike_id":"d14a3070-960e-421d-b5dc-419b8cc88005","system_id":"levelo_inurba_marseille","lat":43.31604,"lon":5.37722,"is_reserved":false,"is_disabled":false,"rental_uris":{"android":"levelo://app?vid=d14a3070-960e-421d-b5dc-419b8cc88005","ios":"levelo://app?vid=d14a3070-960e-421d-b5dc-419b8cc88005"},"vehicle_type_id":"4","last_reported":1762899018,"current_range_meters":8400,"station_id":"","pricing_plan_id":"cebpf4jnsgd1na2vs0mg"},{"bike_id":"4b75f4f1-28cd-4ac7-9b5c-b069daf52b29","system_id":"levelo_inurba_marseille","lat":43.31844,"lon":5.37404,"is_reserved":false,"is_disabled":true,"rental_uris":{"android":"levelo://app?vid=4b75f4f1-28cd-4ac7-9b5c-b069daf52b29","ios":"levelo://app?vid=4b75f4f1-28cd-4ac7-9b5c-b069daf52b29"},"vehicle_type_id":"4","last_reported":1762899018,"current_range_meters":8800,"station_id":"","pricing_plan_id":"cebpf4jnsgd1na2vs0mg"},{"bike_id":"1316d07b-eadd-4696-8874-2ae418407f54","system_id":"levelo_inurba_marseille","lat":43.24947,"lon":5.40486,"is_reserved":false,"is_disabled":false,"rental_uris":{"android":"levelo://app?vid=1316d07b-eadd-4696-8874-2ae418407f54","ios":"levelo://app?vid=1316d07b-eadd-4696-8874-2ae418407f54"},"vehicle_type_id":"4","last_reported":1762899018,"current_range_meters":8800,"station_id":"st_d2ngiaodas8pm72gd1h0","pricing_plan_id":"cebpf4jnsgd1na2vs0mg"},{"bike_id":"8673fcf8-df1e-43f0-b24f-4785c3fa24ee","system_id":"levelo_inurba_marseille","lat":43.3209,"lon":5.36763,"is_reserved":false,"is_disabled":false,"rental_uris":{"android":"levelo://app?vid=8673fcf8-df1e-43f0-b24f-4785c3fa24ee","ios":"levelo://app?vid=8673fcf8-df1e-43f0-b24f-4785c3fa24ee"},"vehicle_type_id":"4","last_reported":1762899018,"current_range_meters":8800,"station_id":"ce4bhrh2rcd13ifvqhug","pricing_plan_id":"cebpf4jnsgd1na2vs0mg"},{"bike_id":"24f4d530-b6b3-44ea-9e95-8086a30648b5","system_id":"levelo_inurba_marseille","lat":43.30885,"lon":5.396394,"is_reserved":false,"is_disabled":false,"rental_uris":{"android":"levelo://app?vid=24f4d530-b6b3-44ea-9e95-8086a30648b5","ios":"levelo://app?vid=24f4d530-b6b3-44ea-9e95-8086a30648b5"},"vehicle_type_id":"4","last_reported":1762899018,"current_range_meters":9200,"station_id":"ce4bh012rcd13ifvqcv0","pricing_plan_id":"cebpf4jnsgd1na2vs0mg"},{"bike_id":"0ea66b8e-ee71-4dee-9a44-0fe9f1baf397","system_id":"levelo_inurba_marseille","lat":43.30504,"lon":5.40104,"is_reserved":false,"is_disabled":false,"rental_uris":{"android":"levelo://app?vid=0ea66b8e-ee71-4dee-9a44-0fe9f1baf397","ios":"levelo://app?vid=0ea66b8e-ee71-4dee-9a44-0fe9f1baf397"},"vehicle_type_id":"4","last_reported":1762899018,"current_range_meters":9200,"station_id":"","pricing_plan_id":"cebpf4jnsgd1na2vs0mg"},{"bike_id":"1e76820b-593d-43f6-8430-a20304a3aad9","system_id":"levelo_inurba_marseille","lat":43.28934,"lon":5.36644,"is_reserved":false,"is_disabled":false,"rental_uris":{"android":"levelo://app?vid=1e76820b-593d-43f6-8430-a20304a3aad9","ios":"levelo://app?vid=1e76820b-593d-43f6-8430-a20304a3aad9"},"vehicle_type_id":"4","last_reported":1762899018,"current_range_meters":9200,"station_id":"ce4bhap2rcd13ifvqek0","pricing_plan_id":"cebpf4jnsgd1na2vs0mg"},{"bike_id":"f210c5d9-e6c9-4a47-a92c-7d32d99c058f","system_id":"levelo_inurba_marseille","lat":43.303512,"lon":5.39697,"is_reserved":false,"is_disabled":false,"rental_uris":{"android":"levelo://app?vid=f210c5d9-e6c9-4a47-a92c-7d32d99c058f","ios":"levelo://app?vid=f210c5d9-e6c9-4a47-a92c-7d32d99c058f"},"vehicle_type_id":"4","last_reported":1762899018,"current_range_meters":9600,"station_id":"","pricing_plan_id":"cebpf4jnsgd1na2vs0mg"},{"bike_id":"62a14efb-5f7a-4e0d-bbfa-d4a60d07f475","system_id":"levelo_inurba_marseille","lat":43.29753,"lon":5.37302,"is_reserved":false,"is_disabled":false,"rental_uris":{"android":"levelo://app?vid=62a14efb-5f7a-4e0d-bbfa-d4a60d07f475","ios":"levelo://app?vid=62a14efb-5f7a-4e0d-bbfa-d4a60d07f475"},"vehicle_type_id":"4","last_reported":1762899018,"current_range_meters":9600,"station_id":"","pricing_plan_id":"cebpf4jnsgd1na2vs0mg"},{"bike_id":"520598b3-96c3-46e0-842d-f88d56b5e32a","system_id":"levelo_inurba_marseille","lat":43.27204,"lon":5.39202,"is_reserved":false,"is_disabled":true,"rental_uris":{"android":"levelo://app?vid=520598b3-96c3-46e0-842d-f88d56b5e32a","ios":"levelo://app?vid=520598b3-96c3-46e0-842d-f88d56b5e32a"},"vehicle_type_id":"4","last_reported":1762899018,"current_range_meters":9600,"station_id":"ce4bhhp2rcd13ifvqfm0","pricing_plan_id":"cebpf4jnsgd1na2vs0mg"},{"bike_id":"29e2584a-230c-452d-979b-14506e060750","system_id":"levelo_inurba_marseille","lat":43.28735,"lon":5.36041,"is_reserved":false,"is_disabled":false,"rental_uris":{"android":"levelo://app?vid=29e2584a-230c-452d-979b-14506e060750","ios":"levelo://app?vid=29e2584a-230c-452d-979b-14506e060750"},"vehicle_type_id":"4","last_reported":1762899018,"current_range_meters":10000,"station_id":"cki0cbj6b192h4jlfktg","pricing_plan_id":"cebpf4jnsgd1na2vs0mg"},{"bike_id":"dc75d3f4-6afc-4516-adff-7ff9dacd6191","system_id":"levelo_inurba_marseille","lat":43.28864,"lon":5.3585,"is_reserved":false,"is_disabled":false,"rental_uris":{"android":"levelo://app?vid=dc75d3f4-6afc-4516-adff-7ff9dacd6191","ios":"levelo://app?vid=dc75d3f4-6afc-4516-adff-7ff9dacd6191"},"vehicle_type_id":"4","last_reported":1762899018,"current_range_meters":10000,"station_id":"ce4bhb12rcd13ifvqem0","pricing_plan_id":"cebpf4jnsgd1na2vs0mg"},{"bike_id":"38c922e6-37cd-47dc-af88-f07475112c2a","system_id":"levelo_inurba_marseille","lat":43.32109,"lon":5.38848,"is_reserved":false,"is_disabled":false,"rental_uris":{"android":"levelo://app?vid=38c922e6-37cd-47dc-af88-f07475112c2a","ios":"levelo://app?vid=38c922e6-37cd-47dc-af88-f07475112c2a"},"vehicle_type_id":"4","last_reported":1762899018,"current_range_meters":10000,"station_id":"","pricing_plan_id":"cebpf4jnsgd1na2vs0mg"},{"bike_id":"90e7bdde-1404-49eb-ae7a-c26db1d4d5e2","system_id":"levelo_inurba_marseille","lat":43.30796,"lon":5.38148,"is_reserved":false,"is_disabled":false,"rental_uris":{"android":"levelo://app?vid=90e7bdde-1404-49eb-ae7a-c26db1d4d5e2","ios":"levelo://app?vid=90e7bdde-1404-49eb-ae7a-c26db1d4d5e2"},"vehicle_type_id":"4","last_reported":1762899018,"current_range_meters":10000,"station_id":"ce4bgt12rcd13ifvqce0","pricing_plan_id":"cebpf4jnsgd1na2vs0mg"},{"bike_id":"1b5be03e-768e-46f0-b152-16af9f81cff1","system_id":"levelo_inurba_marseille","lat":43.309322,"lon":5.401366,"is_reserved":false,"is_disabled":true,"rental_uris":{"android":"levelo://app?vid=1b5be03e-768e-46f0-b152-16af9f81cff1","ios":"levelo://app?vid=1b5be03e-768e-46f0-b152-16af9f81cff1"},"vehicle_type_id":"4","last_reported":1762899018,"current_range_meters":10800,"station_id":"","pricing_plan_id":"cebpf4jnsgd1na2vs0mg"},{"bike_id":"651a486f-4b3c-4c35-8939-cd992be3a6f8","system_id":"levelo_inurba_marseille","lat":43.28998,"lon":5.35606,"is_reserved":false,"is_disabled":false,"rental_uris":{"android":"levelo://app?vid=651a486f-4b3c-4c35-8939-cd992be3a6f8","ios":"levelo://app?vid=651a486f-4b3c-4c35-8939-cd992be3a6f8"},"vehicle_type_id":"4","last_reported":1762899018,"current_range_meters":10800,"station_id":"ce4bhb92rcd13ifvqen0","pricing_plan_id":"cebpf4jnsgd1na2vs0mg"},{"bike_id":"172a1479-a5a8-4a14-96d6-945fbc77b377","system_id":"levelo_inurba_marseille","lat":43.32009,"lon":5.38166,"is_reserved":false,"is_disabled":false,"rental_uris":{"android":"levelo://app?vid=172a1479-a5a8-4a14-96d6-945fbc77b377","ios":"levelo://app?vid=172a1479-a5a8-4a14-96d6-945fbc77b377"},"vehicle_type_id":"4","last_reported":1762899018,"current_range_meters":10800,"station_id":"ce4bhr12rcd13ifvqhpg","pricing_plan_id":"cebpf4jnsgd1na2vs0mg"},{"bike_id":"722f7e0f-46d9-4be9-997c-6a53c83a7527","system_id":"levelo_inurba_marseille","lat":43.28036,"lon":5.36942,"is_reserved":false,"is_disabled":true,"rental_uris":{"android":"levelo://app?vid=722f7e0f-46d9-4be9-997c-6a53c83a7527","ios":"levelo://app?vid=722f7e0f-46d9-4be9-997c-6a53c83a7527"},"vehicle_type_id":"4","last_reported":1762899018,"current_range_meters":10800,"station_id":"ce4bha12rcd13ifvqef0","pricing_plan_id":"cebpf4jnsgd1na2vs0mg"},{"bike_id":"42140628-3dcb-4e7a-b191-ed435ef14b8b","system_id":"levelo_inurba_marseille","lat":43.29171,"lon":5.37143,"is_reserved":false,"is_disabled":false,"rental_uris":{"android":"levelo://app?vid=42140628-3dcb-4e7a-b191-ed435ef14b8b","ios":"levelo://app?vid=42140628-3dcb-4e7a-b191-ed435ef14b8b"},"vehicle_type_id":"4","last_reported":1762899018,"current_range_meters":10800,"station_id":"ce4bha92rcd13ifvqeh0","pricing_plan_id":"cebpf4jnsgd1na2vs0mg"},{"bike_id":"4a8ea99f-b39a-401a-9c8e-0832b530973f","system_id":"levelo_inurba_marseille","lat":43.28412,"lon":5.37507,"is_reserved":false,"is_disabled":false,"rental_uris":{"android":"levelo://app?vid=4a8ea99f-b39a-401a-9c8e-0832b530973f","ios":"levelo://app?vid=4a8ea99f-b39a-401a-9c8e-0832b530973f"},"vehicle_type_id":"4","last_reported":1762899018,"current_range_meters":10800,"station_id":"ce4bh412rcd13ifvqds0","pricing_plan_id":"cebpf4jnsgd1na2vs0mg"},{"bike_id":"184239b1-01dd-4bfd-9925-3fe462e1448f","system_id":"levelo_inurba_marseille","lat":43.29635,"lon":5.4059,"is_reserved":false,"is_disabled":false,"rental_uris":{"android":"levelo://app?vid=184239b1-01dd-4bfd-9925-3fe462e1448f","ios":"levelo://app?vid=184239b1-01dd-4bfd-9925-3fe462e1448f"},"vehicle_type_id":"4","last_reported":1762899018,"current_range_meters":10800,"station_id":"ce4bh0h2rcd13ifvqd60","pricing_plan_id":"cebpf4jnsgd1na2vs0mg"},{"bike_id":"51406c15-d803-46f5-b1fc-ccb99f501e05","system_id":"levelo_inurba_marseille","lat":43.30599,"lon":5.37232,"is_reserved":false,"is_disabled":false,"rental_uris":{"android":"levelo://app?vid=51406c15-d803-46f5-b1fc-ccb99f501e05","ios":"levelo://app?vid=51406c15-d803-46f5-b1fc-ccb99f501e05"},"vehicle_type_id":"4","last_reported":1762899018,"current_range_meters":10800,"station_id":"ce4bgqh2rcd13ifvqc4g","pricing_plan_id":"cebpf4jnsgd1na2vs0mg"},{"bike_id":"e82ebaff-68f7-48b2-94d4-66206d67d323","system_id":"levelo_inurba_marseille","lat":43.26552,"lon":5.40351,"is_reserved":false,"is_disabled":false,"rental_uris":{"android":"levelo://app?vid=e82ebaff-68f7-48b2-94d4-66206d67d323","ios":"levelo://app?vid=e82ebaff-68f7-48b2-94d4-66206d67d323"},"vehicle_type_id":"4","last_reported":1762899018,"current_range_meters":11200,"station_id":"ce4bhmp2rcd13ifvqgng","pricing_plan_id":"cebpf4jnsgd1na2vs0mg"},{"bike_id":"836ec169-3403-43e4-a68e-e93dc379e96b","system_id":"levelo_inurba_marseille","lat":43.29267,"lon":5.36851,"is_reserved":false,"is_disabled":false,"rental_uris":{"android":"levelo://app?vid=836ec169-3403-43e4-a68e-e93dc379e96b","ios":"levelo://app?vid=836ec169-3403-43e4-a68e-e93dc379e96b"},"vehicle_type_id":"4","last_reported":1762899018,"current_range_meters":11200,"station_id":"ce4bhbp2rcd13ifvqesg","pricing_plan_id":"cebpf4jnsgd1na2vs0mg"},{"bike_id":"035e03df-e41b-4cf7-9eb1-51683218cb2e","system_id":"levelo_inurba_marseille","lat":43.295186,"lon":5.394002,"is_reserved":false,"is_disabled":false,"rental_uris":{"android":"levelo://app?vid=035e03df-e41b-4cf7-9eb1-51683218cb2e","ios":"levelo://app?vid=035e03df-e41b-4cf7-9eb1-51683218cb2e"},"vehicle_type_id":"4","last_reported":1762899018,"current_range_meters":11200,"station_id":"ce4bh292rcd13ifvqdf0","pricing_plan_id":"cebpf4jnsgd1na2vs0mg"},{"bike_id":"dc9399a6-68ac-4bce-a28c-89dbbb7d0681","system_id":"levelo_inurba_marseille","lat":43.28779,"lon":5.40832,"is_reserved":false,"is_disabled":true,"rental_uris":{"android":"levelo://app?vid=dc9399a6-68ac-4bce-a28c-89dbbb7d0681","ios":"levelo://app?vid=dc9399a6-68ac-4bce-a28c-89dbbb7d0681"},"vehicle_type_id":"4","last_reported":1762899018,"current_range_meters":11200,"station_id":"","pricing_plan_id":"cebpf4jnsgd1na2vs0mg"},{"bike_id":"ff3ddb83-74bc-4b19-a6f7-8d4ebb1a27c9","system_id":"levelo_inurba_marseille","lat":43.307851,"lon":5.375948,"is_reserved":false,"is_disabled":false,"rental_uris":{"android":"levelo://app?vid=ff3ddb83-74bc-4b19-a6f7-8d4ebb1a27c9","ios":"levelo://app?vid=ff3ddb83-74bc-4b19-a6f7-8d4ebb1a27c9"},"vehicle_type_id":"4","last_reported":1762899018,"current_range_meters":11200,"station_id":"ce4bgv92rcd13ifvqcq0","pricing_plan_id":"cebpf4jnsgd1na2vs0mg"},{"bike_id":"69bcc9c9-16ef-4b05-a281-a3669c844e4b","system_id":"levelo_inurba_marseille","lat":43.22531,"lon":5.34843,"is_reserved":false,"is_disabled":false,"rental_uris":{"android":"levelo://app?vid=69bcc9c9-16ef-4b05-a281-a3669c844e4b","ios":"levelo://app?vid=69bcc9c9-16ef-4b05-a281-a3669c844e4b"},"vehicle_type_id":"4","last_reported":1762899018,"current_range_meters":11600,"station_id":"","pricing_plan_id":"cebpf4jnsgd1na2vs0mg"},{"bike_id":"2b971a67-a1a4-4be8-bf83-3f4cfa65ae8d","system_id":"levelo_inurba_marseille","lat":43.28702,"lon":5.39974,"is_reserved":false,"is_disabled":false,"rental_uris":{"android":"levelo://app?vid=2b971a67-a1a4-4be8-bf83-3f4cfa65ae8d","ios":"levelo://app?vid=2b971a67-a1a4-4be8-bf83-3f4cfa65ae8d"},"vehicle_type_id":"4","last_reported":1762899018,"current_range_meters":11600,"station_id":"ce4bho92rcd13ifvqh3g","pricing_plan_id":"cebpf4jnsgd1na2vs0mg"},{"bike_id":"5a04390a-ad60-4fd6-bcf6-e75b8899a404","system_id":"levelo_inurba_marseille","lat":43.29042,"lon":5.39948,"is_reserved":false,"is_disabled":true,"rental_uris":{"android":"levelo://app?vid=5a04390a-ad60-4fd6-bcf6-e75b8899a404","ios":"levelo://app?vid=5a04390a-ad60-4fd6-bcf6-e75b8899a404"},"vehicle_type_id":"4","last_reported":1762899018,"current_range_meters":11600,"station_id":"ce4bh392rcd13ifvqdm0","pricing_plan_id":"cebpf4jnsgd1na2vs0mg"},{"bike_id":"ac571466-1dc3-4aea-b277-4afec8514b82","system_id":"levelo_inurba_marseille","lat":43.27936,"lon":5.41052,"is_reserved":false,"is_disabled":false,"rental_uris":{"android":"levelo://app?vid=ac571466-1dc3-4aea-b277-4afec8514b82","ios":"levelo://app?vid=ac571466-1dc3-4aea-b277-4afec8514b82"},"vehicle_type_id":"4","last_reported":1762899018,"current_range_meters":11600,"station_id":"ce4bhnp2rcd13ifvqh0g","pricing_plan_id":"cebpf4jnsgd1na2vs0mg"},{"bike_id":"911201ad-afe6-48af-9bc3-409f53c2d917","system_id":"levelo_inurba_marseille","lat":43.29361,"lon":5.37838,"is_reserved":false,"is_disabled":false,"rental_uris":{"android":"levelo://app?vid=911201ad-afe6-48af-9bc3-409f53c2d917","ios":"levelo://app?vid=911201ad-afe6-48af-9bc3-409f53c2d917"},"vehicle_type_id":"4","last_reported":1762899018,"current_range_meters":12000,"station_id":"ce4bgjh2rcd13ifvqbf0","pricing_plan_id":"cebpf4jnsgd1na2vs0mg"},{"bike_id":"a1fde1f4-1860-4e49-88db-aacdf02b72c8","system_id":"levelo_inurba_marseille","lat":43.25109,"lon":5.40333,"is_reserved":false,"is_disabled":true,"rental_uris":{"android":"levelo://app?vid=a1fde1f4-1860-4e49-88db-aacdf02b72c8","ios":"levelo://app?vid=a1fde1f4-1860-4e49-88db-aacdf02b72c8"},"vehicle_type_id":"4","last_reported":1762899018,"current_range_meters":12000,"station_id":"ce4bhlh2rcd13ifvqgig","pricing_plan_id":"cebpf4jnsgd1na2vs0mg"},{"bike_id":"28e36cd3-4665-4002-a55e-04a45eaa3992","system_id":"levelo_inurba_marseille","lat":43.33166,"lon":5.3769,"is_reserved":false,"is_disabled":false,"rental_uris":{"android":"levelo://app?vid=28e36cd3-4665-4002-a55e-04a45eaa3992","ios":"levelo://app?vid=28e36cd3-4665-4002-a55e-04a45eaa3992"},"vehicle_type_id":"4","last_reported":1762899018,"current_range_meters":12000,"station_id":"st_d46cu089ee8s73dldbu0","pricing_plan_id":"cebpf4jnsgd1na2vs0mg"},{"bike_id":"b259621f-2fe6-4b30-92e0-2292fee32f1f","system_id":"levelo_inurba_marseille","lat":43.28043,"lon":5.36943,"is_reserved":false,"is_disabled":true,"rental_uris":{"android":"levelo://app?vid=b259621f-2fe6-4b30-92e0-2292fee32f1f","ios":"levelo://app?vid=b259621f-2fe6-4b30-92e0-2292fee32f1f"},"vehicle_type_id":"4","last_reported":1762899018,"current_range_meters":12000,"station_id":"ce4bha12rcd13ifvqef0","pricing_plan_id":"cebpf4jnsgd1na2vs0mg"},{"bike_id":"b245a3be-a57e-4cbf-8322-e75d97ee7e98","system_id":"levelo_inurba_marseille","lat":43.275634,"lon":5.384245,"is_reserved":false,"is_disabled":false,"rental_uris":{"android":"levelo://app?vid=b245a3be-a57e-4cbf-8322-e75d97ee7e98","ios":"levelo://app?vid=b245a3be-a57e-4cbf-8322-e75d97ee7e98"},"vehicle_type_id":"4","last_reported":1762899018,"current_range_meters":12000,"station_id":"ce4bhh92rcd13ifvqfi0","pricing_plan_id":"cebpf4jnsgd1na2vs0mg"},{"bike_id":"8db0e840-7a09-4a16-9c2b-c5d331cffe63","system_id":"levelo_inurba_marseille","lat":43.28418,"lon":5.37516,"is_reserved":false,"is_disabled":false,"rental_uris":{"android":"levelo://app?vid=8db0e840-7a09-4a16-9c2b-c5d331cffe63","ios":"levelo://app?vid=8db0e840-7a09-4a16-9c2b-c5d331cffe63"},"vehicle_type_id":"4","last_reported":1762899018,"current_range_meters":12400,"station_id":"ce4bh412rcd13ifvqds0","pricing_plan_id":"cebpf4jnsgd1na2vs0mg"},{"bike_id":"84aade2c-4b39-4bce-814f-cfa3d6ed46f7","system_id":"levelo_inurba_marseille","lat":43.28484,"lon":5.48383,"is_reserved":false,"is_disabled":false,"rental_uris":{"android":"levelo://app?vid=84aade2c-4b39-4bce-814f-cfa3d6ed46f7","ios":"levelo://app?vid=84aade2c-4b39-4bce-814f-cfa3d6ed46f7"},"vehicle_type_id":"4","last_reported":1762899018,"current_range_meters":12400,"station_id":"st_d3svhcjqgbts73a3dn0g","pricing_plan_id":"cebpf4jnsgd1na2vs0mg"},{"bike_id":"c3d54e2e-34c7-4083-996e-d27e15abb20b","system_id":"levelo_inurba_marseille","lat":43.31672,"lon":5.40442,"is_reserved":false,"is_disabled":false,"rental_uris":{"android":"levelo://app?vid=c3d54e2e-34c7-4083-996e-d27e15abb20b","ios":"levelo://app?vid=c3d54e2e-34c7-4083-996e-d27e15abb20b"},"vehicle_type_id":"4","last_reported":1762899018,"current_range_meters":12400,"station_id":"ce4bh012rcd13ifvqd00","pricing_plan_id":"cebpf4jnsgd1na2vs0mg"},{"bike_id":"230da423-9d7a-4f32-9be8-74df97a4e84a","system_id":"levelo_inurba_marseille","lat":43.28623,"lon":5.35109,"is_reserved":false,"is_disabled":false,"rental_uris":{"android":"levelo://app?vid=230da423-9d7a-4f32-9be8-74df97a4e84a","ios":"levelo://app?vid=230da423-9d7a-4f32-9be8-74df97a4e84a"},"vehicle_type_id":"4","last_reported":1762899018,"current_range_meters":12400,"station_id":"ce4bhch2rcd13ifvqeug","pricing_plan_id":"cebpf4jnsgd1na2vs0mg"},{"bike_id":"445699dd-a363-445d-97c0-01dd3cb01644","system_id":"levelo_inurba_marseille","lat":43.28009,"lon":5.40003,"is_reserved":false,"is_disabled":false,"rental_uris":{"android":"levelo://app?vid=445699dd-a363-445d-97c0-01dd3cb01644","ios":"levelo://app?vid=445699dd-a363-445d-97c0-01dd3cb01644"},"vehicle_type_id":"4","last_reported":1762899018,"current_range_meters":12400,"station_id":"ce4bho92rcd13ifvqh4g","pricing_plan_id":"cebpf4jnsgd1na2vs0mg"},{"bike_id":"43e66452-3e4a-4398-a9da-dbe70bb59878","system_id":"levelo_inurba_marseille","lat":43.278445,"lon":5.406526,"is_reserved":false,"is_disabled":false,"rental_uris":{"android":"levelo://app?vid=43e66452-3e4a-4398-a9da-dbe70bb59878","ios":"levelo://app?vid=43e66452-3e4a-4398-a9da-dbe70bb59878"},"vehicle_type_id":"4","last_reported":1762899018,"current_range_meters":12800,"station_id":"ce4bhnh2rcd13ifvqgtg","pricing_plan_id":"cebpf4jnsgd1na2vs0mg"},{"bike_id":"8a0c7f08-f941-4d66-b9c2-34577cf3d6d1","system_id":"levelo_inurba_marseille","lat":43.23152,"lon":5.43704,"is_reserved":false,"is_disabled":false,"rental_uris":{"android":"levelo://app?vid=8a0c7f08-f941-4d66-b9c2-34577cf3d6d1","ios":"levelo://app?vid=8a0c7f08-f941-4d66-b9c2-34577cf3d6d1"},"vehicle_type_id":"4","last_reported":1762899018,"current_range_meters":12800,"station_id":"ce4bhmp2rcd13ifvqgog","pricing_plan_id":"cebpf4jnsgd1na2vs0mg"},{"bike_id":"b9133198-a2f5-4376-ae2f-4a522c41fac1","system_id":"levelo_inurba_marseille","lat":43.287532,"lon":5.3854,"is_reserved":false,"is_disabled":false,"rental_uris":{"android":"levelo://app?vid=b9133198-a2f5-4376-ae2f-4a522c41fac1","ios":"levelo://app?vid=b9133198-a2f5-4376-ae2f-4a522c41fac1"},"vehicle_type_id":"4","last_reported":1762899018,"current_range_meters":12800,"station_id":"","pricing_plan_id":"cebpf4jnsgd1na2vs0mg"},{"bike_id":"c47023ab-2905-4a00-af93-ffd0b768cdc9","system_id":"levelo_inurba_marseille","lat":43.28874,"lon":5.42517,"is_reserved":false,"is_disabled":false,"rental_uris":{"android":"levelo://app?vid=c47023ab-2905-4a00-af93-ffd0b768cdc9","ios":"levelo://app?vid=c47023ab-2905-4a00-af93-ffd0b768cdc9"},"vehicle_type_id":"4","last_reported":1762899018,"current_range_meters":12800,"station_id":"st_d3b462108ojc7389ooeg","pricing_plan_id":"cebpf4jnsgd1na2vs0mg"},{"bike_id":"b6e5aa27-c1bd-4362-b8d0-195a81854699","system_id":"levelo_inurba_marseille","lat":43.29035,"lon":5.39984,"is_reserved":false,"is_disabled":false,"rental_uris":{"android":"levelo://app?vid=b6e5aa27-c1bd-4362-b8d0-195a81854699","ios":"levelo://app?vid=b6e5aa27-c1bd-4362-b8d0-195a81854699"},"vehicle_type_id":"4","last_reported":1762899018,"current_range_meters":12800,"station_id":"ce4bh392rcd13ifvqdm0","pricing_plan_id":"cebpf4jnsgd1na2vs0mg"},{"bike_id":"b700749c-e8e2-432d-a1e8-7c81164c57a8","system_id":"levelo_inurba_marseille","lat":43.28001,"lon":5.40012,"is_reserved":false,"is_disabled":false,"rental_uris":{"android":"levelo://app?vid=b700749c-e8e2-432d-a1e8-7c81164c57a8","ios":"levelo://app?vid=b700749c-e8e2-432d-a1e8-7c81164c57a8"},"vehicle_type_id":"4","last_reported":1762899018,"current_range_meters":12800,"station_id":"ce4bho92rcd13ifvqh4g","pricing_plan_id":"cebpf4jnsgd1na2vs0mg"},{"bike_id":"393ebba5-f26f-4f5b-ba37-0d7b5bd9041d","system_id":"levelo_inurba_marseille","lat":43.21753,"lon":5.34599,"is_reserved":false,"is_disabled":false,"rental_uris":{"android":"levelo://app?vid=393ebba5-f26f-4f5b-ba37-0d7b5bd9041d","ios":"levelo://app?vid=393ebba5-f26f-4f5b-ba37-0d7b5bd9041d"},"vehicle_type_id":"4","last_reported":1762899018,"current_range_meters":12800,"station_id":"","pricing_plan_id":"cebpf4jnsgd1na2vs0mg"},{"bike_id":"64b51671-4d14-4d40-a97b-ec4cbe4baf5b","system_id":"levelo_inurba_marseille","lat":43.31078,"lon":5.38358,"is_reserved":false,"is_disabled":false,"rental_uris":{"android":"levelo://app?vid=64b51671-4d14-4d40-a97b-ec4cbe4baf5b","ios":"levelo://app?vid=64b51671-4d14-4d40-a97b-ec4cbe4baf5b"},"vehicle_type_id":"4","last_reported":1762899018,"current_range_meters":13600,"station_id":"ce4bgv92rcd13ifvqcr0","pricing_plan_id":"cebpf4jnsgd1na2vs0mg"},{"bike_id":"32162483-923a-4e23-8738-bf029245f9f0","system_id":"levelo_inurba_marseille","lat":43.28482,"lon":5.38434,"is_reserved":false,"is_disabled":true,"rental_uris":{"android":"levelo://app?vid=32162483-923a-4e23-8738-bf029245f9f0","ios":"levelo://app?vid=32162483-923a-4e23-8738-bf029245f9f0"},"vehicle_type_id":"4","last_reported":1762899018,"current_range_meters":13600,"station_id":"ce4bh512rcd13ifvqe3g","pricing_plan_id":"cebpf4jnsgd1na2vs0mg"},{"bike_id":"e9096c85-7648-4fa6-80d3-640340cb2c13","system_id":"levelo_inurba_marseille","lat":43.28185,"lon":5.39023,"is_reserved":false,"is_disabled":false,"rental_uris":{"android":"levelo://app?vid=e9096c85-7648-4fa6-80d3-640340cb2c13","ios":"levelo://app?vid=e9096c85-7648-4fa6-80d3-640340cb2c13"},"vehicle_type_id":"4","last_reported":1762899018,"current_range_meters":13600,"station_id":"ce4bhn92rcd13ifvqgsg","pricing_plan_id":"cebpf4jnsgd1na2vs0mg"},{"bike_id":"9afa5cbf-8616-411d-848e-86050b9bcdcd","system_id":"levelo_inurba_marseille","lat":43.28533,"lon":5.44098,"is_reserved":false,"is_disabled":false,"rental_uris":{"android":"levelo://app?vid=9afa5cbf-8616-411d-848e-86050b9bcdcd","ios":"levelo://app?vid=9afa5cbf-8616-411d-848e-86050b9bcdcd"},"vehicle_type_id":"4","last_reported":1762899018,"current_range_meters":13600,"station_id":"st_d3j3df2ikq2c7380ej80","pricing_plan_id":"cebpf4jnsgd1na2vs0mg"},{"bike_id":"55b7e291-072b-4042-a272-a038a9f41f7f","system_id":"levelo_inurba_marseille","lat":43.27951,"lon":5.41063,"is_reserved":false,"is_disabled":false,"rental_uris":{"android":"levelo://app?vid=55b7e291-072b-4042-a272-a038a9f41f7f","ios":"levelo://app?vid=55b7e291-072b-4042-a272-a038a9f41f7f"},"vehicle_type_id":"4","last_reported":1762899018,"current_range_meters":14000,"station_id":"ce4bhnp2rcd13ifvqh0g","pricing_plan_id":"cebpf4jnsgd1na2vs0mg"},{"bike_id":"3b15451b-9ca4-4b75-9fab-bb81fed744ea","system_id":"levelo_inurba_marseille","lat":43.30301,"lon":5.39192,"is_reserved":false,"is_disabled":true,"rental_uris":{"android":"levelo://app?vid=3b15451b-9ca4-4b75-9fab-bb81fed744ea","ios":"levelo://app?vid=3b15451b-9ca4-4b75-9fab-bb81fed744ea"},"vehicle_type_id":"4","last_reported":1762899018,"current_range_meters":14400,"station_id":"ce4bgkh2rcd13ifvqbk0","pricing_plan_id":"cebpf4jnsgd1na2vs0mg"},{"bike_id":"43599706-aeab-41b2-859f-99807479547f","system_id":"levelo_inurba_marseille","lat":43.253289,"lon":5.421708,"is_reserved":false,"is_disabled":false,"rental_uris":{"android":"levelo://app?vid=43599706-aeab-41b2-859f-99807479547f","ios":"levelo://app?vid=43599706-aeab-41b2-859f-99807479547f"},"vehicle_type_id":"4","last_reported":1762899018,"current_range_meters":14400,"station_id":"st_d2m65c5bi1j21697t3ng","pricing_plan_id":"cebpf4jnsgd1na2vs0mg"},{"bike_id":"cb7a5799-c024-4519-bb5c-6f2896731a81","system_id":"levelo_inurba_marseille","lat":43.33159,"lon":5.37697,"is_reserved":false,"is_disabled":false,"rental_uris":{"android":"levelo://app?vid=cb7a5799-c024-4519-bb5c-6f2896731a81","ios":"levelo://app?vid=cb7a5799-c024-4519-bb5c-6f2896731a81"},"vehicle_type_id":"4","last_reported":1762899018,"current_range_meters":14400,"station_id":"st_d46cu089ee8s73dldbu0","pricing_plan_id":"cebpf4jnsgd1na2vs0mg"},{"bike_id":"9da95f54-f3a7-464d-9f02-f44102ed4e51","system_id":"levelo_inurba_marseille","lat":43.29513,"lon":5.39409,"is_reserved":false,"is_disabled":false,"rental_uris":{"android":"levelo://app?vid=9da95f54-f3a7-464d-9f02-f44102ed4e51","ios":"levelo://app?vid=9da95f54-f3a7-464d-9f02-f44102ed4e51"},"vehicle_type_id":"4","last_reported":1762899018,"current_range_meters":14400,"station_id":"ce4bh292rcd13ifvqdf0","pricing_plan_id":"cebpf4jnsgd1na2vs0mg"},{"bike_id":"c31c777a-98fe-41ff-97ce-d6c4cffecca1","system_id":"levelo_inurba_marseille","lat":43.29828,"lon":5.38286,"is_reserved":false,"is_disabled":false,"rental_uris":{"android":"levelo://app?vid=c31c777a-98fe-41ff-97ce-d6c4cffecca1","ios":"levelo://app?vid=c31c777a-98fe-41ff-97ce-d6c4cffecca1"},"vehicle_type_id":"4","last_reported":1762899018,"current_range_meters":14400,"station_id":"","pricing_plan_id":"cebpf4jnsgd1na2vs0mg"},{"bike_id":"50b661f0-112f-4780-95bd-167a8c61a238","system_id":"levelo_inurba_marseille","lat":43.21187,"lon":5.35085,"is_reserved":false,"is_disabled":true,"rental_uris":{"android":"levelo://app?vid=50b661f0-112f-4780-95bd-167a8c61a238","ios":"levelo://app?vid=50b661f0-112f-4780-95bd-167a8c61a238"},"vehicle_type_id":"4","last_reported":1762899018,"current_range_meters":14400,"station_id":"st_cvj6sg6p6f1abm77japg","pricing_plan_id":"cebpf4jnsgd1na2vs0mg"},{"bike_id":"b147f1a9-c303-40fc-a009-88b90d822a1a","system_id":"levelo_inurba_marseille","lat":43.27939,"lon":5.39599,"is_reserved":false,"is_disabled":false,"rental_uris":{"android":"levelo://app?vid=b147f1a9-c303-40fc-a009-88b90d822a1a","ios":"levelo://app?vid=b147f1a9-c303-40fc-a009-88b90d822a1a"},"vehicle_type_id":"4","last_reported":1762899018,"current_range_meters":14800,"station_id":"ce4bhf92rcd13ifvqf40","pricing_plan_id":"cebpf4jnsgd1na2vs0mg"},{"bike_id":"f09b69fd-4220-4b51-8365-9a85828617f1","system_id":"levelo_inurba_marseille","lat":43.330268,"lon":5.390397,"is_reserved":false,"is_disabled":false,"rental_uris":{"android":"levelo://app?vid=f09b69fd-4220-4b51-8365-9a85828617f1","ios":"levelo://app?vid=f09b69fd-4220-4b51-8365-9a85828617f1"},"vehicle_type_id":"4","last_reported":1762899018,"current_range_meters":14800,"station_id":"ce4bhr92rcd13ifvqhrg","pricing_plan_id":"cebpf4jnsgd1na2vs0mg"},{"bike_id":"def9730b-dc04-435b-8225-4a9556956dd9","system_id":"levelo_inurba_marseille","lat":43.32107,"lon":5.36765,"is_reserved":false,"is_disabled":false,"rental_uris":{"android":"levelo://app?vid=def9730b-dc04-435b-8225-4a9556956dd9","ios":"levelo://app?vid=def9730b-dc04-435b-8225-4a9556956dd9"},"vehicle_type_id":"4","last_reported":1762899018,"current_range_meters":14800,"station_id":"ce4bhrh2rcd13ifvqhug","pricing_plan_id":"cebpf4jnsgd1na2vs0mg"},{"bike_id":"e087c833-4e3b-4d4e-a816-662d395a62f1","system_id":"levelo_inurba_marseille","lat":43.30356,"lon":5.41878,"is_reserved":false,"is_disabled":false,"rental_uris":{"android":"levelo://app?vid=e087c833-4e3b-4d4e-a816-662d395a62f1","ios":"levelo://app?vid=e087c833-4e3b-4d4e-a816-662d395a62f1"},"vehicle_type_id":"4","last_reported":1762899018,"current_range_meters":14800,"station_id":"ce4bhop2rcd13ifvqh7g","pricing_plan_id":"cebpf4jnsgd1na2vs0mg"},{"bike_id":"90b7b1ac-129d-4f5e-9e36-1417be0b1559","system_id":"levelo_inurba_marseille","lat":43.30384,"lon":5.42507,"is_reserved":false,"is_disabled":true,"rental_uris":{"android":"levelo://app?vid=90b7b1ac-129d-4f5e-9e36-1417be0b1559","ios":"levelo://app?vid=90b7b1ac-129d-4f5e-9e36-1417be0b1559"},"vehicle_type_id":"4","last_reported":1762899018,"current_range_meters":14800,"station_id":"ce4bhoh2rcd13ifvqh6g","pricing_plan_id":"cebpf4jnsgd1na2vs0mg"},{"bike_id":"7853a813-0949-48bc-9da8-6f66b0f8768a","system_id":"levelo_inurba_marseille","lat":43.24401,"lon":5.37067,"is_reserved":false,"is_disabled":true,"rental_uris":{"android":"levelo://app?vid=7853a813-0949-48bc-9da8-6f66b0f8768a","ios":"levelo://app?vid=7853a813-0949-48bc-9da8-6f66b0f8768a"},"vehicle_type_id":"4","last_reported":1762899018,"current_range_meters":14800,"station_id":"ce4bhhh2rcd13ifvqfk0","pricing_plan_id":"cebpf4jnsgd1na2vs0mg"},{"bike_id":"1ce752b0-fa49-429d-9734-2f06993f4bd6","system_id":"levelo_inurba_marseille","lat":43.319954,"lon":5.381624,"is_reserved":false,"is_disabled":false,"rental_uris":{"android":"levelo://app?vid=1ce752b0-fa49-429d-9734-2f06993f4bd6","ios":"levelo://app?vid=1ce752b0-fa49-429d-9734-2f06993f4bd6"},"vehicle_type_id":"4","last_reported":1762899018,"current_range_meters":15200,"station_id":"ce4bhr12rcd13ifvqhpg","pricing_plan_id":"cebpf4jnsgd1na2vs0mg"},{"bike_id":"438d7a62-f358-4ec9-8eec-1107534a0ed3","system_id":"levelo_inurba_marseille","lat":43.284496,"lon":5.358153,"is_reserved":false,"is_disabled":false,"rental_uris":{"android":"levelo://app?vid=438d7a62-f358-4ec9-8eec-1107534a0ed3","ios":"levelo://app?vid=438d7a62-f358-4ec9-8eec-1107534a0ed3"},"vehicle_type_id":"4","last_reported":1762899018,"current_range_meters":15200,"station_id":"ce4bhah2rcd13ifvqei0","pricing_plan_id":"cebpf4jnsgd1na2vs0mg"},{"bike_id":"e13b78db-2231-48a0-b9e0-a153f32a43f4","system_id":"levelo_inurba_marseille","lat":43.23044,"lon":5.35507,"is_reserved":false,"is_disabled":false,"rental_uris":{"android":"levelo://app?vid=e13b78db-2231-48a0-b9e0-a153f32a43f4","ios":"levelo://app?vid=e13b78db-2231-48a0-b9e0-a153f32a43f4"},"vehicle_type_id":"4","last_reported":1762899018,"current_range_meters":15200,"station_id":"cpo3342slgdg3j2ifvpg","pricing_plan_id":"cebpf4jnsgd1na2vs0mg"},{"bike_id":"d3929b97-d527-4b58-ac20-1f968c8f9b12","system_id":"levelo_inurba_marseille","lat":43.29275,"lon":5.40135,"is_reserved":false,"is_disabled":false,"rental_uris":{"android":"levelo://app?vid=d3929b97-d527-4b58-ac20-1f968c8f9b12","ios":"levelo://app?vid=d3929b97-d527-4b58-ac20-1f968c8f9b12"},"vehicle_type_id":"4","last_reported":1762899018,"current_range_meters":15200,"station_id":"ce4bh312rcd13ifvqdk0","pricing_plan_id":"cebpf4jnsgd1na2vs0mg"},{"bike_id":"795023e9-9f3d-4def-a691-a38f843fae35","system_id":"levelo_inurba_marseille","lat":43.29082,"lon":5.36561,"is_reserved":false,"is_disabled":false,"rental_uris":{"android":"levelo://app?vid=795023e9-9f3d-4def-a691-a38f843fae35","ios":"levelo://app?vid=795023e9-9f3d-4def-a691-a38f843fae35"},"vehicle_type_id":"4","last_reported":1762899018,"current_range_meters":15200,"station_id":"","pricing_plan_id":"cebpf4jnsgd1na2vs0mg"},{"bike_id":"816ee6d1-f26e-4bc1-b448-91a59f9d6a64","system_id":"levelo_inurba_marseille","lat":43.29514,"lon":5.39405,"is_reserved":false,"is_disabled":false,"rental_uris":{"android":"levelo://app?vid=816ee6d1-f26e-4bc1-b448-91a59f9d6a64","ios":"levelo://app?vid=816ee6d1-f26e-4bc1-b448-91a59f9d6a64"},"vehicle_type_id":"4","last_reported":1762899018,"current_range_meters":15200,"station_id":"ce4bh292rcd13ifvqdf0","pricing_plan_id":"cebpf4jnsgd1na2vs0mg"},{"bike_id":"fbb4adc7-67e1-422c-813d-41c673b2d86f","system_id":"levelo_inurba_marseille","lat":43.24545,"lon":5.39528,"is_reserved":false,"is_disabled":false,"rental_uris":{"android":"levelo://app?vid=fbb4adc7-67e1-422c-813d-41c673b2d86f","ios":"levelo://app?vid=fbb4adc7-67e1-422c-813d-41c673b2d86f"},"vehicle_type_id":"4","last_reported":1762899018,"current_range_meters":15200,"station_id":"ce4bhlp2rcd13ifvqgjg","pricing_plan_id":"cebpf4jnsgd1na2vs0mg"},{"bike_id":"0ee5ed68-17b0-4de5-8497-c5a52ae4e738","system_id":"levelo_inurba_marseille","lat":43.29444,"lon":5.39742,"is_reserved":false,"is_disabled":false,"rental_uris":{"android":"levelo://app?vid=0ee5ed68-17b0-4de5-8497-c5a52ae4e738","ios":"levelo://app?vid=0ee5ed68-17b0-4de5-8497-c5a52ae4e738"},"vehicle_type_id":"4","last_reported":1762899018,"current_range_meters":15200,"station_id":"ce4bh3h2rcd13ifvqdo0","pricing_plan_id":"cebpf4jnsgd1na2vs0mg"},{"bike_id":"558d6336-8c01-4b7e-9c90-98f020bc4f34","system_id":"levelo_inurba_marseille","lat":43.318905,"lon":5.407292,"is_reserved":false,"is_disabled":false,"rental_uris":{"android":"levelo://app?vid=558d6336-8c01-4b7e-9c90-98f020bc4f34","ios":"levelo://app?vid=558d6336-8c01-4b7e-9c90-98f020bc4f34"},"vehicle_type_id":"4","last_reported":1762899018,"current_range_meters":15200,"station_id":"ce4bhq12rcd13ifvqhig","pricing_plan_id":"cebpf4jnsgd1na2vs0mg"},{"bike_id":"3664f7af-3e86-419e-b36c-8dae5c863934","system_id":"levelo_inurba_marseille","lat":43.293078,"lon":5.399649,"is_reserved":false,"is_disabled":false,"rental_uris":{"android":"levelo://app?vid=3664f7af-3e86-419e-b36c-8dae5c863934","ios":"levelo://app?vid=3664f7af-3e86-419e-b36c-8dae5c863934"},"vehicle_type_id":"4","last_reported":1762899018,"current_range_meters":15200,"station_id":"","pricing_plan_id":"cebpf4jnsgd1na2vs0mg"},{"bike_id":"e5072903-b867-4d8e-a478-9934ce296bde","system_id":"levelo_inurba_marseille","lat":43.29126,"lon":5.39062,"is_reserved":false,"is_disabled":false,"rental_uris":{"android":"levelo://app?vid=e5072903-b867-4d8e-a478-9934ce296bde","ios":"levelo://app?vid=e5072903-b867-4d8e-a478-9934ce296bde"},"vehicle_type_id":"4","last_reported":1762899018,"current_range_meters":15200,"station_id":"","pricing_plan_id":"cebpf4jnsgd1na2vs0mg"},{"bike_id":"456c3b77-50a7-458c-9a10-8138e2e89389","system_id":"levelo_inurba_marseille","lat":43.252167,"lon":5.380375,"is_reserved":false,"is_disabled":false,"rental_uris":{"android":"levelo://app?vid=456c3b77-50a7-458c-9a10-8138e2e89389","ios":"levelo://app?vid=456c3b77-50a7-458c-9a10-8138e2e89389"},"vehicle_type_id":"4","last_reported":1762899018,"current_range_meters":15200,"station_id":"","pricing_plan_id":"cebpf4jnsgd1na2vs0mg"},{"bike_id":"ce4fd53c-a4b3-4645-8462-8207b946f75f","system_id":"levelo_inurba_marseille","lat":43.2871,"lon":5.39996,"is_reserved":false,"is_disabled":false,"rental_uris":{"android":"levelo://app?vid=ce4fd53c-a4b3-4645-8462-8207b946f75f","ios":"levelo://app?vid=ce4fd53c-a4b3-4645-8462-8207b946f75f"},"vehicle_type_id":"4","last_reported":1762899018,"current_range_meters":15200,"station_id":"ce4bho92rcd13ifvqh3g","pricing_plan_id":"cebpf4jnsgd1na2vs0mg"},{"bike_id":"f14742f0-361a-4890-ba70-14d87c5ef72a","system_id":"levelo_inurba_marseille","lat":43.2694,"lon":5.38913,"is_reserved":false,"is_disabled":false,"rental_uris":{"android":"levelo://app?vid=f14742f0-361a-4890-ba70-14d87c5ef72a","ios":"levelo://app?vid=f14742f0-361a-4890-ba70-14d87c5ef72a"},"vehicle_type_id":"4","last_reported":1762899018,"current_range_meters":15200,"station_id":"ce4bhhh2rcd13ifvqfl0","pricing_plan_id":"cebpf4jnsgd1na2vs0mg"},{"bike_id":"72de2437-0636-4722-95b6-d252b0fa572a","system_id":"levelo_inurba_marseille","lat":43.2499,"lon":5.38919,"is_reserved":false,"is_disabled":false,"rental_uris":{"android":"levelo://app?vid=72de2437-0636-4722-95b6-d252b0fa572a","ios":"levelo://app?vid=72de2437-0636-4722-95b6-d252b0fa572a"},"vehicle_type_id":"4","last_reported":1762899018,"current_range_meters":15200,"station_id":"ce4bhgp2rcd13ifvqfd0","pricing_plan_id":"cebpf4jnsgd1na2vs0mg"},{"bike_id":"55f24f19-a4bf-43f3-96d8-f53f1b6a63ab","system_id":"levelo_inurba_marseille","lat":43.2806,"lon":5.39694,"is_reserved":false,"is_disabled":false,"rental_uris":{"android":"levelo://app?vid=55f24f19-a4bf-43f3-96d8-f53f1b6a63ab","ios":"levelo://app?vid=55f24f19-a4bf-43f3-96d8-f53f1b6a63ab"},"vehicle_type_id":"4","last_reported":1762899018,"current_range_meters":15200,"station_id":"ce4bho12rcd13ifvqh2g","pricing_plan_id":"cebpf4jnsgd1na2vs0mg"},{"bike_id":"138acbc8-a44a-45ec-9d4e-f41258a8778e","system_id":"levelo_inurba_marseille","lat":43.29813,"lon":5.44063,"is_reserved":false,"is_disabled":false,"rental_uris":{"android":"levelo://app?vid=138acbc8-a44a-45ec-9d4e-f41258a8778e","ios":"levelo://app?vid=138acbc8-a44a-45ec-9d4e-f41258a8778e"},"vehicle_type_id":"4","last_reported":1762899018,"current_range_meters":15200,"station_id":"st_d3jp68qikq2c7381ktn0","pricing_plan_id":"cebpf4jnsgd1na2vs0mg"},{"bike_id":"bea5b510-bd03-4311-9858-b4755df7b315","system_id":"levelo_inurba_marseille","lat":43.247568,"lon":5.389722,"is_reserved":false,"is_disabled":false,"rental_uris":{"android":"levelo://app?vid=bea5b510-bd03-4311-9858-b4755df7b315","ios":"levelo://app?vid=bea5b510-bd03-4311-9858-b4755df7b315"},"vehicle_type_id":"4","last_reported":1762899018,"current_range_meters":15200,"station_id":"ce4bhg12rcd13ifvqf60","pricing_plan_id":"cebpf4jnsgd1na2vs0mg"},{"bike_id":"f0413c71-e0c3-427b-98cb-cdf950c219e3","system_id":"levelo_inurba_marseille","lat":43.31005,"lon":5.40061,"is_reserved":false,"is_disabled":false,"rental_uris":{"android":"levelo://app?vid=f0413c71-e0c3-427b-98cb-cdf950c219e3","ios":"levelo://app?vid=f0413c71-e0c3-427b-98cb-cdf950c219e3"},"vehicle_type_id":"4","last_reported":1762899018,"current_range_meters":16000,"station_id":"","pricing_plan_id":"cebpf4jnsgd1na2vs0mg"},{"bike_id":"9076ae51-9410-4c1b-9986-f30d66fd9259","system_id":"levelo_inurba_marseille","lat":43.23201,"lon":5.35547,"is_reserved":false,"is_disabled":false,"rental_uris":{"android":"levelo://app?vid=9076ae51-9410-4c1b-9986-f30d66fd9259","ios":"levelo://app?vid=9076ae51-9410-4c1b-9986-f30d66fd9259"},"vehicle_type_id":"4","last_reported":1762899018,"current_range_meters":16000,"station_id":"ce4bhu92rcd13ifvqi70","pricing_plan_id":"cebpf4jnsgd1na2vs0mg"},{"bike_id":"90244e76-14ca-4da0-9cf7-f1d4ec023d44","system_id":"levelo_inurba_marseille","lat":43.30877,"lon":5.39638,"is_reserved":false,"is_disabled":false,"rental_uris":{"android":"levelo://app?vid=90244e76-14ca-4da0-9cf7-f1d4ec023d44","ios":"levelo://app?vid=90244e76-14ca-4da0-9cf7-f1d4ec023d44"},"vehicle_type_id":"4","last_reported":1762899018,"current_range_meters":16000,"station_id":"ce4bh012rcd13ifvqcv0","pricing_plan_id":"cebpf4jnsgd1na2vs0mg"},{"bike_id":"3d187c26-f584-407b-a107-5e4d46389d0c","system_id":"levelo_inurba_marseille","lat":43.29469,"lon":5.3759,"is_reserved":false,"is_disabled":false,"rental_uris":{"android":"levelo://app?vid=3d187c26-f584-407b-a107-5e4d46389d0c","ios":"levelo://app?vid=3d187c26-f584-407b-a107-5e4d46389d0c"},"vehicle_type_id":"4","last_reported":1762899018,"current_range_meters":16000,"station_id":"","pricing_plan_id":"cebpf4jnsgd1na2vs0mg"},{"bike_id":"1311277f-41a2-4543-bc88-f88bfa762d06","system_id":"levelo_inurba_marseille","lat":43.286634,"lon":5.386668,"is_reserved":false,"is_disabled":true,"rental_uris":{"android":"levelo://app?vid=1311277f-41a2-4543-bc88-f88bfa762d06","ios":"levelo://app?vid=1311277f-41a2-4543-bc88-f88bfa762d06"},"vehicle_type_id":"4","last_reported":1762899018,"current_range_meters":16400,"station_id":"ce4bh492rcd13ifvqdug","pricing_plan_id":"cebpf4jnsgd1na2vs0mg"},{"bike_id":"01e8cce2-ff84-43ff-914a-c0c695f60ca4","system_id":"levelo_inurba_marseille","lat":43.29438,"lon":5.38034,"is_reserved":false,"is_disabled":false,"rental_uris":{"android":"levelo://app?vid=01e8cce2-ff84-43ff-914a-c0c695f60ca4","ios":"levelo://app?vid=01e8cce2-ff84-43ff-914a-c0c695f60ca4"},"vehicle_type_id":"4","last_reported":1762899018,"current_range_meters":16400,"station_id":"","pricing_plan_id":"cebpf4jnsgd1na2vs0mg"},{"bike_id":"1b0b7981-696f-4ec5-932c-764cd2899c70","system_id":"levelo_inurba_marseille","lat":43.28476,"lon":5.48404,"is_reserved":false,"is_disabled":false,"rental_uris":{"android":"levelo://app?vid=1b0b7981-696f-4ec5-932c-764cd2899c70","ios":"levelo://app?vid=1b0b7981-696f-4ec5-932c-764cd2899c70"},"vehicle_type_id":"4","last_reported":1762899018,"current_range_meters":16400,"station_id":"","pricing_plan_id":"cebpf4jnsgd1na2vs0mg"},{"bike_id":"5804ac99-3bd4-4091-bff1-7487e9285e0c","system_id":"levelo_inurba_marseille","lat":43.29191,"lon":5.37587,"is_reserved":false,"is_disabled":false,"rental_uris":{"android":"levelo://app?vid=5804ac99-3bd4-4091-bff1-7487e9285e0c","ios":"levelo://app?vid=5804ac99-3bd4-4091-bff1-7487e9285e0c"},"vehicle_type_id":"4","last_reported":1762899018,"current_range_meters":16400,"station_id":"","pricing_plan_id":"cebpf4jnsgd1na2vs0mg"},{"bike_id":"3771e837-9d8d-46f0-9fb2-f42c2abd1843","system_id":"levelo_inurba_marseille","lat":43.30164,"lon":5.39866,"is_reserved":false,"is_disabled":false,"rental_uris":{"android":"levelo://app?vid=3771e837-9d8d-46f0-9fb2-f42c2abd1843","ios":"levelo://app?vid=3771e837-9d8d-46f0-9fb2-f42c2abd1843"},"vehicle_type_id":"4","last_reported":1762899018,"current_range_meters":16400,"station_id":"ce4bh0h2rcd13ifvqd40","pricing_plan_id":"cebpf4jnsgd1na2vs0mg"},{"bike_id":"8b027115-1a9e-4312-923f-dbf5aec10ee4","system_id":"levelo_inurba_marseille","lat":43.30231,"lon":5.36501,"is_reserved":false,"is_disabled":false,"rental_uris":{"android":"levelo://app?vid=8b027115-1a9e-4312-923f-dbf5aec10ee4","ios":"levelo://app?vid=8b027115-1a9e-4312-923f-dbf5aec10ee4"},"vehicle_type_id":"4","last_reported":1762899018,"current_range_meters":16400,"station_id":"","pricing_plan_id":"cebpf4jnsgd1na2vs0mg"},{"bike_id":"a181b69a-fd1c-4d3f-af0e-bfa9a7521c4e","system_id":"levelo_inurba_marseille","lat":43.25338,"lon":5.4217,"is_reserved":false,"is_disabled":false,"rental_uris":{"android":"levelo://app?vid=a181b69a-fd1c-4d3f-af0e-bfa9a7521c4e","ios":"levelo://app?vid=a181b69a-fd1c-4d3f-af0e-bfa9a7521c4e"},"vehicle_type_id":"4","last_reported":1762899018,"current_range_meters":16400,"station_id":"st_d2m65c5bi1j21697t3ng","pricing_plan_id":"cebpf4jnsgd1na2vs0mg"},{"bike_id":"ca832d9b-2460-4423-a8ce-5f7543cdec32","system_id":"levelo_inurba_marseille","lat":43.31331,"lon":5.39699,"is_reserved":false,"is_disabled":false,"rental_uris":{"android":"levelo://app?vid=ca832d9b-2460-4423-a8ce-5f7543cdec32","ios":"levelo://app?vid=ca832d9b-2460-4423-a8ce-5f7543cdec32"},"vehicle_type_id":"4","last_reported":1762899018,"current_range_meters":16400,"station_id":"ce4bgvp2rcd13ifvqcu0","pricing_plan_id":"cebpf4jnsgd1na2vs0mg"},{"bike_id":"e95c7a5e-2ca6-4704-beef-c914118730ac","system_id":"levelo_inurba_marseille","lat":43.23385,"lon":5.4124,"is_reserved":false,"is_disabled":false,"rental_uris":{"android":"levelo://app?vid=e95c7a5e-2ca6-4704-beef-c914118730ac","ios":"levelo://app?vid=e95c7a5e-2ca6-4704-beef-c914118730ac"},"vehicle_type_id":"4","last_reported":1762899018,"current_range_meters":16400,"station_id":"","pricing_plan_id":"cebpf4jnsgd1na2vs0mg"},{"bike_id":"7b20de75-73c6-4017-9473-70392d94bf39","system_id":"levelo_inurba_marseille","lat":43.26205,"lon":5.37936,"is_reserved":false,"is_disabled":false,"rental_uris":{"android":"levelo://app?vid=7b20de75-73c6-4017-9473-70392d94bf39","ios":"levelo://app?vid=7b20de75-73c6-4017-9473-70392d94bf39"},"vehicle_type_id":"4","last_reported":1762899018,"current_range_meters":16800,"station_id":"ce4bhjp2rcd13ifvqg90","pricing_plan_id":"cebpf4jnsgd1na2vs0mg"},{"bike_id":"04b8c80b-be20-426a-a7a3-08d2e4e67416","system_id":"levelo_inurba_marseille","lat":43.293152,"lon":5.385337,"is_reserved":false,"is_disabled":false,"rental_uris":{"android":"levelo://app?vid=04b8c80b-be20-426a-a7a3-08d2e4e67416","ios":"levelo://app?vid=04b8c80b-be20-426a-a7a3-08d2e4e67416"},"vehicle_type_id":"4","last_reported":1762899018,"current_range_meters":16800,"station_id":"ce4bh312rcd13ifvqdk0","pricing_plan_id":"cebpf4jnsgd1na2vs0mg"},{"bike_id":"d97d1671-36ff-4f0e-b146-69c560265632","system_id":"levelo_inurba_marseille","lat":43.27973,"lon":5.40781,"is_reserved":false,"is_disabled":false,"rental_uris":{"android":"levelo://app?vid=d97d1671-36ff-4f0e-b146-69c560265632","ios":"levelo://app?vid=d97d1671-36ff-4f0e-b146-69c560265632"},"vehicle_type_id":"4","last_reported":1762899018,"current_range_meters":16800,"station_id":"","pricing_plan_id":"cebpf4jnsgd1na2vs0mg"},{"bike_id":"75eb0a8c-4a7d-43c8-b7cb-9fbd78fdeb6e","system_id":"levelo_inurba_marseille","lat":43.23784,"lon":5.36628,"is_reserved":false,"is_disabled":false,"rental_uris":{"android":"levelo://app?vid=75eb0a8c-4a7d-43c8-b7cb-9fbd78fdeb6e","ios":"levelo://app?vid=75eb0a8c-4a7d-43c8-b7cb-9fbd78fdeb6e"},"vehicle_type_id":"4","last_reported":1762899018,"current_range_meters":16800,"station_id":"st_d3nk18o9ro0c73en2l3g","pricing_plan_id":"cebpf4jnsgd1na2vs0mg"},{"bike_id":"25ff1596-8d93-46ac-bdb5-e25a518d41ee","system_id":"levelo_inurba_marseille","lat":43.2893,"lon":5.38399,"is_reserved":false,"is_disabled":true,"rental_uris":{"android":"levelo://app?vid=25ff1596-8d93-46ac-bdb5-e25a518d41ee","ios":"levelo://app?vid=25ff1596-8d93-46ac-bdb5-e25a518d41ee"},"vehicle_type_id":"4","last_reported":1762899018,"current_range_meters":16800,"station_id":"ce4bh612rcd13ifvqe6g","pricing_plan_id":"cebpf4jnsgd1na2vs0mg"},{"bike_id":"d7542f22-98e9-48e9-89ec-609ef12697da","system_id":"levelo_inurba_marseille","lat":43.30294,"lon":5.39218,"is_reserved":false,"is_disabled":false,"rental_uris":{"android":"levelo://app?vid=d7542f22-98e9-48e9-89ec-609ef12697da","ios":"levelo://app?vid=d7542f22-98e9-48e9-89ec-609ef12697da"},"vehicle_type_id":"4","last_reported":1762899018,"current_range_meters":17200,"station_id":"ce4bgkh2rcd13ifvqbk0","pricing_plan_id":"cebpf4jnsgd1na2vs0mg"},{"bike_id":"d6d9a3e0-e0aa-4aa2-bf84-1c4e64c5c8a2","system_id":"levelo_inurba_marseille","lat":43.255384,"lon":5.390763,"is_reserved":false,"is_disabled":false,"rental_uris":{"android":"levelo://app?vid=d6d9a3e0-e0aa-4aa2-bf84-1c4e64c5c8a2","ios":"levelo://app?vid=d6d9a3e0-e0aa-4aa2-bf84-1c4e64c5c8a2"},"vehicle_type_id":"4","last_reported":1762899018,"current_range_meters":17200,"station_id":"","pricing_plan_id":"cebpf4jnsgd1na2vs0mg"},{"bike_id":"536cfea4-1af6-4127-8811-f4fa8c84e97a","system_id":"levelo_inurba_marseille","lat":43.30787,"lon":5.38178,"is_reserved":false,"is_disabled":false,"rental_uris":{"android":"levelo://app?vid=536cfea4-1af6-4127-8811-f4fa8c84e97a","ios":"levelo://app?vid=536cfea4-1af6-4127-8811-f4fa8c84e97a"},"vehicle_type_id":"4","last_reported":1762899018,"current_range_meters":17200,"station_id":"ce4bgt12rcd13ifvqce0","pricing_plan_id":"cebpf4jnsgd1na2vs0mg"},{"bike_id":"ff23e7e8-fc51-4bb2-aa70-fb746f097082","system_id":"levelo_inurba_marseille","lat":43.26945,"lon":5.40257,"is_reserved":false,"is_disabled":false,"rental_uris":{"android":"levelo://app?vid=ff23e7e8-fc51-4bb2-aa70-fb746f097082","ios":"levelo://app?vid=ff23e7e8-fc51-4bb2-aa70-fb746f097082"},"vehicle_type_id":"4","last_reported":1762899018,"current_range_meters":17200,"station_id":"cjm6bp8fraef2m0cb0m0","pricing_plan_id":"cebpf4jnsgd1na2vs0mg"},{"bike_id":"e3df63a1-f3d2-4d82-8bf6-df212c4e8b69","system_id":"levelo_inurba_marseille","lat":43.28518,"lon":5.48421,"is_reserved":false,"is_disabled":false,"rental_uris":{"android":"levelo://app?vid=e3df63a1-f3d2-4d82-8bf6-df212c4e8b69","ios":"levelo://app?vid=e3df63a1-f3d2-4d82-8bf6-df212c4e8b69"},"vehicle_type_id":"4","last_reported":1762899018,"current_range_meters":17200,"station_id":"st_d3svhcjqgbts73a3dn0g","pricing_plan_id":"cebpf4jnsgd1na2vs0mg"},{"bike_id":"e625197c-7c08-4e0a-8444-f4b2d820cbf4","system_id":"levelo_inurba_marseille","lat":43.28348,"lon":5.38104,"is_reserved":false,"is_disabled":false,"rental_uris":{"android":"levelo://app?vid=e625197c-7c08-4e0a-8444-f4b2d820cbf4","ios":"levelo://app?vid=e625197c-7c08-4e0a-8444-f4b2d820cbf4"},"vehicle_type_id":"4","last_reported":1762899018,"current_range_meters":17200,"station_id":"ce4bh412rcd13ifvqdr0","pricing_plan_id":"cebpf4jnsgd1na2vs0mg"},{"bike_id":"7e1e38b9-147e-42d0-9b61-1d303a99fea8","system_id":"levelo_inurba_marseille","lat":43.28947,"lon":5.39633,"is_reserved":false,"is_disabled":false,"rental_uris":{"android":"levelo://app?vid=7e1e38b9-147e-42d0-9b61-1d303a99fea8","ios":"levelo://app?vid=7e1e38b9-147e-42d0-9b61-1d303a99fea8"},"vehicle_type_id":"4","last_reported":1762899018,"current_range_meters":17200,"station_id":"ce4bh3h2rcd13ifvqdn0","pricing_plan_id":"cebpf4jnsgd1na2vs0mg"},{"bike_id":"7debdec4-db33-4dad-83bf-2f83639d0f53","system_id":"levelo_inurba_marseille","lat":43.24993,"lon":5.38928,"is_reserved":false,"is_disabled":false,"rental_uris":{"android":"levelo://app?vid=7debdec4-db33-4dad-83bf-2f83639d0f53","ios":"levelo://app?vid=7debdec4-db33-4dad-83bf-2f83639d0f53"},"vehicle_type_id":"4","last_reported":1762899018,"current_range_meters":17200,"station_id":"ce4bhgp2rcd13ifvqfd0","pricing_plan_id":"cebpf4jnsgd1na2vs0mg"},{"bike_id":"a38b499d-f66f-4f43-bcf5-7ca9af21ec79","system_id":"levelo_inurba_marseille","lat":43.281581,"lon":5.426459,"is_reserved":false,"is_disabled":false,"rental_uris":{"android":"levelo://app?vid=a38b499d-f66f-4f43-bcf5-7ca9af21ec79","ios":"levelo://app?vid=a38b499d-f66f-4f43-bcf5-7ca9af21ec79"},"vehicle_type_id":"4","last_reported":1762899018,"current_range_meters":17200,"station_id":"ce4bhnh2rcd13ifvqgug","pricing_plan_id":"cebpf4jnsgd1na2vs0mg"},{"bike_id":"21a1c427-8a44-4cdc-bdc4-820ecb76f74b","system_id":"levelo_inurba_marseille","lat":43.308868,"lon":5.396513,"is_reserved":false,"is_disabled":false,"rental_uris":{"android":"levelo://app?vid=21a1c427-8a44-4cdc-bdc4-820ecb76f74b","ios":"levelo://app?vid=21a1c427-8a44-4cdc-bdc4-820ecb76f74b"},"vehicle_type_id":"4","last_reported":1762899018,"current_range_meters":17600,"station_id":"ce4bh012rcd13ifvqcv0","pricing_plan_id":"cebpf4jnsgd1na2vs0mg"},{"bike_id":"5e6e0c2c-5aff-425c-b9f5-69ee0b364303","system_id":"levelo_inurba_marseille","lat":43.23199,"lon":5.355454,"is_reserved":false,"is_disabled":false,"rental_uris":{"android":"levelo://app?vid=5e6e0c2c-5aff-425c-b9f5-69ee0b364303","ios":"levelo://app?vid=5e6e0c2c-5aff-425c-b9f5-69ee0b364303"},"vehicle_type_id":"4","last_reported":1762899018,"current_range_meters":17600,"station_id":"ce4bhu92rcd13ifvqi70","pricing_plan_id":"cebpf4jnsgd1na2vs0mg"},{"bike_id":"c87d49cf-734d-463f-aad1-fad6864686cb","system_id":"levelo_inurba_marseille","lat":43.306927,"lon":5.422486,"is_reserved":false,"is_disabled":false,"rental_uris":{"android":"levelo://app?vid=c87d49cf-734d-463f-aad1-fad6864686cb","ios":"levelo://app?vid=c87d49cf-734d-463f-aad1-fad6864686cb"},"vehicle_type_id":"4","last_reported":1762899018,"current_range_meters":17600,"station_id":"","pricing_plan_id":"cebpf4jnsgd1na2vs0mg"},{"bike_id":"68d1e22a-dbd7-4fcb-9c88-fac686cf775e","system_id":"levelo_inurba_marseille","lat":43.33766,"lon":5.37481,"is_reserved":false,"is_disabled":false,"rental_uris":{"android":"levelo://app?vid=68d1e22a-dbd7-4fcb-9c88-fac686cf775e","ios":"levelo://app?vid=68d1e22a-dbd7-4fcb-9c88-fac686cf775e"},"vehicle_type_id":"4","last_reported":1762899018,"current_range_meters":17600,"station_id":"","pricing_plan_id":"cebpf4jnsgd1na2vs0mg"},{"bike_id":"0e1ba582-c06a-482f-b7d0-001c3f3645ce","system_id":"levelo_inurba_marseille","lat":43.31366,"lon":5.38505,"is_reserved":false,"is_disabled":false,"rental_uris":{"android":"levelo://app?vid=0e1ba582-c06a-482f-b7d0-001c3f3645ce","ios":"levelo://app?vid=0e1ba582-c06a-482f-b7d0-001c3f3645ce"},"vehicle_type_id":"4","last_reported":1762899018,"current_range_meters":17600,"station_id":"ce4bgt92rcd13ifvqcf0","pricing_plan_id":"cebpf4jnsgd1na2vs0mg"},{"bike_id":"4a75a27c-50de-4bbd-a626-fc1051103d57","system_id":"levelo_inurba_marseille","lat":43.23217,"lon":5.3557,"is_reserved":false,"is_disabled":false,"rental_uris":{"android":"levelo://app?vid=4a75a27c-50de-4bbd-a626-fc1051103d57","ios":"levelo://app?vid=4a75a27c-50de-4bbd-a626-fc1051103d57"},"vehicle_type_id":"4","last_reported":1762899018,"current_range_meters":17600,"station_id":"ce4bhu92rcd13ifvqi70","pricing_plan_id":"cebpf4jnsgd1na2vs0mg"},{"bike_id":"7f40f0c5-ec52-4f82-a8ba-51ca788fb557","system_id":"levelo_inurba_marseille","lat":43.30884,"lon":5.39644,"is_reserved":false,"is_disabled":false,"rental_uris":{"android":"levelo://app?vid=7f40f0c5-ec52-4f82-a8ba-51ca788fb557","ios":"levelo://app?vid=7f40f0c5-ec52-4f82-a8ba-51ca788fb557"},"vehicle_type_id":"4","last_reported":1762899018,"current_range_meters":17600,"station_id":"ce4bh012rcd13ifvqcv0","pricing_plan_id":"cebpf4jnsgd1na2vs0mg"},{"bike_id":"f40991bf-928a-468b-912e-7e01106bdc08","system_id":"levelo_inurba_marseille","lat":43.243866,"lon":5.370619,"is_reserved":false,"is_disabled":false,"rental_uris":{"android":"levelo://app?vid=f40991bf-928a-468b-912e-7e01106bdc08","ios":"levelo://app?vid=f40991bf-928a-468b-912e-7e01106bdc08"},"vehicle_type_id":"4","last_reported":1762899018,"current_range_meters":17600,"station_id":"ce4bhhh2rcd13ifvqfk0","pricing_plan_id":"cebpf4jnsgd1na2vs0mg"},{"bike_id":"7cd3fc91-8b4e-4cc9-a97a-8aec9cd4160c","system_id":"levelo_inurba_marseille","lat":43.29868,"lon":5.37196,"is_reserved":false,"is_disabled":true,"rental_uris":{"android":"levelo://app?vid=7cd3fc91-8b4e-4cc9-a97a-8aec9cd4160c","ios":"levelo://app?vid=7cd3fc91-8b4e-4cc9-a97a-8aec9cd4160c"},"vehicle_type_id":"4","last_reported":1762899018,"current_range_meters":18000,"station_id":"","pricing_plan_id":"cebpf4jnsgd1na2vs0mg"},{"bike_id":"84026268-d7e2-40d8-8c7f-b2e30263873c","system_id":"levelo_inurba_marseille","lat":43.22941,"lon":5.35383,"is_reserved":false,"is_disabled":false,"rental_uris":{"android":"levelo://app?vid=84026268-d7e2-40d8-8c7f-b2e30263873c","ios":"levelo://app?vid=84026268-d7e2-40d8-8c7f-b2e30263873c"},"vehicle_type_id":"4","last_reported":1762899018,"current_range_meters":18000,"station_id":"cpo3532slgdg3j2ikp40","pricing_plan_id":"cebpf4jnsgd1na2vs0mg"},{"bike_id":"e58de2a0-1436-4477-b3b4-62a120e3867b","system_id":"levelo_inurba_marseille","lat":43.297721,"lon":5.39334,"is_reserved":false,"is_disabled":false,"rental_uris":{"android":"levelo://app?vid=e58de2a0-1436-4477-b3b4-62a120e3867b","ios":"levelo://app?vid=e58de2a0-1436-4477-b3b4-62a120e3867b"},"vehicle_type_id":"4","last_reported":1762899018,"current_range_meters":18000,"station_id":"chh1huq6cuj3fo74tm60","pricing_plan_id":"cebpf4jnsgd1na2vs0mg"},{"bike_id":"8bc3fe3e-6b9a-4b5a-9f5f-2a7883be02e1","system_id":"levelo_inurba_marseille","lat":43.3075,"lon":5.37162,"is_reserved":false,"is_disabled":false,"rental_uris":{"android":"levelo://app?vid=8bc3fe3e-6b9a-4b5a-9f5f-2a7883be02e1","ios":"levelo://app?vid=8bc3fe3e-6b9a-4b5a-9f5f-2a7883be02e1"},"vehicle_type_id":"4","last_reported":1762899018,"current_range_meters":18000,"station_id":"","pricing_plan_id":"cebpf4jnsgd1na2vs0mg"},{"bike_id":"c22fce2f-af95-4414-8249-7e1709b8e538","system_id":"levelo_inurba_marseille","lat":43.25335,"lon":5.42156,"is_reserved":false,"is_disabled":false,"rental_uris":{"android":"levelo://app?vid=c22fce2f-af95-4414-8249-7e1709b8e538","ios":"levelo://app?vid=c22fce2f-af95-4414-8249-7e1709b8e538"},"vehicle_type_id":"4","last_reported":1762899018,"current_range_meters":18000,"station_id":"st_d2m65c5bi1j21697t3ng","pricing_plan_id":"cebpf4jnsgd1na2vs0mg"},{"bike_id":"e51f6c7c-0fd0-4469-bc44-ad743ad6ed36","system_id":"levelo_inurba_marseille","lat":43.30647,"lon":5.375613,"is_reserved":false,"is_disabled":false,"rental_uris":{"android":"levelo://app?vid=e51f6c7c-0fd0-4469-bc44-ad743ad6ed36","ios":"levelo://app?vid=e51f6c7c-0fd0-4469-bc44-ad743ad6ed36"},"vehicle_type_id":"4","last_reported":1762899018,"current_range_meters":18000,"station_id":"ce4bgv92rcd13ifvqcq0","pricing_plan_id":"cebpf4jnsgd1na2vs0mg"},{"bike_id":"65f02636-4ec0-4b0a-a748-f609f9120a58","system_id":"levelo_inurba_marseille","lat":43.284,"lon":5.37526,"is_reserved":false,"is_disabled":false,"rental_uris":{"android":"levelo://app?vid=65f02636-4ec0-4b0a-a748-f609f9120a58","ios":"levelo://app?vid=65f02636-4ec0-4b0a-a748-f609f9120a58"},"vehicle_type_id":"4","last_reported":1762899018,"current_range_meters":18000,"station_id":"","pricing_plan_id":"cebpf4jnsgd1na2vs0mg"},{"bike_id":"0528378f-1b50-41df-b328-6686306ee922","system_id":"levelo_inurba_marseille","lat":43.21636,"lon":5.34447,"is_reserved":false,"is_disabled":false,"rental_uris":{"android":"levelo://app?vid=0528378f-1b50-41df-b328-6686306ee922","ios":"levelo://app?vid=0528378f-1b50-41df-b328-6686306ee922"},"vehicle_type_id":"4","last_reported":1762899018,"current_range_meters":18000,"station_id":"","pricing_plan_id":"cebpf4jnsgd1na2vs0mg"},{"bike_id":"47b1f308-123a-4f3d-bd00-7930ede1c782","system_id":"levelo_inurba_marseille","lat":43.25455,"lon":5.41882,"is_reserved":false,"is_disabled":false,"rental_uris":{"android":"levelo://app?vid=47b1f308-123a-4f3d-bd00-7930ede1c782","ios":"levelo://app?vid=47b1f308-123a-4f3d-bd00-7930ede1c782"},"vehicle_type_id":"4","last_reported":1762899018,"current_range_meters":18000,"station_id":"","pricing_plan_id":"cebpf4jnsgd1na2vs0mg"},{"bike_id":"6c4d02e5-bce9-45af-8446-e07b99ad5b76","system_id":"levelo_inurba_marseille","lat":43.29021,"lon":5.35745,"is_reserved":false,"is_disabled":false,"rental_uris":{"android":"levelo://app?vid=6c4d02e5-bce9-45af-8446-e07b99ad5b76","ios":"levelo://app?vid=6c4d02e5-bce9-45af-8446-e07b99ad5b76"},"vehicle_type_id":"4","last_reported":1762899018,"current_range_meters":18000,"station_id":"","pricing_plan_id":"cebpf4jnsgd1na2vs0mg"},{"bike_id":"723b394c-8fd7-4207-b0f6-07fec5348de1","system_id":"levelo_inurba_marseille","lat":43.29036,"lon":5.37564,"is_reserved":false,"is_disabled":false,"rental_uris":{"android":"levelo://app?vid=723b394c-8fd7-4207-b0f6-07fec5348de1","ios":"levelo://app?vid=723b394c-8fd7-4207-b0f6-07fec5348de1"},"vehicle_type_id":"4","last_reported":1762899018,"current_range_meters":18000,"station_id":"ce4bh692rcd13ifvqe90","pricing_plan_id":"cebpf4jnsgd1na2vs0mg"},{"bike_id":"52d4b8ef-bd3b-4594-9933-6de587b7e338","system_id":"levelo_inurba_marseille","lat":43.22926,"lon":5.35383,"is_reserved":false,"is_disabled":false,"rental_uris":{"android":"levelo://app?vid=52d4b8ef-bd3b-4594-9933-6de587b7e338","ios":"levelo://app?vid=52d4b8ef-bd3b-4594-9933-6de587b7e338"},"vehicle_type_id":"4","last_reported":1762899018,"current_range_meters":18800,"station_id":"cpo3532slgdg3j2ikp40","pricing_plan_id":"cebpf4jnsgd1na2vs0mg"},{"bike_id":"817e1ddc-4799-4955-9571-85f7e8edbdf0","system_id":"levelo_inurba_marseille","lat":43.28483,"lon":5.38424,"is_reserved":false,"is_disabled":true,"rental_uris":{"android":"levelo://app?vid=817e1ddc-4799-4955-9571-85f7e8edbdf0","ios":"levelo://app?vid=817e1ddc-4799-4955-9571-85f7e8edbdf0"},"vehicle_type_id":"4","last_reported":1762899018,"current_range_meters":18800,"station_id":"ce4bh512rcd13ifvqe3g","pricing_plan_id":"cebpf4jnsgd1na2vs0mg"},{"bike_id":"9f77fce6-b576-455d-a43d-b1e175676c28","system_id":"levelo_inurba_marseille","lat":43.33773,"lon":5.37473,"is_reserved":false,"is_disabled":false,"rental_uris":{"android":"levelo://app?vid=9f77fce6-b576-455d-a43d-b1e175676c28","ios":"levelo://app?vid=9f77fce6-b576-455d-a43d-b1e175676c28"},"vehicle_type_id":"4","last_reported":1762899018,"current_range_meters":18800,"station_id":"","pricing_plan_id":"cebpf4jnsgd1na2vs0mg"},{"bike_id":"766b19a9-6b87-44f3-a4c5-634274757c1a","system_id":"levelo_inurba_marseille","lat":43.29269,"lon":5.38277,"is_reserved":false,"is_disabled":false,"rental_uris":{"android":"levelo://app?vid=766b19a9-6b87-44f3-a4c5-634274757c1a","ios":"levelo://app?vid=766b19a9-6b87-44f3-a4c5-634274757c1a"},"vehicle_type_id":"4","last_reported":1762899018,"current_range_meters":19200,"station_id":"","pricing_plan_id":"cebpf4jnsgd1na2vs0mg"},{"bike_id":"3b8f8c31-20b9-4636-9e15-9efa93955276","system_id":"levelo_inurba_marseille","lat":43.295807,"lon":5.399751,"is_reserved":false,"is_disabled":true,"rental_uris":{"android":"levelo://app?vid=3b8f8c31-20b9-4636-9e15-9efa93955276","ios":"levelo://app?vid=3b8f8c31-20b9-4636-9e15-9efa93955276"},"vehicle_type_id":"4","last_reported":1762899018,"current_range_meters":19200,"station_id":"ce4bh312rcd13ifvqdj0","pricing_plan_id":"cebpf4jnsgd1na2vs0mg"},{"bike_id":"6418340e-0d22-4824-ba95-f54271b6387f","system_id":"levelo_inurba_marseille","lat":43.28405,"lon":5.37518,"is_reserved":false,"is_disabled":false,"rental_uris":{"android":"levelo://app?vid=6418340e-0d22-4824-ba95-f54271b6387f","ios":"levelo://app?vid=6418340e-0d22-4824-ba95-f54271b6387f"},"vehicle_type_id":"4","last_reported":1762899018,"current_range_meters":19200,"station_id":"ce4bh412rcd13ifvqds0","pricing_plan_id":"cebpf4jnsgd1na2vs0mg"},{"bike_id":"97168b05-59a0-4cdb-bdce-272a25f23a17","system_id":"levelo_inurba_marseille","lat":43.284036,"lon":5.375063,"is_reserved":false,"is_disabled":false,"rental_uris":{"android":"levelo://app?vid=97168b05-59a0-4cdb-bdce-272a25f23a17","ios":"levelo://app?vid=97168b05-59a0-4cdb-bdce-272a25f23a17"},"vehicle_type_id":"4","last_reported":1762899018,"current_range_meters":19200,"station_id":"","pricing_plan_id":"cebpf4jnsgd1na2vs0mg"},{"bike_id":"1a76271a-206d-4efb-a82f-6a45ff76d141","system_id":"levelo_inurba_marseille","lat":43.28937,"lon":5.36631,"is_reserved":false,"is_disabled":false,"rental_uris":{"android":"levelo://app?vid=1a76271a-206d-4efb-a82f-6a45ff76d141","ios":"levelo://app?vid=1a76271a-206d-4efb-a82f-6a45ff76d141"},"vehicle_type_id":"4","last_reported":1762899018,"current_range_meters":19200,"station_id":"ce4bhap2rcd13ifvqek0","pricing_plan_id":"cebpf4jnsgd1na2vs0mg"},{"bike_id":"54303431-005d-4795-a100-104b08c48a0c","system_id":"levelo_inurba_marseille","lat":43.30432,"lon":5.38896,"is_reserved":false,"is_disabled":false,"rental_uris":{"android":"levelo://app?vid=54303431-005d-4795-a100-104b08c48a0c","ios":"levelo://app?vid=54303431-005d-4795-a100-104b08c48a0c"},"vehicle_type_id":"4","last_reported":1762899018,"current_range_meters":19200,"station_id":"ce4bgk12rcd13ifvqbi0","pricing_plan_id":"cebpf4jnsgd1na2vs0mg"},{"bike_id":"a76ed384-8adb-4855-8ea9-608b64e9d92b","system_id":"levelo_inurba_marseille","lat":43.32284,"lon":5.36943,"is_reserved":false,"is_disabled":false,"rental_uris":{"android":"levelo://app?vid=a76ed384-8adb-4855-8ea9-608b64e9d92b","ios":"levelo://app?vid=a76ed384-8adb-4855-8ea9-608b64e9d92b"},"vehicle_type_id":"4","last_reported":1762899018,"current_range_meters":19200,"station_id":"","pricing_plan_id":"cebpf4jnsgd1na2vs0mg"},{"bike_id":"6faca5e0-f5f3-4419-a7e2-34fda1621326","system_id":"levelo_inurba_marseille","lat":43.21194,"lon":5.35077,"is_reserved":false,"is_disabled":true,"rental_uris":{"android":"levelo://app?vid=6faca5e0-f5f3-4419-a7e2-34fda1621326","ios":"levelo://app?vid=6faca5e0-f5f3-4419-a7e2-34fda1621326"},"vehicle_type_id":"4","last_reported":1762899018,"current_range_meters":19200,"station_id":"st_cvj6sg6p6f1abm77japg","pricing_plan_id":"cebpf4jnsgd1na2vs0mg"},{"bike_id":"102b8117-a3eb-4b1c-9407-624b22f17b75","system_id":"levelo_inurba_marseille","lat":43.30598,"lon":5.37208,"is_reserved":false,"is_disabled":false,"rental_uris":{"android":"levelo://app?vid=102b8117-a3eb-4b1c-9407-624b22f17b75","ios":"levelo://app?vid=102b8117-a3eb-4b1c-9407-624b22f17b75"},"vehicle_type_id":"4","last_reported":1762899018,"current_range_meters":19600,"station_id":"ce4bgqh2rcd13ifvqc4g","pricing_plan_id":"cebpf4jnsgd1na2vs0mg"},{"bike_id":"0d1a1fe5-cf19-43f0-b2e2-12612db29a2a","system_id":"levelo_inurba_marseille","lat":43.28899,"lon":5.36101,"is_reserved":false,"is_disabled":false,"rental_uris":{"android":"levelo://app?vid=0d1a1fe5-cf19-43f0-b2e2-12612db29a2a","ios":"levelo://app?vid=0d1a1fe5-cf19-43f0-b2e2-12612db29a2a"},"vehicle_type_id":"4","last_reported":1762899018,"current_range_meters":19600,"station_id":"","pricing_plan_id":"cebpf4jnsgd1na2vs0mg"},{"bike_id":"527da7ec-3f07-4e67-b311-b5aee5aaec5d","system_id":"levelo_inurba_marseille","lat":43.27186,"lon":5.40981,"is_reserved":false,"is_disabled":false,"rental_uris":{"android":"levelo://app?vid=527da7ec-3f07-4e67-b311-b5aee5aaec5d","ios":"levelo://app?vid=527da7ec-3f07-4e67-b311-b5aee5aaec5d"},"vehicle_type_id":"4","last_reported":1762899018,"current_range_meters":19600,"station_id":"ce4bhl12rcd13ifvqgf0","pricing_plan_id":"cebpf4jnsgd1na2vs0mg"},{"bike_id":"b4122acc-a65d-4a6f-b61a-41b83538e9e9","system_id":"levelo_inurba_marseille","lat":43.25339,"lon":5.42172,"is_reserved":false,"is_disabled":false,"rental_uris":{"android":"levelo://app?vid=b4122acc-a65d-4a6f-b61a-41b83538e9e9","ios":"levelo://app?vid=b4122acc-a65d-4a6f-b61a-41b83538e9e9"},"vehicle_type_id":"4","last_reported":1762899018,"current_range_meters":19600,"station_id":"st_d2m65c5bi1j21697t3ng","pricing_plan_id":"cebpf4jnsgd1na2vs0mg"},{"bike_id":"ba58f1d4-266d-4f10-827f-516caa3b21c1","system_id":"levelo_inurba_marseille","lat":43.28438,"lon":5.39199,"is_reserved":false,"is_disabled":false,"rental_uris":{"android":"levelo://app?vid=ba58f1d4-266d-4f10-827f-516caa3b21c1","ios":"levelo://app?vid=ba58f1d4-266d-4f10-827f-516caa3b21c1"},"vehicle_type_id":"4","last_reported":1762899018,"current_range_meters":19600,"station_id":"ce4bhoh2rcd13ifvqh5g","pricing_plan_id":"cebpf4jnsgd1na2vs0mg"},{"bike_id":"98d9ed27-1c51-4232-bb05-142a9e7f98db","system_id":"levelo_inurba_marseille","lat":43.31058,"lon":5.3836,"is_reserved":false,"is_disabled":true,"rental_uris":{"android":"levelo://app?vid=98d9ed27-1c51-4232-bb05-142a9e7f98db","ios":"levelo://app?vid=98d9ed27-1c51-4232-bb05-142a9e7f98db"},"vehicle_type_id":"4","last_reported":1762899018,"current_range_meters":19600,"station_id":"ce4bgv92rcd13ifvqcr0","pricing_plan_id":"cebpf4jnsgd1na2vs0mg"},{"bike_id":"4dc51680-cd9a-4415-8ec0-481aee339c68","system_id":"levelo_inurba_marseille","lat":43.27816,"lon":5.40718,"is_reserved":false,"is_disabled":false,"rental_uris":{"android":"levelo://app?vid=4dc51680-cd9a-4415-8ec0-481aee339c68","ios":"levelo://app?vid=4dc51680-cd9a-4415-8ec0-481aee339c68"},"vehicle_type_id":"4","last_reported":1762899018,"current_range_meters":19600,"station_id":"ce4bhnh2rcd13ifvqgtg","pricing_plan_id":"cebpf4jnsgd1na2vs0mg"},{"bike_id":"d1a92c87-0ad7-4094-acf3-73d51fda71e2","system_id":"levelo_inurba_marseille","lat":43.30933,"lon":5.40155,"is_reserved":false,"is_disabled":false,"rental_uris":{"android":"levelo://app?vid=d1a92c87-0ad7-4094-acf3-73d51fda71e2","ios":"levelo://app?vid=d1a92c87-0ad7-4094-acf3-73d51fda71e2"},"vehicle_type_id":"4","last_reported":1762899018,"current_range_meters":19600,"station_id":"ce4bgvp2rcd13ifvqct0","pricing_plan_id":"cebpf4jnsgd1na2vs0mg"},{"bike_id":"316e9176-1dea-447e-8619-699d401755c0","system_id":"levelo_inurba_marseille","lat":43.27624,"lon":5.36125,"is_reserved":false,"is_disabled":true,"rental_uris":{"android":"levelo://app?vid=316e9176-1dea-447e-8619-699d401755c0","ios":"levelo://app?vid=316e9176-1dea-447e-8619-699d401755c0"},"vehicle_type_id":"4","last_reported":1762899018,"current_range_meters":20000,"station_id":"ce4bgj92rcd13ifvqbe0","pricing_plan_id":"cebpf4jnsgd1na2vs0mg"},{"bike_id":"ce0ce839-db9a-4918-b5a5-e5936f70ce7b","system_id":"levelo_inurba_marseille","lat":43.28417,"lon":5.37508,"is_reserved":false,"is_disabled":false,"rental_uris":{"android":"levelo://app?vid=ce0ce839-db9a-4918-b5a5-e5936f70ce7b","ios":"levelo://app?vid=ce0ce839-db9a-4918-b5a5-e5936f70ce7b"},"vehicle_type_id":"4","last_reported":1762899018,"current_range_meters":20000,"station_id":"ce4bh412rcd13ifvqds0","pricing_plan_id":"cebpf4jnsgd1na2vs0mg"},{"bike_id":"23f9c78c-ca0a-48be-8a9d-156c748920c2","system_id":"levelo_inurba_marseille","lat":43.27937,"lon":5.41043,"is_reserved":false,"is_disabled":false,"rental_uris":{"android":"levelo://app?vid=23f9c78c-ca0a-48be-8a9d-156c748920c2","ios":"levelo://app?vid=23f9c78c-ca0a-48be-8a9d-156c748920c2"},"vehicle_type_id":"4","last_reported":1762899018,"current_range_meters":20000,"station_id":"ce4bhnp2rcd13ifvqh0g","pricing_plan_id":"cebpf4jnsgd1na2vs0mg"},{"bike_id":"65a4abe7-288e-4d53-9a3a-9c7ef2e7d4a6","system_id":"levelo_inurba_marseille","lat":43.2816,"lon":5.42644,"is_reserved":false,"is_disabled":false,"rental_uris":{"android":"levelo://app?vid=65a4abe7-288e-4d53-9a3a-9c7ef2e7d4a6","ios":"levelo://app?vid=65a4abe7-288e-4d53-9a3a-9c7ef2e7d4a6"},"vehicle_type_id":"4","last_reported":1762899018,"current_range_meters":20000,"station_id":"ce4bhnh2rcd13ifvqgug","pricing_plan_id":"cebpf4jnsgd1na2vs0mg"},{"bike_id":"fc0f7090-d630-42a8-94ef-1bbcdb5e9bee","system_id":"levelo_inurba_marseille","lat":43.290447,"lon":5.375943,"is_reserved":false,"is_disabled":false,"rental_uris":{"android":"levelo://app?vid=fc0f7090-d630-42a8-94ef-1bbcdb5e9bee","ios":"levelo://app?vid=fc0f7090-d630-42a8-94ef-1bbcdb5e9bee"},"vehicle_type_id":"4","last_reported":1762899018,"current_range_meters":20000,"station_id":"ce4bh692rcd13ifvqe90","pricing_plan_id":"cebpf4jnsgd1na2vs0mg"},{"bike_id":"f636f27c-a30c-4c40-abb0-9d55eee8197e","system_id":"levelo_inurba_marseille","lat":43.283447,"lon":5.375251,"is_reserved":false,"is_disabled":false,"rental_uris":{"android":"levelo://app?vid=f636f27c-a30c-4c40-abb0-9d55eee8197e","ios":"levelo://app?vid=f636f27c-a30c-4c40-abb0-9d55eee8197e"},"vehicle_type_id":"4","last_reported":1762899018,"current_range_meters":20000,"station_id":"","pricing_plan_id":"cebpf4jnsgd1na2vs0mg"},{"bike_id":"801e6308-ea8b-4cb8-9fe9-7b54d1f4c2ef","system_id":"levelo_inurba_marseille","lat":43.2509,"lon":5.39532,"is_reserved":false,"is_disabled":false,"rental_uris":{"android":"levelo://app?vid=801e6308-ea8b-4cb8-9fe9-7b54d1f4c2ef","ios":"levelo://app?vid=801e6308-ea8b-4cb8-9fe9-7b54d1f4c2ef"},"vehicle_type_id":"4","last_reported":1762899018,"current_range_meters":20000,"station_id":"ce4bhm12rcd13ifvqgkg","pricing_plan_id":"cebpf4jnsgd1na2vs0mg"},{"bike_id":"1f10aa07-17b5-420e-b6f2-b695d3cbb769","system_id":"levelo_inurba_marseille","lat":43.30608,"lon":5.3937,"is_reserved":false,"is_disabled":true,"rental_uris":{"android":"levelo://app?vid=1f10aa07-17b5-420e-b6f2-b695d3cbb769","ios":"levelo://app?vid=1f10aa07-17b5-420e-b6f2-b695d3cbb769"},"vehicle_type_id":"4","last_reported":1762899018,"current_range_meters":20400,"station_id":"ce4bh0p2rcd13ifvqd80","pricing_plan_id":"cebpf4jnsgd1na2vs0mg"},{"bike_id":"e5c499e1-7b87-468c-9133-190b31af575e","system_id":"levelo_inurba_marseille","lat":43.29798,"lon":5.40406,"is_reserved":false,"is_disabled":false,"rental_uris":{"android":"levelo://app?vid=e5c499e1-7b87-468c-9133-190b31af575e","ios":"levelo://app?vid=e5c499e1-7b87-468c-9133-190b31af575e"},"vehicle_type_id":"4","last_reported":1762899018,"current_range_meters":20400,"station_id":"ce4bh112rcd13ifvqd90","pricing_plan_id":"cebpf4jnsgd1na2vs0mg"},{"bike_id":"6e2caa74-d1f5-4152-855d-e673413d500d","system_id":"levelo_inurba_marseille","lat":43.243881,"lon":5.370601,"is_reserved":false,"is_disabled":false,"rental_uris":{"android":"levelo://app?vid=6e2caa74-d1f5-4152-855d-e673413d500d","ios":"levelo://app?vid=6e2caa74-d1f5-4152-855d-e673413d500d"},"vehicle_type_id":"4","last_reported":1762899018,"current_range_meters":20400,"station_id":"ce4bhhh2rcd13ifvqfk0","pricing_plan_id":"cebpf4jnsgd1na2vs0mg"},{"bike_id":"40bb8158-5ccf-4ce6-b2d1-22554fb9efba","system_id":"levelo_inurba_marseille","lat":43.250891,"lon":5.395241,"is_reserved":false,"is_disabled":false,"rental_uris":{"android":"levelo://app?vid=40bb8158-5ccf-4ce6-b2d1-22554fb9efba","ios":"levelo://app?vid=40bb8158-5ccf-4ce6-b2d1-22554fb9efba"},"vehicle_type_id":"4","last_reported":1762899018,"current_range_meters":20400,"station_id":"ce4bhm12rcd13ifvqgkg","pricing_plan_id":"cebpf4jnsgd1na2vs0mg"},{"bike_id":"b3d16a6d-0471-48a5-8737-66b518d20806","system_id":"levelo_inurba_marseille","lat":43.27437,"lon":5.39415,"is_reserved":false,"is_disabled":false,"rental_uris":{"android":"levelo://app?vid=b3d16a6d-0471-48a5-8737-66b518d20806","ios":"levelo://app?vid=b3d16a6d-0471-48a5-8737-66b518d20806"},"vehicle_type_id":"4","last_reported":1762899018,"current_range_meters":20400,"station_id":"ce4bhdp2rcd13ifvqf20","pricing_plan_id":"cebpf4jnsgd1na2vs0mg"},{"bike_id":"4106200b-b535-4faf-bbe8-a92e413df539","system_id":"levelo_inurba_marseille","lat":43.29526,"lon":5.39419,"is_reserved":false,"is_disabled":false,"rental_uris":{"android":"levelo://app?vid=4106200b-b535-4faf-bbe8-a92e413df539","ios":"levelo://app?vid=4106200b-b535-4faf-bbe8-a92e413df539"},"vehicle_type_id":"4","last_reported":1762899018,"current_range_meters":20400,"station_id":"ce4bh292rcd13ifvqdf0","pricing_plan_id":"cebpf4jnsgd1na2vs0mg"},{"bike_id":"d512f040-da52-4a6b-a122-6fab89926180","system_id":"levelo_inurba_marseille","lat":43.27988,"lon":5.41643,"is_reserved":false,"is_disabled":false,"rental_uris":{"android":"levelo://app?vid=d512f040-da52-4a6b-a122-6fab89926180","ios":"levelo://app?vid=d512f040-da52-4a6b-a122-6fab89926180"},"vehicle_type_id":"4","last_reported":1762899018,"current_range_meters":20400,"station_id":"ce4bho12rcd13ifvqh1g","pricing_plan_id":"cebpf4jnsgd1na2vs0mg"},{"bike_id":"97322d8c-d38c-47c3-850d-0d18a05c18c9","system_id":"levelo_inurba_marseille","lat":43.309357,"lon":5.401434,"is_reserved":false,"is_disabled":false,"rental_uris":{"android":"levelo://app?vid=97322d8c-d38c-47c3-850d-0d18a05c18c9","ios":"levelo://app?vid=97322d8c-d38c-47c3-850d-0d18a05c18c9"},"vehicle_type_id":"4","last_reported":1762899018,"current_range_meters":20400,"station_id":"ce4bh4p2rcd13ifvqe0g","pricing_plan_id":"cebpf4jnsgd1na2vs0mg"},{"bike_id":"8c0b251c-fcbe-4a17-a9de-1c9ae5067a3f","system_id":"levelo_inurba_marseille","lat":43.29707,"lon":5.36601,"is_reserved":false,"is_disabled":false,"rental_uris":{"android":"levelo://app?vid=8c0b251c-fcbe-4a17-a9de-1c9ae5067a3f","ios":"levelo://app?vid=8c0b251c-fcbe-4a17-a9de-1c9ae5067a3f"},"vehicle_type_id":"4","last_reported":1762899018,"current_range_meters":20400,"station_id":"ce4bgn12rcd13ifvqbt0","pricing_plan_id":"cebpf4jnsgd1na2vs0mg"},{"bike_id":"bde68cd8-1b25-4aa4-afd9-6cc910e106d2","system_id":"levelo_inurba_marseille","lat":43.33767,"lon":5.3744,"is_reserved":false,"is_disabled":false,"rental_uris":{"android":"levelo://app?vid=bde68cd8-1b25-4aa4-afd9-6cc910e106d2","ios":"levelo://app?vid=bde68cd8-1b25-4aa4-afd9-6cc910e106d2"},"vehicle_type_id":"4","last_reported":1762899018,"current_range_meters":20800,"station_id":"","pricing_plan_id":"cebpf4jnsgd1na2vs0mg"},{"bike_id":"0b9ceb1f-0997-4461-a5a3-75f04ab4c5e6","system_id":"levelo_inurba_marseille","lat":43.2835,"lon":5.38095,"is_reserved":false,"is_disabled":false,"rental_uris":{"android":"levelo://app?vid=0b9ceb1f-0997-4461-a5a3-75f04ab4c5e6","ios":"levelo://app?vid=0b9ceb1f-0997-4461-a5a3-75f04ab4c5e6"},"vehicle_type_id":"4","last_reported":1762899018,"current_range_meters":20800,"station_id":"ce4bh412rcd13ifvqdr0","pricing_plan_id":"cebpf4jnsgd1na2vs0mg"},{"bike_id":"58be8180-967b-40b9-b299-90937a7eea47","system_id":"levelo_inurba_marseille","lat":43.285418,"lon":5.440978,"is_reserved":false,"is_disabled":false,"rental_uris":{"android":"levelo://app?vid=58be8180-967b-40b9-b299-90937a7eea47","ios":"levelo://app?vid=58be8180-967b-40b9-b299-90937a7eea47"},"vehicle_type_id":"4","last_reported":1762899018,"current_range_meters":20800,"station_id":"st_d3j3df2ikq2c7380ej80","pricing_plan_id":"cebpf4jnsgd1na2vs0mg"},{"bike_id":"48588235-efb3-4cb5-87dd-f8bae31fab21","system_id":"levelo_inurba_marseille","lat":43.30292,"lon":5.39206,"is_reserved":false,"is_disabled":false,"rental_uris":{"android":"levelo://app?vid=48588235-efb3-4cb5-87dd-f8bae31fab21","ios":"levelo://app?vid=48588235-efb3-4cb5-87dd-f8bae31fab21"},"vehicle_type_id":"4","last_reported":1762899018,"current_range_meters":20800,"station_id":"ce4bgkh2rcd13ifvqbk0","pricing_plan_id":"cebpf4jnsgd1na2vs0mg"},{"bike_id":"84b55eed-27f2-4e91-afc0-8f6eda98d67e","system_id":"levelo_inurba_marseille","lat":43.312064,"lon":5.384711,"is_reserved":false,"is_disabled":false,"rental_uris":{"android":"levelo://app?vid=84b55eed-27f2-4e91-afc0-8f6eda98d67e","ios":"levelo://app?vid=84b55eed-27f2-4e91-afc0-8f6eda98d67e"},"vehicle_type_id":"4","last_reported":1762899018,"current_range_meters":20800,"station_id":"ce4bgt92rcd13ifvqcf0","pricing_plan_id":"cebpf4jnsgd1na2vs0mg"},{"bike_id":"248197b1-56da-49a0-ae3c-2d115c2e7768","system_id":"levelo_inurba_marseille","lat":43.267637,"lon":5.389208,"is_reserved":false,"is_disabled":false,"rental_uris":{"android":"levelo://app?vid=248197b1-56da-49a0-ae3c-2d115c2e7768","ios":"levelo://app?vid=248197b1-56da-49a0-ae3c-2d115c2e7768"},"vehicle_type_id":"4","last_reported":1762899018,"current_range_meters":20800,"station_id":"ce4bgih2rcd13ifvqba0","pricing_plan_id":"cebpf4jnsgd1na2vs0mg"},{"bike_id":"d6c318ec-de00-4180-a017-0a717b75d8da","system_id":"levelo_inurba_marseille","lat":43.24061,"lon":5.37749,"is_reserved":false,"is_disabled":false,"rental_uris":{"android":"levelo://app?vid=d6c318ec-de00-4180-a017-0a717b75d8da","ios":"levelo://app?vid=d6c318ec-de00-4180-a017-0a717b75d8da"},"vehicle_type_id":"4","last_reported":1762899018,"current_range_meters":20800,"station_id":"ce4bhnp2rcd13ifvqgvg","pricing_plan_id":"cebpf4jnsgd1na2vs0mg"},{"bike_id":"5faed28a-3f08-4f6d-a110-44bb484ac71b","system_id":"levelo_inurba_marseille","lat":43.25868,"lon":5.39915,"is_reserved":false,"is_disabled":true,"rental_uris":{"android":"levelo://app?vid=5faed28a-3f08-4f6d-a110-44bb484ac71b","ios":"levelo://app?vid=5faed28a-3f08-4f6d-a110-44bb484ac71b"},"vehicle_type_id":"4","last_reported":1762899018,"current_range_meters":20800,"station_id":"ce4bhl92rcd13ifvqghg","pricing_plan_id":"cebpf4jnsgd1na2vs0mg"},{"bike_id":"ac38ebe0-c5b3-4779-84e5-8e360d77008b","system_id":"levelo_inurba_marseille","lat":43.28704,"lon":5.39999,"is_reserved":false,"is_disabled":false,"rental_uris":{"android":"levelo://app?vid=ac38ebe0-c5b3-4779-84e5-8e360d77008b","ios":"levelo://app?vid=ac38ebe0-c5b3-4779-84e5-8e360d77008b"},"vehicle_type_id":"4","last_reported":1762899018,"current_range_meters":20800,"station_id":"ce4bho92rcd13ifvqh3g","pricing_plan_id":"cebpf4jnsgd1na2vs0mg"},{"bike_id":"4f27c235-11df-4df2-bfdf-8938c3d9c6ba","system_id":"levelo_inurba_marseille","lat":43.33781,"lon":5.374261,"is_reserved":false,"is_disabled":false,"rental_uris":{"android":"levelo://app?vid=4f27c235-11df-4df2-bfdf-8938c3d9c6ba","ios":"levelo://app?vid=4f27c235-11df-4df2-bfdf-8938c3d9c6ba"},"vehicle_type_id":"4","last_reported":1762899018,"current_range_meters":20800,"station_id":"","pricing_plan_id":"cebpf4jnsgd1na2vs0mg"},{"bike_id":"dc6753bb-8787-4755-aacc-d26daee24a0d","system_id":"levelo_inurba_marseille","lat":43.28869,"lon":5.35862,"is_reserved":false,"is_disabled":false,"rental_uris":{"android":"levelo://app?vid=dc6753bb-8787-4755-aacc-d26daee24a0d","ios":"levelo://app?vid=dc6753bb-8787-4755-aacc-d26daee24a0d"},"vehicle_type_id":"4","last_reported":1762899018,"current_range_meters":20800,"station_id":"ce4bhb12rcd13ifvqem0","pricing_plan_id":"cebpf4jnsgd1na2vs0mg"},{"bike_id":"de48a6c2-3627-4fa9-afdb-334f4768cff6","system_id":"levelo_inurba_marseille","lat":43.28414,"lon":5.37497,"is_reserved":false,"is_disabled":false,"rental_uris":{"android":"levelo://app?vid=de48a6c2-3627-4fa9-afdb-334f4768cff6","ios":"levelo://app?vid=de48a6c2-3627-4fa9-afdb-334f4768cff6"},"vehicle_type_id":"4","last_reported":1762899018,"current_range_meters":20800,"station_id":"ce4bh412rcd13ifvqds0","pricing_plan_id":"cebpf4jnsgd1na2vs0mg"},{"bike_id":"720440d0-c44d-462c-b6e6-e525dc1a25da","system_id":"levelo_inurba_marseille","lat":43.27946,"lon":5.41068,"is_reserved":false,"is_disabled":false,"rental_uris":{"android":"levelo://app?vid=720440d0-c44d-462c-b6e6-e525dc1a25da","ios":"levelo://app?vid=720440d0-c44d-462c-b6e6-e525dc1a25da"},"vehicle_type_id":"4","last_reported":1762899018,"current_range_meters":20800,"station_id":"ce4bhnp2rcd13ifvqh0g","pricing_plan_id":"cebpf4jnsgd1na2vs0mg"},{"bike_id":"c6721cec-80d3-4039-949c-d6c1c72097cc","system_id":"levelo_inurba_marseille","lat":43.29278,"lon":5.40115,"is_reserved":false,"is_disabled":false,"rental_uris":{"android":"levelo://app?vid=c6721cec-80d3-4039-949c-d6c1c72097cc","ios":"levelo://app?vid=c6721cec-80d3-4039-949c-d6c1c72097cc"},"vehicle_type_id":"4","last_reported":1762899018,"current_range_meters":20800,"station_id":"ce4bh312rcd13ifvqdk0","pricing_plan_id":"cebpf4jnsgd1na2vs0mg"},{"bike_id":"4c85224a-42d3-42cf-b201-3ad5081d3a26","system_id":"levelo_inurba_marseille","lat":43.308,"lon":5.3815,"is_reserved":false,"is_disabled":false,"rental_uris":{"android":"levelo://app?vid=4c85224a-42d3-42cf-b201-3ad5081d3a26","ios":"levelo://app?vid=4c85224a-42d3-42cf-b201-3ad5081d3a26"},"vehicle_type_id":"4","last_reported":1762899018,"current_range_meters":20800,"station_id":"ce4bgt12rcd13ifvqce0","pricing_plan_id":"cebpf4jnsgd1na2vs0mg"},{"bike_id":"5cdb8f79-a85d-4cf1-ae6a-8067e04e9c9e","system_id":"levelo_inurba_marseille","lat":43.2583,"lon":5.39437,"is_reserved":false,"is_disabled":false,"rental_uris":{"android":"levelo://app?vid=5cdb8f79-a85d-4cf1-ae6a-8067e04e9c9e","ios":"levelo://app?vid=5cdb8f79-a85d-4cf1-ae6a-8067e04e9c9e"},"vehicle_type_id":"4","last_reported":1762899018,"current_range_meters":20800,"station_id":"ce4bhip2rcd13ifvqft0","pricing_plan_id":"cebpf4jnsgd1na2vs0mg"},{"bike_id":"ff54f1dd-c185-441c-9c88-916268c284d6","system_id":"levelo_inurba_marseille","lat":43.29201,"lon":5.39334,"is_reserved":false,"is_disabled":false,"rental_uris":{"android":"levelo://app?vid=ff54f1dd-c185-441c-9c88-916268c284d6","ios":"levelo://app?vid=ff54f1dd-c185-441c-9c88-916268c284d6"},"vehicle_type_id":"4","last_reported":1762899018,"current_range_meters":20800,"station_id":"ce4bh192rcd13ifvqdd0","pricing_plan_id":"cebpf4jnsgd1na2vs0mg"},{"bike_id":"21388149-3190-4ece-8988-09eff4e78e6e","system_id":"levelo_inurba_marseille","lat":43.29522,"lon":5.37529,"is_reserved":false,"is_disabled":true,"rental_uris":{"android":"levelo://app?vid=21388149-3190-4ece-8988-09eff4e78e6e","ios":"levelo://app?vid=21388149-3190-4ece-8988-09eff4e78e6e"},"vehicle_type_id":"4","last_reported":1762899018,"current_range_meters":20800,"station_id":"ce4bgkp2rcd13ifvqbmg","pricing_plan_id":"cebpf4jnsgd1na2vs0mg"},{"bike_id":"6ae33d51-49e8-4628-912b-cc0de89cfa63","system_id":"levelo_inurba_marseille","lat":43.2583,"lon":5.39426,"is_reserved":false,"is_disabled":false,"rental_uris":{"android":"levelo://app?vid=6ae33d51-49e8-4628-912b-cc0de89cfa63","ios":"levelo://app?vid=6ae33d51-49e8-4628-912b-cc0de89cfa63"},"vehicle_type_id":"4","last_reported":1762899018,"current_range_meters":21600,"station_id":"ce4bhip2rcd13ifvqft0","pricing_plan_id":"cebpf4jnsgd1na2vs0mg"},{"bike_id":"32f78753-838d-436e-8d30-309db156e1aa","system_id":"levelo_inurba_marseille","lat":43.23199,"lon":5.35553,"is_reserved":false,"is_disabled":false,"rental_uris":{"android":"levelo://app?vid=32f78753-838d-436e-8d30-309db156e1aa","ios":"levelo://app?vid=32f78753-838d-436e-8d30-309db156e1aa"},"vehicle_type_id":"4","last_reported":1762899018,"current_range_meters":21600,"station_id":"ce4bhu92rcd13ifvqi70","pricing_plan_id":"cebpf4jnsgd1na2vs0mg"},{"bike_id":"9f257429-210e-4187-b310-fa3b4c5c3978","system_id":"levelo_inurba_marseille","lat":43.27343,"lon":5.401435,"is_reserved":false,"is_disabled":false,"rental_uris":{"android":"levelo://app?vid=9f257429-210e-4187-b310-fa3b4c5c3978","ios":"levelo://app?vid=9f257429-210e-4187-b310-fa3b4c5c3978"},"vehicle_type_id":"4","last_reported":1762899018,"current_range_meters":21600,"station_id":"","pricing_plan_id":"cebpf4jnsgd1na2vs0mg"},{"bike_id":"bd350635-2c8b-4bd9-923c-6c95d0ed5e32","system_id":"levelo_inurba_marseille","lat":43.31995,"lon":5.38159,"is_reserved":false,"is_disabled":false,"rental_uris":{"android":"levelo://app?vid=bd350635-2c8b-4bd9-923c-6c95d0ed5e32","ios":"levelo://app?vid=bd350635-2c8b-4bd9-923c-6c95d0ed5e32"},"vehicle_type_id":"4","last_reported":1762899018,"current_range_meters":22000,"station_id":"ce4bhr12rcd13ifvqhpg","pricing_plan_id":"cebpf4jnsgd1na2vs0mg"},{"bike_id":"c317c916-e826-46b4-b006-c0ea66f4f629","system_id":"levelo_inurba_marseille","lat":43.26793,"lon":5.39425,"is_reserved":false,"is_disabled":false,"rental_uris":{"android":"levelo://app?vid=c317c916-e826-46b4-b006-c0ea66f4f629","ios":"levelo://app?vid=c317c916-e826-46b4-b006-c0ea66f4f629"},"vehicle_type_id":"4","last_reported":1762899018,"current_range_meters":22000,"station_id":"ce4bhh12rcd13ifvqfg0","pricing_plan_id":"cebpf4jnsgd1na2vs0mg"},{"bike_id":"feba1818-bd8b-4490-b819-a63599738f3b","system_id":"levelo_inurba_marseille","lat":43.30311,"lon":5.369,"is_reserved":false,"is_disabled":false,"rental_uris":{"android":"levelo://app?vid=feba1818-bd8b-4490-b819-a63599738f3b","ios":"levelo://app?vid=feba1818-bd8b-4490-b819-a63599738f3b"},"vehicle_type_id":"4","last_reported":1762899018,"current_range_meters":22000,"station_id":"ce4bgqh2rcd13ifvqc5g","pricing_plan_id":"cebpf4jnsgd1na2vs0mg"},{"bike_id":"ab2a6561-261b-442a-9ee5-f70c8b9beef9","system_id":"levelo_inurba_marseille","lat":43.262224,"lon":5.404508,"is_reserved":false,"is_disabled":false,"rental_uris":{"android":"levelo://app?vid=ab2a6561-261b-442a-9ee5-f70c8b9beef9","ios":"levelo://app?vid=ab2a6561-261b-442a-9ee5-f70c8b9beef9"},"vehicle_type_id":"4","last_reported":1762899018,"current_range_meters":22000,"station_id":"ce4bhmh2rcd13ifvqgmg","pricing_plan_id":"cebpf4jnsgd1na2vs0mg"},{"bike_id":"69ca0916-03df-4b96-9ade-22943673cf25","system_id":"levelo_inurba_marseille","lat":43.2794,"lon":5.41042,"is_reserved":false,"is_disabled":false,"rental_uris":{"android":"levelo://app?vid=69ca0916-03df-4b96-9ade-22943673cf25","ios":"levelo://app?vid=69ca0916-03df-4b96-9ade-22943673cf25"},"vehicle_type_id":"4","last_reported":1762899018,"current_range_meters":22000,"station_id":"ce4bhnp2rcd13ifvqh0g","pricing_plan_id":"cebpf4jnsgd1na2vs0mg"},{"bike_id":"497b08dd-0d08-4452-95a2-bd975d3ce501","system_id":"levelo_inurba_marseille","lat":43.24808,"lon":5.37456,"is_reserved":false,"is_disabled":true,"rental_uris":{"android":"levelo://app?vid=497b08dd-0d08-4452-95a2-bd975d3ce501","ios":"levelo://app?vid=497b08dd-0d08-4452-95a2-bd975d3ce501"},"vehicle_type_id":"4","last_reported":1762899018,"current_range_meters":22000,"station_id":"ce4bhgh2rcd13ifvqfb0","pricing_plan_id":"cebpf4jnsgd1na2vs0mg"},{"bike_id":"8bf3e8d6-4fde-4b4a-bda9-42152114a4f1","system_id":"levelo_inurba_marseille","lat":43.306997,"lon":5.399915,"is_reserved":false,"is_disabled":false,"rental_uris":{"android":"levelo://app?vid=8bf3e8d6-4fde-4b4a-bda9-42152114a4f1","ios":"levelo://app?vid=8bf3e8d6-4fde-4b4a-bda9-42152114a4f1"},"vehicle_type_id":"4","last_reported":1762899018,"current_range_meters":22000,"station_id":"","pricing_plan_id":"cebpf4jnsgd1na2vs0mg"},{"bike_id":"dbffca44-e3a4-410c-b1a8-5cbfeda634ee","system_id":"levelo_inurba_marseille","lat":43.30459,"lon":5.37905,"is_reserved":false,"is_disabled":false,"rental_uris":{"android":"levelo://app?vid=dbffca44-e3a4-410c-b1a8-5cbfeda634ee","ios":"levelo://app?vid=dbffca44-e3a4-410c-b1a8-5cbfeda634ee"},"vehicle_type_id":"4","last_reported":1762899018,"current_range_meters":22000,"station_id":"ce4bgup2rcd13ifvqcn0","pricing_plan_id":"cebpf4jnsgd1na2vs0mg"},{"bike_id":"54e79b48-7523-415b-9bd7-293c690c29f1","system_id":"levelo_inurba_marseille","lat":43.29778,"lon":5.39161,"is_reserved":false,"is_disabled":true,"rental_uris":{"android":"levelo://app?vid=54e79b48-7523-415b-9bd7-293c690c29f1","ios":"levelo://app?vid=54e79b48-7523-415b-9bd7-293c690c29f1"},"vehicle_type_id":"4","last_reported":1762899018,"current_range_meters":22000,"station_id":"","pricing_plan_id":"cebpf4jnsgd1na2vs0mg"},