{"last_updated":1753366413,"ttl":60,"version":"2.2","data":{"bikes":[{"bike_id":"f0962816-ca47-4344-a3a0-51b1c89b25d2","system_id":"levelo_inurba_marseille","lat":43.29527,"lon":5.39035,"is_reserved":false,"is_disabled":false,"rental_uris":{"android":"levelo://app?vid=f0962816-ca47-4344-a3a0-51b1c89b25d2","ios":"levelo://app?vid=f0962816-ca47-4344-a3a0-51b1c89b25d2"},"vehicle_type_id":"4","last_reported":1753366413,"current_range_meters":2800,"station_id":"ce4bh3p2rcd13ifvqdp0","pricing_plan_id":"cebpf4jnsgd1na2vs0mg"},{"bike_id":"388f6f65-d1af-4873-adcc-68b1d8d68f53","system_id":"levelo_inurba_marseille","lat":43.303,"lon":5.39201,"is_reserved":false,"is_disabled":false,"rental_uris":{"android":"levelo://app?vid=388f6f65-d1af-4873-adcc-68b1d8d68f53","ios":"levelo://app?vid=388f6f65-d1af-4873-adcc-68b1d8d68f53"},"vehicle_type_id":"4","last_reported":1753366413,"current_range_meters":0,"station_id":"ce4bgkh2rcd13ifvqbk0","pricing_plan_id":"cebpf4jnsgd1na2vs0mg"},{"bike_id":"9ae7d50c-a3ea-4136-8080-315c191e000a","system_id":"levelo_inurba_marseille","lat":43.28775,"lon":5.38415,"is_reserved":false,"is_disabled":false,"rental_uris":{"android":"levelo://app?vid=9ae7d50c-a3ea-4136-8080-315c191e000a","ios":"levelo://app?vid=9ae7d50c-a3ea-4136-8080-315c191e000a"},"vehicle_type_id":"4","last_reported":1753366413,"current_range_meters":3600,"station_id":"","pricing_plan_id":"cebpf4jnsgd1na2vs0mg"},{"bike_id":"063920e3-3b7a-4bd7-97e7-5e94dcc96428","system_id":"levelo_inurba_marseille","lat":43.286935,"lon":5.399785,"is_reserved":false,"is_disabled":false,"rental_uris":{"android":"levelo://app?vid=063920e3-3b7a-4bd7-97e7-5e94dcc96428","ios":"levelo://app?vid=063920e3-3b7a-4bd7-97e7-5e94dcc96428"},"vehicle_type_id":"4","last_reported":1753366413,"current_range_meters":4000,"station_id":"ce4bho92rcd13ifvqh3g","pricing_plan_id":"cebpf4jnsgd1na2vs0mg"},{"bike_id":"eff73a6a-9596-42ab-8733-701aaf86d889","system_id":"levelo_inurba_marseille","lat":43.296823,"lon":5.372723,"is_reserved":false,"is_disabled":false,"rental_uris":{"android":"levelo://app?vid=eff73a6a-9596-42ab-8733-701aaf86d889","ios":"levelo://app?vid=eff73a6a-9596-42ab-8733-701aaf86d889"},"vehicle_type_id":"4","last_reported":1753366413,"current_range_meters":4000,"station_id":"ce4bgk12rcd13ifvqbj0","pricing_plan_id":"cebpf4jnsgd1na2vs0mg"},{"bike_id":"3fa75f76-e34c-475f-a698-e1752c694f9d","system_id":"levelo_inurba_marseille","lat":43.29782,"lon":5.39317,"is_reserved":false,"is_disabled":false,"rental_uris":{"android":"levelo://app?vid=3fa75f76-e34c-475f-a698-e1752c694f9d","ios":"levelo://app?vid=3fa75f76-e34c-475f-a698-e1752c694f9d"},"vehicle_type_id":"4","last_reported":1753366413,"current_range_meters":4000,"station_id":"chh1huq6cuj3fo74tm60","pricing_plan_id":"cebpf4jnsgd1na2vs0mg"},{"bike_id":"c8cbe188-8c80-4aac-881d-65feb870e521","system_id":"levelo_inurba_marseille","lat":43.33034,"lon":5.38027,"is_reserved":false,"is_disabled":false,"rental_uris":{"android":"levelo://app?vid=c8cbe188-8c80-4aac-881d-65feb870e521","ios":"levelo://app?vid=c8cbe188-8c80-4aac-881d-65feb870e521"},"vehicle_type_id":"4","last_reported":1753366413,"current_range_meters":4000,"station_id":"","pricing_plan_id":"cebpf4jnsgd1na2vs0mg"},{"bike_id":"6b62bf55-61d2-4b74-8d7c-614f47096a50","system_id":"levelo_inurba_marseille","lat":43.23061,"lon":5.35483,"is_reserved":false,"is_disabled":false,"rental_uris":{"android":"levelo://app?vid=6b62bf55-61d2-4b74-8d7c-614f47096a50","ios":"levelo://app?vid=6b62bf55-61d2-4b74-8d7c-614f47096a50"},"vehicle_type_id":"4","last_reported":1753366413,"current_range_meters":4000,"station_id":"cpo3342slgdg3j2ifvpg","pricing_plan_id":"cebpf4jnsgd1na2vs0mg"},{"bike_id":"01b6bd33-5d53-4c5d-bca7-8e4abd969a8e","system_id":"levelo_inurba_marseille","lat":43.28269,"lon":5.35056,"is_reserved":false,"is_disabled":false,"rental_uris":{"android":"levelo://app?vid=01b6bd33-5d53-4c5d-bca7-8e4abd969a8e","ios":"levelo://app?vid=01b6bd33-5d53-4c5d-bca7-8e4abd969a8e"},"vehicle_type_id":"4","last_reported":1753366413,"current_range_meters":4400,"station_id":"ce4bhbp2rcd13ifvqerg","pricing_plan_id":"cebpf4jnsgd1na2vs0mg"},{"bike_id":"f97bc710-a12e-4345-a370-e33a5bf4db2d","system_id":"levelo_inurba_marseille","lat":43.31242,"lon":5.36784,"is_reserved":false,"is_disabled":false,"rental_uris":{"android":"levelo://app?vid=f97bc710-a12e-4345-a370-e33a5bf4db2d","ios":"levelo://app?vid=f97bc710-a12e-4345-a370-e33a5bf4db2d"},"vehicle_type_id":"4","last_reported":1753366413,"current_range_meters":4400,"station_id":"","pricing_plan_id":"cebpf4jnsgd1na2vs0mg"},{"bike_id":"03374b99-d8ea-4228-b992-745d1901f8f1","system_id":"levelo_inurba_marseille","lat":43.30553,"lon":5.36696,"is_reserved":false,"is_disabled":false,"rental_uris":{"android":"levelo://app?vid=03374b99-d8ea-4228-b992-745d1901f8f1","ios":"levelo://app?vid=03374b99-d8ea-4228-b992-745d1901f8f1"},"vehicle_type_id":"4","last_reported":1753366413,"current_range_meters":4400,"station_id":"ce4bgrp2rcd13ifvqc9g","pricing_plan_id":"cebpf4jnsgd1na2vs0mg"},{"bike_id":"27466242-1c3e-4605-a128-a402b092392e","system_id":"levelo_inurba_marseille","lat":43.30145,"lon":5.36397,"is_reserved":false,"is_disabled":false,"rental_uris":{"android":"levelo://app?vid=27466242-1c3e-4605-a128-a402b092392e","ios":"levelo://app?vid=27466242-1c3e-4605-a128-a402b092392e"},"vehicle_type_id":"4","last_reported":1753366413,"current_range_meters":4800,"station_id":"","pricing_plan_id":"cebpf4jnsgd1na2vs0mg"},{"bike_id":"3e2acc02-1335-4314-89ee-df6866651bab","system_id":"levelo_inurba_marseille","lat":43.243866,"lon":5.370603,"is_reserved":false,"is_disabled":false,"rental_uris":{"android":"levelo://app?vid=3e2acc02-1335-4314-89ee-df6866651bab","ios":"levelo://app?vid=3e2acc02-1335-4314-89ee-df6866651bab"},"vehicle_type_id":"4","last_reported":1753366413,"current_range_meters":5600,"station_id":"ce4bhhh2rcd13ifvqfk0","pricing_plan_id":"cebpf4jnsgd1na2vs0mg"},{"bike_id":"4453f366-e67d-4189-a7d1-d3189693084b","system_id":"levelo_inurba_marseille","lat":43.31328,"lon":5.39692,"is_reserved":false,"is_disabled":false,"rental_uris":{"android":"levelo://app?vid=4453f366-e67d-4189-a7d1-d3189693084b","ios":"levelo://app?vid=4453f366-e67d-4189-a7d1-d3189693084b"},"vehicle_type_id":"4","last_reported":1753366413,"current_range_meters":5600,"station_id":"ce4bgvp2rcd13ifvqcu0","pricing_plan_id":"cebpf4jnsgd1na2vs0mg"},{"bike_id":"c9dbd36b-479c-4a5c-b200-3aa7673340d9","system_id":"levelo_inurba_marseille","lat":43.241448,"lon":5.363743,"is_reserved":false,"is_disabled":false,"rental_uris":{"android":"levelo://app?vid=c9dbd36b-479c-4a5c-b200-3aa7673340d9","ios":"levelo://app?vid=c9dbd36b-479c-4a5c-b200-3aa7673340d9"},"vehicle_type_id":"4","last_reported":1753366413,"current_range_meters":6000,"station_id":"","pricing_plan_id":"cebpf4jnsgd1na2vs0mg"},{"bike_id":"da91168f-340b-4506-b17a-928bf80986da","system_id":"levelo_inurba_marseille","lat":43.28271,"lon":5.35055,"is_reserved":false,"is_disabled":false,"rental_uris":{"android":"levelo://app?vid=da91168f-340b-4506-b17a-928bf80986da","ios":"levelo://app?vid=da91168f-340b-4506-b17a-928bf80986da"},"vehicle_type_id":"4","last_reported":1753366413,"current_range_meters":6000,"station_id":"ce4bhbp2rcd13ifvqerg","pricing_plan_id":"cebpf4jnsgd1na2vs0mg"},{"bike_id":"916fc61d-d19a-4072-9eb9-9423485d932e","system_id":"levelo_inurba_marseille","lat":43.26196,"lon":5.37465,"is_reserved":false,"is_disabled":false,"rental_uris":{"android":"levelo://app?vid=916fc61d-d19a-4072-9eb9-9423485d932e","ios":"levelo://app?vid=916fc61d-d19a-4072-9eb9-9423485d932e"},"vehicle_type_id":"4","last_reported":1753366413,"current_range_meters":6400,"station_id":"ce4bhgp2rcd13ifvqfc0","pricing_plan_id":"cebpf4jnsgd1na2vs0mg"},{"bike_id":"aa5097b6-6968-4aec-b711-e7780938924b","system_id":"levelo_inurba_marseille","lat":43.32947,"lon":5.359055,"is_reserved":false,"is_disabled":false,"rental_uris":{"android":"levelo://app?vid=aa5097b6-6968-4aec-b711-e7780938924b","ios":"levelo://app?vid=aa5097b6-6968-4aec-b711-e7780938924b"},"vehicle_type_id":"4","last_reported":1753366413,"current_range_meters":6400,"station_id":"","pricing_plan_id":"cebpf4jnsgd1na2vs0mg"},{"bike_id":"f85ea351-a1e0-4248-8f5c-fee66c96c7fb","system_id":"levelo_inurba_marseille","lat":43.28613,"lon":5.35104,"is_reserved":false,"is_disabled":false,"rental_uris":{"android":"levelo://app?vid=f85ea351-a1e0-4248-8f5c-fee66c96c7fb","ios":"levelo://app?vid=f85ea351-a1e0-4248-8f5c-fee66c96c7fb"},"vehicle_type_id":"4","last_reported":1753366413,"current_range_meters":6800,"station_id":"ce4bhch2rcd13ifvqeug","pricing_plan_id":"cebpf4jnsgd1na2vs0mg"},{"bike_id":"34f53268-a728-4d12-8df1-09a4221d1bc6","system_id":"levelo_inurba_marseille","lat":43.2559,"lon":5.38204,"is_reserved":false,"is_disabled":false,"rental_uris":{"android":"levelo://app?vid=34f53268-a728-4d12-8df1-09a4221d1bc6","ios":"levelo://app?vid=34f53268-a728-4d12-8df1-09a4221d1bc6"},"vehicle_type_id":"4","last_reported":1753366413,"current_range_meters":6800,"station_id":"ce4bhih2rcd13ifvqfs0","pricing_plan_id":"cebpf4jnsgd1na2vs0mg"},{"bike_id":"ce515b35-9564-429b-a4fa-87a1d317e3cb","system_id":"levelo_inurba_marseille","lat":43.26921,"lon":5.38715,"is_reserved":false,"is_disabled":true,"rental_uris":{"android":"levelo://app?vid=ce515b35-9564-429b-a4fa-87a1d317e3cb","ios":"levelo://app?vid=ce515b35-9564-429b-a4fa-87a1d317e3cb"},"vehicle_type_id":"4","last_reported":1753366413,"current_range_meters":6800,"station_id":"","pricing_plan_id":"cebpf4jnsgd1na2vs0mg"},{"bike_id":"5becfa54-161a-4c3a-aab1-1bf8199fd81d","system_id":"levelo_inurba_marseille","lat":43.30547,"lon":5.36548,"is_reserved":false,"is_disabled":false,"rental_uris":{"android":"levelo://app?vid=5becfa54-161a-4c3a-aab1-1bf8199fd81d","ios":"levelo://app?vid=5becfa54-161a-4c3a-aab1-1bf8199fd81d"},"vehicle_type_id":"4","last_reported":1753366413,"current_range_meters":7200,"station_id":"ce4bgs12rcd13ifvqcag","pricing_plan_id":"cebpf4jnsgd1na2vs0mg"},{"bike_id":"835e4d28-7baa-4ced-9719-0138c3321887","system_id":"levelo_inurba_marseille","lat":43.30281,"lon":5.37697,"is_reserved":false,"is_disabled":false,"rental_uris":{"android":"levelo://app?vid=835e4d28-7baa-4ced-9719-0138c3321887","ios":"levelo://app?vid=835e4d28-7baa-4ced-9719-0138c3321887"},"vehicle_type_id":"4","last_reported":1753366413,"current_range_meters":7200,"station_id":"ce4bguh2rcd13ifvqcj0","pricing_plan_id":"cebpf4jnsgd1na2vs0mg"},{"bike_id":"586093fb-4baf-415b-83fa-15651387051d","system_id":"levelo_inurba_marseille","lat":43.28476,"lon":5.38408,"is_reserved":false,"is_disabled":false,"rental_uris":{"android":"levelo://app?vid=586093fb-4baf-415b-83fa-15651387051d","ios":"levelo://app?vid=586093fb-4baf-415b-83fa-15651387051d"},"vehicle_type_id":"4","last_reported":1753366413,"current_range_meters":8000,"station_id":"ce4bh512rcd13ifvqe3g","pricing_plan_id":"cebpf4jnsgd1na2vs0mg"},{"bike_id":"509289db-31f1-4b2d-a4a7-9353a1fb0c77","system_id":"levelo_inurba_marseille","lat":43.29937,"lon":5.36541,"is_reserved":false,"is_disabled":false,"rental_uris":{"android":"levelo://app?vid=509289db-31f1-4b2d-a4a7-9353a1fb0c77","ios":"levelo://app?vid=509289db-31f1-4b2d-a4a7-9353a1fb0c77"},"vehicle_type_id":"4","last_reported":1753366413,"current_range_meters":8000,"station_id":"ce4bgm92rcd13ifvqbr0","pricing_plan_id":"cebpf4jnsgd1na2vs0mg"},{"bike_id":"403f9e7c-32d4-48de-8652-d053f32aee4a","system_id":"levelo_inurba_marseille","lat":43.26214,"lon":5.37432,"is_reserved":false,"is_disabled":false,"rental_uris":{"android":"levelo://app?vid=403f9e7c-32d4-48de-8652-d053f32aee4a","ios":"levelo://app?vid=403f9e7c-32d4-48de-8652-d053f32aee4a"},"vehicle_type_id":"4","last_reported":1753366413,"current_range_meters":8400,"station_id":"ce4bhgp2rcd13ifvqfc0","pricing_plan_id":"cebpf4jnsgd1na2vs0mg"},{"bike_id":"da053e6a-15f2-492e-8bc1-42b1d66cc329","system_id":"levelo_inurba_marseille","lat":43.28346,"lon":5.43262,"is_reserved":false,"is_disabled":false,"rental_uris":{"android":"levelo://app?vid=da053e6a-15f2-492e-8bc1-42b1d66cc329","ios":"levelo://app?vid=da053e6a-15f2-492e-8bc1-42b1d66cc329"},"vehicle_type_id":"4","last_reported":1753366413,"current_range_meters":8400,"station_id":"","pricing_plan_id":"cebpf4jnsgd1na2vs0mg"},{"bike_id":"e91b3b72-db5a-47ac-8d69-d72501b6abe1","system_id":"levelo_inurba_marseille","lat":43.23962,"lon":5.36622,"is_reserved":false,"is_disabled":false,"rental_uris":{"android":"levelo://app?vid=e91b3b72-db5a-47ac-8d69-d72501b6abe1","ios":"levelo://app?vid=e91b3b72-db5a-47ac-8d69-d72501b6abe1"},"vehicle_type_id":"4","last_reported":1753366413,"current_range_meters":8400,"station_id":"ce4bhi12rcd13ifvqfp0","pricing_plan_id":"cebpf4jnsgd1na2vs0mg"},{"bike_id":"1920de00-a7c2-40b8-8a9f-e4cf49f2d7e9","system_id":"levelo_inurba_marseille","lat":43.29071,"lon":5.37157,"is_reserved":false,"is_disabled":false,"rental_uris":{"android":"levelo://app?vid=1920de00-a7c2-40b8-8a9f-e4cf49f2d7e9","ios":"levelo://app?vid=1920de00-a7c2-40b8-8a9f-e4cf49f2d7e9"},"vehicle_type_id":"4","last_reported":1753366413,"current_range_meters":8800,"station_id":"ce4bh5p2rcd13ifvqe4g","pricing_plan_id":"cebpf4jnsgd1na2vs0mg"},{"bike_id":"1f8f3585-d371-45be-95de-ffa782ccdda2","system_id":"levelo_inurba_marseille","lat":43.25121,"lon":5.40319,"is_reserved":false,"is_disabled":false,"rental_uris":{"android":"levelo://app?vid=1f8f3585-d371-45be-95de-ffa782ccdda2","ios":"levelo://app?vid=1f8f3585-d371-45be-95de-ffa782ccdda2"},"vehicle_type_id":"4","last_reported":1753366413,"current_range_meters":8800,"station_id":"ce4bhlh2rcd13ifvqgig","pricing_plan_id":"cebpf4jnsgd1na2vs0mg"},{"bike_id":"2efa98ae-c6c2-425f-9c6d-358da8751dcd","system_id":"levelo_inurba_marseille","lat":43.29562,"lon":5.37523,"is_reserved":false,"is_disabled":false,"rental_uris":{"android":"levelo://app?vid=2efa98ae-c6c2-425f-9c6d-358da8751dcd","ios":"levelo://app?vid=2efa98ae-c6c2-425f-9c6d-358da8751dcd"},"vehicle_type_id":"4","last_reported":1753366413,"current_range_meters":8800,"station_id":"ce4bgh92rcd13ifvqb50","pricing_plan_id":"cebpf4jnsgd1na2vs0mg"},{"bike_id":"68d7814c-c674-4b40-a848-c60a982cf484","system_id":"levelo_inurba_marseille","lat":43.27809,"lon":5.40705,"is_reserved":false,"is_disabled":false,"rental_uris":{"android":"levelo://app?vid=68d7814c-c674-4b40-a848-c60a982cf484","ios":"levelo://app?vid=68d7814c-c674-4b40-a848-c60a982cf484"},"vehicle_type_id":"4","last_reported":1753366413,"current_range_meters":8800,"station_id":"ce4bhnh2rcd13ifvqgtg","pricing_plan_id":"cebpf4jnsgd1na2vs0mg"},{"bike_id":"6b6cd8fe-b749-4c45-b07a-f9e91aeab36d","system_id":"levelo_inurba_marseille","lat":43.28267,"lon":5.35074,"is_reserved":false,"is_disabled":false,"rental_uris":{"android":"levelo://app?vid=6b6cd8fe-b749-4c45-b07a-f9e91aeab36d","ios":"levelo://app?vid=6b6cd8fe-b749-4c45-b07a-f9e91aeab36d"},"vehicle_type_id":"4","last_reported":1753366413,"current_range_meters":9200,"station_id":"ce4bhbp2rcd13ifvqerg","pricing_plan_id":"cebpf4jnsgd1na2vs0mg"},{"bike_id":"dec93502-9771-4f3a-879a-cbdfb860df89","system_id":"levelo_inurba_marseille","lat":43.2767,"lon":5.38372,"is_reserved":false,"is_disabled":false,"rental_uris":{"android":"levelo://app?vid=dec93502-9771-4f3a-879a-cbdfb860df89","ios":"levelo://app?vid=dec93502-9771-4f3a-879a-cbdfb860df89"},"vehicle_type_id":"4","last_reported":1753366413,"current_range_meters":9200,"station_id":"","pricing_plan_id":"cebpf4jnsgd1na2vs0mg"},{"bike_id":"7b7524ae-8ecd-499f-93b7-a6de3bab91d4","system_id":"levelo_inurba_marseille","lat":43.298957,"lon":5.436626,"is_reserved":false,"is_disabled":false,"rental_uris":{"android":"levelo://app?vid=7b7524ae-8ecd-499f-93b7-a6de3bab91d4","ios":"levelo://app?vid=7b7524ae-8ecd-499f-93b7-a6de3bab91d4"},"vehicle_type_id":"4","last_reported":1753366413,"current_range_meters":9200,"station_id":"ce4bhpp2rcd13ifvqhfg","pricing_plan_id":"cebpf4jnsgd1na2vs0mg"},{"bike_id":"a246b5dd-5d67-4f21-9e58-080956cc3d21","system_id":"levelo_inurba_marseille","lat":43.23195,"lon":5.35547,"is_reserved":false,"is_disabled":false,"rental_uris":{"android":"levelo://app?vid=a246b5dd-5d67-4f21-9e58-080956cc3d21","ios":"levelo://app?vid=a246b5dd-5d67-4f21-9e58-080956cc3d21"},"vehicle_type_id":"4","last_reported":1753366413,"current_range_meters":9200,"station_id":"ce4bhu92rcd13ifvqi70","pricing_plan_id":"cebpf4jnsgd1na2vs0mg"},{"bike_id":"086555e3-969b-4bc4-9d44-bdedd64d6735","system_id":"levelo_inurba_marseille","lat":43.28672,"lon":5.36351,"is_reserved":false,"is_disabled":false,"rental_uris":{"android":"levelo://app?vid=086555e3-969b-4bc4-9d44-bdedd64d6735","ios":"levelo://app?vid=086555e3-969b-4bc4-9d44-bdedd64d6735"},"vehicle_type_id":"4","last_reported":1753366413,"current_range_meters":9200,"station_id":"ce4bhah2rcd13ifvqej0","pricing_plan_id":"cebpf4jnsgd1na2vs0mg"},{"bike_id":"b982e5a3-88f5-4403-a53a-38d90073ed80","system_id":"levelo_inurba_marseille","lat":43.29427,"lon":5.43224,"is_reserved":false,"is_disabled":false,"rental_uris":{"android":"levelo://app?vid=b982e5a3-88f5-4403-a53a-38d90073ed80","ios":"levelo://app?vid=b982e5a3-88f5-4403-a53a-38d90073ed80"},"vehicle_type_id":"4","last_reported":1753366413,"current_range_meters":9200,"station_id":"","pricing_plan_id":"cebpf4jnsgd1na2vs0mg"},{"bike_id":"4023483f-3ba3-4c42-9344-97a39fb1ff87","system_id":"levelo_inurba_marseille","lat":43.225087,"lon":5.347867,"is_reserved":false,"is_disabled":false,"rental_uris":{"android":"levelo://app?vid=4023483f-3ba3-4c42-9344-97a39fb1ff87","ios":"levelo://app?vid=4023483f-3ba3-4c42-9344-97a39fb1ff87"},"vehicle_type_id":"4","last_reported":1753366413,"current_range_meters":9200,"station_id":"","pricing_plan_id":"cebpf4jnsgd1na2vs0mg"},{"bike_id":"98f19bcd-44f3-40b8-8afc-8a7d36b1f51c","system_id":"levelo_inurba_marseille","lat":43.26216,"lon":5.37438,"is_reserved":false,"is_disabled":false,"rental_uris":{"android":"levelo://app?vid=98f19bcd-44f3-40b8-8afc-8a7d36b1f51c","ios":"levelo://app?vid=98f19bcd-44f3-40b8-8afc-8a7d36b1f51c"},"vehicle_type_id":"4","last_reported":1753366413,"current_range_meters":9200,"station_id":"ce4bhgp2rcd13ifvqfc0","pricing_plan_id":"cebpf4jnsgd1na2vs0mg"},{"bike_id":"52dec2b9-b572-4d0f-abda-4440f08c3660","system_id":"levelo_inurba_marseille","lat":43.2827,"lon":5.35063,"is_reserved":false,"is_disabled":false,"rental_uris":{"android":"levelo://app?vid=52dec2b9-b572-4d0f-abda-4440f08c3660","ios":"levelo://app?vid=52dec2b9-b572-4d0f-abda-4440f08c3660"},"vehicle_type_id":"4","last_reported":1753366413,"current_range_meters":9600,"station_id":"ce4bhbp2rcd13ifvqerg","pricing_plan_id":"cebpf4jnsgd1na2vs0mg"},{"bike_id":"a631d94c-5c98-490a-a332-d5729c97e207","system_id":"levelo_inurba_marseille","lat":43.28929,"lon":5.36439,"is_reserved":false,"is_disabled":false,"rental_uris":{"android":"levelo://app?vid=a631d94c-5c98-490a-a332-d5729c97e207","ios":"levelo://app?vid=a631d94c-5c98-490a-a332-d5729c97e207"},"vehicle_type_id":"4","last_reported":1753366413,"current_range_meters":9600,"station_id":"","pricing_plan_id":"cebpf4jnsgd1na2vs0mg"},{"bike_id":"7250624a-63df-4e44-9e5a-1056e5f8a90f","system_id":"levelo_inurba_marseille","lat":43.29505,"lon":5.4026,"is_reserved":false,"is_disabled":false,"rental_uris":{"android":"levelo://app?vid=7250624a-63df-4e44-9e5a-1056e5f8a90f","ios":"levelo://app?vid=7250624a-63df-4e44-9e5a-1056e5f8a90f"},"vehicle_type_id":"4","last_reported":1753366413,"current_range_meters":9600,"station_id":"","pricing_plan_id":"cebpf4jnsgd1na2vs0mg"},{"bike_id":"29b26611-b9b1-49e2-86c9-6939ae244779","system_id":"levelo_inurba_marseille","lat":43.30088,"lon":5.3908,"is_reserved":false,"is_disabled":false,"rental_uris":{"android":"levelo://app?vid=29b26611-b9b1-49e2-86c9-6939ae244779","ios":"levelo://app?vid=29b26611-b9b1-49e2-86c9-6939ae244779"},"vehicle_type_id":"4","last_reported":1753366413,"current_range_meters":9600,"station_id":"ce4bh192rcd13ifvqdb0","pricing_plan_id":"cebpf4jnsgd1na2vs0mg"},{"bike_id":"70e328ea-76c5-42ed-9cf4-e9804143ad3e","system_id":"levelo_inurba_marseille","lat":43.29841,"lon":5.36272,"is_reserved":false,"is_disabled":false,"rental_uris":{"android":"levelo://app?vid=70e328ea-76c5-42ed-9cf4-e9804143ad3e","ios":"levelo://app?vid=70e328ea-76c5-42ed-9cf4-e9804143ad3e"},"vehicle_type_id":"4","last_reported":1753366413,"current_range_meters":10000,"station_id":"ce4bgpp2rcd13ifvqc3g","pricing_plan_id":"cebpf4jnsgd1na2vs0mg"},{"bike_id":"bbc2b271-396f-4875-9f1d-0fcc163d87b6","system_id":"levelo_inurba_marseille","lat":43.29108,"lon":5.39889,"is_reserved":false,"is_disabled":false,"rental_uris":{"android":"levelo://app?vid=bbc2b271-396f-4875-9f1d-0fcc163d87b6","ios":"levelo://app?vid=bbc2b271-396f-4875-9f1d-0fcc163d87b6"},"vehicle_type_id":"4","last_reported":1753366413,"current_range_meters":10000,"station_id":"","pricing_plan_id":"cebpf4jnsgd1na2vs0mg"},{"bike_id":"9a6c4f82-c0b5-4d6a-8599-dbf7061dbe0f","system_id":"levelo_inurba_marseille","lat":43.30909,"lon":5.36836,"is_reserved":false,"is_disabled":false,"rental_uris":{"android":"levelo://app?vid=9a6c4f82-c0b5-4d6a-8599-dbf7061dbe0f","ios":"levelo://app?vid=9a6c4f82-c0b5-4d6a-8599-dbf7061dbe0f"},"vehicle_type_id":"4","last_reported":1753366413,"current_range_meters":10000,"station_id":"ce4bgn92rcd13ifvqbvg","pricing_plan_id":"cebpf4jnsgd1na2vs0mg"},{"bike_id":"f3217e35-0bb5-43ab-beb0-dd5e233a7114","system_id":"levelo_inurba_marseille","lat":43.25578,"lon":5.382244,"is_reserved":false,"is_disabled":true,"rental_uris":{"android":"levelo://app?vid=f3217e35-0bb5-43ab-beb0-dd5e233a7114","ios":"levelo://app?vid=f3217e35-0bb5-43ab-beb0-dd5e233a7114"},"vehicle_type_id":"4","last_reported":1753366413,"current_range_meters":10000,"station_id":"ce4bhih2rcd13ifvqfs0","pricing_plan_id":"cebpf4jnsgd1na2vs0mg"},{"bike_id":"e90e0c43-723e-4b59-a205-b2016df5ad9d","system_id":"levelo_inurba_marseille","lat":43.29011,"lon":5.38134,"is_reserved":false,"is_disabled":false,"rental_uris":{"android":"levelo://app?vid=e90e0c43-723e-4b59-a205-b2016df5ad9d","ios":"levelo://app?vid=e90e0c43-723e-4b59-a205-b2016df5ad9d"},"vehicle_type_id":"4","last_reported":1753366413,"current_range_meters":10000,"station_id":"ce4bh4p2rcd13ifvqe1g","pricing_plan_id":"cebpf4jnsgd1na2vs0mg"},{"bike_id":"145126f2-7f01-43fa-b7fa-79343b746b1c","system_id":"levelo_inurba_marseille","lat":43.28408,"lon":5.34993,"is_reserved":false,"is_disabled":false,"rental_uris":{"android":"levelo://app?vid=145126f2-7f01-43fa-b7fa-79343b746b1c","ios":"levelo://app?vid=145126f2-7f01-43fa-b7fa-79343b746b1c"},"vehicle_type_id":"4","last_reported":1753366413,"current_range_meters":10800,"station_id":"ce4bhbh2rcd13ifvqepg","pricing_plan_id":"cebpf4jnsgd1na2vs0mg"},{"bike_id":"7b88fbb7-7d8e-4916-b1c3-1a286803446c","system_id":"levelo_inurba_marseille","lat":43.30606,"lon":5.37224,"is_reserved":false,"is_disabled":false,"rental_uris":{"android":"levelo://app?vid=7b88fbb7-7d8e-4916-b1c3-1a286803446c","ios":"levelo://app?vid=7b88fbb7-7d8e-4916-b1c3-1a286803446c"},"vehicle_type_id":"4","last_reported":1753366413,"current_range_meters":10800,"station_id":"ce4bgqh2rcd13ifvqc4g","pricing_plan_id":"cebpf4jnsgd1na2vs0mg"},{"bike_id":"b5ce8d93-17c0-45a5-b2b1-eefce45c2d79","system_id":"levelo_inurba_marseille","lat":43.31796,"lon":5.435072,"is_reserved":false,"is_disabled":false,"rental_uris":{"android":"levelo://app?vid=b5ce8d93-17c0-45a5-b2b1-eefce45c2d79","ios":"levelo://app?vid=b5ce8d93-17c0-45a5-b2b1-eefce45c2d79"},"vehicle_type_id":"4","last_reported":1753366413,"current_range_meters":10800,"station_id":"","pricing_plan_id":"cebpf4jnsgd1na2vs0mg"},{"bike_id":"6269848e-f186-419a-b115-d6724770023c","system_id":"levelo_inurba_marseille","lat":43.290092,"lon":5.356246,"is_reserved":false,"is_disabled":false,"rental_uris":{"android":"levelo://app?vid=6269848e-f186-419a-b115-d6724770023c","ios":"levelo://app?vid=6269848e-f186-419a-b115-d6724770023c"},"vehicle_type_id":"4","last_reported":1753366413,"current_range_meters":11200,"station_id":"","pricing_plan_id":"cebpf4jnsgd1na2vs0mg"},{"bike_id":"a492f476-7189-46fe-9e39-551e35f2b2bc","system_id":"levelo_inurba_marseille","lat":43.288545,"lon":5.358527,"is_reserved":false,"is_disabled":false,"rental_uris":{"android":"levelo://app?vid=a492f476-7189-46fe-9e39-551e35f2b2bc","ios":"levelo://app?vid=a492f476-7189-46fe-9e39-551e35f2b2bc"},"vehicle_type_id":"4","last_reported":1753366413,"current_range_meters":11200,"station_id":"","pricing_plan_id":"cebpf4jnsgd1na2vs0mg"},{"bike_id":"2ae83899-90fd-4b59-b691-4169c75aef1a","system_id":"levelo_inurba_marseille","lat":43.33766,"lon":5.37425,"is_reserved":false,"is_disabled":false,"rental_uris":{"android":"levelo://app?vid=2ae83899-90fd-4b59-b691-4169c75aef1a","ios":"levelo://app?vid=2ae83899-90fd-4b59-b691-4169c75aef1a"},"vehicle_type_id":"4","last_reported":1753366413,"current_range_meters":11200,"station_id":"","pricing_plan_id":"cebpf4jnsgd1na2vs0mg"},{"bike_id":"9f3496c9-e009-4dcf-9c6c-d3de9341b967","system_id":"levelo_inurba_marseille","lat":43.29529,"lon":5.39039,"is_reserved":false,"is_disabled":false,"rental_uris":{"android":"levelo://app?vid=9f3496c9-e009-4dcf-9c6c-d3de9341b967","ios":"levelo://app?vid=9f3496c9-e009-4dcf-9c6c-d3de9341b967"},"vehicle_type_id":"4","last_reported":1753366413,"current_range_meters":11600,"station_id":"ce4bh3p2rcd13ifvqdp0","pricing_plan_id":"cebpf4jnsgd1na2vs0mg"},{"bike_id":"ae131367-d818-44a0-9e1d-4aa65dcdb16a","system_id":"levelo_inurba_marseille","lat":43.27564,"lon":5.39627,"is_reserved":false,"is_disabled":false,"rental_uris":{"android":"levelo://app?vid=ae131367-d818-44a0-9e1d-4aa65dcdb16a","ios":"levelo://app?vid=ae131367-d818-44a0-9e1d-4aa65dcdb16a"},"vehicle_type_id":"4","last_reported":1753366413,"current_range_meters":11600,"station_id":"","pricing_plan_id":"cebpf4jnsgd1na2vs0mg"},{"bike_id":"00c65a25-729f-4c5f-974b-5b0db9571c03","system_id":"levelo_inurba_marseille","lat":43.29799,"lon":5.371,"is_reserved":false,"is_disabled":false,"rental_uris":{"android":"levelo://app?vid=00c65a25-729f-4c5f-974b-5b0db9571c03","ios":"levelo://app?vid=00c65a25-729f-4c5f-974b-5b0db9571c03"},"vehicle_type_id":"4","last_reported":1753366413,"current_range_meters":11600,"station_id":"ce4bgop2rcd13ifvqc1g","pricing_plan_id":"cebpf4jnsgd1na2vs0mg"},{"bike_id":"3cd09fc8-9554-4236-8496-0931a7be09d1","system_id":"levelo_inurba_marseille","lat":43.212026,"lon":5.350811,"is_reserved":false,"is_disabled":false,"rental_uris":{"android":"levelo://app?vid=3cd09fc8-9554-4236-8496-0931a7be09d1","ios":"levelo://app?vid=3cd09fc8-9554-4236-8496-0931a7be09d1"},"vehicle_type_id":"4","last_reported":1753366413,"current_range_meters":12000,"station_id":"st_cvj6sg6p6f1abm77japg","pricing_plan_id":"cebpf4jnsgd1na2vs0mg"},{"bike_id":"ce59a62d-17ec-416f-b54d-751bd3f6f3dd","system_id":"levelo_inurba_marseille","lat":43.270685,"lon":5.42262,"is_reserved":false,"is_disabled":false,"rental_uris":{"android":"levelo://app?vid=ce59a62d-17ec-416f-b54d-751bd3f6f3dd","ios":"levelo://app?vid=ce59a62d-17ec-416f-b54d-751bd3f6f3dd"},"vehicle_type_id":"4","last_reported":1753366413,"current_range_meters":12000,"station_id":"ce4bhk92rcd13ifvqgb0","pricing_plan_id":"cebpf4jnsgd1na2vs0mg"},{"bike_id":"b89d6267-55af-48a1-8887-3f0adc5ff195","system_id":"levelo_inurba_marseille","lat":43.301319,"lon":5.39874,"is_reserved":false,"is_disabled":false,"rental_uris":{"android":"levelo://app?vid=b89d6267-55af-48a1-8887-3f0adc5ff195","ios":"levelo://app?vid=b89d6267-55af-48a1-8887-3f0adc5ff195"},"vehicle_type_id":"4","last_reported":1753366413,"current_range_meters":12000,"station_id":"","pricing_plan_id":"cebpf4jnsgd1na2vs0mg"},{"bike_id":"6a79a396-2f47-4b1c-9dce-b0d5464f72e4","system_id":"levelo_inurba_marseille","lat":43.22928,"lon":5.3539,"is_reserved":false,"is_disabled":false,"rental_uris":{"android":"levelo://app?vid=6a79a396-2f47-4b1c-9dce-b0d5464f72e4","ios":"levelo://app?vid=6a79a396-2f47-4b1c-9dce-b0d5464f72e4"},"vehicle_type_id":"4","last_reported":1753366413,"current_range_meters":12000,"station_id":"cpo3532slgdg3j2ikp40","pricing_plan_id":"cebpf4jnsgd1na2vs0mg"},{"bike_id":"b4aae9c2-4ca5-4027-b369-cf0d4c6f33b8","system_id":"levelo_inurba_marseille","lat":43.28268,"lon":5.35076,"is_reserved":false,"is_disabled":false,"rental_uris":{"android":"levelo://app?vid=b4aae9c2-4ca5-4027-b369-cf0d4c6f33b8","ios":"levelo://app?vid=b4aae9c2-4ca5-4027-b369-cf0d4c6f33b8"},"vehicle_type_id":"4","last_reported":1753366413,"current_range_meters":12000,"station_id":"ce4bhbp2rcd13ifvqerg","pricing_plan_id":"cebpf4jnsgd1na2vs0mg"},{"bike_id":"1c685b15-ac88-442d-911f-58323e6a29e4","system_id":"levelo_inurba_marseille","lat":43.28606,"lon":5.37059,"is_reserved":false,"is_disabled":false,"rental_uris":{"android":"levelo://app?vid=1c685b15-ac88-442d-911f-58323e6a29e4","ios":"levelo://app?vid=1c685b15-ac88-442d-911f-58323e6a29e4"},"vehicle_type_id":"4","last_reported":1753366413,"current_range_meters":12000,"station_id":"ce4bht12rcd13ifvqi60","pricing_plan_id":"cebpf4jnsgd1na2vs0mg"},{"bike_id":"75921511-23bf-408f-9470-1062209789d6","system_id":"levelo_inurba_marseille","lat":43.25572,"lon":5.3823,"is_reserved":false,"is_disabled":false,"rental_uris":{"android":"levelo://app?vid=75921511-23bf-408f-9470-1062209789d6","ios":"levelo://app?vid=75921511-23bf-408f-9470-1062209789d6"},"vehicle_type_id":"4","last_reported":1753366413,"current_range_meters":12400,"station_id":"ce4bhih2rcd13ifvqfs0","pricing_plan_id":"cebpf4jnsgd1na2vs0mg"},{"bike_id":"ce53b9e5-1a92-4c98-95ee-9c8918e29033","system_id":"levelo_inurba_marseille","lat":43.32496,"lon":5.36554,"is_reserved":false,"is_disabled":false,"rental_uris":{"android":"levelo://app?vid=ce53b9e5-1a92-4c98-95ee-9c8918e29033","ios":"levelo://app?vid=ce53b9e5-1a92-4c98-95ee-9c8918e29033"},"vehicle_type_id":"4","last_reported":1753366413,"current_range_meters":12400,"station_id":"ce4bhs12rcd13ifvqhvg","pricing_plan_id":"cebpf4jnsgd1na2vs0mg"},{"bike_id":"c3b7093a-c6fc-4872-a465-95918521be48","system_id":"levelo_inurba_marseille","lat":43.31496,"lon":5.37305,"is_reserved":false,"is_disabled":false,"rental_uris":{"android":"levelo://app?vid=c3b7093a-c6fc-4872-a465-95918521be48","ios":"levelo://app?vid=c3b7093a-c6fc-4872-a465-95918521be48"},"vehicle_type_id":"4","last_reported":1753366413,"current_range_meters":12400,"station_id":"ce4bgt12rcd13ifvqcd0","pricing_plan_id":"cebpf4jnsgd1na2vs0mg"},{"bike_id":"b8e8a607-67a1-47c6-8381-c247dc7d042e","system_id":"levelo_inurba_marseille","lat":43.337444,"lon":5.374475,"is_reserved":false,"is_disabled":false,"rental_uris":{"android":"levelo://app?vid=b8e8a607-67a1-47c6-8381-c247dc7d042e","ios":"levelo://app?vid=b8e8a607-67a1-47c6-8381-c247dc7d042e"},"vehicle_type_id":"4","last_reported":1753366413,"current_range_meters":12400,"station_id":"ce4bh192rcd13ifvqdc0","pricing_plan_id":"cebpf4jnsgd1na2vs0mg"},{"bike_id":"f761026d-e3b6-4eb8-b695-f25b017efe23","system_id":"levelo_inurba_marseille","lat":43.25087,"lon":5.39521,"is_reserved":false,"is_disabled":false,"rental_uris":{"android":"levelo://app?vid=f761026d-e3b6-4eb8-b695-f25b017efe23","ios":"levelo://app?vid=f761026d-e3b6-4eb8-b695-f25b017efe23"},"vehicle_type_id":"4","last_reported":1753366413,"current_range_meters":12400,"station_id":"ce4bhm12rcd13ifvqgkg","pricing_plan_id":"cebpf4jnsgd1na2vs0mg"},{"bike_id":"5ac85406-65d0-4336-aa89-4b04b2e6689e","system_id":"levelo_inurba_marseille","lat":43.33274,"lon":5.42001,"is_reserved":false,"is_disabled":false,"rental_uris":{"android":"levelo://app?vid=5ac85406-65d0-4336-aa89-4b04b2e6689e","ios":"levelo://app?vid=5ac85406-65d0-4336-aa89-4b04b2e6689e"},"vehicle_type_id":"4","last_reported":1753366413,"current_range_meters":12400,"station_id":"","pricing_plan_id":"cebpf4jnsgd1na2vs0mg"},{"bike_id":"c056311f-78c9-4e18-8685-91c659ddb125","system_id":"levelo_inurba_marseille","lat":43.31623,"lon":5.38964,"is_reserved":false,"is_disabled":false,"rental_uris":{"android":"levelo://app?vid=c056311f-78c9-4e18-8685-91c659ddb125","ios":"levelo://app?vid=c056311f-78c9-4e18-8685-91c659ddb125"},"vehicle_type_id":"4","last_reported":1753366413,"current_range_meters":12400,"station_id":"","pricing_plan_id":"cebpf4jnsgd1na2vs0mg"},{"bike_id":"2006d6ab-c619-4a15-b9f3-97c1160843f0","system_id":"levelo_inurba_marseille","lat":43.28154,"lon":5.36085,"is_reserved":false,"is_disabled":false,"rental_uris":{"android":"levelo://app?vid=2006d6ab-c619-4a15-b9f3-97c1160843f0","ios":"levelo://app?vid=2006d6ab-c619-4a15-b9f3-97c1160843f0"},"vehicle_type_id":"4","last_reported":1753366413,"current_range_meters":12400,"station_id":"","pricing_plan_id":"cebpf4jnsgd1na2vs0mg"},{"bike_id":"bf2ee10d-9e36-4120-a359-bbf27e65c79b","system_id":"levelo_inurba_marseille","lat":43.329915,"lon":5.390003,"is_reserved":false,"is_disabled":false,"rental_uris":{"android":"levelo://app?vid=bf2ee10d-9e36-4120-a359-bbf27e65c79b","ios":"levelo://app?vid=bf2ee10d-9e36-4120-a359-bbf27e65c79b"},"vehicle_type_id":"4","last_reported":1753366413,"current_range_meters":12000,"station_id":"ce4bhr92rcd13ifvqhrg","pricing_plan_id":"cebpf4jnsgd1na2vs0mg"},{"bike_id":"3cc0439d-ec6e-4f4d-81f7-c12810a3cb13","system_id":"levelo_inurba_marseille","lat":43.29248,"lon":5.409,"is_reserved":false,"is_disabled":false,"rental_uris":{"android":"levelo://app?vid=3cc0439d-ec6e-4f4d-81f7-c12810a3cb13","ios":"levelo://app?vid=3cc0439d-ec6e-4f4d-81f7-c12810a3cb13"},"vehicle_type_id":"4","last_reported":1753366413,"current_range_meters":12400,"station_id":"ce4bh192rcd13ifvqdc0","pricing_plan_id":"cebpf4jnsgd1na2vs0mg"},{"bike_id":"fe11d671-6058-4a05-a0f8-c6fcd89e38ee","system_id":"levelo_inurba_marseille","lat":43.29975,"lon":5.38487,"is_reserved":false,"is_disabled":false,"rental_uris":{"android":"levelo://app?vid=fe11d671-6058-4a05-a0f8-c6fcd89e38ee","ios":"levelo://app?vid=fe11d671-6058-4a05-a0f8-c6fcd89e38ee"},"vehicle_type_id":"4","last_reported":1753366413,"current_range_meters":12800,"station_id":"ce4bgj92rcd13ifvqbd0","pricing_plan_id":"cebpf4jnsgd1na2vs0mg"},{"bike_id":"9cf65169-887e-4938-8e99-f595dfdb93c4","system_id":"levelo_inurba_marseille","lat":43.29992,"lon":5.38507,"is_reserved":false,"is_disabled":false,"rental_uris":{"android":"levelo://app?vid=9cf65169-887e-4938-8e99-f595dfdb93c4","ios":"levelo://app?vid=9cf65169-887e-4938-8e99-f595dfdb93c4"},"vehicle_type_id":"4","last_reported":1753366413,"current_range_meters":12800,"station_id":"ce4bgj92rcd13ifvqbd0","pricing_plan_id":"cebpf4jnsgd1na2vs0mg"},{"bike_id":"effeb500-6e69-4888-a750-57ae7c962c80","system_id":"levelo_inurba_marseille","lat":43.32364,"lon":5.36743,"is_reserved":false,"is_disabled":false,"rental_uris":{"android":"levelo://app?vid=effeb500-6e69-4888-a750-57ae7c962c80","ios":"levelo://app?vid=effeb500-6e69-4888-a750-57ae7c962c80"},"vehicle_type_id":"4","last_reported":1753366413,"current_range_meters":12800,"station_id":"ce4bhsh2rcd13ifvqi2g","pricing_plan_id":"cebpf4jnsgd1na2vs0mg"},{"bike_id":"6bb1f31c-9335-4f39-9585-31374a4775f9","system_id":"levelo_inurba_marseille","lat":43.325583,"lon":5.379059,"is_reserved":false,"is_disabled":false,"rental_uris":{"android":"levelo://app?vid=6bb1f31c-9335-4f39-9585-31374a4775f9","ios":"levelo://app?vid=6bb1f31c-9335-4f39-9585-31374a4775f9"},"vehicle_type_id":"4","last_reported":1753366413,"current_range_meters":12800,"station_id":"","pricing_plan_id":"cebpf4jnsgd1na2vs0mg"},{"bike_id":"cf7b0671-fb94-4201-8e7b-d09f1ced3c64","system_id":"levelo_inurba_marseille","lat":43.30557,"lon":5.36709,"is_reserved":false,"is_disabled":false,"rental_uris":{"android":"levelo://app?vid=cf7b0671-fb94-4201-8e7b-d09f1ced3c64","ios":"levelo://app?vid=cf7b0671-fb94-4201-8e7b-d09f1ced3c64"},"vehicle_type_id":"4","last_reported":1753366413,"current_range_meters":12800,"station_id":"ce4bgrp2rcd13ifvqc9g","pricing_plan_id":"cebpf4jnsgd1na2vs0mg"},{"bike_id":"c5de8f71-b38f-4bb5-b804-bf684958ffd7","system_id":"levelo_inurba_marseille","lat":43.279407,"lon":5.410467,"is_reserved":false,"is_disabled":false,"rental_uris":{"android":"levelo://app?vid=c5de8f71-b38f-4bb5-b804-bf684958ffd7","ios":"levelo://app?vid=c5de8f71-b38f-4bb5-b804-bf684958ffd7"},"vehicle_type_id":"4","last_reported":1753366413,"current_range_meters":13600,"station_id":"ce4bhnp2rcd13ifvqh0g","pricing_plan_id":"cebpf4jnsgd1na2vs0mg"},{"bike_id":"a2e9f613-09ac-400c-a305-e865a881746c","system_id":"levelo_inurba_marseille","lat":43.21192,"lon":5.3507,"is_reserved":false,"is_disabled":false,"rental_uris":{"android":"levelo://app?vid=a2e9f613-09ac-400c-a305-e865a881746c","ios":"levelo://app?vid=a2e9f613-09ac-400c-a305-e865a881746c"},"vehicle_type_id":"4","last_reported":1753366413,"current_range_meters":13600,"station_id":"st_cvj6sg6p6f1abm77japg","pricing_plan_id":"cebpf4jnsgd1na2vs0mg"},{"bike_id":"5a1c52b1-753d-4208-aee7-be16b42ff7f0","system_id":"levelo_inurba_marseille","lat":43.29873,"lon":5.39729,"is_reserved":false,"is_disabled":false,"rental_uris":{"android":"levelo://app?vid=5a1c52b1-753d-4208-aee7-be16b42ff7f0","ios":"levelo://app?vid=5a1c52b1-753d-4208-aee7-be16b42ff7f0"},"vehicle_type_id":"4","last_reported":1753366413,"current_range_meters":13600,"station_id":"ce4bh0h2rcd13ifvqd50","pricing_plan_id":"cebpf4jnsgd1na2vs0mg"},{"bike_id":"74c2099d-a1b1-4c4d-b370-5f2d22f180f3","system_id":"levelo_inurba_marseille","lat":43.240722,"lon":5.377196,"is_reserved":false,"is_disabled":false,"rental_uris":{"android":"levelo://app?vid=74c2099d-a1b1-4c4d-b370-5f2d22f180f3","ios":"levelo://app?vid=74c2099d-a1b1-4c4d-b370-5f2d22f180f3"},"vehicle_type_id":"4","last_reported":1753366413,"current_range_meters":13600,"station_id":"ce4bhnp2rcd13ifvqgvg","pricing_plan_id":"cebpf4jnsgd1na2vs0mg"},{"bike_id":"18b86593-4f21-41ed-81b3-f3a5b378dc91","system_id":"levelo_inurba_marseille","lat":43.31244,"lon":5.38099,"is_reserved":false,"is_disabled":false,"rental_uris":{"android":"levelo://app?vid=18b86593-4f21-41ed-81b3-f3a5b378dc91","ios":"levelo://app?vid=18b86593-4f21-41ed-81b3-f3a5b378dc91"},"vehicle_type_id":"4","last_reported":1753366413,"current_range_meters":13600,"station_id":"","pricing_plan_id":"cebpf4jnsgd1na2vs0mg"},{"bike_id":"e0619653-60a9-4d50-840a-e5cb642a4cc3","system_id":"levelo_inurba_marseille","lat":43.23184,"lon":5.39979,"is_reserved":false,"is_disabled":false,"rental_uris":{"android":"levelo://app?vid=e0619653-60a9-4d50-840a-e5cb642a4cc3","ios":"levelo://app?vid=e0619653-60a9-4d50-840a-e5cb642a4cc3"},"vehicle_type_id":"4","last_reported":1753366413,"current_range_meters":12800,"station_id":"ce4bhn12rcd13ifvqgqg","pricing_plan_id":"cebpf4jnsgd1na2vs0mg"},{"bike_id":"67e6c277-a142-495a-a2a9-0aeb243846d8","system_id":"levelo_inurba_marseille","lat":43.26197,"lon":5.37453,"is_reserved":false,"is_disabled":false,"rental_uris":{"android":"levelo://app?vid=67e6c277-a142-495a-a2a9-0aeb243846d8","ios":"levelo://app?vid=67e6c277-a142-495a-a2a9-0aeb243846d8"},"vehicle_type_id":"4","last_reported":1753366413,"current_range_meters":13600,"station_id":"ce4bhgp2rcd13ifvqfc0","pricing_plan_id":"cebpf4jnsgd1na2vs0mg"},{"bike_id":"9895e2eb-7bb1-4ca2-98ab-08583f99b87d","system_id":"levelo_inurba_marseille","lat":43.2839,"lon":5.34983,"is_reserved":false,"is_disabled":false,"rental_uris":{"android":"levelo://app?vid=9895e2eb-7bb1-4ca2-98ab-08583f99b87d","ios":"levelo://app?vid=9895e2eb-7bb1-4ca2-98ab-08583f99b87d"},"vehicle_type_id":"4","last_reported":1753366413,"current_range_meters":13600,"station_id":"ce4bhbh2rcd13ifvqepg","pricing_plan_id":"cebpf4jnsgd1na2vs0mg"},{"bike_id":"5254d746-bf2c-4042-b956-76a940639ba4","system_id":"levelo_inurba_marseille","lat":43.313561,"lon":5.367158,"is_reserved":false,"is_disabled":false,"rental_uris":{"android":"levelo://app?vid=5254d746-bf2c-4042-b956-76a940639ba4","ios":"levelo://app?vid=5254d746-bf2c-4042-b956-76a940639ba4"},"vehicle_type_id":"4","last_reported":1753366413,"current_range_meters":13600,"station_id":"ce4bgr92rcd13ifvqc6g","pricing_plan_id":"cebpf4jnsgd1na2vs0mg"},{"bike_id":"f4bc89ed-241d-4eca-b46f-4a676df87af3","system_id":"levelo_inurba_marseille","lat":43.30898,"lon":5.39629,"is_reserved":false,"is_disabled":false,"rental_uris":{"android":"levelo://app?vid=f4bc89ed-241d-4eca-b46f-4a676df87af3","ios":"levelo://app?vid=f4bc89ed-241d-4eca-b46f-4a676df87af3"},"vehicle_type_id":"4","last_reported":1753366413,"current_range_meters":13600,"station_id":"ce4bh012rcd13ifvqcv0","pricing_plan_id":"cebpf4jnsgd1na2vs0mg"},{"bike_id":"5bf271e9-b85e-4ede-9d32-02d7c28374e7","system_id":"levelo_inurba_marseille","lat":43.32466,"lon":5.36565,"is_reserved":false,"is_disabled":false,"rental_uris":{"android":"levelo://app?vid=5bf271e9-b85e-4ede-9d32-02d7c28374e7","ios":"levelo://app?vid=5bf271e9-b85e-4ede-9d32-02d7c28374e7"},"vehicle_type_id":"4","last_reported":1753366413,"current_range_meters":14000,"station_id":"ce4bhs12rcd13ifvqhvg","pricing_plan_id":"cebpf4jnsgd1na2vs0mg"},{"bike_id":"0b4bb684-a440-43ec-b907-f8d06761ede6","system_id":"levelo_inurba_marseille","lat":43.25576,"lon":5.38225,"is_reserved":false,"is_disabled":false,"rental_uris":{"android":"levelo://app?vid=0b4bb684-a440-43ec-b907-f8d06761ede6","ios":"levelo://app?vid=0b4bb684-a440-43ec-b907-f8d06761ede6"},"vehicle_type_id":"4","last_reported":1753366413,"current_range_meters":14000,"station_id":"","pricing_plan_id":"cebpf4jnsgd1na2vs0mg"},{"bike_id":"0fe5dbff-dd31-413a-967f-c5162ef9b36d","system_id":"levelo_inurba_marseille","lat":43.23063,"lon":5.35487,"is_reserved":false,"is_disabled":false,"rental_uris":{"android":"levelo://app?vid=0fe5dbff-dd31-413a-967f-c5162ef9b36d","ios":"levelo://app?vid=0fe5dbff-dd31-413a-967f-c5162ef9b36d"},"vehicle_type_id":"4","last_reported":1753366413,"current_range_meters":14000,"station_id":"cpo3342slgdg3j2ifvpg","pricing_plan_id":"cebpf4jnsgd1na2vs0mg"},{"bike_id":"bd73499d-cf72-4df0-8013-de71234b9970","system_id":"levelo_inurba_marseille","lat":43.28268,"lon":5.35058,"is_reserved":false,"is_disabled":false,"rental_uris":{"android":"levelo://app?vid=bd73499d-cf72-4df0-8013-de71234b9970","ios":"levelo://app?vid=bd73499d-cf72-4df0-8013-de71234b9970"},"vehicle_type_id":"4","last_reported":1753366413,"current_range_meters":14000,"station_id":"ce4bhbp2rcd13ifvqerg","pricing_plan_id":"cebpf4jnsgd1na2vs0mg"},{"bike_id":"1ad257b5-7f83-42c1-867f-92635ff1abbf","system_id":"levelo_inurba_marseille","lat":43.22927,"lon":5.3538,"is_reserved":false,"is_disabled":false,"rental_uris":{"android":"levelo://app?vid=1ad257b5-7f83-42c1-867f-92635ff1abbf","ios":"levelo://app?vid=1ad257b5-7f83-42c1-867f-92635ff1abbf"},"vehicle_type_id":"4","last_reported":1753366413,"current_range_meters":14000,"station_id":"cpo3532slgdg3j2ikp40","pricing_plan_id":"cebpf4jnsgd1na2vs0mg"},{"bike_id":"cfe5918e-2c06-485f-97d3-cb6768f2a43f","system_id":"levelo_inurba_marseille","lat":43.23127,"lon":5.43704,"is_reserved":false,"is_disabled":false,"rental_uris":{"android":"levelo://app?vid=cfe5918e-2c06-485f-97d3-cb6768f2a43f","ios":"levelo://app?vid=cfe5918e-2c06-485f-97d3-cb6768f2a43f"},"vehicle_type_id":"4","last_reported":1753366413,"current_range_meters":14400,"station_id":"ce4bhmp2rcd13ifvqgog","pricing_plan_id":"cebpf4jnsgd1na2vs0mg"},{"bike_id":"0b165ddb-52e2-447d-8da3-a05663fee86c","system_id":"levelo_inurba_marseille","lat":43.32364,"lon":5.38879,"is_reserved":false,"is_disabled":false,"rental_uris":{"android":"levelo://app?vid=0b165ddb-52e2-447d-8da3-a05663fee86c","ios":"levelo://app?vid=0b165ddb-52e2-447d-8da3-a05663fee86c"},"vehicle_type_id":"4","last_reported":1753366413,"current_range_meters":14400,"station_id":"ce4bhqp2rcd13ifvqhog","pricing_plan_id":"cebpf4jnsgd1na2vs0mg"},{"bike_id":"006a9488-cd8b-4821-b34c-721d814f48bf","system_id":"levelo_inurba_marseille","lat":43.30606,"lon":5.39356,"is_reserved":false,"is_disabled":false,"rental_uris":{"android":"levelo://app?vid=006a9488-cd8b-4821-b34c-721d814f48bf","ios":"levelo://app?vid=006a9488-cd8b-4821-b34c-721d814f48bf"},"vehicle_type_id":"4","last_reported":1753366413,"current_range_meters":14400,"station_id":"ce4bh0p2rcd13ifvqd80","pricing_plan_id":"cebpf4jnsgd1na2vs0mg"},{"bike_id":"442e560b-4c47-4106-ba8f-a0739da8fedb","system_id":"levelo_inurba_marseille","lat":43.25476,"lon":5.37641,"is_reserved":false,"is_disabled":false,"rental_uris":{"android":"levelo://app?vid=442e560b-4c47-4106-ba8f-a0739da8fedb","ios":"levelo://app?vid=442e560b-4c47-4106-ba8f-a0739da8fedb"},"vehicle_type_id":"4","last_reported":1753366413,"current_range_meters":14400,"station_id":"ce4bhh12rcd13ifvqff0","pricing_plan_id":"cebpf4jnsgd1na2vs0mg"},{"bike_id":"76c65f84-3b49-4269-890c-8259fe6ade74","system_id":"levelo_inurba_marseille","lat":43.32378,"lon":5.36754,"is_reserved":false,"is_disabled":false,"rental_uris":{"android":"levelo://app?vid=76c65f84-3b49-4269-890c-8259fe6ade74","ios":"levelo://app?vid=76c65f84-3b49-4269-890c-8259fe6ade74"},"vehicle_type_id":"4","last_reported":1753366413,"current_range_meters":14400,"station_id":"ce4bhsh2rcd13ifvqi2g","pricing_plan_id":"cebpf4jnsgd1na2vs0mg"},{"bike_id":"9437277c-d886-4a0b-9535-11724bd91051","system_id":"levelo_inurba_marseille","lat":43.27081,"lon":5.42272,"is_reserved":false,"is_disabled":false,"rental_uris":{"android":"levelo://app?vid=9437277c-d886-4a0b-9535-11724bd91051","ios":"levelo://app?vid=9437277c-d886-4a0b-9535-11724bd91051"},"vehicle_type_id":"4","last_reported":1753366413,"current_range_meters":14400,"station_id":"ce4bhk92rcd13ifvqgb0","pricing_plan_id":"cebpf4jnsgd1na2vs0mg"},{"bike_id":"851eedc8-15ce-4768-9277-120c5739c3fd","system_id":"levelo_inurba_marseille","lat":43.321849,"lon":5.367743,"is_reserved":false,"is_disabled":false,"rental_uris":{"android":"levelo://app?vid=851eedc8-15ce-4768-9277-120c5739c3fd","ios":"levelo://app?vid=851eedc8-15ce-4768-9277-120c5739c3fd"},"vehicle_type_id":"4","last_reported":1753366413,"current_range_meters":14800,"station_id":"ce4bhs12rcd13ifvqhvg","pricing_plan_id":"cebpf4jnsgd1na2vs0mg"},{"bike_id":"7c38f82d-3191-411f-afc1-7c3fab48d805","system_id":"levelo_inurba_marseille","lat":43.30537,"lon":5.38408,"is_reserved":false,"is_disabled":false,"rental_uris":{"android":"levelo://app?vid=7c38f82d-3191-411f-afc1-7c3fab48d805","ios":"levelo://app?vid=7c38f82d-3191-411f-afc1-7c3fab48d805"},"vehicle_type_id":"4","last_reported":1753366413,"current_range_meters":14800,"station_id":"ce4bgg92rcd13ifvqb30","pricing_plan_id":"cebpf4jnsgd1na2vs0mg"},{"bike_id":"b2cebe41-af4a-4f6b-9afe-56c17d97ab1d","system_id":"levelo_inurba_marseille","lat":43.286061,"lon":5.350974,"is_reserved":false,"is_disabled":false,"rental_uris":{"android":"levelo://app?vid=b2cebe41-af4a-4f6b-9afe-56c17d97ab1d","ios":"levelo://app?vid=b2cebe41-af4a-4f6b-9afe-56c17d97ab1d"},"vehicle_type_id":"4","last_reported":1753366413,"current_range_meters":14800,"station_id":"ce4bhch2rcd13ifvqeug","pricing_plan_id":"cebpf4jnsgd1na2vs0mg"},{"bike_id":"f0791249-f11a-4a88-95cc-a2481904db21","system_id":"levelo_inurba_marseille","lat":43.27546,"lon":5.38454,"is_reserved":false,"is_disabled":false,"rental_uris":{"android":"levelo://app?vid=f0791249-f11a-4a88-95cc-a2481904db21","ios":"levelo://app?vid=f0791249-f11a-4a88-95cc-a2481904db21"},"vehicle_type_id":"4","last_reported":1753366413,"current_range_meters":14800,"station_id":"ce4bhh92rcd13ifvqfi0","pricing_plan_id":"cebpf4jnsgd1na2vs0mg"},{"bike_id":"e1872e86-60d0-488a-82ce-9ae35bcbc46f","system_id":"levelo_inurba_marseille","lat":43.28419,"lon":5.35003,"is_reserved":false,"is_disabled":false,"rental_uris":{"android":"levelo://app?vid=e1872e86-60d0-488a-82ce-9ae35bcbc46f","ios":"levelo://app?vid=e1872e86-60d0-488a-82ce-9ae35bcbc46f"},"vehicle_type_id":"4","last_reported":1753366413,"current_range_meters":14800,"station_id":"ce4bhbh2rcd13ifvqepg","pricing_plan_id":"cebpf4jnsgd1na2vs0mg"},{"bike_id":"c106fbcf-82f6-487a-925f-ef3e792a2648","system_id":"levelo_inurba_marseille","lat":43.27044,"lon":5.40258,"is_reserved":false,"is_disabled":false,"rental_uris":{"android":"levelo://app?vid=c106fbcf-82f6-487a-925f-ef3e792a2648","ios":"levelo://app?vid=c106fbcf-82f6-487a-925f-ef3e792a2648"},"vehicle_type_id":"4","last_reported":1753366413,"current_range_meters":14800,"station_id":"ce4bhk92rcd13ifvqgc0","pricing_plan_id":"cebpf4jnsgd1na2vs0mg"},{"bike_id":"86682107-6f13-4985-882b-d19c3ac848fa","system_id":"levelo_inurba_marseille","lat":43.28411,"lon":5.34972,"is_reserved":false,"is_disabled":false,"rental_uris":{"android":"levelo://app?vid=86682107-6f13-4985-882b-d19c3ac848fa","ios":"levelo://app?vid=86682107-6f13-4985-882b-d19c3ac848fa"},"vehicle_type_id":"4","last_reported":1753366413,"current_range_meters":14800,"station_id":"ce4bhbh2rcd13ifvqepg","pricing_plan_id":"cebpf4jnsgd1na2vs0mg"},{"bike_id":"08d5ac3e-5d31-4349-884a-42a4d7cc3b75","system_id":"levelo_inurba_marseille","lat":43.28705,"lon":5.37386,"is_reserved":false,"is_disabled":false,"rental_uris":{"android":"levelo://app?vid=08d5ac3e-5d31-4349-884a-42a4d7cc3b75","ios":"levelo://app?vid=08d5ac3e-5d31-4349-884a-42a4d7cc3b75"},"vehicle_type_id":"4","last_reported":1753366413,"current_range_meters":15200,"station_id":"ce4bh3p2rcd13ifvqdq0","pricing_plan_id":"cebpf4jnsgd1na2vs0mg"},{"bike_id":"b0a60fe1-1353-481b-91e3-03996d1455e6","system_id":"levelo_inurba_marseille","lat":43.31713,"lon":5.37734,"is_reserved":false,"is_disabled":false,"rental_uris":{"android":"levelo://app?vid=b0a60fe1-1353-481b-91e3-03996d1455e6","ios":"levelo://app?vid=b0a60fe1-1353-481b-91e3-03996d1455e6"},"vehicle_type_id":"4","last_reported":1753366413,"current_range_meters":15200,"station_id":"ce4bgth2rcd13ifvqch0","pricing_plan_id":"cebpf4jnsgd1na2vs0mg"},{"bike_id":"eaea15aa-98ae-4f78-b37a-80e2e4524837","system_id":"levelo_inurba_marseille","lat":43.297916,"lon":5.381026,"is_reserved":false,"is_disabled":false,"rental_uris":{"android":"levelo://app?vid=eaea15aa-98ae-4f78-b37a-80e2e4524837","ios":"levelo://app?vid=eaea15aa-98ae-4f78-b37a-80e2e4524837"},"vehicle_type_id":"4","last_reported":1753366413,"current_range_meters":15200,"station_id":"","pricing_plan_id":"cebpf4jnsgd1na2vs0mg"},{"bike_id":"5f824980-27aa-4ef2-856d-b766bebead8a","system_id":"levelo_inurba_marseille","lat":43.22516,"lon":5.34763,"is_reserved":false,"is_disabled":false,"rental_uris":{"android":"levelo://app?vid=5f824980-27aa-4ef2-856d-b766bebead8a","ios":"levelo://app?vid=5f824980-27aa-4ef2-856d-b766bebead8a"},"vehicle_type_id":"4","last_reported":1753366413,"current_range_meters":15200,"station_id":"st_cvj5dfep6f1abm77gieg","pricing_plan_id":"cebpf4jnsgd1na2vs0mg"},{"bike_id":"10c1a7a3-5295-4de4-a7bf-ef8433df9757","system_id":"levelo_inurba_marseille","lat":43.28619,"lon":5.35099,"is_reserved":false,"is_disabled":false,"rental_uris":{"android":"levelo://app?vid=10c1a7a3-5295-4de4-a7bf-ef8433df9757","ios":"levelo://app?vid=10c1a7a3-5295-4de4-a7bf-ef8433df9757"},"vehicle_type_id":"4","last_reported":1753366413,"current_range_meters":15200,"station_id":"ce4bhch2rcd13ifvqeug","pricing_plan_id":"cebpf4jnsgd1na2vs0mg"},{"bike_id":"f640c3f3-c77f-44da-86f2-0ad487426311","system_id":"levelo_inurba_marseille","lat":43.21194,"lon":5.3507,"is_reserved":false,"is_disabled":false,"rental_uris":{"android":"levelo://app?vid=f640c3f3-c77f-44da-86f2-0ad487426311","ios":"levelo://app?vid=f640c3f3-c77f-44da-86f2-0ad487426311"},"vehicle_type_id":"4","last_reported":1753366413,"current_range_meters":15200,"station_id":"st_cvj6sg6p6f1abm77japg","pricing_plan_id":"cebpf4jnsgd1na2vs0mg"},{"bike_id":"35a86048-76dd-4de0-afb2-7da8772fad44","system_id":"levelo_inurba_marseille","lat":43.2154,"lon":5.34717,"is_reserved":false,"is_disabled":false,"rental_uris":{"android":"levelo://app?vid=35a86048-76dd-4de0-afb2-7da8772fad44","ios":"levelo://app?vid=35a86048-76dd-4de0-afb2-7da8772fad44"},"vehicle_type_id":"4","last_reported":1753366413,"current_range_meters":15200,"station_id":"","pricing_plan_id":"cebpf4jnsgd1na2vs0mg"},{"bike_id":"de993af1-8c6e-4fcd-aa11-3cbf2991a890","system_id":"levelo_inurba_marseille","lat":43.23198,"lon":5.35561,"is_reserved":false,"is_disabled":false,"rental_uris":{"android":"levelo://app?vid=de993af1-8c6e-4fcd-aa11-3cbf2991a890","ios":"levelo://app?vid=de993af1-8c6e-4fcd-aa11-3cbf2991a890"},"vehicle_type_id":"4","last_reported":1753366413,"current_range_meters":15200,"station_id":"ce4bhu92rcd13ifvqi70","pricing_plan_id":"cebpf4jnsgd1na2vs0mg"},{"bike_id":"81df7d6f-832b-40f6-ad7c-3d213cee8b09","system_id":"levelo_inurba_marseille","lat":43.24073,"lon":5.37746,"is_reserved":false,"is_disabled":false,"rental_uris":{"android":"levelo://app?vid=81df7d6f-832b-40f6-ad7c-3d213cee8b09","ios":"levelo://app?vid=81df7d6f-832b-40f6-ad7c-3d213cee8b09"},"vehicle_type_id":"4","last_reported":1753366413,"current_range_meters":16000,"station_id":"ce4bhnp2rcd13ifvqgvg","pricing_plan_id":"cebpf4jnsgd1na2vs0mg"},{"bike_id":"855d7ac7-1044-44ad-b7dd-0ec3d8826db4","system_id":"levelo_inurba_marseille","lat":43.29925,"lon":5.36538,"is_reserved":false,"is_disabled":false,"rental_uris":{"android":"levelo://app?vid=855d7ac7-1044-44ad-b7dd-0ec3d8826db4","ios":"levelo://app?vid=855d7ac7-1044-44ad-b7dd-0ec3d8826db4"},"vehicle_type_id":"4","last_reported":1753366413,"current_range_meters":16000,"station_id":"ce4bgm92rcd13ifvqbr0","pricing_plan_id":"cebpf4jnsgd1na2vs0mg"},{"bike_id":"df523beb-6922-4411-8563-4ae0d6acfd5a","system_id":"levelo_inurba_marseille","lat":43.2407,"lon":5.37753,"is_reserved":false,"is_disabled":false,"rental_uris":{"android":"levelo://app?vid=df523beb-6922-4411-8563-4ae0d6acfd5a","ios":"levelo://app?vid=df523beb-6922-4411-8563-4ae0d6acfd5a"},"vehicle_type_id":"4","last_reported":1753366413,"current_range_meters":16000,"station_id":"ce4bhnp2rcd13ifvqgvg","pricing_plan_id":"cebpf4jnsgd1na2vs0mg"},{"bike_id":"14507e10-643d-47b2-ba4b-260c96b221f6","system_id":"levelo_inurba_marseille","lat":43.2893,"lon":5.3664,"is_reserved":false,"is_disabled":false,"rental_uris":{"android":"levelo://app?vid=14507e10-643d-47b2-ba4b-260c96b221f6","ios":"levelo://app?vid=14507e10-643d-47b2-ba4b-260c96b221f6"},"vehicle_type_id":"4","last_reported":1753366413,"current_range_meters":16000,"station_id":"ce4bhap2rcd13ifvqek0","pricing_plan_id":"cebpf4jnsgd1na2vs0mg"},{"bike_id":"886430f2-dcbc-4d04-92ed-9ef00f3124cc","system_id":"levelo_inurba_marseille","lat":43.2811,"lon":5.37836,"is_reserved":false,"is_disabled":false,"rental_uris":{"android":"levelo://app?vid=886430f2-dcbc-4d04-92ed-9ef00f3124cc","ios":"levelo://app?vid=886430f2-dcbc-4d04-92ed-9ef00f3124cc"},"vehicle_type_id":"4","last_reported":1753366413,"current_range_meters":15200,"station_id":"ce4bha12rcd13ifvqee0","pricing_plan_id":"cebpf4jnsgd1na2vs0mg"},{"bike_id":"819bb1b6-06bc-4eb2-b94e-4388d87b087b","system_id":"levelo_inurba_marseille","lat":43.297159,"lon":5.36609,"is_reserved":false,"is_disabled":false,"rental_uris":{"android":"levelo://app?vid=819bb1b6-06bc-4eb2-b94e-4388d87b087b","ios":"levelo://app?vid=819bb1b6-06bc-4eb2-b94e-4388d87b087b"},"vehicle_type_id":"4","last_reported":1753366413,"current_range_meters":16000,"station_id":"ce4bgn12rcd13ifvqbt0","pricing_plan_id":"cebpf4jnsgd1na2vs0mg"},{"bike_id":"66b7c8f1-fa5c-4176-9a72-87f1afd7a6b4","system_id":"levelo_inurba_marseille","lat":43.26495,"lon":5.39549,"is_reserved":false,"is_disabled":false,"rental_uris":{"android":"levelo://app?vid=66b7c8f1-fa5c-4176-9a72-87f1afd7a6b4","ios":"levelo://app?vid=66b7c8f1-fa5c-4176-9a72-87f1afd7a6b4"},"vehicle_type_id":"4","last_reported":1753366413,"current_range_meters":16000,"station_id":"ce4bhi12rcd13ifvqfq0","pricing_plan_id":"cebpf4jnsgd1na2vs0mg"},{"bike_id":"270f30f0-1b75-446c-9286-e9e608d187ca","system_id":"levelo_inurba_marseille","lat":43.29258,"lon":5.40897,"is_reserved":false,"is_disabled":false,"rental_uris":{"android":"levelo://app?vid=270f30f0-1b75-446c-9286-e9e608d187ca","ios":"levelo://app?vid=270f30f0-1b75-446c-9286-e9e608d187ca"},"vehicle_type_id":"4","last_reported":1753366413,"current_range_meters":16000,"station_id":"ce4bh192rcd13ifvqdc0","pricing_plan_id":"cebpf4jnsgd1na2vs0mg"},{"bike_id":"38beb2df-689b-4224-93a9-9d47e2dcfbca","system_id":"levelo_inurba_marseille","lat":43.297088,"lon":5.366039,"is_reserved":false,"is_disabled":false,"rental_uris":{"android":"levelo://app?vid=38beb2df-689b-4224-93a9-9d47e2dcfbca","ios":"levelo://app?vid=38beb2df-689b-4224-93a9-9d47e2dcfbca"},"vehicle_type_id":"4","last_reported":1753366413,"current_range_meters":16000,"station_id":"ce4bgn12rcd13ifvqbt0","pricing_plan_id":"cebpf4jnsgd1na2vs0mg"},{"bike_id":"f7f07796-c7c9-4a74-80e9-fb85744448b8","system_id":"levelo_inurba_marseille","lat":43.22914,"lon":5.35456,"is_reserved":false,"is_disabled":false,"rental_uris":{"android":"levelo://app?vid=f7f07796-c7c9-4a74-80e9-fb85744448b8","ios":"levelo://app?vid=f7f07796-c7c9-4a74-80e9-fb85744448b8"},"vehicle_type_id":"4","last_reported":1753366413,"current_range_meters":16000,"station_id":"","pricing_plan_id":"cebpf4jnsgd1na2vs0mg"},{"bike_id":"e401289a-83cf-4377-aa07-419b9b37079e","system_id":"levelo_inurba_marseille","lat":43.230702,"lon":5.354886,"is_reserved":false,"is_disabled":false,"rental_uris":{"android":"levelo://app?vid=e401289a-83cf-4377-aa07-419b9b37079e","ios":"levelo://app?vid=e401289a-83cf-4377-aa07-419b9b37079e"},"vehicle_type_id":"4","last_reported":1753366413,"current_range_meters":16000,"station_id":"cpo3342slgdg3j2ifvpg","pricing_plan_id":"cebpf4jnsgd1na2vs0mg"},{"bike_id":"227ebdd1-a7ba-46a1-a5a6-95b41ef677e4","system_id":"levelo_inurba_marseille","lat":43.29192,"lon":5.35798,"is_reserved":false,"is_disabled":false,"rental_uris":{"android":"levelo://app?vid=227ebdd1-a7ba-46a1-a5a6-95b41ef677e4","ios":"levelo://app?vid=227ebdd1-a7ba-46a1-a5a6-95b41ef677e4"},"vehicle_type_id":"4","last_reported":1753366413,"current_range_meters":16000,"station_id":"ce4bhb12rcd13ifvqel0","pricing_plan_id":"cebpf4jnsgd1na2vs0mg"},{"bike_id":"c6aa9af9-9a2d-4c74-a251-ede8df9515d7","system_id":"levelo_inurba_marseille","lat":43.31224,"lon":5.3688,"is_reserved":false,"is_disabled":false,"rental_uris":{"android":"levelo://app?vid=c6aa9af9-9a2d-4c74-a251-ede8df9515d7","ios":"levelo://app?vid=c6aa9af9-9a2d-4c74-a251-ede8df9515d7"},"vehicle_type_id":"4","last_reported":1753366413,"current_range_meters":16000,"station_id":"ce4bgl92rcd13ifvqbq0","pricing_plan_id":"cebpf4jnsgd1na2vs0mg"},{"bike_id":"27b5acbc-b1fd-4385-9be5-bae49e9e4f6a","system_id":"levelo_inurba_marseille","lat":43.24805,"lon":5.374564,"is_reserved":false,"is_disabled":false,"rental_uris":{"android":"levelo://app?vid=27b5acbc-b1fd-4385-9be5-bae49e9e4f6a","ios":"levelo://app?vid=27b5acbc-b1fd-4385-9be5-bae49e9e4f6a"},"vehicle_type_id":"4","last_reported":1753366413,"current_range_meters":16000,"station_id":"ce4bhgh2rcd13ifvqfb0","pricing_plan_id":"cebpf4jnsgd1na2vs0mg"},{"bike_id":"fbda76a5-068e-4d90-b9ba-25721acd9298","system_id":"levelo_inurba_marseille","lat":43.29025,"lon":5.43979,"is_reserved":false,"is_disabled":false,"rental_uris":{"android":"levelo://app?vid=fbda76a5-068e-4d90-b9ba-25721acd9298","ios":"levelo://app?vid=fbda76a5-068e-4d90-b9ba-25721acd9298"},"vehicle_type_id":"4","last_reported":1753366413,"current_range_meters":16400,"station_id":"","pricing_plan_id":"cebpf4jnsgd1na2vs0mg"},{"bike_id":"1f39eb17-34c7-4235-9069-0f68f613789c","system_id":"levelo_inurba_marseille","lat":43.26886,"lon":5.36871,"is_reserved":false,"is_disabled":false,"rental_uris":{"android":"levelo://app?vid=1f39eb17-34c7-4235-9069-0f68f613789c","ios":"levelo://app?vid=1f39eb17-34c7-4235-9069-0f68f613789c"},"vehicle_type_id":"4","last_reported":1753366413,"current_range_meters":16400,"station_id":"","pricing_plan_id":"cebpf4jnsgd1na2vs0mg"},{"bike_id":"1487e203-f46d-4f0a-afca-07f493c58c21","system_id":"levelo_inurba_marseille","lat":43.290059,"lon":5.356135,"is_reserved":false,"is_disabled":false,"rental_uris":{"android":"levelo://app?vid=1487e203-f46d-4f0a-afca-07f493c58c21","ios":"levelo://app?vid=1487e203-f46d-4f0a-afca-07f493c58c21"},"vehicle_type_id":"4","last_reported":1753366413,"current_range_meters":16400,"station_id":"ce4bhb92rcd13ifvqen0","pricing_plan_id":"cebpf4jnsgd1na2vs0mg"},{"bike_id":"6327ebb4-ee46-4c20-a31d-44e2aa99b9b4","system_id":"levelo_inurba_marseille","lat":43.23194,"lon":5.35545,"is_reserved":false,"is_disabled":false,"rental_uris":{"android":"levelo://app?vid=6327ebb4-ee46-4c20-a31d-44e2aa99b9b4","ios":"levelo://app?vid=6327ebb4-ee46-4c20-a31d-44e2aa99b9b4"},"vehicle_type_id":"4","last_reported":1753366413,"current_range_meters":16400,"station_id":"ce4bhu92rcd13ifvqi70","pricing_plan_id":"cebpf4jnsgd1na2vs0mg"},{"bike_id":"cd46d7a3-2aff-40e0-9e50-73919cfa0e11","system_id":"levelo_inurba_marseille","lat":43.27375,"lon":5.36256,"is_reserved":false,"is_disabled":false,"rental_uris":{"android":"levelo://app?vid=cd46d7a3-2aff-40e0-9e50-73919cfa0e11","ios":"levelo://app?vid=cd46d7a3-2aff-40e0-9e50-73919cfa0e11"},"vehicle_type_id":"4","last_reported":1753366413,"current_range_meters":16400,"station_id":"ce4bhbh2rcd13ifvqeo0","pricing_plan_id":"cebpf4jnsgd1na2vs0mg"},{"bike_id":"7bf0bca6-ef14-4947-a268-05587170db38","system_id":"levelo_inurba_marseille","lat":43.28618,"lon":5.35107,"is_reserved":false,"is_disabled":false,"rental_uris":{"android":"levelo://app?vid=7bf0bca6-ef14-4947-a268-05587170db38","ios":"levelo://app?vid=7bf0bca6-ef14-4947-a268-05587170db38"},"vehicle_type_id":"4","last_reported":1753366413,"current_range_meters":16400,"station_id":"ce4bhch2rcd13ifvqeug","pricing_plan_id":"cebpf4jnsgd1na2vs0mg"},{"bike_id":"0a11b43f-6dcd-42a4-a203-68d22f765de5","system_id":"levelo_inurba_marseille","lat":43.26786,"lon":5.39412,"is_reserved":false,"is_disabled":false,"rental_uris":{"android":"levelo://app?vid=0a11b43f-6dcd-42a4-a203-68d22f765de5","ios":"levelo://app?vid=0a11b43f-6dcd-42a4-a203-68d22f765de5"},"vehicle_type_id":"4","last_reported":1753366413,"current_range_meters":16000,"station_id":"ce4bhh12rcd13ifvqfg0","pricing_plan_id":"cebpf4jnsgd1na2vs0mg"},{"bike_id":"f6d45704-875b-4204-b745-8e5786541bb6","system_id":"levelo_inurba_marseille","lat":43.3019,"lon":5.36627,"is_reserved":false,"is_disabled":false,"rental_uris":{"android":"levelo://app?vid=f6d45704-875b-4204-b745-8e5786541bb6","ios":"levelo://app?vid=f6d45704-875b-4204-b745-8e5786541bb6"},"vehicle_type_id":"4","last_reported":1753366413,"current_range_meters":16400,"station_id":"ce4bgrh2rcd13ifvqc8g","pricing_plan_id":"cebpf4jnsgd1na2vs0mg"},{"bike_id":"0aa2d153-96d1-4d69-83b8-d39119aa9dd5","system_id":"levelo_inurba_marseille","lat":43.33523,"lon":5.36229,"is_reserved":false,"is_disabled":false,"rental_uris":{"android":"levelo://app?vid=0aa2d153-96d1-4d69-83b8-d39119aa9dd5","ios":"levelo://app?vid=0aa2d153-96d1-4d69-83b8-d39119aa9dd5"},"vehicle_type_id":"4","last_reported":1753366413,"current_range_meters":16800,"station_id":"","pricing_plan_id":"cebpf4jnsgd1na2vs0mg"},{"bike_id":"630f322e-ea39-413c-8ed4-096ccef376bc","system_id":"levelo_inurba_marseille","lat":43.29543,"lon":5.36589,"is_reserved":false,"is_disabled":false,"rental_uris":{"android":"levelo://app?vid=630f322e-ea39-413c-8ed4-096ccef376bc","ios":"levelo://app?vid=630f322e-ea39-413c-8ed4-096ccef376bc"},"vehicle_type_id":"4","last_reported":1753366413,"current_range_meters":16400,"station_id":"","pricing_plan_id":"cebpf4jnsgd1na2vs0mg"},{"bike_id":"fed241b2-e735-4747-b489-a5a38fde5767","system_id":"levelo_inurba_marseille","lat":43.28243,"lon":5.42659,"is_reserved":false,"is_disabled":false,"rental_uris":{"android":"levelo://app?vid=fed241b2-e735-4747-b489-a5a38fde5767","ios":"levelo://app?vid=fed241b2-e735-4747-b489-a5a38fde5767"},"vehicle_type_id":"4","last_reported":1753366413,"current_range_meters":16400,"station_id":"","pricing_plan_id":"cebpf4jnsgd1na2vs0mg"},{"bike_id":"5cc79cad-ddd8-405c-b9fe-aa1994994947","system_id":"levelo_inurba_marseille","lat":43.26501,"lon":5.39545,"is_reserved":false,"is_disabled":false,"rental_uris":{"android":"levelo://app?vid=5cc79cad-ddd8-405c-b9fe-aa1994994947","ios":"levelo://app?vid=5cc79cad-ddd8-405c-b9fe-aa1994994947"},"vehicle_type_id":"4","last_reported":1753366413,"current_range_meters":16400,"station_id":"ce4bhi12rcd13ifvqfq0","pricing_plan_id":"cebpf4jnsgd1na2vs0mg"},{"bike_id":"df52031d-f6ba-4af3-a318-cddaa787b97a","system_id":"levelo_inurba_marseille","lat":43.2708,"lon":5.4025,"is_reserved":false,"is_disabled":false,"rental_uris":{"android":"levelo://app?vid=df52031d-f6ba-4af3-a318-cddaa787b97a","ios":"levelo://app?vid=df52031d-f6ba-4af3-a318-cddaa787b97a"},"vehicle_type_id":"4","last_reported":1753366413,"current_range_meters":16400,"station_id":"ce4bhk92rcd13ifvqgc0","pricing_plan_id":"cebpf4jnsgd1na2vs0mg"},{"bike_id":"0f853751-4264-4f28-a6f5-6e22f8e1306a","system_id":"levelo_inurba_marseille","lat":43.26682,"lon":5.38255,"is_reserved":false,"is_disabled":false,"rental_uris":{"android":"levelo://app?vid=0f853751-4264-4f28-a6f5-6e22f8e1306a","ios":"levelo://app?vid=0f853751-4264-4f28-a6f5-6e22f8e1306a"},"vehicle_type_id":"4","last_reported":1753366413,"current_range_meters":16800,"station_id":"ce4bhg92rcd13ifvqf90","pricing_plan_id":"cebpf4jnsgd1na2vs0mg"},{"bike_id":"3f476ea6-1076-4d17-b694-4fd18686733b","system_id":"levelo_inurba_marseille","lat":43.27387,"lon":5.36245,"is_reserved":false,"is_disabled":false,"rental_uris":{"android":"levelo://app?vid=3f476ea6-1076-4d17-b694-4fd18686733b","ios":"levelo://app?vid=3f476ea6-1076-4d17-b694-4fd18686733b"},"vehicle_type_id":"4","last_reported":1753366413,"current_range_meters":16800,"station_id":"ce4bhbh2rcd13ifvqeo0","pricing_plan_id":"cebpf4jnsgd1na2vs0mg"},{"bike_id":"2f054903-eeef-4b91-a17b-01c1cd620483","system_id":"levelo_inurba_marseille","lat":43.30802,"lon":5.43514,"is_reserved":false,"is_disabled":false,"rental_uris":{"android":"levelo://app?vid=2f054903-eeef-4b91-a17b-01c1cd620483","ios":"levelo://app?vid=2f054903-eeef-4b91-a17b-01c1cd620483"},"vehicle_type_id":"4","last_reported":1753366413,"current_range_meters":16800,"station_id":"ce4bhph2rcd13ifvqheg","pricing_plan_id":"cebpf4jnsgd1na2vs0mg"},{"bike_id":"d28330b7-3532-465d-9f05-ec0f80256bad","system_id":"levelo_inurba_marseille","lat":43.28366,"lon":5.38634,"is_reserved":false,"is_disabled":false,"rental_uris":{"android":"levelo://app?vid=d28330b7-3532-465d-9f05-ec0f80256bad","ios":"levelo://app?vid=d28330b7-3532-465d-9f05-ec0f80256bad"},"vehicle_type_id":"4","last_reported":1753366413,"current_range_meters":16800,"station_id":"ce4bh492rcd13ifvqdvg","pricing_plan_id":"cebpf4jnsgd1na2vs0mg"},{"bike_id":"33ce2ff8-7e21-4229-9288-7ac129269db8","system_id":"levelo_inurba_marseille","lat":43.32083,"lon":5.3681,"is_reserved":false,"is_disabled":false,"rental_uris":{"android":"levelo://app?vid=33ce2ff8-7e21-4229-9288-7ac129269db8","ios":"levelo://app?vid=33ce2ff8-7e21-4229-9288-7ac129269db8"},"vehicle_type_id":"4","last_reported":1753366413,"current_range_meters":16800,"station_id":"ce4bhrh2rcd13ifvqhug","pricing_plan_id":"cebpf4jnsgd1na2vs0mg"},{"bike_id":"b63fe642-bd9e-4013-ae42-013ef1c942d5","system_id":"levelo_inurba_marseille","lat":43.26682,"lon":5.38267,"is_reserved":false,"is_disabled":false,"rental_uris":{"android":"levelo://app?vid=b63fe642-bd9e-4013-ae42-013ef1c942d5","ios":"levelo://app?vid=b63fe642-bd9e-4013-ae42-013ef1c942d5"},"vehicle_type_id":"4","last_reported":1753366413,"current_range_meters":16800,"station_id":"ce4bhg92rcd13ifvqf90","pricing_plan_id":"cebpf4jnsgd1na2vs0mg"},{"bike_id":"8bf2041f-a165-47bf-84f1-41526695fbf0","system_id":"levelo_inurba_marseille","lat":43.24152,"lon":5.36401,"is_reserved":false,"is_disabled":false,"rental_uris":{"android":"levelo://app?vid=8bf2041f-a165-47bf-84f1-41526695fbf0","ios":"levelo://app?vid=8bf2041f-a165-47bf-84f1-41526695fbf0"},"vehicle_type_id":"4","last_reported":1753366413,"current_range_meters":16800,"station_id":"cpo36qri1sfpv3e86is0","pricing_plan_id":"cebpf4jnsgd1na2vs0mg"},{"bike_id":"be1112aa-92c6-4f71-9978-f794b04ae2fe","system_id":"levelo_inurba_marseille","lat":43.27824,"lon":5.40686,"is_reserved":false,"is_disabled":false,"rental_uris":{"android":"levelo://app?vid=be1112aa-92c6-4f71-9978-f794b04ae2fe","ios":"levelo://app?vid=be1112aa-92c6-4f71-9978-f794b04ae2fe"},"vehicle_type_id":"4","last_reported":1753366413,"current_range_meters":16800,"station_id":"ce4bhnh2rcd13ifvqgtg","pricing_plan_id":"cebpf4jnsgd1na2vs0mg"},{"bike_id":"784eeebd-2893-4f27-84ae-c797089b4166","system_id":"levelo_inurba_marseille","lat":43.22503,"lon":5.3478,"is_reserved":false,"is_disabled":false,"rental_uris":{"android":"levelo://app?vid=784eeebd-2893-4f27-84ae-c797089b4166","ios":"levelo://app?vid=784eeebd-2893-4f27-84ae-c797089b4166"},"vehicle_type_id":"4","last_reported":1753366413,"current_range_meters":16800,"station_id":"st_cvj5dfep6f1abm77gieg","pricing_plan_id":"cebpf4jnsgd1na2vs0mg"},{"bike_id":"d2c1d56d-6a3a-4ae3-b7ab-84022ad7ad84","system_id":"levelo_inurba_marseille","lat":43.29827,"lon":5.37614,"is_reserved":false,"is_disabled":false,"rental_uris":{"android":"levelo://app?vid=d2c1d56d-6a3a-4ae3-b7ab-84022ad7ad84","ios":"levelo://app?vid=d2c1d56d-6a3a-4ae3-b7ab-84022ad7ad84"},"vehicle_type_id":"4","last_reported":1753366413,"current_range_meters":16800,"station_id":"","pricing_plan_id":"cebpf4jnsgd1na2vs0mg"},{"bike_id":"8f7a5e30-a046-42c3-a3a9-e03495e165bb","system_id":"levelo_inurba_marseille","lat":43.28265,"lon":5.35058,"is_reserved":false,"is_disabled":false,"rental_uris":{"android":"levelo://app?vid=8f7a5e30-a046-42c3-a3a9-e03495e165bb","ios":"levelo://app?vid=8f7a5e30-a046-42c3-a3a9-e03495e165bb"},"vehicle_type_id":"4","last_reported":1753366413,"current_range_meters":16800,"station_id":"ce4bhbp2rcd13ifvqerg","pricing_plan_id":"cebpf4jnsgd1na2vs0mg"},{"bike_id":"f2ca3887-7e82-498b-8c49-e80cd18a3051","system_id":"levelo_inurba_marseille","lat":43.23954,"lon":5.3665,"is_reserved":false,"is_disabled":false,"rental_uris":{"android":"levelo://app?vid=f2ca3887-7e82-498b-8c49-e80cd18a3051","ios":"levelo://app?vid=f2ca3887-7e82-498b-8c49-e80cd18a3051"},"vehicle_type_id":"4","last_reported":1753366413,"current_range_meters":17200,"station_id":"ce4bhi12rcd13ifvqfp0","pricing_plan_id":"cebpf4jnsgd1na2vs0mg"},{"bike_id":"cf776233-7766-4109-aadc-a0d3c334d400","system_id":"levelo_inurba_marseille","lat":43.24066,"lon":5.37744,"is_reserved":false,"is_disabled":false,"rental_uris":{"android":"levelo://app?vid=cf776233-7766-4109-aadc-a0d3c334d400","ios":"levelo://app?vid=cf776233-7766-4109-aadc-a0d3c334d400"},"vehicle_type_id":"4","last_reported":1753366413,"current_range_meters":17200,"station_id":"ce4bhnp2rcd13ifvqgvg","pricing_plan_id":"cebpf4jnsgd1na2vs0mg"},{"bike_id":"72395ef7-f2d0-4336-a74d-d88b6ab9722b","system_id":"levelo_inurba_marseille","lat":43.27609,"lon":5.36116,"is_reserved":false,"is_disabled":false,"rental_uris":{"android":"levelo://app?vid=72395ef7-f2d0-4336-a74d-d88b6ab9722b","ios":"levelo://app?vid=72395ef7-f2d0-4336-a74d-d88b6ab9722b"},"vehicle_type_id":"4","last_reported":1753366413,"current_range_meters":17200,"station_id":"ce4bgj92rcd13ifvqbe0","pricing_plan_id":"cebpf4jnsgd1na2vs0mg"},{"bike_id":"4b8efed3-9e53-47c8-bfa4-f1fb0beb03b1","system_id":"levelo_inurba_marseille","lat":43.29569,"lon":5.3675,"is_reserved":false,"is_disabled":false,"rental_uris":{"android":"levelo://app?vid=4b8efed3-9e53-47c8-bfa4-f1fb0beb03b1","ios":"levelo://app?vid=4b8efed3-9e53-47c8-bfa4-f1fb0beb03b1"},"vehicle_type_id":"4","last_reported":1753366413,"current_range_meters":17200,"station_id":"ce4bgph2rcd13ifvqc2g","pricing_plan_id":"cebpf4jnsgd1na2vs0mg"},{"bike_id":"5699dca2-a7f5-4ca6-84ed-f3b3dce17aa8","system_id":"levelo_inurba_marseille","lat":43.30452,"lon":5.37938,"is_reserved":false,"is_disabled":false,"rental_uris":{"android":"levelo://app?vid=5699dca2-a7f5-4ca6-84ed-f3b3dce17aa8","ios":"levelo://app?vid=5699dca2-a7f5-4ca6-84ed-f3b3dce17aa8"},"vehicle_type_id":"4","last_reported":1753366413,"current_range_meters":17200,"station_id":"ce4bgup2rcd13ifvqcn0","pricing_plan_id":"cebpf4jnsgd1na2vs0mg"},{"bike_id":"d8ab8225-ebfc-48f1-9981-f15e3b9960ea","system_id":"levelo_inurba_marseille","lat":43.2292,"lon":5.35367,"is_reserved":false,"is_disabled":false,"rental_uris":{"android":"levelo://app?vid=d8ab8225-ebfc-48f1-9981-f15e3b9960ea","ios":"levelo://app?vid=d8ab8225-ebfc-48f1-9981-f15e3b9960ea"},"vehicle_type_id":"4","last_reported":1753366413,"current_range_meters":17200,"station_id":"cpo3532slgdg3j2ikp40","pricing_plan_id":"cebpf4jnsgd1na2vs0mg"},{"bike_id":"725258fa-3253-4059-87e9-15cab3ee3064","system_id":"levelo_inurba_marseille","lat":43.25085,"lon":5.3952,"is_reserved":false,"is_disabled":false,"rental_uris":{"android":"levelo://app?vid=725258fa-3253-4059-87e9-15cab3ee3064","ios":"levelo://app?vid=725258fa-3253-4059-87e9-15cab3ee3064"},"vehicle_type_id":"4","last_reported":1753366413,"current_range_meters":17200,"station_id":"ce4bhm12rcd13ifvqgkg","pricing_plan_id":"cebpf4jnsgd1na2vs0mg"},{"bike_id":"481351de-e3d5-4a6f-aa67-c1762e7ed223","system_id":"levelo_inurba_marseille","lat":43.27066,"lon":5.42266,"is_reserved":false,"is_disabled":false,"rental_uris":{"android":"levelo://app?vid=481351de-e3d5-4a6f-aa67-c1762e7ed223","ios":"levelo://app?vid=481351de-e3d5-4a6f-aa67-c1762e7ed223"},"vehicle_type_id":"4","last_reported":1753366413,"current_range_meters":17200,"station_id":"ce4bhk92rcd13ifvqgb0","pricing_plan_id":"cebpf4jnsgd1na2vs0mg"},{"bike_id":"0a7e2862-d8ec-4c77-89d9-cfcdd51f8d75","system_id":"levelo_inurba_marseille","lat":43.31264,"lon":5.37894,"is_reserved":false,"is_disabled":false,"rental_uris":{"android":"levelo://app?vid=0a7e2862-d8ec-4c77-89d9-cfcdd51f8d75","ios":"levelo://app?vid=0a7e2862-d8ec-4c77-89d9-cfcdd51f8d75"},"vehicle_type_id":"4","last_reported":1753366413,"current_range_meters":17200,"station_id":"","pricing_plan_id":"cebpf4jnsgd1na2vs0mg"},{"bike_id":"9e71a50e-df43-4a48-bc37-13460235be7b","system_id":"levelo_inurba_marseille","lat":43.24141,"lon":5.36421,"is_reserved":false,"is_disabled":false,"rental_uris":{"android":"levelo://app?vid=9e71a50e-df43-4a48-bc37-13460235be7b","ios":"levelo://app?vid=9e71a50e-df43-4a48-bc37-13460235be7b"},"vehicle_type_id":"4","last_reported":1753366413,"current_range_meters":17200,"station_id":"cpo36qri1sfpv3e86is0","pricing_plan_id":"cebpf4jnsgd1na2vs0mg"},{"bike_id":"7f33933d-5f7a-4438-a8a5-8c9a670a9743","system_id":"levelo_inurba_marseille","lat":43.29529,"lon":5.38551,"is_reserved":false,"is_disabled":false,"rental_uris":{"android":"levelo://app?vid=7f33933d-5f7a-4438-a8a5-8c9a670a9743","ios":"levelo://app?vid=7f33933d-5f7a-4438-a8a5-8c9a670a9743"},"vehicle_type_id":"4","last_reported":1753366413,"current_range_meters":17600,"station_id":"ce4bgih2rcd13ifvqba0","pricing_plan_id":"cebpf4jnsgd1na2vs0mg"},{"bike_id":"0c521b94-f5ab-4996-b214-e39582733139","system_id":"levelo_inurba_marseille","lat":43.30147,"lon":5.38085,"is_reserved":false,"is_disabled":false,"rental_uris":{"android":"levelo://app?vid=0c521b94-f5ab-4996-b214-e39582733139","ios":"levelo://app?vid=0c521b94-f5ab-4996-b214-e39582733139"},"vehicle_type_id":"4","last_reported":1753366413,"current_range_meters":17600,"station_id":"ce4bgjp2rcd13ifvqbh0","pricing_plan_id":"cebpf4jnsgd1na2vs0mg"},{"bike_id":"9af4159e-0d11-46d1-a2b0-2ee39fad0e85","system_id":"levelo_inurba_marseille","lat":43.28495,"lon":5.38574,"is_reserved":false,"is_disabled":false,"rental_uris":{"android":"levelo://app?vid=9af4159e-0d11-46d1-a2b0-2ee39fad0e85","ios":"levelo://app?vid=9af4159e-0d11-46d1-a2b0-2ee39fad0e85"},"vehicle_type_id":"4","last_reported":1753366413,"current_range_meters":17600,"station_id":"ce4bh8p2rcd13ifvqeb0","pricing_plan_id":"cebpf4jnsgd1na2vs0mg"},{"bike_id":"ce193c8e-90e0-4599-95e2-d02b7d163b03","system_id":"levelo_inurba_marseille","lat":43.24084,"lon":5.37749,"is_reserved":false,"is_disabled":false,"rental_uris":{"android":"levelo://app?vid=ce193c8e-90e0-4599-95e2-d02b7d163b03","ios":"levelo://app?vid=ce193c8e-90e0-4599-95e2-d02b7d163b03"},"vehicle_type_id":"4","last_reported":1753366413,"current_range_meters":17600,"station_id":"ce4bhnp2rcd13ifvqgvg","pricing_plan_id":"cebpf4jnsgd1na2vs0mg"},{"bike_id":"0aca8709-ed97-4e7c-96dc-d1aaa82865d8","system_id":"levelo_inurba_marseille","lat":43.30557,"lon":5.36547,"is_reserved":false,"is_disabled":false,"rental_uris":{"android":"levelo://app?vid=0aca8709-ed97-4e7c-96dc-d1aaa82865d8","ios":"levelo://app?vid=0aca8709-ed97-4e7c-96dc-d1aaa82865d8"},"vehicle_type_id":"4","last_reported":1753366413,"current_range_meters":17600,"station_id":"ce4bgs12rcd13ifvqcag","pricing_plan_id":"cebpf4jnsgd1na2vs0mg"},{"bike_id":"f78b69a5-7f99-469b-9809-db12b867eb2e","system_id":"levelo_inurba_marseille","lat":43.24172,"lon":5.36412,"is_reserved":false,"is_disabled":false,"rental_uris":{"android":"levelo://app?vid=f78b69a5-7f99-469b-9809-db12b867eb2e","ios":"levelo://app?vid=f78b69a5-7f99-469b-9809-db12b867eb2e"},"vehicle_type_id":"4","last_reported":1753366413,"current_range_meters":17600,"station_id":"cpo36qri1sfpv3e86is0","pricing_plan_id":"cebpf4jnsgd1na2vs0mg"},{"bike_id":"fbfc1149-67e0-46e5-b388-0aa702993564","system_id":"levelo_inurba_marseille","lat":43.278138,"lon":5.407191,"is_reserved":false,"is_disabled":false,"rental_uris":{"android":"levelo://app?vid=fbfc1149-67e0-46e5-b388-0aa702993564","ios":"levelo://app?vid=fbfc1149-67e0-46e5-b388-0aa702993564"},"vehicle_type_id":"4","last_reported":1753366413,"current_range_meters":17600,"station_id":"ce4bhnh2rcd13ifvqgtg","pricing_plan_id":"cebpf4jnsgd1na2vs0mg"},{"bike_id":"b87bd334-0c95-4bf6-8abd-73fc6afd2d09","system_id":"levelo_inurba_marseille","lat":43.28154,"lon":5.42644,"is_reserved":false,"is_disabled":false,"rental_uris":{"android":"levelo://app?vid=b87bd334-0c95-4bf6-8abd-73fc6afd2d09","ios":"levelo://app?vid=b87bd334-0c95-4bf6-8abd-73fc6afd2d09"},"vehicle_type_id":"4","last_reported":1753366413,"current_range_meters":17600,"station_id":"ce4bhnh2rcd13ifvqgug","pricing_plan_id":"cebpf4jnsgd1na2vs0mg"},{"bike_id":"ad25e224-b15c-4949-92a3-53289b1bd1fb","system_id":"levelo_inurba_marseille","lat":43.28785,"lon":5.38485,"is_reserved":false,"is_disabled":false,"rental_uris":{"android":"levelo://app?vid=ad25e224-b15c-4949-92a3-53289b1bd1fb","ios":"levelo://app?vid=ad25e224-b15c-4949-92a3-53289b1bd1fb"},"vehicle_type_id":"4","last_reported":1753366413,"current_range_meters":17600,"station_id":"","pricing_plan_id":"cebpf4jnsgd1na2vs0mg"},{"bike_id":"c219c504-2e0a-41f2-910d-f21824e69e7b","system_id":"levelo_inurba_marseille","lat":43.29966,"lon":5.37188,"is_reserved":false,"is_disabled":false,"rental_uris":{"android":"levelo://app?vid=c219c504-2e0a-41f2-910d-f21824e69e7b","ios":"levelo://app?vid=c219c504-2e0a-41f2-910d-f21824e69e7b"},"vehicle_type_id":"4","last_reported":1753366413,"current_range_meters":17600,"station_id":"ce4bgr92rcd13ifvqc7g","pricing_plan_id":"cebpf4jnsgd1na2vs0mg"},{"bike_id":"b63b11be-5ecd-48c8-a48d-2b0558b136c7","system_id":"levelo_inurba_marseille","lat":43.29208,"lon":5.36062,"is_reserved":false,"is_disabled":false,"rental_uris":{"android":"levelo://app?vid=b63b11be-5ecd-48c8-a48d-2b0558b136c7","ios":"levelo://app?vid=b63b11be-5ecd-48c8-a48d-2b0558b136c7"},"vehicle_type_id":"4","last_reported":1753366413,"current_range_meters":17600,"station_id":"ce4bhbh2rcd13ifvqeqg","pricing_plan_id":"cebpf4jnsgd1na2vs0mg"},{"bike_id":"53a26903-464f-4fc4-9933-61532f3dde60","system_id":"levelo_inurba_marseille","lat":43.26564,"lon":5.37264,"is_reserved":false,"is_disabled":false,"rental_uris":{"android":"levelo://app?vid=53a26903-464f-4fc4-9933-61532f3dde60","ios":"levelo://app?vid=53a26903-464f-4fc4-9933-61532f3dde60"},"vehicle_type_id":"4","last_reported":1753366413,"current_range_meters":17600,"station_id":"ce4bhg12rcd13ifvqf70","pricing_plan_id":"cebpf4jnsgd1na2vs0mg"},{"bike_id":"bfddca7c-3825-4dd2-81c9-335257a69f7c","system_id":"levelo_inurba_marseille","lat":43.2956,"lon":5.36771,"is_reserved":false,"is_disabled":false,"rental_uris":{"android":"levelo://app?vid=bfddca7c-3825-4dd2-81c9-335257a69f7c","ios":"levelo://app?vid=bfddca7c-3825-4dd2-81c9-335257a69f7c"},"vehicle_type_id":"4","last_reported":1753366413,"current_range_meters":18000,"station_id":"ce4bgph2rcd13ifvqc2g","pricing_plan_id":"cebpf4jnsgd1na2vs0mg"},{"bike_id":"5b7c266b-8571-4e49-9c6d-e2a9d8a2e0f0","system_id":"levelo_inurba_marseille","lat":43.28269,"lon":5.35057,"is_reserved":false,"is_disabled":false,"rental_uris":{"android":"levelo://app?vid=5b7c266b-8571-4e49-9c6d-e2a9d8a2e0f0","ios":"levelo://app?vid=5b7c266b-8571-4e49-9c6d-e2a9d8a2e0f0"},"vehicle_type_id":"4","last_reported":1753366413,"current_range_meters":18000,"station_id":"ce4bhbp2rcd13ifvqerg","pricing_plan_id":"cebpf4jnsgd1na2vs0mg"},{"bike_id":"79597245-4927-4a2f-8a8c-03cba035a372","system_id":"levelo_inurba_marseille","lat":43.305504,"lon":5.365673,"is_reserved":false,"is_disabled":false,"rental_uris":{"android":"levelo://app?vid=79597245-4927-4a2f-8a8c-03cba035a372","ios":"levelo://app?vid=79597245-4927-4a2f-8a8c-03cba035a372"},"vehicle_type_id":"4","last_reported":1753366413,"current_range_meters":18000,"station_id":"ce4bgs12rcd13ifvqcag","pricing_plan_id":"cebpf4jnsgd1na2vs0mg"},{"bike_id":"74054fd4-1ac3-4c18-b1e8-192aa565524c","system_id":"levelo_inurba_marseille","lat":43.28407,"lon":5.35008,"is_reserved":false,"is_disabled":false,"rental_uris":{"android":"levelo://app?vid=74054fd4-1ac3-4c18-b1e8-192aa565524c","ios":"levelo://app?vid=74054fd4-1ac3-4c18-b1e8-192aa565524c"},"vehicle_type_id":"4","last_reported":1753366413,"current_range_meters":18000,"station_id":"ce4bhbh2rcd13ifvqepg","pricing_plan_id":"cebpf4jnsgd1na2vs0mg"},{"bike_id":"27697668-04e4-455b-9ffa-2b0efdbc7732","system_id":"levelo_inurba_marseille","lat":43.309479,"lon":5.390409,"is_reserved":false,"is_disabled":false,"rental_uris":{"android":"levelo://app?vid=27697668-04e4-455b-9ffa-2b0efdbc7732","ios":"levelo://app?vid=27697668-04e4-455b-9ffa-2b0efdbc7732"},"vehicle_type_id":"4","last_reported":1753366413,"current_range_meters":18000,"station_id":"ce4bgup2rcd13ifvqco0","pricing_plan_id":"cebpf4jnsgd1na2vs0mg"},{"bike_id":"63528655-4c40-4fcc-8314-12718c6dc52f","system_id":"levelo_inurba_marseille","lat":43.292984,"lon":5.374658,"is_reserved":false,"is_disabled":false,"rental_uris":{"android":"levelo://app?vid=63528655-4c40-4fcc-8314-12718c6dc52f","ios":"levelo://app?vid=63528655-4c40-4fcc-8314-12718c6dc52f"},"vehicle_type_id":"4","last_reported":1753366413,"current_range_meters":18000,"station_id":"ce4bgi12rcd13ifvqb70","pricing_plan_id":"cebpf4jnsgd1na2vs0mg"},{"bike_id":"261d4bb0-7bb9-4c80-93f3-cd6f68b7285e","system_id":"levelo_inurba_marseille","lat":43.31507,"lon":5.36915,"is_reserved":false,"is_disabled":false,"rental_uris":{"android":"levelo://app?vid=261d4bb0-7bb9-4c80-93f3-cd6f68b7285e","ios":"levelo://app?vid=261d4bb0-7bb9-4c80-93f3-cd6f68b7285e"},"vehicle_type_id":"4","last_reported":1753366413,"current_range_meters":18000,"station_id":"","pricing_plan_id":"cebpf4jnsgd1na2vs0mg"},{"bike_id":"22832dd9-6f40-41f0-84f7-20d5b045fc09","system_id":"levelo_inurba_marseille","lat":43.30374,"lon":5.42485,"is_reserved":false,"is_disabled":false,"rental_uris":{"android":"levelo://app?vid=22832dd9-6f40-41f0-84f7-20d5b045fc09","ios":"levelo://app?vid=22832dd9-6f40-41f0-84f7-20d5b045fc09"},"vehicle_type_id":"4","last_reported":1753366413,"current_range_meters":18000,"station_id":"ce4bhoh2rcd13ifvqh6g","pricing_plan_id":"cebpf4jnsgd1na2vs0mg"},{"bike_id":"bab97426-a069-4280-bcb3-813bad88fc20","system_id":"levelo_inurba_marseille","lat":43.30789,"lon":5.3765,"is_reserved":false,"is_disabled":false,"rental_uris":{"android":"levelo://app?vid=bab97426-a069-4280-bcb3-813bad88fc20","ios":"levelo://app?vid=bab97426-a069-4280-bcb3-813bad88fc20"},"vehicle_type_id":"4","last_reported":1753366413,"current_range_meters":17600,"station_id":"ce4bgv92rcd13ifvqcq0","pricing_plan_id":"cebpf4jnsgd1na2vs0mg"},{"bike_id":"1190a6a6-e0cc-4ff3-b3e2-3e7074b6085c","system_id":"levelo_inurba_marseille","lat":43.30915,"lon":5.36869,"is_reserved":false,"is_disabled":false,"rental_uris":{"android":"levelo://app?vid=1190a6a6-e0cc-4ff3-b3e2-3e7074b6085c","ios":"levelo://app?vid=1190a6a6-e0cc-4ff3-b3e2-3e7074b6085c"},"vehicle_type_id":"4","last_reported":1753366413,"current_range_meters":18000,"station_id":"ce4bgn92rcd13ifvqbvg","pricing_plan_id":"cebpf4jnsgd1na2vs0mg"},{"bike_id":"562cda51-6e5d-41ef-8ee5-4bc2adad5275","system_id":"levelo_inurba_marseille","lat":43.31208,"lon":5.36888,"is_reserved":false,"is_disabled":false,"rental_uris":{"android":"levelo://app?vid=562cda51-6e5d-41ef-8ee5-4bc2adad5275","ios":"levelo://app?vid=562cda51-6e5d-41ef-8ee5-4bc2adad5275"},"vehicle_type_id":"4","last_reported":1753366413,"current_range_meters":18800,"station_id":"ce4bgl92rcd13ifvqbq0","pricing_plan_id":"cebpf4jnsgd1na2vs0mg"},{"bike_id":"6d162757-3924-4476-9818-84d10836cd88","system_id":"levelo_inurba_marseille","lat":43.31274,"lon":5.3686,"is_reserved":false,"is_disabled":false,"rental_uris":{"android":"levelo://app?vid=6d162757-3924-4476-9818-84d10836cd88","ios":"levelo://app?vid=6d162757-3924-4476-9818-84d10836cd88"},"vehicle_type_id":"4","last_reported":1753366413,"current_range_meters":18800,"station_id":"","pricing_plan_id":"cebpf4jnsgd1na2vs0mg"},{"bike_id":"184dd696-a175-47ac-8af1-548fdbc31847","system_id":"levelo_inurba_marseille","lat":43.30553,"lon":5.36519,"is_reserved":false,"is_disabled":false,"rental_uris":{"android":"levelo://app?vid=184dd696-a175-47ac-8af1-548fdbc31847","ios":"levelo://app?vid=184dd696-a175-47ac-8af1-548fdbc31847"},"vehicle_type_id":"4","last_reported":1753366413,"current_range_meters":18800,"station_id":"ce4bgs12rcd13ifvqcag","pricing_plan_id":"cebpf4jnsgd1na2vs0mg"},{"bike_id":"21bb3fef-81ef-46bb-a48d-d85402757c94","system_id":"levelo_inurba_marseille","lat":43.25447,"lon":5.37988,"is_reserved":false,"is_disabled":false,"rental_uris":{"android":"levelo://app?vid=21bb3fef-81ef-46bb-a48d-d85402757c94","ios":"levelo://app?vid=21bb3fef-81ef-46bb-a48d-d85402757c94"},"vehicle_type_id":"4","last_reported":1753366413,"current_range_meters":18800,"station_id":"","pricing_plan_id":"cebpf4jnsgd1na2vs0mg"},{"bike_id":"e49783ee-e655-4842-ad5d-b49e1095813f","system_id":"levelo_inurba_marseille","lat":43.302155,"lon":5.394635,"is_reserved":false,"is_disabled":false,"rental_uris":{"android":"levelo://app?vid=e49783ee-e655-4842-ad5d-b49e1095813f","ios":"levelo://app?vid=e49783ee-e655-4842-ad5d-b49e1095813f"},"vehicle_type_id":"4","last_reported":1753366413,"current_range_meters":18800,"station_id":"ce4bh0p2rcd13ifvqd70","pricing_plan_id":"cebpf4jnsgd1na2vs0mg"},{"bike_id":"1e9cf983-3afc-4620-a4d4-2dd094704fd1","system_id":"levelo_inurba_marseille","lat":43.22502,"lon":5.34777,"is_reserved":false,"is_disabled":false,"rental_uris":{"android":"levelo://app?vid=1e9cf983-3afc-4620-a4d4-2dd094704fd1","ios":"levelo://app?vid=1e9cf983-3afc-4620-a4d4-2dd094704fd1"},"vehicle_type_id":"4","last_reported":1753366413,"current_range_meters":18800,"station_id":"st_cvj5dfep6f1abm77gieg","pricing_plan_id":"cebpf4jnsgd1na2vs0mg"},{"bike_id":"3b49f3d3-2239-4b9a-9d11-1b44f5b8fade","system_id":"levelo_inurba_marseille","lat":43.2842,"lon":5.34975,"is_reserved":false,"is_disabled":false,"rental_uris":{"android":"levelo://app?vid=3b49f3d3-2239-4b9a-9d11-1b44f5b8fade","ios":"levelo://app?vid=3b49f3d3-2239-4b9a-9d11-1b44f5b8fade"},"vehicle_type_id":"4","last_reported":1753366413,"current_range_meters":18800,"station_id":"ce4bhbh2rcd13ifvqepg","pricing_plan_id":"cebpf4jnsgd1na2vs0mg"},{"bike_id":"dddbef83-b47e-460f-a4ac-beade05833f1","system_id":"levelo_inurba_marseille","lat":43.22955,"lon":5.35362,"is_reserved":false,"is_disabled":false,"rental_uris":{"android":"levelo://app?vid=dddbef83-b47e-460f-a4ac-beade05833f1","ios":"levelo://app?vid=dddbef83-b47e-460f-a4ac-beade05833f1"},"vehicle_type_id":"4","last_reported":1753366413,"current_range_meters":18800,"station_id":"cpo3532slgdg3j2ikp40","pricing_plan_id":"cebpf4jnsgd1na2vs0mg"},{"bike_id":"c1a88a2e-abf4-41fd-9b3b-6c4ca381ee71","system_id":"levelo_inurba_marseille","lat":43.28485,"lon":5.38555,"is_reserved":false,"is_disabled":false,"rental_uris":{"android":"levelo://app?vid=c1a88a2e-abf4-41fd-9b3b-6c4ca381ee71","ios":"levelo://app?vid=c1a88a2e-abf4-41fd-9b3b-6c4ca381ee71"},"vehicle_type_id":"4","last_reported":1753366413,"current_range_meters":18800,"station_id":"ce4bh8p2rcd13ifvqeb0","pricing_plan_id":"cebpf4jnsgd1na2vs0mg"},{"bike_id":"3105b080-eaef-462f-9090-9fad060b9946","system_id":"levelo_inurba_marseille","lat":43.25576,"lon":5.38237,"is_reserved":false,"is_disabled":false,"rental_uris":{"android":"levelo://app?vid=3105b080-eaef-462f-9090-9fad060b9946","ios":"levelo://app?vid=3105b080-eaef-462f-9090-9fad060b9946"},"vehicle_type_id":"4","last_reported":1753366413,"current_range_meters":18800,"station_id":"ce4bhih2rcd13ifvqfs0","pricing_plan_id":"cebpf4jnsgd1na2vs0mg"},{"bike_id":"43f2fc14-b940-4999-b57f-316adfa27f99","system_id":"levelo_inurba_marseille","lat":43.28613,"lon":5.35097,"is_reserved":false,"is_disabled":false,"rental_uris":{"android":"levelo://app?vid=43f2fc14-b940-4999-b57f-316adfa27f99","ios":"levelo://app?vid=43f2fc14-b940-4999-b57f-316adfa27f99"},"vehicle_type_id":"4","last_reported":1753366413,"current_range_meters":18800,"station_id":"ce4bhch2rcd13ifvqeug","pricing_plan_id":"cebpf4jnsgd1na2vs0mg"},{"bike_id":"975621b1-02b2-43ba-95e3-5e639ac7a8db","system_id":"levelo_inurba_marseille","lat":43.28142,"lon":5.42667,"is_reserved":false,"is_disabled":false,"rental_uris":{"android":"levelo://app?vid=975621b1-02b2-43ba-95e3-5e639ac7a8db","ios":"levelo://app?vid=975621b1-02b2-43ba-95e3-5e639ac7a8db"},"vehicle_type_id":"4","last_reported":1753366413,"current_range_meters":19200,"station_id":"ce4bhnh2rcd13ifvqgug","pricing_plan_id":"cebpf4jnsgd1na2vs0mg"},{"bike_id":"5ad35651-fcd6-4266-8eb1-ea22795ba2f3","system_id":"levelo_inurba_marseille","lat":43.28863,"lon":5.35849,"is_reserved":false,"is_disabled":false,"rental_uris":{"android":"levelo://app?vid=5ad35651-fcd6-4266-8eb1-ea22795ba2f3","ios":"levelo://app?vid=5ad35651-fcd6-4266-8eb1-ea22795ba2f3"},"vehicle_type_id":"4","last_reported":1753366413,"current_range_meters":19200,"station_id":"ce4bhb12rcd13ifvqem0","pricing_plan_id":"cebpf4jnsgd1na2vs0mg"},{"bike_id":"3bba2034-46e3-49ff-b61e-4973ef75d793","system_id":"levelo_inurba_marseille","lat":43.305775,"lon":5.372765,"is_reserved":false,"is_disabled":false,"rental_uris":{"android":"levelo://app?vid=3bba2034-46e3-49ff-b61e-4973ef75d793","ios":"levelo://app?vid=3bba2034-46e3-49ff-b61e-4973ef75d793"},"vehicle_type_id":"4","last_reported":1753366413,"current_range_meters":19200,"station_id":"ce4bgqh2rcd13ifvqc4g","pricing_plan_id":"cebpf4jnsgd1na2vs0mg"},{"bike_id":"3f2dbf2a-1d98-4e0d-b123-8f657b18517e","system_id":"levelo_inurba_marseille","lat":43.284197,"lon":5.349788,"is_reserved":false,"is_disabled":false,"rental_uris":{"android":"levelo://app?vid=3f2dbf2a-1d98-4e0d-b123-8f657b18517e","ios":"levelo://app?vid=3f2dbf2a-1d98-4e0d-b123-8f657b18517e"},"vehicle_type_id":"4","last_reported":1753366413,"current_range_meters":19600,"station_id":"ce4bhbh2rcd13ifvqepg","pricing_plan_id":"cebpf4jnsgd1na2vs0mg"},{"bike_id":"fd13a871-6a7c-45ab-8193-0aedb29a36fc","system_id":"levelo_inurba_marseille","lat":43.2653,"lon":5.3731,"is_reserved":false,"is_disabled":false,"rental_uris":{"android":"levelo://app?vid=fd13a871-6a7c-45ab-8193-0aedb29a36fc","ios":"levelo://app?vid=fd13a871-6a7c-45ab-8193-0aedb29a36fc"},"vehicle_type_id":"4","last_reported":1753366413,"current_range_meters":19600,"station_id":"ce4bhg12rcd13ifvqf70","pricing_plan_id":"cebpf4jnsgd1na2vs0mg"},{"bike_id":"2fccc2eb-9347-4473-9fe6-3e5d25fd717a","system_id":"levelo_inurba_marseille","lat":43.33769,"lon":5.37421,"is_reserved":false,"is_disabled":false,"rental_uris":{"android":"levelo://app?vid=2fccc2eb-9347-4473-9fe6-3e5d25fd717a","ios":"levelo://app?vid=2fccc2eb-9347-4473-9fe6-3e5d25fd717a"},"vehicle_type_id":"4","last_reported":1753366413,"current_range_meters":19600,"station_id":"","pricing_plan_id":"cebpf4jnsgd1na2vs0mg"},{"bike_id":"b3893c8d-2316-46af-830a-60d6f781cba3","system_id":"levelo_inurba_marseille","lat":43.225098,"lon":5.347853,"is_reserved":false,"is_disabled":false,"rental_uris":{"android":"levelo://app?vid=b3893c8d-2316-46af-830a-60d6f781cba3","ios":"levelo://app?vid=b3893c8d-2316-46af-830a-60d6f781cba3"},"vehicle_type_id":"4","last_reported":1753366413,"current_range_meters":19600,"station_id":"st_cvj5dfep6f1abm77gieg","pricing_plan_id":"cebpf4jnsgd1na2vs0mg"},{"bike_id":"43d4035e-c519-4587-b8e6-2bcf124a8988","system_id":"levelo_inurba_marseille","lat":43.2738,"lon":5.36257,"is_reserved":false,"is_disabled":false,"rental_uris":{"android":"levelo://app?vid=43d4035e-c519-4587-b8e6-2bcf124a8988","ios":"levelo://app?vid=43d4035e-c519-4587-b8e6-2bcf124a8988"},"vehicle_type_id":"4","last_reported":1753366413,"current_range_meters":19600,"station_id":"ce4bhbh2rcd13ifvqeo0","pricing_plan_id":"cebpf4jnsgd1na2vs0mg"},{"bike_id":"99f807c3-9fc9-4f5f-96d9-856057738a87","system_id":"levelo_inurba_marseille","lat":43.29526,"lon":5.38543,"is_reserved":false,"is_disabled":false,"rental_uris":{"android":"levelo://app?vid=99f807c3-9fc9-4f5f-96d9-856057738a87","ios":"levelo://app?vid=99f807c3-9fc9-4f5f-96d9-856057738a87"},"vehicle_type_id":"4","last_reported":1753366413,"current_range_meters":19600,"station_id":"ce4bgih2rcd13ifvqba0","pricing_plan_id":"cebpf4jnsgd1na2vs0mg"},{"bike_id":"31c619bb-21e4-4138-81cf-e6e421c0af84","system_id":"levelo_inurba_marseille","lat":43.298743,"lon":5.389042,"is_reserved":false,"is_disabled":false,"rental_uris":{"android":"levelo://app?vid=31c619bb-21e4-4138-81cf-e6e421c0af84","ios":"levelo://app?vid=31c619bb-21e4-4138-81cf-e6e421c0af84"},"vehicle_type_id":"4","last_reported":1753366413,"current_range_meters":19600,"station_id":"ce4bh392rcd13ifvqdl0","pricing_plan_id":"cebpf4jnsgd1na2vs0mg"},{"bike_id":"f2fb42df-b317-4050-9c35-8b2b6533ccf7","system_id":"levelo_inurba_marseille","lat":43.32469,"lon":5.3661,"is_reserved":false,"is_disabled":false,"rental_uris":{"android":"levelo://app?vid=f2fb42df-b317-4050-9c35-8b2b6533ccf7","ios":"levelo://app?vid=f2fb42df-b317-4050-9c35-8b2b6533ccf7"},"vehicle_type_id":"4","last_reported":1753366413,"current_range_meters":19600,"station_id":"ce4bhs12rcd13ifvqhvg","pricing_plan_id":"cebpf4jnsgd1na2vs0mg"},{"bike_id":"36bc4b4e-8e43-4eb5-9ad7-d5a1f44c1153","system_id":"levelo_inurba_marseille","lat":43.2893,"lon":5.36639,"is_reserved":false,"is_disabled":false,"rental_uris":{"android":"levelo://app?vid=36bc4b4e-8e43-4eb5-9ad7-d5a1f44c1153","ios":"levelo://app?vid=36bc4b4e-8e43-4eb5-9ad7-d5a1f44c1153"},"vehicle_type_id":"4","last_reported":1753366413,"current_range_meters":20000,"station_id":"ce4bhap2rcd13ifvqek0","pricing_plan_id":"cebpf4jnsgd1na2vs0mg"},{"bike_id":"259ffe3e-874e-4ae1-8df2-8c0d8b930124","system_id":"levelo_inurba_marseille","lat":43.29564,"lon":5.39989,"is_reserved":false,"is_disabled":false,"rental_uris":{"android":"levelo://app?vid=259ffe3e-874e-4ae1-8df2-8c0d8b930124","ios":"levelo://app?vid=259ffe3e-874e-4ae1-8df2-8c0d8b930124"},"vehicle_type_id":"4","last_reported":1753366413,"current_range_meters":20000,"station_id":"ce4bh312rcd13ifvqdj0","pricing_plan_id":"cebpf4jnsgd1na2vs0mg"},{"bike_id":"9a52c8d9-689c-4537-bd2a-f361d10e32e5","system_id":"levelo_inurba_marseille","lat":43.30513,"lon":5.36688,"is_reserved":false,"is_disabled":false,"rental_uris":{"android":"levelo://app?vid=9a52c8d9-689c-4537-bd2a-f361d10e32e5","ios":"levelo://app?vid=9a52c8d9-689c-4537-bd2a-f361d10e32e5"},"vehicle_type_id":"4","last_reported":1753366413,"current_range_meters":20000,"station_id":"ce4bgrp2rcd13ifvqc9g","pricing_plan_id":"cebpf4jnsgd1na2vs0mg"},{"bike_id":"00fc4696-e72c-4173-9cda-3ffcb5d15efb","system_id":"levelo_inurba_marseille","lat":43.30903,"lon":5.37079,"is_reserved":false,"is_disabled":false,"rental_uris":{"android":"levelo://app?vid=00fc4696-e72c-4173-9cda-3ffcb5d15efb","ios":"levelo://app?vid=00fc4696-e72c-4173-9cda-3ffcb5d15efb"},"vehicle_type_id":"4","last_reported":1753366413,"current_range_meters":20000,"station_id":"ce4bgqh2rcd13ifvqc4g","pricing_plan_id":"cebpf4jnsgd1na2vs0mg"},{"bike_id":"cf321470-3422-4864-a2b3-8e56e10e4f67","system_id":"levelo_inurba_marseille","lat":43.27371,"lon":5.3626,"is_reserved":false,"is_disabled":false,"rental_uris":{"android":"levelo://app?vid=cf321470-3422-4864-a2b3-8e56e10e4f67","ios":"levelo://app?vid=cf321470-3422-4864-a2b3-8e56e10e4f67"},"vehicle_type_id":"4","last_reported":1753366413,"current_range_meters":20000,"station_id":"ce4bhbh2rcd13ifvqeo0","pricing_plan_id":"cebpf4jnsgd1na2vs0mg"},{"bike_id":"1c6f98e7-bffb-444b-98ce-c5a83f3b3c24","system_id":"levelo_inurba_marseille","lat":43.248037,"lon":5.374746,"is_reserved":false,"is_disabled":false,"rental_uris":{"android":"levelo://app?vid=1c6f98e7-bffb-444b-98ce-c5a83f3b3c24","ios":"levelo://app?vid=1c6f98e7-bffb-444b-98ce-c5a83f3b3c24"},"vehicle_type_id":"4","last_reported":1753366413,"current_range_meters":20000,"station_id":"ce4bhgh2rcd13ifvqfb0","pricing_plan_id":"cebpf4jnsgd1na2vs0mg"},{"bike_id":"14ffbbbf-ed70-4da3-a852-d9ce364933d9","system_id":"levelo_inurba_marseille","lat":43.30385,"lon":5.42488,"is_reserved":false,"is_disabled":false,"rental_uris":{"android":"levelo://app?vid=14ffbbbf-ed70-4da3-a852-d9ce364933d9","ios":"levelo://app?vid=14ffbbbf-ed70-4da3-a852-d9ce364933d9"},"vehicle_type_id":"4","last_reported":1753366413,"current_range_meters":20000,"station_id":"ce4bhoh2rcd13ifvqh6g","pricing_plan_id":"cebpf4jnsgd1na2vs0mg"},{"bike_id":"6afc798f-4a06-4994-844e-ef65d6413983","system_id":"levelo_inurba_marseille","lat":43.301238,"lon":5.387855,"is_reserved":false,"is_disabled":false,"rental_uris":{"android":"levelo://app?vid=6afc798f-4a06-4994-844e-ef65d6413983","ios":"levelo://app?vid=6afc798f-4a06-4994-844e-ef65d6413983"},"vehicle_type_id":"4","last_reported":1753366413,"current_range_meters":20000,"station_id":"","pricing_plan_id":"cebpf4jnsgd1na2vs0mg"},{"bike_id":"7df9d1a7-db77-4e76-9f4c-a85eb1778eec","system_id":"levelo_inurba_marseille","lat":43.28853,"lon":5.35868,"is_reserved":false,"is_disabled":false,"rental_uris":{"android":"levelo://app?vid=7df9d1a7-db77-4e76-9f4c-a85eb1778eec","ios":"levelo://app?vid=7df9d1a7-db77-4e76-9f4c-a85eb1778eec"},"vehicle_type_id":"4","last_reported":1753366413,"current_range_meters":20000,"station_id":"ce4bhb12rcd13ifvqem0","pricing_plan_id":"cebpf4jnsgd1na2vs0mg"},{"bike_id":"635d529b-81db-4d95-967c-681543329cb0","system_id":"levelo_inurba_marseille","lat":43.29917,"lon":5.43622,"is_reserved":false,"is_disabled":false,"rental_uris":{"android":"levelo://app?vid=635d529b-81db-4d95-967c-681543329cb0","ios":"levelo://app?vid=635d529b-81db-4d95-967c-681543329cb0"},"vehicle_type_id":"4","last_reported":1753366413,"current_range_meters":20000,"station_id":"ce4bhpp2rcd13ifvqhfg","pricing_plan_id":"cebpf4jnsgd1na2vs0mg"},{"bike_id":"33d3f496-8788-423f-9810-afff50712161","system_id":"levelo_inurba_marseille","lat":43.27378,"lon":5.36262,"is_reserved":false,"is_disabled":false,"rental_uris":{"android":"levelo://app?vid=33d3f496-8788-423f-9810-afff50712161","ios":"levelo://app?vid=33d3f496-8788-423f-9810-afff50712161"},"vehicle_type_id":"4","last_reported":1753366413,"current_range_meters":20000,"station_id":"ce4bhbh2rcd13ifvqeo0","pricing_plan_id":"cebpf4jnsgd1na2vs0mg"},{"bike_id":"4b0331b0-d610-41e3-9cce-dac9f498203d","system_id":"levelo_inurba_marseille","lat":43.32482,"lon":5.365748,"is_reserved":false,"is_disabled":false,"rental_uris":{"android":"levelo://app?vid=4b0331b0-d610-41e3-9cce-dac9f498203d","ios":"levelo://app?vid=4b0331b0-d610-41e3-9cce-dac9f498203d"},"vehicle_type_id":"4","last_reported":1753366413,"current_range_meters":20000,"station_id":"ce4bhs12rcd13ifvqhvg","pricing_plan_id":"cebpf4jnsgd1na2vs0mg"},{"bike_id":"91814d8d-d044-484d-a4c4-fba7b832ede1","system_id":"levelo_inurba_marseille","lat":43.31507,"lon":5.37276,"is_reserved":false,"is_disabled":false,"rental_uris":{"android":"levelo://app?vid=91814d8d-d044-484d-a4c4-fba7b832ede1","ios":"levelo://app?vid=91814d8d-d044-484d-a4c4-fba7b832ede1"},"vehicle_type_id":"4","last_reported":1753366413,"current_range_meters":20000,"station_id":"ce4bgt12rcd13ifvqcd0","pricing_plan_id":"cebpf4jnsgd1na2vs0mg"},