{"last_updated":1746259897,"ttl":60,"version":"2.2","data":{"bikes":[{"bike_id":"f0773e55-3c03-408c-b52d-9fefc787e6d2","system_id":"levelo_inurba_marseille","lat":43.29172,"lon":5.38607,"is_reserved":false,"is_disabled":false,"rental_uris":{"android":"levelo://app?vid=f0773e55-3c03-408c-b52d-9fefc787e6d2","ios":"levelo://app?vid=f0773e55-3c03-408c-b52d-9fefc787e6d2"},"vehicle_type_id":"4","last_reported":1746259897,"current_range_meters":2800,"station_id":"","pricing_plan_id":"cebpf4jnsgd1na2vs0mg"},{"bike_id":"885d5381-9902-418c-bec9-d084ccc99c30","system_id":"levelo_inurba_marseille","lat":43.24187,"lon":5.39754,"is_reserved":false,"is_disabled":false,"rental_uris":{"android":"levelo://app?vid=885d5381-9902-418c-bec9-d084ccc99c30","ios":"levelo://app?vid=885d5381-9902-418c-bec9-d084ccc99c30"},"vehicle_type_id":"4","last_reported":1746259897,"current_range_meters":2800,"station_id":"ce4bhn12rcd13ifvqgpg","pricing_plan_id":"cebpf4jnsgd1na2vs0mg"},{"bike_id":"1e0a121b-2ab4-47e0-9e7d-e7a1038843e4","system_id":"levelo_inurba_marseille","lat":43.31512,"lon":5.3728,"is_reserved":false,"is_disabled":false,"rental_uris":{"android":"levelo://app?vid=1e0a121b-2ab4-47e0-9e7d-e7a1038843e4","ios":"levelo://app?vid=1e0a121b-2ab4-47e0-9e7d-e7a1038843e4"},"vehicle_type_id":"4","last_reported":1746259897,"current_range_meters":2800,"station_id":"ce4bgt12rcd13ifvqcd0","pricing_plan_id":"cebpf4jnsgd1na2vs0mg"},{"bike_id":"bacef4d1-5be8-4801-8a31-a0e048284a4f","system_id":"levelo_inurba_marseille","lat":43.31345,"lon":5.38492,"is_reserved":false,"is_disabled":false,"rental_uris":{"android":"levelo://app?vid=bacef4d1-5be8-4801-8a31-a0e048284a4f","ios":"levelo://app?vid=bacef4d1-5be8-4801-8a31-a0e048284a4f"},"vehicle_type_id":"4","last_reported":1746259897,"current_range_meters":3200,"station_id":"ce4bgt92rcd13ifvqcf0","pricing_plan_id":"cebpf4jnsgd1na2vs0mg"},{"bike_id":"fb1a961d-a942-4d57-b471-468013633b9d","system_id":"levelo_inurba_marseille","lat":43.298995,"lon":5.43666,"is_reserved":false,"is_disabled":false,"rental_uris":{"android":"levelo://app?vid=fb1a961d-a942-4d57-b471-468013633b9d","ios":"levelo://app?vid=fb1a961d-a942-4d57-b471-468013633b9d"},"vehicle_type_id":"4","last_reported":1746259897,"current_range_meters":3200,"station_id":"ce4bhpp2rcd13ifvqhfg","pricing_plan_id":"cebpf4jnsgd1na2vs0mg"},{"bike_id":"56c2a0ae-09a7-4f7b-b71e-617f925a787c","system_id":"levelo_inurba_marseille","lat":43.25113,"lon":5.40329,"is_reserved":false,"is_disabled":false,"rental_uris":{"android":"levelo://app?vid=56c2a0ae-09a7-4f7b-b71e-617f925a787c","ios":"levelo://app?vid=56c2a0ae-09a7-4f7b-b71e-617f925a787c"},"vehicle_type_id":"4","last_reported":1746259897,"current_range_meters":4000,"station_id":"ce4bhlh2rcd13ifvqgig","pricing_plan_id":"cebpf4jnsgd1na2vs0mg"},{"bike_id":"43878d08-782e-499e-950b-5b3d527bf6d2","system_id":"levelo_inurba_marseille","lat":43.30784,"lon":5.37647,"is_reserved":false,"is_disabled":false,"rental_uris":{"android":"levelo://app?vid=43878d08-782e-499e-950b-5b3d527bf6d2","ios":"levelo://app?vid=43878d08-782e-499e-950b-5b3d527bf6d2"},"vehicle_type_id":"4","last_reported":1746259897,"current_range_meters":4000,"station_id":"ce4bgv92rcd13ifvqcq0","pricing_plan_id":"cebpf4jnsgd1na2vs0mg"},{"bike_id":"8743121e-3f10-4a5d-abea-f5bb26c02102","system_id":"levelo_inurba_marseille","lat":43.28563,"lon":5.39497,"is_reserved":false,"is_disabled":false,"rental_uris":{"android":"levelo://app?vid=8743121e-3f10-4a5d-abea-f5bb26c02102","ios":"levelo://app?vid=8743121e-3f10-4a5d-abea-f5bb26c02102"},"vehicle_type_id":"4","last_reported":1746259897,"current_range_meters":1600,"station_id":"ce4bh292rcd13ifvqdg0","pricing_plan_id":"cebpf4jnsgd1na2vs0mg"},{"bike_id":"2be6c5ac-db75-4c9d-95c6-9c66882f14b8","system_id":"levelo_inurba_marseille","lat":43.27899,"lon":5.36299,"is_reserved":false,"is_disabled":false,"rental_uris":{"android":"levelo://app?vid=2be6c5ac-db75-4c9d-95c6-9c66882f14b8","ios":"levelo://app?vid=2be6c5ac-db75-4c9d-95c6-9c66882f14b8"},"vehicle_type_id":"4","last_reported":1746259897,"current_range_meters":4400,"station_id":"","pricing_plan_id":"cebpf4jnsgd1na2vs0mg"},{"bike_id":"b83fde30-817f-4ac4-9298-d090a6421e2d","system_id":"levelo_inurba_marseille","lat":43.281506,"lon":5.42652,"is_reserved":false,"is_disabled":false,"rental_uris":{"android":"levelo://app?vid=b83fde30-817f-4ac4-9298-d090a6421e2d","ios":"levelo://app?vid=b83fde30-817f-4ac4-9298-d090a6421e2d"},"vehicle_type_id":"4","last_reported":1746259897,"current_range_meters":4400,"station_id":"ce4bhnh2rcd13ifvqgug","pricing_plan_id":"cebpf4jnsgd1na2vs0mg"},{"bike_id":"1d0d93bc-8925-4725-b95e-dead68dec769","system_id":"levelo_inurba_marseille","lat":43.25574,"lon":5.38211,"is_reserved":false,"is_disabled":false,"rental_uris":{"android":"levelo://app?vid=1d0d93bc-8925-4725-b95e-dead68dec769","ios":"levelo://app?vid=1d0d93bc-8925-4725-b95e-dead68dec769"},"vehicle_type_id":"4","last_reported":1746259897,"current_range_meters":4400,"station_id":"ce4bhih2rcd13ifvqfs0","pricing_plan_id":"cebpf4jnsgd1na2vs0mg"},{"bike_id":"f73daf93-45c7-48c0-a61a-2d28ac89db8d","system_id":"levelo_inurba_marseille","lat":43.33945,"lon":5.42016,"is_reserved":false,"is_disabled":false,"rental_uris":{"android":"levelo://app?vid=f73daf93-45c7-48c0-a61a-2d28ac89db8d","ios":"levelo://app?vid=f73daf93-45c7-48c0-a61a-2d28ac89db8d"},"vehicle_type_id":"4","last_reported":1746259897,"current_range_meters":4400,"station_id":"","pricing_plan_id":"cebpf4jnsgd1na2vs0mg"},{"bike_id":"0bc4e22d-48dd-4687-847a-50f90d70067f","system_id":"levelo_inurba_marseille","lat":43.2956,"lon":5.36733,"is_reserved":false,"is_disabled":false,"rental_uris":{"android":"levelo://app?vid=0bc4e22d-48dd-4687-847a-50f90d70067f","ios":"levelo://app?vid=0bc4e22d-48dd-4687-847a-50f90d70067f"},"vehicle_type_id":"4","last_reported":1746259897,"current_range_meters":4400,"station_id":"ce4bgph2rcd13ifvqc2g","pricing_plan_id":"cebpf4jnsgd1na2vs0mg"},{"bike_id":"993f0c24-e098-4017-a32b-0ec57c141caa","system_id":"levelo_inurba_marseille","lat":43.29968,"lon":5.38495,"is_reserved":false,"is_disabled":false,"rental_uris":{"android":"levelo://app?vid=993f0c24-e098-4017-a32b-0ec57c141caa","ios":"levelo://app?vid=993f0c24-e098-4017-a32b-0ec57c141caa"},"vehicle_type_id":"4","last_reported":1746259897,"current_range_meters":4800,"station_id":"ce4bgj92rcd13ifvqbd0","pricing_plan_id":"cebpf4jnsgd1na2vs0mg"},{"bike_id":"4fcb94dd-7e2e-4c2b-a657-b8760b2238dc","system_id":"levelo_inurba_marseille","lat":43.259426,"lon":5.409031,"is_reserved":false,"is_disabled":false,"rental_uris":{"android":"levelo://app?vid=4fcb94dd-7e2e-4c2b-a657-b8760b2238dc","ios":"levelo://app?vid=4fcb94dd-7e2e-4c2b-a657-b8760b2238dc"},"vehicle_type_id":"4","last_reported":1746259897,"current_range_meters":4800,"station_id":"ce4bhm92rcd13ifvqglg","pricing_plan_id":"cebpf4jnsgd1na2vs0mg"},{"bike_id":"e545d50d-dea5-4b60-9a3e-1f35c7498f0b","system_id":"levelo_inurba_marseille","lat":43.25125,"lon":5.40312,"is_reserved":false,"is_disabled":true,"rental_uris":{"android":"levelo://app?vid=e545d50d-dea5-4b60-9a3e-1f35c7498f0b","ios":"levelo://app?vid=e545d50d-dea5-4b60-9a3e-1f35c7498f0b"},"vehicle_type_id":"4","last_reported":1746259897,"current_range_meters":4800,"station_id":"ce4bhlh2rcd13ifvqgig","pricing_plan_id":"cebpf4jnsgd1na2vs0mg"},{"bike_id":"ee49d34d-334f-42a3-9509-f7be509b03ba","system_id":"levelo_inurba_marseille","lat":43.24074,"lon":5.37777,"is_reserved":false,"is_disabled":false,"rental_uris":{"android":"levelo://app?vid=ee49d34d-334f-42a3-9509-f7be509b03ba","ios":"levelo://app?vid=ee49d34d-334f-42a3-9509-f7be509b03ba"},"vehicle_type_id":"4","last_reported":1746259897,"current_range_meters":5600,"station_id":"ce4bhnp2rcd13ifvqgvg","pricing_plan_id":"cebpf4jnsgd1na2vs0mg"},{"bike_id":"9f90467f-b293-4d5f-8689-0032d46c2c17","system_id":"levelo_inurba_marseille","lat":43.317011,"lon":5.404722,"is_reserved":false,"is_disabled":false,"rental_uris":{"android":"levelo://app?vid=9f90467f-b293-4d5f-8689-0032d46c2c17","ios":"levelo://app?vid=9f90467f-b293-4d5f-8689-0032d46c2c17"},"vehicle_type_id":"4","last_reported":1746259897,"current_range_meters":5600,"station_id":"ce4bh012rcd13ifvqd00","pricing_plan_id":"cebpf4jnsgd1na2vs0mg"},{"bike_id":"1d32c760-9200-440e-a715-f058c5ee5bf9","system_id":"levelo_inurba_marseille","lat":43.30143,"lon":5.38066,"is_reserved":false,"is_disabled":false,"rental_uris":{"android":"levelo://app?vid=1d32c760-9200-440e-a715-f058c5ee5bf9","ios":"levelo://app?vid=1d32c760-9200-440e-a715-f058c5ee5bf9"},"vehicle_type_id":"4","last_reported":1746259897,"current_range_meters":5600,"station_id":"ce4bgjp2rcd13ifvqbh0","pricing_plan_id":"cebpf4jnsgd1na2vs0mg"},{"bike_id":"0d6c5100-7db5-44d0-b9d6-cf2b96014798","system_id":"levelo_inurba_marseille","lat":43.310052,"lon":5.374954,"is_reserved":false,"is_disabled":false,"rental_uris":{"android":"levelo://app?vid=0d6c5100-7db5-44d0-b9d6-cf2b96014798","ios":"levelo://app?vid=0d6c5100-7db5-44d0-b9d6-cf2b96014798"},"vehicle_type_id":"4","last_reported":1746259897,"current_range_meters":6000,"station_id":"","pricing_plan_id":"cebpf4jnsgd1na2vs0mg"},{"bike_id":"13a0eee6-6a47-49f8-a73d-89a44944b1ca","system_id":"levelo_inurba_marseille","lat":43.289894,"lon":5.37836,"is_reserved":false,"is_disabled":false,"rental_uris":{"android":"levelo://app?vid=13a0eee6-6a47-49f8-a73d-89a44944b1ca","ios":"levelo://app?vid=13a0eee6-6a47-49f8-a73d-89a44944b1ca"},"vehicle_type_id":"4","last_reported":1746259897,"current_range_meters":6000,"station_id":"","pricing_plan_id":"cebpf4jnsgd1na2vs0mg"},{"bike_id":"34d82e56-d819-45e9-ae4f-e18306b1ae62","system_id":"levelo_inurba_marseille","lat":43.335974,"lon":5.410302,"is_reserved":false,"is_disabled":false,"rental_uris":{"android":"levelo://app?vid=34d82e56-d819-45e9-ae4f-e18306b1ae62","ios":"levelo://app?vid=34d82e56-d819-45e9-ae4f-e18306b1ae62"},"vehicle_type_id":"4","last_reported":1746259897,"current_range_meters":6000,"station_id":"ce4bhqh2rcd13ifvqhmg","pricing_plan_id":"cebpf4jnsgd1na2vs0mg"},{"bike_id":"9a6e0384-4e87-40c9-88ea-ddade03372a5","system_id":"levelo_inurba_marseille","lat":43.31099,"lon":5.3776,"is_reserved":false,"is_disabled":false,"rental_uris":{"android":"levelo://app?vid=9a6e0384-4e87-40c9-88ea-ddade03372a5","ios":"levelo://app?vid=9a6e0384-4e87-40c9-88ea-ddade03372a5"},"vehicle_type_id":"4","last_reported":1746259897,"current_range_meters":6000,"station_id":"ce4bgt92rcd13ifvqcg0","pricing_plan_id":"cebpf4jnsgd1na2vs0mg"},{"bike_id":"7971fe93-5f1d-4a59-8508-b415e64fcb18","system_id":"levelo_inurba_marseille","lat":43.30952,"lon":5.37353,"is_reserved":false,"is_disabled":false,"rental_uris":{"android":"levelo://app?vid=7971fe93-5f1d-4a59-8508-b415e64fcb18","ios":"levelo://app?vid=7971fe93-5f1d-4a59-8508-b415e64fcb18"},"vehicle_type_id":"4","last_reported":1746259897,"current_range_meters":6000,"station_id":"","pricing_plan_id":"cebpf4jnsgd1na2vs0mg"},{"bike_id":"a69ccf4e-5743-4dc3-a630-b2344bf0c864","system_id":"levelo_inurba_marseille","lat":43.31704,"lon":5.37756,"is_reserved":false,"is_disabled":true,"rental_uris":{"android":"levelo://app?vid=a69ccf4e-5743-4dc3-a630-b2344bf0c864","ios":"levelo://app?vid=a69ccf4e-5743-4dc3-a630-b2344bf0c864"},"vehicle_type_id":"4","last_reported":1746259897,"current_range_meters":6400,"station_id":"ce4bgth2rcd13ifvqch0","pricing_plan_id":"cebpf4jnsgd1na2vs0mg"},{"bike_id":"0f1e82ca-def0-4d6c-9036-9c84f9292155","system_id":"levelo_inurba_marseille","lat":43.30406,"lon":5.41308,"is_reserved":false,"is_disabled":false,"rental_uris":{"android":"levelo://app?vid=0f1e82ca-def0-4d6c-9036-9c84f9292155","ios":"levelo://app?vid=0f1e82ca-def0-4d6c-9036-9c84f9292155"},"vehicle_type_id":"4","last_reported":1746259897,"current_range_meters":6800,"station_id":"ce4bhop2rcd13ifvqh8g","pricing_plan_id":"cebpf4jnsgd1na2vs0mg"},{"bike_id":"f31150ca-f4e5-41a0-9e44-2e088c26b9d0","system_id":"levelo_inurba_marseille","lat":43.28038,"lon":5.3695,"is_reserved":false,"is_disabled":false,"rental_uris":{"android":"levelo://app?vid=f31150ca-f4e5-41a0-9e44-2e088c26b9d0","ios":"levelo://app?vid=f31150ca-f4e5-41a0-9e44-2e088c26b9d0"},"vehicle_type_id":"4","last_reported":1746259897,"current_range_meters":6800,"station_id":"ce4bha12rcd13ifvqef0","pricing_plan_id":"cebpf4jnsgd1na2vs0mg"},{"bike_id":"7e3909fb-a3ef-45af-ade6-95fe1de011ac","system_id":"levelo_inurba_marseille","lat":43.23962,"lon":5.36629,"is_reserved":false,"is_disabled":false,"rental_uris":{"android":"levelo://app?vid=7e3909fb-a3ef-45af-ade6-95fe1de011ac","ios":"levelo://app?vid=7e3909fb-a3ef-45af-ade6-95fe1de011ac"},"vehicle_type_id":"4","last_reported":1746259897,"current_range_meters":6800,"station_id":"ce4bhi12rcd13ifvqfp0","pricing_plan_id":"cebpf4jnsgd1na2vs0mg"},{"bike_id":"2d87f24b-bb92-4f5a-9c64-611905425c8d","system_id":"levelo_inurba_marseille","lat":43.23667,"lon":5.39143,"is_reserved":false,"is_disabled":true,"rental_uris":{"android":"levelo://app?vid=2d87f24b-bb92-4f5a-9c64-611905425c8d","ios":"levelo://app?vid=2d87f24b-bb92-4f5a-9c64-611905425c8d"},"vehicle_type_id":"4","last_reported":1746259897,"current_range_meters":7200,"station_id":"","pricing_plan_id":"cebpf4jnsgd1na2vs0mg"},{"bike_id":"3694d090-d909-4d38-9eb1-31338c8af39e","system_id":"levelo_inurba_marseille","lat":43.26696,"lon":5.38277,"is_reserved":false,"is_disabled":true,"rental_uris":{"android":"levelo://app?vid=3694d090-d909-4d38-9eb1-31338c8af39e","ios":"levelo://app?vid=3694d090-d909-4d38-9eb1-31338c8af39e"},"vehicle_type_id":"4","last_reported":1746259897,"current_range_meters":7200,"station_id":"ce4bhg92rcd13ifvqf90","pricing_plan_id":"cebpf4jnsgd1na2vs0mg"},{"bike_id":"831b13ac-03f1-4a0d-b2e8-915cb2a6b8ce","system_id":"levelo_inurba_marseille","lat":43.28147,"lon":5.4264,"is_reserved":false,"is_disabled":false,"rental_uris":{"android":"levelo://app?vid=831b13ac-03f1-4a0d-b2e8-915cb2a6b8ce","ios":"levelo://app?vid=831b13ac-03f1-4a0d-b2e8-915cb2a6b8ce"},"vehicle_type_id":"4","last_reported":1746259897,"current_range_meters":7200,"station_id":"ce4bhnh2rcd13ifvqgug","pricing_plan_id":"cebpf4jnsgd1na2vs0mg"},{"bike_id":"81e80a60-feb5-4268-9314-c65f9c70c462","system_id":"levelo_inurba_marseille","lat":43.290235,"lon":5.386285,"is_reserved":false,"is_disabled":true,"rental_uris":{"android":"levelo://app?vid=81e80a60-feb5-4268-9314-c65f9c70c462","ios":"levelo://app?vid=81e80a60-feb5-4268-9314-c65f9c70c462"},"vehicle_type_id":"4","last_reported":1746259897,"current_range_meters":7200,"station_id":"ce4bh4p2rcd13ifvqe0g","pricing_plan_id":"cebpf4jnsgd1na2vs0mg"},{"bike_id":"6c8f2ed0-8cbc-4ec6-a7e3-532618592f45","system_id":"levelo_inurba_marseille","lat":43.23962,"lon":5.36647,"is_reserved":false,"is_disabled":false,"rental_uris":{"android":"levelo://app?vid=6c8f2ed0-8cbc-4ec6-a7e3-532618592f45","ios":"levelo://app?vid=6c8f2ed0-8cbc-4ec6-a7e3-532618592f45"},"vehicle_type_id":"4","last_reported":1746259897,"current_range_meters":8000,"station_id":"ce4bhi12rcd13ifvqfp0","pricing_plan_id":"cebpf4jnsgd1na2vs0mg"},{"bike_id":"edc6b69e-8a7c-4069-b4b0-1f2a5bb85fde","system_id":"levelo_inurba_marseille","lat":43.30543,"lon":5.36529,"is_reserved":false,"is_disabled":false,"rental_uris":{"android":"levelo://app?vid=edc6b69e-8a7c-4069-b4b0-1f2a5bb85fde","ios":"levelo://app?vid=edc6b69e-8a7c-4069-b4b0-1f2a5bb85fde"},"vehicle_type_id":"4","last_reported":1746259897,"current_range_meters":8000,"station_id":"ce4bgs12rcd13ifvqcag","pricing_plan_id":"cebpf4jnsgd1na2vs0mg"},{"bike_id":"29a83445-0753-40f4-8ed7-c02207f310e3","system_id":"levelo_inurba_marseille","lat":43.28319,"lon":5.38506,"is_reserved":false,"is_disabled":false,"rental_uris":{"android":"levelo://app?vid=29a83445-0753-40f4-8ed7-c02207f310e3","ios":"levelo://app?vid=29a83445-0753-40f4-8ed7-c02207f310e3"},"vehicle_type_id":"4","last_reported":1746259897,"current_range_meters":8000,"station_id":"","pricing_plan_id":"cebpf4jnsgd1na2vs0mg"},{"bike_id":"bcdb9d2e-41b6-4501-810c-6146d2dfe2c6","system_id":"levelo_inurba_marseille","lat":43.29331,"lon":5.37207,"is_reserved":false,"is_disabled":false,"rental_uris":{"android":"levelo://app?vid=bcdb9d2e-41b6-4501-810c-6146d2dfe2c6","ios":"levelo://app?vid=bcdb9d2e-41b6-4501-810c-6146d2dfe2c6"},"vehicle_type_id":"4","last_reported":1746259897,"current_range_meters":8000,"station_id":"ce4bgh92rcd13ifvqb40","pricing_plan_id":"cebpf4jnsgd1na2vs0mg"},{"bike_id":"354f7438-aa30-4e53-8181-12e37a07905f","system_id":"levelo_inurba_marseille","lat":43.29698,"lon":5.37273,"is_reserved":false,"is_disabled":false,"rental_uris":{"android":"levelo://app?vid=354f7438-aa30-4e53-8181-12e37a07905f","ios":"levelo://app?vid=354f7438-aa30-4e53-8181-12e37a07905f"},"vehicle_type_id":"4","last_reported":1746259897,"current_range_meters":8000,"station_id":"ce4bgk12rcd13ifvqbj0","pricing_plan_id":"cebpf4jnsgd1na2vs0mg"},{"bike_id":"81a8870f-38f2-41e3-8af3-5c745aec70c7","system_id":"levelo_inurba_marseille","lat":43.23969,"lon":5.36633,"is_reserved":false,"is_disabled":false,"rental_uris":{"android":"levelo://app?vid=81a8870f-38f2-41e3-8af3-5c745aec70c7","ios":"levelo://app?vid=81a8870f-38f2-41e3-8af3-5c745aec70c7"},"vehicle_type_id":"4","last_reported":1746259897,"current_range_meters":8000,"station_id":"ce4bhi12rcd13ifvqfp0","pricing_plan_id":"cebpf4jnsgd1na2vs0mg"},{"bike_id":"4329da6d-6d94-4692-b5aa-bf046167bec9","system_id":"levelo_inurba_marseille","lat":43.30147,"lon":5.38095,"is_reserved":false,"is_disabled":false,"rental_uris":{"android":"levelo://app?vid=4329da6d-6d94-4692-b5aa-bf046167bec9","ios":"levelo://app?vid=4329da6d-6d94-4692-b5aa-bf046167bec9"},"vehicle_type_id":"4","last_reported":1746259897,"current_range_meters":8400,"station_id":"ce4bgjp2rcd13ifvqbh0","pricing_plan_id":"cebpf4jnsgd1na2vs0mg"},{"bike_id":"52653438-d935-4f61-a0a5-dc59b768eafc","system_id":"levelo_inurba_marseille","lat":43.323537,"lon":5.367566,"is_reserved":false,"is_disabled":false,"rental_uris":{"android":"levelo://app?vid=52653438-d935-4f61-a0a5-dc59b768eafc","ios":"levelo://app?vid=52653438-d935-4f61-a0a5-dc59b768eafc"},"vehicle_type_id":"4","last_reported":1746259897,"current_range_meters":8400,"station_id":"ce4bhsh2rcd13ifvqi2g","pricing_plan_id":"cebpf4jnsgd1na2vs0mg"},{"bike_id":"03f8f1a1-348f-43c1-810e-3f5bf3b4a5c6","system_id":"levelo_inurba_marseille","lat":43.24891,"lon":5.39404,"is_reserved":false,"is_disabled":false,"rental_uris":{"android":"levelo://app?vid=03f8f1a1-348f-43c1-810e-3f5bf3b4a5c6","ios":"levelo://app?vid=03f8f1a1-348f-43c1-810e-3f5bf3b4a5c6"},"vehicle_type_id":"4","last_reported":1746259897,"current_range_meters":8400,"station_id":"","pricing_plan_id":"cebpf4jnsgd1na2vs0mg"},{"bike_id":"8a0058ae-d47a-4696-afcc-53a66a14ba3f","system_id":"levelo_inurba_marseille","lat":43.29901,"lon":5.43668,"is_reserved":false,"is_disabled":false,"rental_uris":{"android":"levelo://app?vid=8a0058ae-d47a-4696-afcc-53a66a14ba3f","ios":"levelo://app?vid=8a0058ae-d47a-4696-afcc-53a66a14ba3f"},"vehicle_type_id":"4","last_reported":1746259897,"current_range_meters":8800,"station_id":"ce4bhpp2rcd13ifvqhfg","pricing_plan_id":"cebpf4jnsgd1na2vs0mg"},{"bike_id":"3370706f-3c60-4448-9fa7-c3c667e2e849","system_id":"levelo_inurba_marseille","lat":43.2352,"lon":5.40334,"is_reserved":false,"is_disabled":false,"rental_uris":{"android":"levelo://app?vid=3370706f-3c60-4448-9fa7-c3c667e2e849","ios":"levelo://app?vid=3370706f-3c60-4448-9fa7-c3c667e2e849"},"vehicle_type_id":"4","last_reported":1746259897,"current_range_meters":8800,"station_id":"","pricing_plan_id":"cebpf4jnsgd1na2vs0mg"},{"bike_id":"8a98d962-578d-444b-a5bb-91a62b69d98d","system_id":"levelo_inurba_marseille","lat":43.212044,"lon":5.350742,"is_reserved":false,"is_disabled":true,"rental_uris":{"android":"levelo://app?vid=8a98d962-578d-444b-a5bb-91a62b69d98d","ios":"levelo://app?vid=8a98d962-578d-444b-a5bb-91a62b69d98d"},"vehicle_type_id":"4","last_reported":1746259897,"current_range_meters":9200,"station_id":"st_cvj6sg6p6f1abm77japg","pricing_plan_id":"cebpf4jnsgd1na2vs0mg"},{"bike_id":"7719b24a-05b9-48c9-8002-0734452df164","system_id":"levelo_inurba_marseille","lat":43.240535,"lon":5.377595,"is_reserved":false,"is_disabled":false,"rental_uris":{"android":"levelo://app?vid=7719b24a-05b9-48c9-8002-0734452df164","ios":"levelo://app?vid=7719b24a-05b9-48c9-8002-0734452df164"},"vehicle_type_id":"4","last_reported":1746259897,"current_range_meters":9200,"station_id":"ce4bhnp2rcd13ifvqgvg","pricing_plan_id":"cebpf4jnsgd1na2vs0mg"},{"bike_id":"2ec6dd80-93b4-435e-89c9-9ef2c5604b75","system_id":"levelo_inurba_marseille","lat":43.24194,"lon":5.39756,"is_reserved":false,"is_disabled":false,"rental_uris":{"android":"levelo://app?vid=2ec6dd80-93b4-435e-89c9-9ef2c5604b75","ios":"levelo://app?vid=2ec6dd80-93b4-435e-89c9-9ef2c5604b75"},"vehicle_type_id":"4","last_reported":1746259897,"current_range_meters":9200,"station_id":"ce4bhn12rcd13ifvqgpg","pricing_plan_id":"cebpf4jnsgd1na2vs0mg"},{"bike_id":"313f19ff-8c45-4a02-b367-c6a7c2d5e214","system_id":"levelo_inurba_marseille","lat":43.27496,"lon":5.42492,"is_reserved":false,"is_disabled":false,"rental_uris":{"android":"levelo://app?vid=313f19ff-8c45-4a02-b367-c6a7c2d5e214","ios":"levelo://app?vid=313f19ff-8c45-4a02-b367-c6a7c2d5e214"},"vehicle_type_id":"4","last_reported":1746259897,"current_range_meters":9200,"station_id":"ce4bhn92rcd13ifvqgrg","pricing_plan_id":"cebpf4jnsgd1na2vs0mg"},{"bike_id":"f93d853b-ca78-4f88-b96f-c9c1053489aa","system_id":"levelo_inurba_marseille","lat":43.240684,"lon":5.37765,"is_reserved":false,"is_disabled":false,"rental_uris":{"android":"levelo://app?vid=f93d853b-ca78-4f88-b96f-c9c1053489aa","ios":"levelo://app?vid=f93d853b-ca78-4f88-b96f-c9c1053489aa"},"vehicle_type_id":"4","last_reported":1746259897,"current_range_meters":9200,"station_id":"ce4bhnp2rcd13ifvqgvg","pricing_plan_id":"cebpf4jnsgd1na2vs0mg"},{"bike_id":"6d74a9f5-3f03-4e8e-aa3b-29a84082925f","system_id":"levelo_inurba_marseille","lat":43.22913,"lon":5.35353,"is_reserved":false,"is_disabled":false,"rental_uris":{"android":"levelo://app?vid=6d74a9f5-3f03-4e8e-aa3b-29a84082925f","ios":"levelo://app?vid=6d74a9f5-3f03-4e8e-aa3b-29a84082925f"},"vehicle_type_id":"4","last_reported":1746259897,"current_range_meters":9200,"station_id":"cpo3532slgdg3j2ikp40","pricing_plan_id":"cebpf4jnsgd1na2vs0mg"},{"bike_id":"4feecaba-9754-404f-bc12-97e81ba0e761","system_id":"levelo_inurba_marseille","lat":43.32103,"lon":5.367833,"is_reserved":false,"is_disabled":false,"rental_uris":{"android":"levelo://app?vid=4feecaba-9754-404f-bc12-97e81ba0e761","ios":"levelo://app?vid=4feecaba-9754-404f-bc12-97e81ba0e761"},"vehicle_type_id":"4","last_reported":1746259897,"current_range_meters":9200,"station_id":"ce4bhrh2rcd13ifvqhug","pricing_plan_id":"cebpf4jnsgd1na2vs0mg"},{"bike_id":"a2b5f75b-8b31-4025-975c-0028449e52cd","system_id":"levelo_inurba_marseille","lat":43.24151,"lon":5.39714,"is_reserved":false,"is_disabled":false,"rental_uris":{"android":"levelo://app?vid=a2b5f75b-8b31-4025-975c-0028449e52cd","ios":"levelo://app?vid=a2b5f75b-8b31-4025-975c-0028449e52cd"},"vehicle_type_id":"4","last_reported":1746259897,"current_range_meters":9600,"station_id":"ce4bhn12rcd13ifvqgpg","pricing_plan_id":"cebpf4jnsgd1na2vs0mg"},{"bike_id":"5636aa3d-90e5-46b8-889b-ca722454f93e","system_id":"levelo_inurba_marseille","lat":43.24067,"lon":5.37767,"is_reserved":false,"is_disabled":false,"rental_uris":{"android":"levelo://app?vid=5636aa3d-90e5-46b8-889b-ca722454f93e","ios":"levelo://app?vid=5636aa3d-90e5-46b8-889b-ca722454f93e"},"vehicle_type_id":"4","last_reported":1746259897,"current_range_meters":9600,"station_id":"ce4bhnp2rcd13ifvqgvg","pricing_plan_id":"cebpf4jnsgd1na2vs0mg"},{"bike_id":"4d107e16-f362-423a-9a60-e50af59e6089","system_id":"levelo_inurba_marseille","lat":43.24665,"lon":5.38155,"is_reserved":false,"is_disabled":false,"rental_uris":{"android":"levelo://app?vid=4d107e16-f362-423a-9a60-e50af59e6089","ios":"levelo://app?vid=4d107e16-f362-423a-9a60-e50af59e6089"},"vehicle_type_id":"4","last_reported":1746259897,"current_range_meters":9600,"station_id":"ce4bhih2rcd13ifvqfr0","pricing_plan_id":"cebpf4jnsgd1na2vs0mg"},{"bike_id":"4c32163b-454e-49a2-ae16-e54a09a2d97b","system_id":"levelo_inurba_marseille","lat":43.29198,"lon":5.39334,"is_reserved":false,"is_disabled":false,"rental_uris":{"android":"levelo://app?vid=4c32163b-454e-49a2-ae16-e54a09a2d97b","ios":"levelo://app?vid=4c32163b-454e-49a2-ae16-e54a09a2d97b"},"vehicle_type_id":"4","last_reported":1746259897,"current_range_meters":16800,"station_id":"ce4bh192rcd13ifvqdd0","pricing_plan_id":"cebpf4jnsgd1na2vs0mg"},{"bike_id":"0a83a242-0e43-4e35-a8a7-5bcc1df8c995","system_id":"levelo_inurba_marseille","lat":43.307673,"lon":5.36715,"is_reserved":false,"is_disabled":true,"rental_uris":{"android":"levelo://app?vid=0a83a242-0e43-4e35-a8a7-5bcc1df8c995","ios":"levelo://app?vid=0a83a242-0e43-4e35-a8a7-5bcc1df8c995"},"vehicle_type_id":"4","last_reported":1746259897,"current_range_meters":9600,"station_id":"","pricing_plan_id":"cebpf4jnsgd1na2vs0mg"},{"bike_id":"e27ce41e-d31e-4411-a762-387f29d91877","system_id":"levelo_inurba_marseille","lat":43.29558,"lon":5.4228,"is_reserved":false,"is_disabled":false,"rental_uris":{"android":"levelo://app?vid=e27ce41e-d31e-4411-a762-387f29d91877","ios":"levelo://app?vid=e27ce41e-d31e-4411-a762-387f29d91877"},"vehicle_type_id":"4","last_reported":1746259897,"current_range_meters":9600,"station_id":"ce4bhph2rcd13ifvqhdg","pricing_plan_id":"cebpf4jnsgd1na2vs0mg"},{"bike_id":"e0e163c0-b70c-478b-a240-966060226969","system_id":"levelo_inurba_marseille","lat":43.29235,"lon":5.36199,"is_reserved":false,"is_disabled":false,"rental_uris":{"android":"levelo://app?vid=e0e163c0-b70c-478b-a240-966060226969","ios":"levelo://app?vid=e0e163c0-b70c-478b-a240-966060226969"},"vehicle_type_id":"4","last_reported":1746259897,"current_range_meters":9600,"station_id":"","pricing_plan_id":"cebpf4jnsgd1na2vs0mg"},{"bike_id":"ad7ca592-f236-4a6d-9431-e31ab8d26c7e","system_id":"levelo_inurba_marseille","lat":43.323585,"lon":5.367591,"is_reserved":false,"is_disabled":false,"rental_uris":{"android":"levelo://app?vid=ad7ca592-f236-4a6d-9431-e31ab8d26c7e","ios":"levelo://app?vid=ad7ca592-f236-4a6d-9431-e31ab8d26c7e"},"vehicle_type_id":"4","last_reported":1746259897,"current_range_meters":9600,"station_id":"ce4bhsh2rcd13ifvqi2g","pricing_plan_id":"cebpf4jnsgd1na2vs0mg"},{"bike_id":"2cce8745-f47d-491d-9776-93cf9f036027","system_id":"levelo_inurba_marseille","lat":43.308179,"lon":5.435211,"is_reserved":false,"is_disabled":false,"rental_uris":{"android":"levelo://app?vid=2cce8745-f47d-491d-9776-93cf9f036027","ios":"levelo://app?vid=2cce8745-f47d-491d-9776-93cf9f036027"},"vehicle_type_id":"4","last_reported":1746259897,"current_range_meters":9600,"station_id":"ce4bhph2rcd13ifvqheg","pricing_plan_id":"cebpf4jnsgd1na2vs0mg"},{"bike_id":"718c9650-d2fd-4572-9df3-fc4b0937e0e8","system_id":"levelo_inurba_marseille","lat":43.27433,"lon":5.39412,"is_reserved":false,"is_disabled":false,"rental_uris":{"android":"levelo://app?vid=718c9650-d2fd-4572-9df3-fc4b0937e0e8","ios":"levelo://app?vid=718c9650-d2fd-4572-9df3-fc4b0937e0e8"},"vehicle_type_id":"4","last_reported":1746259897,"current_range_meters":10000,"station_id":"ce4bhdp2rcd13ifvqf20","pricing_plan_id":"cebpf4jnsgd1na2vs0mg"},{"bike_id":"d3205275-0cd6-4ae7-8645-294f0cf35172","system_id":"levelo_inurba_marseille","lat":43.284443,"lon":5.391907,"is_reserved":false,"is_disabled":false,"rental_uris":{"android":"levelo://app?vid=d3205275-0cd6-4ae7-8645-294f0cf35172","ios":"levelo://app?vid=d3205275-0cd6-4ae7-8645-294f0cf35172"},"vehicle_type_id":"4","last_reported":1746259897,"current_range_meters":10000,"station_id":"ce4bhoh2rcd13ifvqh5g","pricing_plan_id":"cebpf4jnsgd1na2vs0mg"},{"bike_id":"d24e36e0-e0aa-458e-9dc1-1d3e91441d9d","system_id":"levelo_inurba_marseille","lat":43.29024,"lon":5.38633,"is_reserved":false,"is_disabled":true,"rental_uris":{"android":"levelo://app?vid=d24e36e0-e0aa-458e-9dc1-1d3e91441d9d","ios":"levelo://app?vid=d24e36e0-e0aa-458e-9dc1-1d3e91441d9d"},"vehicle_type_id":"4","last_reported":1746259897,"current_range_meters":10000,"station_id":"ce4bh4p2rcd13ifvqe0g","pricing_plan_id":"cebpf4jnsgd1na2vs0mg"},{"bike_id":"6bcfafe9-e0dc-4830-a2ef-8fbcb15314a2","system_id":"levelo_inurba_marseille","lat":43.29559,"lon":5.42279,"is_reserved":false,"is_disabled":false,"rental_uris":{"android":"levelo://app?vid=6bcfafe9-e0dc-4830-a2ef-8fbcb15314a2","ios":"levelo://app?vid=6bcfafe9-e0dc-4830-a2ef-8fbcb15314a2"},"vehicle_type_id":"4","last_reported":1746259897,"current_range_meters":10000,"station_id":"ce4bhph2rcd13ifvqhdg","pricing_plan_id":"cebpf4jnsgd1na2vs0mg"},{"bike_id":"570b486c-50df-4f1f-97df-caa86c0d419e","system_id":"levelo_inurba_marseille","lat":43.33714,"lon":5.35575,"is_reserved":false,"is_disabled":false,"rental_uris":{"android":"levelo://app?vid=570b486c-50df-4f1f-97df-caa86c0d419e","ios":"levelo://app?vid=570b486c-50df-4f1f-97df-caa86c0d419e"},"vehicle_type_id":"4","last_reported":1746259897,"current_range_meters":10000,"station_id":"","pricing_plan_id":"cebpf4jnsgd1na2vs0mg"},{"bike_id":"6657f535-97de-49cb-8667-4c0c1a78eb27","system_id":"levelo_inurba_marseille","lat":43.26556,"lon":5.37283,"is_reserved":false,"is_disabled":false,"rental_uris":{"android":"levelo://app?vid=6657f535-97de-49cb-8667-4c0c1a78eb27","ios":"levelo://app?vid=6657f535-97de-49cb-8667-4c0c1a78eb27"},"vehicle_type_id":"4","last_reported":1746259897,"current_range_meters":10000,"station_id":"ce4bhg12rcd13ifvqf70","pricing_plan_id":"cebpf4jnsgd1na2vs0mg"},{"bike_id":"0a02b7e6-efa0-4661-b514-07a56666c82f","system_id":"levelo_inurba_marseille","lat":43.28923,"lon":5.38406,"is_reserved":false,"is_disabled":false,"rental_uris":{"android":"levelo://app?vid=0a02b7e6-efa0-4661-b514-07a56666c82f","ios":"levelo://app?vid=0a02b7e6-efa0-4661-b514-07a56666c82f"},"vehicle_type_id":"4","last_reported":1746259897,"current_range_meters":10000,"station_id":"ce4bh612rcd13ifvqe6g","pricing_plan_id":"cebpf4jnsgd1na2vs0mg"},{"bike_id":"f28a6a99-f960-44e5-8dd2-042ad6e229e6","system_id":"levelo_inurba_marseille","lat":43.27824,"lon":5.42781,"is_reserved":false,"is_disabled":false,"rental_uris":{"android":"levelo://app?vid=f28a6a99-f960-44e5-8dd2-042ad6e229e6","ios":"levelo://app?vid=f28a6a99-f960-44e5-8dd2-042ad6e229e6"},"vehicle_type_id":"4","last_reported":1746259897,"current_range_meters":10800,"station_id":"","pricing_plan_id":"cebpf4jnsgd1na2vs0mg"},{"bike_id":"b26afd9a-215b-4d9a-83b4-8d8ec01b44a2","system_id":"levelo_inurba_marseille","lat":43.29864,"lon":5.39728,"is_reserved":false,"is_disabled":false,"rental_uris":{"android":"levelo://app?vid=b26afd9a-215b-4d9a-83b4-8d8ec01b44a2","ios":"levelo://app?vid=b26afd9a-215b-4d9a-83b4-8d8ec01b44a2"},"vehicle_type_id":"4","last_reported":1746259897,"current_range_meters":10000,"station_id":"ce4bh0h2rcd13ifvqd50","pricing_plan_id":"cebpf4jnsgd1na2vs0mg"},{"bike_id":"371b7534-0d9b-4ab0-8f09-4f4cf8973b82","system_id":"levelo_inurba_marseille","lat":43.25108,"lon":5.40327,"is_reserved":false,"is_disabled":false,"rental_uris":{"android":"levelo://app?vid=371b7534-0d9b-4ab0-8f09-4f4cf8973b82","ios":"levelo://app?vid=371b7534-0d9b-4ab0-8f09-4f4cf8973b82"},"vehicle_type_id":"4","last_reported":1746259897,"current_range_meters":10800,"station_id":"ce4bhlh2rcd13ifvqgig","pricing_plan_id":"cebpf4jnsgd1na2vs0mg"},{"bike_id":"fc4ee2a7-f8c9-4a18-985f-a6109b0f36de","system_id":"levelo_inurba_marseille","lat":43.291422,"lon":5.371967,"is_reserved":false,"is_disabled":false,"rental_uris":{"android":"levelo://app?vid=fc4ee2a7-f8c9-4a18-985f-a6109b0f36de","ios":"levelo://app?vid=fc4ee2a7-f8c9-4a18-985f-a6109b0f36de"},"vehicle_type_id":"4","last_reported":1746259897,"current_range_meters":10000,"station_id":"ce4bha92rcd13ifvqeh0","pricing_plan_id":"cebpf4jnsgd1na2vs0mg"},{"bike_id":"3f9b739b-9bfd-492e-b1ad-830c96b95dc9","system_id":"levelo_inurba_marseille","lat":43.28475,"lon":5.384288,"is_reserved":false,"is_disabled":false,"rental_uris":{"android":"levelo://app?vid=3f9b739b-9bfd-492e-b1ad-830c96b95dc9","ios":"levelo://app?vid=3f9b739b-9bfd-492e-b1ad-830c96b95dc9"},"vehicle_type_id":"4","last_reported":1746259897,"current_range_meters":10800,"station_id":"ce4bh512rcd13ifvqe3g","pricing_plan_id":"cebpf4jnsgd1na2vs0mg"},{"bike_id":"fa3124eb-69b9-4614-8429-5e8691ca610e","system_id":"levelo_inurba_marseille","lat":43.301452,"lon":5.380982,"is_reserved":false,"is_disabled":false,"rental_uris":{"android":"levelo://app?vid=fa3124eb-69b9-4614-8429-5e8691ca610e","ios":"levelo://app?vid=fa3124eb-69b9-4614-8429-5e8691ca610e"},"vehicle_type_id":"4","last_reported":1746259897,"current_range_meters":11200,"station_id":"ce4bgjp2rcd13ifvqbh0","pricing_plan_id":"cebpf4jnsgd1na2vs0mg"},{"bike_id":"dfb3396e-96f5-457c-af11-f6f27dad33e9","system_id":"levelo_inurba_marseille","lat":43.272037,"lon":5.364963,"is_reserved":false,"is_disabled":false,"rental_uris":{"android":"levelo://app?vid=dfb3396e-96f5-457c-af11-f6f27dad33e9","ios":"levelo://app?vid=dfb3396e-96f5-457c-af11-f6f27dad33e9"},"vehicle_type_id":"4","last_reported":1746259897,"current_range_meters":11200,"station_id":"","pricing_plan_id":"cebpf4jnsgd1na2vs0mg"},{"bike_id":"f1ffd2b9-91e9-4bf5-a319-6e95940b0de6","system_id":"levelo_inurba_marseille","lat":43.29553,"lon":5.42286,"is_reserved":false,"is_disabled":false,"rental_uris":{"android":"levelo://app?vid=f1ffd2b9-91e9-4bf5-a319-6e95940b0de6","ios":"levelo://app?vid=f1ffd2b9-91e9-4bf5-a319-6e95940b0de6"},"vehicle_type_id":"4","last_reported":1746259897,"current_range_meters":11200,"station_id":"ce4bhph2rcd13ifvqhdg","pricing_plan_id":"cebpf4jnsgd1na2vs0mg"},{"bike_id":"8105ea61-1930-4b48-827f-ed01cb559bea","system_id":"levelo_inurba_marseille","lat":43.24675,"lon":5.38143,"is_reserved":false,"is_disabled":false,"rental_uris":{"android":"levelo://app?vid=8105ea61-1930-4b48-827f-ed01cb559bea","ios":"levelo://app?vid=8105ea61-1930-4b48-827f-ed01cb559bea"},"vehicle_type_id":"4","last_reported":1746259897,"current_range_meters":11200,"station_id":"ce4bhih2rcd13ifvqfr0","pricing_plan_id":"cebpf4jnsgd1na2vs0mg"},{"bike_id":"7ae7faf5-c35c-4859-a3c5-b0652189b88c","system_id":"levelo_inurba_marseille","lat":43.23961,"lon":5.36625,"is_reserved":false,"is_disabled":false,"rental_uris":{"android":"levelo://app?vid=7ae7faf5-c35c-4859-a3c5-b0652189b88c","ios":"levelo://app?vid=7ae7faf5-c35c-4859-a3c5-b0652189b88c"},"vehicle_type_id":"4","last_reported":1746259897,"current_range_meters":12800,"station_id":"ce4bhi12rcd13ifvqfp0","pricing_plan_id":"cebpf4jnsgd1na2vs0mg"},{"bike_id":"fd2c3c67-23a6-4380-b7ca-8f23c8f78921","system_id":"levelo_inurba_marseille","lat":43.32364,"lon":5.36757,"is_reserved":false,"is_disabled":false,"rental_uris":{"android":"levelo://app?vid=fd2c3c67-23a6-4380-b7ca-8f23c8f78921","ios":"levelo://app?vid=fd2c3c67-23a6-4380-b7ca-8f23c8f78921"},"vehicle_type_id":"4","last_reported":1746259897,"current_range_meters":11200,"station_id":"ce4bhsh2rcd13ifvqi2g","pricing_plan_id":"cebpf4jnsgd1na2vs0mg"},{"bike_id":"93eebb48-010e-404e-a47c-5fe4ab3ad8f3","system_id":"levelo_inurba_marseille","lat":43.30307,"lon":5.392,"is_reserved":false,"is_disabled":false,"rental_uris":{"android":"levelo://app?vid=93eebb48-010e-404e-a47c-5fe4ab3ad8f3","ios":"levelo://app?vid=93eebb48-010e-404e-a47c-5fe4ab3ad8f3"},"vehicle_type_id":"4","last_reported":1746259897,"current_range_meters":16000,"station_id":"ce4bgkh2rcd13ifvqbk0","pricing_plan_id":"cebpf4jnsgd1na2vs0mg"},{"bike_id":"36a9b9c7-54b7-45b0-81a5-b00d50ed8e1f","system_id":"levelo_inurba_marseille","lat":43.30792,"lon":5.38137,"is_reserved":false,"is_disabled":false,"rental_uris":{"android":"levelo://app?vid=36a9b9c7-54b7-45b0-81a5-b00d50ed8e1f","ios":"levelo://app?vid=36a9b9c7-54b7-45b0-81a5-b00d50ed8e1f"},"vehicle_type_id":"4","last_reported":1746259897,"current_range_meters":11600,"station_id":"ce4bgt12rcd13ifvqce0","pricing_plan_id":"cebpf4jnsgd1na2vs0mg"},{"bike_id":"f4215d2d-8cbc-42de-a4a1-5312ee7d2a19","system_id":"levelo_inurba_marseille","lat":43.2407,"lon":5.37761,"is_reserved":false,"is_disabled":false,"rental_uris":{"android":"levelo://app?vid=f4215d2d-8cbc-42de-a4a1-5312ee7d2a19","ios":"levelo://app?vid=f4215d2d-8cbc-42de-a4a1-5312ee7d2a19"},"vehicle_type_id":"4","last_reported":1746259897,"current_range_meters":12000,"station_id":"ce4bhnp2rcd13ifvqgvg","pricing_plan_id":"cebpf4jnsgd1na2vs0mg"},{"bike_id":"6c0e5220-ee62-4032-884d-af4df430249c","system_id":"levelo_inurba_marseille","lat":43.32089,"lon":5.36763,"is_reserved":false,"is_disabled":false,"rental_uris":{"android":"levelo://app?vid=6c0e5220-ee62-4032-884d-af4df430249c","ios":"levelo://app?vid=6c0e5220-ee62-4032-884d-af4df430249c"},"vehicle_type_id":"4","last_reported":1746259897,"current_range_meters":12000,"station_id":"ce4bhrh2rcd13ifvqhug","pricing_plan_id":"cebpf4jnsgd1na2vs0mg"},{"bike_id":"2e6965d3-9b5d-4ec1-a3a3-003adfe5560b","system_id":"levelo_inurba_marseille","lat":43.25934,"lon":5.40911,"is_reserved":false,"is_disabled":false,"rental_uris":{"android":"levelo://app?vid=2e6965d3-9b5d-4ec1-a3a3-003adfe5560b","ios":"levelo://app?vid=2e6965d3-9b5d-4ec1-a3a3-003adfe5560b"},"vehicle_type_id":"4","last_reported":1746259897,"current_range_meters":12000,"station_id":"ce4bhm92rcd13ifvqglg","pricing_plan_id":"cebpf4jnsgd1na2vs0mg"},{"bike_id":"251f13fb-ae1b-4c09-bcd9-d582b991dd56","system_id":"levelo_inurba_marseille","lat":43.292002,"lon":5.393157,"is_reserved":false,"is_disabled":false,"rental_uris":{"android":"levelo://app?vid=251f13fb-ae1b-4c09-bcd9-d582b991dd56","ios":"levelo://app?vid=251f13fb-ae1b-4c09-bcd9-d582b991dd56"},"vehicle_type_id":"4","last_reported":1746259897,"current_range_meters":12000,"station_id":"ce4bhbh2rcd13ifvqeo0","pricing_plan_id":"cebpf4jnsgd1na2vs0mg"},{"bike_id":"35df839b-290c-49b9-9f1d-6c3dde4d997d","system_id":"levelo_inurba_marseille","lat":43.3057,"lon":5.39348,"is_reserved":false,"is_disabled":false,"rental_uris":{"android":"levelo://app?vid=35df839b-290c-49b9-9f1d-6c3dde4d997d","ios":"levelo://app?vid=35df839b-290c-49b9-9f1d-6c3dde4d997d"},"vehicle_type_id":"4","last_reported":1746259897,"current_range_meters":12000,"station_id":"ce4bh0p2rcd13ifvqd80","pricing_plan_id":"cebpf4jnsgd1na2vs0mg"},{"bike_id":"b2a1b543-f7ca-40fa-82e3-61a14489c133","system_id":"levelo_inurba_marseille","lat":43.30819,"lon":5.3815,"is_reserved":false,"is_disabled":false,"rental_uris":{"android":"levelo://app?vid=b2a1b543-f7ca-40fa-82e3-61a14489c133","ios":"levelo://app?vid=b2a1b543-f7ca-40fa-82e3-61a14489c133"},"vehicle_type_id":"4","last_reported":1746259897,"current_range_meters":12000,"station_id":"ce4bgt12rcd13ifvqce0","pricing_plan_id":"cebpf4jnsgd1na2vs0mg"},{"bike_id":"0c3fbeaa-55ff-4c7c-a66c-46f4ecc86aeb","system_id":"levelo_inurba_marseille","lat":43.21203,"lon":5.35096,"is_reserved":false,"is_disabled":true,"rental_uris":{"android":"levelo://app?vid=0c3fbeaa-55ff-4c7c-a66c-46f4ecc86aeb","ios":"levelo://app?vid=0c3fbeaa-55ff-4c7c-a66c-46f4ecc86aeb"},"vehicle_type_id":"4","last_reported":1746259897,"current_range_meters":12000,"station_id":"st_cvj6sg6p6f1abm77japg","pricing_plan_id":"cebpf4jnsgd1na2vs0mg"},{"bike_id":"40dc78fe-7bfb-425d-a044-df3cd1c8f08d","system_id":"levelo_inurba_marseille","lat":43.28352,"lon":5.38111,"is_reserved":false,"is_disabled":true,"rental_uris":{"android":"levelo://app?vid=40dc78fe-7bfb-425d-a044-df3cd1c8f08d","ios":"levelo://app?vid=40dc78fe-7bfb-425d-a044-df3cd1c8f08d"},"vehicle_type_id":"4","last_reported":1746259897,"current_range_meters":12400,"station_id":"ce4bh412rcd13ifvqdr0","pricing_plan_id":"cebpf4jnsgd1na2vs0mg"},{"bike_id":"fb2a6c66-5045-41c6-9061-073f9fbeb4c4","system_id":"levelo_inurba_marseille","lat":43.29575,"lon":5.37518,"is_reserved":false,"is_disabled":false,"rental_uris":{"android":"levelo://app?vid=fb2a6c66-5045-41c6-9061-073f9fbeb4c4","ios":"levelo://app?vid=fb2a6c66-5045-41c6-9061-073f9fbeb4c4"},"vehicle_type_id":"4","last_reported":1746259897,"current_range_meters":12400,"station_id":"ce4bgh92rcd13ifvqb50","pricing_plan_id":"cebpf4jnsgd1na2vs0mg"},{"bike_id":"8103e5ba-0c41-4b32-abe9-4920a4f338ee","system_id":"levelo_inurba_marseille","lat":43.31479,"lon":5.37261,"is_reserved":false,"is_disabled":false,"rental_uris":{"android":"levelo://app?vid=8103e5ba-0c41-4b32-abe9-4920a4f338ee","ios":"levelo://app?vid=8103e5ba-0c41-4b32-abe9-4920a4f338ee"},"vehicle_type_id":"4","last_reported":1746259897,"current_range_meters":12400,"station_id":"ce4bgt12rcd13ifvqcd0","pricing_plan_id":"cebpf4jnsgd1na2vs0mg"},{"bike_id":"e20bf937-444e-4177-8f66-b87f7a3530ff","system_id":"levelo_inurba_marseille","lat":43.26936,"lon":5.38916,"is_reserved":false,"is_disabled":false,"rental_uris":{"android":"levelo://app?vid=e20bf937-444e-4177-8f66-b87f7a3530ff","ios":"levelo://app?vid=e20bf937-444e-4177-8f66-b87f7a3530ff"},"vehicle_type_id":"4","last_reported":1746259897,"current_range_meters":12400,"station_id":"ce4bhhh2rcd13ifvqfl0","pricing_plan_id":"cebpf4jnsgd1na2vs0mg"},{"bike_id":"4ae02176-31a4-48f7-825f-a587fefa23c2","system_id":"levelo_inurba_marseille","lat":43.30193,"lon":5.3662,"is_reserved":false,"is_disabled":false,"rental_uris":{"android":"levelo://app?vid=4ae02176-31a4-48f7-825f-a587fefa23c2","ios":"levelo://app?vid=4ae02176-31a4-48f7-825f-a587fefa23c2"},"vehicle_type_id":"4","last_reported":1746259897,"current_range_meters":13600,"station_id":"ce4bgrh2rcd13ifvqc8g","pricing_plan_id":"cebpf4jnsgd1na2vs0mg"},{"bike_id":"9faa2555-bb1a-42b4-8bf8-904da7025132","system_id":"levelo_inurba_marseille","lat":43.308113,"lon":5.381577,"is_reserved":false,"is_disabled":false,"rental_uris":{"android":"levelo://app?vid=9faa2555-bb1a-42b4-8bf8-904da7025132","ios":"levelo://app?vid=9faa2555-bb1a-42b4-8bf8-904da7025132"},"vehicle_type_id":"4","last_reported":1746259897,"current_range_meters":13600,"station_id":"ce4bgt12rcd13ifvqce0","pricing_plan_id":"cebpf4jnsgd1na2vs0mg"},{"bike_id":"167d9cab-1574-47f7-b940-c6db31e18c54","system_id":"levelo_inurba_marseille","lat":43.30599,"lon":5.37232,"is_reserved":false,"is_disabled":false,"rental_uris":{"android":"levelo://app?vid=167d9cab-1574-47f7-b940-c6db31e18c54","ios":"levelo://app?vid=167d9cab-1574-47f7-b940-c6db31e18c54"},"vehicle_type_id":"4","last_reported":1746259897,"current_range_meters":13600,"station_id":"ce4bgqh2rcd13ifvqc4g","pricing_plan_id":"cebpf4jnsgd1na2vs0mg"},{"bike_id":"6a40f379-450a-47e9-b040-68404b5d096f","system_id":"levelo_inurba_marseille","lat":43.29904,"lon":5.38129,"is_reserved":false,"is_disabled":false,"rental_uris":{"android":"levelo://app?vid=6a40f379-450a-47e9-b040-68404b5d096f","ios":"levelo://app?vid=6a40f379-450a-47e9-b040-68404b5d096f"},"vehicle_type_id":"4","last_reported":1746259897,"current_range_meters":13600,"station_id":"ce4bgj12rcd13ifvqbc0","pricing_plan_id":"cebpf4jnsgd1na2vs0mg"},{"bike_id":"715d4ccd-4d07-4967-8be3-b199930f65b6","system_id":"levelo_inurba_marseille","lat":43.31087,"lon":5.40118,"is_reserved":false,"is_disabled":false,"rental_uris":{"android":"levelo://app?vid=715d4ccd-4d07-4967-8be3-b199930f65b6","ios":"levelo://app?vid=715d4ccd-4d07-4967-8be3-b199930f65b6"},"vehicle_type_id":"4","last_reported":1746259897,"current_range_meters":13600,"station_id":"","pricing_plan_id":"cebpf4jnsgd1na2vs0mg"},{"bike_id":"c3856106-206a-4f39-adcf-8916ef5dd857","system_id":"levelo_inurba_marseille","lat":43.31063,"lon":5.38366,"is_reserved":false,"is_disabled":false,"rental_uris":{"android":"levelo://app?vid=c3856106-206a-4f39-adcf-8916ef5dd857","ios":"levelo://app?vid=c3856106-206a-4f39-adcf-8916ef5dd857"},"vehicle_type_id":"4","last_reported":1746259897,"current_range_meters":14000,"station_id":"ce4bgv92rcd13ifvqcr0","pricing_plan_id":"cebpf4jnsgd1na2vs0mg"},{"bike_id":"6acf47d4-0a86-4b53-97b4-1bb8347f7f2b","system_id":"levelo_inurba_marseille","lat":43.26485,"lon":5.39539,"is_reserved":false,"is_disabled":false,"rental_uris":{"android":"levelo://app?vid=6acf47d4-0a86-4b53-97b4-1bb8347f7f2b","ios":"levelo://app?vid=6acf47d4-0a86-4b53-97b4-1bb8347f7f2b"},"vehicle_type_id":"4","last_reported":1746259897,"current_range_meters":13600,"station_id":"ce4bhi12rcd13ifvqfq0","pricing_plan_id":"cebpf4jnsgd1na2vs0mg"},{"bike_id":"ff79280e-1855-4d0a-9416-0d33a2ce1c48","system_id":"levelo_inurba_marseille","lat":43.212,"lon":5.35056,"is_reserved":false,"is_disabled":true,"rental_uris":{"android":"levelo://app?vid=ff79280e-1855-4d0a-9416-0d33a2ce1c48","ios":"levelo://app?vid=ff79280e-1855-4d0a-9416-0d33a2ce1c48"},"vehicle_type_id":"4","last_reported":1746259897,"current_range_meters":14400,"station_id":"st_cvj6sg6p6f1abm77japg","pricing_plan_id":"cebpf4jnsgd1na2vs0mg"},{"bike_id":"5cb0c09e-64c9-4674-9264-61e3176e2af4","system_id":"levelo_inurba_marseille","lat":43.28157,"lon":5.42651,"is_reserved":false,"is_disabled":false,"rental_uris":{"android":"levelo://app?vid=5cb0c09e-64c9-4674-9264-61e3176e2af4","ios":"levelo://app?vid=5cb0c09e-64c9-4674-9264-61e3176e2af4"},"vehicle_type_id":"4","last_reported":1746259897,"current_range_meters":14800,"station_id":"ce4bhnh2rcd13ifvqgug","pricing_plan_id":"cebpf4jnsgd1na2vs0mg"},{"bike_id":"fb80c1da-d845-467b-9c3b-2f591f4d56ae","system_id":"levelo_inurba_marseille","lat":43.323406,"lon":5.37422,"is_reserved":false,"is_disabled":false,"rental_uris":{"android":"levelo://app?vid=fb80c1da-d845-467b-9c3b-2f591f4d56ae","ios":"levelo://app?vid=fb80c1da-d845-467b-9c3b-2f591f4d56ae"},"vehicle_type_id":"4","last_reported":1746259897,"current_range_meters":15200,"station_id":"","pricing_plan_id":"cebpf4jnsgd1na2vs0mg"},{"bike_id":"aedf206f-89f3-4f30-9da6-56fb7ff8915b","system_id":"levelo_inurba_marseille","lat":43.28109,"lon":5.40384,"is_reserved":false,"is_disabled":false,"rental_uris":{"android":"levelo://app?vid=aedf206f-89f3-4f30-9da6-56fb7ff8915b","ios":"levelo://app?vid=aedf206f-89f3-4f30-9da6-56fb7ff8915b"},"vehicle_type_id":"4","last_reported":1746259897,"current_range_meters":15200,"station_id":"","pricing_plan_id":"cebpf4jnsgd1na2vs0mg"},{"bike_id":"7ed75719-dadd-4cdb-b8b2-d026804033c7","system_id":"levelo_inurba_marseille","lat":43.29294,"lon":5.36829,"is_reserved":false,"is_disabled":false,"rental_uris":{"android":"levelo://app?vid=7ed75719-dadd-4cdb-b8b2-d026804033c7","ios":"levelo://app?vid=7ed75719-dadd-4cdb-b8b2-d026804033c7"},"vehicle_type_id":"4","last_reported":1746259897,"current_range_meters":15200,"station_id":"ce4bhbp2rcd13ifvqesg","pricing_plan_id":"cebpf4jnsgd1na2vs0mg"},{"bike_id":"a67e9e6b-4731-445c-a5ca-bcfa81f1de39","system_id":"levelo_inurba_marseille","lat":43.33592,"lon":5.41035,"is_reserved":false,"is_disabled":false,"rental_uris":{"android":"levelo://app?vid=a67e9e6b-4731-445c-a5ca-bcfa81f1de39","ios":"levelo://app?vid=a67e9e6b-4731-445c-a5ca-bcfa81f1de39"},"vehicle_type_id":"4","last_reported":1746259897,"current_range_meters":14800,"station_id":"ce4bhqh2rcd13ifvqhmg","pricing_plan_id":"cebpf4jnsgd1na2vs0mg"},{"bike_id":"0be1d185-737c-4035-86f4-b0d551723ed1","system_id":"levelo_inurba_marseille","lat":43.31359,"lon":5.38493,"is_reserved":false,"is_disabled":false,"rental_uris":{"android":"levelo://app?vid=0be1d185-737c-4035-86f4-b0d551723ed1","ios":"levelo://app?vid=0be1d185-737c-4035-86f4-b0d551723ed1"},"vehicle_type_id":"4","last_reported":1746259897,"current_range_meters":15200,"station_id":"ce4bgt92rcd13ifvqcf0","pricing_plan_id":"cebpf4jnsgd1na2vs0mg"},{"bike_id":"54cddff3-058a-4cae-bbdf-ef3adf07efb6","system_id":"levelo_inurba_marseille","lat":43.29612,"lon":5.38077,"is_reserved":false,"is_disabled":false,"rental_uris":{"android":"levelo://app?vid=54cddff3-058a-4cae-bbdf-ef3adf07efb6","ios":"levelo://app?vid=54cddff3-058a-4cae-bbdf-ef3adf07efb6"},"vehicle_type_id":"4","last_reported":1746259897,"current_range_meters":16000,"station_id":"ce4bgl12rcd13ifvqbo0","pricing_plan_id":"cebpf4jnsgd1na2vs0mg"},{"bike_id":"dc5fe893-b143-433b-a238-14153dbad606","system_id":"levelo_inurba_marseille","lat":43.27069,"lon":5.42282,"is_reserved":false,"is_disabled":false,"rental_uris":{"android":"levelo://app?vid=dc5fe893-b143-433b-a238-14153dbad606","ios":"levelo://app?vid=dc5fe893-b143-433b-a238-14153dbad606"},"vehicle_type_id":"4","last_reported":1746259897,"current_range_meters":16000,"station_id":"ce4bhk92rcd13ifvqgb0","pricing_plan_id":"cebpf4jnsgd1na2vs0mg"},{"bike_id":"94bcb1ff-a3b9-4920-acc7-bea9e8c213f5","system_id":"levelo_inurba_marseille","lat":43.28676,"lon":5.38668,"is_reserved":false,"is_disabled":false,"rental_uris":{"android":"levelo://app?vid=94bcb1ff-a3b9-4920-acc7-bea9e8c213f5","ios":"levelo://app?vid=94bcb1ff-a3b9-4920-acc7-bea9e8c213f5"},"vehicle_type_id":"4","last_reported":1746259897,"current_range_meters":16400,"station_id":"ce4bh492rcd13ifvqdug","pricing_plan_id":"cebpf4jnsgd1na2vs0mg"},{"bike_id":"8f654876-a0a9-4693-b788-14eca3d7fa0d","system_id":"levelo_inurba_marseille","lat":43.29619,"lon":5.40605,"is_reserved":false,"is_disabled":false,"rental_uris":{"android":"levelo://app?vid=8f654876-a0a9-4693-b788-14eca3d7fa0d","ios":"levelo://app?vid=8f654876-a0a9-4693-b788-14eca3d7fa0d"},"vehicle_type_id":"4","last_reported":1746259897,"current_range_meters":16400,"station_id":"ce4bh0h2rcd13ifvqd60","pricing_plan_id":"cebpf4jnsgd1na2vs0mg"},{"bike_id":"001eb7d2-22eb-4a35-8184-65ae1e03babb","system_id":"levelo_inurba_marseille","lat":43.30461,"lon":5.37902,"is_reserved":false,"is_disabled":false,"rental_uris":{"android":"levelo://app?vid=001eb7d2-22eb-4a35-8184-65ae1e03babb","ios":"levelo://app?vid=001eb7d2-22eb-4a35-8184-65ae1e03babb"},"vehicle_type_id":"4","last_reported":1746259897,"current_range_meters":16400,"station_id":"ce4bgup2rcd13ifvqcn0","pricing_plan_id":"cebpf4jnsgd1na2vs0mg"},{"bike_id":"e0ceefc0-61c9-406f-91eb-ef69db9dbe42","system_id":"levelo_inurba_marseille","lat":43.26116,"lon":5.41451,"is_reserved":false,"is_disabled":false,"rental_uris":{"android":"levelo://app?vid=e0ceefc0-61c9-406f-91eb-ef69db9dbe42","ios":"levelo://app?vid=e0ceefc0-61c9-406f-91eb-ef69db9dbe42"},"vehicle_type_id":"4","last_reported":1746259897,"current_range_meters":16800,"station_id":"","pricing_plan_id":"cebpf4jnsgd1na2vs0mg"},{"bike_id":"ca491e5c-cc26-4369-9359-35ed40335578","system_id":"levelo_inurba_marseille","lat":43.241655,"lon":5.39733,"is_reserved":false,"is_disabled":true,"rental_uris":{"android":"levelo://app?vid=ca491e5c-cc26-4369-9359-35ed40335578","ios":"levelo://app?vid=ca491e5c-cc26-4369-9359-35ed40335578"},"vehicle_type_id":"4","last_reported":1746259897,"current_range_meters":16800,"station_id":"ce4bhn12rcd13ifvqgpg","pricing_plan_id":"cebpf4jnsgd1na2vs0mg"},{"bike_id":"4cac8a45-449f-449e-9ca9-04490eb84c50","system_id":"levelo_inurba_marseille","lat":43.240664,"lon":5.377668,"is_reserved":false,"is_disabled":false,"rental_uris":{"android":"levelo://app?vid=4cac8a45-449f-449e-9ca9-04490eb84c50","ios":"levelo://app?vid=4cac8a45-449f-449e-9ca9-04490eb84c50"},"vehicle_type_id":"4","last_reported":1746259897,"current_range_meters":16800,"station_id":"ce4bhnp2rcd13ifvqgvg","pricing_plan_id":"cebpf4jnsgd1na2vs0mg"},{"bike_id":"13f45c48-59a4-4b11-8dcf-2c91f5157d7a","system_id":"levelo_inurba_marseille","lat":43.31471,"lon":5.37289,"is_reserved":false,"is_disabled":false,"rental_uris":{"android":"levelo://app?vid=13f45c48-59a4-4b11-8dcf-2c91f5157d7a","ios":"levelo://app?vid=13f45c48-59a4-4b11-8dcf-2c91f5157d7a"},"vehicle_type_id":"4","last_reported":1746259897,"current_range_meters":16800,"station_id":"ce4bgt12rcd13ifvqcd0","pricing_plan_id":"cebpf4jnsgd1na2vs0mg"},{"bike_id":"0bb0a6cd-b8a5-41d3-88ec-e9648a03c7f5","system_id":"levelo_inurba_marseille","lat":43.2592,"lon":5.40862,"is_reserved":false,"is_disabled":true,"rental_uris":{"android":"levelo://app?vid=0bb0a6cd-b8a5-41d3-88ec-e9648a03c7f5","ios":"levelo://app?vid=0bb0a6cd-b8a5-41d3-88ec-e9648a03c7f5"},"vehicle_type_id":"4","last_reported":1746259897,"current_range_meters":16800,"station_id":"ce4bhm92rcd13ifvqglg","pricing_plan_id":"cebpf4jnsgd1na2vs0mg"},{"bike_id":"8a6cdd32-7be7-4ff5-9617-5b7b1177e625","system_id":"levelo_inurba_marseille","lat":43.25582,"lon":5.38229,"is_reserved":false,"is_disabled":false,"rental_uris":{"android":"levelo://app?vid=8a6cdd32-7be7-4ff5-9617-5b7b1177e625","ios":"levelo://app?vid=8a6cdd32-7be7-4ff5-9617-5b7b1177e625"},"vehicle_type_id":"4","last_reported":1746259897,"current_range_meters":16800,"station_id":"ce4bhih2rcd13ifvqfs0","pricing_plan_id":"cebpf4jnsgd1na2vs0mg"},{"bike_id":"3f506505-a089-4076-bc43-08024cf6ce18","system_id":"levelo_inurba_marseille","lat":43.30887,"lon":5.37207,"is_reserved":false,"is_disabled":false,"rental_uris":{"android":"levelo://app?vid=3f506505-a089-4076-bc43-08024cf6ce18","ios":"levelo://app?vid=3f506505-a089-4076-bc43-08024cf6ce18"},"vehicle_type_id":"4","last_reported":1746259897,"current_range_meters":16800,"station_id":"ce4bguh2rcd13ifvqckg","pricing_plan_id":"cebpf4jnsgd1na2vs0mg"},{"bike_id":"a8f57f2b-dc8a-40c9-9d19-a8c7c5f83310","system_id":"levelo_inurba_marseille","lat":43.269475,"lon":5.40276,"is_reserved":false,"is_disabled":true,"rental_uris":{"android":"levelo://app?vid=a8f57f2b-dc8a-40c9-9d19-a8c7c5f83310","ios":"levelo://app?vid=a8f57f2b-dc8a-40c9-9d19-a8c7c5f83310"},"vehicle_type_id":"4","last_reported":1746259897,"current_range_meters":17200,"station_id":"cjm6bp8fraef2m0cb0m0","pricing_plan_id":"cebpf4jnsgd1na2vs0mg"},{"bike_id":"48d076c9-f0c1-4849-a112-ad30c88e222e","system_id":"levelo_inurba_marseille","lat":43.29759,"lon":5.37684,"is_reserved":false,"is_disabled":false,"rental_uris":{"android":"levelo://app?vid=48d076c9-f0c1-4849-a112-ad30c88e222e","ios":"levelo://app?vid=48d076c9-f0c1-4849-a112-ad30c88e222e"},"vehicle_type_id":"4","last_reported":1746259897,"current_range_meters":17200,"station_id":"ce4bgkh2rcd13ifvqbl0","pricing_plan_id":"cebpf4jnsgd1na2vs0mg"},{"bike_id":"ec35e221-69c3-42cb-b25a-880c4a7a5d7b","system_id":"levelo_inurba_marseille","lat":43.30894,"lon":5.37191,"is_reserved":false,"is_disabled":false,"rental_uris":{"android":"levelo://app?vid=ec35e221-69c3-42cb-b25a-880c4a7a5d7b","ios":"levelo://app?vid=ec35e221-69c3-42cb-b25a-880c4a7a5d7b"},"vehicle_type_id":"4","last_reported":1746259897,"current_range_meters":17200,"station_id":"ce4bguh2rcd13ifvqckg","pricing_plan_id":"cebpf4jnsgd1na2vs0mg"},{"bike_id":"cdfd7ebf-d40f-442e-8508-ccaa5f6b29f7","system_id":"levelo_inurba_marseille","lat":43.25904,"lon":5.40832,"is_reserved":false,"is_disabled":false,"rental_uris":{"android":"levelo://app?vid=cdfd7ebf-d40f-442e-8508-ccaa5f6b29f7","ios":"levelo://app?vid=cdfd7ebf-d40f-442e-8508-ccaa5f6b29f7"},"vehicle_type_id":"4","last_reported":1746259897,"current_range_meters":17200,"station_id":"ce4bhm92rcd13ifvqglg","pricing_plan_id":"cebpf4jnsgd1na2vs0mg"},{"bike_id":"0747ff78-9ffa-42c6-aced-bef6365af5b8","system_id":"levelo_inurba_marseille","lat":43.27425,"lon":5.39412,"is_reserved":false,"is_disabled":false,"rental_uris":{"android":"levelo://app?vid=0747ff78-9ffa-42c6-aced-bef6365af5b8","ios":"levelo://app?vid=0747ff78-9ffa-42c6-aced-bef6365af5b8"},"vehicle_type_id":"4","last_reported":1746259897,"current_range_meters":17200,"station_id":"ce4bhdp2rcd13ifvqf20","pricing_plan_id":"cebpf4jnsgd1na2vs0mg"},{"bike_id":"79520f39-4562-402c-b3c5-76cbcde670b7","system_id":"levelo_inurba_marseille","lat":43.31357,"lon":5.38484,"is_reserved":false,"is_disabled":false,"rental_uris":{"android":"levelo://app?vid=79520f39-4562-402c-b3c5-76cbcde670b7","ios":"levelo://app?vid=79520f39-4562-402c-b3c5-76cbcde670b7"},"vehicle_type_id":"4","last_reported":1746259897,"current_range_meters":17600,"station_id":"","pricing_plan_id":"cebpf4jnsgd1na2vs0mg"},{"bike_id":"d76bfe54-9f31-429e-b3fd-66658987c5a6","system_id":"levelo_inurba_marseille","lat":43.32247,"lon":5.36779,"is_reserved":false,"is_disabled":false,"rental_uris":{"android":"levelo://app?vid=d76bfe54-9f31-429e-b3fd-66658987c5a6","ios":"levelo://app?vid=d76bfe54-9f31-429e-b3fd-66658987c5a6"},"vehicle_type_id":"4","last_reported":1746259897,"current_range_meters":17600,"station_id":"","pricing_plan_id":"cebpf4jnsgd1na2vs0mg"},{"bike_id":"0df7cbdc-0823-4846-ae15-f96ec53c12bc","system_id":"levelo_inurba_marseille","lat":43.31116,"lon":5.37756,"is_reserved":false,"is_disabled":false,"rental_uris":{"android":"levelo://app?vid=0df7cbdc-0823-4846-ae15-f96ec53c12bc","ios":"levelo://app?vid=0df7cbdc-0823-4846-ae15-f96ec53c12bc"},"vehicle_type_id":"4","last_reported":1746259897,"current_range_meters":17600,"station_id":"ce4bgt92rcd13ifvqcg0","pricing_plan_id":"cebpf4jnsgd1na2vs0mg"},{"bike_id":"2f0bd8d6-00fd-4e3a-b6aa-93f861586ad7","system_id":"levelo_inurba_marseille","lat":43.26555,"lon":5.37283,"is_reserved":false,"is_disabled":false,"rental_uris":{"android":"levelo://app?vid=2f0bd8d6-00fd-4e3a-b6aa-93f861586ad7","ios":"levelo://app?vid=2f0bd8d6-00fd-4e3a-b6aa-93f861586ad7"},"vehicle_type_id":"4","last_reported":1746259897,"current_range_meters":17600,"station_id":"ce4bhg12rcd13ifvqf70","pricing_plan_id":"cebpf4jnsgd1na2vs0mg"},{"bike_id":"f74c6c35-a306-4ae1-9069-33ebc6b7c6b8","system_id":"levelo_inurba_marseille","lat":43.23182,"lon":5.39983,"is_reserved":false,"is_disabled":false,"rental_uris":{"android":"levelo://app?vid=f74c6c35-a306-4ae1-9069-33ebc6b7c6b8","ios":"levelo://app?vid=f74c6c35-a306-4ae1-9069-33ebc6b7c6b8"},"vehicle_type_id":"4","last_reported":1746259897,"current_range_meters":17600,"station_id":"ce4bhn12rcd13ifvqgqg","pricing_plan_id":"cebpf4jnsgd1na2vs0mg"},{"bike_id":"0429d970-ccc1-4932-a108-9f5804f6f682","system_id":"levelo_inurba_marseille","lat":43.23179,"lon":5.39987,"is_reserved":false,"is_disabled":false,"rental_uris":{"android":"levelo://app?vid=0429d970-ccc1-4932-a108-9f5804f6f682","ios":"levelo://app?vid=0429d970-ccc1-4932-a108-9f5804f6f682"},"vehicle_type_id":"4","last_reported":1746259897,"current_range_meters":17600,"station_id":"ce4bhn12rcd13ifvqgqg","pricing_plan_id":"cebpf4jnsgd1na2vs0mg"},{"bike_id":"449fbb39-fa46-44db-ab43-08196cfa3d6a","system_id":"levelo_inurba_marseille","lat":43.29596,"lon":5.38102,"is_reserved":false,"is_disabled":false,"rental_uris":{"android":"levelo://app?vid=449fbb39-fa46-44db-ab43-08196cfa3d6a","ios":"levelo://app?vid=449fbb39-fa46-44db-ab43-08196cfa3d6a"},"vehicle_type_id":"4","last_reported":1746259897,"current_range_meters":18000,"station_id":"ce4bgl12rcd13ifvqbo0","pricing_plan_id":"cebpf4jnsgd1na2vs0mg"},{"bike_id":"75b62ebf-ee38-4cac-9568-21c315ebd89e","system_id":"levelo_inurba_marseille","lat":43.27573,"lon":5.38418,"is_reserved":false,"is_disabled":false,"rental_uris":{"android":"levelo://app?vid=75b62ebf-ee38-4cac-9568-21c315ebd89e","ios":"levelo://app?vid=75b62ebf-ee38-4cac-9568-21c315ebd89e"},"vehicle_type_id":"4","last_reported":1746259897,"current_range_meters":17600,"station_id":"ce4bhh92rcd13ifvqfi0","pricing_plan_id":"cebpf4jnsgd1na2vs0mg"},{"bike_id":"eaadb78f-0516-400e-a932-418372f4ca70","system_id":"levelo_inurba_marseille","lat":43.30434,"lon":5.41266,"is_reserved":false,"is_disabled":true,"rental_uris":{"android":"levelo://app?vid=eaadb78f-0516-400e-a932-418372f4ca70","ios":"levelo://app?vid=eaadb78f-0516-400e-a932-418372f4ca70"},"vehicle_type_id":"4","last_reported":1746259897,"current_range_meters":18000,"station_id":"ce4bhop2rcd13ifvqh8g","pricing_plan_id":"cebpf4jnsgd1na2vs0mg"},{"bike_id":"bc001080-a241-4df9-9258-794a1186b1b9","system_id":"levelo_inurba_marseille","lat":43.28421,"lon":5.37528,"is_reserved":false,"is_disabled":false,"rental_uris":{"android":"levelo://app?vid=bc001080-a241-4df9-9258-794a1186b1b9","ios":"levelo://app?vid=bc001080-a241-4df9-9258-794a1186b1b9"},"vehicle_type_id":"4","last_reported":1746259897,"current_range_meters":18000,"station_id":"ce4bh412rcd13ifvqds0","pricing_plan_id":"cebpf4jnsgd1na2vs0mg"},{"bike_id":"2cd00fa1-aa9b-4b46-86ba-129fb9364ad2","system_id":"levelo_inurba_marseille","lat":43.23147,"lon":5.43736,"is_reserved":false,"is_disabled":false,"rental_uris":{"android":"levelo://app?vid=2cd00fa1-aa9b-4b46-86ba-129fb9364ad2","ios":"levelo://app?vid=2cd00fa1-aa9b-4b46-86ba-129fb9364ad2"},"vehicle_type_id":"4","last_reported":1746259897,"current_range_meters":18800,"station_id":"ce4bhmp2rcd13ifvqgog","pricing_plan_id":"cebpf4jnsgd1na2vs0mg"},{"bike_id":"e34680cc-effe-4b28-bc4e-568a66cdf076","system_id":"levelo_inurba_marseille","lat":43.277074,"lon":5.419767,"is_reserved":false,"is_disabled":false,"rental_uris":{"android":"levelo://app?vid=e34680cc-effe-4b28-bc4e-568a66cdf076","ios":"levelo://app?vid=e34680cc-effe-4b28-bc4e-568a66cdf076"},"vehicle_type_id":"4","last_reported":1746259897,"current_range_meters":18800,"station_id":"","pricing_plan_id":"cebpf4jnsgd1na2vs0mg"},{"bike_id":"d6a6f75b-73c3-463c-a1a6-35bbb4932dc9","system_id":"levelo_inurba_marseille","lat":43.27503,"lon":5.42494,"is_reserved":false,"is_disabled":false,"rental_uris":{"android":"levelo://app?vid=d6a6f75b-73c3-463c-a1a6-35bbb4932dc9","ios":"levelo://app?vid=d6a6f75b-73c3-463c-a1a6-35bbb4932dc9"},"vehicle_type_id":"4","last_reported":1746259897,"current_range_meters":18800,"station_id":"ce4bhn92rcd13ifvqgrg","pricing_plan_id":"cebpf4jnsgd1na2vs0mg"},{"bike_id":"11771b63-0655-4beb-b0a1-469a6069d201","system_id":"levelo_inurba_marseille","lat":43.29341,"lon":5.37833,"is_reserved":false,"is_disabled":false,"rental_uris":{"android":"levelo://app?vid=11771b63-0655-4beb-b0a1-469a6069d201","ios":"levelo://app?vid=11771b63-0655-4beb-b0a1-469a6069d201"},"vehicle_type_id":"4","last_reported":1746259897,"current_range_meters":18800,"station_id":"ce4bgjh2rcd13ifvqbf0","pricing_plan_id":"cebpf4jnsgd1na2vs0mg"},{"bike_id":"be58ce8b-41be-4406-96e6-d94ff951d7a0","system_id":"levelo_inurba_marseille","lat":43.25721,"lon":5.411076,"is_reserved":false,"is_disabled":true,"rental_uris":{"android":"levelo://app?vid=be58ce8b-41be-4406-96e6-d94ff951d7a0","ios":"levelo://app?vid=be58ce8b-41be-4406-96e6-d94ff951d7a0"},"vehicle_type_id":"4","last_reported":1746259897,"current_range_meters":18800,"station_id":"ce4bhkp2rcd13ifvqgd0","pricing_plan_id":"cebpf4jnsgd1na2vs0mg"},{"bike_id":"c8e16fcb-5510-4723-b6e7-2aa49c1b3b8d","system_id":"levelo_inurba_marseille","lat":43.31955,"lon":5.37034,"is_reserved":false,"is_disabled":false,"rental_uris":{"android":"levelo://app?vid=c8e16fcb-5510-4723-b6e7-2aa49c1b3b8d","ios":"levelo://app?vid=c8e16fcb-5510-4723-b6e7-2aa49c1b3b8d"},"vehicle_type_id":"4","last_reported":1746259897,"current_range_meters":18800,"station_id":"","pricing_plan_id":"cebpf4jnsgd1na2vs0mg"},{"bike_id":"ec6da0aa-0845-4bad-8a7b-8655154f5109","system_id":"levelo_inurba_marseille","lat":43.30809,"lon":5.43508,"is_reserved":false,"is_disabled":false,"rental_uris":{"android":"levelo://app?vid=ec6da0aa-0845-4bad-8a7b-8655154f5109","ios":"levelo://app?vid=ec6da0aa-0845-4bad-8a7b-8655154f5109"},"vehicle_type_id":"4","last_reported":1746259897,"current_range_meters":18800,"station_id":"ce4bhph2rcd13ifvqheg","pricing_plan_id":"cebpf4jnsgd1na2vs0mg"},{"bike_id":"cb832960-27bc-4dac-9bb6-b95e88f9ce55","system_id":"levelo_inurba_marseille","lat":43.2797,"lon":5.38737,"is_reserved":false,"is_disabled":false,"rental_uris":{"android":"levelo://app?vid=cb832960-27bc-4dac-9bb6-b95e88f9ce55","ios":"levelo://app?vid=cb832960-27bc-4dac-9bb6-b95e88f9ce55"},"vehicle_type_id":"4","last_reported":1746259897,"current_range_meters":18800,"station_id":"ce4bhg12rcd13ifvqf80","pricing_plan_id":"cebpf4jnsgd1na2vs0mg"},{"bike_id":"e48facf2-cd80-422d-936a-277d567d7555","system_id":"levelo_inurba_marseille","lat":43.28628,"lon":5.351,"is_reserved":false,"is_disabled":true,"rental_uris":{"android":"levelo://app?vid=e48facf2-cd80-422d-936a-277d567d7555","ios":"levelo://app?vid=e48facf2-cd80-422d-936a-277d567d7555"},"vehicle_type_id":"4","last_reported":1746259897,"current_range_meters":19200,"station_id":"ce4bhch2rcd13ifvqeug","pricing_plan_id":"cebpf4jnsgd1na2vs0mg"},{"bike_id":"9df6171a-4c12-4de8-9484-565e7c70b510","system_id":"levelo_inurba_marseille","lat":43.23181,"lon":5.39985,"is_reserved":false,"is_disabled":false,"rental_uris":{"android":"levelo://app?vid=9df6171a-4c12-4de8-9484-565e7c70b510","ios":"levelo://app?vid=9df6171a-4c12-4de8-9484-565e7c70b510"},"vehicle_type_id":"4","last_reported":1746259897,"current_range_meters":18800,"station_id":"ce4bhn12rcd13ifvqgqg","pricing_plan_id":"cebpf4jnsgd1na2vs0mg"},{"bike_id":"c0f19189-dc1a-488b-9b6d-d969d2a90cdb","system_id":"levelo_inurba_marseille","lat":43.30798,"lon":5.38141,"is_reserved":false,"is_disabled":false,"rental_uris":{"android":"levelo://app?vid=c0f19189-dc1a-488b-9b6d-d969d2a90cdb","ios":"levelo://app?vid=c0f19189-dc1a-488b-9b6d-d969d2a90cdb"},"vehicle_type_id":"4","last_reported":1746259897,"current_range_meters":19200,"station_id":"ce4bgt12rcd13ifvqce0","pricing_plan_id":"cebpf4jnsgd1na2vs0mg"},{"bike_id":"1a877ed8-aa67-486c-a34b-30e006e67ea0","system_id":"levelo_inurba_marseille","lat":43.28509,"lon":5.38041,"is_reserved":false,"is_disabled":false,"rental_uris":{"android":"levelo://app?vid=1a877ed8-aa67-486c-a34b-30e006e67ea0","ios":"levelo://app?vid=1a877ed8-aa67-486c-a34b-30e006e67ea0"},"vehicle_type_id":"4","last_reported":1746259897,"current_range_meters":19200,"station_id":"","pricing_plan_id":"cebpf4jnsgd1na2vs0mg"},{"bike_id":"ee99ba6e-e5f1-4473-a6f8-583938304dee","system_id":"levelo_inurba_marseille","lat":43.30152,"lon":5.38091,"is_reserved":false,"is_disabled":false,"rental_uris":{"android":"levelo://app?vid=ee99ba6e-e5f1-4473-a6f8-583938304dee","ios":"levelo://app?vid=ee99ba6e-e5f1-4473-a6f8-583938304dee"},"vehicle_type_id":"4","last_reported":1746259897,"current_range_meters":19200,"station_id":"ce4bgjp2rcd13ifvqbh0","pricing_plan_id":"cebpf4jnsgd1na2vs0mg"},{"bike_id":"88ef28a1-c4c7-4acc-9123-f781e5cf0742","system_id":"levelo_inurba_marseille","lat":43.27372,"lon":5.36275,"is_reserved":false,"is_disabled":false,"rental_uris":{"android":"levelo://app?vid=88ef28a1-c4c7-4acc-9123-f781e5cf0742","ios":"levelo://app?vid=88ef28a1-c4c7-4acc-9123-f781e5cf0742"},"vehicle_type_id":"4","last_reported":1746259897,"current_range_meters":19600,"station_id":"ce4bhbh2rcd13ifvqeo0","pricing_plan_id":"cebpf4jnsgd1na2vs0mg"},{"bike_id":"7a3ce176-b92c-4f7e-b5e4-18195d21139c","system_id":"levelo_inurba_marseille","lat":43.23183,"lon":5.39995,"is_reserved":false,"is_disabled":false,"rental_uris":{"android":"levelo://app?vid=7a3ce176-b92c-4f7e-b5e4-18195d21139c","ios":"levelo://app?vid=7a3ce176-b92c-4f7e-b5e4-18195d21139c"},"vehicle_type_id":"4","last_reported":1746259897,"current_range_meters":19600,"station_id":"ce4bhn12rcd13ifvqgqg","pricing_plan_id":"cebpf4jnsgd1na2vs0mg"},{"bike_id":"05cbd45a-9f6b-4466-8102-d65605e29836","system_id":"levelo_inurba_marseille","lat":43.30156,"lon":5.38087,"is_reserved":false,"is_disabled":false,"rental_uris":{"android":"levelo://app?vid=05cbd45a-9f6b-4466-8102-d65605e29836","ios":"levelo://app?vid=05cbd45a-9f6b-4466-8102-d65605e29836"},"vehicle_type_id":"4","last_reported":1746259897,"current_range_meters":19600,"station_id":"ce4bgjp2rcd13ifvqbh0","pricing_plan_id":"cebpf4jnsgd1na2vs0mg"},{"bike_id":"1b50cafa-6fef-41c4-bdbc-f07904f8a256","system_id":"levelo_inurba_marseille","lat":43.3016,"lon":5.38096,"is_reserved":false,"is_disabled":false,"rental_uris":{"android":"levelo://app?vid=1b50cafa-6fef-41c4-bdbc-f07904f8a256","ios":"levelo://app?vid=1b50cafa-6fef-41c4-bdbc-f07904f8a256"},"vehicle_type_id":"4","last_reported":1746259897,"current_range_meters":19600,"station_id":"ce4bgjp2rcd13ifvqbh0","pricing_plan_id":"cebpf4jnsgd1na2vs0mg"},{"bike_id":"7f61457f-a8bd-43bb-93a3-252837b6e6b4","system_id":"levelo_inurba_marseille","lat":43.274959,"lon":5.424565,"is_reserved":false,"is_disabled":false,"rental_uris":{"android":"levelo://app?vid=7f61457f-a8bd-43bb-93a3-252837b6e6b4","ios":"levelo://app?vid=7f61457f-a8bd-43bb-93a3-252837b6e6b4"},"vehicle_type_id":"4","last_reported":1746259897,"current_range_meters":19600,"station_id":"ce4bhn92rcd13ifvqgrg","pricing_plan_id":"cebpf4jnsgd1na2vs0mg"},{"bike_id":"df299acd-d2f6-428f-92c2-cf56b5262709","system_id":"levelo_inurba_marseille","lat":43.26213,"lon":5.3744,"is_reserved":false,"is_disabled":false,"rental_uris":{"android":"levelo://app?vid=df299acd-d2f6-428f-92c2-cf56b5262709","ios":"levelo://app?vid=df299acd-d2f6-428f-92c2-cf56b5262709"},"vehicle_type_id":"4","last_reported":1746259897,"current_range_meters":19600,"station_id":"ce4bhgp2rcd13ifvqfc0","pricing_plan_id":"cebpf4jnsgd1na2vs0mg"},{"bike_id":"6eac989f-2c51-4d21-a0eb-00a05abd69f3","system_id":"levelo_inurba_marseille","lat":43.32357,"lon":5.36757,"is_reserved":false,"is_disabled":false,"rental_uris":{"android":"levelo://app?vid=6eac989f-2c51-4d21-a0eb-00a05abd69f3","ios":"levelo://app?vid=6eac989f-2c51-4d21-a0eb-00a05abd69f3"},"vehicle_type_id":"4","last_reported":1746259897,"current_range_meters":20000,"station_id":"ce4bhsh2rcd13ifvqi2g","pricing_plan_id":"cebpf4jnsgd1na2vs0mg"},{"bike_id":"ccfa5482-693d-40f1-885c-4ecd3a7e6919","system_id":"levelo_inurba_marseille","lat":43.30884,"lon":5.37196,"is_reserved":false,"is_disabled":false,"rental_uris":{"android":"levelo://app?vid=ccfa5482-693d-40f1-885c-4ecd3a7e6919","ios":"levelo://app?vid=ccfa5482-693d-40f1-885c-4ecd3a7e6919"},"vehicle_type_id":"4","last_reported":1746259897,"current_range_meters":19600,"station_id":"ce4bguh2rcd13ifvqckg","pricing_plan_id":"cebpf4jnsgd1na2vs0mg"},{"bike_id":"3699300a-5a2a-424f-96f5-b5854001350a","system_id":"levelo_inurba_marseille","lat":43.28405,"lon":5.38081,"is_reserved":false,"is_disabled":false,"rental_uris":{"android":"levelo://app?vid=3699300a-5a2a-424f-96f5-b5854001350a","ios":"levelo://app?vid=3699300a-5a2a-424f-96f5-b5854001350a"},"vehicle_type_id":"4","last_reported":1746259897,"current_range_meters":20000,"station_id":"","pricing_plan_id":"cebpf4jnsgd1na2vs0mg"},{"bike_id":"bf0826ef-a5bc-4c79-a4c0-d73a8192de4d","system_id":"levelo_inurba_marseille","lat":43.29609,"lon":5.37721,"is_reserved":false,"is_disabled":false,"rental_uris":{"android":"levelo://app?vid=bf0826ef-a5bc-4c79-a4c0-d73a8192de4d","ios":"levelo://app?vid=bf0826ef-a5bc-4c79-a4c0-d73a8192de4d"},"vehicle_type_id":"4","last_reported":1746259897,"current_range_meters":20000,"station_id":"ce4bgi92rcd13ifvqb90","pricing_plan_id":"cebpf4jnsgd1na2vs0mg"},{"bike_id":"249dbb21-dfe4-4dd5-9e8c-27a5d98cb11a","system_id":"levelo_inurba_marseille","lat":43.310682,"lon":5.383511,"is_reserved":false,"is_disabled":false,"rental_uris":{"android":"levelo://app?vid=249dbb21-dfe4-4dd5-9e8c-27a5d98cb11a","ios":"levelo://app?vid=249dbb21-dfe4-4dd5-9e8c-27a5d98cb11a"},"vehicle_type_id":"4","last_reported":1746259897,"current_range_meters":20400,"station_id":"ce4bgv92rcd13ifvqcr0","pricing_plan_id":"cebpf4jnsgd1na2vs0mg"},{"bike_id":"291e45f2-d5c7-4fea-a139-6570e86a7cf6","system_id":"levelo_inurba_marseille","lat":43.28032,"lon":5.36944,"is_reserved":false,"is_disabled":false,"rental_uris":{"android":"levelo://app?vid=291e45f2-d5c7-4fea-a139-6570e86a7cf6","ios":"levelo://app?vid=291e45f2-d5c7-4fea-a139-6570e86a7cf6"},"vehicle_type_id":"4","last_reported":1746259897,"current_range_meters":20400,"station_id":"ce4bha12rcd13ifvqef0","pricing_plan_id":"cebpf4jnsgd1na2vs0mg"},{"bike_id":"72688617-9135-42da-8793-e5a91040f395","system_id":"levelo_inurba_marseille","lat":43.21742,"lon":5.34608,"is_reserved":false,"is_disabled":false,"rental_uris":{"android":"levelo://app?vid=72688617-9135-42da-8793-e5a91040f395","ios":"levelo://app?vid=72688617-9135-42da-8793-e5a91040f395"},"vehicle_type_id":"4","last_reported":1746259897,"current_range_meters":20800,"station_id":"st_cvj6r9ubvosntc0bgbag","pricing_plan_id":"cebpf4jnsgd1na2vs0mg"},{"bike_id":"0bf8fabe-1c96-4318-b318-8e31aae2f6c1","system_id":"levelo_inurba_marseille","lat":43.302191,"lon":5.401314,"is_reserved":false,"is_disabled":false,"rental_uris":{"android":"levelo://app?vid=0bf8fabe-1c96-4318-b318-8e31aae2f6c1","ios":"levelo://app?vid=0bf8fabe-1c96-4318-b318-8e31aae2f6c1"},"vehicle_type_id":"4","last_reported":1746259897,"current_range_meters":20800,"station_id":"ce4bh012rcd13ifvqd10","pricing_plan_id":"cebpf4jnsgd1na2vs0mg"},{"bike_id":"13e30c6a-958c-4801-a7f9-9de71d7f500c","system_id":"levelo_inurba_marseille","lat":43.31087,"lon":5.42429,"is_reserved":false,"is_disabled":false,"rental_uris":{"android":"levelo://app?vid=13e30c6a-958c-4801-a7f9-9de71d7f500c","ios":"levelo://app?vid=13e30c6a-958c-4801-a7f9-9de71d7f500c"},"vehicle_type_id":"4","last_reported":1746259897,"current_range_meters":20800,"station_id":"ce4bhp92rcd13ifvqhag","pricing_plan_id":"cebpf4jnsgd1na2vs0mg"},{"bike_id":"081de96f-bf51-443b-a90b-f2898e08d1c4","system_id":"levelo_inurba_marseille","lat":43.29563,"lon":5.37514,"is_reserved":false,"is_disabled":false,"rental_uris":{"android":"levelo://app?vid=081de96f-bf51-443b-a90b-f2898e08d1c4","ios":"levelo://app?vid=081de96f-bf51-443b-a90b-f2898e08d1c4"},"vehicle_type_id":"4","last_reported":1746259897,"current_range_meters":20800,"station_id":"ce4bgh92rcd13ifvqb50","pricing_plan_id":"cebpf4jnsgd1na2vs0mg"},{"bike_id":"899f1c13-7008-4f05-81eb-05e3064d591d","system_id":"levelo_inurba_marseille","lat":43.28508,"lon":5.35036,"is_reserved":false,"is_disabled":false,"rental_uris":{"android":"levelo://app?vid=899f1c13-7008-4f05-81eb-05e3064d591d","ios":"levelo://app?vid=899f1c13-7008-4f05-81eb-05e3064d591d"},"vehicle_type_id":"4","last_reported":1746259897,"current_range_meters":20800,"station_id":"","pricing_plan_id":"cebpf4jnsgd1na2vs0mg"},{"bike_id":"549b3ceb-be76-4df9-ae21-e94e45c72e59","system_id":"levelo_inurba_marseille","lat":43.30526,"lon":5.36549,"is_reserved":false,"is_disabled":false,"rental_uris":{"android":"levelo://app?vid=549b3ceb-be76-4df9-ae21-e94e45c72e59","ios":"levelo://app?vid=549b3ceb-be76-4df9-ae21-e94e45c72e59"},"vehicle_type_id":"4","last_reported":1746259897,"current_range_meters":21600,"station_id":"ce4bgs12rcd13ifvqcag","pricing_plan_id":"cebpf4jnsgd1na2vs0mg"},{"bike_id":"cbe9032b-ff18-4bb1-b940-bde7497ff44e","system_id":"levelo_inurba_marseille","lat":43.303674,"lon":5.42487,"is_reserved":false,"is_disabled":true,"rental_uris":{"android":"levelo://app?vid=cbe9032b-ff18-4bb1-b940-bde7497ff44e","ios":"levelo://app?vid=cbe9032b-ff18-4bb1-b940-bde7497ff44e"},"vehicle_type_id":"4","last_reported":1746259897,"current_range_meters":22000,"station_id":"ce4bhoh2rcd13ifvqh6g","pricing_plan_id":"cebpf4jnsgd1na2vs0mg"},{"bike_id":"c63f4bcf-7b9b-44e4-bb40-aee044159bf6","system_id":"levelo_inurba_marseille","lat":43.30601,"lon":5.37219,"is_reserved":false,"is_disabled":false,"rental_uris":{"android":"levelo://app?vid=c63f4bcf-7b9b-44e4-bb40-aee044159bf6","ios":"levelo://app?vid=c63f4bcf-7b9b-44e4-bb40-aee044159bf6"},"vehicle_type_id":"4","last_reported":1746259897,"current_range_meters":22000,"station_id":"ce4bgqh2rcd13ifvqc4g","pricing_plan_id":"cebpf4jnsgd1na2vs0mg"},{"bike_id":"dcdf0b8b-ec60-490a-9293-a94b9cb6cee9","system_id":"levelo_inurba_marseille","lat":43.29615,"lon":5.37131,"is_reserved":false,"is_disabled":false,"rental_uris":{"android":"levelo://app?vid=dcdf0b8b-ec60-490a-9293-a94b9cb6cee9","ios":"levelo://app?vid=dcdf0b8b-ec60-490a-9293-a94b9cb6cee9"},"vehicle_type_id":"4","last_reported":1746259897,"current_range_meters":22000,"station_id":"ce4bgnh2rcd13ifvqc0g","pricing_plan_id":"cebpf4jnsgd1na2vs0mg"},{"bike_id":"14b16b4c-a19e-48c4-a071-1b39e2445a40","system_id":"levelo_inurba_marseille","lat":43.23961,"lon":5.36642,"is_reserved":false,"is_disabled":false,"rental_uris":{"android":"levelo://app?vid=14b16b4c-a19e-48c4-a071-1b39e2445a40","ios":"levelo://app?vid=14b16b4c-a19e-48c4-a071-1b39e2445a40"},"vehicle_type_id":"4","last_reported":1746259897,"current_range_meters":22000,"station_id":"ce4bhi12rcd13ifvqfp0","pricing_plan_id":"cebpf4jnsgd1na2vs0mg"},{"bike_id":"0286db33-fa36-402c-9e1e-078b4a5d9ba8","system_id":"levelo_inurba_marseille","lat":43.2737,"lon":5.36255,"is_reserved":false,"is_disabled":false,"rental_uris":{"android":"levelo://app?vid=0286db33-fa36-402c-9e1e-078b4a5d9ba8","ios":"levelo://app?vid=0286db33-fa36-402c-9e1e-078b4a5d9ba8"},"vehicle_type_id":"4","last_reported":1746259897,"current_range_meters":22000,"station_id":"ce4bhbh2rcd13ifvqeo0","pricing_plan_id":"cebpf4jnsgd1na2vs0mg"},{"bike_id":"8ec68541-dc61-4e04-b3b9-5589cf0ccf2b","system_id":"levelo_inurba_marseille","lat":43.32539,"lon":5.41442,"is_reserved":false,"is_disabled":true,"rental_uris":{"android":"levelo://app?vid=8ec68541-dc61-4e04-b3b9-5589cf0ccf2b","ios":"levelo://app?vid=8ec68541-dc61-4e04-b3b9-5589cf0ccf2b"},"vehicle_type_id":"4","last_reported":1746259897,"current_range_meters":22400,"station_id":"ce4bhq12rcd13ifvqhhg","pricing_plan_id":"cebpf4jnsgd1na2vs0mg"},{"bike_id":"17517de0-fbfa-4e7e-8f85-5b43619482ea","system_id":"levelo_inurba_marseille","lat":43.25112,"lon":5.40313,"is_reserved":false,"is_disabled":false,"rental_uris":{"android":"levelo://app?vid=17517de0-fbfa-4e7e-8f85-5b43619482ea","ios":"levelo://app?vid=17517de0-fbfa-4e7e-8f85-5b43619482ea"},"vehicle_type_id":"4","last_reported":1746259897,"current_range_meters":22400,"station_id":"ce4bhlh2rcd13ifvqgig","pricing_plan_id":"cebpf4jnsgd1na2vs0mg"},{"bike_id":"17935bec-3982-4808-b92e-4de77ce91758","system_id":"levelo_inurba_marseille","lat":43.28348,"lon":5.38104,"is_reserved":false,"is_disabled":false,"rental_uris":{"android":"levelo://app?vid=17935bec-3982-4808-b92e-4de77ce91758","ios":"levelo://app?vid=17935bec-3982-4808-b92e-4de77ce91758"},"vehicle_type_id":"4","last_reported":1746259897,"current_range_meters":22400,"station_id":"ce4bh412rcd13ifvqdr0","pricing_plan_id":"cebpf4jnsgd1na2vs0mg"},{"bike_id":"4b293f04-47ca-4ed1-848e-61fe9e5563f8","system_id":"levelo_inurba_marseille","lat":43.2318,"lon":5.39985,"is_reserved":false,"is_disabled":false,"rental_uris":{"android":"levelo://app?vid=4b293f04-47ca-4ed1-848e-61fe9e5563f8","ios":"levelo://app?vid=4b293f04-47ca-4ed1-848e-61fe9e5563f8"},"vehicle_type_id":"4","last_reported":1746259897,"current_range_meters":22400,"station_id":"ce4bhn12rcd13ifvqgqg","pricing_plan_id":"cebpf4jnsgd1na2vs0mg"},{"bike_id":"de887bd4-26dc-46ba-966e-3a9d816680bb","system_id":"levelo_inurba_marseille","lat":43.24074,"lon":5.37729,"is_reserved":false,"is_disabled":true,"rental_uris":{"android":"levelo://app?vid=de887bd4-26dc-46ba-966e-3a9d816680bb","ios":"levelo://app?vid=de887bd4-26dc-46ba-966e-3a9d816680bb"},"vehicle_type_id":"4","last_reported":1746259897,"current_range_meters":22800,"station_id":"ce4bhnp2rcd13ifvqgvg","pricing_plan_id":"cebpf4jnsgd1na2vs0mg"},{"bike_id":"029a87bb-90fa-447a-9828-2f6d8a7ab734","system_id":"levelo_inurba_marseille","lat":43.30807,"lon":5.43525,"is_reserved":false,"is_disabled":false,"rental_uris":{"android":"levelo://app?vid=029a87bb-90fa-447a-9828-2f6d8a7ab734","ios":"levelo://app?vid=029a87bb-90fa-447a-9828-2f6d8a7ab734"},"vehicle_type_id":"4","last_reported":1746259897,"current_range_meters":22800,"station_id":"ce4bhph2rcd13ifvqheg","pricing_plan_id":"cebpf4jnsgd1na2vs0mg"},{"bike_id":"b7184d76-8a43-4d2f-8750-ac82ebf5b4e0","system_id":"levelo_inurba_marseille","lat":43.297923,"lon":5.381093,"is_reserved":false,"is_disabled":false,"rental_uris":{"android":"levelo://app?vid=b7184d76-8a43-4d2f-8750-ac82ebf5b4e0","ios":"levelo://app?vid=b7184d76-8a43-4d2f-8750-ac82ebf5b4e0"},"vehicle_type_id":"4","last_reported":1746259897,"current_range_meters":22800,"station_id":"ce4bgip2rcd13ifvqbb0","pricing_plan_id":"cebpf4jnsgd1na2vs0mg"},{"bike_id":"228ce56e-0d85-46e5-8c3f-2b4bbd157fd4","system_id":"levelo_inurba_marseille","lat":43.30535,"lon":5.36558,"is_reserved":false,"is_disabled":false,"rental_uris":{"android":"levelo://app?vid=228ce56e-0d85-46e5-8c3f-2b4bbd157fd4","ios":"levelo://app?vid=228ce56e-0d85-46e5-8c3f-2b4bbd157fd4"},"vehicle_type_id":"4","last_reported":1746259897,"current_range_meters":22800,"station_id":"ce4bgs12rcd13ifvqcag","pricing_plan_id":"cebpf4jnsgd1na2vs0mg"},{"bike_id":"1496c2ac-521a-45fd-aa34-1262a2f3a264","system_id":"levelo_inurba_marseille","lat":43.2867,"lon":5.38659,"is_reserved":false,"is_disabled":false,"rental_uris":{"android":"levelo://app?vid=1496c2ac-521a-45fd-aa34-1262a2f3a264","ios":"levelo://app?vid=1496c2ac-521a-45fd-aa34-1262a2f3a264"},"vehicle_type_id":"4","last_reported":1746259897,"current_range_meters":22800,"station_id":"ce4bh492rcd13ifvqdug","pricing_plan_id":"cebpf4jnsgd1na2vs0mg"},{"bike_id":"5bfb06ea-1fdf-4e3e-aa13-89571f140cd3","system_id":"levelo_inurba_marseille","lat":43.28672,"lon":5.3866,"is_reserved":false,"is_disabled":false,"rental_uris":{"android":"levelo://app?vid=5bfb06ea-1fdf-4e3e-aa13-89571f140cd3","ios":"levelo://app?vid=5bfb06ea-1fdf-4e3e-aa13-89571f140cd3"},"vehicle_type_id":"4","last_reported":1746259897,"current_range_meters":24000,"station_id":"ce4bh492rcd13ifvqdug","pricing_plan_id":"cebpf4jnsgd1na2vs0mg"},{"bike_id":"99d17d9e-e3a1-449c-9878-97420bda123b","system_id":"levelo_inurba_marseille","lat":43.295715,"lon":5.375261,"is_reserved":false,"is_disabled":false,"rental_uris":{"android":"levelo://app?vid=99d17d9e-e3a1-449c-9878-97420bda123b","ios":"levelo://app?vid=99d17d9e-e3a1-449c-9878-97420bda123b"},"vehicle_type_id":"4","last_reported":1746259897,"current_range_meters":22800,"station_id":"ce4bgh92rcd13ifvqb50","pricing_plan_id":"cebpf4jnsgd1na2vs0mg"},{"bike_id":"18137903-72ba-4200-abff-b6b27df8a90f","system_id":"levelo_inurba_marseille","lat":43.31361,"lon":5.38496,"is_reserved":false,"is_disabled":false,"rental_uris":{"android":"levelo://app?vid=18137903-72ba-4200-abff-b6b27df8a90f","ios":"levelo://app?vid=18137903-72ba-4200-abff-b6b27df8a90f"},"vehicle_type_id":"4","last_reported":1746259897,"current_range_meters":23200,"station_id":"ce4bgt92rcd13ifvqcf0","pricing_plan_id":"cebpf4jnsgd1na2vs0mg"},{"bike_id":"85f24af0-dee4-49a1-a83b-a442e9bc4f75","system_id":"levelo_inurba_marseille","lat":43.30811,"lon":5.38147,"is_reserved":false,"is_disabled":false,"rental_uris":{"android":"levelo://app?vid=85f24af0-dee4-49a1-a83b-a442e9bc4f75","ios":"levelo://app?vid=85f24af0-dee4-49a1-a83b-a442e9bc4f75"},"vehicle_type_id":"4","last_reported":1746259897,"current_range_meters":23200,"station_id":"ce4bgt12rcd13ifvqce0","pricing_plan_id":"cebpf4jnsgd1na2vs0mg"},{"bike_id":"bb156a37-65ab-4893-b242-8c7c9aca7c5f","system_id":"levelo_inurba_marseille","lat":43.21743,"lon":5.34604,"is_reserved":false,"is_disabled":false,"rental_uris":{"android":"levelo://app?vid=bb156a37-65ab-4893-b242-8c7c9aca7c5f","ios":"levelo://app?vid=bb156a37-65ab-4893-b242-8c7c9aca7c5f"},"vehicle_type_id":"4","last_reported":1746259897,"current_range_meters":23200,"station_id":"st_cvj6r9ubvosntc0bgbag","pricing_plan_id":"cebpf4jnsgd1na2vs0mg"},{"bike_id":"d8b60368-ee34-45bc-856a-d4f3030d3f05","system_id":"levelo_inurba_marseille","lat":43.23194,"lon":5.3998,"is_reserved":false,"is_disabled":false,"rental_uris":{"android":"levelo://app?vid=d8b60368-ee34-45bc-856a-d4f3030d3f05","ios":"levelo://app?vid=d8b60368-ee34-45bc-856a-d4f3030d3f05"},"vehicle_type_id":"4","last_reported":1746259897,"current_range_meters":23200,"station_id":"ce4bhn12rcd13ifvqgqg","pricing_plan_id":"cebpf4jnsgd1na2vs0mg"},{"bike_id":"4e65a762-e06d-4c29-b9ea-fd31f6fe0be2","system_id":"levelo_inurba_marseille","lat":43.28607,"lon":5.37061,"is_reserved":false,"is_disabled":false,"rental_uris":{"android":"levelo://app?vid=4e65a762-e06d-4c29-b9ea-fd31f6fe0be2","ios":"levelo://app?vid=4e65a762-e06d-4c29-b9ea-fd31f6fe0be2"},"vehicle_type_id":"4","last_reported":1746259897,"current_range_meters":23200,"station_id":"ce4bht12rcd13ifvqi60","pricing_plan_id":"cebpf4jnsgd1na2vs0mg"},{"bike_id":"3103c831-8181-464a-b761-e523765fe9e1","system_id":"levelo_inurba_marseille","lat":43.24388,"lon":5.37066,"is_reserved":false,"is_disabled":false,"rental_uris":{"android":"levelo://app?vid=3103c831-8181-464a-b761-e523765fe9e1","ios":"levelo://app?vid=3103c831-8181-464a-b761-e523765fe9e1"},"vehicle_type_id":"4","last_reported":1746259897,"current_range_meters":22800,"station_id":"ce4bhhh2rcd13ifvqfk0","pricing_plan_id":"cebpf4jnsgd1na2vs0mg"},{"bike_id":"39109ae3-767e-493e-8a75-65eb1e6d39fe","system_id":"levelo_inurba_marseille","lat":43.21189,"lon":5.35076,"is_reserved":false,"is_disabled":false,"rental_uris":{"android":"levelo://app?vid=39109ae3-767e-493e-8a75-65eb1e6d39fe","ios":"levelo://app?vid=39109ae3-767e-493e-8a75-65eb1e6d39fe"},"vehicle_type_id":"4","last_reported":1746259897,"current_range_meters":23200,"station_id":"st_cvj6sg6p6f1abm77japg","pricing_plan_id":"cebpf4jnsgd1na2vs0mg"},{"bike_id":"ecafa817-97c3-4b51-a9f2-7dc39a787e41","system_id":"levelo_inurba_marseille","lat":43.25583,"lon":5.38229,"is_reserved":false,"is_disabled":false,"rental_uris":{"android":"levelo://app?vid=ecafa817-97c3-4b51-a9f2-7dc39a787e41","ios":"levelo://app?vid=ecafa817-97c3-4b51-a9f2-7dc39a787e41"},"vehicle_type_id":"4","last_reported":1746259897,"current_range_meters":24000,"station_id":"ce4bhih2rcd13ifvqfs0","pricing_plan_id":"cebpf4jnsgd1na2vs0mg"},{"bike_id":"61d50299-209d-4840-82aa-030cc8714d2e","system_id":"levelo_inurba_marseille","lat":43.28404,"lon":5.37513,"is_reserved":false,"is_disabled":false,"rental_uris":{"android":"levelo://app?vid=61d50299-209d-4840-82aa-030cc8714d2e","ios":"levelo://app?vid=61d50299-209d-4840-82aa-030cc8714d2e"},"vehicle_type_id":"4","last_reported":1746259897,"current_range_meters":24000,"station_id":"ce4bh412rcd13ifvqds0","pricing_plan_id":"cebpf4jnsgd1na2vs0mg"},{"bike_id":"035402ea-60a6-4d45-95a5-f3e8a9dfdb45","system_id":"levelo_inurba_marseille","lat":43.33776,"lon":5.37455,"is_reserved":false,"is_disabled":true,"rental_uris":{"android":"levelo://app?vid=035402ea-60a6-4d45-95a5-f3e8a9dfdb45","ios":"levelo://app?vid=035402ea-60a6-4d45-95a5-f3e8a9dfdb45"},"vehicle_type_id":"4","last_reported":1746259897,"current_range_meters":24000,"station_id":"","pricing_plan_id":"cebpf4jnsgd1na2vs0mg"},{"bike_id":"285f5263-d06e-42c4-9807-789117adefd8","system_id":"levelo_inurba_marseille","lat":43.29272,"lon":5.38441,"is_reserved":false,"is_disabled":false,"rental_uris":{"android":"levelo://app?vid=285f5263-d06e-42c4-9807-789117adefd8","ios":"levelo://app?vid=285f5263-d06e-42c4-9807-789117adefd8"},"vehicle_type_id":"4","last_reported":1746259897,"current_range_meters":24400,"station_id":"ce4bh692rcd13ifvqea0","pricing_plan_id":"cebpf4jnsgd1na2vs0mg"},{"bike_id":"dc503b06-bece-4e12-b003-42852ad2de4c","system_id":"levelo_inurba_marseille","lat":43.22932,"lon":5.35372,"is_reserved":false,"is_disabled":false,"rental_uris":{"android":"levelo://app?vid=dc503b06-bece-4e12-b003-42852ad2de4c","ios":"levelo://app?vid=dc503b06-bece-4e12-b003-42852ad2de4c"},"vehicle_type_id":"4","last_reported":1746259897,"current_range_meters":24400,"station_id":"cpo3532slgdg3j2ikp40","pricing_plan_id":"cebpf4jnsgd1na2vs0mg"},{"bike_id":"ab533852-c913-40a1-8959-2e372ab2b11d","system_id":"levelo_inurba_marseille","lat":43.283426,"lon":5.381106,"is_reserved":false,"is_disabled":true,"rental_uris":{"android":"levelo://app?vid=ab533852-c913-40a1-8959-2e372ab2b11d","ios":"levelo://app?vid=ab533852-c913-40a1-8959-2e372ab2b11d"},"vehicle_type_id":"4","last_reported":1746259897,"current_range_meters":24400,"station_id":"ce4bh412rcd13ifvqdr0","pricing_plan_id":"cebpf4jnsgd1na2vs0mg"},{"bike_id":"fc400f1e-ea64-4b30-9c61-d6d8fa2ae1f3","system_id":"levelo_inurba_marseille","lat":43.29578,"lon":5.36749,"is_reserved":false,"is_disabled":false,"rental_uris":{"android":"levelo://app?vid=fc400f1e-ea64-4b30-9c61-d6d8fa2ae1f3","ios":"levelo://app?vid=fc400f1e-ea64-4b30-9c61-d6d8fa2ae1f3"},"vehicle_type_id":"4","last_reported":1746259897,"current_range_meters":24400,"station_id":"ce4bgph2rcd13ifvqc2g","pricing_plan_id":"cebpf4jnsgd1na2vs0mg"},{"bike_id":"0cf7caac-589a-47d6-8860-ad993adddefb","system_id":"levelo_inurba_marseille","lat":43.274983,"lon":5.424473,"is_reserved":false,"is_disabled":false,"rental_uris":{"android":"levelo://app?vid=0cf7caac-589a-47d6-8860-ad993adddefb","ios":"levelo://app?vid=0cf7caac-589a-47d6-8860-ad993adddefb"},"vehicle_type_id":"4","last_reported":1746259897,"current_range_meters":24400,"station_id":"ce4bhn92rcd13ifvqgrg","pricing_plan_id":"cebpf4jnsgd1na2vs0mg"},{"bike_id":"f047eed1-912e-4fea-8f91-c89905e4ac17","system_id":"levelo_inurba_marseille","lat":43.31708,"lon":5.43706,"is_reserved":false,"is_disabled":false,"rental_uris":{"android":"levelo://app?vid=f047eed1-912e-4fea-8f91-c89905e4ac17","ios":"levelo://app?vid=f047eed1-912e-4fea-8f91-c89905e4ac17"},"vehicle_type_id":"4","last_reported":1746259897,"current_range_meters":25600,"station_id":"ce4bhp92rcd13ifvqhcg","pricing_plan_id":"cebpf4jnsgd1na2vs0mg"},{"bike_id":"6de1ee44-8cb9-41dd-a4d1-930318194efc","system_id":"levelo_inurba_marseille","lat":43.294642,"lon":5.397674,"is_reserved":false,"is_disabled":false,"rental_uris":{"android":"levelo://app?vid=6de1ee44-8cb9-41dd-a4d1-930318194efc","ios":"levelo://app?vid=6de1ee44-8cb9-41dd-a4d1-930318194efc"},"vehicle_type_id":"4","last_reported":1746259897,"current_range_meters":24400,"station_id":"ce4bh3h2rcd13ifvqdo0","pricing_plan_id":"cebpf4jnsgd1na2vs0mg"},{"bike_id":"c4915f6b-571f-4e1f-9609-95c1bc3e8593","system_id":"levelo_inurba_marseille","lat":43.2707,"lon":5.42284,"is_reserved":false,"is_disabled":true,"rental_uris":{"android":"levelo://app?vid=c4915f6b-571f-4e1f-9609-95c1bc3e8593","ios":"levelo://app?vid=c4915f6b-571f-4e1f-9609-95c1bc3e8593"},"vehicle_type_id":"4","last_reported":1746259897,"current_range_meters":24400,"station_id":"ce4bhk92rcd13ifvqgb0","pricing_plan_id":"cebpf4jnsgd1na2vs0mg"},{"bike_id":"cec0eef3-12a1-4953-8cb0-78995a75e15a","system_id":"levelo_inurba_marseille","lat":43.28361,"lon":5.38631,"is_reserved":false,"is_disabled":false,"rental_uris":{"android":"levelo://app?vid=cec0eef3-12a1-4953-8cb0-78995a75e15a","ios":"levelo://app?vid=cec0eef3-12a1-4953-8cb0-78995a75e15a"},"vehicle_type_id":"4","last_reported":1746259897,"current_range_meters":23200,"station_id":"ce4bh492rcd13ifvqdvg","pricing_plan_id":"cebpf4jnsgd1na2vs0mg"},{"bike_id":"965850ac-2fc5-4dac-8180-80e744f5ffd4","system_id":"levelo_inurba_marseille","lat":43.27991,"lon":5.39999,"is_reserved":false,"is_disabled":true,"rental_uris":{"android":"levelo://app?vid=965850ac-2fc5-4dac-8180-80e744f5ffd4","ios":"levelo://app?vid=965850ac-2fc5-4dac-8180-80e744f5ffd4"},"vehicle_type_id":"4","last_reported":1746259897,"current_range_meters":24800,"station_id":"ce4bho92rcd13ifvqh4g","pricing_plan_id":"cebpf4jnsgd1na2vs0mg"},{"bike_id":"b6ba42ea-5e82-4384-b73f-92cb3c7038f4","system_id":"levelo_inurba_marseille","lat":43.27385,"lon":5.36271,"is_reserved":false,"is_disabled":true,"rental_uris":{"android":"levelo://app?vid=b6ba42ea-5e82-4384-b73f-92cb3c7038f4","ios":"levelo://app?vid=b6ba42ea-5e82-4384-b73f-92cb3c7038f4"},"vehicle_type_id":"4","last_reported":1746259897,"current_range_meters":24800,"station_id":"ce4bhbh2rcd13ifvqeo0","pricing_plan_id":"cebpf4jnsgd1na2vs0mg"},{"bike_id":"85a730b5-c28f-4c6c-8e3f-734b4281147b","system_id":"levelo_inurba_marseille","lat":43.31533,"lon":5.38988,"is_reserved":false,"is_disabled":false,"rental_uris":{"android":"levelo://app?vid=85a730b5-c28f-4c6c-8e3f-734b4281147b","ios":"levelo://app?vid=85a730b5-c28f-4c6c-8e3f-734b4281147b"},"vehicle_type_id":"4","last_reported":1746259897,"current_range_meters":24800,"station_id":"","pricing_plan_id":"cebpf4jnsgd1na2vs0mg"},{"bike_id":"ef7c6625-ec9c-4d5d-aee8-8c7896e22994","system_id":"levelo_inurba_marseille","lat":43.30786,"lon":5.38154,"is_reserved":false,"is_disabled":false,"rental_uris":{"android":"levelo://app?vid=ef7c6625-ec9c-4d5d-aee8-8c7896e22994","ios":"levelo://app?vid=ef7c6625-ec9c-4d5d-aee8-8c7896e22994"},"vehicle_type_id":"4","last_reported":1746259897,"current_range_meters":24800,"station_id":"ce4bgt12rcd13ifvqce0","pricing_plan_id":"cebpf4jnsgd1na2vs0mg"},{"bike_id":"d719a987-5709-4cc8-a7c8-662269cf8fd7","system_id":"levelo_inurba_marseille","lat":43.23179,"lon":5.39996,"is_reserved":false,"is_disabled":false,"rental_uris":{"android":"levelo://app?vid=d719a987-5709-4cc8-a7c8-662269cf8fd7","ios":"levelo://app?vid=d719a987-5709-4cc8-a7c8-662269cf8fd7"},"vehicle_type_id":"4","last_reported":1746259897,"current_range_meters":24800,"station_id":"ce4bhn12rcd13ifvqgqg","pricing_plan_id":"cebpf4jnsgd1na2vs0mg"},{"bike_id":"e3d6e32b-9dc6-4a75-a56f-32d8c5570156","system_id":"levelo_inurba_marseille","lat":43.24164,"lon":5.39732,"is_reserved":false,"is_disabled":false,"rental_uris":{"android":"levelo://app?vid=e3d6e32b-9dc6-4a75-a56f-32d8c5570156","ios":"levelo://app?vid=e3d6e32b-9dc6-4a75-a56f-32d8c5570156"},"vehicle_type_id":"4","last_reported":1746259897,"current_range_meters":25200,"station_id":"ce4bhn12rcd13ifvqgpg","pricing_plan_id":"cebpf4jnsgd1na2vs0mg"},{"bike_id":"1c2418aa-47b1-44ab-af35-5337dcb46a74","system_id":"levelo_inurba_marseille","lat":43.286165,"lon":5.35103,"is_reserved":false,"is_disabled":true,"rental_uris":{"android":"levelo://app?vid=1c2418aa-47b1-44ab-af35-5337dcb46a74","ios":"levelo://app?vid=1c2418aa-47b1-44ab-af35-5337dcb46a74"},"vehicle_type_id":"4","last_reported":1746259897,"current_range_meters":25200,"station_id":"ce4bhch2rcd13ifvqeug","pricing_plan_id":"cebpf4jnsgd1na2vs0mg"},{"bike_id":"ae72d936-80f6-4697-92d5-ce61981191d2","system_id":"levelo_inurba_marseille","lat":43.27072,"lon":5.42275,"is_reserved":false,"is_disabled":false,"rental_uris":{"android":"levelo://app?vid=ae72d936-80f6-4697-92d5-ce61981191d2","ios":"levelo://app?vid=ae72d936-80f6-4697-92d5-ce61981191d2"},"vehicle_type_id":"4","last_reported":1746259897,"current_range_meters":25200,"station_id":"ce4bhk92rcd13ifvqgb0","pricing_plan_id":"cebpf4jnsgd1na2vs0mg"},{"bike_id":"364e5e2e-0b9f-490b-b832-124ab6944aab","system_id":"levelo_inurba_marseille","lat":43.30151,"lon":5.38078,"is_reserved":false,"is_disabled":false,"rental_uris":{"android":"levelo://app?vid=364e5e2e-0b9f-490b-b832-124ab6944aab","ios":"levelo://app?vid=364e5e2e-0b9f-490b-b832-124ab6944aab"},"vehicle_type_id":"4","last_reported":1746259897,"current_range_meters":25200,"station_id":"ce4bgjp2rcd13ifvqbh0","pricing_plan_id":"cebpf4jnsgd1na2vs0mg"},{"bike_id":"61d1a6c0-344e-4ff7-9a85-d60ca1b0d925","system_id":"levelo_inurba_marseille","lat":43.25932,"lon":5.40916,"is_reserved":false,"is_disabled":false,"rental_uris":{"android":"levelo://app?vid=61d1a6c0-344e-4ff7-9a85-d60ca1b0d925","ios":"levelo://app?vid=61d1a6c0-344e-4ff7-9a85-d60ca1b0d925"},"vehicle_type_id":"4","last_reported":1746259897,"current_range_meters":25200,"station_id":"ce4bhm92rcd13ifvqglg","pricing_plan_id":"cebpf4jnsgd1na2vs0mg"},{"bike_id":"005aabd8-c2da-4d3d-8c72-ee3c3191cdf5","system_id":"levelo_inurba_marseille","lat":43.25116,"lon":5.40325,"is_reserved":false,"is_disabled":false,"rental_uris":{"android":"levelo://app?vid=005aabd8-c2da-4d3d-8c72-ee3c3191cdf5","ios":"levelo://app?vid=005aabd8-c2da-4d3d-8c72-ee3c3191cdf5"},"vehicle_type_id":"4","last_reported":1746259897,"current_range_meters":25200,"station_id":"ce4bhlh2rcd13ifvqgig","pricing_plan_id":"cebpf4jnsgd1na2vs0mg"},{"bike_id":"4364bc4f-def1-464c-be52-a2ba5af46a90","system_id":"levelo_inurba_marseille","lat":43.30589,"lon":5.39357,"is_reserved":false,"is_disabled":false,"rental_uris":{"android":"levelo://app?vid=4364bc4f-def1-464c-be52-a2ba5af46a90","ios":"levelo://app?vid=4364bc4f-def1-464c-be52-a2ba5af46a90"},"vehicle_type_id":"4","last_reported":1746259897,"current_range_meters":26800,"station_id":"ce4bh0p2rcd13ifvqd80","pricing_plan_id":"cebpf4jnsgd1na2vs0mg"},{"bike_id":"4fc15786-0be1-4b76-ae29-a29167fec015","system_id":"levelo_inurba_marseille","lat":43.25134,"lon":5.40308,"is_reserved":false,"is_disabled":false,"rental_uris":{"android":"levelo://app?vid=4fc15786-0be1-4b76-ae29-a29167fec015","ios":"levelo://app?vid=4fc15786-0be1-4b76-ae29-a29167fec015"},"vehicle_type_id":"4","last_reported":1746259897,"current_range_meters":25600,"station_id":"ce4bhlh2rcd13ifvqgig","pricing_plan_id":"cebpf4jnsgd1na2vs0mg"},{"bike_id":"085e45f4-0d03-4c37-a722-8a9de5a2676b","system_id":"levelo_inurba_marseille","lat":43.25584,"lon":5.38216,"is_reserved":false,"is_disabled":false,"rental_uris":{"android":"levelo://app?vid=085e45f4-0d03-4c37-a722-8a9de5a2676b","ios":"levelo://app?vid=085e45f4-0d03-4c37-a722-8a9de5a2676b"},"vehicle_type_id":"4","last_reported":1746259897,"current_range_meters":25600,"station_id":"ce4bhih2rcd13ifvqfs0","pricing_plan_id":"cebpf4jnsgd1na2vs0mg"},{"bike_id":"215995a5-47a5-4f89-9dd9-e861e9985a36","system_id":"levelo_inurba_marseille","lat":43.28673,"lon":5.3867,"is_reserved":false,"is_disabled":false,"rental_uris":{"android":"levelo://app?vid=215995a5-47a5-4f89-9dd9-e861e9985a36","ios":"levelo://app?vid=215995a5-47a5-4f89-9dd9-e861e9985a36"},"vehicle_type_id":"4","last_reported":1746259897,"current_range_meters":25600,"station_id":"ce4bh492rcd13ifvqdug","pricing_plan_id":"cebpf4jnsgd1na2vs0mg"},{"bike_id":"6a584866-d878-4a75-b125-23320103bdb8","system_id":"levelo_inurba_marseille","lat":43.29574,"lon":5.37522,"is_reserved":false,"is_disabled":false,"rental_uris":{"android":"levelo://app?vid=6a584866-d878-4a75-b125-23320103bdb8","ios":"levelo://app?vid=6a584866-d878-4a75-b125-23320103bdb8"},"vehicle_type_id":"4","last_reported":1746259897,"current_range_meters":25600,"station_id":"ce4bgh92rcd13ifvqb50","pricing_plan_id":"cebpf4jnsgd1na2vs0mg"},{"bike_id":"0a106ec0-3cbf-4d55-b560-42988c006a16","system_id":"levelo_inurba_marseille","lat":43.25496,"lon":5.3765,"is_reserved":false,"is_disabled":false,"rental_uris":{"android":"levelo://app?vid=0a106ec0-3cbf-4d55-b560-42988c006a16","ios":"levelo://app?vid=0a106ec0-3cbf-4d55-b560-42988c006a16"},"vehicle_type_id":"4","last_reported":1746259897,"current_range_meters":25200,"station_id":"ce4bhh12rcd13ifvqff0","pricing_plan_id":"cebpf4jnsgd1na2vs0mg"},{"bike_id":"8f2787aa-d29d-440b-a0b1-8d652626962f","system_id":"levelo_inurba_marseille","lat":43.25576,"lon":5.38216,"is_reserved":false,"is_disabled":false,"rental_uris":{"android":"levelo://app?vid=8f2787aa-d29d-440b-a0b1-8d652626962f","ios":"levelo://app?vid=8f2787aa-d29d-440b-a0b1-8d652626962f"},"vehicle_type_id":"4","last_reported":1746259897,"current_range_meters":25600,"station_id":"ce4bhih2rcd13ifvqfs0","pricing_plan_id":"cebpf4jnsgd1na2vs0mg"},{"bike_id":"875e294d-e05b-47b1-b325-d3df4db006e4","system_id":"levelo_inurba_marseille","lat":43.26198,"lon":5.37927,"is_reserved":false,"is_disabled":false,"rental_uris":{"android":"levelo://app?vid=875e294d-e05b-47b1-b325-d3df4db006e4","ios":"levelo://app?vid=875e294d-e05b-47b1-b325-d3df4db006e4"},"vehicle_type_id":"4","last_reported":1746259897,"current_range_meters":28000,"station_id":"ce4bhjp2rcd13ifvqg90","pricing_plan_id":"cebpf4jnsgd1na2vs0mg"},{"bike_id":"003ca2ba-be9b-4df2-831a-b7a5f5d148f8","system_id":"levelo_inurba_marseille","lat":43.30808,"lon":5.3818,"is_reserved":false,"is_disabled":false,"rental_uris":{"android":"levelo://app?vid=003ca2ba-be9b-4df2-831a-b7a5f5d148f8","ios":"levelo://app?vid=003ca2ba-be9b-4df2-831a-b7a5f5d148f8"},"vehicle_type_id":"4","last_reported":1746259897,"current_range_meters":26000,"station_id":"ce4bgt12rcd13ifvqce0","pricing_plan_id":"cebpf4jnsgd1na2vs0mg"},{"bike_id":"efe4c5b3-8314-410b-9d3e-8c0096c5cc12","system_id":"levelo_inurba_marseille","lat":43.26063,"lon":5.393967,"is_reserved":false,"is_disabled":false,"rental_uris":{"android":"levelo://app?vid=efe4c5b3-8314-410b-9d3e-8c0096c5cc12","ios":"levelo://app?vid=efe4c5b3-8314-410b-9d3e-8c0096c5cc12"},"vehicle_type_id":"4","last_reported":1746259897,"current_range_meters":26000,"station_id":"ce4bhh92rcd13ifvqfj0","pricing_plan_id":"cebpf4jnsgd1na2vs0mg"},{"bike_id":"36da995d-0b06-412a-b969-18c9e2c57e92","system_id":"levelo_inurba_marseille","lat":43.27496,"lon":5.42484,"is_reserved":false,"is_disabled":false,"rental_uris":{"android":"levelo://app?vid=36da995d-0b06-412a-b969-18c9e2c57e92","ios":"levelo://app?vid=36da995d-0b06-412a-b969-18c9e2c57e92"},"vehicle_type_id":"4","last_reported":1746259897,"current_range_meters":26000,"station_id":"ce4bhn92rcd13ifvqgrg","pricing_plan_id":"cebpf4jnsgd1na2vs0mg"},{"bike_id":"98c18424-e0d8-45c0-8084-08e1fb42eb19","system_id":"levelo_inurba_marseille","lat":43.29909,"lon":5.43673,"is_reserved":false,"is_disabled":false,"rental_uris":{"android":"levelo://app?vid=98c18424-e0d8-45c0-8084-08e1fb42eb19","ios":"levelo://app?vid=98c18424-e0d8-45c0-8084-08e1fb42eb19"},