{"last_updated":1771241563,"ttl":60,"version":"2.2","data":{"bikes":[{"bike_id":"cc9d49a9-78fd-4f5f-9bf8-78f75fe0124f","system_id":"levelo_inurba_marseille","lat":43.2464,"lon":5.389,"is_reserved":false,"is_disabled":true,"rental_uris":{"android":"levelo://app?vid=cc9d49a9-78fd-4f5f-9bf8-78f75fe0124f","ios":"levelo://app?vid=cc9d49a9-78fd-4f5f-9bf8-78f75fe0124f"},"vehicle_type_id":"4","last_reported":1771241563,"current_range_meters":8800,"station_id":"ce4bhg12rcd13ifvqf60","pricing_plan_id":"cebpf4jnsgd1na2vs0mg"},{"bike_id":"5b117328-0b0e-49a5-8c93-2f707e332119","system_id":"levelo_inurba_marseille","lat":43.27629,"lon":5.36135,"is_reserved":false,"is_disabled":false,"rental_uris":{"android":"levelo://app?vid=5b117328-0b0e-49a5-8c93-2f707e332119","ios":"levelo://app?vid=5b117328-0b0e-49a5-8c93-2f707e332119"},"vehicle_type_id":"4","last_reported":1771241563,"current_range_meters":39200,"station_id":"ce4bgj92rcd13ifvqbe0","pricing_plan_id":"cebpf4jnsgd1na2vs0mg"},{"bike_id":"08d07d0e-dcac-4228-bab0-2d6292ee03a2","system_id":"levelo_inurba_marseille","lat":43.337444,"lon":5.374475,"is_reserved":false,"is_disabled":true,"rental_uris":{"android":"levelo://app?vid=08d07d0e-dcac-4228-bab0-2d6292ee03a2","ios":"levelo://app?vid=08d07d0e-dcac-4228-bab0-2d6292ee03a2"},"vehicle_type_id":"4","last_reported":1771241563,"current_range_meters":15200,"station_id":"","pricing_plan_id":"cebpf4jnsgd1na2vs0mg"},{"bike_id":"d7118046-cefa-4587-89ed-6c45cd917a4f","system_id":"levelo_inurba_marseille","lat":43.23967,"lon":5.36637,"is_reserved":false,"is_disabled":false,"rental_uris":{"android":"levelo://app?vid=d7118046-cefa-4587-89ed-6c45cd917a4f","ios":"levelo://app?vid=d7118046-cefa-4587-89ed-6c45cd917a4f"},"vehicle_type_id":"4","last_reported":1771241563,"current_range_meters":39200,"station_id":"ce4bhi12rcd13ifvqfp0","pricing_plan_id":"cebpf4jnsgd1na2vs0mg"},{"bike_id":"a13fe990-6c4a-435a-961f-20dee661e516","system_id":"levelo_inurba_marseille","lat":43.31368,"lon":5.36758,"is_reserved":false,"is_disabled":false,"rental_uris":{"android":"levelo://app?vid=a13fe990-6c4a-435a-961f-20dee661e516","ios":"levelo://app?vid=a13fe990-6c4a-435a-961f-20dee661e516"},"vehicle_type_id":"4","last_reported":1771241563,"current_range_meters":39200,"station_id":"","pricing_plan_id":"cebpf4jnsgd1na2vs0mg"},{"bike_id":"6e07964d-6fe0-4880-a3fa-e2373dfa83a6","system_id":"levelo_inurba_marseille","lat":43.33157,"lon":5.37696,"is_reserved":false,"is_disabled":false,"rental_uris":{"android":"levelo://app?vid=6e07964d-6fe0-4880-a3fa-e2373dfa83a6","ios":"levelo://app?vid=6e07964d-6fe0-4880-a3fa-e2373dfa83a6"},"vehicle_type_id":"4","last_reported":1771241563,"current_range_meters":31200,"station_id":"st_d46cu089ee8s73dldbu0","pricing_plan_id":"cebpf4jnsgd1na2vs0mg"},{"bike_id":"33e04ab4-8566-4c76-a0fd-aad45455c18f","system_id":"levelo_inurba_marseille","lat":43.2483,"lon":5.37441,"is_reserved":false,"is_disabled":false,"rental_uris":{"android":"levelo://app?vid=33e04ab4-8566-4c76-a0fd-aad45455c18f","ios":"levelo://app?vid=33e04ab4-8566-4c76-a0fd-aad45455c18f"},"vehicle_type_id":"4","last_reported":1771241563,"current_range_meters":38800,"station_id":"ce4bhgh2rcd13ifvqfb0","pricing_plan_id":"cebpf4jnsgd1na2vs0mg"},{"bike_id":"b5d21b34-ba85-49a4-b964-e2def336368b","system_id":"levelo_inurba_marseille","lat":43.26546,"lon":5.37313,"is_reserved":false,"is_disabled":true,"rental_uris":{"android":"levelo://app?vid=b5d21b34-ba85-49a4-b964-e2def336368b","ios":"levelo://app?vid=b5d21b34-ba85-49a4-b964-e2def336368b"},"vehicle_type_id":"4","last_reported":1771241563,"current_range_meters":39200,"station_id":"ce4bhg12rcd13ifvqf70","pricing_plan_id":"cebpf4jnsgd1na2vs0mg"},{"bike_id":"21dad158-c679-436c-89c8-cc36c7b585be","system_id":"levelo_inurba_marseille","lat":43.2986,"lon":5.37364,"is_reserved":false,"is_disabled":true,"rental_uris":{"android":"levelo://app?vid=21dad158-c679-436c-89c8-cc36c7b585be","ios":"levelo://app?vid=21dad158-c679-436c-89c8-cc36c7b585be"},"vehicle_type_id":"4","last_reported":1771241563,"current_range_meters":12000,"station_id":"","pricing_plan_id":"cebpf4jnsgd1na2vs0mg"},{"bike_id":"a24de0ea-9252-472d-acc5-87f0fa9008bb","system_id":"levelo_inurba_marseille","lat":43.304207,"lon":5.412811,"is_reserved":false,"is_disabled":false,"rental_uris":{"android":"levelo://app?vid=a24de0ea-9252-472d-acc5-87f0fa9008bb","ios":"levelo://app?vid=a24de0ea-9252-472d-acc5-87f0fa9008bb"},"vehicle_type_id":"4","last_reported":1771241563,"current_range_meters":12800,"station_id":"ce4bhop2rcd13ifvqh8g","pricing_plan_id":"cebpf4jnsgd1na2vs0mg"},{"bike_id":"e6a015d1-3c5b-42ac-8dee-c5b128d86964","system_id":"levelo_inurba_marseille","lat":43.28983,"lon":5.37828,"is_reserved":false,"is_disabled":false,"rental_uris":{"android":"levelo://app?vid=e6a015d1-3c5b-42ac-8dee-c5b128d86964","ios":"levelo://app?vid=e6a015d1-3c5b-42ac-8dee-c5b128d86964"},"vehicle_type_id":"4","last_reported":1771241563,"current_range_meters":35600,"station_id":"ce4bh9p2rcd13ifvqed0","pricing_plan_id":"cebpf4jnsgd1na2vs0mg"},{"bike_id":"5c990a7a-6115-4c39-b81e-6015e085ae01","system_id":"levelo_inurba_marseille","lat":43.27941,"lon":5.41043,"is_reserved":false,"is_disabled":false,"rental_uris":{"android":"levelo://app?vid=5c990a7a-6115-4c39-b81e-6015e085ae01","ios":"levelo://app?vid=5c990a7a-6115-4c39-b81e-6015e085ae01"},"vehicle_type_id":"4","last_reported":1771241563,"current_range_meters":35200,"station_id":"ce4bhnp2rcd13ifvqh0g","pricing_plan_id":"cebpf4jnsgd1na2vs0mg"},{"bike_id":"d3f42a26-08d9-4018-914b-c376ecbf3033","system_id":"levelo_inurba_marseille","lat":43.29011,"lon":5.356,"is_reserved":false,"is_disabled":false,"rental_uris":{"android":"levelo://app?vid=d3f42a26-08d9-4018-914b-c376ecbf3033","ios":"levelo://app?vid=d3f42a26-08d9-4018-914b-c376ecbf3033"},"vehicle_type_id":"4","last_reported":1771241563,"current_range_meters":30400,"station_id":"ce4bhb92rcd13ifvqen0","pricing_plan_id":"cebpf4jnsgd1na2vs0mg"},{"bike_id":"25b3ed16-870d-420e-8e25-29606227028a","system_id":"levelo_inurba_marseille","lat":43.31115,"lon":5.37762,"is_reserved":false,"is_disabled":false,"rental_uris":{"android":"levelo://app?vid=25b3ed16-870d-420e-8e25-29606227028a","ios":"levelo://app?vid=25b3ed16-870d-420e-8e25-29606227028a"},"vehicle_type_id":"4","last_reported":1771241563,"current_range_meters":28800,"station_id":"ce4bgt92rcd13ifvqcg0","pricing_plan_id":"cebpf4jnsgd1na2vs0mg"},{"bike_id":"9f69e078-6e7e-418b-a83d-2a6c15c9748b","system_id":"levelo_inurba_marseille","lat":43.24953,"lon":5.40479,"is_reserved":false,"is_disabled":false,"rental_uris":{"android":"levelo://app?vid=9f69e078-6e7e-418b-a83d-2a6c15c9748b","ios":"levelo://app?vid=9f69e078-6e7e-418b-a83d-2a6c15c9748b"},"vehicle_type_id":"4","last_reported":1771241563,"current_range_meters":28800,"station_id":"st_d2ngiaodas8pm72gd1h0","pricing_plan_id":"cebpf4jnsgd1na2vs0mg"},{"bike_id":"05410587-b482-4fdf-9b03-646f6d5cb761","system_id":"levelo_inurba_marseille","lat":43.23773,"lon":5.36617,"is_reserved":false,"is_disabled":false,"rental_uris":{"android":"levelo://app?vid=05410587-b482-4fdf-9b03-646f6d5cb761","ios":"levelo://app?vid=05410587-b482-4fdf-9b03-646f6d5cb761"},"vehicle_type_id":"4","last_reported":1771241563,"current_range_meters":33600,"station_id":"ce4bhi12rcd13ifvqfp0","pricing_plan_id":"cebpf4jnsgd1na2vs0mg"},{"bike_id":"8d13f02f-c6ca-440d-87fb-8fa7316dbdf2","system_id":"levelo_inurba_marseille","lat":43.29522,"lon":5.39053,"is_reserved":false,"is_disabled":false,"rental_uris":{"android":"levelo://app?vid=8d13f02f-c6ca-440d-87fb-8fa7316dbdf2","ios":"levelo://app?vid=8d13f02f-c6ca-440d-87fb-8fa7316dbdf2"},"vehicle_type_id":"4","last_reported":1771241563,"current_range_meters":39200,"station_id":"ce4bh3p2rcd13ifvqdp0","pricing_plan_id":"cebpf4jnsgd1na2vs0mg"},{"bike_id":"1651d679-965a-4f7d-b6a9-83ebbe26e642","system_id":"levelo_inurba_marseille","lat":43.30332,"lon":5.40434,"is_reserved":false,"is_disabled":false,"rental_uris":{"android":"levelo://app?vid=1651d679-965a-4f7d-b6a9-83ebbe26e642","ios":"levelo://app?vid=1651d679-965a-4f7d-b6a9-83ebbe26e642"},"vehicle_type_id":"4","last_reported":1771241563,"current_range_meters":16000,"station_id":"ce4bh012rcd13ifvqd10","pricing_plan_id":"cebpf4jnsgd1na2vs0mg"},{"bike_id":"6be9b2af-67ac-4936-b1f5-021f59ac2378","system_id":"levelo_inurba_marseille","lat":43.29568,"lon":5.37506,"is_reserved":false,"is_disabled":false,"rental_uris":{"android":"levelo://app?vid=6be9b2af-67ac-4936-b1f5-021f59ac2378","ios":"levelo://app?vid=6be9b2af-67ac-4936-b1f5-021f59ac2378"},"vehicle_type_id":"4","last_reported":1771241563,"current_range_meters":38000,"station_id":"ce4bgh92rcd13ifvqb50","pricing_plan_id":"cebpf4jnsgd1na2vs0mg"},{"bike_id":"268b09e1-26f0-432c-9316-9bc5f1c54efb","system_id":"levelo_inurba_marseille","lat":43.32468,"lon":5.36578,"is_reserved":false,"is_disabled":false,"rental_uris":{"android":"levelo://app?vid=268b09e1-26f0-432c-9316-9bc5f1c54efb","ios":"levelo://app?vid=268b09e1-26f0-432c-9316-9bc5f1c54efb"},"vehicle_type_id":"4","last_reported":1771241563,"current_range_meters":30400,"station_id":"","pricing_plan_id":"cebpf4jnsgd1na2vs0mg"},{"bike_id":"96ba3f4f-0e70-4352-8e6b-4135d6897805","system_id":"levelo_inurba_marseille","lat":43.254936,"lon":5.376386,"is_reserved":false,"is_disabled":false,"rental_uris":{"android":"levelo://app?vid=96ba3f4f-0e70-4352-8e6b-4135d6897805","ios":"levelo://app?vid=96ba3f4f-0e70-4352-8e6b-4135d6897805"},"vehicle_type_id":"4","last_reported":1771241563,"current_range_meters":38800,"station_id":"ce4bhh12rcd13ifvqff0","pricing_plan_id":"cebpf4jnsgd1na2vs0mg"},{"bike_id":"bbfef9ce-d112-4da7-a443-00b56ec1c9fe","system_id":"levelo_inurba_marseille","lat":43.2418,"lon":5.36402,"is_reserved":false,"is_disabled":true,"rental_uris":{"android":"levelo://app?vid=bbfef9ce-d112-4da7-a443-00b56ec1c9fe","ios":"levelo://app?vid=bbfef9ce-d112-4da7-a443-00b56ec1c9fe"},"vehicle_type_id":"4","last_reported":1771241563,"current_range_meters":12000,"station_id":"cpo36qri1sfpv3e86is0","pricing_plan_id":"cebpf4jnsgd1na2vs0mg"},{"bike_id":"666c2a43-d493-4718-ad5d-96a2c264043e","system_id":"levelo_inurba_marseille","lat":43.27432,"lon":5.39419,"is_reserved":false,"is_disabled":false,"rental_uris":{"android":"levelo://app?vid=666c2a43-d493-4718-ad5d-96a2c264043e","ios":"levelo://app?vid=666c2a43-d493-4718-ad5d-96a2c264043e"},"vehicle_type_id":"4","last_reported":1771241563,"current_range_meters":36400,"station_id":"ce4bhdp2rcd13ifvqf20","pricing_plan_id":"cebpf4jnsgd1na2vs0mg"},{"bike_id":"982dc22c-bee8-4457-9768-e8714792c052","system_id":"levelo_inurba_marseille","lat":43.263748,"lon":5.410833,"is_reserved":false,"is_disabled":false,"rental_uris":{"android":"levelo://app?vid=982dc22c-bee8-4457-9768-e8714792c052","ios":"levelo://app?vid=982dc22c-bee8-4457-9768-e8714792c052"},"vehicle_type_id":"4","last_reported":1771241563,"current_range_meters":30000,"station_id":"st_d4e5ca6na9uc73bfl5fg","pricing_plan_id":"cebpf4jnsgd1na2vs0mg"},{"bike_id":"a9f2149b-2298-440c-945d-cc79a967d975","system_id":"levelo_inurba_marseille","lat":43.29017,"lon":5.37555,"is_reserved":false,"is_disabled":false,"rental_uris":{"android":"levelo://app?vid=a9f2149b-2298-440c-945d-cc79a967d975","ios":"levelo://app?vid=a9f2149b-2298-440c-945d-cc79a967d975"},"vehicle_type_id":"4","last_reported":1771241563,"current_range_meters":38400,"station_id":"ce4bh692rcd13ifvqe90","pricing_plan_id":"cebpf4jnsgd1na2vs0mg"},{"bike_id":"e3e00f58-24c8-44b1-89e2-c7c99d8afdf6","system_id":"levelo_inurba_marseille","lat":43.33048,"lon":5.3755,"is_reserved":false,"is_disabled":false,"rental_uris":{"android":"levelo://app?vid=e3e00f58-24c8-44b1-89e2-c7c99d8afdf6","ios":"levelo://app?vid=e3e00f58-24c8-44b1-89e2-c7c99d8afdf6"},"vehicle_type_id":"4","last_reported":1771241563,"current_range_meters":8800,"station_id":"","pricing_plan_id":"cebpf4jnsgd1na2vs0mg"},{"bike_id":"36d4aa89-1d70-446e-a7ee-3cdfbee9db51","system_id":"levelo_inurba_marseille","lat":43.33614,"lon":5.41027,"is_reserved":false,"is_disabled":false,"rental_uris":{"android":"levelo://app?vid=36d4aa89-1d70-446e-a7ee-3cdfbee9db51","ios":"levelo://app?vid=36d4aa89-1d70-446e-a7ee-3cdfbee9db51"},"vehicle_type_id":"4","last_reported":1771241563,"current_range_meters":39200,"station_id":"ce4bhqh2rcd13ifvqhmg","pricing_plan_id":"cebpf4jnsgd1na2vs0mg"},{"bike_id":"016ec4b9-5b18-4f93-bf29-7317575450df","system_id":"levelo_inurba_marseille","lat":43.24076,"lon":5.37742,"is_reserved":false,"is_disabled":false,"rental_uris":{"android":"levelo://app?vid=016ec4b9-5b18-4f93-bf29-7317575450df","ios":"levelo://app?vid=016ec4b9-5b18-4f93-bf29-7317575450df"},"vehicle_type_id":"4","last_reported":1771241563,"current_range_meters":40000,"station_id":"ce4bhnp2rcd13ifvqgvg","pricing_plan_id":"cebpf4jnsgd1na2vs0mg"},{"bike_id":"9ac858d8-6e0b-46d0-8417-da385caf7f13","system_id":"levelo_inurba_marseille","lat":43.31199,"lon":5.36958,"is_reserved":false,"is_disabled":false,"rental_uris":{"android":"levelo://app?vid=9ac858d8-6e0b-46d0-8417-da385caf7f13","ios":"levelo://app?vid=9ac858d8-6e0b-46d0-8417-da385caf7f13"},"vehicle_type_id":"4","last_reported":1771241563,"current_range_meters":28400,"station_id":"ce4bgl92rcd13ifvqbq0","pricing_plan_id":"cebpf4jnsgd1na2vs0mg"},{"bike_id":"45d3d412-e5a3-49ab-a6aa-5380c5fa9960","system_id":"levelo_inurba_marseille","lat":43.26717,"lon":5.38237,"is_reserved":false,"is_disabled":false,"rental_uris":{"android":"levelo://app?vid=45d3d412-e5a3-49ab-a6aa-5380c5fa9960","ios":"levelo://app?vid=45d3d412-e5a3-49ab-a6aa-5380c5fa9960"},"vehicle_type_id":"4","last_reported":1771241563,"current_range_meters":27200,"station_id":"ce4bhg92rcd13ifvqf90","pricing_plan_id":"cebpf4jnsgd1na2vs0mg"},{"bike_id":"ea6f91f1-8345-4d79-80a1-7613ddd94cc0","system_id":"levelo_inurba_marseille","lat":43.30146,"lon":5.38101,"is_reserved":false,"is_disabled":false,"rental_uris":{"android":"levelo://app?vid=ea6f91f1-8345-4d79-80a1-7613ddd94cc0","ios":"levelo://app?vid=ea6f91f1-8345-4d79-80a1-7613ddd94cc0"},"vehicle_type_id":"4","last_reported":1771241563,"current_range_meters":33600,"station_id":"ce4bgjp2rcd13ifvqbh0","pricing_plan_id":"cebpf4jnsgd1na2vs0mg"},{"bike_id":"e8f313d3-cb8c-4234-89fd-4e327a904bf9","system_id":"levelo_inurba_marseille","lat":43.24525,"lon":5.39545,"is_reserved":false,"is_disabled":true,"rental_uris":{"android":"levelo://app?vid=e8f313d3-cb8c-4234-89fd-4e327a904bf9","ios":"levelo://app?vid=e8f313d3-cb8c-4234-89fd-4e327a904bf9"},"vehicle_type_id":"4","last_reported":1771241563,"current_range_meters":9600,"station_id":"ce4bhlp2rcd13ifvqgjg","pricing_plan_id":"cebpf4jnsgd1na2vs0mg"},{"bike_id":"5f89c1ea-3f82-477d-a0eb-611ca3d87d1b","system_id":"levelo_inurba_marseille","lat":43.30216,"lon":5.36578,"is_reserved":false,"is_disabled":false,"rental_uris":{"android":"levelo://app?vid=5f89c1ea-3f82-477d-a0eb-611ca3d87d1b","ios":"levelo://app?vid=5f89c1ea-3f82-477d-a0eb-611ca3d87d1b"},"vehicle_type_id":"4","last_reported":1771241563,"current_range_meters":39200,"station_id":"ce4bgrh2rcd13ifvqc8g","pricing_plan_id":"cebpf4jnsgd1na2vs0mg"},{"bike_id":"fc9b9e68-bfc4-49fb-a2af-51110be12163","system_id":"levelo_inurba_marseille","lat":43.24082,"lon":5.37776,"is_reserved":false,"is_disabled":false,"rental_uris":{"android":"levelo://app?vid=fc9b9e68-bfc4-49fb-a2af-51110be12163","ios":"levelo://app?vid=fc9b9e68-bfc4-49fb-a2af-51110be12163"},"vehicle_type_id":"4","last_reported":1771241563,"current_range_meters":40000,"station_id":"ce4bhnp2rcd13ifvqgvg","pricing_plan_id":"cebpf4jnsgd1na2vs0mg"},{"bike_id":"231e4fd8-db8b-46aa-b775-c1940ba2346d","system_id":"levelo_inurba_marseille","lat":43.30897,"lon":5.37158,"is_reserved":false,"is_disabled":false,"rental_uris":{"android":"levelo://app?vid=231e4fd8-db8b-46aa-b775-c1940ba2346d","ios":"levelo://app?vid=231e4fd8-db8b-46aa-b775-c1940ba2346d"},"vehicle_type_id":"4","last_reported":1771241563,"current_range_meters":35200,"station_id":"ce4bguh2rcd13ifvqckg","pricing_plan_id":"cebpf4jnsgd1na2vs0mg"},{"bike_id":"4257ce27-d4f9-4a49-a222-c5a5ef7fd7bc","system_id":"levelo_inurba_marseille","lat":43.27988,"lon":5.40012,"is_reserved":false,"is_disabled":false,"rental_uris":{"android":"levelo://app?vid=4257ce27-d4f9-4a49-a222-c5a5ef7fd7bc","ios":"levelo://app?vid=4257ce27-d4f9-4a49-a222-c5a5ef7fd7bc"},"vehicle_type_id":"4","last_reported":1771241563,"current_range_meters":21600,"station_id":"ce4bho92rcd13ifvqh4g","pricing_plan_id":"cebpf4jnsgd1na2vs0mg"},{"bike_id":"504d0a5c-6d34-4e6e-b049-b85598e8a815","system_id":"levelo_inurba_marseille","lat":43.292104,"lon":5.360477,"is_reserved":false,"is_disabled":false,"rental_uris":{"android":"levelo://app?vid=504d0a5c-6d34-4e6e-b049-b85598e8a815","ios":"levelo://app?vid=504d0a5c-6d34-4e6e-b049-b85598e8a815"},"vehicle_type_id":"4","last_reported":1771241563,"current_range_meters":38800,"station_id":"ce4bhbh2rcd13ifvqeqg","pricing_plan_id":"cebpf4jnsgd1na2vs0mg"},{"bike_id":"8d6535f0-b219-41a9-a5bf-28d07bb13e74","system_id":"levelo_inurba_marseille","lat":43.31229,"lon":5.36869,"is_reserved":false,"is_disabled":false,"rental_uris":{"android":"levelo://app?vid=8d6535f0-b219-41a9-a5bf-28d07bb13e74","ios":"levelo://app?vid=8d6535f0-b219-41a9-a5bf-28d07bb13e74"},"vehicle_type_id":"4","last_reported":1771241563,"current_range_meters":17600,"station_id":"ce4bgl92rcd13ifvqbq0","pricing_plan_id":"cebpf4jnsgd1na2vs0mg"},{"bike_id":"1d87a2f0-b907-4722-bbbb-2312cade9594","system_id":"levelo_inurba_marseille","lat":43.29541,"lon":5.37526,"is_reserved":false,"is_disabled":true,"rental_uris":{"android":"levelo://app?vid=1d87a2f0-b907-4722-bbbb-2312cade9594","ios":"levelo://app?vid=1d87a2f0-b907-4722-bbbb-2312cade9594"},"vehicle_type_id":"4","last_reported":1771241563,"current_range_meters":32000,"station_id":"ce4bgkp2rcd13ifvqbmg","pricing_plan_id":"cebpf4jnsgd1na2vs0mg"},{"bike_id":"f56b6e75-070e-4148-9d41-956869c01c1e","system_id":"levelo_inurba_marseille","lat":43.29206,"lon":5.36082,"is_reserved":false,"is_disabled":false,"rental_uris":{"android":"levelo://app?vid=f56b6e75-070e-4148-9d41-956869c01c1e","ios":"levelo://app?vid=f56b6e75-070e-4148-9d41-956869c01c1e"},"vehicle_type_id":"4","last_reported":1771241563,"current_range_meters":39200,"station_id":"ce4bhbh2rcd13ifvqeqg","pricing_plan_id":"cebpf4jnsgd1na2vs0mg"},{"bike_id":"ef43f5b3-0267-470e-a7be-73b400aa2eff","system_id":"levelo_inurba_marseille","lat":43.25123,"lon":5.40326,"is_reserved":false,"is_disabled":true,"rental_uris":{"android":"levelo://app?vid=ef43f5b3-0267-470e-a7be-73b400aa2eff","ios":"levelo://app?vid=ef43f5b3-0267-470e-a7be-73b400aa2eff"},"vehicle_type_id":"4","last_reported":1771241563,"current_range_meters":34800,"station_id":"ce4bhlh2rcd13ifvqgig","pricing_plan_id":"cebpf4jnsgd1na2vs0mg"},{"bike_id":"d82586cb-53a4-4769-a910-f68efa19139e","system_id":"levelo_inurba_marseille","lat":43.26598,"lon":5.3902,"is_reserved":false,"is_disabled":false,"rental_uris":{"android":"levelo://app?vid=d82586cb-53a4-4769-a910-f68efa19139e","ios":"levelo://app?vid=d82586cb-53a4-4769-a910-f68efa19139e"},"vehicle_type_id":"4","last_reported":1771241563,"current_range_meters":30800,"station_id":"ce4bhe12rcd13ifvqf30","pricing_plan_id":"cebpf4jnsgd1na2vs0mg"},{"bike_id":"a0ac6724-6818-4dc6-9a1e-38d10ea0104b","system_id":"levelo_inurba_marseille","lat":43.32041,"lon":5.41584,"is_reserved":false,"is_disabled":true,"rental_uris":{"android":"levelo://app?vid=a0ac6724-6818-4dc6-9a1e-38d10ea0104b","ios":"levelo://app?vid=a0ac6724-6818-4dc6-9a1e-38d10ea0104b"},"vehicle_type_id":"4","last_reported":1771241563,"current_range_meters":37600,"station_id":"ce4bhq92rcd13ifvqhkg","pricing_plan_id":"cebpf4jnsgd1na2vs0mg"},{"bike_id":"f147d067-e34c-48ea-bae1-163483944b38","system_id":"levelo_inurba_marseille","lat":43.30964,"lon":5.39068,"is_reserved":false,"is_disabled":false,"rental_uris":{"android":"levelo://app?vid=f147d067-e34c-48ea-bae1-163483944b38","ios":"levelo://app?vid=f147d067-e34c-48ea-bae1-163483944b38"},"vehicle_type_id":"4","last_reported":1771241563,"current_range_meters":36000,"station_id":"ce4bgup2rcd13ifvqco0","pricing_plan_id":"cebpf4jnsgd1na2vs0mg"},{"bike_id":"0b0789f1-2101-4ca6-aa0d-1c6c4b892a3a","system_id":"levelo_inurba_marseille","lat":43.30538,"lon":5.36523,"is_reserved":false,"is_disabled":false,"rental_uris":{"android":"levelo://app?vid=0b0789f1-2101-4ca6-aa0d-1c6c4b892a3a","ios":"levelo://app?vid=0b0789f1-2101-4ca6-aa0d-1c6c4b892a3a"},"vehicle_type_id":"4","last_reported":1771241563,"current_range_meters":38400,"station_id":"ce4bgs12rcd13ifvqcag","pricing_plan_id":"cebpf4jnsgd1na2vs0mg"},{"bike_id":"47b15c83-9612-4d28-a1f1-c4a600bb7f5c","system_id":"levelo_inurba_marseille","lat":43.33202,"lon":5.37702,"is_reserved":false,"is_disabled":false,"rental_uris":{"android":"levelo://app?vid=47b15c83-9612-4d28-a1f1-c4a600bb7f5c","ios":"levelo://app?vid=47b15c83-9612-4d28-a1f1-c4a600bb7f5c"},"vehicle_type_id":"4","last_reported":1771241563,"current_range_meters":16000,"station_id":"","pricing_plan_id":"cebpf4jnsgd1na2vs0mg"},{"bike_id":"3b4377ca-fc09-4041-8519-6fa3dd2f3815","system_id":"levelo_inurba_marseille","lat":43.26076,"lon":5.394,"is_reserved":false,"is_disabled":false,"rental_uris":{"android":"levelo://app?vid=3b4377ca-fc09-4041-8519-6fa3dd2f3815","ios":"levelo://app?vid=3b4377ca-fc09-4041-8519-6fa3dd2f3815"},"vehicle_type_id":"4","last_reported":1771241563,"current_range_meters":11600,"station_id":"ce4bhh92rcd13ifvqfj0","pricing_plan_id":"cebpf4jnsgd1na2vs0mg"},{"bike_id":"f711f6ab-e720-41bf-b6ff-543800e36196","system_id":"levelo_inurba_marseille","lat":43.27231,"lon":5.391746,"is_reserved":false,"is_disabled":false,"rental_uris":{"android":"levelo://app?vid=f711f6ab-e720-41bf-b6ff-543800e36196","ios":"levelo://app?vid=f711f6ab-e720-41bf-b6ff-543800e36196"},"vehicle_type_id":"4","last_reported":1771241563,"current_range_meters":8400,"station_id":"ce4bhhp2rcd13ifvqfm0","pricing_plan_id":"cebpf4jnsgd1na2vs0mg"},{"bike_id":"696ee3fc-6fd6-40e8-ac11-8ebbf4ab59d1","system_id":"levelo_inurba_marseille","lat":43.249673,"lon":5.404806,"is_reserved":false,"is_disabled":false,"rental_uris":{"android":"levelo://app?vid=696ee3fc-6fd6-40e8-ac11-8ebbf4ab59d1","ios":"levelo://app?vid=696ee3fc-6fd6-40e8-ac11-8ebbf4ab59d1"},"vehicle_type_id":"4","last_reported":1771241563,"current_range_meters":30000,"station_id":"st_d2ngiaodas8pm72gd1h0","pricing_plan_id":"cebpf4jnsgd1na2vs0mg"},{"bike_id":"158a12e2-f5db-4197-93ba-5db6e42be1b0","system_id":"levelo_inurba_marseille","lat":43.29051,"lon":5.35891,"is_reserved":false,"is_disabled":false,"rental_uris":{"android":"levelo://app?vid=158a12e2-f5db-4197-93ba-5db6e42be1b0","ios":"levelo://app?vid=158a12e2-f5db-4197-93ba-5db6e42be1b0"},"vehicle_type_id":"4","last_reported":1771241563,"current_range_meters":39200,"station_id":"ce4bha92rcd13ifvqeg0","pricing_plan_id":"cebpf4jnsgd1na2vs0mg"},{"bike_id":"063f653a-a02e-48ab-b671-a1d0f66830cf","system_id":"levelo_inurba_marseille","lat":43.30521,"lon":5.36525,"is_reserved":false,"is_disabled":false,"rental_uris":{"android":"levelo://app?vid=063f653a-a02e-48ab-b671-a1d0f66830cf","ios":"levelo://app?vid=063f653a-a02e-48ab-b671-a1d0f66830cf"},"vehicle_type_id":"4","last_reported":1771241563,"current_range_meters":21600,"station_id":"","pricing_plan_id":"cebpf4jnsgd1na2vs0mg"},{"bike_id":"efd1bca4-aeb2-4ad8-a618-461ec75a7bd0","system_id":"levelo_inurba_marseille","lat":43.31266,"lon":5.36846,"is_reserved":false,"is_disabled":false,"rental_uris":{"android":"levelo://app?vid=efd1bca4-aeb2-4ad8-a618-461ec75a7bd0","ios":"levelo://app?vid=efd1bca4-aeb2-4ad8-a618-461ec75a7bd0"},"vehicle_type_id":"4","last_reported":1771241563,"current_range_meters":39200,"station_id":"ce4bgl92rcd13ifvqbq0","pricing_plan_id":"cebpf4jnsgd1na2vs0mg"},{"bike_id":"e664fd31-d5e7-4335-a3ad-a97794856ca1","system_id":"levelo_inurba_marseille","lat":43.32346,"lon":5.36732,"is_reserved":false,"is_disabled":false,"rental_uris":{"android":"levelo://app?vid=e664fd31-d5e7-4335-a3ad-a97794856ca1","ios":"levelo://app?vid=e664fd31-d5e7-4335-a3ad-a97794856ca1"},"vehicle_type_id":"4","last_reported":1771241563,"current_range_meters":19600,"station_id":"ce4bhsh2rcd13ifvqi2g","pricing_plan_id":"cebpf4jnsgd1na2vs0mg"},{"bike_id":"9a3c19aa-d5b5-4290-b356-d5a9a83b4ebe","system_id":"levelo_inurba_marseille","lat":43.274907,"lon":5.424528,"is_reserved":false,"is_disabled":false,"rental_uris":{"android":"levelo://app?vid=9a3c19aa-d5b5-4290-b356-d5a9a83b4ebe","ios":"levelo://app?vid=9a3c19aa-d5b5-4290-b356-d5a9a83b4ebe"},"vehicle_type_id":"4","last_reported":1771241563,"current_range_meters":9600,"station_id":"ce4bhn92rcd13ifvqgrg","pricing_plan_id":"cebpf4jnsgd1na2vs0mg"},{"bike_id":"4dcbf679-cdd4-4ee9-878d-44ab492dd40a","system_id":"levelo_inurba_marseille","lat":43.29254,"lon":5.36029,"is_reserved":false,"is_disabled":false,"rental_uris":{"android":"levelo://app?vid=4dcbf679-cdd4-4ee9-878d-44ab492dd40a","ios":"levelo://app?vid=4dcbf679-cdd4-4ee9-878d-44ab492dd40a"},"vehicle_type_id":"4","last_reported":1771241563,"current_range_meters":39200,"station_id":"ce4bhbh2rcd13ifvqeqg","pricing_plan_id":"cebpf4jnsgd1na2vs0mg"},{"bike_id":"c515fab1-0290-4a3e-938a-d73ababb61f8","system_id":"levelo_inurba_marseille","lat":43.25933,"lon":5.40874,"is_reserved":false,"is_disabled":false,"rental_uris":{"android":"levelo://app?vid=c515fab1-0290-4a3e-938a-d73ababb61f8","ios":"levelo://app?vid=c515fab1-0290-4a3e-938a-d73ababb61f8"},"vehicle_type_id":"4","last_reported":1771241563,"current_range_meters":20400,"station_id":"ce4bhm92rcd13ifvqglg","pricing_plan_id":"cebpf4jnsgd1na2vs0mg"},{"bike_id":"9a71aafb-3414-42bb-a93e-c329b1fce7db","system_id":"levelo_inurba_marseille","lat":43.25857,"lon":5.39428,"is_reserved":false,"is_disabled":false,"rental_uris":{"android":"levelo://app?vid=9a71aafb-3414-42bb-a93e-c329b1fce7db","ios":"levelo://app?vid=9a71aafb-3414-42bb-a93e-c329b1fce7db"},"vehicle_type_id":"4","last_reported":1771241563,"current_range_meters":32800,"station_id":"ce4bhip2rcd13ifvqft0","pricing_plan_id":"cebpf4jnsgd1na2vs0mg"},{"bike_id":"96763947-68cd-4330-b5c4-17a1c4b9aa5b","system_id":"levelo_inurba_marseille","lat":43.31493,"lon":5.3911,"is_reserved":false,"is_disabled":false,"rental_uris":{"android":"levelo://app?vid=96763947-68cd-4330-b5c4-17a1c4b9aa5b","ios":"levelo://app?vid=96763947-68cd-4330-b5c4-17a1c4b9aa5b"},"vehicle_type_id":"4","last_reported":1771241563,"current_range_meters":30400,"station_id":"","pricing_plan_id":"cebpf4jnsgd1na2vs0mg"},{"bike_id":"e87ad34e-b4b7-4a8f-8d1d-9fcdf7787f23","system_id":"levelo_inurba_marseille","lat":43.27507,"lon":5.4247,"is_reserved":false,"is_disabled":false,"rental_uris":{"android":"levelo://app?vid=e87ad34e-b4b7-4a8f-8d1d-9fcdf7787f23","ios":"levelo://app?vid=e87ad34e-b4b7-4a8f-8d1d-9fcdf7787f23"},"vehicle_type_id":"4","last_reported":1771241563,"current_range_meters":30000,"station_id":"ce4bhn92rcd13ifvqgrg","pricing_plan_id":"cebpf4jnsgd1na2vs0mg"},{"bike_id":"40a2d767-9a8e-4aa3-bded-343bcd3a8041","system_id":"levelo_inurba_marseille","lat":43.24175,"lon":5.36408,"is_reserved":false,"is_disabled":false,"rental_uris":{"android":"levelo://app?vid=40a2d767-9a8e-4aa3-bded-343bcd3a8041","ios":"levelo://app?vid=40a2d767-9a8e-4aa3-bded-343bcd3a8041"},"vehicle_type_id":"4","last_reported":1771241563,"current_range_meters":8400,"station_id":"cpo36qri1sfpv3e86is0","pricing_plan_id":"cebpf4jnsgd1na2vs0mg"},{"bike_id":"bbaf3f17-a1db-4506-b20b-06b45d8a1835","system_id":"levelo_inurba_marseille","lat":43.31703,"lon":5.43702,"is_reserved":false,"is_disabled":false,"rental_uris":{"android":"levelo://app?vid=bbaf3f17-a1db-4506-b20b-06b45d8a1835","ios":"levelo://app?vid=bbaf3f17-a1db-4506-b20b-06b45d8a1835"},"vehicle_type_id":"4","last_reported":1771241563,"current_range_meters":36400,"station_id":"ce4bhp92rcd13ifvqhcg","pricing_plan_id":"cebpf4jnsgd1na2vs0mg"},{"bike_id":"9a7e1cb0-c148-4748-8d79-4962b38ca1d6","system_id":"levelo_inurba_marseille","lat":43.28613,"lon":5.35113,"is_reserved":false,"is_disabled":false,"rental_uris":{"android":"levelo://app?vid=9a7e1cb0-c148-4748-8d79-4962b38ca1d6","ios":"levelo://app?vid=9a7e1cb0-c148-4748-8d79-4962b38ca1d6"},"vehicle_type_id":"4","last_reported":1771241563,"current_range_meters":9200,"station_id":"ce4bhch2rcd13ifvqeug","pricing_plan_id":"cebpf4jnsgd1na2vs0mg"},{"bike_id":"4e3153e4-57df-466a-ace9-cd6e64a84829","system_id":"levelo_inurba_marseille","lat":43.27072,"lon":5.3831,"is_reserved":false,"is_disabled":false,"rental_uris":{"android":"levelo://app?vid=4e3153e4-57df-466a-ace9-cd6e64a84829","ios":"levelo://app?vid=4e3153e4-57df-466a-ace9-cd6e64a84829"},"vehicle_type_id":"4","last_reported":1771241563,"current_range_meters":39200,"station_id":"st_d3n2fo6cfp8s73cte1j0","pricing_plan_id":"cebpf4jnsgd1na2vs0mg"},{"bike_id":"53022a12-fe7d-4e6a-8699-1199ba146b98","system_id":"levelo_inurba_marseille","lat":43.29188,"lon":5.35807,"is_reserved":false,"is_disabled":false,"rental_uris":{"android":"levelo://app?vid=53022a12-fe7d-4e6a-8699-1199ba146b98","ios":"levelo://app?vid=53022a12-fe7d-4e6a-8699-1199ba146b98"},"vehicle_type_id":"4","last_reported":1771241563,"current_range_meters":19600,"station_id":"ce4bhb12rcd13ifvqel0","pricing_plan_id":"cebpf4jnsgd1na2vs0mg"},{"bike_id":"55d2f36a-9a72-4961-bbdb-5937e41fb5f7","system_id":"levelo_inurba_marseille","lat":43.31044,"lon":5.37166,"is_reserved":false,"is_disabled":false,"rental_uris":{"android":"levelo://app?vid=55d2f36a-9a72-4961-bbdb-5937e41fb5f7","ios":"levelo://app?vid=55d2f36a-9a72-4961-bbdb-5937e41fb5f7"},"vehicle_type_id":"4","last_reported":1771241563,"current_range_meters":33200,"station_id":"st_d4kl2rp97mjs73e7tdfg","pricing_plan_id":"cebpf4jnsgd1na2vs0mg"},{"bike_id":"bba78dfe-c6d9-4727-be43-b865b2897ad6","system_id":"levelo_inurba_marseille","lat":43.29167,"lon":5.37161,"is_reserved":false,"is_disabled":false,"rental_uris":{"android":"levelo://app?vid=bba78dfe-c6d9-4727-be43-b865b2897ad6","ios":"levelo://app?vid=bba78dfe-c6d9-4727-be43-b865b2897ad6"},"vehicle_type_id":"4","last_reported":1771241563,"current_range_meters":36000,"station_id":"ce4bha92rcd13ifvqeh0","pricing_plan_id":"cebpf4jnsgd1na2vs0mg"},{"bike_id":"8e4d0fb2-0b0a-434c-902e-d3ab3497cc31","system_id":"levelo_inurba_marseille","lat":43.281533,"lon":5.42639,"is_reserved":false,"is_disabled":false,"rental_uris":{"android":"levelo://app?vid=8e4d0fb2-0b0a-434c-902e-d3ab3497cc31","ios":"levelo://app?vid=8e4d0fb2-0b0a-434c-902e-d3ab3497cc31"},"vehicle_type_id":"4","last_reported":1771241563,"current_range_meters":40000,"station_id":"ce4bhnh2rcd13ifvqgug","pricing_plan_id":"cebpf4jnsgd1na2vs0mg"},{"bike_id":"9c9302ed-c2af-40cd-9047-f491de3d893a","system_id":"levelo_inurba_marseille","lat":43.246359,"lon":5.431489,"is_reserved":false,"is_disabled":false,"rental_uris":{"android":"levelo://app?vid=9c9302ed-c2af-40cd-9047-f491de3d893a","ios":"levelo://app?vid=9c9302ed-c2af-40cd-9047-f491de3d893a"},"vehicle_type_id":"4","last_reported":1771241563,"current_range_meters":16800,"station_id":"st_d2m6c4gdas8pm72e190g","pricing_plan_id":"cebpf4jnsgd1na2vs0mg"},{"bike_id":"2d55974f-a159-4a96-a215-e44d5d35787a","system_id":"levelo_inurba_marseille","lat":43.29962,"lon":5.41349,"is_reserved":false,"is_disabled":false,"rental_uris":{"android":"levelo://app?vid=2d55974f-a159-4a96-a215-e44d5d35787a","ios":"levelo://app?vid=2d55974f-a159-4a96-a215-e44d5d35787a"},"vehicle_type_id":"4","last_reported":1771241563,"current_range_meters":25600,"station_id":"ce4bhp12rcd13ifvqh9g","pricing_plan_id":"cebpf4jnsgd1na2vs0mg"},{"bike_id":"addd33a1-5186-4324-b702-4ac89f3f7ce6","system_id":"levelo_inurba_marseille","lat":43.26016,"lon":5.39413,"is_reserved":false,"is_disabled":false,"rental_uris":{"android":"levelo://app?vid=addd33a1-5186-4324-b702-4ac89f3f7ce6","ios":"levelo://app?vid=addd33a1-5186-4324-b702-4ac89f3f7ce6"},"vehicle_type_id":"4","last_reported":1771241563,"current_range_meters":32800,"station_id":"","pricing_plan_id":"cebpf4jnsgd1na2vs0mg"},{"bike_id":"faceb145-d7b6-4c89-9421-78897fc5e9e8","system_id":"levelo_inurba_marseille","lat":43.27623,"lon":5.36126,"is_reserved":false,"is_disabled":false,"rental_uris":{"android":"levelo://app?vid=faceb145-d7b6-4c89-9421-78897fc5e9e8","ios":"levelo://app?vid=faceb145-d7b6-4c89-9421-78897fc5e9e8"},"vehicle_type_id":"4","last_reported":1771241563,"current_range_meters":39200,"station_id":"ce4bgj92rcd13ifvqbe0","pricing_plan_id":"cebpf4jnsgd1na2vs0mg"},{"bike_id":"80c7f836-a8db-44e1-bb1c-88d929dfe374","system_id":"levelo_inurba_marseille","lat":43.30214,"lon":5.36605,"is_reserved":false,"is_disabled":false,"rental_uris":{"android":"levelo://app?vid=80c7f836-a8db-44e1-bb1c-88d929dfe374","ios":"levelo://app?vid=80c7f836-a8db-44e1-bb1c-88d929dfe374"},"vehicle_type_id":"4","last_reported":1771241563,"current_range_meters":33200,"station_id":"ce4bgrh2rcd13ifvqc8g","pricing_plan_id":"cebpf4jnsgd1na2vs0mg"},{"bike_id":"6ba4f6d1-724b-47cb-87b8-423e0d90245e","system_id":"levelo_inurba_marseille","lat":43.29031,"lon":5.38151,"is_reserved":false,"is_disabled":false,"rental_uris":{"android":"levelo://app?vid=6ba4f6d1-724b-47cb-87b8-423e0d90245e","ios":"levelo://app?vid=6ba4f6d1-724b-47cb-87b8-423e0d90245e"},"vehicle_type_id":"4","last_reported":1771241563,"current_range_meters":37600,"station_id":"ce4bh4p2rcd13ifvqe1g","pricing_plan_id":"cebpf4jnsgd1na2vs0mg"},{"bike_id":"62728ec9-b823-4810-8ffb-f72b795c94dd","system_id":"levelo_inurba_marseille","lat":43.30124,"lon":5.38089,"is_reserved":false,"is_disabled":false,"rental_uris":{"android":"levelo://app?vid=62728ec9-b823-4810-8ffb-f72b795c94dd","ios":"levelo://app?vid=62728ec9-b823-4810-8ffb-f72b795c94dd"},"vehicle_type_id":"4","last_reported":1771241563,"current_range_meters":32800,"station_id":"ce4bgjp2rcd13ifvqbh0","pricing_plan_id":"cebpf4jnsgd1na2vs0mg"},{"bike_id":"a6ca00c1-11c2-4395-a327-ada3897176d6","system_id":"levelo_inurba_marseille","lat":43.31246,"lon":5.36863,"is_reserved":false,"is_disabled":false,"rental_uris":{"android":"levelo://app?vid=a6ca00c1-11c2-4395-a327-ada3897176d6","ios":"levelo://app?vid=a6ca00c1-11c2-4395-a327-ada3897176d6"},"vehicle_type_id":"4","last_reported":1771241563,"current_range_meters":34000,"station_id":"ce4bgl92rcd13ifvqbq0","pricing_plan_id":"cebpf4jnsgd1na2vs0mg"},{"bike_id":"429a6572-9174-4da1-8f75-5af401a139a0","system_id":"levelo_inurba_marseille","lat":43.29534,"lon":5.39046,"is_reserved":false,"is_disabled":false,"rental_uris":{"android":"levelo://app?vid=429a6572-9174-4da1-8f75-5af401a139a0","ios":"levelo://app?vid=429a6572-9174-4da1-8f75-5af401a139a0"},"vehicle_type_id":"4","last_reported":1771241563,"current_range_meters":34800,"station_id":"ce4bh3p2rcd13ifvqdp0","pricing_plan_id":"cebpf4jnsgd1na2vs0mg"},{"bike_id":"dcb46e53-479a-4eb4-80ee-4c4b8b773271","system_id":"levelo_inurba_marseille","lat":43.28713,"lon":5.35495,"is_reserved":false,"is_disabled":true,"rental_uris":{"android":"levelo://app?vid=dcb46e53-479a-4eb4-80ee-4c4b8b773271","ios":"levelo://app?vid=dcb46e53-479a-4eb4-80ee-4c4b8b773271"},"vehicle_type_id":"4","last_reported":1771241563,"current_range_meters":3200,"station_id":"","pricing_plan_id":"cebpf4jnsgd1na2vs0mg"},{"bike_id":"c9b13f82-fec9-4306-a9d5-51119d860ddf","system_id":"levelo_inurba_marseille","lat":43.26182,"lon":5.37341,"is_reserved":false,"is_disabled":false,"rental_uris":{"android":"levelo://app?vid=c9b13f82-fec9-4306-a9d5-51119d860ddf","ios":"levelo://app?vid=c9b13f82-fec9-4306-a9d5-51119d860ddf"},"vehicle_type_id":"4","last_reported":1771241563,"current_range_meters":39200,"station_id":"","pricing_plan_id":"cebpf4jnsgd1na2vs0mg"},{"bike_id":"e65ac263-6241-43e7-92ba-48415d5c9a31","system_id":"levelo_inurba_marseille","lat":43.24164,"lon":5.39725,"is_reserved":false,"is_disabled":false,"rental_uris":{"android":"levelo://app?vid=e65ac263-6241-43e7-92ba-48415d5c9a31","ios":"levelo://app?vid=e65ac263-6241-43e7-92ba-48415d5c9a31"},"vehicle_type_id":"4","last_reported":1771241563,"current_range_meters":39200,"station_id":"ce4bhn12rcd13ifvqgpg","pricing_plan_id":"cebpf4jnsgd1na2vs0mg"},{"bike_id":"ee520404-8764-4e6d-9db7-583906d777d1","system_id":"levelo_inurba_marseille","lat":43.28607,"lon":5.35116,"is_reserved":false,"is_disabled":false,"rental_uris":{"android":"levelo://app?vid=ee520404-8764-4e6d-9db7-583906d777d1","ios":"levelo://app?vid=ee520404-8764-4e6d-9db7-583906d777d1"},"vehicle_type_id":"4","last_reported":1771241563,"current_range_meters":24800,"station_id":"ce4bhch2rcd13ifvqeug","pricing_plan_id":"cebpf4jnsgd1na2vs0mg"},{"bike_id":"d7b9bab2-8c15-4f04-b30d-9182fb77c28b","system_id":"levelo_inurba_marseille","lat":43.27489,"lon":5.42442,"is_reserved":false,"is_disabled":false,"rental_uris":{"android":"levelo://app?vid=d7b9bab2-8c15-4f04-b30d-9182fb77c28b","ios":"levelo://app?vid=d7b9bab2-8c15-4f04-b30d-9182fb77c28b"},"vehicle_type_id":"4","last_reported":1771241563,"current_range_meters":16800,"station_id":"ce4bhn92rcd13ifvqgrg","pricing_plan_id":"cebpf4jnsgd1na2vs0mg"},{"bike_id":"3cd8e674-f2df-4abf-b06c-c0245679bc5d","system_id":"levelo_inurba_marseille","lat":43.30906,"lon":5.36842,"is_reserved":false,"is_disabled":false,"rental_uris":{"android":"levelo://app?vid=3cd8e674-f2df-4abf-b06c-c0245679bc5d","ios":"levelo://app?vid=3cd8e674-f2df-4abf-b06c-c0245679bc5d"},"vehicle_type_id":"4","last_reported":1771241563,"current_range_meters":30000,"station_id":"ce4bgn92rcd13ifvqbvg","pricing_plan_id":"cebpf4jnsgd1na2vs0mg"},{"bike_id":"c1009b7a-d4e9-4514-8771-76f5baf181b7","system_id":"levelo_inurba_marseille","lat":43.30545,"lon":5.36523,"is_reserved":false,"is_disabled":false,"rental_uris":{"android":"levelo://app?vid=c1009b7a-d4e9-4514-8771-76f5baf181b7","ios":"levelo://app?vid=c1009b7a-d4e9-4514-8771-76f5baf181b7"},"vehicle_type_id":"4","last_reported":1771241563,"current_range_meters":28400,"station_id":"ce4bgs12rcd13ifvqcag","pricing_plan_id":"cebpf4jnsgd1na2vs0mg"},{"bike_id":"dab14c9b-51ba-42ac-9d33-248a97e4b330","system_id":"levelo_inurba_marseille","lat":43.29554,"lon":5.37503,"is_reserved":false,"is_disabled":false,"rental_uris":{"android":"levelo://app?vid=dab14c9b-51ba-42ac-9d33-248a97e4b330","ios":"levelo://app?vid=dab14c9b-51ba-42ac-9d33-248a97e4b330"},"vehicle_type_id":"4","last_reported":1771241563,"current_range_meters":17600,"station_id":"ce4bgh92rcd13ifvqb50","pricing_plan_id":"cebpf4jnsgd1na2vs0mg"},{"bike_id":"5ef214c5-05bc-4d5a-ae26-2e3bacb67d40","system_id":"levelo_inurba_marseille","lat":43.29371,"lon":5.37855,"is_reserved":false,"is_disabled":false,"rental_uris":{"android":"levelo://app?vid=5ef214c5-05bc-4d5a-ae26-2e3bacb67d40","ios":"levelo://app?vid=5ef214c5-05bc-4d5a-ae26-2e3bacb67d40"},"vehicle_type_id":"4","last_reported":1771241563,"current_range_meters":16400,"station_id":"ce4bgjh2rcd13ifvqbf0","pricing_plan_id":"cebpf4jnsgd1na2vs0mg"},{"bike_id":"aabd40cd-54bd-4dba-afe3-b43fa7a6fb33","system_id":"levelo_inurba_marseille","lat":43.21191,"lon":5.35078,"is_reserved":false,"is_disabled":true,"rental_uris":{"android":"levelo://app?vid=aabd40cd-54bd-4dba-afe3-b43fa7a6fb33","ios":"levelo://app?vid=aabd40cd-54bd-4dba-afe3-b43fa7a6fb33"},"vehicle_type_id":"4","last_reported":1771241563,"current_range_meters":0,"station_id":"st_cvj6sg6p6f1abm77japg","pricing_plan_id":"cebpf4jnsgd1na2vs0mg"},{"bike_id":"6e14feb7-753c-4804-bdc9-e912ef41a703","system_id":"levelo_inurba_marseille","lat":43.243841,"lon":5.370573,"is_reserved":false,"is_disabled":false,"rental_uris":{"android":"levelo://app?vid=6e14feb7-753c-4804-bdc9-e912ef41a703","ios":"levelo://app?vid=6e14feb7-753c-4804-bdc9-e912ef41a703"},"vehicle_type_id":"4","last_reported":1771241563,"current_range_meters":29600,"station_id":"ce4bhhh2rcd13ifvqfk0","pricing_plan_id":"cebpf4jnsgd1na2vs0mg"},{"bike_id":"2dd47143-fcce-4d1c-b676-78c1b5bba6e2","system_id":"levelo_inurba_marseille","lat":43.24823,"lon":5.37455,"is_reserved":false,"is_disabled":false,"rental_uris":{"android":"levelo://app?vid=2dd47143-fcce-4d1c-b676-78c1b5bba6e2","ios":"levelo://app?vid=2dd47143-fcce-4d1c-b676-78c1b5bba6e2"},"vehicle_type_id":"4","last_reported":1771241563,"current_range_meters":6800,"station_id":"ce4bhgh2rcd13ifvqfb0","pricing_plan_id":"cebpf4jnsgd1na2vs0mg"},{"bike_id":"95838245-f1a7-4fc4-a94c-aa07bd05d745","system_id":"levelo_inurba_marseille","lat":43.301699,"lon":5.366106,"is_reserved":false,"is_disabled":false,"rental_uris":{"android":"levelo://app?vid=95838245-f1a7-4fc4-a94c-aa07bd05d745","ios":"levelo://app?vid=95838245-f1a7-4fc4-a94c-aa07bd05d745"},"vehicle_type_id":"4","last_reported":1771241563,"current_range_meters":36000,"station_id":"ce4bgrh2rcd13ifvqc8g","pricing_plan_id":"cebpf4jnsgd1na2vs0mg"},{"bike_id":"937f3d25-b848-495b-a330-e41b28ba6403","system_id":"levelo_inurba_marseille","lat":43.240787,"lon":5.377381,"is_reserved":false,"is_disabled":false,"rental_uris":{"android":"levelo://app?vid=937f3d25-b848-495b-a330-e41b28ba6403","ios":"levelo://app?vid=937f3d25-b848-495b-a330-e41b28ba6403"},"vehicle_type_id":"4","last_reported":1771241563,"current_range_meters":40000,"station_id":"ce4bhnp2rcd13ifvqgvg","pricing_plan_id":"cebpf4jnsgd1na2vs0mg"},{"bike_id":"b84857a7-e995-4ca0-8158-ac5be3d97163","system_id":"levelo_inurba_marseille","lat":43.29266,"lon":5.368549,"is_reserved":false,"is_disabled":false,"rental_uris":{"android":"levelo://app?vid=b84857a7-e995-4ca0-8158-ac5be3d97163","ios":"levelo://app?vid=b84857a7-e995-4ca0-8158-ac5be3d97163"},"vehicle_type_id":"4","last_reported":1771241563,"current_range_meters":36000,"station_id":"ce4bhbp2rcd13ifvqesg","pricing_plan_id":"cebpf4jnsgd1na2vs0mg"},{"bike_id":"4f63221f-ab8e-47aa-80f2-25a9d4bd482b","system_id":"levelo_inurba_marseille","lat":43.25101,"lon":5.40198,"is_reserved":false,"is_disabled":true,"rental_uris":{"android":"levelo://app?vid=4f63221f-ab8e-47aa-80f2-25a9d4bd482b","ios":"levelo://app?vid=4f63221f-ab8e-47aa-80f2-25a9d4bd482b"},"vehicle_type_id":"4","last_reported":1771241563,"current_range_meters":0,"station_id":"","pricing_plan_id":"cebpf4jnsgd1na2vs0mg"},{"bike_id":"8853ab38-8d10-4297-85fb-888f0ed4ace2","system_id":"levelo_inurba_marseille","lat":43.27055,"lon":5.40269,"is_reserved":false,"is_disabled":false,"rental_uris":{"android":"levelo://app?vid=8853ab38-8d10-4297-85fb-888f0ed4ace2","ios":"levelo://app?vid=8853ab38-8d10-4297-85fb-888f0ed4ace2"},"vehicle_type_id":"4","last_reported":1771241563,"current_range_meters":25600,"station_id":"ce4bhk92rcd13ifvqgc0","pricing_plan_id":"cebpf4jnsgd1na2vs0mg"},{"bike_id":"351f418a-c609-4d6c-9b41-d7b555ca76f3","system_id":"levelo_inurba_marseille","lat":43.32531,"lon":5.36578,"is_reserved":false,"is_disabled":false,"rental_uris":{"android":"levelo://app?vid=351f418a-c609-4d6c-9b41-d7b555ca76f3","ios":"levelo://app?vid=351f418a-c609-4d6c-9b41-d7b555ca76f3"},"vehicle_type_id":"4","last_reported":1771241563,"current_range_meters":19600,"station_id":"","pricing_plan_id":"cebpf4jnsgd1na2vs0mg"},{"bike_id":"74c5db5c-ad41-4f03-8e8e-9cde4313fee5","system_id":"levelo_inurba_marseille","lat":43.29591,"lon":5.37539,"is_reserved":false,"is_disabled":false,"rental_uris":{"android":"levelo://app?vid=74c5db5c-ad41-4f03-8e8e-9cde4313fee5","ios":"levelo://app?vid=74c5db5c-ad41-4f03-8e8e-9cde4313fee5"},"vehicle_type_id":"4","last_reported":1771241563,"current_range_meters":38800,"station_id":"ce4bgh92rcd13ifvqb50","pricing_plan_id":"cebpf4jnsgd1na2vs0mg"},{"bike_id":"8e71ac91-0568-45e8-9b6a-a8c9ae9c07db","system_id":"levelo_inurba_marseille","lat":43.31233,"lon":5.36858,"is_reserved":false,"is_disabled":false,"rental_uris":{"android":"levelo://app?vid=8e71ac91-0568-45e8-9b6a-a8c9ae9c07db","ios":"levelo://app?vid=8e71ac91-0568-45e8-9b6a-a8c9ae9c07db"},"vehicle_type_id":"4","last_reported":1771241563,"current_range_meters":39200,"station_id":"ce4bgl92rcd13ifvqbq0","pricing_plan_id":"cebpf4jnsgd1na2vs0mg"},{"bike_id":"e52a1b18-0cdc-40e8-ba6f-2547d2061d85","system_id":"levelo_inurba_marseille","lat":43.30735,"lon":5.42439,"is_reserved":false,"is_disabled":false,"rental_uris":{"android":"levelo://app?vid=e52a1b18-0cdc-40e8-ba6f-2547d2061d85","ios":"levelo://app?vid=e52a1b18-0cdc-40e8-ba6f-2547d2061d85"},"vehicle_type_id":"4","last_reported":1771241563,"current_range_meters":8000,"station_id":"st_cvj6ca6bvosntc0bfgr0","pricing_plan_id":"cebpf4jnsgd1na2vs0mg"},{"bike_id":"e442f200-afef-478e-8575-d8056ddaaaa3","system_id":"levelo_inurba_marseille","lat":43.21748,"lon":5.34583,"is_reserved":false,"is_disabled":false,"rental_uris":{"android":"levelo://app?vid=e442f200-afef-478e-8575-d8056ddaaaa3","ios":"levelo://app?vid=e442f200-afef-478e-8575-d8056ddaaaa3"},"vehicle_type_id":"4","last_reported":1771241563,"current_range_meters":35600,"station_id":"st_cvj6r9ubvosntc0bgbag","pricing_plan_id":"cebpf4jnsgd1na2vs0mg"},{"bike_id":"515e69f0-7e0f-43d7-80ab-32b52b99020c","system_id":"levelo_inurba_marseille","lat":43.27426,"lon":5.39448,"is_reserved":false,"is_disabled":false,"rental_uris":{"android":"levelo://app?vid=515e69f0-7e0f-43d7-80ab-32b52b99020c","ios":"levelo://app?vid=515e69f0-7e0f-43d7-80ab-32b52b99020c"},"vehicle_type_id":"4","last_reported":1771241563,"current_range_meters":22400,"station_id":"ce4bhdp2rcd13ifvqf20","pricing_plan_id":"cebpf4jnsgd1na2vs0mg"},{"bike_id":"6c9d2f17-7703-4a46-b1ed-4636c6788f94","system_id":"levelo_inurba_marseille","lat":43.30463,"lon":5.36537,"is_reserved":false,"is_disabled":false,"rental_uris":{"android":"levelo://app?vid=6c9d2f17-7703-4a46-b1ed-4636c6788f94","ios":"levelo://app?vid=6c9d2f17-7703-4a46-b1ed-4636c6788f94"},"vehicle_type_id":"4","last_reported":1771241563,"current_range_meters":16400,"station_id":"","pricing_plan_id":"cebpf4jnsgd1na2vs0mg"},{"bike_id":"0051d715-fa0a-4a1d-849b-9d4c1fb4552d","system_id":"levelo_inurba_marseille","lat":43.29612,"lon":5.40535,"is_reserved":false,"is_disabled":false,"rental_uris":{"android":"levelo://app?vid=0051d715-fa0a-4a1d-849b-9d4c1fb4552d","ios":"levelo://app?vid=0051d715-fa0a-4a1d-849b-9d4c1fb4552d"},"vehicle_type_id":"4","last_reported":1771241563,"current_range_meters":11200,"station_id":"","pricing_plan_id":"cebpf4jnsgd1na2vs0mg"},{"bike_id":"d639211d-aaf1-4624-82a8-69cd6e860d35","system_id":"levelo_inurba_marseille","lat":43.284763,"lon":5.483985,"is_reserved":false,"is_disabled":false,"rental_uris":{"android":"levelo://app?vid=d639211d-aaf1-4624-82a8-69cd6e860d35","ios":"levelo://app?vid=d639211d-aaf1-4624-82a8-69cd6e860d35"},"vehicle_type_id":"4","last_reported":1771241563,"current_range_meters":35200,"station_id":"st_d3svhcjqgbts73a3dn0g","pricing_plan_id":"cebpf4jnsgd1na2vs0mg"},{"bike_id":"5921a887-9a7a-4308-927c-167c45306256","system_id":"levelo_inurba_marseille","lat":43.27183,"lon":5.41,"is_reserved":false,"is_disabled":false,"rental_uris":{"android":"levelo://app?vid=5921a887-9a7a-4308-927c-167c45306256","ios":"levelo://app?vid=5921a887-9a7a-4308-927c-167c45306256"},"vehicle_type_id":"4","last_reported":1771241563,"current_range_meters":40000,"station_id":"ce4bhl12rcd13ifvqgf0","pricing_plan_id":"cebpf4jnsgd1na2vs0mg"},{"bike_id":"cf07e6f1-dc12-49c3-b328-c7bc76c7a3a8","system_id":"levelo_inurba_marseille","lat":43.29538,"lon":5.3752,"is_reserved":false,"is_disabled":false,"rental_uris":{"android":"levelo://app?vid=cf07e6f1-dc12-49c3-b328-c7bc76c7a3a8","ios":"levelo://app?vid=cf07e6f1-dc12-49c3-b328-c7bc76c7a3a8"},"vehicle_type_id":"4","last_reported":1771241563,"current_range_meters":12000,"station_id":"ce4bgkp2rcd13ifvqbmg","pricing_plan_id":"cebpf4jnsgd1na2vs0mg"},{"bike_id":"c7f2ec22-a521-426d-8fc1-fe462d2718e7","system_id":"levelo_inurba_marseille","lat":43.22556,"lon":5.41646,"is_reserved":false,"is_disabled":false,"rental_uris":{"android":"levelo://app?vid=c7f2ec22-a521-426d-8fc1-fe462d2718e7","ios":"levelo://app?vid=c7f2ec22-a521-426d-8fc1-fe462d2718e7"},"vehicle_type_id":"4","last_reported":1771241563,"current_range_meters":10000,"station_id":"st_d2o4gvlbi1j2169b742g","pricing_plan_id":"cebpf4jnsgd1na2vs0mg"},{"bike_id":"81dc3211-2d32-43a3-ab66-e02093023e2f","system_id":"levelo_inurba_marseille","lat":43.28422,"lon":5.34987,"is_reserved":false,"is_disabled":false,"rental_uris":{"android":"levelo://app?vid=81dc3211-2d32-43a3-ab66-e02093023e2f","ios":"levelo://app?vid=81dc3211-2d32-43a3-ab66-e02093023e2f"},"vehicle_type_id":"4","last_reported":1771241563,"current_range_meters":12000,"station_id":"ce4bhbh2rcd13ifvqepg","pricing_plan_id":"cebpf4jnsgd1na2vs0mg"},{"bike_id":"26efeaeb-45ad-456c-8f71-142f8b7edd3d","system_id":"levelo_inurba_marseille","lat":43.30507,"lon":5.36713,"is_reserved":false,"is_disabled":false,"rental_uris":{"android":"levelo://app?vid=26efeaeb-45ad-456c-8f71-142f8b7edd3d","ios":"levelo://app?vid=26efeaeb-45ad-456c-8f71-142f8b7edd3d"},"vehicle_type_id":"4","last_reported":1771241563,"current_range_meters":38000,"station_id":"ce4bgrp2rcd13ifvqc9g","pricing_plan_id":"cebpf4jnsgd1na2vs0mg"},{"bike_id":"d004dfa6-5530-4c78-aa84-86af20db8f46","system_id":"levelo_inurba_marseille","lat":43.30977,"lon":5.39086,"is_reserved":false,"is_disabled":false,"rental_uris":{"android":"levelo://app?vid=d004dfa6-5530-4c78-aa84-86af20db8f46","ios":"levelo://app?vid=d004dfa6-5530-4c78-aa84-86af20db8f46"},"vehicle_type_id":"4","last_reported":1771241563,"current_range_meters":40000,"station_id":"ce4bgup2rcd13ifvqco0","pricing_plan_id":"cebpf4jnsgd1na2vs0mg"},{"bike_id":"bb1fbe0a-a8f2-401c-9697-7b00dee2e90e","system_id":"levelo_inurba_marseille","lat":43.31371,"lon":5.38501,"is_reserved":false,"is_disabled":false,"rental_uris":{"android":"levelo://app?vid=bb1fbe0a-a8f2-401c-9697-7b00dee2e90e","ios":"levelo://app?vid=bb1fbe0a-a8f2-401c-9697-7b00dee2e90e"},"vehicle_type_id":"4","last_reported":1771241563,"current_range_meters":39200,"station_id":"ce4bgt92rcd13ifvqcf0","pricing_plan_id":"cebpf4jnsgd1na2vs0mg"},{"bike_id":"91963fa7-078a-4377-aa2a-ad5c4f33ceaf","system_id":"levelo_inurba_marseille","lat":43.30306,"lon":5.36886,"is_reserved":false,"is_disabled":false,"rental_uris":{"android":"levelo://app?vid=91963fa7-078a-4377-aa2a-ad5c4f33ceaf","ios":"levelo://app?vid=91963fa7-078a-4377-aa2a-ad5c4f33ceaf"},"vehicle_type_id":"4","last_reported":1771241563,"current_range_meters":28800,"station_id":"ce4bgqh2rcd13ifvqc5g","pricing_plan_id":"cebpf4jnsgd1na2vs0mg"},{"bike_id":"d4c65e86-e8ab-44ba-a8a9-8e759dc3c54f","system_id":"levelo_inurba_marseille","lat":43.29201,"lon":5.35793,"is_reserved":false,"is_disabled":false,"rental_uris":{"android":"levelo://app?vid=d4c65e86-e8ab-44ba-a8a9-8e759dc3c54f","ios":"levelo://app?vid=d4c65e86-e8ab-44ba-a8a9-8e759dc3c54f"},"vehicle_type_id":"4","last_reported":1771241563,"current_range_meters":38400,"station_id":"ce4bhb12rcd13ifvqel0","pricing_plan_id":"cebpf4jnsgd1na2vs0mg"},{"bike_id":"b70557a7-1dc0-4d3f-a9cb-763db45923df","system_id":"levelo_inurba_marseille","lat":43.27921,"lon":5.39585,"is_reserved":false,"is_disabled":false,"rental_uris":{"android":"levelo://app?vid=b70557a7-1dc0-4d3f-a9cb-763db45923df","ios":"levelo://app?vid=b70557a7-1dc0-4d3f-a9cb-763db45923df"},"vehicle_type_id":"4","last_reported":1771241563,"current_range_meters":3600,"station_id":"ce4bhf92rcd13ifvqf40","pricing_plan_id":"cebpf4jnsgd1na2vs0mg"},{"bike_id":"22eb71bc-c666-42cd-a133-d91bdf7e2451","system_id":"levelo_inurba_marseille","lat":43.31209,"lon":5.36886,"is_reserved":false,"is_disabled":false,"rental_uris":{"android":"levelo://app?vid=22eb71bc-c666-42cd-a133-d91bdf7e2451","ios":"levelo://app?vid=22eb71bc-c666-42cd-a133-d91bdf7e2451"},"vehicle_type_id":"4","last_reported":1771241563,"current_range_meters":39200,"station_id":"ce4bgl92rcd13ifvqbq0","pricing_plan_id":"cebpf4jnsgd1na2vs0mg"},{"bike_id":"72ab149f-0aac-4a82-8892-5126bebf5df6","system_id":"levelo_inurba_marseille","lat":43.22954,"lon":5.35367,"is_reserved":false,"is_disabled":false,"rental_uris":{"android":"levelo://app?vid=72ab149f-0aac-4a82-8892-5126bebf5df6","ios":"levelo://app?vid=72ab149f-0aac-4a82-8892-5126bebf5df6"},"vehicle_type_id":"4","last_reported":1771241563,"current_range_meters":39200,"station_id":"cpo3532slgdg3j2ikp40","pricing_plan_id":"cebpf4jnsgd1na2vs0mg"},{"bike_id":"0f31ba3b-7064-4353-9964-8bb0f7a48574","system_id":"levelo_inurba_marseille","lat":43.296362,"lon":5.406122,"is_reserved":false,"is_disabled":false,"rental_uris":{"android":"levelo://app?vid=0f31ba3b-7064-4353-9964-8bb0f7a48574","ios":"levelo://app?vid=0f31ba3b-7064-4353-9964-8bb0f7a48574"},"vehicle_type_id":"4","last_reported":1771241563,"current_range_meters":24400,"station_id":"ce4bh0h2rcd13ifvqd60","pricing_plan_id":"cebpf4jnsgd1na2vs0mg"},{"bike_id":"665dfa78-442d-48aa-856d-24e1743781b1","system_id":"levelo_inurba_marseille","lat":43.24673,"lon":5.38187,"is_reserved":false,"is_disabled":true,"rental_uris":{"android":"levelo://app?vid=665dfa78-442d-48aa-856d-24e1743781b1","ios":"levelo://app?vid=665dfa78-442d-48aa-856d-24e1743781b1"},"vehicle_type_id":"4","last_reported":1771241563,"current_range_meters":17600,"station_id":"ce4bhih2rcd13ifvqfr0","pricing_plan_id":"cebpf4jnsgd1na2vs0mg"},{"bike_id":"738fdc4b-6f95-4425-b86f-9c36e982b094","system_id":"levelo_inurba_marseille","lat":43.25334,"lon":5.42168,"is_reserved":false,"is_disabled":false,"rental_uris":{"android":"levelo://app?vid=738fdc4b-6f95-4425-b86f-9c36e982b094","ios":"levelo://app?vid=738fdc4b-6f95-4425-b86f-9c36e982b094"},"vehicle_type_id":"4","last_reported":1771241563,"current_range_meters":39200,"station_id":"st_d2m65c5bi1j21697t3ng","pricing_plan_id":"cebpf4jnsgd1na2vs0mg"},{"bike_id":"9f3d1892-dd5c-42ec-8442-7c76069d38b3","system_id":"levelo_inurba_marseille","lat":43.33634,"lon":5.41025,"is_reserved":false,"is_disabled":false,"rental_uris":{"android":"levelo://app?vid=9f3d1892-dd5c-42ec-8442-7c76069d38b3","ios":"levelo://app?vid=9f3d1892-dd5c-42ec-8442-7c76069d38b3"},"vehicle_type_id":"4","last_reported":1771241563,"current_range_meters":38800,"station_id":"ce4bhqh2rcd13ifvqhmg","pricing_plan_id":"cebpf4jnsgd1na2vs0mg"},{"bike_id":"ab099b5d-a36c-4b39-b54f-8fdad1227588","system_id":"levelo_inurba_marseille","lat":43.31041,"lon":5.37123,"is_reserved":false,"is_disabled":false,"rental_uris":{"android":"levelo://app?vid=ab099b5d-a36c-4b39-b54f-8fdad1227588","ios":"levelo://app?vid=ab099b5d-a36c-4b39-b54f-8fdad1227588"},"vehicle_type_id":"4","last_reported":1771241563,"current_range_meters":8400,"station_id":"st_d4kl2rp97mjs73e7tdfg","pricing_plan_id":"cebpf4jnsgd1na2vs0mg"},{"bike_id":"bd6611ce-f7cd-494c-a774-4a5ac620e401","system_id":"levelo_inurba_marseille","lat":43.28288,"lon":5.3507,"is_reserved":false,"is_disabled":true,"rental_uris":{"android":"levelo://app?vid=bd6611ce-f7cd-494c-a774-4a5ac620e401","ios":"levelo://app?vid=bd6611ce-f7cd-494c-a774-4a5ac620e401"},"vehicle_type_id":"4","last_reported":1771241563,"current_range_meters":38000,"station_id":"ce4bhbp2rcd13ifvqerg","pricing_plan_id":"cebpf4jnsgd1na2vs0mg"},{"bike_id":"0fbe9b61-af6b-4ea3-8cb0-96dab142f627","system_id":"levelo_inurba_marseille","lat":43.324789,"lon":5.365879,"is_reserved":false,"is_disabled":false,"rental_uris":{"android":"levelo://app?vid=0fbe9b61-af6b-4ea3-8cb0-96dab142f627","ios":"levelo://app?vid=0fbe9b61-af6b-4ea3-8cb0-96dab142f627"},"vehicle_type_id":"4","last_reported":1771241563,"current_range_meters":27200,"station_id":"ce4bhs12rcd13ifvqhvg","pricing_plan_id":"cebpf4jnsgd1na2vs0mg"},{"bike_id":"62675a50-3dcc-4bc2-96c3-fb467381d548","system_id":"levelo_inurba_marseille","lat":43.31263,"lon":5.36843,"is_reserved":false,"is_disabled":false,"rental_uris":{"android":"levelo://app?vid=62675a50-3dcc-4bc2-96c3-fb467381d548","ios":"levelo://app?vid=62675a50-3dcc-4bc2-96c3-fb467381d548"},"vehicle_type_id":"4","last_reported":1771241563,"current_range_meters":11200,"station_id":"ce4bgl92rcd13ifvqbq0","pricing_plan_id":"cebpf4jnsgd1na2vs0mg"},{"bike_id":"b848b13f-a5a8-497c-bf73-42ffb911f77e","system_id":"levelo_inurba_marseille","lat":43.28488,"lon":5.48411,"is_reserved":false,"is_disabled":false,"rental_uris":{"android":"levelo://app?vid=b848b13f-a5a8-497c-bf73-42ffb911f77e","ios":"levelo://app?vid=b848b13f-a5a8-497c-bf73-42ffb911f77e"},"vehicle_type_id":"4","last_reported":1771241563,"current_range_meters":22000,"station_id":"st_d3svhcjqgbts73a3dn0g","pricing_plan_id":"cebpf4jnsgd1na2vs0mg"},{"bike_id":"ffca88d7-f232-4f6a-b002-c46bcf2da788","system_id":"levelo_inurba_marseille","lat":43.29627,"lon":5.375,"is_reserved":false,"is_disabled":false,"rental_uris":{"android":"levelo://app?vid=ffca88d7-f232-4f6a-b002-c46bcf2da788","ios":"levelo://app?vid=ffca88d7-f232-4f6a-b002-c46bcf2da788"},"vehicle_type_id":"4","last_reported":1771241563,"current_range_meters":25600,"station_id":"","pricing_plan_id":"cebpf4jnsgd1na2vs0mg"},{"bike_id":"bd65881a-c67d-4bbe-8994-4c4229c6c91d","system_id":"levelo_inurba_marseille","lat":43.32487,"lon":5.3656,"is_reserved":false,"is_disabled":false,"rental_uris":{"android":"levelo://app?vid=bd65881a-c67d-4bbe-8994-4c4229c6c91d","ios":"levelo://app?vid=bd65881a-c67d-4bbe-8994-4c4229c6c91d"},"vehicle_type_id":"4","last_reported":1771241563,"current_range_meters":26000,"station_id":"ce4bhs12rcd13ifvqhvg","pricing_plan_id":"cebpf4jnsgd1na2vs0mg"},{"bike_id":"489cd459-3dc5-4fee-82fd-d3ee47a3e94c","system_id":"levelo_inurba_marseille","lat":43.31271,"lon":5.40172,"is_reserved":false,"is_disabled":false,"rental_uris":{"android":"levelo://app?vid=489cd459-3dc5-4fee-82fd-d3ee47a3e94c","ios":"levelo://app?vid=489cd459-3dc5-4fee-82fd-d3ee47a3e94c"},"vehicle_type_id":"4","last_reported":1771241563,"current_range_meters":38400,"station_id":"ce4bh092rcd13ifvqd30","pricing_plan_id":"cebpf4jnsgd1na2vs0mg"},{"bike_id":"b9d273e4-f6a1-4547-a51b-74bbb29d1520","system_id":"levelo_inurba_marseille","lat":43.32138,"lon":5.36779,"is_reserved":false,"is_disabled":false,"rental_uris":{"android":"levelo://app?vid=b9d273e4-f6a1-4547-a51b-74bbb29d1520","ios":"levelo://app?vid=b9d273e4-f6a1-4547-a51b-74bbb29d1520"},"vehicle_type_id":"4","last_reported":1771241563,"current_range_meters":32000,"station_id":"","pricing_plan_id":"cebpf4jnsgd1na2vs0mg"},{"bike_id":"a20361fa-695a-40fe-a30c-6ec341f0fe26","system_id":"levelo_inurba_marseille","lat":43.31206,"lon":5.36821,"is_reserved":false,"is_disabled":false,"rental_uris":{"android":"levelo://app?vid=a20361fa-695a-40fe-a30c-6ec341f0fe26","ios":"levelo://app?vid=a20361fa-695a-40fe-a30c-6ec341f0fe26"},"vehicle_type_id":"4","last_reported":1771241563,"current_range_meters":8800,"station_id":"ce4bgl92rcd13ifvqbq0","pricing_plan_id":"cebpf4jnsgd1na2vs0mg"},{"bike_id":"c914e886-e8fe-40a0-a72c-6af0f03e82ff","system_id":"levelo_inurba_marseille","lat":43.26222,"lon":5.37442,"is_reserved":false,"is_disabled":false,"rental_uris":{"android":"levelo://app?vid=c914e886-e8fe-40a0-a72c-6af0f03e82ff","ios":"levelo://app?vid=c914e886-e8fe-40a0-a72c-6af0f03e82ff"},"vehicle_type_id":"4","last_reported":1771241563,"current_range_meters":31200,"station_id":"ce4bhgp2rcd13ifvqfc0","pricing_plan_id":"cebpf4jnsgd1na2vs0mg"},{"bike_id":"cb622693-e5cd-437f-926a-0cb6326247c8","system_id":"levelo_inurba_marseille","lat":43.30148,"lon":5.37416,"is_reserved":false,"is_disabled":false,"rental_uris":{"android":"levelo://app?vid=cb622693-e5cd-437f-926a-0cb6326247c8","ios":"levelo://app?vid=cb622693-e5cd-437f-926a-0cb6326247c8"},"vehicle_type_id":"4","last_reported":1771241563,"current_range_meters":10800,"station_id":"ce4bgs92rcd13ifvqcc0","pricing_plan_id":"cebpf4jnsgd1na2vs0mg"},{"bike_id":"e888998d-3079-4932-85a5-aa3d01763fcb","system_id":"levelo_inurba_marseille","lat":43.32362,"lon":5.38888,"is_reserved":false,"is_disabled":false,"rental_uris":{"android":"levelo://app?vid=e888998d-3079-4932-85a5-aa3d01763fcb","ios":"levelo://app?vid=e888998d-3079-4932-85a5-aa3d01763fcb"},"vehicle_type_id":"4","last_reported":1771241563,"current_range_meters":30000,"station_id":"ce4bhqp2rcd13ifvqhog","pricing_plan_id":"cebpf4jnsgd1na2vs0mg"},{"bike_id":"1fc27415-53f3-4de0-ae6d-620fad2e52a7","system_id":"levelo_inurba_marseille","lat":43.27989,"lon":5.41683,"is_reserved":false,"is_disabled":false,"rental_uris":{"android":"levelo://app?vid=1fc27415-53f3-4de0-ae6d-620fad2e52a7","ios":"levelo://app?vid=1fc27415-53f3-4de0-ae6d-620fad2e52a7"},"vehicle_type_id":"4","last_reported":1771241563,"current_range_meters":39200,"station_id":"ce4bho12rcd13ifvqh1g","pricing_plan_id":"cebpf4jnsgd1na2vs0mg"},{"bike_id":"14096945-3ed2-4921-943f-a03af03f353e","system_id":"levelo_inurba_marseille","lat":43.25547,"lon":5.38118,"is_reserved":false,"is_disabled":false,"rental_uris":{"android":"levelo://app?vid=14096945-3ed2-4921-943f-a03af03f353e","ios":"levelo://app?vid=14096945-3ed2-4921-943f-a03af03f353e"},"vehicle_type_id":"4","last_reported":1771241563,"current_range_meters":28800,"station_id":"ce4bhih2rcd13ifvqfs0","pricing_plan_id":"cebpf4jnsgd1na2vs0mg"},{"bike_id":"b5d50a85-871a-40c4-af22-58870467e75b","system_id":"levelo_inurba_marseille","lat":43.27254,"lon":5.39191,"is_reserved":false,"is_disabled":false,"rental_uris":{"android":"levelo://app?vid=b5d50a85-871a-40c4-af22-58870467e75b","ios":"levelo://app?vid=b5d50a85-871a-40c4-af22-58870467e75b"},"vehicle_type_id":"4","last_reported":1771241563,"current_range_meters":2800,"station_id":"ce4bhhp2rcd13ifvqfm0","pricing_plan_id":"cebpf4jnsgd1na2vs0mg"},{"bike_id":"6e8cafe6-ce01-4909-8fa3-863fe49cca6c","system_id":"levelo_inurba_marseille","lat":43.26375,"lon":5.41082,"is_reserved":false,"is_disabled":false,"rental_uris":{"android":"levelo://app?vid=6e8cafe6-ce01-4909-8fa3-863fe49cca6c","ios":"levelo://app?vid=6e8cafe6-ce01-4909-8fa3-863fe49cca6c"},"vehicle_type_id":"4","last_reported":1771241563,"current_range_meters":14400,"station_id":"st_d4e5ca6na9uc73bfl5fg","pricing_plan_id":"cebpf4jnsgd1na2vs0mg"},{"bike_id":"8dec5347-1be6-4152-8c8c-8bab081e0581","system_id":"levelo_inurba_marseille","lat":43.27436,"lon":5.39407,"is_reserved":false,"is_disabled":false,"rental_uris":{"android":"levelo://app?vid=8dec5347-1be6-4152-8c8c-8bab081e0581","ios":"levelo://app?vid=8dec5347-1be6-4152-8c8c-8bab081e0581"},"vehicle_type_id":"4","last_reported":1771241563,"current_range_meters":39200,"station_id":"ce4bhdp2rcd13ifvqf20","pricing_plan_id":"cebpf4jnsgd1na2vs0mg"},{"bike_id":"a1f4772c-94a4-4230-b4fd-d036b61b8790","system_id":"levelo_inurba_marseille","lat":43.31547,"lon":5.38046,"is_reserved":false,"is_disabled":false,"rental_uris":{"android":"levelo://app?vid=a1f4772c-94a4-4230-b4fd-d036b61b8790","ios":"levelo://app?vid=a1f4772c-94a4-4230-b4fd-d036b61b8790"},"vehicle_type_id":"4","last_reported":1771241563,"current_range_meters":30400,"station_id":"ce4bhsp2rcd13ifvqi50","pricing_plan_id":"cebpf4jnsgd1na2vs0mg"},{"bike_id":"17b1c0e6-d711-40bd-97db-5d1cf31b9867","system_id":"levelo_inurba_marseille","lat":43.24536,"lon":5.39525,"is_reserved":false,"is_disabled":false,"rental_uris":{"android":"levelo://app?vid=17b1c0e6-d711-40bd-97db-5d1cf31b9867","ios":"levelo://app?vid=17b1c0e6-d711-40bd-97db-5d1cf31b9867"},"vehicle_type_id":"4","last_reported":1771241563,"current_range_meters":38400,"station_id":"ce4bhlp2rcd13ifvqgjg","pricing_plan_id":"cebpf4jnsgd1na2vs0mg"},{"bike_id":"c9b76f97-4777-40f7-8438-ab341a9656e1","system_id":"levelo_inurba_marseille","lat":43.29901,"lon":5.36232,"is_reserved":false,"is_disabled":false,"rental_uris":{"android":"levelo://app?vid=c9b76f97-4777-40f7-8438-ab341a9656e1","ios":"levelo://app?vid=c9b76f97-4777-40f7-8438-ab341a9656e1"},"vehicle_type_id":"4","last_reported":1771241563,"current_range_meters":39200,"station_id":"","pricing_plan_id":"cebpf4jnsgd1na2vs0mg"},{"bike_id":"886e4052-84fd-486b-b793-02a82c1bd967","system_id":"levelo_inurba_marseille","lat":43.25935,"lon":5.40913,"is_reserved":false,"is_disabled":false,"rental_uris":{"android":"levelo://app?vid=886e4052-84fd-486b-b793-02a82c1bd967","ios":"levelo://app?vid=886e4052-84fd-486b-b793-02a82c1bd967"},"vehicle_type_id":"4","last_reported":1771241563,"current_range_meters":39200,"station_id":"ce4bhm92rcd13ifvqglg","pricing_plan_id":"cebpf4jnsgd1na2vs0mg"},{"bike_id":"db4ae4d9-6204-4bfb-af7e-c6fc29f12a68","system_id":"levelo_inurba_marseille","lat":43.30465,"lon":5.37927,"is_reserved":false,"is_disabled":false,"rental_uris":{"android":"levelo://app?vid=db4ae4d9-6204-4bfb-af7e-c6fc29f12a68","ios":"levelo://app?vid=db4ae4d9-6204-4bfb-af7e-c6fc29f12a68"},"vehicle_type_id":"4","last_reported":1771241563,"current_range_meters":29600,"station_id":"ce4bgup2rcd13ifvqcn0","pricing_plan_id":"cebpf4jnsgd1na2vs0mg"},{"bike_id":"b72b851a-81cf-4d1d-a5fb-5266c2acccb2","system_id":"levelo_inurba_marseille","lat":43.28229,"lon":5.39053,"is_reserved":false,"is_disabled":false,"rental_uris":{"android":"levelo://app?vid=b72b851a-81cf-4d1d-a5fb-5266c2acccb2","ios":"levelo://app?vid=b72b851a-81cf-4d1d-a5fb-5266c2acccb2"},"vehicle_type_id":"4","last_reported":1771241563,"current_range_meters":14400,"station_id":"ce4bhn92rcd13ifvqgsg","pricing_plan_id":"cebpf4jnsgd1na2vs0mg"},{"bike_id":"6c524169-a616-49d7-8357-df5bd8e6059c","system_id":"levelo_inurba_marseille","lat":43.31047,"lon":5.37144,"is_reserved":false,"is_disabled":false,"rental_uris":{"android":"levelo://app?vid=6c524169-a616-49d7-8357-df5bd8e6059c","ios":"levelo://app?vid=6c524169-a616-49d7-8357-df5bd8e6059c"},"vehicle_type_id":"4","last_reported":1771241563,"current_range_meters":27600,"station_id":"st_d4kl2rp97mjs73e7tdfg","pricing_plan_id":"cebpf4jnsgd1na2vs0mg"},{"bike_id":"196e509c-f0de-4ce9-b80b-e00a1cb9acd5","system_id":"levelo_inurba_marseille","lat":43.27997,"lon":5.41644,"is_reserved":false,"is_disabled":false,"rental_uris":{"android":"levelo://app?vid=196e509c-f0de-4ce9-b80b-e00a1cb9acd5","ios":"levelo://app?vid=196e509c-f0de-4ce9-b80b-e00a1cb9acd5"},"vehicle_type_id":"4","last_reported":1771241563,"current_range_meters":24400,"station_id":"ce4bho12rcd13ifvqh1g","pricing_plan_id":"cebpf4jnsgd1na2vs0mg"},{"bike_id":"29aaeded-6fbf-4914-8e01-d1b40b6726f9","system_id":"levelo_inurba_marseille","lat":43.26188,"lon":5.37446,"is_reserved":false,"is_disabled":false,"rental_uris":{"android":"levelo://app?vid=29aaeded-6fbf-4914-8e01-d1b40b6726f9","ios":"levelo://app?vid=29aaeded-6fbf-4914-8e01-d1b40b6726f9"},"vehicle_type_id":"4","last_reported":1771241563,"current_range_meters":10000,"station_id":"ce4bhgp2rcd13ifvqfc0","pricing_plan_id":"cebpf4jnsgd1na2vs0mg"},{"bike_id":"a6e4eec4-81e5-40e5-8444-a387e909be31","system_id":"levelo_inurba_marseille","lat":43.29286,"lon":5.38481,"is_reserved":false,"is_disabled":false,"rental_uris":{"android":"levelo://app?vid=a6e4eec4-81e5-40e5-8444-a387e909be31","ios":"levelo://app?vid=a6e4eec4-81e5-40e5-8444-a387e909be31"},"vehicle_type_id":"4","last_reported":1771241563,"current_range_meters":3600,"station_id":"","pricing_plan_id":"cebpf4jnsgd1na2vs0mg"},{"bike_id":"f4b3252e-d05c-4d9f-bef4-68d0830260bc","system_id":"levelo_inurba_marseille","lat":43.30145,"lon":5.37427,"is_reserved":false,"is_disabled":false,"rental_uris":{"android":"levelo://app?vid=f4b3252e-d05c-4d9f-bef4-68d0830260bc","ios":"levelo://app?vid=f4b3252e-d05c-4d9f-bef4-68d0830260bc"},"vehicle_type_id":"4","last_reported":1771241563,"current_range_meters":36800,"station_id":"ce4bgs92rcd13ifvqcc0","pricing_plan_id":"cebpf4jnsgd1na2vs0mg"},{"bike_id":"18b069ad-cc52-4807-aeb7-a8b1dfae5cca","system_id":"levelo_inurba_marseille","lat":43.28427,"lon":5.34986,"is_reserved":false,"is_disabled":false,"rental_uris":{"android":"levelo://app?vid=18b069ad-cc52-4807-aeb7-a8b1dfae5cca","ios":"levelo://app?vid=18b069ad-cc52-4807-aeb7-a8b1dfae5cca"},"vehicle_type_id":"4","last_reported":1771241563,"current_range_meters":8000,"station_id":"ce4bhbh2rcd13ifvqepg","pricing_plan_id":"cebpf4jnsgd1na2vs0mg"},{"bike_id":"a1606541-c9a3-455c-bc8a-0b85aa3a62d5","system_id":"levelo_inurba_marseille","lat":43.25015,"lon":5.38895,"is_reserved":false,"is_disabled":true,"rental_uris":{"android":"levelo://app?vid=a1606541-c9a3-455c-bc8a-0b85aa3a62d5","ios":"levelo://app?vid=a1606541-c9a3-455c-bc8a-0b85aa3a62d5"},"vehicle_type_id":"4","last_reported":1771241563,"current_range_meters":25600,"station_id":"ce4bhgp2rcd13ifvqfd0","pricing_plan_id":"cebpf4jnsgd1na2vs0mg"},{"bike_id":"8919023d-8f7d-4885-abde-e46ab377a055","system_id":"levelo_inurba_marseille","lat":43.28516,"lon":5.38406,"is_reserved":false,"is_disabled":false,"rental_uris":{"android":"levelo://app?vid=8919023d-8f7d-4885-abde-e46ab377a055","ios":"levelo://app?vid=8919023d-8f7d-4885-abde-e46ab377a055"},"vehicle_type_id":"4","last_reported":1771241563,"current_range_meters":38800,"station_id":"ce4bh512rcd13ifvqe3g","pricing_plan_id":"cebpf4jnsgd1na2vs0mg"},{"bike_id":"cdb31bb4-370c-491d-8d68-0dceed9d9223","system_id":"levelo_inurba_marseille","lat":43.33538,"lon":5.37454,"is_reserved":false,"is_disabled":false,"rental_uris":{"android":"levelo://app?vid=cdb31bb4-370c-491d-8d68-0dceed9d9223","ios":"levelo://app?vid=cdb31bb4-370c-491d-8d68-0dceed9d9223"},"vehicle_type_id":"4","last_reported":1771241563,"current_range_meters":32400,"station_id":"st_d46tts09ee8s73dlu43g","pricing_plan_id":"cebpf4jnsgd1na2vs0mg"},{"bike_id":"bd956f18-ea7f-4e29-aac9-ae9da008943d","system_id":"levelo_inurba_marseille","lat":43.30998,"lon":5.40234,"is_reserved":false,"is_disabled":false,"rental_uris":{"android":"levelo://app?vid=bd956f18-ea7f-4e29-aac9-ae9da008943d","ios":"levelo://app?vid=bd956f18-ea7f-4e29-aac9-ae9da008943d"},"vehicle_type_id":"4","last_reported":1771241563,"current_range_meters":39200,"station_id":"","pricing_plan_id":"cebpf4jnsgd1na2vs0mg"},{"bike_id":"f8193003-5b33-4380-b07e-3719336a3d0c","system_id":"levelo_inurba_marseille","lat":43.2796,"lon":5.41047,"is_reserved":false,"is_disabled":false,"rental_uris":{"android":"levelo://app?vid=f8193003-5b33-4380-b07e-3719336a3d0c","ios":"levelo://app?vid=f8193003-5b33-4380-b07e-3719336a3d0c"},"vehicle_type_id":"4","last_reported":1771241563,"current_range_meters":12400,"station_id":"ce4bhnp2rcd13ifvqh0g","pricing_plan_id":"cebpf4jnsgd1na2vs0mg"},{"bike_id":"ffe39756-66fd-41b7-a40a-097e0b404808","system_id":"levelo_inurba_marseille","lat":43.28618,"lon":5.35107,"is_reserved":false,"is_disabled":false,"rental_uris":{"android":"levelo://app?vid=ffe39756-66fd-41b7-a40a-097e0b404808","ios":"levelo://app?vid=ffe39756-66fd-41b7-a40a-097e0b404808"},"vehicle_type_id":"4","last_reported":1771241563,"current_range_meters":31200,"station_id":"ce4bhch2rcd13ifvqeug","pricing_plan_id":"cebpf4jnsgd1na2vs0mg"},{"bike_id":"303b4144-16be-4c28-a25b-80abad99aab4","system_id":"levelo_inurba_marseille","lat":43.29267,"lon":5.36847,"is_reserved":false,"is_disabled":false,"rental_uris":{"android":"levelo://app?vid=303b4144-16be-4c28-a25b-80abad99aab4","ios":"levelo://app?vid=303b4144-16be-4c28-a25b-80abad99aab4"},"vehicle_type_id":"4","last_reported":1771241563,"current_range_meters":28800,"station_id":"ce4bhbp2rcd13ifvqesg","pricing_plan_id":"cebpf4jnsgd1na2vs0mg"},{"bike_id":"8a8fa0fa-9b9a-4667-a36a-f2215b14299e","system_id":"levelo_inurba_marseille","lat":43.24813,"lon":5.37444,"is_reserved":false,"is_disabled":false,"rental_uris":{"android":"levelo://app?vid=8a8fa0fa-9b9a-4667-a36a-f2215b14299e","ios":"levelo://app?vid=8a8fa0fa-9b9a-4667-a36a-f2215b14299e"},"vehicle_type_id":"4","last_reported":1771241563,"current_range_meters":28400,"station_id":"ce4bhgh2rcd13ifvqfb0","pricing_plan_id":"cebpf4jnsgd1na2vs0mg"},{"bike_id":"eea61ef8-a327-4dc2-8365-cc3ec10beb2f","system_id":"levelo_inurba_marseille","lat":43.27074,"lon":5.38321,"is_reserved":false,"is_disabled":false,"rental_uris":{"android":"levelo://app?vid=eea61ef8-a327-4dc2-8365-cc3ec10beb2f","ios":"levelo://app?vid=eea61ef8-a327-4dc2-8365-cc3ec10beb2f"},"vehicle_type_id":"4","last_reported":1771241563,"current_range_meters":30400,"station_id":"st_d3n2fo6cfp8s73cte1j0","pricing_plan_id":"cebpf4jnsgd1na2vs0mg"},{"bike_id":"d2ed726d-49b0-4277-8a21-0f15f6cd9ff9","system_id":"levelo_inurba_marseille","lat":43.275,"lon":5.4246,"is_reserved":false,"is_disabled":false,"rental_uris":{"android":"levelo://app?vid=d2ed726d-49b0-4277-8a21-0f15f6cd9ff9","ios":"levelo://app?vid=d2ed726d-49b0-4277-8a21-0f15f6cd9ff9"},"vehicle_type_id":"4","last_reported":1771241563,"current_range_meters":16400,"station_id":"ce4bhn92rcd13ifvqgrg","pricing_plan_id":"cebpf4jnsgd1na2vs0mg"},{"bike_id":"d0af0967-4f64-45d2-aeab-b15286d65704","system_id":"levelo_inurba_marseille","lat":43.33125,"lon":5.39271,"is_reserved":false,"is_disabled":false,"rental_uris":{"android":"levelo://app?vid=d0af0967-4f64-45d2-aeab-b15286d65704","ios":"levelo://app?vid=d0af0967-4f64-45d2-aeab-b15286d65704"},"vehicle_type_id":"4","last_reported":1771241563,"current_range_meters":25600,"station_id":"","pricing_plan_id":"cebpf4jnsgd1na2vs0mg"},{"bike_id":"7c11e683-0ef8-4bac-8048-16f7653ced54","system_id":"levelo_inurba_marseille","lat":43.2864,"lon":5.35088,"is_reserved":false,"is_disabled":false,"rental_uris":{"android":"levelo://app?vid=7c11e683-0ef8-4bac-8048-16f7653ced54","ios":"levelo://app?vid=7c11e683-0ef8-4bac-8048-16f7653ced54"},"vehicle_type_id":"4","last_reported":1771241563,"current_range_meters":16800,"station_id":"ce4bhch2rcd13ifvqeug","pricing_plan_id":"cebpf4jnsgd1na2vs0mg"},{"bike_id":"4932e24b-f2ef-4e1d-8d26-86e9c422ae44","system_id":"levelo_inurba_marseille","lat":43.32124,"lon":5.36784,"is_reserved":false,"is_disabled":false,"rental_uris":{"android":"levelo://app?vid=4932e24b-f2ef-4e1d-8d26-86e9c422ae44","ios":"levelo://app?vid=4932e24b-f2ef-4e1d-8d26-86e9c422ae44"},"vehicle_type_id":"4","last_reported":1771241563,"current_range_meters":26800,"station_id":"ce4bhrh2rcd13ifvqhug","pricing_plan_id":"cebpf4jnsgd1na2vs0mg"},{"bike_id":"55c65c5b-03f9-45d4-bb05-1a7b0bc5890c","system_id":"levelo_inurba_marseille","lat":43.33607,"lon":5.41023,"is_reserved":false,"is_disabled":false,"rental_uris":{"android":"levelo://app?vid=55c65c5b-03f9-45d4-bb05-1a7b0bc5890c","ios":"levelo://app?vid=55c65c5b-03f9-45d4-bb05-1a7b0bc5890c"},"vehicle_type_id":"4","last_reported":1771241563,"current_range_meters":34000,"station_id":"ce4bhqh2rcd13ifvqhmg","pricing_plan_id":"cebpf4jnsgd1na2vs0mg"},{"bike_id":"06b0e8ea-5721-4b06-a488-b9703e22c1ac","system_id":"levelo_inurba_marseille","lat":43.286196,"lon":5.351044,"is_reserved":false,"is_disabled":false,"rental_uris":{"android":"levelo://app?vid=06b0e8ea-5721-4b06-a488-b9703e22c1ac","ios":"levelo://app?vid=06b0e8ea-5721-4b06-a488-b9703e22c1ac"},"vehicle_type_id":"4","last_reported":1771241563,"current_range_meters":38800,"station_id":"ce4bhch2rcd13ifvqeug","pricing_plan_id":"cebpf4jnsgd1na2vs0mg"},{"bike_id":"616b704e-7d16-4e17-a28f-67c31fbd5cd3","system_id":"levelo_inurba_marseille","lat":43.30911,"lon":5.36845,"is_reserved":false,"is_disabled":false,"rental_uris":{"android":"levelo://app?vid=616b704e-7d16-4e17-a28f-67c31fbd5cd3","ios":"levelo://app?vid=616b704e-7d16-4e17-a28f-67c31fbd5cd3"},"vehicle_type_id":"4","last_reported":1771241563,"current_range_meters":32800,"station_id":"ce4bgn92rcd13ifvqbvg","pricing_plan_id":"cebpf4jnsgd1na2vs0mg"},{"bike_id":"9a868836-8073-418b-87ef-ac75ac8e2e05","system_id":"levelo_inurba_marseille","lat":43.31358,"lon":5.36741,"is_reserved":false,"is_disabled":false,"rental_uris":{"android":"levelo://app?vid=9a868836-8073-418b-87ef-ac75ac8e2e05","ios":"levelo://app?vid=9a868836-8073-418b-87ef-ac75ac8e2e05"},"vehicle_type_id":"4","last_reported":1771241563,"current_range_meters":33600,"station_id":"ce4bgr92rcd13ifvqc6g","pricing_plan_id":"cebpf4jnsgd1na2vs0mg"},{"bike_id":"bd0e99a1-4162-41ae-b356-8cc729f7fd82","system_id":"levelo_inurba_marseille","lat":43.23972,"lon":5.36639,"is_reserved":false,"is_disabled":false,"rental_uris":{"android":"levelo://app?vid=bd0e99a1-4162-41ae-b356-8cc729f7fd82","ios":"levelo://app?vid=bd0e99a1-4162-41ae-b356-8cc729f7fd82"},"vehicle_type_id":"4","last_reported":1771241563,"current_range_meters":8800,"station_id":"ce4bhi12rcd13ifvqfp0","pricing_plan_id":"cebpf4jnsgd1na2vs0mg"},{"bike_id":"3d69156c-572f-4b50-bfc8-dd5d9f6e75cc","system_id":"levelo_inurba_marseille","lat":43.25109,"lon":5.39513,"is_reserved":false,"is_disabled":true,"rental_uris":{"android":"levelo://app?vid=3d69156c-572f-4b50-bfc8-dd5d9f6e75cc","ios":"levelo://app?vid=3d69156c-572f-4b50-bfc8-dd5d9f6e75cc"},"vehicle_type_id":"4","last_reported":1771241563,"current_range_meters":8800,"station_id":"ce4bhm12rcd13ifvqgkg","pricing_plan_id":"cebpf4jnsgd1na2vs0mg"},{"bike_id":"7e5392f3-a67b-424e-a0c9-2a977c447c25","system_id":"levelo_inurba_marseille","lat":43.24089,"lon":5.37722,"is_reserved":false,"is_disabled":false,"rental_uris":{"android":"levelo://app?vid=7e5392f3-a67b-424e-a0c9-2a977c447c25","ios":"levelo://app?vid=7e5392f3-a67b-424e-a0c9-2a977c447c25"},"vehicle_type_id":"4","last_reported":1771241563,"current_range_meters":24400,"station_id":"ce4bhnp2rcd13ifvqgvg","pricing_plan_id":"cebpf4jnsgd1na2vs0mg"},{"bike_id":"934f790d-76eb-4645-b594-378370de8196","system_id":"levelo_inurba_marseille","lat":43.30146,"lon":5.38097,"is_reserved":false,"is_disabled":false,"rental_uris":{"android":"levelo://app?vid=934f790d-76eb-4645-b594-378370de8196","ios":"levelo://app?vid=934f790d-76eb-4645-b594-378370de8196"},"vehicle_type_id":"4","last_reported":1771241563,"current_range_meters":38000,"station_id":"ce4bgjp2rcd13ifvqbh0","pricing_plan_id":"cebpf4jnsgd1na2vs0mg"},{"bike_id":"b46161f1-e7ec-4cb9-92f2-dc2b4e46716b","system_id":"levelo_inurba_marseille","lat":43.30509,"lon":5.36507,"is_reserved":false,"is_disabled":false,"rental_uris":{"android":"levelo://app?vid=b46161f1-e7ec-4cb9-92f2-dc2b4e46716b","ios":"levelo://app?vid=b46161f1-e7ec-4cb9-92f2-dc2b4e46716b"},"vehicle_type_id":"4","last_reported":1771241563,"current_range_meters":12800,"station_id":"","pricing_plan_id":"cebpf4jnsgd1na2vs0mg"},{"bike_id":"ceac2027-044d-42ff-9397-482a7c4c7ccd","system_id":"levelo_inurba_marseille","lat":43.30955,"lon":5.3905,"is_reserved":false,"is_disabled":false,"rental_uris":{"android":"levelo://app?vid=ceac2027-044d-42ff-9397-482a7c4c7ccd","ios":"levelo://app?vid=ceac2027-044d-42ff-9397-482a7c4c7ccd"},"vehicle_type_id":"4","last_reported":1771241563,"current_range_meters":35200,"station_id":"ce4bgup2rcd13ifvqco0","pricing_plan_id":"cebpf4jnsgd1na2vs0mg"},{"bike_id":"821fb0be-7499-4473-8aa4-d25dd4bfdb68","system_id":"levelo_inurba_marseille","lat":43.26974,"lon":5.38615,"is_reserved":false,"is_disabled":true,"rental_uris":{"android":"levelo://app?vid=821fb0be-7499-4473-8aa4-d25dd4bfdb68","ios":"levelo://app?vid=821fb0be-7499-4473-8aa4-d25dd4bfdb68"},"vehicle_type_id":"4","last_reported":1771241563,"current_range_meters":30000,"station_id":"ce4bhh92rcd13ifvqfh0","pricing_plan_id":"cebpf4jnsgd1na2vs0mg"},{"bike_id":"e70e0676-153d-400d-9abb-92f5933a611c","system_id":"levelo_inurba_marseille","lat":43.24063,"lon":5.3773,"is_reserved":false,"is_disabled":false,"rental_uris":{"android":"levelo://app?vid=e70e0676-153d-400d-9abb-92f5933a611c","ios":"levelo://app?vid=e70e0676-153d-400d-9abb-92f5933a611c"},"vehicle_type_id":"4","last_reported":1771241563,"current_range_meters":31200,"station_id":"ce4bhnp2rcd13ifvqgvg","pricing_plan_id":"cebpf4jnsgd1na2vs0mg"},{"bike_id":"aab1f510-8226-43d7-a5c8-ac2808d65c0b","system_id":"levelo_inurba_marseille","lat":43.27212,"lon":5.40967,"is_reserved":false,"is_disabled":true,"rental_uris":{"android":"levelo://app?vid=aab1f510-8226-43d7-a5c8-ac2808d65c0b","ios":"levelo://app?vid=aab1f510-8226-43d7-a5c8-ac2808d65c0b"},"vehicle_type_id":"4","last_reported":1771241563,"current_range_meters":25600,"station_id":"","pricing_plan_id":"cebpf4jnsgd1na2vs0mg"},{"bike_id":"66c6f93c-a08b-4071-82ef-3029409742dd","system_id":"levelo_inurba_marseille","lat":43.295772,"lon":5.375105,"is_reserved":false,"is_disabled":false,"rental_uris":{"android":"levelo://app?vid=66c6f93c-a08b-4071-82ef-3029409742dd","ios":"levelo://app?vid=66c6f93c-a08b-4071-82ef-3029409742dd"},"vehicle_type_id":"4","last_reported":1771241563,"current_range_meters":10800,"station_id":"ce4bgh92rcd13ifvqb50","pricing_plan_id":"cebpf4jnsgd1na2vs0mg"},{"bike_id":"1c22f7a6-9a8b-4720-a4f3-42877a227b89","system_id":"levelo_inurba_marseille","lat":43.240904,"lon":5.37741,"is_reserved":false,"is_disabled":true,"rental_uris":{"android":"levelo://app?vid=1c22f7a6-9a8b-4720-a4f3-42877a227b89","ios":"levelo://app?vid=1c22f7a6-9a8b-4720-a4f3-42877a227b89"},"vehicle_type_id":"4","last_reported":1771241563,"current_range_meters":27600,"station_id":"ce4bhnp2rcd13ifvqgvg","pricing_plan_id":"cebpf4jnsgd1na2vs0mg"},{"bike_id":"33da8187-3eb8-4f3e-970f-0ece9caa0bce","system_id":"levelo_inurba_marseille","lat":43.24943,"lon":5.40499,"is_reserved":false,"is_disabled":false,"rental_uris":{"android":"levelo://app?vid=33da8187-3eb8-4f3e-970f-0ece9caa0bce","ios":"levelo://app?vid=33da8187-3eb8-4f3e-970f-0ece9caa0bce"},"vehicle_type_id":"4","last_reported":1771241563,"current_range_meters":33200,"station_id":"st_d2ngiaodas8pm72gd1h0","pricing_plan_id":"cebpf4jnsgd1na2vs0mg"},{"bike_id":"9a932dbc-eec4-4bba-b086-8d76a4f9c85c","system_id":"levelo_inurba_marseille","lat":43.27979,"lon":5.40019,"is_reserved":false,"is_disabled":false,"rental_uris":{"android":"levelo://app?vid=9a932dbc-eec4-4bba-b086-8d76a4f9c85c","ios":"levelo://app?vid=9a932dbc-eec4-4bba-b086-8d76a4f9c85c"},"vehicle_type_id":"4","last_reported":1771241563,"current_range_meters":36400,"station_id":"ce4bho92rcd13ifvqh4g","pricing_plan_id":"cebpf4jnsgd1na2vs0mg"},{"bike_id":"b78d2082-1fe3-4360-985b-071bd89aa6ac","system_id":"levelo_inurba_marseille","lat":43.26213,"lon":5.37444,"is_reserved":false,"is_disabled":false,"rental_uris":{"android":"levelo://app?vid=b78d2082-1fe3-4360-985b-071bd89aa6ac","ios":"levelo://app?vid=b78d2082-1fe3-4360-985b-071bd89aa6ac"},"vehicle_type_id":"4","last_reported":1771241563,"current_range_meters":6800,"station_id":"ce4bhgp2rcd13ifvqfc0","pricing_plan_id":"cebpf4jnsgd1na2vs0mg"},{"bike_id":"62690fc1-be7d-40e9-b030-d9d1f6432310","system_id":"levelo_inurba_marseille","lat":43.29311,"lon":5.37159,"is_reserved":false,"is_disabled":false,"rental_uris":{"android":"levelo://app?vid=62690fc1-be7d-40e9-b030-d9d1f6432310","ios":"levelo://app?vid=62690fc1-be7d-40e9-b030-d9d1f6432310"},"vehicle_type_id":"4","last_reported":1771241563,"current_range_meters":18800,"station_id":"ce4bgh92rcd13ifvqb40","pricing_plan_id":"cebpf4jnsgd1na2vs0mg"},{"bike_id":"a0086cb1-4402-4fb3-a23f-af0eb34bf57a","system_id":"levelo_inurba_marseille","lat":43.29266,"lon":5.40916,"is_reserved":false,"is_disabled":true,"rental_uris":{"android":"levelo://app?vid=a0086cb1-4402-4fb3-a23f-af0eb34bf57a","ios":"levelo://app?vid=a0086cb1-4402-4fb3-a23f-af0eb34bf57a"},"vehicle_type_id":"4","last_reported":1771241563,"current_range_meters":32400,"station_id":"ce4bh192rcd13ifvqdc0","pricing_plan_id":"cebpf4jnsgd1na2vs0mg"},{"bike_id":"185c435d-ad1f-4775-a4d3-87a9d5d9c111","system_id":"levelo_inurba_marseille","lat":43.26247,"lon":5.40429,"is_reserved":false,"is_disabled":false,"rental_uris":{"android":"levelo://app?vid=185c435d-ad1f-4775-a4d3-87a9d5d9c111","ios":"levelo://app?vid=185c435d-ad1f-4775-a4d3-87a9d5d9c111"},"vehicle_type_id":"4","last_reported":1771241563,"current_range_meters":5600,"station_id":"ce4bhmh2rcd13ifvqgmg","pricing_plan_id":"cebpf4jnsgd1na2vs0mg"},{"bike_id":"62e690f0-63f6-474d-98ba-c3ee77f6bd18","system_id":"levelo_inurba_marseille","lat":43.29604,"lon":5.43862,"is_reserved":false,"is_disabled":false,"rental_uris":{"android":"levelo://app?vid=62e690f0-63f6-474d-98ba-c3ee77f6bd18","ios":"levelo://app?vid=62e690f0-63f6-474d-98ba-c3ee77f6bd18"},"vehicle_type_id":"4","last_reported":1771241563,"current_range_meters":28000,"station_id":"","pricing_plan_id":"cebpf4jnsgd1na2vs0mg"},{"bike_id":"79c3f43c-8643-4476-956b-ec124659f30d","system_id":"levelo_inurba_marseille","lat":43.30441,"lon":5.36895,"is_reserved":false,"is_disabled":false,"rental_uris":{"android":"levelo://app?vid=79c3f43c-8643-4476-956b-ec124659f30d","ios":"levelo://app?vid=79c3f43c-8643-4476-956b-ec124659f30d"},"vehicle_type_id":"4","last_reported":1771241563,"current_range_meters":22800,"station_id":"","pricing_plan_id":"cebpf4jnsgd1na2vs0mg"},{"bike_id":"a893f91b-71b5-4bda-a582-3da37d0be328","system_id":"levelo_inurba_marseille","lat":43.28001,"lon":5.40025,"is_reserved":false,"is_disabled":false,"rental_uris":{"android":"levelo://app?vid=a893f91b-71b5-4bda-a582-3da37d0be328","ios":"levelo://app?vid=a893f91b-71b5-4bda-a582-3da37d0be328"},"vehicle_type_id":"4","last_reported":1771241563,"current_range_meters":39200,"station_id":"ce4bho92rcd13ifvqh4g","pricing_plan_id":"cebpf4jnsgd1na2vs0mg"},{"bike_id":"c27094ba-e66d-429a-9a50-62d0067fc9b7","system_id":"levelo_inurba_marseille","lat":43.31598,"lon":5.3842,"is_reserved":false,"is_disabled":false,"rental_uris":{"android":"levelo://app?vid=c27094ba-e66d-429a-9a50-62d0067fc9b7","ios":"levelo://app?vid=c27094ba-e66d-429a-9a50-62d0067fc9b7"},"vehicle_type_id":"4","last_reported":1771241563,"current_range_meters":27200,"station_id":"","pricing_plan_id":"cebpf4jnsgd1na2vs0mg"},{"bike_id":"45b209b0-f7ec-4530-b801-53212625f98e","system_id":"levelo_inurba_marseille","lat":43.26072,"lon":5.394,"is_reserved":false,"is_disabled":false,"rental_uris":{"android":"levelo://app?vid=45b209b0-f7ec-4530-b801-53212625f98e","ios":"levelo://app?vid=45b209b0-f7ec-4530-b801-53212625f98e"},"vehicle_type_id":"4","last_reported":1771241563,"current_range_meters":2800,"station_id":"ce4bhh92rcd13ifvqfj0","pricing_plan_id":"cebpf4jnsgd1na2vs0mg"},{"bike_id":"40fd0452-0ae6-42bf-907f-bb1c4484b081","system_id":"levelo_inurba_marseille","lat":43.28012,"lon":5.38691,"is_reserved":false,"is_disabled":true,"rental_uris":{"android":"levelo://app?vid=40fd0452-0ae6-42bf-907f-bb1c4484b081","ios":"levelo://app?vid=40fd0452-0ae6-42bf-907f-bb1c4484b081"},"vehicle_type_id":"4","last_reported":1771241563,"current_range_meters":26000,"station_id":"","pricing_plan_id":"cebpf4jnsgd1na2vs0mg"},{"bike_id":"d372ddf4-25e4-4090-b847-2210a5057d33","system_id":"levelo_inurba_marseille","lat":43.29573,"lon":5.37501,"is_reserved":false,"is_disabled":false,"rental_uris":{"android":"levelo://app?vid=d372ddf4-25e4-4090-b847-2210a5057d33","ios":"levelo://app?vid=d372ddf4-25e4-4090-b847-2210a5057d33"},"vehicle_type_id":"4","last_reported":1771241563,"current_range_meters":12400,"station_id":"ce4bgh92rcd13ifvqb50","pricing_plan_id":"cebpf4jnsgd1na2vs0mg"},{"bike_id":"a375f783-8777-43ec-a42e-a06d9b1ca700","system_id":"levelo_inurba_marseille","lat":43.29318,"lon":5.37159,"is_reserved":false,"is_disabled":false,"rental_uris":{"android":"levelo://app?vid=a375f783-8777-43ec-a42e-a06d9b1ca700","ios":"levelo://app?vid=a375f783-8777-43ec-a42e-a06d9b1ca700"},"vehicle_type_id":"4","last_reported":1771241563,"current_range_meters":38000,"station_id":"ce4bgh92rcd13ifvqb40","pricing_plan_id":"cebpf4jnsgd1na2vs0mg"},{"bike_id":"c53a2d92-3b01-4c2e-840c-b1c5777320b0","system_id":"levelo_inurba_marseille","lat":43.25343,"lon":5.42168,"is_reserved":false,"is_disabled":false,"rental_uris":{"android":"levelo://app?vid=c53a2d92-3b01-4c2e-840c-b1c5777320b0","ios":"levelo://app?vid=c53a2d92-3b01-4c2e-840c-b1c5777320b0"},"vehicle_type_id":"4","last_reported":1771241563,"current_range_meters":12000,"station_id":"st_d2m65c5bi1j21697t3ng","pricing_plan_id":"cebpf4jnsgd1na2vs0mg"},{"bike_id":"eeecab8f-ce0c-4a79-9b11-0ca40cb92ba2","system_id":"levelo_inurba_marseille","lat":43.31202,"lon":5.36805,"is_reserved":false,"is_disabled":false,"rental_uris":{"android":"levelo://app?vid=eeecab8f-ce0c-4a79-9b11-0ca40cb92ba2","ios":"levelo://app?vid=eeecab8f-ce0c-4a79-9b11-0ca40cb92ba2"},"vehicle_type_id":"4","last_reported":1771241563,"current_range_meters":28400,"station_id":"ce4bgl92rcd13ifvqbq0","pricing_plan_id":"cebpf4jnsgd1na2vs0mg"},{"bike_id":"a062daaa-9206-442c-82f5-9c74316ead18","system_id":"levelo_inurba_marseille","lat":43.2905,"lon":5.35909,"is_reserved":false,"is_disabled":false,"rental_uris":{"android":"levelo://app?vid=a062daaa-9206-442c-82f5-9c74316ead18","ios":"levelo://app?vid=a062daaa-9206-442c-82f5-9c74316ead18"},"vehicle_type_id":"4","last_reported":1771241563,"current_range_meters":28400,"station_id":"ce4bha92rcd13ifvqeg0","pricing_plan_id":"cebpf4jnsgd1na2vs0mg"},{"bike_id":"d529137c-678d-49a9-bacc-b89f9072d3c8","system_id":"levelo_inurba_marseille","lat":43.30746,"lon":5.42426,"is_reserved":false,"is_disabled":false,"rental_uris":{"android":"levelo://app?vid=d529137c-678d-49a9-bacc-b89f9072d3c8","ios":"levelo://app?vid=d529137c-678d-49a9-bacc-b89f9072d3c8"},"vehicle_type_id":"4","last_reported":1771241563,"current_range_meters":38400,"station_id":"st_cvj6ca6bvosntc0bfgr0","pricing_plan_id":"cebpf4jnsgd1na2vs0mg"},{"bike_id":"c7fbcb26-f0c5-485b-bedf-94d07ace569a","system_id":"levelo_inurba_marseille","lat":43.2681,"lon":5.40255,"is_reserved":false,"is_disabled":false,"rental_uris":{"android":"levelo://app?vid=c7fbcb26-f0c5-485b-bedf-94d07ace569a","ios":"levelo://app?vid=c7fbcb26-f0c5-485b-bedf-94d07ace569a"},"vehicle_type_id":"4","last_reported":1771241563,"current_range_meters":38400,"station_id":"ce501612rcd8frsf0b60","pricing_plan_id":"cebpf4jnsgd1na2vs0mg"},{"bike_id":"88f1f13a-b9f4-42bb-928f-bb3ba59d1110","system_id":"levelo_inurba_marseille","lat":43.29257,"lon":5.37247,"is_reserved":false,"is_disabled":false,"rental_uris":{"android":"levelo://app?vid=88f1f13a-b9f4-42bb-928f-bb3ba59d1110","ios":"levelo://app?vid=88f1f13a-b9f4-42bb-928f-bb3ba59d1110"},"vehicle_type_id":"4","last_reported":1771241563,"current_range_meters":32800,"station_id":"","pricing_plan_id":"cebpf4jnsgd1na2vs0mg"},{"bike_id":"74f62393-4bd9-47e9-8d53-461792093662","system_id":"levelo_inurba_marseille","lat":43.29825,"lon":5.44064,"is_reserved":false,"is_disabled":false,"rental_uris":{"android":"levelo://app?vid=74f62393-4bd9-47e9-8d53-461792093662","ios":"levelo://app?vid=74f62393-4bd9-47e9-8d53-461792093662"},"vehicle_type_id":"4","last_reported":1771241563,"current_range_meters":12800,"station_id":"st_d3jp68qikq2c7381ktn0","pricing_plan_id":"cebpf4jnsgd1na2vs0mg"},{"bike_id":"56c54700-a4f9-48ac-a713-549a92b0ac87","system_id":"levelo_inurba_marseille","lat":43.30359,"lon":5.37701,"is_reserved":false,"is_disabled":false,"rental_uris":{"android":"levelo://app?vid=56c54700-a4f9-48ac-a713-549a92b0ac87","ios":"levelo://app?vid=56c54700-a4f9-48ac-a713-549a92b0ac87"},"vehicle_type_id":"4","last_reported":1771241563,"current_range_meters":39200,"station_id":"ce4bguh2rcd13ifvqcj0","pricing_plan_id":"cebpf4jnsgd1na2vs0mg"},{"bike_id":"7f5c2f7a-237d-458c-b790-52077d6ea409","system_id":"levelo_inurba_marseille","lat":43.301328,"lon":5.398614,"is_reserved":false,"is_disabled":false,"rental_uris":{"android":"levelo://app?vid=7f5c2f7a-237d-458c-b790-52077d6ea409","ios":"levelo://app?vid=7f5c2f7a-237d-458c-b790-52077d6ea409"},"vehicle_type_id":"4","last_reported":1771241563,"current_range_meters":38800,"station_id":"ce4bh0h2rcd13ifvqd40","pricing_plan_id":"cebpf4jnsgd1na2vs0mg"},{"bike_id":"d90668f2-3d76-4a55-8e2b-8622ac164718","system_id":"levelo_inurba_marseille","lat":43.31373,"lon":5.36737,"is_reserved":false,"is_disabled":false,"rental_uris":{"android":"levelo://app?vid=d90668f2-3d76-4a55-8e2b-8622ac164718","ios":"levelo://app?vid=d90668f2-3d76-4a55-8e2b-8622ac164718"},"vehicle_type_id":"4","last_reported":1771241563,"current_range_meters":32800,"station_id":"ce4bgr92rcd13ifvqc6g","pricing_plan_id":"cebpf4jnsgd1na2vs0mg"},{"bike_id":"5bd6cd7e-2667-487a-9751-de00cd46a5cd","system_id":"levelo_inurba_marseille","lat":43.248056,"lon":5.374604,"is_reserved":false,"is_disabled":false,"rental_uris":{"android":"levelo://app?vid=5bd6cd7e-2667-487a-9751-de00cd46a5cd","ios":"levelo://app?vid=5bd6cd7e-2667-487a-9751-de00cd46a5cd"},"vehicle_type_id":"4","last_reported":1771241563,"current_range_meters":38400,"station_id":"ce4bhgh2rcd13ifvqfb0","pricing_plan_id":"cebpf4jnsgd1na2vs0mg"},{"bike_id":"fad88d73-6dfd-4d88-b82b-3000804eb32b","system_id":"levelo_inurba_marseille","lat":43.28504,"lon":5.38416,"is_reserved":false,"is_disabled":false,"rental_uris":{"android":"levelo://app?vid=fad88d73-6dfd-4d88-b82b-3000804eb32b","ios":"levelo://app?vid=fad88d73-6dfd-4d88-b82b-3000804eb32b"},"vehicle_type_id":"4","last_reported":1771241563,"current_range_meters":22800,"station_id":"ce4bh512rcd13ifvqe3g","pricing_plan_id":"cebpf4jnsgd1na2vs0mg"},{"bike_id":"cd88b8a2-4e6c-48d3-8c6b-4664b5faba1a","system_id":"levelo_inurba_marseille","lat":43.25862,"lon":5.39909,"is_reserved":false,"is_disabled":false,"rental_uris":{"android":"levelo://app?vid=cd88b8a2-4e6c-48d3-8c6b-4664b5faba1a","ios":"levelo://app?vid=cd88b8a2-4e6c-48d3-8c6b-4664b5faba1a"},"vehicle_type_id":"4","last_reported":1771241563,"current_range_meters":18000,"station_id":"ce4bhl92rcd13ifvqghg","pricing_plan_id":"cebpf4jnsgd1na2vs0mg"},{"bike_id":"aa53388d-33cb-4514-b6c9-278a0bfc20dc","system_id":"levelo_inurba_marseille","lat":43.30546,"lon":5.36532,"is_reserved":false,"is_disabled":false,"rental_uris":{"android":"levelo://app?vid=aa53388d-33cb-4514-b6c9-278a0bfc20dc","ios":"levelo://app?vid=aa53388d-33cb-4514-b6c9-278a0bfc20dc"},"vehicle_type_id":"4","last_reported":1771241563,"current_range_meters":22400,"station_id":"ce4bgs12rcd13ifvqcag","pricing_plan_id":"cebpf4jnsgd1na2vs0mg"},{"bike_id":"54aae8c4-15d0-4687-a4f0-186be8357f1b","system_id":"levelo_inurba_marseille","lat":43.28162,"lon":5.42625,"is_reserved":false,"is_disabled":false,"rental_uris":{"android":"levelo://app?vid=54aae8c4-15d0-4687-a4f0-186be8357f1b","ios":"levelo://app?vid=54aae8c4-15d0-4687-a4f0-186be8357f1b"},"vehicle_type_id":"4","last_reported":1771241563,"current_range_meters":9200,"station_id":"ce4bhnh2rcd13ifvqgug","pricing_plan_id":"cebpf4jnsgd1na2vs0mg"},{"bike_id":"b1cf546f-ef58-4f33-aa53-4926663122c2","system_id":"levelo_inurba_marseille","lat":43.29874,"lon":5.3748,"is_reserved":false,"is_disabled":false,"rental_uris":{"android":"levelo://app?vid=b1cf546f-ef58-4f33-aa53-4926663122c2","ios":"levelo://app?vid=b1cf546f-ef58-4f33-aa53-4926663122c2"},"vehicle_type_id":"4","last_reported":1771241563,"current_range_meters":38000,"station_id":"","pricing_plan_id":"cebpf4jnsgd1na2vs0mg"},{"bike_id":"70a1b306-21bc-4fbe-b39b-6e3db45bd926","system_id":"levelo_inurba_marseille","lat":43.29862,"lon":5.36281,"is_reserved":false,"is_disabled":false,"rental_uris":{"android":"levelo://app?vid=70a1b306-21bc-4fbe-b39b-6e3db45bd926","ios":"levelo://app?vid=70a1b306-21bc-4fbe-b39b-6e3db45bd926"},"vehicle_type_id":"4","last_reported":1771241563,"current_range_meters":38000,"station_id":"ce4bgpp2rcd13ifvqc3g","pricing_plan_id":"cebpf4jnsgd1na2vs0mg"},{"bike_id":"8020fcc3-e434-4b49-ba24-ce72322494ed","system_id":"levelo_inurba_marseille","lat":43.28349,"lon":5.38092,"is_reserved":false,"is_disabled":false,"rental_uris":{"android":"levelo://app?vid=8020fcc3-e434-4b49-ba24-ce72322494ed","ios":"levelo://app?vid=8020fcc3-e434-4b49-ba24-ce72322494ed"},"vehicle_type_id":"4","last_reported":1771241563,"current_range_meters":37600,"station_id":"ce4bh412rcd13ifvqdr0","pricing_plan_id":"cebpf4jnsgd1na2vs0mg"},{"bike_id":"01cbf6ce-9b49-4434-8185-65cef7d9f5ba","system_id":"levelo_inurba_marseille","lat":43.30206,"lon":5.36625,"is_reserved":false,"is_disabled":false,"rental_uris":{"android":"levelo://app?vid=01cbf6ce-9b49-4434-8185-65cef7d9f5ba","ios":"levelo://app?vid=01cbf6ce-9b49-4434-8185-65cef7d9f5ba"},"vehicle_type_id":"4","last_reported":1771241563,"current_range_meters":38000,"station_id":"ce4bgrh2rcd13ifvqc8g","pricing_plan_id":"cebpf4jnsgd1na2vs0mg"},{"bike_id":"d857b41f-3bf8-4665-b483-e66e8d4b99fd","system_id":"levelo_inurba_marseille","lat":43.25614,"lon":5.38215,"is_reserved":false,"is_disabled":false,"rental_uris":{"android":"levelo://app?vid=d857b41f-3bf8-4665-b483-e66e8d4b99fd","ios":"levelo://app?vid=d857b41f-3bf8-4665-b483-e66e8d4b99fd"},"vehicle_type_id":"4","last_reported":1771241563,"current_range_meters":28800,"station_id":"ce4bhih2rcd13ifvqfs0","pricing_plan_id":"cebpf4jnsgd1na2vs0mg"},{"bike_id":"b66e0ad4-8ae9-49f3-9245-06bfaa860ce3","system_id":"levelo_inurba_marseille","lat":43.30916,"lon":5.36854,"is_reserved":false,"is_disabled":false,"rental_uris":{"android":"levelo://app?vid=b66e0ad4-8ae9-49f3-9245-06bfaa860ce3","ios":"levelo://app?vid=b66e0ad4-8ae9-49f3-9245-06bfaa860ce3"},"vehicle_type_id":"4","last_reported":1771241563,"current_range_meters":38800,"station_id":"ce4bgn92rcd13ifvqbvg","pricing_plan_id":"cebpf4jnsgd1na2vs0mg"},{"bike_id":"888f48dc-3b79-41ff-b7fc-95bbedbf90a7","system_id":"levelo_inurba_marseille","lat":43.29864,"lon":5.36282,"is_reserved":false,"is_disabled":false,"rental_uris":{"android":"levelo://app?vid=888f48dc-3b79-41ff-b7fc-95bbedbf90a7","ios":"levelo://app?vid=888f48dc-3b79-41ff-b7fc-95bbedbf90a7"},"vehicle_type_id":"4","last_reported":1771241563,"current_range_meters":32800,"station_id":"ce4bgpp2rcd13ifvqc3g","pricing_plan_id":"cebpf4jnsgd1na2vs0mg"},{"bike_id":"cd60cdd4-7033-456d-b7f2-bf0012889541","system_id":"levelo_inurba_marseille","lat":43.25938,"lon":5.40909,"is_reserved":false,"is_disabled":false,"rental_uris":{"android":"levelo://app?vid=cd60cdd4-7033-456d-b7f2-bf0012889541","ios":"levelo://app?vid=cd60cdd4-7033-456d-b7f2-bf0012889541"},"vehicle_type_id":"4","last_reported":1771241563,"current_range_meters":25600,"station_id":"ce4bhm92rcd13ifvqglg","pricing_plan_id":"cebpf4jnsgd1na2vs0mg"},{"bike_id":"c47394f2-3406-4eef-a476-551c8d02722d","system_id":"levelo_inurba_marseille","lat":43.31533,"lon":5.37248,"is_reserved":false,"is_disabled":false,"rental_uris":{"android":"levelo://app?vid=c47394f2-3406-4eef-a476-551c8d02722d","ios":"levelo://app?vid=c47394f2-3406-4eef-a476-551c8d02722d"},"vehicle_type_id":"4","last_reported":1771241563,"current_range_meters":36800,"station_id":"","pricing_plan_id":"cebpf4jnsgd1na2vs0mg"},{"bike_id":"b8ac35e3-3fdd-4fd1-ad7b-7c28653e64a7","system_id":"levelo_inurba_marseille","lat":43.25584,"lon":5.38238,"is_reserved":false,"is_disabled":false,"rental_uris":{"android":"levelo://app?vid=b8ac35e3-3fdd-4fd1-ad7b-7c28653e64a7","ios":"levelo://app?vid=b8ac35e3-3fdd-4fd1-ad7b-7c28653e64a7"},"vehicle_type_id":"4","last_reported":1771241563,"current_range_meters":39200,"station_id":"ce4bhih2rcd13ifvqfs0","pricing_plan_id":"cebpf4jnsgd1na2vs0mg"},{"bike_id":"14a041dd-8534-4d29-98bf-7d2719114137","system_id":"levelo_inurba_marseille","lat":43.32498,"lon":5.36618,"is_reserved":false,"is_disabled":false,"rental_uris":{"android":"levelo://app?vid=14a041dd-8534-4d29-98bf-7d2719114137","ios":"levelo://app?vid=14a041dd-8534-4d29-98bf-7d2719114137"},"vehicle_type_id":"4","last_reported":1771241563,"current_range_meters":20800,"station_id":"","pricing_plan_id":"cebpf4jnsgd1na2vs0mg"},{"bike_id":"61738941-087a-4977-8f2e-9153042fda23","system_id":"levelo_inurba_marseille","lat":43.25579,"lon":5.38233,"is_reserved":false,"is_disabled":false,"rental_uris":{"android":"levelo://app?vid=61738941-087a-4977-8f2e-9153042fda23","ios":"levelo://app?vid=61738941-087a-4977-8f2e-9153042fda23"},"vehicle_type_id":"4","last_reported":1771241563,"current_range_meters":37600,"station_id":"ce4bhih2rcd13ifvqfs0","pricing_plan_id":"cebpf4jnsgd1na2vs0mg"},{"bike_id":"97ccd086-36d4-4005-b689-fdea1c796e9d","system_id":"levelo_inurba_marseille","lat":43.30396,"lon":5.42481,"is_reserved":false,"is_disabled":false,"rental_uris":{"android":"levelo://app?vid=97ccd086-36d4-4005-b689-fdea1c796e9d","ios":"levelo://app?vid=97ccd086-36d4-4005-b689-fdea1c796e9d"},"vehicle_type_id":"4","last_reported":1771241563,"current_range_meters":24000,"station_id":"ce4bghh2rcd13ifvqb60","pricing_plan_id":"cebpf4jnsgd1na2vs0mg"},{"bike_id":"db5527a1-b510-49eb-bd7c-ec8e851f906e","system_id":"levelo_inurba_marseille","lat":43.31911,"lon":5.37375,"is_reserved":false,"is_disabled":false,"rental_uris":{"android":"levelo://app?vid=db5527a1-b510-49eb-bd7c-ec8e851f906e","ios":"levelo://app?vid=db5527a1-b510-49eb-bd7c-ec8e851f906e"},"vehicle_type_id":"4","last_reported":1771241563,"current_range_meters":12400,"station_id":"","pricing_plan_id":"cebpf4jnsgd1na2vs0mg"},{"bike_id":"adc44470-d083-42b0-b4ca-7aeab9548579","system_id":"levelo_inurba_marseille","lat":43.24463,"lon":5.42543,"is_reserved":false,"is_disabled":true,"rental_uris":{"android":"levelo://app?vid=adc44470-d083-42b0-b4ca-7aeab9548579","ios":"levelo://app?vid=adc44470-d083-42b0-b4ca-7aeab9548579"},"vehicle_type_id":"4","last_reported":1771241563,"current_range_meters":8000,"station_id":"","pricing_plan_id":"cebpf4jnsgd1na2vs0mg"},