{"last_updated":1731068226,"ttl":60,"version":"2.2","data":{"bikes":[{"bike_id":"0c4f7cd5-af8a-4eae-be04-2bd5279f7358","system_id":"levelo_inurba_marseille","lat":43.29095,"lon":5.38142,"is_reserved":false,"is_disabled":false,"rental_uris":{"android":"levelo://app?vid=0c4f7cd5-af8a-4eae-be04-2bd5279f7358","ios":"levelo://app?vid=0c4f7cd5-af8a-4eae-be04-2bd5279f7358"},"vehicle_type_id":"4","last_reported":1731068226,"current_range_meters":17600,"station_id":"ce4bh512rcd13ifvqe2g","pricing_plan_id":"cebpf4jnsgd1na2vs0mg"},{"bike_id":"3e434dda-5af1-444f-b2de-2d72e6fd4d8b","system_id":"levelo_inurba_marseille","lat":43.29001,"lon":5.35602,"is_reserved":false,"is_disabled":false,"rental_uris":{"android":"levelo://app?vid=3e434dda-5af1-444f-b2de-2d72e6fd4d8b","ios":"levelo://app?vid=3e434dda-5af1-444f-b2de-2d72e6fd4d8b"},"vehicle_type_id":"4","last_reported":1731068226,"current_range_meters":40000,"station_id":"ce4bhb92rcd13ifvqen0","pricing_plan_id":"cebpf4jnsgd1na2vs0mg"},{"bike_id":"1151f7c9-e122-4e41-a2b9-3d1ee51da486","system_id":"levelo_inurba_marseille","lat":43.29837,"lon":5.36277,"is_reserved":false,"is_disabled":false,"rental_uris":{"android":"levelo://app?vid=1151f7c9-e122-4e41-a2b9-3d1ee51da486","ios":"levelo://app?vid=1151f7c9-e122-4e41-a2b9-3d1ee51da486"},"vehicle_type_id":"4","last_reported":1731068226,"current_range_meters":22000,"station_id":"ce4bgpp2rcd13ifvqc3g","pricing_plan_id":"cebpf4jnsgd1na2vs0mg"},{"bike_id":"e5e7465d-1f89-4768-b017-15428809116f","system_id":"levelo_inurba_marseille","lat":43.26678,"lon":5.38268,"is_reserved":false,"is_disabled":false,"rental_uris":{"android":"levelo://app?vid=e5e7465d-1f89-4768-b017-15428809116f","ios":"levelo://app?vid=e5e7465d-1f89-4768-b017-15428809116f"},"vehicle_type_id":"4","last_reported":1731068226,"current_range_meters":28800,"station_id":"ce4bhg92rcd13ifvqf90","pricing_plan_id":"cebpf4jnsgd1na2vs0mg"},{"bike_id":"3949f68b-fb6a-43d4-b498-a6256f619ce6","system_id":"levelo_inurba_marseille","lat":43.29271,"lon":5.40137,"is_reserved":false,"is_disabled":false,"rental_uris":{"android":"levelo://app?vid=3949f68b-fb6a-43d4-b498-a6256f619ce6","ios":"levelo://app?vid=3949f68b-fb6a-43d4-b498-a6256f619ce6"},"vehicle_type_id":"4","last_reported":1731068226,"current_range_meters":36000,"station_id":"ce4bh312rcd13ifvqdk0","pricing_plan_id":"cebpf4jnsgd1na2vs0mg"},{"bike_id":"7f774ae5-6cb7-4c53-91e0-4e9519e7a5f3","system_id":"levelo_inurba_marseille","lat":43.31726,"lon":5.42386,"is_reserved":false,"is_disabled":false,"rental_uris":{"android":"levelo://app?vid=7f774ae5-6cb7-4c53-91e0-4e9519e7a5f3","ios":"levelo://app?vid=7f774ae5-6cb7-4c53-91e0-4e9519e7a5f3"},"vehicle_type_id":"4","last_reported":1731068226,"current_range_meters":30800,"station_id":"ce4bhp92rcd13ifvqhbg","pricing_plan_id":"cebpf4jnsgd1na2vs0mg"},{"bike_id":"de6a56c8-07ff-4b32-99d7-79dcce51ec5c","system_id":"levelo_inurba_marseille","lat":43.29367,"lon":5.37825,"is_reserved":false,"is_disabled":false,"rental_uris":{"android":"levelo://app?vid=de6a56c8-07ff-4b32-99d7-79dcce51ec5c","ios":"levelo://app?vid=de6a56c8-07ff-4b32-99d7-79dcce51ec5c"},"vehicle_type_id":"4","last_reported":1731068226,"current_range_meters":37600,"station_id":"ce4bgjh2rcd13ifvqbf0","pricing_plan_id":"cebpf4jnsgd1na2vs0mg"},{"bike_id":"a96d0cb7-6185-4e52-b9ab-e185776f0909","system_id":"levelo_inurba_marseille","lat":43.3046,"lon":5.37903,"is_reserved":false,"is_disabled":false,"rental_uris":{"android":"levelo://app?vid=a96d0cb7-6185-4e52-b9ab-e185776f0909","ios":"levelo://app?vid=a96d0cb7-6185-4e52-b9ab-e185776f0909"},"vehicle_type_id":"4","last_reported":1731068226,"current_range_meters":32400,"station_id":"ce4bgup2rcd13ifvqcn0","pricing_plan_id":"cebpf4jnsgd1na2vs0mg"},{"bike_id":"3be020d0-d14a-4b26-8243-12c3a44122c5","system_id":"levelo_inurba_marseille","lat":43.24261,"lon":5.37103,"is_reserved":false,"is_disabled":false,"rental_uris":{"android":"levelo://app?vid=3be020d0-d14a-4b26-8243-12c3a44122c5","ios":"levelo://app?vid=3be020d0-d14a-4b26-8243-12c3a44122c5"},"vehicle_type_id":"4","last_reported":1731068226,"current_range_meters":16400,"station_id":"","pricing_plan_id":"cebpf4jnsgd1na2vs0mg"},{"bike_id":"f0580123-09e6-48b9-8683-0c14e0462951","system_id":"levelo_inurba_marseille","lat":43.29725,"lon":5.37687,"is_reserved":false,"is_disabled":false,"rental_uris":{"android":"levelo://app?vid=f0580123-09e6-48b9-8683-0c14e0462951","ios":"levelo://app?vid=f0580123-09e6-48b9-8683-0c14e0462951"},"vehicle_type_id":"4","last_reported":1731068226,"current_range_meters":38800,"station_id":"ce4bgkh2rcd13ifvqbl0","pricing_plan_id":"cebpf4jnsgd1na2vs0mg"},{"bike_id":"41dc0cdc-e2a3-4364-9502-e92dd8e24227","system_id":"levelo_inurba_marseille","lat":43.31346,"lon":5.3673,"is_reserved":false,"is_disabled":false,"rental_uris":{"android":"levelo://app?vid=41dc0cdc-e2a3-4364-9502-e92dd8e24227","ios":"levelo://app?vid=41dc0cdc-e2a3-4364-9502-e92dd8e24227"},"vehicle_type_id":"4","last_reported":1731068226,"current_range_meters":12800,"station_id":"ce4bgr92rcd13ifvqc6g","pricing_plan_id":"cebpf4jnsgd1na2vs0mg"},{"bike_id":"85ec6972-2474-4903-af30-b7a390d3db72","system_id":"levelo_inurba_marseille","lat":43.262,"lon":5.37436,"is_reserved":false,"is_disabled":false,"rental_uris":{"android":"levelo://app?vid=85ec6972-2474-4903-af30-b7a390d3db72","ios":"levelo://app?vid=85ec6972-2474-4903-af30-b7a390d3db72"},"vehicle_type_id":"4","last_reported":1731068226,"current_range_meters":36400,"station_id":"ce4bhgp2rcd13ifvqfc0","pricing_plan_id":"cebpf4jnsgd1na2vs0mg"},{"bike_id":"c88f1b31-dd3c-4e82-a81a-152198c83c26","system_id":"levelo_inurba_marseille","lat":43.31217,"lon":5.36857,"is_reserved":false,"is_disabled":false,"rental_uris":{"android":"levelo://app?vid=c88f1b31-dd3c-4e82-a81a-152198c83c26","ios":"levelo://app?vid=c88f1b31-dd3c-4e82-a81a-152198c83c26"},"vehicle_type_id":"4","last_reported":1731068226,"current_range_meters":9600,"station_id":"ce4bgl92rcd13ifvqbq0","pricing_plan_id":"cebpf4jnsgd1na2vs0mg"},{"bike_id":"da5e31c5-28f5-4576-aa72-a90a9f0a4317","system_id":"levelo_inurba_marseille","lat":43.31688,"lon":5.40477,"is_reserved":false,"is_disabled":false,"rental_uris":{"android":"levelo://app?vid=da5e31c5-28f5-4576-aa72-a90a9f0a4317","ios":"levelo://app?vid=da5e31c5-28f5-4576-aa72-a90a9f0a4317"},"vehicle_type_id":"4","last_reported":1731068226,"current_range_meters":8800,"station_id":"ce4bh012rcd13ifvqd00","pricing_plan_id":"cebpf4jnsgd1na2vs0mg"},{"bike_id":"40649bdd-4a2f-4b19-99ba-6224afd5a562","system_id":"levelo_inurba_marseille","lat":43.30139,"lon":5.37426,"is_reserved":false,"is_disabled":false,"rental_uris":{"android":"levelo://app?vid=40649bdd-4a2f-4b19-99ba-6224afd5a562","ios":"levelo://app?vid=40649bdd-4a2f-4b19-99ba-6224afd5a562"},"vehicle_type_id":"4","last_reported":1731068226,"current_range_meters":7200,"station_id":"ce4bgs92rcd13ifvqcc0","pricing_plan_id":"cebpf4jnsgd1na2vs0mg"},{"bike_id":"504e5d62-7828-485f-b5c5-e0859c494a6c","system_id":"levelo_inurba_marseille","lat":43.32486,"lon":5.3655,"is_reserved":false,"is_disabled":false,"rental_uris":{"android":"levelo://app?vid=504e5d62-7828-485f-b5c5-e0859c494a6c","ios":"levelo://app?vid=504e5d62-7828-485f-b5c5-e0859c494a6c"},"vehicle_type_id":"4","last_reported":1731068226,"current_range_meters":36800,"station_id":"ce4bhs12rcd13ifvqhvg","pricing_plan_id":"cebpf4jnsgd1na2vs0mg"},{"bike_id":"80ede611-0400-4314-bb97-6b43003d136b","system_id":"levelo_inurba_marseille","lat":43.30534,"lon":5.36707,"is_reserved":false,"is_disabled":false,"rental_uris":{"android":"levelo://app?vid=80ede611-0400-4314-bb97-6b43003d136b","ios":"levelo://app?vid=80ede611-0400-4314-bb97-6b43003d136b"},"vehicle_type_id":"4","last_reported":1731068226,"current_range_meters":38800,"station_id":"ce4bgrp2rcd13ifvqc9g","pricing_plan_id":"cebpf4jnsgd1na2vs0mg"},{"bike_id":"e382a5f5-b97c-4326-befe-74fa542b41c7","system_id":"levelo_inurba_marseille","lat":43.23152,"lon":5.4371,"is_reserved":false,"is_disabled":false,"rental_uris":{"android":"levelo://app?vid=e382a5f5-b97c-4326-befe-74fa542b41c7","ios":"levelo://app?vid=e382a5f5-b97c-4326-befe-74fa542b41c7"},"vehicle_type_id":"4","last_reported":1731068226,"current_range_meters":28000,"station_id":"ce4bhmp2rcd13ifvqgog","pricing_plan_id":"cebpf4jnsgd1na2vs0mg"},{"bike_id":"fd12b793-66ca-4f7d-ad00-0679e21d5de7","system_id":"levelo_inurba_marseille","lat":43.30531,"lon":5.36532,"is_reserved":false,"is_disabled":false,"rental_uris":{"android":"levelo://app?vid=fd12b793-66ca-4f7d-ad00-0679e21d5de7","ios":"levelo://app?vid=fd12b793-66ca-4f7d-ad00-0679e21d5de7"},"vehicle_type_id":"4","last_reported":1731068226,"current_range_meters":30400,"station_id":"ce4bgs12rcd13ifvqcag","pricing_plan_id":"cebpf4jnsgd1na2vs0mg"},{"bike_id":"e22b98a5-9773-4f71-85ed-e74c4dff6249","system_id":"levelo_inurba_marseille","lat":43.30543,"lon":5.367,"is_reserved":false,"is_disabled":false,"rental_uris":{"android":"levelo://app?vid=e22b98a5-9773-4f71-85ed-e74c4dff6249","ios":"levelo://app?vid=e22b98a5-9773-4f71-85ed-e74c4dff6249"},"vehicle_type_id":"4","last_reported":1731068226,"current_range_meters":29600,"station_id":"ce4bgrp2rcd13ifvqc9g","pricing_plan_id":"cebpf4jnsgd1na2vs0mg"},{"bike_id":"b62db6f8-587a-461f-bdee-f0c3bff3dacd","system_id":"levelo_inurba_marseille","lat":43.31889,"lon":5.40733,"is_reserved":false,"is_disabled":false,"rental_uris":{"android":"levelo://app?vid=b62db6f8-587a-461f-bdee-f0c3bff3dacd","ios":"levelo://app?vid=b62db6f8-587a-461f-bdee-f0c3bff3dacd"},"vehicle_type_id":"4","last_reported":1731068226,"current_range_meters":32000,"station_id":"ce4bhq12rcd13ifvqhig","pricing_plan_id":"cebpf4jnsgd1na2vs0mg"},{"bike_id":"d23ac741-c352-419c-976d-7e27b4fd8c6b","system_id":"levelo_inurba_marseille","lat":43.3013,"lon":5.39888,"is_reserved":false,"is_disabled":false,"rental_uris":{"android":"levelo://app?vid=d23ac741-c352-419c-976d-7e27b4fd8c6b","ios":"levelo://app?vid=d23ac741-c352-419c-976d-7e27b4fd8c6b"},"vehicle_type_id":"4","last_reported":1731068226,"current_range_meters":5600,"station_id":"ce4bh0h2rcd13ifvqd40","pricing_plan_id":"cebpf4jnsgd1na2vs0mg"},{"bike_id":"e02419a2-7e10-42e6-99d0-1f15eb60cb10","system_id":"levelo_inurba_marseille","lat":43.27679,"lon":5.38888,"is_reserved":false,"is_disabled":false,"rental_uris":{"android":"levelo://app?vid=e02419a2-7e10-42e6-99d0-1f15eb60cb10","ios":"levelo://app?vid=e02419a2-7e10-42e6-99d0-1f15eb60cb10"},"vehicle_type_id":"4","last_reported":1731068226,"current_range_meters":9600,"station_id":"ce4bhi12rcd13ifvqfo0","pricing_plan_id":"cebpf4jnsgd1na2vs0mg"},{"bike_id":"08bbbc3d-8729-4390-9e99-fb03082c935f","system_id":"levelo_inurba_marseille","lat":43.28413,"lon":5.34984,"is_reserved":false,"is_disabled":false,"rental_uris":{"android":"levelo://app?vid=08bbbc3d-8729-4390-9e99-fb03082c935f","ios":"levelo://app?vid=08bbbc3d-8729-4390-9e99-fb03082c935f"},"vehicle_type_id":"4","last_reported":1731068226,"current_range_meters":29600,"station_id":"ce4bhbh2rcd13ifvqepg","pricing_plan_id":"cebpf4jnsgd1na2vs0mg"},{"bike_id":"ce23bc23-f800-43e2-93fb-378d92089b6e","system_id":"levelo_inurba_marseille","lat":43.25499,"lon":5.3765,"is_reserved":false,"is_disabled":false,"rental_uris":{"android":"levelo://app?vid=ce23bc23-f800-43e2-93fb-378d92089b6e","ios":"levelo://app?vid=ce23bc23-f800-43e2-93fb-378d92089b6e"},"vehicle_type_id":"4","last_reported":1731068226,"current_range_meters":32400,"station_id":"ce4bhh12rcd13ifvqff0","pricing_plan_id":"cebpf4jnsgd1na2vs0mg"},{"bike_id":"6fb32bb1-acec-47e9-a78c-5f0271edfd7f","system_id":"levelo_inurba_marseille","lat":43.26177,"lon":5.37501,"is_reserved":false,"is_disabled":false,"rental_uris":{"android":"levelo://app?vid=6fb32bb1-acec-47e9-a78c-5f0271edfd7f","ios":"levelo://app?vid=6fb32bb1-acec-47e9-a78c-5f0271edfd7f"},"vehicle_type_id":"4","last_reported":1731068226,"current_range_meters":22000,"station_id":"ce4bhgp2rcd13ifvqfc0","pricing_plan_id":"cebpf4jnsgd1na2vs0mg"},{"bike_id":"3d32f789-a044-47cc-8444-b1887a88a83f","system_id":"levelo_inurba_marseille","lat":43.305436,"lon":5.367056,"is_reserved":false,"is_disabled":false,"rental_uris":{"android":"levelo://app?vid=3d32f789-a044-47cc-8444-b1887a88a83f","ios":"levelo://app?vid=3d32f789-a044-47cc-8444-b1887a88a83f"},"vehicle_type_id":"4","last_reported":1731068226,"current_range_meters":38400,"station_id":"ce4bgrp2rcd13ifvqc9g","pricing_plan_id":"cebpf4jnsgd1na2vs0mg"},{"bike_id":"7dc12b24-e8a3-4adf-af9d-6061d6ac3ee8","system_id":"levelo_inurba_marseille","lat":43.29569,"lon":5.39972,"is_reserved":false,"is_disabled":false,"rental_uris":{"android":"levelo://app?vid=7dc12b24-e8a3-4adf-af9d-6061d6ac3ee8","ios":"levelo://app?vid=7dc12b24-e8a3-4adf-af9d-6061d6ac3ee8"},"vehicle_type_id":"4","last_reported":1731068226,"current_range_meters":10000,"station_id":"ce4bh312rcd13ifvqdj0","pricing_plan_id":"cebpf4jnsgd1na2vs0mg"},{"bike_id":"ea3e44e4-5607-432c-a36c-1dd1c2026358","system_id":"levelo_inurba_marseille","lat":43.32368,"lon":5.38886,"is_reserved":false,"is_disabled":false,"rental_uris":{"android":"levelo://app?vid=ea3e44e4-5607-432c-a36c-1dd1c2026358","ios":"levelo://app?vid=ea3e44e4-5607-432c-a36c-1dd1c2026358"},"vehicle_type_id":"4","last_reported":1731068226,"current_range_meters":35600,"station_id":"ce4bhqp2rcd13ifvqhog","pricing_plan_id":"cebpf4jnsgd1na2vs0mg"},{"bike_id":"533a9f77-d491-4dcc-a301-f4805bc01f05","system_id":"levelo_inurba_marseille","lat":43.24386,"lon":5.37057,"is_reserved":false,"is_disabled":false,"rental_uris":{"android":"levelo://app?vid=533a9f77-d491-4dcc-a301-f4805bc01f05","ios":"levelo://app?vid=533a9f77-d491-4dcc-a301-f4805bc01f05"},"vehicle_type_id":"4","last_reported":1731068226,"current_range_meters":26800,"station_id":"ce4bhhh2rcd13ifvqfk0","pricing_plan_id":"cebpf4jnsgd1na2vs0mg"},{"bike_id":"e5fd79ba-cef1-445c-a19b-073aed5a2bce","system_id":"levelo_inurba_marseille","lat":43.30543,"lon":5.36701,"is_reserved":false,"is_disabled":false,"rental_uris":{"android":"levelo://app?vid=e5fd79ba-cef1-445c-a19b-073aed5a2bce","ios":"levelo://app?vid=e5fd79ba-cef1-445c-a19b-073aed5a2bce"},"vehicle_type_id":"4","last_reported":1731068226,"current_range_meters":38800,"station_id":"ce4bgrp2rcd13ifvqc9g","pricing_plan_id":"cebpf4jnsgd1na2vs0mg"},{"bike_id":"1ed8831a-a3da-44b2-8f67-fa4791d6ae74","system_id":"levelo_inurba_marseille","lat":43.28151,"lon":5.42638,"is_reserved":false,"is_disabled":false,"rental_uris":{"android":"levelo://app?vid=1ed8831a-a3da-44b2-8f67-fa4791d6ae74","ios":"levelo://app?vid=1ed8831a-a3da-44b2-8f67-fa4791d6ae74"},"vehicle_type_id":"4","last_reported":1731068226,"current_range_meters":32000,"station_id":"ce4bhnh2rcd13ifvqgug","pricing_plan_id":"cebpf4jnsgd1na2vs0mg"},{"bike_id":"22c2910c-c395-401a-9c60-3a72ab53ce1d","system_id":"levelo_inurba_marseille","lat":43.26543,"lon":5.39502,"is_reserved":false,"is_disabled":false,"rental_uris":{"android":"levelo://app?vid=22c2910c-c395-401a-9c60-3a72ab53ce1d","ios":"levelo://app?vid=22c2910c-c395-401a-9c60-3a72ab53ce1d"},"vehicle_type_id":"4","last_reported":1731068226,"current_range_meters":30800,"station_id":"ce4bhh12rcd13ifvqfg0","pricing_plan_id":"cebpf4jnsgd1na2vs0mg"},{"bike_id":"f4ef053d-e709-4411-bdd9-de1d0f41e46f","system_id":"levelo_inurba_marseille","lat":43.2293,"lon":5.35374,"is_reserved":false,"is_disabled":false,"rental_uris":{"android":"levelo://app?vid=f4ef053d-e709-4411-bdd9-de1d0f41e46f","ios":"levelo://app?vid=f4ef053d-e709-4411-bdd9-de1d0f41e46f"},"vehicle_type_id":"4","last_reported":1731068226,"current_range_meters":39200,"station_id":"cpo3532slgdg3j2ikp40","pricing_plan_id":"cebpf4jnsgd1na2vs0mg"},{"bike_id":"33e2e127-b1c0-4156-80b5-b675713f59cd","system_id":"levelo_inurba_marseille","lat":43.25577,"lon":5.38234,"is_reserved":false,"is_disabled":false,"rental_uris":{"android":"levelo://app?vid=33e2e127-b1c0-4156-80b5-b675713f59cd","ios":"levelo://app?vid=33e2e127-b1c0-4156-80b5-b675713f59cd"},"vehicle_type_id":"4","last_reported":1731068226,"current_range_meters":28800,"station_id":"ce4bhih2rcd13ifvqfs0","pricing_plan_id":"cebpf4jnsgd1na2vs0mg"},{"bike_id":"f7db69b1-c8cb-4876-95a5-58556dde109d","system_id":"levelo_inurba_marseille","lat":43.29096,"lon":5.38134,"is_reserved":false,"is_disabled":false,"rental_uris":{"android":"levelo://app?vid=f7db69b1-c8cb-4876-95a5-58556dde109d","ios":"levelo://app?vid=f7db69b1-c8cb-4876-95a5-58556dde109d"},"vehicle_type_id":"4","last_reported":1731068226,"current_range_meters":25600,"station_id":"ce4bh512rcd13ifvqe2g","pricing_plan_id":"cebpf4jnsgd1na2vs0mg"},{"bike_id":"b6d5e9f4-a929-4ef2-919c-464ed3295f6b","system_id":"levelo_inurba_marseille","lat":43.2926,"lon":5.38442,"is_reserved":false,"is_disabled":false,"rental_uris":{"android":"levelo://app?vid=b6d5e9f4-a929-4ef2-919c-464ed3295f6b","ios":"levelo://app?vid=b6d5e9f4-a929-4ef2-919c-464ed3295f6b"},"vehicle_type_id":"4","last_reported":1731068226,"current_range_meters":19600,"station_id":"ce4bh692rcd13ifvqea0","pricing_plan_id":"cebpf4jnsgd1na2vs0mg"},{"bike_id":"7a419be2-700a-40fe-9a2e-c4d1abef876c","system_id":"levelo_inurba_marseille","lat":43.23155,"lon":5.43706,"is_reserved":false,"is_disabled":false,"rental_uris":{"android":"levelo://app?vid=7a419be2-700a-40fe-9a2e-c4d1abef876c","ios":"levelo://app?vid=7a419be2-700a-40fe-9a2e-c4d1abef876c"},"vehicle_type_id":"4","last_reported":1731068226,"current_range_meters":4800,"station_id":"ce4bhmp2rcd13ifvqgog","pricing_plan_id":"cebpf4jnsgd1na2vs0mg"},{"bike_id":"f53d62b1-0b2b-4095-87f7-bf64091e15c0","system_id":"levelo_inurba_marseille","lat":43.2695,"lon":5.38633,"is_reserved":false,"is_disabled":false,"rental_uris":{"android":"levelo://app?vid=f53d62b1-0b2b-4095-87f7-bf64091e15c0","ios":"levelo://app?vid=f53d62b1-0b2b-4095-87f7-bf64091e15c0"},"vehicle_type_id":"4","last_reported":1731068226,"current_range_meters":39200,"station_id":"ce4bhh92rcd13ifvqfh0","pricing_plan_id":"cebpf4jnsgd1na2vs0mg"},{"bike_id":"ca10a5c3-f3ce-4f91-8de9-8bcbe8db6bbe","system_id":"levelo_inurba_marseille","lat":43.2436,"lon":5.38587,"is_reserved":false,"is_disabled":false,"rental_uris":{"android":"levelo://app?vid=ca10a5c3-f3ce-4f91-8de9-8bcbe8db6bbe","ios":"levelo://app?vid=ca10a5c3-f3ce-4f91-8de9-8bcbe8db6bbe"},"vehicle_type_id":"4","last_reported":1731068226,"current_range_meters":28000,"station_id":"","pricing_plan_id":"cebpf4jnsgd1na2vs0mg"},{"bike_id":"5ea8aac5-435e-4e5f-9561-aeb8ec4af70b","system_id":"levelo_inurba_marseille","lat":43.26211,"lon":5.37442,"is_reserved":false,"is_disabled":false,"rental_uris":{"android":"levelo://app?vid=5ea8aac5-435e-4e5f-9561-aeb8ec4af70b","ios":"levelo://app?vid=5ea8aac5-435e-4e5f-9561-aeb8ec4af70b"},"vehicle_type_id":"4","last_reported":1731068226,"current_range_meters":19200,"station_id":"ce4bhgp2rcd13ifvqfc0","pricing_plan_id":"cebpf4jnsgd1na2vs0mg"},{"bike_id":"4747ebe4-1671-4191-a78e-3553c138e8f2","system_id":"levelo_inurba_marseille","lat":43.337444,"lon":5.374475,"is_reserved":false,"is_disabled":false,"rental_uris":{"android":"levelo://app?vid=4747ebe4-1671-4191-a78e-3553c138e8f2","ios":"levelo://app?vid=4747ebe4-1671-4191-a78e-3553c138e8f2"},"vehicle_type_id":"4","last_reported":1731068226,"current_range_meters":26000,"station_id":"","pricing_plan_id":"cebpf4jnsgd1na2vs0mg"},{"bike_id":"bbc38332-d08d-491b-aff5-7b33e6d207c9","system_id":"levelo_inurba_marseille","lat":43.29937,"lon":5.36537,"is_reserved":false,"is_disabled":false,"rental_uris":{"android":"levelo://app?vid=bbc38332-d08d-491b-aff5-7b33e6d207c9","ios":"levelo://app?vid=bbc38332-d08d-491b-aff5-7b33e6d207c9"},"vehicle_type_id":"4","last_reported":1731068226,"current_range_meters":38800,"station_id":"ce4bgm92rcd13ifvqbr0","pricing_plan_id":"cebpf4jnsgd1na2vs0mg"},{"bike_id":"b8fdd341-0697-41ca-82c9-e4253415f4e6","system_id":"levelo_inurba_marseille","lat":43.23055,"lon":5.35495,"is_reserved":false,"is_disabled":false,"rental_uris":{"android":"levelo://app?vid=b8fdd341-0697-41ca-82c9-e4253415f4e6","ios":"levelo://app?vid=b8fdd341-0697-41ca-82c9-e4253415f4e6"},"vehicle_type_id":"4","last_reported":1731068226,"current_range_meters":36800,"station_id":"cpo3342slgdg3j2ifvpg","pricing_plan_id":"cebpf4jnsgd1na2vs0mg"},{"bike_id":"9b96d1a7-1bb0-4837-8ce5-5f6325109a7b","system_id":"levelo_inurba_marseille","lat":43.23183,"lon":5.40004,"is_reserved":false,"is_disabled":false,"rental_uris":{"android":"levelo://app?vid=9b96d1a7-1bb0-4837-8ce5-5f6325109a7b","ios":"levelo://app?vid=9b96d1a7-1bb0-4837-8ce5-5f6325109a7b"},"vehicle_type_id":"4","last_reported":1731068226,"current_range_meters":38800,"station_id":"ce4bhn12rcd13ifvqgqg","pricing_plan_id":"cebpf4jnsgd1na2vs0mg"},{"bike_id":"c6956252-a8b8-41bb-abcc-29dcacde02c9","system_id":"levelo_inurba_marseille","lat":43.23177,"lon":5.39997,"is_reserved":false,"is_disabled":false,"rental_uris":{"android":"levelo://app?vid=c6956252-a8b8-41bb-abcc-29dcacde02c9","ios":"levelo://app?vid=c6956252-a8b8-41bb-abcc-29dcacde02c9"},"vehicle_type_id":"4","last_reported":1731068226,"current_range_meters":19600,"station_id":"ce4bhn12rcd13ifvqgqg","pricing_plan_id":"cebpf4jnsgd1na2vs0mg"},{"bike_id":"23471502-d7a4-4794-8634-fd068f754d93","system_id":"levelo_inurba_marseille","lat":43.3091,"lon":5.36852,"is_reserved":false,"is_disabled":false,"rental_uris":{"android":"levelo://app?vid=23471502-d7a4-4794-8634-fd068f754d93","ios":"levelo://app?vid=23471502-d7a4-4794-8634-fd068f754d93"},"vehicle_type_id":"4","last_reported":1731068226,"current_range_meters":36000,"station_id":"ce4bgn92rcd13ifvqbvg","pricing_plan_id":"cebpf4jnsgd1na2vs0mg"},{"bike_id":"9430d940-e7a7-414b-915c-4611efb0279f","system_id":"levelo_inurba_marseille","lat":43.29419,"lon":5.38625,"is_reserved":false,"is_disabled":false,"rental_uris":{"android":"levelo://app?vid=9430d940-e7a7-414b-915c-4611efb0279f","ios":"levelo://app?vid=9430d940-e7a7-414b-915c-4611efb0279f"},"vehicle_type_id":"4","last_reported":1731068226,"current_range_meters":27600,"station_id":"ce4bh2h2rcd13ifvqdh0","pricing_plan_id":"cebpf4jnsgd1na2vs0mg"},{"bike_id":"ffa6a709-cf7b-41fd-acb6-77573eab6973","system_id":"levelo_inurba_marseille","lat":43.32479,"lon":5.36555,"is_reserved":false,"is_disabled":false,"rental_uris":{"android":"levelo://app?vid=ffa6a709-cf7b-41fd-acb6-77573eab6973","ios":"levelo://app?vid=ffa6a709-cf7b-41fd-acb6-77573eab6973"},"vehicle_type_id":"4","last_reported":1731068226,"current_range_meters":14400,"station_id":"ce4bhs12rcd13ifvqhvg","pricing_plan_id":"cebpf4jnsgd1na2vs0mg"},{"bike_id":"4f0d28f3-2533-4a55-88a2-a5a8d4dab5bb","system_id":"levelo_inurba_marseille","lat":43.28852,"lon":5.38809,"is_reserved":false,"is_disabled":false,"rental_uris":{"android":"levelo://app?vid=4f0d28f3-2533-4a55-88a2-a5a8d4dab5bb","ios":"levelo://app?vid=4f0d28f3-2533-4a55-88a2-a5a8d4dab5bb"},"vehicle_type_id":"4","last_reported":1731068226,"current_range_meters":28400,"station_id":"ce4bh4p2rcd13ifvqe0g","pricing_plan_id":"cebpf4jnsgd1na2vs0mg"},{"bike_id":"70cb8752-7cdc-473d-8547-9e63a42728da","system_id":"levelo_inurba_marseille","lat":43.2306,"lon":5.3549,"is_reserved":false,"is_disabled":false,"rental_uris":{"android":"levelo://app?vid=70cb8752-7cdc-473d-8547-9e63a42728da","ios":"levelo://app?vid=70cb8752-7cdc-473d-8547-9e63a42728da"},"vehicle_type_id":"4","last_reported":1731068226,"current_range_meters":27600,"station_id":"cpo3342slgdg3j2ifvpg","pricing_plan_id":"cebpf4jnsgd1na2vs0mg"},{"bike_id":"a8c379e9-4777-4dda-b09f-f9983c01cdce","system_id":"levelo_inurba_marseille","lat":43.30529,"lon":5.36698,"is_reserved":false,"is_disabled":false,"rental_uris":{"android":"levelo://app?vid=a8c379e9-4777-4dda-b09f-f9983c01cdce","ios":"levelo://app?vid=a8c379e9-4777-4dda-b09f-f9983c01cdce"},"vehicle_type_id":"4","last_reported":1731068226,"current_range_meters":20000,"station_id":"ce4bgrp2rcd13ifvqc9g","pricing_plan_id":"cebpf4jnsgd1na2vs0mg"},{"bike_id":"bc695a9b-18a5-4613-b255-9f19e0d39a61","system_id":"levelo_inurba_marseille","lat":43.28455,"lon":5.35896,"is_reserved":false,"is_disabled":false,"rental_uris":{"android":"levelo://app?vid=bc695a9b-18a5-4613-b255-9f19e0d39a61","ios":"levelo://app?vid=bc695a9b-18a5-4613-b255-9f19e0d39a61"},"vehicle_type_id":"4","last_reported":1731068226,"current_range_meters":24000,"station_id":"ce4bhah2rcd13ifvqei0","pricing_plan_id":"cebpf4jnsgd1na2vs0mg"},{"bike_id":"a0fa6b90-0172-4b95-8ea0-3db12e84122c","system_id":"levelo_inurba_marseille","lat":43.23177,"lon":5.39997,"is_reserved":false,"is_disabled":false,"rental_uris":{"android":"levelo://app?vid=a0fa6b90-0172-4b95-8ea0-3db12e84122c","ios":"levelo://app?vid=a0fa6b90-0172-4b95-8ea0-3db12e84122c"},"vehicle_type_id":"4","last_reported":1731068226,"current_range_meters":19200,"station_id":"ce4bhn12rcd13ifvqgqg","pricing_plan_id":"cebpf4jnsgd1na2vs0mg"},{"bike_id":"71e96d19-e2d8-4a82-be12-ef05ec9e572d","system_id":"levelo_inurba_marseille","lat":43.30304,"lon":5.39213,"is_reserved":false,"is_disabled":false,"rental_uris":{"android":"levelo://app?vid=71e96d19-e2d8-4a82-be12-ef05ec9e572d","ios":"levelo://app?vid=71e96d19-e2d8-4a82-be12-ef05ec9e572d"},"vehicle_type_id":"4","last_reported":1731068226,"current_range_meters":6800,"station_id":"ce4bgkh2rcd13ifvqbk0","pricing_plan_id":"cebpf4jnsgd1na2vs0mg"},{"bike_id":"0f8df7c8-9916-44ee-932e-09302422ab97","system_id":"levelo_inurba_marseille","lat":43.30431,"lon":5.397484,"is_reserved":false,"is_disabled":false,"rental_uris":{"android":"levelo://app?vid=0f8df7c8-9916-44ee-932e-09302422ab97","ios":"levelo://app?vid=0f8df7c8-9916-44ee-932e-09302422ab97"},"vehicle_type_id":"4","last_reported":1731068226,"current_range_meters":38800,"station_id":"ce4bh092rcd13ifvqd20","pricing_plan_id":"cebpf4jnsgd1na2vs0mg"},{"bike_id":"d9908495-124b-454b-9026-d49819f10d09","system_id":"levelo_inurba_marseille","lat":43.30544,"lon":5.3843,"is_reserved":false,"is_disabled":false,"rental_uris":{"android":"levelo://app?vid=d9908495-124b-454b-9026-d49819f10d09","ios":"levelo://app?vid=d9908495-124b-454b-9026-d49819f10d09"},"vehicle_type_id":"4","last_reported":1731068226,"current_range_meters":28400,"station_id":"ce4bgg92rcd13ifvqb30","pricing_plan_id":"cebpf4jnsgd1na2vs0mg"},{"bike_id":"c1b47935-4502-4b40-ab39-1f8b6c10360d","system_id":"levelo_inurba_marseille","lat":43.29907,"lon":5.38152,"is_reserved":false,"is_disabled":false,"rental_uris":{"android":"levelo://app?vid=c1b47935-4502-4b40-ab39-1f8b6c10360d","ios":"levelo://app?vid=c1b47935-4502-4b40-ab39-1f8b6c10360d"},"vehicle_type_id":"4","last_reported":1731068226,"current_range_meters":24400,"station_id":"ce4bgj12rcd13ifvqbc0","pricing_plan_id":"cebpf4jnsgd1na2vs0mg"},{"bike_id":"227b26cf-68e3-49ff-ac24-167aaa55dbbc","system_id":"levelo_inurba_marseille","lat":43.30586,"lon":5.39355,"is_reserved":false,"is_disabled":false,"rental_uris":{"android":"levelo://app?vid=227b26cf-68e3-49ff-ac24-167aaa55dbbc","ios":"levelo://app?vid=227b26cf-68e3-49ff-ac24-167aaa55dbbc"},"vehicle_type_id":"4","last_reported":1731068226,"current_range_meters":39200,"station_id":"ce4bh0p2rcd13ifvqd80","pricing_plan_id":"cebpf4jnsgd1na2vs0mg"},{"bike_id":"3420b168-0a4d-440c-a8ea-f271ea71b987","system_id":"levelo_inurba_marseille","lat":43.29851,"lon":5.36286,"is_reserved":false,"is_disabled":false,"rental_uris":{"android":"levelo://app?vid=3420b168-0a4d-440c-a8ea-f271ea71b987","ios":"levelo://app?vid=3420b168-0a4d-440c-a8ea-f271ea71b987"},"vehicle_type_id":"4","last_reported":1731068226,"current_range_meters":30800,"station_id":"ce4bgpp2rcd13ifvqc3g","pricing_plan_id":"cebpf4jnsgd1na2vs0mg"},{"bike_id":"15db8208-58cc-44ba-9da0-245ef3d59c5a","system_id":"levelo_inurba_marseille","lat":43.30459,"lon":5.37901,"is_reserved":false,"is_disabled":false,"rental_uris":{"android":"levelo://app?vid=15db8208-58cc-44ba-9da0-245ef3d59c5a","ios":"levelo://app?vid=15db8208-58cc-44ba-9da0-245ef3d59c5a"},"vehicle_type_id":"4","last_reported":1731068226,"current_range_meters":14400,"station_id":"ce4bgup2rcd13ifvqcn0","pricing_plan_id":"cebpf4jnsgd1na2vs0mg"},{"bike_id":"a77d95f8-1237-461c-b90c-b3583a177300","system_id":"levelo_inurba_marseille","lat":43.292,"lon":5.39331,"is_reserved":false,"is_disabled":false,"rental_uris":{"android":"levelo://app?vid=a77d95f8-1237-461c-b90c-b3583a177300","ios":"levelo://app?vid=a77d95f8-1237-461c-b90c-b3583a177300"},"vehicle_type_id":"4","last_reported":1731068226,"current_range_meters":38000,"station_id":"ce4bh192rcd13ifvqdd0","pricing_plan_id":"cebpf4jnsgd1na2vs0mg"},{"bike_id":"6b0b5685-25cb-412f-a8ce-8bb34a8f858a","system_id":"levelo_inurba_marseille","lat":43.27811,"lon":5.40709,"is_reserved":false,"is_disabled":false,"rental_uris":{"android":"levelo://app?vid=6b0b5685-25cb-412f-a8ce-8bb34a8f858a","ios":"levelo://app?vid=6b0b5685-25cb-412f-a8ce-8bb34a8f858a"},"vehicle_type_id":"4","last_reported":1731068226,"current_range_meters":39200,"station_id":"ce4bhnh2rcd13ifvqgtg","pricing_plan_id":"cebpf4jnsgd1na2vs0mg"},{"bike_id":"d5806dc7-3dde-4561-9bb9-75852ef28336","system_id":"levelo_inurba_marseille","lat":43.2815,"lon":5.42642,"is_reserved":false,"is_disabled":false,"rental_uris":{"android":"levelo://app?vid=d5806dc7-3dde-4561-9bb9-75852ef28336","ios":"levelo://app?vid=d5806dc7-3dde-4561-9bb9-75852ef28336"},"vehicle_type_id":"4","last_reported":1731068226,"current_range_meters":38800,"station_id":"ce4bhnh2rcd13ifvqgug","pricing_plan_id":"cebpf4jnsgd1na2vs0mg"},{"bike_id":"a3a653f3-c027-47c2-92ec-f59a4ce1d26d","system_id":"levelo_inurba_marseille","lat":43.26556,"lon":5.37291,"is_reserved":false,"is_disabled":false,"rental_uris":{"android":"levelo://app?vid=a3a653f3-c027-47c2-92ec-f59a4ce1d26d","ios":"levelo://app?vid=a3a653f3-c027-47c2-92ec-f59a4ce1d26d"},"vehicle_type_id":"4","last_reported":1731068226,"current_range_meters":30800,"station_id":"ce4bhg12rcd13ifvqf70","pricing_plan_id":"cebpf4jnsgd1na2vs0mg"},{"bike_id":"c68419ae-5304-473c-904a-721cc7490645","system_id":"levelo_inurba_marseille","lat":43.26556,"lon":5.37283,"is_reserved":false,"is_disabled":false,"rental_uris":{"android":"levelo://app?vid=c68419ae-5304-473c-904a-721cc7490645","ios":"levelo://app?vid=c68419ae-5304-473c-904a-721cc7490645"},"vehicle_type_id":"4","last_reported":1731068226,"current_range_meters":27200,"station_id":"ce4bhg12rcd13ifvqf70","pricing_plan_id":"cebpf4jnsgd1na2vs0mg"},{"bike_id":"b4a9b982-0d09-4959-9186-3153c383a403","system_id":"levelo_inurba_marseille","lat":43.2396,"lon":5.36629,"is_reserved":false,"is_disabled":false,"rental_uris":{"android":"levelo://app?vid=b4a9b982-0d09-4959-9186-3153c383a403","ios":"levelo://app?vid=b4a9b982-0d09-4959-9186-3153c383a403"},"vehicle_type_id":"4","last_reported":1731068226,"current_range_meters":21600,"station_id":"ce4bhi12rcd13ifvqfp0","pricing_plan_id":"cebpf4jnsgd1na2vs0mg"},{"bike_id":"d214a6ed-8242-4748-a2e8-ef90fca0be72","system_id":"levelo_inurba_marseille","lat":43.29843,"lon":5.36274,"is_reserved":false,"is_disabled":false,"rental_uris":{"android":"levelo://app?vid=d214a6ed-8242-4748-a2e8-ef90fca0be72","ios":"levelo://app?vid=d214a6ed-8242-4748-a2e8-ef90fca0be72"},"vehicle_type_id":"4","last_reported":1731068226,"current_range_meters":36800,"station_id":"ce4bgpp2rcd13ifvqc3g","pricing_plan_id":"cebpf4jnsgd1na2vs0mg"},{"bike_id":"f2b88fdd-2e0b-4b5e-888c-35155555732c","system_id":"levelo_inurba_marseille","lat":43.31997,"lon":5.38156,"is_reserved":false,"is_disabled":false,"rental_uris":{"android":"levelo://app?vid=f2b88fdd-2e0b-4b5e-888c-35155555732c","ios":"levelo://app?vid=f2b88fdd-2e0b-4b5e-888c-35155555732c"},"vehicle_type_id":"4","last_reported":1731068226,"current_range_meters":36000,"station_id":"ce4bhr12rcd13ifvqhpg","pricing_plan_id":"cebpf4jnsgd1na2vs0mg"},{"bike_id":"d40cdce1-11f6-4d7c-8178-9cc127fd9f08","system_id":"levelo_inurba_marseille","lat":43.29,"lon":5.39996,"is_reserved":false,"is_disabled":false,"rental_uris":{"android":"levelo://app?vid=d40cdce1-11f6-4d7c-8178-9cc127fd9f08","ios":"levelo://app?vid=d40cdce1-11f6-4d7c-8178-9cc127fd9f08"},"vehicle_type_id":"4","last_reported":1731068226,"current_range_meters":8400,"station_id":"ce4bh192rcd13ifvqdc0","pricing_plan_id":"cebpf4jnsgd1na2vs0mg"},{"bike_id":"fed271fa-0a98-48d0-ac60-3a9965f8a1c9","system_id":"levelo_inurba_marseille","lat":43.26197,"lon":5.37931,"is_reserved":false,"is_disabled":false,"rental_uris":{"android":"levelo://app?vid=fed271fa-0a98-48d0-ac60-3a9965f8a1c9","ios":"levelo://app?vid=fed271fa-0a98-48d0-ac60-3a9965f8a1c9"},"vehicle_type_id":"4","last_reported":1731068226,"current_range_meters":38800,"station_id":"ce4bhjp2rcd13ifvqg90","pricing_plan_id":"cebpf4jnsgd1na2vs0mg"},{"bike_id":"fde56abe-2286-4f7f-8f77-26766294064b","system_id":"levelo_inurba_marseille","lat":43.29174,"lon":5.37159,"is_reserved":false,"is_disabled":false,"rental_uris":{"android":"levelo://app?vid=fde56abe-2286-4f7f-8f77-26766294064b","ios":"levelo://app?vid=fde56abe-2286-4f7f-8f77-26766294064b"},"vehicle_type_id":"4","last_reported":1731068226,"current_range_meters":36400,"station_id":"ce4bha92rcd13ifvqeh0","pricing_plan_id":"cebpf4jnsgd1na2vs0mg"},{"bike_id":"d3608781-7a95-4a80-9c45-48f596cb3e4b","system_id":"levelo_inurba_marseille","lat":43.337444,"lon":5.374475,"is_reserved":false,"is_disabled":false,"rental_uris":{"android":"levelo://app?vid=d3608781-7a95-4a80-9c45-48f596cb3e4b","ios":"levelo://app?vid=d3608781-7a95-4a80-9c45-48f596cb3e4b"},"vehicle_type_id":"4","last_reported":1731068226,"current_range_meters":35200,"station_id":"","pricing_plan_id":"cebpf4jnsgd1na2vs0mg"},{"bike_id":"b1eb2178-50d3-499e-89c2-ecfd00953ead","system_id":"levelo_inurba_marseille","lat":43.30544,"lon":5.36525,"is_reserved":false,"is_disabled":false,"rental_uris":{"android":"levelo://app?vid=b1eb2178-50d3-499e-89c2-ecfd00953ead","ios":"levelo://app?vid=b1eb2178-50d3-499e-89c2-ecfd00953ead"},"vehicle_type_id":"4","last_reported":1731068226,"current_range_meters":14400,"station_id":"ce4bgs12rcd13ifvqcag","pricing_plan_id":"cebpf4jnsgd1na2vs0mg"},{"bike_id":"065cc511-f6c2-41de-9ebc-8db637bb7c30","system_id":"levelo_inurba_marseille","lat":43.30134,"lon":5.37418,"is_reserved":false,"is_disabled":false,"rental_uris":{"android":"levelo://app?vid=065cc511-f6c2-41de-9ebc-8db637bb7c30","ios":"levelo://app?vid=065cc511-f6c2-41de-9ebc-8db637bb7c30"},"vehicle_type_id":"4","last_reported":1731068226,"current_range_meters":37600,"station_id":"ce4bgs92rcd13ifvqcc0","pricing_plan_id":"cebpf4jnsgd1na2vs0mg"},{"bike_id":"ab4b78b0-03de-41a3-b02e-55c8249e53a0","system_id":"levelo_inurba_marseille","lat":43.27812,"lon":5.40712,"is_reserved":false,"is_disabled":false,"rental_uris":{"android":"levelo://app?vid=ab4b78b0-03de-41a3-b02e-55c8249e53a0","ios":"levelo://app?vid=ab4b78b0-03de-41a3-b02e-55c8249e53a0"},"vehicle_type_id":"4","last_reported":1731068226,"current_range_meters":6800,"station_id":"ce4bhnh2rcd13ifvqgtg","pricing_plan_id":"cebpf4jnsgd1na2vs0mg"},{"bike_id":"af609ee6-a964-4375-8ba7-491d8f765af3","system_id":"levelo_inurba_marseille","lat":43.33721,"lon":5.39187,"is_reserved":false,"is_disabled":false,"rental_uris":{"android":"levelo://app?vid=af609ee6-a964-4375-8ba7-491d8f765af3","ios":"levelo://app?vid=af609ee6-a964-4375-8ba7-491d8f765af3"},"vehicle_type_id":"4","last_reported":1731068226,"current_range_meters":30800,"station_id":"ce4bhr92rcd13ifvqhsg","pricing_plan_id":"cebpf4jnsgd1na2vs0mg"},{"bike_id":"04cd3841-a84b-4b91-bc27-bb10f63e2a0f","system_id":"levelo_inurba_marseille","lat":43.26806,"lon":5.4026,"is_reserved":false,"is_disabled":false,"rental_uris":{"android":"levelo://app?vid=04cd3841-a84b-4b91-bc27-bb10f63e2a0f","ios":"levelo://app?vid=04cd3841-a84b-4b91-bc27-bb10f63e2a0f"},"vehicle_type_id":"4","last_reported":1731068226,"current_range_meters":28000,"station_id":"ce501612rcd8frsf0b60","pricing_plan_id":"cebpf4jnsgd1na2vs0mg"},{"bike_id":"781005c8-e92d-4538-ad39-54fa82b03703","system_id":"levelo_inurba_marseille","lat":43.30278,"lon":5.37703,"is_reserved":false,"is_disabled":false,"rental_uris":{"android":"levelo://app?vid=781005c8-e92d-4538-ad39-54fa82b03703","ios":"levelo://app?vid=781005c8-e92d-4538-ad39-54fa82b03703"},"vehicle_type_id":"4","last_reported":1731068226,"current_range_meters":38800,"station_id":"ce4bguh2rcd13ifvqcj0","pricing_plan_id":"cebpf4jnsgd1na2vs0mg"},{"bike_id":"d9b6972c-3620-40e1-bc45-221c19919928","system_id":"levelo_inurba_marseille","lat":43.27809,"lon":5.40712,"is_reserved":false,"is_disabled":false,"rental_uris":{"android":"levelo://app?vid=d9b6972c-3620-40e1-bc45-221c19919928","ios":"levelo://app?vid=d9b6972c-3620-40e1-bc45-221c19919928"},"vehicle_type_id":"4","last_reported":1731068226,"current_range_meters":24400,"station_id":"ce4bhnh2rcd13ifvqgtg","pricing_plan_id":"cebpf4jnsgd1na2vs0mg"},{"bike_id":"29824cde-4cdc-4355-9b22-a5922a403deb","system_id":"levelo_inurba_marseille","lat":43.337444,"lon":5.374475,"is_reserved":false,"is_disabled":false,"rental_uris":{"android":"levelo://app?vid=29824cde-4cdc-4355-9b22-a5922a403deb","ios":"levelo://app?vid=29824cde-4cdc-4355-9b22-a5922a403deb"},"vehicle_type_id":"4","last_reported":1731068226,"current_range_meters":38400,"station_id":"","pricing_plan_id":"cebpf4jnsgd1na2vs0mg"},{"bike_id":"80d5c89e-745d-46d6-9ab9-4f5ea40b6def","system_id":"levelo_inurba_marseille","lat":43.27177,"lon":5.40993,"is_reserved":false,"is_disabled":false,"rental_uris":{"android":"levelo://app?vid=80d5c89e-745d-46d6-9ab9-4f5ea40b6def","ios":"levelo://app?vid=80d5c89e-745d-46d6-9ab9-4f5ea40b6def"},"vehicle_type_id":"4","last_reported":1731068226,"current_range_meters":37600,"station_id":"ce4bhl12rcd13ifvqgf0","pricing_plan_id":"cebpf4jnsgd1na2vs0mg"},{"bike_id":"eccb9bf1-4a0c-4df5-8229-bf46f21c4329","system_id":"levelo_inurba_marseille","lat":43.31717,"lon":5.42407,"is_reserved":false,"is_disabled":false,"rental_uris":{"android":"levelo://app?vid=eccb9bf1-4a0c-4df5-8229-bf46f21c4329","ios":"levelo://app?vid=eccb9bf1-4a0c-4df5-8229-bf46f21c4329"},"vehicle_type_id":"4","last_reported":1731068226,"current_range_meters":38000,"station_id":"ce4bhp92rcd13ifvqhbg","pricing_plan_id":"cebpf4jnsgd1na2vs0mg"},{"bike_id":"ef288286-229d-4b9a-a189-8d61840dcffb","system_id":"levelo_inurba_marseille","lat":43.23189,"lon":5.35549,"is_reserved":false,"is_disabled":false,"rental_uris":{"android":"levelo://app?vid=ef288286-229d-4b9a-a189-8d61840dcffb","ios":"levelo://app?vid=ef288286-229d-4b9a-a189-8d61840dcffb"},"vehicle_type_id":"4","last_reported":1731068226,"current_range_meters":38400,"station_id":"ce4bhu92rcd13ifvqi70","pricing_plan_id":"cebpf4jnsgd1na2vs0mg"},{"bike_id":"c27d82d7-58e4-45e2-92f2-34546bc3e760","system_id":"levelo_inurba_marseille","lat":43.29087,"lon":5.3814,"is_reserved":false,"is_disabled":false,"rental_uris":{"android":"levelo://app?vid=c27d82d7-58e4-45e2-92f2-34546bc3e760","ios":"levelo://app?vid=c27d82d7-58e4-45e2-92f2-34546bc3e760"},"vehicle_type_id":"4","last_reported":1731068226,"current_range_meters":27200,"station_id":"ce4bh512rcd13ifvqe2g","pricing_plan_id":"cebpf4jnsgd1na2vs0mg"},{"bike_id":"68a16cb1-5aff-45bf-9786-11e01f81ed1f","system_id":"levelo_inurba_marseille","lat":43.26211,"lon":5.37444,"is_reserved":false,"is_disabled":false,"rental_uris":{"android":"levelo://app?vid=68a16cb1-5aff-45bf-9786-11e01f81ed1f","ios":"levelo://app?vid=68a16cb1-5aff-45bf-9786-11e01f81ed1f"},"vehicle_type_id":"4","last_reported":1731068226,"current_range_meters":38000,"station_id":"ce4bhgp2rcd13ifvqfc0","pricing_plan_id":"cebpf4jnsgd1na2vs0mg"},{"bike_id":"50aadfbc-30f2-4e00-bfdd-db3474cef512","system_id":"levelo_inurba_marseille","lat":43.28948,"lon":5.36642,"is_reserved":false,"is_disabled":false,"rental_uris":{"android":"levelo://app?vid=50aadfbc-30f2-4e00-bfdd-db3474cef512","ios":"levelo://app?vid=50aadfbc-30f2-4e00-bfdd-db3474cef512"},"vehicle_type_id":"4","last_reported":1731068226,"current_range_meters":35600,"station_id":"ce4bhap2rcd13ifvqek0","pricing_plan_id":"cebpf4jnsgd1na2vs0mg"},{"bike_id":"ea45cc8b-b4d1-487c-b970-be2aa0c6eefa","system_id":"levelo_inurba_marseille","lat":43.29294,"lon":5.37448,"is_reserved":false,"is_disabled":false,"rental_uris":{"android":"levelo://app?vid=ea45cc8b-b4d1-487c-b970-be2aa0c6eefa","ios":"levelo://app?vid=ea45cc8b-b4d1-487c-b970-be2aa0c6eefa"},"vehicle_type_id":"4","last_reported":1731068226,"current_range_meters":15200,"station_id":"ce4bgi12rcd13ifvqb70","pricing_plan_id":"cebpf4jnsgd1na2vs0mg"},{"bike_id":"795d93dc-58cd-47d3-954f-fe5d9510e8f0","system_id":"levelo_inurba_marseille","lat":43.23153,"lon":5.4371,"is_reserved":false,"is_disabled":false,"rental_uris":{"android":"levelo://app?vid=795d93dc-58cd-47d3-954f-fe5d9510e8f0","ios":"levelo://app?vid=795d93dc-58cd-47d3-954f-fe5d9510e8f0"},"vehicle_type_id":"4","last_reported":1731068226,"current_range_meters":22800,"station_id":"ce4bhmp2rcd13ifvqgog","pricing_plan_id":"cebpf4jnsgd1na2vs0mg"},{"bike_id":"e11d6f43-b181-4f60-9933-8de992d8aef3","system_id":"levelo_inurba_marseille","lat":43.28945,"lon":5.36412,"is_reserved":false,"is_disabled":false,"rental_uris":{"android":"levelo://app?vid=e11d6f43-b181-4f60-9933-8de992d8aef3","ios":"levelo://app?vid=e11d6f43-b181-4f60-9933-8de992d8aef3"},"vehicle_type_id":"4","last_reported":1731068226,"current_range_meters":20400,"station_id":"ce4bhc92rcd13ifvqetg","pricing_plan_id":"cebpf4jnsgd1na2vs0mg"},{"bike_id":"f159a216-3f34-4840-a87f-14cfda860195","system_id":"levelo_inurba_marseille","lat":43.307983,"lon":5.435309,"is_reserved":false,"is_disabled":false,"rental_uris":{"android":"levelo://app?vid=f159a216-3f34-4840-a87f-14cfda860195","ios":"levelo://app?vid=f159a216-3f34-4840-a87f-14cfda860195"},"vehicle_type_id":"4","last_reported":1731068226,"current_range_meters":36000,"station_id":"ce4bhph2rcd13ifvqheg","pricing_plan_id":"cebpf4jnsgd1na2vs0mg"},{"bike_id":"12ab8a2b-bf2e-44a7-8096-67ee8e37b5b1","system_id":"levelo_inurba_marseille","lat":43.26942,"lon":5.40247,"is_reserved":false,"is_disabled":false,"rental_uris":{"android":"levelo://app?vid=12ab8a2b-bf2e-44a7-8096-67ee8e37b5b1","ios":"levelo://app?vid=12ab8a2b-bf2e-44a7-8096-67ee8e37b5b1"},"vehicle_type_id":"4","last_reported":1731068226,"current_range_meters":39200,"station_id":"cjm6bp8fraef2m0cb0m0","pricing_plan_id":"cebpf4jnsgd1na2vs0mg"},{"bike_id":"841c9df1-f0db-4c1b-b9a9-575f56c5769d","system_id":"levelo_inurba_marseille","lat":43.29192,"lon":5.39337,"is_reserved":false,"is_disabled":false,"rental_uris":{"android":"levelo://app?vid=841c9df1-f0db-4c1b-b9a9-575f56c5769d","ios":"levelo://app?vid=841c9df1-f0db-4c1b-b9a9-575f56c5769d"},"vehicle_type_id":"4","last_reported":1731068226,"current_range_meters":38000,"station_id":"ce4bh192rcd13ifvqdd0","pricing_plan_id":"cebpf4jnsgd1na2vs0mg"},{"bike_id":"efb330b1-5f87-4bab-a84a-8bb2ad39b6db","system_id":"levelo_inurba_marseille","lat":43.31494,"lon":5.37314,"is_reserved":false,"is_disabled":false,"rental_uris":{"android":"levelo://app?vid=efb330b1-5f87-4bab-a84a-8bb2ad39b6db","ios":"levelo://app?vid=efb330b1-5f87-4bab-a84a-8bb2ad39b6db"},"vehicle_type_id":"4","last_reported":1731068226,"current_range_meters":19200,"station_id":"ce4bgt12rcd13ifvqcd0","pricing_plan_id":"cebpf4jnsgd1na2vs0mg"},{"bike_id":"8faa22dc-5f3c-4af6-b84b-f554e09d6313","system_id":"levelo_inurba_marseille","lat":43.337444,"lon":5.374475,"is_reserved":false,"is_disabled":false,"rental_uris":{"android":"levelo://app?vid=8faa22dc-5f3c-4af6-b84b-f554e09d6313","ios":"levelo://app?vid=8faa22dc-5f3c-4af6-b84b-f554e09d6313"},"vehicle_type_id":"4","last_reported":1731068226,"current_range_meters":38000,"station_id":"","pricing_plan_id":"cebpf4jnsgd1na2vs0mg"},{"bike_id":"ed6a1554-d58d-47e7-b608-91e0c82235ff","system_id":"levelo_inurba_marseille","lat":43.29287,"lon":5.37451,"is_reserved":false,"is_disabled":false,"rental_uris":{"android":"levelo://app?vid=ed6a1554-d58d-47e7-b608-91e0c82235ff","ios":"levelo://app?vid=ed6a1554-d58d-47e7-b608-91e0c82235ff"},"vehicle_type_id":"4","last_reported":1731068226,"current_range_meters":29600,"station_id":"ce4bgi12rcd13ifvqb70","pricing_plan_id":"cebpf4jnsgd1na2vs0mg"},{"bike_id":"fe7758a6-a8c6-4638-9576-39fc56b8883f","system_id":"levelo_inurba_marseille","lat":43.25865,"lon":5.39899,"is_reserved":false,"is_disabled":false,"rental_uris":{"android":"levelo://app?vid=fe7758a6-a8c6-4638-9576-39fc56b8883f","ios":"levelo://app?vid=fe7758a6-a8c6-4638-9576-39fc56b8883f"},"vehicle_type_id":"4","last_reported":1731068226,"current_range_meters":34000,"station_id":"ce4bhl92rcd13ifvqghg","pricing_plan_id":"cebpf4jnsgd1na2vs0mg"},{"bike_id":"72460a9c-0dae-41d8-9b3f-b71daf9cd76d","system_id":"levelo_inurba_marseille","lat":43.29197,"lon":5.39335,"is_reserved":false,"is_disabled":false,"rental_uris":{"android":"levelo://app?vid=72460a9c-0dae-41d8-9b3f-b71daf9cd76d","ios":"levelo://app?vid=72460a9c-0dae-41d8-9b3f-b71daf9cd76d"},"vehicle_type_id":"4","last_reported":1731068226,"current_range_meters":24000,"station_id":"ce4bh192rcd13ifvqdd0","pricing_plan_id":"cebpf4jnsgd1na2vs0mg"},{"bike_id":"959d59bd-f72f-4994-94f8-56a070a04e8a","system_id":"levelo_inurba_marseille","lat":43.23157,"lon":5.43707,"is_reserved":false,"is_disabled":false,"rental_uris":{"android":"levelo://app?vid=959d59bd-f72f-4994-94f8-56a070a04e8a","ios":"levelo://app?vid=959d59bd-f72f-4994-94f8-56a070a04e8a"},"vehicle_type_id":"4","last_reported":1731068226,"current_range_meters":24400,"station_id":"ce4bhmp2rcd13ifvqgog","pricing_plan_id":"cebpf4jnsgd1na2vs0mg"},{"bike_id":"e7cd005d-d362-4c36-a955-3c59f122a64d","system_id":"levelo_inurba_marseille","lat":43.28154,"lon":5.4264,"is_reserved":false,"is_disabled":false,"rental_uris":{"android":"levelo://app?vid=e7cd005d-d362-4c36-a955-3c59f122a64d","ios":"levelo://app?vid=e7cd005d-d362-4c36-a955-3c59f122a64d"},"vehicle_type_id":"4","last_reported":1731068226,"current_range_meters":27600,"station_id":"ce4bhnh2rcd13ifvqgug","pricing_plan_id":"cebpf4jnsgd1na2vs0mg"},{"bike_id":"0287be29-1d0b-465c-b849-3198ba71fdc5","system_id":"levelo_inurba_marseille","lat":43.30445,"lon":5.38892,"is_reserved":false,"is_disabled":false,"rental_uris":{"android":"levelo://app?vid=0287be29-1d0b-465c-b849-3198ba71fdc5","ios":"levelo://app?vid=0287be29-1d0b-465c-b849-3198ba71fdc5"},"vehicle_type_id":"4","last_reported":1731068226,"current_range_meters":39200,"station_id":"ce4bgk12rcd13ifvqbi0","pricing_plan_id":"cebpf4jnsgd1na2vs0mg"},{"bike_id":"d1fe14ed-13c3-4535-90af-3f1b5eee58a8","system_id":"levelo_inurba_marseille","lat":43.2798,"lon":5.41657,"is_reserved":false,"is_disabled":false,"rental_uris":{"android":"levelo://app?vid=d1fe14ed-13c3-4535-90af-3f1b5eee58a8","ios":"levelo://app?vid=d1fe14ed-13c3-4535-90af-3f1b5eee58a8"},"vehicle_type_id":"4","last_reported":1731068226,"current_range_meters":6400,"station_id":"ce4bho12rcd13ifvqh1g","pricing_plan_id":"cebpf4jnsgd1na2vs0mg"},{"bike_id":"2971af5c-694e-4fbb-a638-0656f0be40cd","system_id":"levelo_inurba_marseille","lat":43.31886,"lon":5.40728,"is_reserved":false,"is_disabled":false,"rental_uris":{"android":"levelo://app?vid=2971af5c-694e-4fbb-a638-0656f0be40cd","ios":"levelo://app?vid=2971af5c-694e-4fbb-a638-0656f0be40cd"},"vehicle_type_id":"4","last_reported":1731068226,"current_range_meters":29600,"station_id":"ce4bhq12rcd13ifvqhig","pricing_plan_id":"cebpf4jnsgd1na2vs0mg"},{"bike_id":"34615563-769c-4747-abae-268b87100c28","system_id":"levelo_inurba_marseille","lat":43.26938,"lon":5.40253,"is_reserved":false,"is_disabled":false,"rental_uris":{"android":"levelo://app?vid=34615563-769c-4747-abae-268b87100c28","ios":"levelo://app?vid=34615563-769c-4747-abae-268b87100c28"},"vehicle_type_id":"4","last_reported":1731068226,"current_range_meters":3200,"station_id":"cjm6bp8fraef2m0cb0m0","pricing_plan_id":"cebpf4jnsgd1na2vs0mg"},{"bike_id":"c7022000-40bb-4946-aca4-3a5058fa7b80","system_id":"levelo_inurba_marseille","lat":43.26558,"lon":5.37312,"is_reserved":false,"is_disabled":false,"rental_uris":{"android":"levelo://app?vid=c7022000-40bb-4946-aca4-3a5058fa7b80","ios":"levelo://app?vid=c7022000-40bb-4946-aca4-3a5058fa7b80"},"vehicle_type_id":"4","last_reported":1731068226,"current_range_meters":9200,"station_id":"ce4bhg12rcd13ifvqf70","pricing_plan_id":"cebpf4jnsgd1na2vs0mg"},{"bike_id":"eefd0687-4492-41ad-9368-b877bab02ae1","system_id":"levelo_inurba_marseille","lat":43.31218,"lon":5.36874,"is_reserved":false,"is_disabled":false,"rental_uris":{"android":"levelo://app?vid=eefd0687-4492-41ad-9368-b877bab02ae1","ios":"levelo://app?vid=eefd0687-4492-41ad-9368-b877bab02ae1"},"vehicle_type_id":"4","last_reported":1731068226,"current_range_meters":38800,"station_id":"ce4bgl92rcd13ifvqbq0","pricing_plan_id":"cebpf4jnsgd1na2vs0mg"},{"bike_id":"00cdcd11-6e71-4a45-aadf-febd26261cc4","system_id":"levelo_inurba_marseille","lat":43.31489,"lon":5.37308,"is_reserved":false,"is_disabled":false,"rental_uris":{"android":"levelo://app?vid=00cdcd11-6e71-4a45-aadf-febd26261cc4","ios":"levelo://app?vid=00cdcd11-6e71-4a45-aadf-febd26261cc4"},"vehicle_type_id":"4","last_reported":1731068226,"current_range_meters":11200,"station_id":"ce4bgt12rcd13ifvqcd0","pricing_plan_id":"cebpf4jnsgd1na2vs0mg"},{"bike_id":"1f3ba906-6e07-4370-b207-43e1aae1c14a","system_id":"levelo_inurba_marseille","lat":43.31357,"lon":5.36721,"is_reserved":false,"is_disabled":false,"rental_uris":{"android":"levelo://app?vid=1f3ba906-6e07-4370-b207-43e1aae1c14a","ios":"levelo://app?vid=1f3ba906-6e07-4370-b207-43e1aae1c14a"},"vehicle_type_id":"4","last_reported":1731068226,"current_range_meters":12400,"station_id":"ce4bgr92rcd13ifvqc6g","pricing_plan_id":"cebpf4jnsgd1na2vs0mg"},{"bike_id":"be54fa9e-170c-42ae-94bf-78287d1244d7","system_id":"levelo_inurba_marseille","lat":43.30428,"lon":5.38884,"is_reserved":false,"is_disabled":false,"rental_uris":{"android":"levelo://app?vid=be54fa9e-170c-42ae-94bf-78287d1244d7","ios":"levelo://app?vid=be54fa9e-170c-42ae-94bf-78287d1244d7"},"vehicle_type_id":"4","last_reported":1731068226,"current_range_meters":25600,"station_id":"ce4bgk12rcd13ifvqbi0","pricing_plan_id":"cebpf4jnsgd1na2vs0mg"},{"bike_id":"2ffe6b38-d5b4-4e9e-b577-8f876adfd6b9","system_id":"levelo_inurba_marseille","lat":43.30538,"lon":5.36553,"is_reserved":false,"is_disabled":false,"rental_uris":{"android":"levelo://app?vid=2ffe6b38-d5b4-4e9e-b577-8f876adfd6b9","ios":"levelo://app?vid=2ffe6b38-d5b4-4e9e-b577-8f876adfd6b9"},"vehicle_type_id":"4","last_reported":1731068226,"current_range_meters":19600,"station_id":"ce4bgs12rcd13ifvqcag","pricing_plan_id":"cebpf4jnsgd1na2vs0mg"},{"bike_id":"d6fdae69-642e-4d84-a8fd-edeb75ed0ef4","system_id":"levelo_inurba_marseille","lat":43.22932,"lon":5.35376,"is_reserved":false,"is_disabled":false,"rental_uris":{"android":"levelo://app?vid=d6fdae69-642e-4d84-a8fd-edeb75ed0ef4","ios":"levelo://app?vid=d6fdae69-642e-4d84-a8fd-edeb75ed0ef4"},"vehicle_type_id":"4","last_reported":1731068226,"current_range_meters":40000,"station_id":"cpo3532slgdg3j2ikp40","pricing_plan_id":"cebpf4jnsgd1na2vs0mg"},{"bike_id":"bdc2614c-f690-4a70-b4fe-4ce04e111f7f","system_id":"levelo_inurba_marseille","lat":43.31352,"lon":5.36721,"is_reserved":false,"is_disabled":false,"rental_uris":{"android":"levelo://app?vid=bdc2614c-f690-4a70-b4fe-4ce04e111f7f","ios":"levelo://app?vid=bdc2614c-f690-4a70-b4fe-4ce04e111f7f"},"vehicle_type_id":"4","last_reported":1731068226,"current_range_meters":38800,"station_id":"ce4bgr92rcd13ifvqc6g","pricing_plan_id":"cebpf4jnsgd1na2vs0mg"},{"bike_id":"990c12eb-f5c5-495d-8bc6-f71e7aa21213","system_id":"levelo_inurba_marseille","lat":43.24386,"lon":5.37061,"is_reserved":false,"is_disabled":false,"rental_uris":{"android":"levelo://app?vid=990c12eb-f5c5-495d-8bc6-f71e7aa21213","ios":"levelo://app?vid=990c12eb-f5c5-495d-8bc6-f71e7aa21213"},"vehicle_type_id":"4","last_reported":1731068226,"current_range_meters":37600,"station_id":"ce4bhhh2rcd13ifvqfk0","pricing_plan_id":"cebpf4jnsgd1na2vs0mg"},{"bike_id":"ff704e42-2275-45a6-b3cf-aabf84539ff4","system_id":"levelo_inurba_marseille","lat":43.29733,"lon":5.37686,"is_reserved":false,"is_disabled":false,"rental_uris":{"android":"levelo://app?vid=ff704e42-2275-45a6-b3cf-aabf84539ff4","ios":"levelo://app?vid=ff704e42-2275-45a6-b3cf-aabf84539ff4"},"vehicle_type_id":"4","last_reported":1731068226,"current_range_meters":34000,"station_id":"ce4bgkh2rcd13ifvqbl0","pricing_plan_id":"cebpf4jnsgd1na2vs0mg"},{"bike_id":"86d64521-d332-4842-b4fb-5fa4820d8c81","system_id":"levelo_inurba_marseille","lat":43.337444,"lon":5.374475,"is_reserved":false,"is_disabled":false,"rental_uris":{"android":"levelo://app?vid=86d64521-d332-4842-b4fb-5fa4820d8c81","ios":"levelo://app?vid=86d64521-d332-4842-b4fb-5fa4820d8c81"},"vehicle_type_id":"4","last_reported":1731068226,"current_range_meters":38000,"station_id":"","pricing_plan_id":"cebpf4jnsgd1na2vs0mg"},{"bike_id":"a3a3c230-2acb-448a-aa26-fd66cb275e5a","system_id":"levelo_inurba_marseille","lat":43.27951,"lon":5.41042,"is_reserved":false,"is_disabled":false,"rental_uris":{"android":"levelo://app?vid=a3a3c230-2acb-448a-aa26-fd66cb275e5a","ios":"levelo://app?vid=a3a3c230-2acb-448a-aa26-fd66cb275e5a"},"vehicle_type_id":"4","last_reported":1731068226,"current_range_meters":30000,"station_id":"ce4bhnp2rcd13ifvqh0g","pricing_plan_id":"cebpf4jnsgd1na2vs0mg"},{"bike_id":"f486c97e-229e-46ee-aece-ce3cdaa4e26c","system_id":"levelo_inurba_marseille","lat":43.27492,"lon":5.42457,"is_reserved":false,"is_disabled":false,"rental_uris":{"android":"levelo://app?vid=f486c97e-229e-46ee-aece-ce3cdaa4e26c","ios":"levelo://app?vid=f486c97e-229e-46ee-aece-ce3cdaa4e26c"},"vehicle_type_id":"4","last_reported":1731068226,"current_range_meters":8800,"station_id":"ce4bhn92rcd13ifvqgrg","pricing_plan_id":"cebpf4jnsgd1na2vs0mg"},{"bike_id":"bde08989-23ea-4b54-bef5-ef219bd6bfde","system_id":"levelo_inurba_marseille","lat":43.25501,"lon":5.37651,"is_reserved":false,"is_disabled":false,"rental_uris":{"android":"levelo://app?vid=bde08989-23ea-4b54-bef5-ef219bd6bfde","ios":"levelo://app?vid=bde08989-23ea-4b54-bef5-ef219bd6bfde"},"vehicle_type_id":"4","last_reported":1731068226,"current_range_meters":30400,"station_id":"ce4bhh12rcd13ifvqff0","pricing_plan_id":"cebpf4jnsgd1na2vs0mg"},{"bike_id":"15017ff3-a7ef-4ae9-a890-679d7e617bc2","system_id":"levelo_inurba_marseille","lat":43.28696,"lon":5.391732,"is_reserved":false,"is_disabled":false,"rental_uris":{"android":"levelo://app?vid=15017ff3-a7ef-4ae9-a890-679d7e617bc2","ios":"levelo://app?vid=15017ff3-a7ef-4ae9-a890-679d7e617bc2"},"vehicle_type_id":"4","last_reported":1731068226,"current_range_meters":11200,"station_id":"chh1huq6cuj3fo74tm60","pricing_plan_id":"cebpf4jnsgd1na2vs0mg"},{"bike_id":"80f88f91-d648-453a-88b2-cfa7d57ba25b","system_id":"levelo_inurba_marseille","lat":43.23181,"lon":5.39991,"is_reserved":false,"is_disabled":false,"rental_uris":{"android":"levelo://app?vid=80f88f91-d648-453a-88b2-cfa7d57ba25b","ios":"levelo://app?vid=80f88f91-d648-453a-88b2-cfa7d57ba25b"},"vehicle_type_id":"4","last_reported":1731068226,"current_range_meters":28800,"station_id":"ce4bhn12rcd13ifvqgqg","pricing_plan_id":"cebpf4jnsgd1na2vs0mg"},{"bike_id":"89996c5e-fd68-4ba5-b9fe-2d76e7519f18","system_id":"levelo_inurba_marseille","lat":43.28971,"lon":5.37846,"is_reserved":false,"is_disabled":false,"rental_uris":{"android":"levelo://app?vid=89996c5e-fd68-4ba5-b9fe-2d76e7519f18","ios":"levelo://app?vid=89996c5e-fd68-4ba5-b9fe-2d76e7519f18"},"vehicle_type_id":"4","last_reported":1731068226,"current_range_meters":20000,"station_id":"ce4bh9p2rcd13ifvqed0","pricing_plan_id":"cebpf4jnsgd1na2vs0mg"},{"bike_id":"eebe8b7d-0d9e-456c-a569-9dd063fa8028","system_id":"levelo_inurba_marseille","lat":43.304146,"lon":5.397289,"is_reserved":false,"is_disabled":false,"rental_uris":{"android":"levelo://app?vid=eebe8b7d-0d9e-456c-a569-9dd063fa8028","ios":"levelo://app?vid=eebe8b7d-0d9e-456c-a569-9dd063fa8028"},"vehicle_type_id":"4","last_reported":1731068226,"current_range_meters":36000,"station_id":"ce4bhb12rcd13ifvqem0","pricing_plan_id":"cebpf4jnsgd1na2vs0mg"},{"bike_id":"8be2fc86-7196-47d0-a694-fa47388fa840","system_id":"levelo_inurba_marseille","lat":43.25718,"lon":5.41112,"is_reserved":false,"is_disabled":false,"rental_uris":{"android":"levelo://app?vid=8be2fc86-7196-47d0-a694-fa47388fa840","ios":"levelo://app?vid=8be2fc86-7196-47d0-a694-fa47388fa840"},"vehicle_type_id":"4","last_reported":1731068226,"current_range_meters":26000,"station_id":"ce4bhkp2rcd13ifvqgd0","pricing_plan_id":"cebpf4jnsgd1na2vs0mg"},{"bike_id":"30c759a2-6df1-49dd-8b4a-2f09b3c85fab","system_id":"levelo_inurba_marseille","lat":43.28122,"lon":5.37851,"is_reserved":false,"is_disabled":false,"rental_uris":{"android":"levelo://app?vid=30c759a2-6df1-49dd-8b4a-2f09b3c85fab","ios":"levelo://app?vid=30c759a2-6df1-49dd-8b4a-2f09b3c85fab"},"vehicle_type_id":"4","last_reported":1731068226,"current_range_meters":27600,"station_id":"ce4bha12rcd13ifvqee0","pricing_plan_id":"cebpf4jnsgd1na2vs0mg"},{"bike_id":"73ab35f1-bfdb-4678-85b3-28a9d7db8a08","system_id":"levelo_inurba_marseille","lat":43.28426,"lon":5.3499,"is_reserved":false,"is_disabled":false,"rental_uris":{"android":"levelo://app?vid=73ab35f1-bfdb-4678-85b3-28a9d7db8a08","ios":"levelo://app?vid=73ab35f1-bfdb-4678-85b3-28a9d7db8a08"},"vehicle_type_id":"4","last_reported":1731068226,"current_range_meters":38800,"station_id":"ce4bhbh2rcd13ifvqepg","pricing_plan_id":"cebpf4jnsgd1na2vs0mg"},{"bike_id":"226af3a6-460a-4f93-8a2f-5029fdf31dbe","system_id":"levelo_inurba_marseille","lat":43.3302,"lon":5.390639,"is_reserved":false,"is_disabled":false,"rental_uris":{"android":"levelo://app?vid=226af3a6-460a-4f93-8a2f-5029fdf31dbe","ios":"levelo://app?vid=226af3a6-460a-4f93-8a2f-5029fdf31dbe"},"vehicle_type_id":"4","last_reported":1731068226,"current_range_meters":36000,"station_id":"ce4bhr92rcd13ifvqhrg","pricing_plan_id":"cebpf4jnsgd1na2vs0mg"},{"bike_id":"e09847c1-a012-4fae-8dea-272589bd2004","system_id":"levelo_inurba_marseille","lat":43.24543,"lon":5.39523,"is_reserved":false,"is_disabled":false,"rental_uris":{"android":"levelo://app?vid=e09847c1-a012-4fae-8dea-272589bd2004","ios":"levelo://app?vid=e09847c1-a012-4fae-8dea-272589bd2004"},"vehicle_type_id":"4","last_reported":1731068226,"current_range_meters":11600,"station_id":"ce4bhlp2rcd13ifvqgjg","pricing_plan_id":"cebpf4jnsgd1na2vs0mg"},{"bike_id":"e6cb3644-9461-438a-affb-dfdbbb1420fc","system_id":"levelo_inurba_marseille","lat":43.27813,"lon":5.40708,"is_reserved":false,"is_disabled":false,"rental_uris":{"android":"levelo://app?vid=e6cb3644-9461-438a-affb-dfdbbb1420fc","ios":"levelo://app?vid=e6cb3644-9461-438a-affb-dfdbbb1420fc"},"vehicle_type_id":"4","last_reported":1731068226,"current_range_meters":24800,"station_id":"ce4bhnh2rcd13ifvqgtg","pricing_plan_id":"cebpf4jnsgd1na2vs0mg"},{"bike_id":"ec131ae5-88c6-4665-9149-1e69ea03d8aa","system_id":"levelo_inurba_marseille","lat":43.30122,"lon":5.37424,"is_reserved":false,"is_disabled":false,"rental_uris":{"android":"levelo://app?vid=ec131ae5-88c6-4665-9149-1e69ea03d8aa","ios":"levelo://app?vid=ec131ae5-88c6-4665-9149-1e69ea03d8aa"},"vehicle_type_id":"4","last_reported":1731068226,"current_range_meters":25200,"station_id":"ce4bgs92rcd13ifvqcc0","pricing_plan_id":"cebpf4jnsgd1na2vs0mg"},{"bike_id":"0c8254f2-8ef3-46b6-893f-aa726898f046","system_id":"levelo_inurba_marseille","lat":43.2781,"lon":5.40712,"is_reserved":false,"is_disabled":false,"rental_uris":{"android":"levelo://app?vid=0c8254f2-8ef3-46b6-893f-aa726898f046","ios":"levelo://app?vid=0c8254f2-8ef3-46b6-893f-aa726898f046"},"vehicle_type_id":"4","last_reported":1731068226,"current_range_meters":10000,"station_id":"ce4bhnh2rcd13ifvqgtg","pricing_plan_id":"cebpf4jnsgd1na2vs0mg"},{"bike_id":"42084707-787d-47f2-a181-32f7e0d83fbf","system_id":"levelo_inurba_marseille","lat":43.28449,"lon":5.35891,"is_reserved":false,"is_disabled":false,"rental_uris":{"android":"levelo://app?vid=42084707-787d-47f2-a181-32f7e0d83fbf","ios":"levelo://app?vid=42084707-787d-47f2-a181-32f7e0d83fbf"},"vehicle_type_id":"4","last_reported":1731068226,"current_range_meters":24400,"station_id":"ce4bhah2rcd13ifvqei0","pricing_plan_id":"cebpf4jnsgd1na2vs0mg"},{"bike_id":"7de9c802-15ff-46fb-9cae-b6ab2cff5424","system_id":"levelo_inurba_marseille","lat":43.34146,"lon":5.40901,"is_reserved":false,"is_disabled":false,"rental_uris":{"android":"levelo://app?vid=7de9c802-15ff-46fb-9cae-b6ab2cff5424","ios":"levelo://app?vid=7de9c802-15ff-46fb-9cae-b6ab2cff5424"},"vehicle_type_id":"4","last_reported":1731068226,"current_range_meters":4000,"station_id":"ce4bhqh2rcd13ifvqhlg","pricing_plan_id":"cebpf4jnsgd1na2vs0mg"},{"bike_id":"f210d639-7132-4470-847a-0d20570bd17a","system_id":"levelo_inurba_marseille","lat":43.27071,"lon":5.42282,"is_reserved":false,"is_disabled":false,"rental_uris":{"android":"levelo://app?vid=f210d639-7132-4470-847a-0d20570bd17a","ios":"levelo://app?vid=f210d639-7132-4470-847a-0d20570bd17a"},"vehicle_type_id":"4","last_reported":1731068226,"current_range_meters":36000,"station_id":"ce4bhk92rcd13ifvqgb0","pricing_plan_id":"cebpf4jnsgd1na2vs0mg"},{"bike_id":"ee57e61c-d077-4b8f-9842-5b05c01839e5","system_id":"levelo_inurba_marseille","lat":43.27812,"lon":5.40718,"is_reserved":false,"is_disabled":false,"rental_uris":{"android":"levelo://app?vid=ee57e61c-d077-4b8f-9842-5b05c01839e5","ios":"levelo://app?vid=ee57e61c-d077-4b8f-9842-5b05c01839e5"},"vehicle_type_id":"4","last_reported":1731068226,"current_range_meters":9200,"station_id":"ce4bhnh2rcd13ifvqgtg","pricing_plan_id":"cebpf4jnsgd1na2vs0mg"},{"bike_id":"c2a09712-8a9f-43d0-922d-98ff0369720c","system_id":"levelo_inurba_marseille","lat":43.25871,"lon":5.39898,"is_reserved":false,"is_disabled":false,"rental_uris":{"android":"levelo://app?vid=c2a09712-8a9f-43d0-922d-98ff0369720c","ios":"levelo://app?vid=c2a09712-8a9f-43d0-922d-98ff0369720c"},"vehicle_type_id":"4","last_reported":1731068226,"current_range_meters":14800,"station_id":"ce4bhl92rcd13ifvqghg","pricing_plan_id":"cebpf4jnsgd1na2vs0mg"},{"bike_id":"5ef7008f-19c6-4e03-9387-33cb32763838","system_id":"levelo_inurba_marseille","lat":43.31326,"lon":5.39691,"is_reserved":false,"is_disabled":false,"rental_uris":{"android":"levelo://app?vid=5ef7008f-19c6-4e03-9387-33cb32763838","ios":"levelo://app?vid=5ef7008f-19c6-4e03-9387-33cb32763838"},"vehicle_type_id":"4","last_reported":1731068226,"current_range_meters":38000,"station_id":"ce4bgvp2rcd13ifvqcu0","pricing_plan_id":"cebpf4jnsgd1na2vs0mg"},{"bike_id":"ff72051d-7e8f-46d3-bc5a-ce8f35154003","system_id":"levelo_inurba_marseille","lat":43.28614,"lon":5.35106,"is_reserved":false,"is_disabled":false,"rental_uris":{"android":"levelo://app?vid=ff72051d-7e8f-46d3-bc5a-ce8f35154003","ios":"levelo://app?vid=ff72051d-7e8f-46d3-bc5a-ce8f35154003"},"vehicle_type_id":"4","last_reported":1731068226,"current_range_meters":6400,"station_id":"ce4bhch2rcd13ifvqeug","pricing_plan_id":"cebpf4jnsgd1na2vs0mg"},{"bike_id":"82aa13b8-c275-4e69-9315-d4cab2d8e916","system_id":"levelo_inurba_marseille","lat":43.28569,"lon":5.39513,"is_reserved":false,"is_disabled":false,"rental_uris":{"android":"levelo://app?vid=82aa13b8-c275-4e69-9315-d4cab2d8e916","ios":"levelo://app?vid=82aa13b8-c275-4e69-9315-d4cab2d8e916"},"vehicle_type_id":"4","last_reported":1731068226,"current_range_meters":19200,"station_id":"ce4bh292rcd13ifvqdg0","pricing_plan_id":"cebpf4jnsgd1na2vs0mg"},{"bike_id":"1b23b6c0-9779-4a9c-9ef0-ae7906244709","system_id":"levelo_inurba_marseille","lat":43.32477,"lon":5.36565,"is_reserved":false,"is_disabled":false,"rental_uris":{"android":"levelo://app?vid=1b23b6c0-9779-4a9c-9ef0-ae7906244709","ios":"levelo://app?vid=1b23b6c0-9779-4a9c-9ef0-ae7906244709"},"vehicle_type_id":"4","last_reported":1731068226,"current_range_meters":36800,"station_id":"ce4bhs12rcd13ifvqhvg","pricing_plan_id":"cebpf4jnsgd1na2vs0mg"},{"bike_id":"073db6a0-4e45-4b6c-89c4-2b86f3ebb2f9","system_id":"levelo_inurba_marseille","lat":43.29515,"lon":5.39036,"is_reserved":false,"is_disabled":false,"rental_uris":{"android":"levelo://app?vid=073db6a0-4e45-4b6c-89c4-2b86f3ebb2f9","ios":"levelo://app?vid=073db6a0-4e45-4b6c-89c4-2b86f3ebb2f9"},"vehicle_type_id":"4","last_reported":1731068226,"current_range_meters":19200,"station_id":"ce4bh3p2rcd13ifvqdp0","pricing_plan_id":"cebpf4jnsgd1na2vs0mg"},{"bike_id":"7523d551-6c6b-4056-8b9d-907021a21a00","system_id":"levelo_inurba_marseille","lat":43.31344,"lon":5.36716,"is_reserved":false,"is_disabled":false,"rental_uris":{"android":"levelo://app?vid=7523d551-6c6b-4056-8b9d-907021a21a00","ios":"levelo://app?vid=7523d551-6c6b-4056-8b9d-907021a21a00"},"vehicle_type_id":"4","last_reported":1731068226,"current_range_meters":22000,"station_id":"ce4bgr92rcd13ifvqc6g","pricing_plan_id":"cebpf4jnsgd1na2vs0mg"},{"bike_id":"8d32d91c-bfd7-479e-8968-31878da59b1b","system_id":"levelo_inurba_marseille","lat":43.27207,"lon":5.39183,"is_reserved":false,"is_disabled":false,"rental_uris":{"android":"levelo://app?vid=8d32d91c-bfd7-479e-8968-31878da59b1b","ios":"levelo://app?vid=8d32d91c-bfd7-479e-8968-31878da59b1b"},"vehicle_type_id":"4","last_reported":1731068226,"current_range_meters":10800,"station_id":"ce4bhhp2rcd13ifvqfm0","pricing_plan_id":"cebpf4jnsgd1na2vs0mg"},{"bike_id":"af4daf64-18f9-41ec-b8bd-1df711ac30af","system_id":"levelo_inurba_marseille","lat":43.31225,"lon":5.36854,"is_reserved":false,"is_disabled":false,"rental_uris":{"android":"levelo://app?vid=af4daf64-18f9-41ec-b8bd-1df711ac30af","ios":"levelo://app?vid=af4daf64-18f9-41ec-b8bd-1df711ac30af"},"vehicle_type_id":"4","last_reported":1731068226,"current_range_meters":32400,"station_id":"ce4bgl92rcd13ifvqbq0","pricing_plan_id":"cebpf4jnsgd1na2vs0mg"},{"bike_id":"de721cd2-e3e7-48c4-bf4a-31af17766d4c","system_id":"levelo_inurba_marseille","lat":43.27811,"lon":5.4071,"is_reserved":false,"is_disabled":false,"rental_uris":{"android":"levelo://app?vid=de721cd2-e3e7-48c4-bf4a-31af17766d4c","ios":"levelo://app?vid=de721cd2-e3e7-48c4-bf4a-31af17766d4c"},"vehicle_type_id":"4","last_reported":1731068226,"current_range_meters":27200,"station_id":"ce4bhnh2rcd13ifvqgtg","pricing_plan_id":"cebpf4jnsgd1na2vs0mg"},{"bike_id":"bd9d7180-121c-41fd-a444-72a1252584b0","system_id":"levelo_inurba_marseille","lat":43.25582,"lon":5.38225,"is_reserved":false,"is_disabled":false,"rental_uris":{"android":"levelo://app?vid=bd9d7180-121c-41fd-a444-72a1252584b0","ios":"levelo://app?vid=bd9d7180-121c-41fd-a444-72a1252584b0"},"vehicle_type_id":"4","last_reported":1731068226,"current_range_meters":9600,"station_id":"ce4bhih2rcd13ifvqfs0","pricing_plan_id":"cebpf4jnsgd1na2vs0mg"},{"bike_id":"92bbe5af-b5d9-48fc-afb8-3b15fc8d3190","system_id":"levelo_inurba_marseille","lat":43.31718,"lon":5.42405,"is_reserved":false,"is_disabled":false,"rental_uris":{"android":"levelo://app?vid=92bbe5af-b5d9-48fc-afb8-3b15fc8d3190","ios":"levelo://app?vid=92bbe5af-b5d9-48fc-afb8-3b15fc8d3190"},"vehicle_type_id":"4","last_reported":1731068226,"current_range_meters":28800,"station_id":"ce4bhp92rcd13ifvqhbg","pricing_plan_id":"cebpf4jnsgd1na2vs0mg"},{"bike_id":"6db2b8ab-31e3-4398-b857-38df6a63999d","system_id":"levelo_inurba_marseille","lat":43.30273,"lon":5.37707,"is_reserved":false,"is_disabled":false,"rental_uris":{"android":"levelo://app?vid=6db2b8ab-31e3-4398-b857-38df6a63999d","ios":"levelo://app?vid=6db2b8ab-31e3-4398-b857-38df6a63999d"},"vehicle_type_id":"4","last_reported":1731068226,"current_range_meters":37600,"station_id":"ce4bguh2rcd13ifvqcj0","pricing_plan_id":"cebpf4jnsgd1na2vs0mg"},{"bike_id":"d4636e0c-b1eb-4b98-9d41-234e48e35128","system_id":"levelo_inurba_marseille","lat":43.240784,"lon":5.377595,"is_reserved":false,"is_disabled":false,"rental_uris":{"android":"levelo://app?vid=d4636e0c-b1eb-4b98-9d41-234e48e35128","ios":"levelo://app?vid=d4636e0c-b1eb-4b98-9d41-234e48e35128"},"vehicle_type_id":"4","last_reported":1731068226,"current_range_meters":22000,"station_id":"ce4bhnp2rcd13ifvqgvg","pricing_plan_id":"cebpf4jnsgd1na2vs0mg"},{"bike_id":"bc7b8ba0-ab09-403f-9797-04bb68f1c014","system_id":"levelo_inurba_marseille","lat":43.27817,"lon":5.40717,"is_reserved":false,"is_disabled":false,"rental_uris":{"android":"levelo://app?vid=bc7b8ba0-ab09-403f-9797-04bb68f1c014","ios":"levelo://app?vid=bc7b8ba0-ab09-403f-9797-04bb68f1c014"},"vehicle_type_id":"4","last_reported":1731068226,"current_range_meters":31200,"station_id":"ce4bhnh2rcd13ifvqgtg","pricing_plan_id":"cebpf4jnsgd1na2vs0mg"},{"bike_id":"ae6411f3-ae31-4f90-8975-cbb8b6d77600","system_id":"levelo_inurba_marseille","lat":43.32473,"lon":5.36558,"is_reserved":false,"is_disabled":false,"rental_uris":{"android":"levelo://app?vid=ae6411f3-ae31-4f90-8975-cbb8b6d77600","ios":"levelo://app?vid=ae6411f3-ae31-4f90-8975-cbb8b6d77600"},"vehicle_type_id":"4","last_reported":1731068226,"current_range_meters":11200,"station_id":"ce4bhs12rcd13ifvqhvg","pricing_plan_id":"cebpf4jnsgd1na2vs0mg"},{"bike_id":"7915d98a-cd17-40c4-895b-77f10998b284","system_id":"levelo_inurba_marseille","lat":43.30547,"lon":5.36541,"is_reserved":false,"is_disabled":false,"rental_uris":{"android":"levelo://app?vid=7915d98a-cd17-40c4-895b-77f10998b284","ios":"levelo://app?vid=7915d98a-cd17-40c4-895b-77f10998b284"},"vehicle_type_id":"4","last_reported":1731068226,"current_range_meters":26000,"station_id":"ce4bgs12rcd13ifvqcag","pricing_plan_id":"cebpf4jnsgd1na2vs0mg"},{"bike_id":"26d7c219-68f4-403c-9734-8fbc7b24b9e2","system_id":"levelo_inurba_marseille","lat":43.26072,"lon":5.40707,"is_reserved":false,"is_disabled":false,"rental_uris":{"android":"levelo://app?vid=26d7c219-68f4-403c-9734-8fbc7b24b9e2","ios":"levelo://app?vid=26d7c219-68f4-403c-9734-8fbc7b24b9e2"},"vehicle_type_id":"4","last_reported":1731068226,"current_range_meters":24800,"station_id":"","pricing_plan_id":"cebpf4jnsgd1na2vs0mg"},{"bike_id":"f54bde22-39d9-429c-beb9-5c655cc1564e","system_id":"levelo_inurba_marseille","lat":43.31222,"lon":5.36867,"is_reserved":false,"is_disabled":false,"rental_uris":{"android":"levelo://app?vid=f54bde22-39d9-429c-beb9-5c655cc1564e","ios":"levelo://app?vid=f54bde22-39d9-429c-beb9-5c655cc1564e"},"vehicle_type_id":"4","last_reported":1731068226,"current_range_meters":40000,"station_id":"ce4bgl92rcd13ifvqbq0","pricing_plan_id":"cebpf4jnsgd1na2vs0mg"},{"bike_id":"4adc051b-cab2-444f-a4c6-933d4708baf0","system_id":"levelo_inurba_marseille","lat":43.31716,"lon":5.42395,"is_reserved":false,"is_disabled":false,"rental_uris":{"android":"levelo://app?vid=4adc051b-cab2-444f-a4c6-933d4708baf0","ios":"levelo://app?vid=4adc051b-cab2-444f-a4c6-933d4708baf0"},"vehicle_type_id":"4","last_reported":1731068226,"current_range_meters":14400,"station_id":"ce4bhp92rcd13ifvqhbg","pricing_plan_id":"cebpf4jnsgd1na2vs0mg"},{"bike_id":"e25a463c-7ebd-4227-92a7-041a2c690f67","system_id":"levelo_inurba_marseille","lat":43.30281,"lon":5.37722,"is_reserved":false,"is_disabled":false,"rental_uris":{"android":"levelo://app?vid=e25a463c-7ebd-4227-92a7-041a2c690f67","ios":"levelo://app?vid=e25a463c-7ebd-4227-92a7-041a2c690f67"},"vehicle_type_id":"4","last_reported":1731068226,"current_range_meters":14800,"station_id":"ce4bguh2rcd13ifvqcj0","pricing_plan_id":"cebpf4jnsgd1na2vs0mg"},{"bike_id":"9d187e41-e8d8-4fdb-9fe7-5f6de266c1ef","system_id":"levelo_inurba_marseille","lat":43.30289,"lon":5.3771,"is_reserved":false,"is_disabled":false,"rental_uris":{"android":"levelo://app?vid=9d187e41-e8d8-4fdb-9fe7-5f6de266c1ef","ios":"levelo://app?vid=9d187e41-e8d8-4fdb-9fe7-5f6de266c1ef"},"vehicle_type_id":"4","last_reported":1731068226,"current_range_meters":5600,"station_id":"ce4bguh2rcd13ifvqcj0","pricing_plan_id":"cebpf4jnsgd1na2vs0mg"},{"bike_id":"32e30d26-bdc8-480e-9cbc-1831bf3b336e","system_id":"levelo_inurba_marseille","lat":43.30143,"lon":5.37423,"is_reserved":false,"is_disabled":false,"rental_uris":{"android":"levelo://app?vid=32e30d26-bdc8-480e-9cbc-1831bf3b336e","ios":"levelo://app?vid=32e30d26-bdc8-480e-9cbc-1831bf3b336e"},"vehicle_type_id":"4","last_reported":1731068226,"current_range_meters":27200,"station_id":"ce4bgs92rcd13ifvqcc0","pricing_plan_id":"cebpf4jnsgd1na2vs0mg"},{"bike_id":"a2a161e1-be15-4ee2-a638-37ebdf866f3e","system_id":"levelo_inurba_marseille","lat":43.293,"lon":5.37169,"is_reserved":false,"is_disabled":false,"rental_uris":{"android":"levelo://app?vid=a2a161e1-be15-4ee2-a638-37ebdf866f3e","ios":"levelo://app?vid=a2a161e1-be15-4ee2-a638-37ebdf866f3e"},"vehicle_type_id":"4","last_reported":1731068226,"current_range_meters":38800,"station_id":"ce4bgh92rcd13ifvqb40","pricing_plan_id":"cebpf4jnsgd1na2vs0mg"},{"bike_id":"94cbdddf-7b4c-424f-bef3-5eeec533be03","system_id":"levelo_inurba_marseille","lat":43.291034,"lon":5.381316,"is_reserved":false,"is_disabled":false,"rental_uris":{"android":"levelo://app?vid=94cbdddf-7b4c-424f-bef3-5eeec533be03","ios":"levelo://app?vid=94cbdddf-7b4c-424f-bef3-5eeec533be03"},"vehicle_type_id":"4","last_reported":1731068226,"current_range_meters":27600,"station_id":"ce4bh512rcd13ifvqe2g","pricing_plan_id":"cebpf4jnsgd1na2vs0mg"},{"bike_id":"f5da078b-5359-4a72-8642-c4bd0f9e6885","system_id":"levelo_inurba_marseille","lat":43.28348,"lon":5.381,"is_reserved":false,"is_disabled":false,"rental_uris":{"android":"levelo://app?vid=f5da078b-5359-4a72-8642-c4bd0f9e6885","ios":"levelo://app?vid=f5da078b-5359-4a72-8642-c4bd0f9e6885"},"vehicle_type_id":"4","last_reported":1731068226,"current_range_meters":32000,"station_id":"ce4bh412rcd13ifvqdr0","pricing_plan_id":"cebpf4jnsgd1na2vs0mg"},{"bike_id":"2bbcb9cc-f8b8-4b14-879a-f3df66920005","system_id":"levelo_inurba_marseille","lat":43.31221,"lon":5.36855,"is_reserved":false,"is_disabled":false,"rental_uris":{"android":"levelo://app?vid=2bbcb9cc-f8b8-4b14-879a-f3df66920005","ios":"levelo://app?vid=2bbcb9cc-f8b8-4b14-879a-f3df66920005"},"vehicle_type_id":"4","last_reported":1731068226,"current_range_meters":20400,"station_id":"ce4bgl92rcd13ifvqbq0","pricing_plan_id":"cebpf4jnsgd1na2vs0mg"},{"bike_id":"1b5f618d-a914-4802-8c57-fa72c1821853","system_id":"levelo_inurba_marseille","lat":43.27811,"lon":5.40716,"is_reserved":false,"is_disabled":false,"rental_uris":{"android":"levelo://app?vid=1b5f618d-a914-4802-8c57-fa72c1821853","ios":"levelo://app?vid=1b5f618d-a914-4802-8c57-fa72c1821853"},"vehicle_type_id":"4","last_reported":1731068226,"current_range_meters":29600,"station_id":"ce4bhnh2rcd13ifvqgtg","pricing_plan_id":"cebpf4jnsgd1na2vs0mg"},{"bike_id":"c518a249-eefc-487f-a47f-5e8829d0d5f1","system_id":"levelo_inurba_marseille","lat":43.31118,"lon":5.37766,"is_reserved":false,"is_disabled":false,"rental_uris":{"android":"levelo://app?vid=c518a249-eefc-487f-a47f-5e8829d0d5f1","ios":"levelo://app?vid=c518a249-eefc-487f-a47f-5e8829d0d5f1"},"vehicle_type_id":"4","last_reported":1731068226,"current_range_meters":33200,"station_id":"ce4bgt92rcd13ifvqcg0","pricing_plan_id":"cebpf4jnsgd1na2vs0mg"},{"bike_id":"f50e857c-e79e-4585-b438-3487e1d543d2","system_id":"levelo_inurba_marseille","lat":43.23965,"lon":5.36633,"is_reserved":false,"is_disabled":false,"rental_uris":{"android":"levelo://app?vid=f50e857c-e79e-4585-b438-3487e1d543d2","ios":"levelo://app?vid=f50e857c-e79e-4585-b438-3487e1d543d2"},"vehicle_type_id":"4","last_reported":1731068226,"current_range_meters":8000,"station_id":"ce4bhi12rcd13ifvqfp0","pricing_plan_id":"cebpf4jnsgd1na2vs0mg"},{"bike_id":"197f1be0-6884-4f9f-90d8-274ecf34db3c","system_id":"levelo_inurba_marseille","lat":43.290365,"lon":5.399612,"is_reserved":false,"is_disabled":false,"rental_uris":{"android":"levelo://app?vid=197f1be0-6884-4f9f-90d8-274ecf34db3c","ios":"levelo://app?vid=197f1be0-6884-4f9f-90d8-274ecf34db3c"},"vehicle_type_id":"4","last_reported":1731068226,"current_range_meters":30000,"station_id":"ce4bh392rcd13ifvqdm0","pricing_plan_id":"cebpf4jnsgd1na2vs0mg"},{"bike_id":"a857852f-ab68-41f9-9316-7113b72659b6","system_id":"levelo_inurba_marseille","lat":43.25003,"lon":5.3892,"is_reserved":false,"is_disabled":false,"rental_uris":{"android":"levelo://app?vid=a857852f-ab68-41f9-9316-7113b72659b6","ios":"levelo://app?vid=a857852f-ab68-41f9-9316-7113b72659b6"},"vehicle_type_id":"4","last_reported":1731068226,"current_range_meters":11600,"station_id":"ce4bhgp2rcd13ifvqfd0","pricing_plan_id":"cebpf4jnsgd1na2vs0mg"},{"bike_id":"4da14e1b-131c-41ff-a192-5be6d8c75907","system_id":"levelo_inurba_marseille","lat":43.24809,"lon":5.37462,"is_reserved":false,"is_disabled":false,"rental_uris":{"android":"levelo://app?vid=4da14e1b-131c-41ff-a192-5be6d8c75907","ios":"levelo://app?vid=4da14e1b-131c-41ff-a192-5be6d8c75907"},"vehicle_type_id":"4","last_reported":1731068226,"current_range_meters":16400,"station_id":"ce4bhgh2rcd13ifvqfb0","pricing_plan_id":"cebpf4jnsgd1na2vs0mg"},{"bike_id":"2fa0f9a8-c738-4735-b9af-ffaf07848357","system_id":"levelo_inurba_marseille","lat":43.29569,"lon":5.39968,"is_reserved":false,"is_disabled":false,"rental_uris":{"android":"levelo://app?vid=2fa0f9a8-c738-4735-b9af-ffaf07848357","ios":"levelo://app?vid=2fa0f9a8-c738-4735-b9af-ffaf07848357"},"vehicle_type_id":"4","last_reported":1731068226,"current_range_meters":28400,"station_id":"ce4bh312rcd13ifvqdj0","pricing_plan_id":"cebpf4jnsgd1na2vs0mg"},{"bike_id":"67d8791d-378e-4eb3-9830-0943355f4a20","system_id":"levelo_inurba_marseille","lat":43.30133,"lon":5.38791,"is_reserved":false,"is_disabled":false,"rental_uris":{"android":"levelo://app?vid=67d8791d-378e-4eb3-9830-0943355f4a20","ios":"levelo://app?vid=67d8791d-378e-4eb3-9830-0943355f4a20"},"vehicle_type_id":"4","last_reported":1731068226,"current_range_meters":26000,"station_id":"ce4bghh2rcd13ifvqb60","pricing_plan_id":"cebpf4jnsgd1na2vs0mg"},{"bike_id":"8cad707a-e3ad-40e9-b226-f167324d7985","system_id":"levelo_inurba_marseille","lat":43.32289,"lon":5.3827,"is_reserved":false,"is_disabled":false,"rental_uris":{"android":"levelo://app?vid=8cad707a-e3ad-40e9-b226-f167324d7985","ios":"levelo://app?vid=8cad707a-e3ad-40e9-b226-f167324d7985"},"vehicle_type_id":"4","last_reported":1731068226,"current_range_meters":30000,"station_id":"ce4bhr12rcd13ifvqhqg","pricing_plan_id":"cebpf4jnsgd1na2vs0mg"},{"bike_id":"cf8f8482-f782-4c29-b6ce-e440f1c1c735","system_id":"levelo_inurba_marseille","lat":43.30555,"lon":5.36707,"is_reserved":false,"is_disabled":false,"rental_uris":{"android":"levelo://app?vid=cf8f8482-f782-4c29-b6ce-e440f1c1c735","ios":"levelo://app?vid=cf8f8482-f782-4c29-b6ce-e440f1c1c735"},"vehicle_type_id":"4","last_reported":1731068226,"current_range_meters":38800,"station_id":"ce4bgrp2rcd13ifvqc9g","pricing_plan_id":"cebpf4jnsgd1na2vs0mg"},{"bike_id":"98f3c442-9727-4caa-8fd5-63209b42a86c","system_id":"levelo_inurba_marseille","lat":43.25824,"lon":5.39439,"is_reserved":false,"is_disabled":false,"rental_uris":{"android":"levelo://app?vid=98f3c442-9727-4caa-8fd5-63209b42a86c","ios":"levelo://app?vid=98f3c442-9727-4caa-8fd5-63209b42a86c"},"vehicle_type_id":"4","last_reported":1731068226,"current_range_meters":27600,"station_id":"ce4bhip2rcd13ifvqft0","pricing_plan_id":"cebpf4jnsgd1na2vs0mg"},{"bike_id":"1a357dc9-00d7-4c66-ae05-4fc4c5b23e74","system_id":"levelo_inurba_marseille","lat":43.29028,"lon":5.38644,"is_reserved":false,"is_disabled":false,"rental_uris":{"android":"levelo://app?vid=1a357dc9-00d7-4c66-ae05-4fc4c5b23e74","ios":"levelo://app?vid=1a357dc9-00d7-4c66-ae05-4fc4c5b23e74"},"vehicle_type_id":"4","last_reported":1731068226,"current_range_meters":30000,"station_id":"ce4bh4p2rcd13ifvqe0g","pricing_plan_id":"cebpf4jnsgd1na2vs0mg"},{"bike_id":"ff989801-f59b-46d1-867b-7c2b6eab1cca","system_id":"levelo_inurba_marseille","lat":43.337444,"lon":5.374475,"is_reserved":false,"is_disabled":false,"rental_uris":{"android":"levelo://app?vid=ff989801-f59b-46d1-867b-7c2b6eab1cca","ios":"levelo://app?vid=ff989801-f59b-46d1-867b-7c2b6eab1cca"},"vehicle_type_id":"4","last_reported":1731068226,"current_range_meters":38400,"station_id":"","pricing_plan_id":"cebpf4jnsgd1na2vs0mg"},{"bike_id":"0f445d8d-c5c6-4426-9c60-d64eb330cd19","system_id":"levelo_inurba_marseille","lat":43.32289,"lon":5.38275,"is_reserved":false,"is_disabled":false,"rental_uris":{"android":"levelo://app?vid=0f445d8d-c5c6-4426-9c60-d64eb330cd19","ios":"levelo://app?vid=0f445d8d-c5c6-4426-9c60-d64eb330cd19"},"vehicle_type_id":"4","last_reported":1731068226,"current_range_meters":38000,"station_id":"ce4bhr12rcd13ifvqhqg","pricing_plan_id":"cebpf4jnsgd1na2vs0mg"},{"bike_id":"e9c8a630-2d73-4117-9bf7-aca5570a0743","system_id":"levelo_inurba_marseille","lat":43.23187,"lon":5.39988,"is_reserved":false,"is_disabled":false,"rental_uris":{"android":"levelo://app?vid=e9c8a630-2d73-4117-9bf7-aca5570a0743","ios":"levelo://app?vid=e9c8a630-2d73-4117-9bf7-aca5570a0743"},"vehicle_type_id":"4","last_reported":1731068226,"current_range_meters":36800,"station_id":"ce4bhn12rcd13ifvqgqg","pricing_plan_id":"cebpf4jnsgd1na2vs0mg"},{"bike_id":"c517a4ee-7a32-4e4c-84c4-637e1007d970","system_id":"levelo_inurba_marseille","lat":43.26682,"lon":5.38273,"is_reserved":false,"is_disabled":false,"rental_uris":{"android":"levelo://app?vid=c517a4ee-7a32-4e4c-84c4-637e1007d970","ios":"levelo://app?vid=c517a4ee-7a32-4e4c-84c4-637e1007d970"},"vehicle_type_id":"4","last_reported":1731068226,"current_range_meters":37600,"station_id":"ce4bhg92rcd13ifvqf90","pricing_plan_id":"cebpf4jnsgd1na2vs0mg"},{"bike_id":"afe24e6e-4d3b-4e1e-a5e9-1f26a20f46d5","system_id":"levelo_inurba_marseille","lat":43.24993,"lon":5.389377,"is_reserved":false,"is_disabled":false,"rental_uris":{"android":"levelo://app?vid=afe24e6e-4d3b-4e1e-a5e9-1f26a20f46d5","ios":"levelo://app?vid=afe24e6e-4d3b-4e1e-a5e9-1f26a20f46d5"},"vehicle_type_id":"4","last_reported":1731068226,"current_range_meters":38800,"station_id":"ce4bhgp2rcd13ifvqfd0","pricing_plan_id":"cebpf4jnsgd1na2vs0mg"},{"bike_id":"16dab621-75c9-464b-8fc4-97fb26c543be","system_id":"levelo_inurba_marseille","lat":43.3014,"lon":5.38069,"is_reserved":false,"is_disabled":false,"rental_uris":{"android":"levelo://app?vid=16dab621-75c9-464b-8fc4-97fb26c543be","ios":"levelo://app?vid=16dab621-75c9-464b-8fc4-97fb26c543be"},"vehicle_type_id":"4","last_reported":1731068226,"current_range_meters":19200,"station_id":"ce4bgjp2rcd13ifvqbh0","pricing_plan_id":"cebpf4jnsgd1na2vs0mg"},{"bike_id":"207e56ce-a511-4661-9af5-8808382282f4","system_id":"levelo_inurba_marseille","lat":43.25495,"lon":5.37647,"is_reserved":false,"is_disabled":false,"rental_uris":{"android":"levelo://app?vid=207e56ce-a511-4661-9af5-8808382282f4","ios":"levelo://app?vid=207e56ce-a511-4661-9af5-8808382282f4"},"vehicle_type_id":"4","last_reported":1731068226,"current_range_meters":30800,"station_id":"ce4bhh12rcd13ifvqff0","pricing_plan_id":"cebpf4jnsgd1na2vs0mg"},{"bike_id":"c5e25685-b340-4074-833d-2ecff39fb6a5","system_id":"levelo_inurba_marseille","lat":43.29001,"lon":5.35614,"is_reserved":false,"is_disabled":false,"rental_uris":{"android":"levelo://app?vid=c5e25685-b340-4074-833d-2ecff39fb6a5","ios":"levelo://app?vid=c5e25685-b340-4074-833d-2ecff39fb6a5"},"vehicle_type_id":"4","last_reported":1731068226,"current_range_meters":38800,"station_id":"ce4bhb92rcd13ifvqen0","pricing_plan_id":"cebpf4jnsgd1na2vs0mg"},{"bike_id":"6ba9ca98-cdab-46e8-bcb3-d22861a3b09f","system_id":"levelo_inurba_marseille","lat":43.26212,"lon":5.37442,"is_reserved":false,"is_disabled":false,"rental_uris":{"android":"levelo://app?vid=6ba9ca98-cdab-46e8-bcb3-d22861a3b09f","ios":"levelo://app?vid=6ba9ca98-cdab-46e8-bcb3-d22861a3b09f"},"vehicle_type_id":"4","last_reported":1731068226,"current_range_meters":37600,"station_id":"ce4bhgp2rcd13ifvqfc0","pricing_plan_id":"cebpf4jnsgd1na2vs0mg"},{"bike_id":"fc7f83a7-009e-48ef-a8ff-3ce00ef445de","system_id":"levelo_inurba_marseille","lat":43.31222,"lon":5.36849,"is_reserved":false,"is_disabled":false,"rental_uris":{"android":"levelo://app?vid=fc7f83a7-009e-48ef-a8ff-3ce00ef445de","ios":"levelo://app?vid=fc7f83a7-009e-48ef-a8ff-3ce00ef445de"},"vehicle_type_id":"4","last_reported":1731068226,"current_range_meters":40000,"station_id":"ce4bgl92rcd13ifvqbq0","pricing_plan_id":"cebpf4jnsgd1na2vs0mg"},{"bike_id":"e9483b76-6324-4b89-b053-cf15916d0748","system_id":"levelo_inurba_marseille","lat":43.26569,"lon":5.39003,"is_reserved":false,"is_disabled":false,"rental_uris":{"android":"levelo://app?vid=e9483b76-6324-4b89-b053-cf15916d0748","ios":"levelo://app?vid=e9483b76-6324-4b89-b053-cf15916d0748"},"vehicle_type_id":"4","last_reported":1731068226,"current_range_meters":38800,"station_id":"ce4bhe12rcd13ifvqf30","pricing_plan_id":"cebpf4jnsgd1na2vs0mg"},{"bike_id":"ed366f95-9ba9-4569-a29b-9d8d122c6858","system_id":"levelo_inurba_marseille","lat":43.27815,"lon":5.40711,"is_reserved":false,"is_disabled":false,"rental_uris":{"android":"levelo://app?vid=ed366f95-9ba9-4569-a29b-9d8d122c6858","ios":"levelo://app?vid=ed366f95-9ba9-4569-a29b-9d8d122c6858"},"vehicle_type_id":"4","last_reported":1731068226,"current_range_meters":30800,"station_id":"ce4bhnh2rcd13ifvqgtg","pricing_plan_id":"cebpf4jnsgd1na2vs0mg"},{"bike_id":"b29eb08c-fb82-4978-9fc7-1853ee663ea8","system_id":"levelo_inurba_marseille","lat":43.28721,"lon":5.36088,"is_reserved":false,"is_disabled":false,"rental_uris":{"android":"levelo://app?vid=b29eb08c-fb82-4978-9fc7-1853ee663ea8","ios":"levelo://app?vid=b29eb08c-fb82-4978-9fc7-1853ee663ea8"},"vehicle_type_id":"4","last_reported":1731068226,"current_range_meters":11200,"station_id":"cki0cbj6b192h4jlfktg","pricing_plan_id":"cebpf4jnsgd1na2vs0mg"},{"bike_id":"a4f548b4-f05c-469a-9426-8bb2408dac9f","system_id":"levelo_inurba_marseille","lat":43.29102,"lon":5.38137,"is_reserved":false,"is_disabled":false,"rental_uris":{"android":"levelo://app?vid=a4f548b4-f05c-469a-9426-8bb2408dac9f","ios":"levelo://app?vid=a4f548b4-f05c-469a-9426-8bb2408dac9f"},"vehicle_type_id":"4","last_reported":1731068226,"current_range_meters":26800,"station_id":"ce4bh512rcd13ifvqe2g","pricing_plan_id":"cebpf4jnsgd1na2vs0mg"},{"bike_id":"358b6346-03fc-40ef-93d0-ca7c7cc9ff1f","system_id":"levelo_inurba_marseille","lat":43.27817,"lon":5.40721,"is_reserved":false,"is_disabled":false,"rental_uris":{"android":"levelo://app?vid=358b6346-03fc-40ef-93d0-ca7c7cc9ff1f","ios":"levelo://app?vid=358b6346-03fc-40ef-93d0-ca7c7cc9ff1f"},"vehicle_type_id":"4","last_reported":1731068226,"current_range_meters":16000,"station_id":"ce4bhnh2rcd13ifvqgtg","pricing_plan_id":"cebpf4jnsgd1na2vs0mg"},{"bike_id":"7e23eb13-56e2-4dae-aab0-265e0dd25452","system_id":"levelo_inurba_marseille","lat":43.2679,"lon":5.39416,"is_reserved":false,"is_disabled":false,"rental_uris":{"android":"levelo://app?vid=7e23eb13-56e2-4dae-aab0-265e0dd25452","ios":"levelo://app?vid=7e23eb13-56e2-4dae-aab0-265e0dd25452"},"vehicle_type_id":"4","last_reported":1731068226,"current_range_meters":10000,"station_id":"ce4bhh12rcd13ifvqfg0","pricing_plan_id":"cebpf4jnsgd1na2vs0mg"},{"bike_id":"e52420d4-63e9-418f-89d3-416320262e35","system_id":"levelo_inurba_marseille","lat":43.23954,"lon":5.36634,"is_reserved":false,"is_disabled":false,"rental_uris":{"android":"levelo://app?vid=e52420d4-63e9-418f-89d3-416320262e35","ios":"levelo://app?vid=e52420d4-63e9-418f-89d3-416320262e35"},"vehicle_type_id":"4","last_reported":1731068226,"current_range_meters":39200,"station_id":"ce4bhi12rcd13ifvqfp0","pricing_plan_id":"cebpf4jnsgd1na2vs0mg"},{"bike_id":"c6d56768-ddde-4b3c-af30-b4e31eaaaf04","system_id":"levelo_inurba_marseille","lat":43.29727,"lon":5.37686,"is_reserved":false,"is_disabled":false,"rental_uris":{"android":"levelo://app?vid=c6d56768-ddde-4b3c-af30-b4e31eaaaf04","ios":"levelo://app?vid=c6d56768-ddde-4b3c-af30-b4e31eaaaf04"},"vehicle_type_id":"4","last_reported":1731068226,"current_range_meters":2800,"station_id":"ce4bgkh2rcd13ifvqbl0","pricing_plan_id":"cebpf4jnsgd1na2vs0mg"},{"bike_id":"02f3bd69-c440-439f-96d2-1f56246cbb70","system_id":"levelo_inurba_marseille","lat":43.23055,"lon":5.35489,"is_reserved":false,"is_disabled":false,"rental_uris":{"android":"levelo://app?vid=02f3bd69-c440-439f-96d2-1f56246cbb70","ios":"levelo://app?vid=02f3bd69-c440-439f-96d2-1f56246cbb70"},"vehicle_type_id":"4","last_reported":1731068226,"current_range_meters":32800,"station_id":"cpo3342slgdg3j2ifvpg","pricing_plan_id":"cebpf4jnsgd1na2vs0mg"},{"bike_id":"941cea0a-7561-4621-a5fc-623e05198423","system_id":"levelo_inurba_marseille","lat":43.295937,"lon":5.380933,"is_reserved":false,"is_disabled":false,"rental_uris":{"android":"levelo://app?vid=941cea0a-7561-4621-a5fc-623e05198423","ios":"levelo://app?vid=941cea0a-7561-4621-a5fc-623e05198423"},"vehicle_type_id":"4","last_reported":1731068226,"current_range_meters":32000,"station_id":"ce4bgl12rcd13ifvqbo0","pricing_plan_id":"cebpf4jnsgd1na2vs0mg"},{"bike_id":"b26326ff-73a1-4254-96f5-a4d8c5fdb74a","system_id":"levelo_inurba_marseille","lat":43.28149,"lon":5.42633,"is_reserved":false,"is_disabled":false,"rental_uris":{"android":"levelo://app?vid=b26326ff-73a1-4254-96f5-a4d8c5fdb74a","ios":"levelo://app?vid=b26326ff-73a1-4254-96f5-a4d8c5fdb74a"},"vehicle_type_id":"4","last_reported":1731068226,"current_range_meters":34000,"station_id":"ce4bhnh2rcd13ifvqgug","pricing_plan_id":"cebpf4jnsgd1na2vs0mg"},{"bike_id":"97ee9428-9454-42a8-89df-286db8e4a882","system_id":"levelo_inurba_marseille","lat":43.285683,"lon":5.394923,"is_reserved":false,"is_disabled":false,"rental_uris":{"android":"levelo://app?vid=97ee9428-9454-42a8-89df-286db8e4a882","ios":"levelo://app?vid=97ee9428-9454-42a8-89df-286db8e4a882"},"vehicle_type_id":"4","last_reported":1731068226,"current_range_meters":38800,"station_id":"ce4bh292rcd13ifvqdg0","pricing_plan_id":"cebpf4jnsgd1na2vs0mg"},{"bike_id":"be2a753a-73bf-425f-b5d4-3faf7972a1e1","system_id":"levelo_inurba_marseille","lat":43.29726,"lon":5.37691,"is_reserved":false,"is_disabled":false,"rental_uris":{"android":"levelo://app?vid=be2a753a-73bf-425f-b5d4-3faf7972a1e1","ios":"levelo://app?vid=be2a753a-73bf-425f-b5d4-3faf7972a1e1"},"vehicle_type_id":"4","last_reported":1731068226,"current_range_meters":39200,"station_id":"ce4bgkh2rcd13ifvqbl0","pricing_plan_id":"cebpf4jnsgd1na2vs0mg"},{"bike_id":"ad1a4eed-0121-40c8-8c1a-96a29bb86511","system_id":"levelo_inurba_marseille","lat":43.31763,"lon":5.39014,"is_reserved":false,"is_disabled":false,"rental_uris":{"android":"levelo://app?vid=ad1a4eed-0121-40c8-8c1a-96a29bb86511","ios":"levelo://app?vid=ad1a4eed-0121-40c8-8c1a-96a29bb86511"},"vehicle_type_id":"4","last_reported":1731068226,"current_range_meters":37600,"station_id":"ce4bhqp2rcd13ifvqhng","pricing_plan_id":"cebpf4jnsgd1na2vs0mg"},{"bike_id":"72960d38-44ff-490b-9051-41dedf003c9f","system_id":"levelo_inurba_marseille","lat":43.296491,"lon":5.374957,"is_reserved":false,"is_disabled":false,"rental_uris":{"android":"levelo://app?vid=72960d38-44ff-490b-9051-41dedf003c9f","ios":"levelo://app?vid=72960d38-44ff-490b-9051-41dedf003c9f"},"vehicle_type_id":"4","last_reported":1731068226,"current_range_meters":28000,"station_id":"ce4bgkh2rcd13ifvqbl0","pricing_plan_id":"cebpf4jnsgd1na2vs0mg"},{"bike_id":"f6240ba0-900a-4bbb-b767-16165ed8fd4d","system_id":"levelo_inurba_marseille","lat":43.3181,"lon":5.38766,"is_reserved":false,"is_disabled":false,"rental_uris":{"android":"levelo://app?vid=f6240ba0-900a-4bbb-b767-16165ed8fd4d","ios":"levelo://app?vid=f6240ba0-900a-4bbb-b767-16165ed8fd4d"},"vehicle_type_id":"4","last_reported":1731068226,"current_range_meters":11600,"station_id":"","pricing_plan_id":"cebpf4jnsgd1na2vs0mg"},{"bike_id":"3be4ec7d-5fc9-4a64-95c9-c60de75c6791","system_id":"levelo_inurba_marseille","lat":43.26195,"lon":5.37448,"is_reserved":false,"is_disabled":false,"rental_uris":{"android":"levelo://app?vid=3be4ec7d-5fc9-4a64-95c9-c60de75c6791","ios":"levelo://app?vid=3be4ec7d-5fc9-4a64-95c9-c60de75c6791"},"vehicle_type_id":"4","last_reported":1731068226,"current_range_meters":38800,"station_id":"ce4bhgp2rcd13ifvqfc0","pricing_plan_id":"cebpf4jnsgd1na2vs0mg"},{"bike_id":"d4fe4fbf-74ed-4992-978d-2a10509cd04f","system_id":"levelo_inurba_marseille","lat":43.29571,"lon":5.37497,"is_reserved":false,"is_disabled":false,"rental_uris":{"android":"levelo://app?vid=d4fe4fbf-74ed-4992-978d-2a10509cd04f","ios":"levelo://app?vid=d4fe4fbf-74ed-4992-978d-2a10509cd04f"},"vehicle_type_id":"4","last_reported":1731068226,"current_range_meters":38800,"station_id":"ce4bgh92rcd13ifvqb50","pricing_plan_id":"cebpf4jnsgd1na2vs0mg"},{"bike_id":"d76f6347-395f-4e57-8af4-c524e2667097","system_id":"levelo_inurba_marseille","lat":43.28942,"lon":5.36641,"is_reserved":false,"is_disabled":false,"rental_uris":{"android":"levelo://app?vid=d76f6347-395f-4e57-8af4-c524e2667097","ios":"levelo://app?vid=d76f6347-395f-4e57-8af4-c524e2667097"},"vehicle_type_id":"4","last_reported":1731068226,"current_range_meters":8400,"station_id":"ce4bhap2rcd13ifvqek0","pricing_plan_id":"cebpf4jnsgd1na2vs0mg"},{"bike_id":"f70c3782-0eb8-420d-8122-dba71fdd5f0e","system_id":"levelo_inurba_marseille","lat":43.28153,"lon":5.42637,"is_reserved":false,"is_disabled":false,"rental_uris":{"android":"levelo://app?vid=f70c3782-0eb8-420d-8122-dba71fdd5f0e","ios":"levelo://app?vid=f70c3782-0eb8-420d-8122-dba71fdd5f0e"},"vehicle_type_id":"4","last_reported":1731068226,"current_range_meters":25200,"station_id":"ce4bhnh2rcd13ifvqgug","pricing_plan_id":"cebpf4jnsgd1na2vs0mg"},{"bike_id":"d9496629-4553-4874-9c3e-a8f5c6f2df68","system_id":"levelo_inurba_marseille","lat":43.2954,"lon":5.39398,"is_reserved":false,"is_disabled":false,"rental_uris":{"android":"levelo://app?vid=d9496629-4553-4874-9c3e-a8f5c6f2df68","ios":"levelo://app?vid=d9496629-4553-4874-9c3e-a8f5c6f2df68"},"vehicle_type_id":"4","last_reported":1731068226,"current_range_meters":24000,"station_id":"ce4bh292rcd13ifvqdf0","pricing_plan_id":"cebpf4jnsgd1na2vs0mg"},{"bike_id":"57188cf5-9fb4-4b0d-a00b-89abc6c9f6d3","system_id":"levelo_inurba_marseille","lat":43.28488,"lon":5.38569,"is_reserved":false,"is_disabled":false,"rental_uris":{"android":"levelo://app?vid=57188cf5-9fb4-4b0d-a00b-89abc6c9f6d3","ios":"levelo://app?vid=57188cf5-9fb4-4b0d-a00b-89abc6c9f6d3"},"vehicle_type_id":"4","last_reported":1731068226,"current_range_meters":2000,"station_id":"ce4bh8p2rcd13ifvqeb0","pricing_plan_id":"cebpf4jnsgd1na2vs0mg"},{"bike_id":"692a78bd-ec81-41e1-a11d-e1889abe5871","system_id":"levelo_inurba_marseille","lat":43.31342,"lon":5.36717,"is_reserved":false,"is_disabled":false,"rental_uris":{"android":"levelo://app?vid=692a78bd-ec81-41e1-a11d-e1889abe5871","ios":"levelo://app?vid=692a78bd-ec81-41e1-a11d-e1889abe5871"},"vehicle_type_id":"4","last_reported":1731068226,"current_range_meters":38800,"station_id":"ce4bgr92rcd13ifvqc6g","pricing_plan_id":"cebpf4jnsgd1na2vs0mg"},{"bike_id":"f8899161-20d9-4281-b58f-7f2190d2c630","system_id":"levelo_inurba_marseille","lat":43.27949,"lon":5.4104,"is_reserved":false,"is_disabled":false,"rental_uris":{"android":"levelo://app?vid=f8899161-20d9-4281-b58f-7f2190d2c630","ios":"levelo://app?vid=f8899161-20d9-4281-b58f-7f2190d2c630"},"vehicle_type_id":"4","last_reported":1731068226,"current_range_meters":34000,"station_id":"ce4bhnp2rcd13ifvqh0g","pricing_plan_id":"cebpf4jnsgd1na2vs0mg"},{"bike_id":"4b2e6619-2669-406d-8efc-d8dfc617560a","system_id":"levelo_inurba_marseille","lat":43.28009,"lon":5.39806,"is_reserved":false,"is_disabled":false,"rental_uris":{"android":"levelo://app?vid=4b2e6619-2669-406d-8efc-d8dfc617560a","ios":"levelo://app?vid=4b2e6619-2669-406d-8efc-d8dfc617560a"},"vehicle_type_id":"4","last_reported":1731068226,"current_range_meters":9600,"station_id":"","pricing_plan_id":"cebpf4jnsgd1na2vs0mg"},{"bike_id":"11916bc5-c662-4e28-b0c0-4403f2293fbb","system_id":"levelo_inurba_marseille","lat":43.337444,"lon":5.374475,"is_reserved":false,"is_disabled":false,"rental_uris":{"android":"levelo://app?vid=11916bc5-c662-4e28-b0c0-4403f2293fbb","ios":"levelo://app?vid=11916bc5-c662-4e28-b0c0-4403f2293fbb"},"vehicle_type_id":"4","last_reported":1731068226,"current_range_meters":38800,"station_id":"","pricing_plan_id":"cebpf4jnsgd1na2vs0mg"},{"bike_id":"50f9f0f9-8fba-480f-9999-844d869a5695","system_id":"levelo_inurba_marseille","lat":43.29108,"lon":5.41747,"is_reserved":false,"is_disabled":false,"rental_uris":{"android":"levelo://app?vid=50f9f0f9-8fba-480f-9999-844d869a5695","ios":"levelo://app?vid=50f9f0f9-8fba-480f-9999-844d869a5695"},"vehicle_type_id":"4","last_reported":1731068226,"current_range_meters":30800,"station_id":"","pricing_plan_id":"cebpf4jnsgd1na2vs0mg"},{"bike_id":"fa02e2e6-64f0-4d2a-a3b1-3d7699b03715","system_id":"levelo_inurba_marseille","lat":43.304173,"lon":5.412892,"is_reserved":false,"is_disabled":false,"rental_uris":{"android":"levelo://app?vid=fa02e2e6-64f0-4d2a-a3b1-3d7699b03715","ios":"levelo://app?vid=fa02e2e6-64f0-4d2a-a3b1-3d7699b03715"},"vehicle_type_id":"4","last_reported":1731068226,"current_range_meters":19600,"station_id":"ce4bhop2rcd13ifvqh8g","pricing_plan_id":"cebpf4jnsgd1na2vs0mg"},{"bike_id":"fe852ca6-c5f1-4bd2-bd63-699fedf1a032","system_id":"levelo_inurba_marseille","lat":43.29417,"lon":5.38626,"is_reserved":false,"is_disabled":false,"rental_uris":{"android":"levelo://app?vid=fe852ca6-c5f1-4bd2-bd63-699fedf1a032","ios":"levelo://app?vid=fe852ca6-c5f1-4bd2-bd63-699fedf1a032"},"vehicle_type_id":"4","last_reported":1731068226,"current_range_meters":13600,"station_id":"ce4bh2h2rcd13ifvqdh0","pricing_plan_id":"cebpf4jnsgd1na2vs0mg"},{"bike_id":"82ee39fb-80cb-45e2-96fc-f298d0e6d2de","system_id":"levelo_inurba_marseille","lat":43.32476,"lon":5.36559,"is_reserved":false,"is_disabled":false,"rental_uris":{"android":"levelo://app?vid=82ee39fb-80cb-45e2-96fc-f298d0e6d2de","ios":"levelo://app?vid=82ee39fb-80cb-45e2-96fc-f298d0e6d2de"},"vehicle_type_id":"4","last_reported":1731068226,"current_range_meters":38800,"station_id":"ce4bhs12rcd13ifvqhvg","pricing_plan_id":"cebpf4jnsgd1na2vs0mg"},{"bike_id":"6310179e-28b0-4e9f-9552-9d0dc6515551","system_id":"levelo_inurba_marseille","lat":43.29631,"lon":5.40599,"is_reserved":false,"is_disabled":false,"rental_uris":{"android":"levelo://app?vid=6310179e-28b0-4e9f-9552-9d0dc6515551","ios":"levelo://app?vid=6310179e-28b0-4e9f-9552-9d0dc6515551"},"vehicle_type_id":"4","last_reported":1731068226,"current_range_meters":11600,"station_id":"ce4bh0h2rcd13ifvqd60","pricing_plan_id":"cebpf4jnsgd1na2vs0mg"},{"bike_id":"6560ef21-a564-4f50-aa0f-9c53d100724b","system_id":"levelo_inurba_marseille","lat":43.34148,"lon":5.40904,"is_reserved":false,"is_disabled":false,"rental_uris":{"android":"levelo://app?vid=6560ef21-a564-4f50-aa0f-9c53d100724b","ios":"levelo://app?vid=6560ef21-a564-4f50-aa0f-9c53d100724b"},"vehicle_type_id":"4","last_reported":1731068226,"current_range_meters":9600,"station_id":"ce4bhqh2rcd13ifvqhlg","pricing_plan_id":"cebpf4jnsgd1na2vs0mg"},{"bike_id":"9f564c07-636b-4789-b336-586e76c39de5","system_id":"levelo_inurba_marseille","lat":43.29975,"lon":5.37173,"is_reserved":false,"is_disabled":false,"rental_uris":{"android":"levelo://app?vid=9f564c07-636b-4789-b336-586e76c39de5","ios":"levelo://app?vid=9f564c07-636b-4789-b336-586e76c39de5"},"vehicle_type_id":"4","last_reported":1731068226,"current_range_meters":38800,"station_id":"ce4bgr92rcd13ifvqc7g","pricing_plan_id":"cebpf4jnsgd1na2vs0mg"},{"bike_id":"917b5a59-887a-42be-a4c8-f8fbb2462ffb","system_id":"levelo_inurba_marseille","lat":43.24169,"lon":5.36394,"is_reserved":false,"is_disabled":false,"rental_uris":{"android":"levelo://app?vid=917b5a59-887a-42be-a4c8-f8fbb2462ffb","ios":"levelo://app?vid=917b5a59-887a-42be-a4c8-f8fbb2462ffb"},"vehicle_type_id":"4","last_reported":1731068226,"current_range_meters":34000,"station_id":"cpo36qri1sfpv3e86is0","pricing_plan_id":"cebpf4jnsgd1na2vs0mg"},{"bike_id":"e9d071fe-dabe-4af6-9b78-29a816f753d3","system_id":"levelo_inurba_marseille","lat":43.27989,"lon":5.41655,"is_reserved":false,"is_disabled":false,"rental_uris":{"android":"levelo://app?vid=e9d071fe-dabe-4af6-9b78-29a816f753d3","ios":"levelo://app?vid=e9d071fe-dabe-4af6-9b78-29a816f753d3"},"vehicle_type_id":"4","last_reported":1731068226,"current_range_meters":24400,"station_id":"ce4bho12rcd13ifvqh1g","pricing_plan_id":"cebpf4jnsgd1na2vs0mg"},{"bike_id":"20a14491-9a9c-466b-828a-dec034ca0267","system_id":"levelo_inurba_marseille","lat":43.28936,"lon":5.36389,"is_reserved":false,"is_disabled":false,"rental_uris":{"android":"levelo://app?vid=20a14491-9a9c-466b-828a-dec034ca0267","ios":"levelo://app?vid=20a14491-9a9c-466b-828a-dec034ca0267"},"vehicle_type_id":"4","last_reported":1731068226,"current_range_meters":24400,"station_id":"ce4bhc92rcd13ifvqetg","pricing_plan_id":"cebpf4jnsgd1na2vs0mg"},