{"last_updated":1748441448,"ttl":60,"version":"2.2","data":{"bikes":[{"bike_id":"92270047-ae3c-41b7-b379-3ae8d1fb429a","system_id":"levelo_inurba_marseille","lat":43.27313,"lon":5.39108,"is_reserved":false,"is_disabled":false,"rental_uris":{"android":"levelo://app?vid=92270047-ae3c-41b7-b379-3ae8d1fb429a","ios":"levelo://app?vid=92270047-ae3c-41b7-b379-3ae8d1fb429a"},"vehicle_type_id":"4","last_reported":1748441448,"current_range_meters":2800,"station_id":"ce4bhgp2rcd13ifvqfe0","pricing_plan_id":"cebpf4jnsgd1na2vs0mg"},{"bike_id":"480e91cb-c9e4-4dab-9e1d-307891ae79de","system_id":"levelo_inurba_marseille","lat":43.26208,"lon":5.37921,"is_reserved":false,"is_disabled":false,"rental_uris":{"android":"levelo://app?vid=480e91cb-c9e4-4dab-9e1d-307891ae79de","ios":"levelo://app?vid=480e91cb-c9e4-4dab-9e1d-307891ae79de"},"vehicle_type_id":"4","last_reported":1748441448,"current_range_meters":2000,"station_id":"ce4bhjp2rcd13ifvqg90","pricing_plan_id":"cebpf4jnsgd1na2vs0mg"},{"bike_id":"ad8026a0-5f2f-485a-83f7-73a6b78cb51f","system_id":"levelo_inurba_marseille","lat":43.23194,"lon":5.35557,"is_reserved":false,"is_disabled":false,"rental_uris":{"android":"levelo://app?vid=ad8026a0-5f2f-485a-83f7-73a6b78cb51f","ios":"levelo://app?vid=ad8026a0-5f2f-485a-83f7-73a6b78cb51f"},"vehicle_type_id":"4","last_reported":1748441448,"current_range_meters":2800,"station_id":"ce4bhu92rcd13ifvqi70","pricing_plan_id":"cebpf4jnsgd1na2vs0mg"},{"bike_id":"6deeac0d-5086-4f21-a2ba-def2fe2d47ce","system_id":"levelo_inurba_marseille","lat":43.30093,"lon":5.39073,"is_reserved":false,"is_disabled":false,"rental_uris":{"android":"levelo://app?vid=6deeac0d-5086-4f21-a2ba-def2fe2d47ce","ios":"levelo://app?vid=6deeac0d-5086-4f21-a2ba-def2fe2d47ce"},"vehicle_type_id":"4","last_reported":1748441448,"current_range_meters":2800,"station_id":"ce4bh192rcd13ifvqdb0","pricing_plan_id":"cebpf4jnsgd1na2vs0mg"},{"bike_id":"292d6b81-ad34-48d9-aa68-3f4c10ae1d51","system_id":"levelo_inurba_marseille","lat":43.30534,"lon":5.36704,"is_reserved":false,"is_disabled":false,"rental_uris":{"android":"levelo://app?vid=292d6b81-ad34-48d9-aa68-3f4c10ae1d51","ios":"levelo://app?vid=292d6b81-ad34-48d9-aa68-3f4c10ae1d51"},"vehicle_type_id":"4","last_reported":1748441448,"current_range_meters":3200,"station_id":"ce4bgrp2rcd13ifvqc9g","pricing_plan_id":"cebpf4jnsgd1na2vs0mg"},{"bike_id":"4773fa4b-d35b-46c4-8779-11da8973cf4f","system_id":"levelo_inurba_marseille","lat":43.254969,"lon":5.37649,"is_reserved":false,"is_disabled":false,"rental_uris":{"android":"levelo://app?vid=4773fa4b-d35b-46c4-8779-11da8973cf4f","ios":"levelo://app?vid=4773fa4b-d35b-46c4-8779-11da8973cf4f"},"vehicle_type_id":"4","last_reported":1748441448,"current_range_meters":3200,"station_id":"","pricing_plan_id":"cebpf4jnsgd1na2vs0mg"},{"bike_id":"6f3a811c-4722-4fef-a8e2-754be8c7b0cb","system_id":"levelo_inurba_marseille","lat":43.241712,"lon":5.363935,"is_reserved":false,"is_disabled":false,"rental_uris":{"android":"levelo://app?vid=6f3a811c-4722-4fef-a8e2-754be8c7b0cb","ios":"levelo://app?vid=6f3a811c-4722-4fef-a8e2-754be8c7b0cb"},"vehicle_type_id":"4","last_reported":1748441448,"current_range_meters":3200,"station_id":"cpo36qri1sfpv3e86is0","pricing_plan_id":"cebpf4jnsgd1na2vs0mg"},{"bike_id":"65008acc-1f92-49fa-8cab-e55ebf7e7548","system_id":"levelo_inurba_marseille","lat":43.27972,"lon":5.38743,"is_reserved":false,"is_disabled":false,"rental_uris":{"android":"levelo://app?vid=65008acc-1f92-49fa-8cab-e55ebf7e7548","ios":"levelo://app?vid=65008acc-1f92-49fa-8cab-e55ebf7e7548"},"vehicle_type_id":"4","last_reported":1748441448,"current_range_meters":3200,"station_id":"ce4bhg12rcd13ifvqf80","pricing_plan_id":"cebpf4jnsgd1na2vs0mg"},{"bike_id":"ecc9cb62-56ed-44b1-a1d7-c2985b6c4939","system_id":"levelo_inurba_marseille","lat":43.248077,"lon":5.37452,"is_reserved":false,"is_disabled":false,"rental_uris":{"android":"levelo://app?vid=ecc9cb62-56ed-44b1-a1d7-c2985b6c4939","ios":"levelo://app?vid=ecc9cb62-56ed-44b1-a1d7-c2985b6c4939"},"vehicle_type_id":"4","last_reported":1748441448,"current_range_meters":3600,"station_id":"ce4bhgh2rcd13ifvqfb0","pricing_plan_id":"cebpf4jnsgd1na2vs0mg"},{"bike_id":"8f13e37b-fcef-4a42-85b4-a7eac2371c38","system_id":"levelo_inurba_marseille","lat":43.254933,"lon":5.376457,"is_reserved":false,"is_disabled":false,"rental_uris":{"android":"levelo://app?vid=8f13e37b-fcef-4a42-85b4-a7eac2371c38","ios":"levelo://app?vid=8f13e37b-fcef-4a42-85b4-a7eac2371c38"},"vehicle_type_id":"4","last_reported":1748441448,"current_range_meters":3600,"station_id":"ce4bhh12rcd13ifvqff0","pricing_plan_id":"cebpf4jnsgd1na2vs0mg"},{"bike_id":"f4c45e95-54cf-46e5-83c5-d89c27c9a69c","system_id":"levelo_inurba_marseille","lat":43.27302,"lon":5.41586,"is_reserved":false,"is_disabled":false,"rental_uris":{"android":"levelo://app?vid=f4c45e95-54cf-46e5-83c5-d89c27c9a69c","ios":"levelo://app?vid=f4c45e95-54cf-46e5-83c5-d89c27c9a69c"},"vehicle_type_id":"4","last_reported":1748441448,"current_range_meters":3600,"station_id":"","pricing_plan_id":"cebpf4jnsgd1na2vs0mg"},{"bike_id":"c3a9677e-3041-40f5-8225-12b61f030789","system_id":"levelo_inurba_marseille","lat":43.28994,"lon":5.35582,"is_reserved":false,"is_disabled":false,"rental_uris":{"android":"levelo://app?vid=c3a9677e-3041-40f5-8225-12b61f030789","ios":"levelo://app?vid=c3a9677e-3041-40f5-8225-12b61f030789"},"vehicle_type_id":"4","last_reported":1748441448,"current_range_meters":3600,"station_id":"ce4bhb92rcd13ifvqen0","pricing_plan_id":"cebpf4jnsgd1na2vs0mg"},{"bike_id":"4afb2319-2d80-4f68-a3fb-6b9c2c04a1d9","system_id":"levelo_inurba_marseille","lat":43.28409,"lon":5.34988,"is_reserved":false,"is_disabled":false,"rental_uris":{"android":"levelo://app?vid=4afb2319-2d80-4f68-a3fb-6b9c2c04a1d9","ios":"levelo://app?vid=4afb2319-2d80-4f68-a3fb-6b9c2c04a1d9"},"vehicle_type_id":"4","last_reported":1748441448,"current_range_meters":3600,"station_id":"ce4bhbh2rcd13ifvqepg","pricing_plan_id":"cebpf4jnsgd1na2vs0mg"},{"bike_id":"cbda3df4-4fdf-44c8-b49e-690c809a2b41","system_id":"levelo_inurba_marseille","lat":43.282514,"lon":5.381393,"is_reserved":false,"is_disabled":false,"rental_uris":{"android":"levelo://app?vid=cbda3df4-4fdf-44c8-b49e-690c809a2b41","ios":"levelo://app?vid=cbda3df4-4fdf-44c8-b49e-690c809a2b41"},"vehicle_type_id":"4","last_reported":1748441448,"current_range_meters":3600,"station_id":"","pricing_plan_id":"cebpf4jnsgd1na2vs0mg"},{"bike_id":"6eb50486-fade-4b8d-8c52-3861ee1d7fdc","system_id":"levelo_inurba_marseille","lat":43.30543,"lon":5.36555,"is_reserved":false,"is_disabled":false,"rental_uris":{"android":"levelo://app?vid=6eb50486-fade-4b8d-8c52-3861ee1d7fdc","ios":"levelo://app?vid=6eb50486-fade-4b8d-8c52-3861ee1d7fdc"},"vehicle_type_id":"4","last_reported":1748441448,"current_range_meters":3600,"station_id":"ce4bgs12rcd13ifvqcag","pricing_plan_id":"cebpf4jnsgd1na2vs0mg"},{"bike_id":"d850af6f-e92a-4620-a395-6a3b17c6c254","system_id":"levelo_inurba_marseille","lat":43.30432,"lon":5.39749,"is_reserved":false,"is_disabled":false,"rental_uris":{"android":"levelo://app?vid=d850af6f-e92a-4620-a395-6a3b17c6c254","ios":"levelo://app?vid=d850af6f-e92a-4620-a395-6a3b17c6c254"},"vehicle_type_id":"4","last_reported":1748441448,"current_range_meters":3600,"station_id":"ce4bh092rcd13ifvqd20","pricing_plan_id":"cebpf4jnsgd1na2vs0mg"},{"bike_id":"9eba8eb4-e40d-454f-afc9-c14fb921e89f","system_id":"levelo_inurba_marseille","lat":43.27371,"lon":5.36242,"is_reserved":false,"is_disabled":false,"rental_uris":{"android":"levelo://app?vid=9eba8eb4-e40d-454f-afc9-c14fb921e89f","ios":"levelo://app?vid=9eba8eb4-e40d-454f-afc9-c14fb921e89f"},"vehicle_type_id":"4","last_reported":1748441448,"current_range_meters":4000,"station_id":"ce4bhbh2rcd13ifvqeo0","pricing_plan_id":"cebpf4jnsgd1na2vs0mg"},{"bike_id":"391e61d6-f922-44ee-b1f7-3525f18e5962","system_id":"levelo_inurba_marseille","lat":43.306672,"lon":5.400735,"is_reserved":false,"is_disabled":false,"rental_uris":{"android":"levelo://app?vid=391e61d6-f922-44ee-b1f7-3525f18e5962","ios":"levelo://app?vid=391e61d6-f922-44ee-b1f7-3525f18e5962"},"vehicle_type_id":"4","last_reported":1748441448,"current_range_meters":4000,"station_id":"ce4bh112rcd13ifvqda0","pricing_plan_id":"cebpf4jnsgd1na2vs0mg"},{"bike_id":"d14a9127-6181-4992-bd0e-866ede153c97","system_id":"levelo_inurba_marseille","lat":43.30536,"lon":5.36566,"is_reserved":false,"is_disabled":false,"rental_uris":{"android":"levelo://app?vid=d14a9127-6181-4992-bd0e-866ede153c97","ios":"levelo://app?vid=d14a9127-6181-4992-bd0e-866ede153c97"},"vehicle_type_id":"4","last_reported":1748441448,"current_range_meters":4400,"station_id":"ce4bgs12rcd13ifvqcag","pricing_plan_id":"cebpf4jnsgd1na2vs0mg"},{"bike_id":"fd7a94dc-d420-4531-a441-51e8a1b1cfd9","system_id":"levelo_inurba_marseille","lat":43.24167,"lon":5.36404,"is_reserved":false,"is_disabled":false,"rental_uris":{"android":"levelo://app?vid=fd7a94dc-d420-4531-a441-51e8a1b1cfd9","ios":"levelo://app?vid=fd7a94dc-d420-4531-a441-51e8a1b1cfd9"},"vehicle_type_id":"4","last_reported":1748441448,"current_range_meters":4400,"station_id":"cpo36qri1sfpv3e86is0","pricing_plan_id":"cebpf4jnsgd1na2vs0mg"},{"bike_id":"5241608e-ec0b-4834-a657-79c6fe244f7d","system_id":"levelo_inurba_marseille","lat":43.23194,"lon":5.35551,"is_reserved":false,"is_disabled":false,"rental_uris":{"android":"levelo://app?vid=5241608e-ec0b-4834-a657-79c6fe244f7d","ios":"levelo://app?vid=5241608e-ec0b-4834-a657-79c6fe244f7d"},"vehicle_type_id":"4","last_reported":1748441448,"current_range_meters":4800,"station_id":"ce4bhu92rcd13ifvqi70","pricing_plan_id":"cebpf4jnsgd1na2vs0mg"},{"bike_id":"7fd4041f-019f-4d2a-ae51-6ef42452b786","system_id":"levelo_inurba_marseille","lat":43.28569,"lon":5.39511,"is_reserved":false,"is_disabled":false,"rental_uris":{"android":"levelo://app?vid=7fd4041f-019f-4d2a-ae51-6ef42452b786","ios":"levelo://app?vid=7fd4041f-019f-4d2a-ae51-6ef42452b786"},"vehicle_type_id":"4","last_reported":1748441448,"current_range_meters":4800,"station_id":"ce4bh292rcd13ifvqdg0","pricing_plan_id":"cebpf4jnsgd1na2vs0mg"},{"bike_id":"1cd8f1da-5f27-4a5b-a440-841bd9c49ef7","system_id":"levelo_inurba_marseille","lat":43.2847,"lon":5.35895,"is_reserved":false,"is_disabled":false,"rental_uris":{"android":"levelo://app?vid=1cd8f1da-5f27-4a5b-a440-841bd9c49ef7","ios":"levelo://app?vid=1cd8f1da-5f27-4a5b-a440-841bd9c49ef7"},"vehicle_type_id":"4","last_reported":1748441448,"current_range_meters":4800,"station_id":"ce4bhah2rcd13ifvqei0","pricing_plan_id":"cebpf4jnsgd1na2vs0mg"},{"bike_id":"56e68372-c65a-46c8-9920-90002679d3dd","system_id":"levelo_inurba_marseille","lat":43.28665,"lon":5.36367,"is_reserved":false,"is_disabled":false,"rental_uris":{"android":"levelo://app?vid=56e68372-c65a-46c8-9920-90002679d3dd","ios":"levelo://app?vid=56e68372-c65a-46c8-9920-90002679d3dd"},"vehicle_type_id":"4","last_reported":1748441448,"current_range_meters":4800,"station_id":"ce4bhah2rcd13ifvqej0","pricing_plan_id":"cebpf4jnsgd1na2vs0mg"},{"bike_id":"ca3ad62b-1d95-4265-8009-0adb4e8557b0","system_id":"levelo_inurba_marseille","lat":43.28573,"lon":5.39495,"is_reserved":false,"is_disabled":false,"rental_uris":{"android":"levelo://app?vid=ca3ad62b-1d95-4265-8009-0adb4e8557b0","ios":"levelo://app?vid=ca3ad62b-1d95-4265-8009-0adb4e8557b0"},"vehicle_type_id":"4","last_reported":1748441448,"current_range_meters":4400,"station_id":"ce4bh292rcd13ifvqdg0","pricing_plan_id":"cebpf4jnsgd1na2vs0mg"},{"bike_id":"0a7afb90-e073-458f-b275-88b84ffa63dc","system_id":"levelo_inurba_marseille","lat":43.30458,"lon":5.37899,"is_reserved":false,"is_disabled":false,"rental_uris":{"android":"levelo://app?vid=0a7afb90-e073-458f-b275-88b84ffa63dc","ios":"levelo://app?vid=0a7afb90-e073-458f-b275-88b84ffa63dc"},"vehicle_type_id":"4","last_reported":1748441448,"current_range_meters":5600,"station_id":"ce4bgup2rcd13ifvqcn0","pricing_plan_id":"cebpf4jnsgd1na2vs0mg"},{"bike_id":"9fd219d4-cd84-43dc-8e43-1214fe0c42e4","system_id":"levelo_inurba_marseille","lat":43.30311,"lon":5.3922,"is_reserved":false,"is_disabled":false,"rental_uris":{"android":"levelo://app?vid=9fd219d4-cd84-43dc-8e43-1214fe0c42e4","ios":"levelo://app?vid=9fd219d4-cd84-43dc-8e43-1214fe0c42e4"},"vehicle_type_id":"4","last_reported":1748441448,"current_range_meters":6000,"station_id":"ce4bgkh2rcd13ifvqbk0","pricing_plan_id":"cebpf4jnsgd1na2vs0mg"},{"bike_id":"345dd047-8e9e-484e-b67c-bed6f67af386","system_id":"levelo_inurba_marseille","lat":43.27565,"lon":5.38432,"is_reserved":false,"is_disabled":false,"rental_uris":{"android":"levelo://app?vid=345dd047-8e9e-484e-b67c-bed6f67af386","ios":"levelo://app?vid=345dd047-8e9e-484e-b67c-bed6f67af386"},"vehicle_type_id":"4","last_reported":1748441448,"current_range_meters":5600,"station_id":"ce4bhh92rcd13ifvqfi0","pricing_plan_id":"cebpf4jnsgd1na2vs0mg"},{"bike_id":"f0e3edb0-5a3c-4a9c-ad34-14f9a8bef360","system_id":"levelo_inurba_marseille","lat":43.27802,"lon":5.40723,"is_reserved":false,"is_disabled":false,"rental_uris":{"android":"levelo://app?vid=f0e3edb0-5a3c-4a9c-ad34-14f9a8bef360","ios":"levelo://app?vid=f0e3edb0-5a3c-4a9c-ad34-14f9a8bef360"},"vehicle_type_id":"4","last_reported":1748441448,"current_range_meters":5600,"station_id":"ce4bhnh2rcd13ifvqgtg","pricing_plan_id":"cebpf4jnsgd1na2vs0mg"},{"bike_id":"091a37fd-e9be-4f77-94fd-1e5264d68aae","system_id":"levelo_inurba_marseille","lat":43.28617,"lon":5.35099,"is_reserved":false,"is_disabled":false,"rental_uris":{"android":"levelo://app?vid=091a37fd-e9be-4f77-94fd-1e5264d68aae","ios":"levelo://app?vid=091a37fd-e9be-4f77-94fd-1e5264d68aae"},"vehicle_type_id":"4","last_reported":1748441448,"current_range_meters":6400,"station_id":"ce4bhch2rcd13ifvqeug","pricing_plan_id":"cebpf4jnsgd1na2vs0mg"},{"bike_id":"5728dfbf-6f02-44b1-ba4e-c1589bfb23fe","system_id":"levelo_inurba_marseille","lat":43.27379,"lon":5.36252,"is_reserved":false,"is_disabled":false,"rental_uris":{"android":"levelo://app?vid=5728dfbf-6f02-44b1-ba4e-c1589bfb23fe","ios":"levelo://app?vid=5728dfbf-6f02-44b1-ba4e-c1589bfb23fe"},"vehicle_type_id":"4","last_reported":1748441448,"current_range_meters":6400,"station_id":"ce4bhbh2rcd13ifvqeo0","pricing_plan_id":"cebpf4jnsgd1na2vs0mg"},{"bike_id":"6db4f759-7d3a-41fe-817d-36e7b7021575","system_id":"levelo_inurba_marseille","lat":43.31504,"lon":5.37272,"is_reserved":false,"is_disabled":false,"rental_uris":{"android":"levelo://app?vid=6db4f759-7d3a-41fe-817d-36e7b7021575","ios":"levelo://app?vid=6db4f759-7d3a-41fe-817d-36e7b7021575"},"vehicle_type_id":"4","last_reported":1748441448,"current_range_meters":6400,"station_id":"ce4bgt12rcd13ifvqcd0","pricing_plan_id":"cebpf4jnsgd1na2vs0mg"},{"bike_id":"f94ec0ea-80a1-4a30-b3a5-cda01dd81d64","system_id":"levelo_inurba_marseille","lat":43.29007,"lon":5.3562,"is_reserved":false,"is_disabled":false,"rental_uris":{"android":"levelo://app?vid=f94ec0ea-80a1-4a30-b3a5-cda01dd81d64","ios":"levelo://app?vid=f94ec0ea-80a1-4a30-b3a5-cda01dd81d64"},"vehicle_type_id":"4","last_reported":1748441448,"current_range_meters":6400,"station_id":"ce4bhb92rcd13ifvqen0","pricing_plan_id":"cebpf4jnsgd1na2vs0mg"},{"bike_id":"fdcb608c-c3e9-46f2-86ce-592aea33711a","system_id":"levelo_inurba_marseille","lat":43.26558,"lon":5.37288,"is_reserved":false,"is_disabled":false,"rental_uris":{"android":"levelo://app?vid=fdcb608c-c3e9-46f2-86ce-592aea33711a","ios":"levelo://app?vid=fdcb608c-c3e9-46f2-86ce-592aea33711a"},"vehicle_type_id":"4","last_reported":1748441448,"current_range_meters":6800,"station_id":"ce4bhg12rcd13ifvqf70","pricing_plan_id":"cebpf4jnsgd1na2vs0mg"},{"bike_id":"6d7cfdcd-f061-4eee-b4e5-78d9b6729328","system_id":"levelo_inurba_marseille","lat":43.33015,"lon":5.43854,"is_reserved":false,"is_disabled":false,"rental_uris":{"android":"levelo://app?vid=6d7cfdcd-f061-4eee-b4e5-78d9b6729328","ios":"levelo://app?vid=6d7cfdcd-f061-4eee-b4e5-78d9b6729328"},"vehicle_type_id":"4","last_reported":1748441448,"current_range_meters":6800,"station_id":"","pricing_plan_id":"cebpf4jnsgd1na2vs0mg"},{"bike_id":"441eaadc-60ad-4ebb-93f5-fd427fd0d575","system_id":"levelo_inurba_marseille","lat":43.27998,"lon":5.40012,"is_reserved":false,"is_disabled":false,"rental_uris":{"android":"levelo://app?vid=441eaadc-60ad-4ebb-93f5-fd427fd0d575","ios":"levelo://app?vid=441eaadc-60ad-4ebb-93f5-fd427fd0d575"},"vehicle_type_id":"4","last_reported":1748441448,"current_range_meters":6800,"station_id":"ce4bho92rcd13ifvqh4g","pricing_plan_id":"cebpf4jnsgd1na2vs0mg"},{"bike_id":"26b6c9b2-98c1-48d0-8440-94b13dc89df7","system_id":"levelo_inurba_marseille","lat":43.27168,"lon":5.40988,"is_reserved":false,"is_disabled":false,"rental_uris":{"android":"levelo://app?vid=26b6c9b2-98c1-48d0-8440-94b13dc89df7","ios":"levelo://app?vid=26b6c9b2-98c1-48d0-8440-94b13dc89df7"},"vehicle_type_id":"4","last_reported":1748441448,"current_range_meters":6800,"station_id":"ce4bhl12rcd13ifvqgf0","pricing_plan_id":"cebpf4jnsgd1na2vs0mg"},{"bike_id":"87a1bfe1-1276-46fc-b578-b156452f84c7","system_id":"levelo_inurba_marseille","lat":43.29939,"lon":5.3654,"is_reserved":false,"is_disabled":false,"rental_uris":{"android":"levelo://app?vid=87a1bfe1-1276-46fc-b578-b156452f84c7","ios":"levelo://app?vid=87a1bfe1-1276-46fc-b578-b156452f84c7"},"vehicle_type_id":"4","last_reported":1748441448,"current_range_meters":6800,"station_id":"ce4bgm92rcd13ifvqbr0","pricing_plan_id":"cebpf4jnsgd1na2vs0mg"},{"bike_id":"59915ac1-5208-4d33-8284-a4f99afcb637","system_id":"levelo_inurba_marseille","lat":43.29195,"lon":5.39326,"is_reserved":false,"is_disabled":false,"rental_uris":{"android":"levelo://app?vid=59915ac1-5208-4d33-8284-a4f99afcb637","ios":"levelo://app?vid=59915ac1-5208-4d33-8284-a4f99afcb637"},"vehicle_type_id":"4","last_reported":1748441448,"current_range_meters":6400,"station_id":"ce4bh192rcd13ifvqdd0","pricing_plan_id":"cebpf4jnsgd1na2vs0mg"},{"bike_id":"671e01df-c792-45ac-b30e-01d6f9b73b99","system_id":"levelo_inurba_marseille","lat":43.28938,"lon":5.36649,"is_reserved":false,"is_disabled":false,"rental_uris":{"android":"levelo://app?vid=671e01df-c792-45ac-b30e-01d6f9b73b99","ios":"levelo://app?vid=671e01df-c792-45ac-b30e-01d6f9b73b99"},"vehicle_type_id":"4","last_reported":1748441448,"current_range_meters":6800,"station_id":"ce4bhap2rcd13ifvqek0","pricing_plan_id":"cebpf4jnsgd1na2vs0mg"},{"bike_id":"87db696d-7ed3-4b7c-b3ae-1121e991e97b","system_id":"levelo_inurba_marseille","lat":43.28279,"lon":5.35058,"is_reserved":false,"is_disabled":false,"rental_uris":{"android":"levelo://app?vid=87db696d-7ed3-4b7c-b3ae-1121e991e97b","ios":"levelo://app?vid=87db696d-7ed3-4b7c-b3ae-1121e991e97b"},"vehicle_type_id":"4","last_reported":1748441448,"current_range_meters":8000,"station_id":"ce4bhbp2rcd13ifvqerg","pricing_plan_id":"cebpf4jnsgd1na2vs0mg"},{"bike_id":"5cb19ab7-72ab-4ab6-9032-728f3ec287b0","system_id":"levelo_inurba_marseille","lat":43.2512,"lon":5.40338,"is_reserved":false,"is_disabled":false,"rental_uris":{"android":"levelo://app?vid=5cb19ab7-72ab-4ab6-9032-728f3ec287b0","ios":"levelo://app?vid=5cb19ab7-72ab-4ab6-9032-728f3ec287b0"},"vehicle_type_id":"4","last_reported":1748441448,"current_range_meters":7200,"station_id":"ce4bhlh2rcd13ifvqgig","pricing_plan_id":"cebpf4jnsgd1na2vs0mg"},{"bike_id":"63b33083-5ca0-47fd-9334-acf91e234366","system_id":"levelo_inurba_marseille","lat":43.282774,"lon":5.350659,"is_reserved":false,"is_disabled":false,"rental_uris":{"android":"levelo://app?vid=63b33083-5ca0-47fd-9334-acf91e234366","ios":"levelo://app?vid=63b33083-5ca0-47fd-9334-acf91e234366"},"vehicle_type_id":"4","last_reported":1748441448,"current_range_meters":7200,"station_id":"ce4bhbp2rcd13ifvqerg","pricing_plan_id":"cebpf4jnsgd1na2vs0mg"},{"bike_id":"ab3a191d-783a-49a5-aac7-010ad5fbcc86","system_id":"levelo_inurba_marseille","lat":43.29526,"lon":5.37501,"is_reserved":false,"is_disabled":true,"rental_uris":{"android":"levelo://app?vid=ab3a191d-783a-49a5-aac7-010ad5fbcc86","ios":"levelo://app?vid=ab3a191d-783a-49a5-aac7-010ad5fbcc86"},"vehicle_type_id":"4","last_reported":1748441448,"current_range_meters":7200,"station_id":"ce4bgkp2rcd13ifvqbmg","pricing_plan_id":"cebpf4jnsgd1na2vs0mg"},{"bike_id":"6404f826-e6aa-468b-a692-4a4f6a02c948","system_id":"levelo_inurba_marseille","lat":43.24166,"lon":5.36394,"is_reserved":false,"is_disabled":false,"rental_uris":{"android":"levelo://app?vid=6404f826-e6aa-468b-a692-4a4f6a02c948","ios":"levelo://app?vid=6404f826-e6aa-468b-a692-4a4f6a02c948"},"vehicle_type_id":"4","last_reported":1748441448,"current_range_meters":7200,"station_id":"cpo36qri1sfpv3e86is0","pricing_plan_id":"cebpf4jnsgd1na2vs0mg"},{"bike_id":"bddf3ead-2b99-490c-ae2a-a6caf87d2bda","system_id":"levelo_inurba_marseille","lat":43.31187,"lon":5.3682,"is_reserved":false,"is_disabled":false,"rental_uris":{"android":"levelo://app?vid=bddf3ead-2b99-490c-ae2a-a6caf87d2bda","ios":"levelo://app?vid=bddf3ead-2b99-490c-ae2a-a6caf87d2bda"},"vehicle_type_id":"4","last_reported":1748441448,"current_range_meters":7200,"station_id":"","pricing_plan_id":"cebpf4jnsgd1na2vs0mg"},{"bike_id":"71624964-7fb7-4254-a259-ff9c5269297b","system_id":"levelo_inurba_marseille","lat":43.33016,"lon":5.3904,"is_reserved":false,"is_disabled":false,"rental_uris":{"android":"levelo://app?vid=71624964-7fb7-4254-a259-ff9c5269297b","ios":"levelo://app?vid=71624964-7fb7-4254-a259-ff9c5269297b"},"vehicle_type_id":"4","last_reported":1748441448,"current_range_meters":7200,"station_id":"ce4bhr92rcd13ifvqhrg","pricing_plan_id":"cebpf4jnsgd1na2vs0mg"},{"bike_id":"eecfd891-7b00-44f0-8dc9-85a11787cad5","system_id":"levelo_inurba_marseille","lat":43.2843,"lon":5.34994,"is_reserved":false,"is_disabled":false,"rental_uris":{"android":"levelo://app?vid=eecfd891-7b00-44f0-8dc9-85a11787cad5","ios":"levelo://app?vid=eecfd891-7b00-44f0-8dc9-85a11787cad5"},"vehicle_type_id":"4","last_reported":1748441448,"current_range_meters":7200,"station_id":"ce4bhbh2rcd13ifvqepg","pricing_plan_id":"cebpf4jnsgd1na2vs0mg"},{"bike_id":"4f383a5a-8ca3-48c4-a340-446fe0c42345","system_id":"levelo_inurba_marseille","lat":43.27172,"lon":5.40996,"is_reserved":false,"is_disabled":false,"rental_uris":{"android":"levelo://app?vid=4f383a5a-8ca3-48c4-a340-446fe0c42345","ios":"levelo://app?vid=4f383a5a-8ca3-48c4-a340-446fe0c42345"},"vehicle_type_id":"4","last_reported":1748441448,"current_range_meters":7200,"station_id":"ce4bhl12rcd13ifvqgf0","pricing_plan_id":"cebpf4jnsgd1na2vs0mg"},{"bike_id":"fa55bf50-1b57-46c0-ac41-5eb0c5750583","system_id":"levelo_inurba_marseille","lat":43.2944,"lon":5.39747,"is_reserved":false,"is_disabled":false,"rental_uris":{"android":"levelo://app?vid=fa55bf50-1b57-46c0-ac41-5eb0c5750583","ios":"levelo://app?vid=fa55bf50-1b57-46c0-ac41-5eb0c5750583"},"vehicle_type_id":"4","last_reported":1748441448,"current_range_meters":7200,"station_id":"ce4bh3h2rcd13ifvqdo0","pricing_plan_id":"cebpf4jnsgd1na2vs0mg"},{"bike_id":"d1fa877c-a6fe-4e1a-ba14-ab7573fe3da0","system_id":"levelo_inurba_marseille","lat":43.297083,"lon":5.366045,"is_reserved":false,"is_disabled":false,"rental_uris":{"android":"levelo://app?vid=d1fa877c-a6fe-4e1a-ba14-ab7573fe3da0","ios":"levelo://app?vid=d1fa877c-a6fe-4e1a-ba14-ab7573fe3da0"},"vehicle_type_id":"4","last_reported":1748441448,"current_range_meters":6800,"station_id":"ce4bgn12rcd13ifvqbt0","pricing_plan_id":"cebpf4jnsgd1na2vs0mg"},{"bike_id":"68e1b379-5435-41f4-b725-4abefde9d1a8","system_id":"levelo_inurba_marseille","lat":43.28619,"lon":5.35095,"is_reserved":false,"is_disabled":false,"rental_uris":{"android":"levelo://app?vid=68e1b379-5435-41f4-b725-4abefde9d1a8","ios":"levelo://app?vid=68e1b379-5435-41f4-b725-4abefde9d1a8"},"vehicle_type_id":"4","last_reported":1748441448,"current_range_meters":7200,"station_id":"ce4bhch2rcd13ifvqeug","pricing_plan_id":"cebpf4jnsgd1na2vs0mg"},{"bike_id":"68853c91-3aae-4e25-8a9c-d1ca4fa92956","system_id":"levelo_inurba_marseille","lat":43.308961,"lon":5.371881,"is_reserved":false,"is_disabled":false,"rental_uris":{"android":"levelo://app?vid=68853c91-3aae-4e25-8a9c-d1ca4fa92956","ios":"levelo://app?vid=68853c91-3aae-4e25-8a9c-d1ca4fa92956"},"vehicle_type_id":"4","last_reported":1748441448,"current_range_meters":6800,"station_id":"ce4bguh2rcd13ifvqckg","pricing_plan_id":"cebpf4jnsgd1na2vs0mg"},{"bike_id":"70688a50-6309-4620-989f-a8560a2c2ab8","system_id":"levelo_inurba_marseille","lat":43.2655,"lon":5.37292,"is_reserved":false,"is_disabled":false,"rental_uris":{"android":"levelo://app?vid=70688a50-6309-4620-989f-a8560a2c2ab8","ios":"levelo://app?vid=70688a50-6309-4620-989f-a8560a2c2ab8"},"vehicle_type_id":"4","last_reported":1748441448,"current_range_meters":7200,"station_id":"ce4bhg12rcd13ifvqf70","pricing_plan_id":"cebpf4jnsgd1na2vs0mg"},{"bike_id":"87b395fb-0dfd-464d-b68d-3afc622e0d48","system_id":"levelo_inurba_marseille","lat":43.29544,"lon":5.39479,"is_reserved":false,"is_disabled":false,"rental_uris":{"android":"levelo://app?vid=87b395fb-0dfd-464d-b68d-3afc622e0d48","ios":"levelo://app?vid=87b395fb-0dfd-464d-b68d-3afc622e0d48"},"vehicle_type_id":"4","last_reported":1748441448,"current_range_meters":8000,"station_id":"","pricing_plan_id":"cebpf4jnsgd1na2vs0mg"},{"bike_id":"45381406-75a6-42db-ad5f-97ce26772a43","system_id":"levelo_inurba_marseille","lat":43.29004,"lon":5.35611,"is_reserved":false,"is_disabled":false,"rental_uris":{"android":"levelo://app?vid=45381406-75a6-42db-ad5f-97ce26772a43","ios":"levelo://app?vid=45381406-75a6-42db-ad5f-97ce26772a43"},"vehicle_type_id":"4","last_reported":1748441448,"current_range_meters":7200,"station_id":"ce4bhb92rcd13ifvqen0","pricing_plan_id":"cebpf4jnsgd1na2vs0mg"},{"bike_id":"39d8ce31-141b-4442-9efb-c6b7374ee3bf","system_id":"levelo_inurba_marseille","lat":43.27366,"lon":5.36259,"is_reserved":false,"is_disabled":false,"rental_uris":{"android":"levelo://app?vid=39d8ce31-141b-4442-9efb-c6b7374ee3bf","ios":"levelo://app?vid=39d8ce31-141b-4442-9efb-c6b7374ee3bf"},"vehicle_type_id":"4","last_reported":1748441448,"current_range_meters":8000,"station_id":"ce4bhbh2rcd13ifvqeo0","pricing_plan_id":"cebpf4jnsgd1na2vs0mg"},{"bike_id":"a5f90b1e-a09e-40ad-8d54-7442721c8689","system_id":"levelo_inurba_marseille","lat":43.24638,"lon":5.39282,"is_reserved":false,"is_disabled":false,"rental_uris":{"android":"levelo://app?vid=a5f90b1e-a09e-40ad-8d54-7442721c8689","ios":"levelo://app?vid=a5f90b1e-a09e-40ad-8d54-7442721c8689"},"vehicle_type_id":"4","last_reported":1748441448,"current_range_meters":8000,"station_id":"","pricing_plan_id":"cebpf4jnsgd1na2vs0mg"},{"bike_id":"f440a8e1-e94c-45a3-b5d5-43f635db37bf","system_id":"levelo_inurba_marseille","lat":43.276723,"lon":5.388766,"is_reserved":false,"is_disabled":false,"rental_uris":{"android":"levelo://app?vid=f440a8e1-e94c-45a3-b5d5-43f635db37bf","ios":"levelo://app?vid=f440a8e1-e94c-45a3-b5d5-43f635db37bf"},"vehicle_type_id":"4","last_reported":1748441448,"current_range_meters":5600,"station_id":"ce4bhi12rcd13ifvqfo0","pricing_plan_id":"cebpf4jnsgd1na2vs0mg"},{"bike_id":"6d186095-9a4b-4766-a0af-c7b8d419039e","system_id":"levelo_inurba_marseille","lat":43.28416,"lon":5.34985,"is_reserved":false,"is_disabled":false,"rental_uris":{"android":"levelo://app?vid=6d186095-9a4b-4766-a0af-c7b8d419039e","ios":"levelo://app?vid=6d186095-9a4b-4766-a0af-c7b8d419039e"},"vehicle_type_id":"4","last_reported":1748441448,"current_range_meters":8000,"station_id":"ce4bhbh2rcd13ifvqepg","pricing_plan_id":"cebpf4jnsgd1na2vs0mg"},{"bike_id":"4dbfa6f5-2338-41e4-b0fb-e072fa4c9020","system_id":"levelo_inurba_marseille","lat":43.28416,"lon":5.34995,"is_reserved":false,"is_disabled":false,"rental_uris":{"android":"levelo://app?vid=4dbfa6f5-2338-41e4-b0fb-e072fa4c9020","ios":"levelo://app?vid=4dbfa6f5-2338-41e4-b0fb-e072fa4c9020"},"vehicle_type_id":"4","last_reported":1748441448,"current_range_meters":11200,"station_id":"ce4bhbh2rcd13ifvqepg","pricing_plan_id":"cebpf4jnsgd1na2vs0mg"},{"bike_id":"577f88ab-dc85-4523-ba50-c216615e3670","system_id":"levelo_inurba_marseille","lat":43.27378,"lon":5.36256,"is_reserved":false,"is_disabled":false,"rental_uris":{"android":"levelo://app?vid=577f88ab-dc85-4523-ba50-c216615e3670","ios":"levelo://app?vid=577f88ab-dc85-4523-ba50-c216615e3670"},"vehicle_type_id":"4","last_reported":1748441448,"current_range_meters":8000,"station_id":"ce4bhbh2rcd13ifvqeo0","pricing_plan_id":"cebpf4jnsgd1na2vs0mg"},{"bike_id":"87695a92-fc5a-4212-b19f-1b05c7a6ea65","system_id":"levelo_inurba_marseille","lat":43.29959,"lon":5.38496,"is_reserved":false,"is_disabled":false,"rental_uris":{"android":"levelo://app?vid=87695a92-fc5a-4212-b19f-1b05c7a6ea65","ios":"levelo://app?vid=87695a92-fc5a-4212-b19f-1b05c7a6ea65"},"vehicle_type_id":"4","last_reported":1748441448,"current_range_meters":8000,"station_id":"ce4bgj92rcd13ifvqbd0","pricing_plan_id":"cebpf4jnsgd1na2vs0mg"},{"bike_id":"1fa8f687-b5eb-4531-a7ea-4a9a7643e93c","system_id":"levelo_inurba_marseille","lat":43.28411,"lon":5.37517,"is_reserved":false,"is_disabled":false,"rental_uris":{"android":"levelo://app?vid=1fa8f687-b5eb-4531-a7ea-4a9a7643e93c","ios":"levelo://app?vid=1fa8f687-b5eb-4531-a7ea-4a9a7643e93c"},"vehicle_type_id":"4","last_reported":1748441448,"current_range_meters":8000,"station_id":"ce4bh412rcd13ifvqds0","pricing_plan_id":"cebpf4jnsgd1na2vs0mg"},{"bike_id":"1a9deaa6-5b0b-41ea-a3a0-9c49f0de8473","system_id":"levelo_inurba_marseille","lat":43.29325,"lon":5.41159,"is_reserved":false,"is_disabled":false,"rental_uris":{"android":"levelo://app?vid=1a9deaa6-5b0b-41ea-a3a0-9c49f0de8473","ios":"levelo://app?vid=1a9deaa6-5b0b-41ea-a3a0-9c49f0de8473"},"vehicle_type_id":"4","last_reported":1748441448,"current_range_meters":8000,"station_id":"","pricing_plan_id":"cebpf4jnsgd1na2vs0mg"},{"bike_id":"32f803ba-b125-4c57-ac28-575a03171e38","system_id":"levelo_inurba_marseille","lat":43.29202,"lon":5.39326,"is_reserved":false,"is_disabled":false,"rental_uris":{"android":"levelo://app?vid=32f803ba-b125-4c57-ac28-575a03171e38","ios":"levelo://app?vid=32f803ba-b125-4c57-ac28-575a03171e38"},"vehicle_type_id":"4","last_reported":1748441448,"current_range_meters":8000,"station_id":"ce4bh192rcd13ifvqdd0","pricing_plan_id":"cebpf4jnsgd1na2vs0mg"},{"bike_id":"b66ac79c-1fea-414b-bd61-4a18c634688c","system_id":"levelo_inurba_marseille","lat":43.286157,"lon":5.351057,"is_reserved":false,"is_disabled":false,"rental_uris":{"android":"levelo://app?vid=b66ac79c-1fea-414b-bd61-4a18c634688c","ios":"levelo://app?vid=b66ac79c-1fea-414b-bd61-4a18c634688c"},"vehicle_type_id":"4","last_reported":1748441448,"current_range_meters":8400,"station_id":"ce4bhch2rcd13ifvqeug","pricing_plan_id":"cebpf4jnsgd1na2vs0mg"},{"bike_id":"25bb0092-6b61-47f9-b588-aa709e2e97e4","system_id":"levelo_inurba_marseille","lat":43.28948,"lon":5.3637,"is_reserved":false,"is_disabled":false,"rental_uris":{"android":"levelo://app?vid=25bb0092-6b61-47f9-b588-aa709e2e97e4","ios":"levelo://app?vid=25bb0092-6b61-47f9-b588-aa709e2e97e4"},"vehicle_type_id":"4","last_reported":1748441448,"current_range_meters":8400,"station_id":"ce4bhc92rcd13ifvqetg","pricing_plan_id":"cebpf4jnsgd1na2vs0mg"},{"bike_id":"5fcaf317-c405-4ebd-a378-98195f6f7f24","system_id":"levelo_inurba_marseille","lat":43.30539,"lon":5.3656,"is_reserved":false,"is_disabled":false,"rental_uris":{"android":"levelo://app?vid=5fcaf317-c405-4ebd-a378-98195f6f7f24","ios":"levelo://app?vid=5fcaf317-c405-4ebd-a378-98195f6f7f24"},"vehicle_type_id":"4","last_reported":1748441448,"current_range_meters":8400,"station_id":"ce4bgs12rcd13ifvqcag","pricing_plan_id":"cebpf4jnsgd1na2vs0mg"},{"bike_id":"63db40de-24e6-4269-8c5a-ce35bbd215e6","system_id":"levelo_inurba_marseille","lat":43.27374,"lon":5.36236,"is_reserved":false,"is_disabled":false,"rental_uris":{"android":"levelo://app?vid=63db40de-24e6-4269-8c5a-ce35bbd215e6","ios":"levelo://app?vid=63db40de-24e6-4269-8c5a-ce35bbd215e6"},"vehicle_type_id":"4","last_reported":1748441448,"current_range_meters":8400,"station_id":"ce4bhbh2rcd13ifvqeo0","pricing_plan_id":"cebpf4jnsgd1na2vs0mg"},{"bike_id":"9306c579-c406-4c4c-b25e-3e8df8ec674b","system_id":"levelo_inurba_marseille","lat":43.25869,"lon":5.39893,"is_reserved":false,"is_disabled":false,"rental_uris":{"android":"levelo://app?vid=9306c579-c406-4c4c-b25e-3e8df8ec674b","ios":"levelo://app?vid=9306c579-c406-4c4c-b25e-3e8df8ec674b"},"vehicle_type_id":"4","last_reported":1748441448,"current_range_meters":8400,"station_id":"ce4bhl92rcd13ifvqghg","pricing_plan_id":"cebpf4jnsgd1na2vs0mg"},{"bike_id":"7acaccf8-6842-49ff-8e42-5d95bc8c0715","system_id":"levelo_inurba_marseille","lat":43.31714,"lon":5.43706,"is_reserved":false,"is_disabled":false,"rental_uris":{"android":"levelo://app?vid=7acaccf8-6842-49ff-8e42-5d95bc8c0715","ios":"levelo://app?vid=7acaccf8-6842-49ff-8e42-5d95bc8c0715"},"vehicle_type_id":"4","last_reported":1748441448,"current_range_meters":8000,"station_id":"ce4bhp92rcd13ifvqhcg","pricing_plan_id":"cebpf4jnsgd1na2vs0mg"},{"bike_id":"38303e76-870d-43ef-b2b6-5b703c7a2576","system_id":"levelo_inurba_marseille","lat":43.27369,"lon":5.36245,"is_reserved":false,"is_disabled":false,"rental_uris":{"android":"levelo://app?vid=38303e76-870d-43ef-b2b6-5b703c7a2576","ios":"levelo://app?vid=38303e76-870d-43ef-b2b6-5b703c7a2576"},"vehicle_type_id":"4","last_reported":1748441448,"current_range_meters":8400,"station_id":"ce4bhbh2rcd13ifvqeo0","pricing_plan_id":"cebpf4jnsgd1na2vs0mg"},{"bike_id":"9c45f551-f56a-41ab-8d26-2ad3abd62450","system_id":"levelo_inurba_marseille","lat":43.28615,"lon":5.351,"is_reserved":false,"is_disabled":false,"rental_uris":{"android":"levelo://app?vid=9c45f551-f56a-41ab-8d26-2ad3abd62450","ios":"levelo://app?vid=9c45f551-f56a-41ab-8d26-2ad3abd62450"},"vehicle_type_id":"4","last_reported":1748441448,"current_range_meters":8400,"station_id":"ce4bhch2rcd13ifvqeug","pricing_plan_id":"cebpf4jnsgd1na2vs0mg"},{"bike_id":"799c248c-2d04-4e8e-a644-fc74244f9de7","system_id":"levelo_inurba_marseille","lat":43.31707,"lon":5.37755,"is_reserved":false,"is_disabled":false,"rental_uris":{"android":"levelo://app?vid=799c248c-2d04-4e8e-a644-fc74244f9de7","ios":"levelo://app?vid=799c248c-2d04-4e8e-a644-fc74244f9de7"},"vehicle_type_id":"4","last_reported":1748441448,"current_range_meters":8400,"station_id":"ce4bgth2rcd13ifvqch0","pricing_plan_id":"cebpf4jnsgd1na2vs0mg"},{"bike_id":"228a1359-f6c9-48dc-8ed9-931559d6f03d","system_id":"levelo_inurba_marseille","lat":43.29009,"lon":5.35608,"is_reserved":false,"is_disabled":false,"rental_uris":{"android":"levelo://app?vid=228a1359-f6c9-48dc-8ed9-931559d6f03d","ios":"levelo://app?vid=228a1359-f6c9-48dc-8ed9-931559d6f03d"},"vehicle_type_id":"4","last_reported":1748441448,"current_range_meters":8400,"station_id":"ce4bhb92rcd13ifvqen0","pricing_plan_id":"cebpf4jnsgd1na2vs0mg"},{"bike_id":"7d2ccf98-5e26-49fd-9e80-1d60115d904c","system_id":"levelo_inurba_marseille","lat":43.23962,"lon":5.36628,"is_reserved":false,"is_disabled":false,"rental_uris":{"android":"levelo://app?vid=7d2ccf98-5e26-49fd-9e80-1d60115d904c","ios":"levelo://app?vid=7d2ccf98-5e26-49fd-9e80-1d60115d904c"},"vehicle_type_id":"4","last_reported":1748441448,"current_range_meters":8800,"station_id":"ce4bhi12rcd13ifvqfp0","pricing_plan_id":"cebpf4jnsgd1na2vs0mg"},{"bike_id":"bd6df66c-ec2e-42c5-91d3-a4a523537a45","system_id":"levelo_inurba_marseille","lat":43.3095,"lon":5.3902,"is_reserved":false,"is_disabled":false,"rental_uris":{"android":"levelo://app?vid=bd6df66c-ec2e-42c5-91d3-a4a523537a45","ios":"levelo://app?vid=bd6df66c-ec2e-42c5-91d3-a4a523537a45"},"vehicle_type_id":"4","last_reported":1748441448,"current_range_meters":8400,"station_id":"ce4bgup2rcd13ifvqco0","pricing_plan_id":"cebpf4jnsgd1na2vs0mg"},{"bike_id":"cfc988b5-4c5c-474a-b21a-6f56718d944f","system_id":"levelo_inurba_marseille","lat":43.27381,"lon":5.36255,"is_reserved":false,"is_disabled":false,"rental_uris":{"android":"levelo://app?vid=cfc988b5-4c5c-474a-b21a-6f56718d944f","ios":"levelo://app?vid=cfc988b5-4c5c-474a-b21a-6f56718d944f"},"vehicle_type_id":"4","last_reported":1748441448,"current_range_meters":8400,"station_id":"ce4bhbh2rcd13ifvqeo0","pricing_plan_id":"cebpf4jnsgd1na2vs0mg"},{"bike_id":"2acf15bf-7ffb-47bb-8465-2c5c88e7f8bf","system_id":"levelo_inurba_marseille","lat":43.32552,"lon":5.41444,"is_reserved":false,"is_disabled":false,"rental_uris":{"android":"levelo://app?vid=2acf15bf-7ffb-47bb-8465-2c5c88e7f8bf","ios":"levelo://app?vid=2acf15bf-7ffb-47bb-8465-2c5c88e7f8bf"},"vehicle_type_id":"4","last_reported":1748441448,"current_range_meters":8800,"station_id":"ce4bhq12rcd13ifvqhhg","pricing_plan_id":"cebpf4jnsgd1na2vs0mg"},{"bike_id":"3b6883fc-b1b8-4919-a71b-9e592f7bed7d","system_id":"levelo_inurba_marseille","lat":43.28607,"lon":5.3509,"is_reserved":false,"is_disabled":false,"rental_uris":{"android":"levelo://app?vid=3b6883fc-b1b8-4919-a71b-9e592f7bed7d","ios":"levelo://app?vid=3b6883fc-b1b8-4919-a71b-9e592f7bed7d"},"vehicle_type_id":"4","last_reported":1748441448,"current_range_meters":8800,"station_id":"ce4bhch2rcd13ifvqeug","pricing_plan_id":"cebpf4jnsgd1na2vs0mg"},{"bike_id":"7ddcdfa6-dfef-4306-a5e4-dedee5a0d019","system_id":"levelo_inurba_marseille","lat":43.29006,"lon":5.35618,"is_reserved":false,"is_disabled":false,"rental_uris":{"android":"levelo://app?vid=7ddcdfa6-dfef-4306-a5e4-dedee5a0d019","ios":"levelo://app?vid=7ddcdfa6-dfef-4306-a5e4-dedee5a0d019"},"vehicle_type_id":"4","last_reported":1748441448,"current_range_meters":8800,"station_id":"ce4bhb92rcd13ifvqen0","pricing_plan_id":"cebpf4jnsgd1na2vs0mg"},{"bike_id":"c98963b4-c6fb-469c-bfaa-0a3d1e373178","system_id":"levelo_inurba_marseille","lat":43.24162,"lon":5.36415,"is_reserved":false,"is_disabled":false,"rental_uris":{"android":"levelo://app?vid=c98963b4-c6fb-469c-bfaa-0a3d1e373178","ios":"levelo://app?vid=c98963b4-c6fb-469c-bfaa-0a3d1e373178"},"vehicle_type_id":"4","last_reported":1748441448,"current_range_meters":8800,"station_id":"cpo36qri1sfpv3e86is0","pricing_plan_id":"cebpf4jnsgd1na2vs0mg"},{"bike_id":"77e92efa-2f30-4d04-860c-bdbbef132ac5","system_id":"levelo_inurba_marseille","lat":43.30534,"lon":5.3672,"is_reserved":false,"is_disabled":false,"rental_uris":{"android":"levelo://app?vid=77e92efa-2f30-4d04-860c-bdbbef132ac5","ios":"levelo://app?vid=77e92efa-2f30-4d04-860c-bdbbef132ac5"},"vehicle_type_id":"4","last_reported":1748441448,"current_range_meters":8800,"station_id":"ce4bgrp2rcd13ifvqc9g","pricing_plan_id":"cebpf4jnsgd1na2vs0mg"},{"bike_id":"d06cebcb-9332-4509-99cb-c582523dd119","system_id":"levelo_inurba_marseille","lat":43.30543,"lon":5.36548,"is_reserved":false,"is_disabled":false,"rental_uris":{"android":"levelo://app?vid=d06cebcb-9332-4509-99cb-c582523dd119","ios":"levelo://app?vid=d06cebcb-9332-4509-99cb-c582523dd119"},"vehicle_type_id":"4","last_reported":1748441448,"current_range_meters":8800,"station_id":"ce4bgs12rcd13ifvqcag","pricing_plan_id":"cebpf4jnsgd1na2vs0mg"},{"bike_id":"aa4eeb3d-8a87-4d70-bbb9-ae22a2e3f103","system_id":"levelo_inurba_marseille","lat":43.286161,"lon":5.351111,"is_reserved":false,"is_disabled":false,"rental_uris":{"android":"levelo://app?vid=aa4eeb3d-8a87-4d70-bbb9-ae22a2e3f103","ios":"levelo://app?vid=aa4eeb3d-8a87-4d70-bbb9-ae22a2e3f103"},"vehicle_type_id":"4","last_reported":1748441448,"current_range_meters":9200,"station_id":"ce4bhch2rcd13ifvqeug","pricing_plan_id":"cebpf4jnsgd1na2vs0mg"},{"bike_id":"4b04b1e6-7ad3-4768-81e4-2f1bdb89d1e3","system_id":"levelo_inurba_marseille","lat":43.25107,"lon":5.4033,"is_reserved":false,"is_disabled":false,"rental_uris":{"android":"levelo://app?vid=4b04b1e6-7ad3-4768-81e4-2f1bdb89d1e3","ios":"levelo://app?vid=4b04b1e6-7ad3-4768-81e4-2f1bdb89d1e3"},"vehicle_type_id":"4","last_reported":1748441448,"current_range_meters":9200,"station_id":"ce4bhlh2rcd13ifvqgig","pricing_plan_id":"cebpf4jnsgd1na2vs0mg"},{"bike_id":"524b402d-83ef-4088-9a8d-5fe7be6e768c","system_id":"levelo_inurba_marseille","lat":43.2762,"lon":5.36115,"is_reserved":false,"is_disabled":false,"rental_uris":{"android":"levelo://app?vid=524b402d-83ef-4088-9a8d-5fe7be6e768c","ios":"levelo://app?vid=524b402d-83ef-4088-9a8d-5fe7be6e768c"},"vehicle_type_id":"4","last_reported":1748441448,"current_range_meters":9200,"station_id":"ce4bgj92rcd13ifvqbe0","pricing_plan_id":"cebpf4jnsgd1na2vs0mg"},{"bike_id":"b80ee325-09b2-4724-993d-4f8d3707c41c","system_id":"levelo_inurba_marseille","lat":43.25862,"lon":5.39902,"is_reserved":false,"is_disabled":false,"rental_uris":{"android":"levelo://app?vid=b80ee325-09b2-4724-993d-4f8d3707c41c","ios":"levelo://app?vid=b80ee325-09b2-4724-993d-4f8d3707c41c"},"vehicle_type_id":"4","last_reported":1748441448,"current_range_meters":9200,"station_id":"ce4bhl92rcd13ifvqghg","pricing_plan_id":"cebpf4jnsgd1na2vs0mg"},{"bike_id":"6ad96cac-d1d5-4308-a518-8bd40f3da0a0","system_id":"levelo_inurba_marseille","lat":43.26548,"lon":5.37294,"is_reserved":false,"is_disabled":false,"rental_uris":{"android":"levelo://app?vid=6ad96cac-d1d5-4308-a518-8bd40f3da0a0","ios":"levelo://app?vid=6ad96cac-d1d5-4308-a518-8bd40f3da0a0"},"vehicle_type_id":"4","last_reported":1748441448,"current_range_meters":9200,"station_id":"ce4bhg12rcd13ifvqf70","pricing_plan_id":"cebpf4jnsgd1na2vs0mg"},{"bike_id":"ce9bddda-37bb-453a-b969-e5b5ac030feb","system_id":"levelo_inurba_marseille","lat":43.299412,"lon":5.365471,"is_reserved":false,"is_disabled":false,"rental_uris":{"android":"levelo://app?vid=ce9bddda-37bb-453a-b969-e5b5ac030feb","ios":"levelo://app?vid=ce9bddda-37bb-453a-b969-e5b5ac030feb"},"vehicle_type_id":"4","last_reported":1748441448,"current_range_meters":9200,"station_id":"ce4bgqh2rcd13ifvqc5g","pricing_plan_id":"cebpf4jnsgd1na2vs0mg"},{"bike_id":"4f4c6b00-ef70-45af-bf83-e61230b891b2","system_id":"levelo_inurba_marseille","lat":43.28282,"lon":5.35098,"is_reserved":false,"is_disabled":false,"rental_uris":{"android":"levelo://app?vid=4f4c6b00-ef70-45af-bf83-e61230b891b2","ios":"levelo://app?vid=4f4c6b00-ef70-45af-bf83-e61230b891b2"},"vehicle_type_id":"4","last_reported":1748441448,"current_range_meters":9200,"station_id":"ce4bhbp2rcd13ifvqerg","pricing_plan_id":"cebpf4jnsgd1na2vs0mg"},{"bike_id":"6999eccf-f62f-4d09-8e6b-b71c58a8c2a0","system_id":"levelo_inurba_marseille","lat":43.29198,"lon":5.35814,"is_reserved":false,"is_disabled":false,"rental_uris":{"android":"levelo://app?vid=6999eccf-f62f-4d09-8e6b-b71c58a8c2a0","ios":"levelo://app?vid=6999eccf-f62f-4d09-8e6b-b71c58a8c2a0"},"vehicle_type_id":"4","last_reported":1748441448,"current_range_meters":9200,"station_id":"ce4bhb12rcd13ifvqel0","pricing_plan_id":"cebpf4jnsgd1na2vs0mg"},{"bike_id":"fd81ac77-6bcd-4aa0-93ec-22b46fb592b3","system_id":"levelo_inurba_marseille","lat":43.2804,"lon":5.36956,"is_reserved":false,"is_disabled":false,"rental_uris":{"android":"levelo://app?vid=fd81ac77-6bcd-4aa0-93ec-22b46fb592b3","ios":"levelo://app?vid=fd81ac77-6bcd-4aa0-93ec-22b46fb592b3"},"vehicle_type_id":"4","last_reported":1748441448,"current_range_meters":9200,"station_id":"ce4bha12rcd13ifvqef0","pricing_plan_id":"cebpf4jnsgd1na2vs0mg"},{"bike_id":"cd62cdac-8283-44f0-8c38-4d448937cd1e","system_id":"levelo_inurba_marseille","lat":43.30208,"lon":5.39475,"is_reserved":false,"is_disabled":false,"rental_uris":{"android":"levelo://app?vid=cd62cdac-8283-44f0-8c38-4d448937cd1e","ios":"levelo://app?vid=cd62cdac-8283-44f0-8c38-4d448937cd1e"},"vehicle_type_id":"4","last_reported":1748441448,"current_range_meters":9200,"station_id":"ce4bh0p2rcd13ifvqd70","pricing_plan_id":"cebpf4jnsgd1na2vs0mg"},{"bike_id":"9ea0d6a2-7806-4bff-aaeb-cb8f118c3cc5","system_id":"levelo_inurba_marseille","lat":43.24549,"lon":5.3952,"is_reserved":false,"is_disabled":false,"rental_uris":{"android":"levelo://app?vid=9ea0d6a2-7806-4bff-aaeb-cb8f118c3cc5","ios":"levelo://app?vid=9ea0d6a2-7806-4bff-aaeb-cb8f118c3cc5"},"vehicle_type_id":"4","last_reported":1748441448,"current_range_meters":9600,"station_id":"ce4bhlp2rcd13ifvqgjg","pricing_plan_id":"cebpf4jnsgd1na2vs0mg"},{"bike_id":"4e4e629c-da04-4c5e-9646-115a6d3efffa","system_id":"levelo_inurba_marseille","lat":43.28671,"lon":5.3866,"is_reserved":false,"is_disabled":false,"rental_uris":{"android":"levelo://app?vid=4e4e629c-da04-4c5e-9646-115a6d3efffa","ios":"levelo://app?vid=4e4e629c-da04-4c5e-9646-115a6d3efffa"},"vehicle_type_id":"4","last_reported":1748441448,"current_range_meters":9600,"station_id":"ce4bh492rcd13ifvqdug","pricing_plan_id":"cebpf4jnsgd1na2vs0mg"},{"bike_id":"fcf11e6c-0e27-4e51-a890-c1e385240db5","system_id":"levelo_inurba_marseille","lat":43.29858,"lon":5.36263,"is_reserved":false,"is_disabled":false,"rental_uris":{"android":"levelo://app?vid=fcf11e6c-0e27-4e51-a890-c1e385240db5","ios":"levelo://app?vid=fcf11e6c-0e27-4e51-a890-c1e385240db5"},"vehicle_type_id":"4","last_reported":1748441448,"current_range_meters":9600,"station_id":"ce4bgpp2rcd13ifvqc3g","pricing_plan_id":"cebpf4jnsgd1na2vs0mg"},{"bike_id":"650399ea-d060-4119-8eda-f5e15d9a2d68","system_id":"levelo_inurba_marseille","lat":43.2739,"lon":5.36246,"is_reserved":false,"is_disabled":false,"rental_uris":{"android":"levelo://app?vid=650399ea-d060-4119-8eda-f5e15d9a2d68","ios":"levelo://app?vid=650399ea-d060-4119-8eda-f5e15d9a2d68"},"vehicle_type_id":"4","last_reported":1748441448,"current_range_meters":9600,"station_id":"ce4bhbh2rcd13ifvqeo0","pricing_plan_id":"cebpf4jnsgd1na2vs0mg"},{"bike_id":"6cacb546-e029-4680-9c78-116f351ab55d","system_id":"levelo_inurba_marseille","lat":43.316915,"lon":5.37756,"is_reserved":false,"is_disabled":false,"rental_uris":{"android":"levelo://app?vid=6cacb546-e029-4680-9c78-116f351ab55d","ios":"levelo://app?vid=6cacb546-e029-4680-9c78-116f351ab55d"},"vehicle_type_id":"4","last_reported":1748441448,"current_range_meters":9200,"station_id":"ce4bgth2rcd13ifvqch0","pricing_plan_id":"cebpf4jnsgd1na2vs0mg"},{"bike_id":"64f2c880-255f-4be5-8d52-d7ea76fcad57","system_id":"levelo_inurba_marseille","lat":43.269433,"lon":5.402534,"is_reserved":false,"is_disabled":false,"rental_uris":{"android":"levelo://app?vid=64f2c880-255f-4be5-8d52-d7ea76fcad57","ios":"levelo://app?vid=64f2c880-255f-4be5-8d52-d7ea76fcad57"},"vehicle_type_id":"4","last_reported":1748441448,"current_range_meters":9200,"station_id":"cjm6bp8fraef2m0cb0m0","pricing_plan_id":"cebpf4jnsgd1na2vs0mg"},{"bike_id":"dbf52771-fbce-4ac8-b2de-8b0e72fd38e2","system_id":"levelo_inurba_marseille","lat":43.30183,"lon":5.36615,"is_reserved":false,"is_disabled":false,"rental_uris":{"android":"levelo://app?vid=dbf52771-fbce-4ac8-b2de-8b0e72fd38e2","ios":"levelo://app?vid=dbf52771-fbce-4ac8-b2de-8b0e72fd38e2"},"vehicle_type_id":"4","last_reported":1748441448,"current_range_meters":9600,"station_id":"ce4bgrh2rcd13ifvqc8g","pricing_plan_id":"cebpf4jnsgd1na2vs0mg"},{"bike_id":"16578a9c-c460-4d38-be25-a20250881a73","system_id":"levelo_inurba_marseille","lat":43.32215,"lon":5.38444,"is_reserved":false,"is_disabled":false,"rental_uris":{"android":"levelo://app?vid=16578a9c-c460-4d38-be25-a20250881a73","ios":"levelo://app?vid=16578a9c-c460-4d38-be25-a20250881a73"},"vehicle_type_id":"4","last_reported":1748441448,"current_range_meters":9600,"station_id":"","pricing_plan_id":"cebpf4jnsgd1na2vs0mg"},{"bike_id":"57c7b985-ed3e-43d9-8066-0aa9d3be9dbc","system_id":"levelo_inurba_marseille","lat":43.24649,"lon":5.38905,"is_reserved":false,"is_disabled":false,"rental_uris":{"android":"levelo://app?vid=57c7b985-ed3e-43d9-8066-0aa9d3be9dbc","ios":"levelo://app?vid=57c7b985-ed3e-43d9-8066-0aa9d3be9dbc"},"vehicle_type_id":"4","last_reported":1748441448,"current_range_meters":9600,"station_id":"ce4bhg12rcd13ifvqf60","pricing_plan_id":"cebpf4jnsgd1na2vs0mg"},{"bike_id":"899e1268-d43c-4ee2-9675-87d26f2979db","system_id":"levelo_inurba_marseille","lat":43.286168,"lon":5.351056,"is_reserved":false,"is_disabled":false,"rental_uris":{"android":"levelo://app?vid=899e1268-d43c-4ee2-9675-87d26f2979db","ios":"levelo://app?vid=899e1268-d43c-4ee2-9675-87d26f2979db"},"vehicle_type_id":"4","last_reported":1748441448,"current_range_meters":9600,"station_id":"ce4bhch2rcd13ifvqeug","pricing_plan_id":"cebpf4jnsgd1na2vs0mg"},{"bike_id":"779c888d-bb81-42f6-a81b-157381601163","system_id":"levelo_inurba_marseille","lat":43.2738,"lon":5.36254,"is_reserved":false,"is_disabled":false,"rental_uris":{"android":"levelo://app?vid=779c888d-bb81-42f6-a81b-157381601163","ios":"levelo://app?vid=779c888d-bb81-42f6-a81b-157381601163"},"vehicle_type_id":"4","last_reported":1748441448,"current_range_meters":10000,"station_id":"ce4bhbh2rcd13ifvqeo0","pricing_plan_id":"cebpf4jnsgd1na2vs0mg"},{"bike_id":"ffb631e1-e539-4285-a35e-85c606043dc7","system_id":"levelo_inurba_marseille","lat":43.31064,"lon":5.38358,"is_reserved":false,"is_disabled":false,"rental_uris":{"android":"levelo://app?vid=ffb631e1-e539-4285-a35e-85c606043dc7","ios":"levelo://app?vid=ffb631e1-e539-4285-a35e-85c606043dc7"},"vehicle_type_id":"4","last_reported":1748441448,"current_range_meters":10000,"station_id":"ce4bgv92rcd13ifvqcr0","pricing_plan_id":"cebpf4jnsgd1na2vs0mg"},{"bike_id":"7600b507-c408-49b5-a147-cf97c33971ac","system_id":"levelo_inurba_marseille","lat":43.305978,"lon":5.37224,"is_reserved":false,"is_disabled":false,"rental_uris":{"android":"levelo://app?vid=7600b507-c408-49b5-a147-cf97c33971ac","ios":"levelo://app?vid=7600b507-c408-49b5-a147-cf97c33971ac"},"vehicle_type_id":"4","last_reported":1748441448,"current_range_meters":10000,"station_id":"ce4bgqh2rcd13ifvqc4g","pricing_plan_id":"cebpf4jnsgd1na2vs0mg"},{"bike_id":"8bb1ee03-1614-4cf4-8bf0-0a8570db7b63","system_id":"levelo_inurba_marseille","lat":43.27372,"lon":5.36239,"is_reserved":false,"is_disabled":false,"rental_uris":{"android":"levelo://app?vid=8bb1ee03-1614-4cf4-8bf0-0a8570db7b63","ios":"levelo://app?vid=8bb1ee03-1614-4cf4-8bf0-0a8570db7b63"},"vehicle_type_id":"4","last_reported":1748441448,"current_range_meters":10000,"station_id":"ce4bhbh2rcd13ifvqeo0","pricing_plan_id":"cebpf4jnsgd1na2vs0mg"},{"bike_id":"e95a56c5-63b9-43cd-a7a0-efba3b36032c","system_id":"levelo_inurba_marseille","lat":43.26939,"lon":5.40254,"is_reserved":false,"is_disabled":false,"rental_uris":{"android":"levelo://app?vid=e95a56c5-63b9-43cd-a7a0-efba3b36032c","ios":"levelo://app?vid=e95a56c5-63b9-43cd-a7a0-efba3b36032c"},"vehicle_type_id":"4","last_reported":1748441448,"current_range_meters":10000,"station_id":"cjm6bp8fraef2m0cb0m0","pricing_plan_id":"cebpf4jnsgd1na2vs0mg"},{"bike_id":"abc12115-d295-4d9c-9efb-fdc2516ac723","system_id":"levelo_inurba_marseille","lat":43.31485,"lon":5.37281,"is_reserved":false,"is_disabled":false,"rental_uris":{"android":"levelo://app?vid=abc12115-d295-4d9c-9efb-fdc2516ac723","ios":"levelo://app?vid=abc12115-d295-4d9c-9efb-fdc2516ac723"},"vehicle_type_id":"4","last_reported":1748441448,"current_range_meters":10000,"station_id":"ce4bgt12rcd13ifvqcd0","pricing_plan_id":"cebpf4jnsgd1na2vs0mg"},{"bike_id":"e886fca3-1035-4416-9930-a82ebe7e8dc5","system_id":"levelo_inurba_marseille","lat":43.2717,"lon":5.40986,"is_reserved":false,"is_disabled":false,"rental_uris":{"android":"levelo://app?vid=e886fca3-1035-4416-9930-a82ebe7e8dc5","ios":"levelo://app?vid=e886fca3-1035-4416-9930-a82ebe7e8dc5"},"vehicle_type_id":"4","last_reported":1748441448,"current_range_meters":10800,"station_id":"ce4bhl12rcd13ifvqgf0","pricing_plan_id":"cebpf4jnsgd1na2vs0mg"},{"bike_id":"08ea8800-5cc3-4776-8cf1-9d681af11069","system_id":"levelo_inurba_marseille","lat":43.29196,"lon":5.35826,"is_reserved":false,"is_disabled":false,"rental_uris":{"android":"levelo://app?vid=08ea8800-5cc3-4776-8cf1-9d681af11069","ios":"levelo://app?vid=08ea8800-5cc3-4776-8cf1-9d681af11069"},"vehicle_type_id":"4","last_reported":1748441448,"current_range_meters":10800,"station_id":"ce4bhb12rcd13ifvqel0","pricing_plan_id":"cebpf4jnsgd1na2vs0mg"},{"bike_id":"f58a3b40-4c86-49ff-9ae2-2f76f252dbaa","system_id":"levelo_inurba_marseille","lat":43.247955,"lon":5.37452,"is_reserved":false,"is_disabled":false,"rental_uris":{"android":"levelo://app?vid=f58a3b40-4c86-49ff-9ae2-2f76f252dbaa","ios":"levelo://app?vid=f58a3b40-4c86-49ff-9ae2-2f76f252dbaa"},"vehicle_type_id":"4","last_reported":1748441448,"current_range_meters":10000,"station_id":"ce4bhgh2rcd13ifvqfb0","pricing_plan_id":"cebpf4jnsgd1na2vs0mg"},{"bike_id":"a2c97d6a-6888-4b00-93c1-205dfcbde7b1","system_id":"levelo_inurba_marseille","lat":43.259424,"lon":5.409024,"is_reserved":false,"is_disabled":false,"rental_uris":{"android":"levelo://app?vid=a2c97d6a-6888-4b00-93c1-205dfcbde7b1","ios":"levelo://app?vid=a2c97d6a-6888-4b00-93c1-205dfcbde7b1"},"vehicle_type_id":"4","last_reported":1748441448,"current_range_meters":10800,"station_id":"ce4bhm92rcd13ifvqglg","pricing_plan_id":"cebpf4jnsgd1na2vs0mg"},{"bike_id":"1e6e288c-e4d4-426d-9934-6c16dd4ed208","system_id":"levelo_inurba_marseille","lat":43.32114,"lon":5.3678,"is_reserved":false,"is_disabled":false,"rental_uris":{"android":"levelo://app?vid=1e6e288c-e4d4-426d-9934-6c16dd4ed208","ios":"levelo://app?vid=1e6e288c-e4d4-426d-9934-6c16dd4ed208"},"vehicle_type_id":"4","last_reported":1748441448,"current_range_meters":10800,"station_id":"ce4bhrh2rcd13ifvqhug","pricing_plan_id":"cebpf4jnsgd1na2vs0mg"},{"bike_id":"9e89020d-719f-44f2-b2da-3363a70a01c1","system_id":"levelo_inurba_marseille","lat":43.28071,"lon":5.39643,"is_reserved":false,"is_disabled":false,"rental_uris":{"android":"levelo://app?vid=9e89020d-719f-44f2-b2da-3363a70a01c1","ios":"levelo://app?vid=9e89020d-719f-44f2-b2da-3363a70a01c1"},"vehicle_type_id":"4","last_reported":1748441448,"current_range_meters":10800,"station_id":"ce4bho12rcd13ifvqh2g","pricing_plan_id":"cebpf4jnsgd1na2vs0mg"},{"bike_id":"5e703e03-e240-4b49-9f2f-4a5035fe04a6","system_id":"levelo_inurba_marseille","lat":43.27377,"lon":5.36262,"is_reserved":false,"is_disabled":false,"rental_uris":{"android":"levelo://app?vid=5e703e03-e240-4b49-9f2f-4a5035fe04a6","ios":"levelo://app?vid=5e703e03-e240-4b49-9f2f-4a5035fe04a6"},"vehicle_type_id":"4","last_reported":1748441448,"current_range_meters":10800,"station_id":"ce4bhbh2rcd13ifvqeo0","pricing_plan_id":"cebpf4jnsgd1na2vs0mg"},{"bike_id":"493ade31-9174-4387-8a32-a8a0bbcadf88","system_id":"levelo_inurba_marseille","lat":43.30139,"lon":5.37413,"is_reserved":false,"is_disabled":false,"rental_uris":{"android":"levelo://app?vid=493ade31-9174-4387-8a32-a8a0bbcadf88","ios":"levelo://app?vid=493ade31-9174-4387-8a32-a8a0bbcadf88"},"vehicle_type_id":"4","last_reported":1748441448,"current_range_meters":10800,"station_id":"ce4bgs92rcd13ifvqcc0","pricing_plan_id":"cebpf4jnsgd1na2vs0mg"},{"bike_id":"6a694417-653b-4864-bf10-7591d68482f2","system_id":"levelo_inurba_marseille","lat":43.24807,"lon":5.37453,"is_reserved":false,"is_disabled":false,"rental_uris":{"android":"levelo://app?vid=6a694417-653b-4864-bf10-7591d68482f2","ios":"levelo://app?vid=6a694417-653b-4864-bf10-7591d68482f2"},"vehicle_type_id":"4","last_reported":1748441448,"current_range_meters":10800,"station_id":"ce4bhgh2rcd13ifvqfb0","pricing_plan_id":"cebpf4jnsgd1na2vs0mg"},{"bike_id":"15f46853-6d27-4048-9ac8-e04b0b39e7a0","system_id":"levelo_inurba_marseille","lat":43.29279,"lon":5.40117,"is_reserved":false,"is_disabled":false,"rental_uris":{"android":"levelo://app?vid=15f46853-6d27-4048-9ac8-e04b0b39e7a0","ios":"levelo://app?vid=15f46853-6d27-4048-9ac8-e04b0b39e7a0"},"vehicle_type_id":"4","last_reported":1748441448,"current_range_meters":10800,"station_id":"ce4bh312rcd13ifvqdk0","pricing_plan_id":"cebpf4jnsgd1na2vs0mg"},{"bike_id":"292489fd-4ea3-4f79-a7fe-73e043578ddb","system_id":"levelo_inurba_marseille","lat":43.27078,"lon":5.40253,"is_reserved":false,"is_disabled":false,"rental_uris":{"android":"levelo://app?vid=292489fd-4ea3-4f79-a7fe-73e043578ddb","ios":"levelo://app?vid=292489fd-4ea3-4f79-a7fe-73e043578ddb"},"vehicle_type_id":"4","last_reported":1748441448,"current_range_meters":11200,"station_id":"ce4bhk92rcd13ifvqgc0","pricing_plan_id":"cebpf4jnsgd1na2vs0mg"},{"bike_id":"31fcdf60-365c-4b43-a6f5-0c8c20caa241","system_id":"levelo_inurba_marseille","lat":43.302908,"lon":5.392137,"is_reserved":false,"is_disabled":false,"rental_uris":{"android":"levelo://app?vid=31fcdf60-365c-4b43-a6f5-0c8c20caa241","ios":"levelo://app?vid=31fcdf60-365c-4b43-a6f5-0c8c20caa241"},"vehicle_type_id":"4","last_reported":1748441448,"current_range_meters":11200,"station_id":"ce4bgkh2rcd13ifvqbk0","pricing_plan_id":"cebpf4jnsgd1na2vs0mg"},{"bike_id":"23c8aa35-2354-47c5-bb62-3f4fa7337d00","system_id":"levelo_inurba_marseille","lat":43.27998,"lon":5.40021,"is_reserved":false,"is_disabled":false,"rental_uris":{"android":"levelo://app?vid=23c8aa35-2354-47c5-bb62-3f4fa7337d00","ios":"levelo://app?vid=23c8aa35-2354-47c5-bb62-3f4fa7337d00"},"vehicle_type_id":"4","last_reported":1748441448,"current_range_meters":10800,"station_id":"ce4bho92rcd13ifvqh4g","pricing_plan_id":"cebpf4jnsgd1na2vs0mg"},{"bike_id":"f203ad0c-7735-4126-ad9b-3b31f5fece05","system_id":"levelo_inurba_marseille","lat":43.30931,"lon":5.40149,"is_reserved":false,"is_disabled":false,"rental_uris":{"android":"levelo://app?vid=f203ad0c-7735-4126-ad9b-3b31f5fece05","ios":"levelo://app?vid=f203ad0c-7735-4126-ad9b-3b31f5fece05"},"vehicle_type_id":"4","last_reported":1748441448,"current_range_meters":11200,"station_id":"ce4bgvp2rcd13ifvqct0","pricing_plan_id":"cebpf4jnsgd1na2vs0mg"},{"bike_id":"a6b22df3-fb1b-464e-be3e-8b796f13a98d","system_id":"levelo_inurba_marseille","lat":43.29353,"lon":5.37854,"is_reserved":false,"is_disabled":false,"rental_uris":{"android":"levelo://app?vid=a6b22df3-fb1b-464e-be3e-8b796f13a98d","ios":"levelo://app?vid=a6b22df3-fb1b-464e-be3e-8b796f13a98d"},"vehicle_type_id":"4","last_reported":1748441448,"current_range_meters":11200,"station_id":"ce4bgjh2rcd13ifvqbf0","pricing_plan_id":"cebpf4jnsgd1na2vs0mg"},{"bike_id":"7e195a62-25bd-4a1b-802d-60a93f1ec90e","system_id":"levelo_inurba_marseille","lat":43.2414,"lon":5.36428,"is_reserved":false,"is_disabled":false,"rental_uris":{"android":"levelo://app?vid=7e195a62-25bd-4a1b-802d-60a93f1ec90e","ios":"levelo://app?vid=7e195a62-25bd-4a1b-802d-60a93f1ec90e"},"vehicle_type_id":"4","last_reported":1748441448,"current_range_meters":11200,"station_id":"cpo36qri1sfpv3e86is0","pricing_plan_id":"cebpf4jnsgd1na2vs0mg"},{"bike_id":"d1fb5a65-728e-4119-9148-bffd74b0b4e7","system_id":"levelo_inurba_marseille","lat":43.30542,"lon":5.36556,"is_reserved":false,"is_disabled":false,"rental_uris":{"android":"levelo://app?vid=d1fb5a65-728e-4119-9148-bffd74b0b4e7","ios":"levelo://app?vid=d1fb5a65-728e-4119-9148-bffd74b0b4e7"},"vehicle_type_id":"4","last_reported":1748441448,"current_range_meters":11600,"station_id":"ce4bgs12rcd13ifvqcag","pricing_plan_id":"cebpf4jnsgd1na2vs0mg"},{"bike_id":"c84f8025-f392-4efb-8662-faa8b7ebbd21","system_id":"levelo_inurba_marseille","lat":43.295066,"lon":5.374448,"is_reserved":false,"is_disabled":false,"rental_uris":{"android":"levelo://app?vid=c84f8025-f392-4efb-8662-faa8b7ebbd21","ios":"levelo://app?vid=c84f8025-f392-4efb-8662-faa8b7ebbd21"},"vehicle_type_id":"4","last_reported":1748441448,"current_range_meters":11600,"station_id":"ce4bgh92rcd13ifvqb50","pricing_plan_id":"cebpf4jnsgd1na2vs0mg"},{"bike_id":"95569110-f650-4837-8774-8d97e169f37f","system_id":"levelo_inurba_marseille","lat":43.29176,"lon":5.35804,"is_reserved":false,"is_disabled":false,"rental_uris":{"android":"levelo://app?vid=95569110-f650-4837-8774-8d97e169f37f","ios":"levelo://app?vid=95569110-f650-4837-8774-8d97e169f37f"},"vehicle_type_id":"4","last_reported":1748441448,"current_range_meters":11600,"station_id":"ce4bhb12rcd13ifvqel0","pricing_plan_id":"cebpf4jnsgd1na2vs0mg"},{"bike_id":"7c14ccea-c78e-4191-9689-ec1d6b7a9c0e","system_id":"levelo_inurba_marseille","lat":43.23192,"lon":5.35557,"is_reserved":false,"is_disabled":false,"rental_uris":{"android":"levelo://app?vid=7c14ccea-c78e-4191-9689-ec1d6b7a9c0e","ios":"levelo://app?vid=7c14ccea-c78e-4191-9689-ec1d6b7a9c0e"},"vehicle_type_id":"4","last_reported":1748441448,"current_range_meters":11600,"station_id":"ce4bhu92rcd13ifvqi70","pricing_plan_id":"cebpf4jnsgd1na2vs0mg"},{"bike_id":"5e0d93d9-7389-45d1-a3d8-df4e5386a4d6","system_id":"levelo_inurba_marseille","lat":43.23207,"lon":5.35549,"is_reserved":false,"is_disabled":false,"rental_uris":{"android":"levelo://app?vid=5e0d93d9-7389-45d1-a3d8-df4e5386a4d6","ios":"levelo://app?vid=5e0d93d9-7389-45d1-a3d8-df4e5386a4d6"},"vehicle_type_id":"4","last_reported":1748441448,"current_range_meters":11600,"station_id":"ce4bhu92rcd13ifvqi70","pricing_plan_id":"cebpf4jnsgd1na2vs0mg"},{"bike_id":"7b135a55-bb7b-4735-918f-370e1a38894f","system_id":"levelo_inurba_marseille","lat":43.245481,"lon":5.395306,"is_reserved":false,"is_disabled":false,"rental_uris":{"android":"levelo://app?vid=7b135a55-bb7b-4735-918f-370e1a38894f","ios":"levelo://app?vid=7b135a55-bb7b-4735-918f-370e1a38894f"},"vehicle_type_id":"4","last_reported":1748441448,"current_range_meters":11200,"station_id":"ce4bhlp2rcd13ifvqgjg","pricing_plan_id":"cebpf4jnsgd1na2vs0mg"},{"bike_id":"39fff222-849d-4502-bd15-fdb15fa72a7d","system_id":"levelo_inurba_marseille","lat":43.28624,"lon":5.35094,"is_reserved":false,"is_disabled":false,"rental_uris":{"android":"levelo://app?vid=39fff222-849d-4502-bd15-fdb15fa72a7d","ios":"levelo://app?vid=39fff222-849d-4502-bd15-fdb15fa72a7d"},"vehicle_type_id":"4","last_reported":1748441448,"current_range_meters":11600,"station_id":"ce4bhch2rcd13ifvqeug","pricing_plan_id":"cebpf4jnsgd1na2vs0mg"},{"bike_id":"8530e6b3-30fb-4817-a73e-3b059fa255dc","system_id":"levelo_inurba_marseille","lat":43.30149,"lon":5.38088,"is_reserved":false,"is_disabled":false,"rental_uris":{"android":"levelo://app?vid=8530e6b3-30fb-4817-a73e-3b059fa255dc","ios":"levelo://app?vid=8530e6b3-30fb-4817-a73e-3b059fa255dc"},"vehicle_type_id":"4","last_reported":1748441448,"current_range_meters":11200,"station_id":"ce4bgjp2rcd13ifvqbh0","pricing_plan_id":"cebpf4jnsgd1na2vs0mg"},{"bike_id":"2f650bb1-6027-4191-83d2-16315820a0a7","system_id":"levelo_inurba_marseille","lat":43.300025,"lon":5.373403,"is_reserved":false,"is_disabled":false,"rental_uris":{"android":"levelo://app?vid=2f650bb1-6027-4191-83d2-16315820a0a7","ios":"levelo://app?vid=2f650bb1-6027-4191-83d2-16315820a0a7"},"vehicle_type_id":"4","last_reported":1748441448,"current_range_meters":11600,"station_id":"","pricing_plan_id":"cebpf4jnsgd1na2vs0mg"},{"bike_id":"054d379c-21c9-4f69-9b37-7c366685dbae","system_id":"levelo_inurba_marseille","lat":43.324674,"lon":5.415227,"is_reserved":false,"is_disabled":false,"rental_uris":{"android":"levelo://app?vid=054d379c-21c9-4f69-9b37-7c366685dbae","ios":"levelo://app?vid=054d379c-21c9-4f69-9b37-7c366685dbae"},"vehicle_type_id":"4","last_reported":1748441448,"current_range_meters":11600,"station_id":"ce4bhq12rcd13ifvqhhg","pricing_plan_id":"cebpf4jnsgd1na2vs0mg"},{"bike_id":"9c724d30-4ddc-42b8-abe2-bd3f324f9946","system_id":"levelo_inurba_marseille","lat":43.24179,"lon":5.36395,"is_reserved":false,"is_disabled":false,"rental_uris":{"android":"levelo://app?vid=9c724d30-4ddc-42b8-abe2-bd3f324f9946","ios":"levelo://app?vid=9c724d30-4ddc-42b8-abe2-bd3f324f9946"},"vehicle_type_id":"4","last_reported":1748441448,"current_range_meters":11600,"station_id":"cpo36qri1sfpv3e86is0","pricing_plan_id":"cebpf4jnsgd1na2vs0mg"},{"bike_id":"fdfa7863-9967-4d31-ae32-f03efdd733b9","system_id":"levelo_inurba_marseille","lat":43.33016,"lon":5.39031,"is_reserved":false,"is_disabled":false,"rental_uris":{"android":"levelo://app?vid=fdfa7863-9967-4d31-ae32-f03efdd733b9","ios":"levelo://app?vid=fdfa7863-9967-4d31-ae32-f03efdd733b9"},"vehicle_type_id":"4","last_reported":1748441448,"current_range_meters":11600,"station_id":"ce4bhr92rcd13ifvqhrg","pricing_plan_id":"cebpf4jnsgd1na2vs0mg"},{"bike_id":"198d7c37-a1bf-44c9-b034-56b3cccd01b1","system_id":"levelo_inurba_marseille","lat":43.24802,"lon":5.37452,"is_reserved":false,"is_disabled":false,"rental_uris":{"android":"levelo://app?vid=198d7c37-a1bf-44c9-b034-56b3cccd01b1","ios":"levelo://app?vid=198d7c37-a1bf-44c9-b034-56b3cccd01b1"},"vehicle_type_id":"4","last_reported":1748441448,"current_range_meters":11600,"station_id":"ce4bhgh2rcd13ifvqfb0","pricing_plan_id":"cebpf4jnsgd1na2vs0mg"},{"bike_id":"c8d6c3ef-d27a-4960-9fa2-7abf209d84d2","system_id":"levelo_inurba_marseille","lat":43.28717,"lon":5.36107,"is_reserved":false,"is_disabled":false,"rental_uris":{"android":"levelo://app?vid=c8d6c3ef-d27a-4960-9fa2-7abf209d84d2","ios":"levelo://app?vid=c8d6c3ef-d27a-4960-9fa2-7abf209d84d2"},"vehicle_type_id":"4","last_reported":1748441448,"current_range_meters":12000,"station_id":"cki0cbj6b192h4jlfktg","pricing_plan_id":"cebpf4jnsgd1na2vs0mg"},{"bike_id":"3d76f397-8dc2-4dd5-ac0a-46dc586b5d21","system_id":"levelo_inurba_marseille","lat":43.30938,"lon":5.40151,"is_reserved":false,"is_disabled":false,"rental_uris":{"android":"levelo://app?vid=3d76f397-8dc2-4dd5-ac0a-46dc586b5d21","ios":"levelo://app?vid=3d76f397-8dc2-4dd5-ac0a-46dc586b5d21"},"vehicle_type_id":"4","last_reported":1748441448,"current_range_meters":12000,"station_id":"ce4bgvp2rcd13ifvqct0","pricing_plan_id":"cebpf4jnsgd1na2vs0mg"},{"bike_id":"1cd9005d-4de4-4823-90c7-023c450b1dc0","system_id":"levelo_inurba_marseille","lat":43.28698,"lon":5.3738,"is_reserved":false,"is_disabled":false,"rental_uris":{"android":"levelo://app?vid=1cd9005d-4de4-4823-90c7-023c450b1dc0","ios":"levelo://app?vid=1cd9005d-4de4-4823-90c7-023c450b1dc0"},"vehicle_type_id":"4","last_reported":1748441448,"current_range_meters":12000,"station_id":"ce4bh3p2rcd13ifvqdq0","pricing_plan_id":"cebpf4jnsgd1na2vs0mg"},{"bike_id":"c5ff288e-b096-4892-a6da-2ddf83e683bf","system_id":"levelo_inurba_marseille","lat":43.30456,"lon":5.38888,"is_reserved":false,"is_disabled":false,"rental_uris":{"android":"levelo://app?vid=c5ff288e-b096-4892-a6da-2ddf83e683bf","ios":"levelo://app?vid=c5ff288e-b096-4892-a6da-2ddf83e683bf"},"vehicle_type_id":"4","last_reported":1748441448,"current_range_meters":12000,"station_id":"ce4bgk12rcd13ifvqbi0","pricing_plan_id":"cebpf4jnsgd1na2vs0mg"},{"bike_id":"32aaca21-5212-45ac-a2c9-a2c353e23b04","system_id":"levelo_inurba_marseille","lat":43.29268,"lon":5.40175,"is_reserved":false,"is_disabled":false,"rental_uris":{"android":"levelo://app?vid=32aaca21-5212-45ac-a2c9-a2c353e23b04","ios":"levelo://app?vid=32aaca21-5212-45ac-a2c9-a2c353e23b04"},"vehicle_type_id":"4","last_reported":1748441448,"current_range_meters":12400,"station_id":"ce4bh312rcd13ifvqdk0","pricing_plan_id":"cebpf4jnsgd1na2vs0mg"},{"bike_id":"097f970b-375f-4b74-9427-a05a73ffd790","system_id":"levelo_inurba_marseille","lat":43.323589,"lon":5.367448,"is_reserved":false,"is_disabled":false,"rental_uris":{"android":"levelo://app?vid=097f970b-375f-4b74-9427-a05a73ffd790","ios":"levelo://app?vid=097f970b-375f-4b74-9427-a05a73ffd790"},"vehicle_type_id":"4","last_reported":1748441448,"current_range_meters":12400,"station_id":"ce4bhsh2rcd13ifvqi2g","pricing_plan_id":"cebpf4jnsgd1na2vs0mg"},{"bike_id":"e5510727-e28d-4577-9d7a-ede0fe14eff9","system_id":"levelo_inurba_marseille","lat":43.27055,"lon":5.40269,"is_reserved":false,"is_disabled":false,"rental_uris":{"android":"levelo://app?vid=e5510727-e28d-4577-9d7a-ede0fe14eff9","ios":"levelo://app?vid=e5510727-e28d-4577-9d7a-ede0fe14eff9"},"vehicle_type_id":"4","last_reported":1748441448,"current_range_meters":12800,"station_id":"ce4bhk92rcd13ifvqgc0","pricing_plan_id":"cebpf4jnsgd1na2vs0mg"},{"bike_id":"873cc241-1acd-4268-932f-bf7899091476","system_id":"levelo_inurba_marseille","lat":43.26933,"lon":5.38928,"is_reserved":false,"is_disabled":false,"rental_uris":{"android":"levelo://app?vid=873cc241-1acd-4268-932f-bf7899091476","ios":"levelo://app?vid=873cc241-1acd-4268-932f-bf7899091476"},"vehicle_type_id":"4","last_reported":1748441448,"current_range_meters":12800,"station_id":"ce4bhhh2rcd13ifvqfl0","pricing_plan_id":"cebpf4jnsgd1na2vs0mg"},{"bike_id":"86f11208-7f90-4009-a976-cc81e2c7825f","system_id":"levelo_inurba_marseille","lat":43.241674,"lon":5.364003,"is_reserved":false,"is_disabled":false,"rental_uris":{"android":"levelo://app?vid=86f11208-7f90-4009-a976-cc81e2c7825f","ios":"levelo://app?vid=86f11208-7f90-4009-a976-cc81e2c7825f"},"vehicle_type_id":"4","last_reported":1748441448,"current_range_meters":12800,"station_id":"cpo36qri1sfpv3e86is0","pricing_plan_id":"cebpf4jnsgd1na2vs0mg"},{"bike_id":"8674dee7-9680-4028-9b37-3c92210c0f7e","system_id":"levelo_inurba_marseille","lat":43.30797,"lon":5.37661,"is_reserved":false,"is_disabled":false,"rental_uris":{"android":"levelo://app?vid=8674dee7-9680-4028-9b37-3c92210c0f7e","ios":"levelo://app?vid=8674dee7-9680-4028-9b37-3c92210c0f7e"},"vehicle_type_id":"4","last_reported":1748441448,"current_range_meters":12400,"station_id":"ce4bgv92rcd13ifvqcq0","pricing_plan_id":"cebpf4jnsgd1na2vs0mg"},{"bike_id":"4cbfb4de-96ab-4126-9a26-124c4c4189b1","system_id":"levelo_inurba_marseille","lat":43.265501,"lon":5.372904,"is_reserved":false,"is_disabled":false,"rental_uris":{"android":"levelo://app?vid=4cbfb4de-96ab-4126-9a26-124c4c4189b1","ios":"levelo://app?vid=4cbfb4de-96ab-4126-9a26-124c4c4189b1"},"vehicle_type_id":"4","last_reported":1748441448,"current_range_meters":12800,"station_id":"ce4bhg12rcd13ifvqf70","pricing_plan_id":"cebpf4jnsgd1na2vs0mg"},{"bike_id":"77971ac7-1bfc-4cd5-9b3e-5e1b07cefed7","system_id":"levelo_inurba_marseille","lat":43.29896,"lon":5.43672,"is_reserved":false,"is_disabled":false,"rental_uris":{"android":"levelo://app?vid=77971ac7-1bfc-4cd5-9b3e-5e1b07cefed7","ios":"levelo://app?vid=77971ac7-1bfc-4cd5-9b3e-5e1b07cefed7"},"vehicle_type_id":"4","last_reported":1748441448,"current_range_meters":12400,"station_id":"ce4bhpp2rcd13ifvqhfg","pricing_plan_id":"cebpf4jnsgd1na2vs0mg"},{"bike_id":"1daebf96-45db-48ac-a642-1389f8b37407","system_id":"levelo_inurba_marseille","lat":43.29856,"lon":5.36269,"is_reserved":false,"is_disabled":false,"rental_uris":{"android":"levelo://app?vid=1daebf96-45db-48ac-a642-1389f8b37407","ios":"levelo://app?vid=1daebf96-45db-48ac-a642-1389f8b37407"},"vehicle_type_id":"4","last_reported":1748441448,"current_range_meters":12800,"station_id":"ce4bgpp2rcd13ifvqc3g","pricing_plan_id":"cebpf4jnsgd1na2vs0mg"},{"bike_id":"33985151-a7a1-4665-8443-827570d98969","system_id":"levelo_inurba_marseille","lat":43.28678,"lon":5.38672,"is_reserved":false,"is_disabled":false,"rental_uris":{"android":"levelo://app?vid=33985151-a7a1-4665-8443-827570d98969","ios":"levelo://app?vid=33985151-a7a1-4665-8443-827570d98969"},"vehicle_type_id":"4","last_reported":1748441448,"current_range_meters":12400,"station_id":"ce4bh492rcd13ifvqdug","pricing_plan_id":"cebpf4jnsgd1na2vs0mg"},{"bike_id":"4d274bbc-468e-4a37-b1f2-594f717fd98a","system_id":"levelo_inurba_marseille","lat":43.2844,"lon":5.39207,"is_reserved":false,"is_disabled":false,"rental_uris":{"android":"levelo://app?vid=4d274bbc-468e-4a37-b1f2-594f717fd98a","ios":"levelo://app?vid=4d274bbc-468e-4a37-b1f2-594f717fd98a"},"vehicle_type_id":"4","last_reported":1748441448,"current_range_meters":12800,"station_id":"ce4bhoh2rcd13ifvqh5g","pricing_plan_id":"cebpf4jnsgd1na2vs0mg"},{"bike_id":"60c00167-c82d-4370-bc2c-b1d48b13c02d","system_id":"levelo_inurba_marseille","lat":43.27087,"lon":5.42289,"is_reserved":false,"is_disabled":false,"rental_uris":{"android":"levelo://app?vid=60c00167-c82d-4370-bc2c-b1d48b13c02d","ios":"levelo://app?vid=60c00167-c82d-4370-bc2c-b1d48b13c02d"},"vehicle_type_id":"4","last_reported":1748441448,"current_range_meters":13600,"station_id":"ce4bhk92rcd13ifvqgb0","pricing_plan_id":"cebpf4jnsgd1na2vs0mg"},{"bike_id":"948f1fd1-2ee5-4d13-9f4c-633ff2972d08","system_id":"levelo_inurba_marseille","lat":43.24154,"lon":5.36423,"is_reserved":false,"is_disabled":false,"rental_uris":{"android":"levelo://app?vid=948f1fd1-2ee5-4d13-9f4c-633ff2972d08","ios":"levelo://app?vid=948f1fd1-2ee5-4d13-9f4c-633ff2972d08"},"vehicle_type_id":"4","last_reported":1748441448,"current_range_meters":13600,"station_id":"cpo36qri1sfpv3e86is0","pricing_plan_id":"cebpf4jnsgd1na2vs0mg"},{"bike_id":"ceef74d6-8aca-45e2-bc6d-795e125d10d6","system_id":"levelo_inurba_marseille","lat":43.29038,"lon":5.39955,"is_reserved":false,"is_disabled":false,"rental_uris":{"android":"levelo://app?vid=ceef74d6-8aca-45e2-bc6d-795e125d10d6","ios":"levelo://app?vid=ceef74d6-8aca-45e2-bc6d-795e125d10d6"},"vehicle_type_id":"4","last_reported":1748441448,"current_range_meters":12800,"station_id":"ce4bh392rcd13ifvqdm0","pricing_plan_id":"cebpf4jnsgd1na2vs0mg"},{"bike_id":"08fbb7f0-10de-4946-a42f-890babd1b26f","system_id":"levelo_inurba_marseille","lat":43.27378,"lon":5.36255,"is_reserved":false,"is_disabled":false,"rental_uris":{"android":"levelo://app?vid=08fbb7f0-10de-4946-a42f-890babd1b26f","ios":"levelo://app?vid=08fbb7f0-10de-4946-a42f-890babd1b26f"},"vehicle_type_id":"4","last_reported":1748441448,"current_range_meters":14000,"station_id":"ce4bhbh2rcd13ifvqeo0","pricing_plan_id":"cebpf4jnsgd1na2vs0mg"},{"bike_id":"7e21b4c5-84e6-49b9-999a-4fa6883be7c5","system_id":"levelo_inurba_marseille","lat":43.2841,"lon":5.35002,"is_reserved":false,"is_disabled":false,"rental_uris":{"android":"levelo://app?vid=7e21b4c5-84e6-49b9-999a-4fa6883be7c5","ios":"levelo://app?vid=7e21b4c5-84e6-49b9-999a-4fa6883be7c5"},"vehicle_type_id":"4","last_reported":1748441448,"current_range_meters":14000,"station_id":"ce4bhbh2rcd13ifvqepg","pricing_plan_id":"cebpf4jnsgd1na2vs0mg"},{"bike_id":"a7b28dad-b0e3-4373-84c9-ca1db05de1f6","system_id":"levelo_inurba_marseille","lat":43.29995,"lon":5.383964,"is_reserved":false,"is_disabled":false,"rental_uris":{"android":"levelo://app?vid=a7b28dad-b0e3-4373-84c9-ca1db05de1f6","ios":"levelo://app?vid=a7b28dad-b0e3-4373-84c9-ca1db05de1f6"},"vehicle_type_id":"4","last_reported":1748441448,"current_range_meters":14000,"station_id":"","pricing_plan_id":"cebpf4jnsgd1na2vs0mg"},{"bike_id":"16358778-9c20-4d43-9f79-f22659df4b1a","system_id":"levelo_inurba_marseille","lat":43.27381,"lon":5.36252,"is_reserved":false,"is_disabled":false,"rental_uris":{"android":"levelo://app?vid=16358778-9c20-4d43-9f79-f22659df4b1a","ios":"levelo://app?vid=16358778-9c20-4d43-9f79-f22659df4b1a"},"vehicle_type_id":"4","last_reported":1748441448,"current_range_meters":14000,"station_id":"ce4bhbh2rcd13ifvqeo0","pricing_plan_id":"cebpf4jnsgd1na2vs0mg"},{"bike_id":"24a11296-1d4b-4907-9e88-5097c4e57fe4","system_id":"levelo_inurba_marseille","lat":43.28266,"lon":5.3509,"is_reserved":false,"is_disabled":false,"rental_uris":{"android":"levelo://app?vid=24a11296-1d4b-4907-9e88-5097c4e57fe4","ios":"levelo://app?vid=24a11296-1d4b-4907-9e88-5097c4e57fe4"},"vehicle_type_id":"4","last_reported":1748441448,"current_range_meters":14000,"station_id":"ce4bhbp2rcd13ifvqerg","pricing_plan_id":"cebpf4jnsgd1na2vs0mg"},{"bike_id":"a7a281d1-f248-498b-8404-73f9b9b8ae74","system_id":"levelo_inurba_marseille","lat":43.27619,"lon":5.36104,"is_reserved":false,"is_disabled":false,"rental_uris":{"android":"levelo://app?vid=a7a281d1-f248-498b-8404-73f9b9b8ae74","ios":"levelo://app?vid=a7a281d1-f248-498b-8404-73f9b9b8ae74"},"vehicle_type_id":"4","last_reported":1748441448,"current_range_meters":14000,"station_id":"ce4bgj92rcd13ifvqbe0","pricing_plan_id":"cebpf4jnsgd1na2vs0mg"},{"bike_id":"5c8e257e-d578-4702-ba7a-745d9297f229","system_id":"levelo_inurba_marseille","lat":43.28861,"lon":5.35855,"is_reserved":false,"is_disabled":false,"rental_uris":{"android":"levelo://app?vid=5c8e257e-d578-4702-ba7a-745d9297f229","ios":"levelo://app?vid=5c8e257e-d578-4702-ba7a-745d9297f229"},"vehicle_type_id":"4","last_reported":1748441448,"current_range_meters":14000,"station_id":"ce4bhb12rcd13ifvqem0","pricing_plan_id":"cebpf4jnsgd1na2vs0mg"},{"bike_id":"d57a7f0a-c7ea-44a5-8bb6-f541ed0213ac","system_id":"levelo_inurba_marseille","lat":43.32375,"lon":5.38894,"is_reserved":false,"is_disabled":false,"rental_uris":{"android":"levelo://app?vid=d57a7f0a-c7ea-44a5-8bb6-f541ed0213ac","ios":"levelo://app?vid=d57a7f0a-c7ea-44a5-8bb6-f541ed0213ac"},"vehicle_type_id":"4","last_reported":1748441448,"current_range_meters":14000,"station_id":"ce4bhqp2rcd13ifvqhog","pricing_plan_id":"cebpf4jnsgd1na2vs0mg"},{"bike_id":"d9c7eb77-7cae-4520-989f-998b714a3b90","system_id":"levelo_inurba_marseille","lat":43.2961,"lon":5.37713,"is_reserved":false,"is_disabled":false,"rental_uris":{"android":"levelo://app?vid=d9c7eb77-7cae-4520-989f-998b714a3b90","ios":"levelo://app?vid=d9c7eb77-7cae-4520-989f-998b714a3b90"},"vehicle_type_id":"4","last_reported":1748441448,"current_range_meters":14000,"station_id":"ce4bgi92rcd13ifvqb90","pricing_plan_id":"cebpf4jnsgd1na2vs0mg"},{"bike_id":"d325e457-9ac5-4ea9-96c1-bf2b2782f23e","system_id":"levelo_inurba_marseille","lat":43.29162,"lon":5.37157,"is_reserved":false,"is_disabled":false,"rental_uris":{"android":"levelo://app?vid=d325e457-9ac5-4ea9-96c1-bf2b2782f23e","ios":"levelo://app?vid=d325e457-9ac5-4ea9-96c1-bf2b2782f23e"},"vehicle_type_id":"4","last_reported":1748441448,"current_range_meters":14000,"station_id":"ce4bha92rcd13ifvqeh0","pricing_plan_id":"cebpf4jnsgd1na2vs0mg"},{"bike_id":"f208415b-80e1-4713-a6ae-428f26017243","system_id":"levelo_inurba_marseille","lat":43.323617,"lon":5.36759,"is_reserved":false,"is_disabled":false,"rental_uris":{"android":"levelo://app?vid=f208415b-80e1-4713-a6ae-428f26017243","ios":"levelo://app?vid=f208415b-80e1-4713-a6ae-428f26017243"},"vehicle_type_id":"4","last_reported":1748441448,"current_range_meters":14400,"station_id":"ce4bhsh2rcd13ifvqi2g","pricing_plan_id":"cebpf4jnsgd1na2vs0mg"},{"bike_id":"63616c72-9029-44e6-98de-a040d6b5ecfb","system_id":"levelo_inurba_marseille","lat":43.32104,"lon":5.36796,"is_reserved":false,"is_disabled":false,"rental_uris":{"android":"levelo://app?vid=63616c72-9029-44e6-98de-a040d6b5ecfb","ios":"levelo://app?vid=63616c72-9029-44e6-98de-a040d6b5ecfb"},"vehicle_type_id":"4","last_reported":1748441448,"current_range_meters":14400,"station_id":"ce4bhrh2rcd13ifvqhug","pricing_plan_id":"cebpf4jnsgd1na2vs0mg"},{"bike_id":"876f7642-b198-4f2d-b31a-4bb1faf586b8","system_id":"levelo_inurba_marseille","lat":43.27948,"lon":5.41054,"is_reserved":false,"is_disabled":false,"rental_uris":{"android":"levelo://app?vid=876f7642-b198-4f2d-b31a-4bb1faf586b8","ios":"levelo://app?vid=876f7642-b198-4f2d-b31a-4bb1faf586b8"},"vehicle_type_id":"4","last_reported":1748441448,"current_range_meters":14800,"station_id":"ce4bhnp2rcd13ifvqh0g","pricing_plan_id":"cebpf4jnsgd1na2vs0mg"},{"bike_id":"06128bfa-79cf-4c9c-9134-cb87f0a51b3f","system_id":"levelo_inurba_marseille","lat":43.29634,"lon":5.40595,"is_reserved":false,"is_disabled":false,"rental_uris":{"android":"levelo://app?vid=06128bfa-79cf-4c9c-9134-cb87f0a51b3f","ios":"levelo://app?vid=06128bfa-79cf-4c9c-9134-cb87f0a51b3f"},"vehicle_type_id":"4","last_reported":1748441448,"current_range_meters":14800,"station_id":"ce4bh0h2rcd13ifvqd60","pricing_plan_id":"cebpf4jnsgd1na2vs0mg"},{"bike_id":"886e129a-7417-4eaf-b25e-829518311fc8","system_id":"levelo_inurba_marseille","lat":43.28611,"lon":5.351038,"is_reserved":false,"is_disabled":false,"rental_uris":{"android":"levelo://app?vid=886e129a-7417-4eaf-b25e-829518311fc8","ios":"levelo://app?vid=886e129a-7417-4eaf-b25e-829518311fc8"},"vehicle_type_id":"4","last_reported":1748441448,"current_range_meters":14800,"station_id":"ce4bhch2rcd13ifvqeug","pricing_plan_id":"cebpf4jnsgd1na2vs0mg"},{"bike_id":"58db4cda-55fa-43d1-970d-4be0b25ab973","system_id":"levelo_inurba_marseille","lat":43.312333,"lon":5.368783,"is_reserved":false,"is_disabled":false,"rental_uris":{"android":"levelo://app?vid=58db4cda-55fa-43d1-970d-4be0b25ab973","ios":"levelo://app?vid=58db4cda-55fa-43d1-970d-4be0b25ab973"},"vehicle_type_id":"4","last_reported":1748441448,"current_range_meters":14800,"station_id":"ce4bgl92rcd13ifvqbq0","pricing_plan_id":"cebpf4jnsgd1na2vs0mg"},{"bike_id":"60815888-7c98-4769-b7d4-8cf1272505d8","system_id":"levelo_inurba_marseille","lat":43.232054,"lon":5.399606,"is_reserved":false,"is_disabled":false,"rental_uris":{"android":"levelo://app?vid=60815888-7c98-4769-b7d4-8cf1272505d8","ios":"levelo://app?vid=60815888-7c98-4769-b7d4-8cf1272505d8"},"vehicle_type_id":"4","last_reported":1748441448,"current_range_meters":14800,"station_id":"ce4bhn12rcd13ifvqgqg","pricing_plan_id":"cebpf4jnsgd1na2vs0mg"},{"bike_id":"8a4a48d1-d8ca-4ee2-969d-0d60f537320f","system_id":"levelo_inurba_marseille","lat":43.2658,"lon":5.39006,"is_reserved":false,"is_disabled":false,"rental_uris":{"android":"levelo://app?vid=8a4a48d1-d8ca-4ee2-969d-0d60f537320f","ios":"levelo://app?vid=8a4a48d1-d8ca-4ee2-969d-0d60f537320f"},"vehicle_type_id":"4","last_reported":1748441448,"current_range_meters":14800,"station_id":"ce4bhe12rcd13ifvqf30","pricing_plan_id":"cebpf4jnsgd1na2vs0mg"},{"bike_id":"7383b43d-27a1-4476-99f7-c40b40f30fb5","system_id":"levelo_inurba_marseille","lat":43.28422,"lon":5.37506,"is_reserved":false,"is_disabled":false,"rental_uris":{"android":"levelo://app?vid=7383b43d-27a1-4476-99f7-c40b40f30fb5","ios":"levelo://app?vid=7383b43d-27a1-4476-99f7-c40b40f30fb5"},"vehicle_type_id":"4","last_reported":1748441448,"current_range_meters":14800,"station_id":"ce4bh412rcd13ifvqds0","pricing_plan_id":"cebpf4jnsgd1na2vs0mg"},{"bike_id":"c8ad58ef-9f9f-498f-95da-e440d1cb3677","system_id":"levelo_inurba_marseille","lat":43.27918,"lon":5.37994,"is_reserved":false,"is_disabled":false,"rental_uris":{"android":"levelo://app?vid=c8ad58ef-9f9f-498f-95da-e440d1cb3677","ios":"levelo://app?vid=c8ad58ef-9f9f-498f-95da-e440d1cb3677"},"vehicle_type_id":"4","last_reported":1748441448,"current_range_meters":14800,"station_id":"ce4bhf92rcd13ifvqf50","pricing_plan_id":"cebpf4jnsgd1na2vs0mg"},{"bike_id":"4c88bd5c-cd59-49ea-aa34-bf248aa1095a","system_id":"levelo_inurba_marseille","lat":43.27966,"lon":5.38734,"is_reserved":false,"is_disabled":false,"rental_uris":{"android":"levelo://app?vid=4c88bd5c-cd59-49ea-aa34-bf248aa1095a","ios":"levelo://app?vid=4c88bd5c-cd59-49ea-aa34-bf248aa1095a"},"vehicle_type_id":"4","last_reported":1748441448,"current_range_meters":15200,"station_id":"ce4bhg12rcd13ifvqf80","pricing_plan_id":"cebpf4jnsgd1na2vs0mg"},{"bike_id":"818b80ea-36b7-40da-a947-5b7e42641d50","system_id":"levelo_inurba_marseille","lat":43.28466,"lon":5.35881,"is_reserved":false,"is_disabled":false,"rental_uris":{"android":"levelo://app?vid=818b80ea-36b7-40da-a947-5b7e42641d50","ios":"levelo://app?vid=818b80ea-36b7-40da-a947-5b7e42641d50"},"vehicle_type_id":"4","last_reported":1748441448,"current_range_meters":15200,"station_id":"ce4bhah2rcd13ifvqei0","pricing_plan_id":"cebpf4jnsgd1na2vs0mg"},{"bike_id":"c32421ed-ddf4-4edd-af08-47e1fffda6e0","system_id":"levelo_inurba_marseille","lat":43.31234,"lon":5.368823,"is_reserved":false,"is_disabled":false,"rental_uris":{"android":"levelo://app?vid=c32421ed-ddf4-4edd-af08-47e1fffda6e0","ios":"levelo://app?vid=c32421ed-ddf4-4edd-af08-47e1fffda6e0"},"vehicle_type_id":"4","last_reported":1748441448,"current_range_meters":15200,"station_id":"ce4bgl92rcd13ifvqbq0","pricing_plan_id":"cebpf4jnsgd1na2vs0mg"},{"bike_id":"90295459-0095-4afd-ba61-a293f75a7a8d","system_id":"levelo_inurba_marseille","lat":43.26685,"lon":5.38267,"is_reserved":false,"is_disabled":false,"rental_uris":{"android":"levelo://app?vid=90295459-0095-4afd-ba61-a293f75a7a8d","ios":"levelo://app?vid=90295459-0095-4afd-ba61-a293f75a7a8d"},"vehicle_type_id":"4","last_reported":1748441448,"current_range_meters":15200,"station_id":"ce4bhg92rcd13ifvqf90","pricing_plan_id":"cebpf4jnsgd1na2vs0mg"},{"bike_id":"64449604-a38d-4da3-85a7-6d2215036373","system_id":"levelo_inurba_marseille","lat":43.28617,"lon":5.35099,"is_reserved":false,"is_disabled":false,"rental_uris":{"android":"levelo://app?vid=64449604-a38d-4da3-85a7-6d2215036373","ios":"levelo://app?vid=64449604-a38d-4da3-85a7-6d2215036373"},"vehicle_type_id":"4","last_reported":1748441448,"current_range_meters":16000,"station_id":"ce4bhch2rcd13ifvqeug","pricing_plan_id":"cebpf4jnsgd1na2vs0mg"},{"bike_id":"cce8c9aa-724e-4dc0-a169-308a202c1b20","system_id":"levelo_inurba_marseille","lat":43.27065,"lon":5.40265,"is_reserved":false,"is_disabled":false,"rental_uris":{"android":"levelo://app?vid=cce8c9aa-724e-4dc0-a169-308a202c1b20","ios":"levelo://app?vid=cce8c9aa-724e-4dc0-a169-308a202c1b20"},"vehicle_type_id":"4","last_reported":1748441448,"current_range_meters":16000,"station_id":"ce4bhk92rcd13ifvqgc0","pricing_plan_id":"cebpf4jnsgd1na2vs0mg"},{"bike_id":"4c228ea5-6600-4174-86c4-c0d4c68e2840","system_id":"levelo_inurba_marseille","lat":43.30262,"lon":5.40081,"is_reserved":false,"is_disabled":false,"rental_uris":{"android":"levelo://app?vid=4c228ea5-6600-4174-86c4-c0d4c68e2840","ios":"levelo://app?vid=4c228ea5-6600-4174-86c4-c0d4c68e2840"},"vehicle_type_id":"4","last_reported":1748441448,"current_range_meters":16000,"station_id":"ce4bgvh2rcd13ifvqcs0","pricing_plan_id":"cebpf4jnsgd1na2vs0mg"},{"bike_id":"3497c608-d157-4b08-a88b-6d42b660a25c","system_id":"levelo_inurba_marseille","lat":43.28617,"lon":5.35188,"is_reserved":false,"is_disabled":false,"rental_uris":{"android":"levelo://app?vid=3497c608-d157-4b08-a88b-6d42b660a25c","ios":"levelo://app?vid=3497c608-d157-4b08-a88b-6d42b660a25c"},"vehicle_type_id":"4","last_reported":1748441448,"current_range_meters":16000,"station_id":"ce4bhch2rcd13ifvqeug","pricing_plan_id":"cebpf4jnsgd1na2vs0mg"},{"bike_id":"532d5cc6-a63c-40fa-acd1-307332b7982d","system_id":"levelo_inurba_marseille","lat":43.28353,"lon":5.38102,"is_reserved":false,"is_disabled":false,"rental_uris":{"android":"levelo://app?vid=532d5cc6-a63c-40fa-acd1-307332b7982d","ios":"levelo://app?vid=532d5cc6-a63c-40fa-acd1-307332b7982d"},"vehicle_type_id":"4","last_reported":1748441448,"current_range_meters":16000,"station_id":"ce4bh412rcd13ifvqdr0","pricing_plan_id":"cebpf4jnsgd1na2vs0mg"},{"bike_id":"99dd0d54-1576-402f-b345-65a484125c48","system_id":"levelo_inurba_marseille","lat":43.30614,"lon":5.36791,"is_reserved":false,"is_disabled":false,"rental_uris":{"android":"levelo://app?vid=99dd0d54-1576-402f-b345-65a484125c48","ios":"levelo://app?vid=99dd0d54-1576-402f-b345-65a484125c48"},"vehicle_type_id":"4","last_reported":1748441448,"current_range_meters":16000,"station_id":"","pricing_plan_id":"cebpf4jnsgd1na2vs0mg"},{"bike_id":"0600f72e-a2f6-4c19-961a-f79abafbf194","system_id":"levelo_inurba_marseille","lat":43.28102,"lon":5.37837,"is_reserved":false,"is_disabled":false,"rental_uris":{"android":"levelo://app?vid=0600f72e-a2f6-4c19-961a-f79abafbf194","ios":"levelo://app?vid=0600f72e-a2f6-4c19-961a-f79abafbf194"},"vehicle_type_id":"4","last_reported":1748441448,"current_range_meters":16000,"station_id":"ce4bha12rcd13ifvqee0","pricing_plan_id":"cebpf4jnsgd1na2vs0mg"},{"bike_id":"a2049370-04ad-43a8-8caa-fbcd84a5f5b6","system_id":"levelo_inurba_marseille","lat":43.29027,"lon":5.3756,"is_reserved":false,"is_disabled":false,"rental_uris":{"android":"levelo://app?vid=a2049370-04ad-43a8-8caa-fbcd84a5f5b6","ios":"levelo://app?vid=a2049370-04ad-43a8-8caa-fbcd84a5f5b6"},"vehicle_type_id":"4","last_reported":1748441448,"current_range_meters":16000,"station_id":"ce4bh692rcd13ifvqe90","pricing_plan_id":"cebpf4jnsgd1na2vs0mg"},{"bike_id":"38ff3c15-cf6e-405f-9d86-b3110f962f70","system_id":"levelo_inurba_marseille","lat":43.28609,"lon":5.35134,"is_reserved":false,"is_disabled":false,"rental_uris":{"android":"levelo://app?vid=38ff3c15-cf6e-405f-9d86-b3110f962f70","ios":"levelo://app?vid=38ff3c15-cf6e-405f-9d86-b3110f962f70"},"vehicle_type_id":"4","last_reported":1748441448,"current_range_meters":16000,"station_id":"ce4bhch2rcd13ifvqeug","pricing_plan_id":"cebpf4jnsgd1na2vs0mg"},{"bike_id":"754aed2a-cf54-4467-b6ba-83fa67e5d062","system_id":"levelo_inurba_marseille","lat":43.33024,"lon":5.39041,"is_reserved":false,"is_disabled":false,"rental_uris":{"android":"levelo://app?vid=754aed2a-cf54-4467-b6ba-83fa67e5d062","ios":"levelo://app?vid=754aed2a-cf54-4467-b6ba-83fa67e5d062"},"vehicle_type_id":"4","last_reported":1748441448,"current_range_meters":16400,"station_id":"ce4bhr92rcd13ifvqhrg","pricing_plan_id":"cebpf4jnsgd1na2vs0mg"},{"bike_id":"6776eed9-6d20-4571-b8f8-9c80c58eb9a6","system_id":"levelo_inurba_marseille","lat":43.24176,"lon":5.364,"is_reserved":false,"is_disabled":false,"rental_uris":{"android":"levelo://app?vid=6776eed9-6d20-4571-b8f8-9c80c58eb9a6","ios":"levelo://app?vid=6776eed9-6d20-4571-b8f8-9c80c58eb9a6"},"vehicle_type_id":"4","last_reported":1748441448,"current_range_meters":16400,"station_id":"cpo36qri1sfpv3e86is0","pricing_plan_id":"cebpf4jnsgd1na2vs0mg"},{"bike_id":"571d5d27-2af8-45a1-b983-798bfe3ad57a","system_id":"levelo_inurba_marseille","lat":43.28421,"lon":5.34962,"is_reserved":false,"is_disabled":false,"rental_uris":{"android":"levelo://app?vid=571d5d27-2af8-45a1-b983-798bfe3ad57a","ios":"levelo://app?vid=571d5d27-2af8-45a1-b983-798bfe3ad57a"},"vehicle_type_id":"4","last_reported":1748441448,"current_range_meters":16400,"station_id":"ce4bhbh2rcd13ifvqepg","pricing_plan_id":"cebpf4jnsgd1na2vs0mg"},{"bike_id":"cba77135-f8ab-4859-ba39-99a9b88c113b","system_id":"levelo_inurba_marseille","lat":43.2921,"lon":5.39344,"is_reserved":false,"is_disabled":false,"rental_uris":{"android":"levelo://app?vid=cba77135-f8ab-4859-ba39-99a9b88c113b","ios":"levelo://app?vid=cba77135-f8ab-4859-ba39-99a9b88c113b"},"vehicle_type_id":"4","last_reported":1748441448,"current_range_meters":16400,"station_id":"ce4bh192rcd13ifvqdd0","pricing_plan_id":"cebpf4jnsgd1na2vs0mg"},{"bike_id":"e3252392-6acf-4f92-8ec2-0b801c7d6809","system_id":"levelo_inurba_marseille","lat":43.23177,"lon":5.39986,"is_reserved":false,"is_disabled":false,"rental_uris":{"android":"levelo://app?vid=e3252392-6acf-4f92-8ec2-0b801c7d6809","ios":"levelo://app?vid=e3252392-6acf-4f92-8ec2-0b801c7d6809"},"vehicle_type_id":"4","last_reported":1748441448,"current_range_meters":16400,"station_id":"ce4bhn12rcd13ifvqgqg","pricing_plan_id":"cebpf4jnsgd1na2vs0mg"},{"bike_id":"444cd27e-b7d1-4dc8-bce4-951b60651f42","system_id":"levelo_inurba_marseille","lat":43.21184,"lon":5.35094,"is_reserved":false,"is_disabled":false,"rental_uris":{"android":"levelo://app?vid=444cd27e-b7d1-4dc8-bce4-951b60651f42","ios":"levelo://app?vid=444cd27e-b7d1-4dc8-bce4-951b60651f42"},"vehicle_type_id":"4","last_reported":1748441448,"current_range_meters":16400,"station_id":"st_cvj6sg6p6f1abm77japg","pricing_plan_id":"cebpf4jnsgd1na2vs0mg"},{"bike_id":"49207224-19cc-40ba-ad40-915f4813317e","system_id":"levelo_inurba_marseille","lat":43.28629,"lon":5.35094,"is_reserved":false,"is_disabled":false,"rental_uris":{"android":"levelo://app?vid=49207224-19cc-40ba-ad40-915f4813317e","ios":"levelo://app?vid=49207224-19cc-40ba-ad40-915f4813317e"},"vehicle_type_id":"4","last_reported":1748441448,"current_range_meters":16400,"station_id":"ce4bhch2rcd13ifvqeug","pricing_plan_id":"cebpf4jnsgd1na2vs0mg"},{"bike_id":"74596cad-01b8-4827-9b35-ca1f4056673c","system_id":"levelo_inurba_marseille","lat":43.32341,"lon":5.38287,"is_reserved":false,"is_disabled":false,"rental_uris":{"android":"levelo://app?vid=74596cad-01b8-4827-9b35-ca1f4056673c","ios":"levelo://app?vid=74596cad-01b8-4827-9b35-ca1f4056673c"},"vehicle_type_id":"4","last_reported":1748441448,"current_range_meters":16400,"station_id":"","pricing_plan_id":"cebpf4jnsgd1na2vs0mg"},{"bike_id":"ce7c597b-a26f-404e-b2c7-c2d8592a9281","system_id":"levelo_inurba_marseille","lat":43.25938,"lon":5.40895,"is_reserved":false,"is_disabled":false,"rental_uris":{"android":"levelo://app?vid=ce7c597b-a26f-404e-b2c7-c2d8592a9281","ios":"levelo://app?vid=ce7c597b-a26f-404e-b2c7-c2d8592a9281"},"vehicle_type_id":"4","last_reported":1748441448,"current_range_meters":16800,"station_id":"ce4bhm92rcd13ifvqglg","pricing_plan_id":"cebpf4jnsgd1na2vs0mg"},{"bike_id":"5a37c25e-cc47-4a06-ba91-ae8839f36a63","system_id":"levelo_inurba_marseille","lat":43.265561,"lon":5.372863,"is_reserved":false,"is_disabled":false,"rental_uris":{"android":"levelo://app?vid=5a37c25e-cc47-4a06-ba91-ae8839f36a63","ios":"levelo://app?vid=5a37c25e-cc47-4a06-ba91-ae8839f36a63"},"vehicle_type_id":"4","last_reported":1748441448,"current_range_meters":16800,"station_id":"ce4bhg12rcd13ifvqf70","pricing_plan_id":"cebpf4jnsgd1na2vs0mg"},{"bike_id":"227ce3be-2274-4113-b672-71108a7fd2f1","system_id":"levelo_inurba_marseille","lat":43.23965,"lon":5.36633,"is_reserved":false,"is_disabled":false,"rental_uris":{"android":"levelo://app?vid=227ce3be-2274-4113-b672-71108a7fd2f1","ios":"levelo://app?vid=227ce3be-2274-4113-b672-71108a7fd2f1"},"vehicle_type_id":"4","last_reported":1748441448,"current_range_meters":16800,"station_id":"ce4bhi12rcd13ifvqfp0","pricing_plan_id":"cebpf4jnsgd1na2vs0mg"},{"bike_id":"a3c8cdbc-e976-48ea-a471-de34ccb04e5f","system_id":"levelo_inurba_marseille","lat":43.31694,"lon":5.37739,"is_reserved":false,"is_disabled":false,"rental_uris":{"android":"levelo://app?vid=a3c8cdbc-e976-48ea-a471-de34ccb04e5f","ios":"levelo://app?vid=a3c8cdbc-e976-48ea-a471-de34ccb04e5f"},"vehicle_type_id":"4","last_reported":1748441448,"current_range_meters":16400,"station_id":"ce4bgth2rcd13ifvqch0","pricing_plan_id":"cebpf4jnsgd1na2vs0mg"},{"bike_id":"875c0f2c-52a1-4201-bc75-f9b13bec0b9a","system_id":"levelo_inurba_marseille","lat":43.28418,"lon":5.37507,"is_reserved":false,"is_disabled":false,"rental_uris":{"android":"levelo://app?vid=875c0f2c-52a1-4201-bc75-f9b13bec0b9a","ios":"levelo://app?vid=875c0f2c-52a1-4201-bc75-f9b13bec0b9a"},"vehicle_type_id":"4","last_reported":1748441448,"current_range_meters":16800,"station_id":"ce4bh412rcd13ifvqds0","pricing_plan_id":"cebpf4jnsgd1na2vs0mg"},{"bike_id":"48c25f0a-a74a-400f-827d-9ae9d3e24621","system_id":"levelo_inurba_marseille","lat":43.28418,"lon":5.37547,"is_reserved":false,"is_disabled":false,"rental_uris":{"android":"levelo://app?vid=48c25f0a-a74a-400f-827d-9ae9d3e24621","ios":"levelo://app?vid=48c25f0a-a74a-400f-827d-9ae9d3e24621"},"vehicle_type_id":"4","last_reported":1748441448,"current_range_meters":16800,"station_id":"ce4bh412rcd13ifvqds0","pricing_plan_id":"cebpf4jnsgd1na2vs0mg"},{"bike_id":"ecef8788-4032-4831-b0af-0b88c49b7166","system_id":"levelo_inurba_marseille","lat":43.31314,"lon":5.36793,"is_reserved":false,"is_disabled":false,"rental_uris":{"android":"levelo://app?vid=ecef8788-4032-4831-b0af-0b88c49b7166","ios":"levelo://app?vid=ecef8788-4032-4831-b0af-0b88c49b7166"},"vehicle_type_id":"4","last_reported":1748441448,"current_range_meters":16800,"station_id":"ce4bgr92rcd13ifvqc6g","pricing_plan_id":"cebpf4jnsgd1na2vs0mg"},{"bike_id":"0fa46d0d-8ed7-4648-bb4a-75b25e70dbcd","system_id":"levelo_inurba_marseille","lat":43.259307,"lon":5.409232,"is_reserved":false,"is_disabled":false,"rental_uris":{"android":"levelo://app?vid=0fa46d0d-8ed7-4648-bb4a-75b25e70dbcd","ios":"levelo://app?vid=0fa46d0d-8ed7-4648-bb4a-75b25e70dbcd"},"vehicle_type_id":"4","last_reported":1748441448,"current_range_meters":16800,"station_id":"ce4bhm92rcd13ifvqglg","pricing_plan_id":"cebpf4jnsgd1na2vs0mg"},{"bike_id":"3eb34e2b-61d8-44bb-b535-149c94bea4fb","system_id":"levelo_inurba_marseille","lat":43.29191,"lon":5.35811,"is_reserved":false,"is_disabled":false,"rental_uris":{"android":"levelo://app?vid=3eb34e2b-61d8-44bb-b535-149c94bea4fb","ios":"levelo://app?vid=3eb34e2b-61d8-44bb-b535-149c94bea4fb"},"vehicle_type_id":"4","last_reported":1748441448,"current_range_meters":17200,"station_id":"ce4bhb12rcd13ifvqel0","pricing_plan_id":"cebpf4jnsgd1na2vs0mg"},{"bike_id":"9057d663-f036-4412-8eef-523f358f5bd9","system_id":"levelo_inurba_marseille","lat":43.2717,"lon":5.41003,"is_reserved":false,"is_disabled":false,"rental_uris":{"android":"levelo://app?vid=9057d663-f036-4412-8eef-523f358f5bd9","ios":"levelo://app?vid=9057d663-f036-4412-8eef-523f358f5bd9"},"vehicle_type_id":"4","last_reported":1748441448,"current_range_meters":11200,"station_id":"ce4bhl12rcd13ifvqgf0","pricing_plan_id":"cebpf4jnsgd1na2vs0mg"},{"bike_id":"c42ee532-2b71-438a-b643-7ee5dbb759de","system_id":"levelo_inurba_marseille","lat":43.29275,"lon":5.36845,"is_reserved":false,"is_disabled":false,"rental_uris":{"android":"levelo://app?vid=c42ee532-2b71-438a-b643-7ee5dbb759de","ios":"levelo://app?vid=c42ee532-2b71-438a-b643-7ee5dbb759de"},"vehicle_type_id":"4","last_reported":1748441448,"current_range_meters":17200,"station_id":"ce4bhbp2rcd13ifvqesg","pricing_plan_id":"cebpf4jnsgd1na2vs0mg"},{"bike_id":"63c34637-d6eb-494f-8c6d-432351a5e7bc","system_id":"levelo_inurba_marseille","lat":43.28462,"lon":5.35886,"is_reserved":false,"is_disabled":false,"rental_uris":{"android":"levelo://app?vid=63c34637-d6eb-494f-8c6d-432351a5e7bc","ios":"levelo://app?vid=63c34637-d6eb-494f-8c6d-432351a5e7bc"},"vehicle_type_id":"4","last_reported":1748441448,"current_range_meters":17200,"station_id":"ce4bhah2rcd13ifvqei0","pricing_plan_id":"cebpf4jnsgd1na2vs0mg"},{"bike_id":"f9d03e1b-2163-4b4d-b780-a4c9b9ca9f19","system_id":"levelo_inurba_marseille","lat":43.25756,"lon":5.41118,"is_reserved":false,"is_disabled":false,"rental_uris":{"android":"levelo://app?vid=f9d03e1b-2163-4b4d-b780-a4c9b9ca9f19","ios":"levelo://app?vid=f9d03e1b-2163-4b4d-b780-a4c9b9ca9f19"},"vehicle_type_id":"4","last_reported":1748441448,"current_range_meters":17200,"station_id":"","pricing_plan_id":"cebpf4jnsgd1na2vs0mg"},{"bike_id":"14aba109-b97e-4a34-ac4b-e58f5b0a300d","system_id":"levelo_inurba_marseille","lat":43.21195,"lon":5.35073,"is_reserved":false,"is_disabled":false,"rental_uris":{"android":"levelo://app?vid=14aba109-b97e-4a34-ac4b-e58f5b0a300d","ios":"levelo://app?vid=14aba109-b97e-4a34-ac4b-e58f5b0a300d"},"vehicle_type_id":"4","last_reported":1748441448,"current_range_meters":17200,"station_id":"st_cvj6sg6p6f1abm77japg","pricing_plan_id":"cebpf4jnsgd1na2vs0mg"},{"bike_id":"5e73e8d5-f93c-4fd0-aa3f-9a251976bcb9","system_id":"levelo_inurba_marseille","lat":43.28637,"lon":5.38652,"is_reserved":false,"is_disabled":false,"rental_uris":{"android":"levelo://app?vid=5e73e8d5-f93c-4fd0-aa3f-9a251976bcb9","ios":"levelo://app?vid=5e73e8d5-f93c-4fd0-aa3f-9a251976bcb9"},"vehicle_type_id":"4","last_reported":1748441448,"current_range_meters":16800,"station_id":"ce4bh492rcd13ifvqdug","pricing_plan_id":"cebpf4jnsgd1na2vs0mg"},{"bike_id":"6fdb68de-8ff8-4e33-89d3-503ee8472080","system_id":"levelo_inurba_marseille","lat":43.21772,"lon":5.34584,"is_reserved":false,"is_disabled":false,"rental_uris":{"android":"levelo://app?vid=6fdb68de-8ff8-4e33-89d3-503ee8472080","ios":"levelo://app?vid=6fdb68de-8ff8-4e33-89d3-503ee8472080"},"vehicle_type_id":"4","last_reported":1748441448,"current_range_meters":17200,"station_id":"","pricing_plan_id":"cebpf4jnsgd1na2vs0mg"},{"bike_id":"5768ec50-bb61-46b7-8c42-af71a02af7da","system_id":"levelo_inurba_marseille","lat":43.28154,"lon":5.37754,"is_reserved":false,"is_disabled":false,"rental_uris":{"android":"levelo://app?vid=5768ec50-bb61-46b7-8c42-af71a02af7da","ios":"levelo://app?vid=5768ec50-bb61-46b7-8c42-af71a02af7da"},"vehicle_type_id":"4","last_reported":1748441448,"current_range_meters":17200,"station_id":"ce4bha12rcd13ifvqee0","pricing_plan_id":"cebpf4jnsgd1na2vs0mg"},{"bike_id":"6eb00362-435f-474c-b02b-e2b640b8b7dd","system_id":"levelo_inurba_marseille","lat":43.27975,"lon":5.38743,"is_reserved":false,"is_disabled":false,"rental_uris":{"android":"levelo://app?vid=6eb00362-435f-474c-b02b-e2b640b8b7dd","ios":"levelo://app?vid=6eb00362-435f-474c-b02b-e2b640b8b7dd"},"vehicle_type_id":"4","last_reported":1748441448,"current_range_meters":17200,"station_id":"ce4bhg12rcd13ifvqf80","pricing_plan_id":"cebpf4jnsgd1na2vs0mg"},{"bike_id":"a426f99b-d34a-41bf-bbda-59f7dfd6939b","system_id":"levelo_inurba_marseille","lat":43.255796,"lon":5.382262,"is_reserved":false,"is_disabled":false,"rental_uris":{"android":"levelo://app?vid=a426f99b-d34a-41bf-bbda-59f7dfd6939b","ios":"levelo://app?vid=a426f99b-d34a-41bf-bbda-59f7dfd6939b"},"vehicle_type_id":"4","last_reported":1748441448,"current_range_meters":17600,"station_id":"ce501612rcd8frsf0b60","pricing_plan_id":"cebpf4jnsgd1na2vs0mg"},{"bike_id":"ac708e1b-dd6e-402e-910d-7134f4a9df41","system_id":"levelo_inurba_marseille","lat":43.30789,"lon":5.43554,"is_reserved":false,"is_disabled":false,"rental_uris":{"android":"levelo://app?vid=ac708e1b-dd6e-402e-910d-7134f4a9df41","ios":"levelo://app?vid=ac708e1b-dd6e-402e-910d-7134f4a9df41"},"vehicle_type_id":"4","last_reported":1748441448,"current_range_meters":17600,"station_id":"ce4bhph2rcd13ifvqheg","pricing_plan_id":"cebpf4jnsgd1na2vs0mg"},