{"last_updated":1734459214,"ttl":60,"version":"2.2","data":{"bikes":[{"bike_id":"bf698b5f-207a-4e8b-9d23-f6cccfa78fa0","system_id":"levelo_inurba_marseille","lat":43.30354,"lon":5.4188,"is_reserved":false,"is_disabled":false,"rental_uris":{"android":"levelo://app?vid=bf698b5f-207a-4e8b-9d23-f6cccfa78fa0","ios":"levelo://app?vid=bf698b5f-207a-4e8b-9d23-f6cccfa78fa0"},"vehicle_type_id":"4","last_reported":1734459214,"current_range_meters":10800,"station_id":"ce4bhop2rcd13ifvqh7g","pricing_plan_id":"cebpf4jnsgd1na2vs0mg"},{"bike_id":"d1ef06f7-3f63-4b3c-8cd0-08ad0a0c797f","system_id":"levelo_inurba_marseille","lat":43.3112,"lon":5.37746,"is_reserved":false,"is_disabled":false,"rental_uris":{"android":"levelo://app?vid=d1ef06f7-3f63-4b3c-8cd0-08ad0a0c797f","ios":"levelo://app?vid=d1ef06f7-3f63-4b3c-8cd0-08ad0a0c797f"},"vehicle_type_id":"4","last_reported":1734459214,"current_range_meters":24800,"station_id":"ce4bgt92rcd13ifvqcg0","pricing_plan_id":"cebpf4jnsgd1na2vs0mg"},{"bike_id":"df99d8de-50f7-4deb-b58a-cb5175498e3a","system_id":"levelo_inurba_marseille","lat":43.28029,"lon":5.36937,"is_reserved":false,"is_disabled":false,"rental_uris":{"android":"levelo://app?vid=df99d8de-50f7-4deb-b58a-cb5175498e3a","ios":"levelo://app?vid=df99d8de-50f7-4deb-b58a-cb5175498e3a"},"vehicle_type_id":"4","last_reported":1734459214,"current_range_meters":14000,"station_id":"ce4bha12rcd13ifvqef0","pricing_plan_id":"cebpf4jnsgd1na2vs0mg"},{"bike_id":"fc2fa04a-e722-4371-8749-69685a4b0890","system_id":"levelo_inurba_marseille","lat":43.25583,"lon":5.38233,"is_reserved":false,"is_disabled":false,"rental_uris":{"android":"levelo://app?vid=fc2fa04a-e722-4371-8749-69685a4b0890","ios":"levelo://app?vid=fc2fa04a-e722-4371-8749-69685a4b0890"},"vehicle_type_id":"4","last_reported":1734459214,"current_range_meters":16400,"station_id":"ce4bhih2rcd13ifvqfs0","pricing_plan_id":"cebpf4jnsgd1na2vs0mg"},{"bike_id":"b2fae302-f5eb-4bc2-b462-662e3f43cfa7","system_id":"levelo_inurba_marseille","lat":43.26876,"lon":5.4031,"is_reserved":false,"is_disabled":false,"rental_uris":{"android":"levelo://app?vid=b2fae302-f5eb-4bc2-b462-662e3f43cfa7","ios":"levelo://app?vid=b2fae302-f5eb-4bc2-b462-662e3f43cfa7"},"vehicle_type_id":"4","last_reported":1734459214,"current_range_meters":39200,"station_id":"cjm6bp8fraef2m0cb0m0","pricing_plan_id":"cebpf4jnsgd1na2vs0mg"},{"bike_id":"ad864df4-55ea-495d-af78-7db7193df5b0","system_id":"levelo_inurba_marseille","lat":43.25865,"lon":5.39894,"is_reserved":false,"is_disabled":false,"rental_uris":{"android":"levelo://app?vid=ad864df4-55ea-495d-af78-7db7193df5b0","ios":"levelo://app?vid=ad864df4-55ea-495d-af78-7db7193df5b0"},"vehicle_type_id":"4","last_reported":1734459214,"current_range_meters":12800,"station_id":"ce4bhl92rcd13ifvqghg","pricing_plan_id":"cebpf4jnsgd1na2vs0mg"},{"bike_id":"c4a112e9-648f-47e9-9deb-065b667f628a","system_id":"levelo_inurba_marseille","lat":43.27665,"lon":5.38874,"is_reserved":false,"is_disabled":false,"rental_uris":{"android":"levelo://app?vid=c4a112e9-648f-47e9-9deb-065b667f628a","ios":"levelo://app?vid=c4a112e9-648f-47e9-9deb-065b667f628a"},"vehicle_type_id":"4","last_reported":1734459214,"current_range_meters":24400,"station_id":"ce4bhi12rcd13ifvqfo0","pricing_plan_id":"cebpf4jnsgd1na2vs0mg"},{"bike_id":"5c9d787a-ed08-4f6d-aae6-50e448cf550d","system_id":"levelo_inurba_marseille","lat":43.26025,"lon":5.37553,"is_reserved":false,"is_disabled":false,"rental_uris":{"android":"levelo://app?vid=5c9d787a-ed08-4f6d-aae6-50e448cf550d","ios":"levelo://app?vid=5c9d787a-ed08-4f6d-aae6-50e448cf550d"},"vehicle_type_id":"4","last_reported":1734459214,"current_range_meters":35600,"station_id":"ce4bhgh2rcd13ifvqfa0","pricing_plan_id":"cebpf4jnsgd1na2vs0mg"},{"bike_id":"20358b83-225d-4ff6-8386-f5d7e4ace024","system_id":"levelo_inurba_marseille","lat":43.30009,"lon":5.37735,"is_reserved":false,"is_disabled":true,"rental_uris":{"android":"levelo://app?vid=20358b83-225d-4ff6-8386-f5d7e4ace024","ios":"levelo://app?vid=20358b83-225d-4ff6-8386-f5d7e4ace024"},"vehicle_type_id":"4","last_reported":1734459214,"current_range_meters":6800,"station_id":"","pricing_plan_id":"cebpf4jnsgd1na2vs0mg"},{"bike_id":"503b560b-c1b3-401d-ab37-c57ffb0d5203","system_id":"levelo_inurba_marseille","lat":43.268,"lon":5.40267,"is_reserved":false,"is_disabled":false,"rental_uris":{"android":"levelo://app?vid=503b560b-c1b3-401d-ab37-c57ffb0d5203","ios":"levelo://app?vid=503b560b-c1b3-401d-ab37-c57ffb0d5203"},"vehicle_type_id":"4","last_reported":1734459214,"current_range_meters":30000,"station_id":"ce501612rcd8frsf0b60","pricing_plan_id":"cebpf4jnsgd1na2vs0mg"},{"bike_id":"e3b4c4df-5360-4f5d-8a7b-fa9130b13cdb","system_id":"levelo_inurba_marseille","lat":43.30127,"lon":5.38786,"is_reserved":false,"is_disabled":false,"rental_uris":{"android":"levelo://app?vid=e3b4c4df-5360-4f5d-8a7b-fa9130b13cdb","ios":"levelo://app?vid=e3b4c4df-5360-4f5d-8a7b-fa9130b13cdb"},"vehicle_type_id":"4","last_reported":1734459214,"current_range_meters":12400,"station_id":"ce4bghh2rcd13ifvqb60","pricing_plan_id":"cebpf4jnsgd1na2vs0mg"},{"bike_id":"f9b50154-6a11-4a4a-868c-2ef2f8ea9fde","system_id":"levelo_inurba_marseille","lat":43.30135,"lon":5.38773,"is_reserved":false,"is_disabled":false,"rental_uris":{"android":"levelo://app?vid=f9b50154-6a11-4a4a-868c-2ef2f8ea9fde","ios":"levelo://app?vid=f9b50154-6a11-4a4a-868c-2ef2f8ea9fde"},"vehicle_type_id":"4","last_reported":1734459214,"current_range_meters":16800,"station_id":"ce4bghh2rcd13ifvqb60","pricing_plan_id":"cebpf4jnsgd1na2vs0mg"},{"bike_id":"4ef58d0d-8e30-4280-aa40-6d3ae5111f3b","system_id":"levelo_inurba_marseille","lat":43.30567,"lon":5.36919,"is_reserved":false,"is_disabled":false,"rental_uris":{"android":"levelo://app?vid=4ef58d0d-8e30-4280-aa40-6d3ae5111f3b","ios":"levelo://app?vid=4ef58d0d-8e30-4280-aa40-6d3ae5111f3b"},"vehicle_type_id":"4","last_reported":1734459214,"current_range_meters":38000,"station_id":"","pricing_plan_id":"cebpf4jnsgd1na2vs0mg"},{"bike_id":"7bdcb1da-1df3-4bbe-9236-a610da662db3","system_id":"levelo_inurba_marseille","lat":43.29687,"lon":5.37293,"is_reserved":false,"is_disabled":false,"rental_uris":{"android":"levelo://app?vid=7bdcb1da-1df3-4bbe-9236-a610da662db3","ios":"levelo://app?vid=7bdcb1da-1df3-4bbe-9236-a610da662db3"},"vehicle_type_id":"4","last_reported":1734459214,"current_range_meters":12800,"station_id":"ce4bgk12rcd13ifvqbj0","pricing_plan_id":"cebpf4jnsgd1na2vs0mg"},{"bike_id":"217019ea-8c08-4175-aab7-04728a42bf44","system_id":"levelo_inurba_marseille","lat":43.29517,"lon":5.39046,"is_reserved":false,"is_disabled":false,"rental_uris":{"android":"levelo://app?vid=217019ea-8c08-4175-aab7-04728a42bf44","ios":"levelo://app?vid=217019ea-8c08-4175-aab7-04728a42bf44"},"vehicle_type_id":"4","last_reported":1734459214,"current_range_meters":6800,"station_id":"ce4bh3p2rcd13ifvqdp0","pricing_plan_id":"cebpf4jnsgd1na2vs0mg"},{"bike_id":"bfe97e7b-6b0b-4bdc-83b9-1bac7752b9af","system_id":"levelo_inurba_marseille","lat":43.28849,"lon":5.35849,"is_reserved":false,"is_disabled":false,"rental_uris":{"android":"levelo://app?vid=bfe97e7b-6b0b-4bdc-83b9-1bac7752b9af","ios":"levelo://app?vid=bfe97e7b-6b0b-4bdc-83b9-1bac7752b9af"},"vehicle_type_id":"4","last_reported":1734459214,"current_range_meters":24800,"station_id":"ce4bhb12rcd13ifvqem0","pricing_plan_id":"cebpf4jnsgd1na2vs0mg"},{"bike_id":"235e18d6-4761-40a0-92a8-90ad85b34e02","system_id":"levelo_inurba_marseille","lat":43.3171,"lon":5.43704,"is_reserved":false,"is_disabled":false,"rental_uris":{"android":"levelo://app?vid=235e18d6-4761-40a0-92a8-90ad85b34e02","ios":"levelo://app?vid=235e18d6-4761-40a0-92a8-90ad85b34e02"},"vehicle_type_id":"4","last_reported":1734459214,"current_range_meters":9200,"station_id":"ce4bhp92rcd13ifvqhcg","pricing_plan_id":"cebpf4jnsgd1na2vs0mg"},{"bike_id":"33a6cab6-9865-4172-8f1d-a5789e8467c5","system_id":"levelo_inurba_marseille","lat":43.3302,"lon":5.39044,"is_reserved":false,"is_disabled":false,"rental_uris":{"android":"levelo://app?vid=33a6cab6-9865-4172-8f1d-a5789e8467c5","ios":"levelo://app?vid=33a6cab6-9865-4172-8f1d-a5789e8467c5"},"vehicle_type_id":"4","last_reported":1734459214,"current_range_meters":14400,"station_id":"ce4bhr92rcd13ifvqhrg","pricing_plan_id":"cebpf4jnsgd1na2vs0mg"},{"bike_id":"3581cbf2-1bdf-434e-90fb-5ae87912cf6b","system_id":"levelo_inurba_marseille","lat":43.24996,"lon":5.38938,"is_reserved":false,"is_disabled":false,"rental_uris":{"android":"levelo://app?vid=3581cbf2-1bdf-434e-90fb-5ae87912cf6b","ios":"levelo://app?vid=3581cbf2-1bdf-434e-90fb-5ae87912cf6b"},"vehicle_type_id":"4","last_reported":1734459214,"current_range_meters":15200,"station_id":"ce4bhgp2rcd13ifvqfd0","pricing_plan_id":"cebpf4jnsgd1na2vs0mg"},{"bike_id":"aacc7da2-1446-4d2a-aa32-e804470fc32d","system_id":"levelo_inurba_marseille","lat":43.3009,"lon":5.38301,"is_reserved":false,"is_disabled":true,"rental_uris":{"android":"levelo://app?vid=aacc7da2-1446-4d2a-aa32-e804470fc32d","ios":"levelo://app?vid=aacc7da2-1446-4d2a-aa32-e804470fc32d"},"vehicle_type_id":"4","last_reported":1734459214,"current_range_meters":23200,"station_id":"","pricing_plan_id":"cebpf4jnsgd1na2vs0mg"},{"bike_id":"937c90ec-cf04-465b-97b2-ee54435829e8","system_id":"levelo_inurba_marseille","lat":43.301974,"lon":5.366212,"is_reserved":false,"is_disabled":true,"rental_uris":{"android":"levelo://app?vid=937c90ec-cf04-465b-97b2-ee54435829e8","ios":"levelo://app?vid=937c90ec-cf04-465b-97b2-ee54435829e8"},"vehicle_type_id":"4","last_reported":1734459214,"current_range_meters":30400,"station_id":"","pricing_plan_id":"cebpf4jnsgd1na2vs0mg"},{"bike_id":"124e6c05-4926-4207-84f5-da69a7334d60","system_id":"levelo_inurba_marseille","lat":43.29028,"lon":5.38134,"is_reserved":false,"is_disabled":true,"rental_uris":{"android":"levelo://app?vid=124e6c05-4926-4207-84f5-da69a7334d60","ios":"levelo://app?vid=124e6c05-4926-4207-84f5-da69a7334d60"},"vehicle_type_id":"4","last_reported":1734459214,"current_range_meters":37600,"station_id":"ce4bh4p2rcd13ifvqe1g","pricing_plan_id":"cebpf4jnsgd1na2vs0mg"},{"bike_id":"b56c4a15-79b4-43a7-be93-f93d9975d6ed","system_id":"levelo_inurba_marseille","lat":43.26933,"lon":5.40253,"is_reserved":false,"is_disabled":false,"rental_uris":{"android":"levelo://app?vid=b56c4a15-79b4-43a7-be93-f93d9975d6ed","ios":"levelo://app?vid=b56c4a15-79b4-43a7-be93-f93d9975d6ed"},"vehicle_type_id":"4","last_reported":1734459214,"current_range_meters":14800,"station_id":"cjm6bp8fraef2m0cb0m0","pricing_plan_id":"cebpf4jnsgd1na2vs0mg"},{"bike_id":"6f168e46-9648-41fc-b6a8-e041ecc91ce6","system_id":"levelo_inurba_marseille","lat":43.27002,"lon":5.39954,"is_reserved":false,"is_disabled":false,"rental_uris":{"android":"levelo://app?vid=6f168e46-9648-41fc-b6a8-e041ecc91ce6","ios":"levelo://app?vid=6f168e46-9648-41fc-b6a8-e041ecc91ce6"},"vehicle_type_id":"4","last_reported":1734459214,"current_range_meters":11600,"station_id":"","pricing_plan_id":"cebpf4jnsgd1na2vs0mg"},{"bike_id":"dc0e6df7-295d-4e62-8939-9c7a9d49b036","system_id":"levelo_inurba_marseille","lat":43.29966,"lon":5.41342,"is_reserved":false,"is_disabled":true,"rental_uris":{"android":"levelo://app?vid=dc0e6df7-295d-4e62-8939-9c7a9d49b036","ios":"levelo://app?vid=dc0e6df7-295d-4e62-8939-9c7a9d49b036"},"vehicle_type_id":"4","last_reported":1734459214,"current_range_meters":28800,"station_id":"ce4bhp12rcd13ifvqh9g","pricing_plan_id":"cebpf4jnsgd1na2vs0mg"},{"bike_id":"155b2220-5ccb-4d6d-9939-92b8e530de66","system_id":"levelo_inurba_marseille","lat":43.29366,"lon":5.37867,"is_reserved":false,"is_disabled":false,"rental_uris":{"android":"levelo://app?vid=155b2220-5ccb-4d6d-9939-92b8e530de66","ios":"levelo://app?vid=155b2220-5ccb-4d6d-9939-92b8e530de66"},"vehicle_type_id":"4","last_reported":1734459214,"current_range_meters":37600,"station_id":"ce4bgjh2rcd13ifvqbf0","pricing_plan_id":"cebpf4jnsgd1na2vs0mg"},{"bike_id":"0a63bca6-39a0-42cf-bc8f-cd65c34f24df","system_id":"levelo_inurba_marseille","lat":43.24648,"lon":5.38885,"is_reserved":false,"is_disabled":false,"rental_uris":{"android":"levelo://app?vid=0a63bca6-39a0-42cf-bc8f-cd65c34f24df","ios":"levelo://app?vid=0a63bca6-39a0-42cf-bc8f-cd65c34f24df"},"vehicle_type_id":"4","last_reported":1734459214,"current_range_meters":38400,"station_id":"ce4bhg12rcd13ifvqf60","pricing_plan_id":"cebpf4jnsgd1na2vs0mg"},{"bike_id":"9a8e68f0-d65b-4e88-a56d-56a828ded14b","system_id":"levelo_inurba_marseille","lat":43.33022,"lon":5.39032,"is_reserved":false,"is_disabled":false,"rental_uris":{"android":"levelo://app?vid=9a8e68f0-d65b-4e88-a56d-56a828ded14b","ios":"levelo://app?vid=9a8e68f0-d65b-4e88-a56d-56a828ded14b"},"vehicle_type_id":"4","last_reported":1734459214,"current_range_meters":24800,"station_id":"ce4bhr92rcd13ifvqhrg","pricing_plan_id":"cebpf4jnsgd1na2vs0mg"},{"bike_id":"ea1ee0a0-f240-4d25-84d9-e6fb6fc7a18c","system_id":"levelo_inurba_marseille","lat":43.33767,"lon":5.4209,"is_reserved":false,"is_disabled":true,"rental_uris":{"android":"levelo://app?vid=ea1ee0a0-f240-4d25-84d9-e6fb6fc7a18c","ios":"levelo://app?vid=ea1ee0a0-f240-4d25-84d9-e6fb6fc7a18c"},"vehicle_type_id":"4","last_reported":1734459214,"current_range_meters":0,"station_id":"","pricing_plan_id":"cebpf4jnsgd1na2vs0mg"},{"bike_id":"06c6e1cd-66a9-44f1-a613-032c381bdb70","system_id":"levelo_inurba_marseille","lat":43.28453,"lon":5.35891,"is_reserved":false,"is_disabled":false,"rental_uris":{"android":"levelo://app?vid=06c6e1cd-66a9-44f1-a613-032c381bdb70","ios":"levelo://app?vid=06c6e1cd-66a9-44f1-a613-032c381bdb70"},"vehicle_type_id":"4","last_reported":1734459214,"current_range_meters":25200,"station_id":"ce4bhah2rcd13ifvqei0","pricing_plan_id":"cebpf4jnsgd1na2vs0mg"},{"bike_id":"12b4b165-951a-4db7-8b79-0bc1787b0fa0","system_id":"levelo_inurba_marseille","lat":43.31746,"lon":5.39033,"is_reserved":false,"is_disabled":false,"rental_uris":{"android":"levelo://app?vid=12b4b165-951a-4db7-8b79-0bc1787b0fa0","ios":"levelo://app?vid=12b4b165-951a-4db7-8b79-0bc1787b0fa0"},"vehicle_type_id":"4","last_reported":1734459214,"current_range_meters":38800,"station_id":"ce4bhqp2rcd13ifvqhng","pricing_plan_id":"cebpf4jnsgd1na2vs0mg"},{"bike_id":"a2f60cbb-aa02-4530-92a3-7597251e95e4","system_id":"levelo_inurba_marseille","lat":43.26676,"lon":5.3825,"is_reserved":false,"is_disabled":true,"rental_uris":{"android":"levelo://app?vid=a2f60cbb-aa02-4530-92a3-7597251e95e4","ios":"levelo://app?vid=a2f60cbb-aa02-4530-92a3-7597251e95e4"},"vehicle_type_id":"4","last_reported":1734459214,"current_range_meters":34000,"station_id":"ce4bhg92rcd13ifvqf90","pricing_plan_id":"cebpf4jnsgd1na2vs0mg"},{"bike_id":"50088aac-c73d-45fc-b12a-81ed4c175ca1","system_id":"levelo_inurba_marseille","lat":43.29417,"lon":5.38623,"is_reserved":false,"is_disabled":false,"rental_uris":{"android":"levelo://app?vid=50088aac-c73d-45fc-b12a-81ed4c175ca1","ios":"levelo://app?vid=50088aac-c73d-45fc-b12a-81ed4c175ca1"},"vehicle_type_id":"4","last_reported":1734459214,"current_range_meters":30000,"station_id":"ce4bh2h2rcd13ifvqdh0","pricing_plan_id":"cebpf4jnsgd1na2vs0mg"},{"bike_id":"db3efd52-a770-4300-a218-62497b6d520d","system_id":"levelo_inurba_marseille","lat":43.29443,"lon":5.39748,"is_reserved":false,"is_disabled":false,"rental_uris":{"android":"levelo://app?vid=db3efd52-a770-4300-a218-62497b6d520d","ios":"levelo://app?vid=db3efd52-a770-4300-a218-62497b6d520d"},"vehicle_type_id":"4","last_reported":1734459214,"current_range_meters":38800,"station_id":"ce4bh3h2rcd13ifvqdo0","pricing_plan_id":"cebpf4jnsgd1na2vs0mg"},{"bike_id":"2b9e5232-81d0-497c-a52e-1e7fea60b29a","system_id":"levelo_inurba_marseille","lat":43.32365,"lon":5.38879,"is_reserved":false,"is_disabled":false,"rental_uris":{"android":"levelo://app?vid=2b9e5232-81d0-497c-a52e-1e7fea60b29a","ios":"levelo://app?vid=2b9e5232-81d0-497c-a52e-1e7fea60b29a"},"vehicle_type_id":"4","last_reported":1734459214,"current_range_meters":27600,"station_id":"ce4bhqp2rcd13ifvqhog","pricing_plan_id":"cebpf4jnsgd1na2vs0mg"},{"bike_id":"7d6ada81-fb94-4a18-91f8-d67d9c990c45","system_id":"levelo_inurba_marseille","lat":43.26491,"lon":5.39549,"is_reserved":false,"is_disabled":false,"rental_uris":{"android":"levelo://app?vid=7d6ada81-fb94-4a18-91f8-d67d9c990c45","ios":"levelo://app?vid=7d6ada81-fb94-4a18-91f8-d67d9c990c45"},"vehicle_type_id":"4","last_reported":1734459214,"current_range_meters":36800,"station_id":"ce4bhi12rcd13ifvqfq0","pricing_plan_id":"cebpf4jnsgd1na2vs0mg"},{"bike_id":"fdae6994-2b52-4fd0-8d8f-e92f1ee91c77","system_id":"levelo_inurba_marseille","lat":43.28456,"lon":5.358912,"is_reserved":false,"is_disabled":false,"rental_uris":{"android":"levelo://app?vid=fdae6994-2b52-4fd0-8d8f-e92f1ee91c77","ios":"levelo://app?vid=fdae6994-2b52-4fd0-8d8f-e92f1ee91c77"},"vehicle_type_id":"4","last_reported":1734459214,"current_range_meters":30800,"station_id":"ce4bhah2rcd13ifvqei0","pricing_plan_id":"cebpf4jnsgd1na2vs0mg"},{"bike_id":"d5bb5233-5c13-4106-a5af-af43f6e0c448","system_id":"levelo_inurba_marseille","lat":43.31354,"lon":5.38499,"is_reserved":false,"is_disabled":false,"rental_uris":{"android":"levelo://app?vid=d5bb5233-5c13-4106-a5af-af43f6e0c448","ios":"levelo://app?vid=d5bb5233-5c13-4106-a5af-af43f6e0c448"},"vehicle_type_id":"4","last_reported":1734459214,"current_range_meters":38800,"station_id":"ce4bgt92rcd13ifvqcf0","pricing_plan_id":"cebpf4jnsgd1na2vs0mg"},{"bike_id":"38f20744-af43-4445-b9c5-a52798357518","system_id":"levelo_inurba_marseille","lat":43.25492,"lon":5.37636,"is_reserved":false,"is_disabled":false,"rental_uris":{"android":"levelo://app?vid=38f20744-af43-4445-b9c5-a52798357518","ios":"levelo://app?vid=38f20744-af43-4445-b9c5-a52798357518"},"vehicle_type_id":"4","last_reported":1734459214,"current_range_meters":38400,"station_id":"ce4bhh12rcd13ifvqff0","pricing_plan_id":"cebpf4jnsgd1na2vs0mg"},{"bike_id":"00be876c-e14b-41c6-9591-188eefbc6916","system_id":"levelo_inurba_marseille","lat":43.29032,"lon":5.37571,"is_reserved":false,"is_disabled":false,"rental_uris":{"android":"levelo://app?vid=00be876c-e14b-41c6-9591-188eefbc6916","ios":"levelo://app?vid=00be876c-e14b-41c6-9591-188eefbc6916"},"vehicle_type_id":"4","last_reported":1734459214,"current_range_meters":32800,"station_id":"ce4bh692rcd13ifvqe90","pricing_plan_id":"cebpf4jnsgd1na2vs0mg"},{"bike_id":"4241ecef-1663-4f52-b5be-38bdac7e5603","system_id":"levelo_inurba_marseille","lat":43.29703,"lon":5.36598,"is_reserved":false,"is_disabled":false,"rental_uris":{"android":"levelo://app?vid=4241ecef-1663-4f52-b5be-38bdac7e5603","ios":"levelo://app?vid=4241ecef-1663-4f52-b5be-38bdac7e5603"},"vehicle_type_id":"4","last_reported":1734459214,"current_range_meters":38400,"station_id":"ce4bgn12rcd13ifvqbt0","pricing_plan_id":"cebpf4jnsgd1na2vs0mg"},{"bike_id":"309d831f-115c-4adf-a559-0862791f9321","system_id":"levelo_inurba_marseille","lat":43.26566,"lon":5.39007,"is_reserved":false,"is_disabled":false,"rental_uris":{"android":"levelo://app?vid=309d831f-115c-4adf-a559-0862791f9321","ios":"levelo://app?vid=309d831f-115c-4adf-a559-0862791f9321"},"vehicle_type_id":"4","last_reported":1734459214,"current_range_meters":16000,"station_id":"ce4bhe12rcd13ifvqf30","pricing_plan_id":"cebpf4jnsgd1na2vs0mg"},{"bike_id":"798b9048-2d0c-4fec-948c-1ef5a62cda3d","system_id":"levelo_inurba_marseille","lat":43.29017,"lon":5.38137,"is_reserved":false,"is_disabled":true,"rental_uris":{"android":"levelo://app?vid=798b9048-2d0c-4fec-948c-1ef5a62cda3d","ios":"levelo://app?vid=798b9048-2d0c-4fec-948c-1ef5a62cda3d"},"vehicle_type_id":"4","last_reported":1734459214,"current_range_meters":0,"station_id":"ce4bh4p2rcd13ifvqe1g","pricing_plan_id":"cebpf4jnsgd1na2vs0mg"},{"bike_id":"aaa71900-20b6-4b6d-8833-64cc240b11bb","system_id":"levelo_inurba_marseille","lat":43.31063,"lon":5.40105,"is_reserved":false,"is_disabled":false,"rental_uris":{"android":"levelo://app?vid=aaa71900-20b6-4b6d-8833-64cc240b11bb","ios":"levelo://app?vid=aaa71900-20b6-4b6d-8833-64cc240b11bb"},"vehicle_type_id":"4","last_reported":1734459214,"current_range_meters":10000,"station_id":"","pricing_plan_id":"cebpf4jnsgd1na2vs0mg"},{"bike_id":"7b99b9e0-22f7-471f-89c6-bd1477871d42","system_id":"levelo_inurba_marseille","lat":43.26936,"lon":5.4025,"is_reserved":false,"is_disabled":false,"rental_uris":{"android":"levelo://app?vid=7b99b9e0-22f7-471f-89c6-bd1477871d42","ios":"levelo://app?vid=7b99b9e0-22f7-471f-89c6-bd1477871d42"},"vehicle_type_id":"4","last_reported":1734459214,"current_range_meters":39200,"station_id":"cjm6bp8fraef2m0cb0m0","pricing_plan_id":"cebpf4jnsgd1na2vs0mg"},{"bike_id":"45b39e50-137b-40ed-8099-af5b128ed6d9","system_id":"levelo_inurba_marseille","lat":43.29548,"lon":5.42283,"is_reserved":false,"is_disabled":false,"rental_uris":{"android":"levelo://app?vid=45b39e50-137b-40ed-8099-af5b128ed6d9","ios":"levelo://app?vid=45b39e50-137b-40ed-8099-af5b128ed6d9"},"vehicle_type_id":"4","last_reported":1734459214,"current_range_meters":22400,"station_id":"ce4bhph2rcd13ifvqhdg","pricing_plan_id":"cebpf4jnsgd1na2vs0mg"},{"bike_id":"29178437-6c99-4660-97f8-8e869a8bd3ad","system_id":"levelo_inurba_marseille","lat":43.295467,"lon":5.422883,"is_reserved":false,"is_disabled":false,"rental_uris":{"android":"levelo://app?vid=29178437-6c99-4660-97f8-8e869a8bd3ad","ios":"levelo://app?vid=29178437-6c99-4660-97f8-8e869a8bd3ad"},"vehicle_type_id":"4","last_reported":1734459214,"current_range_meters":30000,"station_id":"ce4bhph2rcd13ifvqhdg","pricing_plan_id":"cebpf4jnsgd1na2vs0mg"},{"bike_id":"77b045ec-31af-4db4-b5a1-524f94c3c261","system_id":"levelo_inurba_marseille","lat":43.29296,"lon":5.3744,"is_reserved":false,"is_disabled":true,"rental_uris":{"android":"levelo://app?vid=77b045ec-31af-4db4-b5a1-524f94c3c261","ios":"levelo://app?vid=77b045ec-31af-4db4-b5a1-524f94c3c261"},"vehicle_type_id":"4","last_reported":1734459214,"current_range_meters":35600,"station_id":"ce4bgi12rcd13ifvqb70","pricing_plan_id":"cebpf4jnsgd1na2vs0mg"},{"bike_id":"d774e763-92c6-4654-b810-88d664cba7fc","system_id":"levelo_inurba_marseille","lat":43.28104,"lon":5.37842,"is_reserved":false,"is_disabled":false,"rental_uris":{"android":"levelo://app?vid=d774e763-92c6-4654-b810-88d664cba7fc","ios":"levelo://app?vid=d774e763-92c6-4654-b810-88d664cba7fc"},"vehicle_type_id":"4","last_reported":1734459214,"current_range_meters":28400,"station_id":"ce4bha12rcd13ifvqee0","pricing_plan_id":"cebpf4jnsgd1na2vs0mg"},{"bike_id":"4f720f2b-c111-4327-aa85-323f2f97bdbe","system_id":"levelo_inurba_marseille","lat":43.27807,"lon":5.40712,"is_reserved":false,"is_disabled":false,"rental_uris":{"android":"levelo://app?vid=4f720f2b-c111-4327-aa85-323f2f97bdbe","ios":"levelo://app?vid=4f720f2b-c111-4327-aa85-323f2f97bdbe"},"vehicle_type_id":"4","last_reported":1734459214,"current_range_meters":36800,"station_id":"ce4bhnh2rcd13ifvqgtg","pricing_plan_id":"cebpf4jnsgd1na2vs0mg"},{"bike_id":"40b87c45-7a27-47f6-9b54-3fe9e3b20b0a","system_id":"levelo_inurba_marseille","lat":43.26021,"lon":5.37544,"is_reserved":false,"is_disabled":false,"rental_uris":{"android":"levelo://app?vid=40b87c45-7a27-47f6-9b54-3fe9e3b20b0a","ios":"levelo://app?vid=40b87c45-7a27-47f6-9b54-3fe9e3b20b0a"},"vehicle_type_id":"4","last_reported":1734459214,"current_range_meters":39200,"station_id":"ce4bhgh2rcd13ifvqfa0","pricing_plan_id":"cebpf4jnsgd1na2vs0mg"},{"bike_id":"a74e2f2e-5305-46cf-a4a9-9eb5976ad548","system_id":"levelo_inurba_marseille","lat":43.27928,"lon":5.39568,"is_reserved":false,"is_disabled":false,"rental_uris":{"android":"levelo://app?vid=a74e2f2e-5305-46cf-a4a9-9eb5976ad548","ios":"levelo://app?vid=a74e2f2e-5305-46cf-a4a9-9eb5976ad548"},"vehicle_type_id":"4","last_reported":1734459214,"current_range_meters":38800,"station_id":"ce4bhf92rcd13ifvqf40","pricing_plan_id":"cebpf4jnsgd1na2vs0mg"},{"bike_id":"7ac5424e-a731-49fe-826a-ac5d1fb7499c","system_id":"levelo_inurba_marseille","lat":43.29404,"lon":5.38622,"is_reserved":false,"is_disabled":true,"rental_uris":{"android":"levelo://app?vid=7ac5424e-a731-49fe-826a-ac5d1fb7499c","ios":"levelo://app?vid=7ac5424e-a731-49fe-826a-ac5d1fb7499c"},"vehicle_type_id":"4","last_reported":1734459214,"current_range_meters":800,"station_id":"ce4bh2h2rcd13ifvqdh0","pricing_plan_id":"cebpf4jnsgd1na2vs0mg"},{"bike_id":"e1d51bac-dff9-48fe-9b47-c82a07f2a608","system_id":"levelo_inurba_marseille","lat":43.28717,"lon":5.37937,"is_reserved":false,"is_disabled":false,"rental_uris":{"android":"levelo://app?vid=e1d51bac-dff9-48fe-9b47-c82a07f2a608","ios":"levelo://app?vid=e1d51bac-dff9-48fe-9b47-c82a07f2a608"},"vehicle_type_id":"4","last_reported":1734459214,"current_range_meters":16000,"station_id":"ce4bh9p2rcd13ifvqec0","pricing_plan_id":"cebpf4jnsgd1na2vs0mg"},{"bike_id":"7c53dacc-971b-4b71-896b-fb9f55667a41","system_id":"levelo_inurba_marseille","lat":43.30797,"lon":5.37363,"is_reserved":false,"is_disabled":false,"rental_uris":{"android":"levelo://app?vid=7c53dacc-971b-4b71-896b-fb9f55667a41","ios":"levelo://app?vid=7c53dacc-971b-4b71-896b-fb9f55667a41"},"vehicle_type_id":"4","last_reported":1734459214,"current_range_meters":27200,"station_id":"","pricing_plan_id":"cebpf4jnsgd1na2vs0mg"},{"bike_id":"939ef11f-362b-4ed3-aded-ebb978be04f1","system_id":"levelo_inurba_marseille","lat":43.27922,"lon":5.41012,"is_reserved":false,"is_disabled":false,"rental_uris":{"android":"levelo://app?vid=939ef11f-362b-4ed3-aded-ebb978be04f1","ios":"levelo://app?vid=939ef11f-362b-4ed3-aded-ebb978be04f1"},"vehicle_type_id":"4","last_reported":1734459214,"current_range_meters":32400,"station_id":"ce4bhnp2rcd13ifvqh0g","pricing_plan_id":"cebpf4jnsgd1na2vs0mg"},{"bike_id":"399886e1-1fd8-45ef-b9a3-f32444b7db24","system_id":"levelo_inurba_marseille","lat":43.27322,"lon":5.39087,"is_reserved":false,"is_disabled":true,"rental_uris":{"android":"levelo://app?vid=399886e1-1fd8-45ef-b9a3-f32444b7db24","ios":"levelo://app?vid=399886e1-1fd8-45ef-b9a3-f32444b7db24"},"vehicle_type_id":"4","last_reported":1734459214,"current_range_meters":35600,"station_id":"ce4bhgp2rcd13ifvqfe0","pricing_plan_id":"cebpf4jnsgd1na2vs0mg"},{"bike_id":"cebb2fe6-dd82-4aa3-a8d5-f3291341a320","system_id":"levelo_inurba_marseille","lat":43.24681,"lon":5.38174,"is_reserved":false,"is_disabled":false,"rental_uris":{"android":"levelo://app?vid=cebb2fe6-dd82-4aa3-a8d5-f3291341a320","ios":"levelo://app?vid=cebb2fe6-dd82-4aa3-a8d5-f3291341a320"},"vehicle_type_id":"4","last_reported":1734459214,"current_range_meters":22400,"station_id":"ce4bhih2rcd13ifvqfr0","pricing_plan_id":"cebpf4jnsgd1na2vs0mg"},{"bike_id":"782bcbf2-b7de-4b04-bebc-aaa0329dd90c","system_id":"levelo_inurba_marseille","lat":43.23187,"lon":5.35547,"is_reserved":false,"is_disabled":false,"rental_uris":{"android":"levelo://app?vid=782bcbf2-b7de-4b04-bebc-aaa0329dd90c","ios":"levelo://app?vid=782bcbf2-b7de-4b04-bebc-aaa0329dd90c"},"vehicle_type_id":"4","last_reported":1734459214,"current_range_meters":38800,"station_id":"ce4bhu92rcd13ifvqi70","pricing_plan_id":"cebpf4jnsgd1na2vs0mg"},{"bike_id":"a925316d-9d31-43b0-a430-5cb1bef87372","system_id":"levelo_inurba_marseille","lat":43.2718,"lon":5.40992,"is_reserved":false,"is_disabled":false,"rental_uris":{"android":"levelo://app?vid=a925316d-9d31-43b0-a430-5cb1bef87372","ios":"levelo://app?vid=a925316d-9d31-43b0-a430-5cb1bef87372"},"vehicle_type_id":"4","last_reported":1734459214,"current_range_meters":24400,"station_id":"ce4bhl12rcd13ifvqgf0","pricing_plan_id":"cebpf4jnsgd1na2vs0mg"},{"bike_id":"540c19ab-e8ac-4092-909b-c3e5069b6978","system_id":"levelo_inurba_marseille","lat":43.337444,"lon":5.374475,"is_reserved":false,"is_disabled":true,"rental_uris":{"android":"levelo://app?vid=540c19ab-e8ac-4092-909b-c3e5069b6978","ios":"levelo://app?vid=540c19ab-e8ac-4092-909b-c3e5069b6978"},"vehicle_type_id":"4","last_reported":1734459214,"current_range_meters":0,"station_id":"","pricing_plan_id":"cebpf4jnsgd1na2vs0mg"},{"bike_id":"a83f1763-10d1-4759-91e9-755d5c1ed28d","system_id":"levelo_inurba_marseille","lat":43.29584,"lon":5.36735,"is_reserved":false,"is_disabled":false,"rental_uris":{"android":"levelo://app?vid=a83f1763-10d1-4759-91e9-755d5c1ed28d","ios":"levelo://app?vid=a83f1763-10d1-4759-91e9-755d5c1ed28d"},"vehicle_type_id":"4","last_reported":1734459214,"current_range_meters":38800,"station_id":"ce4bgph2rcd13ifvqc2g","pricing_plan_id":"cebpf4jnsgd1na2vs0mg"},{"bike_id":"6d0fe413-c02d-44e5-bae7-4197d61df69e","system_id":"levelo_inurba_marseille","lat":43.29616,"lon":5.37151,"is_reserved":false,"is_disabled":false,"rental_uris":{"android":"levelo://app?vid=6d0fe413-c02d-44e5-bae7-4197d61df69e","ios":"levelo://app?vid=6d0fe413-c02d-44e5-bae7-4197d61df69e"},"vehicle_type_id":"4","last_reported":1734459214,"current_range_meters":36800,"station_id":"ce4bgnh2rcd13ifvqc0g","pricing_plan_id":"cebpf4jnsgd1na2vs0mg"},{"bike_id":"0e853b40-5ab0-423f-9897-613da707d815","system_id":"levelo_inurba_marseille","lat":43.2781,"lon":5.40711,"is_reserved":false,"is_disabled":false,"rental_uris":{"android":"levelo://app?vid=0e853b40-5ab0-423f-9897-613da707d815","ios":"levelo://app?vid=0e853b40-5ab0-423f-9897-613da707d815"},"vehicle_type_id":"4","last_reported":1734459214,"current_range_meters":9600,"station_id":"ce4bhnh2rcd13ifvqgtg","pricing_plan_id":"cebpf4jnsgd1na2vs0mg"},{"bike_id":"99b91171-fdca-426c-9c5c-0f1db2efdad6","system_id":"levelo_inurba_marseille","lat":43.27804,"lon":5.40704,"is_reserved":false,"is_disabled":false,"rental_uris":{"android":"levelo://app?vid=99b91171-fdca-426c-9c5c-0f1db2efdad6","ios":"levelo://app?vid=99b91171-fdca-426c-9c5c-0f1db2efdad6"},"vehicle_type_id":"4","last_reported":1734459214,"current_range_meters":38000,"station_id":"ce4bhnh2rcd13ifvqgtg","pricing_plan_id":"cebpf4jnsgd1na2vs0mg"},{"bike_id":"5b9dadf4-f3ef-496a-933f-556a1442196c","system_id":"levelo_inurba_marseille","lat":43.27949,"lon":5.4104,"is_reserved":false,"is_disabled":false,"rental_uris":{"android":"levelo://app?vid=5b9dadf4-f3ef-496a-933f-556a1442196c","ios":"levelo://app?vid=5b9dadf4-f3ef-496a-933f-556a1442196c"},"vehicle_type_id":"4","last_reported":1734459214,"current_range_meters":38800,"station_id":"ce4bhnp2rcd13ifvqh0g","pricing_plan_id":"cebpf4jnsgd1na2vs0mg"},{"bike_id":"52ab890a-0d03-4302-bf47-9d77d5300a88","system_id":"levelo_inurba_marseille","lat":43.26565,"lon":5.39009,"is_reserved":false,"is_disabled":false,"rental_uris":{"android":"levelo://app?vid=52ab890a-0d03-4302-bf47-9d77d5300a88","ios":"levelo://app?vid=52ab890a-0d03-4302-bf47-9d77d5300a88"},"vehicle_type_id":"4","last_reported":1734459214,"current_range_meters":30000,"station_id":"ce4bhe12rcd13ifvqf30","pricing_plan_id":"cebpf4jnsgd1na2vs0mg"},{"bike_id":"62c99ef1-ed98-40bb-9ebe-4b8107ad9967","system_id":"levelo_inurba_marseille","lat":43.28351,"lon":5.38098,"is_reserved":false,"is_disabled":false,"rental_uris":{"android":"levelo://app?vid=62c99ef1-ed98-40bb-9ebe-4b8107ad9967","ios":"levelo://app?vid=62c99ef1-ed98-40bb-9ebe-4b8107ad9967"},"vehicle_type_id":"4","last_reported":1734459214,"current_range_meters":4800,"station_id":"ce4bh412rcd13ifvqdr0","pricing_plan_id":"cebpf4jnsgd1na2vs0mg"},{"bike_id":"777ef46c-6547-4410-93ec-789cc0b6ae49","system_id":"levelo_inurba_marseille","lat":43.26784,"lon":5.39413,"is_reserved":false,"is_disabled":false,"rental_uris":{"android":"levelo://app?vid=777ef46c-6547-4410-93ec-789cc0b6ae49","ios":"levelo://app?vid=777ef46c-6547-4410-93ec-789cc0b6ae49"},"vehicle_type_id":"4","last_reported":1734459214,"current_range_meters":19600,"station_id":"ce4bhh12rcd13ifvqfg0","pricing_plan_id":"cebpf4jnsgd1na2vs0mg"},{"bike_id":"c3b424bb-fd0e-47f4-a836-477f2e6a1cc1","system_id":"levelo_inurba_marseille","lat":43.29525,"lon":5.39048,"is_reserved":false,"is_disabled":false,"rental_uris":{"android":"levelo://app?vid=c3b424bb-fd0e-47f4-a836-477f2e6a1cc1","ios":"levelo://app?vid=c3b424bb-fd0e-47f4-a836-477f2e6a1cc1"},"vehicle_type_id":"4","last_reported":1734459214,"current_range_meters":24400,"station_id":"ce4bh3p2rcd13ifvqdp0","pricing_plan_id":"cebpf4jnsgd1na2vs0mg"},{"bike_id":"e40982b3-d070-4ac9-9d92-78dbbb3e6a49","system_id":"levelo_inurba_marseille","lat":43.29568,"lon":5.39978,"is_reserved":false,"is_disabled":false,"rental_uris":{"android":"levelo://app?vid=e40982b3-d070-4ac9-9d92-78dbbb3e6a49","ios":"levelo://app?vid=e40982b3-d070-4ac9-9d92-78dbbb3e6a49"},"vehicle_type_id":"4","last_reported":1734459214,"current_range_meters":9200,"station_id":"ce4bh312rcd13ifvqdj0","pricing_plan_id":"cebpf4jnsgd1na2vs0mg"},{"bike_id":"1adaea00-ed72-49a8-91bf-6c20e9f42f29","system_id":"levelo_inurba_marseille","lat":43.23187,"lon":5.39983,"is_reserved":false,"is_disabled":false,"rental_uris":{"android":"levelo://app?vid=1adaea00-ed72-49a8-91bf-6c20e9f42f29","ios":"levelo://app?vid=1adaea00-ed72-49a8-91bf-6c20e9f42f29"},"vehicle_type_id":"4","last_reported":1734459214,"current_range_meters":27600,"station_id":"ce4bhn12rcd13ifvqgqg","pricing_plan_id":"cebpf4jnsgd1na2vs0mg"},{"bike_id":"272c380d-0e96-4217-82cd-b4ae34bffa4a","system_id":"levelo_inurba_marseille","lat":43.26936,"lon":5.38929,"is_reserved":false,"is_disabled":true,"rental_uris":{"android":"levelo://app?vid=272c380d-0e96-4217-82cd-b4ae34bffa4a","ios":"levelo://app?vid=272c380d-0e96-4217-82cd-b4ae34bffa4a"},"vehicle_type_id":"4","last_reported":1734459214,"current_range_meters":27600,"station_id":"ce4bhhh2rcd13ifvqfl0","pricing_plan_id":"cebpf4jnsgd1na2vs0mg"},{"bike_id":"a1b995ae-f28e-4934-9e45-f901f70579de","system_id":"levelo_inurba_marseille","lat":43.28105,"lon":5.37857,"is_reserved":false,"is_disabled":false,"rental_uris":{"android":"levelo://app?vid=a1b995ae-f28e-4934-9e45-f901f70579de","ios":"levelo://app?vid=a1b995ae-f28e-4934-9e45-f901f70579de"},"vehicle_type_id":"4","last_reported":1734459214,"current_range_meters":38400,"station_id":"ce4bha12rcd13ifvqee0","pricing_plan_id":"cebpf4jnsgd1na2vs0mg"},{"bike_id":"710c8371-a5bf-43ef-b36d-d9df2d5acb68","system_id":"levelo_inurba_marseille","lat":43.26207,"lon":5.37444,"is_reserved":false,"is_disabled":false,"rental_uris":{"android":"levelo://app?vid=710c8371-a5bf-43ef-b36d-d9df2d5acb68","ios":"levelo://app?vid=710c8371-a5bf-43ef-b36d-d9df2d5acb68"},"vehicle_type_id":"4","last_reported":1734459214,"current_range_meters":25200,"station_id":"ce4bhgp2rcd13ifvqfc0","pricing_plan_id":"cebpf4jnsgd1na2vs0mg"},{"bike_id":"4e61d9a1-ea06-4b46-8816-b58fded388ad","system_id":"levelo_inurba_marseille","lat":43.31163,"lon":5.38713,"is_reserved":false,"is_disabled":false,"rental_uris":{"android":"levelo://app?vid=4e61d9a1-ea06-4b46-8816-b58fded388ad","ios":"levelo://app?vid=4e61d9a1-ea06-4b46-8816-b58fded388ad"},"vehicle_type_id":"4","last_reported":1734459214,"current_range_meters":16400,"station_id":"ce4bgv12rcd13ifvqcp0","pricing_plan_id":"cebpf4jnsgd1na2vs0mg"},{"bike_id":"26eba0cd-2ae4-4534-9a3c-db6162593d9c","system_id":"levelo_inurba_marseille","lat":43.27841,"lon":5.39212,"is_reserved":false,"is_disabled":false,"rental_uris":{"android":"levelo://app?vid=26eba0cd-2ae4-4534-9a3c-db6162593d9c","ios":"levelo://app?vid=26eba0cd-2ae4-4534-9a3c-db6162593d9c"},"vehicle_type_id":"4","last_reported":1734459214,"current_range_meters":10000,"station_id":"ce4bhjp2rcd13ifvqga0","pricing_plan_id":"cebpf4jnsgd1na2vs0mg"},{"bike_id":"00267bf4-cbb0-42ab-952a-10399cc5a2b7","system_id":"levelo_inurba_marseille","lat":43.31359,"lon":5.38494,"is_reserved":false,"is_disabled":false,"rental_uris":{"android":"levelo://app?vid=00267bf4-cbb0-42ab-952a-10399cc5a2b7","ios":"levelo://app?vid=00267bf4-cbb0-42ab-952a-10399cc5a2b7"},"vehicle_type_id":"4","last_reported":1734459214,"current_range_meters":22400,"station_id":"ce4bgt92rcd13ifvqcf0","pricing_plan_id":"cebpf4jnsgd1na2vs0mg"},{"bike_id":"fbda7b10-078d-4c58-b700-d8ffd9b7aad2","system_id":"levelo_inurba_marseille","lat":43.29787,"lon":5.38109,"is_reserved":false,"is_disabled":true,"rental_uris":{"android":"levelo://app?vid=fbda7b10-078d-4c58-b700-d8ffd9b7aad2","ios":"levelo://app?vid=fbda7b10-078d-4c58-b700-d8ffd9b7aad2"},"vehicle_type_id":"4","last_reported":1734459214,"current_range_meters":27600,"station_id":"ce4bgip2rcd13ifvqbb0","pricing_plan_id":"cebpf4jnsgd1na2vs0mg"},{"bike_id":"7b767a23-32ec-4485-9cca-76cc3147b1d9","system_id":"levelo_inurba_marseille","lat":43.2794,"lon":5.39576,"is_reserved":false,"is_disabled":false,"rental_uris":{"android":"levelo://app?vid=7b767a23-32ec-4485-9cca-76cc3147b1d9","ios":"levelo://app?vid=7b767a23-32ec-4485-9cca-76cc3147b1d9"},"vehicle_type_id":"4","last_reported":1734459214,"current_range_meters":8400,"station_id":"ce4bhf92rcd13ifvqf40","pricing_plan_id":"cebpf4jnsgd1na2vs0mg"},{"bike_id":"e63ec124-f160-46c4-aad4-b0f59e1a5cf9","system_id":"levelo_inurba_marseille","lat":43.27998,"lon":5.41674,"is_reserved":false,"is_disabled":true,"rental_uris":{"android":"levelo://app?vid=e63ec124-f160-46c4-aad4-b0f59e1a5cf9","ios":"levelo://app?vid=e63ec124-f160-46c4-aad4-b0f59e1a5cf9"},"vehicle_type_id":"4","last_reported":1734459214,"current_range_meters":24800,"station_id":"ce4bho12rcd13ifvqh1g","pricing_plan_id":"cebpf4jnsgd1na2vs0mg"},{"bike_id":"0427bfa4-7c9f-485e-9901-c36b0591c06e","system_id":"levelo_inurba_marseille","lat":43.26216,"lon":5.37441,"is_reserved":false,"is_disabled":false,"rental_uris":{"android":"levelo://app?vid=0427bfa4-7c9f-485e-9901-c36b0591c06e","ios":"levelo://app?vid=0427bfa4-7c9f-485e-9901-c36b0591c06e"},"vehicle_type_id":"4","last_reported":1734459214,"current_range_meters":24000,"station_id":"ce4bhgp2rcd13ifvqfc0","pricing_plan_id":"cebpf4jnsgd1na2vs0mg"},{"bike_id":"15074bb6-0e58-48bd-a278-205970dcf73e","system_id":"levelo_inurba_marseille","lat":43.2679,"lon":5.39423,"is_reserved":false,"is_disabled":false,"rental_uris":{"android":"levelo://app?vid=15074bb6-0e58-48bd-a278-205970dcf73e","ios":"levelo://app?vid=15074bb6-0e58-48bd-a278-205970dcf73e"},"vehicle_type_id":"4","last_reported":1734459214,"current_range_meters":36400,"station_id":"ce4bhh12rcd13ifvqfg0","pricing_plan_id":"cebpf4jnsgd1na2vs0mg"},{"bike_id":"107928ce-875f-4354-be38-938d8ee3c7db","system_id":"levelo_inurba_marseille","lat":43.311798,"lon":5.401244,"is_reserved":false,"is_disabled":false,"rental_uris":{"android":"levelo://app?vid=107928ce-875f-4354-be38-938d8ee3c7db","ios":"levelo://app?vid=107928ce-875f-4354-be38-938d8ee3c7db"},"vehicle_type_id":"4","last_reported":1734459214,"current_range_meters":29600,"station_id":"ce4bh092rcd13ifvqd30","pricing_plan_id":"cebpf4jnsgd1na2vs0mg"},{"bike_id":"efb96ad3-4e63-4408-8c01-0772d5a4e18b","system_id":"levelo_inurba_marseille","lat":43.31333,"lon":5.39694,"is_reserved":false,"is_disabled":false,"rental_uris":{"android":"levelo://app?vid=efb96ad3-4e63-4408-8c01-0772d5a4e18b","ios":"levelo://app?vid=efb96ad3-4e63-4408-8c01-0772d5a4e18b"},"vehicle_type_id":"4","last_reported":1734459214,"current_range_meters":38800,"station_id":"ce4bgvp2rcd13ifvqcu0","pricing_plan_id":"cebpf4jnsgd1na2vs0mg"},{"bike_id":"adafdbd0-71dd-4ec6-aa0a-aba8315cae01","system_id":"levelo_inurba_marseille","lat":43.28159,"lon":5.42629,"is_reserved":false,"is_disabled":false,"rental_uris":{"android":"levelo://app?vid=adafdbd0-71dd-4ec6-aa0a-aba8315cae01","ios":"levelo://app?vid=adafdbd0-71dd-4ec6-aa0a-aba8315cae01"},"vehicle_type_id":"4","last_reported":1734459214,"current_range_meters":11600,"station_id":"ce4bhnh2rcd13ifvqgug","pricing_plan_id":"cebpf4jnsgd1na2vs0mg"},{"bike_id":"68907ca0-038a-4705-886b-af6c122ac485","system_id":"levelo_inurba_marseille","lat":43.23182,"lon":5.39982,"is_reserved":false,"is_disabled":false,"rental_uris":{"android":"levelo://app?vid=68907ca0-038a-4705-886b-af6c122ac485","ios":"levelo://app?vid=68907ca0-038a-4705-886b-af6c122ac485"},"vehicle_type_id":"4","last_reported":1734459214,"current_range_meters":38800,"station_id":"ce4bhn12rcd13ifvqgqg","pricing_plan_id":"cebpf4jnsgd1na2vs0mg"},{"bike_id":"365066b7-87c9-4627-88a4-8981fb729058","system_id":"levelo_inurba_marseille","lat":43.29789,"lon":5.39334,"is_reserved":false,"is_disabled":false,"rental_uris":{"android":"levelo://app?vid=365066b7-87c9-4627-88a4-8981fb729058","ios":"levelo://app?vid=365066b7-87c9-4627-88a4-8981fb729058"},"vehicle_type_id":"4","last_reported":1734459214,"current_range_meters":25600,"station_id":"chh1huq6cuj3fo74tm60","pricing_plan_id":"cebpf4jnsgd1na2vs0mg"},{"bike_id":"a852f14c-1573-40fe-bdb0-30bcf5f773fb","system_id":"levelo_inurba_marseille","lat":43.28609,"lon":5.35101,"is_reserved":false,"is_disabled":true,"rental_uris":{"android":"levelo://app?vid=a852f14c-1573-40fe-bdb0-30bcf5f773fb","ios":"levelo://app?vid=a852f14c-1573-40fe-bdb0-30bcf5f773fb"},"vehicle_type_id":"4","last_reported":1734459214,"current_range_meters":19600,"station_id":"ce4bhch2rcd13ifvqeug","pricing_plan_id":"cebpf4jnsgd1na2vs0mg"},{"bike_id":"15337677-9ae1-4159-afdc-4f163bc8327f","system_id":"levelo_inurba_marseille","lat":43.31326,"lon":5.39693,"is_reserved":false,"is_disabled":false,"rental_uris":{"android":"levelo://app?vid=15337677-9ae1-4159-afdc-4f163bc8327f","ios":"levelo://app?vid=15337677-9ae1-4159-afdc-4f163bc8327f"},"vehicle_type_id":"4","last_reported":1734459214,"current_range_meters":34000,"station_id":"ce4bgvp2rcd13ifvqcu0","pricing_plan_id":"cebpf4jnsgd1na2vs0mg"},{"bike_id":"bb337245-7c41-4671-900b-a4d92ae562c6","system_id":"levelo_inurba_marseille","lat":43.29521,"lon":5.39036,"is_reserved":false,"is_disabled":true,"rental_uris":{"android":"levelo://app?vid=bb337245-7c41-4671-900b-a4d92ae562c6","ios":"levelo://app?vid=bb337245-7c41-4671-900b-a4d92ae562c6"},"vehicle_type_id":"4","last_reported":1734459214,"current_range_meters":4800,"station_id":"ce4bh3p2rcd13ifvqdp0","pricing_plan_id":"cebpf4jnsgd1na2vs0mg"},{"bike_id":"03f2433f-a4ed-40f2-961d-b5adc5c08276","system_id":"levelo_inurba_marseille","lat":43.31112,"lon":5.37768,"is_reserved":false,"is_disabled":false,"rental_uris":{"android":"levelo://app?vid=03f2433f-a4ed-40f2-961d-b5adc5c08276","ios":"levelo://app?vid=03f2433f-a4ed-40f2-961d-b5adc5c08276"},"vehicle_type_id":"4","last_reported":1734459214,"current_range_meters":38800,"station_id":"ce4bgt92rcd13ifvqcg0","pricing_plan_id":"cebpf4jnsgd1na2vs0mg"},{"bike_id":"7399fd58-5dfd-44fa-92b1-0692ace70e73","system_id":"levelo_inurba_marseille","lat":43.3009,"lon":5.37128,"is_reserved":false,"is_disabled":false,"rental_uris":{"android":"levelo://app?vid=7399fd58-5dfd-44fa-92b1-0692ace70e73","ios":"levelo://app?vid=7399fd58-5dfd-44fa-92b1-0692ace70e73"},"vehicle_type_id":"4","last_reported":1734459214,"current_range_meters":24400,"station_id":"","pricing_plan_id":"cebpf4jnsgd1na2vs0mg"},{"bike_id":"704fba7f-7a42-47f8-9c2a-817ac6cf1935","system_id":"levelo_inurba_marseille","lat":43.26567,"lon":5.39007,"is_reserved":false,"is_disabled":false,"rental_uris":{"android":"levelo://app?vid=704fba7f-7a42-47f8-9c2a-817ac6cf1935","ios":"levelo://app?vid=704fba7f-7a42-47f8-9c2a-817ac6cf1935"},"vehicle_type_id":"4","last_reported":1734459214,"current_range_meters":32400,"station_id":"ce4bhe12rcd13ifvqf30","pricing_plan_id":"cebpf4jnsgd1na2vs0mg"},{"bike_id":"5df652f0-db05-40bf-8283-b56c2b8338d8","system_id":"levelo_inurba_marseille","lat":43.29904,"lon":5.37474,"is_reserved":false,"is_disabled":false,"rental_uris":{"android":"levelo://app?vid=5df652f0-db05-40bf-8283-b56c2b8338d8","ios":"levelo://app?vid=5df652f0-db05-40bf-8283-b56c2b8338d8"},"vehicle_type_id":"4","last_reported":1734459214,"current_range_meters":31200,"station_id":"ce4bgjh2rcd13ifvqbg0","pricing_plan_id":"cebpf4jnsgd1na2vs0mg"},{"bike_id":"f47e1b80-2460-4f87-8a97-a3be70ab8985","system_id":"levelo_inurba_marseille","lat":43.31165,"lon":5.38721,"is_reserved":false,"is_disabled":false,"rental_uris":{"android":"levelo://app?vid=f47e1b80-2460-4f87-8a97-a3be70ab8985","ios":"levelo://app?vid=f47e1b80-2460-4f87-8a97-a3be70ab8985"},"vehicle_type_id":"4","last_reported":1734459214,"current_range_meters":20400,"station_id":"ce4bgv12rcd13ifvqcp0","pricing_plan_id":"cebpf4jnsgd1na2vs0mg"},{"bike_id":"44ff8e7d-1339-43c2-b508-1f594ee49259","system_id":"levelo_inurba_marseille","lat":43.27917,"lon":5.39576,"is_reserved":false,"is_disabled":false,"rental_uris":{"android":"levelo://app?vid=44ff8e7d-1339-43c2-b508-1f594ee49259","ios":"levelo://app?vid=44ff8e7d-1339-43c2-b508-1f594ee49259"},"vehicle_type_id":"4","last_reported":1734459214,"current_range_meters":38000,"station_id":"ce4bhf92rcd13ifvqf40","pricing_plan_id":"cebpf4jnsgd1na2vs0mg"},{"bike_id":"8ceeee5e-f34c-4883-8bf6-079e8a090dff","system_id":"levelo_inurba_marseille","lat":43.29973,"lon":5.38462,"is_reserved":false,"is_disabled":true,"rental_uris":{"android":"levelo://app?vid=8ceeee5e-f34c-4883-8bf6-079e8a090dff","ios":"levelo://app?vid=8ceeee5e-f34c-4883-8bf6-079e8a090dff"},"vehicle_type_id":"4","last_reported":1734459214,"current_range_meters":31200,"station_id":"ce4bgj92rcd13ifvqbd0","pricing_plan_id":"cebpf4jnsgd1na2vs0mg"},{"bike_id":"ce03ec55-35d3-44f5-8921-8d0d2d31846f","system_id":"levelo_inurba_marseille","lat":43.27812,"lon":5.40702,"is_reserved":false,"is_disabled":false,"rental_uris":{"android":"levelo://app?vid=ce03ec55-35d3-44f5-8921-8d0d2d31846f","ios":"levelo://app?vid=ce03ec55-35d3-44f5-8921-8d0d2d31846f"},"vehicle_type_id":"4","last_reported":1734459214,"current_range_meters":35600,"station_id":"ce4bhnh2rcd13ifvqgtg","pricing_plan_id":"cebpf4jnsgd1na2vs0mg"},{"bike_id":"1cc30cb6-f18d-4862-b991-88715930d8c9","system_id":"levelo_inurba_marseille","lat":43.24072,"lon":5.37761,"is_reserved":false,"is_disabled":false,"rental_uris":{"android":"levelo://app?vid=1cc30cb6-f18d-4862-b991-88715930d8c9","ios":"levelo://app?vid=1cc30cb6-f18d-4862-b991-88715930d8c9"},"vehicle_type_id":"4","last_reported":1734459214,"current_range_meters":38000,"station_id":"ce4bhnp2rcd13ifvqgvg","pricing_plan_id":"cebpf4jnsgd1na2vs0mg"},{"bike_id":"eb7cd7b9-01c5-4120-bb55-5221a32a505c","system_id":"levelo_inurba_marseille","lat":43.29276,"lon":5.40113,"is_reserved":false,"is_disabled":true,"rental_uris":{"android":"levelo://app?vid=eb7cd7b9-01c5-4120-bb55-5221a32a505c","ios":"levelo://app?vid=eb7cd7b9-01c5-4120-bb55-5221a32a505c"},"vehicle_type_id":"4","last_reported":1734459214,"current_range_meters":34800,"station_id":"ce4bh312rcd13ifvqdk0","pricing_plan_id":"cebpf4jnsgd1na2vs0mg"},{"bike_id":"eba901e5-0847-4fc0-b2b6-9eb1834c3e7a","system_id":"levelo_inurba_marseille","lat":43.29509,"lon":5.42336,"is_reserved":false,"is_disabled":true,"rental_uris":{"android":"levelo://app?vid=eba901e5-0847-4fc0-b2b6-9eb1834c3e7a","ios":"levelo://app?vid=eba901e5-0847-4fc0-b2b6-9eb1834c3e7a"},"vehicle_type_id":"4","last_reported":1734459214,"current_range_meters":0,"station_id":"","pricing_plan_id":"cebpf4jnsgd1na2vs0mg"},{"bike_id":"c71dca09-b946-4485-a053-6c7174aaa385","system_id":"levelo_inurba_marseille","lat":43.29523,"lon":5.38543,"is_reserved":false,"is_disabled":false,"rental_uris":{"android":"levelo://app?vid=c71dca09-b946-4485-a053-6c7174aaa385","ios":"levelo://app?vid=c71dca09-b946-4485-a053-6c7174aaa385"},"vehicle_type_id":"4","last_reported":1734459214,"current_range_meters":26800,"station_id":"ce4bgih2rcd13ifvqba0","pricing_plan_id":"cebpf4jnsgd1na2vs0mg"},{"bike_id":"4a6cf567-0476-47a4-9b25-bea5f116b73d","system_id":"levelo_inurba_marseille","lat":43.28458,"lon":5.35882,"is_reserved":false,"is_disabled":false,"rental_uris":{"android":"levelo://app?vid=4a6cf567-0476-47a4-9b25-bea5f116b73d","ios":"levelo://app?vid=4a6cf567-0476-47a4-9b25-bea5f116b73d"},"vehicle_type_id":"4","last_reported":1734459214,"current_range_meters":33200,"station_id":"ce4bhah2rcd13ifvqei0","pricing_plan_id":"cebpf4jnsgd1na2vs0mg"},{"bike_id":"7aad8740-ff3a-45f1-bc1f-cb1ab4d47b07","system_id":"levelo_inurba_marseille","lat":43.31737,"lon":5.37193,"is_reserved":false,"is_disabled":false,"rental_uris":{"android":"levelo://app?vid=7aad8740-ff3a-45f1-bc1f-cb1ab4d47b07","ios":"levelo://app?vid=7aad8740-ff3a-45f1-bc1f-cb1ab4d47b07"},"vehicle_type_id":"4","last_reported":1734459214,"current_range_meters":2800,"station_id":"","pricing_plan_id":"cebpf4jnsgd1na2vs0mg"},{"bike_id":"5602b998-8538-45ef-9b3e-c46248c5e330","system_id":"levelo_inurba_marseille","lat":43.24658,"lon":5.38158,"is_reserved":false,"is_disabled":false,"rental_uris":{"android":"levelo://app?vid=5602b998-8538-45ef-9b3e-c46248c5e330","ios":"levelo://app?vid=5602b998-8538-45ef-9b3e-c46248c5e330"},"vehicle_type_id":"4","last_reported":1734459214,"current_range_meters":22400,"station_id":"ce4bhih2rcd13ifvqfr0","pricing_plan_id":"cebpf4jnsgd1na2vs0mg"},{"bike_id":"27d9e2c3-f922-4658-a131-5f6394c8c252","system_id":"levelo_inurba_marseille","lat":43.29047,"lon":5.35906,"is_reserved":false,"is_disabled":false,"rental_uris":{"android":"levelo://app?vid=27d9e2c3-f922-4658-a131-5f6394c8c252","ios":"levelo://app?vid=27d9e2c3-f922-4658-a131-5f6394c8c252"},"vehicle_type_id":"4","last_reported":1734459214,"current_range_meters":39200,"station_id":"ce4bha92rcd13ifvqeg0","pricing_plan_id":"cebpf4jnsgd1na2vs0mg"},{"bike_id":"ed3a8591-316e-49ab-a80e-c8c5d9c39c56","system_id":"levelo_inurba_marseille","lat":43.30108,"lon":5.3908,"is_reserved":false,"is_disabled":true,"rental_uris":{"android":"levelo://app?vid=ed3a8591-316e-49ab-a80e-c8c5d9c39c56","ios":"levelo://app?vid=ed3a8591-316e-49ab-a80e-c8c5d9c39c56"},"vehicle_type_id":"4","last_reported":1734459214,"current_range_meters":32400,"station_id":"ce4bh192rcd13ifvqdb0","pricing_plan_id":"cebpf4jnsgd1na2vs0mg"},{"bike_id":"5a37a828-cff2-4e6d-a76c-d01bbc621389","system_id":"levelo_inurba_marseille","lat":43.23195,"lon":5.35551,"is_reserved":false,"is_disabled":false,"rental_uris":{"android":"levelo://app?vid=5a37a828-cff2-4e6d-a76c-d01bbc621389","ios":"levelo://app?vid=5a37a828-cff2-4e6d-a76c-d01bbc621389"},"vehicle_type_id":"4","last_reported":1734459214,"current_range_meters":26000,"station_id":"ce4bhu92rcd13ifvqi70","pricing_plan_id":"cebpf4jnsgd1na2vs0mg"},{"bike_id":"a1c1fbba-9f8b-4e55-a7e6-e3031108193b","system_id":"levelo_inurba_marseille","lat":43.29842,"lon":5.36273,"is_reserved":false,"is_disabled":false,"rental_uris":{"android":"levelo://app?vid=a1c1fbba-9f8b-4e55-a7e6-e3031108193b","ios":"levelo://app?vid=a1c1fbba-9f8b-4e55-a7e6-e3031108193b"},"vehicle_type_id":"4","last_reported":1734459214,"current_range_meters":38800,"station_id":"ce4bgpp2rcd13ifvqc3g","pricing_plan_id":"cebpf4jnsgd1na2vs0mg"},{"bike_id":"99343347-3a31-4e5d-af3b-db82f1962174","system_id":"levelo_inurba_marseille","lat":43.31075,"lon":5.38357,"is_reserved":false,"is_disabled":false,"rental_uris":{"android":"levelo://app?vid=99343347-3a31-4e5d-af3b-db82f1962174","ios":"levelo://app?vid=99343347-3a31-4e5d-af3b-db82f1962174"},"vehicle_type_id":"4","last_reported":1734459214,"current_range_meters":27200,"station_id":"ce4bgv92rcd13ifvqcr0","pricing_plan_id":"cebpf4jnsgd1na2vs0mg"},{"bike_id":"f8d610c4-f0ee-48bf-a2bf-ae32b10e6186","system_id":"levelo_inurba_marseille","lat":43.29801,"lon":5.40407,"is_reserved":false,"is_disabled":false,"rental_uris":{"android":"levelo://app?vid=f8d610c4-f0ee-48bf-a2bf-ae32b10e6186","ios":"levelo://app?vid=f8d610c4-f0ee-48bf-a2bf-ae32b10e6186"},"vehicle_type_id":"4","last_reported":1734459214,"current_range_meters":30000,"station_id":"ce4bh112rcd13ifvqd90","pricing_plan_id":"cebpf4jnsgd1na2vs0mg"},{"bike_id":"abc987f9-4da4-4a4f-bcce-27ab5a90a27f","system_id":"levelo_inurba_marseille","lat":43.2944,"lon":5.39745,"is_reserved":false,"is_disabled":false,"rental_uris":{"android":"levelo://app?vid=abc987f9-4da4-4a4f-bcce-27ab5a90a27f","ios":"levelo://app?vid=abc987f9-4da4-4a4f-bcce-27ab5a90a27f"},"vehicle_type_id":"4","last_reported":1734459214,"current_range_meters":30800,"station_id":"ce4bh3h2rcd13ifvqdo0","pricing_plan_id":"cebpf4jnsgd1na2vs0mg"},{"bike_id":"1de05ea6-7ffc-4755-9d5c-2404e5a173c7","system_id":"levelo_inurba_marseille","lat":43.23065,"lon":5.35496,"is_reserved":false,"is_disabled":false,"rental_uris":{"android":"levelo://app?vid=1de05ea6-7ffc-4755-9d5c-2404e5a173c7","ios":"levelo://app?vid=1de05ea6-7ffc-4755-9d5c-2404e5a173c7"},"vehicle_type_id":"4","last_reported":1734459214,"current_range_meters":8800,"station_id":"cpo3342slgdg3j2ifvpg","pricing_plan_id":"cebpf4jnsgd1na2vs0mg"},{"bike_id":"ad847a15-fb9a-4af8-9d92-a2655860f4ea","system_id":"levelo_inurba_marseille","lat":43.30356,"lon":5.41879,"is_reserved":false,"is_disabled":false,"rental_uris":{"android":"levelo://app?vid=ad847a15-fb9a-4af8-9d92-a2655860f4ea","ios":"levelo://app?vid=ad847a15-fb9a-4af8-9d92-a2655860f4ea"},"vehicle_type_id":"4","last_reported":1734459214,"current_range_meters":19600,"station_id":"ce4bhop2rcd13ifvqh7g","pricing_plan_id":"cebpf4jnsgd1na2vs0mg"},{"bike_id":"a2a1e93d-0640-46b1-8548-8fdbe1511cb8","system_id":"levelo_inurba_marseille","lat":43.28353,"lon":5.38102,"is_reserved":false,"is_disabled":false,"rental_uris":{"android":"levelo://app?vid=a2a1e93d-0640-46b1-8548-8fdbe1511cb8","ios":"levelo://app?vid=a2a1e93d-0640-46b1-8548-8fdbe1511cb8"},"vehicle_type_id":"4","last_reported":1734459214,"current_range_meters":26800,"station_id":"ce4bh412rcd13ifvqdr0","pricing_plan_id":"cebpf4jnsgd1na2vs0mg"},{"bike_id":"0ff6fea5-f882-490d-b1fc-2cba3c649602","system_id":"levelo_inurba_marseille","lat":43.2872,"lon":5.36091,"is_reserved":false,"is_disabled":false,"rental_uris":{"android":"levelo://app?vid=0ff6fea5-f882-490d-b1fc-2cba3c649602","ios":"levelo://app?vid=0ff6fea5-f882-490d-b1fc-2cba3c649602"},"vehicle_type_id":"4","last_reported":1734459214,"current_range_meters":28800,"station_id":"cki0cbj6b192h4jlfktg","pricing_plan_id":"cebpf4jnsgd1na2vs0mg"},{"bike_id":"d283b9e9-469d-4791-9530-ca9134c5a01e","system_id":"levelo_inurba_marseille","lat":43.27075,"lon":5.40267,"is_reserved":false,"is_disabled":false,"rental_uris":{"android":"levelo://app?vid=d283b9e9-469d-4791-9530-ca9134c5a01e","ios":"levelo://app?vid=d283b9e9-469d-4791-9530-ca9134c5a01e"},"vehicle_type_id":"4","last_reported":1734459214,"current_range_meters":26000,"station_id":"ce4bhk92rcd13ifvqgc0","pricing_plan_id":"cebpf4jnsgd1na2vs0mg"},{"bike_id":"d2538d29-1f9f-41b1-b77b-9beb22041db1","system_id":"levelo_inurba_marseille","lat":43.29282,"lon":5.40123,"is_reserved":false,"is_disabled":false,"rental_uris":{"android":"levelo://app?vid=d2538d29-1f9f-41b1-b77b-9beb22041db1","ios":"levelo://app?vid=d2538d29-1f9f-41b1-b77b-9beb22041db1"},"vehicle_type_id":"4","last_reported":1734459214,"current_range_meters":8000,"station_id":"ce4bh312rcd13ifvqdk0","pricing_plan_id":"cebpf4jnsgd1na2vs0mg"},{"bike_id":"24216fde-815f-466d-ae48-7f1bdc5c763a","system_id":"levelo_inurba_marseille","lat":43.27557,"lon":5.38424,"is_reserved":false,"is_disabled":false,"rental_uris":{"android":"levelo://app?vid=24216fde-815f-466d-ae48-7f1bdc5c763a","ios":"levelo://app?vid=24216fde-815f-466d-ae48-7f1bdc5c763a"},"vehicle_type_id":"4","last_reported":1734459214,"current_range_meters":18800,"station_id":"ce4bhh92rcd13ifvqfi0","pricing_plan_id":"cebpf4jnsgd1na2vs0mg"},{"bike_id":"478ca122-7119-4df1-b8ae-fec2eaf06a48","system_id":"levelo_inurba_marseille","lat":43.24996,"lon":5.38936,"is_reserved":false,"is_disabled":false,"rental_uris":{"android":"levelo://app?vid=478ca122-7119-4df1-b8ae-fec2eaf06a48","ios":"levelo://app?vid=478ca122-7119-4df1-b8ae-fec2eaf06a48"},"vehicle_type_id":"4","last_reported":1734459214,"current_range_meters":38800,"station_id":"ce4bhgp2rcd13ifvqfd0","pricing_plan_id":"cebpf4jnsgd1na2vs0mg"},{"bike_id":"bf89b75a-ebb4-4191-b646-e1e4eb6dfd1f","system_id":"levelo_inurba_marseille","lat":43.297905,"lon":5.370965,"is_reserved":false,"is_disabled":false,"rental_uris":{"android":"levelo://app?vid=bf89b75a-ebb4-4191-b646-e1e4eb6dfd1f","ios":"levelo://app?vid=bf89b75a-ebb4-4191-b646-e1e4eb6dfd1f"},"vehicle_type_id":"4","last_reported":1734459214,"current_range_meters":28400,"station_id":"ce4bgop2rcd13ifvqc1g","pricing_plan_id":"cebpf4jnsgd1na2vs0mg"},{"bike_id":"41a1fd19-8c91-470f-af17-b5d8d6495338","system_id":"levelo_inurba_marseille","lat":43.28564,"lon":5.39491,"is_reserved":false,"is_disabled":false,"rental_uris":{"android":"levelo://app?vid=41a1fd19-8c91-470f-af17-b5d8d6495338","ios":"levelo://app?vid=41a1fd19-8c91-470f-af17-b5d8d6495338"},"vehicle_type_id":"4","last_reported":1734459214,"current_range_meters":32800,"station_id":"ce4bh292rcd13ifvqdg0","pricing_plan_id":"cebpf4jnsgd1na2vs0mg"},{"bike_id":"60212877-b0f0-4712-8b1c-bc281fba17eb","system_id":"levelo_inurba_marseille","lat":43.29375,"lon":5.37865,"is_reserved":false,"is_disabled":false,"rental_uris":{"android":"levelo://app?vid=60212877-b0f0-4712-8b1c-bc281fba17eb","ios":"levelo://app?vid=60212877-b0f0-4712-8b1c-bc281fba17eb"},"vehicle_type_id":"4","last_reported":1734459214,"current_range_meters":38800,"station_id":"ce4bgjh2rcd13ifvqbf0","pricing_plan_id":"cebpf4jnsgd1na2vs0mg"},{"bike_id":"a8d21dff-65ae-45cb-a123-d6096685d871","system_id":"levelo_inurba_marseille","lat":43.30314,"lon":5.4044,"is_reserved":false,"is_disabled":false,"rental_uris":{"android":"levelo://app?vid=a8d21dff-65ae-45cb-a123-d6096685d871","ios":"levelo://app?vid=a8d21dff-65ae-45cb-a123-d6096685d871"},"vehicle_type_id":"4","last_reported":1734459214,"current_range_meters":37600,"station_id":"ce4bh012rcd13ifvqd10","pricing_plan_id":"cebpf4jnsgd1na2vs0mg"},{"bike_id":"289f0ac2-169c-4996-93c9-9c13fd50ee4f","system_id":"levelo_inurba_marseille","lat":43.29842,"lon":5.36303,"is_reserved":false,"is_disabled":false,"rental_uris":{"android":"levelo://app?vid=289f0ac2-169c-4996-93c9-9c13fd50ee4f","ios":"levelo://app?vid=289f0ac2-169c-4996-93c9-9c13fd50ee4f"},"vehicle_type_id":"4","last_reported":1734459214,"current_range_meters":36800,"station_id":"ce4bgpp2rcd13ifvqc3g","pricing_plan_id":"cebpf4jnsgd1na2vs0mg"},{"bike_id":"69a2009b-8c50-4b32-9544-325dbb646c3b","system_id":"levelo_inurba_marseille","lat":43.28443,"lon":5.39201,"is_reserved":false,"is_disabled":false,"rental_uris":{"android":"levelo://app?vid=69a2009b-8c50-4b32-9544-325dbb646c3b","ios":"levelo://app?vid=69a2009b-8c50-4b32-9544-325dbb646c3b"},"vehicle_type_id":"4","last_reported":1734459214,"current_range_meters":11200,"station_id":"ce4bhoh2rcd13ifvqh5g","pricing_plan_id":"cebpf4jnsgd1na2vs0mg"},{"bike_id":"80ba8255-611c-4d01-939f-2f5533695734","system_id":"levelo_inurba_marseille","lat":43.31272,"lon":5.40166,"is_reserved":false,"is_disabled":false,"rental_uris":{"android":"levelo://app?vid=80ba8255-611c-4d01-939f-2f5533695734","ios":"levelo://app?vid=80ba8255-611c-4d01-939f-2f5533695734"},"vehicle_type_id":"4","last_reported":1734459214,"current_range_meters":16000,"station_id":"ce4bh092rcd13ifvqd30","pricing_plan_id":"cebpf4jnsgd1na2vs0mg"},{"bike_id":"cab5cb01-b33a-421c-bfaf-c7630f90de8b","system_id":"levelo_inurba_marseille","lat":43.29048,"lon":5.3995,"is_reserved":false,"is_disabled":true,"rental_uris":{"android":"levelo://app?vid=cab5cb01-b33a-421c-bfaf-c7630f90de8b","ios":"levelo://app?vid=cab5cb01-b33a-421c-bfaf-c7630f90de8b"},"vehicle_type_id":"4","last_reported":1734459214,"current_range_meters":2000,"station_id":"ce4bh392rcd13ifvqdm0","pricing_plan_id":"cebpf4jnsgd1na2vs0mg"},{"bike_id":"78f5dcee-b6ca-4cfa-ae6f-ebcf64be1236","system_id":"levelo_inurba_marseille","lat":43.32335,"lon":5.40622,"is_reserved":false,"is_disabled":true,"rental_uris":{"android":"levelo://app?vid=78f5dcee-b6ca-4cfa-ae6f-ebcf64be1236","ios":"levelo://app?vid=78f5dcee-b6ca-4cfa-ae6f-ebcf64be1236"},"vehicle_type_id":"4","last_reported":1734459214,"current_range_meters":0,"station_id":"ce4bhq92rcd13ifvqhjg","pricing_plan_id":"cebpf4jnsgd1na2vs0mg"},{"bike_id":"d1adb045-11f4-4330-9d2b-f77d89c262d4","system_id":"levelo_inurba_marseille","lat":43.29304,"lon":5.37177,"is_reserved":false,"is_disabled":true,"rental_uris":{"android":"levelo://app?vid=d1adb045-11f4-4330-9d2b-f77d89c262d4","ios":"levelo://app?vid=d1adb045-11f4-4330-9d2b-f77d89c262d4"},"vehicle_type_id":"4","last_reported":1734459214,"current_range_meters":36000,"station_id":"ce4bgh92rcd13ifvqb40","pricing_plan_id":"cebpf4jnsgd1na2vs0mg"},{"bike_id":"fb5ac6cd-6d94-4004-9473-07d3146ccb2b","system_id":"levelo_inurba_marseille","lat":43.28837,"lon":5.35849,"is_reserved":false,"is_disabled":false,"rental_uris":{"android":"levelo://app?vid=fb5ac6cd-6d94-4004-9473-07d3146ccb2b","ios":"levelo://app?vid=fb5ac6cd-6d94-4004-9473-07d3146ccb2b"},"vehicle_type_id":"4","last_reported":1734459214,"current_range_meters":31200,"station_id":"ce4bhb12rcd13ifvqem0","pricing_plan_id":"cebpf4jnsgd1na2vs0mg"},{"bike_id":"0795751c-f8c4-4487-810b-68b2573f466f","system_id":"levelo_inurba_marseille","lat":43.31726,"lon":5.42398,"is_reserved":false,"is_disabled":false,"rental_uris":{"android":"levelo://app?vid=0795751c-f8c4-4487-810b-68b2573f466f","ios":"levelo://app?vid=0795751c-f8c4-4487-810b-68b2573f466f"},"vehicle_type_id":"4","last_reported":1734459214,"current_range_meters":9600,"station_id":"ce4bhp92rcd13ifvqhbg","pricing_plan_id":"cebpf4jnsgd1na2vs0mg"},{"bike_id":"aaa07cc8-5ee3-41c0-8ff9-2695d3296028","system_id":"levelo_inurba_marseille","lat":43.24388,"lon":5.37056,"is_reserved":false,"is_disabled":false,"rental_uris":{"android":"levelo://app?vid=aaa07cc8-5ee3-41c0-8ff9-2695d3296028","ios":"levelo://app?vid=aaa07cc8-5ee3-41c0-8ff9-2695d3296028"},"vehicle_type_id":"4","last_reported":1734459214,"current_range_meters":38800,"station_id":"ce4bhhh2rcd13ifvqfk0","pricing_plan_id":"cebpf4jnsgd1na2vs0mg"},{"bike_id":"0bd5d813-d89e-42f3-8ce9-c06fb9ffedaa","system_id":"levelo_inurba_marseille","lat":43.28943,"lon":5.39627,"is_reserved":false,"is_disabled":true,"rental_uris":{"android":"levelo://app?vid=0bd5d813-d89e-42f3-8ce9-c06fb9ffedaa","ios":"levelo://app?vid=0bd5d813-d89e-42f3-8ce9-c06fb9ffedaa"},"vehicle_type_id":"4","last_reported":1734459214,"current_range_meters":37600,"station_id":"ce4bh3h2rcd13ifvqdn0","pricing_plan_id":"cebpf4jnsgd1na2vs0mg"},{"bike_id":"96c8460f-b95c-4022-ab86-a4f06657ef5f","system_id":"levelo_inurba_marseille","lat":43.29279,"lon":5.40126,"is_reserved":false,"is_disabled":false,"rental_uris":{"android":"levelo://app?vid=96c8460f-b95c-4022-ab86-a4f06657ef5f","ios":"levelo://app?vid=96c8460f-b95c-4022-ab86-a4f06657ef5f"},"vehicle_type_id":"4","last_reported":1734459214,"current_range_meters":32400,"station_id":"ce4bh312rcd13ifvqdk0","pricing_plan_id":"cebpf4jnsgd1na2vs0mg"},{"bike_id":"a2df7d87-51ca-433e-ad68-1e23a0ea5897","system_id":"levelo_inurba_marseille","lat":43.27996,"lon":5.40015,"is_reserved":false,"is_disabled":false,"rental_uris":{"android":"levelo://app?vid=a2df7d87-51ca-433e-ad68-1e23a0ea5897","ios":"levelo://app?vid=a2df7d87-51ca-433e-ad68-1e23a0ea5897"},"vehicle_type_id":"4","last_reported":1734459214,"current_range_meters":36000,"station_id":"ce4bho92rcd13ifvqh4g","pricing_plan_id":"cebpf4jnsgd1na2vs0mg"},{"bike_id":"9a9ca54f-8f83-4db0-b780-a7eb0fa7f88d","system_id":"levelo_inurba_marseille","lat":43.26019,"lon":5.3756,"is_reserved":false,"is_disabled":false,"rental_uris":{"android":"levelo://app?vid=9a9ca54f-8f83-4db0-b780-a7eb0fa7f88d","ios":"levelo://app?vid=9a9ca54f-8f83-4db0-b780-a7eb0fa7f88d"},"vehicle_type_id":"4","last_reported":1734459214,"current_range_meters":36800,"station_id":"ce4bhgh2rcd13ifvqfa0","pricing_plan_id":"cebpf4jnsgd1na2vs0mg"},{"bike_id":"e72fa642-30df-464a-831c-61ff9cf06808","system_id":"levelo_inurba_marseille","lat":43.23059,"lon":5.35499,"is_reserved":false,"is_disabled":false,"rental_uris":{"android":"levelo://app?vid=e72fa642-30df-464a-831c-61ff9cf06808","ios":"levelo://app?vid=e72fa642-30df-464a-831c-61ff9cf06808"},"vehicle_type_id":"4","last_reported":1734459214,"current_range_meters":38800,"station_id":"cpo3342slgdg3j2ifvpg","pricing_plan_id":"cebpf4jnsgd1na2vs0mg"},{"bike_id":"59dd3452-a10e-4582-b091-d9bdba32cb2b","system_id":"levelo_inurba_marseille","lat":43.26566,"lon":5.39013,"is_reserved":false,"is_disabled":false,"rental_uris":{"android":"levelo://app?vid=59dd3452-a10e-4582-b091-d9bdba32cb2b","ios":"levelo://app?vid=59dd3452-a10e-4582-b091-d9bdba32cb2b"},"vehicle_type_id":"4","last_reported":1734459214,"current_range_meters":6000,"station_id":"ce4bhe12rcd13ifvqf30","pricing_plan_id":"cebpf4jnsgd1na2vs0mg"},{"bike_id":"4ad89db2-d7ae-4790-9e48-447a4f27414c","system_id":"levelo_inurba_marseille","lat":43.26931,"lon":5.40251,"is_reserved":false,"is_disabled":false,"rental_uris":{"android":"levelo://app?vid=4ad89db2-d7ae-4790-9e48-447a4f27414c","ios":"levelo://app?vid=4ad89db2-d7ae-4790-9e48-447a4f27414c"},"vehicle_type_id":"4","last_reported":1734459214,"current_range_meters":38000,"station_id":"cjm6bp8fraef2m0cb0m0","pricing_plan_id":"cebpf4jnsgd1na2vs0mg"},{"bike_id":"95c69429-156c-453e-b2c0-5f65d6fe9b40","system_id":"levelo_inurba_marseille","lat":43.23187,"lon":5.39981,"is_reserved":false,"is_disabled":false,"rental_uris":{"android":"levelo://app?vid=95c69429-156c-453e-b2c0-5f65d6fe9b40","ios":"levelo://app?vid=95c69429-156c-453e-b2c0-5f65d6fe9b40"},"vehicle_type_id":"4","last_reported":1734459214,"current_range_meters":26000,"station_id":"ce4bhn12rcd13ifvqgqg","pricing_plan_id":"cebpf4jnsgd1na2vs0mg"},{"bike_id":"2b5f7a03-bf5e-45ec-a42d-0a6322563f99","system_id":"levelo_inurba_marseille","lat":43.29443,"lon":5.39736,"is_reserved":false,"is_disabled":false,"rental_uris":{"android":"levelo://app?vid=2b5f7a03-bf5e-45ec-a42d-0a6322563f99","ios":"levelo://app?vid=2b5f7a03-bf5e-45ec-a42d-0a6322563f99"},"vehicle_type_id":"4","last_reported":1734459214,"current_range_meters":24400,"station_id":"ce4bh3h2rcd13ifvqdo0","pricing_plan_id":"cebpf4jnsgd1na2vs0mg"},{"bike_id":"48c9a02c-eead-4a2c-942e-4963288aa5c4","system_id":"levelo_inurba_marseille","lat":43.29442,"lon":5.39751,"is_reserved":false,"is_disabled":false,"rental_uris":{"android":"levelo://app?vid=48c9a02c-eead-4a2c-942e-4963288aa5c4","ios":"levelo://app?vid=48c9a02c-eead-4a2c-942e-4963288aa5c4"},"vehicle_type_id":"4","last_reported":1734459214,"current_range_meters":34000,"station_id":"ce4bh3h2rcd13ifvqdo0","pricing_plan_id":"cebpf4jnsgd1na2vs0mg"},{"bike_id":"39a34b47-1927-456f-8be7-5bf323f6de58","system_id":"levelo_inurba_marseille","lat":43.29534,"lon":5.38529,"is_reserved":false,"is_disabled":false,"rental_uris":{"android":"levelo://app?vid=39a34b47-1927-456f-8be7-5bf323f6de58","ios":"levelo://app?vid=39a34b47-1927-456f-8be7-5bf323f6de58"},"vehicle_type_id":"4","last_reported":1734459214,"current_range_meters":9200,"station_id":"ce4bgih2rcd13ifvqba0","pricing_plan_id":"cebpf4jnsgd1na2vs0mg"},{"bike_id":"db372558-ee07-4d5f-9d2b-3c64bd3f1065","system_id":"levelo_inurba_marseille","lat":43.29812,"lon":5.40416,"is_reserved":false,"is_disabled":false,"rental_uris":{"android":"levelo://app?vid=db372558-ee07-4d5f-9d2b-3c64bd3f1065","ios":"levelo://app?vid=db372558-ee07-4d5f-9d2b-3c64bd3f1065"},"vehicle_type_id":"4","last_reported":1734459214,"current_range_meters":27200,"station_id":"ce4bh112rcd13ifvqd90","pricing_plan_id":"cebpf4jnsgd1na2vs0mg"},{"bike_id":"6e48c2e9-9079-4a57-b4e3-65f3a72e2cf0","system_id":"levelo_inurba_marseille","lat":43.31994,"lon":5.38139,"is_reserved":false,"is_disabled":false,"rental_uris":{"android":"levelo://app?vid=6e48c2e9-9079-4a57-b4e3-65f3a72e2cf0","ios":"levelo://app?vid=6e48c2e9-9079-4a57-b4e3-65f3a72e2cf0"},"vehicle_type_id":"4","last_reported":1734459214,"current_range_meters":19600,"station_id":"ce4bhr12rcd13ifvqhpg","pricing_plan_id":"cebpf4jnsgd1na2vs0mg"},{"bike_id":"9b3b15b8-0e59-4d35-bc41-e6a64a1479d7","system_id":"levelo_inurba_marseille","lat":43.28016,"lon":5.36942,"is_reserved":false,"is_disabled":false,"rental_uris":{"android":"levelo://app?vid=9b3b15b8-0e59-4d35-bc41-e6a64a1479d7","ios":"levelo://app?vid=9b3b15b8-0e59-4d35-bc41-e6a64a1479d7"},"vehicle_type_id":"4","last_reported":1734459214,"current_range_meters":38000,"station_id":"ce4bha12rcd13ifvqef0","pricing_plan_id":"cebpf4jnsgd1na2vs0mg"},{"bike_id":"7c10fc2e-b460-4ae3-b8db-5220f2e10399","system_id":"levelo_inurba_marseille","lat":43.31119,"lon":5.3777,"is_reserved":false,"is_disabled":false,"rental_uris":{"android":"levelo://app?vid=7c10fc2e-b460-4ae3-b8db-5220f2e10399","ios":"levelo://app?vid=7c10fc2e-b460-4ae3-b8db-5220f2e10399"},"vehicle_type_id":"4","last_reported":1734459214,"current_range_meters":38800,"station_id":"ce4bgt92rcd13ifvqcg0","pricing_plan_id":"cebpf4jnsgd1na2vs0mg"},{"bike_id":"197ed8a6-b80d-4d71-97e4-5f2cf13087a5","system_id":"levelo_inurba_marseille","lat":43.29172,"lon":5.37066,"is_reserved":false,"is_disabled":false,"rental_uris":{"android":"levelo://app?vid=197ed8a6-b80d-4d71-97e4-5f2cf13087a5","ios":"levelo://app?vid=197ed8a6-b80d-4d71-97e4-5f2cf13087a5"},"vehicle_type_id":"4","last_reported":1734459214,"current_range_meters":38400,"station_id":"","pricing_plan_id":"cebpf4jnsgd1na2vs0mg"},{"bike_id":"5716e911-1ddd-4195-aaba-8eb075050428","system_id":"levelo_inurba_marseille","lat":43.28451,"lon":5.35889,"is_reserved":false,"is_disabled":false,"rental_uris":{"android":"levelo://app?vid=5716e911-1ddd-4195-aaba-8eb075050428","ios":"levelo://app?vid=5716e911-1ddd-4195-aaba-8eb075050428"},"vehicle_type_id":"4","last_reported":1734459214,"current_range_meters":11600,"station_id":"ce4bhah2rcd13ifvqei0","pricing_plan_id":"cebpf4jnsgd1na2vs0mg"},{"bike_id":"c8399855-72d4-4f25-aa5a-52a18924a7b8","system_id":"levelo_inurba_marseille","lat":43.2417,"lon":5.36389,"is_reserved":false,"is_disabled":false,"rental_uris":{"android":"levelo://app?vid=c8399855-72d4-4f25-aa5a-52a18924a7b8","ios":"levelo://app?vid=c8399855-72d4-4f25-aa5a-52a18924a7b8"},"vehicle_type_id":"4","last_reported":1734459214,"current_range_meters":9600,"station_id":"cpo36qri1sfpv3e86is0","pricing_plan_id":"cebpf4jnsgd1na2vs0mg"},{"bike_id":"27361fb6-fa95-4996-99ed-1770f4e5aa04","system_id":"levelo_inurba_marseille","lat":43.31252,"lon":5.40168,"is_reserved":false,"is_disabled":false,"rental_uris":{"android":"levelo://app?vid=27361fb6-fa95-4996-99ed-1770f4e5aa04","ios":"levelo://app?vid=27361fb6-fa95-4996-99ed-1770f4e5aa04"},"vehicle_type_id":"4","last_reported":1734459214,"current_range_meters":4000,"station_id":"ce4bh092rcd13ifvqd30","pricing_plan_id":"cebpf4jnsgd1na2vs0mg"},{"bike_id":"cec5bdf2-0eed-4c84-8596-3e8e1dbb0650","system_id":"levelo_inurba_marseille","lat":43.32362,"lon":5.38888,"is_reserved":false,"is_disabled":true,"rental_uris":{"android":"levelo://app?vid=cec5bdf2-0eed-4c84-8596-3e8e1dbb0650","ios":"levelo://app?vid=cec5bdf2-0eed-4c84-8596-3e8e1dbb0650"},"vehicle_type_id":"4","last_reported":1734459214,"current_range_meters":400,"station_id":"ce4bhqp2rcd13ifvqhog","pricing_plan_id":"cebpf4jnsgd1na2vs0mg"},{"bike_id":"caccf3df-025c-4334-8486-611a28578717","system_id":"levelo_inurba_marseille","lat":43.24656,"lon":5.38157,"is_reserved":false,"is_disabled":true,"rental_uris":{"android":"levelo://app?vid=caccf3df-025c-4334-8486-611a28578717","ios":"levelo://app?vid=caccf3df-025c-4334-8486-611a28578717"},"vehicle_type_id":"4","last_reported":1734459214,"current_range_meters":0,"station_id":"ce4bhih2rcd13ifvqfr0","pricing_plan_id":"cebpf4jnsgd1na2vs0mg"},{"bike_id":"f4b3fee4-b22d-4e10-9cb7-989becb0ffca","system_id":"levelo_inurba_marseille","lat":43.29941,"lon":5.38612,"is_reserved":false,"is_disabled":false,"rental_uris":{"android":"levelo://app?vid=f4b3fee4-b22d-4e10-9cb7-989becb0ffca","ios":"levelo://app?vid=f4b3fee4-b22d-4e10-9cb7-989becb0ffca"},"vehicle_type_id":"4","last_reported":1734459214,"current_range_meters":33200,"station_id":"ce4bgj92rcd13ifvqbd0","pricing_plan_id":"cebpf4jnsgd1na2vs0mg"},{"bike_id":"f0875293-fd54-45a6-9bc1-72e7d5e63948","system_id":"levelo_inurba_marseille","lat":43.29587,"lon":5.36737,"is_reserved":false,"is_disabled":false,"rental_uris":{"android":"levelo://app?vid=f0875293-fd54-45a6-9bc1-72e7d5e63948","ios":"levelo://app?vid=f0875293-fd54-45a6-9bc1-72e7d5e63948"},"vehicle_type_id":"4","last_reported":1734459214,"current_range_meters":37600,"station_id":"ce4bgph2rcd13ifvqc2g","pricing_plan_id":"cebpf4jnsgd1na2vs0mg"},{"bike_id":"8c1f4c83-c3db-4eb0-8ecc-c6625970d671","system_id":"levelo_inurba_marseille","lat":43.3012,"lon":5.39864,"is_reserved":false,"is_disabled":false,"rental_uris":{"android":"levelo://app?vid=8c1f4c83-c3db-4eb0-8ecc-c6625970d671","ios":"levelo://app?vid=8c1f4c83-c3db-4eb0-8ecc-c6625970d671"},"vehicle_type_id":"4","last_reported":1734459214,"current_range_meters":11600,"station_id":"ce4bh0h2rcd13ifvqd40","pricing_plan_id":"cebpf4jnsgd1na2vs0mg"},{"bike_id":"17ffd64c-e130-4d12-88a8-19106c986955","system_id":"levelo_inurba_marseille","lat":43.31314,"lon":5.39701,"is_reserved":false,"is_disabled":false,"rental_uris":{"android":"levelo://app?vid=17ffd64c-e130-4d12-88a8-19106c986955","ios":"levelo://app?vid=17ffd64c-e130-4d12-88a8-19106c986955"},"vehicle_type_id":"4","last_reported":1734459214,"current_range_meters":27200,"station_id":"ce4bgvp2rcd13ifvqcu0","pricing_plan_id":"cebpf4jnsgd1na2vs0mg"},{"bike_id":"6325af7c-1643-4304-b4b7-f72cb8db8d69","system_id":"levelo_inurba_marseille","lat":43.2894,"lon":5.36633,"is_reserved":false,"is_disabled":false,"rental_uris":{"android":"levelo://app?vid=6325af7c-1643-4304-b4b7-f72cb8db8d69","ios":"levelo://app?vid=6325af7c-1643-4304-b4b7-f72cb8db8d69"},"vehicle_type_id":"4","last_reported":1734459214,"current_range_meters":3600,"station_id":"ce4bhap2rcd13ifvqek0","pricing_plan_id":"cebpf4jnsgd1na2vs0mg"},{"bike_id":"7c6e62f7-fb8f-41ca-9a81-0c4aa82b9f20","system_id":"levelo_inurba_marseille","lat":43.28662,"lon":5.3635,"is_reserved":false,"is_disabled":false,"rental_uris":{"android":"levelo://app?vid=7c6e62f7-fb8f-41ca-9a81-0c4aa82b9f20","ios":"levelo://app?vid=7c6e62f7-fb8f-41ca-9a81-0c4aa82b9f20"},"vehicle_type_id":"4","last_reported":1734459214,"current_range_meters":5600,"station_id":"ce4bhah2rcd13ifvqej0","pricing_plan_id":"cebpf4jnsgd1na2vs0mg"},{"bike_id":"d5c0eca7-34d5-4962-a556-1c81f5cfb7fa","system_id":"levelo_inurba_marseille","lat":43.31525,"lon":5.38038,"is_reserved":false,"is_disabled":false,"rental_uris":{"android":"levelo://app?vid=d5c0eca7-34d5-4962-a556-1c81f5cfb7fa","ios":"levelo://app?vid=d5c0eca7-34d5-4962-a556-1c81f5cfb7fa"},"vehicle_type_id":"4","last_reported":1734459214,"current_range_meters":14400,"station_id":"ce4bhsp2rcd13ifvqi50","pricing_plan_id":"cebpf4jnsgd1na2vs0mg"},{"bike_id":"b0b5ca3b-6a23-4037-8add-3940b0ed01fc","system_id":"levelo_inurba_marseille","lat":43.28109,"lon":5.37835,"is_reserved":false,"is_disabled":false,"rental_uris":{"android":"levelo://app?vid=b0b5ca3b-6a23-4037-8add-3940b0ed01fc","ios":"levelo://app?vid=b0b5ca3b-6a23-4037-8add-3940b0ed01fc"},"vehicle_type_id":"4","last_reported":1734459214,"current_range_meters":27600,"station_id":"ce4bha12rcd13ifvqee0","pricing_plan_id":"cebpf4jnsgd1na2vs0mg"},{"bike_id":"dac211e7-f278-4f35-910f-62503c1e8281","system_id":"levelo_inurba_marseille","lat":43.31364,"lon":5.38501,"is_reserved":false,"is_disabled":false,"rental_uris":{"android":"levelo://app?vid=dac211e7-f278-4f35-910f-62503c1e8281","ios":"levelo://app?vid=dac211e7-f278-4f35-910f-62503c1e8281"},"vehicle_type_id":"4","last_reported":1734459214,"current_range_meters":38800,"station_id":"ce4bgt92rcd13ifvqcf0","pricing_plan_id":"cebpf4jnsgd1na2vs0mg"},{"bike_id":"563b4e1d-2e56-47c0-afec-7afc5fbabbcb","system_id":"levelo_inurba_marseille","lat":43.32168,"lon":5.37481,"is_reserved":false,"is_disabled":false,"rental_uris":{"android":"levelo://app?vid=563b4e1d-2e56-47c0-afec-7afc5fbabbcb","ios":"levelo://app?vid=563b4e1d-2e56-47c0-afec-7afc5fbabbcb"},"vehicle_type_id":"4","last_reported":1734459214,"current_range_meters":34000,"station_id":"","pricing_plan_id":"cebpf4jnsgd1na2vs0mg"},{"bike_id":"bdf518c3-8e1c-4e3a-bfa1-e7e3d9079018","system_id":"levelo_inurba_marseille","lat":43.33037,"lon":5.3903,"is_reserved":false,"is_disabled":false,"rental_uris":{"android":"levelo://app?vid=bdf518c3-8e1c-4e3a-bfa1-e7e3d9079018","ios":"levelo://app?vid=bdf518c3-8e1c-4e3a-bfa1-e7e3d9079018"},"vehicle_type_id":"4","last_reported":1734459214,"current_range_meters":38800,"station_id":"ce4bhr92rcd13ifvqhrg","pricing_plan_id":"cebpf4jnsgd1na2vs0mg"},{"bike_id":"b2d380e8-08ed-495f-a052-5d7dfa068f5b","system_id":"levelo_inurba_marseille","lat":43.26949,"lon":5.3863,"is_reserved":false,"is_disabled":true,"rental_uris":{"android":"levelo://app?vid=b2d380e8-08ed-495f-a052-5d7dfa068f5b","ios":"levelo://app?vid=b2d380e8-08ed-495f-a052-5d7dfa068f5b"},"vehicle_type_id":"4","last_reported":1734459214,"current_range_meters":0,"station_id":"ce4bhh92rcd13ifvqfh0","pricing_plan_id":"cebpf4jnsgd1na2vs0mg"},{"bike_id":"262db747-5df7-439b-b4e7-c313a4a57308","system_id":"levelo_inurba_marseille","lat":43.27818,"lon":5.40712,"is_reserved":false,"is_disabled":false,"rental_uris":{"android":"levelo://app?vid=262db747-5df7-439b-b4e7-c313a4a57308","ios":"levelo://app?vid=262db747-5df7-439b-b4e7-c313a4a57308"},"vehicle_type_id":"4","last_reported":1734459214,"current_range_meters":18800,"station_id":"ce4bhnh2rcd13ifvqgtg","pricing_plan_id":"cebpf4jnsgd1na2vs0mg"},{"bike_id":"e14f9774-c052-408f-b817-2e4f650072f0","system_id":"levelo_inurba_marseille","lat":43.30321,"lon":5.40428,"is_reserved":false,"is_disabled":false,"rental_uris":{"android":"levelo://app?vid=e14f9774-c052-408f-b817-2e4f650072f0","ios":"levelo://app?vid=e14f9774-c052-408f-b817-2e4f650072f0"},"vehicle_type_id":"4","last_reported":1734459214,"current_range_meters":25200,"station_id":"ce4bh012rcd13ifvqd10","pricing_plan_id":"cebpf4jnsgd1na2vs0mg"},{"bike_id":"03092903-5d82-4626-b3ea-a0e759509511","system_id":"levelo_inurba_marseille","lat":43.29439,"lon":5.39744,"is_reserved":false,"is_disabled":false,"rental_uris":{"android":"levelo://app?vid=03092903-5d82-4626-b3ea-a0e759509511","ios":"levelo://app?vid=03092903-5d82-4626-b3ea-a0e759509511"},"vehicle_type_id":"4","last_reported":1734459214,"current_range_meters":38800,"station_id":"ce4bh3h2rcd13ifvqdo0","pricing_plan_id":"cebpf4jnsgd1na2vs0mg"},{"bike_id":"82f7f145-591c-4ce0-8f76-660882a2845e","system_id":"levelo_inurba_marseille","lat":43.3361,"lon":5.41038,"is_reserved":false,"is_disabled":true,"rental_uris":{"android":"levelo://app?vid=82f7f145-591c-4ce0-8f76-660882a2845e","ios":"levelo://app?vid=82f7f145-591c-4ce0-8f76-660882a2845e"},"vehicle_type_id":"4","last_reported":1734459214,"current_range_meters":34000,"station_id":"ce4bhqh2rcd13ifvqhmg","pricing_plan_id":"cebpf4jnsgd1na2vs0mg"},{"bike_id":"840ed963-9f8e-4d70-a8a0-f39a4af27f7a","system_id":"levelo_inurba_marseille","lat":43.2781,"lon":5.40704,"is_reserved":false,"is_disabled":false,"rental_uris":{"android":"levelo://app?vid=840ed963-9f8e-4d70-a8a0-f39a4af27f7a","ios":"levelo://app?vid=840ed963-9f8e-4d70-a8a0-f39a4af27f7a"},"vehicle_type_id":"4","last_reported":1734459214,"current_range_meters":28400,"station_id":"ce4bhnh2rcd13ifvqgtg","pricing_plan_id":"cebpf4jnsgd1na2vs0mg"},{"bike_id":"a5507f5f-495d-449e-be0e-e7373f1f8861","system_id":"levelo_inurba_marseille","lat":43.3148,"lon":5.3731,"is_reserved":false,"is_disabled":false,"rental_uris":{"android":"levelo://app?vid=a5507f5f-495d-449e-be0e-e7373f1f8861","ios":"levelo://app?vid=a5507f5f-495d-449e-be0e-e7373f1f8861"},"vehicle_type_id":"4","last_reported":1734459214,"current_range_meters":36400,"station_id":"ce4bgt12rcd13ifvqcd0","pricing_plan_id":"cebpf4jnsgd1na2vs0mg"},{"bike_id":"ac7c5f56-daad-496c-965f-9103737000e8","system_id":"levelo_inurba_marseille","lat":43.23968,"lon":5.36632,"is_reserved":false,"is_disabled":false,"rental_uris":{"android":"levelo://app?vid=ac7c5f56-daad-496c-965f-9103737000e8","ios":"levelo://app?vid=ac7c5f56-daad-496c-965f-9103737000e8"},"vehicle_type_id":"4","last_reported":1734459214,"current_range_meters":38800,"station_id":"ce4bhi12rcd13ifvqfp0","pricing_plan_id":"cebpf4jnsgd1na2vs0mg"},{"bike_id":"3042285c-4f36-4e00-aa8e-2f4445e3a69e","system_id":"levelo_inurba_marseille","lat":43.323567,"lon":5.388762,"is_reserved":false,"is_disabled":false,"rental_uris":{"android":"levelo://app?vid=3042285c-4f36-4e00-aa8e-2f4445e3a69e","ios":"levelo://app?vid=3042285c-4f36-4e00-aa8e-2f4445e3a69e"},"vehicle_type_id":"4","last_reported":1734459214,"current_range_meters":38800,"station_id":"ce4bhqp2rcd13ifvqhog","pricing_plan_id":"cebpf4jnsgd1na2vs0mg"},{"bike_id":"677f2f20-67b1-43ae-ab0d-c86c94aad358","system_id":"levelo_inurba_marseille","lat":43.33017,"lon":5.39038,"is_reserved":false,"is_disabled":false,"rental_uris":{"android":"levelo://app?vid=677f2f20-67b1-43ae-ab0d-c86c94aad358","ios":"levelo://app?vid=677f2f20-67b1-43ae-ab0d-c86c94aad358"},"vehicle_type_id":"4","last_reported":1734459214,"current_range_meters":23200,"station_id":"ce4bhr92rcd13ifvqhrg","pricing_plan_id":"cebpf4jnsgd1na2vs0mg"},{"bike_id":"f5d6a80f-4cdc-43d9-a251-ed5436737e28","system_id":"levelo_inurba_marseille","lat":43.31534,"lon":5.38024,"is_reserved":false,"is_disabled":false,"rental_uris":{"android":"levelo://app?vid=f5d6a80f-4cdc-43d9-a251-ed5436737e28","ios":"levelo://app?vid=f5d6a80f-4cdc-43d9-a251-ed5436737e28"},"vehicle_type_id":"4","last_reported":1734459214,"current_range_meters":35600,"station_id":"ce4bhsp2rcd13ifvqi50","pricing_plan_id":"cebpf4jnsgd1na2vs0mg"},{"bike_id":"c36bdd7d-50b7-411d-93ce-da825cc15c4e","system_id":"levelo_inurba_marseille","lat":43.27913,"lon":5.39581,"is_reserved":false,"is_disabled":false,"rental_uris":{"android":"levelo://app?vid=c36bdd7d-50b7-411d-93ce-da825cc15c4e","ios":"levelo://app?vid=c36bdd7d-50b7-411d-93ce-da825cc15c4e"},"vehicle_type_id":"4","last_reported":1734459214,"current_range_meters":12000,"station_id":"ce4bhf92rcd13ifvqf40","pricing_plan_id":"cebpf4jnsgd1na2vs0mg"},{"bike_id":"05e06e5d-ea2e-4a8d-bc1c-d68f0491d915","system_id":"levelo_inurba_marseille","lat":43.25579,"lon":5.38228,"is_reserved":false,"is_disabled":false,"rental_uris":{"android":"levelo://app?vid=05e06e5d-ea2e-4a8d-bc1c-d68f0491d915","ios":"levelo://app?vid=05e06e5d-ea2e-4a8d-bc1c-d68f0491d915"},"vehicle_type_id":"4","last_reported":1734459214,"current_range_meters":24000,"station_id":"ce4bhih2rcd13ifvqfs0","pricing_plan_id":"cebpf4jnsgd1na2vs0mg"},{"bike_id":"bf02fbaa-68b0-46bc-a709-eef8ddceaf69","system_id":"levelo_inurba_marseille","lat":43.25859,"lon":5.39903,"is_reserved":false,"is_disabled":false,"rental_uris":{"android":"levelo://app?vid=bf02fbaa-68b0-46bc-a709-eef8ddceaf69","ios":"levelo://app?vid=bf02fbaa-68b0-46bc-a709-eef8ddceaf69"},"vehicle_type_id":"4","last_reported":1734459214,"current_range_meters":9200,"station_id":"ce4bhl92rcd13ifvqghg","pricing_plan_id":"cebpf4jnsgd1na2vs0mg"},{"bike_id":"883b3f1b-01c4-47c7-9978-e5f0ddf771b8","system_id":"levelo_inurba_marseille","lat":43.33021,"lon":5.3904,"is_reserved":false,"is_disabled":false,"rental_uris":{"android":"levelo://app?vid=883b3f1b-01c4-47c7-9978-e5f0ddf771b8","ios":"levelo://app?vid=883b3f1b-01c4-47c7-9978-e5f0ddf771b8"},"vehicle_type_id":"4","last_reported":1734459214,"current_range_meters":20000,"station_id":"ce4bhr92rcd13ifvqhrg","pricing_plan_id":"cebpf4jnsgd1na2vs0mg"},{"bike_id":"dffa28ce-65f4-4ad5-b0a3-65db7094d6c6","system_id":"levelo_inurba_marseille","lat":43.32655,"lon":5.40993,"is_reserved":false,"is_disabled":false,"rental_uris":{"android":"levelo://app?vid=dffa28ce-65f4-4ad5-b0a3-65db7094d6c6","ios":"levelo://app?vid=dffa28ce-65f4-4ad5-b0a3-65db7094d6c6"},"vehicle_type_id":"4","last_reported":1734459214,"current_range_meters":17200,"station_id":"ce4bhpp2rcd13ifvqhgg","pricing_plan_id":"cebpf4jnsgd1na2vs0mg"},{"bike_id":"a9400ed1-3a24-4ecc-82f2-c241a2db1602","system_id":"levelo_inurba_marseille","lat":43.2841,"lon":5.37517,"is_reserved":false,"is_disabled":false,"rental_uris":{"android":"levelo://app?vid=a9400ed1-3a24-4ecc-82f2-c241a2db1602","ios":"levelo://app?vid=a9400ed1-3a24-4ecc-82f2-c241a2db1602"},"vehicle_type_id":"4","last_reported":1734459214,"current_range_meters":28000,"station_id":"ce4bh412rcd13ifvqds0","pricing_plan_id":"cebpf4jnsgd1na2vs0mg"},{"bike_id":"7cecba64-46de-4d06-b2fc-c324dc796bcb","system_id":"levelo_inurba_marseille","lat":43.30539,"lon":5.38088,"is_reserved":false,"is_disabled":false,"rental_uris":{"android":"levelo://app?vid=7cecba64-46de-4d06-b2fc-c324dc796bcb","ios":"levelo://app?vid=7cecba64-46de-4d06-b2fc-c324dc796bcb"},"vehicle_type_id":"4","last_reported":1734459214,"current_range_meters":22000,"station_id":"","pricing_plan_id":"cebpf4jnsgd1na2vs0mg"},{"bike_id":"1cc16181-9045-49e6-843c-f48947a7a04b","system_id":"levelo_inurba_marseille","lat":43.26801,"lon":5.40271,"is_reserved":false,"is_disabled":false,"rental_uris":{"android":"levelo://app?vid=1cc16181-9045-49e6-843c-f48947a7a04b","ios":"levelo://app?vid=1cc16181-9045-49e6-843c-f48947a7a04b"},"vehicle_type_id":"4","last_reported":1734459214,"current_range_meters":31200,"station_id":"ce501612rcd8frsf0b60","pricing_plan_id":"cebpf4jnsgd1na2vs0mg"},{"bike_id":"fa098d69-31dc-4c3e-b5b5-5307930eb8cd","system_id":"levelo_inurba_marseille","lat":43.24649,"lon":5.38885,"is_reserved":false,"is_disabled":false,"rental_uris":{"android":"levelo://app?vid=fa098d69-31dc-4c3e-b5b5-5307930eb8cd","ios":"levelo://app?vid=fa098d69-31dc-4c3e-b5b5-5307930eb8cd"},"vehicle_type_id":"4","last_reported":1734459214,"current_range_meters":38800,"station_id":"ce4bhg12rcd13ifvqf60","pricing_plan_id":"cebpf4jnsgd1na2vs0mg"},{"bike_id":"b59c647e-051a-4eb5-a082-deb3a3d33fa7","system_id":"levelo_inurba_marseille","lat":43.29327,"lon":5.40052,"is_reserved":false,"is_disabled":true,"rental_uris":{"android":"levelo://app?vid=b59c647e-051a-4eb5-a082-deb3a3d33fa7","ios":"levelo://app?vid=b59c647e-051a-4eb5-a082-deb3a3d33fa7"},"vehicle_type_id":"4","last_reported":1734459214,"current_range_meters":18000,"station_id":"ce4bh312rcd13ifvqdk0","pricing_plan_id":"cebpf4jnsgd1na2vs0mg"},{"bike_id":"7d6d26e3-6e7b-42dc-aa42-099de658fc85","system_id":"levelo_inurba_marseille","lat":43.26495,"lon":5.39541,"is_reserved":false,"is_disabled":false,"rental_uris":{"android":"levelo://app?vid=7d6d26e3-6e7b-42dc-aa42-099de658fc85","ios":"levelo://app?vid=7d6d26e3-6e7b-42dc-aa42-099de658fc85"},"vehicle_type_id":"4","last_reported":1734459214,"current_range_meters":33600,"station_id":"ce4bhi12rcd13ifvqfq0","pricing_plan_id":"cebpf4jnsgd1na2vs0mg"},{"bike_id":"b11935e9-650a-4cf3-98ee-136ac9bf4915","system_id":"levelo_inurba_marseille","lat":43.30421,"lon":5.39743,"is_reserved":false,"is_disabled":true,"rental_uris":{"android":"levelo://app?vid=b11935e9-650a-4cf3-98ee-136ac9bf4915","ios":"levelo://app?vid=b11935e9-650a-4cf3-98ee-136ac9bf4915"},"vehicle_type_id":"4","last_reported":1734459214,"current_range_meters":5600,"station_id":"ce4bh092rcd13ifvqd20","pricing_plan_id":"cebpf4jnsgd1na2vs0mg"},{"bike_id":"92c11c98-c9c6-4460-ae60-7a3499fe94c5","system_id":"levelo_inurba_marseille","lat":43.28107,"lon":5.44235,"is_reserved":false,"is_disabled":false,"rental_uris":{"android":"levelo://app?vid=92c11c98-c9c6-4460-ae60-7a3499fe94c5","ios":"levelo://app?vid=92c11c98-c9c6-4460-ae60-7a3499fe94c5"},"vehicle_type_id":"4","last_reported":1734459214,"current_range_meters":8000,"station_id":"","pricing_plan_id":"cebpf4jnsgd1na2vs0mg"},{"bike_id":"00cb001e-0fdd-455a-89c4-d844549e7283","system_id":"levelo_inurba_marseille","lat":43.30093,"lon":5.39085,"is_reserved":false,"is_disabled":false,"rental_uris":{"android":"levelo://app?vid=00cb001e-0fdd-455a-89c4-d844549e7283","ios":"levelo://app?vid=00cb001e-0fdd-455a-89c4-d844549e7283"},"vehicle_type_id":"4","last_reported":1734459214,"current_range_meters":16800,"station_id":"ce4bh192rcd13ifvqdb0","pricing_plan_id":"cebpf4jnsgd1na2vs0mg"},{"bike_id":"d2be9f28-1d71-421f-8a07-6a84931c8b82","system_id":"levelo_inurba_marseille","lat":43.30412,"lon":5.41284,"is_reserved":false,"is_disabled":false,"rental_uris":{"android":"levelo://app?vid=d2be9f28-1d71-421f-8a07-6a84931c8b82","ios":"levelo://app?vid=d2be9f28-1d71-421f-8a07-6a84931c8b82"},"vehicle_type_id":"4","last_reported":1734459214,"current_range_meters":39200,"station_id":"ce4bhop2rcd13ifvqh8g","pricing_plan_id":"cebpf4jnsgd1na2vs0mg"},{"bike_id":"2bad013d-ad3c-4efa-a5b5-be06f005f4e1","system_id":"levelo_inurba_marseille","lat":43.2438,"lon":5.37061,"is_reserved":false,"is_disabled":false,"rental_uris":{"android":"levelo://app?vid=2bad013d-ad3c-4efa-a5b5-be06f005f4e1","ios":"levelo://app?vid=2bad013d-ad3c-4efa-a5b5-be06f005f4e1"},"vehicle_type_id":"4","last_reported":1734459214,"current_range_meters":28800,"station_id":"ce4bhhh2rcd13ifvqfk0","pricing_plan_id":"cebpf4jnsgd1na2vs0mg"},{"bike_id":"ab1c9913-0d2a-4df0-a14e-9da4f762264f","system_id":"levelo_inurba_marseille","lat":43.30129,"lon":5.39854,"is_reserved":false,"is_disabled":false,"rental_uris":{"android":"levelo://app?vid=ab1c9913-0d2a-4df0-a14e-9da4f762264f","ios":"levelo://app?vid=ab1c9913-0d2a-4df0-a14e-9da4f762264f"},"vehicle_type_id":"4","last_reported":1734459214,"current_range_meters":7200,"station_id":"ce4bh0h2rcd13ifvqd40","pricing_plan_id":"cebpf4jnsgd1na2vs0mg"},{"bike_id":"8be087d3-9d6f-4250-a998-20bf5d178678","system_id":"levelo_inurba_marseille","lat":43.29289,"lon":5.37438,"is_reserved":false,"is_disabled":true,"rental_uris":{"android":"levelo://app?vid=8be087d3-9d6f-4250-a998-20bf5d178678","ios":"levelo://app?vid=8be087d3-9d6f-4250-a998-20bf5d178678"},"vehicle_type_id":"4","last_reported":1734459214,"current_range_meters":0,"station_id":"ce4bgi12rcd13ifvqb70","pricing_plan_id":"cebpf4jnsgd1na2vs0mg"},{"bike_id":"f95a6519-7474-44e4-9e6d-51ce64208eb5","system_id":"levelo_inurba_marseille","lat":43.27175,"lon":5.40991,"is_reserved":false,"is_disabled":true,"rental_uris":{"android":"levelo://app?vid=f95a6519-7474-44e4-9e6d-51ce64208eb5","ios":"levelo://app?vid=f95a6519-7474-44e4-9e6d-51ce64208eb5"},"vehicle_type_id":"4","last_reported":1734459214,"current_range_meters":400,"station_id":"ce4bhl12rcd13ifvqgf0","pricing_plan_id":"cebpf4jnsgd1na2vs0mg"},{"bike_id":"3d4faffe-b0f0-47fe-bfaa-23c8ee9fa1e3","system_id":"levelo_inurba_marseille","lat":43.31326,"lon":5.39699,"is_reserved":false,"is_disabled":false,"rental_uris":{"android":"levelo://app?vid=3d4faffe-b0f0-47fe-bfaa-23c8ee9fa1e3","ios":"levelo://app?vid=3d4faffe-b0f0-47fe-bfaa-23c8ee9fa1e3"},"vehicle_type_id":"4","last_reported":1734459214,"current_range_meters":28400,"station_id":"ce4bgvp2rcd13ifvqcu0","pricing_plan_id":"cebpf4jnsgd1na2vs0mg"},{"bike_id":"d71de85f-4767-4fca-89ba-f0e06b82d2f6","system_id":"levelo_inurba_marseille","lat":43.28457,"lon":5.35881,"is_reserved":false,"is_disabled":false,"rental_uris":{"android":"levelo://app?vid=d71de85f-4767-4fca-89ba-f0e06b82d2f6","ios":"levelo://app?vid=d71de85f-4767-4fca-89ba-f0e06b82d2f6"},"vehicle_type_id":"4","last_reported":1734459214,"current_range_meters":18000,"station_id":"ce4bhah2rcd13ifvqei0","pricing_plan_id":"cebpf4jnsgd1na2vs0mg"},{"bike_id":"62fa7f89-6de2-4bc8-8eb6-09e44ff16e37","system_id":"levelo_inurba_marseille","lat":43.23191,"lon":5.35546,"is_reserved":false,"is_disabled":false,"rental_uris":{"android":"levelo://app?vid=62fa7f89-6de2-4bc8-8eb6-09e44ff16e37","ios":"levelo://app?vid=62fa7f89-6de2-4bc8-8eb6-09e44ff16e37"},"vehicle_type_id":"4","last_reported":1734459214,"current_range_meters":38800,"station_id":"ce4bhu92rcd13ifvqi70","pricing_plan_id":"cebpf4jnsgd1na2vs0mg"},{"bike_id":"bbff90de-c6b2-473c-bf0a-c94a3566bfaa","system_id":"levelo_inurba_marseille","lat":43.28605,"lon":5.37069,"is_reserved":false,"is_disabled":false,"rental_uris":{"android":"levelo://app?vid=bbff90de-c6b2-473c-bf0a-c94a3566bfaa","ios":"levelo://app?vid=bbff90de-c6b2-473c-bf0a-c94a3566bfaa"},"vehicle_type_id":"4","last_reported":1734459214,"current_range_meters":24400,"station_id":"ce4bht12rcd13ifvqi60","pricing_plan_id":"cebpf4jnsgd1na2vs0mg"},{"bike_id":"1543f4bb-ffd5-451d-837b-75cce4148c96","system_id":"levelo_inurba_marseille","lat":43.337444,"lon":5.374475,"is_reserved":false,"is_disabled":true,"rental_uris":{"android":"levelo://app?vid=1543f4bb-ffd5-451d-837b-75cce4148c96","ios":"levelo://app?vid=1543f4bb-ffd5-451d-837b-75cce4148c96"},"vehicle_type_id":"4","last_reported":1734459214,"current_range_meters":0,"station_id":"","pricing_plan_id":"cebpf4jnsgd1na2vs0mg"},{"bike_id":"a865352e-5873-4c29-92ea-51b1e98431d0","system_id":"levelo_inurba_marseille","lat":43.23967,"lon":5.36634,"is_reserved":false,"is_disabled":false,"rental_uris":{"android":"levelo://app?vid=a865352e-5873-4c29-92ea-51b1e98431d0","ios":"levelo://app?vid=a865352e-5873-4c29-92ea-51b1e98431d0"},"vehicle_type_id":"4","last_reported":1734459214,"current_range_meters":22800,"station_id":"ce4bhi12rcd13ifvqfp0","pricing_plan_id":"cebpf4jnsgd1na2vs0mg"},{"bike_id":"73331ccc-4ea0-4366-ab21-03fe22aeb67b","system_id":"levelo_inurba_marseille","lat":43.29426,"lon":5.38618,"is_reserved":false,"is_disabled":false,"rental_uris":{"android":"levelo://app?vid=73331ccc-4ea0-4366-ab21-03fe22aeb67b","ios":"levelo://app?vid=73331ccc-4ea0-4366-ab21-03fe22aeb67b"},"vehicle_type_id":"4","last_reported":1734459214,"current_range_meters":17600,"station_id":"ce4bh2h2rcd13ifvqdh0","pricing_plan_id":"cebpf4jnsgd1na2vs0mg"},{"bike_id":"15b06ab3-5941-43b5-a9a5-ceb90aabbb54","system_id":"levelo_inurba_marseille","lat":43.229286,"lon":5.353948,"is_reserved":false,"is_disabled":false,"rental_uris":{"android":"levelo://app?vid=15b06ab3-5941-43b5-a9a5-ceb90aabbb54","ios":"levelo://app?vid=15b06ab3-5941-43b5-a9a5-ceb90aabbb54"},"vehicle_type_id":"4","last_reported":1734459214,"current_range_meters":38400,"station_id":"cpo3532slgdg3j2ikp40","pricing_plan_id":"cebpf4jnsgd1na2vs0mg"},{"bike_id":"7bae1c60-7560-477d-8746-deabd5e2188a","system_id":"levelo_inurba_marseille","lat":43.23965,"lon":5.36627,"is_reserved":false,"is_disabled":false,"rental_uris":{"android":"levelo://app?vid=7bae1c60-7560-477d-8746-deabd5e2188a","ios":"levelo://app?vid=7bae1c60-7560-477d-8746-deabd5e2188a"},"vehicle_type_id":"4","last_reported":1734459214,"current_range_meters":8000,"station_id":"ce4bhi12rcd13ifvqfp0","pricing_plan_id":"cebpf4jnsgd1na2vs0mg"},{"bike_id":"10e41bb7-9a61-4753-bcbd-6280b08c0d4a","system_id":"levelo_inurba_marseille","lat":43.231996,"lon":5.355613,"is_reserved":false,"is_disabled":false,"rental_uris":{"android":"levelo://app?vid=10e41bb7-9a61-4753-bcbd-6280b08c0d4a","ios":"levelo://app?vid=10e41bb7-9a61-4753-bcbd-6280b08c0d4a"},"vehicle_type_id":"4","last_reported":1734459214,"current_range_meters":36400,"station_id":"ce4bhu92rcd13ifvqi70","pricing_plan_id":"cebpf4jnsgd1na2vs0mg"},{"bike_id":"a3cd4e7e-4f1f-497f-8809-7986ba36c02c","system_id":"levelo_inurba_marseille","lat":43.29419,"lon":5.38624,"is_reserved":false,"is_disabled":false,"rental_uris":{"android":"levelo://app?vid=a3cd4e7e-4f1f-497f-8809-7986ba36c02c","ios":"levelo://app?vid=a3cd4e7e-4f1f-497f-8809-7986ba36c02c"},"vehicle_type_id":"4","last_reported":1734459214,"current_range_meters":38800,"station_id":"ce4bh2h2rcd13ifvqdh0","pricing_plan_id":"cebpf4jnsgd1na2vs0mg"},{"bike_id":"6b7b9091-695d-4b87-b643-9ac1cb8ddb59","system_id":"levelo_inurba_marseille","lat":43.276776,"lon":5.389275,"is_reserved":false,"is_disabled":false,"rental_uris":{"android":"levelo://app?vid=6b7b9091-695d-4b87-b643-9ac1cb8ddb59","ios":"levelo://app?vid=6b7b9091-695d-4b87-b643-9ac1cb8ddb59"},"vehicle_type_id":"4","last_reported":1734459214,"current_range_meters":38000,"station_id":"ce4bhi12rcd13ifvqfo0","pricing_plan_id":"cebpf4jnsgd1na2vs0mg"},{"bike_id":"f4b26b74-5cba-400d-900d-560905de22ab","system_id":"levelo_inurba_marseille","lat":43.29218,"lon":5.36055,"is_reserved":false,"is_disabled":false,"rental_uris":{"android":"levelo://app?vid=f4b26b74-5cba-400d-900d-560905de22ab","ios":"levelo://app?vid=f4b26b74-5cba-400d-900d-560905de22ab"},"vehicle_type_id":"4","last_reported":1734459214,"current_range_meters":38800,"station_id":"ce4bhbh2rcd13ifvqeqg","pricing_plan_id":"cebpf4jnsgd1na2vs0mg"},{"bike_id":"3028d671-f7f4-4727-a303-93bb21b2b475","system_id":"levelo_inurba_marseille","lat":43.24991,"lon":5.38933,"is_reserved":false,"is_disabled":false,"rental_uris":{"android":"levelo://app?vid=3028d671-f7f4-4727-a303-93bb21b2b475","ios":"levelo://app?vid=3028d671-f7f4-4727-a303-93bb21b2b475"},"vehicle_type_id":"4","last_reported":1734459214,"current_range_meters":12800,"station_id":"ce4bhgp2rcd13ifvqfd0","pricing_plan_id":"cebpf4jnsgd1na2vs0mg"},{"bike_id":"703d5160-3dcb-49f9-9598-19033a6f0e45","system_id":"levelo_inurba_marseille","lat":43.28419,"lon":5.34974,"is_reserved":false,"is_disabled":true,"rental_uris":{"android":"levelo://app?vid=703d5160-3dcb-49f9-9598-19033a6f0e45","ios":"levelo://app?vid=703d5160-3dcb-49f9-9598-19033a6f0e45"},"vehicle_type_id":"4","last_reported":1734459214,"current_range_meters":1200,"station_id":"ce4bhbh2rcd13ifvqepg","pricing_plan_id":"cebpf4jnsgd1na2vs0mg"},{"bike_id":"1f01fb59-f2b8-4c6a-81cc-f9b97b0e05a3","system_id":"levelo_inurba_marseille","lat":43.289307,"lon":5.366427,"is_reserved":false,"is_disabled":false,"rental_uris":{"android":"levelo://app?vid=1f01fb59-f2b8-4c6a-81cc-f9b97b0e05a3","ios":"levelo://app?vid=1f01fb59-f2b8-4c6a-81cc-f9b97b0e05a3"},"vehicle_type_id":"4","last_reported":1734459214,"current_range_meters":33200,"station_id":"ce4bhap2rcd13ifvqek0","pricing_plan_id":"cebpf4jnsgd1na2vs0mg"},{"bike_id":"53565056-99a9-4984-8e7a-e244e92ad6e9","system_id":"levelo_inurba_marseille","lat":43.2467,"lon":5.38186,"is_reserved":false,"is_disabled":false,"rental_uris":{"android":"levelo://app?vid=53565056-99a9-4984-8e7a-e244e92ad6e9","ios":"levelo://app?vid=53565056-99a9-4984-8e7a-e244e92ad6e9"},"vehicle_type_id":"4","last_reported":1734459214,"current_range_meters":38400,"station_id":"ce4bhih2rcd13ifvqfr0","pricing_plan_id":"cebpf4jnsgd1na2vs0mg"},{"bike_id":"60448356-cbd9-4fc2-9c4a-e8d03174d870","system_id":"levelo_inurba_marseille","lat":43.31268,"lon":5.40168,"is_reserved":false,"is_disabled":false,"rental_uris":{"android":"levelo://app?vid=60448356-cbd9-4fc2-9c4a-e8d03174d870","ios":"levelo://app?vid=60448356-cbd9-4fc2-9c4a-e8d03174d870"},"vehicle_type_id":"4","last_reported":1734459214,"current_range_meters":32400,"station_id":"ce4bh092rcd13ifvqd30","pricing_plan_id":"cebpf4jnsgd1na2vs0mg"},{"bike_id":"2e9b294e-fbf1-4160-8a13-63c1fb269976","system_id":"levelo_inurba_marseille","lat":43.28074,"lon":5.39658,"is_reserved":false,"is_disabled":false,"rental_uris":{"android":"levelo://app?vid=2e9b294e-fbf1-4160-8a13-63c1fb269976","ios":"levelo://app?vid=2e9b294e-fbf1-4160-8a13-63c1fb269976"},"vehicle_type_id":"4","last_reported":1734459214,"current_range_meters":33200,"station_id":"ce4bho12rcd13ifvqh2g","pricing_plan_id":"cebpf4jnsgd1na2vs0mg"},{"bike_id":"1c4127b9-486f-41b4-8296-37dda68e98bf","system_id":"levelo_inurba_marseille","lat":43.23193,"lon":5.35553,"is_reserved":false,"is_disabled":false,"rental_uris":{"android":"levelo://app?vid=1c4127b9-486f-41b4-8296-37dda68e98bf","ios":"levelo://app?vid=1c4127b9-486f-41b4-8296-37dda68e98bf"},"vehicle_type_id":"4","last_reported":1734459214,"current_range_meters":38800,"station_id":"ce4bhu92rcd13ifvqi70","pricing_plan_id":"cebpf4jnsgd1na2vs0mg"},{"bike_id":"b5728912-c27c-4853-ab68-0396130c50d9","system_id":"levelo_inurba_marseille","lat":43.28454,"lon":5.35889,"is_reserved":false,"is_disabled":false,"rental_uris":{"android":"levelo://app?vid=b5728912-c27c-4853-ab68-0396130c50d9","ios":"levelo://app?vid=b5728912-c27c-4853-ab68-0396130c50d9"},"vehicle_type_id":"4","last_reported":1734459214,"current_range_meters":6400,"station_id":"ce4bhah2rcd13ifvqei0","pricing_plan_id":"cebpf4jnsgd1na2vs0mg"},{"bike_id":"7141bb29-b61e-4dca-8661-089c29eaa1af","system_id":"levelo_inurba_marseille","lat":43.27194,"lon":5.40973,"is_reserved":false,"is_disabled":false,"rental_uris":{"android":"levelo://app?vid=7141bb29-b61e-4dca-8661-089c29eaa1af","ios":"levelo://app?vid=7141bb29-b61e-4dca-8661-089c29eaa1af"},"vehicle_type_id":"4","last_reported":1734459214,"current_range_meters":28800,"station_id":"ce4bhl12rcd13ifvqgf0","pricing_plan_id":"cebpf4jnsgd1na2vs0mg"},{"bike_id":"5acf2100-f05f-405a-a9e0-fabd2d2ff015","system_id":"levelo_inurba_marseille","lat":43.29899,"lon":5.38133,"is_reserved":false,"is_disabled":false,"rental_uris":{"android":"levelo://app?vid=5acf2100-f05f-405a-a9e0-fabd2d2ff015","ios":"levelo://app?vid=5acf2100-f05f-405a-a9e0-fabd2d2ff015"},"vehicle_type_id":"4","last_reported":1734459214,"current_range_meters":0,"station_id":"ce4bgj12rcd13ifvqbc0","pricing_plan_id":"cebpf4jnsgd1na2vs0mg"},{"bike_id":"5e85f2e0-c9c4-47a2-a2c5-98013baaba8c","system_id":"levelo_inurba_marseille","lat":43.29719,"lon":5.36618,"is_reserved":false,"is_disabled":false,"rental_uris":{"android":"levelo://app?vid=5e85f2e0-c9c4-47a2-a2c5-98013baaba8c","ios":"levelo://app?vid=5e85f2e0-c9c4-47a2-a2c5-98013baaba8c"},