{"last_updated":1728130523,"ttl":60,"version":"2.2","data":{"bikes":[{"bike_id":"7b5918c9-286b-4a5d-8c11-f495ad5c7f7a","system_id":"levelo_inurba_marseille","lat":43.30796,"lon":5.43517,"is_reserved":false,"is_disabled":false,"rental_uris":{"android":"levelo://app?vid=7b5918c9-286b-4a5d-8c11-f495ad5c7f7a","ios":"levelo://app?vid=7b5918c9-286b-4a5d-8c11-f495ad5c7f7a"},"vehicle_type_id":"4","last_reported":1728130524,"current_range_meters":8400,"station_id":"ce4bhph2rcd13ifvqheg","pricing_plan_id":"cebpf4jnsgd1na2vs0mg"},{"bike_id":"e4b84675-a2ef-4a08-972b-c8ccf50cd9f9","system_id":"levelo_inurba_marseille","lat":43.23201,"lon":5.39991,"is_reserved":false,"is_disabled":false,"rental_uris":{"android":"levelo://app?vid=e4b84675-a2ef-4a08-972b-c8ccf50cd9f9","ios":"levelo://app?vid=e4b84675-a2ef-4a08-972b-c8ccf50cd9f9"},"vehicle_type_id":"4","last_reported":1728130524,"current_range_meters":38800,"station_id":"ce4bhn12rcd13ifvqgqg","pricing_plan_id":"cebpf4jnsgd1na2vs0mg"},{"bike_id":"2b5b4549-0eba-4483-92de-153c6baa26e0","system_id":"levelo_inurba_marseille","lat":43.2315,"lon":5.437,"is_reserved":false,"is_disabled":false,"rental_uris":{"android":"levelo://app?vid=2b5b4549-0eba-4483-92de-153c6baa26e0","ios":"levelo://app?vid=2b5b4549-0eba-4483-92de-153c6baa26e0"},"vehicle_type_id":"4","last_reported":1728130524,"current_range_meters":6400,"station_id":"ce4bhmp2rcd13ifvqgog","pricing_plan_id":"cebpf4jnsgd1na2vs0mg"},{"bike_id":"93f26d88-3022-4aec-a738-73b701d30cfc","system_id":"levelo_inurba_marseille","lat":43.31488,"lon":5.37279,"is_reserved":false,"is_disabled":false,"rental_uris":{"android":"levelo://app?vid=93f26d88-3022-4aec-a738-73b701d30cfc","ios":"levelo://app?vid=93f26d88-3022-4aec-a738-73b701d30cfc"},"vehicle_type_id":"4","last_reported":1728130524,"current_range_meters":22400,"station_id":"ce4bgt12rcd13ifvqcd0","pricing_plan_id":"cebpf4jnsgd1na2vs0mg"},{"bike_id":"78ec4dbb-81e6-4a55-8ec4-29e46a1756ec","system_id":"levelo_inurba_marseille","lat":43.24392,"lon":5.37054,"is_reserved":false,"is_disabled":false,"rental_uris":{"android":"levelo://app?vid=78ec4dbb-81e6-4a55-8ec4-29e46a1756ec","ios":"levelo://app?vid=78ec4dbb-81e6-4a55-8ec4-29e46a1756ec"},"vehicle_type_id":"4","last_reported":1728130524,"current_range_meters":37600,"station_id":"ce4bhhh2rcd13ifvqfk0","pricing_plan_id":"cebpf4jnsgd1na2vs0mg"},{"bike_id":"0371540a-5a51-4a56-a587-fb7afb724bae","system_id":"levelo_inurba_marseille","lat":43.30538,"lon":5.3844,"is_reserved":false,"is_disabled":false,"rental_uris":{"android":"levelo://app?vid=0371540a-5a51-4a56-a587-fb7afb724bae","ios":"levelo://app?vid=0371540a-5a51-4a56-a587-fb7afb724bae"},"vehicle_type_id":"4","last_reported":1728130524,"current_range_meters":36000,"station_id":"ce4bgg92rcd13ifvqb30","pricing_plan_id":"cebpf4jnsgd1na2vs0mg"},{"bike_id":"3edccbad-c604-40df-acb2-6e9d91b67298","system_id":"levelo_inurba_marseille","lat":43.33757,"lon":5.37441,"is_reserved":false,"is_disabled":false,"rental_uris":{"android":"levelo://app?vid=3edccbad-c604-40df-acb2-6e9d91b67298","ios":"levelo://app?vid=3edccbad-c604-40df-acb2-6e9d91b67298"},"vehicle_type_id":"4","last_reported":1728130524,"current_range_meters":35200,"station_id":"","pricing_plan_id":"cebpf4jnsgd1na2vs0mg"},{"bike_id":"77acfbb3-2eae-4e91-9fd6-347779be8109","system_id":"levelo_inurba_marseille","lat":43.25858,"lon":5.39909,"is_reserved":false,"is_disabled":false,"rental_uris":{"android":"levelo://app?vid=77acfbb3-2eae-4e91-9fd6-347779be8109","ios":"levelo://app?vid=77acfbb3-2eae-4e91-9fd6-347779be8109"},"vehicle_type_id":"4","last_reported":1728130524,"current_range_meters":30800,"station_id":"ce4bhl92rcd13ifvqghg","pricing_plan_id":"cebpf4jnsgd1na2vs0mg"},{"bike_id":"61de1765-6c4e-498b-ab39-fc3c7eca5023","system_id":"levelo_inurba_marseille","lat":43.2293,"lon":5.35376,"is_reserved":false,"is_disabled":false,"rental_uris":{"android":"levelo://app?vid=61de1765-6c4e-498b-ab39-fc3c7eca5023","ios":"levelo://app?vid=61de1765-6c4e-498b-ab39-fc3c7eca5023"},"vehicle_type_id":"4","last_reported":1728130524,"current_range_meters":8000,"station_id":"cpo3532slgdg3j2ikp40","pricing_plan_id":"cebpf4jnsgd1na2vs0mg"},{"bike_id":"469e4615-69fd-4f50-ab75-3a5649cbabf7","system_id":"levelo_inurba_marseille","lat":43.30794,"lon":5.43515,"is_reserved":false,"is_disabled":false,"rental_uris":{"android":"levelo://app?vid=469e4615-69fd-4f50-ab75-3a5649cbabf7","ios":"levelo://app?vid=469e4615-69fd-4f50-ab75-3a5649cbabf7"},"vehicle_type_id":"4","last_reported":1728130524,"current_range_meters":12000,"station_id":"ce4bhph2rcd13ifvqheg","pricing_plan_id":"cebpf4jnsgd1na2vs0mg"},{"bike_id":"12404e89-4316-4ed2-963f-cb13d35875ae","system_id":"levelo_inurba_marseille","lat":43.32339,"lon":5.40622,"is_reserved":false,"is_disabled":false,"rental_uris":{"android":"levelo://app?vid=12404e89-4316-4ed2-963f-cb13d35875ae","ios":"levelo://app?vid=12404e89-4316-4ed2-963f-cb13d35875ae"},"vehicle_type_id":"4","last_reported":1728130524,"current_range_meters":31200,"station_id":"ce4bhq92rcd13ifvqhjg","pricing_plan_id":"cebpf4jnsgd1na2vs0mg"},{"bike_id":"4c44e4b8-d438-43b2-bdf4-053b26e6a112","system_id":"levelo_inurba_marseille","lat":43.24174,"lon":5.39719,"is_reserved":false,"is_disabled":false,"rental_uris":{"android":"levelo://app?vid=4c44e4b8-d438-43b2-bdf4-053b26e6a112","ios":"levelo://app?vid=4c44e4b8-d438-43b2-bdf4-053b26e6a112"},"vehicle_type_id":"4","last_reported":1728130524,"current_range_meters":27200,"station_id":"ce4bhn12rcd13ifvqgpg","pricing_plan_id":"cebpf4jnsgd1na2vs0mg"},{"bike_id":"5b663c30-189d-43b8-9ad8-a590ed2cd0d3","system_id":"levelo_inurba_marseille","lat":43.265503,"lon":5.372803,"is_reserved":false,"is_disabled":false,"rental_uris":{"android":"levelo://app?vid=5b663c30-189d-43b8-9ad8-a590ed2cd0d3","ios":"levelo://app?vid=5b663c30-189d-43b8-9ad8-a590ed2cd0d3"},"vehicle_type_id":"4","last_reported":1728130524,"current_range_meters":13600,"station_id":"","pricing_plan_id":"cebpf4jnsgd1na2vs0mg"},{"bike_id":"1f94f092-e04c-42ee-a03f-692bda5f060d","system_id":"levelo_inurba_marseille","lat":43.29601,"lon":5.38105,"is_reserved":false,"is_disabled":false,"rental_uris":{"android":"levelo://app?vid=1f94f092-e04c-42ee-a03f-692bda5f060d","ios":"levelo://app?vid=1f94f092-e04c-42ee-a03f-692bda5f060d"},"vehicle_type_id":"4","last_reported":1728130524,"current_range_meters":4800,"station_id":"ce4bgl12rcd13ifvqbo0","pricing_plan_id":"cebpf4jnsgd1na2vs0mg"},{"bike_id":"37042c1b-99f0-4379-a7d0-0b6867cdb669","system_id":"levelo_inurba_marseille","lat":43.23179,"lon":5.39975,"is_reserved":false,"is_disabled":false,"rental_uris":{"android":"levelo://app?vid=37042c1b-99f0-4379-a7d0-0b6867cdb669","ios":"levelo://app?vid=37042c1b-99f0-4379-a7d0-0b6867cdb669"},"vehicle_type_id":"4","last_reported":1728130524,"current_range_meters":38800,"station_id":"ce4bhn12rcd13ifvqgqg","pricing_plan_id":"cebpf4jnsgd1na2vs0mg"},{"bike_id":"35ef110a-9974-48a7-95e6-7b4cfeff21d4","system_id":"levelo_inurba_marseille","lat":43.3054,"lon":5.36515,"is_reserved":false,"is_disabled":false,"rental_uris":{"android":"levelo://app?vid=35ef110a-9974-48a7-95e6-7b4cfeff21d4","ios":"levelo://app?vid=35ef110a-9974-48a7-95e6-7b4cfeff21d4"},"vehicle_type_id":"4","last_reported":1728130524,"current_range_meters":26000,"station_id":"ce4bgs12rcd13ifvqcag","pricing_plan_id":"cebpf4jnsgd1na2vs0mg"},{"bike_id":"18639f7b-759a-4a22-893f-93dfbbe316b4","system_id":"levelo_inurba_marseille","lat":43.23962,"lon":5.36625,"is_reserved":false,"is_disabled":false,"rental_uris":{"android":"levelo://app?vid=18639f7b-759a-4a22-893f-93dfbbe316b4","ios":"levelo://app?vid=18639f7b-759a-4a22-893f-93dfbbe316b4"},"vehicle_type_id":"4","last_reported":1728130524,"current_range_meters":16400,"station_id":"ce4bhi12rcd13ifvqfp0","pricing_plan_id":"cebpf4jnsgd1na2vs0mg"},{"bike_id":"f44ef408-f651-4fa4-aa7d-0d70f8af6a65","system_id":"levelo_inurba_marseille","lat":43.23204,"lon":5.35553,"is_reserved":false,"is_disabled":false,"rental_uris":{"android":"levelo://app?vid=f44ef408-f651-4fa4-aa7d-0d70f8af6a65","ios":"levelo://app?vid=f44ef408-f651-4fa4-aa7d-0d70f8af6a65"},"vehicle_type_id":"4","last_reported":1728130524,"current_range_meters":4000,"station_id":"ce4bhu92rcd13ifvqi70","pricing_plan_id":"cebpf4jnsgd1na2vs0mg"},{"bike_id":"4920a91b-45c3-4cc6-8c11-e9c0ce20f787","system_id":"levelo_inurba_marseille","lat":43.22932,"lon":5.35377,"is_reserved":false,"is_disabled":false,"rental_uris":{"android":"levelo://app?vid=4920a91b-45c3-4cc6-8c11-e9c0ce20f787","ios":"levelo://app?vid=4920a91b-45c3-4cc6-8c11-e9c0ce20f787"},"vehicle_type_id":"4","last_reported":1728130524,"current_range_meters":27600,"station_id":"cpo3532slgdg3j2ikp40","pricing_plan_id":"cebpf4jnsgd1na2vs0mg"},{"bike_id":"e3c65603-9c85-4094-a9ca-6f1835b91a75","system_id":"levelo_inurba_marseille","lat":43.29027,"lon":5.37556,"is_reserved":false,"is_disabled":false,"rental_uris":{"android":"levelo://app?vid=e3c65603-9c85-4094-a9ca-6f1835b91a75","ios":"levelo://app?vid=e3c65603-9c85-4094-a9ca-6f1835b91a75"},"vehicle_type_id":"4","last_reported":1728130524,"current_range_meters":36800,"station_id":"ce4bh692rcd13ifvqe90","pricing_plan_id":"cebpf4jnsgd1na2vs0mg"},{"bike_id":"69b2ab72-6eb7-403d-85c7-be72aa2ab82b","system_id":"levelo_inurba_marseille","lat":43.30086,"lon":5.40021,"is_reserved":false,"is_disabled":false,"rental_uris":{"android":"levelo://app?vid=69b2ab72-6eb7-403d-85c7-be72aa2ab82b","ios":"levelo://app?vid=69b2ab72-6eb7-403d-85c7-be72aa2ab82b"},"vehicle_type_id":"4","last_reported":1728130524,"current_range_meters":17600,"station_id":"","pricing_plan_id":"cebpf4jnsgd1na2vs0mg"},{"bike_id":"93c654a2-94c9-4514-863f-254898a7ddea","system_id":"levelo_inurba_marseille","lat":43.2737,"lon":5.36259,"is_reserved":false,"is_disabled":false,"rental_uris":{"android":"levelo://app?vid=93c654a2-94c9-4514-863f-254898a7ddea","ios":"levelo://app?vid=93c654a2-94c9-4514-863f-254898a7ddea"},"vehicle_type_id":"4","last_reported":1728130524,"current_range_meters":27600,"station_id":"ce4bhbh2rcd13ifvqeo0","pricing_plan_id":"cebpf4jnsgd1na2vs0mg"},{"bike_id":"c6edabcc-d125-4690-8183-907ed7821095","system_id":"levelo_inurba_marseille","lat":43.26024,"lon":5.37548,"is_reserved":false,"is_disabled":false,"rental_uris":{"android":"levelo://app?vid=c6edabcc-d125-4690-8183-907ed7821095","ios":"levelo://app?vid=c6edabcc-d125-4690-8183-907ed7821095"},"vehicle_type_id":"4","last_reported":1728130524,"current_range_meters":38800,"station_id":"ce4bhgh2rcd13ifvqfa0","pricing_plan_id":"cebpf4jnsgd1na2vs0mg"},{"bike_id":"2ee470a2-f6fc-41c4-9ed0-be15e787887a","system_id":"levelo_inurba_marseille","lat":43.23967,"lon":5.36634,"is_reserved":false,"is_disabled":false,"rental_uris":{"android":"levelo://app?vid=2ee470a2-f6fc-41c4-9ed0-be15e787887a","ios":"levelo://app?vid=2ee470a2-f6fc-41c4-9ed0-be15e787887a"},"vehicle_type_id":"4","last_reported":1728130524,"current_range_meters":38800,"station_id":"ce4bhi12rcd13ifvqfp0","pricing_plan_id":"cebpf4jnsgd1na2vs0mg"},{"bike_id":"d5270646-6fb5-4d77-9583-11b07a363a33","system_id":"levelo_inurba_marseille","lat":43.28411,"lon":5.34986,"is_reserved":false,"is_disabled":false,"rental_uris":{"android":"levelo://app?vid=d5270646-6fb5-4d77-9583-11b07a363a33","ios":"levelo://app?vid=d5270646-6fb5-4d77-9583-11b07a363a33"},"vehicle_type_id":"4","last_reported":1728130524,"current_range_meters":36000,"station_id":"ce4bhbh2rcd13ifvqepg","pricing_plan_id":"cebpf4jnsgd1na2vs0mg"},{"bike_id":"e6b2df58-b4a0-4aec-933d-a62e42f34d34","system_id":"levelo_inurba_marseille","lat":43.33725,"lon":5.39192,"is_reserved":false,"is_disabled":false,"rental_uris":{"android":"levelo://app?vid=e6b2df58-b4a0-4aec-933d-a62e42f34d34","ios":"levelo://app?vid=e6b2df58-b4a0-4aec-933d-a62e42f34d34"},"vehicle_type_id":"4","last_reported":1728130524,"current_range_meters":12800,"station_id":"ce4bhr92rcd13ifvqhsg","pricing_plan_id":"cebpf4jnsgd1na2vs0mg"},{"bike_id":"9bdfcddf-1fd9-4f35-bea0-76383e057359","system_id":"levelo_inurba_marseille","lat":43.25,"lon":5.38921,"is_reserved":false,"is_disabled":false,"rental_uris":{"android":"levelo://app?vid=9bdfcddf-1fd9-4f35-bea0-76383e057359","ios":"levelo://app?vid=9bdfcddf-1fd9-4f35-bea0-76383e057359"},"vehicle_type_id":"4","last_reported":1728130524,"current_range_meters":25600,"station_id":"ce4bhgp2rcd13ifvqfd0","pricing_plan_id":"cebpf4jnsgd1na2vs0mg"},{"bike_id":"1aaa510e-d668-4fbb-968e-d83532152ffc","system_id":"levelo_inurba_marseille","lat":43.31324,"lon":5.39696,"is_reserved":false,"is_disabled":false,"rental_uris":{"android":"levelo://app?vid=1aaa510e-d668-4fbb-968e-d83532152ffc","ios":"levelo://app?vid=1aaa510e-d668-4fbb-968e-d83532152ffc"},"vehicle_type_id":"4","last_reported":1728130524,"current_range_meters":4800,"station_id":"ce4bgvp2rcd13ifvqcu0","pricing_plan_id":"cebpf4jnsgd1na2vs0mg"},{"bike_id":"dee1eff5-25dc-4bd7-ae90-88eb14d74bf3","system_id":"levelo_inurba_marseille","lat":43.27204,"lon":5.39182,"is_reserved":false,"is_disabled":false,"rental_uris":{"android":"levelo://app?vid=dee1eff5-25dc-4bd7-ae90-88eb14d74bf3","ios":"levelo://app?vid=dee1eff5-25dc-4bd7-ae90-88eb14d74bf3"},"vehicle_type_id":"4","last_reported":1728130524,"current_range_meters":38800,"station_id":"ce4bhhp2rcd13ifvqfm0","pricing_plan_id":"cebpf4jnsgd1na2vs0mg"},{"bike_id":"d77938b7-ff1e-465c-a8b9-4b07085a5cc9","system_id":"levelo_inurba_marseille","lat":43.23062,"lon":5.35488,"is_reserved":false,"is_disabled":false,"rental_uris":{"android":"levelo://app?vid=d77938b7-ff1e-465c-a8b9-4b07085a5cc9","ios":"levelo://app?vid=d77938b7-ff1e-465c-a8b9-4b07085a5cc9"},"vehicle_type_id":"4","last_reported":1728130524,"current_range_meters":12400,"station_id":"cpo3342slgdg3j2ifvpg","pricing_plan_id":"cebpf4jnsgd1na2vs0mg"},{"bike_id":"852457a1-813f-46b8-bb13-232384e208e9","system_id":"levelo_inurba_marseille","lat":43.337675,"lon":5.374378,"is_reserved":false,"is_disabled":false,"rental_uris":{"android":"levelo://app?vid=852457a1-813f-46b8-bb13-232384e208e9","ios":"levelo://app?vid=852457a1-813f-46b8-bb13-232384e208e9"},"vehicle_type_id":"4","last_reported":1728130524,"current_range_meters":33600,"station_id":"","pricing_plan_id":"cebpf4jnsgd1na2vs0mg"},{"bike_id":"0d79ef91-e03a-4511-b960-a6f350f28d65","system_id":"levelo_inurba_marseille","lat":43.23062,"lon":5.35491,"is_reserved":false,"is_disabled":false,"rental_uris":{"android":"levelo://app?vid=0d79ef91-e03a-4511-b960-a6f350f28d65","ios":"levelo://app?vid=0d79ef91-e03a-4511-b960-a6f350f28d65"},"vehicle_type_id":"4","last_reported":1728130524,"current_range_meters":19200,"station_id":"cpo3342slgdg3j2ifvpg","pricing_plan_id":"cebpf4jnsgd1na2vs0mg"},{"bike_id":"e1729c06-d1d0-49d8-be14-4a2919fe4755","system_id":"levelo_inurba_marseille","lat":43.28412,"lon":5.3498,"is_reserved":false,"is_disabled":false,"rental_uris":{"android":"levelo://app?vid=e1729c06-d1d0-49d8-be14-4a2919fe4755","ios":"levelo://app?vid=e1729c06-d1d0-49d8-be14-4a2919fe4755"},"vehicle_type_id":"4","last_reported":1728130524,"current_range_meters":17600,"station_id":"ce4bhbh2rcd13ifvqepg","pricing_plan_id":"cebpf4jnsgd1na2vs0mg"},{"bike_id":"3836703c-2a69-49c7-8c76-3cc21edadfc2","system_id":"levelo_inurba_marseille","lat":43.32041,"lon":5.38211,"is_reserved":false,"is_disabled":false,"rental_uris":{"android":"levelo://app?vid=3836703c-2a69-49c7-8c76-3cc21edadfc2","ios":"levelo://app?vid=3836703c-2a69-49c7-8c76-3cc21edadfc2"},"vehicle_type_id":"4","last_reported":1728130524,"current_range_meters":24400,"station_id":"ce4bhr12rcd13ifvqhqg","pricing_plan_id":"cebpf4jnsgd1na2vs0mg"},{"bike_id":"a53b98f8-52a1-4fbf-9c54-5ce202cb9f71","system_id":"levelo_inurba_marseille","lat":43.2737,"lon":5.3625,"is_reserved":false,"is_disabled":false,"rental_uris":{"android":"levelo://app?vid=a53b98f8-52a1-4fbf-9c54-5ce202cb9f71","ios":"levelo://app?vid=a53b98f8-52a1-4fbf-9c54-5ce202cb9f71"},"vehicle_type_id":"4","last_reported":1728130524,"current_range_meters":37600,"station_id":"ce4bhbh2rcd13ifvqeo0","pricing_plan_id":"cebpf4jnsgd1na2vs0mg"},{"bike_id":"54d09a39-e79d-434c-8a05-a8f2660c6a94","system_id":"levelo_inurba_marseille","lat":43.29896,"lon":5.43672,"is_reserved":false,"is_disabled":false,"rental_uris":{"android":"levelo://app?vid=54d09a39-e79d-434c-8a05-a8f2660c6a94","ios":"levelo://app?vid=54d09a39-e79d-434c-8a05-a8f2660c6a94"},"vehicle_type_id":"4","last_reported":1728130524,"current_range_meters":10000,"station_id":"ce4bhpp2rcd13ifvqhfg","pricing_plan_id":"cebpf4jnsgd1na2vs0mg"},{"bike_id":"e88589c2-9daf-4f7c-9d5a-36ecf8f63f21","system_id":"levelo_inurba_marseille","lat":43.3266,"lon":5.40983,"is_reserved":false,"is_disabled":false,"rental_uris":{"android":"levelo://app?vid=e88589c2-9daf-4f7c-9d5a-36ecf8f63f21","ios":"levelo://app?vid=e88589c2-9daf-4f7c-9d5a-36ecf8f63f21"},"vehicle_type_id":"4","last_reported":1728130524,"current_range_meters":37600,"station_id":"ce4bhpp2rcd13ifvqhgg","pricing_plan_id":"cebpf4jnsgd1na2vs0mg"},{"bike_id":"0188c1fd-55db-4c4a-a80d-333e2d2ab38a","system_id":"levelo_inurba_marseille","lat":43.27673,"lon":5.38893,"is_reserved":false,"is_disabled":false,"rental_uris":{"android":"levelo://app?vid=0188c1fd-55db-4c4a-a80d-333e2d2ab38a","ios":"levelo://app?vid=0188c1fd-55db-4c4a-a80d-333e2d2ab38a"},"vehicle_type_id":"4","last_reported":1728130524,"current_range_meters":18800,"station_id":"ce4bhi12rcd13ifvqfo0","pricing_plan_id":"cebpf4jnsgd1na2vs0mg"},{"bike_id":"5d5a6513-1c73-4e32-9b67-1d9451a2d17a","system_id":"levelo_inurba_marseille","lat":43.23061,"lon":5.35486,"is_reserved":false,"is_disabled":false,"rental_uris":{"android":"levelo://app?vid=5d5a6513-1c73-4e32-9b67-1d9451a2d17a","ios":"levelo://app?vid=5d5a6513-1c73-4e32-9b67-1d9451a2d17a"},"vehicle_type_id":"4","last_reported":1728130524,"current_range_meters":22800,"station_id":"cpo3342slgdg3j2ifvpg","pricing_plan_id":"cebpf4jnsgd1na2vs0mg"},{"bike_id":"edcdca2d-f372-4bca-ae2d-7df80a4c4cf5","system_id":"levelo_inurba_marseille","lat":43.23061,"lon":5.35489,"is_reserved":false,"is_disabled":false,"rental_uris":{"android":"levelo://app?vid=edcdca2d-f372-4bca-ae2d-7df80a4c4cf5","ios":"levelo://app?vid=edcdca2d-f372-4bca-ae2d-7df80a4c4cf5"},"vehicle_type_id":"4","last_reported":1728130524,"current_range_meters":15200,"station_id":"cpo3342slgdg3j2ifvpg","pricing_plan_id":"cebpf4jnsgd1na2vs0mg"},{"bike_id":"2bd7e949-580a-4297-b427-4b62fa0e3480","system_id":"levelo_inurba_marseille","lat":43.23148,"lon":5.43706,"is_reserved":false,"is_disabled":false,"rental_uris":{"android":"levelo://app?vid=2bd7e949-580a-4297-b427-4b62fa0e3480","ios":"levelo://app?vid=2bd7e949-580a-4297-b427-4b62fa0e3480"},"vehicle_type_id":"4","last_reported":1728130524,"current_range_meters":34800,"station_id":"ce4bhmp2rcd13ifvqgog","pricing_plan_id":"cebpf4jnsgd1na2vs0mg"},{"bike_id":"55d4cda0-dbc0-4c6e-9c73-196326286778","system_id":"levelo_inurba_marseille","lat":43.2737,"lon":5.3626,"is_reserved":false,"is_disabled":false,"rental_uris":{"android":"levelo://app?vid=55d4cda0-dbc0-4c6e-9c73-196326286778","ios":"levelo://app?vid=55d4cda0-dbc0-4c6e-9c73-196326286778"},"vehicle_type_id":"4","last_reported":1728130524,"current_range_meters":17600,"station_id":"ce4bhbh2rcd13ifvqeo0","pricing_plan_id":"cebpf4jnsgd1na2vs0mg"},{"bike_id":"baba7691-81ff-4c7d-90d9-c89eba9696cb","system_id":"levelo_inurba_marseille","lat":43.25929,"lon":5.40912,"is_reserved":false,"is_disabled":false,"rental_uris":{"android":"levelo://app?vid=baba7691-81ff-4c7d-90d9-c89eba9696cb","ios":"levelo://app?vid=baba7691-81ff-4c7d-90d9-c89eba9696cb"},"vehicle_type_id":"4","last_reported":1728130524,"current_range_meters":36800,"station_id":"ce4bhm92rcd13ifvqglg","pricing_plan_id":"cebpf4jnsgd1na2vs0mg"},{"bike_id":"8398f01b-0c89-49cd-bea3-9feffbf7b091","system_id":"levelo_inurba_marseille","lat":43.30802,"lon":5.43519,"is_reserved":false,"is_disabled":false,"rental_uris":{"android":"levelo://app?vid=8398f01b-0c89-49cd-bea3-9feffbf7b091","ios":"levelo://app?vid=8398f01b-0c89-49cd-bea3-9feffbf7b091"},"vehicle_type_id":"4","last_reported":1728130524,"current_range_meters":25600,"station_id":"ce4bhph2rcd13ifvqheg","pricing_plan_id":"cebpf4jnsgd1na2vs0mg"},{"bike_id":"da9377eb-12fc-461c-9f34-4a681361878c","system_id":"levelo_inurba_marseille","lat":43.30955,"lon":5.39034,"is_reserved":false,"is_disabled":false,"rental_uris":{"android":"levelo://app?vid=da9377eb-12fc-461c-9f34-4a681361878c","ios":"levelo://app?vid=da9377eb-12fc-461c-9f34-4a681361878c"},"vehicle_type_id":"4","last_reported":1728130524,"current_range_meters":38800,"station_id":"ce4bgup2rcd13ifvqco0","pricing_plan_id":"cebpf4jnsgd1na2vs0mg"},{"bike_id":"003f79fe-6d41-46f1-841e-89c95bada677","system_id":"levelo_inurba_marseille","lat":43.22933,"lon":5.35373,"is_reserved":false,"is_disabled":false,"rental_uris":{"android":"levelo://app?vid=003f79fe-6d41-46f1-841e-89c95bada677","ios":"levelo://app?vid=003f79fe-6d41-46f1-841e-89c95bada677"},"vehicle_type_id":"4","last_reported":1728130524,"current_range_meters":27600,"station_id":"cpo3532slgdg3j2ikp40","pricing_plan_id":"cebpf4jnsgd1na2vs0mg"},{"bike_id":"8c1e930f-9fd1-4dbc-b3d8-12d463da78c2","system_id":"levelo_inurba_marseille","lat":43.25865,"lon":5.39892,"is_reserved":false,"is_disabled":false,"rental_uris":{"android":"levelo://app?vid=8c1e930f-9fd1-4dbc-b3d8-12d463da78c2","ios":"levelo://app?vid=8c1e930f-9fd1-4dbc-b3d8-12d463da78c2"},"vehicle_type_id":"4","last_reported":1728130524,"current_range_meters":38400,"station_id":"ce4bhl92rcd13ifvqghg","pricing_plan_id":"cebpf4jnsgd1na2vs0mg"},{"bike_id":"03fbec81-2a94-48dd-a306-be269f429402","system_id":"levelo_inurba_marseille","lat":43.2737,"lon":5.36259,"is_reserved":false,"is_disabled":false,"rental_uris":{"android":"levelo://app?vid=03fbec81-2a94-48dd-a306-be269f429402","ios":"levelo://app?vid=03fbec81-2a94-48dd-a306-be269f429402"},"vehicle_type_id":"4","last_reported":1728130524,"current_range_meters":37600,"station_id":"ce4bhbh2rcd13ifvqeo0","pricing_plan_id":"cebpf4jnsgd1na2vs0mg"},{"bike_id":"e5e43828-a215-457d-9526-dc97b02d3d09","system_id":"levelo_inurba_marseille","lat":43.23967,"lon":5.36621,"is_reserved":false,"is_disabled":false,"rental_uris":{"android":"levelo://app?vid=e5e43828-a215-457d-9526-dc97b02d3d09","ios":"levelo://app?vid=e5e43828-a215-457d-9526-dc97b02d3d09"},"vehicle_type_id":"4","last_reported":1728130524,"current_range_meters":21600,"station_id":"ce4bhi12rcd13ifvqfp0","pricing_plan_id":"cebpf4jnsgd1na2vs0mg"},{"bike_id":"8c05ee22-06cf-4d7a-b596-eacb598398e5","system_id":"levelo_inurba_marseille","lat":43.24662,"lon":5.38159,"is_reserved":false,"is_disabled":false,"rental_uris":{"android":"levelo://app?vid=8c05ee22-06cf-4d7a-b596-eacb598398e5","ios":"levelo://app?vid=8c05ee22-06cf-4d7a-b596-eacb598398e5"},"vehicle_type_id":"4","last_reported":1728130524,"current_range_meters":24800,"station_id":"ce4bhih2rcd13ifvqfr0","pricing_plan_id":"cebpf4jnsgd1na2vs0mg"},{"bike_id":"3aafb614-c0fb-49bd-9fdd-12ff71c46a4d","system_id":"levelo_inurba_marseille","lat":43.29006,"lon":5.35609,"is_reserved":false,"is_disabled":false,"rental_uris":{"android":"levelo://app?vid=3aafb614-c0fb-49bd-9fdd-12ff71c46a4d","ios":"levelo://app?vid=3aafb614-c0fb-49bd-9fdd-12ff71c46a4d"},"vehicle_type_id":"4","last_reported":1728130524,"current_range_meters":36800,"station_id":"ce4bhb92rcd13ifvqen0","pricing_plan_id":"cebpf4jnsgd1na2vs0mg"},{"bike_id":"0a6983b5-0b58-42db-8363-d7498390360f","system_id":"levelo_inurba_marseille","lat":43.30941,"lon":5.39035,"is_reserved":false,"is_disabled":false,"rental_uris":{"android":"levelo://app?vid=0a6983b5-0b58-42db-8363-d7498390360f","ios":"levelo://app?vid=0a6983b5-0b58-42db-8363-d7498390360f"},"vehicle_type_id":"4","last_reported":1728130524,"current_range_meters":19200,"station_id":"ce4bgup2rcd13ifvqco0","pricing_plan_id":"cebpf4jnsgd1na2vs0mg"},{"bike_id":"4af55307-045f-4c66-a045-a91d88bb4c16","system_id":"levelo_inurba_marseille","lat":43.3376,"lon":5.37421,"is_reserved":false,"is_disabled":false,"rental_uris":{"android":"levelo://app?vid=4af55307-045f-4c66-a045-a91d88bb4c16","ios":"levelo://app?vid=4af55307-045f-4c66-a045-a91d88bb4c16"},"vehicle_type_id":"4","last_reported":1728130524,"current_range_meters":36000,"station_id":"","pricing_plan_id":"cebpf4jnsgd1na2vs0mg"},{"bike_id":"a3f87593-f91c-424c-8b11-f4aa40b65d37","system_id":"levelo_inurba_marseille","lat":43.29553,"lon":5.42282,"is_reserved":false,"is_disabled":false,"rental_uris":{"android":"levelo://app?vid=a3f87593-f91c-424c-8b11-f4aa40b65d37","ios":"levelo://app?vid=a3f87593-f91c-424c-8b11-f4aa40b65d37"},"vehicle_type_id":"4","last_reported":1728130524,"current_range_meters":38800,"station_id":"ce4bhph2rcd13ifvqhdg","pricing_plan_id":"cebpf4jnsgd1na2vs0mg"},{"bike_id":"048b48e2-fdf6-4f53-aa74-369aa9ffb52c","system_id":"levelo_inurba_marseille","lat":43.23148,"lon":5.43718,"is_reserved":false,"is_disabled":false,"rental_uris":{"android":"levelo://app?vid=048b48e2-fdf6-4f53-aa74-369aa9ffb52c","ios":"levelo://app?vid=048b48e2-fdf6-4f53-aa74-369aa9ffb52c"},"vehicle_type_id":"4","last_reported":1728130524,"current_range_meters":33600,"station_id":"ce4bhmp2rcd13ifvqgog","pricing_plan_id":"cebpf4jnsgd1na2vs0mg"},{"bike_id":"e756f7bf-048d-4602-8960-fecb6745cc19","system_id":"levelo_inurba_marseille","lat":43.273712,"lon":5.362561,"is_reserved":false,"is_disabled":false,"rental_uris":{"android":"levelo://app?vid=e756f7bf-048d-4602-8960-fecb6745cc19","ios":"levelo://app?vid=e756f7bf-048d-4602-8960-fecb6745cc19"},"vehicle_type_id":"4","last_reported":1728130524,"current_range_meters":26000,"station_id":"","pricing_plan_id":"cebpf4jnsgd1na2vs0mg"},{"bike_id":"73bc1bfb-0786-455e-8705-4d9c4fd9bd31","system_id":"levelo_inurba_marseille","lat":43.29708,"lon":5.37698,"is_reserved":false,"is_disabled":false,"rental_uris":{"android":"levelo://app?vid=73bc1bfb-0786-455e-8705-4d9c4fd9bd31","ios":"levelo://app?vid=73bc1bfb-0786-455e-8705-4d9c4fd9bd31"},"vehicle_type_id":"4","last_reported":1728130524,"current_range_meters":27200,"station_id":"ce4bgkh2rcd13ifvqbl0","pricing_plan_id":"cebpf4jnsgd1na2vs0mg"},{"bike_id":"13a35d1a-1c21-4cdd-9282-17040c700716","system_id":"levelo_inurba_marseille","lat":43.3253,"lon":5.41445,"is_reserved":false,"is_disabled":false,"rental_uris":{"android":"levelo://app?vid=13a35d1a-1c21-4cdd-9282-17040c700716","ios":"levelo://app?vid=13a35d1a-1c21-4cdd-9282-17040c700716"},"vehicle_type_id":"4","last_reported":1728130524,"current_range_meters":38400,"station_id":"ce4bhq12rcd13ifvqhhg","pricing_plan_id":"cebpf4jnsgd1na2vs0mg"},{"bike_id":"8aa2ac51-ddb1-4718-9a74-6b9a94996e28","system_id":"levelo_inurba_marseille","lat":43.29622,"lon":5.37154,"is_reserved":false,"is_disabled":false,"rental_uris":{"android":"levelo://app?vid=8aa2ac51-ddb1-4718-9a74-6b9a94996e28","ios":"levelo://app?vid=8aa2ac51-ddb1-4718-9a74-6b9a94996e28"},"vehicle_type_id":"4","last_reported":1728130524,"current_range_meters":36800,"station_id":"ce4bgnh2rcd13ifvqc0g","pricing_plan_id":"cebpf4jnsgd1na2vs0mg"},{"bike_id":"78d3144f-fa4a-405c-8f80-f91550eb89d9","system_id":"levelo_inurba_marseille","lat":43.28264,"lon":5.35082,"is_reserved":false,"is_disabled":false,"rental_uris":{"android":"levelo://app?vid=78d3144f-fa4a-405c-8f80-f91550eb89d9","ios":"levelo://app?vid=78d3144f-fa4a-405c-8f80-f91550eb89d9"},"vehicle_type_id":"4","last_reported":1728130524,"current_range_meters":30800,"station_id":"ce4bhbp2rcd13ifvqerg","pricing_plan_id":"cebpf4jnsgd1na2vs0mg"},{"bike_id":"ae11f763-cc97-493e-b863-e2d46fc0a9a1","system_id":"levelo_inurba_marseille","lat":43.28621,"lon":5.35098,"is_reserved":false,"is_disabled":false,"rental_uris":{"android":"levelo://app?vid=ae11f763-cc97-493e-b863-e2d46fc0a9a1","ios":"levelo://app?vid=ae11f763-cc97-493e-b863-e2d46fc0a9a1"},"vehicle_type_id":"4","last_reported":1728130524,"current_range_meters":10000,"station_id":"ce4bhch2rcd13ifvqeug","pricing_plan_id":"cebpf4jnsgd1na2vs0mg"},{"bike_id":"0799626e-22fc-4ce8-9c32-01dd45f00ff6","system_id":"levelo_inurba_marseille","lat":43.24459,"lon":5.39616,"is_reserved":false,"is_disabled":false,"rental_uris":{"android":"levelo://app?vid=0799626e-22fc-4ce8-9c32-01dd45f00ff6","ios":"levelo://app?vid=0799626e-22fc-4ce8-9c32-01dd45f00ff6"},"vehicle_type_id":"4","last_reported":1728130524,"current_range_meters":12800,"station_id":"ce4bhih2rcd13ifvqfs0","pricing_plan_id":"cebpf4jnsgd1na2vs0mg"},{"bike_id":"696644f5-1423-4196-8c71-bccdf5f2a225","system_id":"levelo_inurba_marseille","lat":43.2842,"lon":5.34987,"is_reserved":false,"is_disabled":false,"rental_uris":{"android":"levelo://app?vid=696644f5-1423-4196-8c71-bccdf5f2a225","ios":"levelo://app?vid=696644f5-1423-4196-8c71-bccdf5f2a225"},"vehicle_type_id":"4","last_reported":1728130524,"current_range_meters":38000,"station_id":"ce4bhbh2rcd13ifvqepg","pricing_plan_id":"cebpf4jnsgd1na2vs0mg"},{"bike_id":"afb833f8-2a8f-416b-9edc-80e19206939a","system_id":"levelo_inurba_marseille","lat":43.22928,"lon":5.3537,"is_reserved":false,"is_disabled":false,"rental_uris":{"android":"levelo://app?vid=afb833f8-2a8f-416b-9edc-80e19206939a","ios":"levelo://app?vid=afb833f8-2a8f-416b-9edc-80e19206939a"},"vehicle_type_id":"4","last_reported":1728130524,"current_range_meters":13600,"station_id":"cpo3532slgdg3j2ikp40","pricing_plan_id":"cebpf4jnsgd1na2vs0mg"},{"bike_id":"3b331ddc-b6e0-4524-a213-681816e88962","system_id":"levelo_inurba_marseille","lat":43.32364,"lon":5.38875,"is_reserved":false,"is_disabled":false,"rental_uris":{"android":"levelo://app?vid=3b331ddc-b6e0-4524-a213-681816e88962","ios":"levelo://app?vid=3b331ddc-b6e0-4524-a213-681816e88962"},"vehicle_type_id":"4","last_reported":1728130524,"current_range_meters":22800,"station_id":"ce4bhqp2rcd13ifvqhog","pricing_plan_id":"cebpf4jnsgd1na2vs0mg"},{"bike_id":"8178d375-e5db-476e-8eff-030138b83f71","system_id":"levelo_inurba_marseille","lat":43.258423,"lon":5.411659,"is_reserved":false,"is_disabled":false,"rental_uris":{"android":"levelo://app?vid=8178d375-e5db-476e-8eff-030138b83f71","ios":"levelo://app?vid=8178d375-e5db-476e-8eff-030138b83f71"},"vehicle_type_id":"4","last_reported":1728130524,"current_range_meters":20400,"station_id":"ce4bhkp2rcd13ifvqgd0","pricing_plan_id":"cebpf4jnsgd1na2vs0mg"},{"bike_id":"2f337cc6-9141-49b7-8d58-9e3bdedc3f11","system_id":"levelo_inurba_marseille","lat":43.23195,"lon":5.35552,"is_reserved":false,"is_disabled":false,"rental_uris":{"android":"levelo://app?vid=2f337cc6-9141-49b7-8d58-9e3bdedc3f11","ios":"levelo://app?vid=2f337cc6-9141-49b7-8d58-9e3bdedc3f11"},"vehicle_type_id":"4","last_reported":1728130524,"current_range_meters":20800,"station_id":"ce4bhu92rcd13ifvqi70","pricing_plan_id":"cebpf4jnsgd1na2vs0mg"},{"bike_id":"767b5572-7a96-45fd-9ea6-1b05056115f2","system_id":"levelo_inurba_marseille","lat":43.33025,"lon":5.39039,"is_reserved":false,"is_disabled":false,"rental_uris":{"android":"levelo://app?vid=767b5572-7a96-45fd-9ea6-1b05056115f2","ios":"levelo://app?vid=767b5572-7a96-45fd-9ea6-1b05056115f2"},"vehicle_type_id":"4","last_reported":1728130524,"current_range_meters":32000,"station_id":"ce4bhr92rcd13ifvqhrg","pricing_plan_id":"cebpf4jnsgd1na2vs0mg"},{"bike_id":"e7ed413c-3ea5-48f5-9fd4-d465dc0d4f42","system_id":"levelo_inurba_marseille","lat":43.28264,"lon":5.35064,"is_reserved":false,"is_disabled":false,"rental_uris":{"android":"levelo://app?vid=e7ed413c-3ea5-48f5-9fd4-d465dc0d4f42","ios":"levelo://app?vid=e7ed413c-3ea5-48f5-9fd4-d465dc0d4f42"},"vehicle_type_id":"4","last_reported":1728130524,"current_range_meters":28400,"station_id":"ce4bhbp2rcd13ifvqerg","pricing_plan_id":"cebpf4jnsgd1na2vs0mg"},{"bike_id":"111479af-5882-4150-805f-61f12bd8930d","system_id":"levelo_inurba_marseille","lat":43.23959,"lon":5.36628,"is_reserved":false,"is_disabled":false,"rental_uris":{"android":"levelo://app?vid=111479af-5882-4150-805f-61f12bd8930d","ios":"levelo://app?vid=111479af-5882-4150-805f-61f12bd8930d"},"vehicle_type_id":"4","last_reported":1728130524,"current_range_meters":27600,"station_id":"","pricing_plan_id":"cebpf4jnsgd1na2vs0mg"},{"bike_id":"db981661-0e24-4757-bdf7-473bbc2a9be4","system_id":"levelo_inurba_marseille","lat":43.229335,"lon":5.353812,"is_reserved":false,"is_disabled":false,"rental_uris":{"android":"levelo://app?vid=db981661-0e24-4757-bdf7-473bbc2a9be4","ios":"levelo://app?vid=db981661-0e24-4757-bdf7-473bbc2a9be4"},"vehicle_type_id":"4","last_reported":1728130524,"current_range_meters":38000,"station_id":"cpo3532slgdg3j2ikp40","pricing_plan_id":"cebpf4jnsgd1na2vs0mg"},{"bike_id":"bcac455c-9902-48bf-b9b1-3c1b965f772f","system_id":"levelo_inurba_marseille","lat":43.28417,"lon":5.34986,"is_reserved":false,"is_disabled":false,"rental_uris":{"android":"levelo://app?vid=bcac455c-9902-48bf-b9b1-3c1b965f772f","ios":"levelo://app?vid=bcac455c-9902-48bf-b9b1-3c1b965f772f"},"vehicle_type_id":"4","last_reported":1728130524,"current_range_meters":29600,"station_id":"ce4bhbh2rcd13ifvqepg","pricing_plan_id":"cebpf4jnsgd1na2vs0mg"},{"bike_id":"72bbe761-9e6f-4875-967a-637883cd8459","system_id":"levelo_inurba_marseille","lat":43.24999,"lon":5.38931,"is_reserved":false,"is_disabled":false,"rental_uris":{"android":"levelo://app?vid=72bbe761-9e6f-4875-967a-637883cd8459","ios":"levelo://app?vid=72bbe761-9e6f-4875-967a-637883cd8459"},"vehicle_type_id":"4","last_reported":1728130524,"current_range_meters":38800,"station_id":"ce4bhgp2rcd13ifvqfd0","pricing_plan_id":"cebpf4jnsgd1na2vs0mg"},{"bike_id":"529ba3e7-87be-4760-bb3f-27721db457b7","system_id":"levelo_inurba_marseille","lat":43.29968,"lon":5.38491,"is_reserved":false,"is_disabled":false,"rental_uris":{"android":"levelo://app?vid=529ba3e7-87be-4760-bb3f-27721db457b7","ios":"levelo://app?vid=529ba3e7-87be-4760-bb3f-27721db457b7"},"vehicle_type_id":"4","last_reported":1728130524,"current_range_meters":8400,"station_id":"ce4bgj92rcd13ifvqbd0","pricing_plan_id":"cebpf4jnsgd1na2vs0mg"},{"bike_id":"eb3612da-0efc-4468-9784-7b4f68e94aa4","system_id":"levelo_inurba_marseille","lat":43.28269,"lon":5.3506,"is_reserved":false,"is_disabled":false,"rental_uris":{"android":"levelo://app?vid=eb3612da-0efc-4468-9784-7b4f68e94aa4","ios":"levelo://app?vid=eb3612da-0efc-4468-9784-7b4f68e94aa4"},"vehicle_type_id":"4","last_reported":1728130524,"current_range_meters":15200,"station_id":"ce4bhbp2rcd13ifvqerg","pricing_plan_id":"cebpf4jnsgd1na2vs0mg"},{"bike_id":"fcfb42de-cde1-4ec3-8e89-f197fdfcc1a8","system_id":"levelo_inurba_marseille","lat":43.23959,"lon":5.36636,"is_reserved":false,"is_disabled":false,"rental_uris":{"android":"levelo://app?vid=fcfb42de-cde1-4ec3-8e89-f197fdfcc1a8","ios":"levelo://app?vid=fcfb42de-cde1-4ec3-8e89-f197fdfcc1a8"},"vehicle_type_id":"4","last_reported":1728130524,"current_range_meters":38800,"station_id":"ce4bhi12rcd13ifvqfp0","pricing_plan_id":"cebpf4jnsgd1na2vs0mg"},{"bike_id":"7101b9db-d328-47cf-a085-f83e3e2a7f92","system_id":"levelo_inurba_marseille","lat":43.268044,"lon":5.40264,"is_reserved":false,"is_disabled":false,"rental_uris":{"android":"levelo://app?vid=7101b9db-d328-47cf-a085-f83e3e2a7f92","ios":"levelo://app?vid=7101b9db-d328-47cf-a085-f83e3e2a7f92"},"vehicle_type_id":"4","last_reported":1728130524,"current_range_meters":8400,"station_id":"ce501612rcd8frsf0b60","pricing_plan_id":"cebpf4jnsgd1na2vs0mg"},{"bike_id":"c1de1c6c-35d0-420e-bd13-1111645ae31c","system_id":"levelo_inurba_marseille","lat":43.307603,"lon":5.371502,"is_reserved":false,"is_disabled":false,"rental_uris":{"android":"levelo://app?vid=c1de1c6c-35d0-420e-bd13-1111645ae31c","ios":"levelo://app?vid=c1de1c6c-35d0-420e-bd13-1111645ae31c"},"vehicle_type_id":"4","last_reported":1728130524,"current_range_meters":38400,"station_id":"ce4bgl92rcd13ifvqbq0","pricing_plan_id":"cebpf4jnsgd1na2vs0mg"},{"bike_id":"c00d56df-3d94-4378-a507-25fefbac731b","system_id":"levelo_inurba_marseille","lat":43.23151,"lon":5.43713,"is_reserved":false,"is_disabled":false,"rental_uris":{"android":"levelo://app?vid=c00d56df-3d94-4378-a507-25fefbac731b","ios":"levelo://app?vid=c00d56df-3d94-4378-a507-25fefbac731b"},"vehicle_type_id":"4","last_reported":1728130524,"current_range_meters":34000,"station_id":"ce4bhmp2rcd13ifvqgog","pricing_plan_id":"cebpf4jnsgd1na2vs0mg"},{"bike_id":"9b20213d-3b6d-4970-bbc8-1bdf51f25874","system_id":"levelo_inurba_marseille","lat":43.23171,"lon":5.39991,"is_reserved":false,"is_disabled":false,"rental_uris":{"android":"levelo://app?vid=9b20213d-3b6d-4970-bbc8-1bdf51f25874","ios":"levelo://app?vid=9b20213d-3b6d-4970-bbc8-1bdf51f25874"},"vehicle_type_id":"4","last_reported":1728130524,"current_range_meters":6800,"station_id":"ce4bhn12rcd13ifvqgqg","pricing_plan_id":"cebpf4jnsgd1na2vs0mg"},{"bike_id":"2b1af9ff-8172-4ee2-a5f5-6b23c25a6ae2","system_id":"levelo_inurba_marseille","lat":43.24394,"lon":5.37045,"is_reserved":false,"is_disabled":false,"rental_uris":{"android":"levelo://app?vid=2b1af9ff-8172-4ee2-a5f5-6b23c25a6ae2","ios":"levelo://app?vid=2b1af9ff-8172-4ee2-a5f5-6b23c25a6ae2"},"vehicle_type_id":"4","last_reported":1728130524,"current_range_meters":38400,"station_id":"ce4bhhh2rcd13ifvqfk0","pricing_plan_id":"cebpf4jnsgd1na2vs0mg"},{"bike_id":"9ced53a3-5688-4c80-96a7-a3bbcf8f82e5","system_id":"levelo_inurba_marseille","lat":43.25107,"lon":5.40321,"is_reserved":false,"is_disabled":false,"rental_uris":{"android":"levelo://app?vid=9ced53a3-5688-4c80-96a7-a3bbcf8f82e5","ios":"levelo://app?vid=9ced53a3-5688-4c80-96a7-a3bbcf8f82e5"},"vehicle_type_id":"4","last_reported":1728130524,"current_range_meters":12800,"station_id":"ce4bhlh2rcd13ifvqgig","pricing_plan_id":"cebpf4jnsgd1na2vs0mg"},{"bike_id":"79b9780c-0672-46ff-af34-19be6dec4043","system_id":"levelo_inurba_marseille","lat":43.3171,"lon":5.43707,"is_reserved":false,"is_disabled":false,"rental_uris":{"android":"levelo://app?vid=79b9780c-0672-46ff-af34-19be6dec4043","ios":"levelo://app?vid=79b9780c-0672-46ff-af34-19be6dec4043"},"vehicle_type_id":"4","last_reported":1728130524,"current_range_meters":24400,"station_id":"ce4bhp92rcd13ifvqhcg","pricing_plan_id":"cebpf4jnsgd1na2vs0mg"},{"bike_id":"757b11d9-6675-4fc4-b209-4e6e86b5bf6d","system_id":"levelo_inurba_marseille","lat":43.23064,"lon":5.35484,"is_reserved":false,"is_disabled":false,"rental_uris":{"android":"levelo://app?vid=757b11d9-6675-4fc4-b209-4e6e86b5bf6d","ios":"levelo://app?vid=757b11d9-6675-4fc4-b209-4e6e86b5bf6d"},"vehicle_type_id":"4","last_reported":1728130524,"current_range_meters":19200,"station_id":"cpo3342slgdg3j2ifvpg","pricing_plan_id":"cebpf4jnsgd1na2vs0mg"},{"bike_id":"f00e085f-8363-4972-a1ea-bffa8a9933d1","system_id":"levelo_inurba_marseille","lat":43.29845,"lon":5.36286,"is_reserved":false,"is_disabled":false,"rental_uris":{"android":"levelo://app?vid=f00e085f-8363-4972-a1ea-bffa8a9933d1","ios":"levelo://app?vid=f00e085f-8363-4972-a1ea-bffa8a9933d1"},"vehicle_type_id":"4","last_reported":1728130524,"current_range_meters":11600,"station_id":"ce4bgpp2rcd13ifvqc3g","pricing_plan_id":"cebpf4jnsgd1na2vs0mg"},{"bike_id":"e19b1534-7c99-4fb8-bf6a-8ba1bcc29923","system_id":"levelo_inurba_marseille","lat":43.23151,"lon":5.43708,"is_reserved":false,"is_disabled":false,"rental_uris":{"android":"levelo://app?vid=e19b1534-7c99-4fb8-bf6a-8ba1bcc29923","ios":"levelo://app?vid=e19b1534-7c99-4fb8-bf6a-8ba1bcc29923"},"vehicle_type_id":"4","last_reported":1728130524,"current_range_meters":20000,"station_id":"ce4bhmp2rcd13ifvqgog","pricing_plan_id":"cebpf4jnsgd1na2vs0mg"},{"bike_id":"a7ea84cb-cd67-4a61-bd81-f14c761c0dff","system_id":"levelo_inurba_marseille","lat":43.31112,"lon":5.37772,"is_reserved":false,"is_disabled":false,"rental_uris":{"android":"levelo://app?vid=a7ea84cb-cd67-4a61-bd81-f14c761c0dff","ios":"levelo://app?vid=a7ea84cb-cd67-4a61-bd81-f14c761c0dff"},"vehicle_type_id":"4","last_reported":1728130524,"current_range_meters":23200,"station_id":"ce4bgt92rcd13ifvqcg0","pricing_plan_id":"cebpf4jnsgd1na2vs0mg"},{"bike_id":"f60e19bf-f823-439a-9dfd-2cf90541d354","system_id":"levelo_inurba_marseille","lat":43.31875,"lon":5.40737,"is_reserved":false,"is_disabled":false,"rental_uris":{"android":"levelo://app?vid=f60e19bf-f823-439a-9dfd-2cf90541d354","ios":"levelo://app?vid=f60e19bf-f823-439a-9dfd-2cf90541d354"},"vehicle_type_id":"4","last_reported":1728130524,"current_range_meters":13600,"station_id":"ce4bhq12rcd13ifvqhig","pricing_plan_id":"cebpf4jnsgd1na2vs0mg"},{"bike_id":"24e8665c-c387-4bce-a92a-51df3b36226c","system_id":"levelo_inurba_marseille","lat":43.23194,"lon":5.35545,"is_reserved":false,"is_disabled":false,"rental_uris":{"android":"levelo://app?vid=24e8665c-c387-4bce-a92a-51df3b36226c","ios":"levelo://app?vid=24e8665c-c387-4bce-a92a-51df3b36226c"},"vehicle_type_id":"4","last_reported":1728130524,"current_range_meters":8800,"station_id":"ce4bhu92rcd13ifvqi70","pricing_plan_id":"cebpf4jnsgd1na2vs0mg"},{"bike_id":"d93db596-a84a-40be-9918-fc60d2f074f8","system_id":"levelo_inurba_marseille","lat":43.28614,"lon":5.35102,"is_reserved":false,"is_disabled":false,"rental_uris":{"android":"levelo://app?vid=d93db596-a84a-40be-9918-fc60d2f074f8","ios":"levelo://app?vid=d93db596-a84a-40be-9918-fc60d2f074f8"},"vehicle_type_id":"4","last_reported":1728130524,"current_range_meters":8400,"station_id":"ce4bhch2rcd13ifvqeug","pricing_plan_id":"cebpf4jnsgd1na2vs0mg"},{"bike_id":"78f819b8-85ba-4563-a6ef-d45e6873584d","system_id":"levelo_inurba_marseille","lat":43.29557,"lon":5.42295,"is_reserved":false,"is_disabled":false,"rental_uris":{"android":"levelo://app?vid=78f819b8-85ba-4563-a6ef-d45e6873584d","ios":"levelo://app?vid=78f819b8-85ba-4563-a6ef-d45e6873584d"},"vehicle_type_id":"4","last_reported":1728130524,"current_range_meters":18000,"station_id":"ce4bhp92rcd13ifvqhag","pricing_plan_id":"cebpf4jnsgd1na2vs0mg"},{"bike_id":"e0723e12-9fff-4915-bfe2-10751146dd04","system_id":"levelo_inurba_marseille","lat":43.27428,"lon":5.3942,"is_reserved":false,"is_disabled":false,"rental_uris":{"android":"levelo://app?vid=e0723e12-9fff-4915-bfe2-10751146dd04","ios":"levelo://app?vid=e0723e12-9fff-4915-bfe2-10751146dd04"},"vehicle_type_id":"4","last_reported":1728130524,"current_range_meters":37600,"station_id":"ce4bhdp2rcd13ifvqf20","pricing_plan_id":"cebpf4jnsgd1na2vs0mg"},{"bike_id":"2dfa250e-fa81-43be-b763-8f49843284b7","system_id":"levelo_inurba_marseille","lat":43.23182,"lon":5.39989,"is_reserved":false,"is_disabled":false,"rental_uris":{"android":"levelo://app?vid=2dfa250e-fa81-43be-b763-8f49843284b7","ios":"levelo://app?vid=2dfa250e-fa81-43be-b763-8f49843284b7"},"vehicle_type_id":"4","last_reported":1728130524,"current_range_meters":38000,"station_id":"ce4bhn12rcd13ifvqgqg","pricing_plan_id":"cebpf4jnsgd1na2vs0mg"},{"bike_id":"0674299d-06de-4186-9fc5-0cf21c6d44eb","system_id":"levelo_inurba_marseille","lat":43.30456,"lon":5.37897,"is_reserved":false,"is_disabled":false,"rental_uris":{"android":"levelo://app?vid=0674299d-06de-4186-9fc5-0cf21c6d44eb","ios":"levelo://app?vid=0674299d-06de-4186-9fc5-0cf21c6d44eb"},"vehicle_type_id":"4","last_reported":1728130524,"current_range_meters":32000,"station_id":"ce4bgup2rcd13ifvqcn0","pricing_plan_id":"cebpf4jnsgd1na2vs0mg"},{"bike_id":"6331e1ec-cf9d-44e8-a534-547fad38181d","system_id":"levelo_inurba_marseille","lat":43.3266,"lon":5.40983,"is_reserved":false,"is_disabled":false,"rental_uris":{"android":"levelo://app?vid=6331e1ec-cf9d-44e8-a534-547fad38181d","ios":"levelo://app?vid=6331e1ec-cf9d-44e8-a534-547fad38181d"},"vehicle_type_id":"4","last_reported":1728130524,"current_range_meters":8000,"station_id":"ce4bhpp2rcd13ifvqhgg","pricing_plan_id":"cebpf4jnsgd1na2vs0mg"},{"bike_id":"1b75903c-10d1-4053-9242-e810449cfde9","system_id":"levelo_inurba_marseille","lat":43.26557,"lon":5.37278,"is_reserved":false,"is_disabled":false,"rental_uris":{"android":"levelo://app?vid=1b75903c-10d1-4053-9242-e810449cfde9","ios":"levelo://app?vid=1b75903c-10d1-4053-9242-e810449cfde9"},"vehicle_type_id":"4","last_reported":1728130524,"current_range_meters":34800,"station_id":"ce4bhg12rcd13ifvqf70","pricing_plan_id":"cebpf4jnsgd1na2vs0mg"},{"bike_id":"c1f127fe-5d34-4098-836e-b598a6b9dab7","system_id":"levelo_inurba_marseille","lat":43.2922,"lon":5.36057,"is_reserved":false,"is_disabled":false,"rental_uris":{"android":"levelo://app?vid=c1f127fe-5d34-4098-836e-b598a6b9dab7","ios":"levelo://app?vid=c1f127fe-5d34-4098-836e-b598a6b9dab7"},"vehicle_type_id":"4","last_reported":1728130524,"current_range_meters":23200,"station_id":"ce4bhbh2rcd13ifvqeqg","pricing_plan_id":"cebpf4jnsgd1na2vs0mg"},{"bike_id":"e04e5431-207d-4263-8b72-762e4c4878e5","system_id":"levelo_inurba_marseille","lat":43.23056,"lon":5.35491,"is_reserved":false,"is_disabled":false,"rental_uris":{"android":"levelo://app?vid=e04e5431-207d-4263-8b72-762e4c4878e5","ios":"levelo://app?vid=e04e5431-207d-4263-8b72-762e4c4878e5"},"vehicle_type_id":"4","last_reported":1728130524,"current_range_meters":16400,"station_id":"cpo3342slgdg3j2ifvpg","pricing_plan_id":"cebpf4jnsgd1na2vs0mg"},{"bike_id":"26a9678b-d130-44f1-a8ab-f1154f7156cd","system_id":"levelo_inurba_marseille","lat":43.28269,"lon":5.35074,"is_reserved":false,"is_disabled":false,"rental_uris":{"android":"levelo://app?vid=26a9678b-d130-44f1-a8ab-f1154f7156cd","ios":"levelo://app?vid=26a9678b-d130-44f1-a8ab-f1154f7156cd"},"vehicle_type_id":"4","last_reported":1728130524,"current_range_meters":18800,"station_id":"ce4bhbp2rcd13ifvqerg","pricing_plan_id":"cebpf4jnsgd1na2vs0mg"},{"bike_id":"9b192cab-2de5-41d3-a543-1e8afbb9ba96","system_id":"levelo_inurba_marseille","lat":43.2953,"lon":5.37499,"is_reserved":false,"is_disabled":false,"rental_uris":{"android":"levelo://app?vid=9b192cab-2de5-41d3-a543-1e8afbb9ba96","ios":"levelo://app?vid=9b192cab-2de5-41d3-a543-1e8afbb9ba96"},"vehicle_type_id":"4","last_reported":1728130524,"current_range_meters":22000,"station_id":"ce4bgkp2rcd13ifvqbmg","pricing_plan_id":"cebpf4jnsgd1na2vs0mg"},{"bike_id":"7e5a4ffa-6310-4511-a1dc-2dedfd26f1bc","system_id":"levelo_inurba_marseille","lat":43.29562,"lon":5.42282,"is_reserved":false,"is_disabled":false,"rental_uris":{"android":"levelo://app?vid=7e5a4ffa-6310-4511-a1dc-2dedfd26f1bc","ios":"levelo://app?vid=7e5a4ffa-6310-4511-a1dc-2dedfd26f1bc"},"vehicle_type_id":"4","last_reported":1728130524,"current_range_meters":2800,"station_id":"ce4bhph2rcd13ifvqhdg","pricing_plan_id":"cebpf4jnsgd1na2vs0mg"},{"bike_id":"7800bd97-f2d3-4756-827a-2df81751dfd0","system_id":"levelo_inurba_marseille","lat":43.30644,"lon":5.40088,"is_reserved":false,"is_disabled":false,"rental_uris":{"android":"levelo://app?vid=7800bd97-f2d3-4756-827a-2df81751dfd0","ios":"levelo://app?vid=7800bd97-f2d3-4756-827a-2df81751dfd0"},"vehicle_type_id":"4","last_reported":1728130524,"current_range_meters":21600,"station_id":"ce4bh112rcd13ifvqda0","pricing_plan_id":"cebpf4jnsgd1na2vs0mg"},{"bike_id":"0eafffaf-6ede-48fb-9e2d-a2f1ed99a3fd","system_id":"levelo_inurba_marseille","lat":43.28614,"lon":5.35096,"is_reserved":false,"is_disabled":false,"rental_uris":{"android":"levelo://app?vid=0eafffaf-6ede-48fb-9e2d-a2f1ed99a3fd","ios":"levelo://app?vid=0eafffaf-6ede-48fb-9e2d-a2f1ed99a3fd"},"vehicle_type_id":"4","last_reported":1728130524,"current_range_meters":18800,"station_id":"ce4bhch2rcd13ifvqeug","pricing_plan_id":"cebpf4jnsgd1na2vs0mg"},{"bike_id":"4a5c0f8e-c630-4378-bda5-c7b5b1a9c4a2","system_id":"levelo_inurba_marseille","lat":43.267878,"lon":5.394074,"is_reserved":false,"is_disabled":false,"rental_uris":{"android":"levelo://app?vid=4a5c0f8e-c630-4378-bda5-c7b5b1a9c4a2","ios":"levelo://app?vid=4a5c0f8e-c630-4378-bda5-c7b5b1a9c4a2"},"vehicle_type_id":"4","last_reported":1728130524,"current_range_meters":24000,"station_id":"","pricing_plan_id":"cebpf4jnsgd1na2vs0mg"},{"bike_id":"ba21f0b2-6df3-4ec0-b9de-69cdfb2b6162","system_id":"levelo_inurba_marseille","lat":43.28634,"lon":5.38566,"is_reserved":false,"is_disabled":false,"rental_uris":{"android":"levelo://app?vid=ba21f0b2-6df3-4ec0-b9de-69cdfb2b6162","ios":"levelo://app?vid=ba21f0b2-6df3-4ec0-b9de-69cdfb2b6162"},"vehicle_type_id":"4","last_reported":1728130524,"current_range_meters":28400,"station_id":"ce4bh492rcd13ifvqdug","pricing_plan_id":"cebpf4jnsgd1na2vs0mg"},{"bike_id":"8d3c7437-de4a-4312-ac75-1bb2e2cb5b63","system_id":"levelo_inurba_marseille","lat":43.27969,"lon":5.38728,"is_reserved":false,"is_disabled":false,"rental_uris":{"android":"levelo://app?vid=8d3c7437-de4a-4312-ac75-1bb2e2cb5b63","ios":"levelo://app?vid=8d3c7437-de4a-4312-ac75-1bb2e2cb5b63"},"vehicle_type_id":"4","last_reported":1728130524,"current_range_meters":36800,"station_id":"ce4bhg12rcd13ifvqf80","pricing_plan_id":"cebpf4jnsgd1na2vs0mg"},{"bike_id":"59207f80-49b5-42ac-bb06-77755ab51403","system_id":"levelo_inurba_marseille","lat":43.22931,"lon":5.35377,"is_reserved":false,"is_disabled":false,"rental_uris":{"android":"levelo://app?vid=59207f80-49b5-42ac-bb06-77755ab51403","ios":"levelo://app?vid=59207f80-49b5-42ac-bb06-77755ab51403"},"vehicle_type_id":"4","last_reported":1728130524,"current_range_meters":37600,"station_id":"cpo3532slgdg3j2ikp40","pricing_plan_id":"cebpf4jnsgd1na2vs0mg"},{"bike_id":"685f3917-8943-464f-8b7d-e6586f988f49","system_id":"levelo_inurba_marseille","lat":43.28408,"lon":5.34984,"is_reserved":false,"is_disabled":false,"rental_uris":{"android":"levelo://app?vid=685f3917-8943-464f-8b7d-e6586f988f49","ios":"levelo://app?vid=685f3917-8943-464f-8b7d-e6586f988f49"},"vehicle_type_id":"4","last_reported":1728130524,"current_range_meters":29600,"station_id":"ce4bhbh2rcd13ifvqepg","pricing_plan_id":"cebpf4jnsgd1na2vs0mg"},{"bike_id":"e2455afb-c7f2-4814-be90-e1617bd9805f","system_id":"levelo_inurba_marseille","lat":43.24992,"lon":5.38934,"is_reserved":false,"is_disabled":false,"rental_uris":{"android":"levelo://app?vid=e2455afb-c7f2-4814-be90-e1617bd9805f","ios":"levelo://app?vid=e2455afb-c7f2-4814-be90-e1617bd9805f"},"vehicle_type_id":"4","last_reported":1728130524,"current_range_meters":8000,"station_id":"ce4bhgp2rcd13ifvqfd0","pricing_plan_id":"cebpf4jnsgd1na2vs0mg"},{"bike_id":"96eb4682-19b8-4675-bab3-3275719e76a8","system_id":"levelo_inurba_marseille","lat":43.34143,"lon":5.40902,"is_reserved":false,"is_disabled":false,"rental_uris":{"android":"levelo://app?vid=96eb4682-19b8-4675-bab3-3275719e76a8","ios":"levelo://app?vid=96eb4682-19b8-4675-bab3-3275719e76a8"},"vehicle_type_id":"4","last_reported":1728130524,"current_range_meters":28000,"station_id":"ce4bhqh2rcd13ifvqhlg","pricing_plan_id":"cebpf4jnsgd1na2vs0mg"},{"bike_id":"635a9f02-69b9-4e5e-b5e5-da23f579a775","system_id":"levelo_inurba_marseille","lat":43.28412,"lon":5.34988,"is_reserved":false,"is_disabled":false,"rental_uris":{"android":"levelo://app?vid=635a9f02-69b9-4e5e-b5e5-da23f579a775","ios":"levelo://app?vid=635a9f02-69b9-4e5e-b5e5-da23f579a775"},"vehicle_type_id":"4","last_reported":1728130524,"current_range_meters":38400,"station_id":"ce4bhbh2rcd13ifvqepg","pricing_plan_id":"cebpf4jnsgd1na2vs0mg"},{"bike_id":"02830116-04b1-41e8-b8ba-fb8a313d2785","system_id":"levelo_inurba_marseille","lat":43.25929,"lon":5.40908,"is_reserved":false,"is_disabled":false,"rental_uris":{"android":"levelo://app?vid=02830116-04b1-41e8-b8ba-fb8a313d2785","ios":"levelo://app?vid=02830116-04b1-41e8-b8ba-fb8a313d2785"},"vehicle_type_id":"4","last_reported":1728130524,"current_range_meters":33600,"station_id":"ce4bhm92rcd13ifvqglg","pricing_plan_id":"cebpf4jnsgd1na2vs0mg"},{"bike_id":"7a82bffd-f71f-4c32-918a-2957bfe727d5","system_id":"levelo_inurba_marseille","lat":43.31815,"lon":5.39017,"is_reserved":false,"is_disabled":false,"rental_uris":{"android":"levelo://app?vid=7a82bffd-f71f-4c32-918a-2957bfe727d5","ios":"levelo://app?vid=7a82bffd-f71f-4c32-918a-2957bfe727d5"},"vehicle_type_id":"4","last_reported":1728130524,"current_range_meters":17600,"station_id":"ce4bhr92rcd13ifvqhrg","pricing_plan_id":"cebpf4jnsgd1na2vs0mg"},{"bike_id":"eaa6c0c0-4076-4c5d-997e-cf42b730447a","system_id":"levelo_inurba_marseille","lat":43.28614,"lon":5.35098,"is_reserved":false,"is_disabled":false,"rental_uris":{"android":"levelo://app?vid=eaa6c0c0-4076-4c5d-997e-cf42b730447a","ios":"levelo://app?vid=eaa6c0c0-4076-4c5d-997e-cf42b730447a"},"vehicle_type_id":"4","last_reported":1728130524,"current_range_meters":18000,"station_id":"ce4bhch2rcd13ifvqeug","pricing_plan_id":"cebpf4jnsgd1na2vs0mg"},{"bike_id":"639453ee-b2ee-44b0-a3e1-fdd1be947129","system_id":"levelo_inurba_marseille","lat":43.26552,"lon":5.37282,"is_reserved":false,"is_disabled":false,"rental_uris":{"android":"levelo://app?vid=639453ee-b2ee-44b0-a3e1-fdd1be947129","ios":"levelo://app?vid=639453ee-b2ee-44b0-a3e1-fdd1be947129"},"vehicle_type_id":"4","last_reported":1728130524,"current_range_meters":3200,"station_id":"ce4bhg12rcd13ifvqf70","pricing_plan_id":"cebpf4jnsgd1na2vs0mg"},{"bike_id":"f60f1472-2c51-4a99-be4f-71b23798faf3","system_id":"levelo_inurba_marseille","lat":43.27909,"lon":5.39588,"is_reserved":false,"is_disabled":false,"rental_uris":{"android":"levelo://app?vid=f60f1472-2c51-4a99-be4f-71b23798faf3","ios":"levelo://app?vid=f60f1472-2c51-4a99-be4f-71b23798faf3"},"vehicle_type_id":"4","last_reported":1728130524,"current_range_meters":24800,"station_id":"ce4bhf92rcd13ifvqf40","pricing_plan_id":"cebpf4jnsgd1na2vs0mg"},{"bike_id":"ccc4382e-6018-43b3-9823-157589fdfcaa","system_id":"levelo_inurba_marseille","lat":43.265553,"lon":5.372811,"is_reserved":false,"is_disabled":false,"rental_uris":{"android":"levelo://app?vid=ccc4382e-6018-43b3-9823-157589fdfcaa","ios":"levelo://app?vid=ccc4382e-6018-43b3-9823-157589fdfcaa"},"vehicle_type_id":"4","last_reported":1728130524,"current_range_meters":35200,"station_id":"ce4bhg12rcd13ifvqf70","pricing_plan_id":"cebpf4jnsgd1na2vs0mg"},{"bike_id":"bb5f5452-4b9b-417d-b148-b396a874f3d9","system_id":"levelo_inurba_marseille","lat":43.33757,"lon":5.37415,"is_reserved":false,"is_disabled":false,"rental_uris":{"android":"levelo://app?vid=bb5f5452-4b9b-417d-b148-b396a874f3d9","ios":"levelo://app?vid=bb5f5452-4b9b-417d-b148-b396a874f3d9"},"vehicle_type_id":"4","last_reported":1728130524,"current_range_meters":32000,"station_id":"","pricing_plan_id":"cebpf4jnsgd1na2vs0mg"},{"bike_id":"87e3710a-8e0f-4622-a8a9-2c0944ccec4d","system_id":"levelo_inurba_marseille","lat":43.3014,"lon":5.39857,"is_reserved":false,"is_disabled":false,"rental_uris":{"android":"levelo://app?vid=87e3710a-8e0f-4622-a8a9-2c0944ccec4d","ios":"levelo://app?vid=87e3710a-8e0f-4622-a8a9-2c0944ccec4d"},"vehicle_type_id":"4","last_reported":1728130524,"current_range_meters":31200,"station_id":"ce4bh0h2rcd13ifvqd40","pricing_plan_id":"cebpf4jnsgd1na2vs0mg"},{"bike_id":"aeed5b08-7402-42e0-8b40-cda1cd191675","system_id":"levelo_inurba_marseille","lat":43.24387,"lon":5.37056,"is_reserved":false,"is_disabled":false,"rental_uris":{"android":"levelo://app?vid=aeed5b08-7402-42e0-8b40-cda1cd191675","ios":"levelo://app?vid=aeed5b08-7402-42e0-8b40-cda1cd191675"},"vehicle_type_id":"4","last_reported":1728130524,"current_range_meters":28400,"station_id":"ce4bhhh2rcd13ifvqfk0","pricing_plan_id":"cebpf4jnsgd1na2vs0mg"},{"bike_id":"d7a0298f-5c2b-438d-ab05-5d6a7ac83160","system_id":"levelo_inurba_marseille","lat":43.30797,"lon":5.43522,"is_reserved":false,"is_disabled":false,"rental_uris":{"android":"levelo://app?vid=d7a0298f-5c2b-438d-ab05-5d6a7ac83160","ios":"levelo://app?vid=d7a0298f-5c2b-438d-ab05-5d6a7ac83160"},"vehicle_type_id":"4","last_reported":1728130524,"current_range_meters":36800,"station_id":"ce4bhph2rcd13ifvqheg","pricing_plan_id":"cebpf4jnsgd1na2vs0mg"},{"bike_id":"4200a602-b752-433d-b039-860f3efe0e28","system_id":"levelo_inurba_marseille","lat":43.3169,"lon":5.37729,"is_reserved":false,"is_disabled":false,"rental_uris":{"android":"levelo://app?vid=4200a602-b752-433d-b039-860f3efe0e28","ios":"levelo://app?vid=4200a602-b752-433d-b039-860f3efe0e28"},"vehicle_type_id":"4","last_reported":1728130524,"current_range_meters":38800,"station_id":"ce4bgth2rcd13ifvqch0","pricing_plan_id":"cebpf4jnsgd1na2vs0mg"},{"bike_id":"ef9ce7ab-c4f8-4362-92ce-da99b119aef3","system_id":"levelo_inurba_marseille","lat":43.26026,"lon":5.37545,"is_reserved":false,"is_disabled":false,"rental_uris":{"android":"levelo://app?vid=ef9ce7ab-c4f8-4362-92ce-da99b119aef3","ios":"levelo://app?vid=ef9ce7ab-c4f8-4362-92ce-da99b119aef3"},"vehicle_type_id":"4","last_reported":1728130524,"current_range_meters":34000,"station_id":"ce4bhgh2rcd13ifvqfa0","pricing_plan_id":"cebpf4jnsgd1na2vs0mg"},{"bike_id":"236539e2-a74d-4bbb-803e-52a75993cca6","system_id":"levelo_inurba_marseille","lat":43.28701,"lon":5.39984,"is_reserved":false,"is_disabled":false,"rental_uris":{"android":"levelo://app?vid=236539e2-a74d-4bbb-803e-52a75993cca6","ios":"levelo://app?vid=236539e2-a74d-4bbb-803e-52a75993cca6"},"vehicle_type_id":"4","last_reported":1728130524,"current_range_meters":8400,"station_id":"ce4bho92rcd13ifvqh3g","pricing_plan_id":"cebpf4jnsgd1na2vs0mg"},{"bike_id":"27442616-e1a0-4140-a813-7a49a0d6abd0","system_id":"levelo_inurba_marseille","lat":43.23181,"lon":5.39986,"is_reserved":false,"is_disabled":false,"rental_uris":{"android":"levelo://app?vid=27442616-e1a0-4140-a813-7a49a0d6abd0","ios":"levelo://app?vid=27442616-e1a0-4140-a813-7a49a0d6abd0"},"vehicle_type_id":"4","last_reported":1728130524,"current_range_meters":37600,"station_id":"ce4bhn12rcd13ifvqgqg","pricing_plan_id":"cebpf4jnsgd1na2vs0mg"},{"bike_id":"4285547c-3114-4b0d-9188-c3356374994b","system_id":"levelo_inurba_marseille","lat":43.32656,"lon":5.40984,"is_reserved":false,"is_disabled":false,"rental_uris":{"android":"levelo://app?vid=4285547c-3114-4b0d-9188-c3356374994b","ios":"levelo://app?vid=4285547c-3114-4b0d-9188-c3356374994b"},"vehicle_type_id":"4","last_reported":1728130524,"current_range_meters":38000,"station_id":"ce4bhpp2rcd13ifvqhgg","pricing_plan_id":"cebpf4jnsgd1na2vs0mg"},{"bike_id":"619d986e-f130-4b49-baeb-387268eb79c8","system_id":"levelo_inurba_marseille","lat":43.29639,"lon":5.37148,"is_reserved":false,"is_disabled":false,"rental_uris":{"android":"levelo://app?vid=619d986e-f130-4b49-baeb-387268eb79c8","ios":"levelo://app?vid=619d986e-f130-4b49-baeb-387268eb79c8"},"vehicle_type_id":"4","last_reported":1728130524,"current_range_meters":16400,"station_id":"ce4bgnh2rcd13ifvqc0g","pricing_plan_id":"cebpf4jnsgd1na2vs0mg"},{"bike_id":"8f585cce-fe06-4e98-8ff9-31e37744c40f","system_id":"levelo_inurba_marseille","lat":43.25005,"lon":5.38932,"is_reserved":false,"is_disabled":false,"rental_uris":{"android":"levelo://app?vid=8f585cce-fe06-4e98-8ff9-31e37744c40f","ios":"levelo://app?vid=8f585cce-fe06-4e98-8ff9-31e37744c40f"},"vehicle_type_id":"4","last_reported":1728130524,"current_range_meters":36800,"station_id":"ce4bhgp2rcd13ifvqfd0","pricing_plan_id":"cebpf4jnsgd1na2vs0mg"},{"bike_id":"0380a311-35b6-46bf-911e-8d40b900e1a5","system_id":"levelo_inurba_marseille","lat":43.292969,"lon":5.374684,"is_reserved":false,"is_disabled":false,"rental_uris":{"android":"levelo://app?vid=0380a311-35b6-46bf-911e-8d40b900e1a5","ios":"levelo://app?vid=0380a311-35b6-46bf-911e-8d40b900e1a5"},"vehicle_type_id":"4","last_reported":1728130524,"current_range_meters":22400,"station_id":"ce4bgi12rcd13ifvqb70","pricing_plan_id":"cebpf4jnsgd1na2vs0mg"},{"bike_id":"a45c5852-f993-434b-9e0e-aaf2278af56a","system_id":"levelo_inurba_marseille","lat":43.23195,"lon":5.35552,"is_reserved":false,"is_disabled":false,"rental_uris":{"android":"levelo://app?vid=a45c5852-f993-434b-9e0e-aaf2278af56a","ios":"levelo://app?vid=a45c5852-f993-434b-9e0e-aaf2278af56a"},"vehicle_type_id":"4","last_reported":1728130524,"current_range_meters":8000,"station_id":"ce4bhu92rcd13ifvqi70","pricing_plan_id":"cebpf4jnsgd1na2vs0mg"},{"bike_id":"57d7b7bf-9a1e-4c35-8388-96cc980f8410","system_id":"levelo_inurba_marseille","lat":43.22932,"lon":5.35372,"is_reserved":false,"is_disabled":false,"rental_uris":{"android":"levelo://app?vid=57d7b7bf-9a1e-4c35-8388-96cc980f8410","ios":"levelo://app?vid=57d7b7bf-9a1e-4c35-8388-96cc980f8410"},"vehicle_type_id":"4","last_reported":1728130524,"current_range_meters":14800,"station_id":"cpo3532slgdg3j2ikp40","pricing_plan_id":"cebpf4jnsgd1na2vs0mg"},{"bike_id":"10bac622-2383-4384-92d6-ce5e4e8fdb28","system_id":"levelo_inurba_marseille","lat":43.29772,"lon":5.37086,"is_reserved":false,"is_disabled":false,"rental_uris":{"android":"levelo://app?vid=10bac622-2383-4384-92d6-ce5e4e8fdb28","ios":"levelo://app?vid=10bac622-2383-4384-92d6-ce5e4e8fdb28"},"vehicle_type_id":"4","last_reported":1728130524,"current_range_meters":39200,"station_id":"ce4bgop2rcd13ifvqc1g","pricing_plan_id":"cebpf4jnsgd1na2vs0mg"},{"bike_id":"9c7aa9b1-0fbc-4346-a74a-c073e5bfbae8","system_id":"levelo_inurba_marseille","lat":43.30126,"lon":5.39865,"is_reserved":false,"is_disabled":false,"rental_uris":{"android":"levelo://app?vid=9c7aa9b1-0fbc-4346-a74a-c073e5bfbae8","ios":"levelo://app?vid=9c7aa9b1-0fbc-4346-a74a-c073e5bfbae8"},"vehicle_type_id":"4","last_reported":1728130524,"current_range_meters":38800,"station_id":"ce4bh0h2rcd13ifvqd40","pricing_plan_id":"cebpf4jnsgd1na2vs0mg"},{"bike_id":"05396170-a01b-4efc-9a1f-fc13de623850","system_id":"levelo_inurba_marseille","lat":43.29794,"lon":5.37099,"is_reserved":false,"is_disabled":false,"rental_uris":{"android":"levelo://app?vid=05396170-a01b-4efc-9a1f-fc13de623850","ios":"levelo://app?vid=05396170-a01b-4efc-9a1f-fc13de623850"},"vehicle_type_id":"4","last_reported":1728130524,"current_range_meters":39200,"station_id":"ce4bgop2rcd13ifvqc1g","pricing_plan_id":"cebpf4jnsgd1na2vs0mg"},{"bike_id":"73f02b12-a0ee-4ce5-aa0a-3e9a43069dab","system_id":"levelo_inurba_marseille","lat":43.30425,"lon":5.39746,"is_reserved":false,"is_disabled":false,"rental_uris":{"android":"levelo://app?vid=73f02b12-a0ee-4ce5-aa0a-3e9a43069dab","ios":"levelo://app?vid=73f02b12-a0ee-4ce5-aa0a-3e9a43069dab"},"vehicle_type_id":"4","last_reported":1728130524,"current_range_meters":8000,"station_id":"ce4bh092rcd13ifvqd20","pricing_plan_id":"cebpf4jnsgd1na2vs0mg"},{"bike_id":"d25e1e54-5a4a-4edd-9fb7-a14ca4c40f80","system_id":"levelo_inurba_marseille","lat":43.22928,"lon":5.35374,"is_reserved":false,"is_disabled":false,"rental_uris":{"android":"levelo://app?vid=d25e1e54-5a4a-4edd-9fb7-a14ca4c40f80","ios":"levelo://app?vid=d25e1e54-5a4a-4edd-9fb7-a14ca4c40f80"},"vehicle_type_id":"4","last_reported":1728130524,"current_range_meters":27600,"station_id":"cpo3532slgdg3j2ikp40","pricing_plan_id":"cebpf4jnsgd1na2vs0mg"},{"bike_id":"4c1fb310-79bc-41df-b7c1-8bd66a3537ac","system_id":"levelo_inurba_marseille","lat":43.27806,"lon":5.40709,"is_reserved":false,"is_disabled":false,"rental_uris":{"android":"levelo://app?vid=4c1fb310-79bc-41df-b7c1-8bd66a3537ac","ios":"levelo://app?vid=4c1fb310-79bc-41df-b7c1-8bd66a3537ac"},"vehicle_type_id":"4","last_reported":1728130524,"current_range_meters":19200,"station_id":"ce4bhnh2rcd13ifvqgtg","pricing_plan_id":"cebpf4jnsgd1na2vs0mg"},{"bike_id":"b1f787de-6681-4f29-bf65-500cf005a08c","system_id":"levelo_inurba_marseille","lat":43.29573,"lon":5.37496,"is_reserved":false,"is_disabled":false,"rental_uris":{"android":"levelo://app?vid=b1f787de-6681-4f29-bf65-500cf005a08c","ios":"levelo://app?vid=b1f787de-6681-4f29-bf65-500cf005a08c"},"vehicle_type_id":"4","last_reported":1728130524,"current_range_meters":12800,"station_id":"ce4bgh92rcd13ifvqb50","pricing_plan_id":"cebpf4jnsgd1na2vs0mg"},{"bike_id":"90e2e504-c450-4c38-b714-4638c010d9cb","system_id":"levelo_inurba_marseille","lat":43.23155,"lon":5.43684,"is_reserved":false,"is_disabled":false,"rental_uris":{"android":"levelo://app?vid=90e2e504-c450-4c38-b714-4638c010d9cb","ios":"levelo://app?vid=90e2e504-c450-4c38-b714-4638c010d9cb"},"vehicle_type_id":"4","last_reported":1728130524,"current_range_meters":36000,"station_id":"ce4bhmp2rcd13ifvqgog","pricing_plan_id":"cebpf4jnsgd1na2vs0mg"},{"bike_id":"49dad215-a896-4397-89ec-a48322c28a04","system_id":"levelo_inurba_marseille","lat":43.307953,"lon":5.381467,"is_reserved":false,"is_disabled":false,"rental_uris":{"android":"levelo://app?vid=49dad215-a896-4397-89ec-a48322c28a04","ios":"levelo://app?vid=49dad215-a896-4397-89ec-a48322c28a04"},"vehicle_type_id":"4","last_reported":1728130524,"current_range_meters":38800,"station_id":"ce4bgt12rcd13ifvqce0","pricing_plan_id":"cebpf4jnsgd1na2vs0mg"},{"bike_id":"32ceac28-dacd-4d4c-9c55-d75f7e6d1aa1","system_id":"levelo_inurba_marseille","lat":43.308,"lon":5.4353,"is_reserved":false,"is_disabled":false,"rental_uris":{"android":"levelo://app?vid=32ceac28-dacd-4d4c-9c55-d75f7e6d1aa1","ios":"levelo://app?vid=32ceac28-dacd-4d4c-9c55-d75f7e6d1aa1"},"vehicle_type_id":"4","last_reported":1728130524,"current_range_meters":9600,"station_id":"ce4bhph2rcd13ifvqheg","pricing_plan_id":"cebpf4jnsgd1na2vs0mg"},{"bike_id":"a52a0e2d-33ce-4619-aaaf-7dbdc4a6bcb9","system_id":"levelo_inurba_marseille","lat":43.28268,"lon":5.35065,"is_reserved":false,"is_disabled":false,"rental_uris":{"android":"levelo://app?vid=a52a0e2d-33ce-4619-aaaf-7dbdc4a6bcb9","ios":"levelo://app?vid=a52a0e2d-33ce-4619-aaaf-7dbdc4a6bcb9"},"vehicle_type_id":"4","last_reported":1728130524,"current_range_meters":17600,"station_id":"ce4bhbp2rcd13ifvqerg","pricing_plan_id":"cebpf4jnsgd1na2vs0mg"},{"bike_id":"ab818bb7-e39d-4902-8113-7452c7dbfb1a","system_id":"levelo_inurba_marseille","lat":43.23149,"lon":5.43709,"is_reserved":false,"is_disabled":false,"rental_uris":{"android":"levelo://app?vid=ab818bb7-e39d-4902-8113-7452c7dbfb1a","ios":"levelo://app?vid=ab818bb7-e39d-4902-8113-7452c7dbfb1a"},"vehicle_type_id":"4","last_reported":1728130524,"current_range_meters":20800,"station_id":"ce4bhmp2rcd13ifvqgog","pricing_plan_id":"cebpf4jnsgd1na2vs0mg"},{"bike_id":"fad6b7e8-0f73-4830-8b2d-308091e87617","system_id":"levelo_inurba_marseille","lat":43.28415,"lon":5.34974,"is_reserved":false,"is_disabled":false,"rental_uris":{"android":"levelo://app?vid=fad6b7e8-0f73-4830-8b2d-308091e87617","ios":"levelo://app?vid=fad6b7e8-0f73-4830-8b2d-308091e87617"},"vehicle_type_id":"4","last_reported":1728130524,"current_range_meters":4800,"station_id":"ce4bhbh2rcd13ifvqepg","pricing_plan_id":"cebpf4jnsgd1na2vs0mg"},{"bike_id":"b417a8d0-1fac-4a2b-9294-35cea48e57c1","system_id":"levelo_inurba_marseille","lat":43.33024,"lon":5.39044,"is_reserved":false,"is_disabled":false,"rental_uris":{"android":"levelo://app?vid=b417a8d0-1fac-4a2b-9294-35cea48e57c1","ios":"levelo://app?vid=b417a8d0-1fac-4a2b-9294-35cea48e57c1"},"vehicle_type_id":"4","last_reported":1728130524,"current_range_meters":27600,"station_id":"ce4bhr92rcd13ifvqhrg","pricing_plan_id":"cebpf4jnsgd1na2vs0mg"},{"bike_id":"d54b1158-ec6f-4dc3-a7e1-2d0b5958261d","system_id":"levelo_inurba_marseille","lat":43.29555,"lon":5.42282,"is_reserved":false,"is_disabled":false,"rental_uris":{"android":"levelo://app?vid=d54b1158-ec6f-4dc3-a7e1-2d0b5958261d","ios":"levelo://app?vid=d54b1158-ec6f-4dc3-a7e1-2d0b5958261d"},"vehicle_type_id":"4","last_reported":1728130524,"current_range_meters":38800,"station_id":"ce4bhph2rcd13ifvqhdg","pricing_plan_id":"cebpf4jnsgd1na2vs0mg"},{"bike_id":"d5c43e4f-ec76-4579-b5d4-6acbbae67566","system_id":"levelo_inurba_marseille","lat":43.22928,"lon":5.35376,"is_reserved":false,"is_disabled":false,"rental_uris":{"android":"levelo://app?vid=d5c43e4f-ec76-4579-b5d4-6acbbae67566","ios":"levelo://app?vid=d5c43e4f-ec76-4579-b5d4-6acbbae67566"},"vehicle_type_id":"4","last_reported":1728130524,"current_range_meters":20400,"station_id":"cpo3532slgdg3j2ikp40","pricing_plan_id":"cebpf4jnsgd1na2vs0mg"},{"bike_id":"75ce31e2-5f0d-4f06-9d38-6324d9daeecc","system_id":"levelo_inurba_marseille","lat":43.34142,"lon":5.40903,"is_reserved":false,"is_disabled":false,"rental_uris":{"android":"levelo://app?vid=75ce31e2-5f0d-4f06-9d38-6324d9daeecc","ios":"levelo://app?vid=75ce31e2-5f0d-4f06-9d38-6324d9daeecc"},"vehicle_type_id":"4","last_reported":1728130524,"current_range_meters":38400,"station_id":"ce4bhqh2rcd13ifvqhlg","pricing_plan_id":"cebpf4jnsgd1na2vs0mg"},{"bike_id":"d502ada0-2a69-4ad6-bfda-3549f999970c","system_id":"levelo_inurba_marseille","lat":43.28352,"lon":5.38099,"is_reserved":false,"is_disabled":false,"rental_uris":{"android":"levelo://app?vid=d502ada0-2a69-4ad6-bfda-3549f999970c","ios":"levelo://app?vid=d502ada0-2a69-4ad6-bfda-3549f999970c"},"vehicle_type_id":"4","last_reported":1728130524,"current_range_meters":38400,"station_id":"ce4bh412rcd13ifvqdr0","pricing_plan_id":"cebpf4jnsgd1na2vs0mg"},{"bike_id":"a8597e2b-11a4-41b1-af04-3d091354a1e4","system_id":"levelo_inurba_marseille","lat":43.32037,"lon":5.41576,"is_reserved":false,"is_disabled":false,"rental_uris":{"android":"levelo://app?vid=a8597e2b-11a4-41b1-af04-3d091354a1e4","ios":"levelo://app?vid=a8597e2b-11a4-41b1-af04-3d091354a1e4"},"vehicle_type_id":"4","last_reported":1728130524,"current_range_meters":28000,"station_id":"ce4bhq92rcd13ifvqhkg","pricing_plan_id":"cebpf4jnsgd1na2vs0mg"},{"bike_id":"410a702f-9dff-4188-bef6-ad436f99f29a","system_id":"levelo_inurba_marseille","lat":43.32359,"lon":5.38876,"is_reserved":false,"is_disabled":false,"rental_uris":{"android":"levelo://app?vid=410a702f-9dff-4188-bef6-ad436f99f29a","ios":"levelo://app?vid=410a702f-9dff-4188-bef6-ad436f99f29a"},"vehicle_type_id":"4","last_reported":1728130524,"current_range_meters":24800,"station_id":"ce4bhqp2rcd13ifvqhog","pricing_plan_id":"cebpf4jnsgd1na2vs0mg"},{"bike_id":"996f311a-1052-4e93-bc99-a5db07024190","system_id":"levelo_inurba_marseille","lat":43.24167,"lon":5.364,"is_reserved":false,"is_disabled":false,"rental_uris":{"android":"levelo://app?vid=996f311a-1052-4e93-bc99-a5db07024190","ios":"levelo://app?vid=996f311a-1052-4e93-bc99-a5db07024190"},"vehicle_type_id":"4","last_reported":1728130524,"current_range_meters":20000,"station_id":"cpo36qri1sfpv3e86is0","pricing_plan_id":"cebpf4jnsgd1na2vs0mg"},{"bike_id":"3891d97a-cfe9-4125-a5ef-981326242baa","system_id":"levelo_inurba_marseille","lat":43.243911,"lon":5.370605,"is_reserved":false,"is_disabled":false,"rental_uris":{"android":"levelo://app?vid=3891d97a-cfe9-4125-a5ef-981326242baa","ios":"levelo://app?vid=3891d97a-cfe9-4125-a5ef-981326242baa"},"vehicle_type_id":"4","last_reported":1728130524,"current_range_meters":33200,"station_id":"ce4bhhh2rcd13ifvqfk0","pricing_plan_id":"cebpf4jnsgd1na2vs0mg"},{"bike_id":"12c79184-4e27-4836-bc7b-957bbc4d7857","system_id":"levelo_inurba_marseille","lat":43.2732,"lon":5.39086,"is_reserved":false,"is_disabled":false,"rental_uris":{"android":"levelo://app?vid=12c79184-4e27-4836-bc7b-957bbc4d7857","ios":"levelo://app?vid=12c79184-4e27-4836-bc7b-957bbc4d7857"},"vehicle_type_id":"4","last_reported":1728130524,"current_range_meters":32000,"station_id":"ce4bhgp2rcd13ifvqfe0","pricing_plan_id":"cebpf4jnsgd1na2vs0mg"},{"bike_id":"d9513a24-3235-43a7-b9a5-1c5cfe37603f","system_id":"levelo_inurba_marseille","lat":43.23052,"lon":5.35486,"is_reserved":false,"is_disabled":false,"rental_uris":{"android":"levelo://app?vid=d9513a24-3235-43a7-b9a5-1c5cfe37603f","ios":"levelo://app?vid=d9513a24-3235-43a7-b9a5-1c5cfe37603f"},"vehicle_type_id":"4","last_reported":1728130524,"current_range_meters":19600,"station_id":"cpo3342slgdg3j2ifvpg","pricing_plan_id":"cebpf4jnsgd1na2vs0mg"},{"bike_id":"80883cfe-f6ff-4203-89b1-e5cb91df708a","system_id":"levelo_inurba_marseille","lat":43.32042,"lon":5.41553,"is_reserved":false,"is_disabled":false,"rental_uris":{"android":"levelo://app?vid=80883cfe-f6ff-4203-89b1-e5cb91df708a","ios":"levelo://app?vid=80883cfe-f6ff-4203-89b1-e5cb91df708a"},"vehicle_type_id":"4","last_reported":1728130524,"current_range_meters":6800,"station_id":"ce4bhq92rcd13ifvqhkg","pricing_plan_id":"cebpf4jnsgd1na2vs0mg"},{"bike_id":"009d6d0e-c1a8-4ddc-b330-ebf04e9c45b9","system_id":"levelo_inurba_marseille","lat":43.29898,"lon":5.43669,"is_reserved":false,"is_disabled":false,"rental_uris":{"android":"levelo://app?vid=009d6d0e-c1a8-4ddc-b330-ebf04e9c45b9","ios":"levelo://app?vid=009d6d0e-c1a8-4ddc-b330-ebf04e9c45b9"},"vehicle_type_id":"4","last_reported":1728130524,"current_range_meters":20800,"station_id":"ce4bhpp2rcd13ifvqhfg","pricing_plan_id":"cebpf4jnsgd1na2vs0mg"},{"bike_id":"e801b355-6ede-41f3-aa7c-a02edf287c12","system_id":"levelo_inurba_marseille","lat":43.23191,"lon":5.35544,"is_reserved":false,"is_disabled":false,"rental_uris":{"android":"levelo://app?vid=e801b355-6ede-41f3-aa7c-a02edf287c12","ios":"levelo://app?vid=e801b355-6ede-41f3-aa7c-a02edf287c12"},"vehicle_type_id":"4","last_reported":1728130524,"current_range_meters":18000,"station_id":"ce4bhu92rcd13ifvqi70","pricing_plan_id":"cebpf4jnsgd1na2vs0mg"},{"bike_id":"4e0c83a2-b0c3-4894-8559-e509681998d3","system_id":"levelo_inurba_marseille","lat":43.311231,"lon":5.383275,"is_reserved":false,"is_disabled":false,"rental_uris":{"android":"levelo://app?vid=4e0c83a2-b0c3-4894-8559-e509681998d3","ios":"levelo://app?vid=4e0c83a2-b0c3-4894-8559-e509681998d3"},"vehicle_type_id":"4","last_reported":1728130524,"current_range_meters":16800,"station_id":"","pricing_plan_id":"cebpf4jnsgd1na2vs0mg"},{"bike_id":"3c797729-0364-42b3-8e58-4709c41c4a3c","system_id":"levelo_inurba_marseille","lat":43.30805,"lon":5.43517,"is_reserved":false,"is_disabled":false,"rental_uris":{"android":"levelo://app?vid=3c797729-0364-42b3-8e58-4709c41c4a3c","ios":"levelo://app?vid=3c797729-0364-42b3-8e58-4709c41c4a3c"},"vehicle_type_id":"4","last_reported":1728130524,"current_range_meters":25600,"station_id":"ce4bhph2rcd13ifvqheg","pricing_plan_id":"cebpf4jnsgd1na2vs0mg"},{"bike_id":"c76830d2-2ed6-425d-83ad-7117befa5dc1","system_id":"levelo_inurba_marseille","lat":43.31119,"lon":5.37763,"is_reserved":false,"is_disabled":false,"rental_uris":{"android":"levelo://app?vid=c76830d2-2ed6-425d-83ad-7117befa5dc1","ios":"levelo://app?vid=c76830d2-2ed6-425d-83ad-7117befa5dc1"},"vehicle_type_id":"4","last_reported":1728130524,"current_range_meters":36800,"station_id":"ce4bgt92rcd13ifvqcg0","pricing_plan_id":"cebpf4jnsgd1na2vs0mg"},{"bike_id":"3554eda5-0378-453d-8dc2-aabab872591a","system_id":"levelo_inurba_marseille","lat":43.26201,"lon":5.3793,"is_reserved":false,"is_disabled":false,"rental_uris":{"android":"levelo://app?vid=3554eda5-0378-453d-8dc2-aabab872591a","ios":"levelo://app?vid=3554eda5-0378-453d-8dc2-aabab872591a"},"vehicle_type_id":"4","last_reported":1728130524,"current_range_meters":37600,"station_id":"ce4bhjp2rcd13ifvqg90","pricing_plan_id":"cebpf4jnsgd1na2vs0mg"},{"bike_id":"c976b39d-486d-431f-ac09-4b355a124d5e","system_id":"levelo_inurba_marseille","lat":43.3019,"lon":5.3661,"is_reserved":false,"is_disabled":false,"rental_uris":{"android":"levelo://app?vid=c976b39d-486d-431f-ac09-4b355a124d5e","ios":"levelo://app?vid=c976b39d-486d-431f-ac09-4b355a124d5e"},"vehicle_type_id":"4","last_reported":1728130524,"current_range_meters":38800,"station_id":"ce4bgpp2rcd13ifvqc3g","pricing_plan_id":"cebpf4jnsgd1na2vs0mg"},{"bike_id":"2b656128-745d-4ab3-a53b-f9b69c649d8b","system_id":"levelo_inurba_marseille","lat":43.24551,"lon":5.39524,"is_reserved":false,"is_disabled":false,"rental_uris":{"android":"levelo://app?vid=2b656128-745d-4ab3-a53b-f9b69c649d8b","ios":"levelo://app?vid=2b656128-745d-4ab3-a53b-f9b69c649d8b"},"vehicle_type_id":"4","last_reported":1728130524,"current_range_meters":38800,"station_id":"ce4bhlp2rcd13ifvqgjg","pricing_plan_id":"cebpf4jnsgd1na2vs0mg"},{"bike_id":"0d09c9c6-8c3c-42d4-bd60-e8a6dfb4a51e","system_id":"levelo_inurba_marseille","lat":43.30306,"lon":5.36908,"is_reserved":false,"is_disabled":false,"rental_uris":{"android":"levelo://app?vid=0d09c9c6-8c3c-42d4-bd60-e8a6dfb4a51e","ios":"levelo://app?vid=0d09c9c6-8c3c-42d4-bd60-e8a6dfb4a51e"},"vehicle_type_id":"4","last_reported":1728130524,"current_range_meters":8000,"station_id":"ce4bgqh2rcd13ifvqc5g","pricing_plan_id":"cebpf4jnsgd1na2vs0mg"},{"bike_id":"0ffdfe75-0c17-4b2b-bd65-e2f1fa80832e","system_id":"levelo_inurba_marseille","lat":43.31526,"lon":5.38038,"is_reserved":false,"is_disabled":false,"rental_uris":{"android":"levelo://app?vid=0ffdfe75-0c17-4b2b-bd65-e2f1fa80832e","ios":"levelo://app?vid=0ffdfe75-0c17-4b2b-bd65-e2f1fa80832e"},"vehicle_type_id":"4","last_reported":1728130524,"current_range_meters":38800,"station_id":"ce4bhsp2rcd13ifvqi50","pricing_plan_id":"cebpf4jnsgd1na2vs0mg"},{"bike_id":"0eec913a-7906-400c-9c3b-8476e109f6c1","system_id":"levelo_inurba_marseille","lat":43.29845,"lon":5.36266,"is_reserved":false,"is_disabled":false,"rental_uris":{"android":"levelo://app?vid=0eec913a-7906-400c-9c3b-8476e109f6c1","ios":"levelo://app?vid=0eec913a-7906-400c-9c3b-8476e109f6c1"},"vehicle_type_id":"4","last_reported":1728130524,"current_range_meters":24000,"station_id":"ce4bgpp2rcd13ifvqc3g","pricing_plan_id":"cebpf4jnsgd1na2vs0mg"},{"bike_id":"8df5e434-358e-47ce-82bd-9291d9bbb368","system_id":"levelo_inurba_marseille","lat":43.32069,"lon":5.41538,"is_reserved":false,"is_disabled":false,"rental_uris":{"android":"levelo://app?vid=8df5e434-358e-47ce-82bd-9291d9bbb368","ios":"levelo://app?vid=8df5e434-358e-47ce-82bd-9291d9bbb368"},"vehicle_type_id":"4","last_reported":1728130524,"current_range_meters":38000,"station_id":"ce4bhq92rcd13ifvqhkg","pricing_plan_id":"cebpf4jnsgd1na2vs0mg"},{"bike_id":"3d72c258-bc4a-4844-b334-900f22273f09","system_id":"levelo_inurba_marseille","lat":43.24392,"lon":5.37061,"is_reserved":false,"is_disabled":false,"rental_uris":{"android":"levelo://app?vid=3d72c258-bc4a-4844-b334-900f22273f09","ios":"levelo://app?vid=3d72c258-bc4a-4844-b334-900f22273f09"},"vehicle_type_id":"4","last_reported":1728130524,"current_range_meters":37600,"station_id":"ce4bhhh2rcd13ifvqfk0","pricing_plan_id":"cebpf4jnsgd1na2vs0mg"},{"bike_id":"6c629267-8b49-451e-bbf7-e066aba5cc25","system_id":"levelo_inurba_marseille","lat":43.3377,"lon":5.37437,"is_reserved":false,"is_disabled":false,"rental_uris":{"android":"levelo://app?vid=6c629267-8b49-451e-bbf7-e066aba5cc25","ios":"levelo://app?vid=6c629267-8b49-451e-bbf7-e066aba5cc25"},"vehicle_type_id":"4","last_reported":1728130524,"current_range_meters":38400,"station_id":"","pricing_plan_id":"cebpf4jnsgd1na2vs0mg"},{"bike_id":"a70bfd41-161a-4a66-ba00-5651d8f779fe","system_id":"levelo_inurba_marseille","lat":43.29216,"lon":5.36051,"is_reserved":false,"is_disabled":false,"rental_uris":{"android":"levelo://app?vid=a70bfd41-161a-4a66-ba00-5651d8f779fe","ios":"levelo://app?vid=a70bfd41-161a-4a66-ba00-5651d8f779fe"},"vehicle_type_id":"4","last_reported":1728130524,"current_range_meters":20000,"station_id":"ce4bhbh2rcd13ifvqeqg","pricing_plan_id":"cebpf4jnsgd1na2vs0mg"},{"bike_id":"3004d3fc-20eb-4974-bd3d-ad14278b06b7","system_id":"levelo_inurba_marseille","lat":43.29591,"lon":5.38101,"is_reserved":false,"is_disabled":false,"rental_uris":{"android":"levelo://app?vid=3004d3fc-20eb-4974-bd3d-ad14278b06b7","ios":"levelo://app?vid=3004d3fc-20eb-4974-bd3d-ad14278b06b7"},"vehicle_type_id":"4","last_reported":1728130524,"current_range_meters":38000,"station_id":"ce4bgl12rcd13ifvqbo0","pricing_plan_id":"cebpf4jnsgd1na2vs0mg"},{"bike_id":"bdefae95-7cc5-4880-bfcb-b1af39586be0","system_id":"levelo_inurba_marseille","lat":43.32658,"lon":5.40983,"is_reserved":false,"is_disabled":false,"rental_uris":{"android":"levelo://app?vid=bdefae95-7cc5-4880-bfcb-b1af39586be0","ios":"levelo://app?vid=bdefae95-7cc5-4880-bfcb-b1af39586be0"},"vehicle_type_id":"4","last_reported":1728130524,"current_range_meters":38800,"station_id":"ce4bhpp2rcd13ifvqhgg","pricing_plan_id":"cebpf4jnsgd1na2vs0mg"},{"bike_id":"7a90b2f2-d00e-4c33-b981-befe4f1139d2","system_id":"levelo_inurba_marseille","lat":43.23182,"lon":5.39991,"is_reserved":false,"is_disabled":false,"rental_uris":{"android":"levelo://app?vid=7a90b2f2-d00e-4c33-b981-befe4f1139d2","ios":"levelo://app?vid=7a90b2f2-d00e-4c33-b981-befe4f1139d2"},"vehicle_type_id":"4","last_reported":1728130524,"current_range_meters":33200,"station_id":"ce4bhn12rcd13ifvqgqg","pricing_plan_id":"cebpf4jnsgd1na2vs0mg"},{"bike_id":"aacb40ff-5cdd-4ec0-81bb-2cf05e68c56b","system_id":"levelo_inurba_marseille","lat":43.31685,"lon":5.40471,"is_reserved":false,"is_disabled":false,"rental_uris":{"android":"levelo://app?vid=aacb40ff-5cdd-4ec0-81bb-2cf05e68c56b","ios":"levelo://app?vid=aacb40ff-5cdd-4ec0-81bb-2cf05e68c56b"},"vehicle_type_id":"4","last_reported":1728130524,"current_range_meters":29600,"station_id":"ce4bh012rcd13ifvqd00","pricing_plan_id":"cebpf4jnsgd1na2vs0mg"},{"bike_id":"1e9e701f-fb8e-430e-be7f-54907f1b9076","system_id":"levelo_inurba_marseille","lat":43.33026,"lon":5.390378,"is_reserved":false,"is_disabled":false,"rental_uris":{"android":"levelo://app?vid=1e9e701f-fb8e-430e-be7f-54907f1b9076","ios":"levelo://app?vid=1e9e701f-fb8e-430e-be7f-54907f1b9076"},"vehicle_type_id":"4","last_reported":1728130524,"current_range_meters":18800,"station_id":"ce4bhr92rcd13ifvqhrg","pricing_plan_id":"cebpf4jnsgd1na2vs0mg"},{"bike_id":"7ecdac04-f526-40a8-9126-bd0e86885657","system_id":"levelo_inurba_marseille","lat":43.2315,"lon":5.43718,"is_reserved":false,"is_disabled":false,"rental_uris":{"android":"levelo://app?vid=7ecdac04-f526-40a8-9126-bd0e86885657","ios":"levelo://app?vid=7ecdac04-f526-40a8-9126-bd0e86885657"},"vehicle_type_id":"4","last_reported":1728130524,"current_range_meters":31200,"station_id":"ce4bhmp2rcd13ifvqgog","pricing_plan_id":"cebpf4jnsgd1na2vs0mg"},{"bike_id":"e0a07a08-8ace-4a01-b000-9c812c1d132e","system_id":"levelo_inurba_marseille","lat":43.31533,"lon":5.38034,"is_reserved":false,"is_disabled":false,"rental_uris":{"android":"levelo://app?vid=e0a07a08-8ace-4a01-b000-9c812c1d132e","ios":"levelo://app?vid=e0a07a08-8ace-4a01-b000-9c812c1d132e"},"vehicle_type_id":"4","last_reported":1728130524,"current_range_meters":3600,"station_id":"ce4bhsp2rcd13ifvqi50","pricing_plan_id":"cebpf4jnsgd1na2vs0mg"},{"bike_id":"9134dd1e-9df6-480e-8ddd-92622a28d2a7","system_id":"levelo_inurba_marseille","lat":43.27614,"lon":5.36102,"is_reserved":false,"is_disabled":false,"rental_uris":{"android":"levelo://app?vid=9134dd1e-9df6-480e-8ddd-92622a28d2a7","ios":"levelo://app?vid=9134dd1e-9df6-480e-8ddd-92622a28d2a7"},"vehicle_type_id":"4","last_reported":1728130524,"current_range_meters":19200,"station_id":"ce4bgj92rcd13ifvqbe0","pricing_plan_id":"cebpf4jnsgd1na2vs0mg"},{"bike_id":"a0a48911-ae34-4a3f-883c-27ac2f740d77","system_id":"levelo_inurba_marseille","lat":43.29553,"lon":5.42286,"is_reserved":false,"is_disabled":false,"rental_uris":{"android":"levelo://app?vid=a0a48911-ae34-4a3f-883c-27ac2f740d77","ios":"levelo://app?vid=a0a48911-ae34-4a3f-883c-27ac2f740d77"},"vehicle_type_id":"4","last_reported":1728130524,"current_range_meters":9600,"station_id":"ce4bhph2rcd13ifvqhdg","pricing_plan_id":"cebpf4jnsgd1na2vs0mg"},{"bike_id":"979d0554-a2ea-4223-a1ed-21e318623c4a","system_id":"levelo_inurba_marseille","lat":43.31708,"lon":5.43708,"is_reserved":false,"is_disabled":false,"rental_uris":{"android":"levelo://app?vid=979d0554-a2ea-4223-a1ed-21e318623c4a","ios":"levelo://app?vid=979d0554-a2ea-4223-a1ed-21e318623c4a"},"vehicle_type_id":"4","last_reported":1728130524,"current_range_meters":35200,"station_id":"ce4bhp92rcd13ifvqhcg","pricing_plan_id":"cebpf4jnsgd1na2vs0mg"},{"bike_id":"40993b2c-ce21-41e6-a3f5-d8dfdb676d94","system_id":"levelo_inurba_marseille","lat":43.29154,"lon":5.38008,"is_reserved":false,"is_disabled":false,"rental_uris":{"android":"levelo://app?vid=40993b2c-ce21-41e6-a3f5-d8dfdb676d94","ios":"levelo://app?vid=40993b2c-ce21-41e6-a3f5-d8dfdb676d94"},"vehicle_type_id":"4","last_reported":1728130524,"current_range_meters":4000,"station_id":"ce4bh512rcd13ifvqe2g","pricing_plan_id":"cebpf4jnsgd1na2vs0mg"},{"bike_id":"3fb161cb-bb75-4d65-a585-6102d7e8530b","system_id":"levelo_inurba_marseille","lat":43.31999,"lon":5.38145,"is_reserved":false,"is_disabled":false,"rental_uris":{"android":"levelo://app?vid=3fb161cb-bb75-4d65-a585-6102d7e8530b","ios":"levelo://app?vid=3fb161cb-bb75-4d65-a585-6102d7e8530b"},"vehicle_type_id":"4","last_reported":1728130524,"current_range_meters":30000,"station_id":"ce4bhr12rcd13ifvqhpg","pricing_plan_id":"cebpf4jnsgd1na2vs0mg"},{"bike_id":"d9e40dcd-42bd-4450-b899-bd6e1533b60d","system_id":"levelo_inurba_marseille","lat":43.322633,"lon":5.3871,"is_reserved":false,"is_disabled":false,"rental_uris":{"android":"levelo://app?vid=d9e40dcd-42bd-4450-b899-bd6e1533b60d","ios":"levelo://app?vid=d9e40dcd-42bd-4450-b899-bd6e1533b60d"},"vehicle_type_id":"4","last_reported":1728130524,"current_range_meters":6400,"station_id":"ce4bhqp2rcd13ifvqhog","pricing_plan_id":"cebpf4jnsgd1na2vs0mg"},{"bike_id":"116080c6-c3c9-4c44-b5d9-cf41bf46f2e1","system_id":"levelo_inurba_marseille","lat":43.27944,"lon":5.41047,"is_reserved":false,"is_disabled":false,"rental_uris":{"android":"levelo://app?vid=116080c6-c3c9-4c44-b5d9-cf41bf46f2e1","ios":"levelo://app?vid=116080c6-c3c9-4c44-b5d9-cf41bf46f2e1"},"vehicle_type_id":"4","last_reported":1728130524,"current_range_meters":38800,"station_id":"ce4bhnp2rcd13ifvqh0g","pricing_plan_id":"cebpf4jnsgd1na2vs0mg"},{"bike_id":"79734dc3-1457-4bea-9469-80df449eef52","system_id":"levelo_inurba_marseille","lat":43.24383,"lon":5.37061,"is_reserved":false,"is_disabled":false,"rental_uris":{"android":"levelo://app?vid=79734dc3-1457-4bea-9469-80df449eef52","ios":"levelo://app?vid=79734dc3-1457-4bea-9469-80df449eef52"},"vehicle_type_id":"4","last_reported":1728130524,"current_range_meters":20400,"station_id":"ce4bhhh2rcd13ifvqfk0","pricing_plan_id":"cebpf4jnsgd1na2vs0mg"},{"bike_id":"0a2b700b-8c3f-4fd6-8173-bda395737cda","system_id":"levelo_inurba_marseille","lat":43.28657,"lon":5.3635,"is_reserved":false,"is_disabled":false,"rental_uris":{"android":"levelo://app?vid=0a2b700b-8c3f-4fd6-8173-bda395737cda","ios":"levelo://app?vid=0a2b700b-8c3f-4fd6-8173-bda395737cda"},"vehicle_type_id":"4","last_reported":1728130524,"current_range_meters":25600,"station_id":"ce4bhah2rcd13ifvqej0","pricing_plan_id":"cebpf4jnsgd1na2vs0mg"},{"bike_id":"22f3e562-524d-4355-8806-13e5eccf368f","system_id":"levelo_inurba_marseille","lat":43.23058,"lon":5.35489,"is_reserved":false,"is_disabled":false,"rental_uris":{"android":"levelo://app?vid=22f3e562-524d-4355-8806-13e5eccf368f","ios":"levelo://app?vid=22f3e562-524d-4355-8806-13e5eccf368f"},"vehicle_type_id":"4","last_reported":1728130524,"current_range_meters":30000,"station_id":"cpo3342slgdg3j2ifvpg","pricing_plan_id":"cebpf4jnsgd1na2vs0mg"},{"bike_id":"b6a817d8-5787-46a3-898e-0b46c75fc481","system_id":"levelo_inurba_marseille","lat":43.32965,"lon":5.40344,"is_reserved":false,"is_disabled":false,"rental_uris":{"android":"levelo://app?vid=b6a817d8-5787-46a3-898e-0b46c75fc481","ios":"levelo://app?vid=b6a817d8-5787-46a3-898e-0b46c75fc481"},"vehicle_type_id":"4","last_reported":1728130524,"current_range_meters":6400,"station_id":"","pricing_plan_id":"cebpf4jnsgd1na2vs0mg"},{"bike_id":"524e4691-54b9-421d-808d-78c4d20f022f","system_id":"levelo_inurba_marseille","lat":43.23196,"lon":5.35552,"is_reserved":false,"is_disabled":false,"rental_uris":{"android":"levelo://app?vid=524e4691-54b9-421d-808d-78c4d20f022f","ios":"levelo://app?vid=524e4691-54b9-421d-808d-78c4d20f022f"},"vehicle_type_id":"4","last_reported":1728130524,"current_range_meters":32800,"station_id":"ce4bhu92rcd13ifvqi70","pricing_plan_id":"cebpf4jnsgd1na2vs0mg"},{"bike_id":"fcee5d9d-c512-4424-a5e2-0c0b879f5951","system_id":"levelo_inurba_marseille","lat":43.24168,"lon":5.36391,"is_reserved":false,"is_disabled":false,"rental_uris":{"android":"levelo://app?vid=fcee5d9d-c512-4424-a5e2-0c0b879f5951","ios":"levelo://app?vid=fcee5d9d-c512-4424-a5e2-0c0b879f5951"},"vehicle_type_id":"4","last_reported":1728130524,"current_range_meters":12800,"station_id":"cpo36qri1sfpv3e86is0","pricing_plan_id":"cebpf4jnsgd1na2vs0mg"},{"bike_id":"6856d22e-440d-40d9-809f-3167dacdbdc3","system_id":"levelo_inurba_marseille","lat":43.337444,"lon":5.374475,"is_reserved":false,"is_disabled":false,"rental_uris":{"android":"levelo://app?vid=6856d22e-440d-40d9-809f-3167dacdbdc3","ios":"levelo://app?vid=6856d22e-440d-40d9-809f-3167dacdbdc3"},"vehicle_type_id":"4","last_reported":1728130524,"current_range_meters":19600,"station_id":"","pricing_plan_id":"cebpf4jnsgd1na2vs0mg"},{"bike_id":"f9a7f7c3-e454-44cc-a090-30d598e5ae5a","system_id":"levelo_inurba_marseille","lat":43.26558,"lon":5.38084,"is_reserved":false,"is_disabled":false,"rental_uris":{"android":"levelo://app?vid=f9a7f7c3-e454-44cc-a090-30d598e5ae5a","ios":"levelo://app?vid=f9a7f7c3-e454-44cc-a090-30d598e5ae5a"},"vehicle_type_id":"4","last_reported":1728130524,"current_range_meters":27600,"station_id":"","pricing_plan_id":"cebpf4jnsgd1na2vs0mg"},{"bike_id":"64bd957e-b978-44cb-a85c-928d627d24ec","system_id":"levelo_inurba_marseille","lat":43.35424,"lon":5.35869,"is_reserved":false,"is_disabled":false,"rental_uris":{"android":"levelo://app?vid=64bd957e-b978-44cb-a85c-928d627d24ec","ios":"levelo://app?vid=64bd957e-b978-44cb-a85c-928d627d24ec"},"vehicle_type_id":"4","last_reported":1728130524,"current_range_meters":8000,"station_id":"","pricing_plan_id":"cebpf4jnsgd1na2vs0mg"},{"bike_id":"64995d1a-0a95-43c1-8426-b3115325266b","system_id":"levelo_inurba_marseille","lat":43.27916,"lon":5.42302,"is_reserved":false,"is_disabled":false,"rental_uris":{"android":"levelo://app?vid=64995d1a-0a95-43c1-8426-b3115325266b","ios":"levelo://app?vid=64995d1a-0a95-43c1-8426-b3115325266b"},"vehicle_type_id":"4","last_reported":1728130524,"current_range_meters":17200,"station_id":"","pricing_plan_id":"cebpf4jnsgd1na2vs0mg"},{"bike_id":"fc33149e-7c4d-4314-990e-a34d78fd21be","system_id":"levelo_inurba_marseille","lat":43.313624,"lon":5.384916,"is_reserved":false,"is_disabled":false,"rental_uris":{"android":"levelo://app?vid=fc33149e-7c4d-4314-990e-a34d78fd21be","ios":"levelo://app?vid=fc33149e-7c4d-4314-990e-a34d78fd21be"},"vehicle_type_id":"4","last_reported":1728130524,"current_range_meters":38400,"station_id":"ce4bgt92rcd13ifvqcf0","pricing_plan_id":"cebpf4jnsgd1na2vs0mg"},{"bike_id":"e0e0970e-fca5-4d5f-a541-b0b22e4a6122","system_id":"levelo_inurba_marseille","lat":43.28612,"lon":5.35102,"is_reserved":false,"is_disabled":false,"rental_uris":{"android":"levelo://app?vid=e0e0970e-fca5-4d5f-a541-b0b22e4a6122","ios":"levelo://app?vid=e0e0970e-fca5-4d5f-a541-b0b22e4a6122"},"vehicle_type_id":"4","last_reported":1728130524,"current_range_meters":36800,"station_id":"ce4bhch2rcd13ifvqeug","pricing_plan_id":"cebpf4jnsgd1na2vs0mg"},{"bike_id":"947c102d-210a-405c-81c4-ca108a365c51","system_id":"levelo_inurba_marseille","lat":43.29772,"lon":5.37103,"is_reserved":false,"is_disabled":false,"rental_uris":{"android":"levelo://app?vid=947c102d-210a-405c-81c4-ca108a365c51","ios":"levelo://app?vid=947c102d-210a-405c-81c4-ca108a365c51"},"vehicle_type_id":"4","last_reported":1728130524,"current_range_meters":27600,"station_id":"ce4bgop2rcd13ifvqc1g","pricing_plan_id":"cebpf4jnsgd1na2vs0mg"},{"bike_id":"f2b2e43c-e08f-4821-8fbf-8a978b59697f","system_id":"levelo_inurba_marseille","lat":43.28422,"lon":5.3499,"is_reserved":false,"is_disabled":false,"rental_uris":{"android":"levelo://app?vid=f2b2e43c-e08f-4821-8fbf-8a978b59697f","ios":"levelo://app?vid=f2b2e43c-e08f-4821-8fbf-8a978b59697f"},"vehicle_type_id":"4","last_reported":1728130524,"current_range_meters":31200,"station_id":"ce4bhbh2rcd13ifvqepg","pricing_plan_id":"cebpf4jnsgd1na2vs0mg"},{"bike_id":"4a79b7f5-df06-47d9-894a-c23c245e5186","system_id":"levelo_inurba_marseille","lat":43.29557,"lon":5.42282,"is_reserved":false,"is_disabled":false,"rental_uris":{"android":"levelo://app?vid=4a79b7f5-df06-47d9-894a-c23c245e5186","ios":"levelo://app?vid=4a79b7f5-df06-47d9-894a-c23c245e5186"},"vehicle_type_id":"4","last_reported":1728130524,"current_range_meters":38800,"station_id":"ce4bhph2rcd13ifvqhdg","pricing_plan_id":"cebpf4jnsgd1na2vs0mg"},{"bike_id":"a3f910a8-a5a0-40c0-aaeb-d39e645e342e","system_id":"levelo_inurba_marseille","lat":43.27203,"lon":5.39184,"is_reserved":false,"is_disabled":false,"rental_uris":{"android":"levelo://app?vid=a3f910a8-a5a0-40c0-aaeb-d39e645e342e","ios":"levelo://app?vid=a3f910a8-a5a0-40c0-aaeb-d39e645e342e"},"vehicle_type_id":"4","last_reported":1728130524,"current_range_meters":8800,"station_id":"ce4bhhp2rcd13ifvqfm0","pricing_plan_id":"cebpf4jnsgd1na2vs0mg"},{"bike_id":"79d4ce44-dde0-4856-adfb-9d048612b764","system_id":"levelo_inurba_marseille","lat":43.33775,"lon":5.37422,"is_reserved":false,"is_disabled":false,"rental_uris":{"android":"levelo://app?vid=79d4ce44-dde0-4856-adfb-9d048612b764","ios":"levelo://app?vid=79d4ce44-dde0-4856-adfb-9d048612b764"},"vehicle_type_id":"4","last_reported":1728130524,"current_range_meters":38400,"station_id":"","pricing_plan_id":"cebpf4jnsgd1na2vs0mg"},{"bike_id":"6362dd7e-711b-4b82-af8e-291ea8f6ea1e","system_id":"levelo_inurba_marseille","lat":43.3375,"lon":5.37426,"is_reserved":false,"is_disabled":false,"rental_uris":{"android":"levelo://app?vid=6362dd7e-711b-4b82-af8e-291ea8f6ea1e","ios":"levelo://app?vid=6362dd7e-711b-4b82-af8e-291ea8f6ea1e"},"vehicle_type_id":"4","last_reported":1728130524,"current_range_meters":36800,"station_id":"","pricing_plan_id":"cebpf4jnsgd1na2vs0mg"},{"bike_id":"04876937-9796-49ef-b71f-31e7e6007f0f","system_id":"levelo_inurba_marseille","lat":43.281738,"lon":5.424221,"is_reserved":false,"is_disabled":false,"rental_uris":{"android":"levelo://app?vid=04876937-9796-49ef-b71f-31e7e6007f0f","ios":"levelo://app?vid=04876937-9796-49ef-b71f-31e7e6007f0f"},"vehicle_type_id":"4","last_reported":1728130524,"current_range_meters":38000,"station_id":"ce4bhi12rcd13ifvqfq0","pricing_plan_id":"cebpf4jnsgd1na2vs0mg"},{"bike_id":"22184ed8-d8fc-4dca-b974-1fe10b24a5a2","system_id":"levelo_inurba_marseille","lat":43.284217,"lon":5.34983,"is_reserved":false,"is_disabled":false,"rental_uris":{"android":"levelo://app?vid=22184ed8-d8fc-4dca-b974-1fe10b24a5a2","ios":"levelo://app?vid=22184ed8-d8fc-4dca-b974-1fe10b24a5a2"},"vehicle_type_id":"4","last_reported":1728130524,"current_range_meters":33200,"station_id":"ce4bhbh2rcd13ifvqepg","pricing_plan_id":"cebpf4jnsgd1na2vs0mg"},{"bike_id":"9c4c2785-4e07-4582-9294-b135155e2812","system_id":"levelo_inurba_marseille","lat":43.2511,"lon":5.40318,"is_reserved":false,"is_disabled":false,"rental_uris":{"android":"levelo://app?vid=9c4c2785-4e07-4582-9294-b135155e2812","ios":"levelo://app?vid=9c4c2785-4e07-4582-9294-b135155e2812"},"vehicle_type_id":"4","last_reported":1728130524,"current_range_meters":12800,"station_id":"ce4bhlh2rcd13ifvqgig","pricing_plan_id":"cebpf4jnsgd1na2vs0mg"},{"bike_id":"5305316b-eb43-43cb-bedf-3a735be36892","system_id":"levelo_inurba_marseille","lat":43.31715,"lon":5.43706,"is_reserved":false,"is_disabled":false,"rental_uris":{"android":"levelo://app?vid=5305316b-eb43-43cb-bedf-3a735be36892","ios":"levelo://app?vid=5305316b-eb43-43cb-bedf-3a735be36892"},"vehicle_type_id":"4","last_reported":1728130524,"current_range_meters":38000,"station_id":"ce4bhp92rcd13ifvqhcg","pricing_plan_id":"cebpf4jnsgd1na2vs0mg"},{"bike_id":"191082f3-d6c6-4cdf-af68-76e707014d20","system_id":"levelo_inurba_marseille","lat":43.26804,"lon":5.40256,"is_reserved":false,"is_disabled":false,"rental_uris":{"android":"levelo://app?vid=191082f3-d6c6-4cdf-af68-76e707014d20","ios":"levelo://app?vid=191082f3-d6c6-4cdf-af68-76e707014d20"},"vehicle_type_id":"4","last_reported":1728130524,"current_range_meters":18800,"station_id":"ce501612rcd8frsf0b60","pricing_plan_id":"cebpf4jnsgd1na2vs0mg"},{"bike_id":"11254476-b12a-4e6e-ba6f-75799f33ca9e","system_id":"levelo_inurba_marseille","lat":43.28615,"lon":5.351,"is_reserved":false,"is_disabled":false,"rental_uris":{"android":"levelo://app?vid=11254476-b12a-4e6e-ba6f-75799f33ca9e","ios":"levelo://app?vid=11254476-b12a-4e6e-ba6f-75799f33ca9e"},"vehicle_type_id":"4","last_reported":1728130524,"current_range_meters":18800,"station_id":"ce4bhch2rcd13ifvqeug","pricing_plan_id":"cebpf4jnsgd1na2vs0mg"},{"bike_id":"4d030682-10d9-494b-af11-e3a729f21d01","system_id":"levelo_inurba_marseille","lat":43.295828,"lon":5.375072,"is_reserved":false,"is_disabled":false,"rental_uris":{"android":"levelo://app?vid=4d030682-10d9-494b-af11-e3a729f21d01","ios":"levelo://app?vid=4d030682-10d9-494b-af11-e3a729f21d01"},"vehicle_type_id":"4","last_reported":1728130524,"current_range_meters":13600,"station_id":"ce4bgh92rcd13ifvqb50","pricing_plan_id":"cebpf4jnsgd1na2vs0mg"},{"bike_id":"9f70368e-a1e3-4c43-9355-52f2e8447de6","system_id":"levelo_inurba_marseille","lat":43.2993,"lon":5.36551,"is_reserved":false,"is_disabled":false,"rental_uris":{"android":"levelo://app?vid=9f70368e-a1e3-4c43-9355-52f2e8447de6","ios":"levelo://app?vid=9f70368e-a1e3-4c43-9355-52f2e8447de6"},"vehicle_type_id":"4","last_reported":1728130524,"current_range_meters":16800,"station_id":"ce4bgm92rcd13ifvqbr0","pricing_plan_id":"cebpf4jnsgd1na2vs0mg"},{"bike_id":"1c38b42a-a818-4b24-85d4-99e7c0174c27","system_id":"levelo_inurba_marseille","lat":43.30466,"lon":5.37911,"is_reserved":false,"is_disabled":false,"rental_uris":{"android":"levelo://app?vid=1c38b42a-a818-4b24-85d4-99e7c0174c27","ios":"levelo://app?vid=1c38b42a-a818-4b24-85d4-99e7c0174c27"},"vehicle_type_id":"4","last_reported":1728130524,"current_range_meters":4400,"station_id":"ce4bgup2rcd13ifvqcn0","pricing_plan_id":"cebpf4jnsgd1na2vs0mg"},{"bike_id":"cfaaa6b2-42d0-4b15-bcb3-8b4634db1d4b","system_id":"levelo_inurba_marseille","lat":43.29609,"lon":5.38106,"is_reserved":false,"is_disabled":false,"rental_uris":{"android":"levelo://app?vid=cfaaa6b2-42d0-4b15-bcb3-8b4634db1d4b","ios":"levelo://app?vid=cfaaa6b2-42d0-4b15-bcb3-8b4634db1d4b"},"vehicle_type_id":"4","last_reported":1728130524,"current_range_meters":25600,"station_id":"ce4bgl12rcd13ifvqbo0","pricing_plan_id":"cebpf4jnsgd1na2vs0mg"},{"bike_id":"d5a7f2c7-7a6f-43dc-aab5-0294b9449794","system_id":"levelo_inurba_marseille","lat":43.3204,"lon":5.41548,"is_reserved":false,"is_disabled":false,"rental_uris":{"android":"levelo://app?vid=d5a7f2c7-7a6f-43dc-aab5-0294b9449794","ios":"levelo://app?vid=d5a7f2c7-7a6f-43dc-aab5-0294b9449794"},"vehicle_type_id":"4","last_reported":1728130524,"current_range_meters":30400,"station_id":"ce4bhq92rcd13ifvqhkg","pricing_plan_id":"cebpf4jnsgd1na2vs0mg"},{"bike_id":"39348655-1e63-403c-bdf2-547d38ac4de7","system_id":"levelo_inurba_marseille","lat":43.24168,"lon":5.36392,"is_reserved":false,"is_disabled":false,"rental_uris":{"android":"levelo://app?vid=39348655-1e63-403c-bdf2-547d38ac4de7","ios":"levelo://app?vid=39348655-1e63-403c-bdf2-547d38ac4de7"},"vehicle_type_id":"4","last_reported":1728130524,"current_range_meters":2000,"station_id":"cpo36qri1sfpv3e86is0","pricing_plan_id":"cebpf4jnsgd1na2vs0mg"},{"bike_id":"6107190d-6c27-4736-85f4-0b3d924de730","system_id":"levelo_inurba_marseille","lat":43.25,"lon":5.38921,"is_reserved":false,"is_disabled":false,"rental_uris":{"android":"levelo://app?vid=6107190d-6c27-4736-85f4-0b3d924de730","ios":"levelo://app?vid=6107190d-6c27-4736-85f4-0b3d924de730"},"vehicle_type_id":"4","last_reported":1728130524,"current_range_meters":20400,"station_id":"ce4bhgp2rcd13ifvqfd0","pricing_plan_id":"cebpf4jnsgd1na2vs0mg"},{"bike_id":"bab479b3-7f00-46b0-874e-b868670e134a","system_id":"levelo_inurba_marseille","lat":43.27201,"lon":5.39179,"is_reserved":false,"is_disabled":false,"rental_uris":{"android":"levelo://app?vid=bab479b3-7f00-46b0-874e-b868670e134a","ios":"levelo://app?vid=bab479b3-7f00-46b0-874e-b868670e134a"},"vehicle_type_id":"4","last_reported":1728130524,"current_range_meters":14000,"station_id":"ce4bhhp2rcd13ifvqfm0","pricing_plan_id":"cebpf4jnsgd1na2vs0mg"},{"bike_id":"53641d62-7040-4cbb-bf64-68261d73eca4","system_id":"levelo_inurba_marseille","lat":43.3266,"lon":5.40987,"is_reserved":false,"is_disabled":false,"rental_uris":{"android":"levelo://app?vid=53641d62-7040-4cbb-bf64-68261d73eca4","ios":"levelo://app?vid=53641d62-7040-4cbb-bf64-68261d73eca4"},"vehicle_type_id":"4","last_reported":1728130524,"current_range_meters":20800,"station_id":"ce4bhpp2rcd13ifvqhgg","pricing_plan_id":"cebpf4jnsgd1na2vs0mg"},{"bike_id":"10e2cad8-5b87-4361-a750-816e7c888c91","system_id":"levelo_inurba_marseille","lat":43.3375,"lon":5.3743,"is_reserved":false,"is_disabled":false,"rental_uris":{"android":"levelo://app?vid=10e2cad8-5b87-4361-a750-816e7c888c91","ios":"levelo://app?vid=10e2cad8-5b87-4361-a750-816e7c888c91"},"vehicle_type_id":"4","last_reported":1728130524,"current_range_meters":36000,"station_id":"","pricing_plan_id":"cebpf4jnsgd1na2vs0mg"},