{"last_updated":1773676511,"ttl":60,"version":"2.2","data":{"bikes":[{"bike_id":"28108d5f-f5c6-437f-ba05-690931523ec3","system_id":"levelo_inurba_marseille","lat":43.25718,"lon":5.41119,"is_reserved":false,"is_disabled":false,"rental_uris":{"android":"levelo://app?vid=28108d5f-f5c6-437f-ba05-690931523ec3","ios":"levelo://app?vid=28108d5f-f5c6-437f-ba05-690931523ec3"},"vehicle_type_id":"4","last_reported":1773676512,"current_range_meters":28800,"station_id":"ce4bhkp2rcd13ifvqgd0","pricing_plan_id":"cebpf4jnsgd1na2vs0mg"},{"bike_id":"0112cc81-8438-4648-bea3-a8efd1c38e40","system_id":"levelo_inurba_marseille","lat":43.3087,"lon":5.39644,"is_reserved":false,"is_disabled":true,"rental_uris":{"android":"levelo://app?vid=0112cc81-8438-4648-bea3-a8efd1c38e40","ios":"levelo://app?vid=0112cc81-8438-4648-bea3-a8efd1c38e40"},"vehicle_type_id":"4","last_reported":1773676512,"current_range_meters":1600,"station_id":"ce4bh012rcd13ifvqcv0","pricing_plan_id":"cebpf4jnsgd1na2vs0mg"},{"bike_id":"a4ca7329-3ac2-44ac-9c8b-c3829e8c8f46","system_id":"levelo_inurba_marseille","lat":43.2848,"lon":5.38974,"is_reserved":false,"is_disabled":true,"rental_uris":{"android":"levelo://app?vid=a4ca7329-3ac2-44ac-9c8b-c3829e8c8f46","ios":"levelo://app?vid=a4ca7329-3ac2-44ac-9c8b-c3829e8c8f46"},"vehicle_type_id":"4","last_reported":1773676512,"current_range_meters":4800,"station_id":"","pricing_plan_id":"cebpf4jnsgd1na2vs0mg"},{"bike_id":"79ee3a76-161d-42e4-b558-375f2cb1b0bb","system_id":"levelo_inurba_marseille","lat":43.28267,"lon":5.35065,"is_reserved":false,"is_disabled":false,"rental_uris":{"android":"levelo://app?vid=79ee3a76-161d-42e4-b558-375f2cb1b0bb","ios":"levelo://app?vid=79ee3a76-161d-42e4-b558-375f2cb1b0bb"},"vehicle_type_id":"4","last_reported":1773676512,"current_range_meters":8400,"station_id":"ce4bhbp2rcd13ifvqerg","pricing_plan_id":"cebpf4jnsgd1na2vs0mg"},{"bike_id":"0ae745ab-afb8-4357-87b5-3deaa4ba80bf","system_id":"levelo_inurba_marseille","lat":43.25734,"lon":5.41131,"is_reserved":false,"is_disabled":false,"rental_uris":{"android":"levelo://app?vid=0ae745ab-afb8-4357-87b5-3deaa4ba80bf","ios":"levelo://app?vid=0ae745ab-afb8-4357-87b5-3deaa4ba80bf"},"vehicle_type_id":"4","last_reported":1773676512,"current_range_meters":28000,"station_id":"ce4bhkp2rcd13ifvqgd0","pricing_plan_id":"cebpf4jnsgd1na2vs0mg"},{"bike_id":"3cde0991-c45c-4738-9884-025e377ba5b2","system_id":"levelo_inurba_marseille","lat":43.24056,"lon":5.37818,"is_reserved":false,"is_disabled":false,"rental_uris":{"android":"levelo://app?vid=3cde0991-c45c-4738-9884-025e377ba5b2","ios":"levelo://app?vid=3cde0991-c45c-4738-9884-025e377ba5b2"},"vehicle_type_id":"4","last_reported":1773676512,"current_range_meters":36400,"station_id":"ce4bhnp2rcd13ifvqgvg","pricing_plan_id":"cebpf4jnsgd1na2vs0mg"},{"bike_id":"0af203fb-c1fe-4f43-a9a2-b6b372ffe20c","system_id":"levelo_inurba_marseille","lat":43.28472,"lon":5.48406,"is_reserved":false,"is_disabled":false,"rental_uris":{"android":"levelo://app?vid=0af203fb-c1fe-4f43-a9a2-b6b372ffe20c","ios":"levelo://app?vid=0af203fb-c1fe-4f43-a9a2-b6b372ffe20c"},"vehicle_type_id":"4","last_reported":1773676512,"current_range_meters":18000,"station_id":"","pricing_plan_id":"cebpf4jnsgd1na2vs0mg"},{"bike_id":"0ecd47cf-a7b9-4223-8093-c6087cb3bd4a","system_id":"levelo_inurba_marseille","lat":43.28437,"lon":5.34968,"is_reserved":false,"is_disabled":false,"rental_uris":{"android":"levelo://app?vid=0ecd47cf-a7b9-4223-8093-c6087cb3bd4a","ios":"levelo://app?vid=0ecd47cf-a7b9-4223-8093-c6087cb3bd4a"},"vehicle_type_id":"4","last_reported":1773676512,"current_range_meters":19200,"station_id":"ce4bhbh2rcd13ifvqepg","pricing_plan_id":"cebpf4jnsgd1na2vs0mg"},{"bike_id":"fa05944a-25c4-4c7a-aaf9-d8f832bd3a59","system_id":"levelo_inurba_marseille","lat":43.30722,"lon":5.42441,"is_reserved":false,"is_disabled":false,"rental_uris":{"android":"levelo://app?vid=fa05944a-25c4-4c7a-aaf9-d8f832bd3a59","ios":"levelo://app?vid=fa05944a-25c4-4c7a-aaf9-d8f832bd3a59"},"vehicle_type_id":"4","last_reported":1773676512,"current_range_meters":19600,"station_id":"st_cvj6ca6bvosntc0bfgr0","pricing_plan_id":"cebpf4jnsgd1na2vs0mg"},{"bike_id":"319b1581-475f-4797-be0a-0bd4a5861756","system_id":"levelo_inurba_marseille","lat":43.31352,"lon":5.36736,"is_reserved":false,"is_disabled":false,"rental_uris":{"android":"levelo://app?vid=319b1581-475f-4797-be0a-0bd4a5861756","ios":"levelo://app?vid=319b1581-475f-4797-be0a-0bd4a5861756"},"vehicle_type_id":"4","last_reported":1773676512,"current_range_meters":33200,"station_id":"ce4bgr92rcd13ifvqc6g","pricing_plan_id":"cebpf4jnsgd1na2vs0mg"},{"bike_id":"4d1a45ae-5583-4f40-af6f-f1799d0dbefb","system_id":"levelo_inurba_marseille","lat":43.27208,"lon":5.39177,"is_reserved":false,"is_disabled":false,"rental_uris":{"android":"levelo://app?vid=4d1a45ae-5583-4f40-af6f-f1799d0dbefb","ios":"levelo://app?vid=4d1a45ae-5583-4f40-af6f-f1799d0dbefb"},"vehicle_type_id":"4","last_reported":1773676512,"current_range_meters":4000,"station_id":"ce4bhhp2rcd13ifvqfm0","pricing_plan_id":"cebpf4jnsgd1na2vs0mg"},{"bike_id":"ee3a78bd-9b7f-41d0-9f1d-2dcc5ec6f6cf","system_id":"levelo_inurba_marseille","lat":43.27314,"lon":5.39098,"is_reserved":false,"is_disabled":false,"rental_uris":{"android":"levelo://app?vid=ee3a78bd-9b7f-41d0-9f1d-2dcc5ec6f6cf","ios":"levelo://app?vid=ee3a78bd-9b7f-41d0-9f1d-2dcc5ec6f6cf"},"vehicle_type_id":"4","last_reported":1773676512,"current_range_meters":38000,"station_id":"ce4bhgp2rcd13ifvqfe0","pricing_plan_id":"cebpf4jnsgd1na2vs0mg"},{"bike_id":"7515e978-98b4-41e7-bf08-1fb6ad8edb5a","system_id":"levelo_inurba_marseille","lat":43.24384,"lon":5.37043,"is_reserved":false,"is_disabled":false,"rental_uris":{"android":"levelo://app?vid=7515e978-98b4-41e7-bf08-1fb6ad8edb5a","ios":"levelo://app?vid=7515e978-98b4-41e7-bf08-1fb6ad8edb5a"},"vehicle_type_id":"4","last_reported":1773676512,"current_range_meters":39200,"station_id":"ce4bhhh2rcd13ifvqfk0","pricing_plan_id":"cebpf4jnsgd1na2vs0mg"},{"bike_id":"e06b6f91-93be-4271-a893-ca5b609ebf7f","system_id":"levelo_inurba_marseille","lat":43.30541,"lon":5.36537,"is_reserved":false,"is_disabled":false,"rental_uris":{"android":"levelo://app?vid=e06b6f91-93be-4271-a893-ca5b609ebf7f","ios":"levelo://app?vid=e06b6f91-93be-4271-a893-ca5b609ebf7f"},"vehicle_type_id":"4","last_reported":1773676512,"current_range_meters":19200,"station_id":"ce4bgs12rcd13ifvqcag","pricing_plan_id":"cebpf4jnsgd1na2vs0mg"},{"bike_id":"7e113368-8b43-4dc9-a7d3-1b200ce7f912","system_id":"levelo_inurba_marseille","lat":43.2707,"lon":5.38294,"is_reserved":false,"is_disabled":false,"rental_uris":{"android":"levelo://app?vid=7e113368-8b43-4dc9-a7d3-1b200ce7f912","ios":"levelo://app?vid=7e113368-8b43-4dc9-a7d3-1b200ce7f912"},"vehicle_type_id":"4","last_reported":1773676512,"current_range_meters":28400,"station_id":"st_d3n2fo6cfp8s73cte1j0","pricing_plan_id":"cebpf4jnsgd1na2vs0mg"},{"bike_id":"6f7d91e0-d8ff-4289-b721-5ac744a4b9bc","system_id":"levelo_inurba_marseille","lat":43.2511,"lon":5.40319,"is_reserved":false,"is_disabled":false,"rental_uris":{"android":"levelo://app?vid=6f7d91e0-d8ff-4289-b721-5ac744a4b9bc","ios":"levelo://app?vid=6f7d91e0-d8ff-4289-b721-5ac744a4b9bc"},"vehicle_type_id":"4","last_reported":1773676512,"current_range_meters":30800,"station_id":"ce4bhlh2rcd13ifvqgig","pricing_plan_id":"cebpf4jnsgd1na2vs0mg"},{"bike_id":"9b90fc99-5ad3-4599-9271-4436dfc71249","system_id":"levelo_inurba_marseille","lat":43.33731,"lon":5.37411,"is_reserved":false,"is_disabled":true,"rental_uris":{"android":"levelo://app?vid=9b90fc99-5ad3-4599-9271-4436dfc71249","ios":"levelo://app?vid=9b90fc99-5ad3-4599-9271-4436dfc71249"},"vehicle_type_id":"4","last_reported":1773676512,"current_range_meters":0,"station_id":"","pricing_plan_id":"cebpf4jnsgd1na2vs0mg"},{"bike_id":"8fc40567-b791-4317-b952-acc2abec6d07","system_id":"levelo_inurba_marseille","lat":43.27515,"lon":5.41579,"is_reserved":false,"is_disabled":false,"rental_uris":{"android":"levelo://app?vid=8fc40567-b791-4317-b952-acc2abec6d07","ios":"levelo://app?vid=8fc40567-b791-4317-b952-acc2abec6d07"},"vehicle_type_id":"4","last_reported":1773676512,"current_range_meters":14000,"station_id":"st_d6im8g6chgec73a5pndg","pricing_plan_id":"cebpf4jnsgd1na2vs0mg"},{"bike_id":"9f17abc3-c116-4a63-ab86-74b83efebd3b","system_id":"levelo_inurba_marseille","lat":43.29772,"lon":5.3709,"is_reserved":false,"is_disabled":false,"rental_uris":{"android":"levelo://app?vid=9f17abc3-c116-4a63-ab86-74b83efebd3b","ios":"levelo://app?vid=9f17abc3-c116-4a63-ab86-74b83efebd3b"},"vehicle_type_id":"4","last_reported":1773676512,"current_range_meters":40000,"station_id":"ce4bgop2rcd13ifvqc1g","pricing_plan_id":"cebpf4jnsgd1na2vs0mg"},{"bike_id":"a67a9ceb-fc67-49ce-bd97-e7e139994680","system_id":"levelo_inurba_marseille","lat":43.29536,"lon":5.37497,"is_reserved":false,"is_disabled":false,"rental_uris":{"android":"levelo://app?vid=a67a9ceb-fc67-49ce-bd97-e7e139994680","ios":"levelo://app?vid=a67a9ceb-fc67-49ce-bd97-e7e139994680"},"vehicle_type_id":"4","last_reported":1773676512,"current_range_meters":20400,"station_id":"ce4bgkp2rcd13ifvqbmg","pricing_plan_id":"cebpf4jnsgd1na2vs0mg"},{"bike_id":"f95ed799-21d2-4ee8-aa17-5bdcff50618a","system_id":"levelo_inurba_marseille","lat":43.28146,"lon":5.42637,"is_reserved":false,"is_disabled":false,"rental_uris":{"android":"levelo://app?vid=f95ed799-21d2-4ee8-aa17-5bdcff50618a","ios":"levelo://app?vid=f95ed799-21d2-4ee8-aa17-5bdcff50618a"},"vehicle_type_id":"4","last_reported":1773676512,"current_range_meters":38800,"station_id":"ce4bhnh2rcd13ifvqgug","pricing_plan_id":"cebpf4jnsgd1na2vs0mg"},{"bike_id":"4a8d7a43-5dbb-42a2-b5ca-8c6627ac6666","system_id":"levelo_inurba_marseille","lat":43.30197,"lon":5.36615,"is_reserved":false,"is_disabled":false,"rental_uris":{"android":"levelo://app?vid=4a8d7a43-5dbb-42a2-b5ca-8c6627ac6666","ios":"levelo://app?vid=4a8d7a43-5dbb-42a2-b5ca-8c6627ac6666"},"vehicle_type_id":"4","last_reported":1773676512,"current_range_meters":39200,"station_id":"ce4bgrh2rcd13ifvqc8g","pricing_plan_id":"cebpf4jnsgd1na2vs0mg"},{"bike_id":"29e43977-ef6d-49b4-8dac-e1d069a3dbc6","system_id":"levelo_inurba_marseille","lat":43.30853,"lon":5.37175,"is_reserved":false,"is_disabled":false,"rental_uris":{"android":"levelo://app?vid=29e43977-ef6d-49b4-8dac-e1d069a3dbc6","ios":"levelo://app?vid=29e43977-ef6d-49b4-8dac-e1d069a3dbc6"},"vehicle_type_id":"4","last_reported":1773676512,"current_range_meters":24000,"station_id":"","pricing_plan_id":"cebpf4jnsgd1na2vs0mg"},{"bike_id":"7d5b997f-5115-45cd-8ced-c8507a994f25","system_id":"levelo_inurba_marseille","lat":43.30176,"lon":5.36621,"is_reserved":false,"is_disabled":false,"rental_uris":{"android":"levelo://app?vid=7d5b997f-5115-45cd-8ced-c8507a994f25","ios":"levelo://app?vid=7d5b997f-5115-45cd-8ced-c8507a994f25"},"vehicle_type_id":"4","last_reported":1773676512,"current_range_meters":10800,"station_id":"ce4bgrh2rcd13ifvqc8g","pricing_plan_id":"cebpf4jnsgd1na2vs0mg"},{"bike_id":"9d81edfa-23b4-4c0f-b037-c83b4deb804a","system_id":"levelo_inurba_marseille","lat":43.24408,"lon":5.37058,"is_reserved":false,"is_disabled":false,"rental_uris":{"android":"levelo://app?vid=9d81edfa-23b4-4c0f-b037-c83b4deb804a","ios":"levelo://app?vid=9d81edfa-23b4-4c0f-b037-c83b4deb804a"},"vehicle_type_id":"4","last_reported":1773676512,"current_range_meters":16400,"station_id":"ce4bhhh2rcd13ifvqfk0","pricing_plan_id":"cebpf4jnsgd1na2vs0mg"},{"bike_id":"44ed9f91-493e-41a6-a1c2-b89c2d0ba1c1","system_id":"levelo_inurba_marseille","lat":43.29529,"lon":5.37507,"is_reserved":false,"is_disabled":false,"rental_uris":{"android":"levelo://app?vid=44ed9f91-493e-41a6-a1c2-b89c2d0ba1c1","ios":"levelo://app?vid=44ed9f91-493e-41a6-a1c2-b89c2d0ba1c1"},"vehicle_type_id":"4","last_reported":1773676512,"current_range_meters":22400,"station_id":"ce4bgkp2rcd13ifvqbmg","pricing_plan_id":"cebpf4jnsgd1na2vs0mg"},{"bike_id":"bf35deae-c02e-4382-b944-c4bbe450d63e","system_id":"levelo_inurba_marseille","lat":43.26679,"lon":5.38261,"is_reserved":false,"is_disabled":false,"rental_uris":{"android":"levelo://app?vid=bf35deae-c02e-4382-b944-c4bbe450d63e","ios":"levelo://app?vid=bf35deae-c02e-4382-b944-c4bbe450d63e"},"vehicle_type_id":"4","last_reported":1773676512,"current_range_meters":39200,"station_id":"ce4bhg92rcd13ifvqf90","pricing_plan_id":"cebpf4jnsgd1na2vs0mg"},{"bike_id":"3da27fab-f707-4d6f-8b10-883081079bc6","system_id":"levelo_inurba_marseille","lat":43.27366,"lon":5.36257,"is_reserved":false,"is_disabled":false,"rental_uris":{"android":"levelo://app?vid=3da27fab-f707-4d6f-8b10-883081079bc6","ios":"levelo://app?vid=3da27fab-f707-4d6f-8b10-883081079bc6"},"vehicle_type_id":"4","last_reported":1773676512,"current_range_meters":38800,"station_id":"ce4bhbh2rcd13ifvqeo0","pricing_plan_id":"cebpf4jnsgd1na2vs0mg"},{"bike_id":"53548f2b-6419-45b3-aa0a-8f37ef050e78","system_id":"levelo_inurba_marseille","lat":43.30797,"lon":5.38176,"is_reserved":false,"is_disabled":false,"rental_uris":{"android":"levelo://app?vid=53548f2b-6419-45b3-aa0a-8f37ef050e78","ios":"levelo://app?vid=53548f2b-6419-45b3-aa0a-8f37ef050e78"},"vehicle_type_id":"4","last_reported":1773676512,"current_range_meters":28400,"station_id":"ce4bgt12rcd13ifvqce0","pricing_plan_id":"cebpf4jnsgd1na2vs0mg"},{"bike_id":"c4c3f48c-bf90-4e1a-97ed-75867b44fa21","system_id":"levelo_inurba_marseille","lat":43.26802,"lon":5.40269,"is_reserved":false,"is_disabled":false,"rental_uris":{"android":"levelo://app?vid=c4c3f48c-bf90-4e1a-97ed-75867b44fa21","ios":"levelo://app?vid=c4c3f48c-bf90-4e1a-97ed-75867b44fa21"},"vehicle_type_id":"4","last_reported":1773676512,"current_range_meters":35600,"station_id":"ce501612rcd8frsf0b60","pricing_plan_id":"cebpf4jnsgd1na2vs0mg"},{"bike_id":"811f1e75-9d93-4370-83f9-7ae485a1042c","system_id":"levelo_inurba_marseille","lat":43.29521,"lon":5.39037,"is_reserved":false,"is_disabled":false,"rental_uris":{"android":"levelo://app?vid=811f1e75-9d93-4370-83f9-7ae485a1042c","ios":"levelo://app?vid=811f1e75-9d93-4370-83f9-7ae485a1042c"},"vehicle_type_id":"4","last_reported":1773676512,"current_range_meters":29600,"station_id":"ce4bh3p2rcd13ifvqdp0","pricing_plan_id":"cebpf4jnsgd1na2vs0mg"},{"bike_id":"b278ad17-e09c-46d1-95da-e7299e72a641","system_id":"levelo_inurba_marseille","lat":43.2255,"lon":5.41636,"is_reserved":false,"is_disabled":false,"rental_uris":{"android":"levelo://app?vid=b278ad17-e09c-46d1-95da-e7299e72a641","ios":"levelo://app?vid=b278ad17-e09c-46d1-95da-e7299e72a641"},"vehicle_type_id":"4","last_reported":1773676512,"current_range_meters":30400,"station_id":"st_d2o4gvlbi1j2169b742g","pricing_plan_id":"cebpf4jnsgd1na2vs0mg"},{"bike_id":"7e55300e-c6ce-4cea-b352-04866308b200","system_id":"levelo_inurba_marseille","lat":43.29628,"lon":5.42154,"is_reserved":false,"is_disabled":false,"rental_uris":{"android":"levelo://app?vid=7e55300e-c6ce-4cea-b352-04866308b200","ios":"levelo://app?vid=7e55300e-c6ce-4cea-b352-04866308b200"},"vehicle_type_id":"4","last_reported":1773676512,"current_range_meters":19600,"station_id":"","pricing_plan_id":"cebpf4jnsgd1na2vs0mg"},{"bike_id":"83749433-0a80-4c00-b712-c6dbf0d86014","system_id":"levelo_inurba_marseille","lat":43.3056,"lon":5.36548,"is_reserved":false,"is_disabled":false,"rental_uris":{"android":"levelo://app?vid=83749433-0a80-4c00-b712-c6dbf0d86014","ios":"levelo://app?vid=83749433-0a80-4c00-b712-c6dbf0d86014"},"vehicle_type_id":"4","last_reported":1773676512,"current_range_meters":25600,"station_id":"ce4bgs12rcd13ifvqcag","pricing_plan_id":"cebpf4jnsgd1na2vs0mg"},{"bike_id":"b873da24-1045-4d09-b91f-3e423eac7b45","system_id":"levelo_inurba_marseille","lat":43.33152,"lon":5.37669,"is_reserved":false,"is_disabled":false,"rental_uris":{"android":"levelo://app?vid=b873da24-1045-4d09-b91f-3e423eac7b45","ios":"levelo://app?vid=b873da24-1045-4d09-b91f-3e423eac7b45"},"vehicle_type_id":"4","last_reported":1773676512,"current_range_meters":4000,"station_id":"st_d46cu089ee8s73dldbu0","pricing_plan_id":"cebpf4jnsgd1na2vs0mg"},{"bike_id":"61810534-e31e-4a8c-be14-f067091c4302","system_id":"levelo_inurba_marseille","lat":43.28403,"lon":5.34993,"is_reserved":false,"is_disabled":false,"rental_uris":{"android":"levelo://app?vid=61810534-e31e-4a8c-be14-f067091c4302","ios":"levelo://app?vid=61810534-e31e-4a8c-be14-f067091c4302"},"vehicle_type_id":"4","last_reported":1773676512,"current_range_meters":39200,"station_id":"ce4bhbh2rcd13ifvqepg","pricing_plan_id":"cebpf4jnsgd1na2vs0mg"},{"bike_id":"396262c4-3c66-4f47-8080-cb1a5d1559a6","system_id":"levelo_inurba_marseille","lat":43.26192,"lon":5.37425,"is_reserved":false,"is_disabled":false,"rental_uris":{"android":"levelo://app?vid=396262c4-3c66-4f47-8080-cb1a5d1559a6","ios":"levelo://app?vid=396262c4-3c66-4f47-8080-cb1a5d1559a6"},"vehicle_type_id":"4","last_reported":1773676512,"current_range_meters":39200,"station_id":"ce4bhgp2rcd13ifvqfc0","pricing_plan_id":"cebpf4jnsgd1na2vs0mg"},{"bike_id":"5eaad388-2ccc-4bbb-9427-e42f493f2045","system_id":"levelo_inurba_marseille","lat":43.30593,"lon":5.37201,"is_reserved":false,"is_disabled":false,"rental_uris":{"android":"levelo://app?vid=5eaad388-2ccc-4bbb-9427-e42f493f2045","ios":"levelo://app?vid=5eaad388-2ccc-4bbb-9427-e42f493f2045"},"vehicle_type_id":"4","last_reported":1773676512,"current_range_meters":36000,"station_id":"ce4bgqh2rcd13ifvqc4g","pricing_plan_id":"cebpf4jnsgd1na2vs0mg"},{"bike_id":"8a39bd95-653a-47cf-989d-cd8f1fe2ee04","system_id":"levelo_inurba_marseille","lat":43.29848,"lon":5.3628,"is_reserved":false,"is_disabled":false,"rental_uris":{"android":"levelo://app?vid=8a39bd95-653a-47cf-989d-cd8f1fe2ee04","ios":"levelo://app?vid=8a39bd95-653a-47cf-989d-cd8f1fe2ee04"},"vehicle_type_id":"4","last_reported":1773676512,"current_range_meters":37600,"station_id":"ce4bgpp2rcd13ifvqc3g","pricing_plan_id":"cebpf4jnsgd1na2vs0mg"},{"bike_id":"b992d013-31c6-40e6-b76c-ffb49d136524","system_id":"levelo_inurba_marseille","lat":43.32371,"lon":5.38871,"is_reserved":false,"is_disabled":false,"rental_uris":{"android":"levelo://app?vid=b992d013-31c6-40e6-b76c-ffb49d136524","ios":"levelo://app?vid=b992d013-31c6-40e6-b76c-ffb49d136524"},"vehicle_type_id":"4","last_reported":1773676512,"current_range_meters":38000,"station_id":"ce4bhqp2rcd13ifvqhog","pricing_plan_id":"cebpf4jnsgd1na2vs0mg"},{"bike_id":"652a99dc-dea0-4e17-8c4e-9c7e6ced04ce","system_id":"levelo_inurba_marseille","lat":43.28569,"lon":5.39491,"is_reserved":false,"is_disabled":false,"rental_uris":{"android":"levelo://app?vid=652a99dc-dea0-4e17-8c4e-9c7e6ced04ce","ios":"levelo://app?vid=652a99dc-dea0-4e17-8c4e-9c7e6ced04ce"},"vehicle_type_id":"4","last_reported":1773676512,"current_range_meters":38400,"station_id":"ce4bh292rcd13ifvqdg0","pricing_plan_id":"cebpf4jnsgd1na2vs0mg"},{"bike_id":"f325f337-a248-456e-b896-c482cce0da14","system_id":"levelo_inurba_marseille","lat":43.26771,"lon":5.39424,"is_reserved":false,"is_disabled":false,"rental_uris":{"android":"levelo://app?vid=f325f337-a248-456e-b896-c482cce0da14","ios":"levelo://app?vid=f325f337-a248-456e-b896-c482cce0da14"},"vehicle_type_id":"4","last_reported":1773676512,"current_range_meters":8800,"station_id":"ce4bhh12rcd13ifvqfg0","pricing_plan_id":"cebpf4jnsgd1na2vs0mg"},{"bike_id":"77216a7f-364c-4873-bc97-ce369405114b","system_id":"levelo_inurba_marseille","lat":43.30128,"lon":5.43106,"is_reserved":false,"is_disabled":false,"rental_uris":{"android":"levelo://app?vid=77216a7f-364c-4873-bc97-ce369405114b","ios":"levelo://app?vid=77216a7f-364c-4873-bc97-ce369405114b"},"vehicle_type_id":"4","last_reported":1773676512,"current_range_meters":3200,"station_id":"st_d3js3co5814s73ftftug","pricing_plan_id":"cebpf4jnsgd1na2vs0mg"},{"bike_id":"95335745-9338-4a1d-a429-0f72ada4d5ca","system_id":"levelo_inurba_marseille","lat":43.26381,"lon":5.41068,"is_reserved":false,"is_disabled":false,"rental_uris":{"android":"levelo://app?vid=95335745-9338-4a1d-a429-0f72ada4d5ca","ios":"levelo://app?vid=95335745-9338-4a1d-a429-0f72ada4d5ca"},"vehicle_type_id":"4","last_reported":1773676512,"current_range_meters":25200,"station_id":"st_d4e5ca6na9uc73bfl5fg","pricing_plan_id":"cebpf4jnsgd1na2vs0mg"},{"bike_id":"f939eb21-ae6c-4e2f-a8f3-abc7407cdefe","system_id":"levelo_inurba_marseille","lat":43.25713,"lon":5.4111,"is_reserved":false,"is_disabled":false,"rental_uris":{"android":"levelo://app?vid=f939eb21-ae6c-4e2f-a8f3-abc7407cdefe","ios":"levelo://app?vid=f939eb21-ae6c-4e2f-a8f3-abc7407cdefe"},"vehicle_type_id":"4","last_reported":1773676512,"current_range_meters":25600,"station_id":"ce4bhkp2rcd13ifvqgd0","pricing_plan_id":"cebpf4jnsgd1na2vs0mg"},{"bike_id":"014fbe6d-acef-4024-b919-caaae3fc7ea1","system_id":"levelo_inurba_marseille","lat":43.28611,"lon":5.351,"is_reserved":false,"is_disabled":false,"rental_uris":{"android":"levelo://app?vid=014fbe6d-acef-4024-b919-caaae3fc7ea1","ios":"levelo://app?vid=014fbe6d-acef-4024-b919-caaae3fc7ea1"},"vehicle_type_id":"4","last_reported":1773676512,"current_range_meters":28400,"station_id":"ce4bhch2rcd13ifvqeug","pricing_plan_id":"cebpf4jnsgd1na2vs0mg"},{"bike_id":"19373765-144a-4790-8089-8a5de9544f1f","system_id":"levelo_inurba_marseille","lat":43.24163,"lon":5.39715,"is_reserved":false,"is_disabled":false,"rental_uris":{"android":"levelo://app?vid=19373765-144a-4790-8089-8a5de9544f1f","ios":"levelo://app?vid=19373765-144a-4790-8089-8a5de9544f1f"},"vehicle_type_id":"4","last_reported":1773676512,"current_range_meters":28400,"station_id":"ce4bhn12rcd13ifvqgpg","pricing_plan_id":"cebpf4jnsgd1na2vs0mg"},{"bike_id":"50c7323a-e0d3-40d7-bb52-3835c1efc8eb","system_id":"levelo_inurba_marseille","lat":43.262,"lon":5.37933,"is_reserved":false,"is_disabled":false,"rental_uris":{"android":"levelo://app?vid=50c7323a-e0d3-40d7-bb52-3835c1efc8eb","ios":"levelo://app?vid=50c7323a-e0d3-40d7-bb52-3835c1efc8eb"},"vehicle_type_id":"4","last_reported":1773676512,"current_range_meters":25600,"station_id":"ce4bhjp2rcd13ifvqg90","pricing_plan_id":"cebpf4jnsgd1na2vs0mg"},{"bike_id":"d0dab2fa-d617-4c19-a612-133b45b47130","system_id":"levelo_inurba_marseille","lat":43.23191,"lon":5.3555,"is_reserved":false,"is_disabled":false,"rental_uris":{"android":"levelo://app?vid=d0dab2fa-d617-4c19-a612-133b45b47130","ios":"levelo://app?vid=d0dab2fa-d617-4c19-a612-133b45b47130"},"vehicle_type_id":"4","last_reported":1773676512,"current_range_meters":20400,"station_id":"ce4bhu92rcd13ifvqi70","pricing_plan_id":"cebpf4jnsgd1na2vs0mg"},{"bike_id":"491ba74c-a458-433d-a534-dfa81b7720cd","system_id":"levelo_inurba_marseille","lat":43.21715,"lon":5.34589,"is_reserved":false,"is_disabled":false,"rental_uris":{"android":"levelo://app?vid=491ba74c-a458-433d-a534-dfa81b7720cd","ios":"levelo://app?vid=491ba74c-a458-433d-a534-dfa81b7720cd"},"vehicle_type_id":"4","last_reported":1773676512,"current_range_meters":9600,"station_id":"st_cvj6r9ubvosntc0bgbag","pricing_plan_id":"cebpf4jnsgd1na2vs0mg"},{"bike_id":"fdf866ca-9a01-40b6-8b5d-7ed716ee6f5e","system_id":"levelo_inurba_marseille","lat":43.30733,"lon":5.42425,"is_reserved":false,"is_disabled":false,"rental_uris":{"android":"levelo://app?vid=fdf866ca-9a01-40b6-8b5d-7ed716ee6f5e","ios":"levelo://app?vid=fdf866ca-9a01-40b6-8b5d-7ed716ee6f5e"},"vehicle_type_id":"4","last_reported":1773676512,"current_range_meters":39200,"station_id":"st_cvj6ca6bvosntc0bfgr0","pricing_plan_id":"cebpf4jnsgd1na2vs0mg"},{"bike_id":"6a66164b-9aa3-4c95-8e0d-43ad6a93591e","system_id":"levelo_inurba_marseille","lat":43.255,"lon":5.37647,"is_reserved":false,"is_disabled":false,"rental_uris":{"android":"levelo://app?vid=6a66164b-9aa3-4c95-8e0d-43ad6a93591e","ios":"levelo://app?vid=6a66164b-9aa3-4c95-8e0d-43ad6a93591e"},"vehicle_type_id":"4","last_reported":1773676512,"current_range_meters":28000,"station_id":"ce4bhh12rcd13ifvqff0","pricing_plan_id":"cebpf4jnsgd1na2vs0mg"},{"bike_id":"c2d75a77-7dda-428e-bdbd-a97c9d7e2102","system_id":"levelo_inurba_marseille","lat":43.27073,"lon":5.38304,"is_reserved":false,"is_disabled":true,"rental_uris":{"android":"levelo://app?vid=c2d75a77-7dda-428e-bdbd-a97c9d7e2102","ios":"levelo://app?vid=c2d75a77-7dda-428e-bdbd-a97c9d7e2102"},"vehicle_type_id":"4","last_reported":1773676512,"current_range_meters":35600,"station_id":"st_d3n2fo6cfp8s73cte1j0","pricing_plan_id":"cebpf4jnsgd1na2vs0mg"},{"bike_id":"857b6928-ed90-4f6e-a6cf-93ba460b7680","system_id":"levelo_inurba_marseille","lat":43.32366,"lon":5.3887,"is_reserved":false,"is_disabled":false,"rental_uris":{"android":"levelo://app?vid=857b6928-ed90-4f6e-a6cf-93ba460b7680","ios":"levelo://app?vid=857b6928-ed90-4f6e-a6cf-93ba460b7680"},"vehicle_type_id":"4","last_reported":1773676512,"current_range_meters":39200,"station_id":"ce4bhqp2rcd13ifvqhog","pricing_plan_id":"cebpf4jnsgd1na2vs0mg"},{"bike_id":"e816a6e1-9ad3-4d2b-8bf9-167082164236","system_id":"levelo_inurba_marseille","lat":43.28032,"lon":5.36944,"is_reserved":false,"is_disabled":false,"rental_uris":{"android":"levelo://app?vid=e816a6e1-9ad3-4d2b-8bf9-167082164236","ios":"levelo://app?vid=e816a6e1-9ad3-4d2b-8bf9-167082164236"},"vehicle_type_id":"4","last_reported":1773676512,"current_range_meters":24400,"station_id":"ce4bha12rcd13ifvqef0","pricing_plan_id":"cebpf4jnsgd1na2vs0mg"},{"bike_id":"e378ab9d-c754-4563-b960-fd5460f9bff6","system_id":"levelo_inurba_marseille","lat":43.29888,"lon":5.37575,"is_reserved":false,"is_disabled":false,"rental_uris":{"android":"levelo://app?vid=e378ab9d-c754-4563-b960-fd5460f9bff6","ios":"levelo://app?vid=e378ab9d-c754-4563-b960-fd5460f9bff6"},"vehicle_type_id":"4","last_reported":1773676512,"current_range_meters":38400,"station_id":"","pricing_plan_id":"cebpf4jnsgd1na2vs0mg"},{"bike_id":"dea631f7-42a0-4fc4-b750-984aa138e4f3","system_id":"levelo_inurba_marseille","lat":43.32334,"lon":5.38826,"is_reserved":false,"is_disabled":false,"rental_uris":{"android":"levelo://app?vid=dea631f7-42a0-4fc4-b750-984aa138e4f3","ios":"levelo://app?vid=dea631f7-42a0-4fc4-b750-984aa138e4f3"},"vehicle_type_id":"4","last_reported":1773676512,"current_range_meters":32800,"station_id":"","pricing_plan_id":"cebpf4jnsgd1na2vs0mg"},{"bike_id":"12bb0608-da9d-4e04-8f31-0e077a96fffb","system_id":"levelo_inurba_marseille","lat":43.25585,"lon":5.38233,"is_reserved":false,"is_disabled":false,"rental_uris":{"android":"levelo://app?vid=12bb0608-da9d-4e04-8f31-0e077a96fffb","ios":"levelo://app?vid=12bb0608-da9d-4e04-8f31-0e077a96fffb"},"vehicle_type_id":"4","last_reported":1773676512,"current_range_meters":28000,"station_id":"ce4bhih2rcd13ifvqfs0","pricing_plan_id":"cebpf4jnsgd1na2vs0mg"},{"bike_id":"ef124b6c-1864-4cf0-9457-14566d1138f0","system_id":"levelo_inurba_marseille","lat":43.26365,"lon":5.41084,"is_reserved":false,"is_disabled":false,"rental_uris":{"android":"levelo://app?vid=ef124b6c-1864-4cf0-9457-14566d1138f0","ios":"levelo://app?vid=ef124b6c-1864-4cf0-9457-14566d1138f0"},"vehicle_type_id":"4","last_reported":1773676512,"current_range_meters":26000,"station_id":"st_d4e5ca6na9uc73bfl5fg","pricing_plan_id":"cebpf4jnsgd1na2vs0mg"},{"bike_id":"87961bc8-b9ec-434a-9714-7ea7cf0235a9","system_id":"levelo_inurba_marseille","lat":43.33782,"lon":5.37458,"is_reserved":false,"is_disabled":false,"rental_uris":{"android":"levelo://app?vid=87961bc8-b9ec-434a-9714-7ea7cf0235a9","ios":"levelo://app?vid=87961bc8-b9ec-434a-9714-7ea7cf0235a9"},"vehicle_type_id":"4","last_reported":1773676512,"current_range_meters":12400,"station_id":"","pricing_plan_id":"cebpf4jnsgd1na2vs0mg"},{"bike_id":"1dbc2359-923d-4f88-a168-a5102060bfcb","system_id":"levelo_inurba_marseille","lat":43.28284,"lon":5.35084,"is_reserved":false,"is_disabled":false,"rental_uris":{"android":"levelo://app?vid=1dbc2359-923d-4f88-a168-a5102060bfcb","ios":"levelo://app?vid=1dbc2359-923d-4f88-a168-a5102060bfcb"},"vehicle_type_id":"4","last_reported":1773676512,"current_range_meters":14800,"station_id":"ce4bhbp2rcd13ifvqerg","pricing_plan_id":"cebpf4jnsgd1na2vs0mg"},{"bike_id":"5dedbb18-e988-4c62-a1b7-6082fc58ac3f","system_id":"levelo_inurba_marseille","lat":43.25086,"lon":5.39515,"is_reserved":false,"is_disabled":false,"rental_uris":{"android":"levelo://app?vid=5dedbb18-e988-4c62-a1b7-6082fc58ac3f","ios":"levelo://app?vid=5dedbb18-e988-4c62-a1b7-6082fc58ac3f"},"vehicle_type_id":"4","last_reported":1773676512,"current_range_meters":4000,"station_id":"ce4bhm12rcd13ifvqgkg","pricing_plan_id":"cebpf4jnsgd1na2vs0mg"},{"bike_id":"3add2734-8654-4934-ae5a-607396968320","system_id":"levelo_inurba_marseille","lat":43.28702,"lon":5.37922,"is_reserved":false,"is_disabled":false,"rental_uris":{"android":"levelo://app?vid=3add2734-8654-4934-ae5a-607396968320","ios":"levelo://app?vid=3add2734-8654-4934-ae5a-607396968320"},"vehicle_type_id":"4","last_reported":1773676512,"current_range_meters":30800,"station_id":"ce4bh9p2rcd13ifvqec0","pricing_plan_id":"cebpf4jnsgd1na2vs0mg"},{"bike_id":"7d0d6579-73dd-45b7-81e1-90af3d6ef163","system_id":"levelo_inurba_marseille","lat":43.22562,"lon":5.41629,"is_reserved":false,"is_disabled":false,"rental_uris":{"android":"levelo://app?vid=7d0d6579-73dd-45b7-81e1-90af3d6ef163","ios":"levelo://app?vid=7d0d6579-73dd-45b7-81e1-90af3d6ef163"},"vehicle_type_id":"4","last_reported":1773676512,"current_range_meters":8800,"station_id":"st_d2o4gvlbi1j2169b742g","pricing_plan_id":"cebpf4jnsgd1na2vs0mg"},{"bike_id":"950b1b00-2f64-40ff-b5c3-a8bf83d1cec0","system_id":"levelo_inurba_marseille","lat":43.30799,"lon":5.38145,"is_reserved":false,"is_disabled":false,"rental_uris":{"android":"levelo://app?vid=950b1b00-2f64-40ff-b5c3-a8bf83d1cec0","ios":"levelo://app?vid=950b1b00-2f64-40ff-b5c3-a8bf83d1cec0"},"vehicle_type_id":"4","last_reported":1773676512,"current_range_meters":36400,"station_id":"ce4bgt12rcd13ifvqce0","pricing_plan_id":"cebpf4jnsgd1na2vs0mg"},{"bike_id":"2ab628f4-4cfd-478e-9f06-4eed69164c58","system_id":"levelo_inurba_marseille","lat":43.31337,"lon":5.36725,"is_reserved":false,"is_disabled":false,"rental_uris":{"android":"levelo://app?vid=2ab628f4-4cfd-478e-9f06-4eed69164c58","ios":"levelo://app?vid=2ab628f4-4cfd-478e-9f06-4eed69164c58"},"vehicle_type_id":"4","last_reported":1773676512,"current_range_meters":30400,"station_id":"ce4bgr92rcd13ifvqc6g","pricing_plan_id":"cebpf4jnsgd1na2vs0mg"},{"bike_id":"3d3afd54-1c51-4d77-8394-a33323eb7e6e","system_id":"levelo_inurba_marseille","lat":43.24941,"lon":5.40499,"is_reserved":false,"is_disabled":false,"rental_uris":{"android":"levelo://app?vid=3d3afd54-1c51-4d77-8394-a33323eb7e6e","ios":"levelo://app?vid=3d3afd54-1c51-4d77-8394-a33323eb7e6e"},"vehicle_type_id":"4","last_reported":1773676512,"current_range_meters":9200,"station_id":"st_d2ngiaodas8pm72gd1h0","pricing_plan_id":"cebpf4jnsgd1na2vs0mg"},{"bike_id":"6bd46585-7360-490f-b2a6-8e61e6304105","system_id":"levelo_inurba_marseille","lat":43.29772,"lon":5.42785,"is_reserved":false,"is_disabled":false,"rental_uris":{"android":"levelo://app?vid=6bd46585-7360-490f-b2a6-8e61e6304105","ios":"levelo://app?vid=6bd46585-7360-490f-b2a6-8e61e6304105"},"vehicle_type_id":"4","last_reported":1773676512,"current_range_meters":14400,"station_id":"st_d3md5207bmas73dh9klg","pricing_plan_id":"cebpf4jnsgd1na2vs0mg"},{"bike_id":"4c177e21-a8fe-4f57-a94f-d114f72249f7","system_id":"levelo_inurba_marseille","lat":43.31858,"lon":5.3697,"is_reserved":false,"is_disabled":false,"rental_uris":{"android":"levelo://app?vid=4c177e21-a8fe-4f57-a94f-d114f72249f7","ios":"levelo://app?vid=4c177e21-a8fe-4f57-a94f-d114f72249f7"},"vehicle_type_id":"4","last_reported":1773676512,"current_range_meters":36000,"station_id":"","pricing_plan_id":"cebpf4jnsgd1na2vs0mg"},{"bike_id":"5c99b0c9-5292-4b31-9a63-cd2f8d6b5291","system_id":"levelo_inurba_marseille","lat":43.26565,"lon":5.39012,"is_reserved":false,"is_disabled":false,"rental_uris":{"android":"levelo://app?vid=5c99b0c9-5292-4b31-9a63-cd2f8d6b5291","ios":"levelo://app?vid=5c99b0c9-5292-4b31-9a63-cd2f8d6b5291"},"vehicle_type_id":"4","last_reported":1773676512,"current_range_meters":10800,"station_id":"ce4bhe12rcd13ifvqf30","pricing_plan_id":"cebpf4jnsgd1na2vs0mg"},{"bike_id":"022b5c41-0403-42dc-b165-343ac95ee5ad","system_id":"levelo_inurba_marseille","lat":43.33026,"lon":5.39045,"is_reserved":false,"is_disabled":false,"rental_uris":{"android":"levelo://app?vid=022b5c41-0403-42dc-b165-343ac95ee5ad","ios":"levelo://app?vid=022b5c41-0403-42dc-b165-343ac95ee5ad"},"vehicle_type_id":"4","last_reported":1773676512,"current_range_meters":33600,"station_id":"ce4bhr92rcd13ifvqhrg","pricing_plan_id":"cebpf4jnsgd1na2vs0mg"},{"bike_id":"7dd0527d-b670-4edf-9073-e8f09a05690c","system_id":"levelo_inurba_marseille","lat":43.29922,"lon":5.36493,"is_reserved":false,"is_disabled":false,"rental_uris":{"android":"levelo://app?vid=7dd0527d-b670-4edf-9073-e8f09a05690c","ios":"levelo://app?vid=7dd0527d-b670-4edf-9073-e8f09a05690c"},"vehicle_type_id":"4","last_reported":1773676512,"current_range_meters":3600,"station_id":"ce4bgm92rcd13ifvqbr0","pricing_plan_id":"cebpf4jnsgd1na2vs0mg"},{"bike_id":"03b1b92a-d21f-4b09-ad20-c80e5eee47a1","system_id":"levelo_inurba_marseille","lat":43.29847,"lon":5.36275,"is_reserved":false,"is_disabled":false,"rental_uris":{"android":"levelo://app?vid=03b1b92a-d21f-4b09-ad20-c80e5eee47a1","ios":"levelo://app?vid=03b1b92a-d21f-4b09-ad20-c80e5eee47a1"},"vehicle_type_id":"4","last_reported":1773676512,"current_range_meters":38800,"station_id":"ce4bgpp2rcd13ifvqc3g","pricing_plan_id":"cebpf4jnsgd1na2vs0mg"},{"bike_id":"90006b8d-6aa9-4ebe-9082-e177c10b421a","system_id":"levelo_inurba_marseille","lat":43.31332,"lon":5.36941,"is_reserved":false,"is_disabled":false,"rental_uris":{"android":"levelo://app?vid=90006b8d-6aa9-4ebe-9082-e177c10b421a","ios":"levelo://app?vid=90006b8d-6aa9-4ebe-9082-e177c10b421a"},"vehicle_type_id":"4","last_reported":1773676512,"current_range_meters":36400,"station_id":"","pricing_plan_id":"cebpf4jnsgd1na2vs0mg"},{"bike_id":"584f7aa0-b582-45fa-adcb-d34128f4ce54","system_id":"levelo_inurba_marseille","lat":43.28102,"lon":5.40634,"is_reserved":false,"is_disabled":true,"rental_uris":{"android":"levelo://app?vid=584f7aa0-b582-45fa-adcb-d34128f4ce54","ios":"levelo://app?vid=584f7aa0-b582-45fa-adcb-d34128f4ce54"},"vehicle_type_id":"4","last_reported":1773676512,"current_range_meters":7200,"station_id":"","pricing_plan_id":"cebpf4jnsgd1na2vs0mg"},{"bike_id":"5624d4af-08a3-4ee8-862c-5819a4c971b9","system_id":"levelo_inurba_marseille","lat":43.25721,"lon":5.41111,"is_reserved":false,"is_disabled":false,"rental_uris":{"android":"levelo://app?vid=5624d4af-08a3-4ee8-862c-5819a4c971b9","ios":"levelo://app?vid=5624d4af-08a3-4ee8-862c-5819a4c971b9"},"vehicle_type_id":"4","last_reported":1773676512,"current_range_meters":32400,"station_id":"ce4bhkp2rcd13ifvqgd0","pricing_plan_id":"cebpf4jnsgd1na2vs0mg"},{"bike_id":"8ae3cd93-1df5-4c86-a3cd-ea1407ea9258","system_id":"levelo_inurba_marseille","lat":43.30732,"lon":5.42449,"is_reserved":false,"is_disabled":false,"rental_uris":{"android":"levelo://app?vid=8ae3cd93-1df5-4c86-a3cd-ea1407ea9258","ios":"levelo://app?vid=8ae3cd93-1df5-4c86-a3cd-ea1407ea9258"},"vehicle_type_id":"4","last_reported":1773676512,"current_range_meters":31200,"station_id":"st_cvj6ca6bvosntc0bfgr0","pricing_plan_id":"cebpf4jnsgd1na2vs0mg"},{"bike_id":"0bd699b8-0f51-4e7d-b635-e29484ca415b","system_id":"levelo_inurba_marseille","lat":43.25575,"lon":5.38229,"is_reserved":false,"is_disabled":false,"rental_uris":{"android":"levelo://app?vid=0bd699b8-0f51-4e7d-b635-e29484ca415b","ios":"levelo://app?vid=0bd699b8-0f51-4e7d-b635-e29484ca415b"},"vehicle_type_id":"4","last_reported":1773676512,"current_range_meters":18800,"station_id":"ce4bhih2rcd13ifvqfs0","pricing_plan_id":"cebpf4jnsgd1na2vs0mg"},{"bike_id":"a1a487e0-263f-4bcb-a083-313a46d262d6","system_id":"levelo_inurba_marseille","lat":43.29116,"lon":5.43276,"is_reserved":false,"is_disabled":true,"rental_uris":{"android":"levelo://app?vid=a1a487e0-263f-4bcb-a083-313a46d262d6","ios":"levelo://app?vid=a1a487e0-263f-4bcb-a083-313a46d262d6"},"vehicle_type_id":"4","last_reported":1773676512,"current_range_meters":21600,"station_id":"","pricing_plan_id":"cebpf4jnsgd1na2vs0mg"},{"bike_id":"80349c10-4722-47ae-a549-f9c542386094","system_id":"levelo_inurba_marseille","lat":43.30532,"lon":5.36525,"is_reserved":false,"is_disabled":false,"rental_uris":{"android":"levelo://app?vid=80349c10-4722-47ae-a549-f9c542386094","ios":"levelo://app?vid=80349c10-4722-47ae-a549-f9c542386094"},"vehicle_type_id":"4","last_reported":1773676512,"current_range_meters":39200,"station_id":"ce4bgs12rcd13ifvqcag","pricing_plan_id":"cebpf4jnsgd1na2vs0mg"},{"bike_id":"051734a3-cf95-4160-b28c-ea4716591623","system_id":"levelo_inurba_marseille","lat":43.27939,"lon":5.41046,"is_reserved":false,"is_disabled":false,"rental_uris":{"android":"levelo://app?vid=051734a3-cf95-4160-b28c-ea4716591623","ios":"levelo://app?vid=051734a3-cf95-4160-b28c-ea4716591623"},"vehicle_type_id":"4","last_reported":1773676512,"current_range_meters":27200,"station_id":"ce4bhnp2rcd13ifvqh0g","pricing_plan_id":"cebpf4jnsgd1na2vs0mg"},{"bike_id":"34c29263-4d2a-454a-aa2c-2286ec8657d6","system_id":"levelo_inurba_marseille","lat":43.290259,"lon":5.386501,"is_reserved":false,"is_disabled":true,"rental_uris":{"android":"levelo://app?vid=34c29263-4d2a-454a-aa2c-2286ec8657d6","ios":"levelo://app?vid=34c29263-4d2a-454a-aa2c-2286ec8657d6"},"vehicle_type_id":"4","last_reported":1773676512,"current_range_meters":400,"station_id":"ce4bh4p2rcd13ifvqe0g","pricing_plan_id":"cebpf4jnsgd1na2vs0mg"},{"bike_id":"ddd64a40-0275-4ca7-a97f-2eff5d3e514a","system_id":"levelo_inurba_marseille","lat":43.28458,"lon":5.48391,"is_reserved":false,"is_disabled":false,"rental_uris":{"android":"levelo://app?vid=ddd64a40-0275-4ca7-a97f-2eff5d3e514a","ios":"levelo://app?vid=ddd64a40-0275-4ca7-a97f-2eff5d3e514a"},"vehicle_type_id":"4","last_reported":1773676512,"current_range_meters":8800,"station_id":"","pricing_plan_id":"cebpf4jnsgd1na2vs0mg"},{"bike_id":"81467cca-3c71-4094-a5dc-2ce923c92b67","system_id":"levelo_inurba_marseille","lat":43.26683,"lon":5.38266,"is_reserved":false,"is_disabled":false,"rental_uris":{"android":"levelo://app?vid=81467cca-3c71-4094-a5dc-2ce923c92b67","ios":"levelo://app?vid=81467cca-3c71-4094-a5dc-2ce923c92b67"},"vehicle_type_id":"4","last_reported":1773676512,"current_range_meters":27200,"station_id":"ce4bhg92rcd13ifvqf90","pricing_plan_id":"cebpf4jnsgd1na2vs0mg"},{"bike_id":"f0752db4-9746-4f09-a991-9d3088a31eb9","system_id":"levelo_inurba_marseille","lat":43.27907,"lon":5.38007,"is_reserved":false,"is_disabled":false,"rental_uris":{"android":"levelo://app?vid=f0752db4-9746-4f09-a991-9d3088a31eb9","ios":"levelo://app?vid=f0752db4-9746-4f09-a991-9d3088a31eb9"},"vehicle_type_id":"4","last_reported":1773676512,"current_range_meters":29600,"station_id":"ce4bhf92rcd13ifvqf50","pricing_plan_id":"cebpf4jnsgd1na2vs0mg"},{"bike_id":"7459a8ce-4c42-4485-90ec-512304b48dd0","system_id":"levelo_inurba_marseille","lat":43.24149,"lon":5.39715,"is_reserved":false,"is_disabled":false,"rental_uris":{"android":"levelo://app?vid=7459a8ce-4c42-4485-90ec-512304b48dd0","ios":"levelo://app?vid=7459a8ce-4c42-4485-90ec-512304b48dd0"},"vehicle_type_id":"4","last_reported":1773676512,"current_range_meters":35200,"station_id":"ce4bhn12rcd13ifvqgpg","pricing_plan_id":"cebpf4jnsgd1na2vs0mg"},{"bike_id":"1a2ad8e0-25f4-4b1d-a268-792ddb756ae5","system_id":"levelo_inurba_marseille","lat":43.33543,"lon":5.37459,"is_reserved":false,"is_disabled":false,"rental_uris":{"android":"levelo://app?vid=1a2ad8e0-25f4-4b1d-a268-792ddb756ae5","ios":"levelo://app?vid=1a2ad8e0-25f4-4b1d-a268-792ddb756ae5"},"vehicle_type_id":"4","last_reported":1773676512,"current_range_meters":14400,"station_id":"st_d46tts09ee8s73dlu43g","pricing_plan_id":"cebpf4jnsgd1na2vs0mg"},{"bike_id":"5dea7ece-1d9b-471d-a08a-4a42d6f62761","system_id":"levelo_inurba_marseille","lat":43.2861,"lon":5.35105,"is_reserved":false,"is_disabled":false,"rental_uris":{"android":"levelo://app?vid=5dea7ece-1d9b-471d-a08a-4a42d6f62761","ios":"levelo://app?vid=5dea7ece-1d9b-471d-a08a-4a42d6f62761"},"vehicle_type_id":"4","last_reported":1773676512,"current_range_meters":35200,"station_id":"ce4bhch2rcd13ifvqeug","pricing_plan_id":"cebpf4jnsgd1na2vs0mg"},{"bike_id":"e5a797cb-e1fa-46f1-827d-4528129adf92","system_id":"levelo_inurba_marseille","lat":43.24649,"lon":5.38907,"is_reserved":false,"is_disabled":false,"rental_uris":{"android":"levelo://app?vid=e5a797cb-e1fa-46f1-827d-4528129adf92","ios":"levelo://app?vid=e5a797cb-e1fa-46f1-827d-4528129adf92"},"vehicle_type_id":"4","last_reported":1773676512,"current_range_meters":4800,"station_id":"ce4bhg12rcd13ifvqf60","pricing_plan_id":"cebpf4jnsgd1na2vs0mg"},{"bike_id":"61fedadd-30d2-46b0-ae90-959d0f95aa14","system_id":"levelo_inurba_marseille","lat":43.28427,"lon":5.39182,"is_reserved":false,"is_disabled":false,"rental_uris":{"android":"levelo://app?vid=61fedadd-30d2-46b0-ae90-959d0f95aa14","ios":"levelo://app?vid=61fedadd-30d2-46b0-ae90-959d0f95aa14"},"vehicle_type_id":"4","last_reported":1773676512,"current_range_meters":6800,"station_id":"ce4bhoh2rcd13ifvqh5g","pricing_plan_id":"cebpf4jnsgd1na2vs0mg"},{"bike_id":"d1141fb4-59b4-44f4-91cc-49a601f9de2f","system_id":"levelo_inurba_marseille","lat":43.25103,"lon":5.40325,"is_reserved":false,"is_disabled":false,"rental_uris":{"android":"levelo://app?vid=d1141fb4-59b4-44f4-91cc-49a601f9de2f","ios":"levelo://app?vid=d1141fb4-59b4-44f4-91cc-49a601f9de2f"},"vehicle_type_id":"4","last_reported":1773676512,"current_range_meters":10000,"station_id":"ce4bhlh2rcd13ifvqgig","pricing_plan_id":"cebpf4jnsgd1na2vs0mg"},{"bike_id":"d0a4ccca-bbc4-478a-a356-3a2283a6e360","system_id":"levelo_inurba_marseille","lat":43.25121,"lon":5.40354,"is_reserved":false,"is_disabled":false,"rental_uris":{"android":"levelo://app?vid=d0a4ccca-bbc4-478a-a356-3a2283a6e360","ios":"levelo://app?vid=d0a4ccca-bbc4-478a-a356-3a2283a6e360"},"vehicle_type_id":"4","last_reported":1773676512,"current_range_meters":19200,"station_id":"ce4bhlh2rcd13ifvqgig","pricing_plan_id":"cebpf4jnsgd1na2vs0mg"},{"bike_id":"0d9003bc-fe7c-415b-9609-eb9885b2805d","system_id":"levelo_inurba_marseille","lat":43.27334,"lon":5.39108,"is_reserved":false,"is_disabled":false,"rental_uris":{"android":"levelo://app?vid=0d9003bc-fe7c-415b-9609-eb9885b2805d","ios":"levelo://app?vid=0d9003bc-fe7c-415b-9609-eb9885b2805d"},"vehicle_type_id":"4","last_reported":1773676512,"current_range_meters":37600,"station_id":"ce4bhgp2rcd13ifvqfe0","pricing_plan_id":"cebpf4jnsgd1na2vs0mg"},{"bike_id":"789003e8-273b-4f9b-888e-85644805756b","system_id":"levelo_inurba_marseille","lat":43.3106,"lon":5.37169,"is_reserved":false,"is_disabled":false,"rental_uris":{"android":"levelo://app?vid=789003e8-273b-4f9b-888e-85644805756b","ios":"levelo://app?vid=789003e8-273b-4f9b-888e-85644805756b"},"vehicle_type_id":"4","last_reported":1773676512,"current_range_meters":34800,"station_id":"st_d4kl2rp97mjs73e7tdfg","pricing_plan_id":"cebpf4jnsgd1na2vs0mg"},{"bike_id":"fce7cbbb-7e40-4345-96fd-5af6a4f99936","system_id":"levelo_inurba_marseille","lat":43.238,"lon":5.3666,"is_reserved":false,"is_disabled":false,"rental_uris":{"android":"levelo://app?vid=fce7cbbb-7e40-4345-96fd-5af6a4f99936","ios":"levelo://app?vid=fce7cbbb-7e40-4345-96fd-5af6a4f99936"},"vehicle_type_id":"4","last_reported":1773676512,"current_range_meters":12000,"station_id":"st_d3nk18o9ro0c73en2l3g","pricing_plan_id":"cebpf4jnsgd1na2vs0mg"},{"bike_id":"389fde50-a832-4ded-94d2-0e3862ffe9b2","system_id":"levelo_inurba_marseille","lat":43.29262,"lon":5.38445,"is_reserved":false,"is_disabled":false,"rental_uris":{"android":"levelo://app?vid=389fde50-a832-4ded-94d2-0e3862ffe9b2","ios":"levelo://app?vid=389fde50-a832-4ded-94d2-0e3862ffe9b2"},"vehicle_type_id":"4","last_reported":1773676512,"current_range_meters":20800,"station_id":"ce4bh692rcd13ifvqea0","pricing_plan_id":"cebpf4jnsgd1na2vs0mg"},{"bike_id":"97e987fc-b17e-43f6-a2d4-2747034bcc0c","system_id":"levelo_inurba_marseille","lat":43.29314,"lon":5.37169,"is_reserved":false,"is_disabled":false,"rental_uris":{"android":"levelo://app?vid=97e987fc-b17e-43f6-a2d4-2747034bcc0c","ios":"levelo://app?vid=97e987fc-b17e-43f6-a2d4-2747034bcc0c"},"vehicle_type_id":"4","last_reported":1773676512,"current_range_meters":32000,"station_id":"ce4bgh92rcd13ifvqb40","pricing_plan_id":"cebpf4jnsgd1na2vs0mg"},{"bike_id":"e842dc60-ab62-4379-a0ed-030031db5b1e","system_id":"levelo_inurba_marseille","lat":43.21189,"lon":5.35068,"is_reserved":false,"is_disabled":false,"rental_uris":{"android":"levelo://app?vid=e842dc60-ab62-4379-a0ed-030031db5b1e","ios":"levelo://app?vid=e842dc60-ab62-4379-a0ed-030031db5b1e"},"vehicle_type_id":"4","last_reported":1773676512,"current_range_meters":10800,"station_id":"st_cvj6sg6p6f1abm77japg","pricing_plan_id":"cebpf4jnsgd1na2vs0mg"},{"bike_id":"70014854-acff-49ca-9046-c49e81b9ca34","system_id":"levelo_inurba_marseille","lat":43.21749,"lon":5.34598,"is_reserved":false,"is_disabled":false,"rental_uris":{"android":"levelo://app?vid=70014854-acff-49ca-9046-c49e81b9ca34","ios":"levelo://app?vid=70014854-acff-49ca-9046-c49e81b9ca34"},"vehicle_type_id":"4","last_reported":1773676512,"current_range_meters":25600,"station_id":"st_cvj6r9ubvosntc0bgbag","pricing_plan_id":"cebpf4jnsgd1na2vs0mg"},{"bike_id":"6b58c736-8eab-4f3b-9ba9-b34b79d2fcdd","system_id":"levelo_inurba_marseille","lat":43.2825,"lon":5.3507,"is_reserved":false,"is_disabled":false,"rental_uris":{"android":"levelo://app?vid=6b58c736-8eab-4f3b-9ba9-b34b79d2fcdd","ios":"levelo://app?vid=6b58c736-8eab-4f3b-9ba9-b34b79d2fcdd"},"vehicle_type_id":"4","last_reported":1773676512,"current_range_meters":38000,"station_id":"ce4bhbp2rcd13ifvqerg","pricing_plan_id":"cebpf4jnsgd1na2vs0mg"},{"bike_id":"68e69a4b-f7b1-469b-a0e7-9f466db0bf36","system_id":"levelo_inurba_marseille","lat":43.30541,"lon":5.36555,"is_reserved":false,"is_disabled":false,"rental_uris":{"android":"levelo://app?vid=68e69a4b-f7b1-469b-a0e7-9f466db0bf36","ios":"levelo://app?vid=68e69a4b-f7b1-469b-a0e7-9f466db0bf36"},"vehicle_type_id":"4","last_reported":1773676512,"current_range_meters":36800,"station_id":"ce4bgs12rcd13ifvqcag","pricing_plan_id":"cebpf4jnsgd1na2vs0mg"},{"bike_id":"dd262ad1-703d-4925-a9a5-ca312081395b","system_id":"levelo_inurba_marseille","lat":43.31515,"lon":5.37298,"is_reserved":false,"is_disabled":true,"rental_uris":{"android":"levelo://app?vid=dd262ad1-703d-4925-a9a5-ca312081395b","ios":"levelo://app?vid=dd262ad1-703d-4925-a9a5-ca312081395b"},"vehicle_type_id":"4","last_reported":1773676512,"current_range_meters":33600,"station_id":"ce4bgt12rcd13ifvqcd0","pricing_plan_id":"cebpf4jnsgd1na2vs0mg"},{"bike_id":"177dde7b-d2de-4c6f-a770-315c66758692","system_id":"levelo_inurba_marseille","lat":43.28479,"lon":5.48389,"is_reserved":false,"is_disabled":false,"rental_uris":{"android":"levelo://app?vid=177dde7b-d2de-4c6f-a770-315c66758692","ios":"levelo://app?vid=177dde7b-d2de-4c6f-a770-315c66758692"},"vehicle_type_id":"4","last_reported":1773676512,"current_range_meters":32000,"station_id":"","pricing_plan_id":"cebpf4jnsgd1na2vs0mg"},{"bike_id":"6f54e01c-8e88-4d8b-ae33-a3d8388a376b","system_id":"levelo_inurba_marseille","lat":43.24997,"lon":5.38919,"is_reserved":false,"is_disabled":false,"rental_uris":{"android":"levelo://app?vid=6f54e01c-8e88-4d8b-ae33-a3d8388a376b","ios":"levelo://app?vid=6f54e01c-8e88-4d8b-ae33-a3d8388a376b"},"vehicle_type_id":"4","last_reported":1773676512,"current_range_meters":24800,"station_id":"ce4bhgp2rcd13ifvqfd0","pricing_plan_id":"cebpf4jnsgd1na2vs0mg"},{"bike_id":"1698ed0c-acaa-4deb-b8bb-e68d5d5bdac3","system_id":"levelo_inurba_marseille","lat":43.27206,"lon":5.39181,"is_reserved":false,"is_disabled":false,"rental_uris":{"android":"levelo://app?vid=1698ed0c-acaa-4deb-b8bb-e68d5d5bdac3","ios":"levelo://app?vid=1698ed0c-acaa-4deb-b8bb-e68d5d5bdac3"},"vehicle_type_id":"4","last_reported":1773676512,"current_range_meters":17600,"station_id":"ce4bhhp2rcd13ifvqfm0","pricing_plan_id":"cebpf4jnsgd1na2vs0mg"},{"bike_id":"1741325f-8422-4356-83e0-b5761d6e485a","system_id":"levelo_inurba_marseille","lat":43.31342,"lon":5.36717,"is_reserved":false,"is_disabled":false,"rental_uris":{"android":"levelo://app?vid=1741325f-8422-4356-83e0-b5761d6e485a","ios":"levelo://app?vid=1741325f-8422-4356-83e0-b5761d6e485a"},"vehicle_type_id":"4","last_reported":1773676512,"current_range_meters":38800,"station_id":"ce4bgr92rcd13ifvqc6g","pricing_plan_id":"cebpf4jnsgd1na2vs0mg"},{"bike_id":"43918b9b-ff13-4bbb-ac03-aa8307d32985","system_id":"levelo_inurba_marseille","lat":43.23192,"lon":5.35544,"is_reserved":false,"is_disabled":false,"rental_uris":{"android":"levelo://app?vid=43918b9b-ff13-4bbb-ac03-aa8307d32985","ios":"levelo://app?vid=43918b9b-ff13-4bbb-ac03-aa8307d32985"},"vehicle_type_id":"4","last_reported":1773676512,"current_range_meters":28000,"station_id":"ce4bhu92rcd13ifvqi70","pricing_plan_id":"cebpf4jnsgd1na2vs0mg"},{"bike_id":"f4b7fd6d-fc43-40a0-9444-97cda83baecc","system_id":"levelo_inurba_marseille","lat":43.28467,"lon":5.48379,"is_reserved":false,"is_disabled":false,"rental_uris":{"android":"levelo://app?vid=f4b7fd6d-fc43-40a0-9444-97cda83baecc","ios":"levelo://app?vid=f4b7fd6d-fc43-40a0-9444-97cda83baecc"},"vehicle_type_id":"4","last_reported":1773676512,"current_range_meters":25200,"station_id":"","pricing_plan_id":"cebpf4jnsgd1na2vs0mg"},{"bike_id":"ad5d6575-373a-4626-b109-e5e54a834cdc","system_id":"levelo_inurba_marseille","lat":43.30918,"lon":5.4014,"is_reserved":false,"is_disabled":true,"rental_uris":{"android":"levelo://app?vid=ad5d6575-373a-4626-b109-e5e54a834cdc","ios":"levelo://app?vid=ad5d6575-373a-4626-b109-e5e54a834cdc"},"vehicle_type_id":"4","last_reported":1773676512,"current_range_meters":28000,"station_id":"ce4bgvp2rcd13ifvqct0","pricing_plan_id":"cebpf4jnsgd1na2vs0mg"},{"bike_id":"05a5bb77-5037-4830-9763-68fa9af8f814","system_id":"levelo_inurba_marseille","lat":43.30573,"lon":5.37237,"is_reserved":false,"is_disabled":false,"rental_uris":{"android":"levelo://app?vid=05a5bb77-5037-4830-9763-68fa9af8f814","ios":"levelo://app?vid=05a5bb77-5037-4830-9763-68fa9af8f814"},"vehicle_type_id":"4","last_reported":1773676512,"current_range_meters":35200,"station_id":"ce4bgqh2rcd13ifvqc4g","pricing_plan_id":"cebpf4jnsgd1na2vs0mg"},{"bike_id":"1f8a6399-a9dc-4047-8569-17be69183511","system_id":"levelo_inurba_marseille","lat":43.29851,"lon":5.36279,"is_reserved":false,"is_disabled":false,"rental_uris":{"android":"levelo://app?vid=1f8a6399-a9dc-4047-8569-17be69183511","ios":"levelo://app?vid=1f8a6399-a9dc-4047-8569-17be69183511"},"vehicle_type_id":"4","last_reported":1773676512,"current_range_meters":36800,"station_id":"ce4bgpp2rcd13ifvqc3g","pricing_plan_id":"cebpf4jnsgd1na2vs0mg"},{"bike_id":"8cf11af3-a06c-4250-b156-2ebe886a2214","system_id":"levelo_inurba_marseille","lat":43.23135,"lon":5.43716,"is_reserved":false,"is_disabled":false,"rental_uris":{"android":"levelo://app?vid=8cf11af3-a06c-4250-b156-2ebe886a2214","ios":"levelo://app?vid=8cf11af3-a06c-4250-b156-2ebe886a2214"},"vehicle_type_id":"4","last_reported":1773676512,"current_range_meters":20000,"station_id":"ce4bhmp2rcd13ifvqgog","pricing_plan_id":"cebpf4jnsgd1na2vs0mg"},{"bike_id":"47437dbd-a43a-491e-9da9-be7faee139eb","system_id":"levelo_inurba_marseille","lat":43.32475,"lon":5.36546,"is_reserved":false,"is_disabled":false,"rental_uris":{"android":"levelo://app?vid=47437dbd-a43a-491e-9da9-be7faee139eb","ios":"levelo://app?vid=47437dbd-a43a-491e-9da9-be7faee139eb"},"vehicle_type_id":"4","last_reported":1773676512,"current_range_meters":39200,"station_id":"ce4bhs12rcd13ifvqhvg","pricing_plan_id":"cebpf4jnsgd1na2vs0mg"},{"bike_id":"34793398-d475-454d-a8a8-8a7ce1267134","system_id":"levelo_inurba_marseille","lat":43.28415,"lon":5.39173,"is_reserved":false,"is_disabled":false,"rental_uris":{"android":"levelo://app?vid=34793398-d475-454d-a8a8-8a7ce1267134","ios":"levelo://app?vid=34793398-d475-454d-a8a8-8a7ce1267134"},"vehicle_type_id":"4","last_reported":1773676512,"current_range_meters":18000,"station_id":"ce4bhoh2rcd13ifvqh5g","pricing_plan_id":"cebpf4jnsgd1na2vs0mg"},{"bike_id":"a03281cc-e1d7-43e9-80e1-61c244daf7ac","system_id":"levelo_inurba_marseille","lat":43.303224,"lon":5.404379,"is_reserved":false,"is_disabled":true,"rental_uris":{"android":"levelo://app?vid=a03281cc-e1d7-43e9-80e1-61c244daf7ac","ios":"levelo://app?vid=a03281cc-e1d7-43e9-80e1-61c244daf7ac"},"vehicle_type_id":"4","last_reported":1773676512,"current_range_meters":0,"station_id":"ce4bh012rcd13ifvqd10","pricing_plan_id":"cebpf4jnsgd1na2vs0mg"},{"bike_id":"49fc7284-9e84-4e41-b11a-a6f445433570","system_id":"levelo_inurba_marseille","lat":43.28074,"lon":5.39645,"is_reserved":false,"is_disabled":true,"rental_uris":{"android":"levelo://app?vid=49fc7284-9e84-4e41-b11a-a6f445433570","ios":"levelo://app?vid=49fc7284-9e84-4e41-b11a-a6f445433570"},"vehicle_type_id":"4","last_reported":1773676512,"current_range_meters":31200,"station_id":"ce4bho12rcd13ifvqh2g","pricing_plan_id":"cebpf4jnsgd1na2vs0mg"},{"bike_id":"3850945a-02e3-457e-bddc-67f8e7b87bce","system_id":"levelo_inurba_marseille","lat":43.29294,"lon":5.40897,"is_reserved":false,"is_disabled":false,"rental_uris":{"android":"levelo://app?vid=3850945a-02e3-457e-bddc-67f8e7b87bce","ios":"levelo://app?vid=3850945a-02e3-457e-bddc-67f8e7b87bce"},"vehicle_type_id":"4","last_reported":1773676512,"current_range_meters":36400,"station_id":"ce4bh192rcd13ifvqdc0","pricing_plan_id":"cebpf4jnsgd1na2vs0mg"},{"bike_id":"4f8a8f64-0cea-447a-a6cb-ea09d24d6c0e","system_id":"levelo_inurba_marseille","lat":43.22561,"lon":5.41623,"is_reserved":false,"is_disabled":false,"rental_uris":{"android":"levelo://app?vid=4f8a8f64-0cea-447a-a6cb-ea09d24d6c0e","ios":"levelo://app?vid=4f8a8f64-0cea-447a-a6cb-ea09d24d6c0e"},"vehicle_type_id":"4","last_reported":1773676512,"current_range_meters":35600,"station_id":"st_d2o4gvlbi1j2169b742g","pricing_plan_id":"cebpf4jnsgd1na2vs0mg"},{"bike_id":"b31afc95-1b64-485e-b477-94147f8bf6a3","system_id":"levelo_inurba_marseille","lat":43.29091,"lon":5.38146,"is_reserved":false,"is_disabled":false,"rental_uris":{"android":"levelo://app?vid=b31afc95-1b64-485e-b477-94147f8bf6a3","ios":"levelo://app?vid=b31afc95-1b64-485e-b477-94147f8bf6a3"},"vehicle_type_id":"4","last_reported":1773676512,"current_range_meters":39200,"station_id":"ce4bh512rcd13ifvqe2g","pricing_plan_id":"cebpf4jnsgd1na2vs0mg"},{"bike_id":"1f487b11-fe62-48c6-bc95-ef78a3a9fd4e","system_id":"levelo_inurba_marseille","lat":43.30779,"lon":5.42479,"is_reserved":false,"is_disabled":false,"rental_uris":{"android":"levelo://app?vid=1f487b11-fe62-48c6-bc95-ef78a3a9fd4e","ios":"levelo://app?vid=1f487b11-fe62-48c6-bc95-ef78a3a9fd4e"},"vehicle_type_id":"4","last_reported":1773676512,"current_range_meters":38800,"station_id":"","pricing_plan_id":"cebpf4jnsgd1na2vs0mg"},{"bike_id":"fae7e927-24da-4d38-910e-c7296d949fc4","system_id":"levelo_inurba_marseille","lat":43.31354,"lon":5.36701,"is_reserved":false,"is_disabled":false,"rental_uris":{"android":"levelo://app?vid=fae7e927-24da-4d38-910e-c7296d949fc4","ios":"levelo://app?vid=fae7e927-24da-4d38-910e-c7296d949fc4"},"vehicle_type_id":"4","last_reported":1773676512,"current_range_meters":30400,"station_id":"ce4bgr92rcd13ifvqc6g","pricing_plan_id":"cebpf4jnsgd1na2vs0mg"},{"bike_id":"34257e2b-5da9-4af1-bdd7-664aa8db6834","system_id":"levelo_inurba_marseille","lat":43.23207,"lon":5.3556,"is_reserved":false,"is_disabled":false,"rental_uris":{"android":"levelo://app?vid=34257e2b-5da9-4af1-bdd7-664aa8db6834","ios":"levelo://app?vid=34257e2b-5da9-4af1-bdd7-664aa8db6834"},"vehicle_type_id":"4","last_reported":1773676512,"current_range_meters":34000,"station_id":"ce4bhu92rcd13ifvqi70","pricing_plan_id":"cebpf4jnsgd1na2vs0mg"},{"bike_id":"288bcbf7-3a52-4b2b-9af2-61f8cf367965","system_id":"levelo_inurba_marseille","lat":43.25739,"lon":5.4113,"is_reserved":false,"is_disabled":false,"rental_uris":{"android":"levelo://app?vid=288bcbf7-3a52-4b2b-9af2-61f8cf367965","ios":"levelo://app?vid=288bcbf7-3a52-4b2b-9af2-61f8cf367965"},"vehicle_type_id":"4","last_reported":1773676512,"current_range_meters":33600,"station_id":"ce4bhkp2rcd13ifvqgd0","pricing_plan_id":"cebpf4jnsgd1na2vs0mg"},{"bike_id":"fec66160-eca4-4055-a135-94a62af705e8","system_id":"levelo_inurba_marseille","lat":43.24996,"lon":5.38949,"is_reserved":false,"is_disabled":false,"rental_uris":{"android":"levelo://app?vid=fec66160-eca4-4055-a135-94a62af705e8","ios":"levelo://app?vid=fec66160-eca4-4055-a135-94a62af705e8"},"vehicle_type_id":"4","last_reported":1773676512,"current_range_meters":8400,"station_id":"ce4bhgp2rcd13ifvqfd0","pricing_plan_id":"cebpf4jnsgd1na2vs0mg"},{"bike_id":"491cd09c-e0c2-44f1-852f-8525d428457d","system_id":"levelo_inurba_marseille","lat":43.3109,"lon":5.42434,"is_reserved":false,"is_disabled":false,"rental_uris":{"android":"levelo://app?vid=491cd09c-e0c2-44f1-852f-8525d428457d","ios":"levelo://app?vid=491cd09c-e0c2-44f1-852f-8525d428457d"},"vehicle_type_id":"4","last_reported":1773676512,"current_range_meters":21600,"station_id":"ce4bhp92rcd13ifvqhag","pricing_plan_id":"cebpf4jnsgd1na2vs0mg"},{"bike_id":"ec45625b-9d4d-42ce-b6fd-7e3d770c9bbb","system_id":"levelo_inurba_marseille","lat":43.30264,"lon":5.40085,"is_reserved":false,"is_disabled":false,"rental_uris":{"android":"levelo://app?vid=ec45625b-9d4d-42ce-b6fd-7e3d770c9bbb","ios":"levelo://app?vid=ec45625b-9d4d-42ce-b6fd-7e3d770c9bbb"},"vehicle_type_id":"4","last_reported":1773676512,"current_range_meters":26800,"station_id":"ce4bgvh2rcd13ifvqcs0","pricing_plan_id":"cebpf4jnsgd1na2vs0mg"},{"bike_id":"8efb579a-a563-4156-bc48-a4542721ceab","system_id":"levelo_inurba_marseille","lat":43.23196,"lon":5.3554,"is_reserved":false,"is_disabled":false,"rental_uris":{"android":"levelo://app?vid=8efb579a-a563-4156-bc48-a4542721ceab","ios":"levelo://app?vid=8efb579a-a563-4156-bc48-a4542721ceab"},"vehicle_type_id":"4","last_reported":1773676512,"current_range_meters":16800,"station_id":"ce4bhu92rcd13ifvqi70","pricing_plan_id":"cebpf4jnsgd1na2vs0mg"},{"bike_id":"067111e1-87af-4e75-b8ed-7f42a447af4d","system_id":"levelo_inurba_marseille","lat":43.26943,"lon":5.40246,"is_reserved":false,"is_disabled":false,"rental_uris":{"android":"levelo://app?vid=067111e1-87af-4e75-b8ed-7f42a447af4d","ios":"levelo://app?vid=067111e1-87af-4e75-b8ed-7f42a447af4d"},"vehicle_type_id":"4","last_reported":1773676512,"current_range_meters":39200,"station_id":"cjm6bp8fraef2m0cb0m0","pricing_plan_id":"cebpf4jnsgd1na2vs0mg"},{"bike_id":"9c528212-0db7-442e-98cb-d9233c05e6e1","system_id":"levelo_inurba_marseille","lat":43.29959,"lon":5.41327,"is_reserved":false,"is_disabled":false,"rental_uris":{"android":"levelo://app?vid=9c528212-0db7-442e-98cb-d9233c05e6e1","ios":"levelo://app?vid=9c528212-0db7-442e-98cb-d9233c05e6e1"},"vehicle_type_id":"4","last_reported":1773676512,"current_range_meters":38400,"station_id":"ce4bhp12rcd13ifvqh9g","pricing_plan_id":"cebpf4jnsgd1na2vs0mg"},{"bike_id":"e59ffb01-b028-44ab-a5e5-5d8f6dba3aee","system_id":"levelo_inurba_marseille","lat":43.29799,"lon":5.37074,"is_reserved":false,"is_disabled":false,"rental_uris":{"android":"levelo://app?vid=e59ffb01-b028-44ab-a5e5-5d8f6dba3aee","ios":"levelo://app?vid=e59ffb01-b028-44ab-a5e5-5d8f6dba3aee"},"vehicle_type_id":"4","last_reported":1773676512,"current_range_meters":38000,"station_id":"ce4bgop2rcd13ifvqc1g","pricing_plan_id":"cebpf4jnsgd1na2vs0mg"},{"bike_id":"f10523e5-8852-4b92-a3d2-5f484309f0c9","system_id":"levelo_inurba_marseille","lat":43.30405,"lon":5.42455,"is_reserved":false,"is_disabled":false,"rental_uris":{"android":"levelo://app?vid=f10523e5-8852-4b92-a3d2-5f484309f0c9","ios":"levelo://app?vid=f10523e5-8852-4b92-a3d2-5f484309f0c9"},"vehicle_type_id":"4","last_reported":1773676512,"current_range_meters":10000,"station_id":"ce4bhoh2rcd13ifvqh6g","pricing_plan_id":"cebpf4jnsgd1na2vs0mg"},{"bike_id":"ade1d7aa-8d5f-45bd-adf3-7ab026b96602","system_id":"levelo_inurba_marseille","lat":43.28271,"lon":5.35059,"is_reserved":false,"is_disabled":false,"rental_uris":{"android":"levelo://app?vid=ade1d7aa-8d5f-45bd-adf3-7ab026b96602","ios":"levelo://app?vid=ade1d7aa-8d5f-45bd-adf3-7ab026b96602"},"vehicle_type_id":"4","last_reported":1773676512,"current_range_meters":39200,"station_id":"ce4bhbp2rcd13ifvqerg","pricing_plan_id":"cebpf4jnsgd1na2vs0mg"},{"bike_id":"eb1d1e5d-c035-4be2-ab4f-714082cc667f","system_id":"levelo_inurba_marseille","lat":43.25105,"lon":5.39525,"is_reserved":false,"is_disabled":false,"rental_uris":{"android":"levelo://app?vid=eb1d1e5d-c035-4be2-ab4f-714082cc667f","ios":"levelo://app?vid=eb1d1e5d-c035-4be2-ab4f-714082cc667f"},"vehicle_type_id":"4","last_reported":1773676512,"current_range_meters":17600,"station_id":"ce4bhm12rcd13ifvqgkg","pricing_plan_id":"cebpf4jnsgd1na2vs0mg"},{"bike_id":"cf3d27ef-91c6-429a-962e-d10a32a01938","system_id":"levelo_inurba_marseille","lat":43.29809,"lon":5.44064,"is_reserved":false,"is_disabled":false,"rental_uris":{"android":"levelo://app?vid=cf3d27ef-91c6-429a-962e-d10a32a01938","ios":"levelo://app?vid=cf3d27ef-91c6-429a-962e-d10a32a01938"},"vehicle_type_id":"4","last_reported":1773676512,"current_range_meters":8400,"station_id":"st_d3jp68qikq2c7381ktn0","pricing_plan_id":"cebpf4jnsgd1na2vs0mg"},{"bike_id":"6d0a1d1d-62d9-4b05-b15c-9b1404f11361","system_id":"levelo_inurba_marseille","lat":43.25557,"lon":5.37657,"is_reserved":false,"is_disabled":false,"rental_uris":{"android":"levelo://app?vid=6d0a1d1d-62d9-4b05-b15c-9b1404f11361","ios":"levelo://app?vid=6d0a1d1d-62d9-4b05-b15c-9b1404f11361"},"vehicle_type_id":"4","last_reported":1773676512,"current_range_meters":36800,"station_id":"ce4bhh12rcd13ifvqff0","pricing_plan_id":"cebpf4jnsgd1na2vs0mg"},{"bike_id":"ff3c80d4-6915-439d-8d4f-2189798176f6","system_id":"levelo_inurba_marseille","lat":43.29929,"lon":5.36542,"is_reserved":false,"is_disabled":false,"rental_uris":{"android":"levelo://app?vid=ff3c80d4-6915-439d-8d4f-2189798176f6","ios":"levelo://app?vid=ff3c80d4-6915-439d-8d4f-2189798176f6"},"vehicle_type_id":"4","last_reported":1773676512,"current_range_meters":8400,"station_id":"ce4bgm92rcd13ifvqbr0","pricing_plan_id":"cebpf4jnsgd1na2vs0mg"},{"bike_id":"1fc1c4a6-4b47-4a80-9c5a-da29ffdeeb8a","system_id":"levelo_inurba_marseille","lat":43.28269,"lon":5.35048,"is_reserved":false,"is_disabled":false,"rental_uris":{"android":"levelo://app?vid=1fc1c4a6-4b47-4a80-9c5a-da29ffdeeb8a","ios":"levelo://app?vid=1fc1c4a6-4b47-4a80-9c5a-da29ffdeeb8a"},"vehicle_type_id":"4","last_reported":1773676512,"current_range_meters":6400,"station_id":"ce4bhbp2rcd13ifvqerg","pricing_plan_id":"cebpf4jnsgd1na2vs0mg"},{"bike_id":"390d8baa-647f-4540-8e64-b64690eb893d","system_id":"levelo_inurba_marseille","lat":43.30318,"lon":5.36895,"is_reserved":false,"is_disabled":false,"rental_uris":{"android":"levelo://app?vid=390d8baa-647f-4540-8e64-b64690eb893d","ios":"levelo://app?vid=390d8baa-647f-4540-8e64-b64690eb893d"},"vehicle_type_id":"4","last_reported":1773676512,"current_range_meters":39200,"station_id":"ce4bgqh2rcd13ifvqc5g","pricing_plan_id":"cebpf4jnsgd1na2vs0mg"},{"bike_id":"62900806-aa63-4722-91f9-2f13ab38bea0","system_id":"levelo_inurba_marseille","lat":43.29197,"lon":5.35798,"is_reserved":false,"is_disabled":false,"rental_uris":{"android":"levelo://app?vid=62900806-aa63-4722-91f9-2f13ab38bea0","ios":"levelo://app?vid=62900806-aa63-4722-91f9-2f13ab38bea0"},"vehicle_type_id":"4","last_reported":1773676512,"current_range_meters":24000,"station_id":"ce4bhb12rcd13ifvqel0","pricing_plan_id":"cebpf4jnsgd1na2vs0mg"},{"bike_id":"88bd1de4-947e-43e7-996f-b3a6c434223c","system_id":"levelo_inurba_marseille","lat":43.25827,"lon":5.39454,"is_reserved":false,"is_disabled":true,"rental_uris":{"android":"levelo://app?vid=88bd1de4-947e-43e7-996f-b3a6c434223c","ios":"levelo://app?vid=88bd1de4-947e-43e7-996f-b3a6c434223c"},"vehicle_type_id":"4","last_reported":1773676512,"current_range_meters":32800,"station_id":"ce4bhip2rcd13ifvqft0","pricing_plan_id":"cebpf4jnsgd1na2vs0mg"},{"bike_id":"05f50eb5-8d59-44ce-ba20-2d5c1a8a4c7b","system_id":"levelo_inurba_marseille","lat":43.31738,"lon":5.42386,"is_reserved":false,"is_disabled":false,"rental_uris":{"android":"levelo://app?vid=05f50eb5-8d59-44ce-ba20-2d5c1a8a4c7b","ios":"levelo://app?vid=05f50eb5-8d59-44ce-ba20-2d5c1a8a4c7b"},"vehicle_type_id":"4","last_reported":1773676512,"current_range_meters":17200,"station_id":"ce4bhp92rcd13ifvqhbg","pricing_plan_id":"cebpf4jnsgd1na2vs0mg"},{"bike_id":"fb32a1c0-e487-43ab-b761-dcce914aad54","system_id":"levelo_inurba_marseille","lat":43.25105,"lon":5.40321,"is_reserved":false,"is_disabled":false,"rental_uris":{"android":"levelo://app?vid=fb32a1c0-e487-43ab-b761-dcce914aad54","ios":"levelo://app?vid=fb32a1c0-e487-43ab-b761-dcce914aad54"},"vehicle_type_id":"4","last_reported":1773676512,"current_range_meters":39200,"station_id":"ce4bhlh2rcd13ifvqgig","pricing_plan_id":"cebpf4jnsgd1na2vs0mg"},{"bike_id":"6f6bef33-b321-44fb-86c4-93f3b6eeb606","system_id":"levelo_inurba_marseille","lat":43.27563,"lon":5.38418,"is_reserved":false,"is_disabled":false,"rental_uris":{"android":"levelo://app?vid=6f6bef33-b321-44fb-86c4-93f3b6eeb606","ios":"levelo://app?vid=6f6bef33-b321-44fb-86c4-93f3b6eeb606"},"vehicle_type_id":"4","last_reported":1773676512,"current_range_meters":34000,"station_id":"ce4bhh92rcd13ifvqfi0","pricing_plan_id":"cebpf4jnsgd1na2vs0mg"},{"bike_id":"cfbbae9e-650f-48ab-92e2-75d0f7cb2be9","system_id":"levelo_inurba_marseille","lat":43.30529,"lon":5.36526,"is_reserved":false,"is_disabled":false,"rental_uris":{"android":"levelo://app?vid=cfbbae9e-650f-48ab-92e2-75d0f7cb2be9","ios":"levelo://app?vid=cfbbae9e-650f-48ab-92e2-75d0f7cb2be9"},"vehicle_type_id":"4","last_reported":1773676512,"current_range_meters":39200,"station_id":"ce4bgs12rcd13ifvqcag","pricing_plan_id":"cebpf4jnsgd1na2vs0mg"},{"bike_id":"162c6b27-e1f2-425f-996a-2307bdd30f28","system_id":"levelo_inurba_marseille","lat":43.29594,"lon":5.36756,"is_reserved":false,"is_disabled":false,"rental_uris":{"android":"levelo://app?vid=162c6b27-e1f2-425f-996a-2307bdd30f28","ios":"levelo://app?vid=162c6b27-e1f2-425f-996a-2307bdd30f28"},"vehicle_type_id":"4","last_reported":1773676512,"current_range_meters":38000,"station_id":"ce4bgph2rcd13ifvqc2g","pricing_plan_id":"cebpf4jnsgd1na2vs0mg"},{"bike_id":"52b73382-91ce-45bb-9aca-7b5331ec1721","system_id":"levelo_inurba_marseille","lat":43.27919,"lon":5.39592,"is_reserved":false,"is_disabled":false,"rental_uris":{"android":"levelo://app?vid=52b73382-91ce-45bb-9aca-7b5331ec1721","ios":"levelo://app?vid=52b73382-91ce-45bb-9aca-7b5331ec1721"},"vehicle_type_id":"4","last_reported":1773676512,"current_range_meters":29600,"station_id":"ce4bhf92rcd13ifvqf40","pricing_plan_id":"cebpf4jnsgd1na2vs0mg"},{"bike_id":"e2098bbb-5ace-4a72-920f-fe2cf19bc462","system_id":"levelo_inurba_marseille","lat":43.28141,"lon":5.42648,"is_reserved":false,"is_disabled":false,"rental_uris":{"android":"levelo://app?vid=e2098bbb-5ace-4a72-920f-fe2cf19bc462","ios":"levelo://app?vid=e2098bbb-5ace-4a72-920f-fe2cf19bc462"},"vehicle_type_id":"4","last_reported":1773676512,"current_range_meters":39200,"station_id":"ce4bhnh2rcd13ifvqgug","pricing_plan_id":"cebpf4jnsgd1na2vs0mg"},{"bike_id":"58f111c3-d4d8-401b-b1de-be436e4b63d6","system_id":"levelo_inurba_marseille","lat":43.23185,"lon":5.3999,"is_reserved":false,"is_disabled":false,"rental_uris":{"android":"levelo://app?vid=58f111c3-d4d8-401b-b1de-be436e4b63d6","ios":"levelo://app?vid=58f111c3-d4d8-401b-b1de-be436e4b63d6"},"vehicle_type_id":"4","last_reported":1773676512,"current_range_meters":28800,"station_id":"ce4bhn12rcd13ifvqgqg","pricing_plan_id":"cebpf4jnsgd1na2vs0mg"},{"bike_id":"e6d9e185-de29-413a-8517-3942df1a652a","system_id":"levelo_inurba_marseille","lat":43.29858,"lon":5.36286,"is_reserved":false,"is_disabled":false,"rental_uris":{"android":"levelo://app?vid=e6d9e185-de29-413a-8517-3942df1a652a","ios":"levelo://app?vid=e6d9e185-de29-413a-8517-3942df1a652a"},"vehicle_type_id":"4","last_reported":1773676512,"current_range_meters":40000,"station_id":"ce4bgpp2rcd13ifvqc3g","pricing_plan_id":"cebpf4jnsgd1na2vs0mg"},{"bike_id":"030f3bd3-fcea-4697-96e6-37aa7767c4b0","system_id":"levelo_inurba_marseille","lat":43.30204,"lon":5.39466,"is_reserved":false,"is_disabled":false,"rental_uris":{"android":"levelo://app?vid=030f3bd3-fcea-4697-96e6-37aa7767c4b0","ios":"levelo://app?vid=030f3bd3-fcea-4697-96e6-37aa7767c4b0"},"vehicle_type_id":"4","last_reported":1773676512,"current_range_meters":11600,"station_id":"ce4bh0p2rcd13ifvqd70","pricing_plan_id":"cebpf4jnsgd1na2vs0mg"},{"bike_id":"0e5cb9c3-ce79-4605-a28b-e13a4951a12b","system_id":"levelo_inurba_marseille","lat":43.28024,"lon":5.36944,"is_reserved":false,"is_disabled":false,"rental_uris":{"android":"levelo://app?vid=0e5cb9c3-ce79-4605-a28b-e13a4951a12b","ios":"levelo://app?vid=0e5cb9c3-ce79-4605-a28b-e13a4951a12b"},"vehicle_type_id":"4","last_reported":1773676512,"current_range_meters":18800,"station_id":"ce4bha12rcd13ifvqef0","pricing_plan_id":"cebpf4jnsgd1na2vs0mg"},{"bike_id":"06a2c190-9df1-4d9a-a754-d95897cd6f4c","system_id":"levelo_inurba_marseille","lat":43.29,"lon":5.3561,"is_reserved":false,"is_disabled":false,"rental_uris":{"android":"levelo://app?vid=06a2c190-9df1-4d9a-a754-d95897cd6f4c","ios":"levelo://app?vid=06a2c190-9df1-4d9a-a754-d95897cd6f4c"},"vehicle_type_id":"4","last_reported":1773676512,"current_range_meters":30800,"station_id":"ce4bhb92rcd13ifvqen0","pricing_plan_id":"cebpf4jnsgd1na2vs0mg"},{"bike_id":"ffd2aa79-124b-40e3-b74b-93a25fcdb83f","system_id":"levelo_inurba_marseille","lat":43.2319,"lon":5.39977,"is_reserved":false,"is_disabled":false,"rental_uris":{"android":"levelo://app?vid=ffd2aa79-124b-40e3-b74b-93a25fcdb83f","ios":"levelo://app?vid=ffd2aa79-124b-40e3-b74b-93a25fcdb83f"},"vehicle_type_id":"4","last_reported":1773676512,"current_range_meters":26000,"station_id":"ce4bhn12rcd13ifvqgqg","pricing_plan_id":"cebpf4jnsgd1na2vs0mg"},{"bike_id":"40450e44-cc9d-407c-957a-1aeb6f187932","system_id":"levelo_inurba_marseille","lat":43.22546,"lon":5.41625,"is_reserved":false,"is_disabled":false,"rental_uris":{"android":"levelo://app?vid=40450e44-cc9d-407c-957a-1aeb6f187932","ios":"levelo://app?vid=40450e44-cc9d-407c-957a-1aeb6f187932"},"vehicle_type_id":"4","last_reported":1773676512,"current_range_meters":7200,"station_id":"st_d2o4gvlbi1j2169b742g","pricing_plan_id":"cebpf4jnsgd1na2vs0mg"},{"bike_id":"e24aa91d-22b2-440b-bc6d-25ab2b336b7a","system_id":"levelo_inurba_marseille","lat":43.23191,"lon":5.35546,"is_reserved":false,"is_disabled":false,"rental_uris":{"android":"levelo://app?vid=e24aa91d-22b2-440b-bc6d-25ab2b336b7a","ios":"levelo://app?vid=e24aa91d-22b2-440b-bc6d-25ab2b336b7a"},"vehicle_type_id":"4","last_reported":1773676512,"current_range_meters":39200,"station_id":"ce4bhu92rcd13ifvqi70","pricing_plan_id":"cebpf4jnsgd1na2vs0mg"},{"bike_id":"bc4f7328-cab9-4fcd-8fd6-48b670075c96","system_id":"levelo_inurba_marseille","lat":43.30541,"lon":5.36516,"is_reserved":false,"is_disabled":false,"rental_uris":{"android":"levelo://app?vid=bc4f7328-cab9-4fcd-8fd6-48b670075c96","ios":"levelo://app?vid=bc4f7328-cab9-4fcd-8fd6-48b670075c96"},"vehicle_type_id":"4","last_reported":1773676512,"current_range_meters":39200,"station_id":"ce4bgs12rcd13ifvqcag","pricing_plan_id":"cebpf4jnsgd1na2vs0mg"},{"bike_id":"1534ddc0-79ef-417f-a4ac-118332b0b835","system_id":"levelo_inurba_marseille","lat":43.31113,"lon":5.3776,"is_reserved":false,"is_disabled":false,"rental_uris":{"android":"levelo://app?vid=1534ddc0-79ef-417f-a4ac-118332b0b835","ios":"levelo://app?vid=1534ddc0-79ef-417f-a4ac-118332b0b835"},"vehicle_type_id":"4","last_reported":1773676512,"current_range_meters":33600,"station_id":"ce4bgt92rcd13ifvqcg0","pricing_plan_id":"cebpf4jnsgd1na2vs0mg"},{"bike_id":"eaa5390d-2d68-4739-8254-52f983e127b1","system_id":"levelo_inurba_marseille","lat":43.28466,"lon":5.48395,"is_reserved":false,"is_disabled":false,"rental_uris":{"android":"levelo://app?vid=eaa5390d-2d68-4739-8254-52f983e127b1","ios":"levelo://app?vid=eaa5390d-2d68-4739-8254-52f983e127b1"},"vehicle_type_id":"4","last_reported":1773676512,"current_range_meters":20400,"station_id":"","pricing_plan_id":"cebpf4jnsgd1na2vs0mg"},{"bike_id":"f53ed231-3e48-421e-91cb-581c11eece38","system_id":"levelo_inurba_marseille","lat":43.24951,"lon":5.40516,"is_reserved":false,"is_disabled":false,"rental_uris":{"android":"levelo://app?vid=f53ed231-3e48-421e-91cb-581c11eece38","ios":"levelo://app?vid=f53ed231-3e48-421e-91cb-581c11eece38"},"vehicle_type_id":"4","last_reported":1773676512,"current_range_meters":8800,"station_id":"st_d2ngiaodas8pm72gd1h0","pricing_plan_id":"cebpf4jnsgd1na2vs0mg"},{"bike_id":"d668a14d-59f3-46e7-bdd6-66c2cfb5206f","system_id":"levelo_inurba_marseille","lat":43.26364,"lon":5.41071,"is_reserved":false,"is_disabled":false,"rental_uris":{"android":"levelo://app?vid=d668a14d-59f3-46e7-bdd6-66c2cfb5206f","ios":"levelo://app?vid=d668a14d-59f3-46e7-bdd6-66c2cfb5206f"},"vehicle_type_id":"4","last_reported":1773676512,"current_range_meters":39200,"station_id":"st_d4e5ca6na9uc73bfl5fg","pricing_plan_id":"cebpf4jnsgd1na2vs0mg"},{"bike_id":"7e5c3ee1-7a26-47a6-9861-1ad7f612ec87","system_id":"levelo_inurba_marseille","lat":43.28257,"lon":5.35082,"is_reserved":false,"is_disabled":false,"rental_uris":{"android":"levelo://app?vid=7e5c3ee1-7a26-47a6-9861-1ad7f612ec87","ios":"levelo://app?vid=7e5c3ee1-7a26-47a6-9861-1ad7f612ec87"},"vehicle_type_id":"4","last_reported":1773676512,"current_range_meters":25600,"station_id":"ce4bhbp2rcd13ifvqerg","pricing_plan_id":"cebpf4jnsgd1na2vs0mg"},{"bike_id":"127aa43c-8c6d-4854-9181-41cfc2ad8abc","system_id":"levelo_inurba_marseille","lat":43.30885,"lon":5.39651,"is_reserved":false,"is_disabled":false,"rental_uris":{"android":"levelo://app?vid=127aa43c-8c6d-4854-9181-41cfc2ad8abc","ios":"levelo://app?vid=127aa43c-8c6d-4854-9181-41cfc2ad8abc"},"vehicle_type_id":"4","last_reported":1773676512,"current_range_meters":28000,"station_id":"ce4bh012rcd13ifvqcv0","pricing_plan_id":"cebpf4jnsgd1na2vs0mg"},{"bike_id":"eba7007a-22fe-4603-b600-e6d79c47801e","system_id":"levelo_inurba_marseille","lat":43.27198,"lon":5.41001,"is_reserved":false,"is_disabled":false,"rental_uris":{"android":"levelo://app?vid=eba7007a-22fe-4603-b600-e6d79c47801e","ios":"levelo://app?vid=eba7007a-22fe-4603-b600-e6d79c47801e"},"vehicle_type_id":"4","last_reported":1773676512,"current_range_meters":28000,"station_id":"ce4bhl12rcd13ifvqgf0","pricing_plan_id":"cebpf4jnsgd1na2vs0mg"},{"bike_id":"963aea0f-edfd-42fe-bb5c-9e3909fc1c6c","system_id":"levelo_inurba_marseille","lat":43.25574,"lon":5.38221,"is_reserved":false,"is_disabled":false,"rental_uris":{"android":"levelo://app?vid=963aea0f-edfd-42fe-bb5c-9e3909fc1c6c","ios":"levelo://app?vid=963aea0f-edfd-42fe-bb5c-9e3909fc1c6c"},"vehicle_type_id":"4","last_reported":1773676512,"current_range_meters":39200,"station_id":"ce4bhih2rcd13ifvqfs0","pricing_plan_id":"cebpf4jnsgd1na2vs0mg"},{"bike_id":"8aaf525a-2438-4977-86b2-70256683bfeb","system_id":"levelo_inurba_marseille","lat":43.28537,"lon":5.44092,"is_reserved":false,"is_disabled":false,"rental_uris":{"android":"levelo://app?vid=8aaf525a-2438-4977-86b2-70256683bfeb","ios":"levelo://app?vid=8aaf525a-2438-4977-86b2-70256683bfeb"},"vehicle_type_id":"4","last_reported":1773676512,"current_range_meters":32000,"station_id":"st_d3j3df2ikq2c7380ej80","pricing_plan_id":"cebpf4jnsgd1na2vs0mg"},{"bike_id":"0963decf-91c9-4590-9d78-5d35e759e610","system_id":"levelo_inurba_marseille","lat":43.24663,"lon":5.38176,"is_reserved":false,"is_disabled":false,"rental_uris":{"android":"levelo://app?vid=0963decf-91c9-4590-9d78-5d35e759e610","ios":"levelo://app?vid=0963decf-91c9-4590-9d78-5d35e759e610"},"vehicle_type_id":"4","last_reported":1773676512,"current_range_meters":6000,"station_id":"ce4bhih2rcd13ifvqfr0","pricing_plan_id":"cebpf4jnsgd1na2vs0mg"},{"bike_id":"85384336-ec8c-4d14-8cf7-dd1704f5ada9","system_id":"levelo_inurba_marseille","lat":43.28428,"lon":5.34991,"is_reserved":false,"is_disabled":false,"rental_uris":{"android":"levelo://app?vid=85384336-ec8c-4d14-8cf7-dd1704f5ada9","ios":"levelo://app?vid=85384336-ec8c-4d14-8cf7-dd1704f5ada9"},"vehicle_type_id":"4","last_reported":1773676512,"current_range_meters":35600,"station_id":"ce4bhbh2rcd13ifvqepg","pricing_plan_id":"cebpf4jnsgd1na2vs0mg"},{"bike_id":"e3fbff3a-10a0-4a3b-99c5-5f6809545e95","system_id":"levelo_inurba_marseille","lat":43.21732,"lon":5.34605,"is_reserved":false,"is_disabled":false,"rental_uris":{"android":"levelo://app?vid=e3fbff3a-10a0-4a3b-99c5-5f6809545e95","ios":"levelo://app?vid=e3fbff3a-10a0-4a3b-99c5-5f6809545e95"},"vehicle_type_id":"4","last_reported":1773676512,"current_range_meters":28400,"station_id":"st_cvj6r9ubvosntc0bgbag","pricing_plan_id":"cebpf4jnsgd1na2vs0mg"},{"bike_id":"3ff4419b-d3aa-4c95-bb32-7fc0c761a832","system_id":"levelo_inurba_marseille","lat":43.30306,"lon":5.36866,"is_reserved":false,"is_disabled":false,"rental_uris":{"android":"levelo://app?vid=3ff4419b-d3aa-4c95-bb32-7fc0c761a832","ios":"levelo://app?vid=3ff4419b-d3aa-4c95-bb32-7fc0c761a832"},"vehicle_type_id":"4","last_reported":1773676512,"current_range_meters":11600,"station_id":"ce4bgqh2rcd13ifvqc5g","pricing_plan_id":"cebpf4jnsgd1na2vs0mg"},{"bike_id":"592a7547-d375-47f5-a92c-507aad4780b8","system_id":"levelo_inurba_marseille","lat":43.22559,"lon":5.41601,"is_reserved":false,"is_disabled":false,"rental_uris":{"android":"levelo://app?vid=592a7547-d375-47f5-a92c-507aad4780b8","ios":"levelo://app?vid=592a7547-d375-47f5-a92c-507aad4780b8"},"vehicle_type_id":"4","last_reported":1773676512,"current_range_meters":32800,"station_id":"st_d2o4gvlbi1j2169b742g","pricing_plan_id":"cebpf4jnsgd1na2vs0mg"},{"bike_id":"66238237-b0ff-4d4c-9fd0-1d54f6552b47","system_id":"levelo_inurba_marseille","lat":43.21745,"lon":5.346,"is_reserved":false,"is_disabled":false,"rental_uris":{"android":"levelo://app?vid=66238237-b0ff-4d4c-9fd0-1d54f6552b47","ios":"levelo://app?vid=66238237-b0ff-4d4c-9fd0-1d54f6552b47"},"vehicle_type_id":"4","last_reported":1773676512,"current_range_meters":10800,"station_id":"st_cvj6r9ubvosntc0bgbag","pricing_plan_id":"cebpf4jnsgd1na2vs0mg"},{"bike_id":"6039905a-22e5-4cf4-93bd-5be7a0fead14","system_id":"levelo_inurba_marseille","lat":43.27201,"lon":5.39189,"is_reserved":false,"is_disabled":false,"rental_uris":{"android":"levelo://app?vid=6039905a-22e5-4cf4-93bd-5be7a0fead14","ios":"levelo://app?vid=6039905a-22e5-4cf4-93bd-5be7a0fead14"},"vehicle_type_id":"4","last_reported":1773676512,"current_range_meters":19600,"station_id":"ce4bhhp2rcd13ifvqfm0","pricing_plan_id":"cebpf4jnsgd1na2vs0mg"},{"bike_id":"c187eb76-8825-4f61-ac8d-70ab4b62cbc1","system_id":"levelo_inurba_marseille","lat":43.27493,"lon":5.42447,"is_reserved":false,"is_disabled":false,"rental_uris":{"android":"levelo://app?vid=c187eb76-8825-4f61-ac8d-70ab4b62cbc1","ios":"levelo://app?vid=c187eb76-8825-4f61-ac8d-70ab4b62cbc1"},"vehicle_type_id":"4","last_reported":1773676512,"current_range_meters":22400,"station_id":"ce4bhn92rcd13ifvqgrg","pricing_plan_id":"cebpf4jnsgd1na2vs0mg"},{"bike_id":"10815e11-61cb-415f-8a36-f29cace97448","system_id":"levelo_inurba_marseille","lat":43.3056,"lon":5.36721,"is_reserved":false,"is_disabled":false,"rental_uris":{"android":"levelo://app?vid=10815e11-61cb-415f-8a36-f29cace97448","ios":"levelo://app?vid=10815e11-61cb-415f-8a36-f29cace97448"},"vehicle_type_id":"4","last_reported":1773676512,"current_range_meters":30400,"station_id":"ce4bgrp2rcd13ifvqc9g","pricing_plan_id":"cebpf4jnsgd1na2vs0mg"},{"bike_id":"72e248b9-3433-4c84-9cdf-83a90cf0f4a9","system_id":"levelo_inurba_marseille","lat":43.29195,"lon":5.39311,"is_reserved":false,"is_disabled":true,"rental_uris":{"android":"levelo://app?vid=72e248b9-3433-4c84-9cdf-83a90cf0f4a9","ios":"levelo://app?vid=72e248b9-3433-4c84-9cdf-83a90cf0f4a9"},"vehicle_type_id":"4","last_reported":1773676512,"current_range_meters":11200,"station_id":"ce4bh192rcd13ifvqdd0","pricing_plan_id":"cebpf4jnsgd1na2vs0mg"},{"bike_id":"4ae3b463-be40-469e-9699-f5449f540605","system_id":"levelo_inurba_marseille","lat":43.30538,"lon":5.38427,"is_reserved":false,"is_disabled":false,"rental_uris":{"android":"levelo://app?vid=4ae3b463-be40-469e-9699-f5449f540605","ios":"levelo://app?vid=4ae3b463-be40-469e-9699-f5449f540605"},"vehicle_type_id":"4","last_reported":1773676512,"current_range_meters":39200,"station_id":"ce4bgg92rcd13ifvqb30","pricing_plan_id":"cebpf4jnsgd1na2vs0mg"},{"bike_id":"8aafbcd1-e0fe-4ef4-b089-a98b4c86c0ee","system_id":"levelo_inurba_marseille","lat":43.26191,"lon":5.37463,"is_reserved":false,"is_disabled":true,"rental_uris":{"android":"levelo://app?vid=8aafbcd1-e0fe-4ef4-b089-a98b4c86c0ee","ios":"levelo://app?vid=8aafbcd1-e0fe-4ef4-b089-a98b4c86c0ee"},"vehicle_type_id":"4","last_reported":1773676512,"current_range_meters":25600,"station_id":"ce4bhgp2rcd13ifvqfc0","pricing_plan_id":"cebpf4jnsgd1na2vs0mg"},{"bike_id":"1d87baf7-4472-4b8a-8168-674f85eba66b","system_id":"levelo_inurba_marseille","lat":43.22774,"lon":5.43438,"is_reserved":false,"is_disabled":false,"rental_uris":{"android":"levelo://app?vid=1d87baf7-4472-4b8a-8168-674f85eba66b","ios":"levelo://app?vid=1d87baf7-4472-4b8a-8168-674f85eba66b"},"vehicle_type_id":"4","last_reported":1773676512,"current_range_meters":16800,"station_id":"","pricing_plan_id":"cebpf4jnsgd1na2vs0mg"},{"bike_id":"b3e8b3aa-26db-449c-8162-0ed85a2bc616","system_id":"levelo_inurba_marseille","lat":43.32011,"lon":5.41457,"is_reserved":false,"is_disabled":false,"rental_uris":{"android":"levelo://app?vid=b3e8b3aa-26db-449c-8162-0ed85a2bc616","ios":"levelo://app?vid=b3e8b3aa-26db-449c-8162-0ed85a2bc616"},"vehicle_type_id":"4","last_reported":1773676512,"current_range_meters":20400,"station_id":"","pricing_plan_id":"cebpf4jnsgd1na2vs0mg"},{"bike_id":"0415130a-da16-48a1-9d0b-27915824da9e","system_id":"levelo_inurba_marseille","lat":43.29995,"lon":5.3719,"is_reserved":false,"is_disabled":false,"rental_uris":{"android":"levelo://app?vid=0415130a-da16-48a1-9d0b-27915824da9e","ios":"levelo://app?vid=0415130a-da16-48a1-9d0b-27915824da9e"},"vehicle_type_id":"4","last_reported":1773676512,"current_range_meters":39200,"station_id":"ce4bgr92rcd13ifvqc7g","pricing_plan_id":"cebpf4jnsgd1na2vs0mg"},{"bike_id":"7cf4be83-26ac-4c93-9356-1166c34c70ba","system_id":"levelo_inurba_marseille","lat":43.33018,"lon":5.41255,"is_reserved":false,"is_disabled":false,"rental_uris":{"android":"levelo://app?vid=7cf4be83-26ac-4c93-9356-1166c34c70ba","ios":"levelo://app?vid=7cf4be83-26ac-4c93-9356-1166c34c70ba"},"vehicle_type_id":"4","last_reported":1773676512,"current_range_meters":9600,"station_id":"","pricing_plan_id":"cebpf4jnsgd1na2vs0mg"},{"bike_id":"d03f9bdb-4ab4-4e1f-ae03-3cffd5c48c8d","system_id":"levelo_inurba_marseille","lat":43.22923,"lon":5.35386,"is_reserved":false,"is_disabled":false,"rental_uris":{"android":"levelo://app?vid=d03f9bdb-4ab4-4e1f-ae03-3cffd5c48c8d","ios":"levelo://app?vid=d03f9bdb-4ab4-4e1f-ae03-3cffd5c48c8d"},"vehicle_type_id":"4","last_reported":1773676512,"current_range_meters":38000,"station_id":"cpo3532slgdg3j2ikp40","pricing_plan_id":"cebpf4jnsgd1na2vs0mg"},{"bike_id":"2e660e13-ebfc-4778-8634-18e61b993917","system_id":"levelo_inurba_marseille","lat":43.25867,"lon":5.39896,"is_reserved":false,"is_disabled":false,"rental_uris":{"android":"levelo://app?vid=2e660e13-ebfc-4778-8634-18e61b993917","ios":"levelo://app?vid=2e660e13-ebfc-4778-8634-18e61b993917"},"vehicle_type_id":"4","last_reported":1773676512,"current_range_meters":33600,"station_id":"ce4bhl92rcd13ifvqghg","pricing_plan_id":"cebpf4jnsgd1na2vs0mg"},{"bike_id":"477bc2ad-a393-4f86-9d31-b152c6f2b993","system_id":"levelo_inurba_marseille","lat":43.2953,"lon":5.3854,"is_reserved":false,"is_disabled":false,"rental_uris":{"android":"levelo://app?vid=477bc2ad-a393-4f86-9d31-b152c6f2b993","ios":"levelo://app?vid=477bc2ad-a393-4f86-9d31-b152c6f2b993"},"vehicle_type_id":"4","last_reported":1773676512,"current_range_meters":20000,"station_id":"ce4bgih2rcd13ifvqba0","pricing_plan_id":"cebpf4jnsgd1na2vs0mg"},{"bike_id":"ac32d1ce-eadb-41fb-af36-758f0f8d5898","system_id":"levelo_inurba_marseille","lat":43.29897,"lon":5.43667,"is_reserved":false,"is_disabled":false,"rental_uris":{"android":"levelo://app?vid=ac32d1ce-eadb-41fb-af36-758f0f8d5898","ios":"levelo://app?vid=ac32d1ce-eadb-41fb-af36-758f0f8d5898"},"vehicle_type_id":"4","last_reported":1773676512,"current_range_meters":19600,"station_id":"ce4bhpp2rcd13ifvqhfg","pricing_plan_id":"cebpf4jnsgd1na2vs0mg"},{"bike_id":"1198f1b9-8957-4684-bf55-f1a4bb0e08bb","system_id":"levelo_inurba_marseille","lat":43.29842,"lon":5.36264,"is_reserved":false,"is_disabled":false,"rental_uris":{"android":"levelo://app?vid=1198f1b9-8957-4684-bf55-f1a4bb0e08bb","ios":"levelo://app?vid=1198f1b9-8957-4684-bf55-f1a4bb0e08bb"},"vehicle_type_id":"4","last_reported":1773676512,"current_range_meters":39200,"station_id":"ce4bgpp2rcd13ifvqc3g","pricing_plan_id":"cebpf4jnsgd1na2vs0mg"},{"bike_id":"0aa11af6-4a66-4b65-b781-8959dd3e1b05","system_id":"levelo_inurba_marseille","lat":43.2991,"lon":5.38077,"is_reserved":false,"is_disabled":false,"rental_uris":{"android":"levelo://app?vid=0aa11af6-4a66-4b65-b781-8959dd3e1b05","ios":"levelo://app?vid=0aa11af6-4a66-4b65-b781-8959dd3e1b05"},"vehicle_type_id":"4","last_reported":1773676512,"current_range_meters":28000,"station_id":"","pricing_plan_id":"cebpf4jnsgd1na2vs0mg"},{"bike_id":"418580e6-fe33-4376-9e32-1b7fa7c3dab5","system_id":"levelo_inurba_marseille","lat":43.24649,"lon":5.38888,"is_reserved":false,"is_disabled":false,"rental_uris":{"android":"levelo://app?vid=418580e6-fe33-4376-9e32-1b7fa7c3dab5","ios":"levelo://app?vid=418580e6-fe33-4376-9e32-1b7fa7c3dab5"},"vehicle_type_id":"4","last_reported":1773676512,"current_range_meters":25200,"station_id":"ce4bhg12rcd13ifvqf60","pricing_plan_id":"cebpf4jnsgd1na2vs0mg"},{"bike_id":"dc51a89d-2cba-4ff3-9819-af139d1514ee","system_id":"levelo_inurba_marseille","lat":43.26927,"lon":5.38915,"is_reserved":false,"is_disabled":false,"rental_uris":{"android":"levelo://app?vid=dc51a89d-2cba-4ff3-9819-af139d1514ee","ios":"levelo://app?vid=dc51a89d-2cba-4ff3-9819-af139d1514ee"},"vehicle_type_id":"4","last_reported":1773676512,"current_range_meters":39200,"station_id":"ce4bhhh2rcd13ifvqfl0","pricing_plan_id":"cebpf4jnsgd1na2vs0mg"},{"bike_id":"bfbe80a3-a9fa-4f26-beae-95a66601d71d","system_id":"levelo_inurba_marseille","lat":43.23194,"lon":5.35554,"is_reserved":false,"is_disabled":false,"rental_uris":{"android":"levelo://app?vid=bfbe80a3-a9fa-4f26-beae-95a66601d71d","ios":"levelo://app?vid=bfbe80a3-a9fa-4f26-beae-95a66601d71d"},"vehicle_type_id":"4","last_reported":1773676512,"current_range_meters":24800,"station_id":"ce4bhu92rcd13ifvqi70","pricing_plan_id":"cebpf4jnsgd1na2vs0mg"},{"bike_id":"ae5def3c-7543-49c4-bc07-b307fc0d383c","system_id":"levelo_inurba_marseille","lat":43.32363,"lon":5.3888,"is_reserved":false,"is_disabled":false,"rental_uris":{"android":"levelo://app?vid=ae5def3c-7543-49c4-bc07-b307fc0d383c","ios":"levelo://app?vid=ae5def3c-7543-49c4-bc07-b307fc0d383c"},"vehicle_type_id":"4","last_reported":1773676512,"current_range_meters":39200,"station_id":"ce4bhqp2rcd13ifvqhog","pricing_plan_id":"cebpf4jnsgd1na2vs0mg"},{"bike_id":"070475bf-1a52-421a-820b-baec73f3c197","system_id":"levelo_inurba_marseille","lat":43.26569,"lon":5.39011,"is_reserved":false,"is_disabled":false,"rental_uris":{"android":"levelo://app?vid=070475bf-1a52-421a-820b-baec73f3c197","ios":"levelo://app?vid=070475bf-1a52-421a-820b-baec73f3c197"},"vehicle_type_id":"4","last_reported":1773676512,"current_range_meters":38800,"station_id":"ce4bhe12rcd13ifvqf30","pricing_plan_id":"cebpf4jnsgd1na2vs0mg"},{"bike_id":"1c8b945e-14e0-4685-b258-284beaca7e30","system_id":"levelo_inurba_marseille","lat":43.27428,"lon":5.3942,"is_reserved":false,"is_disabled":false,"rental_uris":{"android":"levelo://app?vid=1c8b945e-14e0-4685-b258-284beaca7e30","ios":"levelo://app?vid=1c8b945e-14e0-4685-b258-284beaca7e30"},"vehicle_type_id":"4","last_reported":1773676512,"current_range_meters":25600,"station_id":"ce4bhdp2rcd13ifvqf20","pricing_plan_id":"cebpf4jnsgd1na2vs0mg"},{"bike_id":"c5301128-1c98-473f-b471-0306f238104d","system_id":"levelo_inurba_marseille","lat":43.25514,"lon":5.3766,"is_reserved":false,"is_disabled":false,"rental_uris":{"android":"levelo://app?vid=c5301128-1c98-473f-b471-0306f238104d","ios":"levelo://app?vid=c5301128-1c98-473f-b471-0306f238104d"},"vehicle_type_id":"4","last_reported":1773676512,"current_range_meters":36800,"station_id":"ce4bhh12rcd13ifvqff0","pricing_plan_id":"cebpf4jnsgd1na2vs0mg"},{"bike_id":"c8f5ec7e-ccc6-49f8-b39a-2f757784a180","system_id":"levelo_inurba_marseille","lat":43.31441,"lon":5.37337,"is_reserved":false,"is_disabled":false,"rental_uris":{"android":"levelo://app?vid=c8f5ec7e-ccc6-49f8-b39a-2f757784a180","ios":"levelo://app?vid=c8f5ec7e-ccc6-49f8-b39a-2f757784a180"},"vehicle_type_id":"4","last_reported":1773676512,"current_range_meters":8000,"station_id":"ce4bgt12rcd13ifvqcd0","pricing_plan_id":"cebpf4jnsgd1na2vs0mg"},{"bike_id":"f809ec14-94c2-402c-ac48-1eafa5a661af","system_id":"levelo_inurba_marseille","lat":43.28481,"lon":5.38567,"is_reserved":false,"is_disabled":false,"rental_uris":{"android":"levelo://app?vid=f809ec14-94c2-402c-ac48-1eafa5a661af","ios":"levelo://app?vid=f809ec14-94c2-402c-ac48-1eafa5a661af"},"vehicle_type_id":"4","last_reported":1773676512,"current_range_meters":39200,"station_id":"ce4bh8p2rcd13ifvqeb0","pricing_plan_id":"cebpf4jnsgd1na2vs0mg"},{"bike_id":"eabcd7b3-1bc6-489d-8a10-c06a8229ec73","system_id":"levelo_inurba_marseille","lat":43.314262,"lon":5.379831,"is_reserved":false,"is_disabled":false,"rental_uris":{"android":"levelo://app?vid=eabcd7b3-1bc6-489d-8a10-c06a8229ec73","ios":"levelo://app?vid=eabcd7b3-1bc6-489d-8a10-c06a8229ec73"},"vehicle_type_id":"4","last_reported":1773676512,"current_range_meters":25200,"station_id":"ce4bhsp2rcd13ifvqi50","pricing_plan_id":"cebpf4jnsgd1na2vs0mg"},{"bike_id":"4c60b109-57e6-4f0b-a1be-8bf14ac1b99f","system_id":"levelo_inurba_marseille","lat":43.262142,"lon":5.379224,"is_reserved":false,"is_disabled":false,"rental_uris":{"android":"levelo://app?vid=4c60b109-57e6-4f0b-a1be-8bf14ac1b99f","ios":"levelo://app?vid=4c60b109-57e6-4f0b-a1be-8bf14ac1b99f"},"vehicle_type_id":"4","last_reported":1773676512,"current_range_meters":38800,"station_id":"ce4bhjp2rcd13ifvqg90","pricing_plan_id":"cebpf4jnsgd1na2vs0mg"},{"bike_id":"3840404d-a7da-40fc-88cb-cd148ea849d6","system_id":"levelo_inurba_marseille","lat":43.30799,"lon":5.38154,"is_reserved":false,"is_disabled":false,"rental_uris":{"android":"levelo://app?vid=3840404d-a7da-40fc-88cb-cd148ea849d6","ios":"levelo://app?vid=3840404d-a7da-40fc-88cb-cd148ea849d6"},"vehicle_type_id":"4","last_reported":1773676512,"current_range_meters":24800,"station_id":"ce4bgt12rcd13ifvqce0","pricing_plan_id":"cebpf4jnsgd1na2vs0mg"},{"bike_id":"700a1080-fc52-425a-a768-08123850f727","system_id":"levelo_inurba_marseille","lat":43.23777,"lon":5.36654,"is_reserved":false,"is_disabled":false,"rental_uris":{"android":"levelo://app?vid=700a1080-fc52-425a-a768-08123850f727","ios":"levelo://app?vid=700a1080-fc52-425a-a768-08123850f727"},"vehicle_type_id":"4","last_reported":1773676512,"current_range_meters":17600,"station_id":"st_d3nk18o9ro0c73en2l3g","pricing_plan_id":"cebpf4jnsgd1na2vs0mg"},{"bike_id":"23e678b2-1f77-49cd-b6e6-b676bf50bd0d","system_id":"levelo_inurba_marseille","lat":43.28338,"lon":5.3809,"is_reserved":false,"is_disabled":true,"rental_uris":{"android":"levelo://app?vid=23e678b2-1f77-49cd-b6e6-b676bf50bd0d","ios":"levelo://app?vid=23e678b2-1f77-49cd-b6e6-b676bf50bd0d"},"vehicle_type_id":"4","last_reported":1773676512,"current_range_meters":38800,"station_id":"ce4bh412rcd13ifvqdr0","pricing_plan_id":"cebpf4jnsgd1na2vs0mg"},{"bike_id":"e2a03a7f-5648-4f9b-ac20-b0e493b7b350","system_id":"levelo_inurba_marseille","lat":43.32362,"lon":5.3677,"is_reserved":false,"is_disabled":false,"rental_uris":{"android":"levelo://app?vid=e2a03a7f-5648-4f9b-ac20-b0e493b7b350","ios":"levelo://app?vid=e2a03a7f-5648-4f9b-ac20-b0e493b7b350"},"vehicle_type_id":"4","last_reported":1773676512,"current_range_meters":40000,"station_id":"ce4bhsh2rcd13ifvqi2g","pricing_plan_id":"cebpf4jnsgd1na2vs0mg"},{"bike_id":"ddfa8bc2-a2ab-4f06-ba77-074bccd79449","system_id":"levelo_inurba_marseille","lat":43.27368,"lon":5.36262,"is_reserved":false,"is_disabled":false,"rental_uris":{"android":"levelo://app?vid=ddfa8bc2-a2ab-4f06-ba77-074bccd79449","ios":"levelo://app?vid=ddfa8bc2-a2ab-4f06-ba77-074bccd79449"},"vehicle_type_id":"4","last_reported":1773676512,"current_range_meters":9200,"station_id":"ce4bhbh2rcd13ifvqeo0","pricing_plan_id":"cebpf4jnsgd1na2vs0mg"},{"bike_id":"9c2486c2-e062-4581-a21f-f081ce0fb87f","system_id":"levelo_inurba_marseille","lat":43.2982,"lon":5.44063,"is_reserved":false,"is_disabled":false,"rental_uris":{"android":"levelo://app?vid=9c2486c2-e062-4581-a21f-f081ce0fb87f","ios":"levelo://app?vid=9c2486c2-e062-4581-a21f-f081ce0fb87f"},"vehicle_type_id":"4","last_reported":1773676512,"current_range_meters":16000,"station_id":"st_d3jp68qikq2c7381ktn0","pricing_plan_id":"cebpf4jnsgd1na2vs0mg"},{"bike_id":"3f484f2e-0b76-41f3-9fe3-3db907fd108c","system_id":"levelo_inurba_marseille","lat":43.24801,"lon":5.37454,"is_reserved":false,"is_disabled":false,"rental_uris":{"android":"levelo://app?vid=3f484f2e-0b76-41f3-9fe3-3db907fd108c","ios":"levelo://app?vid=3f484f2e-0b76-41f3-9fe3-3db907fd108c"},"vehicle_type_id":"4","last_reported":1773676512,"current_range_meters":26000,"station_id":"ce4bhgh2rcd13ifvqfb0","pricing_plan_id":"cebpf4jnsgd1na2vs0mg"},{"bike_id":"23b3ceea-b35b-49ab-abf8-9fe58e40bb2c","system_id":"levelo_inurba_marseille","lat":43.30587,"lon":5.37193,"is_reserved":false,"is_disabled":false,"rental_uris":{"android":"levelo://app?vid=23b3ceea-b35b-49ab-abf8-9fe58e40bb2c","ios":"levelo://app?vid=23b3ceea-b35b-49ab-abf8-9fe58e40bb2c"},"vehicle_type_id":"4","last_reported":1773676512,"current_range_meters":27600,"station_id":"ce4bgqh2rcd13ifvqc4g","pricing_plan_id":"cebpf4jnsgd1na2vs0mg"},{"bike_id":"f33ebd83-2227-4f82-b837-c29722477d6a","system_id":"levelo_inurba_marseille","lat":43.28937,"lon":5.3963,"is_reserved":false,"is_disabled":false,"rental_uris":{"android":"levelo://app?vid=f33ebd83-2227-4f82-b837-c29722477d6a","ios":"levelo://app?vid=f33ebd83-2227-4f82-b837-c29722477d6a"},"vehicle_type_id":"4","last_reported":1773676512,"current_range_meters":32800,"station_id":"ce4bh3h2rcd13ifvqdn0","pricing_plan_id":"cebpf4jnsgd1na2vs0mg"},{"bike_id":"a5d78122-afc3-4205-8807-2b79ba381771","system_id":"levelo_inurba_marseille","lat":43.2717,"lon":5.39225,"is_reserved":false,"is_disabled":false,"rental_uris":{"android":"levelo://app?vid=a5d78122-afc3-4205-8807-2b79ba381771","ios":"levelo://app?vid=a5d78122-afc3-4205-8807-2b79ba381771"},"vehicle_type_id":"4","last_reported":1773676512,"current_range_meters":9200,"station_id":"","pricing_plan_id":"cebpf4jnsgd1na2vs0mg"},{"bike_id":"57a423db-8929-4509-ac08-b3b87a99ddd9","system_id":"levelo_inurba_marseille","lat":43.31719,"lon":5.42372,"is_reserved":false,"is_disabled":false,"rental_uris":{"android":"levelo://app?vid=57a423db-8929-4509-ac08-b3b87a99ddd9","ios":"levelo://app?vid=57a423db-8929-4509-ac08-b3b87a99ddd9"},"vehicle_type_id":"4","last_reported":1773676512,"current_range_meters":38800,"station_id":"ce4bhp92rcd13ifvqhbg","pricing_plan_id":"cebpf4jnsgd1na2vs0mg"},{"bike_id":"2549d3e1-f693-492a-81e4-d55cbdc452bd","system_id":"levelo_inurba_marseille","lat":43.27039,"lon":5.40086,"is_reserved":false,"is_disabled":false,"rental_uris":{"android":"levelo://app?vid=2549d3e1-f693-492a-81e4-d55cbdc452bd","ios":"levelo://app?vid=2549d3e1-f693-492a-81e4-d55cbdc452bd"},"vehicle_type_id":"4","last_reported":1773676512,"current_range_meters":33200,"station_id":"","pricing_plan_id":"cebpf4jnsgd1na2vs0mg"},{"bike_id":"f5c86632-be3f-4652-9027-ebaab93fb2e7","system_id":"levelo_inurba_marseille","lat":43.25577,"lon":5.3823,"is_reserved":false,"is_disabled":false,"rental_uris":{"android":"levelo://app?vid=f5c86632-be3f-4652-9027-ebaab93fb2e7","ios":"levelo://app?vid=f5c86632-be3f-4652-9027-ebaab93fb2e7"},"vehicle_type_id":"4","last_reported":1773676512,"current_range_meters":26800,"station_id":"ce4bhih2rcd13ifvqfs0","pricing_plan_id":"cebpf4jnsgd1na2vs0mg"},{"bike_id":"63a54de0-7ed1-474e-970b-09cf9e1e6651","system_id":"levelo_inurba_marseille","lat":43.29839,"lon":5.36271,"is_reserved":false,"is_disabled":false,"rental_uris":{"android":"levelo://app?vid=63a54de0-7ed1-474e-970b-09cf9e1e6651","ios":"levelo://app?vid=63a54de0-7ed1-474e-970b-09cf9e1e6651"},"vehicle_type_id":"4","last_reported":1773676512,"current_range_meters":36400,"station_id":"ce4bgpp2rcd13ifvqc3g","pricing_plan_id":"cebpf4jnsgd1na2vs0mg"},{"bike_id":"d7435bde-7ace-4f4f-88d3-08e0c5541bf5","system_id":"levelo_inurba_marseille","lat":43.298,"lon":5.38138,"is_reserved":false,"is_disabled":true,"rental_uris":{"android":"levelo://app?vid=d7435bde-7ace-4f4f-88d3-08e0c5541bf5","ios":"levelo://app?vid=d7435bde-7ace-4f4f-88d3-08e0c5541bf5"},"vehicle_type_id":"4","last_reported":1773676512,"current_range_meters":24000,"station_id":"ce4bgip2rcd13ifvqbb0","pricing_plan_id":"cebpf4jnsgd1na2vs0mg"},{"bike_id":"8ad87f05-a69d-4520-86d1-ec7e53219f7d","system_id":"levelo_inurba_marseille","lat":43.28018,"lon":5.41685,"is_reserved":false,"is_disabled":false,"rental_uris":{"android":"levelo://app?vid=8ad87f05-a69d-4520-86d1-ec7e53219f7d","ios":"levelo://app?vid=8ad87f05-a69d-4520-86d1-ec7e53219f7d"},"vehicle_type_id":"4","last_reported":1773676512,"current_range_meters":30800,"station_id":"ce4bho12rcd13ifvqh1g","pricing_plan_id":"cebpf4jnsgd1na2vs0mg"},{"bike_id":"af302f6c-8c6f-4ace-b011-ac7f02160942","system_id":"levelo_inurba_marseille","lat":43.2499,"lon":5.38918,"is_reserved":false,"is_disabled":true,"rental_uris":{"android":"levelo://app?vid=af302f6c-8c6f-4ace-b011-ac7f02160942","ios":"levelo://app?vid=af302f6c-8c6f-4ace-b011-ac7f02160942"},"vehicle_type_id":"4","last_reported":1773676512,"current_range_meters":29600,"station_id":"ce4bhgp2rcd13ifvqfd0","pricing_plan_id":"cebpf4jnsgd1na2vs0mg"},{"bike_id":"b7d7dd75-3996-448a-8686-bbd99bb29353","system_id":"levelo_inurba_marseille","lat":43.28417,"lon":5.34996,"is_reserved":false,"is_disabled":false,"rental_uris":{"android":"levelo://app?vid=b7d7dd75-3996-448a-8686-bbd99bb29353","ios":"levelo://app?vid=b7d7dd75-3996-448a-8686-bbd99bb29353"},"vehicle_type_id":"4","last_reported":1773676512,"current_range_meters":26800,"station_id":"ce4bhbh2rcd13ifvqepg","pricing_plan_id":"cebpf4jnsgd1na2vs0mg"},{"bike_id":"63ac7fc0-00b3-4fb5-aba5-0afcd7429a92","system_id":"levelo_inurba_marseille","lat":43.31794,"lon":5.44397,"is_reserved":false,"is_disabled":false,"rental_uris":{"android":"levelo://app?vid=63ac7fc0-00b3-4fb5-aba5-0afcd7429a92","ios":"levelo://app?vid=63ac7fc0-00b3-4fb5-aba5-0afcd7429a92"},"vehicle_type_id":"4","last_reported":1773676512,"current_range_meters":25200,"station_id":"","pricing_plan_id":"cebpf4jnsgd1na2vs0mg"},{"bike_id":"a8ccaa89-c8ad-46e6-bf26-60f0ccbb81e1","system_id":"levelo_inurba_marseille","lat":43.31721,"lon":5.42401,"is_reserved":false,"is_disabled":false,"rental_uris":{"android":"levelo://app?vid=a8ccaa89-c8ad-46e6-bf26-60f0ccbb81e1","ios":"levelo://app?vid=a8ccaa89-c8ad-46e6-bf26-60f0ccbb81e1"},"vehicle_type_id":"4","last_reported":1773676512,"current_range_meters":34000,"station_id":"ce4bhp92rcd13ifvqhbg","pricing_plan_id":"cebpf4jnsgd1na2vs0mg"},{"bike_id":"cecc6ab6-baa9-4f04-8738-c14aac04a878","system_id":"levelo_inurba_marseille","lat":43.26374,"lon":5.41069,"is_reserved":false,"is_disabled":false,"rental_uris":{"android":"levelo://app?vid=cecc6ab6-baa9-4f04-8738-c14aac04a878","ios":"levelo://app?vid=cecc6ab6-baa9-4f04-8738-c14aac04a878"},"vehicle_type_id":"4","last_reported":1773676512,"current_range_meters":19200,"station_id":"st_d4e5ca6na9uc73bfl5fg","pricing_plan_id":"cebpf4jnsgd1na2vs0mg"},{"bike_id":"fb288cd2-6b29-491b-828a-29312ce77d0f","system_id":"levelo_inurba_marseille","lat":43.30184,"lon":5.36601,"is_reserved":false,"is_disabled":false,"rental_uris":{"android":"levelo://app?vid=fb288cd2-6b29-491b-828a-29312ce77d0f","ios":"levelo://app?vid=fb288cd2-6b29-491b-828a-29312ce77d0f"},