{"last_updated":1773945643,"ttl":60,"version":"2.2","data":{"bikes":[{"bike_id":"2706db3b-3f01-4b6b-a1e9-42e6bda22571","system_id":"levelo_inurba_marseille","lat":43.26182,"lon":5.37318,"is_reserved":false,"is_disabled":false,"rental_uris":{"android":"levelo://app?vid=2706db3b-3f01-4b6b-a1e9-42e6bda22571","ios":"levelo://app?vid=2706db3b-3f01-4b6b-a1e9-42e6bda22571"},"vehicle_type_id":"4","last_reported":1773945644,"current_range_meters":1200,"station_id":"","pricing_plan_id":"cebpf4jnsgd1na2vs0mg"},{"bike_id":"d3b297c8-8aac-45a4-9dd3-2fec6075ddb0","system_id":"levelo_inurba_marseille","lat":43.30141,"lon":5.39814,"is_reserved":false,"is_disabled":false,"rental_uris":{"android":"levelo://app?vid=d3b297c8-8aac-45a4-9dd3-2fec6075ddb0","ios":"levelo://app?vid=d3b297c8-8aac-45a4-9dd3-2fec6075ddb0"},"vehicle_type_id":"4","last_reported":1773945644,"current_range_meters":2800,"station_id":"ce4bh0h2rcd13ifvqd40","pricing_plan_id":"cebpf4jnsgd1na2vs0mg"},{"bike_id":"743e6a69-6005-4781-9508-e1ff7dd16364","system_id":"levelo_inurba_marseille","lat":43.30241,"lon":5.40022,"is_reserved":false,"is_disabled":false,"rental_uris":{"android":"levelo://app?vid=743e6a69-6005-4781-9508-e1ff7dd16364","ios":"levelo://app?vid=743e6a69-6005-4781-9508-e1ff7dd16364"},"vehicle_type_id":"4","last_reported":1773945644,"current_range_meters":2800,"station_id":"","pricing_plan_id":"cebpf4jnsgd1na2vs0mg"},{"bike_id":"55d183f8-88c0-43bf-b343-96bccab84a71","system_id":"levelo_inurba_marseille","lat":43.28701,"lon":5.37321,"is_reserved":false,"is_disabled":false,"rental_uris":{"android":"levelo://app?vid=55d183f8-88c0-43bf-b343-96bccab84a71","ios":"levelo://app?vid=55d183f8-88c0-43bf-b343-96bccab84a71"},"vehicle_type_id":"4","last_reported":1773945644,"current_range_meters":2800,"station_id":"ce4bh3p2rcd13ifvqdq0","pricing_plan_id":"cebpf4jnsgd1na2vs0mg"},{"bike_id":"1b1c91ee-b819-425b-84ab-0a4ba95f3d7d","system_id":"levelo_inurba_marseille","lat":43.30538,"lon":5.3672,"is_reserved":false,"is_disabled":false,"rental_uris":{"android":"levelo://app?vid=1b1c91ee-b819-425b-84ab-0a4ba95f3d7d","ios":"levelo://app?vid=1b1c91ee-b819-425b-84ab-0a4ba95f3d7d"},"vehicle_type_id":"4","last_reported":1773945644,"current_range_meters":2800,"station_id":"ce4bgrp2rcd13ifvqc9g","pricing_plan_id":"cebpf4jnsgd1na2vs0mg"},{"bike_id":"6d0c88d1-95b1-43c6-a52c-9482e28076c9","system_id":"levelo_inurba_marseille","lat":43.29807,"lon":5.38078,"is_reserved":false,"is_disabled":false,"rental_uris":{"android":"levelo://app?vid=6d0c88d1-95b1-43c6-a52c-9482e28076c9","ios":"levelo://app?vid=6d0c88d1-95b1-43c6-a52c-9482e28076c9"},"vehicle_type_id":"4","last_reported":1773945644,"current_range_meters":2800,"station_id":"ce4bgip2rcd13ifvqbb0","pricing_plan_id":"cebpf4jnsgd1na2vs0mg"},{"bike_id":"56b97f63-7d68-4f2e-ba6e-3ac28ff4ee85","system_id":"levelo_inurba_marseille","lat":43.290177,"lon":5.381239,"is_reserved":false,"is_disabled":false,"rental_uris":{"android":"levelo://app?vid=56b97f63-7d68-4f2e-ba6e-3ac28ff4ee85","ios":"levelo://app?vid=56b97f63-7d68-4f2e-ba6e-3ac28ff4ee85"},"vehicle_type_id":"4","last_reported":1773945644,"current_range_meters":2800,"station_id":"ce4bh4p2rcd13ifvqe1g","pricing_plan_id":"cebpf4jnsgd1na2vs0mg"},{"bike_id":"f6eef633-bed7-4c4d-bcfd-52d77fe3a5c1","system_id":"levelo_inurba_marseille","lat":43.25339,"lon":5.42164,"is_reserved":false,"is_disabled":false,"rental_uris":{"android":"levelo://app?vid=f6eef633-bed7-4c4d-bcfd-52d77fe3a5c1","ios":"levelo://app?vid=f6eef633-bed7-4c4d-bcfd-52d77fe3a5c1"},"vehicle_type_id":"4","last_reported":1773945644,"current_range_meters":2800,"station_id":"st_d2m65c5bi1j21697t3ng","pricing_plan_id":"cebpf4jnsgd1na2vs0mg"},{"bike_id":"30322009-1b4a-417d-9d1f-c56f2576f4e3","system_id":"levelo_inurba_marseille","lat":43.29233,"lon":5.38437,"is_reserved":false,"is_disabled":false,"rental_uris":{"android":"levelo://app?vid=30322009-1b4a-417d-9d1f-c56f2576f4e3","ios":"levelo://app?vid=30322009-1b4a-417d-9d1f-c56f2576f4e3"},"vehicle_type_id":"4","last_reported":1773945644,"current_range_meters":2800,"station_id":"ce4bh692rcd13ifvqea0","pricing_plan_id":"cebpf4jnsgd1na2vs0mg"},{"bike_id":"2cc0d97c-5ca8-4112-8c8f-b37680534657","system_id":"levelo_inurba_marseille","lat":43.28134,"lon":5.42601,"is_reserved":false,"is_disabled":false,"rental_uris":{"android":"levelo://app?vid=2cc0d97c-5ca8-4112-8c8f-b37680534657","ios":"levelo://app?vid=2cc0d97c-5ca8-4112-8c8f-b37680534657"},"vehicle_type_id":"4","last_reported":1773945644,"current_range_meters":2800,"station_id":"ce4bhnh2rcd13ifvqgug","pricing_plan_id":"cebpf4jnsgd1na2vs0mg"},{"bike_id":"95157e4d-2707-499b-a312-630dad09c2f1","system_id":"levelo_inurba_marseille","lat":43.30214,"lon":5.36625,"is_reserved":false,"is_disabled":false,"rental_uris":{"android":"levelo://app?vid=95157e4d-2707-499b-a312-630dad09c2f1","ios":"levelo://app?vid=95157e4d-2707-499b-a312-630dad09c2f1"},"vehicle_type_id":"4","last_reported":1773945644,"current_range_meters":2800,"station_id":"ce4bgrh2rcd13ifvqc8g","pricing_plan_id":"cebpf4jnsgd1na2vs0mg"},{"bike_id":"7d938851-65f8-476e-b5a5-66b6d8d52327","system_id":"levelo_inurba_marseille","lat":43.2119,"lon":5.35095,"is_reserved":false,"is_disabled":false,"rental_uris":{"android":"levelo://app?vid=7d938851-65f8-476e-b5a5-66b6d8d52327","ios":"levelo://app?vid=7d938851-65f8-476e-b5a5-66b6d8d52327"},"vehicle_type_id":"4","last_reported":1773945644,"current_range_meters":2800,"station_id":"st_cvj6sg6p6f1abm77japg","pricing_plan_id":"cebpf4jnsgd1na2vs0mg"},{"bike_id":"2e73f39c-4de9-40ef-b5c3-575e5ff6014d","system_id":"levelo_inurba_marseille","lat":43.2626,"lon":5.39138,"is_reserved":false,"is_disabled":true,"rental_uris":{"android":"levelo://app?vid=2e73f39c-4de9-40ef-b5c3-575e5ff6014d","ios":"levelo://app?vid=2e73f39c-4de9-40ef-b5c3-575e5ff6014d"},"vehicle_type_id":"4","last_reported":1773945644,"current_range_meters":2800,"station_id":"","pricing_plan_id":"cebpf4jnsgd1na2vs0mg"},{"bike_id":"f373c1b3-6b49-4032-9b0c-c2d241676a75","system_id":"levelo_inurba_marseille","lat":43.32479,"lon":5.36574,"is_reserved":false,"is_disabled":false,"rental_uris":{"android":"levelo://app?vid=f373c1b3-6b49-4032-9b0c-c2d241676a75","ios":"levelo://app?vid=f373c1b3-6b49-4032-9b0c-c2d241676a75"},"vehicle_type_id":"4","last_reported":1773945644,"current_range_meters":2800,"station_id":"ce4bhs12rcd13ifvqhvg","pricing_plan_id":"cebpf4jnsgd1na2vs0mg"},{"bike_id":"2947c570-412d-421c-8491-595641ba35cb","system_id":"levelo_inurba_marseille","lat":43.29283,"lon":5.38317,"is_reserved":false,"is_disabled":false,"rental_uris":{"android":"levelo://app?vid=2947c570-412d-421c-8491-595641ba35cb","ios":"levelo://app?vid=2947c570-412d-421c-8491-595641ba35cb"},"vehicle_type_id":"4","last_reported":1773945644,"current_range_meters":2800,"station_id":"","pricing_plan_id":"cebpf4jnsgd1na2vs0mg"},{"bike_id":"e107cb22-a13d-4c03-93ce-8114e06b9a0f","system_id":"levelo_inurba_marseille","lat":43.28489,"lon":5.48428,"is_reserved":false,"is_disabled":false,"rental_uris":{"android":"levelo://app?vid=e107cb22-a13d-4c03-93ce-8114e06b9a0f","ios":"levelo://app?vid=e107cb22-a13d-4c03-93ce-8114e06b9a0f"},"vehicle_type_id":"4","last_reported":1773945644,"current_range_meters":2800,"station_id":"","pricing_plan_id":"cebpf4jnsgd1na2vs0mg"},{"bike_id":"02b775a4-9cf6-4890-9683-92e3f7881c47","system_id":"levelo_inurba_marseille","lat":43.29867,"lon":5.38899,"is_reserved":false,"is_disabled":false,"rental_uris":{"android":"levelo://app?vid=02b775a4-9cf6-4890-9683-92e3f7881c47","ios":"levelo://app?vid=02b775a4-9cf6-4890-9683-92e3f7881c47"},"vehicle_type_id":"4","last_reported":1773945644,"current_range_meters":2800,"station_id":"ce4bh392rcd13ifvqdl0","pricing_plan_id":"cebpf4jnsgd1na2vs0mg"},{"bike_id":"771cfffb-f7a0-4527-ae6b-fb013d17b466","system_id":"levelo_inurba_marseille","lat":43.29958,"lon":5.38498,"is_reserved":false,"is_disabled":false,"rental_uris":{"android":"levelo://app?vid=771cfffb-f7a0-4527-ae6b-fb013d17b466","ios":"levelo://app?vid=771cfffb-f7a0-4527-ae6b-fb013d17b466"},"vehicle_type_id":"4","last_reported":1773945644,"current_range_meters":2800,"station_id":"ce4bgj92rcd13ifvqbd0","pricing_plan_id":"cebpf4jnsgd1na2vs0mg"},{"bike_id":"b7b79db6-d240-4da1-882f-edc49b867bb7","system_id":"levelo_inurba_marseille","lat":43.29521,"lon":5.39044,"is_reserved":false,"is_disabled":false,"rental_uris":{"android":"levelo://app?vid=b7b79db6-d240-4da1-882f-edc49b867bb7","ios":"levelo://app?vid=b7b79db6-d240-4da1-882f-edc49b867bb7"},"vehicle_type_id":"4","last_reported":1773945644,"current_range_meters":2800,"station_id":"ce4bh3p2rcd13ifvqdp0","pricing_plan_id":"cebpf4jnsgd1na2vs0mg"},{"bike_id":"52537c98-6f72-4317-ba0b-417b07df6cc0","system_id":"levelo_inurba_marseille","lat":43.28669,"lon":5.3867,"is_reserved":false,"is_disabled":false,"rental_uris":{"android":"levelo://app?vid=52537c98-6f72-4317-ba0b-417b07df6cc0","ios":"levelo://app?vid=52537c98-6f72-4317-ba0b-417b07df6cc0"},"vehicle_type_id":"4","last_reported":1773945644,"current_range_meters":2800,"station_id":"ce4bh492rcd13ifvqdug","pricing_plan_id":"cebpf4jnsgd1na2vs0mg"},{"bike_id":"ef1bb9bf-832c-4e98-94c1-63238ed58d7c","system_id":"levelo_inurba_marseille","lat":43.28747,"lon":5.36099,"is_reserved":false,"is_disabled":false,"rental_uris":{"android":"levelo://app?vid=ef1bb9bf-832c-4e98-94c1-63238ed58d7c","ios":"levelo://app?vid=ef1bb9bf-832c-4e98-94c1-63238ed58d7c"},"vehicle_type_id":"4","last_reported":1773945644,"current_range_meters":2800,"station_id":"cki0cbj6b192h4jlfktg","pricing_plan_id":"cebpf4jnsgd1na2vs0mg"},{"bike_id":"779b8a3c-1846-46b5-9cab-bf0ec2b1118f","system_id":"levelo_inurba_marseille","lat":43.28477,"lon":5.4839,"is_reserved":false,"is_disabled":false,"rental_uris":{"android":"levelo://app?vid=779b8a3c-1846-46b5-9cab-bf0ec2b1118f","ios":"levelo://app?vid=779b8a3c-1846-46b5-9cab-bf0ec2b1118f"},"vehicle_type_id":"4","last_reported":1773945644,"current_range_meters":2800,"station_id":"st_d3svhcjqgbts73a3dn0g","pricing_plan_id":"cebpf4jnsgd1na2vs0mg"},{"bike_id":"e0eaa973-c213-4c25-b7db-2010aa1f5a2e","system_id":"levelo_inurba_marseille","lat":43.31273,"lon":5.40167,"is_reserved":false,"is_disabled":false,"rental_uris":{"android":"levelo://app?vid=e0eaa973-c213-4c25-b7db-2010aa1f5a2e","ios":"levelo://app?vid=e0eaa973-c213-4c25-b7db-2010aa1f5a2e"},"vehicle_type_id":"4","last_reported":1773945644,"current_range_meters":2800,"station_id":"ce4bh092rcd13ifvqd30","pricing_plan_id":"cebpf4jnsgd1na2vs0mg"},{"bike_id":"c539bd65-0e65-469f-b4ed-962f8c4aff1f","system_id":"levelo_inurba_marseille","lat":43.28661,"lon":5.36352,"is_reserved":false,"is_disabled":false,"rental_uris":{"android":"levelo://app?vid=c539bd65-0e65-469f-b4ed-962f8c4aff1f","ios":"levelo://app?vid=c539bd65-0e65-469f-b4ed-962f8c4aff1f"},"vehicle_type_id":"4","last_reported":1773945644,"current_range_meters":3200,"station_id":"ce4bhah2rcd13ifvqej0","pricing_plan_id":"cebpf4jnsgd1na2vs0mg"},{"bike_id":"1835d134-aa60-491b-98ba-9ebfed3004cb","system_id":"levelo_inurba_marseille","lat":43.28001,"lon":5.40044,"is_reserved":false,"is_disabled":false,"rental_uris":{"android":"levelo://app?vid=1835d134-aa60-491b-98ba-9ebfed3004cb","ios":"levelo://app?vid=1835d134-aa60-491b-98ba-9ebfed3004cb"},"vehicle_type_id":"4","last_reported":1773945644,"current_range_meters":3200,"station_id":"ce4bho92rcd13ifvqh4g","pricing_plan_id":"cebpf4jnsgd1na2vs0mg"},{"bike_id":"7eef0b8b-8b88-41d8-89b3-c7d44733b5ad","system_id":"levelo_inurba_marseille","lat":43.30144,"lon":5.38097,"is_reserved":false,"is_disabled":true,"rental_uris":{"android":"levelo://app?vid=7eef0b8b-8b88-41d8-89b3-c7d44733b5ad","ios":"levelo://app?vid=7eef0b8b-8b88-41d8-89b3-c7d44733b5ad"},"vehicle_type_id":"4","last_reported":1773945644,"current_range_meters":3200,"station_id":"ce4bgjp2rcd13ifvqbh0","pricing_plan_id":"cebpf4jnsgd1na2vs0mg"},{"bike_id":"fba488f1-9397-49d4-9e0a-afbcae468949","system_id":"levelo_inurba_marseille","lat":43.30785,"lon":5.41357,"is_reserved":false,"is_disabled":false,"rental_uris":{"android":"levelo://app?vid=fba488f1-9397-49d4-9e0a-afbcae468949","ios":"levelo://app?vid=fba488f1-9397-49d4-9e0a-afbcae468949"},"vehicle_type_id":"4","last_reported":1773945644,"current_range_meters":3200,"station_id":"","pricing_plan_id":"cebpf4jnsgd1na2vs0mg"},{"bike_id":"2cd6d2c4-9839-4b08-8d75-805c4c2214dc","system_id":"levelo_inurba_marseille","lat":43.23047,"lon":5.35497,"is_reserved":false,"is_disabled":false,"rental_uris":{"android":"levelo://app?vid=2cd6d2c4-9839-4b08-8d75-805c4c2214dc","ios":"levelo://app?vid=2cd6d2c4-9839-4b08-8d75-805c4c2214dc"},"vehicle_type_id":"4","last_reported":1773945644,"current_range_meters":3200,"station_id":"cpo3342slgdg3j2ifvpg","pricing_plan_id":"cebpf4jnsgd1na2vs0mg"},{"bike_id":"8a854e0a-3b9f-471d-80f2-bfadb0595e6b","system_id":"levelo_inurba_marseille","lat":43.30227,"lon":5.38026,"is_reserved":false,"is_disabled":false,"rental_uris":{"android":"levelo://app?vid=8a854e0a-3b9f-471d-80f2-bfadb0595e6b","ios":"levelo://app?vid=8a854e0a-3b9f-471d-80f2-bfadb0595e6b"},"vehicle_type_id":"4","last_reported":1773945644,"current_range_meters":3200,"station_id":"","pricing_plan_id":"cebpf4jnsgd1na2vs0mg"},{"bike_id":"09e10eda-5428-4eef-bc71-8eaa49fd754f","system_id":"levelo_inurba_marseille","lat":43.28585,"lon":5.35055,"is_reserved":false,"is_disabled":false,"rental_uris":{"android":"levelo://app?vid=09e10eda-5428-4eef-bc71-8eaa49fd754f","ios":"levelo://app?vid=09e10eda-5428-4eef-bc71-8eaa49fd754f"},"vehicle_type_id":"4","last_reported":1773945644,"current_range_meters":3200,"station_id":"","pricing_plan_id":"cebpf4jnsgd1na2vs0mg"},{"bike_id":"e3bb0bf1-4261-472e-8a7f-2e9efae74773","system_id":"levelo_inurba_marseille","lat":43.2927,"lon":5.40122,"is_reserved":false,"is_disabled":false,"rental_uris":{"android":"levelo://app?vid=e3bb0bf1-4261-472e-8a7f-2e9efae74773","ios":"levelo://app?vid=e3bb0bf1-4261-472e-8a7f-2e9efae74773"},"vehicle_type_id":"4","last_reported":1773945644,"current_range_meters":3200,"station_id":"ce4bh312rcd13ifvqdk0","pricing_plan_id":"cebpf4jnsgd1na2vs0mg"},{"bike_id":"38f8a64a-1b09-4242-8a72-5a4cb7afceae","system_id":"levelo_inurba_marseille","lat":43.28924,"lon":5.36372,"is_reserved":false,"is_disabled":false,"rental_uris":{"android":"levelo://app?vid=38f8a64a-1b09-4242-8a72-5a4cb7afceae","ios":"levelo://app?vid=38f8a64a-1b09-4242-8a72-5a4cb7afceae"},"vehicle_type_id":"4","last_reported":1773945644,"current_range_meters":3200,"station_id":"ce4bhc92rcd13ifvqetg","pricing_plan_id":"cebpf4jnsgd1na2vs0mg"},{"bike_id":"a9d31829-7e0d-482f-af05-97ddd320ae16","system_id":"levelo_inurba_marseille","lat":43.29765,"lon":5.42778,"is_reserved":false,"is_disabled":true,"rental_uris":{"android":"levelo://app?vid=a9d31829-7e0d-482f-af05-97ddd320ae16","ios":"levelo://app?vid=a9d31829-7e0d-482f-af05-97ddd320ae16"},"vehicle_type_id":"4","last_reported":1773945644,"current_range_meters":3200,"station_id":"st_d3md5207bmas73dh9klg","pricing_plan_id":"cebpf4jnsgd1na2vs0mg"},{"bike_id":"041126dd-3099-456a-9916-19d40944a68c","system_id":"levelo_inurba_marseille","lat":43.24822,"lon":5.37462,"is_reserved":false,"is_disabled":false,"rental_uris":{"android":"levelo://app?vid=041126dd-3099-456a-9916-19d40944a68c","ios":"levelo://app?vid=041126dd-3099-456a-9916-19d40944a68c"},"vehicle_type_id":"4","last_reported":1773945644,"current_range_meters":3200,"station_id":"ce4bhgh2rcd13ifvqfb0","pricing_plan_id":"cebpf4jnsgd1na2vs0mg"},{"bike_id":"63265ce1-da5d-41d0-910c-47fef57407f9","system_id":"levelo_inurba_marseille","lat":43.28107,"lon":5.37846,"is_reserved":false,"is_disabled":false,"rental_uris":{"android":"levelo://app?vid=63265ce1-da5d-41d0-910c-47fef57407f9","ios":"levelo://app?vid=63265ce1-da5d-41d0-910c-47fef57407f9"},"vehicle_type_id":"4","last_reported":1773945644,"current_range_meters":3200,"station_id":"ce4bha12rcd13ifvqee0","pricing_plan_id":"cebpf4jnsgd1na2vs0mg"},{"bike_id":"1687210f-77cf-49e1-8e10-4f940eb67ab9","system_id":"levelo_inurba_marseille","lat":43.25279,"lon":5.38013,"is_reserved":false,"is_disabled":false,"rental_uris":{"android":"levelo://app?vid=1687210f-77cf-49e1-8e10-4f940eb67ab9","ios":"levelo://app?vid=1687210f-77cf-49e1-8e10-4f940eb67ab9"},"vehicle_type_id":"4","last_reported":1773945644,"current_range_meters":3200,"station_id":"","pricing_plan_id":"cebpf4jnsgd1na2vs0mg"},{"bike_id":"488022cf-ae8c-4b5a-bfe4-ba5db4a587f4","system_id":"levelo_inurba_marseille","lat":43.31888,"lon":5.36799,"is_reserved":false,"is_disabled":false,"rental_uris":{"android":"levelo://app?vid=488022cf-ae8c-4b5a-bfe4-ba5db4a587f4","ios":"levelo://app?vid=488022cf-ae8c-4b5a-bfe4-ba5db4a587f4"},"vehicle_type_id":"4","last_reported":1773945644,"current_range_meters":3200,"station_id":"ce4bguh2rcd13ifvqcj0","pricing_plan_id":"cebpf4jnsgd1na2vs0mg"},{"bike_id":"bd76c094-5344-424d-b7c4-60f8801fbb04","system_id":"levelo_inurba_marseille","lat":43.29891,"lon":5.40237,"is_reserved":false,"is_disabled":false,"rental_uris":{"android":"levelo://app?vid=bd76c094-5344-424d-b7c4-60f8801fbb04","ios":"levelo://app?vid=bd76c094-5344-424d-b7c4-60f8801fbb04"},"vehicle_type_id":"4","last_reported":1773945644,"current_range_meters":3200,"station_id":"","pricing_plan_id":"cebpf4jnsgd1na2vs0mg"},{"bike_id":"9d6017c4-d825-482b-ae2d-df3192f76cb6","system_id":"levelo_inurba_marseille","lat":43.28424,"lon":5.37511,"is_reserved":false,"is_disabled":false,"rental_uris":{"android":"levelo://app?vid=9d6017c4-d825-482b-ae2d-df3192f76cb6","ios":"levelo://app?vid=9d6017c4-d825-482b-ae2d-df3192f76cb6"},"vehicle_type_id":"4","last_reported":1773945644,"current_range_meters":3200,"station_id":"ce4bh412rcd13ifvqds0","pricing_plan_id":"cebpf4jnsgd1na2vs0mg"},{"bike_id":"ec622c6c-2b8e-40d8-a29b-0183a7e49719","system_id":"levelo_inurba_marseille","lat":43.28553,"lon":5.44161,"is_reserved":false,"is_disabled":false,"rental_uris":{"android":"levelo://app?vid=ec622c6c-2b8e-40d8-a29b-0183a7e49719","ios":"levelo://app?vid=ec622c6c-2b8e-40d8-a29b-0183a7e49719"},"vehicle_type_id":"4","last_reported":1773945644,"current_range_meters":3200,"station_id":"st_d3j3df2ikq2c7380ej80","pricing_plan_id":"cebpf4jnsgd1na2vs0mg"},{"bike_id":"f5633142-06b4-41a8-9523-f83ce443c69f","system_id":"levelo_inurba_marseille","lat":43.286096,"lon":5.35101,"is_reserved":false,"is_disabled":false,"rental_uris":{"android":"levelo://app?vid=f5633142-06b4-41a8-9523-f83ce443c69f","ios":"levelo://app?vid=f5633142-06b4-41a8-9523-f83ce443c69f"},"vehicle_type_id":"4","last_reported":1773945644,"current_range_meters":3600,"station_id":"","pricing_plan_id":"cebpf4jnsgd1na2vs0mg"},{"bike_id":"834292a7-daec-4b42-8dd0-3686db0f1b9f","system_id":"levelo_inurba_marseille","lat":43.29704,"lon":5.36592,"is_reserved":false,"is_disabled":false,"rental_uris":{"android":"levelo://app?vid=834292a7-daec-4b42-8dd0-3686db0f1b9f","ios":"levelo://app?vid=834292a7-daec-4b42-8dd0-3686db0f1b9f"},"vehicle_type_id":"4","last_reported":1773945644,"current_range_meters":3600,"station_id":"ce4bgn12rcd13ifvqbt0","pricing_plan_id":"cebpf4jnsgd1na2vs0mg"},{"bike_id":"84f19330-3ad5-498e-82fe-e17ac9cf42e9","system_id":"levelo_inurba_marseille","lat":43.28362,"lon":5.38627,"is_reserved":false,"is_disabled":false,"rental_uris":{"android":"levelo://app?vid=84f19330-3ad5-498e-82fe-e17ac9cf42e9","ios":"levelo://app?vid=84f19330-3ad5-498e-82fe-e17ac9cf42e9"},"vehicle_type_id":"4","last_reported":1773945644,"current_range_meters":3600,"station_id":"ce4bh492rcd13ifvqdvg","pricing_plan_id":"cebpf4jnsgd1na2vs0mg"},{"bike_id":"cbc8599d-0f53-4276-b29f-85b323d36cb9","system_id":"levelo_inurba_marseille","lat":43.25538,"lon":5.37669,"is_reserved":false,"is_disabled":false,"rental_uris":{"android":"levelo://app?vid=cbc8599d-0f53-4276-b29f-85b323d36cb9","ios":"levelo://app?vid=cbc8599d-0f53-4276-b29f-85b323d36cb9"},"vehicle_type_id":"4","last_reported":1773945644,"current_range_meters":3600,"station_id":"","pricing_plan_id":"cebpf4jnsgd1na2vs0mg"},{"bike_id":"4fdbac55-a333-4a44-937c-95b22bd5634f","system_id":"levelo_inurba_marseille","lat":43.2927,"lon":5.38433,"is_reserved":false,"is_disabled":false,"rental_uris":{"android":"levelo://app?vid=4fdbac55-a333-4a44-937c-95b22bd5634f","ios":"levelo://app?vid=4fdbac55-a333-4a44-937c-95b22bd5634f"},"vehicle_type_id":"4","last_reported":1773945644,"current_range_meters":3600,"station_id":"ce4bh692rcd13ifvqea0","pricing_plan_id":"cebpf4jnsgd1na2vs0mg"},{"bike_id":"a7ac4e6e-f13e-4856-8233-27fbb4cc953e","system_id":"levelo_inurba_marseille","lat":43.29197,"lon":5.35807,"is_reserved":false,"is_disabled":false,"rental_uris":{"android":"levelo://app?vid=a7ac4e6e-f13e-4856-8233-27fbb4cc953e","ios":"levelo://app?vid=a7ac4e6e-f13e-4856-8233-27fbb4cc953e"},"vehicle_type_id":"4","last_reported":1773945644,"current_range_meters":3600,"station_id":"ce4bhb12rcd13ifvqel0","pricing_plan_id":"cebpf4jnsgd1na2vs0mg"},{"bike_id":"d0b1f448-6af4-4ef1-a755-e03baf4488aa","system_id":"levelo_inurba_marseille","lat":43.29299,"lon":5.35779,"is_reserved":false,"is_disabled":false,"rental_uris":{"android":"levelo://app?vid=d0b1f448-6af4-4ef1-a755-e03baf4488aa","ios":"levelo://app?vid=d0b1f448-6af4-4ef1-a755-e03baf4488aa"},"vehicle_type_id":"4","last_reported":1773945644,"current_range_meters":3600,"station_id":"","pricing_plan_id":"cebpf4jnsgd1na2vs0mg"},{"bike_id":"ab8e59d7-35b3-41e1-95f9-9d78741bc131","system_id":"levelo_inurba_marseille","lat":43.21742,"lon":5.34595,"is_reserved":false,"is_disabled":false,"rental_uris":{"android":"levelo://app?vid=ab8e59d7-35b3-41e1-95f9-9d78741bc131","ios":"levelo://app?vid=ab8e59d7-35b3-41e1-95f9-9d78741bc131"},"vehicle_type_id":"4","last_reported":1773945644,"current_range_meters":3600,"station_id":"","pricing_plan_id":"cebpf4jnsgd1na2vs0mg"},{"bike_id":"72e492c4-0343-4695-ad93-8176ad5e8de2","system_id":"levelo_inurba_marseille","lat":43.28884,"lon":5.35875,"is_reserved":false,"is_disabled":false,"rental_uris":{"android":"levelo://app?vid=72e492c4-0343-4695-ad93-8176ad5e8de2","ios":"levelo://app?vid=72e492c4-0343-4695-ad93-8176ad5e8de2"},"vehicle_type_id":"4","last_reported":1773945644,"current_range_meters":3600,"station_id":"ce4bhb12rcd13ifvqem0","pricing_plan_id":"cebpf4jnsgd1na2vs0mg"},{"bike_id":"144100c8-4e32-4829-a2c7-7d3d985d4ed5","system_id":"levelo_inurba_marseille","lat":43.29788,"lon":5.38099,"is_reserved":false,"is_disabled":false,"rental_uris":{"android":"levelo://app?vid=144100c8-4e32-4829-a2c7-7d3d985d4ed5","ios":"levelo://app?vid=144100c8-4e32-4829-a2c7-7d3d985d4ed5"},"vehicle_type_id":"4","last_reported":1773945644,"current_range_meters":3600,"station_id":"ce4bgip2rcd13ifvqbb0","pricing_plan_id":"cebpf4jnsgd1na2vs0mg"},{"bike_id":"2b9d3d39-1405-49f9-97c0-4318c8a64ea3","system_id":"levelo_inurba_marseille","lat":43.22923,"lon":5.35378,"is_reserved":false,"is_disabled":false,"rental_uris":{"android":"levelo://app?vid=2b9d3d39-1405-49f9-97c0-4318c8a64ea3","ios":"levelo://app?vid=2b9d3d39-1405-49f9-97c0-4318c8a64ea3"},"vehicle_type_id":"4","last_reported":1773945644,"current_range_meters":3600,"station_id":"cpo3532slgdg3j2ikp40","pricing_plan_id":"cebpf4jnsgd1na2vs0mg"},{"bike_id":"54432054-fd3a-4a90-9fc2-b7c3a0a99aae","system_id":"levelo_inurba_marseille","lat":43.29585,"lon":5.36763,"is_reserved":false,"is_disabled":false,"rental_uris":{"android":"levelo://app?vid=54432054-fd3a-4a90-9fc2-b7c3a0a99aae","ios":"levelo://app?vid=54432054-fd3a-4a90-9fc2-b7c3a0a99aae"},"vehicle_type_id":"4","last_reported":1773945644,"current_range_meters":3600,"station_id":"ce4bgph2rcd13ifvqc2g","pricing_plan_id":"cebpf4jnsgd1na2vs0mg"},{"bike_id":"fad8e96d-acb2-4874-9608-7180f6b034b8","system_id":"levelo_inurba_marseille","lat":43.2914,"lon":5.40791,"is_reserved":false,"is_disabled":false,"rental_uris":{"android":"levelo://app?vid=fad8e96d-acb2-4874-9608-7180f6b034b8","ios":"levelo://app?vid=fad8e96d-acb2-4874-9608-7180f6b034b8"},"vehicle_type_id":"4","last_reported":1773945644,"current_range_meters":3600,"station_id":"","pricing_plan_id":"cebpf4jnsgd1na2vs0mg"},{"bike_id":"447b11a1-21b5-4523-80dc-ebe593853403","system_id":"levelo_inurba_marseille","lat":43.29132,"lon":5.42614,"is_reserved":false,"is_disabled":false,"rental_uris":{"android":"levelo://app?vid=447b11a1-21b5-4523-80dc-ebe593853403","ios":"levelo://app?vid=447b11a1-21b5-4523-80dc-ebe593853403"},"vehicle_type_id":"4","last_reported":1773945644,"current_range_meters":3600,"station_id":"","pricing_plan_id":"cebpf4jnsgd1na2vs0mg"},{"bike_id":"d579ae8d-7b0e-4575-b096-870b4121b2e5","system_id":"levelo_inurba_marseille","lat":43.24075,"lon":5.37755,"is_reserved":false,"is_disabled":false,"rental_uris":{"android":"levelo://app?vid=d579ae8d-7b0e-4575-b096-870b4121b2e5","ios":"levelo://app?vid=d579ae8d-7b0e-4575-b096-870b4121b2e5"},"vehicle_type_id":"4","last_reported":1773945644,"current_range_meters":3600,"station_id":"ce4bhnp2rcd13ifvqgvg","pricing_plan_id":"cebpf4jnsgd1na2vs0mg"},{"bike_id":"f11c3308-36cb-41d9-9775-f36c4dd3ac39","system_id":"levelo_inurba_marseille","lat":43.29292,"lon":5.38452,"is_reserved":false,"is_disabled":false,"rental_uris":{"android":"levelo://app?vid=f11c3308-36cb-41d9-9775-f36c4dd3ac39","ios":"levelo://app?vid=f11c3308-36cb-41d9-9775-f36c4dd3ac39"},"vehicle_type_id":"4","last_reported":1773945644,"current_range_meters":3600,"station_id":"ce4bh692rcd13ifvqea0","pricing_plan_id":"cebpf4jnsgd1na2vs0mg"},{"bike_id":"bf6d105c-dea9-4ae1-8b89-e0ffb1e9a503","system_id":"levelo_inurba_marseille","lat":43.29536,"lon":5.3855,"is_reserved":false,"is_disabled":false,"rental_uris":{"android":"levelo://app?vid=bf6d105c-dea9-4ae1-8b89-e0ffb1e9a503","ios":"levelo://app?vid=bf6d105c-dea9-4ae1-8b89-e0ffb1e9a503"},"vehicle_type_id":"4","last_reported":1773945644,"current_range_meters":3600,"station_id":"ce4bgih2rcd13ifvqba0","pricing_plan_id":"cebpf4jnsgd1na2vs0mg"},{"bike_id":"f1f29756-a30e-4895-81ad-b432b72c9473","system_id":"levelo_inurba_marseille","lat":43.2893,"lon":5.36628,"is_reserved":false,"is_disabled":false,"rental_uris":{"android":"levelo://app?vid=f1f29756-a30e-4895-81ad-b432b72c9473","ios":"levelo://app?vid=f1f29756-a30e-4895-81ad-b432b72c9473"},"vehicle_type_id":"4","last_reported":1773945644,"current_range_meters":3600,"station_id":"ce4bhap2rcd13ifvqek0","pricing_plan_id":"cebpf4jnsgd1na2vs0mg"},{"bike_id":"1ed14975-ffc4-4856-bb43-9428d8562a11","system_id":"levelo_inurba_marseille","lat":43.28342,"lon":5.38103,"is_reserved":false,"is_disabled":false,"rental_uris":{"android":"levelo://app?vid=1ed14975-ffc4-4856-bb43-9428d8562a11","ios":"levelo://app?vid=1ed14975-ffc4-4856-bb43-9428d8562a11"},"vehicle_type_id":"4","last_reported":1773945644,"current_range_meters":3600,"station_id":"ce4bh412rcd13ifvqdr0","pricing_plan_id":"cebpf4jnsgd1na2vs0mg"},{"bike_id":"2d184bf0-a69b-4c2f-9550-16cba348a157","system_id":"levelo_inurba_marseille","lat":43.29764,"lon":5.38097,"is_reserved":false,"is_disabled":false,"rental_uris":{"android":"levelo://app?vid=2d184bf0-a69b-4c2f-9550-16cba348a157","ios":"levelo://app?vid=2d184bf0-a69b-4c2f-9550-16cba348a157"},"vehicle_type_id":"4","last_reported":1773945644,"current_range_meters":4000,"station_id":"ce4bgip2rcd13ifvqbb0","pricing_plan_id":"cebpf4jnsgd1na2vs0mg"},{"bike_id":"1daac07b-574e-4f85-bef3-58d0379da425","system_id":"levelo_inurba_marseille","lat":43.25499,"lon":5.37678,"is_reserved":false,"is_disabled":false,"rental_uris":{"android":"levelo://app?vid=1daac07b-574e-4f85-bef3-58d0379da425","ios":"levelo://app?vid=1daac07b-574e-4f85-bef3-58d0379da425"},"vehicle_type_id":"4","last_reported":1773945644,"current_range_meters":4000,"station_id":"ce4bhh12rcd13ifvqff0","pricing_plan_id":"cebpf4jnsgd1na2vs0mg"},{"bike_id":"74520d74-ff4b-464c-910a-e8a51b881a3d","system_id":"levelo_inurba_marseille","lat":43.25525,"lon":5.37684,"is_reserved":false,"is_disabled":false,"rental_uris":{"android":"levelo://app?vid=74520d74-ff4b-464c-910a-e8a51b881a3d","ios":"levelo://app?vid=74520d74-ff4b-464c-910a-e8a51b881a3d"},"vehicle_type_id":"4","last_reported":1773945644,"current_range_meters":4000,"station_id":"ce4bhh12rcd13ifvqff0","pricing_plan_id":"cebpf4jnsgd1na2vs0mg"},{"bike_id":"c5abb56d-ac51-4a3a-a661-3c5d43764dc2","system_id":"levelo_inurba_marseille","lat":43.29193,"lon":5.39327,"is_reserved":false,"is_disabled":false,"rental_uris":{"android":"levelo://app?vid=c5abb56d-ac51-4a3a-a661-3c5d43764dc2","ios":"levelo://app?vid=c5abb56d-ac51-4a3a-a661-3c5d43764dc2"},"vehicle_type_id":"4","last_reported":1773945644,"current_range_meters":4000,"station_id":"ce4bh192rcd13ifvqdd0","pricing_plan_id":"cebpf4jnsgd1na2vs0mg"},{"bike_id":"506661fa-d7d4-473c-8038-c16d45410fe8","system_id":"levelo_inurba_marseille","lat":43.28864,"lon":5.4252,"is_reserved":false,"is_disabled":false,"rental_uris":{"android":"levelo://app?vid=506661fa-d7d4-473c-8038-c16d45410fe8","ios":"levelo://app?vid=506661fa-d7d4-473c-8038-c16d45410fe8"},"vehicle_type_id":"4","last_reported":1773945644,"current_range_meters":4000,"station_id":"","pricing_plan_id":"cebpf4jnsgd1na2vs0mg"},{"bike_id":"e75fa9f3-97fe-4823-a404-f6ac817d7e6e","system_id":"levelo_inurba_marseille","lat":43.29036,"lon":5.39967,"is_reserved":false,"is_disabled":false,"rental_uris":{"android":"levelo://app?vid=e75fa9f3-97fe-4823-a404-f6ac817d7e6e","ios":"levelo://app?vid=e75fa9f3-97fe-4823-a404-f6ac817d7e6e"},"vehicle_type_id":"4","last_reported":1773945644,"current_range_meters":4000,"station_id":"ce4bh392rcd13ifvqdm0","pricing_plan_id":"cebpf4jnsgd1na2vs0mg"},{"bike_id":"42e6f076-fbf7-431f-8b85-2c8812fb8006","system_id":"levelo_inurba_marseille","lat":43.254665,"lon":5.376381,"is_reserved":false,"is_disabled":false,"rental_uris":{"android":"levelo://app?vid=42e6f076-fbf7-431f-8b85-2c8812fb8006","ios":"levelo://app?vid=42e6f076-fbf7-431f-8b85-2c8812fb8006"},"vehicle_type_id":"4","last_reported":1773945644,"current_range_meters":4000,"station_id":"ce4bhh12rcd13ifvqff0","pricing_plan_id":"cebpf4jnsgd1na2vs0mg"},{"bike_id":"29ca079b-50a3-46cc-b23f-205697515a10","system_id":"levelo_inurba_marseille","lat":43.25563,"lon":5.38274,"is_reserved":false,"is_disabled":false,"rental_uris":{"android":"levelo://app?vid=29ca079b-50a3-46cc-b23f-205697515a10","ios":"levelo://app?vid=29ca079b-50a3-46cc-b23f-205697515a10"},"vehicle_type_id":"4","last_reported":1773945644,"current_range_meters":4000,"station_id":"ce4bhih2rcd13ifvqfs0","pricing_plan_id":"cebpf4jnsgd1na2vs0mg"},{"bike_id":"143d6153-4043-4ea7-8b2d-618e6018aaa3","system_id":"levelo_inurba_marseille","lat":43.28941,"lon":5.364,"is_reserved":false,"is_disabled":false,"rental_uris":{"android":"levelo://app?vid=143d6153-4043-4ea7-8b2d-618e6018aaa3","ios":"levelo://app?vid=143d6153-4043-4ea7-8b2d-618e6018aaa3"},"vehicle_type_id":"4","last_reported":1773945644,"current_range_meters":4000,"station_id":"ce4bhc92rcd13ifvqetg","pricing_plan_id":"cebpf4jnsgd1na2vs0mg"},{"bike_id":"a15529e2-dad5-4ece-a060-3e7f5185c086","system_id":"levelo_inurba_marseille","lat":43.31362,"lon":5.38504,"is_reserved":false,"is_disabled":false,"rental_uris":{"android":"levelo://app?vid=a15529e2-dad5-4ece-a060-3e7f5185c086","ios":"levelo://app?vid=a15529e2-dad5-4ece-a060-3e7f5185c086"},"vehicle_type_id":"4","last_reported":1773945644,"current_range_meters":4000,"station_id":"ce4bgt92rcd13ifvqcf0","pricing_plan_id":"cebpf4jnsgd1na2vs0mg"},{"bike_id":"dd8390c9-eed9-4b5d-95df-1b40250bc11f","system_id":"levelo_inurba_marseille","lat":43.21622,"lon":5.34537,"is_reserved":false,"is_disabled":false,"rental_uris":{"android":"levelo://app?vid=dd8390c9-eed9-4b5d-95df-1b40250bc11f","ios":"levelo://app?vid=dd8390c9-eed9-4b5d-95df-1b40250bc11f"},"vehicle_type_id":"4","last_reported":1773945644,"current_range_meters":4000,"station_id":"","pricing_plan_id":"cebpf4jnsgd1na2vs0mg"},{"bike_id":"e193a20b-450a-4386-b80c-7f4426970f73","system_id":"levelo_inurba_marseille","lat":43.29574,"lon":5.36764,"is_reserved":false,"is_disabled":false,"rental_uris":{"android":"levelo://app?vid=e193a20b-450a-4386-b80c-7f4426970f73","ios":"levelo://app?vid=e193a20b-450a-4386-b80c-7f4426970f73"},"vehicle_type_id":"4","last_reported":1773945644,"current_range_meters":4000,"station_id":"ce4bgph2rcd13ifvqc2g","pricing_plan_id":"cebpf4jnsgd1na2vs0mg"},{"bike_id":"a244dbb4-0f4e-4feb-860e-324fc6945b7a","system_id":"levelo_inurba_marseille","lat":43.29535,"lon":5.39047,"is_reserved":false,"is_disabled":false,"rental_uris":{"android":"levelo://app?vid=a244dbb4-0f4e-4feb-860e-324fc6945b7a","ios":"levelo://app?vid=a244dbb4-0f4e-4feb-860e-324fc6945b7a"},"vehicle_type_id":"4","last_reported":1773945644,"current_range_meters":4400,"station_id":"ce4bh3p2rcd13ifvqdp0","pricing_plan_id":"cebpf4jnsgd1na2vs0mg"},{"bike_id":"1fdbd032-af28-4158-a02e-01bb107fd2a7","system_id":"levelo_inurba_marseille","lat":43.337444,"lon":5.374475,"is_reserved":false,"is_disabled":false,"rental_uris":{"android":"levelo://app?vid=1fdbd032-af28-4158-a02e-01bb107fd2a7","ios":"levelo://app?vid=1fdbd032-af28-4158-a02e-01bb107fd2a7"},"vehicle_type_id":"4","last_reported":1773945644,"current_range_meters":4400,"station_id":"","pricing_plan_id":"cebpf4jnsgd1na2vs0mg"},{"bike_id":"1c51670a-46e5-4a0c-9d9c-3c2806d077a8","system_id":"levelo_inurba_marseille","lat":43.29027,"lon":5.3813,"is_reserved":false,"is_disabled":true,"rental_uris":{"android":"levelo://app?vid=1c51670a-46e5-4a0c-9d9c-3c2806d077a8","ios":"levelo://app?vid=1c51670a-46e5-4a0c-9d9c-3c2806d077a8"},"vehicle_type_id":"4","last_reported":1773945644,"current_range_meters":4400,"station_id":"ce4bh4p2rcd13ifvqe1g","pricing_plan_id":"cebpf4jnsgd1na2vs0mg"},{"bike_id":"07f521f2-168c-437f-9ee7-8d100cdbdf6d","system_id":"levelo_inurba_marseille","lat":43.25592,"lon":5.38258,"is_reserved":false,"is_disabled":false,"rental_uris":{"android":"levelo://app?vid=07f521f2-168c-437f-9ee7-8d100cdbdf6d","ios":"levelo://app?vid=07f521f2-168c-437f-9ee7-8d100cdbdf6d"},"vehicle_type_id":"4","last_reported":1773945644,"current_range_meters":4400,"station_id":"ce4bhih2rcd13ifvqfs0","pricing_plan_id":"cebpf4jnsgd1na2vs0mg"},{"bike_id":"392fcf9a-86d3-4e46-a438-cc6b3eecb0e3","system_id":"levelo_inurba_marseille","lat":43.28671,"lon":5.3626,"is_reserved":false,"is_disabled":false,"rental_uris":{"android":"levelo://app?vid=392fcf9a-86d3-4e46-a438-cc6b3eecb0e3","ios":"levelo://app?vid=392fcf9a-86d3-4e46-a438-cc6b3eecb0e3"},"vehicle_type_id":"4","last_reported":1773945644,"current_range_meters":4400,"station_id":"ce4bhah2rcd13ifvqej0","pricing_plan_id":"cebpf4jnsgd1na2vs0mg"},{"bike_id":"13ad50bf-7f2f-4ad1-a82f-209db682ff58","system_id":"levelo_inurba_marseille","lat":43.26562,"lon":5.39013,"is_reserved":false,"is_disabled":true,"rental_uris":{"android":"levelo://app?vid=13ad50bf-7f2f-4ad1-a82f-209db682ff58","ios":"levelo://app?vid=13ad50bf-7f2f-4ad1-a82f-209db682ff58"},"vehicle_type_id":"4","last_reported":1773945644,"current_range_meters":4400,"station_id":"ce4bhe12rcd13ifvqf30","pricing_plan_id":"cebpf4jnsgd1na2vs0mg"},{"bike_id":"5320a987-eba7-438e-a1ac-4c015f9cca66","system_id":"levelo_inurba_marseille","lat":43.30891,"lon":5.39666,"is_reserved":false,"is_disabled":false,"rental_uris":{"android":"levelo://app?vid=5320a987-eba7-438e-a1ac-4c015f9cca66","ios":"levelo://app?vid=5320a987-eba7-438e-a1ac-4c015f9cca66"},"vehicle_type_id":"4","last_reported":1773945644,"current_range_meters":4400,"station_id":"ce4bh012rcd13ifvqcv0","pricing_plan_id":"cebpf4jnsgd1na2vs0mg"},{"bike_id":"95d31319-d36d-403e-adf6-0b51cdaa5b1b","system_id":"levelo_inurba_marseille","lat":43.31422,"lon":5.39244,"is_reserved":false,"is_disabled":true,"rental_uris":{"android":"levelo://app?vid=95d31319-d36d-403e-adf6-0b51cdaa5b1b","ios":"levelo://app?vid=95d31319-d36d-403e-adf6-0b51cdaa5b1b"},"vehicle_type_id":"4","last_reported":1773945644,"current_range_meters":4400,"station_id":"","pricing_plan_id":"cebpf4jnsgd1na2vs0mg"},{"bike_id":"d29c05f8-d760-43ef-be8f-e483abd8aa24","system_id":"levelo_inurba_marseille","lat":43.27612,"lon":5.36099,"is_reserved":false,"is_disabled":false,"rental_uris":{"android":"levelo://app?vid=d29c05f8-d760-43ef-be8f-e483abd8aa24","ios":"levelo://app?vid=d29c05f8-d760-43ef-be8f-e483abd8aa24"},"vehicle_type_id":"4","last_reported":1773945644,"current_range_meters":4400,"station_id":"ce4bgj92rcd13ifvqbe0","pricing_plan_id":"cebpf4jnsgd1na2vs0mg"},{"bike_id":"ee9d83ea-4edf-4b1f-8714-2525a5649daf","system_id":"levelo_inurba_marseille","lat":43.24458,"lon":5.4254,"is_reserved":false,"is_disabled":false,"rental_uris":{"android":"levelo://app?vid=ee9d83ea-4edf-4b1f-8714-2525a5649daf","ios":"levelo://app?vid=ee9d83ea-4edf-4b1f-8714-2525a5649daf"},"vehicle_type_id":"4","last_reported":1773945644,"current_range_meters":4400,"station_id":"st_d4a3vfp97mjs738cd8kg","pricing_plan_id":"cebpf4jnsgd1na2vs0mg"},{"bike_id":"16fb0100-e164-407a-a015-8c7e27a01b7f","system_id":"levelo_inurba_marseille","lat":43.31557,"lon":5.38045,"is_reserved":false,"is_disabled":false,"rental_uris":{"android":"levelo://app?vid=16fb0100-e164-407a-a015-8c7e27a01b7f","ios":"levelo://app?vid=16fb0100-e164-407a-a015-8c7e27a01b7f"},"vehicle_type_id":"4","last_reported":1773945644,"current_range_meters":4400,"station_id":"ce4bhsp2rcd13ifvqi50","pricing_plan_id":"cebpf4jnsgd1na2vs0mg"},{"bike_id":"aef78bd0-ea9a-490e-b29e-79fe1986976a","system_id":"levelo_inurba_marseille","lat":43.24647,"lon":5.3889,"is_reserved":false,"is_disabled":false,"rental_uris":{"android":"levelo://app?vid=aef78bd0-ea9a-490e-b29e-79fe1986976a","ios":"levelo://app?vid=aef78bd0-ea9a-490e-b29e-79fe1986976a"},"vehicle_type_id":"4","last_reported":1773945644,"current_range_meters":4400,"station_id":"ce4bhg12rcd13ifvqf60","pricing_plan_id":"cebpf4jnsgd1na2vs0mg"},{"bike_id":"3245d5c2-d6ec-4b6c-a71e-d5a450843d6c","system_id":"levelo_inurba_marseille","lat":43.30917,"lon":5.36856,"is_reserved":false,"is_disabled":false,"rental_uris":{"android":"levelo://app?vid=3245d5c2-d6ec-4b6c-a71e-d5a450843d6c","ios":"levelo://app?vid=3245d5c2-d6ec-4b6c-a71e-d5a450843d6c"},"vehicle_type_id":"4","last_reported":1773945644,"current_range_meters":4400,"station_id":"ce4bgn92rcd13ifvqbvg","pricing_plan_id":"cebpf4jnsgd1na2vs0mg"},{"bike_id":"d154e39b-bb17-44a2-b44f-05209b2a5131","system_id":"levelo_inurba_marseille","lat":43.21739,"lon":5.34605,"is_reserved":false,"is_disabled":false,"rental_uris":{"android":"levelo://app?vid=d154e39b-bb17-44a2-b44f-05209b2a5131","ios":"levelo://app?vid=d154e39b-bb17-44a2-b44f-05209b2a5131"},"vehicle_type_id":"4","last_reported":1773945644,"current_range_meters":4800,"station_id":"","pricing_plan_id":"cebpf4jnsgd1na2vs0mg"},{"bike_id":"961fd97f-9d3b-4565-94a9-a1d251edaab3","system_id":"levelo_inurba_marseille","lat":43.30204,"lon":5.39474,"is_reserved":false,"is_disabled":false,"rental_uris":{"android":"levelo://app?vid=961fd97f-9d3b-4565-94a9-a1d251edaab3","ios":"levelo://app?vid=961fd97f-9d3b-4565-94a9-a1d251edaab3"},"vehicle_type_id":"4","last_reported":1773945644,"current_range_meters":4800,"station_id":"ce4bh0p2rcd13ifvqd70","pricing_plan_id":"cebpf4jnsgd1na2vs0mg"},{"bike_id":"2bb72e73-a4d4-4f71-90a1-243a66d536e6","system_id":"levelo_inurba_marseille","lat":43.30425,"lon":5.38907,"is_reserved":false,"is_disabled":false,"rental_uris":{"android":"levelo://app?vid=2bb72e73-a4d4-4f71-90a1-243a66d536e6","ios":"levelo://app?vid=2bb72e73-a4d4-4f71-90a1-243a66d536e6"},"vehicle_type_id":"4","last_reported":1773945644,"current_range_meters":4800,"station_id":"ce4bgk12rcd13ifvqbi0","pricing_plan_id":"cebpf4jnsgd1na2vs0mg"},{"bike_id":"69eb8448-c0e0-496f-831c-8ada77fd31e2","system_id":"levelo_inurba_marseille","lat":43.2306,"lon":5.35487,"is_reserved":false,"is_disabled":false,"rental_uris":{"android":"levelo://app?vid=69eb8448-c0e0-496f-831c-8ada77fd31e2","ios":"levelo://app?vid=69eb8448-c0e0-496f-831c-8ada77fd31e2"},"vehicle_type_id":"4","last_reported":1773945644,"current_range_meters":4800,"station_id":"cpo3342slgdg3j2ifvpg","pricing_plan_id":"cebpf4jnsgd1na2vs0mg"},{"bike_id":"c411ab25-d870-4153-b22f-a16bbac41f8f","system_id":"levelo_inurba_marseille","lat":43.29911,"lon":5.38142,"is_reserved":false,"is_disabled":false,"rental_uris":{"android":"levelo://app?vid=c411ab25-d870-4153-b22f-a16bbac41f8f","ios":"levelo://app?vid=c411ab25-d870-4153-b22f-a16bbac41f8f"},"vehicle_type_id":"4","last_reported":1773945644,"current_range_meters":4800,"station_id":"ce4bgj12rcd13ifvqbc0","pricing_plan_id":"cebpf4jnsgd1na2vs0mg"},{"bike_id":"4e3195b9-dd9e-464c-a049-e82a7bc62b10","system_id":"levelo_inurba_marseille","lat":43.29918,"lon":5.39759,"is_reserved":false,"is_disabled":false,"rental_uris":{"android":"levelo://app?vid=4e3195b9-dd9e-464c-a049-e82a7bc62b10","ios":"levelo://app?vid=4e3195b9-dd9e-464c-a049-e82a7bc62b10"},"vehicle_type_id":"4","last_reported":1773945644,"current_range_meters":4800,"station_id":"ce4bh0h2rcd13ifvqd50","pricing_plan_id":"cebpf4jnsgd1na2vs0mg"},{"bike_id":"dc0f9891-d222-4b5b-a342-dcb03c4b8dfa","system_id":"levelo_inurba_marseille","lat":43.31719,"lon":5.37828,"is_reserved":false,"is_disabled":false,"rental_uris":{"android":"levelo://app?vid=dc0f9891-d222-4b5b-a342-dcb03c4b8dfa","ios":"levelo://app?vid=dc0f9891-d222-4b5b-a342-dcb03c4b8dfa"},"vehicle_type_id":"4","last_reported":1773945644,"current_range_meters":4800,"station_id":"","pricing_plan_id":"cebpf4jnsgd1na2vs0mg"},{"bike_id":"bda67b80-d41f-4a57-8002-31930f3b17bc","system_id":"levelo_inurba_marseille","lat":43.29872,"lon":5.38906,"is_reserved":false,"is_disabled":false,"rental_uris":{"android":"levelo://app?vid=bda67b80-d41f-4a57-8002-31930f3b17bc","ios":"levelo://app?vid=bda67b80-d41f-4a57-8002-31930f3b17bc"},"vehicle_type_id":"4","last_reported":1773945644,"current_range_meters":4800,"station_id":"ce4bh392rcd13ifvqdl0","pricing_plan_id":"cebpf4jnsgd1na2vs0mg"},{"bike_id":"92cda837-b605-4376-bfa2-1dbb296bb3c3","system_id":"levelo_inurba_marseille","lat":43.26786,"lon":5.39417,"is_reserved":false,"is_disabled":false,"rental_uris":{"android":"levelo://app?vid=92cda837-b605-4376-bfa2-1dbb296bb3c3","ios":"levelo://app?vid=92cda837-b605-4376-bfa2-1dbb296bb3c3"},"vehicle_type_id":"4","last_reported":1773945644,"current_range_meters":4800,"station_id":"ce4bhh12rcd13ifvqfg0","pricing_plan_id":"cebpf4jnsgd1na2vs0mg"},{"bike_id":"b540ff6b-9338-43e2-93e5-fd42f02236aa","system_id":"levelo_inurba_marseille","lat":43.29538,"lon":5.39044,"is_reserved":false,"is_disabled":false,"rental_uris":{"android":"levelo://app?vid=b540ff6b-9338-43e2-93e5-fd42f02236aa","ios":"levelo://app?vid=b540ff6b-9338-43e2-93e5-fd42f02236aa"},"vehicle_type_id":"4","last_reported":1773945644,"current_range_meters":4800,"station_id":"ce4bh3p2rcd13ifvqdp0","pricing_plan_id":"cebpf4jnsgd1na2vs0mg"},{"bike_id":"08cc85e2-c3f1-42ef-a344-8f7a043f58f0","system_id":"levelo_inurba_marseille","lat":43.28926,"lon":5.38403,"is_reserved":false,"is_disabled":false,"rental_uris":{"android":"levelo://app?vid=08cc85e2-c3f1-42ef-a344-8f7a043f58f0","ios":"levelo://app?vid=08cc85e2-c3f1-42ef-a344-8f7a043f58f0"},"vehicle_type_id":"4","last_reported":1773945644,"current_range_meters":4800,"station_id":"ce4bh612rcd13ifvqe6g","pricing_plan_id":"cebpf4jnsgd1na2vs0mg"},{"bike_id":"787ebd0b-6a35-4ee1-94a1-e86c75138f65","system_id":"levelo_inurba_marseille","lat":43.28102,"lon":5.37853,"is_reserved":false,"is_disabled":false,"rental_uris":{"android":"levelo://app?vid=787ebd0b-6a35-4ee1-94a1-e86c75138f65","ios":"levelo://app?vid=787ebd0b-6a35-4ee1-94a1-e86c75138f65"},"vehicle_type_id":"4","last_reported":1773945644,"current_range_meters":4800,"station_id":"ce4bha12rcd13ifvqee0","pricing_plan_id":"cebpf4jnsgd1na2vs0mg"},{"bike_id":"7f2dd9fb-d9b8-4d29-8bff-0f941c7238c9","system_id":"levelo_inurba_marseille","lat":43.27442,"lon":5.39405,"is_reserved":false,"is_disabled":false,"rental_uris":{"android":"levelo://app?vid=7f2dd9fb-d9b8-4d29-8bff-0f941c7238c9","ios":"levelo://app?vid=7f2dd9fb-d9b8-4d29-8bff-0f941c7238c9"},"vehicle_type_id":"4","last_reported":1773945644,"current_range_meters":4800,"station_id":"ce4bhdp2rcd13ifvqf20","pricing_plan_id":"cebpf4jnsgd1na2vs0mg"},{"bike_id":"0ee4ce16-829f-49ee-9a2a-4b4670dfbc6f","system_id":"levelo_inurba_marseille","lat":43.2847,"lon":5.48394,"is_reserved":false,"is_disabled":false,"rental_uris":{"android":"levelo://app?vid=0ee4ce16-829f-49ee-9a2a-4b4670dfbc6f","ios":"levelo://app?vid=0ee4ce16-829f-49ee-9a2a-4b4670dfbc6f"},"vehicle_type_id":"4","last_reported":1773945644,"current_range_meters":4800,"station_id":"st_d3svhcjqgbts73a3dn0g","pricing_plan_id":"cebpf4jnsgd1na2vs0mg"},{"bike_id":"caf5e45c-f3f2-43eb-99a6-b11ec33451e8","system_id":"levelo_inurba_marseille","lat":43.23984,"lon":5.36642,"is_reserved":false,"is_disabled":false,"rental_uris":{"android":"levelo://app?vid=caf5e45c-f3f2-43eb-99a6-b11ec33451e8","ios":"levelo://app?vid=caf5e45c-f3f2-43eb-99a6-b11ec33451e8"},"vehicle_type_id":"4","last_reported":1773945644,"current_range_meters":4800,"station_id":"ce4bhi12rcd13ifvqfp0","pricing_plan_id":"cebpf4jnsgd1na2vs0mg"},{"bike_id":"7e8b6cb5-137a-41fc-a670-68cf90671688","system_id":"levelo_inurba_marseille","lat":43.29267,"lon":5.38449,"is_reserved":false,"is_disabled":false,"rental_uris":{"android":"levelo://app?vid=7e8b6cb5-137a-41fc-a670-68cf90671688","ios":"levelo://app?vid=7e8b6cb5-137a-41fc-a670-68cf90671688"},"vehicle_type_id":"4","last_reported":1773945644,"current_range_meters":4800,"station_id":"ce4bh692rcd13ifvqea0","pricing_plan_id":"cebpf4jnsgd1na2vs0mg"},{"bike_id":"ad7f8723-c5c2-4880-9f55-aac6cea31f9a","system_id":"levelo_inurba_marseille","lat":43.29515,"lon":5.39048,"is_reserved":false,"is_disabled":false,"rental_uris":{"android":"levelo://app?vid=ad7f8723-c5c2-4880-9f55-aac6cea31f9a","ios":"levelo://app?vid=ad7f8723-c5c2-4880-9f55-aac6cea31f9a"},"vehicle_type_id":"4","last_reported":1773945644,"current_range_meters":4800,"station_id":"ce4bh3p2rcd13ifvqdp0","pricing_plan_id":"cebpf4jnsgd1na2vs0mg"},{"bike_id":"4fb83e48-9ddd-4a06-962f-2206a9a52063","system_id":"levelo_inurba_marseille","lat":43.29878,"lon":5.39746,"is_reserved":false,"is_disabled":false,"rental_uris":{"android":"levelo://app?vid=4fb83e48-9ddd-4a06-962f-2206a9a52063","ios":"levelo://app?vid=4fb83e48-9ddd-4a06-962f-2206a9a52063"},"vehicle_type_id":"4","last_reported":1773945644,"current_range_meters":4800,"station_id":"ce4bh0h2rcd13ifvqd50","pricing_plan_id":"cebpf4jnsgd1na2vs0mg"},{"bike_id":"46d5a887-e69e-4b92-9937-af16138c60d7","system_id":"levelo_inurba_marseille","lat":43.25562,"lon":5.38249,"is_reserved":false,"is_disabled":false,"rental_uris":{"android":"levelo://app?vid=46d5a887-e69e-4b92-9937-af16138c60d7","ios":"levelo://app?vid=46d5a887-e69e-4b92-9937-af16138c60d7"},"vehicle_type_id":"4","last_reported":1773945644,"current_range_meters":4800,"station_id":"ce4bhih2rcd13ifvqfs0","pricing_plan_id":"cebpf4jnsgd1na2vs0mg"},{"bike_id":"52a24a4b-b448-4ab7-b4fc-6481de5a165d","system_id":"levelo_inurba_marseille","lat":43.2927,"lon":5.3844,"is_reserved":false,"is_disabled":false,"rental_uris":{"android":"levelo://app?vid=52a24a4b-b448-4ab7-b4fc-6481de5a165d","ios":"levelo://app?vid=52a24a4b-b448-4ab7-b4fc-6481de5a165d"},"vehicle_type_id":"4","last_reported":1773945644,"current_range_meters":4800,"station_id":"ce4bh692rcd13ifvqea0","pricing_plan_id":"cebpf4jnsgd1na2vs0mg"},{"bike_id":"7e38db90-3227-499c-a268-b76fa6534a70","system_id":"levelo_inurba_marseille","lat":43.30287,"lon":5.37698,"is_reserved":false,"is_disabled":false,"rental_uris":{"android":"levelo://app?vid=7e38db90-3227-499c-a268-b76fa6534a70","ios":"levelo://app?vid=7e38db90-3227-499c-a268-b76fa6534a70"},"vehicle_type_id":"4","last_reported":1773945644,"current_range_meters":4800,"station_id":"ce4bguh2rcd13ifvqcj0","pricing_plan_id":"cebpf4jnsgd1na2vs0mg"},{"bike_id":"c39752ab-c51d-425c-ac87-ff7476209bd0","system_id":"levelo_inurba_marseille","lat":43.29868,"lon":5.39733,"is_reserved":false,"is_disabled":false,"rental_uris":{"android":"levelo://app?vid=c39752ab-c51d-425c-ac87-ff7476209bd0","ios":"levelo://app?vid=c39752ab-c51d-425c-ac87-ff7476209bd0"},"vehicle_type_id":"4","last_reported":1773945644,"current_range_meters":4800,"station_id":"ce4bh0h2rcd13ifvqd50","pricing_plan_id":"cebpf4jnsgd1na2vs0mg"},{"bike_id":"27cfd7f2-48c6-4fe4-9d82-e5b76120df75","system_id":"levelo_inurba_marseille","lat":43.29813,"lon":5.44064,"is_reserved":false,"is_disabled":false,"rental_uris":{"android":"levelo://app?vid=27cfd7f2-48c6-4fe4-9d82-e5b76120df75","ios":"levelo://app?vid=27cfd7f2-48c6-4fe4-9d82-e5b76120df75"},"vehicle_type_id":"4","last_reported":1773945644,"current_range_meters":5600,"station_id":"st_d3jp68qikq2c7381ktn0","pricing_plan_id":"cebpf4jnsgd1na2vs0mg"},{"bike_id":"174d3974-c735-4f47-926b-87dba695db90","system_id":"levelo_inurba_marseille","lat":43.23887,"lon":5.37447,"is_reserved":false,"is_disabled":false,"rental_uris":{"android":"levelo://app?vid=174d3974-c735-4f47-926b-87dba695db90","ios":"levelo://app?vid=174d3974-c735-4f47-926b-87dba695db90"},"vehicle_type_id":"4","last_reported":1773945644,"current_range_meters":5600,"station_id":"st_d6sm7csbq4hs73f8fpjg","pricing_plan_id":"cebpf4jnsgd1na2vs0mg"},{"bike_id":"719e9861-af82-4022-a2ea-bd7d6f00ff5f","system_id":"levelo_inurba_marseille","lat":43.28753,"lon":5.42526,"is_reserved":false,"is_disabled":true,"rental_uris":{"android":"levelo://app?vid=719e9861-af82-4022-a2ea-bd7d6f00ff5f","ios":"levelo://app?vid=719e9861-af82-4022-a2ea-bd7d6f00ff5f"},"vehicle_type_id":"4","last_reported":1773945644,"current_range_meters":5600,"station_id":"","pricing_plan_id":"cebpf4jnsgd1na2vs0mg"},{"bike_id":"802a88d0-b38d-474e-8f24-a49ad7b55e96","system_id":"levelo_inurba_marseille","lat":43.29186,"lon":5.39333,"is_reserved":false,"is_disabled":false,"rental_uris":{"android":"levelo://app?vid=802a88d0-b38d-474e-8f24-a49ad7b55e96","ios":"levelo://app?vid=802a88d0-b38d-474e-8f24-a49ad7b55e96"},"vehicle_type_id":"4","last_reported":1773945644,"current_range_meters":5600,"station_id":"ce4bh192rcd13ifvqdd0","pricing_plan_id":"cebpf4jnsgd1na2vs0mg"},{"bike_id":"9a9c26d8-b526-466a-90bf-11ff3bba5ea4","system_id":"levelo_inurba_marseille","lat":43.29303,"lon":5.37172,"is_reserved":false,"is_disabled":false,"rental_uris":{"android":"levelo://app?vid=9a9c26d8-b526-466a-90bf-11ff3bba5ea4","ios":"levelo://app?vid=9a9c26d8-b526-466a-90bf-11ff3bba5ea4"},"vehicle_type_id":"4","last_reported":1773945644,"current_range_meters":5600,"station_id":"ce4bgh92rcd13ifvqb40","pricing_plan_id":"cebpf4jnsgd1na2vs0mg"},{"bike_id":"59998ac5-653e-4918-8015-f0ae0936dcaa","system_id":"levelo_inurba_marseille","lat":43.29374,"lon":5.37854,"is_reserved":false,"is_disabled":false,"rental_uris":{"android":"levelo://app?vid=59998ac5-653e-4918-8015-f0ae0936dcaa","ios":"levelo://app?vid=59998ac5-653e-4918-8015-f0ae0936dcaa"},"vehicle_type_id":"4","last_reported":1773945644,"current_range_meters":5600,"station_id":"ce4bgjh2rcd13ifvqbf0","pricing_plan_id":"cebpf4jnsgd1na2vs0mg"},{"bike_id":"8de93d8f-26b3-449b-9a04-bba6830a3a4d","system_id":"levelo_inurba_marseille","lat":43.33725,"lon":5.39173,"is_reserved":false,"is_disabled":false,"rental_uris":{"android":"levelo://app?vid=8de93d8f-26b3-449b-9a04-bba6830a3a4d","ios":"levelo://app?vid=8de93d8f-26b3-449b-9a04-bba6830a3a4d"},"vehicle_type_id":"4","last_reported":1773945644,"current_range_meters":5600,"station_id":"ce4bhr92rcd13ifvqhsg","pricing_plan_id":"cebpf4jnsgd1na2vs0mg"},{"bike_id":"6f0da953-2adc-429d-bb7c-360d8a3447c9","system_id":"levelo_inurba_marseille","lat":43.27508,"lon":5.41595,"is_reserved":false,"is_disabled":false,"rental_uris":{"android":"levelo://app?vid=6f0da953-2adc-429d-bb7c-360d8a3447c9","ios":"levelo://app?vid=6f0da953-2adc-429d-bb7c-360d8a3447c9"},"vehicle_type_id":"4","last_reported":1773945644,"current_range_meters":5600,"station_id":"st_d6im8g6chgec73a5pndg","pricing_plan_id":"cebpf4jnsgd1na2vs0mg"},{"bike_id":"8cea7311-7d46-4e7b-b67c-37f1bbafc825","system_id":"levelo_inurba_marseille","lat":43.29215,"lon":5.36069,"is_reserved":false,"is_disabled":false,"rental_uris":{"android":"levelo://app?vid=8cea7311-7d46-4e7b-b67c-37f1bbafc825","ios":"levelo://app?vid=8cea7311-7d46-4e7b-b67c-37f1bbafc825"},"vehicle_type_id":"4","last_reported":1773945644,"current_range_meters":5600,"station_id":"ce4bhbh2rcd13ifvqeqg","pricing_plan_id":"cebpf4jnsgd1na2vs0mg"},{"bike_id":"28025302-46d2-4169-9ce9-8e064c7a81fd","system_id":"levelo_inurba_marseille","lat":43.26437,"lon":5.41098,"is_reserved":false,"is_disabled":true,"rental_uris":{"android":"levelo://app?vid=28025302-46d2-4169-9ce9-8e064c7a81fd","ios":"levelo://app?vid=28025302-46d2-4169-9ce9-8e064c7a81fd"},"vehicle_type_id":"4","last_reported":1773945644,"current_range_meters":5600,"station_id":"","pricing_plan_id":"cebpf4jnsgd1na2vs0mg"},{"bike_id":"e49b656b-03c2-45c8-ac66-a6c3f01b12f7","system_id":"levelo_inurba_marseille","lat":43.29038,"lon":5.38628,"is_reserved":false,"is_disabled":false,"rental_uris":{"android":"levelo://app?vid=e49b656b-03c2-45c8-ac66-a6c3f01b12f7","ios":"levelo://app?vid=e49b656b-03c2-45c8-ac66-a6c3f01b12f7"},"vehicle_type_id":"4","last_reported":1773945644,"current_range_meters":5600,"station_id":"ce4bh4p2rcd13ifvqe0g","pricing_plan_id":"cebpf4jnsgd1na2vs0mg"},{"bike_id":"73e44213-1cd8-4593-a09e-a9c4a914a5d2","system_id":"levelo_inurba_marseille","lat":43.28481,"lon":5.48396,"is_reserved":false,"is_disabled":false,"rental_uris":{"android":"levelo://app?vid=73e44213-1cd8-4593-a09e-a9c4a914a5d2","ios":"levelo://app?vid=73e44213-1cd8-4593-a09e-a9c4a914a5d2"},"vehicle_type_id":"4","last_reported":1773945644,"current_range_meters":5600,"station_id":"","pricing_plan_id":"cebpf4jnsgd1na2vs0mg"},{"bike_id":"78c86868-a79f-4f2a-bb9a-961b0f22d36b","system_id":"levelo_inurba_marseille","lat":43.29975,"lon":5.38623,"is_reserved":false,"is_disabled":false,"rental_uris":{"android":"levelo://app?vid=78c86868-a79f-4f2a-bb9a-961b0f22d36b","ios":"levelo://app?vid=78c86868-a79f-4f2a-bb9a-961b0f22d36b"},"vehicle_type_id":"4","last_reported":1773945644,"current_range_meters":5600,"station_id":"","pricing_plan_id":"cebpf4jnsgd1na2vs0mg"},{"bike_id":"e726d816-15a6-47a8-b210-48c4b2778597","system_id":"levelo_inurba_marseille","lat":43.290046,"lon":5.356117,"is_reserved":false,"is_disabled":false,"rental_uris":{"android":"levelo://app?vid=e726d816-15a6-47a8-b210-48c4b2778597","ios":"levelo://app?vid=e726d816-15a6-47a8-b210-48c4b2778597"},"vehicle_type_id":"4","last_reported":1773945644,"current_range_meters":5600,"station_id":"ce4bhbh2rcd13ifvqeo0","pricing_plan_id":"cebpf4jnsgd1na2vs0mg"},{"bike_id":"65518791-09ea-49fa-8ba6-d86c214c69fb","system_id":"levelo_inurba_marseille","lat":43.2926,"lon":5.38438,"is_reserved":false,"is_disabled":false,"rental_uris":{"android":"levelo://app?vid=65518791-09ea-49fa-8ba6-d86c214c69fb","ios":"levelo://app?vid=65518791-09ea-49fa-8ba6-d86c214c69fb"},"vehicle_type_id":"4","last_reported":1773945644,"current_range_meters":5600,"station_id":"ce4bh692rcd13ifvqea0","pricing_plan_id":"cebpf4jnsgd1na2vs0mg"},{"bike_id":"5f744b7f-d9ac-4940-9d12-c0e19756661f","system_id":"levelo_inurba_marseille","lat":43.29405,"lon":5.41302,"is_reserved":false,"is_disabled":false,"rental_uris":{"android":"levelo://app?vid=5f744b7f-d9ac-4940-9d12-c0e19756661f","ios":"levelo://app?vid=5f744b7f-d9ac-4940-9d12-c0e19756661f"},"vehicle_type_id":"4","last_reported":1773945644,"current_range_meters":5600,"station_id":"","pricing_plan_id":"cebpf4jnsgd1na2vs0mg"},{"bike_id":"1fa61de3-b178-4a2b-955c-80681f7198a9","system_id":"levelo_inurba_marseille","lat":43.2932,"lon":5.41182,"is_reserved":false,"is_disabled":false,"rental_uris":{"android":"levelo://app?vid=1fa61de3-b178-4a2b-955c-80681f7198a9","ios":"levelo://app?vid=1fa61de3-b178-4a2b-955c-80681f7198a9"},"vehicle_type_id":"4","last_reported":1773945644,"current_range_meters":5600,"station_id":"","pricing_plan_id":"cebpf4jnsgd1na2vs0mg"},{"bike_id":"f8002e32-7d40-48f8-99b3-a631b985eba5","system_id":"levelo_inurba_marseille","lat":43.337566,"lon":5.374557,"is_reserved":false,"is_disabled":false,"rental_uris":{"android":"levelo://app?vid=f8002e32-7d40-48f8-99b3-a631b985eba5","ios":"levelo://app?vid=f8002e32-7d40-48f8-99b3-a631b985eba5"},"vehicle_type_id":"4","last_reported":1773945644,"current_range_meters":6000,"station_id":"","pricing_plan_id":"cebpf4jnsgd1na2vs0mg"},{"bike_id":"0fbf59af-2cf9-474e-82b5-c2578fe6c4c3","system_id":"levelo_inurba_marseille","lat":43.27941,"lon":5.41029,"is_reserved":false,"is_disabled":false,"rental_uris":{"android":"levelo://app?vid=0fbf59af-2cf9-474e-82b5-c2578fe6c4c3","ios":"levelo://app?vid=0fbf59af-2cf9-474e-82b5-c2578fe6c4c3"},"vehicle_type_id":"4","last_reported":1773945644,"current_range_meters":6000,"station_id":"ce4bhnp2rcd13ifvqh0g","pricing_plan_id":"cebpf4jnsgd1na2vs0mg"},{"bike_id":"2f0354fc-31aa-4398-9c3e-f0f50b7b2184","system_id":"levelo_inurba_marseille","lat":43.24143,"lon":5.3973,"is_reserved":false,"is_disabled":false,"rental_uris":{"android":"levelo://app?vid=2f0354fc-31aa-4398-9c3e-f0f50b7b2184","ios":"levelo://app?vid=2f0354fc-31aa-4398-9c3e-f0f50b7b2184"},"vehicle_type_id":"4","last_reported":1773945644,"current_range_meters":6000,"station_id":"ce4bhn12rcd13ifvqgpg","pricing_plan_id":"cebpf4jnsgd1na2vs0mg"},{"bike_id":"6986ec35-d7db-4fdc-bfdd-383eb13e29ed","system_id":"levelo_inurba_marseille","lat":43.30142,"lon":5.38791,"is_reserved":false,"is_disabled":false,"rental_uris":{"android":"levelo://app?vid=6986ec35-d7db-4fdc-bfdd-383eb13e29ed","ios":"levelo://app?vid=6986ec35-d7db-4fdc-bfdd-383eb13e29ed"},"vehicle_type_id":"4","last_reported":1773945644,"current_range_meters":6000,"station_id":"ce4bghh2rcd13ifvqb60","pricing_plan_id":"cebpf4jnsgd1na2vs0mg"},{"bike_id":"8c29270d-5d11-446e-a3f0-f5c56ae9c816","system_id":"levelo_inurba_marseille","lat":43.27565,"lon":5.43294,"is_reserved":false,"is_disabled":false,"rental_uris":{"android":"levelo://app?vid=8c29270d-5d11-446e-a3f0-f5c56ae9c816","ios":"levelo://app?vid=8c29270d-5d11-446e-a3f0-f5c56ae9c816"},"vehicle_type_id":"4","last_reported":1773945644,"current_range_meters":6000,"station_id":"","pricing_plan_id":"cebpf4jnsgd1na2vs0mg"},{"bike_id":"464664a2-434c-4f0d-b549-56419f56f9eb","system_id":"levelo_inurba_marseille","lat":43.24398,"lon":5.37065,"is_reserved":false,"is_disabled":false,"rental_uris":{"android":"levelo://app?vid=464664a2-434c-4f0d-b549-56419f56f9eb","ios":"levelo://app?vid=464664a2-434c-4f0d-b549-56419f56f9eb"},"vehicle_type_id":"4","last_reported":1773945644,"current_range_meters":6000,"station_id":"ce4bhhh2rcd13ifvqfk0","pricing_plan_id":"cebpf4jnsgd1na2vs0mg"},{"bike_id":"80b7eb86-d44d-4945-8f3c-c36c8aeeddf5","system_id":"levelo_inurba_marseille","lat":43.28214,"lon":5.39063,"is_reserved":false,"is_disabled":false,"rental_uris":{"android":"levelo://app?vid=80b7eb86-d44d-4945-8f3c-c36c8aeeddf5","ios":"levelo://app?vid=80b7eb86-d44d-4945-8f3c-c36c8aeeddf5"},"vehicle_type_id":"4","last_reported":1773945644,"current_range_meters":6000,"station_id":"ce4bhn92rcd13ifvqgsg","pricing_plan_id":"cebpf4jnsgd1na2vs0mg"},{"bike_id":"5dddae1e-6c52-4d9e-96a5-9193e472e084","system_id":"levelo_inurba_marseille","lat":43.26946,"lon":5.3891,"is_reserved":false,"is_disabled":false,"rental_uris":{"android":"levelo://app?vid=5dddae1e-6c52-4d9e-96a5-9193e472e084","ios":"levelo://app?vid=5dddae1e-6c52-4d9e-96a5-9193e472e084"},"vehicle_type_id":"4","last_reported":1773945644,"current_range_meters":6000,"station_id":"ce4bhhh2rcd13ifvqfl0","pricing_plan_id":"cebpf4jnsgd1na2vs0mg"},{"bike_id":"7db5496d-09d6-4603-99f4-8236883013ea","system_id":"levelo_inurba_marseille","lat":43.27069,"lon":5.42279,"is_reserved":false,"is_disabled":false,"rental_uris":{"android":"levelo://app?vid=7db5496d-09d6-4603-99f4-8236883013ea","ios":"levelo://app?vid=7db5496d-09d6-4603-99f4-8236883013ea"},"vehicle_type_id":"4","last_reported":1773945644,"current_range_meters":6000,"station_id":"ce4bhk92rcd13ifvqgb0","pricing_plan_id":"cebpf4jnsgd1na2vs0mg"},{"bike_id":"51c68aaf-50e8-493f-b5f9-a00f50ba2704","system_id":"levelo_inurba_marseille","lat":43.26572,"lon":5.39003,"is_reserved":false,"is_disabled":false,"rental_uris":{"android":"levelo://app?vid=51c68aaf-50e8-493f-b5f9-a00f50ba2704","ios":"levelo://app?vid=51c68aaf-50e8-493f-b5f9-a00f50ba2704"},"vehicle_type_id":"4","last_reported":1773945644,"current_range_meters":6000,"station_id":"ce4bhe12rcd13ifvqf30","pricing_plan_id":"cebpf4jnsgd1na2vs0mg"},{"bike_id":"d31f30f9-c644-42a8-ba33-167d11dae2f7","system_id":"levelo_inurba_marseille","lat":43.29597,"lon":5.38107,"is_reserved":false,"is_disabled":false,"rental_uris":{"android":"levelo://app?vid=d31f30f9-c644-42a8-ba33-167d11dae2f7","ios":"levelo://app?vid=d31f30f9-c644-42a8-ba33-167d11dae2f7"},"vehicle_type_id":"4","last_reported":1773945644,"current_range_meters":6000,"station_id":"ce4bgl12rcd13ifvqbo0","pricing_plan_id":"cebpf4jnsgd1na2vs0mg"},{"bike_id":"6758c5b1-42aa-479e-9750-b0e19de057e9","system_id":"levelo_inurba_marseille","lat":43.29265,"lon":5.38443,"is_reserved":false,"is_disabled":false,"rental_uris":{"android":"levelo://app?vid=6758c5b1-42aa-479e-9750-b0e19de057e9","ios":"levelo://app?vid=6758c5b1-42aa-479e-9750-b0e19de057e9"},"vehicle_type_id":"4","last_reported":1773945644,"current_range_meters":6000,"station_id":"ce4bh692rcd13ifvqea0","pricing_plan_id":"cebpf4jnsgd1na2vs0mg"},{"bike_id":"0114d93e-0be4-4461-998a-60635e7b2b38","system_id":"levelo_inurba_marseille","lat":43.25118,"lon":5.40316,"is_reserved":false,"is_disabled":false,"rental_uris":{"android":"levelo://app?vid=0114d93e-0be4-4461-998a-60635e7b2b38","ios":"levelo://app?vid=0114d93e-0be4-4461-998a-60635e7b2b38"},"vehicle_type_id":"4","last_reported":1773945644,"current_range_meters":6000,"station_id":"ce4bhlh2rcd13ifvqgig","pricing_plan_id":"cebpf4jnsgd1na2vs0mg"},{"bike_id":"6537b099-0b62-49e3-8a0a-bc9ecc7cc65b","system_id":"levelo_inurba_marseille","lat":43.26746,"lon":5.39417,"is_reserved":false,"is_disabled":false,"rental_uris":{"android":"levelo://app?vid=6537b099-0b62-49e3-8a0a-bc9ecc7cc65b","ios":"levelo://app?vid=6537b099-0b62-49e3-8a0a-bc9ecc7cc65b"},"vehicle_type_id":"4","last_reported":1773945644,"current_range_meters":6000,"station_id":"ce4bhh12rcd13ifvqfg0","pricing_plan_id":"cebpf4jnsgd1na2vs0mg"},{"bike_id":"1b5b0898-d892-4ddf-93cf-27cce0d0c2e7","system_id":"levelo_inurba_marseille","lat":43.24074,"lon":5.37759,"is_reserved":false,"is_disabled":false,"rental_uris":{"android":"levelo://app?vid=1b5b0898-d892-4ddf-93cf-27cce0d0c2e7","ios":"levelo://app?vid=1b5b0898-d892-4ddf-93cf-27cce0d0c2e7"},"vehicle_type_id":"4","last_reported":1773945644,"current_range_meters":6000,"station_id":"ce4bhnp2rcd13ifvqgvg","pricing_plan_id":"cebpf4jnsgd1na2vs0mg"},{"bike_id":"61abe7b6-a1d5-4fb1-8e97-6efff73823a7","system_id":"levelo_inurba_marseille","lat":43.23769,"lon":5.36645,"is_reserved":false,"is_disabled":true,"rental_uris":{"android":"levelo://app?vid=61abe7b6-a1d5-4fb1-8e97-6efff73823a7","ios":"levelo://app?vid=61abe7b6-a1d5-4fb1-8e97-6efff73823a7"},"vehicle_type_id":"4","last_reported":1773945644,"current_range_meters":6400,"station_id":"st_d3nk18o9ro0c73en2l3g","pricing_plan_id":"cebpf4jnsgd1na2vs0mg"},{"bike_id":"e182825d-2213-466c-86b0-f161facb82fc","system_id":"levelo_inurba_marseille","lat":43.29968,"lon":5.38491,"is_reserved":false,"is_disabled":false,"rental_uris":{"android":"levelo://app?vid=e182825d-2213-466c-86b0-f161facb82fc","ios":"levelo://app?vid=e182825d-2213-466c-86b0-f161facb82fc"},"vehicle_type_id":"4","last_reported":1773945644,"current_range_meters":6400,"station_id":"ce4bgj92rcd13ifvqbd0","pricing_plan_id":"cebpf4jnsgd1na2vs0mg"},{"bike_id":"f7e79517-161a-451a-8a95-bb710b1b4d21","system_id":"levelo_inurba_marseille","lat":43.29868,"lon":5.37876,"is_reserved":false,"is_disabled":false,"rental_uris":{"android":"levelo://app?vid=f7e79517-161a-451a-8a95-bb710b1b4d21","ios":"levelo://app?vid=f7e79517-161a-451a-8a95-bb710b1b4d21"},"vehicle_type_id":"4","last_reported":1773945644,"current_range_meters":6400,"station_id":"","pricing_plan_id":"cebpf4jnsgd1na2vs0mg"},{"bike_id":"feeda0ed-78cf-401c-9bc7-c052f95c5fa8","system_id":"levelo_inurba_marseille","lat":43.28441,"lon":5.39189,"is_reserved":false,"is_disabled":false,"rental_uris":{"android":"levelo://app?vid=feeda0ed-78cf-401c-9bc7-c052f95c5fa8","ios":"levelo://app?vid=feeda0ed-78cf-401c-9bc7-c052f95c5fa8"},"vehicle_type_id":"4","last_reported":1773945644,"current_range_meters":6400,"station_id":"ce4bhoh2rcd13ifvqh5g","pricing_plan_id":"cebpf4jnsgd1na2vs0mg"},{"bike_id":"17e234e3-3ffa-4453-9622-5ee6455a6af6","system_id":"levelo_inurba_marseille","lat":43.2982,"lon":5.37695,"is_reserved":false,"is_disabled":false,"rental_uris":{"android":"levelo://app?vid=17e234e3-3ffa-4453-9622-5ee6455a6af6","ios":"levelo://app?vid=17e234e3-3ffa-4453-9622-5ee6455a6af6"},"vehicle_type_id":"4","last_reported":1773945644,"current_range_meters":6400,"station_id":"","pricing_plan_id":"cebpf4jnsgd1na2vs0mg"},{"bike_id":"6dc02c2b-66f8-4a61-bb5d-75c222a6f2c3","system_id":"levelo_inurba_marseille","lat":43.28462,"lon":5.35885,"is_reserved":false,"is_disabled":false,"rental_uris":{"android":"levelo://app?vid=6dc02c2b-66f8-4a61-bb5d-75c222a6f2c3","ios":"levelo://app?vid=6dc02c2b-66f8-4a61-bb5d-75c222a6f2c3"},"vehicle_type_id":"4","last_reported":1773945644,"current_range_meters":6400,"station_id":"ce4bhah2rcd13ifvqei0","pricing_plan_id":"cebpf4jnsgd1na2vs0mg"},{"bike_id":"962258ca-7208-4a59-898e-3bfdfedbd3f6","system_id":"levelo_inurba_marseille","lat":43.30553,"lon":5.36537,"is_reserved":false,"is_disabled":false,"rental_uris":{"android":"levelo://app?vid=962258ca-7208-4a59-898e-3bfdfedbd3f6","ios":"levelo://app?vid=962258ca-7208-4a59-898e-3bfdfedbd3f6"},"vehicle_type_id":"4","last_reported":1773945644,"current_range_meters":6400,"station_id":"ce4bgs12rcd13ifvqcag","pricing_plan_id":"cebpf4jnsgd1na2vs0mg"},{"bike_id":"d587c369-7b5a-4f48-88cf-962803ec71ba","system_id":"levelo_inurba_marseille","lat":43.24803,"lon":5.37467,"is_reserved":false,"is_disabled":false,"rental_uris":{"android":"levelo://app?vid=d587c369-7b5a-4f48-88cf-962803ec71ba","ios":"levelo://app?vid=d587c369-7b5a-4f48-88cf-962803ec71ba"},"vehicle_type_id":"4","last_reported":1773945644,"current_range_meters":6400,"station_id":"ce4bhgh2rcd13ifvqfb0","pricing_plan_id":"cebpf4jnsgd1na2vs0mg"},{"bike_id":"5f0b986c-69f0-4c26-84a4-7c05a8895ae4","system_id":"levelo_inurba_marseille","lat":43.30096,"lon":5.39089,"is_reserved":false,"is_disabled":false,"rental_uris":{"android":"levelo://app?vid=5f0b986c-69f0-4c26-84a4-7c05a8895ae4","ios":"levelo://app?vid=5f0b986c-69f0-4c26-84a4-7c05a8895ae4"},"vehicle_type_id":"4","last_reported":1773945644,"current_range_meters":6400,"station_id":"ce4bh192rcd13ifvqdb0","pricing_plan_id":"cebpf4jnsgd1na2vs0mg"},{"bike_id":"3cdb9282-92ea-46a0-a841-f2dd988ecc68","system_id":"levelo_inurba_marseille","lat":43.22954,"lon":5.35403,"is_reserved":false,"is_disabled":false,"rental_uris":{"android":"levelo://app?vid=3cdb9282-92ea-46a0-a841-f2dd988ecc68","ios":"levelo://app?vid=3cdb9282-92ea-46a0-a841-f2dd988ecc68"},"vehicle_type_id":"4","last_reported":1773945644,"current_range_meters":6400,"station_id":"cpo3532slgdg3j2ikp40","pricing_plan_id":"cebpf4jnsgd1na2vs0mg"},{"bike_id":"a5a47c34-2b71-4e44-ae9c-b03b13ee7312","system_id":"levelo_inurba_marseille","lat":43.2657,"lon":5.39014,"is_reserved":false,"is_disabled":false,"rental_uris":{"android":"levelo://app?vid=a5a47c34-2b71-4e44-ae9c-b03b13ee7312","ios":"levelo://app?vid=a5a47c34-2b71-4e44-ae9c-b03b13ee7312"},"vehicle_type_id":"4","last_reported":1773945644,"current_range_meters":6400,"station_id":"ce4bhe12rcd13ifvqf30","pricing_plan_id":"cebpf4jnsgd1na2vs0mg"},{"bike_id":"9a1a49c4-3c20-49a8-bc94-56e89d2d9aa4","system_id":"levelo_inurba_marseille","lat":43.30416,"lon":5.41276,"is_reserved":false,"is_disabled":false,"rental_uris":{"android":"levelo://app?vid=9a1a49c4-3c20-49a8-bc94-56e89d2d9aa4","ios":"levelo://app?vid=9a1a49c4-3c20-49a8-bc94-56e89d2d9aa4"},"vehicle_type_id":"4","last_reported":1773945644,"current_range_meters":6400,"station_id":"ce4bhop2rcd13ifvqh8g","pricing_plan_id":"cebpf4jnsgd1na2vs0mg"},{"bike_id":"10824fe2-3744-4b11-93ab-1fa8e53585df","system_id":"levelo_inurba_marseille","lat":43.32111,"lon":5.36761,"is_reserved":false,"is_disabled":false,"rental_uris":{"android":"levelo://app?vid=10824fe2-3744-4b11-93ab-1fa8e53585df","ios":"levelo://app?vid=10824fe2-3744-4b11-93ab-1fa8e53585df"},"vehicle_type_id":"4","last_reported":1773945644,"current_range_meters":6400,"station_id":"ce4bhrh2rcd13ifvqhug","pricing_plan_id":"cebpf4jnsgd1na2vs0mg"},{"bike_id":"88248b08-a692-4a7a-b9bf-6cc9aba701f2","system_id":"levelo_inurba_marseille","lat":43.29879,"lon":5.39728,"is_reserved":false,"is_disabled":false,"rental_uris":{"android":"levelo://app?vid=88248b08-a692-4a7a-b9bf-6cc9aba701f2","ios":"levelo://app?vid=88248b08-a692-4a7a-b9bf-6cc9aba701f2"},"vehicle_type_id":"4","last_reported":1773945644,"current_range_meters":6800,"station_id":"ce4bh0h2rcd13ifvqd50","pricing_plan_id":"cebpf4jnsgd1na2vs0mg"},{"bike_id":"9c69e0d4-90c1-4452-8e5e-e9afbf53d0c6","system_id":"levelo_inurba_marseille","lat":43.30602,"lon":5.39366,"is_reserved":false,"is_disabled":true,"rental_uris":{"android":"levelo://app?vid=9c69e0d4-90c1-4452-8e5e-e9afbf53d0c6","ios":"levelo://app?vid=9c69e0d4-90c1-4452-8e5e-e9afbf53d0c6"},"vehicle_type_id":"4","last_reported":1773945644,"current_range_meters":6800,"station_id":"ce4bh0p2rcd13ifvqd80","pricing_plan_id":"cebpf4jnsgd1na2vs0mg"},{"bike_id":"24dc1ce5-2db6-421b-869a-69d6f082b300","system_id":"levelo_inurba_marseille","lat":43.29777,"lon":5.36229,"is_reserved":false,"is_disabled":false,"rental_uris":{"android":"levelo://app?vid=24dc1ce5-2db6-421b-869a-69d6f082b300","ios":"levelo://app?vid=24dc1ce5-2db6-421b-869a-69d6f082b300"},"vehicle_type_id":"4","last_reported":1773945644,"current_range_meters":6800,"station_id":"","pricing_plan_id":"cebpf4jnsgd1na2vs0mg"},{"bike_id":"730ffb5d-408c-403f-ac8c-aeaf0b8ab37d","system_id":"levelo_inurba_marseille","lat":43.28111,"lon":5.37855,"is_reserved":false,"is_disabled":false,"rental_uris":{"android":"levelo://app?vid=730ffb5d-408c-403f-ac8c-aeaf0b8ab37d","ios":"levelo://app?vid=730ffb5d-408c-403f-ac8c-aeaf0b8ab37d"},"vehicle_type_id":"4","last_reported":1773945644,"current_range_meters":6800,"station_id":"ce4bha12rcd13ifvqee0","pricing_plan_id":"cebpf4jnsgd1na2vs0mg"},{"bike_id":"a3b57f04-3773-4b98-b26f-eda5f063c418","system_id":"levelo_inurba_marseille","lat":43.30123,"lon":5.39898,"is_reserved":false,"is_disabled":false,"rental_uris":{"android":"levelo://app?vid=a3b57f04-3773-4b98-b26f-eda5f063c418","ios":"levelo://app?vid=a3b57f04-3773-4b98-b26f-eda5f063c418"},"vehicle_type_id":"4","last_reported":1773945644,"current_range_meters":6800,"station_id":"ce4bh0h2rcd13ifvqd40","pricing_plan_id":"cebpf4jnsgd1na2vs0mg"},{"bike_id":"864f588c-6c9a-47f2-bf8a-559a5ddb02ea","system_id":"levelo_inurba_marseille","lat":43.32117,"lon":5.36807,"is_reserved":false,"is_disabled":false,"rental_uris":{"android":"levelo://app?vid=864f588c-6c9a-47f2-bf8a-559a5ddb02ea","ios":"levelo://app?vid=864f588c-6c9a-47f2-bf8a-559a5ddb02ea"},"vehicle_type_id":"4","last_reported":1773945644,"current_range_meters":6800,"station_id":"ce4bhrh2rcd13ifvqhug","pricing_plan_id":"cebpf4jnsgd1na2vs0mg"},{"bike_id":"081a0881-89b6-4aec-8d87-38fd39de8439","system_id":"levelo_inurba_marseille","lat":43.28537,"lon":5.44103,"is_reserved":false,"is_disabled":false,"rental_uris":{"android":"levelo://app?vid=081a0881-89b6-4aec-8d87-38fd39de8439","ios":"levelo://app?vid=081a0881-89b6-4aec-8d87-38fd39de8439"},"vehicle_type_id":"4","last_reported":1773945644,"current_range_meters":6800,"station_id":"st_d3j3df2ikq2c7380ej80","pricing_plan_id":"cebpf4jnsgd1na2vs0mg"},{"bike_id":"dc419aed-75e9-4fc7-b228-e78758ef8d96","system_id":"levelo_inurba_marseille","lat":43.2454,"lon":5.39528,"is_reserved":false,"is_disabled":false,"rental_uris":{"android":"levelo://app?vid=dc419aed-75e9-4fc7-b228-e78758ef8d96","ios":"levelo://app?vid=dc419aed-75e9-4fc7-b228-e78758ef8d96"},"vehicle_type_id":"4","last_reported":1773945644,"current_range_meters":6800,"station_id":"ce4bhlp2rcd13ifvqgjg","pricing_plan_id":"cebpf4jnsgd1na2vs0mg"},{"bike_id":"bc7b59c0-9131-4927-8aba-07d26e63b0ed","system_id":"levelo_inurba_marseille","lat":43.29262,"lon":5.38442,"is_reserved":false,"is_disabled":false,"rental_uris":{"android":"levelo://app?vid=bc7b59c0-9131-4927-8aba-07d26e63b0ed","ios":"levelo://app?vid=bc7b59c0-9131-4927-8aba-07d26e63b0ed"},"vehicle_type_id":"4","last_reported":1773945644,"current_range_meters":6800,"station_id":"ce4bh692rcd13ifvqea0","pricing_plan_id":"cebpf4jnsgd1na2vs0mg"},{"bike_id":"d03a2022-6922-4b85-aada-659333694e5e","system_id":"levelo_inurba_marseille","lat":43.31185,"lon":5.38705,"is_reserved":false,"is_disabled":true,"rental_uris":{"android":"levelo://app?vid=d03a2022-6922-4b85-aada-659333694e5e","ios":"levelo://app?vid=d03a2022-6922-4b85-aada-659333694e5e"},"vehicle_type_id":"4","last_reported":1773945644,"current_range_meters":6800,"station_id":"ce4bgv12rcd13ifvqcp0","pricing_plan_id":"cebpf4jnsgd1na2vs0mg"},{"bike_id":"78beea6e-fd38-45c1-919e-297e7a3c4aab","system_id":"levelo_inurba_marseille","lat":43.28628,"lon":5.37054,"is_reserved":false,"is_disabled":false,"rental_uris":{"android":"levelo://app?vid=78beea6e-fd38-45c1-919e-297e7a3c4aab","ios":"levelo://app?vid=78beea6e-fd38-45c1-919e-297e7a3c4aab"},"vehicle_type_id":"4","last_reported":1773945644,"current_range_meters":6800,"station_id":"ce4bht12rcd13ifvqi60","pricing_plan_id":"cebpf4jnsgd1na2vs0mg"},{"bike_id":"dd10efc5-28b9-436a-be78-8011941e89fc","system_id":"levelo_inurba_marseille","lat":43.28519,"lon":5.48438,"is_reserved":false,"is_disabled":false,"rental_uris":{"android":"levelo://app?vid=dd10efc5-28b9-436a-be78-8011941e89fc","ios":"levelo://app?vid=dd10efc5-28b9-436a-be78-8011941e89fc"},"vehicle_type_id":"4","last_reported":1773945644,"current_range_meters":6800,"station_id":"st_d3svhcjqgbts73a3dn0g","pricing_plan_id":"cebpf4jnsgd1na2vs0mg"},{"bike_id":"e84409cd-ab11-47ab-92ac-0bad50daf5c3","system_id":"levelo_inurba_marseille","lat":43.31923,"lon":5.36844,"is_reserved":false,"is_disabled":false,"rental_uris":{"android":"levelo://app?vid=e84409cd-ab11-47ab-92ac-0bad50daf5c3","ios":"levelo://app?vid=e84409cd-ab11-47ab-92ac-0bad50daf5c3"},"vehicle_type_id":"4","last_reported":1773945644,"current_range_meters":6800,"station_id":"st_d6o2h0d0559c73evc1b0","pricing_plan_id":"cebpf4jnsgd1na2vs0mg"},{"bike_id":"17a139df-17a2-4cb5-8cdc-aa40d036a00a","system_id":"levelo_inurba_marseille","lat":43.23789,"lon":5.36647,"is_reserved":false,"is_disabled":false,"rental_uris":{"android":"levelo://app?vid=17a139df-17a2-4cb5-8cdc-aa40d036a00a","ios":"levelo://app?vid=17a139df-17a2-4cb5-8cdc-aa40d036a00a"},"vehicle_type_id":"4","last_reported":1773945644,"current_range_meters":6800,"station_id":"st_d3nk18o9ro0c73en2l3g","pricing_plan_id":"cebpf4jnsgd1na2vs0mg"},{"bike_id":"a4d8fbc6-64b8-40c1-bec8-b8a8ebab0656","system_id":"levelo_inurba_marseille","lat":43.30632,"lon":5.4008,"is_reserved":false,"is_disabled":false,"rental_uris":{"android":"levelo://app?vid=a4d8fbc6-64b8-40c1-bec8-b8a8ebab0656","ios":"levelo://app?vid=a4d8fbc6-64b8-40c1-bec8-b8a8ebab0656"},"vehicle_type_id":"4","last_reported":1773945644,"current_range_meters":6800,"station_id":"ce4bh112rcd13ifvqda0","pricing_plan_id":"cebpf4jnsgd1na2vs0mg"},{"bike_id":"6cda15e7-fe2d-4eca-9a9a-008e31fbee7c","system_id":"levelo_inurba_marseille","lat":43.24695,"lon":5.38212,"is_reserved":false,"is_disabled":true,"rental_uris":{"android":"levelo://app?vid=6cda15e7-fe2d-4eca-9a9a-008e31fbee7c","ios":"levelo://app?vid=6cda15e7-fe2d-4eca-9a9a-008e31fbee7c"},"vehicle_type_id":"4","last_reported":1773945644,"current_range_meters":6800,"station_id":"","pricing_plan_id":"cebpf4jnsgd1na2vs0mg"},{"bike_id":"1a35434d-c9e2-448e-ab11-b763a506a6ff","system_id":"levelo_inurba_marseille","lat":43.29928,"lon":5.38091,"is_reserved":false,"is_disabled":true,"rental_uris":{"android":"levelo://app?vid=1a35434d-c9e2-448e-ab11-b763a506a6ff","ios":"levelo://app?vid=1a35434d-c9e2-448e-ab11-b763a506a6ff"},"vehicle_type_id":"4","last_reported":1773945644,"current_range_meters":6800,"station_id":"","pricing_plan_id":"cebpf4jnsgd1na2vs0mg"},{"bike_id":"a3578622-2fb8-4bd3-b1c0-5294514a5a11","system_id":"levelo_inurba_marseille","lat":43.31494,"lon":5.37309,"is_reserved":false,"is_disabled":false,"rental_uris":{"android":"levelo://app?vid=a3578622-2fb8-4bd3-b1c0-5294514a5a11","ios":"levelo://app?vid=a3578622-2fb8-4bd3-b1c0-5294514a5a11"},"vehicle_type_id":"4","last_reported":1773945644,"current_range_meters":6800,"station_id":"ce4bgt12rcd13ifvqcd0","pricing_plan_id":"cebpf4jnsgd1na2vs0mg"},{"bike_id":"a11c8cfa-453a-4892-a974-6a22bafa8290","system_id":"levelo_inurba_marseille","lat":43.23193,"lon":5.35546,"is_reserved":false,"is_disabled":false,"rental_uris":{"android":"levelo://app?vid=a11c8cfa-453a-4892-a974-6a22bafa8290","ios":"levelo://app?vid=a11c8cfa-453a-4892-a974-6a22bafa8290"},"vehicle_type_id":"4","last_reported":1773945644,"current_range_meters":7200,"station_id":"ce4bhu92rcd13ifvqi70","pricing_plan_id":"cebpf4jnsgd1na2vs0mg"},{"bike_id":"bd60a6ec-18d4-4476-ab1b-f354043c4b72","system_id":"levelo_inurba_marseille","lat":43.29813,"lon":5.42621,"is_reserved":false,"is_disabled":false,"rental_uris":{"android":"levelo://app?vid=bd60a6ec-18d4-4476-ab1b-f354043c4b72","ios":"levelo://app?vid=bd60a6ec-18d4-4476-ab1b-f354043c4b72"},"vehicle_type_id":"4","last_reported":1773945644,"current_range_meters":7200,"station_id":"","pricing_plan_id":"cebpf4jnsgd1na2vs0mg"},{"bike_id":"d5c7a954-f543-418f-ae2c-c99075ee1ea1","system_id":"levelo_inurba_marseille","lat":43.31164,"lon":5.38701,"is_reserved":false,"is_disabled":false,"rental_uris":{"android":"levelo://app?vid=d5c7a954-f543-418f-ae2c-c99075ee1ea1","ios":"levelo://app?vid=d5c7a954-f543-418f-ae2c-c99075ee1ea1"},"vehicle_type_id":"4","last_reported":1773945644,"current_range_meters":7200,"station_id":"ce4bgv12rcd13ifvqcp0","pricing_plan_id":"cebpf4jnsgd1na2vs0mg"},{"bike_id":"dd2f7881-755c-4593-bb3a-7ba359f1b823","system_id":"levelo_inurba_marseille","lat":43.29094,"lon":5.38153,"is_reserved":false,"is_disabled":true,"rental_uris":{"android":"levelo://app?vid=dd2f7881-755c-4593-bb3a-7ba359f1b823","ios":"levelo://app?vid=dd2f7881-755c-4593-bb3a-7ba359f1b823"},"vehicle_type_id":"4","last_reported":1773945644,"current_range_meters":7200,"station_id":"ce4bh512rcd13ifvqe2g","pricing_plan_id":"cebpf4jnsgd1na2vs0mg"},{"bike_id":"d5f7f0bf-c4f5-45e1-bf7d-f4959ca7505e","system_id":"levelo_inurba_marseille","lat":43.24388,"lon":5.37053,"is_reserved":false,"is_disabled":false,"rental_uris":{"android":"levelo://app?vid=d5f7f0bf-c4f5-45e1-bf7d-f4959ca7505e","ios":"levelo://app?vid=d5f7f0bf-c4f5-45e1-bf7d-f4959ca7505e"},"vehicle_type_id":"4","last_reported":1773945644,"current_range_meters":7200,"station_id":"ce4bhhh2rcd13ifvqfk0","pricing_plan_id":"cebpf4jnsgd1na2vs0mg"},{"bike_id":"18e14f9c-20c8-477a-ae04-862e98039d06","system_id":"levelo_inurba_marseille","lat":43.29258,"lon":5.37615,"is_reserved":false,"is_disabled":false,"rental_uris":{"android":"levelo://app?vid=18e14f9c-20c8-477a-ae04-862e98039d06","ios":"levelo://app?vid=18e14f9c-20c8-477a-ae04-862e98039d06"},"vehicle_type_id":"4","last_reported":1773945644,"current_range_meters":7200,"station_id":"ce4bgi12rcd13ifvqb80","pricing_plan_id":"cebpf4jnsgd1na2vs0mg"},{"bike_id":"171d498e-1096-4a0d-97f0-f3d576ec7b85","system_id":"levelo_inurba_marseille","lat":43.28667,"lon":5.38679,"is_reserved":false,"is_disabled":false,"rental_uris":{"android":"levelo://app?vid=171d498e-1096-4a0d-97f0-f3d576ec7b85","ios":"levelo://app?vid=171d498e-1096-4a0d-97f0-f3d576ec7b85"},"vehicle_type_id":"4","last_reported":1773945644,"current_range_meters":7200,"station_id":"ce4bh492rcd13ifvqdug","pricing_plan_id":"cebpf4jnsgd1na2vs0mg"},{"bike_id":"50f68294-766f-4d01-a879-67dba24044c3","system_id":"levelo_inurba_marseille","lat":43.29372,"lon":5.37843,"is_reserved":false,"is_disabled":false,"rental_uris":{"android":"levelo://app?vid=50f68294-766f-4d01-a879-67dba24044c3","ios":"levelo://app?vid=50f68294-766f-4d01-a879-67dba24044c3"},"vehicle_type_id":"4","last_reported":1773945644,"current_range_meters":7200,"station_id":"ce4bgjh2rcd13ifvqbf0","pricing_plan_id":"cebpf4jnsgd1na2vs0mg"},{"bike_id":"a7589a93-7e92-46e3-9adb-33c382fc7b2d","system_id":"levelo_inurba_marseille","lat":43.23953,"lon":5.36625,"is_reserved":false,"is_disabled":false,"rental_uris":{"android":"levelo://app?vid=a7589a93-7e92-46e3-9adb-33c382fc7b2d","ios":"levelo://app?vid=a7589a93-7e92-46e3-9adb-33c382fc7b2d"},"vehicle_type_id":"4","last_reported":1773945644,"current_range_meters":7200,"station_id":"ce4bhi12rcd13ifvqfp0","pricing_plan_id":"cebpf4jnsgd1na2vs0mg"},{"bike_id":"b37d0d59-e167-412c-877a-0760f21fff49","system_id":"levelo_inurba_marseille","lat":43.2953,"lon":5.38695,"is_reserved":false,"is_disabled":false,"rental_uris":{"android":"levelo://app?vid=b37d0d59-e167-412c-877a-0760f21fff49","ios":"levelo://app?vid=b37d0d59-e167-412c-877a-0760f21fff49"},"vehicle_type_id":"4","last_reported":1773945644,"current_range_meters":7200,"station_id":"","pricing_plan_id":"cebpf4jnsgd1na2vs0mg"},{"bike_id":"47b958a5-a9e9-4494-8472-abb0f760256b","system_id":"levelo_inurba_marseille","lat":43.23792,"lon":5.36572,"is_reserved":false,"is_disabled":false,"rental_uris":{"android":"levelo://app?vid=47b958a5-a9e9-4494-8472-abb0f760256b","ios":"levelo://app?vid=47b958a5-a9e9-4494-8472-abb0f760256b"},"vehicle_type_id":"4","last_reported":1773945644,"current_range_meters":7200,"station_id":"st_d3nk18o9ro0c73en2l3g","pricing_plan_id":"cebpf4jnsgd1na2vs0mg"},{"bike_id":"600469f9-bda4-4951-a61e-12b2370882e2","system_id":"levelo_inurba_marseille","lat":43.28858,"lon":5.42531,"is_reserved":false,"is_disabled":false,"rental_uris":{"android":"levelo://app?vid=600469f9-bda4-4951-a61e-12b2370882e2","ios":"levelo://app?vid=600469f9-bda4-4951-a61e-12b2370882e2"},"vehicle_type_id":"4","last_reported":1773945644,"current_range_meters":7200,"station_id":"","pricing_plan_id":"cebpf4jnsgd1na2vs0mg"},{"bike_id":"16e8bdea-ca86-4118-877f-dffd6209d4b8","system_id":"levelo_inurba_marseille","lat":43.23977,"lon":5.36648,"is_reserved":false,"is_disabled":false,"rental_uris":{"android":"levelo://app?vid=16e8bdea-ca86-4118-877f-dffd6209d4b8","ios":"levelo://app?vid=16e8bdea-ca86-4118-877f-dffd6209d4b8"},"vehicle_type_id":"4","last_reported":1773945644,"current_range_meters":7200,"station_id":"ce4bhi12rcd13ifvqfp0","pricing_plan_id":"cebpf4jnsgd1na2vs0mg"},{"bike_id":"c6e46e8b-a99c-46bd-988b-7c4482fb9645","system_id":"levelo_inurba_marseille","lat":43.2814,"lon":5.4269,"is_reserved":false,"is_disabled":false,"rental_uris":{"android":"levelo://app?vid=c6e46e8b-a99c-46bd-988b-7c4482fb9645","ios":"levelo://app?vid=c6e46e8b-a99c-46bd-988b-7c4482fb9645"},"vehicle_type_id":"4","last_reported":1773945644,"current_range_meters":7200,"station_id":"ce4bhnh2rcd13ifvqgug","pricing_plan_id":"cebpf4jnsgd1na2vs0mg"},{"bike_id":"b7e87515-c3ea-478e-bf01-a70f86b2f092","system_id":"levelo_inurba_marseille","lat":43.24175,"lon":5.36397,"is_reserved":false,"is_disabled":false,"rental_uris":{"android":"levelo://app?vid=b7e87515-c3ea-478e-bf01-a70f86b2f092","ios":"levelo://app?vid=b7e87515-c3ea-478e-bf01-a70f86b2f092"},"vehicle_type_id":"4","last_reported":1773945644,"current_range_meters":7200,"station_id":"cpo36qri1sfpv3e86is0","pricing_plan_id":"cebpf4jnsgd1na2vs0mg"},{"bike_id":"4d485133-6bd2-46df-96e4-2e3881d1d213","system_id":"levelo_inurba_marseille","lat":43.30917,"lon":5.37184,"is_reserved":false,"is_disabled":false,"rental_uris":{"android":"levelo://app?vid=4d485133-6bd2-46df-96e4-2e3881d1d213","ios":"levelo://app?vid=4d485133-6bd2-46df-96e4-2e3881d1d213"},"vehicle_type_id":"4","last_reported":1773945644,"current_range_meters":7200,"station_id":"ce4bguh2rcd13ifvqckg","pricing_plan_id":"cebpf4jnsgd1na2vs0mg"},{"bike_id":"be523ae7-f0fc-4e2a-970b-30a3029fa717","system_id":"levelo_inurba_marseille","lat":43.28473,"lon":5.4839,"is_reserved":false,"is_disabled":false,"rental_uris":{"android":"levelo://app?vid=be523ae7-f0fc-4e2a-970b-30a3029fa717","ios":"levelo://app?vid=be523ae7-f0fc-4e2a-970b-30a3029fa717"},"vehicle_type_id":"4","last_reported":1773945644,"current_range_meters":7200,"station_id":"","pricing_plan_id":"cebpf4jnsgd1na2vs0mg"},{"bike_id":"4ab7667b-0cb6-4ef7-94fe-32f1cf421348","system_id":"levelo_inurba_marseille","lat":43.29851,"lon":5.36288,"is_reserved":false,"is_disabled":false,"rental_uris":{"android":"levelo://app?vid=4ab7667b-0cb6-4ef7-94fe-32f1cf421348","ios":"levelo://app?vid=4ab7667b-0cb6-4ef7-94fe-32f1cf421348"},"vehicle_type_id":"4","last_reported":1773945644,"current_range_meters":7200,"station_id":"ce4bgpp2rcd13ifvqc3g","pricing_plan_id":"cebpf4jnsgd1na2vs0mg"},{"bike_id":"d3ec5979-54e8-4a74-8bb1-cf1bbb5dec0a","system_id":"levelo_inurba_marseille","lat":43.25061,"lon":5.39487,"is_reserved":false,"is_disabled":false,"rental_uris":{"android":"levelo://app?vid=d3ec5979-54e8-4a74-8bb1-cf1bbb5dec0a","ios":"levelo://app?vid=d3ec5979-54e8-4a74-8bb1-cf1bbb5dec0a"},"vehicle_type_id":"4","last_reported":1773945644,"current_range_meters":7200,"station_id":"ce4bhm12rcd13ifvqgkg","pricing_plan_id":"cebpf4jnsgd1na2vs0mg"},{"bike_id":"2a30a23c-c241-4d68-81f3-2b42dcb565f1","system_id":"levelo_inurba_marseille","lat":43.24552,"lon":5.39552,"is_reserved":false,"is_disabled":false,"rental_uris":{"android":"levelo://app?vid=2a30a23c-c241-4d68-81f3-2b42dcb565f1","ios":"levelo://app?vid=2a30a23c-c241-4d68-81f3-2b42dcb565f1"},"vehicle_type_id":"4","last_reported":1773945644,"current_range_meters":8000,"station_id":"ce4bhlp2rcd13ifvqgjg","pricing_plan_id":"cebpf4jnsgd1na2vs0mg"},{"bike_id":"eee80c73-37e2-4fc9-880f-052195f04379","system_id":"levelo_inurba_marseille","lat":43.29787,"lon":5.37109,"is_reserved":false,"is_disabled":false,"rental_uris":{"android":"levelo://app?vid=eee80c73-37e2-4fc9-880f-052195f04379","ios":"levelo://app?vid=eee80c73-37e2-4fc9-880f-052195f04379"},"vehicle_type_id":"4","last_reported":1773945644,"current_range_meters":8000,"station_id":"ce4bgop2rcd13ifvqc1g","pricing_plan_id":"cebpf4jnsgd1na2vs0mg"},{"bike_id":"bd19d308-922d-4f0e-8fdb-2bdaf1e78671","system_id":"levelo_inurba_marseille","lat":43.302,"lon":5.39463,"is_reserved":false,"is_disabled":false,"rental_uris":{"android":"levelo://app?vid=bd19d308-922d-4f0e-8fdb-2bdaf1e78671","ios":"levelo://app?vid=bd19d308-922d-4f0e-8fdb-2bdaf1e78671"},"vehicle_type_id":"4","last_reported":1773945644,"current_range_meters":8000,"station_id":"ce4bh0p2rcd13ifvqd70","pricing_plan_id":"cebpf4jnsgd1na2vs0mg"},{"bike_id":"13ece891-29b9-4ae9-a4c4-ae3da55ec954","system_id":"levelo_inurba_marseille","lat":43.23204,"lon":5.35559,"is_reserved":false,"is_disabled":false,"rental_uris":{"android":"levelo://app?vid=13ece891-29b9-4ae9-a4c4-ae3da55ec954","ios":"levelo://app?vid=13ece891-29b9-4ae9-a4c4-ae3da55ec954"},"vehicle_type_id":"4","last_reported":1773945644,"current_range_meters":8000,"station_id":"ce4bhu92rcd13ifvqi70","pricing_plan_id":"cebpf4jnsgd1na2vs0mg"},{"bike_id":"92fded19-de99-42e5-8e2b-38526f48eef0","system_id":"levelo_inurba_marseille","lat":43.28455,"lon":5.35899,"is_reserved":false,"is_disabled":false,"rental_uris":{"android":"levelo://app?vid=92fded19-de99-42e5-8e2b-38526f48eef0","ios":"levelo://app?vid=92fded19-de99-42e5-8e2b-38526f48eef0"},"vehicle_type_id":"4","last_reported":1773945644,"current_range_meters":8000,"station_id":"ce4bhah2rcd13ifvqei0","pricing_plan_id":"cebpf4jnsgd1na2vs0mg"},{"bike_id":"addd9e53-bfde-4c2f-8c89-4a891b6a7add","system_id":"levelo_inurba_marseille","lat":43.31334,"lon":5.37914,"is_reserved":false,"is_disabled":false,"rental_uris":{"android":"levelo://app?vid=addd9e53-bfde-4c2f-8c89-4a891b6a7add","ios":"levelo://app?vid=addd9e53-bfde-4c2f-8c89-4a891b6a7add"},"vehicle_type_id":"4","last_reported":1773945644,"current_range_meters":8000,"station_id":"","pricing_plan_id":"cebpf4jnsgd1na2vs0mg"},{"bike_id":"6018d565-5c8a-4bab-ba5d-0061fbbaec08","system_id":"levelo_inurba_marseille","lat":43.22933,"lon":5.35386,"is_reserved":false,"is_disabled":false,"rental_uris":{"android":"levelo://app?vid=6018d565-5c8a-4bab-ba5d-0061fbbaec08","ios":"levelo://app?vid=6018d565-5c8a-4bab-ba5d-0061fbbaec08"},"vehicle_type_id":"4","last_reported":1773945644,"current_range_meters":8000,"station_id":"cpo3532slgdg3j2ikp40","pricing_plan_id":"cebpf4jnsgd1na2vs0mg"},{"bike_id":"52f6a6b9-7af9-4956-b458-baf5061e66bf","system_id":"levelo_inurba_marseille","lat":43.23336,"lon":5.44456,"is_reserved":false,"is_disabled":false,"rental_uris":{"android":"levelo://app?vid=52f6a6b9-7af9-4956-b458-baf5061e66bf","ios":"levelo://app?vid=52f6a6b9-7af9-4956-b458-baf5061e66bf"},"vehicle_type_id":"4","last_reported":1773945644,"current_range_meters":8000,"station_id":"","pricing_plan_id":"cebpf4jnsgd1na2vs0mg"},{"bike_id":"347a0133-45d3-4213-ae48-606f4453bbf3","system_id":"levelo_inurba_marseille","lat":43.23053,"lon":5.3548,"is_reserved":false,"is_disabled":false,"rental_uris":{"android":"levelo://app?vid=347a0133-45d3-4213-ae48-606f4453bbf3","ios":"levelo://app?vid=347a0133-45d3-4213-ae48-606f4453bbf3"},"vehicle_type_id":"4","last_reported":1773945644,"current_range_meters":8000,"station_id":"cpo3342slgdg3j2ifvpg","pricing_plan_id":"cebpf4jnsgd1na2vs0mg"},{"bike_id":"d6179298-96a7-44f3-9f76-27651cec130f","system_id":"levelo_inurba_marseille","lat":43.29976,"lon":5.37178,"is_reserved":false,"is_disabled":false,"rental_uris":{"android":"levelo://app?vid=d6179298-96a7-44f3-9f76-27651cec130f","ios":"levelo://app?vid=d6179298-96a7-44f3-9f76-27651cec130f"},"vehicle_type_id":"4","last_reported":1773945644,"current_range_meters":8000,"station_id":"ce4bgr92rcd13ifvqc7g","pricing_plan_id":"cebpf4jnsgd1na2vs0mg"},{"bike_id":"6f2ebc67-1271-411c-af3a-101ffc1ed312","system_id":"levelo_inurba_marseille","lat":43.26934,"lon":5.40257,"is_reserved":false,"is_disabled":false,"rental_uris":{"android":"levelo://app?vid=6f2ebc67-1271-411c-af3a-101ffc1ed312","ios":"levelo://app?vid=6f2ebc67-1271-411c-af3a-101ffc1ed312"},"vehicle_type_id":"4","last_reported":1773945644,"current_range_meters":8000,"station_id":"cjm6bp8fraef2m0cb0m0","pricing_plan_id":"cebpf4jnsgd1na2vs0mg"},{"bike_id":"8c1bb7e1-fc52-410e-bc8b-57e5a8629823","system_id":"levelo_inurba_marseille","lat":43.29239,"lon":5.37742,"is_reserved":false,"is_disabled":false,"rental_uris":{"android":"levelo://app?vid=8c1bb7e1-fc52-410e-bc8b-57e5a8629823","ios":"levelo://app?vid=8c1bb7e1-fc52-410e-bc8b-57e5a8629823"},"vehicle_type_id":"4","last_reported":1773945644,"current_range_meters":8000,"station_id":"","pricing_plan_id":"cebpf4jnsgd1na2vs0mg"},{"bike_id":"31de91b8-2554-4f66-8bc6-9dfb581be216","system_id":"levelo_inurba_marseille","lat":43.28854,"lon":5.39328,"is_reserved":false,"is_disabled":false,"rental_uris":{"android":"levelo://app?vid=31de91b8-2554-4f66-8bc6-9dfb581be216","ios":"levelo://app?vid=31de91b8-2554-4f66-8bc6-9dfb581be216"},"vehicle_type_id":"4","last_reported":1773945644,"current_range_meters":8000,"station_id":"ce4bh2p2rcd13ifvqdi0","pricing_plan_id":"cebpf4jnsgd1na2vs0mg"},{"bike_id":"dbced59e-74d6-4c8a-ac95-2776f4bc1fc0","system_id":"levelo_inurba_marseille","lat":43.29257,"lon":5.38463,"is_reserved":false,"is_disabled":false,"rental_uris":{"android":"levelo://app?vid=dbced59e-74d6-4c8a-ac95-2776f4bc1fc0","ios":"levelo://app?vid=dbced59e-74d6-4c8a-ac95-2776f4bc1fc0"},"vehicle_type_id":"4","last_reported":1773945644,"current_range_meters":8000,"station_id":"ce4bh692rcd13ifvqea0","pricing_plan_id":"cebpf4jnsgd1na2vs0mg"},{"bike_id":"5e0e1d09-34c9-4572-8a39-e8732e9eba70","system_id":"levelo_inurba_marseille","lat":43.293648,"lon":5.378544,"is_reserved":false,"is_disabled":false,"rental_uris":{"android":"levelo://app?vid=5e0e1d09-34c9-4572-8a39-e8732e9eba70","ios":"levelo://app?vid=5e0e1d09-34c9-4572-8a39-e8732e9eba70"},"vehicle_type_id":"4","last_reported":1773945644,"current_range_meters":8000,"station_id":"ce4bgjh2rcd13ifvqbf0","pricing_plan_id":"cebpf4jnsgd1na2vs0mg"},{"bike_id":"d51fe815-5335-4e1f-8e42-efe91c7e85aa","system_id":"levelo_inurba_marseille","lat":43.22936,"lon":5.3539,"is_reserved":false,"is_disabled":false,"rental_uris":{"android":"levelo://app?vid=d51fe815-5335-4e1f-8e42-efe91c7e85aa","ios":"levelo://app?vid=d51fe815-5335-4e1f-8e42-efe91c7e85aa"},"vehicle_type_id":"4","last_reported":1773945644,"current_range_meters":8000,"station_id":"cpo3532slgdg3j2ikp40","pricing_plan_id":"cebpf4jnsgd1na2vs0mg"},{"bike_id":"282ae1f9-acb0-48cd-bf87-5a8e7dbec2e3","system_id":"levelo_inurba_marseille","lat":43.24805,"lon":5.37445,"is_reserved":false,"is_disabled":false,"rental_uris":{"android":"levelo://app?vid=282ae1f9-acb0-48cd-bf87-5a8e7dbec2e3","ios":"levelo://app?vid=282ae1f9-acb0-48cd-bf87-5a8e7dbec2e3"},"vehicle_type_id":"4","last_reported":1773945644,"current_range_meters":8000,"station_id":"ce4bhgh2rcd13ifvqfb0","pricing_plan_id":"cebpf4jnsgd1na2vs0mg"},{"bike_id":"0f5b614d-c444-4bde-a58a-eee568a87f0e","system_id":"levelo_inurba_marseille","lat":43.31328,"lon":5.3969,"is_reserved":false,"is_disabled":false,"rental_uris":{"android":"levelo://app?vid=0f5b614d-c444-4bde-a58a-eee568a87f0e","ios":"levelo://app?vid=0f5b614d-c444-4bde-a58a-eee568a87f0e"},"vehicle_type_id":"4","last_reported":1773945644,"current_range_meters":8000,"station_id":"ce4bgvp2rcd13ifvqcu0","pricing_plan_id":"cebpf4jnsgd1na2vs0mg"},{"bike_id":"e1fcda96-10f8-4416-a2de-b3c0381d6f12","system_id":"levelo_inurba_marseille","lat":43.27387,"lon":5.36221,"is_reserved":false,"is_disabled":true,"rental_uris":{"android":"levelo://app?vid=e1fcda96-10f8-4416-a2de-b3c0381d6f12","ios":"levelo://app?vid=e1fcda96-10f8-4416-a2de-b3c0381d6f12"},"vehicle_type_id":"4","last_reported":1773945644,"current_range_meters":8000,"station_id":"ce4bhbh2rcd13ifvqeo0","pricing_plan_id":"cebpf4jnsgd1na2vs0mg"},{"bike_id":"15750178-4f9b-426f-bafa-493e04eb7e36","system_id":"levelo_inurba_marseille","lat":43.30797,"lon":5.40653,"is_reserved":false,"is_disabled":false,"rental_uris":{"android":"levelo://app?vid=15750178-4f9b-426f-bafa-493e04eb7e36","ios":"levelo://app?vid=15750178-4f9b-426f-bafa-493e04eb7e36"},"vehicle_type_id":"4","last_reported":1773945644,"current_range_meters":8000,"station_id":"","pricing_plan_id":"cebpf4jnsgd1na2vs0mg"},{"bike_id":"25b40c69-625d-48eb-8ef9-962ce76f25c7","system_id":"levelo_inurba_marseille","lat":43.28688,"lon":5.3868,"is_reserved":false,"is_disabled":false,"rental_uris":{"android":"levelo://app?vid=25b40c69-625d-48eb-8ef9-962ce76f25c7","ios":"levelo://app?vid=25b40c69-625d-48eb-8ef9-962ce76f25c7"},"vehicle_type_id":"4","last_reported":1773945644,"current_range_meters":8000,"station_id":"ce4bh492rcd13ifvqdug","pricing_plan_id":"cebpf4jnsgd1na2vs0mg"},{"bike_id":"b656aabe-7c73-4de4-a3ab-51dc49496f82","system_id":"levelo_inurba_marseille","lat":43.29305,"lon":5.37183,"is_reserved":false,"is_disabled":true,"rental_uris":{"android":"levelo://app?vid=b656aabe-7c73-4de4-a3ab-51dc49496f82","ios":"levelo://app?vid=b656aabe-7c73-4de4-a3ab-51dc49496f82"},"vehicle_type_id":"4","last_reported":1773945644,"current_range_meters":8400,"station_id":"ce4bgh92rcd13ifvqb40","pricing_plan_id":"cebpf4jnsgd1na2vs0mg"},{"bike_id":"eb1bc5df-e13b-49f1-b03d-5db8f7531683","system_id":"levelo_inurba_marseille","lat":43.28425,"lon":5.3752,"is_reserved":false,"is_disabled":false,"rental_uris":{"android":"levelo://app?vid=eb1bc5df-e13b-49f1-b03d-5db8f7531683","ios":"levelo://app?vid=eb1bc5df-e13b-49f1-b03d-5db8f7531683"},"vehicle_type_id":"4","last_reported":1773945644,"current_range_meters":8400,"station_id":"ce4bh412rcd13ifvqds0","pricing_plan_id":"cebpf4jnsgd1na2vs0mg"},{"bike_id":"4d9e23d5-bd87-4727-8d57-c47ef2bf36a8","system_id":"levelo_inurba_marseille","lat":43.29212,"lon":5.35823,"is_reserved":false,"is_disabled":false,"rental_uris":{"android":"levelo://app?vid=4d9e23d5-bd87-4727-8d57-c47ef2bf36a8","ios":"levelo://app?vid=4d9e23d5-bd87-4727-8d57-c47ef2bf36a8"},"vehicle_type_id":"4","last_reported":1773945644,"current_range_meters":8400,"station_id":"ce4bhb12rcd13ifvqel0","pricing_plan_id":"cebpf4jnsgd1na2vs0mg"},{"bike_id":"b790cc6c-beda-4dcd-96dd-e541806c10fa","system_id":"levelo_inurba_marseille","lat":43.27481,"lon":5.41628,"is_reserved":false,"is_disabled":false,"rental_uris":{"android":"levelo://app?vid=b790cc6c-beda-4dcd-96dd-e541806c10fa","ios":"levelo://app?vid=b790cc6c-beda-4dcd-96dd-e541806c10fa"},"vehicle_type_id":"4","last_reported":1773945644,"current_range_meters":8400,"station_id":"st_d6im8g6chgec73a5pndg","pricing_plan_id":"cebpf4jnsgd1na2vs0mg"},{"bike_id":"88f62a4c-1dd5-4d07-a59a-902271acdb70","system_id":"levelo_inurba_marseille","lat":43.28178,"lon":5.42654,"is_reserved":false,"is_disabled":false,"rental_uris":{"android":"levelo://app?vid=88f62a4c-1dd5-4d07-a59a-902271acdb70","ios":"levelo://app?vid=88f62a4c-1dd5-4d07-a59a-902271acdb70"},"vehicle_type_id":"4","last_reported":1773945644,"current_range_meters":8400,"station_id":"ce4bhnh2rcd13ifvqgug","pricing_plan_id":"cebpf4jnsgd1na2vs0mg"},{"bike_id":"91754ca3-cd5e-47a5-b17b-b94faa181426","system_id":"levelo_inurba_marseille","lat":43.32111,"lon":5.36789,"is_reserved":false,"is_disabled":false,"rental_uris":{"android":"levelo://app?vid=91754ca3-cd5e-47a5-b17b-b94faa181426","ios":"levelo://app?vid=91754ca3-cd5e-47a5-b17b-b94faa181426"},"vehicle_type_id":"4","last_reported":1773945644,"current_range_meters":8400,"station_id":"ce4bhrh2rcd13ifvqhug","pricing_plan_id":"cebpf4jnsgd1na2vs0mg"},{"bike_id":"5b633a99-6e6c-40eb-b51a-c5e14db697a0","system_id":"levelo_inurba_marseille","lat":43.27046,"lon":5.42275,"is_reserved":false,"is_disabled":false,"rental_uris":{"android":"levelo://app?vid=5b633a99-6e6c-40eb-b51a-c5e14db697a0","ios":"levelo://app?vid=5b633a99-6e6c-40eb-b51a-c5e14db697a0"},"vehicle_type_id":"4","last_reported":1773945644,"current_range_meters":8400,"station_id":"ce4bhk92rcd13ifvqgb0","pricing_plan_id":"cebpf4jnsgd1na2vs0mg"},{"bike_id":"57d1ada9-1a9f-44a6-9752-b843732a3f40","system_id":"levelo_inurba_marseille","lat":43.2996,"lon":5.37168,"is_reserved":false,"is_disabled":false,"rental_uris":{"android":"levelo://app?vid=57d1ada9-1a9f-44a6-9752-b843732a3f40","ios":"levelo://app?vid=57d1ada9-1a9f-44a6-9752-b843732a3f40"},"vehicle_type_id":"4","last_reported":1773945644,"current_range_meters":8400,"station_id":"ce4bgr92rcd13ifvqc7g","pricing_plan_id":"cebpf4jnsgd1na2vs0mg"},{"bike_id":"e91d71b1-83a8-4ed1-adc6-2230241ff7bd","system_id":"levelo_inurba_marseille","lat":43.27048,"lon":5.40261,"is_reserved":false,"is_disabled":false,"rental_uris":{"android":"levelo://app?vid=e91d71b1-83a8-4ed1-adc6-2230241ff7bd","ios":"levelo://app?vid=e91d71b1-83a8-4ed1-adc6-2230241ff7bd"},"vehicle_type_id":"4","last_reported":1773945644,"current_range_meters":8400,"station_id":"ce4bhk92rcd13ifvqgc0","pricing_plan_id":"cebpf4jnsgd1na2vs0mg"},{"bike_id":"1314aa5a-05b3-487f-82bb-9ae5e8d9e6d3","system_id":"levelo_inurba_marseille","lat":43.23784,"lon":5.36632,"is_reserved":false,"is_disabled":false,"rental_uris":{"android":"levelo://app?vid=1314aa5a-05b3-487f-82bb-9ae5e8d9e6d3","ios":"levelo://app?vid=1314aa5a-05b3-487f-82bb-9ae5e8d9e6d3"},"vehicle_type_id":"4","last_reported":1773945644,"current_range_meters":8400,"station_id":"st_d3nk18o9ro0c73en2l3g","pricing_plan_id":"cebpf4jnsgd1na2vs0mg"},{"bike_id":"cefa7c24-c0c7-4760-8fe0-e94501a288b1","system_id":"levelo_inurba_marseille","lat":43.28354,"lon":5.38102,"is_reserved":false,"is_disabled":false,"rental_uris":{"android":"levelo://app?vid=cefa7c24-c0c7-4760-8fe0-e94501a288b1","ios":"levelo://app?vid=cefa7c24-c0c7-4760-8fe0-e94501a288b1"},"vehicle_type_id":"4","last_reported":1773945644,"current_range_meters":8400,"station_id":"ce4bh412rcd13ifvqdr0","pricing_plan_id":"cebpf4jnsgd1na2vs0mg"},{"bike_id":"35b98144-a8e9-4b84-b91d-3513211f7aa1","system_id":"levelo_inurba_marseille","lat":43.24838,"lon":5.37463,"is_reserved":false,"is_disabled":false,"rental_uris":{"android":"levelo://app?vid=35b98144-a8e9-4b84-b91d-3513211f7aa1","ios":"levelo://app?vid=35b98144-a8e9-4b84-b91d-3513211f7aa1"},"vehicle_type_id":"4","last_reported":1773945644,"current_range_meters":8400,"station_id":"","pricing_plan_id":"cebpf4jnsgd1na2vs0mg"},