{"last_updated":1734498595,"ttl":60,"version":"2.2","data":{"bikes":[{"bike_id":"eff26a49-6cbb-420e-8576-f62ac1dc0d25","system_id":"levelo_inurba_marseille","lat":43.30873,"lon":5.37211,"is_reserved":false,"is_disabled":false,"rental_uris":{"android":"levelo://app?vid=eff26a49-6cbb-420e-8576-f62ac1dc0d25","ios":"levelo://app?vid=eff26a49-6cbb-420e-8576-f62ac1dc0d25"},"vehicle_type_id":"4","last_reported":1734498595,"current_range_meters":38000,"station_id":"ce4bguh2rcd13ifvqckg","pricing_plan_id":"cebpf4jnsgd1na2vs0mg"},{"bike_id":"2d6fa412-1e04-4f1e-bdf5-0af7e9849c28","system_id":"levelo_inurba_marseille","lat":43.29569,"lon":5.39977,"is_reserved":false,"is_disabled":false,"rental_uris":{"android":"levelo://app?vid=2d6fa412-1e04-4f1e-bdf5-0af7e9849c28","ios":"levelo://app?vid=2d6fa412-1e04-4f1e-bdf5-0af7e9849c28"},"vehicle_type_id":"4","last_reported":1734498595,"current_range_meters":9600,"station_id":"ce4bh312rcd13ifvqdj0","pricing_plan_id":"cebpf4jnsgd1na2vs0mg"},{"bike_id":"d08989b0-4c3a-4e63-bd45-bd35d216aab7","system_id":"levelo_inurba_marseille","lat":43.29625,"lon":5.40594,"is_reserved":false,"is_disabled":false,"rental_uris":{"android":"levelo://app?vid=d08989b0-4c3a-4e63-bd45-bd35d216aab7","ios":"levelo://app?vid=d08989b0-4c3a-4e63-bd45-bd35d216aab7"},"vehicle_type_id":"4","last_reported":1734498595,"current_range_meters":10000,"station_id":"ce4bh0h2rcd13ifvqd60","pricing_plan_id":"cebpf4jnsgd1na2vs0mg"},{"bike_id":"360c8721-12eb-4735-ac2d-4c0d0142f8ed","system_id":"levelo_inurba_marseille","lat":43.30431,"lon":5.39758,"is_reserved":false,"is_disabled":false,"rental_uris":{"android":"levelo://app?vid=360c8721-12eb-4735-ac2d-4c0d0142f8ed","ios":"levelo://app?vid=360c8721-12eb-4735-ac2d-4c0d0142f8ed"},"vehicle_type_id":"4","last_reported":1734498595,"current_range_meters":10000,"station_id":"ce4bh092rcd13ifvqd20","pricing_plan_id":"cebpf4jnsgd1na2vs0mg"},{"bike_id":"df99d8de-50f7-4deb-b58a-cb5175498e3a","system_id":"levelo_inurba_marseille","lat":43.28027,"lon":5.36945,"is_reserved":false,"is_disabled":false,"rental_uris":{"android":"levelo://app?vid=df99d8de-50f7-4deb-b58a-cb5175498e3a","ios":"levelo://app?vid=df99d8de-50f7-4deb-b58a-cb5175498e3a"},"vehicle_type_id":"4","last_reported":1734498595,"current_range_meters":38000,"station_id":"ce4bha12rcd13ifvqef0","pricing_plan_id":"cebpf4jnsgd1na2vs0mg"},{"bike_id":"fc2fa04a-e722-4371-8749-69685a4b0890","system_id":"levelo_inurba_marseille","lat":43.255768,"lon":5.38231,"is_reserved":false,"is_disabled":false,"rental_uris":{"android":"levelo://app?vid=fc2fa04a-e722-4371-8749-69685a4b0890","ios":"levelo://app?vid=fc2fa04a-e722-4371-8749-69685a4b0890"},"vehicle_type_id":"4","last_reported":1734498595,"current_range_meters":38800,"station_id":"ce4bhih2rcd13ifvqfs0","pricing_plan_id":"cebpf4jnsgd1na2vs0mg"},{"bike_id":"ec708024-e2a3-4197-beea-607b03812d3c","system_id":"levelo_inurba_marseille","lat":43.25542,"lon":5.38303,"is_reserved":false,"is_disabled":false,"rental_uris":{"android":"levelo://app?vid=ec708024-e2a3-4197-beea-607b03812d3c","ios":"levelo://app?vid=ec708024-e2a3-4197-beea-607b03812d3c"},"vehicle_type_id":"4","last_reported":1734498595,"current_range_meters":38800,"station_id":"ce4bhih2rcd13ifvqfs0","pricing_plan_id":"cebpf4jnsgd1na2vs0mg"},{"bike_id":"4847e741-e962-4525-a813-1f8c3253c2aa","system_id":"levelo_inurba_marseille","lat":43.30653,"lon":5.40092,"is_reserved":false,"is_disabled":false,"rental_uris":{"android":"levelo://app?vid=4847e741-e962-4525-a813-1f8c3253c2aa","ios":"levelo://app?vid=4847e741-e962-4525-a813-1f8c3253c2aa"},"vehicle_type_id":"4","last_reported":1734498595,"current_range_meters":22800,"station_id":"ce4bh112rcd13ifvqda0","pricing_plan_id":"cebpf4jnsgd1na2vs0mg"},{"bike_id":"b1b1f756-c1a0-4e66-8530-9c85602c1813","system_id":"levelo_inurba_marseille","lat":43.32359,"lon":5.36756,"is_reserved":false,"is_disabled":false,"rental_uris":{"android":"levelo://app?vid=b1b1f756-c1a0-4e66-8530-9c85602c1813","ios":"levelo://app?vid=b1b1f756-c1a0-4e66-8530-9c85602c1813"},"vehicle_type_id":"4","last_reported":1734498595,"current_range_meters":20800,"station_id":"ce4bhsh2rcd13ifvqi2g","pricing_plan_id":"cebpf4jnsgd1na2vs0mg"},{"bike_id":"657dd4a3-2abb-4049-9755-a3b8006ccbef","system_id":"levelo_inurba_marseille","lat":43.30947,"lon":5.39045,"is_reserved":false,"is_disabled":false,"rental_uris":{"android":"levelo://app?vid=657dd4a3-2abb-4049-9755-a3b8006ccbef","ios":"levelo://app?vid=657dd4a3-2abb-4049-9755-a3b8006ccbef"},"vehicle_type_id":"4","last_reported":1734498595,"current_range_meters":37600,"station_id":"ce4bgup2rcd13ifvqco0","pricing_plan_id":"cebpf4jnsgd1na2vs0mg"},{"bike_id":"5c9d787a-ed08-4f6d-aae6-50e448cf550d","system_id":"levelo_inurba_marseille","lat":43.26019,"lon":5.37549,"is_reserved":false,"is_disabled":false,"rental_uris":{"android":"levelo://app?vid=5c9d787a-ed08-4f6d-aae6-50e448cf550d","ios":"levelo://app?vid=5c9d787a-ed08-4f6d-aae6-50e448cf550d"},"vehicle_type_id":"4","last_reported":1734498595,"current_range_meters":32800,"station_id":"ce4bhgh2rcd13ifvqfa0","pricing_plan_id":"cebpf4jnsgd1na2vs0mg"},{"bike_id":"20358b83-225d-4ff6-8386-f5d7e4ace024","system_id":"levelo_inurba_marseille","lat":43.30015,"lon":5.377339,"is_reserved":false,"is_disabled":true,"rental_uris":{"android":"levelo://app?vid=20358b83-225d-4ff6-8386-f5d7e4ace024","ios":"levelo://app?vid=20358b83-225d-4ff6-8386-f5d7e4ace024"},"vehicle_type_id":"4","last_reported":1734498595,"current_range_meters":4400,"station_id":"","pricing_plan_id":"cebpf4jnsgd1na2vs0mg"},{"bike_id":"1c3ce98c-7979-4fd4-9d09-8c01c2f65a8b","system_id":"levelo_inurba_marseille","lat":43.2928,"lon":5.40109,"is_reserved":false,"is_disabled":false,"rental_uris":{"android":"levelo://app?vid=1c3ce98c-7979-4fd4-9d09-8c01c2f65a8b","ios":"levelo://app?vid=1c3ce98c-7979-4fd4-9d09-8c01c2f65a8b"},"vehicle_type_id":"4","last_reported":1734498595,"current_range_meters":33200,"station_id":"ce4bh312rcd13ifvqdk0","pricing_plan_id":"cebpf4jnsgd1na2vs0mg"},{"bike_id":"2fbdd41c-1732-4e93-8819-1535f69b6924","system_id":"levelo_inurba_marseille","lat":43.30415,"lon":5.41286,"is_reserved":false,"is_disabled":false,"rental_uris":{"android":"levelo://app?vid=2fbdd41c-1732-4e93-8819-1535f69b6924","ios":"levelo://app?vid=2fbdd41c-1732-4e93-8819-1535f69b6924"},"vehicle_type_id":"4","last_reported":1734498595,"current_range_meters":38800,"station_id":"ce4bhop2rcd13ifvqh8g","pricing_plan_id":"cebpf4jnsgd1na2vs0mg"},{"bike_id":"519a8516-c8bc-45c7-9f41-f5b8ab91c641","system_id":"levelo_inurba_marseille","lat":43.274938,"lon":5.424455,"is_reserved":false,"is_disabled":false,"rental_uris":{"android":"levelo://app?vid=519a8516-c8bc-45c7-9f41-f5b8ab91c641","ios":"levelo://app?vid=519a8516-c8bc-45c7-9f41-f5b8ab91c641"},"vehicle_type_id":"4","last_reported":1734498595,"current_range_meters":36400,"station_id":"ce4bhn92rcd13ifvqgrg","pricing_plan_id":"cebpf4jnsgd1na2vs0mg"},{"bike_id":"8a7b999e-41f2-494c-ba32-de5da872441d","system_id":"levelo_inurba_marseille","lat":43.28454,"lon":5.35883,"is_reserved":false,"is_disabled":false,"rental_uris":{"android":"levelo://app?vid=8a7b999e-41f2-494c-ba32-de5da872441d","ios":"levelo://app?vid=8a7b999e-41f2-494c-ba32-de5da872441d"},"vehicle_type_id":"4","last_reported":1734498595,"current_range_meters":38800,"station_id":"ce4bhah2rcd13ifvqei0","pricing_plan_id":"cebpf4jnsgd1na2vs0mg"},{"bike_id":"4ef58d0d-8e30-4280-aa40-6d3ae5111f3b","system_id":"levelo_inurba_marseille","lat":43.30568,"lon":5.36926,"is_reserved":false,"is_disabled":false,"rental_uris":{"android":"levelo://app?vid=4ef58d0d-8e30-4280-aa40-6d3ae5111f3b","ios":"levelo://app?vid=4ef58d0d-8e30-4280-aa40-6d3ae5111f3b"},"vehicle_type_id":"4","last_reported":1734498595,"current_range_meters":36000,"station_id":"","pricing_plan_id":"cebpf4jnsgd1na2vs0mg"},{"bike_id":"9c4670ff-16f8-431b-a765-a851341fad40","system_id":"levelo_inurba_marseille","lat":43.27318,"lon":5.39081,"is_reserved":false,"is_disabled":true,"rental_uris":{"android":"levelo://app?vid=9c4670ff-16f8-431b-a765-a851341fad40","ios":"levelo://app?vid=9c4670ff-16f8-431b-a765-a851341fad40"},"vehicle_type_id":"4","last_reported":1734498595,"current_range_meters":9200,"station_id":"ce4bhgp2rcd13ifvqfe0","pricing_plan_id":"cebpf4jnsgd1na2vs0mg"},{"bike_id":"d003f1e2-007e-4501-9d30-d9401bc4b730","system_id":"levelo_inurba_marseille","lat":43.30149,"lon":5.38082,"is_reserved":false,"is_disabled":false,"rental_uris":{"android":"levelo://app?vid=d003f1e2-007e-4501-9d30-d9401bc4b730","ios":"levelo://app?vid=d003f1e2-007e-4501-9d30-d9401bc4b730"},"vehicle_type_id":"4","last_reported":1734498595,"current_range_meters":39200,"station_id":"ce4bgjp2rcd13ifvqbh0","pricing_plan_id":"cebpf4jnsgd1na2vs0mg"},{"bike_id":"f9aada81-36cb-4a41-9351-bc98279da73f","system_id":"levelo_inurba_marseille","lat":43.2919,"lon":5.39331,"is_reserved":false,"is_disabled":false,"rental_uris":{"android":"levelo://app?vid=f9aada81-36cb-4a41-9351-bc98279da73f","ios":"levelo://app?vid=f9aada81-36cb-4a41-9351-bc98279da73f"},"vehicle_type_id":"4","last_reported":1734498595,"current_range_meters":8800,"station_id":"ce4bh192rcd13ifvqdd0","pricing_plan_id":"cebpf4jnsgd1na2vs0mg"},{"bike_id":"bfe97e7b-6b0b-4bdc-83b9-1bac7752b9af","system_id":"levelo_inurba_marseille","lat":43.28846,"lon":5.35834,"is_reserved":false,"is_disabled":false,"rental_uris":{"android":"levelo://app?vid=bfe97e7b-6b0b-4bdc-83b9-1bac7752b9af","ios":"levelo://app?vid=bfe97e7b-6b0b-4bdc-83b9-1bac7752b9af"},"vehicle_type_id":"4","last_reported":1734498595,"current_range_meters":22800,"station_id":"ce4bhb12rcd13ifvqem0","pricing_plan_id":"cebpf4jnsgd1na2vs0mg"},{"bike_id":"84ddfe1d-ca2e-40e3-867b-10da3889bfbe","system_id":"levelo_inurba_marseille","lat":43.28457,"lon":5.35886,"is_reserved":false,"is_disabled":false,"rental_uris":{"android":"levelo://app?vid=84ddfe1d-ca2e-40e3-867b-10da3889bfbe","ios":"levelo://app?vid=84ddfe1d-ca2e-40e3-867b-10da3889bfbe"},"vehicle_type_id":"4","last_reported":1734498595,"current_range_meters":28400,"station_id":"ce4bhah2rcd13ifvqei0","pricing_plan_id":"cebpf4jnsgd1na2vs0mg"},{"bike_id":"33d5b731-57e7-485a-afa6-25f1ad322dc5","system_id":"levelo_inurba_marseille","lat":43.3302,"lon":5.39037,"is_reserved":false,"is_disabled":false,"rental_uris":{"android":"levelo://app?vid=33d5b731-57e7-485a-afa6-25f1ad322dc5","ios":"levelo://app?vid=33d5b731-57e7-485a-afa6-25f1ad322dc5"},"vehicle_type_id":"4","last_reported":1734498595,"current_range_meters":11600,"station_id":"ce4bhr92rcd13ifvqhrg","pricing_plan_id":"cebpf4jnsgd1na2vs0mg"},{"bike_id":"1f12dedd-4bb1-4ecc-a23a-306800129dbf","system_id":"levelo_inurba_marseille","lat":43.25003,"lon":5.38943,"is_reserved":false,"is_disabled":false,"rental_uris":{"android":"levelo://app?vid=1f12dedd-4bb1-4ecc-a23a-306800129dbf","ios":"levelo://app?vid=1f12dedd-4bb1-4ecc-a23a-306800129dbf"},"vehicle_type_id":"4","last_reported":1734498595,"current_range_meters":12000,"station_id":"ce4bhgp2rcd13ifvqfd0","pricing_plan_id":"cebpf4jnsgd1na2vs0mg"},{"bike_id":"aacc7da2-1446-4d2a-aa32-e804470fc32d","system_id":"levelo_inurba_marseille","lat":43.309155,"lon":5.400341,"is_reserved":false,"is_disabled":true,"rental_uris":{"android":"levelo://app?vid=aacc7da2-1446-4d2a-aa32-e804470fc32d","ios":"levelo://app?vid=aacc7da2-1446-4d2a-aa32-e804470fc32d"},"vehicle_type_id":"4","last_reported":1734498595,"current_range_meters":0,"station_id":"","pricing_plan_id":"cebpf4jnsgd1na2vs0mg"},{"bike_id":"937c90ec-cf04-465b-97b2-ee54435829e8","system_id":"levelo_inurba_marseille","lat":43.301974,"lon":5.366212,"is_reserved":false,"is_disabled":true,"rental_uris":{"android":"levelo://app?vid=937c90ec-cf04-465b-97b2-ee54435829e8","ios":"levelo://app?vid=937c90ec-cf04-465b-97b2-ee54435829e8"},"vehicle_type_id":"4","last_reported":1734498595,"current_range_meters":28400,"station_id":"","pricing_plan_id":"cebpf4jnsgd1na2vs0mg"},{"bike_id":"10762532-213b-46a3-8720-3209850cbea7","system_id":"levelo_inurba_marseille","lat":43.28664,"lon":5.36344,"is_reserved":false,"is_disabled":false,"rental_uris":{"android":"levelo://app?vid=10762532-213b-46a3-8720-3209850cbea7","ios":"levelo://app?vid=10762532-213b-46a3-8720-3209850cbea7"},"vehicle_type_id":"4","last_reported":1734498595,"current_range_meters":26800,"station_id":"ce4bhah2rcd13ifvqej0","pricing_plan_id":"cebpf4jnsgd1na2vs0mg"},{"bike_id":"36faf9e3-2556-497b-900b-a9cbd7a56867","system_id":"levelo_inurba_marseille","lat":43.31705,"lon":5.37806,"is_reserved":false,"is_disabled":false,"rental_uris":{"android":"levelo://app?vid=36faf9e3-2556-497b-900b-a9cbd7a56867","ios":"levelo://app?vid=36faf9e3-2556-497b-900b-a9cbd7a56867"},"vehicle_type_id":"4","last_reported":1734498595,"current_range_meters":37600,"station_id":"ce4bgth2rcd13ifvqch0","pricing_plan_id":"cebpf4jnsgd1na2vs0mg"},{"bike_id":"124e6c05-4926-4207-84f5-da69a7334d60","system_id":"levelo_inurba_marseille","lat":43.2902,"lon":5.38131,"is_reserved":false,"is_disabled":true,"rental_uris":{"android":"levelo://app?vid=124e6c05-4926-4207-84f5-da69a7334d60","ios":"levelo://app?vid=124e6c05-4926-4207-84f5-da69a7334d60"},"vehicle_type_id":"4","last_reported":1734498595,"current_range_meters":36000,"station_id":"ce4bh4p2rcd13ifvqe1g","pricing_plan_id":"cebpf4jnsgd1na2vs0mg"},{"bike_id":"809edd3b-3b00-42f4-b451-bac00c70be14","system_id":"levelo_inurba_marseille","lat":43.34135,"lon":5.409,"is_reserved":false,"is_disabled":false,"rental_uris":{"android":"levelo://app?vid=809edd3b-3b00-42f4-b451-bac00c70be14","ios":"levelo://app?vid=809edd3b-3b00-42f4-b451-bac00c70be14"},"vehicle_type_id":"4","last_reported":1734498595,"current_range_meters":38000,"station_id":"ce4bhqh2rcd13ifvqhlg","pricing_plan_id":"cebpf4jnsgd1na2vs0mg"},{"bike_id":"b56c4a15-79b4-43a7-be93-f93d9975d6ed","system_id":"levelo_inurba_marseille","lat":43.26942,"lon":5.40255,"is_reserved":false,"is_disabled":false,"rental_uris":{"android":"levelo://app?vid=b56c4a15-79b4-43a7-be93-f93d9975d6ed","ios":"levelo://app?vid=b56c4a15-79b4-43a7-be93-f93d9975d6ed"},"vehicle_type_id":"4","last_reported":1734498595,"current_range_meters":11600,"station_id":"cjm6bp8fraef2m0cb0m0","pricing_plan_id":"cebpf4jnsgd1na2vs0mg"},{"bike_id":"fcbd1a5a-fb21-47fd-8672-99a9d807710a","system_id":"levelo_inurba_marseille","lat":43.23185,"lon":5.39976,"is_reserved":false,"is_disabled":true,"rental_uris":{"android":"levelo://app?vid=fcbd1a5a-fb21-47fd-8672-99a9d807710a","ios":"levelo://app?vid=fcbd1a5a-fb21-47fd-8672-99a9d807710a"},"vehicle_type_id":"4","last_reported":1734498595,"current_range_meters":0,"station_id":"ce4bhn12rcd13ifvqgqg","pricing_plan_id":"cebpf4jnsgd1na2vs0mg"},{"bike_id":"dc0e6df7-295d-4e62-8939-9c7a9d49b036","system_id":"levelo_inurba_marseille","lat":43.299565,"lon":5.413266,"is_reserved":false,"is_disabled":true,"rental_uris":{"android":"levelo://app?vid=dc0e6df7-295d-4e62-8939-9c7a9d49b036","ios":"levelo://app?vid=dc0e6df7-295d-4e62-8939-9c7a9d49b036"},"vehicle_type_id":"4","last_reported":1734498595,"current_range_meters":27600,"station_id":"ce4bhp12rcd13ifvqh9g","pricing_plan_id":"cebpf4jnsgd1na2vs0mg"},{"bike_id":"c4a52cdb-90aa-4daa-a63d-aedf20c6b78c","system_id":"levelo_inurba_marseille","lat":43.30332,"lon":5.40431,"is_reserved":false,"is_disabled":false,"rental_uris":{"android":"levelo://app?vid=c4a52cdb-90aa-4daa-a63d-aedf20c6b78c","ios":"levelo://app?vid=c4a52cdb-90aa-4daa-a63d-aedf20c6b78c"},"vehicle_type_id":"4","last_reported":1734498595,"current_range_meters":25200,"station_id":"ce4bh012rcd13ifvqd10","pricing_plan_id":"cebpf4jnsgd1na2vs0mg"},{"bike_id":"0a63bca6-39a0-42cf-bc8f-cd65c34f24df","system_id":"levelo_inurba_marseille","lat":43.24638,"lon":5.38889,"is_reserved":false,"is_disabled":false,"rental_uris":{"android":"levelo://app?vid=0a63bca6-39a0-42cf-bc8f-cd65c34f24df","ios":"levelo://app?vid=0a63bca6-39a0-42cf-bc8f-cd65c34f24df"},"vehicle_type_id":"4","last_reported":1734498595,"current_range_meters":38400,"station_id":"ce4bhg12rcd13ifvqf60","pricing_plan_id":"cebpf4jnsgd1na2vs0mg"},{"bike_id":"2491c714-f3f7-493b-9790-9992e16c8fb6","system_id":"levelo_inurba_marseille","lat":43.34142,"lon":5.40907,"is_reserved":false,"is_disabled":false,"rental_uris":{"android":"levelo://app?vid=2491c714-f3f7-493b-9790-9992e16c8fb6","ios":"levelo://app?vid=2491c714-f3f7-493b-9790-9992e16c8fb6"},"vehicle_type_id":"4","last_reported":1734498595,"current_range_meters":38800,"station_id":"ce4bhqh2rcd13ifvqhlg","pricing_plan_id":"cebpf4jnsgd1na2vs0mg"},{"bike_id":"8806f127-b5d3-4cd7-acdc-a8187ef02bd7","system_id":"levelo_inurba_marseille","lat":43.2944,"lon":5.39761,"is_reserved":false,"is_disabled":false,"rental_uris":{"android":"levelo://app?vid=8806f127-b5d3-4cd7-acdc-a8187ef02bd7","ios":"levelo://app?vid=8806f127-b5d3-4cd7-acdc-a8187ef02bd7"},"vehicle_type_id":"4","last_reported":1734498595,"current_range_meters":38800,"station_id":"ce4bh3h2rcd13ifvqdo0","pricing_plan_id":"cebpf4jnsgd1na2vs0mg"},{"bike_id":"ea1ee0a0-f240-4d25-84d9-e6fb6fc7a18c","system_id":"levelo_inurba_marseille","lat":43.33773,"lon":5.42093,"is_reserved":false,"is_disabled":true,"rental_uris":{"android":"levelo://app?vid=ea1ee0a0-f240-4d25-84d9-e6fb6fc7a18c","ios":"levelo://app?vid=ea1ee0a0-f240-4d25-84d9-e6fb6fc7a18c"},"vehicle_type_id":"4","last_reported":1734498595,"current_range_meters":0,"station_id":"","pricing_plan_id":"cebpf4jnsgd1na2vs0mg"},{"bike_id":"06c6e1cd-66a9-44f1-a613-032c381bdb70","system_id":"levelo_inurba_marseille","lat":43.28451,"lon":5.3589,"is_reserved":false,"is_disabled":false,"rental_uris":{"android":"levelo://app?vid=06c6e1cd-66a9-44f1-a613-032c381bdb70","ios":"levelo://app?vid=06c6e1cd-66a9-44f1-a613-032c381bdb70"},"vehicle_type_id":"4","last_reported":1734498595,"current_range_meters":24000,"station_id":"ce4bhah2rcd13ifvqei0","pricing_plan_id":"cebpf4jnsgd1na2vs0mg"},{"bike_id":"12b4b165-951a-4db7-8b79-0bc1787b0fa0","system_id":"levelo_inurba_marseille","lat":43.31772,"lon":5.39003,"is_reserved":false,"is_disabled":false,"rental_uris":{"android":"levelo://app?vid=12b4b165-951a-4db7-8b79-0bc1787b0fa0","ios":"levelo://app?vid=12b4b165-951a-4db7-8b79-0bc1787b0fa0"},"vehicle_type_id":"4","last_reported":1734498595,"current_range_meters":38400,"station_id":"ce4bhqp2rcd13ifvqhng","pricing_plan_id":"cebpf4jnsgd1na2vs0mg"},{"bike_id":"c8f79b9f-b6a3-42c1-83aa-cf20faccc3b4","system_id":"levelo_inurba_marseille","lat":43.2669,"lon":5.38248,"is_reserved":false,"is_disabled":true,"rental_uris":{"android":"levelo://app?vid=c8f79b9f-b6a3-42c1-83aa-cf20faccc3b4","ios":"levelo://app?vid=c8f79b9f-b6a3-42c1-83aa-cf20faccc3b4"},"vehicle_type_id":"4","last_reported":1734498595,"current_range_meters":38800,"station_id":"ce4bhg92rcd13ifvqf90","pricing_plan_id":"cebpf4jnsgd1na2vs0mg"},{"bike_id":"466ece3a-66f3-41fa-bf10-19f3bd6e70d0","system_id":"levelo_inurba_marseille","lat":43.29272,"lon":5.40148,"is_reserved":false,"is_disabled":false,"rental_uris":{"android":"levelo://app?vid=466ece3a-66f3-41fa-bf10-19f3bd6e70d0","ios":"levelo://app?vid=466ece3a-66f3-41fa-bf10-19f3bd6e70d0"},"vehicle_type_id":"4","last_reported":1734498595,"current_range_meters":23200,"station_id":"ce4bh312rcd13ifvqdk0","pricing_plan_id":"cebpf4jnsgd1na2vs0mg"},{"bike_id":"ced6d675-12c0-4da0-be83-da67b3f80732","system_id":"levelo_inurba_marseille","lat":43.309486,"lon":5.390388,"is_reserved":false,"is_disabled":false,"rental_uris":{"android":"levelo://app?vid=ced6d675-12c0-4da0-be83-da67b3f80732","ios":"levelo://app?vid=ced6d675-12c0-4da0-be83-da67b3f80732"},"vehicle_type_id":"4","last_reported":1734498595,"current_range_meters":38800,"station_id":"ce4bgup2rcd13ifvqco0","pricing_plan_id":"cebpf4jnsgd1na2vs0mg"},{"bike_id":"ef00e13f-569a-41fd-b53e-49adca3b054e","system_id":"levelo_inurba_marseille","lat":43.27486,"lon":5.42447,"is_reserved":false,"is_disabled":false,"rental_uris":{"android":"levelo://app?vid=ef00e13f-569a-41fd-b53e-49adca3b054e","ios":"levelo://app?vid=ef00e13f-569a-41fd-b53e-49adca3b054e"},"vehicle_type_id":"4","last_reported":1734498595,"current_range_meters":39200,"station_id":"ce4bhn92rcd13ifvqgrg","pricing_plan_id":"cebpf4jnsgd1na2vs0mg"},{"bike_id":"2b9e5232-81d0-497c-a52e-1e7fea60b29a","system_id":"levelo_inurba_marseille","lat":43.32372,"lon":5.38865,"is_reserved":false,"is_disabled":false,"rental_uris":{"android":"levelo://app?vid=2b9e5232-81d0-497c-a52e-1e7fea60b29a","ios":"levelo://app?vid=2b9e5232-81d0-497c-a52e-1e7fea60b29a"},"vehicle_type_id":"4","last_reported":1734498595,"current_range_meters":26000,"station_id":"ce4bhqp2rcd13ifvqhog","pricing_plan_id":"cebpf4jnsgd1na2vs0mg"},{"bike_id":"a0e1813a-9965-43b0-b07d-deffe727b025","system_id":"levelo_inurba_marseille","lat":43.28701,"lon":5.399817,"is_reserved":false,"is_disabled":false,"rental_uris":{"android":"levelo://app?vid=a0e1813a-9965-43b0-b07d-deffe727b025","ios":"levelo://app?vid=a0e1813a-9965-43b0-b07d-deffe727b025"},"vehicle_type_id":"4","last_reported":1734498595,"current_range_meters":8000,"station_id":"ce4bho92rcd13ifvqh3g","pricing_plan_id":"cebpf4jnsgd1na2vs0mg"},{"bike_id":"119783c5-680e-4ccc-81fe-dcc520e3bff9","system_id":"levelo_inurba_marseille","lat":43.24671,"lon":5.38155,"is_reserved":false,"is_disabled":false,"rental_uris":{"android":"levelo://app?vid=119783c5-680e-4ccc-81fe-dcc520e3bff9","ios":"levelo://app?vid=119783c5-680e-4ccc-81fe-dcc520e3bff9"},"vehicle_type_id":"4","last_reported":1734498595,"current_range_meters":37600,"station_id":"ce4bhih2rcd13ifvqfr0","pricing_plan_id":"cebpf4jnsgd1na2vs0mg"},{"bike_id":"fdae6994-2b52-4fd0-8d8f-e92f1ee91c77","system_id":"levelo_inurba_marseille","lat":43.2846,"lon":5.35878,"is_reserved":false,"is_disabled":false,"rental_uris":{"android":"levelo://app?vid=fdae6994-2b52-4fd0-8d8f-e92f1ee91c77","ios":"levelo://app?vid=fdae6994-2b52-4fd0-8d8f-e92f1ee91c77"},"vehicle_type_id":"4","last_reported":1734498595,"current_range_meters":28400,"station_id":"ce4bhah2rcd13ifvqei0","pricing_plan_id":"cebpf4jnsgd1na2vs0mg"},{"bike_id":"d5bb5233-5c13-4106-a5af-af43f6e0c448","system_id":"levelo_inurba_marseille","lat":43.31349,"lon":5.38488,"is_reserved":false,"is_disabled":false,"rental_uris":{"android":"levelo://app?vid=d5bb5233-5c13-4106-a5af-af43f6e0c448","ios":"levelo://app?vid=d5bb5233-5c13-4106-a5af-af43f6e0c448"},"vehicle_type_id":"4","last_reported":1734498595,"current_range_meters":37600,"station_id":"ce4bgt92rcd13ifvqcf0","pricing_plan_id":"cebpf4jnsgd1na2vs0mg"},{"bike_id":"38f20744-af43-4445-b9c5-a52798357518","system_id":"levelo_inurba_marseille","lat":43.25489,"lon":5.37643,"is_reserved":false,"is_disabled":false,"rental_uris":{"android":"levelo://app?vid=38f20744-af43-4445-b9c5-a52798357518","ios":"levelo://app?vid=38f20744-af43-4445-b9c5-a52798357518"},"vehicle_type_id":"4","last_reported":1734498595,"current_range_meters":36400,"station_id":"ce4bhh12rcd13ifvqff0","pricing_plan_id":"cebpf4jnsgd1na2vs0mg"},{"bike_id":"e1d7ff9b-31d9-4501-9316-ba4675c60747","system_id":"levelo_inurba_marseille","lat":43.29625,"lon":5.40598,"is_reserved":false,"is_disabled":false,"rental_uris":{"android":"levelo://app?vid=e1d7ff9b-31d9-4501-9316-ba4675c60747","ios":"levelo://app?vid=e1d7ff9b-31d9-4501-9316-ba4675c60747"},"vehicle_type_id":"4","last_reported":1734498595,"current_range_meters":16800,"station_id":"ce4bh0h2rcd13ifvqd60","pricing_plan_id":"cebpf4jnsgd1na2vs0mg"},{"bike_id":"3dd03454-9930-421f-baa9-6f7c444d56d0","system_id":"levelo_inurba_marseille","lat":43.24654,"lon":5.38159,"is_reserved":false,"is_disabled":false,"rental_uris":{"android":"levelo://app?vid=3dd03454-9930-421f-baa9-6f7c444d56d0","ios":"levelo://app?vid=3dd03454-9930-421f-baa9-6f7c444d56d0"},"vehicle_type_id":"4","last_reported":1734498595,"current_range_meters":30800,"station_id":"ce4bhih2rcd13ifvqfr0","pricing_plan_id":"cebpf4jnsgd1na2vs0mg"},{"bike_id":"a915664c-b380-46a9-a0a6-c2f3e26cc17a","system_id":"levelo_inurba_marseille","lat":43.31106,"lon":5.37778,"is_reserved":false,"is_disabled":false,"rental_uris":{"android":"levelo://app?vid=a915664c-b380-46a9-a0a6-c2f3e26cc17a","ios":"levelo://app?vid=a915664c-b380-46a9-a0a6-c2f3e26cc17a"},"vehicle_type_id":"4","last_reported":1734498595,"current_range_meters":12800,"station_id":"ce4bgt92rcd13ifvqcg0","pricing_plan_id":"cebpf4jnsgd1na2vs0mg"},{"bike_id":"0c5085b7-7cab-45c1-a18f-e40efc7f7674","system_id":"levelo_inurba_marseille","lat":43.31106,"lon":5.37778,"is_reserved":false,"is_disabled":false,"rental_uris":{"android":"levelo://app?vid=0c5085b7-7cab-45c1-a18f-e40efc7f7674","ios":"levelo://app?vid=0c5085b7-7cab-45c1-a18f-e40efc7f7674"},"vehicle_type_id":"4","last_reported":1734498595,"current_range_meters":16000,"station_id":"ce4bgt92rcd13ifvqcg0","pricing_plan_id":"cebpf4jnsgd1na2vs0mg"},{"bike_id":"f2feff4c-28ba-468f-a6dd-9bfdf1705106","system_id":"levelo_inurba_marseille","lat":43.27574,"lon":5.38422,"is_reserved":false,"is_disabled":false,"rental_uris":{"android":"levelo://app?vid=f2feff4c-28ba-468f-a6dd-9bfdf1705106","ios":"levelo://app?vid=f2feff4c-28ba-468f-a6dd-9bfdf1705106"},"vehicle_type_id":"4","last_reported":1734498595,"current_range_meters":39200,"station_id":"ce4bhh92rcd13ifvqfi0","pricing_plan_id":"cebpf4jnsgd1na2vs0mg"},{"bike_id":"5e92ecb3-11f8-486e-b871-ed378b8cfd18","system_id":"levelo_inurba_marseille","lat":43.31282,"lon":5.40175,"is_reserved":false,"is_disabled":false,"rental_uris":{"android":"levelo://app?vid=5e92ecb3-11f8-486e-b871-ed378b8cfd18","ios":"levelo://app?vid=5e92ecb3-11f8-486e-b871-ed378b8cfd18"},"vehicle_type_id":"4","last_reported":1734498595,"current_range_meters":13600,"station_id":"ce4bh092rcd13ifvqd30","pricing_plan_id":"cebpf4jnsgd1na2vs0mg"},{"bike_id":"690c3583-42a1-46be-ac19-12f171f4edc0","system_id":"levelo_inurba_marseille","lat":43.306456,"lon":5.400816,"is_reserved":false,"is_disabled":false,"rental_uris":{"android":"levelo://app?vid=690c3583-42a1-46be-ac19-12f171f4edc0","ios":"levelo://app?vid=690c3583-42a1-46be-ac19-12f171f4edc0"},"vehicle_type_id":"4","last_reported":1734498595,"current_range_meters":32000,"station_id":"ce4bh112rcd13ifvqda0","pricing_plan_id":"cebpf4jnsgd1na2vs0mg"},{"bike_id":"45b39e50-137b-40ed-8099-af5b128ed6d9","system_id":"levelo_inurba_marseille","lat":43.295531,"lon":5.422944,"is_reserved":false,"is_disabled":false,"rental_uris":{"android":"levelo://app?vid=45b39e50-137b-40ed-8099-af5b128ed6d9","ios":"levelo://app?vid=45b39e50-137b-40ed-8099-af5b128ed6d9"},"vehicle_type_id":"4","last_reported":1734498595,"current_range_meters":19200,"station_id":"ce4bhph2rcd13ifvqhdg","pricing_plan_id":"cebpf4jnsgd1na2vs0mg"},{"bike_id":"29178437-6c99-4660-97f8-8e869a8bd3ad","system_id":"levelo_inurba_marseille","lat":43.29554,"lon":5.42285,"is_reserved":false,"is_disabled":false,"rental_uris":{"android":"levelo://app?vid=29178437-6c99-4660-97f8-8e869a8bd3ad","ios":"levelo://app?vid=29178437-6c99-4660-97f8-8e869a8bd3ad"},"vehicle_type_id":"4","last_reported":1734498595,"current_range_meters":38800,"station_id":"ce4bhph2rcd13ifvqhdg","pricing_plan_id":"cebpf4jnsgd1na2vs0mg"},{"bike_id":"77b045ec-31af-4db4-b5a1-524f94c3c261","system_id":"levelo_inurba_marseille","lat":43.29305,"lon":5.37444,"is_reserved":false,"is_disabled":true,"rental_uris":{"android":"levelo://app?vid=77b045ec-31af-4db4-b5a1-524f94c3c261","ios":"levelo://app?vid=77b045ec-31af-4db4-b5a1-524f94c3c261"},"vehicle_type_id":"4","last_reported":1734498595,"current_range_meters":32800,"station_id":"ce4bgi12rcd13ifvqb70","pricing_plan_id":"cebpf4jnsgd1na2vs0mg"},{"bike_id":"0f53107a-75d5-4717-9abc-31684ced364a","system_id":"levelo_inurba_marseille","lat":43.26936,"lon":5.38902,"is_reserved":false,"is_disabled":false,"rental_uris":{"android":"levelo://app?vid=0f53107a-75d5-4717-9abc-31684ced364a","ios":"levelo://app?vid=0f53107a-75d5-4717-9abc-31684ced364a"},"vehicle_type_id":"4","last_reported":1734498595,"current_range_meters":22800,"station_id":"ce4bhhh2rcd13ifvqfl0","pricing_plan_id":"cebpf4jnsgd1na2vs0mg"},{"bike_id":"8655aa0d-7bd0-4520-898a-5144c28d036b","system_id":"levelo_inurba_marseille","lat":43.31527,"lon":5.38019,"is_reserved":false,"is_disabled":false,"rental_uris":{"android":"levelo://app?vid=8655aa0d-7bd0-4520-898a-5144c28d036b","ios":"levelo://app?vid=8655aa0d-7bd0-4520-898a-5144c28d036b"},"vehicle_type_id":"4","last_reported":1734498595,"current_range_meters":37600,"station_id":"ce4bhsp2rcd13ifvqi50","pricing_plan_id":"cebpf4jnsgd1na2vs0mg"},{"bike_id":"db9ccfb2-e915-45e9-ad5d-d5b83593c92b","system_id":"levelo_inurba_marseille","lat":43.27912,"lon":5.39596,"is_reserved":false,"is_disabled":false,"rental_uris":{"android":"levelo://app?vid=db9ccfb2-e915-45e9-ad5d-d5b83593c92b","ios":"levelo://app?vid=db9ccfb2-e915-45e9-ad5d-d5b83593c92b"},"vehicle_type_id":"4","last_reported":1734498595,"current_range_meters":36400,"station_id":"ce4bhf92rcd13ifvqf40","pricing_plan_id":"cebpf4jnsgd1na2vs0mg"},{"bike_id":"2bf4c27f-73f1-47b0-882f-c1c6ceb171f4","system_id":"levelo_inurba_marseille","lat":43.240821,"lon":5.37752,"is_reserved":false,"is_disabled":false,"rental_uris":{"android":"levelo://app?vid=2bf4c27f-73f1-47b0-882f-c1c6ceb171f4","ios":"levelo://app?vid=2bf4c27f-73f1-47b0-882f-c1c6ceb171f4"},"vehicle_type_id":"4","last_reported":1734498595,"current_range_meters":38800,"station_id":"ce4bhnp2rcd13ifvqgvg","pricing_plan_id":"cebpf4jnsgd1na2vs0mg"},{"bike_id":"11de44e4-fb7b-4b95-8378-6a52a6f6b88e","system_id":"levelo_inurba_marseille","lat":43.29003,"lon":5.35606,"is_reserved":false,"is_disabled":false,"rental_uris":{"android":"levelo://app?vid=11de44e4-fb7b-4b95-8378-6a52a6f6b88e","ios":"levelo://app?vid=11de44e4-fb7b-4b95-8378-6a52a6f6b88e"},"vehicle_type_id":"4","last_reported":1734498595,"current_range_meters":38800,"station_id":"ce4bhb92rcd13ifvqen0","pricing_plan_id":"cebpf4jnsgd1na2vs0mg"},{"bike_id":"72492ff3-d3e5-4b81-822b-1d3357339451","system_id":"levelo_inurba_marseille","lat":43.29267,"lon":5.40183,"is_reserved":false,"is_disabled":false,"rental_uris":{"android":"levelo://app?vid=72492ff3-d3e5-4b81-822b-1d3357339451","ios":"levelo://app?vid=72492ff3-d3e5-4b81-822b-1d3357339451"},"vehicle_type_id":"4","last_reported":1734498595,"current_range_meters":38000,"station_id":"ce4bh312rcd13ifvqdk0","pricing_plan_id":"cebpf4jnsgd1na2vs0mg"},{"bike_id":"8d6e851f-84f0-48c2-a59c-78bb8e5317c1","system_id":"levelo_inurba_marseille","lat":43.23196,"lon":5.35564,"is_reserved":false,"is_disabled":false,"rental_uris":{"android":"levelo://app?vid=8d6e851f-84f0-48c2-a59c-78bb8e5317c1","ios":"levelo://app?vid=8d6e851f-84f0-48c2-a59c-78bb8e5317c1"},"vehicle_type_id":"4","last_reported":1734498595,"current_range_meters":6400,"station_id":"ce4bhu92rcd13ifvqi70","pricing_plan_id":"cebpf4jnsgd1na2vs0mg"},{"bike_id":"4e903476-26ee-4c32-806f-26a87ba3a549","system_id":"levelo_inurba_marseille","lat":43.294175,"lon":5.386071,"is_reserved":false,"is_disabled":true,"rental_uris":{"android":"levelo://app?vid=4e903476-26ee-4c32-806f-26a87ba3a549","ios":"levelo://app?vid=4e903476-26ee-4c32-806f-26a87ba3a549"},"vehicle_type_id":"4","last_reported":1734498595,"current_range_meters":0,"station_id":"ce4bh2h2rcd13ifvqdh0","pricing_plan_id":"cebpf4jnsgd1na2vs0mg"},{"bike_id":"db23072e-de1a-4644-811c-c402eaa8abff","system_id":"levelo_inurba_marseille","lat":43.28703,"lon":5.37417,"is_reserved":false,"is_disabled":false,"rental_uris":{"android":"levelo://app?vid=db23072e-de1a-4644-811c-c402eaa8abff","ios":"levelo://app?vid=db23072e-de1a-4644-811c-c402eaa8abff"},"vehicle_type_id":"4","last_reported":1734498595,"current_range_meters":6800,"station_id":"ce4bh3p2rcd13ifvqdq0","pricing_plan_id":"cebpf4jnsgd1na2vs0mg"},{"bike_id":"fd50eb47-2291-4f2b-a661-f6548b6fc0de","system_id":"levelo_inurba_marseille","lat":43.3014,"lon":5.37422,"is_reserved":false,"is_disabled":false,"rental_uris":{"android":"levelo://app?vid=fd50eb47-2291-4f2b-a661-f6548b6fc0de","ios":"levelo://app?vid=fd50eb47-2291-4f2b-a661-f6548b6fc0de"},"vehicle_type_id":"4","last_reported":1734498595,"current_range_meters":36400,"station_id":"ce4bgs92rcd13ifvqcc0","pricing_plan_id":"cebpf4jnsgd1na2vs0mg"},{"bike_id":"da77a835-98ee-4ac8-9efc-97b55a091839","system_id":"levelo_inurba_marseille","lat":43.30307,"lon":5.39213,"is_reserved":false,"is_disabled":false,"rental_uris":{"android":"levelo://app?vid=da77a835-98ee-4ac8-9efc-97b55a091839","ios":"levelo://app?vid=da77a835-98ee-4ac8-9efc-97b55a091839"},"vehicle_type_id":"4","last_reported":1734498595,"current_range_meters":39200,"station_id":"ce4bgkh2rcd13ifvqbk0","pricing_plan_id":"cebpf4jnsgd1na2vs0mg"},{"bike_id":"a47a812b-8479-4dbf-a984-c261870d3f1a","system_id":"levelo_inurba_marseille","lat":43.32494,"lon":5.36576,"is_reserved":false,"is_disabled":false,"rental_uris":{"android":"levelo://app?vid=a47a812b-8479-4dbf-a984-c261870d3f1a","ios":"levelo://app?vid=a47a812b-8479-4dbf-a984-c261870d3f1a"},"vehicle_type_id":"4","last_reported":1734498595,"current_range_meters":33600,"station_id":"ce4bhs12rcd13ifvqhvg","pricing_plan_id":"cebpf4jnsgd1na2vs0mg"},{"bike_id":"399886e1-1fd8-45ef-b9a3-f32444b7db24","system_id":"levelo_inurba_marseille","lat":43.27315,"lon":5.39077,"is_reserved":false,"is_disabled":true,"rental_uris":{"android":"levelo://app?vid=399886e1-1fd8-45ef-b9a3-f32444b7db24","ios":"levelo://app?vid=399886e1-1fd8-45ef-b9a3-f32444b7db24"},"vehicle_type_id":"4","last_reported":1734498595,"current_range_meters":16400,"station_id":"ce4bhgp2rcd13ifvqfe0","pricing_plan_id":"cebpf4jnsgd1na2vs0mg"},{"bike_id":"3ba72c80-ed96-44a7-a9f5-44f9ba63c717","system_id":"levelo_inurba_marseille","lat":43.287232,"lon":5.360895,"is_reserved":false,"is_disabled":false,"rental_uris":{"android":"levelo://app?vid=3ba72c80-ed96-44a7-a9f5-44f9ba63c717","ios":"levelo://app?vid=3ba72c80-ed96-44a7-a9f5-44f9ba63c717"},"vehicle_type_id":"4","last_reported":1734498595,"current_range_meters":35200,"station_id":"cki0cbj6b192h4jlfktg","pricing_plan_id":"cebpf4jnsgd1na2vs0mg"},{"bike_id":"0bfddb94-7d91-484e-a257-8ad5f8d56573","system_id":"levelo_inurba_marseille","lat":43.32334,"lon":5.40625,"is_reserved":false,"is_disabled":false,"rental_uris":{"android":"levelo://app?vid=0bfddb94-7d91-484e-a257-8ad5f8d56573","ios":"levelo://app?vid=0bfddb94-7d91-484e-a257-8ad5f8d56573"},"vehicle_type_id":"4","last_reported":1734498595,"current_range_meters":10800,"station_id":"ce4bhq92rcd13ifvqhjg","pricing_plan_id":"cebpf4jnsgd1na2vs0mg"},{"bike_id":"ececcac0-f0a8-4fff-ada8-c0c0a2670f71","system_id":"levelo_inurba_marseille","lat":43.28456,"lon":5.35879,"is_reserved":false,"is_disabled":false,"rental_uris":{"android":"levelo://app?vid=ececcac0-f0a8-4fff-ada8-c0c0a2670f71","ios":"levelo://app?vid=ececcac0-f0a8-4fff-ada8-c0c0a2670f71"},"vehicle_type_id":"4","last_reported":1734498595,"current_range_meters":20000,"station_id":"ce4bhah2rcd13ifvqei0","pricing_plan_id":"cebpf4jnsgd1na2vs0mg"},{"bike_id":"cebb2fe6-dd82-4aa3-a8d5-f3291341a320","system_id":"levelo_inurba_marseille","lat":43.246722,"lon":5.381445,"is_reserved":false,"is_disabled":false,"rental_uris":{"android":"levelo://app?vid=cebb2fe6-dd82-4aa3-a8d5-f3291341a320","ios":"levelo://app?vid=cebb2fe6-dd82-4aa3-a8d5-f3291341a320"},"vehicle_type_id":"4","last_reported":1734498595,"current_range_meters":19200,"station_id":"ce4bhih2rcd13ifvqfr0","pricing_plan_id":"cebpf4jnsgd1na2vs0mg"},{"bike_id":"782bcbf2-b7de-4b04-bebc-aaa0329dd90c","system_id":"levelo_inurba_marseille","lat":43.2319,"lon":5.35556,"is_reserved":false,"is_disabled":false,"rental_uris":{"android":"levelo://app?vid=782bcbf2-b7de-4b04-bebc-aaa0329dd90c","ios":"levelo://app?vid=782bcbf2-b7de-4b04-bebc-aaa0329dd90c"},"vehicle_type_id":"4","last_reported":1734498595,"current_range_meters":39200,"station_id":"ce4bhu92rcd13ifvqi70","pricing_plan_id":"cebpf4jnsgd1na2vs0mg"},{"bike_id":"a925316d-9d31-43b0-a430-5cb1bef87372","system_id":"levelo_inurba_marseille","lat":43.271758,"lon":5.409938,"is_reserved":false,"is_disabled":false,"rental_uris":{"android":"levelo://app?vid=a925316d-9d31-43b0-a430-5cb1bef87372","ios":"levelo://app?vid=a925316d-9d31-43b0-a430-5cb1bef87372"},"vehicle_type_id":"4","last_reported":1734498595,"current_range_meters":20800,"station_id":"ce4bhl12rcd13ifvqgf0","pricing_plan_id":"cebpf4jnsgd1na2vs0mg"},{"bike_id":"540c19ab-e8ac-4092-909b-c3e5069b6978","system_id":"levelo_inurba_marseille","lat":43.337444,"lon":5.374475,"is_reserved":false,"is_disabled":true,"rental_uris":{"android":"levelo://app?vid=540c19ab-e8ac-4092-909b-c3e5069b6978","ios":"levelo://app?vid=540c19ab-e8ac-4092-909b-c3e5069b6978"},"vehicle_type_id":"4","last_reported":1734498595,"current_range_meters":0,"station_id":"","pricing_plan_id":"cebpf4jnsgd1na2vs0mg"},{"bike_id":"fff17d87-f8d7-4f1e-a0f7-7b3ab53761a8","system_id":"levelo_inurba_marseille","lat":43.31718,"lon":5.42401,"is_reserved":false,"is_disabled":false,"rental_uris":{"android":"levelo://app?vid=fff17d87-f8d7-4f1e-a0f7-7b3ab53761a8","ios":"levelo://app?vid=fff17d87-f8d7-4f1e-a0f7-7b3ab53761a8"},"vehicle_type_id":"4","last_reported":1734498595,"current_range_meters":27600,"station_id":"ce4bhp92rcd13ifvqhbg","pricing_plan_id":"cebpf4jnsgd1na2vs0mg"},{"bike_id":"4590026f-4d8e-4294-8f2a-8d70931cbcb5","system_id":"levelo_inurba_marseille","lat":43.284843,"lon":5.384296,"is_reserved":false,"is_disabled":true,"rental_uris":{"android":"levelo://app?vid=4590026f-4d8e-4294-8f2a-8d70931cbcb5","ios":"levelo://app?vid=4590026f-4d8e-4294-8f2a-8d70931cbcb5"},"vehicle_type_id":"4","last_reported":1734498595,"current_range_meters":35200,"station_id":"ce4bh512rcd13ifvqe3g","pricing_plan_id":"cebpf4jnsgd1na2vs0mg"},{"bike_id":"0e853b40-5ab0-423f-9897-613da707d815","system_id":"levelo_inurba_marseille","lat":43.27812,"lon":5.40705,"is_reserved":false,"is_disabled":false,"rental_uris":{"android":"levelo://app?vid=0e853b40-5ab0-423f-9897-613da707d815","ios":"levelo://app?vid=0e853b40-5ab0-423f-9897-613da707d815"},"vehicle_type_id":"4","last_reported":1734498595,"current_range_meters":8000,"station_id":"ce4bhnh2rcd13ifvqgtg","pricing_plan_id":"cebpf4jnsgd1na2vs0mg"},{"bike_id":"99b91171-fdca-426c-9c5c-0f1db2efdad6","system_id":"levelo_inurba_marseille","lat":43.278161,"lon":5.407163,"is_reserved":false,"is_disabled":false,"rental_uris":{"android":"levelo://app?vid=99b91171-fdca-426c-9c5c-0f1db2efdad6","ios":"levelo://app?vid=99b91171-fdca-426c-9c5c-0f1db2efdad6"},"vehicle_type_id":"4","last_reported":1734498595,"current_range_meters":36400,"station_id":"ce4bhnh2rcd13ifvqgtg","pricing_plan_id":"cebpf4jnsgd1na2vs0mg"},{"bike_id":"c3297e8b-d991-40d1-b938-adcae062c6a1","system_id":"levelo_inurba_marseille","lat":43.25118,"lon":5.40319,"is_reserved":false,"is_disabled":false,"rental_uris":{"android":"levelo://app?vid=c3297e8b-d991-40d1-b938-adcae062c6a1","ios":"levelo://app?vid=c3297e8b-d991-40d1-b938-adcae062c6a1"},"vehicle_type_id":"4","last_reported":1734498595,"current_range_meters":30400,"station_id":"ce4bhlh2rcd13ifvqgig","pricing_plan_id":"cebpf4jnsgd1na2vs0mg"},{"bike_id":"9d734dbe-a097-413e-b708-0cec268d6fd0","system_id":"levelo_inurba_marseille","lat":43.2418,"lon":5.39723,"is_reserved":false,"is_disabled":true,"rental_uris":{"android":"levelo://app?vid=9d734dbe-a097-413e-b708-0cec268d6fd0","ios":"levelo://app?vid=9d734dbe-a097-413e-b708-0cec268d6fd0"},"vehicle_type_id":"4","last_reported":1734498595,"current_range_meters":0,"station_id":"ce4bhn12rcd13ifvqgpg","pricing_plan_id":"cebpf4jnsgd1na2vs0mg"},{"bike_id":"412a3ce8-e10d-4683-a62d-920947f0fd4c","system_id":"levelo_inurba_marseille","lat":43.26685,"lon":5.38271,"is_reserved":false,"is_disabled":false,"rental_uris":{"android":"levelo://app?vid=412a3ce8-e10d-4683-a62d-920947f0fd4c","ios":"levelo://app?vid=412a3ce8-e10d-4683-a62d-920947f0fd4c"},"vehicle_type_id":"4","last_reported":1734498595,"current_range_meters":37600,"station_id":"ce4bhg92rcd13ifvqf90","pricing_plan_id":"cebpf4jnsgd1na2vs0mg"},{"bike_id":"60b9ebc4-678c-4c5f-bd13-f61b1ccbe5bd","system_id":"levelo_inurba_marseille","lat":43.304341,"lon":5.388863,"is_reserved":false,"is_disabled":false,"rental_uris":{"android":"levelo://app?vid=60b9ebc4-678c-4c5f-bd13-f61b1ccbe5bd","ios":"levelo://app?vid=60b9ebc4-678c-4c5f-bd13-f61b1ccbe5bd"},"vehicle_type_id":"4","last_reported":1734498595,"current_range_meters":30000,"station_id":"ce4bgk12rcd13ifvqbi0","pricing_plan_id":"cebpf4jnsgd1na2vs0mg"},{"bike_id":"0442ea9d-8e35-438b-9b71-d48f7f335c7b","system_id":"levelo_inurba_marseille","lat":43.298,"lon":5.39364,"is_reserved":false,"is_disabled":false,"rental_uris":{"android":"levelo://app?vid=0442ea9d-8e35-438b-9b71-d48f7f335c7b","ios":"levelo://app?vid=0442ea9d-8e35-438b-9b71-d48f7f335c7b"},"vehicle_type_id":"4","last_reported":1734498595,"current_range_meters":38800,"station_id":"chh1huq6cuj3fo74tm60","pricing_plan_id":"cebpf4jnsgd1na2vs0mg"},{"bike_id":"78b914f3-4383-4791-ad65-886ac1c6803e","system_id":"levelo_inurba_marseille","lat":43.279413,"lon":5.410374,"is_reserved":false,"is_disabled":false,"rental_uris":{"android":"levelo://app?vid=78b914f3-4383-4791-ad65-886ac1c6803e","ios":"levelo://app?vid=78b914f3-4383-4791-ad65-886ac1c6803e"},"vehicle_type_id":"4","last_reported":1734498595,"current_range_meters":26000,"station_id":"ce4bhnp2rcd13ifvqh0g","pricing_plan_id":"cebpf4jnsgd1na2vs0mg"},{"bike_id":"e40982b3-d070-4ac9-9d92-78dbbb3e6a49","system_id":"levelo_inurba_marseille","lat":43.295681,"lon":5.39977,"is_reserved":false,"is_disabled":false,"rental_uris":{"android":"levelo://app?vid=e40982b3-d070-4ac9-9d92-78dbbb3e6a49","ios":"levelo://app?vid=e40982b3-d070-4ac9-9d92-78dbbb3e6a49"},"vehicle_type_id":"4","last_reported":1734498595,"current_range_meters":38800,"station_id":"ce4bh312rcd13ifvqdj0","pricing_plan_id":"cebpf4jnsgd1na2vs0mg"},{"bike_id":"1adaea00-ed72-49a8-91bf-6c20e9f42f29","system_id":"levelo_inurba_marseille","lat":43.2319,"lon":5.39992,"is_reserved":false,"is_disabled":false,"rental_uris":{"android":"levelo://app?vid=1adaea00-ed72-49a8-91bf-6c20e9f42f29","ios":"levelo://app?vid=1adaea00-ed72-49a8-91bf-6c20e9f42f29"},"vehicle_type_id":"4","last_reported":1734498595,"current_range_meters":25600,"station_id":"ce4bhn12rcd13ifvqgqg","pricing_plan_id":"cebpf4jnsgd1na2vs0mg"},{"bike_id":"272c380d-0e96-4217-82cd-b4ae34bffa4a","system_id":"levelo_inurba_marseille","lat":43.26934,"lon":5.38917,"is_reserved":false,"is_disabled":true,"rental_uris":{"android":"levelo://app?vid=272c380d-0e96-4217-82cd-b4ae34bffa4a","ios":"levelo://app?vid=272c380d-0e96-4217-82cd-b4ae34bffa4a"},"vehicle_type_id":"4","last_reported":1734498595,"current_range_meters":25600,"station_id":"ce4bhhh2rcd13ifvqfl0","pricing_plan_id":"cebpf4jnsgd1na2vs0mg"},{"bike_id":"7deaa912-bdd7-41f4-9079-15f4a4ee20cf","system_id":"levelo_inurba_marseille","lat":43.28101,"lon":5.37838,"is_reserved":false,"is_disabled":false,"rental_uris":{"android":"levelo://app?vid=7deaa912-bdd7-41f4-9079-15f4a4ee20cf","ios":"levelo://app?vid=7deaa912-bdd7-41f4-9079-15f4a4ee20cf"},"vehicle_type_id":"4","last_reported":1734498595,"current_range_meters":30400,"station_id":"ce4bha12rcd13ifvqee0","pricing_plan_id":"cebpf4jnsgd1na2vs0mg"},{"bike_id":"127877f6-a96a-445b-9d0f-33afd1554d52","system_id":"levelo_inurba_marseille","lat":43.31355,"lon":5.385,"is_reserved":false,"is_disabled":false,"rental_uris":{"android":"levelo://app?vid=127877f6-a96a-445b-9d0f-33afd1554d52","ios":"levelo://app?vid=127877f6-a96a-445b-9d0f-33afd1554d52"},"vehicle_type_id":"4","last_reported":1734498595,"current_range_meters":30000,"station_id":"ce4bgt92rcd13ifvqcf0","pricing_plan_id":"cebpf4jnsgd1na2vs0mg"},{"bike_id":"7ace55d0-55f9-4d78-8878-fcfdef05d861","system_id":"levelo_inurba_marseille","lat":43.30714,"lon":5.37641,"is_reserved":false,"is_disabled":false,"rental_uris":{"android":"levelo://app?vid=7ace55d0-55f9-4d78-8878-fcfdef05d861","ios":"levelo://app?vid=7ace55d0-55f9-4d78-8878-fcfdef05d861"},"vehicle_type_id":"4","last_reported":1734498595,"current_range_meters":32000,"station_id":"","pricing_plan_id":"cebpf4jnsgd1na2vs0mg"},{"bike_id":"1f088edd-e254-4389-aab0-8bb3edc2dc9e","system_id":"levelo_inurba_marseille","lat":43.32489,"lon":5.36578,"is_reserved":false,"is_disabled":false,"rental_uris":{"android":"levelo://app?vid=1f088edd-e254-4389-aab0-8bb3edc2dc9e","ios":"levelo://app?vid=1f088edd-e254-4389-aab0-8bb3edc2dc9e"},"vehicle_type_id":"4","last_reported":1734498595,"current_range_meters":38800,"station_id":"ce4bhs12rcd13ifvqhvg","pricing_plan_id":"cebpf4jnsgd1na2vs0mg"},{"bike_id":"00267bf4-cbb0-42ab-952a-10399cc5a2b7","system_id":"levelo_inurba_marseille","lat":43.313597,"lon":5.384974,"is_reserved":false,"is_disabled":false,"rental_uris":{"android":"levelo://app?vid=00267bf4-cbb0-42ab-952a-10399cc5a2b7","ios":"levelo://app?vid=00267bf4-cbb0-42ab-952a-10399cc5a2b7"},"vehicle_type_id":"4","last_reported":1734498595,"current_range_meters":16800,"station_id":"ce4bgt92rcd13ifvqcf0","pricing_plan_id":"cebpf4jnsgd1na2vs0mg"},{"bike_id":"fbda7b10-078d-4c58-b700-d8ffd9b7aad2","system_id":"levelo_inurba_marseille","lat":43.29787,"lon":5.3811,"is_reserved":false,"is_disabled":true,"rental_uris":{"android":"levelo://app?vid=fbda7b10-078d-4c58-b700-d8ffd9b7aad2","ios":"levelo://app?vid=fbda7b10-078d-4c58-b700-d8ffd9b7aad2"},"vehicle_type_id":"4","last_reported":1734498595,"current_range_meters":25200,"station_id":"ce4bgip2rcd13ifvqbb0","pricing_plan_id":"cebpf4jnsgd1na2vs0mg"},{"bike_id":"077b0e66-296b-4fc0-ac1e-f4f937bb0b57","system_id":"levelo_inurba_marseille","lat":43.27923,"lon":5.38005,"is_reserved":false,"is_disabled":false,"rental_uris":{"android":"levelo://app?vid=077b0e66-296b-4fc0-ac1e-f4f937bb0b57","ios":"levelo://app?vid=077b0e66-296b-4fc0-ac1e-f4f937bb0b57"},"vehicle_type_id":"4","last_reported":1734498595,"current_range_meters":38800,"station_id":"ce4bhf92rcd13ifvqf50","pricing_plan_id":"cebpf4jnsgd1na2vs0mg"},{"bike_id":"45c4f264-9b22-49bc-8e40-30189ba333d4","system_id":"levelo_inurba_marseille","lat":43.28943,"lon":5.36617,"is_reserved":false,"is_disabled":false,"rental_uris":{"android":"levelo://app?vid=45c4f264-9b22-49bc-8e40-30189ba333d4","ios":"levelo://app?vid=45c4f264-9b22-49bc-8e40-30189ba333d4"},"vehicle_type_id":"4","last_reported":1734498595,"current_range_meters":32400,"station_id":"ce4bhap2rcd13ifvqek0","pricing_plan_id":"cebpf4jnsgd1na2vs0mg"},{"bike_id":"e63ec124-f160-46c4-aad4-b0f59e1a5cf9","system_id":"levelo_inurba_marseille","lat":43.279863,"lon":5.416548,"is_reserved":false,"is_disabled":true,"rental_uris":{"android":"levelo://app?vid=e63ec124-f160-46c4-aad4-b0f59e1a5cf9","ios":"levelo://app?vid=e63ec124-f160-46c4-aad4-b0f59e1a5cf9"},"vehicle_type_id":"4","last_reported":1734498595,"current_range_meters":22800,"station_id":"ce4bho12rcd13ifvqh1g","pricing_plan_id":"cebpf4jnsgd1na2vs0mg"},{"bike_id":"0427bfa4-7c9f-485e-9901-c36b0591c06e","system_id":"levelo_inurba_marseille","lat":43.26237,"lon":5.37455,"is_reserved":false,"is_disabled":false,"rental_uris":{"android":"levelo://app?vid=0427bfa4-7c9f-485e-9901-c36b0591c06e","ios":"levelo://app?vid=0427bfa4-7c9f-485e-9901-c36b0591c06e"},"vehicle_type_id":"4","last_reported":1734498595,"current_range_meters":18800,"station_id":"","pricing_plan_id":"cebpf4jnsgd1na2vs0mg"},{"bike_id":"9a94b5d1-f857-4c58-86b0-b2ccb3a75cce","system_id":"levelo_inurba_marseille","lat":43.251178,"lon":5.403224,"is_reserved":false,"is_disabled":false,"rental_uris":{"android":"levelo://app?vid=9a94b5d1-f857-4c58-86b0-b2ccb3a75cce","ios":"levelo://app?vid=9a94b5d1-f857-4c58-86b0-b2ccb3a75cce"},"vehicle_type_id":"4","last_reported":1734498595,"current_range_meters":38400,"station_id":"ce4bhlh2rcd13ifvqgig","pricing_plan_id":"cebpf4jnsgd1na2vs0mg"},{"bike_id":"67ccc93e-08bd-438d-a7fe-b06fd0ee140e","system_id":"levelo_inurba_marseille","lat":43.24071,"lon":5.37762,"is_reserved":false,"is_disabled":false,"rental_uris":{"android":"levelo://app?vid=67ccc93e-08bd-438d-a7fe-b06fd0ee140e","ios":"levelo://app?vid=67ccc93e-08bd-438d-a7fe-b06fd0ee140e"},"vehicle_type_id":"4","last_reported":1734498595,"current_range_meters":38400,"station_id":"ce4bhnp2rcd13ifvqgvg","pricing_plan_id":"cebpf4jnsgd1na2vs0mg"},{"bike_id":"53ad6d5d-6ba3-4a22-90a6-215c86966611","system_id":"levelo_inurba_marseille","lat":43.30419,"lon":5.41278,"is_reserved":false,"is_disabled":false,"rental_uris":{"android":"levelo://app?vid=53ad6d5d-6ba3-4a22-90a6-215c86966611","ios":"levelo://app?vid=53ad6d5d-6ba3-4a22-90a6-215c86966611"},"vehicle_type_id":"4","last_reported":1734498595,"current_range_meters":24000,"station_id":"ce4bhop2rcd13ifvqh8g","pricing_plan_id":"cebpf4jnsgd1na2vs0mg"},{"bike_id":"efb96ad3-4e63-4408-8c01-0772d5a4e18b","system_id":"levelo_inurba_marseille","lat":43.31325,"lon":5.39699,"is_reserved":false,"is_disabled":false,"rental_uris":{"android":"levelo://app?vid=efb96ad3-4e63-4408-8c01-0772d5a4e18b","ios":"levelo://app?vid=efb96ad3-4e63-4408-8c01-0772d5a4e18b"},"vehicle_type_id":"4","last_reported":1734498595,"current_range_meters":38800,"station_id":"ce4bgvp2rcd13ifvqcu0","pricing_plan_id":"cebpf4jnsgd1na2vs0mg"},{"bike_id":"2c35d799-8445-41f0-9531-f1ab81d4f0aa","system_id":"levelo_inurba_marseille","lat":43.28399,"lon":5.37527,"is_reserved":false,"is_disabled":false,"rental_uris":{"android":"levelo://app?vid=2c35d799-8445-41f0-9531-f1ab81d4f0aa","ios":"levelo://app?vid=2c35d799-8445-41f0-9531-f1ab81d4f0aa"},"vehicle_type_id":"4","last_reported":1734498595,"current_range_meters":28800,"station_id":"ce4bh412rcd13ifvqds0","pricing_plan_id":"cebpf4jnsgd1na2vs0mg"},{"bike_id":"662c11ca-c329-4a36-8658-c897c59db0fb","system_id":"levelo_inurba_marseille","lat":43.30477,"lon":5.3789,"is_reserved":false,"is_disabled":false,"rental_uris":{"android":"levelo://app?vid=662c11ca-c329-4a36-8658-c897c59db0fb","ios":"levelo://app?vid=662c11ca-c329-4a36-8658-c897c59db0fb"},"vehicle_type_id":"4","last_reported":1734498595,"current_range_meters":14000,"station_id":"ce4bgup2rcd13ifvqcn0","pricing_plan_id":"cebpf4jnsgd1na2vs0mg"},{"bike_id":"01a870cf-dd25-47e3-81a3-76239976dd64","system_id":"levelo_inurba_marseille","lat":43.27499,"lon":5.42447,"is_reserved":false,"is_disabled":false,"rental_uris":{"android":"levelo://app?vid=01a870cf-dd25-47e3-81a3-76239976dd64","ios":"levelo://app?vid=01a870cf-dd25-47e3-81a3-76239976dd64"},"vehicle_type_id":"4","last_reported":1734498595,"current_range_meters":39200,"station_id":"ce4bhn92rcd13ifvqgrg","pricing_plan_id":"cebpf4jnsgd1na2vs0mg"},{"bike_id":"7b477c51-8ca3-4b89-b2d7-9645b214133b","system_id":"levelo_inurba_marseille","lat":43.29051,"lon":5.35912,"is_reserved":false,"is_disabled":false,"rental_uris":{"android":"levelo://app?vid=7b477c51-8ca3-4b89-b2d7-9645b214133b","ios":"levelo://app?vid=7b477c51-8ca3-4b89-b2d7-9645b214133b"},"vehicle_type_id":"4","last_reported":1734498595,"current_range_meters":38800,"station_id":"ce4bha92rcd13ifvqeg0","pricing_plan_id":"cebpf4jnsgd1na2vs0mg"},{"bike_id":"dfc9386d-470e-435b-b8f6-2ec11b401715","system_id":"levelo_inurba_marseille","lat":43.27194,"lon":5.40989,"is_reserved":false,"is_disabled":false,"rental_uris":{"android":"levelo://app?vid=dfc9386d-470e-435b-b8f6-2ec11b401715","ios":"levelo://app?vid=dfc9386d-470e-435b-b8f6-2ec11b401715"},"vehicle_type_id":"4","last_reported":1734498595,"current_range_meters":17600,"station_id":"ce4bhl12rcd13ifvqgf0","pricing_plan_id":"cebpf4jnsgd1na2vs0mg"},{"bike_id":"68907ca0-038a-4705-886b-af6c122ac485","system_id":"levelo_inurba_marseille","lat":43.231859,"lon":5.399833,"is_reserved":false,"is_disabled":false,"rental_uris":{"android":"levelo://app?vid=68907ca0-038a-4705-886b-af6c122ac485","ios":"levelo://app?vid=68907ca0-038a-4705-886b-af6c122ac485"},"vehicle_type_id":"4","last_reported":1734498595,"current_range_meters":39200,"station_id":"ce4bhn12rcd13ifvqgqg","pricing_plan_id":"cebpf4jnsgd1na2vs0mg"},{"bike_id":"1475a4a6-96f8-44a7-9e02-a8b92033ae83","system_id":"levelo_inurba_marseille","lat":43.29048,"lon":5.35908,"is_reserved":false,"is_disabled":false,"rental_uris":{"android":"levelo://app?vid=1475a4a6-96f8-44a7-9e02-a8b92033ae83","ios":"levelo://app?vid=1475a4a6-96f8-44a7-9e02-a8b92033ae83"},"vehicle_type_id":"4","last_reported":1734498595,"current_range_meters":17600,"station_id":"ce4bha92rcd13ifvqeg0","pricing_plan_id":"cebpf4jnsgd1na2vs0mg"},{"bike_id":"7ec48f75-2775-4297-aeb5-423e6c184b6b","system_id":"levelo_inurba_marseille","lat":43.27574,"lon":5.38458,"is_reserved":false,"is_disabled":false,"rental_uris":{"android":"levelo://app?vid=7ec48f75-2775-4297-aeb5-423e6c184b6b","ios":"levelo://app?vid=7ec48f75-2775-4297-aeb5-423e6c184b6b"},"vehicle_type_id":"4","last_reported":1734498595,"current_range_meters":39200,"station_id":"ce4bhh92rcd13ifvqfi0","pricing_plan_id":"cebpf4jnsgd1na2vs0mg"},{"bike_id":"a852f14c-1573-40fe-bdb0-30bcf5f773fb","system_id":"levelo_inurba_marseille","lat":43.28601,"lon":5.35094,"is_reserved":false,"is_disabled":true,"rental_uris":{"android":"levelo://app?vid=a852f14c-1573-40fe-bdb0-30bcf5f773fb","ios":"levelo://app?vid=a852f14c-1573-40fe-bdb0-30bcf5f773fb"},"vehicle_type_id":"4","last_reported":1734498595,"current_range_meters":17600,"station_id":"ce4bhch2rcd13ifvqeug","pricing_plan_id":"cebpf4jnsgd1na2vs0mg"},{"bike_id":"422c3df5-6477-471e-8f73-852ce5900d97","system_id":"levelo_inurba_marseille","lat":43.286578,"lon":5.363471,"is_reserved":false,"is_disabled":false,"rental_uris":{"android":"levelo://app?vid=422c3df5-6477-471e-8f73-852ce5900d97","ios":"levelo://app?vid=422c3df5-6477-471e-8f73-852ce5900d97"},"vehicle_type_id":"4","last_reported":1734498595,"current_range_meters":8400,"station_id":"ce4bhah2rcd13ifvqej0","pricing_plan_id":"cebpf4jnsgd1na2vs0mg"},{"bike_id":"61d6f95e-9317-4fb0-a3ec-55b27609f3ee","system_id":"levelo_inurba_marseille","lat":43.32057,"lon":5.41608,"is_reserved":false,"is_disabled":false,"rental_uris":{"android":"levelo://app?vid=61d6f95e-9317-4fb0-a3ec-55b27609f3ee","ios":"levelo://app?vid=61d6f95e-9317-4fb0-a3ec-55b27609f3ee"},"vehicle_type_id":"4","last_reported":1734498595,"current_range_meters":38800,"station_id":"ce4bhq92rcd13ifvqhkg","pricing_plan_id":"cebpf4jnsgd1na2vs0mg"},{"bike_id":"39b7e59f-b5a3-4722-91bb-8b43e65eec83","system_id":"levelo_inurba_marseille","lat":43.28932,"lon":5.36629,"is_reserved":false,"is_disabled":false,"rental_uris":{"android":"levelo://app?vid=39b7e59f-b5a3-4722-91bb-8b43e65eec83","ios":"levelo://app?vid=39b7e59f-b5a3-4722-91bb-8b43e65eec83"},"vehicle_type_id":"4","last_reported":1734498595,"current_range_meters":27600,"station_id":"ce4bhap2rcd13ifvqek0","pricing_plan_id":"cebpf4jnsgd1na2vs0mg"},{"bike_id":"bb337245-7c41-4671-900b-a4d92ae562c6","system_id":"levelo_inurba_marseille","lat":43.29504,"lon":5.39041,"is_reserved":false,"is_disabled":true,"rental_uris":{"android":"levelo://app?vid=bb337245-7c41-4671-900b-a4d92ae562c6","ios":"levelo://app?vid=bb337245-7c41-4671-900b-a4d92ae562c6"},"vehicle_type_id":"4","last_reported":1734498595,"current_range_meters":2000,"station_id":"ce4bh3p2rcd13ifvqdp0","pricing_plan_id":"cebpf4jnsgd1na2vs0mg"},{"bike_id":"8c6976c8-fe53-4131-bd2d-db9071c5c80c","system_id":"levelo_inurba_marseille","lat":43.311175,"lon":5.377636,"is_reserved":false,"is_disabled":false,"rental_uris":{"android":"levelo://app?vid=8c6976c8-fe53-4131-bd2d-db9071c5c80c","ios":"levelo://app?vid=8c6976c8-fe53-4131-bd2d-db9071c5c80c"},"vehicle_type_id":"4","last_reported":1734498595,"current_range_meters":32000,"station_id":"ce4bgt92rcd13ifvqcg0","pricing_plan_id":"cebpf4jnsgd1na2vs0mg"},{"bike_id":"b946a102-0e5a-47b6-b3e2-a58e92eb0951","system_id":"levelo_inurba_marseille","lat":43.26554,"lon":5.37321,"is_reserved":false,"is_disabled":false,"rental_uris":{"android":"levelo://app?vid=b946a102-0e5a-47b6-b3e2-a58e92eb0951","ios":"levelo://app?vid=b946a102-0e5a-47b6-b3e2-a58e92eb0951"},"vehicle_type_id":"4","last_reported":1734498595,"current_range_meters":8000,"station_id":"ce4bhg12rcd13ifvqf70","pricing_plan_id":"cebpf4jnsgd1na2vs0mg"},{"bike_id":"7399fd58-5dfd-44fa-92b1-0692ace70e73","system_id":"levelo_inurba_marseille","lat":43.30093,"lon":5.37123,"is_reserved":false,"is_disabled":false,"rental_uris":{"android":"levelo://app?vid=7399fd58-5dfd-44fa-92b1-0692ace70e73","ios":"levelo://app?vid=7399fd58-5dfd-44fa-92b1-0692ace70e73"},"vehicle_type_id":"4","last_reported":1734498595,"current_range_meters":22800,"station_id":"","pricing_plan_id":"cebpf4jnsgd1na2vs0mg"},{"bike_id":"16e18afe-39a1-4460-978b-e6388d2a2bbb","system_id":"levelo_inurba_marseille","lat":43.284687,"lon":5.358899,"is_reserved":false,"is_disabled":false,"rental_uris":{"android":"levelo://app?vid=16e18afe-39a1-4460-978b-e6388d2a2bbb","ios":"levelo://app?vid=16e18afe-39a1-4460-978b-e6388d2a2bbb"},"vehicle_type_id":"4","last_reported":1734498595,"current_range_meters":6800,"station_id":"ce4bhah2rcd13ifvqei0","pricing_plan_id":"cebpf4jnsgd1na2vs0mg"},{"bike_id":"bd510f8f-7158-4b24-9942-aaa0ea9fd2e6","system_id":"levelo_inurba_marseille","lat":43.28155,"lon":5.42645,"is_reserved":false,"is_disabled":false,"rental_uris":{"android":"levelo://app?vid=bd510f8f-7158-4b24-9942-aaa0ea9fd2e6","ios":"levelo://app?vid=bd510f8f-7158-4b24-9942-aaa0ea9fd2e6"},"vehicle_type_id":"4","last_reported":1734498595,"current_range_meters":8400,"station_id":"ce4bhnh2rcd13ifvqgug","pricing_plan_id":"cebpf4jnsgd1na2vs0mg"},{"bike_id":"ce095bd5-f724-466f-abcb-44bd2c87b202","system_id":"levelo_inurba_marseille","lat":43.29961,"lon":5.37205,"is_reserved":false,"is_disabled":false,"rental_uris":{"android":"levelo://app?vid=ce095bd5-f724-466f-abcb-44bd2c87b202","ios":"levelo://app?vid=ce095bd5-f724-466f-abcb-44bd2c87b202"},"vehicle_type_id":"4","last_reported":1734498595,"current_range_meters":38400,"station_id":"ce4bgr92rcd13ifvqc7g","pricing_plan_id":"cebpf4jnsgd1na2vs0mg"},{"bike_id":"44ff8e7d-1339-43c2-b508-1f594ee49259","system_id":"levelo_inurba_marseille","lat":43.27924,"lon":5.39568,"is_reserved":false,"is_disabled":false,"rental_uris":{"android":"levelo://app?vid=44ff8e7d-1339-43c2-b508-1f594ee49259","ios":"levelo://app?vid=44ff8e7d-1339-43c2-b508-1f594ee49259"},"vehicle_type_id":"4","last_reported":1734498595,"current_range_meters":36400,"station_id":"ce4bhf92rcd13ifvqf40","pricing_plan_id":"cebpf4jnsgd1na2vs0mg"},{"bike_id":"8ceeee5e-f34c-4883-8bf6-079e8a090dff","system_id":"levelo_inurba_marseille","lat":43.29987,"lon":5.38489,"is_reserved":false,"is_disabled":true,"rental_uris":{"android":"levelo://app?vid=8ceeee5e-f34c-4883-8bf6-079e8a090dff","ios":"levelo://app?vid=8ceeee5e-f34c-4883-8bf6-079e8a090dff"},"vehicle_type_id":"4","last_reported":1734498595,"current_range_meters":0,"station_id":"ce4bgj92rcd13ifvqbd0","pricing_plan_id":"cebpf4jnsgd1na2vs0mg"},{"bike_id":"ce03ec55-35d3-44f5-8921-8d0d2d31846f","system_id":"levelo_inurba_marseille","lat":43.27818,"lon":5.40694,"is_reserved":false,"is_disabled":false,"rental_uris":{"android":"levelo://app?vid=ce03ec55-35d3-44f5-8921-8d0d2d31846f","ios":"levelo://app?vid=ce03ec55-35d3-44f5-8921-8d0d2d31846f"},"vehicle_type_id":"4","last_reported":1734498595,"current_range_meters":33600,"station_id":"ce4bhnh2rcd13ifvqgtg","pricing_plan_id":"cebpf4jnsgd1na2vs0mg"},{"bike_id":"1cc30cb6-f18d-4862-b991-88715930d8c9","system_id":"levelo_inurba_marseille","lat":43.24075,"lon":5.37756,"is_reserved":false,"is_disabled":false,"rental_uris":{"android":"levelo://app?vid=1cc30cb6-f18d-4862-b991-88715930d8c9","ios":"levelo://app?vid=1cc30cb6-f18d-4862-b991-88715930d8c9"},"vehicle_type_id":"4","last_reported":1734498595,"current_range_meters":15200,"station_id":"ce4bhnp2rcd13ifvqgvg","pricing_plan_id":"cebpf4jnsgd1na2vs0mg"},{"bike_id":"eb7cd7b9-01c5-4120-bb55-5221a32a505c","system_id":"levelo_inurba_marseille","lat":43.29284,"lon":5.40157,"is_reserved":false,"is_disabled":true,"rental_uris":{"android":"levelo://app?vid=eb7cd7b9-01c5-4120-bb55-5221a32a505c","ios":"levelo://app?vid=eb7cd7b9-01c5-4120-bb55-5221a32a505c"},"vehicle_type_id":"4","last_reported":1734498595,"current_range_meters":32000,"station_id":"ce4bh312rcd13ifvqdk0","pricing_plan_id":"cebpf4jnsgd1na2vs0mg"},{"bike_id":"eba901e5-0847-4fc0-b2b6-9eb1834c3e7a","system_id":"levelo_inurba_marseille","lat":43.295475,"lon":5.422795,"is_reserved":false,"is_disabled":true,"rental_uris":{"android":"levelo://app?vid=eba901e5-0847-4fc0-b2b6-9eb1834c3e7a","ios":"levelo://app?vid=eba901e5-0847-4fc0-b2b6-9eb1834c3e7a"},"vehicle_type_id":"4","last_reported":1734498595,"current_range_meters":0,"station_id":"ce4bhph2rcd13ifvqhdg","pricing_plan_id":"cebpf4jnsgd1na2vs0mg"},{"bike_id":"345d80f6-1525-4241-80c9-c6920b13eab2","system_id":"levelo_inurba_marseille","lat":43.29531,"lon":5.38552,"is_reserved":false,"is_disabled":true,"rental_uris":{"android":"levelo://app?vid=345d80f6-1525-4241-80c9-c6920b13eab2","ios":"levelo://app?vid=345d80f6-1525-4241-80c9-c6920b13eab2"},"vehicle_type_id":"4","last_reported":1734498595,"current_range_meters":16000,"station_id":"ce4bgih2rcd13ifvqba0","pricing_plan_id":"cebpf4jnsgd1na2vs0mg"},{"bike_id":"4a6cf567-0476-47a4-9b25-bea5f116b73d","system_id":"levelo_inurba_marseille","lat":43.28453,"lon":5.35879,"is_reserved":false,"is_disabled":false,"rental_uris":{"android":"levelo://app?vid=4a6cf567-0476-47a4-9b25-bea5f116b73d","ios":"levelo://app?vid=4a6cf567-0476-47a4-9b25-bea5f116b73d"},"vehicle_type_id":"4","last_reported":1734498595,"current_range_meters":30800,"station_id":"ce4bhah2rcd13ifvqei0","pricing_plan_id":"cebpf4jnsgd1na2vs0mg"},{"bike_id":"07cbdb6f-6b5a-42a8-8834-7a4a5909ca3f","system_id":"levelo_inurba_marseille","lat":43.3169,"lon":5.40464,"is_reserved":false,"is_disabled":false,"rental_uris":{"android":"levelo://app?vid=07cbdb6f-6b5a-42a8-8834-7a4a5909ca3f","ios":"levelo://app?vid=07cbdb6f-6b5a-42a8-8834-7a4a5909ca3f"},"vehicle_type_id":"4","last_reported":1734498595,"current_range_meters":38400,"station_id":"ce4bh012rcd13ifvqd00","pricing_plan_id":"cebpf4jnsgd1na2vs0mg"},{"bike_id":"2b323a28-813d-4ddb-82e8-081c93f14026","system_id":"levelo_inurba_marseille","lat":43.27684,"lon":5.38895,"is_reserved":false,"is_disabled":false,"rental_uris":{"android":"levelo://app?vid=2b323a28-813d-4ddb-82e8-081c93f14026","ios":"levelo://app?vid=2b323a28-813d-4ddb-82e8-081c93f14026"},"vehicle_type_id":"4","last_reported":1734498595,"current_range_meters":38000,"station_id":"ce4bhi12rcd13ifvqfo0","pricing_plan_id":"cebpf4jnsgd1na2vs0mg"},{"bike_id":"5602b998-8538-45ef-9b3e-c46248c5e330","system_id":"levelo_inurba_marseille","lat":43.24669,"lon":5.3816,"is_reserved":false,"is_disabled":false,"rental_uris":{"android":"levelo://app?vid=5602b998-8538-45ef-9b3e-c46248c5e330","ios":"levelo://app?vid=5602b998-8538-45ef-9b3e-c46248c5e330"},"vehicle_type_id":"4","last_reported":1734498595,"current_range_meters":38800,"station_id":"ce4bhih2rcd13ifvqfr0","pricing_plan_id":"cebpf4jnsgd1na2vs0mg"},{"bike_id":"27d9e2c3-f922-4658-a131-5f6394c8c252","system_id":"levelo_inurba_marseille","lat":43.29056,"lon":5.35924,"is_reserved":false,"is_disabled":false,"rental_uris":{"android":"levelo://app?vid=27d9e2c3-f922-4658-a131-5f6394c8c252","ios":"levelo://app?vid=27d9e2c3-f922-4658-a131-5f6394c8c252"},"vehicle_type_id":"4","last_reported":1734498595,"current_range_meters":38800,"station_id":"ce4bha92rcd13ifvqeg0","pricing_plan_id":"cebpf4jnsgd1na2vs0mg"},{"bike_id":"ed3a8591-316e-49ab-a80e-c8c5d9c39c56","system_id":"levelo_inurba_marseille","lat":43.30089,"lon":5.39088,"is_reserved":false,"is_disabled":true,"rental_uris":{"android":"levelo://app?vid=ed3a8591-316e-49ab-a80e-c8c5d9c39c56","ios":"levelo://app?vid=ed3a8591-316e-49ab-a80e-c8c5d9c39c56"},"vehicle_type_id":"4","last_reported":1734498595,"current_range_meters":32000,"station_id":"ce4bh192rcd13ifvqdb0","pricing_plan_id":"cebpf4jnsgd1na2vs0mg"},{"bike_id":"5a37a828-cff2-4e6d-a76c-d01bbc621389","system_id":"levelo_inurba_marseille","lat":43.23197,"lon":5.35562,"is_reserved":false,"is_disabled":false,"rental_uris":{"android":"levelo://app?vid=5a37a828-cff2-4e6d-a76c-d01bbc621389","ios":"levelo://app?vid=5a37a828-cff2-4e6d-a76c-d01bbc621389"},"vehicle_type_id":"4","last_reported":1734498595,"current_range_meters":24400,"station_id":"ce4bhu92rcd13ifvqi70","pricing_plan_id":"cebpf4jnsgd1na2vs0mg"},{"bike_id":"db7c148d-905a-4259-a38c-73d31df20142","system_id":"levelo_inurba_marseille","lat":43.28454,"lon":5.35879,"is_reserved":false,"is_disabled":false,"rental_uris":{"android":"levelo://app?vid=db7c148d-905a-4259-a38c-73d31df20142","ios":"levelo://app?vid=db7c148d-905a-4259-a38c-73d31df20142"},"vehicle_type_id":"4","last_reported":1734498595,"current_range_meters":6400,"station_id":"ce4bhah2rcd13ifvqei0","pricing_plan_id":"cebpf4jnsgd1na2vs0mg"},{"bike_id":"7f1fdc7d-fd5a-41f5-95df-d4b73f14110f","system_id":"levelo_inurba_marseille","lat":43.31886,"lon":5.40731,"is_reserved":false,"is_disabled":false,"rental_uris":{"android":"levelo://app?vid=7f1fdc7d-fd5a-41f5-95df-d4b73f14110f","ios":"levelo://app?vid=7f1fdc7d-fd5a-41f5-95df-d4b73f14110f"},"vehicle_type_id":"4","last_reported":1734498595,"current_range_meters":38800,"station_id":"ce4bhq12rcd13ifvqhig","pricing_plan_id":"cebpf4jnsgd1na2vs0mg"},{"bike_id":"00597966-5dda-4e01-bd96-d00d6efc4e01","system_id":"levelo_inurba_marseille","lat":43.292565,"lon":5.384392,"is_reserved":false,"is_disabled":true,"rental_uris":{"android":"levelo://app?vid=00597966-5dda-4e01-bd96-d00d6efc4e01","ios":"levelo://app?vid=00597966-5dda-4e01-bd96-d00d6efc4e01"},"vehicle_type_id":"4","last_reported":1734498595,"current_range_meters":11200,"station_id":"ce4bh692rcd13ifvqea0","pricing_plan_id":"cebpf4jnsgd1na2vs0mg"},{"bike_id":"d02419d3-ab9e-4a05-8bf6-59f7eb4ac434","system_id":"levelo_inurba_marseille","lat":43.31276,"lon":5.401609,"is_reserved":false,"is_disabled":false,"rental_uris":{"android":"levelo://app?vid=d02419d3-ab9e-4a05-8bf6-59f7eb4ac434","ios":"levelo://app?vid=d02419d3-ab9e-4a05-8bf6-59f7eb4ac434"},"vehicle_type_id":"4","last_reported":1734498595,"current_range_meters":25600,"station_id":"ce4bh092rcd13ifvqd30","pricing_plan_id":"cebpf4jnsgd1na2vs0mg"},{"bike_id":"a329f60e-f0e0-4ffc-b38d-aa56140d751d","system_id":"levelo_inurba_marseille","lat":43.30208,"lon":5.394762,"is_reserved":false,"is_disabled":false,"rental_uris":{"android":"levelo://app?vid=a329f60e-f0e0-4ffc-b38d-aa56140d751d","ios":"levelo://app?vid=a329f60e-f0e0-4ffc-b38d-aa56140d751d"},"vehicle_type_id":"4","last_reported":1734498595,"current_range_meters":14400,"station_id":"ce4bh0p2rcd13ifvqd70","pricing_plan_id":"cebpf4jnsgd1na2vs0mg"},{"bike_id":"1de05ea6-7ffc-4755-9d5c-2404e5a173c7","system_id":"levelo_inurba_marseille","lat":43.23068,"lon":5.3549,"is_reserved":false,"is_disabled":false,"rental_uris":{"android":"levelo://app?vid=1de05ea6-7ffc-4755-9d5c-2404e5a173c7","ios":"levelo://app?vid=1de05ea6-7ffc-4755-9d5c-2404e5a173c7"},"vehicle_type_id":"4","last_reported":1734498595,"current_range_meters":38800,"station_id":"cpo3342slgdg3j2ifvpg","pricing_plan_id":"cebpf4jnsgd1na2vs0mg"},{"bike_id":"70a23328-6629-4f07-b203-ef843751eafc","system_id":"levelo_inurba_marseille","lat":43.27203,"lon":5.40977,"is_reserved":false,"is_disabled":false,"rental_uris":{"android":"levelo://app?vid=70a23328-6629-4f07-b203-ef843751eafc","ios":"levelo://app?vid=70a23328-6629-4f07-b203-ef843751eafc"},"vehicle_type_id":"4","last_reported":1734498595,"current_range_meters":26000,"station_id":"ce4bhl12rcd13ifvqgf0","pricing_plan_id":"cebpf4jnsgd1na2vs0mg"},{"bike_id":"322670ee-a19e-4c86-aef7-22828c4550fb","system_id":"levelo_inurba_marseille","lat":43.31068,"lon":5.38353,"is_reserved":false,"is_disabled":false,"rental_uris":{"android":"levelo://app?vid=322670ee-a19e-4c86-aef7-22828c4550fb","ios":"levelo://app?vid=322670ee-a19e-4c86-aef7-22828c4550fb"},"vehicle_type_id":"4","last_reported":1734498595,"current_range_meters":20400,"station_id":"ce4bgv92rcd13ifvqcr0","pricing_plan_id":"cebpf4jnsgd1na2vs0mg"},{"bike_id":"3d428edb-9e94-42e5-94fc-1180dcecbd47","system_id":"levelo_inurba_marseille","lat":43.28733,"lon":5.36079,"is_reserved":false,"is_disabled":false,"rental_uris":{"android":"levelo://app?vid=3d428edb-9e94-42e5-94fc-1180dcecbd47","ios":"levelo://app?vid=3d428edb-9e94-42e5-94fc-1180dcecbd47"},"vehicle_type_id":"4","last_reported":1734498595,"current_range_meters":27600,"station_id":"cki0cbj6b192h4jlfktg","pricing_plan_id":"cebpf4jnsgd1na2vs0mg"},{"bike_id":"2d9f4e58-aed4-42e5-b03f-7c067dbd464d","system_id":"levelo_inurba_marseille","lat":43.27065,"lon":5.42275,"is_reserved":false,"is_disabled":false,"rental_uris":{"android":"levelo://app?vid=2d9f4e58-aed4-42e5-b03f-7c067dbd464d","ios":"levelo://app?vid=2d9f4e58-aed4-42e5-b03f-7c067dbd464d"},"vehicle_type_id":"4","last_reported":1734498595,"current_range_meters":38000,"station_id":"ce4bhk92rcd13ifvqgb0","pricing_plan_id":"cebpf4jnsgd1na2vs0mg"},{"bike_id":"0eec46b1-4828-4b44-b0c0-454df459a71a","system_id":"levelo_inurba_marseille","lat":43.25936,"lon":5.408986,"is_reserved":false,"is_disabled":false,"rental_uris":{"android":"levelo://app?vid=0eec46b1-4828-4b44-b0c0-454df459a71a","ios":"levelo://app?vid=0eec46b1-4828-4b44-b0c0-454df459a71a"},"vehicle_type_id":"4","last_reported":1734498595,"current_range_meters":38000,"station_id":"ce4bhm92rcd13ifvqglg","pricing_plan_id":"cebpf4jnsgd1na2vs0mg"},{"bike_id":"24216fde-815f-466d-ae48-7f1bdc5c763a","system_id":"levelo_inurba_marseille","lat":43.275603,"lon":5.384193,"is_reserved":false,"is_disabled":false,"rental_uris":{"android":"levelo://app?vid=24216fde-815f-466d-ae48-7f1bdc5c763a","ios":"levelo://app?vid=24216fde-815f-466d-ae48-7f1bdc5c763a"},"vehicle_type_id":"4","last_reported":1734498595,"current_range_meters":16400,"station_id":"ce4bhh92rcd13ifvqfi0","pricing_plan_id":"cebpf4jnsgd1na2vs0mg"},{"bike_id":"ef2f5e1d-6e01-45b2-93d6-22d7804baf5f","system_id":"levelo_inurba_marseille","lat":43.2501,"lon":5.38938,"is_reserved":false,"is_disabled":false,"rental_uris":{"android":"levelo://app?vid=ef2f5e1d-6e01-45b2-93d6-22d7804baf5f","ios":"levelo://app?vid=ef2f5e1d-6e01-45b2-93d6-22d7804baf5f"},"vehicle_type_id":"4","last_reported":1734498595,"current_range_meters":38400,"station_id":"ce4bhgp2rcd13ifvqfd0","pricing_plan_id":"cebpf4jnsgd1na2vs0mg"},{"bike_id":"4e24cd74-c1ed-48e3-ae04-94fae1db75bb","system_id":"levelo_inurba_marseille","lat":43.27082,"lon":5.42265,"is_reserved":false,"is_disabled":false,"rental_uris":{"android":"levelo://app?vid=4e24cd74-c1ed-48e3-ae04-94fae1db75bb","ios":"levelo://app?vid=4e24cd74-c1ed-48e3-ae04-94fae1db75bb"},"vehicle_type_id":"4","last_reported":1734498595,"current_range_meters":30800,"station_id":"ce4bhk92rcd13ifvqgb0","pricing_plan_id":"cebpf4jnsgd1na2vs0mg"},{"bike_id":"c9f84a4f-6d4b-4113-98e3-16d3edc2dd11","system_id":"levelo_inurba_marseille","lat":43.28941,"lon":5.36395,"is_reserved":false,"is_disabled":false,"rental_uris":{"android":"levelo://app?vid=c9f84a4f-6d4b-4113-98e3-16d3edc2dd11","ios":"levelo://app?vid=c9f84a4f-6d4b-4113-98e3-16d3edc2dd11"},"vehicle_type_id":"4","last_reported":1734498595,"current_range_meters":27200,"station_id":"ce4bhc92rcd13ifvqetg","pricing_plan_id":"cebpf4jnsgd1na2vs0mg"},{"bike_id":"ef0a33c5-8c8a-406a-8d2c-62ab956ebdff","system_id":"levelo_inurba_marseille","lat":43.29187,"lon":5.35824,"is_reserved":false,"is_disabled":false,"rental_uris":{"android":"levelo://app?vid=ef0a33c5-8c8a-406a-8d2c-62ab956ebdff","ios":"levelo://app?vid=ef0a33c5-8c8a-406a-8d2c-62ab956ebdff"},"vehicle_type_id":"4","last_reported":1734498595,"current_range_meters":37600,"station_id":"ce4bhb12rcd13ifvqel0","pricing_plan_id":"cebpf4jnsgd1na2vs0mg"},{"bike_id":"a37f7b88-c502-4f46-9f12-241dbcb18767","system_id":"levelo_inurba_marseille","lat":43.27876,"lon":5.37989,"is_reserved":false,"is_disabled":false,"rental_uris":{"android":"levelo://app?vid=a37f7b88-c502-4f46-9f12-241dbcb18767","ios":"levelo://app?vid=a37f7b88-c502-4f46-9f12-241dbcb18767"},"vehicle_type_id":"4","last_reported":1734498595,"current_range_meters":38000,"station_id":"ce4bhf92rcd13ifvqf50","pricing_plan_id":"cebpf4jnsgd1na2vs0mg"},{"bike_id":"a83bbb9f-b841-4be7-a2c7-f68457c511d3","system_id":"levelo_inurba_marseille","lat":43.30149,"lon":5.38078,"is_reserved":false,"is_disabled":false,"rental_uris":{"android":"levelo://app?vid=a83bbb9f-b841-4be7-a2c7-f68457c511d3","ios":"levelo://app?vid=a83bbb9f-b841-4be7-a2c7-f68457c511d3"},"vehicle_type_id":"4","last_reported":1734498595,"current_range_meters":14400,"station_id":"ce4bgjp2rcd13ifvqbh0","pricing_plan_id":"cebpf4jnsgd1na2vs0mg"},{"bike_id":"669a8b9e-02c4-4615-a6a4-60262aba4846","system_id":"levelo_inurba_marseille","lat":43.25503,"lon":5.37647,"is_reserved":false,"is_disabled":false,"rental_uris":{"android":"levelo://app?vid=669a8b9e-02c4-4615-a6a4-60262aba4846","ios":"levelo://app?vid=669a8b9e-02c4-4615-a6a4-60262aba4846"},"vehicle_type_id":"4","last_reported":1734498595,"current_range_meters":29600,"station_id":"ce4bhh12rcd13ifvqff0","pricing_plan_id":"cebpf4jnsgd1na2vs0mg"},{"bike_id":"c6894c3c-e497-4799-a3f1-a6def0c9eaf6","system_id":"levelo_inurba_marseille","lat":43.290062,"lon":5.356015,"is_reserved":false,"is_disabled":false,"rental_uris":{"android":"levelo://app?vid=c6894c3c-e497-4799-a3f1-a6def0c9eaf6","ios":"levelo://app?vid=c6894c3c-e497-4799-a3f1-a6def0c9eaf6"},"vehicle_type_id":"4","last_reported":1734498595,"current_range_meters":37600,"station_id":"ce4bhb92rcd13ifvqen0","pricing_plan_id":"cebpf4jnsgd1na2vs0mg"},{"bike_id":"f2662e2f-56a1-465a-8b41-f1179efed732","system_id":"levelo_inurba_marseille","lat":43.289349,"lon":5.366358,"is_reserved":false,"is_disabled":false,"rental_uris":{"android":"levelo://app?vid=f2662e2f-56a1-465a-8b41-f1179efed732","ios":"levelo://app?vid=f2662e2f-56a1-465a-8b41-f1179efed732"},"vehicle_type_id":"4","last_reported":1734498595,"current_range_meters":38800,"station_id":"ce4bhap2rcd13ifvqek0","pricing_plan_id":"cebpf4jnsgd1na2vs0mg"},{"bike_id":"3d2c3139-bcc8-4ecf-9e0d-d3b31d092606","system_id":"levelo_inurba_marseille","lat":43.284171,"lon":5.349969,"is_reserved":false,"is_disabled":false,"rental_uris":{"android":"levelo://app?vid=3d2c3139-bcc8-4ecf-9e0d-d3b31d092606","ios":"levelo://app?vid=3d2c3139-bcc8-4ecf-9e0d-d3b31d092606"},"vehicle_type_id":"4","last_reported":1734498595,"current_range_meters":18000,"station_id":"ce4bhbh2rcd13ifvqepg","pricing_plan_id":"cebpf4jnsgd1na2vs0mg"},{"bike_id":"84b9eb9e-7a76-4aa2-b82a-ed8561b9d36f","system_id":"levelo_inurba_marseille","lat":43.30453,"lon":5.37904,"is_reserved":false,"is_disabled":false,"rental_uris":{"android":"levelo://app?vid=84b9eb9e-7a76-4aa2-b82a-ed8561b9d36f","ios":"levelo://app?vid=84b9eb9e-7a76-4aa2-b82a-ed8561b9d36f"},"vehicle_type_id":"4","last_reported":1734498595,"current_range_meters":22400,"station_id":"ce4bgup2rcd13ifvqcn0","pricing_plan_id":"cebpf4jnsgd1na2vs0mg"},{"bike_id":"b53f711c-c06b-49ff-8471-8c915642912f","system_id":"levelo_inurba_marseille","lat":43.31115,"lon":5.37771,"is_reserved":false,"is_disabled":false,"rental_uris":{"android":"levelo://app?vid=b53f711c-c06b-49ff-8471-8c915642912f","ios":"levelo://app?vid=b53f711c-c06b-49ff-8471-8c915642912f"},"vehicle_type_id":"4","last_reported":1734498595,"current_range_meters":36400,"station_id":"ce4bgt92rcd13ifvqcg0","pricing_plan_id":"cebpf4jnsgd1na2vs0mg"},{"bike_id":"be90ed6a-921d-40d0-9afc-3014846289cf","system_id":"levelo_inurba_marseille","lat":43.29185,"lon":5.39335,"is_reserved":false,"is_disabled":false,"rental_uris":{"android":"levelo://app?vid=be90ed6a-921d-40d0-9afc-3014846289cf","ios":"levelo://app?vid=be90ed6a-921d-40d0-9afc-3014846289cf"},"vehicle_type_id":"4","last_reported":1734498595,"current_range_meters":36400,"station_id":"ce4bh192rcd13ifvqdd0","pricing_plan_id":"cebpf4jnsgd1na2vs0mg"},{"bike_id":"367b3e97-7b89-4f63-bc84-3c01e2267d33","system_id":"levelo_inurba_marseille","lat":43.31364,"lon":5.38507,"is_reserved":false,"is_disabled":false,"rental_uris":{"android":"levelo://app?vid=367b3e97-7b89-4f63-bc84-3c01e2267d33","ios":"levelo://app?vid=367b3e97-7b89-4f63-bc84-3c01e2267d33"},"vehicle_type_id":"4","last_reported":1734498595,"current_range_meters":38800,"station_id":"ce4bgt92rcd13ifvqcf0","pricing_plan_id":"cebpf4jnsgd1na2vs0mg"},{"bike_id":"3eb35965-a22e-4a08-8755-ee9e20f9e745","system_id":"levelo_inurba_marseille","lat":43.31359,"lon":5.38493,"is_reserved":false,"is_disabled":false,"rental_uris":{"android":"levelo://app?vid=3eb35965-a22e-4a08-8755-ee9e20f9e745","ios":"levelo://app?vid=3eb35965-a22e-4a08-8755-ee9e20f9e745"},"vehicle_type_id":"4","last_reported":1734498595,"current_range_meters":20000,"station_id":"ce4bgt92rcd13ifvqcf0","pricing_plan_id":"cebpf4jnsgd1na2vs0mg"},{"bike_id":"58827829-e30a-478e-8d3c-af8c7606b368","system_id":"levelo_inurba_marseille","lat":43.30188,"lon":5.37862,"is_reserved":false,"is_disabled":false,"rental_uris":{"android":"levelo://app?vid=58827829-e30a-478e-8d3c-af8c7606b368","ios":"levelo://app?vid=58827829-e30a-478e-8d3c-af8c7606b368"},"vehicle_type_id":"4","last_reported":1734498595,"current_range_meters":12000,"station_id":"","pricing_plan_id":"cebpf4jnsgd1na2vs0mg"},{"bike_id":"cab5cb01-b33a-421c-bfaf-c7630f90de8b","system_id":"levelo_inurba_marseille","lat":43.29045,"lon":5.39959,"is_reserved":false,"is_disabled":true,"rental_uris":{"android":"levelo://app?vid=cab5cb01-b33a-421c-bfaf-c7630f90de8b","ios":"levelo://app?vid=cab5cb01-b33a-421c-bfaf-c7630f90de8b"},"vehicle_type_id":"4","last_reported":1734498595,"current_range_meters":0,"station_id":"ce4bh392rcd13ifvqdm0","pricing_plan_id":"cebpf4jnsgd1na2vs0mg"},{"bike_id":"78f5dcee-b6ca-4cfa-ae6f-ebcf64be1236","system_id":"levelo_inurba_marseille","lat":43.323496,"lon":5.406144,"is_reserved":false,"is_disabled":true,"rental_uris":{"android":"levelo://app?vid=78f5dcee-b6ca-4cfa-ae6f-ebcf64be1236","ios":"levelo://app?vid=78f5dcee-b6ca-4cfa-ae6f-ebcf64be1236"},"vehicle_type_id":"4","last_reported":1734498595,"current_range_meters":0,"station_id":"ce4bhq92rcd13ifvqhjg","pricing_plan_id":"cebpf4jnsgd1na2vs0mg"},{"bike_id":"6c7f8e3f-c9c6-4d81-9d65-2fba41c12d83","system_id":"levelo_inurba_marseille","lat":43.287238,"lon":5.360915,"is_reserved":false,"is_disabled":false,"rental_uris":{"android":"levelo://app?vid=6c7f8e3f-c9c6-4d81-9d65-2fba41c12d83","ios":"levelo://app?vid=6c7f8e3f-c9c6-4d81-9d65-2fba41c12d83"},"vehicle_type_id":"4","last_reported":1734498595,"current_range_meters":36800,"station_id":"cki0cbj6b192h4jlfktg","pricing_plan_id":"cebpf4jnsgd1na2vs0mg"},{"bike_id":"d1adb045-11f4-4330-9d2b-f77d89c262d4","system_id":"levelo_inurba_marseille","lat":43.29305,"lon":5.37184,"is_reserved":false,"is_disabled":true,"rental_uris":{"android":"levelo://app?vid=d1adb045-11f4-4330-9d2b-f77d89c262d4","ios":"levelo://app?vid=d1adb045-11f4-4330-9d2b-f77d89c262d4"},"vehicle_type_id":"4","last_reported":1734498595,"current_range_meters":32800,"station_id":"ce4bgh92rcd13ifvqb40","pricing_plan_id":"cebpf4jnsgd1na2vs0mg"},{"bike_id":"fb5ac6cd-6d94-4004-9473-07d3146ccb2b","system_id":"levelo_inurba_marseille","lat":43.28864,"lon":5.35856,"is_reserved":false,"is_disabled":false,"rental_uris":{"android":"levelo://app?vid=fb5ac6cd-6d94-4004-9473-07d3146ccb2b","ios":"levelo://app?vid=fb5ac6cd-6d94-4004-9473-07d3146ccb2b"},"vehicle_type_id":"4","last_reported":1734498595,"current_range_meters":30000,"station_id":"ce4bhb12rcd13ifvqem0","pricing_plan_id":"cebpf4jnsgd1na2vs0mg"},{"bike_id":"8c76505f-0e9d-41dc-9695-e942a98a0608","system_id":"levelo_inurba_marseille","lat":43.28497,"lon":5.38571,"is_reserved":false,"is_disabled":false,"rental_uris":{"android":"levelo://app?vid=8c76505f-0e9d-41dc-9695-e942a98a0608","ios":"levelo://app?vid=8c76505f-0e9d-41dc-9695-e942a98a0608"},"vehicle_type_id":"4","last_reported":1734498595,"current_range_meters":3600,"station_id":"ce4bh8p2rcd13ifvqeb0","pricing_plan_id":"cebpf4jnsgd1na2vs0mg"},{"bike_id":"a33b825e-c779-4129-842f-aeba22c7390a","system_id":"levelo_inurba_marseille","lat":43.3169,"lon":5.40465,"is_reserved":false,"is_disabled":false,"rental_uris":{"android":"levelo://app?vid=a33b825e-c779-4129-842f-aeba22c7390a","ios":"levelo://app?vid=a33b825e-c779-4129-842f-aeba22c7390a"},"vehicle_type_id":"4","last_reported":1734498595,"current_range_meters":38000,"station_id":"ce4bh012rcd13ifvqd00","pricing_plan_id":"cebpf4jnsgd1na2vs0mg"},{"bike_id":"492fd9a4-6f47-465d-9838-b5fa8d28f268","system_id":"levelo_inurba_marseille","lat":43.24665,"lon":5.3816,"is_reserved":false,"is_disabled":false,"rental_uris":{"android":"levelo://app?vid=492fd9a4-6f47-465d-9838-b5fa8d28f268","ios":"levelo://app?vid=492fd9a4-6f47-465d-9838-b5fa8d28f268"},"vehicle_type_id":"4","last_reported":1734498595,"current_range_meters":30000,"station_id":"ce4bhih2rcd13ifvqfr0","pricing_plan_id":"cebpf4jnsgd1na2vs0mg"},{"bike_id":"84f6b5f7-8810-4dd9-b948-0e20c04766c6","system_id":"levelo_inurba_marseille","lat":43.24383,"lon":5.37048,"is_reserved":false,"is_disabled":false,"rental_uris":{"android":"levelo://app?vid=84f6b5f7-8810-4dd9-b948-0e20c04766c6","ios":"levelo://app?vid=84f6b5f7-8810-4dd9-b948-0e20c04766c6"},"vehicle_type_id":"4","last_reported":1734498595,"current_range_meters":38800,"station_id":"ce4bhhh2rcd13ifvqfk0","pricing_plan_id":"cebpf4jnsgd1na2vs0mg"},{"bike_id":"0bd5d813-d89e-42f3-8ce9-c06fb9ffedaa","system_id":"levelo_inurba_marseille","lat":43.289444,"lon":5.396303,"is_reserved":false,"is_disabled":true,"rental_uris":{"android":"levelo://app?vid=0bd5d813-d89e-42f3-8ce9-c06fb9ffedaa","ios":"levelo://app?vid=0bd5d813-d89e-42f3-8ce9-c06fb9ffedaa"},"vehicle_type_id":"4","last_reported":1734498595,"current_range_meters":36000,"station_id":"ce4bh3h2rcd13ifvqdn0","pricing_plan_id":"cebpf4jnsgd1na2vs0mg"},{"bike_id":"90c15a91-1932-4643-87b7-8396d933bc3b","system_id":"levelo_inurba_marseille","lat":43.297947,"lon":5.404082,"is_reserved":false,"is_disabled":false,"rental_uris":{"android":"levelo://app?vid=90c15a91-1932-4643-87b7-8396d933bc3b","ios":"levelo://app?vid=90c15a91-1932-4643-87b7-8396d933bc3b"},"vehicle_type_id":"4","last_reported":1734498595,"current_range_meters":38000,"station_id":"ce4bh112rcd13ifvqd90","pricing_plan_id":"cebpf4jnsgd1na2vs0mg"},{"bike_id":"d730b6d2-b4b0-444f-b860-eed7a4f03c01","system_id":"levelo_inurba_marseille","lat":43.32544,"lon":5.4145,"is_reserved":false,"is_disabled":false,"rental_uris":{"android":"levelo://app?vid=d730b6d2-b4b0-444f-b860-eed7a4f03c01","ios":"levelo://app?vid=d730b6d2-b4b0-444f-b860-eed7a4f03c01"},"vehicle_type_id":"4","last_reported":1734498595,"current_range_meters":38000,"station_id":"ce4bhq12rcd13ifvqhhg","pricing_plan_id":"cebpf4jnsgd1na2vs0mg"},{"bike_id":"c7e12555-1f6d-49e8-8a7d-ef14d4de2d9b","system_id":"levelo_inurba_marseille","lat":43.29982,"lon":5.371818,"is_reserved":false,"is_disabled":false,"rental_uris":{"android":"levelo://app?vid=c7e12555-1f6d-49e8-8a7d-ef14d4de2d9b","ios":"levelo://app?vid=c7e12555-1f6d-49e8-8a7d-ef14d4de2d9b"},"vehicle_type_id":"4","last_reported":1734498595,"current_range_meters":38400,"station_id":"ce4bgr92rcd13ifvqc7g","pricing_plan_id":"cebpf4jnsgd1na2vs0mg"},{"bike_id":"9a9ca54f-8f83-4db0-b780-a7eb0fa7f88d","system_id":"levelo_inurba_marseille","lat":43.26019,"lon":5.37549,"is_reserved":false,"is_disabled":false,"rental_uris":{"android":"levelo://app?vid=9a9ca54f-8f83-4db0-b780-a7eb0fa7f88d","ios":"levelo://app?vid=9a9ca54f-8f83-4db0-b780-a7eb0fa7f88d"},"vehicle_type_id":"4","last_reported":1734498595,"current_range_meters":35600,"station_id":"ce4bhgh2rcd13ifvqfa0","pricing_plan_id":"cebpf4jnsgd1na2vs0mg"},{"bike_id":"e72fa642-30df-464a-831c-61ff9cf06808","system_id":"levelo_inurba_marseille","lat":43.23073,"lon":5.35512,"is_reserved":false,"is_disabled":false,"rental_uris":{"android":"levelo://app?vid=e72fa642-30df-464a-831c-61ff9cf06808","ios":"levelo://app?vid=e72fa642-30df-464a-831c-61ff9cf06808"},"vehicle_type_id":"4","last_reported":1734498595,"current_range_meters":38800,"station_id":"cpo3342slgdg3j2ifvpg","pricing_plan_id":"cebpf4jnsgd1na2vs0mg"},{"bike_id":"97fe5e65-80a6-480f-a292-b3646d537642","system_id":"levelo_inurba_marseille","lat":43.23196,"lon":5.39987,"is_reserved":false,"is_disabled":false,"rental_uris":{"android":"levelo://app?vid=97fe5e65-80a6-480f-a292-b3646d537642","ios":"levelo://app?vid=97fe5e65-80a6-480f-a292-b3646d537642"},"vehicle_type_id":"4","last_reported":1734498595,"current_range_meters":23200,"station_id":"ce4bhn12rcd13ifvqgqg","pricing_plan_id":"cebpf4jnsgd1na2vs0mg"},{"bike_id":"4ad89db2-d7ae-4790-9e48-447a4f27414c","system_id":"levelo_inurba_marseille","lat":43.26932,"lon":5.40245,"is_reserved":false,"is_disabled":false,"rental_uris":{"android":"levelo://app?vid=4ad89db2-d7ae-4790-9e48-447a4f27414c","ios":"levelo://app?vid=4ad89db2-d7ae-4790-9e48-447a4f27414c"},"vehicle_type_id":"4","last_reported":1734498595,"current_range_meters":36400,"station_id":"cjm6bp8fraef2m0cb0m0","pricing_plan_id":"cebpf4jnsgd1na2vs0mg"},{"bike_id":"95c69429-156c-453e-b2c0-5f65d6fe9b40","system_id":"levelo_inurba_marseille","lat":43.23184,"lon":5.39957,"is_reserved":false,"is_disabled":false,"rental_uris":{"android":"levelo://app?vid=95c69429-156c-453e-b2c0-5f65d6fe9b40","ios":"levelo://app?vid=95c69429-156c-453e-b2c0-5f65d6fe9b40"},"vehicle_type_id":"4","last_reported":1734498595,"current_range_meters":38800,"station_id":"ce4bhn12rcd13ifvqgqg","pricing_plan_id":"cebpf4jnsgd1na2vs0mg"},{"bike_id":"4cf5efef-ee90-4676-99d0-e0e11587cec4","system_id":"levelo_inurba_marseille","lat":43.318983,"lon":5.407433,"is_reserved":false,"is_disabled":false,"rental_uris":{"android":"levelo://app?vid=4cf5efef-ee90-4676-99d0-e0e11587cec4","ios":"levelo://app?vid=4cf5efef-ee90-4676-99d0-e0e11587cec4"},"vehicle_type_id":"4","last_reported":1734498595,"current_range_meters":38800,"station_id":"ce4bhq12rcd13ifvqhig","pricing_plan_id":"cebpf4jnsgd1na2vs0mg"},{"bike_id":"078842f7-17db-45ab-a226-7c7839120958","system_id":"levelo_inurba_marseille","lat":43.30793,"lon":5.37651,"is_reserved":false,"is_disabled":false,"rental_uris":{"android":"levelo://app?vid=078842f7-17db-45ab-a226-7c7839120958","ios":"levelo://app?vid=078842f7-17db-45ab-a226-7c7839120958"},"vehicle_type_id":"4","last_reported":1734498595,"current_range_meters":28400,"station_id":"ce4bgv92rcd13ifvqcq0","pricing_plan_id":"cebpf4jnsgd1na2vs0mg"},{"bike_id":"9d4c324e-692d-491c-93f5-f0ef86993b62","system_id":"levelo_inurba_marseille","lat":43.30886,"lon":5.39671,"is_reserved":false,"is_disabled":false,"rental_uris":{"android":"levelo://app?vid=9d4c324e-692d-491c-93f5-f0ef86993b62","ios":"levelo://app?vid=9d4c324e-692d-491c-93f5-f0ef86993b62"},"vehicle_type_id":"4","last_reported":1734498595,"current_range_meters":28000,"station_id":"ce4bh012rcd13ifvqcv0","pricing_plan_id":"cebpf4jnsgd1na2vs0mg"},{"bike_id":"7ccf8dff-fa2a-4b1f-b53a-adf7b02d4c9a","system_id":"levelo_inurba_marseille","lat":43.314962,"lon":5.372992,"is_reserved":false,"is_disabled":false,"rental_uris":{"android":"levelo://app?vid=7ccf8dff-fa2a-4b1f-b53a-adf7b02d4c9a","ios":"levelo://app?vid=7ccf8dff-fa2a-4b1f-b53a-adf7b02d4c9a"},"vehicle_type_id":"4","last_reported":1734498595,"current_range_meters":8400,"station_id":"ce4bgt12rcd13ifvqcd0","pricing_plan_id":"cebpf4jnsgd1na2vs0mg"},{"bike_id":"ad7f5080-e27a-481f-9278-d831cdc7bb31","system_id":"levelo_inurba_marseille","lat":43.31764,"lon":5.39012,"is_reserved":false,"is_disabled":false,"rental_uris":{"android":"levelo://app?vid=ad7f5080-e27a-481f-9278-d831cdc7bb31","ios":"levelo://app?vid=ad7f5080-e27a-481f-9278-d831cdc7bb31"},"vehicle_type_id":"4","last_reported":1734498595,"current_range_meters":38800,"station_id":"ce4bhqp2rcd13ifvqhng","pricing_plan_id":"cebpf4jnsgd1na2vs0mg"},{"bike_id":"3ef30175-ccbf-497c-862a-56c0a1fba876","system_id":"levelo_inurba_marseille","lat":43.28404,"lon":5.37527,"is_reserved":false,"is_disabled":false,"rental_uris":{"android":"levelo://app?vid=3ef30175-ccbf-497c-862a-56c0a1fba876","ios":"levelo://app?vid=3ef30175-ccbf-497c-862a-56c0a1fba876"},"vehicle_type_id":"4","last_reported":1734498595,"current_range_meters":9200,"station_id":"ce4bh412rcd13ifvqds0","pricing_plan_id":"cebpf4jnsgd1na2vs0mg"},{"bike_id":"cd56e097-3c51-4a9c-ad31-6a9c9c34a705","system_id":"levelo_inurba_marseille","lat":43.303558,"lon":5.418754,"is_reserved":false,"is_disabled":false,"rental_uris":{"android":"levelo://app?vid=cd56e097-3c51-4a9c-ad31-6a9c9c34a705","ios":"levelo://app?vid=cd56e097-3c51-4a9c-ad31-6a9c9c34a705"},"vehicle_type_id":"4","last_reported":1734498595,"current_range_meters":37600,"station_id":"ce4bhop2rcd13ifvqh7g","pricing_plan_id":"cebpf4jnsgd1na2vs0mg"},{"bike_id":"9b3b15b8-0e59-4d35-bc41-e6a64a1479d7","system_id":"levelo_inurba_marseille","lat":43.280242,"lon":5.369498,"is_reserved":false,"is_disabled":false,"rental_uris":{"android":"levelo://app?vid=9b3b15b8-0e59-4d35-bc41-e6a64a1479d7","ios":"levelo://app?vid=9b3b15b8-0e59-4d35-bc41-e6a64a1479d7"},"vehicle_type_id":"4","last_reported":1734498595,"current_range_meters":38800,"station_id":"ce4bha12rcd13ifvqef0","pricing_plan_id":"cebpf4jnsgd1na2vs0mg"},{"bike_id":"f9a3cfbb-dc2b-4d84-9d73-1598ec69352e","system_id":"levelo_inurba_marseille","lat":43.30263,"lon":5.40088,"is_reserved":false,"is_disabled":false,"rental_uris":{"android":"levelo://app?vid=f9a3cfbb-dc2b-4d84-9d73-1598ec69352e","ios":"levelo://app?vid=f9a3cfbb-dc2b-4d84-9d73-1598ec69352e"},"vehicle_type_id":"4","last_reported":1734498595,"current_range_meters":38400,"station_id":"ce4bgvh2rcd13ifvqcs0","pricing_plan_id":"cebpf4jnsgd1na2vs0mg"},{"bike_id":"2b09ea36-bcb8-4205-9af2-996eadfb270a","system_id":"levelo_inurba_marseille","lat":43.30895,"lon":5.37176,"is_reserved":false,"is_disabled":false,"rental_uris":{"android":"levelo://app?vid=2b09ea36-bcb8-4205-9af2-996eadfb270a","ios":"levelo://app?vid=2b09ea36-bcb8-4205-9af2-996eadfb270a"},"vehicle_type_id":"4","last_reported":1734498595,"current_range_meters":38800,"station_id":"ce4bguh2rcd13ifvqckg","pricing_plan_id":"cebpf4jnsgd1na2vs0mg"},{"bike_id":"55624d43-cd8e-4ed9-b507-8869d292864a","system_id":"levelo_inurba_marseille","lat":43.28657,"lon":5.36373,"is_reserved":false,"is_disabled":false,"rental_uris":{"android":"levelo://app?vid=55624d43-cd8e-4ed9-b507-8869d292864a","ios":"levelo://app?vid=55624d43-cd8e-4ed9-b507-8869d292864a"},"vehicle_type_id":"4","last_reported":1734498595,"current_range_meters":36800,"station_id":"ce4bhah2rcd13ifvqej0","pricing_plan_id":"cebpf4jnsgd1na2vs0mg"},{"bike_id":"a10d30f9-ba7e-4c34-9a76-2ec686932e9c","system_id":"levelo_inurba_marseille","lat":43.31317,"lon":5.39695,"is_reserved":false,"is_disabled":false,"rental_uris":{"android":"levelo://app?vid=a10d30f9-ba7e-4c34-9a76-2ec686932e9c","ios":"levelo://app?vid=a10d30f9-ba7e-4c34-9a76-2ec686932e9c"},"vehicle_type_id":"4","last_reported":1734498595,"current_range_meters":28800,"station_id":"ce4bgvp2rcd13ifvqcu0","pricing_plan_id":"cebpf4jnsgd1na2vs0mg"},{"bike_id":"c8399855-72d4-4f25-aa5a-52a18924a7b8","system_id":"levelo_inurba_marseille","lat":43.24168,"lon":5.3639,"is_reserved":false,"is_disabled":false,"rental_uris":{"android":"levelo://app?vid=c8399855-72d4-4f25-aa5a-52a18924a7b8","ios":"levelo://app?vid=c8399855-72d4-4f25-aa5a-52a18924a7b8"},"vehicle_type_id":"4","last_reported":1734498595,"current_range_meters":8400,"station_id":"cpo36qri1sfpv3e86is0","pricing_plan_id":"cebpf4jnsgd1na2vs0mg"},{"bike_id":"899e2ba5-aaa0-47b3-90b1-13bc729232ba","system_id":"levelo_inurba_marseille","lat":43.29541,"lon":5.42271,"is_reserved":false,"is_disabled":false,"rental_uris":{"android":"levelo://app?vid=899e2ba5-aaa0-47b3-90b1-13bc729232ba","ios":"levelo://app?vid=899e2ba5-aaa0-47b3-90b1-13bc729232ba"},"vehicle_type_id":"4","last_reported":1734498595,"current_range_meters":8000,"station_id":"ce4bhph2rcd13ifvqhdg","pricing_plan_id":"cebpf4jnsgd1na2vs0mg"},{"bike_id":"cec5bdf2-0eed-4c84-8596-3e8e1dbb0650","system_id":"levelo_inurba_marseille","lat":43.32364,"lon":5.38897,"is_reserved":false,"is_disabled":false,"rental_uris":{"android":"levelo://app?vid=cec5bdf2-0eed-4c84-8596-3e8e1dbb0650","ios":"levelo://app?vid=cec5bdf2-0eed-4c84-8596-3e8e1dbb0650"},"vehicle_type_id":"4","last_reported":1734498595,"current_range_meters":38400,"station_id":"ce4bhqp2rcd13ifvqhog","pricing_plan_id":"cebpf4jnsgd1na2vs0mg"},{"bike_id":"caccf3df-025c-4334-8486-611a28578717","system_id":"levelo_inurba_marseille","lat":43.24658,"lon":5.38159,"is_reserved":false,"is_disabled":true,"rental_uris":{"android":"levelo://app?vid=caccf3df-025c-4334-8486-611a28578717","ios":"levelo://app?vid=caccf3df-025c-4334-8486-611a28578717"},"vehicle_type_id":"4","last_reported":1734498595,"current_range_meters":0,"station_id":"ce4bhih2rcd13ifvqfr0","pricing_plan_id":"cebpf4jnsgd1na2vs0mg"},{"bike_id":"219a6588-c8d2-4f1b-b9be-08b30c1b23db","system_id":"levelo_inurba_marseille","lat":43.2893,"lon":5.36624,"is_reserved":false,"is_disabled":false,"rental_uris":{"android":"levelo://app?vid=219a6588-c8d2-4f1b-b9be-08b30c1b23db","ios":"levelo://app?vid=219a6588-c8d2-4f1b-b9be-08b30c1b23db"},"vehicle_type_id":"4","last_reported":1734498595,"current_range_meters":30000,"station_id":"ce4bhap2rcd13ifvqek0","pricing_plan_id":"cebpf4jnsgd1na2vs0mg"},{"bike_id":"d4e0fa6f-3a32-4a89-98c5-37902995a45e","system_id":"levelo_inurba_marseille","lat":43.29785,"lon":5.37104,"is_reserved":false,"is_disabled":false,"rental_uris":{"android":"levelo://app?vid=d4e0fa6f-3a32-4a89-98c5-37902995a45e","ios":"levelo://app?vid=d4e0fa6f-3a32-4a89-98c5-37902995a45e"},"vehicle_type_id":"4","last_reported":1734498595,"current_range_meters":36000,"station_id":"ce4bgop2rcd13ifvqc1g","pricing_plan_id":"cebpf4jnsgd1na2vs0mg"},{"bike_id":"e4acf5aa-780d-48e6-a4a5-f785bb550f10","system_id":"levelo_inurba_marseille","lat":43.30241,"lon":5.40077,"is_reserved":false,"is_disabled":false,"rental_uris":{"android":"levelo://app?vid=e4acf5aa-780d-48e6-a4a5-f785bb550f10","ios":"levelo://app?vid=e4acf5aa-780d-48e6-a4a5-f785bb550f10"},"vehicle_type_id":"4","last_reported":1734498595,"current_range_meters":38800,"station_id":"ce4bgvh2rcd13ifvqcs0","pricing_plan_id":"cebpf4jnsgd1na2vs0mg"},{"bike_id":"c09638b7-3192-49b1-a7f3-9c0b3cb98f80","system_id":"levelo_inurba_marseille","lat":43.279905,"lon":5.416613,"is_reserved":false,"is_disabled":true,"rental_uris":{"android":"levelo://app?vid=c09638b7-3192-49b1-a7f3-9c0b3cb98f80","ios":"levelo://app?vid=c09638b7-3192-49b1-a7f3-9c0b3cb98f80"},"vehicle_type_id":"4","last_reported":1734498595,"current_range_meters":38800,"station_id":"ce4bho12rcd13ifvqh1g","pricing_plan_id":"cebpf4jnsgd1na2vs0mg"},{"bike_id":"ba8f230c-0aec-44fc-9033-8e7e45b04465","system_id":"levelo_inurba_marseille","lat":43.29983,"lon":5.37177,"is_reserved":false,"is_disabled":false,"rental_uris":{"android":"levelo://app?vid=ba8f230c-0aec-44fc-9033-8e7e45b04465","ios":"levelo://app?vid=ba8f230c-0aec-44fc-9033-8e7e45b04465"},"vehicle_type_id":"4","last_reported":1734498595,"current_range_meters":27600,"station_id":"ce4bgr92rcd13ifvqc7g","pricing_plan_id":"cebpf4jnsgd1na2vs0mg"},{"bike_id":"76adf408-c037-4157-88f5-eab2cfbef1ca","system_id":"levelo_inurba_marseille","lat":43.33022,"lon":5.39034,"is_reserved":false,"is_disabled":false,"rental_uris":{"android":"levelo://app?vid=76adf408-c037-4157-88f5-eab2cfbef1ca","ios":"levelo://app?vid=76adf408-c037-4157-88f5-eab2cfbef1ca"},"vehicle_type_id":"4","last_reported":1734498595,"current_range_meters":28400,"station_id":"ce4bhr92rcd13ifvqhrg","pricing_plan_id":"cebpf4jnsgd1na2vs0mg"},{"bike_id":"dfe66e12-8c57-46c3-a86e-26f5b56def90","system_id":"levelo_inurba_marseille","lat":43.29261,"lon":5.40125,"is_reserved":false,"is_disabled":false,"rental_uris":{"android":"levelo://app?vid=dfe66e12-8c57-46c3-a86e-26f5b56def90","ios":"levelo://app?vid=dfe66e12-8c57-46c3-a86e-26f5b56def90"},"vehicle_type_id":"4","last_reported":1734498595,"current_range_meters":16800,"station_id":"ce4bh312rcd13ifvqdk0","pricing_plan_id":"cebpf4jnsgd1na2vs0mg"},{"bike_id":"7c6e62f7-fb8f-41ca-9a81-0c4aa82b9f20","system_id":"levelo_inurba_marseille","lat":43.28657,"lon":5.36349,"is_reserved":false,"is_disabled":false,"rental_uris":{"android":"levelo://app?vid=7c6e62f7-fb8f-41ca-9a81-0c4aa82b9f20","ios":"levelo://app?vid=7c6e62f7-fb8f-41ca-9a81-0c4aa82b9f20"},"vehicle_type_id":"4","last_reported":1734498595,"current_range_meters":38400,"station_id":"ce4bhah2rcd13ifvqej0","pricing_plan_id":"cebpf4jnsgd1na2vs0mg"},{"bike_id":"e3a01254-2040-4d27-9cac-cd3e64c6725c","system_id":"levelo_inurba_marseille","lat":43.30952,"lon":5.39047,"is_reserved":false,"is_disabled":false,"rental_uris":{"android":"levelo://app?vid=e3a01254-2040-4d27-9cac-cd3e64c6725c","ios":"levelo://app?vid=e3a01254-2040-4d27-9cac-cd3e64c6725c"},"vehicle_type_id":"4","last_reported":1734498595,"current_range_meters":38000,"station_id":"ce4bgup2rcd13ifvqco0","pricing_plan_id":"cebpf4jnsgd1na2vs0mg"},{"bike_id":"91ee1933-7065-49af-8683-d92c503f6ac5","system_id":"levelo_inurba_marseille","lat":43.26686,"lon":5.3827,"is_reserved":false,"is_disabled":false,"rental_uris":{"android":"levelo://app?vid=91ee1933-7065-49af-8683-d92c503f6ac5","ios":"levelo://app?vid=91ee1933-7065-49af-8683-d92c503f6ac5"},"vehicle_type_id":"4","last_reported":1734498595,"current_range_meters":19200,"station_id":"ce4bhg92rcd13ifvqf90","pricing_plan_id":"cebpf4jnsgd1na2vs0mg"},{"bike_id":"b0b5ca3b-6a23-4037-8add-3940b0ed01fc","system_id":"levelo_inurba_marseille","lat":43.28107,"lon":5.37824,"is_reserved":false,"is_disabled":false,"rental_uris":{"android":"levelo://app?vid=b0b5ca3b-6a23-4037-8add-3940b0ed01fc","ios":"levelo://app?vid=b0b5ca3b-6a23-4037-8add-3940b0ed01fc"},"vehicle_type_id":"4","last_reported":1734498595,"current_range_meters":25600,"station_id":"ce4bha12rcd13ifvqee0","pricing_plan_id":"cebpf4jnsgd1na2vs0mg"},{"bike_id":"e234880d-a291-45ed-8a9a-6a83de9cc650","system_id":"levelo_inurba_marseille","lat":43.28943,"lon":5.36407,"is_reserved":false,"is_disabled":false,"rental_uris":{"android":"levelo://app?vid=e234880d-a291-45ed-8a9a-6a83de9cc650","ios":"levelo://app?vid=e234880d-a291-45ed-8a9a-6a83de9cc650"},"vehicle_type_id":"4","last_reported":1734498595,"current_range_meters":23200,"station_id":"ce4bhc92rcd13ifvqetg","pricing_plan_id":"cebpf4jnsgd1na2vs0mg"},{"bike_id":"dac211e7-f278-4f35-910f-62503c1e8281","system_id":"levelo_inurba_marseille","lat":43.313664,"lon":5.384991,"is_reserved":false,"is_disabled":false,"rental_uris":{"android":"levelo://app?vid=dac211e7-f278-4f35-910f-62503c1e8281","ios":"levelo://app?vid=dac211e7-f278-4f35-910f-62503c1e8281"},"vehicle_type_id":"4","last_reported":1734498595,"current_range_meters":38400,"station_id":"ce4bgt92rcd13ifvqcf0","pricing_plan_id":"cebpf4jnsgd1na2vs0mg"},{"bike_id":"32f226fb-f4e2-4d81-a201-914e1005fad4","system_id":"levelo_inurba_marseille","lat":43.31686,"lon":5.40465,"is_reserved":false,"is_disabled":false,"rental_uris":{"android":"levelo://app?vid=32f226fb-f4e2-4d81-a201-914e1005fad4","ios":"levelo://app?vid=32f226fb-f4e2-4d81-a201-914e1005fad4"},"vehicle_type_id":"4","last_reported":1734498595,"current_range_meters":32400,"station_id":"ce4bh012rcd13ifvqd00","pricing_plan_id":"cebpf4jnsgd1na2vs0mg"},{"bike_id":"5c09b16c-157e-4553-9718-30629c6012af","system_id":"levelo_inurba_marseille","lat":43.25858,"lon":5.39901,"is_reserved":false,"is_disabled":false,"rental_uris":{"android":"levelo://app?vid=5c09b16c-157e-4553-9718-30629c6012af","ios":"levelo://app?vid=5c09b16c-157e-4553-9718-30629c6012af"},"vehicle_type_id":"4","last_reported":1734498595,"current_range_meters":23200,"station_id":"ce4bhl92rcd13ifvqghg","pricing_plan_id":"cebpf4jnsgd1na2vs0mg"},{"bike_id":"b2d380e8-08ed-495f-a052-5d7dfa068f5b","system_id":"levelo_inurba_marseille","lat":43.26949,"lon":5.3863,"is_reserved":false,"is_disabled":true,"rental_uris":{"android":"levelo://app?vid=b2d380e8-08ed-495f-a052-5d7dfa068f5b","ios":"levelo://app?vid=b2d380e8-08ed-495f-a052-5d7dfa068f5b"},"vehicle_type_id":"4","last_reported":1734498595,"current_range_meters":0,"station_id":"ce4bhh92rcd13ifvqfh0","pricing_plan_id":"cebpf4jnsgd1na2vs0mg"},{"bike_id":"262db747-5df7-439b-b4e7-c313a4a57308","system_id":"levelo_inurba_marseille","lat":43.27808,"lon":5.40708,"is_reserved":false,"is_disabled":false,"rental_uris":{"android":"levelo://app?vid=262db747-5df7-439b-b4e7-c313a4a57308","ios":"levelo://app?vid=262db747-5df7-439b-b4e7-c313a4a57308"},"vehicle_type_id":"4","last_reported":1734498595,"current_range_meters":16400,"station_id":"ce4bhnh2rcd13ifvqgtg","pricing_plan_id":"cebpf4jnsgd1na2vs0mg"},