{"last_updated":1768417915,"ttl":60,"version":"2.2","data":{"bikes":[{"bike_id":"7e09f6aa-6a01-490d-a5d4-56de9c0277ad","system_id":"levelo_inurba_marseille","lat":43.28516,"lon":5.4409,"is_reserved":false,"is_disabled":false,"rental_uris":{"android":"levelo://app?vid=7e09f6aa-6a01-490d-a5d4-56de9c0277ad","ios":"levelo://app?vid=7e09f6aa-6a01-490d-a5d4-56de9c0277ad"},"vehicle_type_id":"4","last_reported":1768417915,"current_range_meters":2800,"station_id":"st_d3j3df2ikq2c7380ej80","pricing_plan_id":"cebpf4jnsgd1na2vs0mg"},{"bike_id":"9c3a1698-8584-4698-9302-0df588154afa","system_id":"levelo_inurba_marseille","lat":43.255813,"lon":5.382326,"is_reserved":false,"is_disabled":false,"rental_uris":{"android":"levelo://app?vid=9c3a1698-8584-4698-9302-0df588154afa","ios":"levelo://app?vid=9c3a1698-8584-4698-9302-0df588154afa"},"vehicle_type_id":"4","last_reported":1768417915,"current_range_meters":2800,"station_id":"ce4bhih2rcd13ifvqfs0","pricing_plan_id":"cebpf4jnsgd1na2vs0mg"},{"bike_id":"ea5a0539-d10a-493d-b63d-e4e8abdbd9c8","system_id":"levelo_inurba_marseille","lat":43.29211,"lon":5.38828,"is_reserved":false,"is_disabled":false,"rental_uris":{"android":"levelo://app?vid=ea5a0539-d10a-493d-b63d-e4e8abdbd9c8","ios":"levelo://app?vid=ea5a0539-d10a-493d-b63d-e4e8abdbd9c8"},"vehicle_type_id":"4","last_reported":1768417915,"current_range_meters":2800,"station_id":"","pricing_plan_id":"cebpf4jnsgd1na2vs0mg"},{"bike_id":"5d419d89-5066-42d7-a676-f0a78dfc573f","system_id":"levelo_inurba_marseille","lat":43.28342,"lon":5.38103,"is_reserved":false,"is_disabled":false,"rental_uris":{"android":"levelo://app?vid=5d419d89-5066-42d7-a676-f0a78dfc573f","ios":"levelo://app?vid=5d419d89-5066-42d7-a676-f0a78dfc573f"},"vehicle_type_id":"4","last_reported":1768417915,"current_range_meters":2800,"station_id":"ce4bh412rcd13ifvqdr0","pricing_plan_id":"cebpf4jnsgd1na2vs0mg"},{"bike_id":"6d25401a-e6f9-4356-8e74-8cb5e3847f8f","system_id":"levelo_inurba_marseille","lat":43.30322,"lon":5.39179,"is_reserved":false,"is_disabled":false,"rental_uris":{"android":"levelo://app?vid=6d25401a-e6f9-4356-8e74-8cb5e3847f8f","ios":"levelo://app?vid=6d25401a-e6f9-4356-8e74-8cb5e3847f8f"},"vehicle_type_id":"4","last_reported":1768417915,"current_range_meters":2800,"station_id":"ce4bgkh2rcd13ifvqbk0","pricing_plan_id":"cebpf4jnsgd1na2vs0mg"},{"bike_id":"7c969669-50db-4552-b574-0619ffa44efd","system_id":"levelo_inurba_marseille","lat":43.25015,"lon":5.3893,"is_reserved":false,"is_disabled":false,"rental_uris":{"android":"levelo://app?vid=7c969669-50db-4552-b574-0619ffa44efd","ios":"levelo://app?vid=7c969669-50db-4552-b574-0619ffa44efd"},"vehicle_type_id":"4","last_reported":1768417915,"current_range_meters":2800,"station_id":"ce4bhgp2rcd13ifvqfd0","pricing_plan_id":"cebpf4jnsgd1na2vs0mg"},{"bike_id":"af059324-d71a-4e67-a38b-4d944e438f6d","system_id":"levelo_inurba_marseille","lat":43.31353,"lon":5.36722,"is_reserved":false,"is_disabled":false,"rental_uris":{"android":"levelo://app?vid=af059324-d71a-4e67-a38b-4d944e438f6d","ios":"levelo://app?vid=af059324-d71a-4e67-a38b-4d944e438f6d"},"vehicle_type_id":"4","last_reported":1768417915,"current_range_meters":2800,"station_id":"ce4bgr92rcd13ifvqc6g","pricing_plan_id":"cebpf4jnsgd1na2vs0mg"},{"bike_id":"23a3eada-dea7-4044-b22b-1e0f7c60e76c","system_id":"levelo_inurba_marseille","lat":43.29515,"lon":5.39197,"is_reserved":false,"is_disabled":true,"rental_uris":{"android":"levelo://app?vid=23a3eada-dea7-4044-b22b-1e0f7c60e76c","ios":"levelo://app?vid=23a3eada-dea7-4044-b22b-1e0f7c60e76c"},"vehicle_type_id":"4","last_reported":1768417915,"current_range_meters":2800,"station_id":"","pricing_plan_id":"cebpf4jnsgd1na2vs0mg"},{"bike_id":"a20a26cb-7019-48fc-ad9e-dd9da3e5234e","system_id":"levelo_inurba_marseille","lat":43.29277,"lon":5.40122,"is_reserved":false,"is_disabled":false,"rental_uris":{"android":"levelo://app?vid=a20a26cb-7019-48fc-ad9e-dd9da3e5234e","ios":"levelo://app?vid=a20a26cb-7019-48fc-ad9e-dd9da3e5234e"},"vehicle_type_id":"4","last_reported":1768417915,"current_range_meters":2800,"station_id":"ce4bh312rcd13ifvqdk0","pricing_plan_id":"cebpf4jnsgd1na2vs0mg"},{"bike_id":"7b003ad7-95e8-4860-89bf-00395186d37d","system_id":"levelo_inurba_marseille","lat":43.28703,"lon":5.37383,"is_reserved":false,"is_disabled":false,"rental_uris":{"android":"levelo://app?vid=7b003ad7-95e8-4860-89bf-00395186d37d","ios":"levelo://app?vid=7b003ad7-95e8-4860-89bf-00395186d37d"},"vehicle_type_id":"4","last_reported":1768417915,"current_range_meters":2800,"station_id":"ce4bh3p2rcd13ifvqdq0","pricing_plan_id":"cebpf4jnsgd1na2vs0mg"},{"bike_id":"4210b5e1-14c0-4350-9f09-b328efe96417","system_id":"levelo_inurba_marseille","lat":43.3017,"lon":5.37114,"is_reserved":false,"is_disabled":false,"rental_uris":{"android":"levelo://app?vid=4210b5e1-14c0-4350-9f09-b328efe96417","ios":"levelo://app?vid=4210b5e1-14c0-4350-9f09-b328efe96417"},"vehicle_type_id":"4","last_reported":1768417915,"current_range_meters":3200,"station_id":"","pricing_plan_id":"cebpf4jnsgd1na2vs0mg"},{"bike_id":"18e7aed4-7cab-4e5f-b147-5c98f8a1e192","system_id":"levelo_inurba_marseille","lat":43.32366,"lon":5.36751,"is_reserved":false,"is_disabled":false,"rental_uris":{"android":"levelo://app?vid=18e7aed4-7cab-4e5f-b147-5c98f8a1e192","ios":"levelo://app?vid=18e7aed4-7cab-4e5f-b147-5c98f8a1e192"},"vehicle_type_id":"4","last_reported":1768417915,"current_range_meters":3200,"station_id":"ce4bhsh2rcd13ifvqi2g","pricing_plan_id":"cebpf4jnsgd1na2vs0mg"},{"bike_id":"f386e451-0ff7-4c2a-a6cd-27139c57272a","system_id":"levelo_inurba_marseille","lat":43.28524,"lon":5.44102,"is_reserved":false,"is_disabled":false,"rental_uris":{"android":"levelo://app?vid=f386e451-0ff7-4c2a-a6cd-27139c57272a","ios":"levelo://app?vid=f386e451-0ff7-4c2a-a6cd-27139c57272a"},"vehicle_type_id":"4","last_reported":1768417915,"current_range_meters":3200,"station_id":"st_d3j3df2ikq2c7380ej80","pricing_plan_id":"cebpf4jnsgd1na2vs0mg"},{"bike_id":"a7e67cc2-25a2-4d1a-b4d3-840dbc96a58f","system_id":"levelo_inurba_marseille","lat":43.27191,"lon":5.40986,"is_reserved":false,"is_disabled":false,"rental_uris":{"android":"levelo://app?vid=a7e67cc2-25a2-4d1a-b4d3-840dbc96a58f","ios":"levelo://app?vid=a7e67cc2-25a2-4d1a-b4d3-840dbc96a58f"},"vehicle_type_id":"4","last_reported":1768417915,"current_range_meters":3200,"station_id":"ce4bhl12rcd13ifvqgf0","pricing_plan_id":"cebpf4jnsgd1na2vs0mg"},{"bike_id":"a13913c1-57e8-4dca-a8ac-931afc1935d1","system_id":"levelo_inurba_marseille","lat":43.24829,"lon":5.3742,"is_reserved":false,"is_disabled":false,"rental_uris":{"android":"levelo://app?vid=a13913c1-57e8-4dca-a8ac-931afc1935d1","ios":"levelo://app?vid=a13913c1-57e8-4dca-a8ac-931afc1935d1"},"vehicle_type_id":"4","last_reported":1768417915,"current_range_meters":3200,"station_id":"ce4bhgh2rcd13ifvqfb0","pricing_plan_id":"cebpf4jnsgd1na2vs0mg"},{"bike_id":"4da4b9b5-8e34-4a21-a7eb-76e6a1792527","system_id":"levelo_inurba_marseille","lat":43.28246,"lon":5.43015,"is_reserved":false,"is_disabled":false,"rental_uris":{"android":"levelo://app?vid=4da4b9b5-8e34-4a21-a7eb-76e6a1792527","ios":"levelo://app?vid=4da4b9b5-8e34-4a21-a7eb-76e6a1792527"},"vehicle_type_id":"4","last_reported":1768417915,"current_range_meters":3200,"station_id":"","pricing_plan_id":"cebpf4jnsgd1na2vs0mg"},{"bike_id":"94662b27-fd0d-4dcb-a6dd-4146d7e92691","system_id":"levelo_inurba_marseille","lat":43.275469,"lon":5.384163,"is_reserved":false,"is_disabled":false,"rental_uris":{"android":"levelo://app?vid=94662b27-fd0d-4dcb-a6dd-4146d7e92691","ios":"levelo://app?vid=94662b27-fd0d-4dcb-a6dd-4146d7e92691"},"vehicle_type_id":"4","last_reported":1768417915,"current_range_meters":3200,"station_id":"ce4bhh92rcd13ifvqfi0","pricing_plan_id":"cebpf4jnsgd1na2vs0mg"},{"bike_id":"558052e6-097f-426d-8153-2bfb24e2750b","system_id":"levelo_inurba_marseille","lat":43.25506,"lon":5.37656,"is_reserved":false,"is_disabled":false,"rental_uris":{"android":"levelo://app?vid=558052e6-097f-426d-8153-2bfb24e2750b","ios":"levelo://app?vid=558052e6-097f-426d-8153-2bfb24e2750b"},"vehicle_type_id":"4","last_reported":1768417915,"current_range_meters":3200,"station_id":"ce4bhh12rcd13ifvqff0","pricing_plan_id":"cebpf4jnsgd1na2vs0mg"},{"bike_id":"291127fb-d9b3-43d4-ba32-f86b40f38e8f","system_id":"levelo_inurba_marseille","lat":43.295197,"lon":5.390357,"is_reserved":false,"is_disabled":false,"rental_uris":{"android":"levelo://app?vid=291127fb-d9b3-43d4-ba32-f86b40f38e8f","ios":"levelo://app?vid=291127fb-d9b3-43d4-ba32-f86b40f38e8f"},"vehicle_type_id":"4","last_reported":1768417915,"current_range_meters":3200,"station_id":"ce4bh3p2rcd13ifvqdp0","pricing_plan_id":"cebpf4jnsgd1na2vs0mg"},{"bike_id":"443eae92-c2df-4ef7-b7ff-576bec5f299a","system_id":"levelo_inurba_marseille","lat":43.29731,"lon":5.38445,"is_reserved":false,"is_disabled":false,"rental_uris":{"android":"levelo://app?vid=443eae92-c2df-4ef7-b7ff-576bec5f299a","ios":"levelo://app?vid=443eae92-c2df-4ef7-b7ff-576bec5f299a"},"vehicle_type_id":"4","last_reported":1768417915,"current_range_meters":3200,"station_id":"","pricing_plan_id":"cebpf4jnsgd1na2vs0mg"},{"bike_id":"5a7b835a-1edf-4fb8-9d61-1d0640668731","system_id":"levelo_inurba_marseille","lat":43.2757,"lon":5.38419,"is_reserved":false,"is_disabled":false,"rental_uris":{"android":"levelo://app?vid=5a7b835a-1edf-4fb8-9d61-1d0640668731","ios":"levelo://app?vid=5a7b835a-1edf-4fb8-9d61-1d0640668731"},"vehicle_type_id":"4","last_reported":1768417915,"current_range_meters":3200,"station_id":"ce4bhh92rcd13ifvqfi0","pricing_plan_id":"cebpf4jnsgd1na2vs0mg"},{"bike_id":"bb4f56e7-d256-4072-b033-fff4c9a32025","system_id":"levelo_inurba_marseille","lat":43.281064,"lon":5.3784,"is_reserved":false,"is_disabled":false,"rental_uris":{"android":"levelo://app?vid=bb4f56e7-d256-4072-b033-fff4c9a32025","ios":"levelo://app?vid=bb4f56e7-d256-4072-b033-fff4c9a32025"},"vehicle_type_id":"4","last_reported":1768417915,"current_range_meters":3200,"station_id":"ce4bha12rcd13ifvqee0","pricing_plan_id":"cebpf4jnsgd1na2vs0mg"},{"bike_id":"b8ab46a7-cc15-459a-956b-68d8d5ad27fd","system_id":"levelo_inurba_marseille","lat":43.29596,"lon":5.38102,"is_reserved":false,"is_disabled":false,"rental_uris":{"android":"levelo://app?vid=b8ab46a7-cc15-459a-956b-68d8d5ad27fd","ios":"levelo://app?vid=b8ab46a7-cc15-459a-956b-68d8d5ad27fd"},"vehicle_type_id":"4","last_reported":1768417915,"current_range_meters":3200,"station_id":"ce4bgl12rcd13ifvqbo0","pricing_plan_id":"cebpf4jnsgd1na2vs0mg"},{"bike_id":"fcbf66b8-e213-47eb-941f-db22161a1760","system_id":"levelo_inurba_marseille","lat":43.32521,"lon":5.36879,"is_reserved":false,"is_disabled":false,"rental_uris":{"android":"levelo://app?vid=fcbf66b8-e213-47eb-941f-db22161a1760","ios":"levelo://app?vid=fcbf66b8-e213-47eb-941f-db22161a1760"},"vehicle_type_id":"4","last_reported":1768417915,"current_range_meters":3200,"station_id":"","pricing_plan_id":"cebpf4jnsgd1na2vs0mg"},{"bike_id":"835331d6-6087-47db-a190-2b8f7a73e5a9","system_id":"levelo_inurba_marseille","lat":43.30546,"lon":5.36693,"is_reserved":false,"is_disabled":false,"rental_uris":{"android":"levelo://app?vid=835331d6-6087-47db-a190-2b8f7a73e5a9","ios":"levelo://app?vid=835331d6-6087-47db-a190-2b8f7a73e5a9"},"vehicle_type_id":"4","last_reported":1768417915,"current_range_meters":3200,"station_id":"ce4bgrp2rcd13ifvqc9g","pricing_plan_id":"cebpf4jnsgd1na2vs0mg"},{"bike_id":"a31c8f9e-9708-4ea2-9e5d-05e3441bc85f","system_id":"levelo_inurba_marseille","lat":43.284784,"lon":5.483883,"is_reserved":false,"is_disabled":false,"rental_uris":{"android":"levelo://app?vid=a31c8f9e-9708-4ea2-9e5d-05e3441bc85f","ios":"levelo://app?vid=a31c8f9e-9708-4ea2-9e5d-05e3441bc85f"},"vehicle_type_id":"4","last_reported":1768417915,"current_range_meters":3200,"station_id":"","pricing_plan_id":"cebpf4jnsgd1na2vs0mg"},{"bike_id":"8b05a2e8-45ae-42cc-b5c8-d88863d780c4","system_id":"levelo_inurba_marseille","lat":43.28273,"lon":5.35062,"is_reserved":false,"is_disabled":false,"rental_uris":{"android":"levelo://app?vid=8b05a2e8-45ae-42cc-b5c8-d88863d780c4","ios":"levelo://app?vid=8b05a2e8-45ae-42cc-b5c8-d88863d780c4"},"vehicle_type_id":"4","last_reported":1768417915,"current_range_meters":3600,"station_id":"ce4bhbp2rcd13ifvqerg","pricing_plan_id":"cebpf4jnsgd1na2vs0mg"},{"bike_id":"5406af2b-09be-41cc-95b3-93372c70a543","system_id":"levelo_inurba_marseille","lat":43.28675,"lon":5.38671,"is_reserved":false,"is_disabled":false,"rental_uris":{"android":"levelo://app?vid=5406af2b-09be-41cc-95b3-93372c70a543","ios":"levelo://app?vid=5406af2b-09be-41cc-95b3-93372c70a543"},"vehicle_type_id":"4","last_reported":1768417915,"current_range_meters":3600,"station_id":"ce4bh492rcd13ifvqdug","pricing_plan_id":"cebpf4jnsgd1na2vs0mg"},{"bike_id":"e8cfc28a-48f8-4e3d-b2ad-bf8b4e3a48d8","system_id":"levelo_inurba_marseille","lat":43.28436,"lon":5.39185,"is_reserved":false,"is_disabled":false,"rental_uris":{"android":"levelo://app?vid=e8cfc28a-48f8-4e3d-b2ad-bf8b4e3a48d8","ios":"levelo://app?vid=e8cfc28a-48f8-4e3d-b2ad-bf8b4e3a48d8"},"vehicle_type_id":"4","last_reported":1768417915,"current_range_meters":3600,"station_id":"ce4bhoh2rcd13ifvqh5g","pricing_plan_id":"cebpf4jnsgd1na2vs0mg"},{"bike_id":"988898f4-9f2f-4c83-8935-c2cdd80dcda2","system_id":"levelo_inurba_marseille","lat":43.29919,"lon":5.37481,"is_reserved":false,"is_disabled":false,"rental_uris":{"android":"levelo://app?vid=988898f4-9f2f-4c83-8935-c2cdd80dcda2","ios":"levelo://app?vid=988898f4-9f2f-4c83-8935-c2cdd80dcda2"},"vehicle_type_id":"4","last_reported":1768417915,"current_range_meters":3600,"station_id":"ce4bgjh2rcd13ifvqbg0","pricing_plan_id":"cebpf4jnsgd1na2vs0mg"},{"bike_id":"0018a145-5229-40b3-8721-56b2cedfd3d6","system_id":"levelo_inurba_marseille","lat":43.27995,"lon":5.3997,"is_reserved":false,"is_disabled":false,"rental_uris":{"android":"levelo://app?vid=0018a145-5229-40b3-8721-56b2cedfd3d6","ios":"levelo://app?vid=0018a145-5229-40b3-8721-56b2cedfd3d6"},"vehicle_type_id":"4","last_reported":1768417915,"current_range_meters":3600,"station_id":"ce4bho92rcd13ifvqh4g","pricing_plan_id":"cebpf4jnsgd1na2vs0mg"},{"bike_id":"7dd1d8e7-5022-463f-b173-f03ecce952da","system_id":"levelo_inurba_marseille","lat":43.21753,"lon":5.346,"is_reserved":false,"is_disabled":false,"rental_uris":{"android":"levelo://app?vid=7dd1d8e7-5022-463f-b173-f03ecce952da","ios":"levelo://app?vid=7dd1d8e7-5022-463f-b173-f03ecce952da"},"vehicle_type_id":"4","last_reported":1768417915,"current_range_meters":3600,"station_id":"st_cvj6r9ubvosntc0bgbag","pricing_plan_id":"cebpf4jnsgd1na2vs0mg"},{"bike_id":"38bdf550-e761-400f-86e1-91e88977b292","system_id":"levelo_inurba_marseille","lat":43.29574,"lon":5.37518,"is_reserved":false,"is_disabled":false,"rental_uris":{"android":"levelo://app?vid=38bdf550-e761-400f-86e1-91e88977b292","ios":"levelo://app?vid=38bdf550-e761-400f-86e1-91e88977b292"},"vehicle_type_id":"4","last_reported":1768417915,"current_range_meters":3600,"station_id":"ce4bgh92rcd13ifvqb50","pricing_plan_id":"cebpf4jnsgd1na2vs0mg"},{"bike_id":"2a4902eb-7636-4f73-bfa8-746f36026232","system_id":"levelo_inurba_marseille","lat":43.27551,"lon":5.38399,"is_reserved":false,"is_disabled":false,"rental_uris":{"android":"levelo://app?vid=2a4902eb-7636-4f73-bfa8-746f36026232","ios":"levelo://app?vid=2a4902eb-7636-4f73-bfa8-746f36026232"},"vehicle_type_id":"4","last_reported":1768417915,"current_range_meters":3600,"station_id":"ce4bhh92rcd13ifvqfi0","pricing_plan_id":"cebpf4jnsgd1na2vs0mg"},{"bike_id":"cf1a2b59-226b-4245-a8d1-2fb3f6543e1e","system_id":"levelo_inurba_marseille","lat":43.2909,"lon":5.38155,"is_reserved":false,"is_disabled":false,"rental_uris":{"android":"levelo://app?vid=cf1a2b59-226b-4245-a8d1-2fb3f6543e1e","ios":"levelo://app?vid=cf1a2b59-226b-4245-a8d1-2fb3f6543e1e"},"vehicle_type_id":"4","last_reported":1768417915,"current_range_meters":3600,"station_id":"ce4bh512rcd13ifvqe2g","pricing_plan_id":"cebpf4jnsgd1na2vs0mg"},{"bike_id":"d3bf1a93-83e9-469d-930b-57d68435608c","system_id":"levelo_inurba_marseille","lat":43.29027,"lon":5.38636,"is_reserved":false,"is_disabled":false,"rental_uris":{"android":"levelo://app?vid=d3bf1a93-83e9-469d-930b-57d68435608c","ios":"levelo://app?vid=d3bf1a93-83e9-469d-930b-57d68435608c"},"vehicle_type_id":"4","last_reported":1768417915,"current_range_meters":3600,"station_id":"ce4bh4p2rcd13ifvqe0g","pricing_plan_id":"cebpf4jnsgd1na2vs0mg"},{"bike_id":"506f9145-6186-4b8d-a6fc-ce263e3b8202","system_id":"levelo_inurba_marseille","lat":43.26561,"lon":5.3728,"is_reserved":false,"is_disabled":false,"rental_uris":{"android":"levelo://app?vid=506f9145-6186-4b8d-a6fc-ce263e3b8202","ios":"levelo://app?vid=506f9145-6186-4b8d-a6fc-ce263e3b8202"},"vehicle_type_id":"4","last_reported":1768417915,"current_range_meters":3600,"station_id":"ce4bhg12rcd13ifvqf70","pricing_plan_id":"cebpf4jnsgd1na2vs0mg"},{"bike_id":"d3ee0296-c8be-4189-a096-4b01ce1b3f31","system_id":"levelo_inurba_marseille","lat":43.2397,"lon":5.36627,"is_reserved":false,"is_disabled":false,"rental_uris":{"android":"levelo://app?vid=d3ee0296-c8be-4189-a096-4b01ce1b3f31","ios":"levelo://app?vid=d3ee0296-c8be-4189-a096-4b01ce1b3f31"},"vehicle_type_id":"4","last_reported":1768417915,"current_range_meters":3600,"station_id":"ce4bhi12rcd13ifvqfp0","pricing_plan_id":"cebpf4jnsgd1na2vs0mg"},{"bike_id":"117294f2-ec6a-46a6-99cc-3e8d1ac352f5","system_id":"levelo_inurba_marseille","lat":43.28355,"lon":5.38104,"is_reserved":false,"is_disabled":false,"rental_uris":{"android":"levelo://app?vid=117294f2-ec6a-46a6-99cc-3e8d1ac352f5","ios":"levelo://app?vid=117294f2-ec6a-46a6-99cc-3e8d1ac352f5"},"vehicle_type_id":"4","last_reported":1768417915,"current_range_meters":3600,"station_id":"ce4bh412rcd13ifvqdr0","pricing_plan_id":"cebpf4jnsgd1na2vs0mg"},{"bike_id":"e4668e1e-0361-4957-8673-f44d9c7006d7","system_id":"levelo_inurba_marseille","lat":43.31042,"lon":5.37172,"is_reserved":false,"is_disabled":false,"rental_uris":{"android":"levelo://app?vid=e4668e1e-0361-4957-8673-f44d9c7006d7","ios":"levelo://app?vid=e4668e1e-0361-4957-8673-f44d9c7006d7"},"vehicle_type_id":"4","last_reported":1768417915,"current_range_meters":3600,"station_id":"st_d4kl2rp97mjs73e7tdfg","pricing_plan_id":"cebpf4jnsgd1na2vs0mg"},{"bike_id":"0fac9386-5217-484c-8e69-737335be657c","system_id":"levelo_inurba_marseille","lat":43.30924,"lon":5.36851,"is_reserved":false,"is_disabled":false,"rental_uris":{"android":"levelo://app?vid=0fac9386-5217-484c-8e69-737335be657c","ios":"levelo://app?vid=0fac9386-5217-484c-8e69-737335be657c"},"vehicle_type_id":"4","last_reported":1768417915,"current_range_meters":3600,"station_id":"ce4bgn92rcd13ifvqbvg","pricing_plan_id":"cebpf4jnsgd1na2vs0mg"},{"bike_id":"db446451-0502-4bf3-97a5-f79d027c07c3","system_id":"levelo_inurba_marseille","lat":43.27007,"lon":5.39868,"is_reserved":false,"is_disabled":false,"rental_uris":{"android":"levelo://app?vid=db446451-0502-4bf3-97a5-f79d027c07c3","ios":"levelo://app?vid=db446451-0502-4bf3-97a5-f79d027c07c3"},"vehicle_type_id":"4","last_reported":1768417915,"current_range_meters":3600,"station_id":"","pricing_plan_id":"cebpf4jnsgd1na2vs0mg"},{"bike_id":"0ab483f6-2c64-4f01-82ac-b52f13aaff16","system_id":"levelo_inurba_marseille","lat":43.33011,"lon":5.39019,"is_reserved":false,"is_disabled":false,"rental_uris":{"android":"levelo://app?vid=0ab483f6-2c64-4f01-82ac-b52f13aaff16","ios":"levelo://app?vid=0ab483f6-2c64-4f01-82ac-b52f13aaff16"},"vehicle_type_id":"4","last_reported":1768417915,"current_range_meters":4000,"station_id":"ce4bhr92rcd13ifvqhrg","pricing_plan_id":"cebpf4jnsgd1na2vs0mg"},{"bike_id":"2d40e6f1-44fd-40a0-9a93-8476dc686620","system_id":"levelo_inurba_marseille","lat":43.289121,"lon":5.384152,"is_reserved":false,"is_disabled":false,"rental_uris":{"android":"levelo://app?vid=2d40e6f1-44fd-40a0-9a93-8476dc686620","ios":"levelo://app?vid=2d40e6f1-44fd-40a0-9a93-8476dc686620"},"vehicle_type_id":"4","last_reported":1768417915,"current_range_meters":4000,"station_id":"ce4bh612rcd13ifvqe6g","pricing_plan_id":"cebpf4jnsgd1na2vs0mg"},{"bike_id":"179bfeeb-85a9-495c-9fe6-4e1411235062","system_id":"levelo_inurba_marseille","lat":43.29283,"lon":5.401136,"is_reserved":false,"is_disabled":false,"rental_uris":{"android":"levelo://app?vid=179bfeeb-85a9-495c-9fe6-4e1411235062","ios":"levelo://app?vid=179bfeeb-85a9-495c-9fe6-4e1411235062"},"vehicle_type_id":"4","last_reported":1768417915,"current_range_meters":4000,"station_id":"ce4bh312rcd13ifvqdk0","pricing_plan_id":"cebpf4jnsgd1na2vs0mg"},{"bike_id":"ecf8cb8a-a92c-4fef-b938-1a1e2d6ebde6","system_id":"levelo_inurba_marseille","lat":43.29483,"lon":5.43303,"is_reserved":false,"is_disabled":false,"rental_uris":{"android":"levelo://app?vid=ecf8cb8a-a92c-4fef-b938-1a1e2d6ebde6","ios":"levelo://app?vid=ecf8cb8a-a92c-4fef-b938-1a1e2d6ebde6"},"vehicle_type_id":"4","last_reported":1768417915,"current_range_meters":4000,"station_id":"st_d3j5ugp08ojc73fj9d10","pricing_plan_id":"cebpf4jnsgd1na2vs0mg"},{"bike_id":"ee49e0f4-bd58-441c-ba9c-8d72fff3df5f","system_id":"levelo_inurba_marseille","lat":43.2816,"lon":5.42643,"is_reserved":false,"is_disabled":false,"rental_uris":{"android":"levelo://app?vid=ee49e0f4-bd58-441c-ba9c-8d72fff3df5f","ios":"levelo://app?vid=ee49e0f4-bd58-441c-ba9c-8d72fff3df5f"},"vehicle_type_id":"4","last_reported":1768417915,"current_range_meters":4000,"station_id":"ce4bhnh2rcd13ifvqgug","pricing_plan_id":"cebpf4jnsgd1na2vs0mg"},{"bike_id":"27f242f3-3ae7-4945-8a79-3968179ff814","system_id":"levelo_inurba_marseille","lat":43.32458,"lon":5.36587,"is_reserved":false,"is_disabled":false,"rental_uris":{"android":"levelo://app?vid=27f242f3-3ae7-4945-8a79-3968179ff814","ios":"levelo://app?vid=27f242f3-3ae7-4945-8a79-3968179ff814"},"vehicle_type_id":"4","last_reported":1768417915,"current_range_meters":4000,"station_id":"ce4bhs12rcd13ifvqhvg","pricing_plan_id":"cebpf4jnsgd1na2vs0mg"},{"bike_id":"ea7f32b6-7877-46fd-82b1-7ebc9194a1fd","system_id":"levelo_inurba_marseille","lat":43.21752,"lon":5.34592,"is_reserved":false,"is_disabled":false,"rental_uris":{"android":"levelo://app?vid=ea7f32b6-7877-46fd-82b1-7ebc9194a1fd","ios":"levelo://app?vid=ea7f32b6-7877-46fd-82b1-7ebc9194a1fd"},"vehicle_type_id":"4","last_reported":1768417915,"current_range_meters":4000,"station_id":"","pricing_plan_id":"cebpf4jnsgd1na2vs0mg"},{"bike_id":"04054ca8-8442-4d3a-ad11-8193b9b1be3f","system_id":"levelo_inurba_marseille","lat":43.28494,"lon":5.38412,"is_reserved":false,"is_disabled":false,"rental_uris":{"android":"levelo://app?vid=04054ca8-8442-4d3a-ad11-8193b9b1be3f","ios":"levelo://app?vid=04054ca8-8442-4d3a-ad11-8193b9b1be3f"},"vehicle_type_id":"4","last_reported":1768417915,"current_range_meters":4000,"station_id":"ce4bh512rcd13ifvqe3g","pricing_plan_id":"cebpf4jnsgd1na2vs0mg"},{"bike_id":"eec182c8-f3b0-44cd-b3c1-80ac9cc3b591","system_id":"levelo_inurba_marseille","lat":43.274218,"lon":5.394117,"is_reserved":false,"is_disabled":false,"rental_uris":{"android":"levelo://app?vid=eec182c8-f3b0-44cd-b3c1-80ac9cc3b591","ios":"levelo://app?vid=eec182c8-f3b0-44cd-b3c1-80ac9cc3b591"},"vehicle_type_id":"4","last_reported":1768417915,"current_range_meters":4000,"station_id":"ce4bhdp2rcd13ifvqf20","pricing_plan_id":"cebpf4jnsgd1na2vs0mg"},{"bike_id":"936570bf-e455-479b-ab9d-421b36b3f09d","system_id":"levelo_inurba_marseille","lat":43.23193,"lon":5.35555,"is_reserved":false,"is_disabled":false,"rental_uris":{"android":"levelo://app?vid=936570bf-e455-479b-ab9d-421b36b3f09d","ios":"levelo://app?vid=936570bf-e455-479b-ab9d-421b36b3f09d"},"vehicle_type_id":"4","last_reported":1768417915,"current_range_meters":4000,"station_id":"ce4bhu92rcd13ifvqi70","pricing_plan_id":"cebpf4jnsgd1na2vs0mg"},{"bike_id":"36a733f6-6482-4a23-86da-be8aeea55b1c","system_id":"levelo_inurba_marseille","lat":43.27171,"lon":5.40991,"is_reserved":false,"is_disabled":false,"rental_uris":{"android":"levelo://app?vid=36a733f6-6482-4a23-86da-be8aeea55b1c","ios":"levelo://app?vid=36a733f6-6482-4a23-86da-be8aeea55b1c"},"vehicle_type_id":"4","last_reported":1768417915,"current_range_meters":4400,"station_id":"ce4bhl12rcd13ifvqgf0","pricing_plan_id":"cebpf4jnsgd1na2vs0mg"},{"bike_id":"6f0825b2-5213-4961-9178-d2bbd5f338de","system_id":"levelo_inurba_marseille","lat":43.301392,"lon":5.38064,"is_reserved":false,"is_disabled":false,"rental_uris":{"android":"levelo://app?vid=6f0825b2-5213-4961-9178-d2bbd5f338de","ios":"levelo://app?vid=6f0825b2-5213-4961-9178-d2bbd5f338de"},"vehicle_type_id":"4","last_reported":1768417915,"current_range_meters":4400,"station_id":"ce4bgjp2rcd13ifvqbh0","pricing_plan_id":"cebpf4jnsgd1na2vs0mg"},{"bike_id":"1cada60d-67ba-40f7-97c1-1a320d055880","system_id":"levelo_inurba_marseille","lat":43.27811,"lon":5.40706,"is_reserved":false,"is_disabled":false,"rental_uris":{"android":"levelo://app?vid=1cada60d-67ba-40f7-97c1-1a320d055880","ios":"levelo://app?vid=1cada60d-67ba-40f7-97c1-1a320d055880"},"vehicle_type_id":"4","last_reported":1768417915,"current_range_meters":4400,"station_id":"ce4bhnh2rcd13ifvqgtg","pricing_plan_id":"cebpf4jnsgd1na2vs0mg"},{"bike_id":"0e90d51b-5071-4a42-a270-6759fe02b547","system_id":"levelo_inurba_marseille","lat":43.23166,"lon":5.39991,"is_reserved":false,"is_disabled":false,"rental_uris":{"android":"levelo://app?vid=0e90d51b-5071-4a42-a270-6759fe02b547","ios":"levelo://app?vid=0e90d51b-5071-4a42-a270-6759fe02b547"},"vehicle_type_id":"4","last_reported":1768417915,"current_range_meters":4400,"station_id":"ce4bhn12rcd13ifvqgqg","pricing_plan_id":"cebpf4jnsgd1na2vs0mg"},{"bike_id":"3404bccf-9c80-4b8a-a317-bfba72ba953d","system_id":"levelo_inurba_marseille","lat":43.30305,"lon":5.40074,"is_reserved":false,"is_disabled":false,"rental_uris":{"android":"levelo://app?vid=3404bccf-9c80-4b8a-a317-bfba72ba953d","ios":"levelo://app?vid=3404bccf-9c80-4b8a-a317-bfba72ba953d"},"vehicle_type_id":"4","last_reported":1768417915,"current_range_meters":4400,"station_id":"ce4bgvh2rcd13ifvqcs0","pricing_plan_id":"cebpf4jnsgd1na2vs0mg"},{"bike_id":"da6cbef4-7c46-40d0-96e9-33832ad88539","system_id":"levelo_inurba_marseille","lat":43.29525,"lon":5.39033,"is_reserved":false,"is_disabled":false,"rental_uris":{"android":"levelo://app?vid=da6cbef4-7c46-40d0-96e9-33832ad88539","ios":"levelo://app?vid=da6cbef4-7c46-40d0-96e9-33832ad88539"},"vehicle_type_id":"4","last_reported":1768417915,"current_range_meters":4400,"station_id":"ce4bh3p2rcd13ifvqdp0","pricing_plan_id":"cebpf4jnsgd1na2vs0mg"},{"bike_id":"645f4da6-7f74-495f-94c5-d8d617d966b5","system_id":"levelo_inurba_marseille","lat":43.2953,"lon":5.39402,"is_reserved":false,"is_disabled":false,"rental_uris":{"android":"levelo://app?vid=645f4da6-7f74-495f-94c5-d8d617d966b5","ios":"levelo://app?vid=645f4da6-7f74-495f-94c5-d8d617d966b5"},"vehicle_type_id":"4","last_reported":1768417915,"current_range_meters":4400,"station_id":"ce4bh292rcd13ifvqdf0","pricing_plan_id":"cebpf4jnsgd1na2vs0mg"},{"bike_id":"0f5f4915-35b7-4639-ab63-f51a53ac94b7","system_id":"levelo_inurba_marseille","lat":43.30191,"lon":5.39306,"is_reserved":false,"is_disabled":false,"rental_uris":{"android":"levelo://app?vid=0f5f4915-35b7-4639-ab63-f51a53ac94b7","ios":"levelo://app?vid=0f5f4915-35b7-4639-ab63-f51a53ac94b7"},"vehicle_type_id":"4","last_reported":1768417915,"current_range_meters":4400,"station_id":"","pricing_plan_id":"cebpf4jnsgd1na2vs0mg"},{"bike_id":"0c051b49-c337-496f-95f2-306c76414e4b","system_id":"levelo_inurba_marseille","lat":43.27998,"lon":5.41673,"is_reserved":false,"is_disabled":false,"rental_uris":{"android":"levelo://app?vid=0c051b49-c337-496f-95f2-306c76414e4b","ios":"levelo://app?vid=0c051b49-c337-496f-95f2-306c76414e4b"},"vehicle_type_id":"4","last_reported":1768417915,"current_range_meters":4400,"station_id":"ce4bho12rcd13ifvqh1g","pricing_plan_id":"cebpf4jnsgd1na2vs0mg"},{"bike_id":"fbb57768-1033-4e36-b99c-cc792276c5e6","system_id":"levelo_inurba_marseille","lat":43.24654,"lon":5.38873,"is_reserved":false,"is_disabled":false,"rental_uris":{"android":"levelo://app?vid=fbb57768-1033-4e36-b99c-cc792276c5e6","ios":"levelo://app?vid=fbb57768-1033-4e36-b99c-cc792276c5e6"},"vehicle_type_id":"4","last_reported":1768417915,"current_range_meters":4400,"station_id":"ce4bhg12rcd13ifvqf60","pricing_plan_id":"cebpf4jnsgd1na2vs0mg"},{"bike_id":"947dfb90-ecb8-4caa-b588-f5069f5e7f1e","system_id":"levelo_inurba_marseille","lat":43.30151,"lon":5.3988,"is_reserved":false,"is_disabled":false,"rental_uris":{"android":"levelo://app?vid=947dfb90-ecb8-4caa-b588-f5069f5e7f1e","ios":"levelo://app?vid=947dfb90-ecb8-4caa-b588-f5069f5e7f1e"},"vehicle_type_id":"4","last_reported":1768417915,"current_range_meters":4400,"station_id":"ce4bh0h2rcd13ifvqd40","pricing_plan_id":"cebpf4jnsgd1na2vs0mg"},{"bike_id":"de027a80-547d-476f-9cfb-66f7eff7331a","system_id":"levelo_inurba_marseille","lat":43.28475,"lon":5.38419,"is_reserved":false,"is_disabled":false,"rental_uris":{"android":"levelo://app?vid=de027a80-547d-476f-9cfb-66f7eff7331a","ios":"levelo://app?vid=de027a80-547d-476f-9cfb-66f7eff7331a"},"vehicle_type_id":"4","last_reported":1768417915,"current_range_meters":4400,"station_id":"ce4bh512rcd13ifvqe3g","pricing_plan_id":"cebpf4jnsgd1na2vs0mg"},{"bike_id":"82bcedd6-309a-497a-a7f1-1a56f690a1c2","system_id":"levelo_inurba_marseille","lat":43.28568,"lon":5.39489,"is_reserved":false,"is_disabled":false,"rental_uris":{"android":"levelo://app?vid=82bcedd6-309a-497a-a7f1-1a56f690a1c2","ios":"levelo://app?vid=82bcedd6-309a-497a-a7f1-1a56f690a1c2"},"vehicle_type_id":"4","last_reported":1768417915,"current_range_meters":4400,"station_id":"ce4bh292rcd13ifvqdg0","pricing_plan_id":"cebpf4jnsgd1na2vs0mg"},{"bike_id":"7747021f-744b-444f-8146-fc9e69d13df8","system_id":"levelo_inurba_marseille","lat":43.29697,"lon":5.37295,"is_reserved":false,"is_disabled":false,"rental_uris":{"android":"levelo://app?vid=7747021f-744b-444f-8146-fc9e69d13df8","ios":"levelo://app?vid=7747021f-744b-444f-8146-fc9e69d13df8"},"vehicle_type_id":"4","last_reported":1768417915,"current_range_meters":4400,"station_id":"ce4bgk12rcd13ifvqbj0","pricing_plan_id":"cebpf4jnsgd1na2vs0mg"},{"bike_id":"5359c5bb-7a7b-4fc7-8935-274e566c3b74","system_id":"levelo_inurba_marseille","lat":43.31366,"lon":5.38492,"is_reserved":false,"is_disabled":false,"rental_uris":{"android":"levelo://app?vid=5359c5bb-7a7b-4fc7-8935-274e566c3b74","ios":"levelo://app?vid=5359c5bb-7a7b-4fc7-8935-274e566c3b74"},"vehicle_type_id":"4","last_reported":1768417915,"current_range_meters":4400,"station_id":"ce4bgt92rcd13ifvqcf0","pricing_plan_id":"cebpf4jnsgd1na2vs0mg"},{"bike_id":"12b01a91-f62d-4b10-aaf5-a2f39cd66b09","system_id":"levelo_inurba_marseille","lat":43.25329,"lon":5.42163,"is_reserved":false,"is_disabled":false,"rental_uris":{"android":"levelo://app?vid=12b01a91-f62d-4b10-aaf5-a2f39cd66b09","ios":"levelo://app?vid=12b01a91-f62d-4b10-aaf5-a2f39cd66b09"},"vehicle_type_id":"4","last_reported":1768417915,"current_range_meters":4800,"station_id":"st_d2m65c5bi1j21697t3ng","pricing_plan_id":"cebpf4jnsgd1na2vs0mg"},{"bike_id":"81dc6096-3df8-4d56-9d00-0a8704382a47","system_id":"levelo_inurba_marseille","lat":43.25512,"lon":5.37653,"is_reserved":false,"is_disabled":false,"rental_uris":{"android":"levelo://app?vid=81dc6096-3df8-4d56-9d00-0a8704382a47","ios":"levelo://app?vid=81dc6096-3df8-4d56-9d00-0a8704382a47"},"vehicle_type_id":"4","last_reported":1768417915,"current_range_meters":4800,"station_id":"ce4bhh12rcd13ifvqff0","pricing_plan_id":"cebpf4jnsgd1na2vs0mg"},{"bike_id":"8048922b-6191-4e9c-af9d-c2be2541db5e","system_id":"levelo_inurba_marseille","lat":43.29207,"lon":5.39319,"is_reserved":false,"is_disabled":false,"rental_uris":{"android":"levelo://app?vid=8048922b-6191-4e9c-af9d-c2be2541db5e","ios":"levelo://app?vid=8048922b-6191-4e9c-af9d-c2be2541db5e"},"vehicle_type_id":"4","last_reported":1768417915,"current_range_meters":4800,"station_id":"ce4bh192rcd13ifvqdd0","pricing_plan_id":"cebpf4jnsgd1na2vs0mg"},{"bike_id":"08422ae4-32ae-4b34-98dd-2035d5b640e2","system_id":"levelo_inurba_marseille","lat":43.27621,"lon":5.36105,"is_reserved":false,"is_disabled":false,"rental_uris":{"android":"levelo://app?vid=08422ae4-32ae-4b34-98dd-2035d5b640e2","ios":"levelo://app?vid=08422ae4-32ae-4b34-98dd-2035d5b640e2"},"vehicle_type_id":"4","last_reported":1768417915,"current_range_meters":4800,"station_id":"ce4bgj92rcd13ifvqbe0","pricing_plan_id":"cebpf4jnsgd1na2vs0mg"},{"bike_id":"b5b04f01-16df-4339-a950-0c9ef8d26e30","system_id":"levelo_inurba_marseille","lat":43.30924,"lon":5.40152,"is_reserved":false,"is_disabled":false,"rental_uris":{"android":"levelo://app?vid=b5b04f01-16df-4339-a950-0c9ef8d26e30","ios":"levelo://app?vid=b5b04f01-16df-4339-a950-0c9ef8d26e30"},"vehicle_type_id":"4","last_reported":1768417915,"current_range_meters":4800,"station_id":"ce4bgvp2rcd13ifvqct0","pricing_plan_id":"cebpf4jnsgd1na2vs0mg"},{"bike_id":"3e527a83-2b4f-4053-a77a-ca04d7a24bec","system_id":"levelo_inurba_marseille","lat":43.25489,"lon":5.37627,"is_reserved":false,"is_disabled":false,"rental_uris":{"android":"levelo://app?vid=3e527a83-2b4f-4053-a77a-ca04d7a24bec","ios":"levelo://app?vid=3e527a83-2b4f-4053-a77a-ca04d7a24bec"},"vehicle_type_id":"4","last_reported":1768417915,"current_range_meters":4800,"station_id":"ce4bhh12rcd13ifvqff0","pricing_plan_id":"cebpf4jnsgd1na2vs0mg"},{"bike_id":"e1824dd6-bb04-4c9c-aca7-9f917cae1f5e","system_id":"levelo_inurba_marseille","lat":43.269424,"lon":5.38608,"is_reserved":false,"is_disabled":false,"rental_uris":{"android":"levelo://app?vid=e1824dd6-bb04-4c9c-aca7-9f917cae1f5e","ios":"levelo://app?vid=e1824dd6-bb04-4c9c-aca7-9f917cae1f5e"},"vehicle_type_id":"4","last_reported":1768417915,"current_range_meters":4800,"station_id":"ce4bhh92rcd13ifvqfh0","pricing_plan_id":"cebpf4jnsgd1na2vs0mg"},{"bike_id":"1dc24260-9495-4d3b-8600-8c14cf565032","system_id":"levelo_inurba_marseille","lat":43.279168,"lon":5.395782,"is_reserved":false,"is_disabled":false,"rental_uris":{"android":"levelo://app?vid=1dc24260-9495-4d3b-8600-8c14cf565032","ios":"levelo://app?vid=1dc24260-9495-4d3b-8600-8c14cf565032"},"vehicle_type_id":"4","last_reported":1768417915,"current_range_meters":4800,"station_id":"ce4bhf92rcd13ifvqf40","pricing_plan_id":"cebpf4jnsgd1na2vs0mg"},{"bike_id":"6d5b743f-0d0d-4728-9aac-92cae33bf20c","system_id":"levelo_inurba_marseille","lat":43.25575,"lon":5.38224,"is_reserved":false,"is_disabled":false,"rental_uris":{"android":"levelo://app?vid=6d5b743f-0d0d-4728-9aac-92cae33bf20c","ios":"levelo://app?vid=6d5b743f-0d0d-4728-9aac-92cae33bf20c"},"vehicle_type_id":"4","last_reported":1768417915,"current_range_meters":4800,"station_id":"ce4bhih2rcd13ifvqfs0","pricing_plan_id":"cebpf4jnsgd1na2vs0mg"},{"bike_id":"68a0804d-6796-46aa-9ade-a76afcc1601b","system_id":"levelo_inurba_marseille","lat":43.28555,"lon":5.38389,"is_reserved":false,"is_disabled":false,"rental_uris":{"android":"levelo://app?vid=68a0804d-6796-46aa-9ade-a76afcc1601b","ios":"levelo://app?vid=68a0804d-6796-46aa-9ade-a76afcc1601b"},"vehicle_type_id":"4","last_reported":1768417915,"current_range_meters":4800,"station_id":"","pricing_plan_id":"cebpf4jnsgd1na2vs0mg"},{"bike_id":"4a921c3e-b076-4d8e-b486-d84abf8a81a5","system_id":"levelo_inurba_marseille","lat":43.30125,"lon":5.43107,"is_reserved":false,"is_disabled":false,"rental_uris":{"android":"levelo://app?vid=4a921c3e-b076-4d8e-b486-d84abf8a81a5","ios":"levelo://app?vid=4a921c3e-b076-4d8e-b486-d84abf8a81a5"},"vehicle_type_id":"4","last_reported":1768417915,"current_range_meters":4800,"station_id":"st_d3js3co5814s73ftftug","pricing_plan_id":"cebpf4jnsgd1na2vs0mg"},{"bike_id":"217bd7c8-17b6-47d2-974c-0c95d327eb81","system_id":"levelo_inurba_marseille","lat":43.24966,"lon":5.40502,"is_reserved":false,"is_disabled":false,"rental_uris":{"android":"levelo://app?vid=217bd7c8-17b6-47d2-974c-0c95d327eb81","ios":"levelo://app?vid=217bd7c8-17b6-47d2-974c-0c95d327eb81"},"vehicle_type_id":"4","last_reported":1768417915,"current_range_meters":4800,"station_id":"st_d2ngiaodas8pm72gd1h0","pricing_plan_id":"cebpf4jnsgd1na2vs0mg"},{"bike_id":"ee0826a0-d691-4bf1-9eb8-9ed46fc12966","system_id":"levelo_inurba_marseille","lat":43.270752,"lon":5.42286,"is_reserved":false,"is_disabled":false,"rental_uris":{"android":"levelo://app?vid=ee0826a0-d691-4bf1-9eb8-9ed46fc12966","ios":"levelo://app?vid=ee0826a0-d691-4bf1-9eb8-9ed46fc12966"},"vehicle_type_id":"4","last_reported":1768417915,"current_range_meters":4800,"station_id":"ce4bhk92rcd13ifvqgb0","pricing_plan_id":"cebpf4jnsgd1na2vs0mg"},{"bike_id":"4f011a11-bcc6-477e-b8a4-e9b5b75b57ee","system_id":"levelo_inurba_marseille","lat":43.3022,"lon":5.39447,"is_reserved":false,"is_disabled":false,"rental_uris":{"android":"levelo://app?vid=4f011a11-bcc6-477e-b8a4-e9b5b75b57ee","ios":"levelo://app?vid=4f011a11-bcc6-477e-b8a4-e9b5b75b57ee"},"vehicle_type_id":"4","last_reported":1768417915,"current_range_meters":4800,"station_id":"ce4bh0p2rcd13ifvqd70","pricing_plan_id":"cebpf4jnsgd1na2vs0mg"},{"bike_id":"1f526bbd-5429-4c08-9e88-6d485c2ad115","system_id":"levelo_inurba_marseille","lat":43.31053,"lon":5.38337,"is_reserved":false,"is_disabled":false,"rental_uris":{"android":"levelo://app?vid=1f526bbd-5429-4c08-9e88-6d485c2ad115","ios":"levelo://app?vid=1f526bbd-5429-4c08-9e88-6d485c2ad115"},"vehicle_type_id":"4","last_reported":1768417915,"current_range_meters":4800,"station_id":"ce4bgv92rcd13ifvqcr0","pricing_plan_id":"cebpf4jnsgd1na2vs0mg"},{"bike_id":"5a9e6a13-0f62-4502-b0ad-4a7fbef16b59","system_id":"levelo_inurba_marseille","lat":43.30426,"lon":5.39749,"is_reserved":false,"is_disabled":false,"rental_uris":{"android":"levelo://app?vid=5a9e6a13-0f62-4502-b0ad-4a7fbef16b59","ios":"levelo://app?vid=5a9e6a13-0f62-4502-b0ad-4a7fbef16b59"},"vehicle_type_id":"4","last_reported":1768417915,"current_range_meters":4800,"station_id":"ce4bh092rcd13ifvqd20","pricing_plan_id":"cebpf4jnsgd1na2vs0mg"},{"bike_id":"50a1bbb2-b220-4347-b220-21a6c3b0d057","system_id":"levelo_inurba_marseille","lat":43.258246,"lon":5.394408,"is_reserved":false,"is_disabled":false,"rental_uris":{"android":"levelo://app?vid=50a1bbb2-b220-4347-b220-21a6c3b0d057","ios":"levelo://app?vid=50a1bbb2-b220-4347-b220-21a6c3b0d057"},"vehicle_type_id":"4","last_reported":1768417915,"current_range_meters":4800,"station_id":"","pricing_plan_id":"cebpf4jnsgd1na2vs0mg"},{"bike_id":"d10c3e03-17c1-4a18-84d3-e167ce7531e2","system_id":"levelo_inurba_marseille","lat":43.323499,"lon":5.367505,"is_reserved":false,"is_disabled":false,"rental_uris":{"android":"levelo://app?vid=d10c3e03-17c1-4a18-84d3-e167ce7531e2","ios":"levelo://app?vid=d10c3e03-17c1-4a18-84d3-e167ce7531e2"},"vehicle_type_id":"4","last_reported":1768417915,"current_range_meters":4800,"station_id":"ce4bhsh2rcd13ifvqi2g","pricing_plan_id":"cebpf4jnsgd1na2vs0mg"},{"bike_id":"4e36cba6-913e-4ae5-8f84-0b1187daa240","system_id":"levelo_inurba_marseille","lat":43.24667,"lon":5.38163,"is_reserved":false,"is_disabled":false,"rental_uris":{"android":"levelo://app?vid=4e36cba6-913e-4ae5-8f84-0b1187daa240","ios":"levelo://app?vid=4e36cba6-913e-4ae5-8f84-0b1187daa240"},"vehicle_type_id":"4","last_reported":1768417915,"current_range_meters":4800,"station_id":"ce4bhih2rcd13ifvqfr0","pricing_plan_id":"cebpf4jnsgd1na2vs0mg"},{"bike_id":"67c67945-91bb-4bb5-b2e1-22bf6d48bee4","system_id":"levelo_inurba_marseille","lat":43.31327,"lon":5.39687,"is_reserved":false,"is_disabled":false,"rental_uris":{"android":"levelo://app?vid=67c67945-91bb-4bb5-b2e1-22bf6d48bee4","ios":"levelo://app?vid=67c67945-91bb-4bb5-b2e1-22bf6d48bee4"},"vehicle_type_id":"4","last_reported":1768417915,"current_range_meters":4800,"station_id":"ce4bgvp2rcd13ifvqcu0","pricing_plan_id":"cebpf4jnsgd1na2vs0mg"},{"bike_id":"c7aba9bc-d367-4928-a872-2b7b60a0e5db","system_id":"levelo_inurba_marseille","lat":43.28156,"lon":5.4264,"is_reserved":false,"is_disabled":false,"rental_uris":{"android":"levelo://app?vid=c7aba9bc-d367-4928-a872-2b7b60a0e5db","ios":"levelo://app?vid=c7aba9bc-d367-4928-a872-2b7b60a0e5db"},"vehicle_type_id":"4","last_reported":1768417915,"current_range_meters":4800,"station_id":"ce4bhnh2rcd13ifvqgug","pricing_plan_id":"cebpf4jnsgd1na2vs0mg"},{"bike_id":"edfaa63e-7871-49bf-bd58-3bdd5d63f4d7","system_id":"levelo_inurba_marseille","lat":43.26564,"lon":5.40323,"is_reserved":false,"is_disabled":false,"rental_uris":{"android":"levelo://app?vid=edfaa63e-7871-49bf-bd58-3bdd5d63f4d7","ios":"levelo://app?vid=edfaa63e-7871-49bf-bd58-3bdd5d63f4d7"},"vehicle_type_id":"4","last_reported":1768417915,"current_range_meters":4800,"station_id":"ce4bhmp2rcd13ifvqgng","pricing_plan_id":"cebpf4jnsgd1na2vs0mg"},{"bike_id":"7fb92e6f-a424-4ffc-abb2-da7fcf05d915","system_id":"levelo_inurba_marseille","lat":43.27827,"lon":5.40702,"is_reserved":false,"is_disabled":false,"rental_uris":{"android":"levelo://app?vid=7fb92e6f-a424-4ffc-abb2-da7fcf05d915","ios":"levelo://app?vid=7fb92e6f-a424-4ffc-abb2-da7fcf05d915"},"vehicle_type_id":"4","last_reported":1768417915,"current_range_meters":5600,"station_id":"ce4bhnh2rcd13ifvqgtg","pricing_plan_id":"cebpf4jnsgd1na2vs0mg"},{"bike_id":"ff1e20fa-84b0-41c9-9d49-6081e242e43e","system_id":"levelo_inurba_marseille","lat":43.24808,"lon":5.37457,"is_reserved":false,"is_disabled":false,"rental_uris":{"android":"levelo://app?vid=ff1e20fa-84b0-41c9-9d49-6081e242e43e","ios":"levelo://app?vid=ff1e20fa-84b0-41c9-9d49-6081e242e43e"},"vehicle_type_id":"4","last_reported":1768417915,"current_range_meters":5600,"station_id":"ce4bhgh2rcd13ifvqfb0","pricing_plan_id":"cebpf4jnsgd1na2vs0mg"},{"bike_id":"2dcbaafa-dc26-4d5a-9923-60da74220ab7","system_id":"levelo_inurba_marseille","lat":43.263705,"lon":5.410836,"is_reserved":false,"is_disabled":false,"rental_uris":{"android":"levelo://app?vid=2dcbaafa-dc26-4d5a-9923-60da74220ab7","ios":"levelo://app?vid=2dcbaafa-dc26-4d5a-9923-60da74220ab7"},"vehicle_type_id":"4","last_reported":1768417915,"current_range_meters":5600,"station_id":"","pricing_plan_id":"cebpf4jnsgd1na2vs0mg"},{"bike_id":"2663c4b7-8968-4f97-b018-c26b8a7be62f","system_id":"levelo_inurba_marseille","lat":43.27375,"lon":5.36241,"is_reserved":false,"is_disabled":false,"rental_uris":{"android":"levelo://app?vid=2663c4b7-8968-4f97-b018-c26b8a7be62f","ios":"levelo://app?vid=2663c4b7-8968-4f97-b018-c26b8a7be62f"},"vehicle_type_id":"4","last_reported":1768417915,"current_range_meters":5600,"station_id":"ce4bhbh2rcd13ifvqeo0","pricing_plan_id":"cebpf4jnsgd1na2vs0mg"},{"bike_id":"9148e495-684a-4dd6-a190-4fcfead1094f","system_id":"levelo_inurba_marseille","lat":43.29167,"lon":5.37144,"is_reserved":false,"is_disabled":false,"rental_uris":{"android":"levelo://app?vid=9148e495-684a-4dd6-a190-4fcfead1094f","ios":"levelo://app?vid=9148e495-684a-4dd6-a190-4fcfead1094f"},"vehicle_type_id":"4","last_reported":1768417915,"current_range_meters":5600,"station_id":"ce4bha92rcd13ifvqeh0","pricing_plan_id":"cebpf4jnsgd1na2vs0mg"},{"bike_id":"323bdf5a-fc85-45ab-8b18-361a392bbea5","system_id":"levelo_inurba_marseille","lat":43.2996,"lon":5.37929,"is_reserved":false,"is_disabled":false,"rental_uris":{"android":"levelo://app?vid=323bdf5a-fc85-45ab-8b18-361a392bbea5","ios":"levelo://app?vid=323bdf5a-fc85-45ab-8b18-361a392bbea5"},"vehicle_type_id":"4","last_reported":1768417915,"current_range_meters":5600,"station_id":"","pricing_plan_id":"cebpf4jnsgd1na2vs0mg"},{"bike_id":"ef2f35c2-0eab-40b1-8c17-8194d5183ee8","system_id":"levelo_inurba_marseille","lat":43.2799,"lon":5.40009,"is_reserved":false,"is_disabled":false,"rental_uris":{"android":"levelo://app?vid=ef2f35c2-0eab-40b1-8c17-8194d5183ee8","ios":"levelo://app?vid=ef2f35c2-0eab-40b1-8c17-8194d5183ee8"},"vehicle_type_id":"4","last_reported":1768417915,"current_range_meters":5600,"station_id":"ce4bho92rcd13ifvqh4g","pricing_plan_id":"cebpf4jnsgd1na2vs0mg"},{"bike_id":"a0f9b52c-bbb7-4f7a-b55f-b65905b6c8ef","system_id":"levelo_inurba_marseille","lat":43.24956,"lon":5.40495,"is_reserved":false,"is_disabled":false,"rental_uris":{"android":"levelo://app?vid=a0f9b52c-bbb7-4f7a-b55f-b65905b6c8ef","ios":"levelo://app?vid=a0f9b52c-bbb7-4f7a-b55f-b65905b6c8ef"},"vehicle_type_id":"4","last_reported":1768417915,"current_range_meters":5600,"station_id":"st_d2ngiaodas8pm72gd1h0","pricing_plan_id":"cebpf4jnsgd1na2vs0mg"},{"bike_id":"0fc190e9-b1ca-4830-804f-6df5163742c8","system_id":"levelo_inurba_marseille","lat":43.32482,"lon":5.36569,"is_reserved":false,"is_disabled":false,"rental_uris":{"android":"levelo://app?vid=0fc190e9-b1ca-4830-804f-6df5163742c8","ios":"levelo://app?vid=0fc190e9-b1ca-4830-804f-6df5163742c8"},"vehicle_type_id":"4","last_reported":1768417915,"current_range_meters":5600,"station_id":"ce4bhs12rcd13ifvqhvg","pricing_plan_id":"cebpf4jnsgd1na2vs0mg"},{"bike_id":"2469529a-4c4f-45b7-b2ce-c4433e05b931","system_id":"levelo_inurba_marseille","lat":43.2848,"lon":5.48392,"is_reserved":false,"is_disabled":false,"rental_uris":{"android":"levelo://app?vid=2469529a-4c4f-45b7-b2ce-c4433e05b931","ios":"levelo://app?vid=2469529a-4c4f-45b7-b2ce-c4433e05b931"},"vehicle_type_id":"4","last_reported":1768417915,"current_range_meters":5600,"station_id":"st_d3svhcjqgbts73a3dn0g","pricing_plan_id":"cebpf4jnsgd1na2vs0mg"},{"bike_id":"b0591438-4f8b-458b-95d3-396e832bb098","system_id":"levelo_inurba_marseille","lat":43.22552,"lon":5.41622,"is_reserved":false,"is_disabled":false,"rental_uris":{"android":"levelo://app?vid=b0591438-4f8b-458b-95d3-396e832bb098","ios":"levelo://app?vid=b0591438-4f8b-458b-95d3-396e832bb098"},"vehicle_type_id":"4","last_reported":1768417915,"current_range_meters":5600,"station_id":"st_d2o4gvlbi1j2169b742g","pricing_plan_id":"cebpf4jnsgd1na2vs0mg"},{"bike_id":"6009104c-31f9-43b2-a50d-d12419701de2","system_id":"levelo_inurba_marseille","lat":43.27058,"lon":5.38301,"is_reserved":false,"is_disabled":false,"rental_uris":{"android":"levelo://app?vid=6009104c-31f9-43b2-a50d-d12419701de2","ios":"levelo://app?vid=6009104c-31f9-43b2-a50d-d12419701de2"},"vehicle_type_id":"4","last_reported":1768417915,"current_range_meters":5600,"station_id":"st_d3n2fo6cfp8s73cte1j0","pricing_plan_id":"cebpf4jnsgd1na2vs0mg"},{"bike_id":"d169c4ba-2a03-4d6d-8762-0ba9df3953bf","system_id":"levelo_inurba_marseille","lat":43.2119,"lon":5.35058,"is_reserved":false,"is_disabled":false,"rental_uris":{"android":"levelo://app?vid=d169c4ba-2a03-4d6d-8762-0ba9df3953bf","ios":"levelo://app?vid=d169c4ba-2a03-4d6d-8762-0ba9df3953bf"},"vehicle_type_id":"4","last_reported":1768417915,"current_range_meters":5600,"station_id":"st_cvj6sg6p6f1abm77japg","pricing_plan_id":"cebpf4jnsgd1na2vs0mg"},{"bike_id":"f34fcef3-6312-48c1-a649-c0bae145eacb","system_id":"levelo_inurba_marseille","lat":43.30197,"lon":5.36623,"is_reserved":false,"is_disabled":false,"rental_uris":{"android":"levelo://app?vid=f34fcef3-6312-48c1-a649-c0bae145eacb","ios":"levelo://app?vid=f34fcef3-6312-48c1-a649-c0bae145eacb"},"vehicle_type_id":"4","last_reported":1768417915,"current_range_meters":5600,"station_id":"ce4bgrh2rcd13ifvqc8g","pricing_plan_id":"cebpf4jnsgd1na2vs0mg"},{"bike_id":"4cbe6817-41d5-4295-ac68-5094fd4e61f7","system_id":"levelo_inurba_marseille","lat":43.278369,"lon":5.392116,"is_reserved":false,"is_disabled":false,"rental_uris":{"android":"levelo://app?vid=4cbe6817-41d5-4295-ac68-5094fd4e61f7","ios":"levelo://app?vid=4cbe6817-41d5-4295-ac68-5094fd4e61f7"},"vehicle_type_id":"4","last_reported":1768417915,"current_range_meters":5600,"station_id":"ce4bhjp2rcd13ifvqga0","pricing_plan_id":"cebpf4jnsgd1na2vs0mg"},{"bike_id":"3b4d42ca-c202-4764-9dcb-4e71eae36f47","system_id":"levelo_inurba_marseille","lat":43.28701,"lon":5.39972,"is_reserved":false,"is_disabled":false,"rental_uris":{"android":"levelo://app?vid=3b4d42ca-c202-4764-9dcb-4e71eae36f47","ios":"levelo://app?vid=3b4d42ca-c202-4764-9dcb-4e71eae36f47"},"vehicle_type_id":"4","last_reported":1768417915,"current_range_meters":6000,"station_id":"ce4bho92rcd13ifvqh3g","pricing_plan_id":"cebpf4jnsgd1na2vs0mg"},{"bike_id":"2ee0fab5-7040-4975-9414-0b1e23a72b5b","system_id":"levelo_inurba_marseille","lat":43.32357,"lon":5.36747,"is_reserved":false,"is_disabled":false,"rental_uris":{"android":"levelo://app?vid=2ee0fab5-7040-4975-9414-0b1e23a72b5b","ios":"levelo://app?vid=2ee0fab5-7040-4975-9414-0b1e23a72b5b"},"vehicle_type_id":"4","last_reported":1768417915,"current_range_meters":6000,"station_id":"ce4bhsh2rcd13ifvqi2g","pricing_plan_id":"cebpf4jnsgd1na2vs0mg"},{"bike_id":"dc322333-4210-467d-8d9e-d322d0c44168","system_id":"levelo_inurba_marseille","lat":43.24999,"lon":5.38925,"is_reserved":false,"is_disabled":false,"rental_uris":{"android":"levelo://app?vid=dc322333-4210-467d-8d9e-d322d0c44168","ios":"levelo://app?vid=dc322333-4210-467d-8d9e-d322d0c44168"},"vehicle_type_id":"4","last_reported":1768417915,"current_range_meters":6000,"station_id":"ce4bhgp2rcd13ifvqfd0","pricing_plan_id":"cebpf4jnsgd1na2vs0mg"},{"bike_id":"d8e03ef6-0c5e-49db-943c-98c26bf654da","system_id":"levelo_inurba_marseille","lat":43.29953,"lon":5.37434,"is_reserved":false,"is_disabled":false,"rental_uris":{"android":"levelo://app?vid=d8e03ef6-0c5e-49db-943c-98c26bf654da","ios":"levelo://app?vid=d8e03ef6-0c5e-49db-943c-98c26bf654da"},"vehicle_type_id":"4","last_reported":1768417915,"current_range_meters":6000,"station_id":"ce4bgjh2rcd13ifvqbg0","pricing_plan_id":"cebpf4jnsgd1na2vs0mg"},{"bike_id":"b7d0b5e4-2242-4c21-8af1-9ebebe7ab55f","system_id":"levelo_inurba_marseille","lat":43.29024,"lon":5.38644,"is_reserved":false,"is_disabled":false,"rental_uris":{"android":"levelo://app?vid=b7d0b5e4-2242-4c21-8af1-9ebebe7ab55f","ios":"levelo://app?vid=b7d0b5e4-2242-4c21-8af1-9ebebe7ab55f"},"vehicle_type_id":"4","last_reported":1768417915,"current_range_meters":6000,"station_id":"","pricing_plan_id":"cebpf4jnsgd1na2vs0mg"},{"bike_id":"f90b66d8-7ec0-4b35-997a-ab70de47e1d5","system_id":"levelo_inurba_marseille","lat":43.32479,"lon":5.36564,"is_reserved":false,"is_disabled":false,"rental_uris":{"android":"levelo://app?vid=f90b66d8-7ec0-4b35-997a-ab70de47e1d5","ios":"levelo://app?vid=f90b66d8-7ec0-4b35-997a-ab70de47e1d5"},"vehicle_type_id":"4","last_reported":1768417915,"current_range_meters":6000,"station_id":"ce4bhs12rcd13ifvqhvg","pricing_plan_id":"cebpf4jnsgd1na2vs0mg"},{"bike_id":"70f376c4-4aaf-4518-b4ba-3235eefc08ff","system_id":"levelo_inurba_marseille","lat":43.30554,"lon":5.36552,"is_reserved":false,"is_disabled":false,"rental_uris":{"android":"levelo://app?vid=70f376c4-4aaf-4518-b4ba-3235eefc08ff","ios":"levelo://app?vid=70f376c4-4aaf-4518-b4ba-3235eefc08ff"},"vehicle_type_id":"4","last_reported":1768417915,"current_range_meters":6000,"station_id":"ce4bgs12rcd13ifvqcag","pricing_plan_id":"cebpf4jnsgd1na2vs0mg"},{"bike_id":"0496460c-cd9f-43fd-8720-c5e183ef0a0e","system_id":"levelo_inurba_marseille","lat":43.23785,"lon":5.36625,"is_reserved":false,"is_disabled":false,"rental_uris":{"android":"levelo://app?vid=0496460c-cd9f-43fd-8720-c5e183ef0a0e","ios":"levelo://app?vid=0496460c-cd9f-43fd-8720-c5e183ef0a0e"},"vehicle_type_id":"4","last_reported":1768417915,"current_range_meters":6000,"station_id":"st_d3nk18o9ro0c73en2l3g","pricing_plan_id":"cebpf4jnsgd1na2vs0mg"},{"bike_id":"a0b3c393-788e-427a-ba12-453c908bd9de","system_id":"levelo_inurba_marseille","lat":43.22928,"lon":5.35369,"is_reserved":false,"is_disabled":false,"rental_uris":{"android":"levelo://app?vid=a0b3c393-788e-427a-ba12-453c908bd9de","ios":"levelo://app?vid=a0b3c393-788e-427a-ba12-453c908bd9de"},"vehicle_type_id":"4","last_reported":1768417915,"current_range_meters":6000,"station_id":"cpo3532slgdg3j2ikp40","pricing_plan_id":"cebpf4jnsgd1na2vs0mg"},{"bike_id":"50547617-0bbd-44b0-aa6e-7b2c204ea77d","system_id":"levelo_inurba_marseille","lat":43.29247,"lon":5.37627,"is_reserved":false,"is_disabled":false,"rental_uris":{"android":"levelo://app?vid=50547617-0bbd-44b0-aa6e-7b2c204ea77d","ios":"levelo://app?vid=50547617-0bbd-44b0-aa6e-7b2c204ea77d"},"vehicle_type_id":"4","last_reported":1768417915,"current_range_meters":6000,"station_id":"ce4bgi12rcd13ifvqb80","pricing_plan_id":"cebpf4jnsgd1na2vs0mg"},{"bike_id":"a2c3fda5-fb1e-4329-88c2-2e7960229574","system_id":"levelo_inurba_marseille","lat":43.31203,"lon":5.40305,"is_reserved":false,"is_disabled":false,"rental_uris":{"android":"levelo://app?vid=a2c3fda5-fb1e-4329-88c2-2e7960229574","ios":"levelo://app?vid=a2c3fda5-fb1e-4329-88c2-2e7960229574"},"vehicle_type_id":"4","last_reported":1768417915,"current_range_meters":6000,"station_id":"","pricing_plan_id":"cebpf4jnsgd1na2vs0mg"},{"bike_id":"cb91171a-b433-4d62-9e48-7aa16e13fdf7","system_id":"levelo_inurba_marseille","lat":43.29754,"lon":5.42779,"is_reserved":false,"is_disabled":false,"rental_uris":{"android":"levelo://app?vid=cb91171a-b433-4d62-9e48-7aa16e13fdf7","ios":"levelo://app?vid=cb91171a-b433-4d62-9e48-7aa16e13fdf7"},"vehicle_type_id":"4","last_reported":1768417915,"current_range_meters":6000,"station_id":"st_d3md5207bmas73dh9klg","pricing_plan_id":"cebpf4jnsgd1na2vs0mg"},{"bike_id":"f680f50c-74ae-434a-9907-5a62e8f7d3ec","system_id":"levelo_inurba_marseille","lat":43.30517,"lon":5.36685,"is_reserved":false,"is_disabled":false,"rental_uris":{"android":"levelo://app?vid=f680f50c-74ae-434a-9907-5a62e8f7d3ec","ios":"levelo://app?vid=f680f50c-74ae-434a-9907-5a62e8f7d3ec"},"vehicle_type_id":"4","last_reported":1768417915,"current_range_meters":6000,"station_id":"ce4bgrp2rcd13ifvqc9g","pricing_plan_id":"cebpf4jnsgd1na2vs0mg"},{"bike_id":"a4176048-8efc-4826-b382-6f7345053307","system_id":"levelo_inurba_marseille","lat":43.23192,"lon":5.39981,"is_reserved":false,"is_disabled":false,"rental_uris":{"android":"levelo://app?vid=a4176048-8efc-4826-b382-6f7345053307","ios":"levelo://app?vid=a4176048-8efc-4826-b382-6f7345053307"},"vehicle_type_id":"4","last_reported":1768417915,"current_range_meters":6000,"station_id":"ce4bhn12rcd13ifvqgqg","pricing_plan_id":"cebpf4jnsgd1na2vs0mg"},{"bike_id":"1ffb9e1e-839b-466c-bee6-b14226c93722","system_id":"levelo_inurba_marseille","lat":43.29155,"lon":5.37187,"is_reserved":false,"is_disabled":false,"rental_uris":{"android":"levelo://app?vid=1ffb9e1e-839b-466c-bee6-b14226c93722","ios":"levelo://app?vid=1ffb9e1e-839b-466c-bee6-b14226c93722"},"vehicle_type_id":"4","last_reported":1768417915,"current_range_meters":6000,"station_id":"ce4bha92rcd13ifvqeh0","pricing_plan_id":"cebpf4jnsgd1na2vs0mg"},{"bike_id":"80270136-cc67-4544-a56b-a048fa078834","system_id":"levelo_inurba_marseille","lat":43.30189,"lon":5.36601,"is_reserved":false,"is_disabled":false,"rental_uris":{"android":"levelo://app?vid=80270136-cc67-4544-a56b-a048fa078834","ios":"levelo://app?vid=80270136-cc67-4544-a56b-a048fa078834"},"vehicle_type_id":"4","last_reported":1768417915,"current_range_meters":6400,"station_id":"ce4bgrh2rcd13ifvqc8g","pricing_plan_id":"cebpf4jnsgd1na2vs0mg"},{"bike_id":"d125c364-98bc-405d-86b6-1ac16c7632c8","system_id":"levelo_inurba_marseille","lat":43.30456,"lon":5.379,"is_reserved":false,"is_disabled":false,"rental_uris":{"android":"levelo://app?vid=d125c364-98bc-405d-86b6-1ac16c7632c8","ios":"levelo://app?vid=d125c364-98bc-405d-86b6-1ac16c7632c8"},"vehicle_type_id":"4","last_reported":1768417915,"current_range_meters":6400,"station_id":"ce4bgup2rcd13ifvqcn0","pricing_plan_id":"cebpf4jnsgd1na2vs0mg"},{"bike_id":"c6e9de66-6afd-4a9f-9bd8-25d46ddbfedb","system_id":"levelo_inurba_marseille","lat":43.28998,"lon":5.35601,"is_reserved":false,"is_disabled":false,"rental_uris":{"android":"levelo://app?vid=c6e9de66-6afd-4a9f-9bd8-25d46ddbfedb","ios":"levelo://app?vid=c6e9de66-6afd-4a9f-9bd8-25d46ddbfedb"},"vehicle_type_id":"4","last_reported":1768417915,"current_range_meters":6400,"station_id":"ce4bhb92rcd13ifvqen0","pricing_plan_id":"cebpf4jnsgd1na2vs0mg"},{"bike_id":"8b02a200-1d1b-433b-929d-ae0dd3c70aa8","system_id":"levelo_inurba_marseille","lat":43.25335,"lon":5.42167,"is_reserved":false,"is_disabled":false,"rental_uris":{"android":"levelo://app?vid=8b02a200-1d1b-433b-929d-ae0dd3c70aa8","ios":"levelo://app?vid=8b02a200-1d1b-433b-929d-ae0dd3c70aa8"},"vehicle_type_id":"4","last_reported":1768417915,"current_range_meters":6400,"station_id":"st_d2m65c5bi1j21697t3ng","pricing_plan_id":"cebpf4jnsgd1na2vs0mg"},{"bike_id":"7c6a9f17-6978-46ee-b548-ce1177c61bff","system_id":"levelo_inurba_marseille","lat":43.30245,"lon":5.40055,"is_reserved":false,"is_disabled":false,"rental_uris":{"android":"levelo://app?vid=7c6a9f17-6978-46ee-b548-ce1177c61bff","ios":"levelo://app?vid=7c6a9f17-6978-46ee-b548-ce1177c61bff"},"vehicle_type_id":"4","last_reported":1768417915,"current_range_meters":6400,"station_id":"ce4bgvh2rcd13ifvqcs0","pricing_plan_id":"cebpf4jnsgd1na2vs0mg"},{"bike_id":"cfb63e50-a409-4cab-8013-6bb57bfec7c6","system_id":"levelo_inurba_marseille","lat":43.29018,"lon":5.38637,"is_reserved":false,"is_disabled":false,"rental_uris":{"android":"levelo://app?vid=cfb63e50-a409-4cab-8013-6bb57bfec7c6","ios":"levelo://app?vid=cfb63e50-a409-4cab-8013-6bb57bfec7c6"},"vehicle_type_id":"4","last_reported":1768417915,"current_range_meters":6400,"station_id":"ce4bh4p2rcd13ifvqe0g","pricing_plan_id":"cebpf4jnsgd1na2vs0mg"},{"bike_id":"a3a68054-3a27-4a78-8534-42fd98fd0061","system_id":"levelo_inurba_marseille","lat":43.25582,"lon":5.3824,"is_reserved":false,"is_disabled":false,"rental_uris":{"android":"levelo://app?vid=a3a68054-3a27-4a78-8534-42fd98fd0061","ios":"levelo://app?vid=a3a68054-3a27-4a78-8534-42fd98fd0061"},"vehicle_type_id":"4","last_reported":1768417915,"current_range_meters":6400,"station_id":"ce4bhih2rcd13ifvqfs0","pricing_plan_id":"cebpf4jnsgd1na2vs0mg"},{"bike_id":"3b8c8a0b-4403-4774-ac15-61e3b8ca695c","system_id":"levelo_inurba_marseille","lat":43.279999,"lon":5.400082,"is_reserved":false,"is_disabled":false,"rental_uris":{"android":"levelo://app?vid=3b8c8a0b-4403-4774-ac15-61e3b8ca695c","ios":"levelo://app?vid=3b8c8a0b-4403-4774-ac15-61e3b8ca695c"},"vehicle_type_id":"4","last_reported":1768417915,"current_range_meters":6400,"station_id":"ce4bho92rcd13ifvqh4g","pricing_plan_id":"cebpf4jnsgd1na2vs0mg"},{"bike_id":"326fd45d-11eb-4826-92b5-835d5b4d7fbd","system_id":"levelo_inurba_marseille","lat":43.300324,"lon":5.388794,"is_reserved":false,"is_disabled":false,"rental_uris":{"android":"levelo://app?vid=326fd45d-11eb-4826-92b5-835d5b4d7fbd","ios":"levelo://app?vid=326fd45d-11eb-4826-92b5-835d5b4d7fbd"},"vehicle_type_id":"4","last_reported":1768417915,"current_range_meters":6400,"station_id":"","pricing_plan_id":"cebpf4jnsgd1na2vs0mg"},{"bike_id":"6f06e6b3-a869-4347-9525-e6cdc60f369a","system_id":"levelo_inurba_marseille","lat":43.30211,"lon":5.39476,"is_reserved":false,"is_disabled":false,"rental_uris":{"android":"levelo://app?vid=6f06e6b3-a869-4347-9525-e6cdc60f369a","ios":"levelo://app?vid=6f06e6b3-a869-4347-9525-e6cdc60f369a"},"vehicle_type_id":"4","last_reported":1768417915,"current_range_meters":6400,"station_id":"ce4bh0p2rcd13ifvqd70","pricing_plan_id":"cebpf4jnsgd1na2vs0mg"},{"bike_id":"dbd86f85-5b5f-4ae9-8c1d-698ae30b47da","system_id":"levelo_inurba_marseille","lat":43.29685,"lon":5.36617,"is_reserved":false,"is_disabled":false,"rental_uris":{"android":"levelo://app?vid=dbd86f85-5b5f-4ae9-8c1d-698ae30b47da","ios":"levelo://app?vid=dbd86f85-5b5f-4ae9-8c1d-698ae30b47da"},"vehicle_type_id":"4","last_reported":1768417915,"current_range_meters":6400,"station_id":"ce4bgn12rcd13ifvqbt0","pricing_plan_id":"cebpf4jnsgd1na2vs0mg"},{"bike_id":"c584537b-62c7-4948-a162-60dcd0d33c4c","system_id":"levelo_inurba_marseille","lat":43.32358,"lon":5.36765,"is_reserved":false,"is_disabled":false,"rental_uris":{"android":"levelo://app?vid=c584537b-62c7-4948-a162-60dcd0d33c4c","ios":"levelo://app?vid=c584537b-62c7-4948-a162-60dcd0d33c4c"},"vehicle_type_id":"4","last_reported":1768417915,"current_range_meters":6400,"station_id":"ce4bhsh2rcd13ifvqi2g","pricing_plan_id":"cebpf4jnsgd1na2vs0mg"},{"bike_id":"ed927bfa-377c-4141-85f4-4e20ffbb3d49","system_id":"levelo_inurba_marseille","lat":43.29801,"lon":5.38094,"is_reserved":false,"is_disabled":false,"rental_uris":{"android":"levelo://app?vid=ed927bfa-377c-4141-85f4-4e20ffbb3d49","ios":"levelo://app?vid=ed927bfa-377c-4141-85f4-4e20ffbb3d49"},"vehicle_type_id":"4","last_reported":1768417915,"current_range_meters":6400,"station_id":"ce4bgip2rcd13ifvqbb0","pricing_plan_id":"cebpf4jnsgd1na2vs0mg"},{"bike_id":"11173b15-b2c5-412f-8a79-df05465fe56b","system_id":"levelo_inurba_marseille","lat":43.30538,"lon":5.36535,"is_reserved":false,"is_disabled":false,"rental_uris":{"android":"levelo://app?vid=11173b15-b2c5-412f-8a79-df05465fe56b","ios":"levelo://app?vid=11173b15-b2c5-412f-8a79-df05465fe56b"},"vehicle_type_id":"4","last_reported":1768417915,"current_range_meters":6400,"station_id":"ce4bgs12rcd13ifvqcag","pricing_plan_id":"cebpf4jnsgd1na2vs0mg"},{"bike_id":"2dfb6b27-1a9d-4365-8ea3-5579df8f7297","system_id":"levelo_inurba_marseille","lat":43.24989,"lon":5.3894,"is_reserved":false,"is_disabled":false,"rental_uris":{"android":"levelo://app?vid=2dfb6b27-1a9d-4365-8ea3-5579df8f7297","ios":"levelo://app?vid=2dfb6b27-1a9d-4365-8ea3-5579df8f7297"},"vehicle_type_id":"4","last_reported":1768417915,"current_range_meters":6400,"station_id":"ce4bhgp2rcd13ifvqfd0","pricing_plan_id":"cebpf4jnsgd1na2vs0mg"},{"bike_id":"f04f4335-e06f-412d-a464-1723aa4c86a4","system_id":"levelo_inurba_marseille","lat":43.2982,"lon":5.44068,"is_reserved":false,"is_disabled":true,"rental_uris":{"android":"levelo://app?vid=f04f4335-e06f-412d-a464-1723aa4c86a4","ios":"levelo://app?vid=f04f4335-e06f-412d-a464-1723aa4c86a4"},"vehicle_type_id":"4","last_reported":1768417915,"current_range_meters":6400,"station_id":"st_d3jp68qikq2c7381ktn0","pricing_plan_id":"cebpf4jnsgd1na2vs0mg"},{"bike_id":"a755d0b1-dc5a-4c88-a601-9967bcb5a20b","system_id":"levelo_inurba_marseille","lat":43.270408,"lon":5.422788,"is_reserved":false,"is_disabled":false,"rental_uris":{"android":"levelo://app?vid=a755d0b1-dc5a-4c88-a601-9967bcb5a20b","ios":"levelo://app?vid=a755d0b1-dc5a-4c88-a601-9967bcb5a20b"},"vehicle_type_id":"4","last_reported":1768417915,"current_range_meters":6400,"station_id":"ce4bhk92rcd13ifvqgb0","pricing_plan_id":"cebpf4jnsgd1na2vs0mg"},{"bike_id":"611cbb73-54c4-4011-a401-b601214ce58b","system_id":"levelo_inurba_marseille","lat":43.25586,"lon":5.38225,"is_reserved":false,"is_disabled":false,"rental_uris":{"android":"levelo://app?vid=611cbb73-54c4-4011-a401-b601214ce58b","ios":"levelo://app?vid=611cbb73-54c4-4011-a401-b601214ce58b"},"vehicle_type_id":"4","last_reported":1768417915,"current_range_meters":6400,"station_id":"ce4bhih2rcd13ifvqfs0","pricing_plan_id":"cebpf4jnsgd1na2vs0mg"},{"bike_id":"8990c8e7-efb9-4809-adf5-173eee2f703e","system_id":"levelo_inurba_marseille","lat":43.29258,"lon":5.38424,"is_reserved":false,"is_disabled":false,"rental_uris":{"android":"levelo://app?vid=8990c8e7-efb9-4809-adf5-173eee2f703e","ios":"levelo://app?vid=8990c8e7-efb9-4809-adf5-173eee2f703e"},"vehicle_type_id":"4","last_reported":1768417915,"current_range_meters":6400,"station_id":"ce4bh692rcd13ifvqea0","pricing_plan_id":"cebpf4jnsgd1na2vs0mg"},{"bike_id":"24efb5a7-6b5d-4a83-9c0c-4898b43ef941","system_id":"levelo_inurba_marseille","lat":43.28724,"lon":5.37963,"is_reserved":false,"is_disabled":false,"rental_uris":{"android":"levelo://app?vid=24efb5a7-6b5d-4a83-9c0c-4898b43ef941","ios":"levelo://app?vid=24efb5a7-6b5d-4a83-9c0c-4898b43ef941"},"vehicle_type_id":"4","last_reported":1768417915,"current_range_meters":6400,"station_id":"ce4bh9p2rcd13ifvqec0","pricing_plan_id":"cebpf4jnsgd1na2vs0mg"},{"bike_id":"c75b139b-6977-457c-8fab-86c172554976","system_id":"levelo_inurba_marseille","lat":43.25103,"lon":5.40455,"is_reserved":false,"is_disabled":false,"rental_uris":{"android":"levelo://app?vid=c75b139b-6977-457c-8fab-86c172554976","ios":"levelo://app?vid=c75b139b-6977-457c-8fab-86c172554976"},"vehicle_type_id":"4","last_reported":1768417915,"current_range_meters":6800,"station_id":"","pricing_plan_id":"cebpf4jnsgd1na2vs0mg"},{"bike_id":"5d7ebc84-6cbc-444a-98cd-1089c41e4417","system_id":"levelo_inurba_marseille","lat":43.284724,"lon":5.384229,"is_reserved":false,"is_disabled":false,"rental_uris":{"android":"levelo://app?vid=5d7ebc84-6cbc-444a-98cd-1089c41e4417","ios":"levelo://app?vid=5d7ebc84-6cbc-444a-98cd-1089c41e4417"},"vehicle_type_id":"4","last_reported":1768417915,"current_range_meters":6800,"station_id":"ce4bh512rcd13ifvqe3g","pricing_plan_id":"cebpf4jnsgd1na2vs0mg"},{"bike_id":"660f8d3d-996c-4d0c-a098-476ebc30f600","system_id":"levelo_inurba_marseille","lat":43.22562,"lon":5.41634,"is_reserved":false,"is_disabled":false,"rental_uris":{"android":"levelo://app?vid=660f8d3d-996c-4d0c-a098-476ebc30f600","ios":"levelo://app?vid=660f8d3d-996c-4d0c-a098-476ebc30f600"},"vehicle_type_id":"4","last_reported":1768417915,"current_range_meters":6800,"station_id":"st_d2o4gvlbi1j2169b742g","pricing_plan_id":"cebpf4jnsgd1na2vs0mg"},{"bike_id":"ad5dd703-9acd-4741-9054-424002db856a","system_id":"levelo_inurba_marseille","lat":43.29255,"lon":5.38438,"is_reserved":false,"is_disabled":false,"rental_uris":{"android":"levelo://app?vid=ad5dd703-9acd-4741-9054-424002db856a","ios":"levelo://app?vid=ad5dd703-9acd-4741-9054-424002db856a"},"vehicle_type_id":"4","last_reported":1768417915,"current_range_meters":6800,"station_id":"ce4bh692rcd13ifvqea0","pricing_plan_id":"cebpf4jnsgd1na2vs0mg"},{"bike_id":"1c368511-4dc5-413e-9320-5c9141f9acf7","system_id":"levelo_inurba_marseille","lat":43.26389,"lon":5.39872,"is_reserved":false,"is_disabled":true,"rental_uris":{"android":"levelo://app?vid=1c368511-4dc5-413e-9320-5c9141f9acf7","ios":"levelo://app?vid=1c368511-4dc5-413e-9320-5c9141f9acf7"},"vehicle_type_id":"4","last_reported":1768417915,"current_range_meters":6800,"station_id":"","pricing_plan_id":"cebpf4jnsgd1na2vs0mg"},{"bike_id":"6a2cea38-a98b-4ded-ab60-20d113ce05e0","system_id":"levelo_inurba_marseille","lat":43.25502,"lon":5.37656,"is_reserved":false,"is_disabled":false,"rental_uris":{"android":"levelo://app?vid=6a2cea38-a98b-4ded-ab60-20d113ce05e0","ios":"levelo://app?vid=6a2cea38-a98b-4ded-ab60-20d113ce05e0"},"vehicle_type_id":"4","last_reported":1768417915,"current_range_meters":6800,"station_id":"ce4bhh12rcd13ifvqff0","pricing_plan_id":"cebpf4jnsgd1na2vs0mg"},{"bike_id":"dc80c252-d0f8-4b39-9a5a-d73e84fe0a50","system_id":"levelo_inurba_marseille","lat":43.312339,"lon":5.368425,"is_reserved":false,"is_disabled":false,"rental_uris":{"android":"levelo://app?vid=dc80c252-d0f8-4b39-9a5a-d73e84fe0a50","ios":"levelo://app?vid=dc80c252-d0f8-4b39-9a5a-d73e84fe0a50"},"vehicle_type_id":"4","last_reported":1768417915,"current_range_meters":6800,"station_id":"ce4bgl92rcd13ifvqbq0","pricing_plan_id":"cebpf4jnsgd1na2vs0mg"},{"bike_id":"d20167ee-8cbc-49ab-af6b-c1cb4acb6cb2","system_id":"levelo_inurba_marseille","lat":43.24389,"lon":5.37066,"is_reserved":false,"is_disabled":false,"rental_uris":{"android":"levelo://app?vid=d20167ee-8cbc-49ab-af6b-c1cb4acb6cb2","ios":"levelo://app?vid=d20167ee-8cbc-49ab-af6b-c1cb4acb6cb2"},"vehicle_type_id":"4","last_reported":1768417915,"current_range_meters":6800,"station_id":"ce4bhhh2rcd13ifvqfk0","pricing_plan_id":"cebpf4jnsgd1na2vs0mg"},{"bike_id":"8803a6e9-67a3-479e-b849-a893754260d5","system_id":"levelo_inurba_marseille","lat":43.22928,"lon":5.35369,"is_reserved":false,"is_disabled":false,"rental_uris":{"android":"levelo://app?vid=8803a6e9-67a3-479e-b849-a893754260d5","ios":"levelo://app?vid=8803a6e9-67a3-479e-b849-a893754260d5"},"vehicle_type_id":"4","last_reported":1768417915,"current_range_meters":6800,"station_id":"cpo3532slgdg3j2ikp40","pricing_plan_id":"cebpf4jnsgd1na2vs0mg"},{"bike_id":"0665935c-dca2-4743-9854-4ec43ea3499b","system_id":"levelo_inurba_marseille","lat":43.27052,"lon":5.40249,"is_reserved":false,"is_disabled":false,"rental_uris":{"android":"levelo://app?vid=0665935c-dca2-4743-9854-4ec43ea3499b","ios":"levelo://app?vid=0665935c-dca2-4743-9854-4ec43ea3499b"},"vehicle_type_id":"4","last_reported":1768417915,"current_range_meters":6800,"station_id":"ce4bhk92rcd13ifvqgc0","pricing_plan_id":"cebpf4jnsgd1na2vs0mg"},{"bike_id":"e7d502f9-ee09-4b2b-b4e9-231066f0a411","system_id":"levelo_inurba_marseille","lat":43.26933,"lon":5.40261,"is_reserved":false,"is_disabled":false,"rental_uris":{"android":"levelo://app?vid=e7d502f9-ee09-4b2b-b4e9-231066f0a411","ios":"levelo://app?vid=e7d502f9-ee09-4b2b-b4e9-231066f0a411"},"vehicle_type_id":"4","last_reported":1768417915,"current_range_meters":6800,"station_id":"cjm6bp8fraef2m0cb0m0","pricing_plan_id":"cebpf4jnsgd1na2vs0mg"},{"bike_id":"32a6fb2e-0d07-41f5-98d9-49c5a72b9745","system_id":"levelo_inurba_marseille","lat":43.25834,"lon":5.39403,"is_reserved":false,"is_disabled":false,"rental_uris":{"android":"levelo://app?vid=32a6fb2e-0d07-41f5-98d9-49c5a72b9745","ios":"levelo://app?vid=32a6fb2e-0d07-41f5-98d9-49c5a72b9745"},"vehicle_type_id":"4","last_reported":1768417915,"current_range_meters":6800,"station_id":"ce4bhip2rcd13ifvqft0","pricing_plan_id":"cebpf4jnsgd1na2vs0mg"},{"bike_id":"40b5fdc1-1af0-403e-ab5a-562fff036fc0","system_id":"levelo_inurba_marseille","lat":43.3089,"lon":5.3686,"is_reserved":false,"is_disabled":false,"rental_uris":{"android":"levelo://app?vid=40b5fdc1-1af0-403e-ab5a-562fff036fc0","ios":"levelo://app?vid=40b5fdc1-1af0-403e-ab5a-562fff036fc0"},"vehicle_type_id":"4","last_reported":1768417915,"current_range_meters":6800,"station_id":"ce4bgn92rcd13ifvqbvg","pricing_plan_id":"cebpf4jnsgd1na2vs0mg"},{"bike_id":"a6f7909c-a26a-4d0c-8ed1-db8945d687a2","system_id":"levelo_inurba_marseille","lat":43.2619,"lon":5.37446,"is_reserved":false,"is_disabled":false,"rental_uris":{"android":"levelo://app?vid=a6f7909c-a26a-4d0c-8ed1-db8945d687a2","ios":"levelo://app?vid=a6f7909c-a26a-4d0c-8ed1-db8945d687a2"},"vehicle_type_id":"4","last_reported":1768417915,"current_range_meters":6800,"station_id":"ce4bhgp2rcd13ifvqfc0","pricing_plan_id":"cebpf4jnsgd1na2vs0mg"},{"bike_id":"a387592d-9e0d-44c9-b7d5-da87a64637f7","system_id":"levelo_inurba_marseille","lat":43.25822,"lon":5.39438,"is_reserved":false,"is_disabled":false,"rental_uris":{"android":"levelo://app?vid=a387592d-9e0d-44c9-b7d5-da87a64637f7","ios":"levelo://app?vid=a387592d-9e0d-44c9-b7d5-da87a64637f7"},"vehicle_type_id":"4","last_reported":1768417915,"current_range_meters":6800,"station_id":"ce4bhip2rcd13ifvqft0","pricing_plan_id":"cebpf4jnsgd1na2vs0mg"},{"bike_id":"ae1d99b1-82a1-460d-bd96-dc1d194fe893","system_id":"levelo_inurba_marseille","lat":43.29823,"lon":5.37648,"is_reserved":false,"is_disabled":false,"rental_uris":{"android":"levelo://app?vid=ae1d99b1-82a1-460d-bd96-dc1d194fe893","ios":"levelo://app?vid=ae1d99b1-82a1-460d-bd96-dc1d194fe893"},"vehicle_type_id":"4","last_reported":1768417915,"current_range_meters":6800,"station_id":"","pricing_plan_id":"cebpf4jnsgd1na2vs0mg"},{"bike_id":"091c8081-61de-43ac-bb2c-74077a5d4149","system_id":"levelo_inurba_marseille","lat":43.22557,"lon":5.4162,"is_reserved":false,"is_disabled":false,"rental_uris":{"android":"levelo://app?vid=091c8081-61de-43ac-bb2c-74077a5d4149","ios":"levelo://app?vid=091c8081-61de-43ac-bb2c-74077a5d4149"},"vehicle_type_id":"4","last_reported":1768417915,"current_range_meters":6800,"station_id":"st_d2o4gvlbi1j2169b742g","pricing_plan_id":"cebpf4jnsgd1na2vs0mg"},{"bike_id":"fddb64b5-fec5-4cb5-9080-d837ea04a1fc","system_id":"levelo_inurba_marseille","lat":43.292683,"lon":5.384471,"is_reserved":false,"is_disabled":false,"rental_uris":{"android":"levelo://app?vid=fddb64b5-fec5-4cb5-9080-d837ea04a1fc","ios":"levelo://app?vid=fddb64b5-fec5-4cb5-9080-d837ea04a1fc"},"vehicle_type_id":"4","last_reported":1768417915,"current_range_meters":6800,"station_id":"ce4bh692rcd13ifvqea0","pricing_plan_id":"cebpf4jnsgd1na2vs0mg"},{"bike_id":"b5627413-9935-4487-aa7d-7a30160ebdf9","system_id":"levelo_inurba_marseille","lat":43.30331,"lon":5.4043,"is_reserved":false,"is_disabled":false,"rental_uris":{"android":"levelo://app?vid=b5627413-9935-4487-aa7d-7a30160ebdf9","ios":"levelo://app?vid=b5627413-9935-4487-aa7d-7a30160ebdf9"},"vehicle_type_id":"4","last_reported":1768417915,"current_range_meters":6800,"station_id":"ce4bh012rcd13ifvqd10","pricing_plan_id":"cebpf4jnsgd1na2vs0mg"},{"bike_id":"037a0099-1ded-43c7-8e30-7e3e2a0dc4bc","system_id":"levelo_inurba_marseille","lat":43.24947,"lon":5.40491,"is_reserved":false,"is_disabled":false,"rental_uris":{"android":"levelo://app?vid=037a0099-1ded-43c7-8e30-7e3e2a0dc4bc","ios":"levelo://app?vid=037a0099-1ded-43c7-8e30-7e3e2a0dc4bc"},"vehicle_type_id":"4","last_reported":1768417915,"current_range_meters":6800,"station_id":"st_d2ngiaodas8pm72gd1h0","pricing_plan_id":"cebpf4jnsgd1na2vs0mg"},{"bike_id":"2f317efe-a01b-468a-9036-21dfc4cc3358","system_id":"levelo_inurba_marseille","lat":43.25821,"lon":5.39431,"is_reserved":false,"is_disabled":false,"rental_uris":{"android":"levelo://app?vid=2f317efe-a01b-468a-9036-21dfc4cc3358","ios":"levelo://app?vid=2f317efe-a01b-468a-9036-21dfc4cc3358"},"vehicle_type_id":"4","last_reported":1768417915,"current_range_meters":7200,"station_id":"ce4bhip2rcd13ifvqft0","pricing_plan_id":"cebpf4jnsgd1na2vs0mg"},{"bike_id":"398d51cb-cc78-4d8f-a9ac-2263a5037919","system_id":"levelo_inurba_marseille","lat":43.29295,"lon":5.37465,"is_reserved":false,"is_disabled":false,"rental_uris":{"android":"levelo://app?vid=398d51cb-cc78-4d8f-a9ac-2263a5037919","ios":"levelo://app?vid=398d51cb-cc78-4d8f-a9ac-2263a5037919"},"vehicle_type_id":"4","last_reported":1768417915,"current_range_meters":7200,"station_id":"ce4bgi12rcd13ifvqb70","pricing_plan_id":"cebpf4jnsgd1na2vs0mg"},{"bike_id":"12ef29d4-08f0-41ff-ab71-dda1f2c22c5f","system_id":"levelo_inurba_marseille","lat":43.30123,"lon":5.39886,"is_reserved":false,"is_disabled":false,"rental_uris":{"android":"levelo://app?vid=12ef29d4-08f0-41ff-ab71-dda1f2c22c5f","ios":"levelo://app?vid=12ef29d4-08f0-41ff-ab71-dda1f2c22c5f"},"vehicle_type_id":"4","last_reported":1768417915,"current_range_meters":7200,"station_id":"ce4bh0h2rcd13ifvqd40","pricing_plan_id":"cebpf4jnsgd1na2vs0mg"},{"bike_id":"8ce1313c-36fb-4df2-b0a8-1313eba7ad5b","system_id":"levelo_inurba_marseille","lat":43.28563,"lon":5.39481,"is_reserved":false,"is_disabled":false,"rental_uris":{"android":"levelo://app?vid=8ce1313c-36fb-4df2-b0a8-1313eba7ad5b","ios":"levelo://app?vid=8ce1313c-36fb-4df2-b0a8-1313eba7ad5b"},"vehicle_type_id":"4","last_reported":1768417915,"current_range_meters":7200,"station_id":"ce4bh292rcd13ifvqdg0","pricing_plan_id":"cebpf4jnsgd1na2vs0mg"},{"bike_id":"7cccb604-f149-4e8e-9ee8-78300c58372e","system_id":"levelo_inurba_marseille","lat":43.23188,"lon":5.39993,"is_reserved":false,"is_disabled":false,"rental_uris":{"android":"levelo://app?vid=7cccb604-f149-4e8e-9ee8-78300c58372e","ios":"levelo://app?vid=7cccb604-f149-4e8e-9ee8-78300c58372e"},"vehicle_type_id":"4","last_reported":1768417915,"current_range_meters":7200,"station_id":"ce4bhn12rcd13ifvqgqg","pricing_plan_id":"cebpf4jnsgd1na2vs0mg"},{"bike_id":"06897417-f925-403b-9b53-83cb77fb311f","system_id":"levelo_inurba_marseille","lat":43.22948,"lon":5.3537,"is_reserved":false,"is_disabled":false,"rental_uris":{"android":"levelo://app?vid=06897417-f925-403b-9b53-83cb77fb311f","ios":"levelo://app?vid=06897417-f925-403b-9b53-83cb77fb311f"},"vehicle_type_id":"4","last_reported":1768417915,"current_range_meters":7200,"station_id":"cpo3532slgdg3j2ikp40","pricing_plan_id":"cebpf4jnsgd1na2vs0mg"},{"bike_id":"c8c9f1e3-cfb9-4095-8d70-4c877ea7f0b9","system_id":"levelo_inurba_marseille","lat":43.31529,"lon":5.38471,"is_reserved":false,"is_disabled":false,"rental_uris":{"android":"levelo://app?vid=c8c9f1e3-cfb9-4095-8d70-4c877ea7f0b9","ios":"levelo://app?vid=c8c9f1e3-cfb9-4095-8d70-4c877ea7f0b9"},"vehicle_type_id":"4","last_reported":1768417915,"current_range_meters":7200,"station_id":"","pricing_plan_id":"cebpf4jnsgd1na2vs0mg"},{"bike_id":"52dc7a23-02b1-49ea-88fe-a1d65ef8f548","system_id":"levelo_inurba_marseille","lat":43.22937,"lon":5.3537,"is_reserved":false,"is_disabled":false,"rental_uris":{"android":"levelo://app?vid=52dc7a23-02b1-49ea-88fe-a1d65ef8f548","ios":"levelo://app?vid=52dc7a23-02b1-49ea-88fe-a1d65ef8f548"},"vehicle_type_id":"4","last_reported":1768417915,"current_range_meters":7200,"station_id":"cpo3532slgdg3j2ikp40","pricing_plan_id":"cebpf4jnsgd1na2vs0mg"},{"bike_id":"5410fd45-b8b4-470d-9bd7-ad1acafbc363","system_id":"levelo_inurba_marseille","lat":43.28478,"lon":5.48396,"is_reserved":false,"is_disabled":false,"rental_uris":{"android":"levelo://app?vid=5410fd45-b8b4-470d-9bd7-ad1acafbc363","ios":"levelo://app?vid=5410fd45-b8b4-470d-9bd7-ad1acafbc363"},"vehicle_type_id":"4","last_reported":1768417915,"current_range_meters":7200,"station_id":"","pricing_plan_id":"cebpf4jnsgd1na2vs0mg"},{"bike_id":"86aaef4b-aac1-4248-ac79-0d9f37b8c62f","system_id":"levelo_inurba_marseille","lat":43.27317,"lon":5.41682,"is_reserved":false,"is_disabled":false,"rental_uris":{"android":"levelo://app?vid=86aaef4b-aac1-4248-ac79-0d9f37b8c62f","ios":"levelo://app?vid=86aaef4b-aac1-4248-ac79-0d9f37b8c62f"},"vehicle_type_id":"4","last_reported":1768417915,"current_range_meters":7200,"station_id":"","pricing_plan_id":"cebpf4jnsgd1na2vs0mg"},{"bike_id":"eeb31f1a-7037-473f-a218-2d48daf5c61c","system_id":"levelo_inurba_marseille","lat":43.241261,"lon":5.376989,"is_reserved":false,"is_disabled":false,"rental_uris":{"android":"levelo://app?vid=eeb31f1a-7037-473f-a218-2d48daf5c61c","ios":"levelo://app?vid=eeb31f1a-7037-473f-a218-2d48daf5c61c"},"vehicle_type_id":"4","last_reported":1768417915,"current_range_meters":7200,"station_id":"ce4bhnp2rcd13ifvqgvg","pricing_plan_id":"cebpf4jnsgd1na2vs0mg"},{"bike_id":"6ca8f5d9-f51d-41bf-90c6-7998c0e7f392","system_id":"levelo_inurba_marseille","lat":43.290307,"lon":5.386414,"is_reserved":false,"is_disabled":false,"rental_uris":{"android":"levelo://app?vid=6ca8f5d9-f51d-41bf-90c6-7998c0e7f392","ios":"levelo://app?vid=6ca8f5d9-f51d-41bf-90c6-7998c0e7f392"},"vehicle_type_id":"4","last_reported":1768417915,"current_range_meters":7200,"station_id":"ce4bho92rcd13ifvqh3g","pricing_plan_id":"cebpf4jnsgd1na2vs0mg"},{"bike_id":"b54d7711-f055-409c-950d-e2c8bc74d3bc","system_id":"levelo_inurba_marseille","lat":43.24808,"lon":5.37455,"is_reserved":false,"is_disabled":false,"rental_uris":{"android":"levelo://app?vid=b54d7711-f055-409c-950d-e2c8bc74d3bc","ios":"levelo://app?vid=b54d7711-f055-409c-950d-e2c8bc74d3bc"},"vehicle_type_id":"4","last_reported":1768417915,"current_range_meters":7200,"station_id":"ce4bhgh2rcd13ifvqfb0","pricing_plan_id":"cebpf4jnsgd1na2vs0mg"},{"bike_id":"75241331-6da4-4c31-a41b-35410741d7cc","system_id":"levelo_inurba_marseille","lat":43.265709,"lon":5.390048,"is_reserved":false,"is_disabled":false,"rental_uris":{"android":"levelo://app?vid=75241331-6da4-4c31-a41b-35410741d7cc","ios":"levelo://app?vid=75241331-6da4-4c31-a41b-35410741d7cc"},"vehicle_type_id":"4","last_reported":1768417915,"current_range_meters":7200,"station_id":"ce4bhe12rcd13ifvqf30","pricing_plan_id":"cebpf4jnsgd1na2vs0mg"},{"bike_id":"9367415a-ef2a-4777-97ca-a4f559923b51","system_id":"levelo_inurba_marseille","lat":43.29284,"lon":5.40119,"is_reserved":false,"is_disabled":false,"rental_uris":{"android":"levelo://app?vid=9367415a-ef2a-4777-97ca-a4f559923b51","ios":"levelo://app?vid=9367415a-ef2a-4777-97ca-a4f559923b51"},"vehicle_type_id":"4","last_reported":1768417915,"current_range_meters":7200,"station_id":"ce4bh312rcd13ifvqdk0","pricing_plan_id":"cebpf4jnsgd1na2vs0mg"},{"bike_id":"55194f29-42dd-4454-96b2-a5d4401446b6","system_id":"levelo_inurba_marseille","lat":43.2993,"lon":5.42753,"is_reserved":false,"is_disabled":false,"rental_uris":{"android":"levelo://app?vid=55194f29-42dd-4454-96b2-a5d4401446b6","ios":"levelo://app?vid=55194f29-42dd-4454-96b2-a5d4401446b6"},"vehicle_type_id":"4","last_reported":1768417915,"current_range_meters":7200,"station_id":"","pricing_plan_id":"cebpf4jnsgd1na2vs0mg"},{"bike_id":"a49ad644-46df-4821-bcb6-1e03d8cb65b6","system_id":"levelo_inurba_marseille","lat":43.29574,"lon":5.36752,"is_reserved":false,"is_disabled":false,"rental_uris":{"android":"levelo://app?vid=a49ad644-46df-4821-bcb6-1e03d8cb65b6","ios":"levelo://app?vid=a49ad644-46df-4821-bcb6-1e03d8cb65b6"},"vehicle_type_id":"4","last_reported":1768417915,"current_range_meters":7200,"station_id":"ce4bgph2rcd13ifvqc2g","pricing_plan_id":"cebpf4jnsgd1na2vs0mg"},{"bike_id":"e3711e41-0161-46aa-9164-7f9c4fb49d5a","system_id":"levelo_inurba_marseille","lat":43.21194,"lon":5.3505,"is_reserved":false,"is_disabled":false,"rental_uris":{"android":"levelo://app?vid=e3711e41-0161-46aa-9164-7f9c4fb49d5a","ios":"levelo://app?vid=e3711e41-0161-46aa-9164-7f9c4fb49d5a"},"vehicle_type_id":"4","last_reported":1768417915,"current_range_meters":7200,"station_id":"st_cvj6sg6p6f1abm77japg","pricing_plan_id":"cebpf4jnsgd1na2vs0mg"},{"bike_id":"4883c970-634b-4de4-9e21-df47a68eb757","system_id":"levelo_inurba_marseille","lat":43.28475,"lon":5.48391,"is_reserved":false,"is_disabled":false,"rental_uris":{"android":"levelo://app?vid=4883c970-634b-4de4-9e21-df47a68eb757","ios":"levelo://app?vid=4883c970-634b-4de4-9e21-df47a68eb757"},"vehicle_type_id":"4","last_reported":1768417915,"current_range_meters":7200,"station_id":"st_d3svhcjqgbts73a3dn0g","pricing_plan_id":"cebpf4jnsgd1na2vs0mg"},{"bike_id":"c2354b44-17c1-478f-94d4-6c400a3bd0b6","system_id":"levelo_inurba_marseille","lat":43.24165,"lon":5.3639,"is_reserved":false,"is_disabled":false,"rental_uris":{"android":"levelo://app?vid=c2354b44-17c1-478f-94d4-6c400a3bd0b6","ios":"levelo://app?vid=c2354b44-17c1-478f-94d4-6c400a3bd0b6"},"vehicle_type_id":"4","last_reported":1768417915,"current_range_meters":7200,"station_id":"cpo36qri1sfpv3e86is0","pricing_plan_id":"cebpf4jnsgd1na2vs0mg"},{"bike_id":"0e7f877c-657f-4ed6-b108-38dcfff66a80","system_id":"levelo_inurba_marseille","lat":43.26389,"lon":5.41056,"is_reserved":false,"is_disabled":false,"rental_uris":{"android":"levelo://app?vid=0e7f877c-657f-4ed6-b108-38dcfff66a80","ios":"levelo://app?vid=0e7f877c-657f-4ed6-b108-38dcfff66a80"},"vehicle_type_id":"4","last_reported":1768417915,"current_range_meters":7200,"station_id":"st_d4e5ca6na9uc73bfl5fg","pricing_plan_id":"cebpf4jnsgd1na2vs0mg"},{"bike_id":"54810d2d-dc06-43dd-a461-5362aa9ce7a0","system_id":"levelo_inurba_marseille","lat":43.27941,"lon":5.41044,"is_reserved":false,"is_disabled":false,"rental_uris":{"android":"levelo://app?vid=54810d2d-dc06-43dd-a461-5362aa9ce7a0","ios":"levelo://app?vid=54810d2d-dc06-43dd-a461-5362aa9ce7a0"},"vehicle_type_id":"4","last_reported":1768417915,"current_range_meters":7200,"station_id":"ce4bhnp2rcd13ifvqh0g","pricing_plan_id":"cebpf4jnsgd1na2vs0mg"},{"bike_id":"c4c5a3df-e90e-4579-88a2-9cc4ceac9cd9","system_id":"levelo_inurba_marseille","lat":43.30543,"lon":5.36676,"is_reserved":false,"is_disabled":false,"rental_uris":{"android":"levelo://app?vid=c4c5a3df-e90e-4579-88a2-9cc4ceac9cd9","ios":"levelo://app?vid=c4c5a3df-e90e-4579-88a2-9cc4ceac9cd9"},"vehicle_type_id":"4","last_reported":1768417915,"current_range_meters":8000,"station_id":"ce4bgrp2rcd13ifvqc9g","pricing_plan_id":"cebpf4jnsgd1na2vs0mg"},{"bike_id":"03e9f015-73ba-4c3e-a345-a62206b593d1","system_id":"levelo_inurba_marseille","lat":43.32493,"lon":5.36558,"is_reserved":false,"is_disabled":false,"rental_uris":{"android":"levelo://app?vid=03e9f015-73ba-4c3e-a345-a62206b593d1","ios":"levelo://app?vid=03e9f015-73ba-4c3e-a345-a62206b593d1"},"vehicle_type_id":"4","last_reported":1768417915,"current_range_meters":8000,"station_id":"ce4bhs12rcd13ifvqhvg","pricing_plan_id":"cebpf4jnsgd1na2vs0mg"},{"bike_id":"7445f670-7827-4e99-80df-37c19e7cc9ec","system_id":"levelo_inurba_marseille","lat":43.32102,"lon":5.36799,"is_reserved":false,"is_disabled":false,"rental_uris":{"android":"levelo://app?vid=7445f670-7827-4e99-80df-37c19e7cc9ec","ios":"levelo://app?vid=7445f670-7827-4e99-80df-37c19e7cc9ec"},"vehicle_type_id":"4","last_reported":1768417915,"current_range_meters":8000,"station_id":"ce4bhrh2rcd13ifvqhug","pricing_plan_id":"cebpf4jnsgd1na2vs0mg"},{"bike_id":"9ca23870-0d76-456a-bf74-62fdeec6287a","system_id":"levelo_inurba_marseille","lat":43.300483,"lon":5.386971,"is_reserved":false,"is_disabled":false,"rental_uris":{"android":"levelo://app?vid=9ca23870-0d76-456a-bf74-62fdeec6287a","ios":"levelo://app?vid=9ca23870-0d76-456a-bf74-62fdeec6287a"},"vehicle_type_id":"4","last_reported":1768417915,"current_range_meters":8000,"station_id":"ce4bgvp2rcd13ifvqcu0","pricing_plan_id":"cebpf4jnsgd1na2vs0mg"},{"bike_id":"2a682e48-4901-4884-af44-aaa6a8d2add6","system_id":"levelo_inurba_marseille","lat":43.24062,"lon":5.3776,"is_reserved":false,"is_disabled":false,"rental_uris":{"android":"levelo://app?vid=2a682e48-4901-4884-af44-aaa6a8d2add6","ios":"levelo://app?vid=2a682e48-4901-4884-af44-aaa6a8d2add6"},"vehicle_type_id":"4","last_reported":1768417915,"current_range_meters":8000,"station_id":"ce4bhnp2rcd13ifvqgvg","pricing_plan_id":"cebpf4jnsgd1na2vs0mg"},{"bike_id":"c9da304b-df64-469f-a8fe-783a041f993b","system_id":"levelo_inurba_marseille","lat":43.3054,"lon":5.36521,"is_reserved":false,"is_disabled":false,"rental_uris":{"android":"levelo://app?vid=c9da304b-df64-469f-a8fe-783a041f993b","ios":"levelo://app?vid=c9da304b-df64-469f-a8fe-783a041f993b"},"vehicle_type_id":"4","last_reported":1768417915,"current_range_meters":8000,"station_id":"ce4bgs12rcd13ifvqcag","pricing_plan_id":"cebpf4jnsgd1na2vs0mg"},{"bike_id":"0b8f588c-5718-4485-a505-d9e9d4b9d64a","system_id":"levelo_inurba_marseille","lat":43.26568,"lon":5.40322,"is_reserved":false,"is_disabled":false,"rental_uris":{"android":"levelo://app?vid=0b8f588c-5718-4485-a505-d9e9d4b9d64a","ios":"levelo://app?vid=0b8f588c-5718-4485-a505-d9e9d4b9d64a"},"vehicle_type_id":"4","last_reported":1768417915,"current_range_meters":8000,"station_id":"ce4bhmp2rcd13ifvqgng","pricing_plan_id":"cebpf4jnsgd1na2vs0mg"},{"bike_id":"f1177697-24b8-4122-96be-92006a04ddc7","system_id":"levelo_inurba_marseille","lat":43.27814,"lon":5.40702,"is_reserved":false,"is_disabled":false,"rental_uris":{"android":"levelo://app?vid=f1177697-24b8-4122-96be-92006a04ddc7","ios":"levelo://app?vid=f1177697-24b8-4122-96be-92006a04ddc7"},"vehicle_type_id":"4","last_reported":1768417915,"current_range_meters":8000,"station_id":"ce4bhnh2rcd13ifvqgtg","pricing_plan_id":"cebpf4jnsgd1na2vs0mg"},{"bike_id":"554c04e7-941a-4c22-b472-97e077e3a312","system_id":"levelo_inurba_marseille","lat":43.30127,"lon":5.40379,"is_reserved":false,"is_disabled":false,"rental_uris":{"android":"levelo://app?vid=554c04e7-941a-4c22-b472-97e077e3a312","ios":"levelo://app?vid=554c04e7-941a-4c22-b472-97e077e3a312"},"vehicle_type_id":"4","last_reported":1768417915,"current_range_meters":8000,"station_id":"","pricing_plan_id":"cebpf4jnsgd1na2vs0mg"},{"bike_id":"7420a463-05be-48d3-a089-82560d5ea99f","system_id":"levelo_inurba_marseille","lat":43.25109,"lon":5.40309,"is_reserved":false,"is_disabled":false,"rental_uris":{"android":"levelo://app?vid=7420a463-05be-48d3-a089-82560d5ea99f","ios":"levelo://app?vid=7420a463-05be-48d3-a089-82560d5ea99f"},"vehicle_type_id":"4","last_reported":1768417915,"current_range_meters":8000,"station_id":"ce4bhlh2rcd13ifvqgig","pricing_plan_id":"cebpf4jnsgd1na2vs0mg"},{"bike_id":"b16c0fde-3570-452f-a37a-d567538e6b84","system_id":"levelo_inurba_marseille","lat":43.290293,"lon":5.375509,"is_reserved":false,"is_disabled":false,"rental_uris":{"android":"levelo://app?vid=b16c0fde-3570-452f-a37a-d567538e6b84","ios":"levelo://app?vid=b16c0fde-3570-452f-a37a-d567538e6b84"},"vehicle_type_id":"4","last_reported":1768417915,"current_range_meters":8000,"station_id":"ce4bh692rcd13ifvqe90","pricing_plan_id":"cebpf4jnsgd1na2vs0mg"},{"bike_id":"961fd59e-d441-42f0-a67c-7f68ed43d155","system_id":"levelo_inurba_marseille","lat":43.26016,"lon":5.41742,"is_reserved":false,"is_disabled":false,"rental_uris":{"android":"levelo://app?vid=961fd59e-d441-42f0-a67c-7f68ed43d155","ios":"levelo://app?vid=961fd59e-d441-42f0-a67c-7f68ed43d155"},"vehicle_type_id":"4","last_reported":1768417915,"current_range_meters":8000,"station_id":"","pricing_plan_id":"cebpf4jnsgd1na2vs0mg"},{"bike_id":"673202cd-516c-4e8a-8b02-fcf915fba7ae","system_id":"levelo_inurba_marseille","lat":43.293011,"lon":5.374526,"is_reserved":false,"is_disabled":false,"rental_uris":{"android":"levelo://app?vid=673202cd-516c-4e8a-8b02-fcf915fba7ae","ios":"levelo://app?vid=673202cd-516c-4e8a-8b02-fcf915fba7ae"},"vehicle_type_id":"4","last_reported":1768417915,"current_range_meters":8000,"station_id":"ce4bgi12rcd13ifvqb70","pricing_plan_id":"cebpf4jnsgd1na2vs0mg"},{"bike_id":"755a4f7e-0619-4edc-b45d-1bf810257cd4","system_id":"levelo_inurba_marseille","lat":43.29303,"lon":5.3745,"is_reserved":false,"is_disabled":false,"rental_uris":{"android":"levelo://app?vid=755a4f7e-0619-4edc-b45d-1bf810257cd4","ios":"levelo://app?vid=755a4f7e-0619-4edc-b45d-1bf810257cd4"},"vehicle_type_id":"4","last_reported":1768417915,"current_range_meters":8000,"station_id":"ce4bgi12rcd13ifvqb70","pricing_plan_id":"cebpf4jnsgd1na2vs0mg"},{"bike_id":"2ab1515d-d204-4f09-bd56-c8d1e2fe811d","system_id":"levelo_inurba_marseille","lat":43.28667,"lon":5.3635,"is_reserved":false,"is_disabled":false,"rental_uris":{"android":"levelo://app?vid=2ab1515d-d204-4f09-bd56-c8d1e2fe811d","ios":"levelo://app?vid=2ab1515d-d204-4f09-bd56-c8d1e2fe811d"},"vehicle_type_id":"4","last_reported":1768417915,"current_range_meters":8000,"station_id":"ce4bhah2rcd13ifvqej0","pricing_plan_id":"cebpf4jnsgd1na2vs0mg"},{"bike_id":"2972054a-6cc6-4eed-9d68-aeb343420e89","system_id":"levelo_inurba_marseille","lat":43.287,"lon":5.37384,"is_reserved":false,"is_disabled":false,"rental_uris":{"android":"levelo://app?vid=2972054a-6cc6-4eed-9d68-aeb343420e89","ios":"levelo://app?vid=2972054a-6cc6-4eed-9d68-aeb343420e89"},"vehicle_type_id":"4","last_reported":1768417915,"current_range_meters":8000,"station_id":"ce4bh3p2rcd13ifvqdq0","pricing_plan_id":"cebpf4jnsgd1na2vs0mg"},{"bike_id":"774ca479-5bb9-49b9-8ea6-99c5cf896279","system_id":"levelo_inurba_marseille","lat":43.24646,"lon":5.43159,"is_reserved":false,"is_disabled":false,"rental_uris":{"android":"levelo://app?vid=774ca479-5bb9-49b9-8ea6-99c5cf896279","ios":"levelo://app?vid=774ca479-5bb9-49b9-8ea6-99c5cf896279"},"vehicle_type_id":"4","last_reported":1768417915,"current_range_meters":8000,"station_id":"st_d2m6c4gdas8pm72e190g","pricing_plan_id":"cebpf4jnsgd1na2vs0mg"},{"bike_id":"53fe8430-4482-4110-8bea-d027d6c9a3a5","system_id":"levelo_inurba_marseille","lat":43.29439,"lon":5.39753,"is_reserved":false,"is_disabled":false,"rental_uris":{"android":"levelo://app?vid=53fe8430-4482-4110-8bea-d027d6c9a3a5","ios":"levelo://app?vid=53fe8430-4482-4110-8bea-d027d6c9a3a5"},"vehicle_type_id":"4","last_reported":1768417915,"current_range_meters":8000,"station_id":"ce4bh3h2rcd13ifvqdo0","pricing_plan_id":"cebpf4jnsgd1na2vs0mg"},{"bike_id":"204ac4ab-e203-4329-9ff0-720626e1f908","system_id":"levelo_inurba_marseille","lat":43.27066,"lon":5.38314,"is_reserved":false,"is_disabled":true,"rental_uris":{"android":"levelo://app?vid=204ac4ab-e203-4329-9ff0-720626e1f908","ios":"levelo://app?vid=204ac4ab-e203-4329-9ff0-720626e1f908"},"vehicle_type_id":"4","last_reported":1768417915,"current_range_meters":8000,"station_id":"st_d3n2fo6cfp8s73cte1j0","pricing_plan_id":"cebpf4jnsgd1na2vs0mg"},{"bike_id":"927979fa-3858-45ef-a6c2-d3fc1aa99933","system_id":"levelo_inurba_marseille","lat":43.295294,"lon":5.385367,"is_reserved":false,"is_disabled":false,"rental_uris":{"android":"levelo://app?vid=927979fa-3858-45ef-a6c2-d3fc1aa99933","ios":"levelo://app?vid=927979fa-3858-45ef-a6c2-d3fc1aa99933"},"vehicle_type_id":"4","last_reported":1768417915,"current_range_meters":8000,"station_id":"ce4bgih2rcd13ifvqba0","pricing_plan_id":"cebpf4jnsgd1na2vs0mg"},{"bike_id":"96056386-d9a6-4636-bb5c-976733254508","system_id":"levelo_inurba_marseille","lat":43.21194,"lon":5.3508,"is_reserved":false,"is_disabled":false,"rental_uris":{"android":"levelo://app?vid=96056386-d9a6-4636-bb5c-976733254508","ios":"levelo://app?vid=96056386-d9a6-4636-bb5c-976733254508"},"vehicle_type_id":"4","last_reported":1768417915,"current_range_meters":8000,"station_id":"","pricing_plan_id":"cebpf4jnsgd1na2vs0mg"},{"bike_id":"ec379fd5-8eb8-4869-be83-1ba20d030b43","system_id":"levelo_inurba_marseille","lat":43.24067,"lon":5.37746,"is_reserved":false,"is_disabled":false,"rental_uris":{"android":"levelo://app?vid=ec379fd5-8eb8-4869-be83-1ba20d030b43","ios":"levelo://app?vid=ec379fd5-8eb8-4869-be83-1ba20d030b43"},"vehicle_type_id":"4","last_reported":1768417915,"current_range_meters":8000,"station_id":"ce4bhnp2rcd13ifvqgvg","pricing_plan_id":"cebpf4jnsgd1na2vs0mg"},{"bike_id":"1efd83a8-6e08-44d6-be4a-afb5f7ac4cfd","system_id":"levelo_inurba_marseille","lat":43.2903,"lon":5.38642,"is_reserved":false,"is_disabled":false,"rental_uris":{"android":"levelo://app?vid=1efd83a8-6e08-44d6-be4a-afb5f7ac4cfd","ios":"levelo://app?vid=1efd83a8-6e08-44d6-be4a-afb5f7ac4cfd"},"vehicle_type_id":"4","last_reported":1768417915,"current_range_meters":8000,"station_id":"ce4bh4p2rcd13ifvqe0g","pricing_plan_id":"cebpf4jnsgd1na2vs0mg"},{"bike_id":"d3f201a8-4b15-4188-bb0d-92159a2a4ab4","system_id":"levelo_inurba_marseille","lat":43.30886,"lon":5.39654,"is_reserved":false,"is_disabled":false,"rental_uris":{"android":"levelo://app?vid=d3f201a8-4b15-4188-bb0d-92159a2a4ab4","ios":"levelo://app?vid=d3f201a8-4b15-4188-bb0d-92159a2a4ab4"},"vehicle_type_id":"4","last_reported":1768417915,"current_range_meters":8000,"station_id":"ce4bh012rcd13ifvqcv0","pricing_plan_id":"cebpf4jnsgd1na2vs0mg"},{"bike_id":"1f8e58bc-8460-4d90-9339-5994a031d49c","system_id":"levelo_inurba_marseille","lat":43.286489,"lon":5.472897,"is_reserved":false,"is_disabled":false,"rental_uris":{"android":"levelo://app?vid=1f8e58bc-8460-4d90-9339-5994a031d49c","ios":"levelo://app?vid=1f8e58bc-8460-4d90-9339-5994a031d49c"},"vehicle_type_id":"4","last_reported":1768417915,"current_range_meters":8000,"station_id":"ce4bh0h2rcd13ifvqd40","pricing_plan_id":"cebpf4jnsgd1na2vs0mg"},{"bike_id":"a1fa7ae1-5daf-4a6d-847a-31d32f1ae7fd","system_id":"levelo_inurba_marseille","lat":43.3173,"lon":5.4238,"is_reserved":false,"is_disabled":false,"rental_uris":{"android":"levelo://app?vid=a1fa7ae1-5daf-4a6d-847a-31d32f1ae7fd","ios":"levelo://app?vid=a1fa7ae1-5daf-4a6d-847a-31d32f1ae7fd"},"vehicle_type_id":"4","last_reported":1768417915,"current_range_meters":8400,"station_id":"ce4bhp92rcd13ifvqhbg","pricing_plan_id":"cebpf4jnsgd1na2vs0mg"},{"bike_id":"a91a986f-611b-4f2d-a755-d3c91591c10f","system_id":"levelo_inurba_marseille","lat":43.25168,"lon":5.40318,"is_reserved":false,"is_disabled":false,"rental_uris":{"android":"levelo://app?vid=a91a986f-611b-4f2d-a755-d3c91591c10f","ios":"levelo://app?vid=a91a986f-611b-4f2d-a755-d3c91591c10f"},"vehicle_type_id":"4","last_reported":1768417915,"current_range_meters":8400,"station_id":"","pricing_plan_id":"cebpf4jnsgd1na2vs0mg"},{"bike_id":"634a5032-07c2-4ad0-b886-0e21c013fdce","system_id":"levelo_inurba_marseille","lat":43.25563,"lon":5.38234,"is_reserved":false,"is_disabled":false,"rental_uris":{"android":"levelo://app?vid=634a5032-07c2-4ad0-b886-0e21c013fdce","ios":"levelo://app?vid=634a5032-07c2-4ad0-b886-0e21c013fdce"},"vehicle_type_id":"4","last_reported":1768417915,"current_range_meters":8400,"station_id":"ce4bhih2rcd13ifvqfs0","pricing_plan_id":"cebpf4jnsgd1na2vs0mg"},{"bike_id":"dc7afa1d-789b-4acb-8649-a4d53b9a8796","system_id":"levelo_inurba_marseille","lat":43.27067,"lon":5.42269,"is_reserved":false,"is_disabled":false,"rental_uris":{"android":"levelo://app?vid=dc7afa1d-789b-4acb-8649-a4d53b9a8796","ios":"levelo://app?vid=dc7afa1d-789b-4acb-8649-a4d53b9a8796"},"vehicle_type_id":"4","last_reported":1768417915,"current_range_meters":8400,"station_id":"ce4bhk92rcd13ifvqgb0","pricing_plan_id":"cebpf4jnsgd1na2vs0mg"},{"bike_id":"e11889a7-dd00-4680-82ad-dc48c0a7f8b9","system_id":"levelo_inurba_marseille","lat":43.22935,"lon":5.3537,"is_reserved":false,"is_disabled":false,"rental_uris":{"android":"levelo://app?vid=e11889a7-dd00-4680-82ad-dc48c0a7f8b9","ios":"levelo://app?vid=e11889a7-dd00-4680-82ad-dc48c0a7f8b9"},"vehicle_type_id":"4","last_reported":1768417915,"current_range_meters":8400,"station_id":"cpo3532slgdg3j2ikp40","pricing_plan_id":"cebpf4jnsgd1na2vs0mg"},{"bike_id":"ab4c7e8d-c082-49f2-ad38-3b04b1436978","system_id":"levelo_inurba_marseille","lat":43.22582,"lon":5.41638,"is_reserved":false,"is_disabled":false,"rental_uris":{"android":"levelo://app?vid=ab4c7e8d-c082-49f2-ad38-3b04b1436978","ios":"levelo://app?vid=ab4c7e8d-c082-49f2-ad38-3b04b1436978"},"vehicle_type_id":"4","last_reported":1768417915,"current_range_meters":8400,"station_id":"st_d2o4gvlbi1j2169b742g","pricing_plan_id":"cebpf4jnsgd1na2vs0mg"},{"bike_id":"0c2198c7-5e7d-4b33-8d58-cc496e9ac344","system_id":"levelo_inurba_marseille","lat":43.29084,"lon":5.37165,"is_reserved":false,"is_disabled":false,"rental_uris":{"android":"levelo://app?vid=0c2198c7-5e7d-4b33-8d58-cc496e9ac344","ios":"levelo://app?vid=0c2198c7-5e7d-4b33-8d58-cc496e9ac344"},"vehicle_type_id":"4","last_reported":1768417915,"current_range_meters":8400,"station_id":"ce4bh5p2rcd13ifvqe4g","pricing_plan_id":"cebpf4jnsgd1na2vs0mg"},{"bike_id":"aac02660-451c-4466-97cc-03bd6873da26","system_id":"levelo_inurba_marseille","lat":43.24803,"lon":5.374525,"is_reserved":false,"is_disabled":false,"rental_uris":{"android":"levelo://app?vid=aac02660-451c-4466-97cc-03bd6873da26","ios":"levelo://app?vid=aac02660-451c-4466-97cc-03bd6873da26"},"vehicle_type_id":"4","last_reported":1768417915,"current_range_meters":8400,"station_id":"ce4bhgh2rcd13ifvqfb0","pricing_plan_id":"cebpf4jnsgd1na2vs0mg"},{"bike_id":"3b326f81-b0c4-4b16-a9c9-f528a517d078","system_id":"levelo_inurba_marseille","lat":43.231909,"lon":5.355487,"is_reserved":false,"is_disabled":false,"rental_uris":{"android":"levelo://app?vid=3b326f81-b0c4-4b16-a9c9-f528a517d078","ios":"levelo://app?vid=3b326f81-b0c4-4b16-a9c9-f528a517d078"},"vehicle_type_id":"4","last_reported":1768417915,"current_range_meters":8400,"station_id":"ce4bhu92rcd13ifvqi70","pricing_plan_id":"cebpf4jnsgd1na2vs0mg"},{"bike_id":"0c10e763-537e-4349-bed5-58c5048433a6","system_id":"levelo_inurba_marseille","lat":43.28991,"lon":5.35593,"is_reserved":false,"is_disabled":false,"rental_uris":{"android":"levelo://app?vid=0c10e763-537e-4349-bed5-58c5048433a6","ios":"levelo://app?vid=0c10e763-537e-4349-bed5-58c5048433a6"},"vehicle_type_id":"4","last_reported":1768417915,"current_range_meters":8400,"station_id":"ce4bhb92rcd13ifvqen0","pricing_plan_id":"cebpf4jnsgd1na2vs0mg"},{"bike_id":"4a0910bc-2cb8-4117-a88f-aa517b88b474","system_id":"levelo_inurba_marseille","lat":43.34422,"lon":5.39963,"is_reserved":false,"is_disabled":false,"rental_uris":{"android":"levelo://app?vid=4a0910bc-2cb8-4117-a88f-aa517b88b474","ios":"levelo://app?vid=4a0910bc-2cb8-4117-a88f-aa517b88b474"},"vehicle_type_id":"4","last_reported":1768417915,"current_range_meters":8400,"station_id":"","pricing_plan_id":"cebpf4jnsgd1na2vs0mg"},{"bike_id":"17231d11-6e0b-40b1-a397-943a5ef40b72","system_id":"levelo_inurba_marseille","lat":43.29247,"lon":5.40895,"is_reserved":false,"is_disabled":false,"rental_uris":{"android":"levelo://app?vid=17231d11-6e0b-40b1-a397-943a5ef40b72","ios":"levelo://app?vid=17231d11-6e0b-40b1-a397-943a5ef40b72"},"vehicle_type_id":"4","last_reported":1768417915,"current_range_meters":8400,"station_id":"ce4bh192rcd13ifvqdc0","pricing_plan_id":"cebpf4jnsgd1na2vs0mg"},{"bike_id":"83b24877-4fa1-4cbc-9729-5d9b1f26a09d","system_id":"levelo_inurba_marseille","lat":43.29636,"lon":5.39163,"is_reserved":false,"is_disabled":false,"rental_uris":{"android":"levelo://app?vid=83b24877-4fa1-4cbc-9729-5d9b1f26a09d","ios":"levelo://app?vid=83b24877-4fa1-4cbc-9729-5d9b1f26a09d"},"vehicle_type_id":"4","last_reported":1768417915,"current_range_meters":8400,"station_id":"","pricing_plan_id":"cebpf4jnsgd1na2vs0mg"},{"bike_id":"03bea929-ded9-4f0a-b535-3ced67ddbf39","system_id":"levelo_inurba_marseille","lat":43.24639,"lon":5.43145,"is_reserved":false,"is_disabled":false,"rental_uris":{"android":"levelo://app?vid=03bea929-ded9-4f0a-b535-3ced67ddbf39","ios":"levelo://app?vid=03bea929-ded9-4f0a-b535-3ced67ddbf39"},"vehicle_type_id":"4","last_reported":1768417915,"current_range_meters":8400,"station_id":"st_d2m6c4gdas8pm72e190g","pricing_plan_id":"cebpf4jnsgd1na2vs0mg"},