{"last_updated":1734513044,"ttl":60,"version":"2.2","data":{"bikes":[{"bike_id":"ca9f7c7e-8767-4033-89b4-3355a51d50cc","system_id":"levelo_inurba_marseille","lat":43.26945,"lon":5.38642,"is_reserved":false,"is_disabled":true,"rental_uris":{"android":"levelo://app?vid=ca9f7c7e-8767-4033-89b4-3355a51d50cc","ios":"levelo://app?vid=ca9f7c7e-8767-4033-89b4-3355a51d50cc"},"vehicle_type_id":"4","last_reported":1734513045,"current_range_meters":5600,"station_id":"ce4bhh92rcd13ifvqfh0","pricing_plan_id":"cebpf4jnsgd1na2vs0mg"},{"bike_id":"c691a868-9faf-4a6e-b174-52b8f08a124c","system_id":"levelo_inurba_marseille","lat":43.30548,"lon":5.36531,"is_reserved":false,"is_disabled":false,"rental_uris":{"android":"levelo://app?vid=c691a868-9faf-4a6e-b174-52b8f08a124c","ios":"levelo://app?vid=c691a868-9faf-4a6e-b174-52b8f08a124c"},"vehicle_type_id":"4","last_reported":1734513045,"current_range_meters":13600,"station_id":"ce4bgs12rcd13ifvqcag","pricing_plan_id":"cebpf4jnsgd1na2vs0mg"},{"bike_id":"fdc4aa7e-d8bd-4951-b607-1f5288f2ac3f","system_id":"levelo_inurba_marseille","lat":43.245453,"lon":5.395193,"is_reserved":false,"is_disabled":true,"rental_uris":{"android":"levelo://app?vid=fdc4aa7e-d8bd-4951-b607-1f5288f2ac3f","ios":"levelo://app?vid=fdc4aa7e-d8bd-4951-b607-1f5288f2ac3f"},"vehicle_type_id":"4","last_reported":1734513045,"current_range_meters":30800,"station_id":"ce4bhlp2rcd13ifvqgjg","pricing_plan_id":"cebpf4jnsgd1na2vs0mg"},{"bike_id":"d81d4301-97e1-4d94-9fd8-b2126340fec6","system_id":"levelo_inurba_marseille","lat":43.29866,"lon":5.38904,"is_reserved":false,"is_disabled":false,"rental_uris":{"android":"levelo://app?vid=d81d4301-97e1-4d94-9fd8-b2126340fec6","ios":"levelo://app?vid=d81d4301-97e1-4d94-9fd8-b2126340fec6"},"vehicle_type_id":"4","last_reported":1734513045,"current_range_meters":32800,"station_id":"ce4bh392rcd13ifvqdl0","pricing_plan_id":"cebpf4jnsgd1na2vs0mg"},{"bike_id":"e58e5caf-d0e2-475d-8821-e216b55b624c","system_id":"levelo_inurba_marseille","lat":43.27557,"lon":5.38411,"is_reserved":false,"is_disabled":false,"rental_uris":{"android":"levelo://app?vid=e58e5caf-d0e2-475d-8821-e216b55b624c","ios":"levelo://app?vid=e58e5caf-d0e2-475d-8821-e216b55b624c"},"vehicle_type_id":"4","last_reported":1734513045,"current_range_meters":36800,"station_id":"ce4bhh92rcd13ifvqfi0","pricing_plan_id":"cebpf4jnsgd1na2vs0mg"},{"bike_id":"92d0cc26-4c8a-4033-aa1d-4c61ad4ed1c5","system_id":"levelo_inurba_marseille","lat":43.29163,"lon":5.37147,"is_reserved":false,"is_disabled":false,"rental_uris":{"android":"levelo://app?vid=92d0cc26-4c8a-4033-aa1d-4c61ad4ed1c5","ios":"levelo://app?vid=92d0cc26-4c8a-4033-aa1d-4c61ad4ed1c5"},"vehicle_type_id":"4","last_reported":1734513045,"current_range_meters":23200,"station_id":"ce4bha92rcd13ifvqeh0","pricing_plan_id":"cebpf4jnsgd1na2vs0mg"},{"bike_id":"b1b1f756-c1a0-4e66-8530-9c85602c1813","system_id":"levelo_inurba_marseille","lat":43.323596,"lon":5.367627,"is_reserved":false,"is_disabled":false,"rental_uris":{"android":"levelo://app?vid=b1b1f756-c1a0-4e66-8530-9c85602c1813","ios":"levelo://app?vid=b1b1f756-c1a0-4e66-8530-9c85602c1813"},"vehicle_type_id":"4","last_reported":1734513045,"current_range_meters":19200,"station_id":"ce4bhsh2rcd13ifvqi2g","pricing_plan_id":"cebpf4jnsgd1na2vs0mg"},{"bike_id":"657dd4a3-2abb-4049-9755-a3b8006ccbef","system_id":"levelo_inurba_marseille","lat":43.30947,"lon":5.39046,"is_reserved":false,"is_disabled":false,"rental_uris":{"android":"levelo://app?vid=657dd4a3-2abb-4049-9755-a3b8006ccbef","ios":"levelo://app?vid=657dd4a3-2abb-4049-9755-a3b8006ccbef"},"vehicle_type_id":"4","last_reported":1734513045,"current_range_meters":39200,"station_id":"ce4bgup2rcd13ifvqco0","pricing_plan_id":"cebpf4jnsgd1na2vs0mg"},{"bike_id":"5c9d787a-ed08-4f6d-aae6-50e448cf550d","system_id":"levelo_inurba_marseille","lat":43.26019,"lon":5.37549,"is_reserved":false,"is_disabled":false,"rental_uris":{"android":"levelo://app?vid=5c9d787a-ed08-4f6d-aae6-50e448cf550d","ios":"levelo://app?vid=5c9d787a-ed08-4f6d-aae6-50e448cf550d"},"vehicle_type_id":"4","last_reported":1734513045,"current_range_meters":32000,"station_id":"ce4bhgh2rcd13ifvqfa0","pricing_plan_id":"cebpf4jnsgd1na2vs0mg"},{"bike_id":"29e4ccd0-e019-4843-8e6a-7d0d2251f666","system_id":"levelo_inurba_marseille","lat":43.29226,"lon":5.36075,"is_reserved":false,"is_disabled":false,"rental_uris":{"android":"levelo://app?vid=29e4ccd0-e019-4843-8e6a-7d0d2251f666","ios":"levelo://app?vid=29e4ccd0-e019-4843-8e6a-7d0d2251f666"},"vehicle_type_id":"4","last_reported":1734513045,"current_range_meters":20800,"station_id":"ce4bhbh2rcd13ifvqeqg","pricing_plan_id":"cebpf4jnsgd1na2vs0mg"},{"bike_id":"20d3a6ff-9039-43f9-8156-dc21501bdd18","system_id":"levelo_inurba_marseille","lat":43.297974,"lon":5.403977,"is_reserved":false,"is_disabled":false,"rental_uris":{"android":"levelo://app?vid=20d3a6ff-9039-43f9-8156-dc21501bdd18","ios":"levelo://app?vid=20d3a6ff-9039-43f9-8156-dc21501bdd18"},"vehicle_type_id":"4","last_reported":1734513045,"current_range_meters":29600,"station_id":"ce4bh112rcd13ifvqd90","pricing_plan_id":"cebpf4jnsgd1na2vs0mg"},{"bike_id":"519a8516-c8bc-45c7-9f41-f5b8ab91c641","system_id":"levelo_inurba_marseille","lat":43.27495,"lon":5.42456,"is_reserved":false,"is_disabled":false,"rental_uris":{"android":"levelo://app?vid=519a8516-c8bc-45c7-9f41-f5b8ab91c641","ios":"levelo://app?vid=519a8516-c8bc-45c7-9f41-f5b8ab91c641"},"vehicle_type_id":"4","last_reported":1734513045,"current_range_meters":36000,"station_id":"ce4bhn92rcd13ifvqgrg","pricing_plan_id":"cebpf4jnsgd1na2vs0mg"},{"bike_id":"7c120c46-8ebe-4d98-b289-9452884210f8","system_id":"levelo_inurba_marseille","lat":43.31361,"lon":5.3672,"is_reserved":false,"is_disabled":false,"rental_uris":{"android":"levelo://app?vid=7c120c46-8ebe-4d98-b289-9452884210f8","ios":"levelo://app?vid=7c120c46-8ebe-4d98-b289-9452884210f8"},"vehicle_type_id":"4","last_reported":1734513045,"current_range_meters":28800,"station_id":"ce4bgr92rcd13ifvqc6g","pricing_plan_id":"cebpf4jnsgd1na2vs0mg"},{"bike_id":"9c4670ff-16f8-431b-a765-a851341fad40","system_id":"levelo_inurba_marseille","lat":43.27311,"lon":5.39079,"is_reserved":false,"is_disabled":false,"rental_uris":{"android":"levelo://app?vid=9c4670ff-16f8-431b-a765-a851341fad40","ios":"levelo://app?vid=9c4670ff-16f8-431b-a765-a851341fad40"},"vehicle_type_id":"4","last_reported":1734513045,"current_range_meters":15200,"station_id":"ce4bhgp2rcd13ifvqfe0","pricing_plan_id":"cebpf4jnsgd1na2vs0mg"},{"bike_id":"0808a3ca-bb3e-4c1a-b3ad-fb9135fd12be","system_id":"levelo_inurba_marseille","lat":43.30852,"lon":5.38174,"is_reserved":false,"is_disabled":true,"rental_uris":{"android":"levelo://app?vid=0808a3ca-bb3e-4c1a-b3ad-fb9135fd12be","ios":"levelo://app?vid=0808a3ca-bb3e-4c1a-b3ad-fb9135fd12be"},"vehicle_type_id":"4","last_reported":1734513045,"current_range_meters":27600,"station_id":"","pricing_plan_id":"cebpf4jnsgd1na2vs0mg"},{"bike_id":"a2104b26-4a01-4dc6-b355-fbab2d119e02","system_id":"levelo_inurba_marseille","lat":43.32482,"lon":5.36564,"is_reserved":false,"is_disabled":false,"rental_uris":{"android":"levelo://app?vid=a2104b26-4a01-4dc6-b355-fbab2d119e02","ios":"levelo://app?vid=a2104b26-4a01-4dc6-b355-fbab2d119e02"},"vehicle_type_id":"4","last_reported":1734513045,"current_range_meters":36000,"station_id":"ce4bhs12rcd13ifvqhvg","pricing_plan_id":"cebpf4jnsgd1na2vs0mg"},{"bike_id":"0b699b18-40a8-48a5-be1e-6c769dfe8468","system_id":"levelo_inurba_marseille","lat":43.30904,"lon":5.36865,"is_reserved":false,"is_disabled":false,"rental_uris":{"android":"levelo://app?vid=0b699b18-40a8-48a5-be1e-6c769dfe8468","ios":"levelo://app?vid=0b699b18-40a8-48a5-be1e-6c769dfe8468"},"vehicle_type_id":"4","last_reported":1734513045,"current_range_meters":28800,"station_id":"ce4bgn92rcd13ifvqbvg","pricing_plan_id":"cebpf4jnsgd1na2vs0mg"},{"bike_id":"bc3432f2-77a4-4d0c-9d48-af95742f3e61","system_id":"levelo_inurba_marseille","lat":43.25934,"lon":5.40905,"is_reserved":false,"is_disabled":true,"rental_uris":{"android":"levelo://app?vid=bc3432f2-77a4-4d0c-9d48-af95742f3e61","ios":"levelo://app?vid=bc3432f2-77a4-4d0c-9d48-af95742f3e61"},"vehicle_type_id":"4","last_reported":1734513045,"current_range_meters":11200,"station_id":"ce4bhm92rcd13ifvqglg","pricing_plan_id":"cebpf4jnsgd1na2vs0mg"},{"bike_id":"6f34c84a-5b9b-4b15-a658-a97da4b06271","system_id":"levelo_inurba_marseille","lat":43.33023,"lon":5.39042,"is_reserved":false,"is_disabled":false,"rental_uris":{"android":"levelo://app?vid=6f34c84a-5b9b-4b15-a658-a97da4b06271","ios":"levelo://app?vid=6f34c84a-5b9b-4b15-a658-a97da4b06271"},"vehicle_type_id":"4","last_reported":1734513045,"current_range_meters":38000,"station_id":"ce4bhr92rcd13ifvqhrg","pricing_plan_id":"cebpf4jnsgd1na2vs0mg"},{"bike_id":"c2157a75-6d75-40a8-a162-1563ef5da2cd","system_id":"levelo_inurba_marseille","lat":43.25414,"lon":5.38155,"is_reserved":false,"is_disabled":true,"rental_uris":{"android":"levelo://app?vid=c2157a75-6d75-40a8-a162-1563ef5da2cd","ios":"levelo://app?vid=c2157a75-6d75-40a8-a162-1563ef5da2cd"},"vehicle_type_id":"4","last_reported":1734513045,"current_range_meters":4400,"station_id":"ce4bhih2rcd13ifvqfs0","pricing_plan_id":"cebpf4jnsgd1na2vs0mg"},{"bike_id":"aacc7da2-1446-4d2a-aa32-e804470fc32d","system_id":"levelo_inurba_marseille","lat":43.30911,"lon":5.40045,"is_reserved":false,"is_disabled":true,"rental_uris":{"android":"levelo://app?vid=aacc7da2-1446-4d2a-aa32-e804470fc32d","ios":"levelo://app?vid=aacc7da2-1446-4d2a-aa32-e804470fc32d"},"vehicle_type_id":"4","last_reported":1734513045,"current_range_meters":0,"station_id":"","pricing_plan_id":"cebpf4jnsgd1na2vs0mg"},{"bike_id":"cd217c80-e1ff-4fc6-9357-e2a21594ddc8","system_id":"levelo_inurba_marseille","lat":43.26188,"lon":5.37452,"is_reserved":false,"is_disabled":false,"rental_uris":{"android":"levelo://app?vid=cd217c80-e1ff-4fc6-9357-e2a21594ddc8","ios":"levelo://app?vid=cd217c80-e1ff-4fc6-9357-e2a21594ddc8"},"vehicle_type_id":"4","last_reported":1734513045,"current_range_meters":35200,"station_id":"ce4bhgp2rcd13ifvqfc0","pricing_plan_id":"cebpf4jnsgd1na2vs0mg"},{"bike_id":"2cb080fb-ba10-4fd5-b777-9b99043e19e7","system_id":"levelo_inurba_marseille","lat":43.24073,"lon":5.37761,"is_reserved":false,"is_disabled":true,"rental_uris":{"android":"levelo://app?vid=2cb080fb-ba10-4fd5-b777-9b99043e19e7","ios":"levelo://app?vid=2cb080fb-ba10-4fd5-b777-9b99043e19e7"},"vehicle_type_id":"4","last_reported":1734513045,"current_range_meters":12800,"station_id":"ce4bhnp2rcd13ifvqgvg","pricing_plan_id":"cebpf4jnsgd1na2vs0mg"},{"bike_id":"0abeb132-cc34-4de6-a86d-a739c8ce0720","system_id":"levelo_inurba_marseille","lat":43.29027,"lon":5.39949,"is_reserved":false,"is_disabled":true,"rental_uris":{"android":"levelo://app?vid=0abeb132-cc34-4de6-a86d-a739c8ce0720","ios":"levelo://app?vid=0abeb132-cc34-4de6-a86d-a739c8ce0720"},"vehicle_type_id":"4","last_reported":1734513045,"current_range_meters":26800,"station_id":"ce4bh392rcd13ifvqdm0","pricing_plan_id":"cebpf4jnsgd1na2vs0mg"},{"bike_id":"124e6c05-4926-4207-84f5-da69a7334d60","system_id":"levelo_inurba_marseille","lat":43.290225,"lon":5.381415,"is_reserved":false,"is_disabled":true,"rental_uris":{"android":"levelo://app?vid=124e6c05-4926-4207-84f5-da69a7334d60","ios":"levelo://app?vid=124e6c05-4926-4207-84f5-da69a7334d60"},"vehicle_type_id":"4","last_reported":1734513045,"current_range_meters":35600,"station_id":"ce4bh4p2rcd13ifvqe1g","pricing_plan_id":"cebpf4jnsgd1na2vs0mg"},{"bike_id":"c57c029b-2685-4e1b-b5f7-96b8b4c4379d","system_id":"levelo_inurba_marseille","lat":43.29096,"lon":5.3817,"is_reserved":false,"is_disabled":false,"rental_uris":{"android":"levelo://app?vid=c57c029b-2685-4e1b-b5f7-96b8b4c4379d","ios":"levelo://app?vid=c57c029b-2685-4e1b-b5f7-96b8b4c4379d"},"vehicle_type_id":"4","last_reported":1734513045,"current_range_meters":29600,"station_id":"ce4bh512rcd13ifvqe2g","pricing_plan_id":"cebpf4jnsgd1na2vs0mg"},{"bike_id":"d4a47320-ab6a-450a-bba5-b8a49b1b5aa5","system_id":"levelo_inurba_marseille","lat":43.26935,"lon":5.40254,"is_reserved":false,"is_disabled":false,"rental_uris":{"android":"levelo://app?vid=d4a47320-ab6a-450a-bba5-b8a49b1b5aa5","ios":"levelo://app?vid=d4a47320-ab6a-450a-bba5-b8a49b1b5aa5"},"vehicle_type_id":"4","last_reported":1734513045,"current_range_meters":38800,"station_id":"cjm6bp8fraef2m0cb0m0","pricing_plan_id":"cebpf4jnsgd1na2vs0mg"},{"bike_id":"dc0e6df7-295d-4e62-8939-9c7a9d49b036","system_id":"levelo_inurba_marseille","lat":43.29956,"lon":5.41286,"is_reserved":false,"is_disabled":true,"rental_uris":{"android":"levelo://app?vid=dc0e6df7-295d-4e62-8939-9c7a9d49b036","ios":"levelo://app?vid=dc0e6df7-295d-4e62-8939-9c7a9d49b036"},"vehicle_type_id":"4","last_reported":1734513045,"current_range_meters":26800,"station_id":"ce4bhp12rcd13ifvqh9g","pricing_plan_id":"cebpf4jnsgd1na2vs0mg"},{"bike_id":"12825fc7-c4d4-4652-92c7-b1bbcf86503b","system_id":"levelo_inurba_marseille","lat":43.30563,"lon":5.36519,"is_reserved":false,"is_disabled":false,"rental_uris":{"android":"levelo://app?vid=12825fc7-c4d4-4652-92c7-b1bbcf86503b","ios":"levelo://app?vid=12825fc7-c4d4-4652-92c7-b1bbcf86503b"},"vehicle_type_id":"4","last_reported":1734513045,"current_range_meters":38800,"station_id":"ce4bgs12rcd13ifvqcag","pricing_plan_id":"cebpf4jnsgd1na2vs0mg"},{"bike_id":"30a33bbe-73ac-42f6-974e-9be769a5fac6","system_id":"levelo_inurba_marseille","lat":43.24387,"lon":5.37056,"is_reserved":false,"is_disabled":false,"rental_uris":{"android":"levelo://app?vid=30a33bbe-73ac-42f6-974e-9be769a5fac6","ios":"levelo://app?vid=30a33bbe-73ac-42f6-974e-9be769a5fac6"},"vehicle_type_id":"4","last_reported":1734513045,"current_range_meters":39200,"station_id":"ce4bhhh2rcd13ifvqfk0","pricing_plan_id":"cebpf4jnsgd1na2vs0mg"},{"bike_id":"2491c714-f3f7-493b-9790-9992e16c8fb6","system_id":"levelo_inurba_marseille","lat":43.34131,"lon":5.40906,"is_reserved":false,"is_disabled":true,"rental_uris":{"android":"levelo://app?vid=2491c714-f3f7-493b-9790-9992e16c8fb6","ios":"levelo://app?vid=2491c714-f3f7-493b-9790-9992e16c8fb6"},"vehicle_type_id":"4","last_reported":1734513045,"current_range_meters":38800,"station_id":"ce4bhqh2rcd13ifvqhlg","pricing_plan_id":"cebpf4jnsgd1na2vs0mg"},{"bike_id":"29aec2ee-66d0-4e3e-9555-57c8247a32de","system_id":"levelo_inurba_marseille","lat":43.3046,"lon":5.37906,"is_reserved":false,"is_disabled":false,"rental_uris":{"android":"levelo://app?vid=29aec2ee-66d0-4e3e-9555-57c8247a32de","ios":"levelo://app?vid=29aec2ee-66d0-4e3e-9555-57c8247a32de"},"vehicle_type_id":"4","last_reported":1734513045,"current_range_meters":23200,"station_id":"ce4bgup2rcd13ifvqcn0","pricing_plan_id":"cebpf4jnsgd1na2vs0mg"},{"bike_id":"ea1ee0a0-f240-4d25-84d9-e6fb6fc7a18c","system_id":"levelo_inurba_marseille","lat":43.33773,"lon":5.42093,"is_reserved":false,"is_disabled":true,"rental_uris":{"android":"levelo://app?vid=ea1ee0a0-f240-4d25-84d9-e6fb6fc7a18c","ios":"levelo://app?vid=ea1ee0a0-f240-4d25-84d9-e6fb6fc7a18c"},"vehicle_type_id":"4","last_reported":1734513045,"current_range_meters":0,"station_id":"","pricing_plan_id":"cebpf4jnsgd1na2vs0mg"},{"bike_id":"2e880acb-8570-4d1d-a257-a6cd82cc58e5","system_id":"levelo_inurba_marseille","lat":43.29175,"lon":5.39334,"is_reserved":false,"is_disabled":false,"rental_uris":{"android":"levelo://app?vid=2e880acb-8570-4d1d-a257-a6cd82cc58e5","ios":"levelo://app?vid=2e880acb-8570-4d1d-a257-a6cd82cc58e5"},"vehicle_type_id":"4","last_reported":1734513045,"current_range_meters":12800,"station_id":"ce4bh192rcd13ifvqdd0","pricing_plan_id":"cebpf4jnsgd1na2vs0mg"},{"bike_id":"8347cb1c-b511-4e70-9d82-fb1d9eb6e0c0","system_id":"levelo_inurba_marseille","lat":43.29715,"lon":5.377,"is_reserved":false,"is_disabled":true,"rental_uris":{"android":"levelo://app?vid=8347cb1c-b511-4e70-9d82-fb1d9eb6e0c0","ios":"levelo://app?vid=8347cb1c-b511-4e70-9d82-fb1d9eb6e0c0"},"vehicle_type_id":"4","last_reported":1734513045,"current_range_meters":400,"station_id":"ce4bgkh2rcd13ifvqbl0","pricing_plan_id":"cebpf4jnsgd1na2vs0mg"},{"bike_id":"c8f79b9f-b6a3-42c1-83aa-cf20faccc3b4","system_id":"levelo_inurba_marseille","lat":43.26684,"lon":5.38277,"is_reserved":false,"is_disabled":true,"rental_uris":{"android":"levelo://app?vid=c8f79b9f-b6a3-42c1-83aa-cf20faccc3b4","ios":"levelo://app?vid=c8f79b9f-b6a3-42c1-83aa-cf20faccc3b4"},"vehicle_type_id":"4","last_reported":1734513045,"current_range_meters":38800,"station_id":"ce4bhg92rcd13ifvqf90","pricing_plan_id":"cebpf4jnsgd1na2vs0mg"},{"bike_id":"f500c588-6feb-4b09-aaa0-56bd71506c9c","system_id":"levelo_inurba_marseille","lat":43.30129,"lon":5.37426,"is_reserved":false,"is_disabled":false,"rental_uris":{"android":"levelo://app?vid=f500c588-6feb-4b09-aaa0-56bd71506c9c","ios":"levelo://app?vid=f500c588-6feb-4b09-aaa0-56bd71506c9c"},"vehicle_type_id":"4","last_reported":1734513045,"current_range_meters":26000,"station_id":"ce4bgs92rcd13ifvqcc0","pricing_plan_id":"cebpf4jnsgd1na2vs0mg"},{"bike_id":"2fb0526b-04ed-4fc2-9220-f3b5b71c82f3","system_id":"levelo_inurba_marseille","lat":43.297926,"lon":5.380899,"is_reserved":false,"is_disabled":true,"rental_uris":{"android":"levelo://app?vid=2fb0526b-04ed-4fc2-9220-f3b5b71c82f3","ios":"levelo://app?vid=2fb0526b-04ed-4fc2-9220-f3b5b71c82f3"},"vehicle_type_id":"4","last_reported":1734513045,"current_range_meters":38800,"station_id":"ce4bgip2rcd13ifvqbb0","pricing_plan_id":"cebpf4jnsgd1na2vs0mg"},{"bike_id":"ef00e13f-569a-41fd-b53e-49adca3b054e","system_id":"levelo_inurba_marseille","lat":43.27856,"lon":5.42196,"is_reserved":false,"is_disabled":false,"rental_uris":{"android":"levelo://app?vid=ef00e13f-569a-41fd-b53e-49adca3b054e","ios":"levelo://app?vid=ef00e13f-569a-41fd-b53e-49adca3b054e"},"vehicle_type_id":"4","last_reported":1734513045,"current_range_meters":38800,"station_id":"","pricing_plan_id":"cebpf4jnsgd1na2vs0mg"},{"bike_id":"0ac0822a-ae0b-425e-9520-11c76c5f9f56","system_id":"levelo_inurba_marseille","lat":43.29005,"lon":5.40002,"is_reserved":false,"is_disabled":false,"rental_uris":{"android":"levelo://app?vid=0ac0822a-ae0b-425e-9520-11c76c5f9f56","ios":"levelo://app?vid=0ac0822a-ae0b-425e-9520-11c76c5f9f56"},"vehicle_type_id":"4","last_reported":1734513045,"current_range_meters":18800,"station_id":"","pricing_plan_id":"cebpf4jnsgd1na2vs0mg"},{"bike_id":"19033af1-e626-47e5-9e0d-834232a7a58f","system_id":"levelo_inurba_marseille","lat":43.28935,"lon":5.36628,"is_reserved":false,"is_disabled":false,"rental_uris":{"android":"levelo://app?vid=19033af1-e626-47e5-9e0d-834232a7a58f","ios":"levelo://app?vid=19033af1-e626-47e5-9e0d-834232a7a58f"},"vehicle_type_id":"4","last_reported":1734513045,"current_range_meters":2000,"station_id":"ce4bhap2rcd13ifvqek0","pricing_plan_id":"cebpf4jnsgd1na2vs0mg"},{"bike_id":"d6238b03-1e92-4a78-8eb2-0e051adada6b","system_id":"levelo_inurba_marseille","lat":43.337444,"lon":5.374475,"is_reserved":false,"is_disabled":false,"rental_uris":{"android":"levelo://app?vid=d6238b03-1e92-4a78-8eb2-0e051adada6b","ios":"levelo://app?vid=d6238b03-1e92-4a78-8eb2-0e051adada6b"},"vehicle_type_id":"4","last_reported":1734513045,"current_range_meters":38800,"station_id":"","pricing_plan_id":"cebpf4jnsgd1na2vs0mg"},{"bike_id":"d5bb5233-5c13-4106-a5af-af43f6e0c448","system_id":"levelo_inurba_marseille","lat":43.31352,"lon":5.38497,"is_reserved":false,"is_disabled":false,"rental_uris":{"android":"levelo://app?vid=d5bb5233-5c13-4106-a5af-af43f6e0c448","ios":"levelo://app?vid=d5bb5233-5c13-4106-a5af-af43f6e0c448"},"vehicle_type_id":"4","last_reported":1734513045,"current_range_meters":36800,"station_id":"ce4bgt92rcd13ifvqcf0","pricing_plan_id":"cebpf4jnsgd1na2vs0mg"},{"bike_id":"38f20744-af43-4445-b9c5-a52798357518","system_id":"levelo_inurba_marseille","lat":43.25489,"lon":5.37645,"is_reserved":false,"is_disabled":true,"rental_uris":{"android":"levelo://app?vid=38f20744-af43-4445-b9c5-a52798357518","ios":"levelo://app?vid=38f20744-af43-4445-b9c5-a52798357518"},"vehicle_type_id":"4","last_reported":1734513045,"current_range_meters":36000,"station_id":"ce4bhh12rcd13ifvqff0","pricing_plan_id":"cebpf4jnsgd1na2vs0mg"},{"bike_id":"60e6a038-f84d-42c7-86c0-aa0835104675","system_id":"levelo_inurba_marseille","lat":43.28974,"lon":5.37825,"is_reserved":false,"is_disabled":false,"rental_uris":{"android":"levelo://app?vid=60e6a038-f84d-42c7-86c0-aa0835104675","ios":"levelo://app?vid=60e6a038-f84d-42c7-86c0-aa0835104675"},"vehicle_type_id":"4","last_reported":1734513045,"current_range_meters":9600,"station_id":"ce4bh9p2rcd13ifvqed0","pricing_plan_id":"cebpf4jnsgd1na2vs0mg"},{"bike_id":"5e90a6d5-e9f6-4db1-9cd1-334c078db2aa","system_id":"levelo_inurba_marseille","lat":43.2953,"lon":5.38539,"is_reserved":false,"is_disabled":false,"rental_uris":{"android":"levelo://app?vid=5e90a6d5-e9f6-4db1-9cd1-334c078db2aa","ios":"levelo://app?vid=5e90a6d5-e9f6-4db1-9cd1-334c078db2aa"},"vehicle_type_id":"4","last_reported":1734513045,"current_range_meters":24000,"station_id":"ce4bgih2rcd13ifvqba0","pricing_plan_id":"cebpf4jnsgd1na2vs0mg"},{"bike_id":"3624c8ce-2825-43f7-98e6-4f668fdc1875","system_id":"levelo_inurba_marseille","lat":43.337444,"lon":5.374475,"is_reserved":false,"is_disabled":false,"rental_uris":{"android":"levelo://app?vid=3624c8ce-2825-43f7-98e6-4f668fdc1875","ios":"levelo://app?vid=3624c8ce-2825-43f7-98e6-4f668fdc1875"},"vehicle_type_id":"4","last_reported":1734513045,"current_range_meters":27200,"station_id":"","pricing_plan_id":"cebpf4jnsgd1na2vs0mg"},{"bike_id":"7eac955e-05ed-4115-aad9-4f3b29a2f7e3","system_id":"levelo_inurba_marseille","lat":43.289649,"lon":5.378423,"is_reserved":false,"is_disabled":false,"rental_uris":{"android":"levelo://app?vid=7eac955e-05ed-4115-aad9-4f3b29a2f7e3","ios":"levelo://app?vid=7eac955e-05ed-4115-aad9-4f3b29a2f7e3"},"vehicle_type_id":"4","last_reported":1734513045,"current_range_meters":36800,"station_id":"ce4bh9p2rcd13ifvqed0","pricing_plan_id":"cebpf4jnsgd1na2vs0mg"},{"bike_id":"0fd81fbc-0a51-4473-a5be-6e7863a5f8be","system_id":"levelo_inurba_marseille","lat":43.32538,"lon":5.4146,"is_reserved":false,"is_disabled":false,"rental_uris":{"android":"levelo://app?vid=0fd81fbc-0a51-4473-a5be-6e7863a5f8be","ios":"levelo://app?vid=0fd81fbc-0a51-4473-a5be-6e7863a5f8be"},"vehicle_type_id":"4","last_reported":1734513045,"current_range_meters":16000,"station_id":"ce4bhq12rcd13ifvqhhg","pricing_plan_id":"cebpf4jnsgd1na2vs0mg"},{"bike_id":"86c83bcb-399d-43cb-a4b5-54e53dfd94eb","system_id":"levelo_inurba_marseille","lat":43.305326,"lon":5.36696,"is_reserved":false,"is_disabled":false,"rental_uris":{"android":"levelo://app?vid=86c83bcb-399d-43cb-a4b5-54e53dfd94eb","ios":"levelo://app?vid=86c83bcb-399d-43cb-a4b5-54e53dfd94eb"},"vehicle_type_id":"4","last_reported":1734513045,"current_range_meters":38400,"station_id":"ce4bgrp2rcd13ifvqc9g","pricing_plan_id":"cebpf4jnsgd1na2vs0mg"},{"bike_id":"15d8b609-b61e-47cf-971f-7e678c5c1561","system_id":"levelo_inurba_marseille","lat":43.28963,"lon":5.37837,"is_reserved":false,"is_disabled":false,"rental_uris":{"android":"levelo://app?vid=15d8b609-b61e-47cf-971f-7e678c5c1561","ios":"levelo://app?vid=15d8b609-b61e-47cf-971f-7e678c5c1561"},"vehicle_type_id":"4","last_reported":1734513045,"current_range_meters":16800,"station_id":"ce4bh9p2rcd13ifvqed0","pricing_plan_id":"cebpf4jnsgd1na2vs0mg"},{"bike_id":"babbd801-7129-4e5c-a973-095de1f20c0f","system_id":"levelo_inurba_marseille","lat":43.29057,"lon":5.37174,"is_reserved":false,"is_disabled":false,"rental_uris":{"android":"levelo://app?vid=babbd801-7129-4e5c-a973-095de1f20c0f","ios":"levelo://app?vid=babbd801-7129-4e5c-a973-095de1f20c0f"},"vehicle_type_id":"4","last_reported":1734513045,"current_range_meters":37600,"station_id":"ce4bh5p2rcd13ifvqe4g","pricing_plan_id":"cebpf4jnsgd1na2vs0mg"},{"bike_id":"77b045ec-31af-4db4-b5a1-524f94c3c261","system_id":"levelo_inurba_marseille","lat":43.29292,"lon":5.37442,"is_reserved":false,"is_disabled":false,"rental_uris":{"android":"levelo://app?vid=77b045ec-31af-4db4-b5a1-524f94c3c261","ios":"levelo://app?vid=77b045ec-31af-4db4-b5a1-524f94c3c261"},"vehicle_type_id":"4","last_reported":1734513045,"current_range_meters":34800,"station_id":"ce4bgi12rcd13ifvqb70","pricing_plan_id":"cebpf4jnsgd1na2vs0mg"},{"bike_id":"86a2f59f-76d3-48d6-b9af-2d85a375ca86","system_id":"levelo_inurba_marseille","lat":43.28712,"lon":5.37932,"is_reserved":false,"is_disabled":false,"rental_uris":{"android":"levelo://app?vid=86a2f59f-76d3-48d6-b9af-2d85a375ca86","ios":"levelo://app?vid=86a2f59f-76d3-48d6-b9af-2d85a375ca86"},"vehicle_type_id":"4","last_reported":1734513045,"current_range_meters":28400,"station_id":"ce4bh9p2rcd13ifvqec0","pricing_plan_id":"cebpf4jnsgd1na2vs0mg"},{"bike_id":"17ac6964-4458-4245-838c-f8ac185a5ca7","system_id":"levelo_inurba_marseille","lat":43.275,"lon":5.42453,"is_reserved":false,"is_disabled":false,"rental_uris":{"android":"levelo://app?vid=17ac6964-4458-4245-838c-f8ac185a5ca7","ios":"levelo://app?vid=17ac6964-4458-4245-838c-f8ac185a5ca7"},"vehicle_type_id":"4","last_reported":1734513045,"current_range_meters":30800,"station_id":"ce4bhn92rcd13ifvqgrg","pricing_plan_id":"cebpf4jnsgd1na2vs0mg"},{"bike_id":"2bf4c27f-73f1-47b0-882f-c1c6ceb171f4","system_id":"levelo_inurba_marseille","lat":43.24069,"lon":5.37701,"is_reserved":false,"is_disabled":true,"rental_uris":{"android":"levelo://app?vid=2bf4c27f-73f1-47b0-882f-c1c6ceb171f4","ios":"levelo://app?vid=2bf4c27f-73f1-47b0-882f-c1c6ceb171f4"},"vehicle_type_id":"4","last_reported":1734513045,"current_range_meters":38800,"station_id":"ce4bhnp2rcd13ifvqgvg","pricing_plan_id":"cebpf4jnsgd1na2vs0mg"},{"bike_id":"13b89d28-be59-4841-b3b3-1a97c3f8e494","system_id":"levelo_inurba_marseille","lat":43.23148,"lon":5.43722,"is_reserved":false,"is_disabled":false,"rental_uris":{"android":"levelo://app?vid=13b89d28-be59-4841-b3b3-1a97c3f8e494","ios":"levelo://app?vid=13b89d28-be59-4841-b3b3-1a97c3f8e494"},"vehicle_type_id":"4","last_reported":1734513045,"current_range_meters":20800,"station_id":"ce4bhmp2rcd13ifvqgog","pricing_plan_id":"cebpf4jnsgd1na2vs0mg"},{"bike_id":"72492ff3-d3e5-4b81-822b-1d3357339451","system_id":"levelo_inurba_marseille","lat":43.29286,"lon":5.40121,"is_reserved":false,"is_disabled":true,"rental_uris":{"android":"levelo://app?vid=72492ff3-d3e5-4b81-822b-1d3357339451","ios":"levelo://app?vid=72492ff3-d3e5-4b81-822b-1d3357339451"},"vehicle_type_id":"4","last_reported":1734513045,"current_range_meters":38800,"station_id":"ce4bh312rcd13ifvqdk0","pricing_plan_id":"cebpf4jnsgd1na2vs0mg"},{"bike_id":"8799fefd-5a38-4a10-ae77-5a5729e60f4a","system_id":"levelo_inurba_marseille","lat":43.2438,"lon":5.37072,"is_reserved":false,"is_disabled":false,"rental_uris":{"android":"levelo://app?vid=8799fefd-5a38-4a10-ae77-5a5729e60f4a","ios":"levelo://app?vid=8799fefd-5a38-4a10-ae77-5a5729e60f4a"},"vehicle_type_id":"4","last_reported":1734513045,"current_range_meters":5600,"station_id":"ce4bhhh2rcd13ifvqfk0","pricing_plan_id":"cebpf4jnsgd1na2vs0mg"},{"bike_id":"4e903476-26ee-4c32-806f-26a87ba3a549","system_id":"levelo_inurba_marseille","lat":43.29414,"lon":5.386,"is_reserved":false,"is_disabled":true,"rental_uris":{"android":"levelo://app?vid=4e903476-26ee-4c32-806f-26a87ba3a549","ios":"levelo://app?vid=4e903476-26ee-4c32-806f-26a87ba3a549"},"vehicle_type_id":"4","last_reported":1734513045,"current_range_meters":0,"station_id":"ce4bh2h2rcd13ifvqdh0","pricing_plan_id":"cebpf4jnsgd1na2vs0mg"},{"bike_id":"62e198d0-7578-4043-8df8-aa595b722fa6","system_id":"levelo_inurba_marseille","lat":43.28724,"lon":5.37421,"is_reserved":false,"is_disabled":false,"rental_uris":{"android":"levelo://app?vid=62e198d0-7578-4043-8df8-aa595b722fa6","ios":"levelo://app?vid=62e198d0-7578-4043-8df8-aa595b722fa6"},"vehicle_type_id":"4","last_reported":1734513045,"current_range_meters":38800,"station_id":"ce4bh3p2rcd13ifvqdq0","pricing_plan_id":"cebpf4jnsgd1na2vs0mg"},{"bike_id":"5bfd8ecf-70c3-492f-b947-a4e8cbf682c9","system_id":"levelo_inurba_marseille","lat":43.24086,"lon":5.37752,"is_reserved":false,"is_disabled":false,"rental_uris":{"android":"levelo://app?vid=5bfd8ecf-70c3-492f-b947-a4e8cbf682c9","ios":"levelo://app?vid=5bfd8ecf-70c3-492f-b947-a4e8cbf682c9"},"vehicle_type_id":"4","last_reported":1734513045,"current_range_meters":16800,"station_id":"ce4bhnp2rcd13ifvqgvg","pricing_plan_id":"cebpf4jnsgd1na2vs0mg"},{"bike_id":"a47a812b-8479-4dbf-a984-c261870d3f1a","system_id":"levelo_inurba_marseille","lat":43.3248,"lon":5.36557,"is_reserved":false,"is_disabled":false,"rental_uris":{"android":"levelo://app?vid=a47a812b-8479-4dbf-a984-c261870d3f1a","ios":"levelo://app?vid=a47a812b-8479-4dbf-a984-c261870d3f1a"},"vehicle_type_id":"4","last_reported":1734513045,"current_range_meters":39200,"station_id":"ce4bhs12rcd13ifvqhvg","pricing_plan_id":"cebpf4jnsgd1na2vs0mg"},{"bike_id":"7682968a-7389-4de1-8f9a-031d84c2ce3f","system_id":"levelo_inurba_marseille","lat":43.31363,"lon":5.36715,"is_reserved":false,"is_disabled":false,"rental_uris":{"android":"levelo://app?vid=7682968a-7389-4de1-8f9a-031d84c2ce3f","ios":"levelo://app?vid=7682968a-7389-4de1-8f9a-031d84c2ce3f"},"vehicle_type_id":"4","last_reported":1734513045,"current_range_meters":32000,"station_id":"ce4bgr92rcd13ifvqc6g","pricing_plan_id":"cebpf4jnsgd1na2vs0mg"},{"bike_id":"0dfe846c-42dd-4f00-932f-781023f17871","system_id":"levelo_inurba_marseille","lat":43.33609,"lon":5.41028,"is_reserved":false,"is_disabled":true,"rental_uris":{"android":"levelo://app?vid=0dfe846c-42dd-4f00-932f-781023f17871","ios":"levelo://app?vid=0dfe846c-42dd-4f00-932f-781023f17871"},"vehicle_type_id":"4","last_reported":1734513045,"current_range_meters":0,"station_id":"ce4bhqh2rcd13ifvqhmg","pricing_plan_id":"cebpf4jnsgd1na2vs0mg"},{"bike_id":"1561009f-222a-43a2-b2f9-21f076c943ae","system_id":"levelo_inurba_marseille","lat":43.31264,"lon":5.40186,"is_reserved":false,"is_disabled":false,"rental_uris":{"android":"levelo://app?vid=1561009f-222a-43a2-b2f9-21f076c943ae","ios":"levelo://app?vid=1561009f-222a-43a2-b2f9-21f076c943ae"},"vehicle_type_id":"4","last_reported":1734513045,"current_range_meters":38800,"station_id":"ce4bh092rcd13ifvqd30","pricing_plan_id":"cebpf4jnsgd1na2vs0mg"},{"bike_id":"81101a09-ac4b-4fd9-8bd4-6a7b39caac48","system_id":"levelo_inurba_marseille","lat":43.24663,"lon":5.38168,"is_reserved":false,"is_disabled":false,"rental_uris":{"android":"levelo://app?vid=81101a09-ac4b-4fd9-8bd4-6a7b39caac48","ios":"levelo://app?vid=81101a09-ac4b-4fd9-8bd4-6a7b39caac48"},"vehicle_type_id":"4","last_reported":1734513045,"current_range_meters":25200,"station_id":"ce4bhih2rcd13ifvqfr0","pricing_plan_id":"cebpf4jnsgd1na2vs0mg"},{"bike_id":"782bcbf2-b7de-4b04-bebc-aaa0329dd90c","system_id":"levelo_inurba_marseille","lat":43.23193,"lon":5.35553,"is_reserved":false,"is_disabled":false,"rental_uris":{"android":"levelo://app?vid=782bcbf2-b7de-4b04-bebc-aaa0329dd90c","ios":"levelo://app?vid=782bcbf2-b7de-4b04-bebc-aaa0329dd90c"},"vehicle_type_id":"4","last_reported":1734513045,"current_range_meters":38800,"station_id":"ce4bhu92rcd13ifvqi70","pricing_plan_id":"cebpf4jnsgd1na2vs0mg"},{"bike_id":"a925316d-9d31-43b0-a430-5cb1bef87372","system_id":"levelo_inurba_marseille","lat":43.27184,"lon":5.40991,"is_reserved":false,"is_disabled":false,"rental_uris":{"android":"levelo://app?vid=a925316d-9d31-43b0-a430-5cb1bef87372","ios":"levelo://app?vid=a925316d-9d31-43b0-a430-5cb1bef87372"},"vehicle_type_id":"4","last_reported":1734513045,"current_range_meters":20000,"station_id":"ce4bhl12rcd13ifvqgf0","pricing_plan_id":"cebpf4jnsgd1na2vs0mg"},{"bike_id":"2d96766a-3106-48a8-a3ef-d83b799effad","system_id":"levelo_inurba_marseille","lat":43.29302,"lon":5.37459,"is_reserved":false,"is_disabled":false,"rental_uris":{"android":"levelo://app?vid=2d96766a-3106-48a8-a3ef-d83b799effad","ios":"levelo://app?vid=2d96766a-3106-48a8-a3ef-d83b799effad"},"vehicle_type_id":"4","last_reported":1734513045,"current_range_meters":7200,"station_id":"ce4bgi12rcd13ifvqb70","pricing_plan_id":"cebpf4jnsgd1na2vs0mg"},{"bike_id":"4590026f-4d8e-4294-8f2a-8d70931cbcb5","system_id":"levelo_inurba_marseille","lat":43.28485,"lon":5.38431,"is_reserved":false,"is_disabled":true,"rental_uris":{"android":"levelo://app?vid=4590026f-4d8e-4294-8f2a-8d70931cbcb5","ios":"levelo://app?vid=4590026f-4d8e-4294-8f2a-8d70931cbcb5"},"vehicle_type_id":"4","last_reported":1734513045,"current_range_meters":33200,"station_id":"ce4bh512rcd13ifvqe3g","pricing_plan_id":"cebpf4jnsgd1na2vs0mg"},{"bike_id":"96ff88dc-8cf7-4b0f-a345-fa00220da932","system_id":"levelo_inurba_marseille","lat":43.274,"lon":5.42385,"is_reserved":false,"is_disabled":true,"rental_uris":{"android":"levelo://app?vid=96ff88dc-8cf7-4b0f-a345-fa00220da932","ios":"levelo://app?vid=96ff88dc-8cf7-4b0f-a345-fa00220da932"},"vehicle_type_id":"4","last_reported":1734513045,"current_range_meters":0,"station_id":"","pricing_plan_id":"cebpf4jnsgd1na2vs0mg"},{"bike_id":"218576bb-3957-48c4-a450-8d10902cba3f","system_id":"levelo_inurba_marseille","lat":43.26187,"lon":5.37436,"is_reserved":false,"is_disabled":false,"rental_uris":{"android":"levelo://app?vid=218576bb-3957-48c4-a450-8d10902cba3f","ios":"levelo://app?vid=218576bb-3957-48c4-a450-8d10902cba3f"},"vehicle_type_id":"4","last_reported":1734513045,"current_range_meters":37600,"station_id":"ce4bhgp2rcd13ifvqfc0","pricing_plan_id":"cebpf4jnsgd1na2vs0mg"},{"bike_id":"11681f9b-56b3-4e96-8f51-99ed015b1f22","system_id":"levelo_inurba_marseille","lat":43.27498,"lon":5.42449,"is_reserved":false,"is_disabled":false,"rental_uris":{"android":"levelo://app?vid=11681f9b-56b3-4e96-8f51-99ed015b1f22","ios":"levelo://app?vid=11681f9b-56b3-4e96-8f51-99ed015b1f22"},"vehicle_type_id":"4","last_reported":1734513045,"current_range_meters":30400,"station_id":"ce4bhn92rcd13ifvqgrg","pricing_plan_id":"cebpf4jnsgd1na2vs0mg"},{"bike_id":"822408b5-93b6-4b7e-a2e4-a91cfb6d79ad","system_id":"levelo_inurba_marseille","lat":43.24179,"lon":5.3971,"is_reserved":false,"is_disabled":false,"rental_uris":{"android":"levelo://app?vid=822408b5-93b6-4b7e-a2e4-a91cfb6d79ad","ios":"levelo://app?vid=822408b5-93b6-4b7e-a2e4-a91cfb6d79ad"},"vehicle_type_id":"4","last_reported":1734513045,"current_range_meters":38800,"station_id":"ce4bhn12rcd13ifvqgpg","pricing_plan_id":"cebpf4jnsgd1na2vs0mg"},{"bike_id":"1c0bbb05-6ea7-4d2f-91f2-1c62a0717406","system_id":"levelo_inurba_marseille","lat":43.30914,"lon":5.39148,"is_reserved":false,"is_disabled":false,"rental_uris":{"android":"levelo://app?vid=1c0bbb05-6ea7-4d2f-91f2-1c62a0717406","ios":"levelo://app?vid=1c0bbb05-6ea7-4d2f-91f2-1c62a0717406"},"vehicle_type_id":"4","last_reported":1734513045,"current_range_meters":16000,"station_id":"ce4bh4p2rcd13ifvqe1g","pricing_plan_id":"cebpf4jnsgd1na2vs0mg"},{"bike_id":"47f7db02-ff86-46bf-b8dc-c30068ec1d78","system_id":"levelo_inurba_marseille","lat":43.30455,"lon":5.37907,"is_reserved":false,"is_disabled":false,"rental_uris":{"android":"levelo://app?vid=47f7db02-ff86-46bf-b8dc-c30068ec1d78","ios":"levelo://app?vid=47f7db02-ff86-46bf-b8dc-c30068ec1d78"},"vehicle_type_id":"4","last_reported":1734513045,"current_range_meters":28000,"station_id":"ce4bgup2rcd13ifvqcn0","pricing_plan_id":"cebpf4jnsgd1na2vs0mg"},{"bike_id":"b2c4cd55-c390-48f6-8aae-acf72a749ede","system_id":"levelo_inurba_marseille","lat":43.27493,"lon":5.42462,"is_reserved":false,"is_disabled":false,"rental_uris":{"android":"levelo://app?vid=b2c4cd55-c390-48f6-8aae-acf72a749ede","ios":"levelo://app?vid=b2c4cd55-c390-48f6-8aae-acf72a749ede"},"vehicle_type_id":"4","last_reported":1734513045,"current_range_meters":23200,"station_id":"ce4bhn92rcd13ifvqgrg","pricing_plan_id":"cebpf4jnsgd1na2vs0mg"},{"bike_id":"c3f951ef-8417-4029-a95b-c2c28af98559","system_id":"levelo_inurba_marseille","lat":43.24079,"lon":5.37762,"is_reserved":false,"is_disabled":false,"rental_uris":{"android":"levelo://app?vid=c3f951ef-8417-4029-a95b-c2c28af98559","ios":"levelo://app?vid=c3f951ef-8417-4029-a95b-c2c28af98559"},"vehicle_type_id":"4","last_reported":1734513045,"current_range_meters":31200,"station_id":"ce4bhnp2rcd13ifvqgvg","pricing_plan_id":"cebpf4jnsgd1na2vs0mg"},{"bike_id":"1adaea00-ed72-49a8-91bf-6c20e9f42f29","system_id":"levelo_inurba_marseille","lat":43.23182,"lon":5.39986,"is_reserved":false,"is_disabled":false,"rental_uris":{"android":"levelo://app?vid=1adaea00-ed72-49a8-91bf-6c20e9f42f29","ios":"levelo://app?vid=1adaea00-ed72-49a8-91bf-6c20e9f42f29"},"vehicle_type_id":"4","last_reported":1734513045,"current_range_meters":35600,"station_id":"ce4bhn12rcd13ifvqgqg","pricing_plan_id":"cebpf4jnsgd1na2vs0mg"},{"bike_id":"272c380d-0e96-4217-82cd-b4ae34bffa4a","system_id":"levelo_inurba_marseille","lat":43.26925,"lon":5.38914,"is_reserved":false,"is_disabled":false,"rental_uris":{"android":"levelo://app?vid=272c380d-0e96-4217-82cd-b4ae34bffa4a","ios":"levelo://app?vid=272c380d-0e96-4217-82cd-b4ae34bffa4a"},"vehicle_type_id":"4","last_reported":1734513045,"current_range_meters":24800,"station_id":"ce4bhhh2rcd13ifvqfl0","pricing_plan_id":"cebpf4jnsgd1na2vs0mg"},{"bike_id":"7ed21e29-371c-48d9-b2d2-ccbd959762af","system_id":"levelo_inurba_marseille","lat":43.30134,"lon":5.38785,"is_reserved":false,"is_disabled":false,"rental_uris":{"android":"levelo://app?vid=7ed21e29-371c-48d9-b2d2-ccbd959762af","ios":"levelo://app?vid=7ed21e29-371c-48d9-b2d2-ccbd959762af"},"vehicle_type_id":"4","last_reported":1734513045,"current_range_meters":24000,"station_id":"ce4bghh2rcd13ifvqb60","pricing_plan_id":"cebpf4jnsgd1na2vs0mg"},{"bike_id":"44deefaf-2157-476b-b24f-88f77d448079","system_id":"levelo_inurba_marseille","lat":43.27666,"lon":5.38875,"is_reserved":false,"is_disabled":false,"rental_uris":{"android":"levelo://app?vid=44deefaf-2157-476b-b24f-88f77d448079","ios":"levelo://app?vid=44deefaf-2157-476b-b24f-88f77d448079"},"vehicle_type_id":"4","last_reported":1734513045,"current_range_meters":21600,"station_id":"ce4bhi12rcd13ifvqfo0","pricing_plan_id":"cebpf4jnsgd1na2vs0mg"},{"bike_id":"1f088edd-e254-4389-aab0-8bb3edc2dc9e","system_id":"levelo_inurba_marseille","lat":43.32474,"lon":5.36545,"is_reserved":false,"is_disabled":false,"rental_uris":{"android":"levelo://app?vid=1f088edd-e254-4389-aab0-8bb3edc2dc9e","ios":"levelo://app?vid=1f088edd-e254-4389-aab0-8bb3edc2dc9e"},"vehicle_type_id":"4","last_reported":1734513045,"current_range_meters":39200,"station_id":"ce4bhs12rcd13ifvqhvg","pricing_plan_id":"cebpf4jnsgd1na2vs0mg"},{"bike_id":"919bc96b-1644-4ec1-9c19-13d3b513743e","system_id":"levelo_inurba_marseille","lat":43.30135,"lon":5.37419,"is_reserved":false,"is_disabled":false,"rental_uris":{"android":"levelo://app?vid=919bc96b-1644-4ec1-9c19-13d3b513743e","ios":"levelo://app?vid=919bc96b-1644-4ec1-9c19-13d3b513743e"},"vehicle_type_id":"4","last_reported":1734513045,"current_range_meters":16800,"station_id":"ce4bgs92rcd13ifvqcc0","pricing_plan_id":"cebpf4jnsgd1na2vs0mg"},{"bike_id":"3a355a23-f5df-4eef-8b3d-620c6297e555","system_id":"levelo_inurba_marseille","lat":43.29272,"lon":5.40116,"is_reserved":false,"is_disabled":false,"rental_uris":{"android":"levelo://app?vid=3a355a23-f5df-4eef-8b3d-620c6297e555","ios":"levelo://app?vid=3a355a23-f5df-4eef-8b3d-620c6297e555"},"vehicle_type_id":"4","last_reported":1734513045,"current_range_meters":32400,"station_id":"ce4bh312rcd13ifvqdk0","pricing_plan_id":"cebpf4jnsgd1na2vs0mg"},{"bike_id":"2243b907-1461-45a7-a2e2-bc79dd8a7a24","system_id":"levelo_inurba_marseille","lat":43.296,"lon":5.37722,"is_reserved":false,"is_disabled":false,"rental_uris":{"android":"levelo://app?vid=2243b907-1461-45a7-a2e2-bc79dd8a7a24","ios":"levelo://app?vid=2243b907-1461-45a7-a2e2-bc79dd8a7a24"},"vehicle_type_id":"4","last_reported":1734513045,"current_range_meters":36400,"station_id":"ce4bgi92rcd13ifvqb90","pricing_plan_id":"cebpf4jnsgd1na2vs0mg"},{"bike_id":"c7b69568-7a78-440f-b70f-d8bf1dc5a75e","system_id":"levelo_inurba_marseille","lat":43.29837,"lon":5.362627,"is_reserved":false,"is_disabled":false,"rental_uris":{"android":"levelo://app?vid=c7b69568-7a78-440f-b70f-d8bf1dc5a75e","ios":"levelo://app?vid=c7b69568-7a78-440f-b70f-d8bf1dc5a75e"},"vehicle_type_id":"4","last_reported":1734513045,"current_range_meters":38800,"station_id":"ce4bgpp2rcd13ifvqc3g","pricing_plan_id":"cebpf4jnsgd1na2vs0mg"},{"bike_id":"e63ec124-f160-46c4-aad4-b0f59e1a5cf9","system_id":"levelo_inurba_marseille","lat":43.27992,"lon":5.41649,"is_reserved":false,"is_disabled":true,"rental_uris":{"android":"levelo://app?vid=e63ec124-f160-46c4-aad4-b0f59e1a5cf9","ios":"levelo://app?vid=e63ec124-f160-46c4-aad4-b0f59e1a5cf9"},"vehicle_type_id":"4","last_reported":1734513045,"current_range_meters":22400,"station_id":"ce4bho12rcd13ifvqh1g","pricing_plan_id":"cebpf4jnsgd1na2vs0mg"},{"bike_id":"01d6cc81-e0d8-404c-992c-e94703ed98a7","system_id":"levelo_inurba_marseille","lat":43.26688,"lon":5.38274,"is_reserved":false,"is_disabled":false,"rental_uris":{"android":"levelo://app?vid=01d6cc81-e0d8-404c-992c-e94703ed98a7","ios":"levelo://app?vid=01d6cc81-e0d8-404c-992c-e94703ed98a7"},"vehicle_type_id":"4","last_reported":1734513045,"current_range_meters":25600,"station_id":"ce4bhg92rcd13ifvqf90","pricing_plan_id":"cebpf4jnsgd1na2vs0mg"},{"bike_id":"36ae2263-0b9c-4d5c-b7c6-656ba1538b30","system_id":"levelo_inurba_marseille","lat":43.27054,"lon":5.40261,"is_reserved":false,"is_disabled":false,"rental_uris":{"android":"levelo://app?vid=36ae2263-0b9c-4d5c-b7c6-656ba1538b30","ios":"levelo://app?vid=36ae2263-0b9c-4d5c-b7c6-656ba1538b30"},"vehicle_type_id":"4","last_reported":1734513045,"current_range_meters":11600,"station_id":"ce4bhk92rcd13ifvqgc0","pricing_plan_id":"cebpf4jnsgd1na2vs0mg"},{"bike_id":"174b2918-a743-480f-8b7d-512077d4bcbd","system_id":"levelo_inurba_marseille","lat":43.29008,"lon":5.38515,"is_reserved":false,"is_disabled":false,"rental_uris":{"android":"levelo://app?vid=174b2918-a743-480f-8b7d-512077d4bcbd","ios":"levelo://app?vid=174b2918-a743-480f-8b7d-512077d4bcbd"},"vehicle_type_id":"4","last_reported":1734513045,"current_range_meters":28000,"station_id":"ce4bh4p2rcd13ifvqe0g","pricing_plan_id":"cebpf4jnsgd1na2vs0mg"},{"bike_id":"2c35d799-8445-41f0-9531-f1ab81d4f0aa","system_id":"levelo_inurba_marseille","lat":43.28426,"lon":5.37523,"is_reserved":false,"is_disabled":true,"rental_uris":{"android":"levelo://app?vid=2c35d799-8445-41f0-9531-f1ab81d4f0aa","ios":"levelo://app?vid=2c35d799-8445-41f0-9531-f1ab81d4f0aa"},"vehicle_type_id":"4","last_reported":1734513045,"current_range_meters":28400,"station_id":"ce4bh412rcd13ifvqds0","pricing_plan_id":"cebpf4jnsgd1na2vs0mg"},{"bike_id":"92ab3d07-24fb-4b6a-a1d5-6ef723c852b1","system_id":"levelo_inurba_marseille","lat":43.30799,"lon":5.38152,"is_reserved":false,"is_disabled":false,"rental_uris":{"android":"levelo://app?vid=92ab3d07-24fb-4b6a-a1d5-6ef723c852b1","ios":"levelo://app?vid=92ab3d07-24fb-4b6a-a1d5-6ef723c852b1"},"vehicle_type_id":"4","last_reported":1734513045,"current_range_meters":10000,"station_id":"ce4bgt12rcd13ifvqce0","pricing_plan_id":"cebpf4jnsgd1na2vs0mg"},{"bike_id":"fc2c3daa-143d-41d7-8998-f7412d24e8e3","system_id":"levelo_inurba_marseille","lat":43.27995,"lon":5.41667,"is_reserved":false,"is_disabled":false,"rental_uris":{"android":"levelo://app?vid=fc2c3daa-143d-41d7-8998-f7412d24e8e3","ios":"levelo://app?vid=fc2c3daa-143d-41d7-8998-f7412d24e8e3"},"vehicle_type_id":"4","last_reported":1734513045,"current_range_meters":39200,"station_id":"ce4bho12rcd13ifvqh1g","pricing_plan_id":"cebpf4jnsgd1na2vs0mg"},{"bike_id":"7b377d1f-9911-40eb-a4aa-03ed7c53d23e","system_id":"levelo_inurba_marseille","lat":43.27932,"lon":5.41041,"is_reserved":false,"is_disabled":false,"rental_uris":{"android":"levelo://app?vid=7b377d1f-9911-40eb-a4aa-03ed7c53d23e","ios":"levelo://app?vid=7b377d1f-9911-40eb-a4aa-03ed7c53d23e"},"vehicle_type_id":"4","last_reported":1734513045,"current_range_meters":28400,"station_id":"ce4bhnp2rcd13ifvqh0g","pricing_plan_id":"cebpf4jnsgd1na2vs0mg"},{"bike_id":"68907ca0-038a-4705-886b-af6c122ac485","system_id":"levelo_inurba_marseille","lat":43.23181,"lon":5.39976,"is_reserved":false,"is_disabled":false,"rental_uris":{"android":"levelo://app?vid=68907ca0-038a-4705-886b-af6c122ac485","ios":"levelo://app?vid=68907ca0-038a-4705-886b-af6c122ac485"},"vehicle_type_id":"4","last_reported":1734513045,"current_range_meters":38800,"station_id":"ce4bhn12rcd13ifvqgqg","pricing_plan_id":"cebpf4jnsgd1na2vs0mg"},{"bike_id":"0b6d5b13-36ca-4dc8-8c07-6df4b8e16ac0","system_id":"levelo_inurba_marseille","lat":43.27494,"lon":5.42454,"is_reserved":false,"is_disabled":false,"rental_uris":{"android":"levelo://app?vid=0b6d5b13-36ca-4dc8-8c07-6df4b8e16ac0","ios":"levelo://app?vid=0b6d5b13-36ca-4dc8-8c07-6df4b8e16ac0"},"vehicle_type_id":"4","last_reported":1734513045,"current_range_meters":35200,"station_id":"ce4bhn92rcd13ifvqgrg","pricing_plan_id":"cebpf4jnsgd1na2vs0mg"},{"bike_id":"a852f14c-1573-40fe-bdb0-30bcf5f773fb","system_id":"levelo_inurba_marseille","lat":43.28633,"lon":5.35103,"is_reserved":false,"is_disabled":false,"rental_uris":{"android":"levelo://app?vid=a852f14c-1573-40fe-bdb0-30bcf5f773fb","ios":"levelo://app?vid=a852f14c-1573-40fe-bdb0-30bcf5f773fb"},"vehicle_type_id":"4","last_reported":1734513045,"current_range_meters":17200,"station_id":"ce4bhch2rcd13ifvqeug","pricing_plan_id":"cebpf4jnsgd1na2vs0mg"},{"bike_id":"70a9681d-4790-4134-8b85-bbde0d7e50b6","system_id":"levelo_inurba_marseille","lat":43.31325,"lon":5.39697,"is_reserved":false,"is_disabled":false,"rental_uris":{"android":"levelo://app?vid=70a9681d-4790-4134-8b85-bbde0d7e50b6","ios":"levelo://app?vid=70a9681d-4790-4134-8b85-bbde0d7e50b6"},"vehicle_type_id":"4","last_reported":1734513045,"current_range_meters":35200,"station_id":"ce4bgvp2rcd13ifvqcu0","pricing_plan_id":"cebpf4jnsgd1na2vs0mg"},{"bike_id":"bee26b49-e2e6-4085-aeec-ae6bd5f39825","system_id":"levelo_inurba_marseille","lat":43.30959,"lon":5.39042,"is_reserved":false,"is_disabled":false,"rental_uris":{"android":"levelo://app?vid=bee26b49-e2e6-4085-aeec-ae6bd5f39825","ios":"levelo://app?vid=bee26b49-e2e6-4085-aeec-ae6bd5f39825"},"vehicle_type_id":"4","last_reported":1734513045,"current_range_meters":27200,"station_id":"ce4bgup2rcd13ifvqco0","pricing_plan_id":"cebpf4jnsgd1na2vs0mg"},{"bike_id":"46473202-c14a-48db-a1b0-c4be44be6edc","system_id":"levelo_inurba_marseille","lat":43.33606,"lon":5.41031,"is_reserved":false,"is_disabled":true,"rental_uris":{"android":"levelo://app?vid=46473202-c14a-48db-a1b0-c4be44be6edc","ios":"levelo://app?vid=46473202-c14a-48db-a1b0-c4be44be6edc"},"vehicle_type_id":"4","last_reported":1734513045,"current_range_meters":1600,"station_id":"ce4bhqh2rcd13ifvqhmg","pricing_plan_id":"cebpf4jnsgd1na2vs0mg"},{"bike_id":"61d6f95e-9317-4fb0-a3ec-55b27609f3ee","system_id":"levelo_inurba_marseille","lat":43.32061,"lon":5.41578,"is_reserved":false,"is_disabled":false,"rental_uris":{"android":"levelo://app?vid=61d6f95e-9317-4fb0-a3ec-55b27609f3ee","ios":"levelo://app?vid=61d6f95e-9317-4fb0-a3ec-55b27609f3ee"},"vehicle_type_id":"4","last_reported":1734513045,"current_range_meters":38800,"station_id":"ce4bhq92rcd13ifvqhkg","pricing_plan_id":"cebpf4jnsgd1na2vs0mg"},{"bike_id":"f3b2ef88-781e-4e8a-b4e5-436df408c9cf","system_id":"levelo_inurba_marseille","lat":43.29292,"lon":5.37462,"is_reserved":false,"is_disabled":false,"rental_uris":{"android":"levelo://app?vid=f3b2ef88-781e-4e8a-b4e5-436df408c9cf","ios":"levelo://app?vid=f3b2ef88-781e-4e8a-b4e5-436df408c9cf"},"vehicle_type_id":"4","last_reported":1734513045,"current_range_meters":27600,"station_id":"ce4bgi12rcd13ifvqb70","pricing_plan_id":"cebpf4jnsgd1na2vs0mg"},{"bike_id":"bb337245-7c41-4671-900b-a4d92ae562c6","system_id":"levelo_inurba_marseille","lat":43.29533,"lon":5.39031,"is_reserved":false,"is_disabled":true,"rental_uris":{"android":"levelo://app?vid=bb337245-7c41-4671-900b-a4d92ae562c6","ios":"levelo://app?vid=bb337245-7c41-4671-900b-a4d92ae562c6"},"vehicle_type_id":"4","last_reported":1734513045,"current_range_meters":1200,"station_id":"ce4bh3p2rcd13ifvqdp0","pricing_plan_id":"cebpf4jnsgd1na2vs0mg"},{"bike_id":"2186a2cd-950d-4c1d-9172-2a8811a0b368","system_id":"levelo_inurba_marseille","lat":43.30321,"lon":5.36873,"is_reserved":false,"is_disabled":false,"rental_uris":{"android":"levelo://app?vid=2186a2cd-950d-4c1d-9172-2a8811a0b368","ios":"levelo://app?vid=2186a2cd-950d-4c1d-9172-2a8811a0b368"},"vehicle_type_id":"4","last_reported":1734513045,"current_range_meters":3200,"station_id":"ce4bgqh2rcd13ifvqc5g","pricing_plan_id":"cebpf4jnsgd1na2vs0mg"},{"bike_id":"859e7849-50b6-4290-a99c-71e1ce0df12c","system_id":"levelo_inurba_marseille","lat":43.30531,"lon":5.36532,"is_reserved":false,"is_disabled":false,"rental_uris":{"android":"levelo://app?vid=859e7849-50b6-4290-a99c-71e1ce0df12c","ios":"levelo://app?vid=859e7849-50b6-4290-a99c-71e1ce0df12c"},"vehicle_type_id":"4","last_reported":1734513045,"current_range_meters":26000,"station_id":"ce4bgs12rcd13ifvqcag","pricing_plan_id":"cebpf4jnsgd1na2vs0mg"},{"bike_id":"33c354b3-5ff8-44a2-9bca-4db9e857fb9d","system_id":"levelo_inurba_marseille","lat":43.2315,"lon":5.43711,"is_reserved":false,"is_disabled":false,"rental_uris":{"android":"levelo://app?vid=33c354b3-5ff8-44a2-9bca-4db9e857fb9d","ios":"levelo://app?vid=33c354b3-5ff8-44a2-9bca-4db9e857fb9d"},"vehicle_type_id":"4","last_reported":1734513045,"current_range_meters":28000,"station_id":"ce4bhmp2rcd13ifvqgog","pricing_plan_id":"cebpf4jnsgd1na2vs0mg"},{"bike_id":"c710501a-8287-45ad-a437-3a636c3d166d","system_id":"levelo_inurba_marseille","lat":43.31325,"lon":5.39696,"is_reserved":false,"is_disabled":false,"rental_uris":{"android":"levelo://app?vid=c710501a-8287-45ad-a437-3a636c3d166d","ios":"levelo://app?vid=c710501a-8287-45ad-a437-3a636c3d166d"},"vehicle_type_id":"4","last_reported":1734513045,"current_range_meters":36800,"station_id":"ce4bgvp2rcd13ifvqcu0","pricing_plan_id":"cebpf4jnsgd1na2vs0mg"},{"bike_id":"f52c1486-aab1-49cb-8102-2c33c57e7b57","system_id":"levelo_inurba_marseille","lat":43.33611,"lon":5.41055,"is_reserved":false,"is_disabled":false,"rental_uris":{"android":"levelo://app?vid=f52c1486-aab1-49cb-8102-2c33c57e7b57","ios":"levelo://app?vid=f52c1486-aab1-49cb-8102-2c33c57e7b57"},"vehicle_type_id":"4","last_reported":1734513045,"current_range_meters":23200,"station_id":"ce4bhqh2rcd13ifvqhmg","pricing_plan_id":"cebpf4jnsgd1na2vs0mg"},{"bike_id":"1cc30cb6-f18d-4862-b991-88715930d8c9","system_id":"levelo_inurba_marseille","lat":43.24075,"lon":5.37756,"is_reserved":false,"is_disabled":false,"rental_uris":{"android":"levelo://app?vid=1cc30cb6-f18d-4862-b991-88715930d8c9","ios":"levelo://app?vid=1cc30cb6-f18d-4862-b991-88715930d8c9"},"vehicle_type_id":"4","last_reported":1734513045,"current_range_meters":14000,"station_id":"ce4bhnp2rcd13ifvqgvg","pricing_plan_id":"cebpf4jnsgd1na2vs0mg"},{"bike_id":"eb7cd7b9-01c5-4120-bb55-5221a32a505c","system_id":"levelo_inurba_marseille","lat":43.29265,"lon":5.40084,"is_reserved":false,"is_disabled":true,"rental_uris":{"android":"levelo://app?vid=eb7cd7b9-01c5-4120-bb55-5221a32a505c","ios":"levelo://app?vid=eb7cd7b9-01c5-4120-bb55-5221a32a505c"},"vehicle_type_id":"4","last_reported":1734513045,"current_range_meters":31200,"station_id":"ce4bh312rcd13ifvqdk0","pricing_plan_id":"cebpf4jnsgd1na2vs0mg"},{"bike_id":"eba901e5-0847-4fc0-b2b6-9eb1834c3e7a","system_id":"levelo_inurba_marseille","lat":43.29548,"lon":5.42264,"is_reserved":false,"is_disabled":true,"rental_uris":{"android":"levelo://app?vid=eba901e5-0847-4fc0-b2b6-9eb1834c3e7a","ios":"levelo://app?vid=eba901e5-0847-4fc0-b2b6-9eb1834c3e7a"},"vehicle_type_id":"4","last_reported":1734513045,"current_range_meters":0,"station_id":"ce4bhph2rcd13ifvqhdg","pricing_plan_id":"cebpf4jnsgd1na2vs0mg"},{"bike_id":"345d80f6-1525-4241-80c9-c6920b13eab2","system_id":"levelo_inurba_marseille","lat":43.29528,"lon":5.38542,"is_reserved":false,"is_disabled":true,"rental_uris":{"android":"levelo://app?vid=345d80f6-1525-4241-80c9-c6920b13eab2","ios":"levelo://app?vid=345d80f6-1525-4241-80c9-c6920b13eab2"},"vehicle_type_id":"4","last_reported":1734513045,"current_range_meters":14800,"station_id":"ce4bgih2rcd13ifvqba0","pricing_plan_id":"cebpf4jnsgd1na2vs0mg"},{"bike_id":"07cbdb6f-6b5a-42a8-8834-7a4a5909ca3f","system_id":"levelo_inurba_marseille","lat":43.31681,"lon":5.40469,"is_reserved":false,"is_disabled":false,"rental_uris":{"android":"levelo://app?vid=07cbdb6f-6b5a-42a8-8834-7a4a5909ca3f","ios":"levelo://app?vid=07cbdb6f-6b5a-42a8-8834-7a4a5909ca3f"},"vehicle_type_id":"4","last_reported":1734513045,"current_range_meters":38000,"station_id":"ce4bh012rcd13ifvqd00","pricing_plan_id":"cebpf4jnsgd1na2vs0mg"},{"bike_id":"22da1c4d-c79f-4a1a-8741-9e0e56544724","system_id":"levelo_inurba_marseille","lat":43.28355,"lon":5.38622,"is_reserved":false,"is_disabled":false,"rental_uris":{"android":"levelo://app?vid=22da1c4d-c79f-4a1a-8741-9e0e56544724","ios":"levelo://app?vid=22da1c4d-c79f-4a1a-8741-9e0e56544724"},"vehicle_type_id":"4","last_reported":1734513045,"current_range_meters":39200,"station_id":"ce4bh492rcd13ifvqdvg","pricing_plan_id":"cebpf4jnsgd1na2vs0mg"},{"bike_id":"ed3a8591-316e-49ab-a80e-c8c5d9c39c56","system_id":"levelo_inurba_marseille","lat":43.30104,"lon":5.39056,"is_reserved":false,"is_disabled":true,"rental_uris":{"android":"levelo://app?vid=ed3a8591-316e-49ab-a80e-c8c5d9c39c56","ios":"levelo://app?vid=ed3a8591-316e-49ab-a80e-c8c5d9c39c56"},"vehicle_type_id":"4","last_reported":1734513045,"current_range_meters":31200,"station_id":"ce4bh192rcd13ifvqdb0","pricing_plan_id":"cebpf4jnsgd1na2vs0mg"},{"bike_id":"00f791c6-ea03-4c7f-b8de-b9c19d5bb899","system_id":"levelo_inurba_marseille","lat":43.2438,"lon":5.37044,"is_reserved":false,"is_disabled":false,"rental_uris":{"android":"levelo://app?vid=00f791c6-ea03-4c7f-b8de-b9c19d5bb899","ios":"levelo://app?vid=00f791c6-ea03-4c7f-b8de-b9c19d5bb899"},"vehicle_type_id":"4","last_reported":1734513045,"current_range_meters":23200,"station_id":"ce4bhhh2rcd13ifvqfk0","pricing_plan_id":"cebpf4jnsgd1na2vs0mg"},{"bike_id":"3f684ade-8ff8-412b-8c78-ba957e925730","system_id":"levelo_inurba_marseille","lat":43.3054,"lon":5.36702,"is_reserved":false,"is_disabled":false,"rental_uris":{"android":"levelo://app?vid=3f684ade-8ff8-412b-8c78-ba957e925730","ios":"levelo://app?vid=3f684ade-8ff8-412b-8c78-ba957e925730"},"vehicle_type_id":"4","last_reported":1734513045,"current_range_meters":28800,"station_id":"ce4bgrp2rcd13ifvqc9g","pricing_plan_id":"cebpf4jnsgd1na2vs0mg"},{"bike_id":"7f1fdc7d-fd5a-41f5-95df-d4b73f14110f","system_id":"levelo_inurba_marseille","lat":43.31897,"lon":5.40717,"is_reserved":false,"is_disabled":false,"rental_uris":{"android":"levelo://app?vid=7f1fdc7d-fd5a-41f5-95df-d4b73f14110f","ios":"levelo://app?vid=7f1fdc7d-fd5a-41f5-95df-d4b73f14110f"},"vehicle_type_id":"4","last_reported":1734513045,"current_range_meters":39200,"station_id":"ce4bhq12rcd13ifvqhig","pricing_plan_id":"cebpf4jnsgd1na2vs0mg"},{"bike_id":"00597966-5dda-4e01-bd96-d00d6efc4e01","system_id":"levelo_inurba_marseille","lat":43.29252,"lon":5.38431,"is_reserved":false,"is_disabled":false,"rental_uris":{"android":"levelo://app?vid=00597966-5dda-4e01-bd96-d00d6efc4e01","ios":"levelo://app?vid=00597966-5dda-4e01-bd96-d00d6efc4e01"},"vehicle_type_id":"4","last_reported":1734513045,"current_range_meters":10800,"station_id":"ce4bh692rcd13ifvqea0","pricing_plan_id":"cebpf4jnsgd1na2vs0mg"},{"bike_id":"ce715617-763a-4653-bb2e-4b51a9a9ff10","system_id":"levelo_inurba_marseille","lat":43.31369,"lon":5.36709,"is_reserved":false,"is_disabled":false,"rental_uris":{"android":"levelo://app?vid=ce715617-763a-4653-bb2e-4b51a9a9ff10","ios":"levelo://app?vid=ce715617-763a-4653-bb2e-4b51a9a9ff10"},"vehicle_type_id":"4","last_reported":1734513045,"current_range_meters":17600,"station_id":"ce4bgr92rcd13ifvqc6g","pricing_plan_id":"cebpf4jnsgd1na2vs0mg"},{"bike_id":"d396f5d2-70d3-4b17-9cb9-b64bad9f67b0","system_id":"levelo_inurba_marseille","lat":43.29607,"lon":5.38098,"is_reserved":false,"is_disabled":true,"rental_uris":{"android":"levelo://app?vid=d396f5d2-70d3-4b17-9cb9-b64bad9f67b0","ios":"levelo://app?vid=d396f5d2-70d3-4b17-9cb9-b64bad9f67b0"},"vehicle_type_id":"4","last_reported":1734513045,"current_range_meters":12000,"station_id":"ce4bgl12rcd13ifvqbo0","pricing_plan_id":"cebpf4jnsgd1na2vs0mg"},{"bike_id":"1de05ea6-7ffc-4755-9d5c-2404e5a173c7","system_id":"levelo_inurba_marseille","lat":43.23068,"lon":5.3549,"is_reserved":false,"is_disabled":false,"rental_uris":{"android":"levelo://app?vid=1de05ea6-7ffc-4755-9d5c-2404e5a173c7","ios":"levelo://app?vid=1de05ea6-7ffc-4755-9d5c-2404e5a173c7"},"vehicle_type_id":"4","last_reported":1734513045,"current_range_meters":38400,"station_id":"cpo3342slgdg3j2ifvpg","pricing_plan_id":"cebpf4jnsgd1na2vs0mg"},{"bike_id":"70a23328-6629-4f07-b203-ef843751eafc","system_id":"levelo_inurba_marseille","lat":43.27195,"lon":5.40978,"is_reserved":false,"is_disabled":true,"rental_uris":{"android":"levelo://app?vid=70a23328-6629-4f07-b203-ef843751eafc","ios":"levelo://app?vid=70a23328-6629-4f07-b203-ef843751eafc"},"vehicle_type_id":"4","last_reported":1734513045,"current_range_meters":25600,"station_id":"ce4bhl12rcd13ifvqgf0","pricing_plan_id":"cebpf4jnsgd1na2vs0mg"},{"bike_id":"ac6023de-2fdd-43c1-9fd3-181adcf15bb2","system_id":"levelo_inurba_marseille","lat":43.30309,"lon":5.369,"is_reserved":false,"is_disabled":false,"rental_uris":{"android":"levelo://app?vid=ac6023de-2fdd-43c1-9fd3-181adcf15bb2","ios":"levelo://app?vid=ac6023de-2fdd-43c1-9fd3-181adcf15bb2"},"vehicle_type_id":"4","last_reported":1734513045,"current_range_meters":17200,"station_id":"ce4bgqh2rcd13ifvqc5g","pricing_plan_id":"cebpf4jnsgd1na2vs0mg"},{"bike_id":"2d9f4e58-aed4-42e5-b03f-7c067dbd464d","system_id":"levelo_inurba_marseille","lat":43.2707,"lon":5.4227,"is_reserved":false,"is_disabled":false,"rental_uris":{"android":"levelo://app?vid=2d9f4e58-aed4-42e5-b03f-7c067dbd464d","ios":"levelo://app?vid=2d9f4e58-aed4-42e5-b03f-7c067dbd464d"},"vehicle_type_id":"4","last_reported":1734513045,"current_range_meters":39200,"station_id":"ce4bhk92rcd13ifvqgb0","pricing_plan_id":"cebpf4jnsgd1na2vs0mg"},{"bike_id":"4e24cd74-c1ed-48e3-ae04-94fae1db75bb","system_id":"levelo_inurba_marseille","lat":43.27066,"lon":5.42277,"is_reserved":false,"is_disabled":false,"rental_uris":{"android":"levelo://app?vid=4e24cd74-c1ed-48e3-ae04-94fae1db75bb","ios":"levelo://app?vid=4e24cd74-c1ed-48e3-ae04-94fae1db75bb"},"vehicle_type_id":"4","last_reported":1734513045,"current_range_meters":30000,"station_id":"ce4bhk92rcd13ifvqgb0","pricing_plan_id":"cebpf4jnsgd1na2vs0mg"},{"bike_id":"a0f29324-c845-43d8-b2a4-10bd288c169d","system_id":"levelo_inurba_marseille","lat":43.28929,"lon":5.36394,"is_reserved":false,"is_disabled":false,"rental_uris":{"android":"levelo://app?vid=a0f29324-c845-43d8-b2a4-10bd288c169d","ios":"levelo://app?vid=a0f29324-c845-43d8-b2a4-10bd288c169d"},"vehicle_type_id":"4","last_reported":1734513045,"current_range_meters":26000,"station_id":"ce4bhc92rcd13ifvqetg","pricing_plan_id":"cebpf4jnsgd1na2vs0mg"},{"bike_id":"178eaacd-91f5-415e-8f8f-67e0bec2d46a","system_id":"levelo_inurba_marseille","lat":43.30224,"lon":5.39472,"is_reserved":false,"is_disabled":false,"rental_uris":{"android":"levelo://app?vid=178eaacd-91f5-415e-8f8f-67e0bec2d46a","ios":"levelo://app?vid=178eaacd-91f5-415e-8f8f-67e0bec2d46a"},"vehicle_type_id":"4","last_reported":1734513045,"current_range_meters":24000,"station_id":"ce4bh0p2rcd13ifvqd70","pricing_plan_id":"cebpf4jnsgd1na2vs0mg"},{"bike_id":"8ad349ad-6628-4514-ac49-e50f6e2a0d03","system_id":"levelo_inurba_marseille","lat":43.270693,"lon":5.422757,"is_reserved":false,"is_disabled":false,"rental_uris":{"android":"levelo://app?vid=8ad349ad-6628-4514-ac49-e50f6e2a0d03","ios":"levelo://app?vid=8ad349ad-6628-4514-ac49-e50f6e2a0d03"},"vehicle_type_id":"4","last_reported":1734513045,"current_range_meters":16800,"station_id":"ce4bhk92rcd13ifvqgb0","pricing_plan_id":"cebpf4jnsgd1na2vs0mg"},{"bike_id":"669a8b9e-02c4-4615-a6a4-60262aba4846","system_id":"levelo_inurba_marseille","lat":43.25488,"lon":5.37667,"is_reserved":false,"is_disabled":false,"rental_uris":{"android":"levelo://app?vid=669a8b9e-02c4-4615-a6a4-60262aba4846","ios":"levelo://app?vid=669a8b9e-02c4-4615-a6a4-60262aba4846"},"vehicle_type_id":"4","last_reported":1734513045,"current_range_meters":38800,"station_id":"ce4bhh12rcd13ifvqff0","pricing_plan_id":"cebpf4jnsgd1na2vs0mg"},{"bike_id":"618b7f02-bac1-46a2-b54a-500d7975bf24","system_id":"levelo_inurba_marseille","lat":43.28476,"lon":5.3841,"is_reserved":false,"is_disabled":false,"rental_uris":{"android":"levelo://app?vid=618b7f02-bac1-46a2-b54a-500d7975bf24","ios":"levelo://app?vid=618b7f02-bac1-46a2-b54a-500d7975bf24"},"vehicle_type_id":"4","last_reported":1734513045,"current_range_meters":36800,"station_id":"ce4bh512rcd13ifvqe3g","pricing_plan_id":"cebpf4jnsgd1na2vs0mg"},{"bike_id":"691db8bf-e648-4787-8118-f5af61dcf184","system_id":"levelo_inurba_marseille","lat":43.29027,"lon":5.37563,"is_reserved":false,"is_disabled":false,"rental_uris":{"android":"levelo://app?vid=691db8bf-e648-4787-8118-f5af61dcf184","ios":"levelo://app?vid=691db8bf-e648-4787-8118-f5af61dcf184"},"vehicle_type_id":"4","last_reported":1734513045,"current_range_meters":32000,"station_id":"ce4bh692rcd13ifvqe90","pricing_plan_id":"cebpf4jnsgd1na2vs0mg"},{"bike_id":"84b9eb9e-7a76-4aa2-b82a-ed8561b9d36f","system_id":"levelo_inurba_marseille","lat":43.30459,"lon":5.37907,"is_reserved":false,"is_disabled":false,"rental_uris":{"android":"levelo://app?vid=84b9eb9e-7a76-4aa2-b82a-ed8561b9d36f","ios":"levelo://app?vid=84b9eb9e-7a76-4aa2-b82a-ed8561b9d36f"},"vehicle_type_id":"4","last_reported":1734513045,"current_range_meters":21600,"station_id":"ce4bgup2rcd13ifvqcn0","pricing_plan_id":"cebpf4jnsgd1na2vs0mg"},{"bike_id":"d69ebe23-77f0-492c-b236-a063ebca627f","system_id":"levelo_inurba_marseille","lat":43.31366,"lon":5.36708,"is_reserved":false,"is_disabled":true,"rental_uris":{"android":"levelo://app?vid=d69ebe23-77f0-492c-b236-a063ebca627f","ios":"levelo://app?vid=d69ebe23-77f0-492c-b236-a063ebca627f"},"vehicle_type_id":"4","last_reported":1734513045,"current_range_meters":35600,"station_id":"ce4bgr92rcd13ifvqc6g","pricing_plan_id":"cebpf4jnsgd1na2vs0mg"},{"bike_id":"658fc3af-c1ab-4486-a9bf-40ae48d9e643","system_id":"levelo_inurba_marseille","lat":43.26568,"lon":5.3901,"is_reserved":false,"is_disabled":false,"rental_uris":{"android":"levelo://app?vid=658fc3af-c1ab-4486-a9bf-40ae48d9e643","ios":"levelo://app?vid=658fc3af-c1ab-4486-a9bf-40ae48d9e643"},"vehicle_type_id":"4","last_reported":1734513045,"current_range_meters":32400,"station_id":"ce4bhe12rcd13ifvqf30","pricing_plan_id":"cebpf4jnsgd1na2vs0mg"},{"bike_id":"dcbe18de-de6c-4396-9759-e721190ad565","system_id":"levelo_inurba_marseille","lat":43.31227,"lon":5.36865,"is_reserved":false,"is_disabled":false,"rental_uris":{"android":"levelo://app?vid=dcbe18de-de6c-4396-9759-e721190ad565","ios":"levelo://app?vid=dcbe18de-de6c-4396-9759-e721190ad565"},"vehicle_type_id":"4","last_reported":1734513045,"current_range_meters":28400,"station_id":"ce4bgl92rcd13ifvqbq0","pricing_plan_id":"cebpf4jnsgd1na2vs0mg"},{"bike_id":"bba85a74-2c52-4269-a2b5-9bc2de67d67d","system_id":"levelo_inurba_marseille","lat":43.30547,"lon":5.36535,"is_reserved":false,"is_disabled":false,"rental_uris":{"android":"levelo://app?vid=bba85a74-2c52-4269-a2b5-9bc2de67d67d","ios":"levelo://app?vid=bba85a74-2c52-4269-a2b5-9bc2de67d67d"},"vehicle_type_id":"4","last_reported":1734513045,"current_range_meters":20400,"station_id":"ce4bgs12rcd13ifvqcag","pricing_plan_id":"cebpf4jnsgd1na2vs0mg"},{"bike_id":"cab5cb01-b33a-421c-bfaf-c7630f90de8b","system_id":"levelo_inurba_marseille","lat":43.29037,"lon":5.39965,"is_reserved":false,"is_disabled":true,"rental_uris":{"android":"levelo://app?vid=cab5cb01-b33a-421c-bfaf-c7630f90de8b","ios":"levelo://app?vid=cab5cb01-b33a-421c-bfaf-c7630f90de8b"},"vehicle_type_id":"4","last_reported":1734513045,"current_range_meters":0,"station_id":"ce4bh392rcd13ifvqdm0","pricing_plan_id":"cebpf4jnsgd1na2vs0mg"},{"bike_id":"78f5dcee-b6ca-4cfa-ae6f-ebcf64be1236","system_id":"levelo_inurba_marseille","lat":43.32347,"lon":5.406237,"is_reserved":false,"is_disabled":true,"rental_uris":{"android":"levelo://app?vid=78f5dcee-b6ca-4cfa-ae6f-ebcf64be1236","ios":"levelo://app?vid=78f5dcee-b6ca-4cfa-ae6f-ebcf64be1236"},"vehicle_type_id":"4","last_reported":1734513045,"current_range_meters":0,"station_id":"ce4bhq92rcd13ifvqhjg","pricing_plan_id":"cebpf4jnsgd1na2vs0mg"},{"bike_id":"7a5e5588-fede-436e-80db-9315da045ad7","system_id":"levelo_inurba_marseille","lat":43.27681,"lon":5.38874,"is_reserved":false,"is_disabled":false,"rental_uris":{"android":"levelo://app?vid=7a5e5588-fede-436e-80db-9315da045ad7","ios":"levelo://app?vid=7a5e5588-fede-436e-80db-9315da045ad7"},"vehicle_type_id":"4","last_reported":1734513045,"current_range_meters":31200,"station_id":"ce4bhi12rcd13ifvqfo0","pricing_plan_id":"cebpf4jnsgd1na2vs0mg"},{"bike_id":"d1adb045-11f4-4330-9d2b-f77d89c262d4","system_id":"levelo_inurba_marseille","lat":43.29297,"lon":5.37177,"is_reserved":false,"is_disabled":true,"rental_uris":{"android":"levelo://app?vid=d1adb045-11f4-4330-9d2b-f77d89c262d4","ios":"levelo://app?vid=d1adb045-11f4-4330-9d2b-f77d89c262d4"},"vehicle_type_id":"4","last_reported":1734513045,"current_range_meters":32000,"station_id":"ce4bgh92rcd13ifvqb40","pricing_plan_id":"cebpf4jnsgd1na2vs0mg"},{"bike_id":"fb5ac6cd-6d94-4004-9473-07d3146ccb2b","system_id":"levelo_inurba_marseille","lat":43.2885,"lon":5.35863,"is_reserved":false,"is_disabled":false,"rental_uris":{"android":"levelo://app?vid=fb5ac6cd-6d94-4004-9473-07d3146ccb2b","ios":"levelo://app?vid=fb5ac6cd-6d94-4004-9473-07d3146ccb2b"},"vehicle_type_id":"4","last_reported":1734513045,"current_range_meters":28800,"station_id":"ce4bhb12rcd13ifvqem0","pricing_plan_id":"cebpf4jnsgd1na2vs0mg"},{"bike_id":"c000e995-4758-4652-ae25-dd1f2f74c47e","system_id":"levelo_inurba_marseille","lat":43.29739,"lon":5.37684,"is_reserved":false,"is_disabled":false,"rental_uris":{"android":"levelo://app?vid=c000e995-4758-4652-ae25-dd1f2f74c47e","ios":"levelo://app?vid=c000e995-4758-4652-ae25-dd1f2f74c47e"},"vehicle_type_id":"4","last_reported":1734513045,"current_range_meters":34000,"station_id":"ce4bgkh2rcd13ifvqbl0","pricing_plan_id":"cebpf4jnsgd1na2vs0mg"},{"bike_id":"a33b825e-c779-4129-842f-aeba22c7390a","system_id":"levelo_inurba_marseille","lat":43.31685,"lon":5.40462,"is_reserved":false,"is_disabled":false,"rental_uris":{"android":"levelo://app?vid=a33b825e-c779-4129-842f-aeba22c7390a","ios":"levelo://app?vid=a33b825e-c779-4129-842f-aeba22c7390a"},"vehicle_type_id":"4","last_reported":1734513045,"current_range_meters":37600,"station_id":"ce4bh012rcd13ifvqd00","pricing_plan_id":"cebpf4jnsgd1na2vs0mg"},{"bike_id":"4be8c5c5-d307-402e-bf8f-6a36a69741e0","system_id":"levelo_inurba_marseille","lat":43.27069,"lon":5.42279,"is_reserved":false,"is_disabled":false,"rental_uris":{"android":"levelo://app?vid=4be8c5c5-d307-402e-bf8f-6a36a69741e0","ios":"levelo://app?vid=4be8c5c5-d307-402e-bf8f-6a36a69741e0"},"vehicle_type_id":"4","last_reported":1734513045,"current_range_meters":16000,"station_id":"ce4bhk92rcd13ifvqgb0","pricing_plan_id":"cebpf4jnsgd1na2vs0mg"},{"bike_id":"b13b811d-e88d-46d2-8d0c-84e3cfc06dd9","system_id":"levelo_inurba_marseille","lat":43.29622,"lon":5.377217,"is_reserved":false,"is_disabled":false,"rental_uris":{"android":"levelo://app?vid=b13b811d-e88d-46d2-8d0c-84e3cfc06dd9","ios":"levelo://app?vid=b13b811d-e88d-46d2-8d0c-84e3cfc06dd9"},"vehicle_type_id":"4","last_reported":1734513045,"current_range_meters":37600,"station_id":"ce4bgi92rcd13ifvqb90","pricing_plan_id":"cebpf4jnsgd1na2vs0mg"},{"bike_id":"0bd5d813-d89e-42f3-8ce9-c06fb9ffedaa","system_id":"levelo_inurba_marseille","lat":43.28944,"lon":5.3963,"is_reserved":false,"is_disabled":true,"rental_uris":{"android":"levelo://app?vid=0bd5d813-d89e-42f3-8ce9-c06fb9ffedaa","ios":"levelo://app?vid=0bd5d813-d89e-42f3-8ce9-c06fb9ffedaa"},"vehicle_type_id":"4","last_reported":1734513045,"current_range_meters":35200,"station_id":"ce4bh3h2rcd13ifvqdn0","pricing_plan_id":"cebpf4jnsgd1na2vs0mg"},{"bike_id":"3736a2ec-3fec-4569-b975-7fc2f6b8f57d","system_id":"levelo_inurba_marseille","lat":43.31081,"lon":5.42427,"is_reserved":false,"is_disabled":true,"rental_uris":{"android":"levelo://app?vid=3736a2ec-3fec-4569-b975-7fc2f6b8f57d","ios":"levelo://app?vid=3736a2ec-3fec-4569-b975-7fc2f6b8f57d"},"vehicle_type_id":"4","last_reported":1734513045,"current_range_meters":36800,"station_id":"ce4bhp92rcd13ifvqhag","pricing_plan_id":"cebpf4jnsgd1na2vs0mg"},{"bike_id":"3f37807f-d28e-422d-981f-3b66e1fb21df","system_id":"levelo_inurba_marseille","lat":43.29841,"lon":5.36271,"is_reserved":false,"is_disabled":false,"rental_uris":{"android":"levelo://app?vid=3f37807f-d28e-422d-981f-3b66e1fb21df","ios":"levelo://app?vid=3f37807f-d28e-422d-981f-3b66e1fb21df"},"vehicle_type_id":"4","last_reported":1734513045,"current_range_meters":10800,"station_id":"ce4bgpp2rcd13ifvqc3g","pricing_plan_id":"cebpf4jnsgd1na2vs0mg"},{"bike_id":"3bd84091-83a4-4d43-864c-19b7610c7dc5","system_id":"levelo_inurba_marseille","lat":43.26933,"lon":5.38917,"is_reserved":false,"is_disabled":false,"rental_uris":{"android":"levelo://app?vid=3bd84091-83a4-4d43-864c-19b7610c7dc5","ios":"levelo://app?vid=3bd84091-83a4-4d43-864c-19b7610c7dc5"},"vehicle_type_id":"4","last_reported":1734513045,"current_range_meters":38000,"station_id":"ce4bhhh2rcd13ifvqfl0","pricing_plan_id":"cebpf4jnsgd1na2vs0mg"},{"bike_id":"9a9ca54f-8f83-4db0-b780-a7eb0fa7f88d","system_id":"levelo_inurba_marseille","lat":43.26031,"lon":5.37533,"is_reserved":false,"is_disabled":false,"rental_uris":{"android":"levelo://app?vid=9a9ca54f-8f83-4db0-b780-a7eb0fa7f88d","ios":"levelo://app?vid=9a9ca54f-8f83-4db0-b780-a7eb0fa7f88d"},"vehicle_type_id":"4","last_reported":1734513045,"current_range_meters":34800,"station_id":"ce4bhgh2rcd13ifvqfa0","pricing_plan_id":"cebpf4jnsgd1na2vs0mg"},{"bike_id":"e72fa642-30df-464a-831c-61ff9cf06808","system_id":"levelo_inurba_marseille","lat":43.23044,"lon":5.35505,"is_reserved":false,"is_disabled":false,"rental_uris":{"android":"levelo://app?vid=e72fa642-30df-464a-831c-61ff9cf06808","ios":"levelo://app?vid=e72fa642-30df-464a-831c-61ff9cf06808"},"vehicle_type_id":"4","last_reported":1734513045,"current_range_meters":38000,"station_id":"cpo3342slgdg3j2ifvpg","pricing_plan_id":"cebpf4jnsgd1na2vs0mg"},{"bike_id":"f0daf5e7-9ccf-4ef6-9178-592c97052bcc","system_id":"levelo_inurba_marseille","lat":43.27558,"lon":5.3843,"is_reserved":false,"is_disabled":false,"rental_uris":{"android":"levelo://app?vid=f0daf5e7-9ccf-4ef6-9178-592c97052bcc","ios":"levelo://app?vid=f0daf5e7-9ccf-4ef6-9178-592c97052bcc"},"vehicle_type_id":"4","last_reported":1734513045,"current_range_meters":36800,"station_id":"ce4bhh92rcd13ifvqfi0","pricing_plan_id":"cebpf4jnsgd1na2vs0mg"},{"bike_id":"4ad89db2-d7ae-4790-9e48-447a4f27414c","system_id":"levelo_inurba_marseille","lat":43.2694,"lon":5.4025,"is_reserved":false,"is_disabled":false,"rental_uris":{"android":"levelo://app?vid=4ad89db2-d7ae-4790-9e48-447a4f27414c","ios":"levelo://app?vid=4ad89db2-d7ae-4790-9e48-447a4f27414c"},"vehicle_type_id":"4","last_reported":1734513045,"current_range_meters":35600,"station_id":"cjm6bp8fraef2m0cb0m0","pricing_plan_id":"cebpf4jnsgd1na2vs0mg"},{"bike_id":"06d1d4e2-b653-40a6-a336-dfc5da6b7775","system_id":"levelo_inurba_marseille","lat":43.26062,"lon":5.39394,"is_reserved":false,"is_disabled":false,"rental_uris":{"android":"levelo://app?vid=06d1d4e2-b653-40a6-a336-dfc5da6b7775","ios":"levelo://app?vid=06d1d4e2-b653-40a6-a336-dfc5da6b7775"},"vehicle_type_id":"4","last_reported":1734513045,"current_range_meters":37600,"station_id":"ce4bhh92rcd13ifvqfj0","pricing_plan_id":"cebpf4jnsgd1na2vs0mg"},{"bike_id":"ba26706b-12bc-49c6-aa23-4c4139c8a2e9","system_id":"levelo_inurba_marseille","lat":43.31883,"lon":5.40721,"is_reserved":false,"is_disabled":false,"rental_uris":{"android":"levelo://app?vid=ba26706b-12bc-49c6-aa23-4c4139c8a2e9","ios":"levelo://app?vid=ba26706b-12bc-49c6-aa23-4c4139c8a2e9"},"vehicle_type_id":"4","last_reported":1734513045,"current_range_meters":38800,"station_id":"ce4bhq12rcd13ifvqhig","pricing_plan_id":"cebpf4jnsgd1na2vs0mg"},{"bike_id":"be81543d-77a4-47c2-972d-c87777865c95","system_id":"levelo_inurba_marseille","lat":43.29708,"lon":5.365959,"is_reserved":false,"is_disabled":false,"rental_uris":{"android":"levelo://app?vid=be81543d-77a4-47c2-972d-c87777865c95","ios":"levelo://app?vid=be81543d-77a4-47c2-972d-c87777865c95"},"vehicle_type_id":"4","last_reported":1734513045,"current_range_meters":25200,"station_id":"ce4bgn12rcd13ifvqbt0","pricing_plan_id":"cebpf4jnsgd1na2vs0mg"},{"bike_id":"18d7700f-daa6-438c-bbde-ed6e209cf4d7","system_id":"levelo_inurba_marseille","lat":43.31693,"lon":5.40472,"is_reserved":false,"is_disabled":false,"rental_uris":{"android":"levelo://app?vid=18d7700f-daa6-438c-bbde-ed6e209cf4d7","ios":"levelo://app?vid=18d7700f-daa6-438c-bbde-ed6e209cf4d7"},"vehicle_type_id":"4","last_reported":1734513045,"current_range_meters":27200,"station_id":"ce4bh012rcd13ifvqd00","pricing_plan_id":"cebpf4jnsgd1na2vs0mg"},{"bike_id":"a393ab06-c370-4704-8cda-ac1e19295d7d","system_id":"levelo_inurba_marseille","lat":43.28355,"lon":5.381,"is_reserved":false,"is_disabled":false,"rental_uris":{"android":"levelo://app?vid=a393ab06-c370-4704-8cda-ac1e19295d7d","ios":"levelo://app?vid=a393ab06-c370-4704-8cda-ac1e19295d7d"},"vehicle_type_id":"4","last_reported":1734513045,"current_range_meters":32800,"station_id":"ce4bh412rcd13ifvqdr0","pricing_plan_id":"cebpf4jnsgd1na2vs0mg"},{"bike_id":"aea4e12c-8ea9-4447-a9db-2a4e1fd132d3","system_id":"levelo_inurba_marseille","lat":43.296159,"lon":5.381038,"is_reserved":false,"is_disabled":true,"rental_uris":{"android":"levelo://app?vid=aea4e12c-8ea9-4447-a9db-2a4e1fd132d3","ios":"levelo://app?vid=aea4e12c-8ea9-4447-a9db-2a4e1fd132d3"},"vehicle_type_id":"4","last_reported":1734513045,"current_range_meters":1600,"station_id":"ce4bgl12rcd13ifvqbo0","pricing_plan_id":"cebpf4jnsgd1na2vs0mg"},{"bike_id":"a8c91e95-64ac-41d9-903b-be9cb1cc92c9","system_id":"levelo_inurba_marseille","lat":43.30531,"lon":5.36701,"is_reserved":false,"is_disabled":true,"rental_uris":{"android":"levelo://app?vid=a8c91e95-64ac-41d9-903b-be9cb1cc92c9","ios":"levelo://app?vid=a8c91e95-64ac-41d9-903b-be9cb1cc92c9"},"vehicle_type_id":"4","last_reported":1734513045,"current_range_meters":39200,"station_id":"ce4bgrp2rcd13ifvqc9g","pricing_plan_id":"cebpf4jnsgd1na2vs0mg"},{"bike_id":"402c292c-3575-4afc-aa07-b28507ddfdb3","system_id":"levelo_inurba_marseille","lat":43.30326,"lon":5.36915,"is_reserved":false,"is_disabled":true,"rental_uris":{"android":"levelo://app?vid=402c292c-3575-4afc-aa07-b28507ddfdb3","ios":"levelo://app?vid=402c292c-3575-4afc-aa07-b28507ddfdb3"},"vehicle_type_id":"4","last_reported":1734513045,"current_range_meters":1200,"station_id":"ce4bgqh2rcd13ifvqc5g","pricing_plan_id":"cebpf4jnsgd1na2vs0mg"},{"bike_id":"ed7851d5-61d7-4d7c-b519-70ebeba913c4","system_id":"levelo_inurba_marseille","lat":43.27072,"lon":5.42281,"is_reserved":false,"is_disabled":false,"rental_uris":{"android":"levelo://app?vid=ed7851d5-61d7-4d7c-b519-70ebeba913c4","ios":"levelo://app?vid=ed7851d5-61d7-4d7c-b519-70ebeba913c4"},"vehicle_type_id":"4","last_reported":1734513045,"current_range_meters":25200,"station_id":"ce4bhk92rcd13ifvqgb0","pricing_plan_id":"cebpf4jnsgd1na2vs0mg"},{"bike_id":"32dba2d0-f9b5-4d54-a72f-656eb33510e4","system_id":"levelo_inurba_marseille","lat":43.31353,"lon":5.36721,"is_reserved":false,"is_disabled":false,"rental_uris":{"android":"levelo://app?vid=32dba2d0-f9b5-4d54-a72f-656eb33510e4","ios":"levelo://app?vid=32dba2d0-f9b5-4d54-a72f-656eb33510e4"},"vehicle_type_id":"4","last_reported":1734513045,"current_range_meters":35600,"station_id":"ce4bgr92rcd13ifvqc6g","pricing_plan_id":"cebpf4jnsgd1na2vs0mg"},{"bike_id":"27b1396b-42fc-4dca-8287-2d0a184b4980","system_id":"levelo_inurba_marseille","lat":43.30141,"lon":5.37428,"is_reserved":false,"is_disabled":false,"rental_uris":{"android":"levelo://app?vid=27b1396b-42fc-4dca-8287-2d0a184b4980","ios":"levelo://app?vid=27b1396b-42fc-4dca-8287-2d0a184b4980"},"vehicle_type_id":"4","last_reported":1734513045,"current_range_meters":19200,"station_id":"ce4bgs92rcd13ifvqcc0","pricing_plan_id":"cebpf4jnsgd1na2vs0mg"},{"bike_id":"c8399855-72d4-4f25-aa5a-52a18924a7b8","system_id":"levelo_inurba_marseille","lat":43.24168,"lon":5.3639,"is_reserved":false,"is_disabled":false,"rental_uris":{"android":"levelo://app?vid=c8399855-72d4-4f25-aa5a-52a18924a7b8","ios":"levelo://app?vid=c8399855-72d4-4f25-aa5a-52a18924a7b8"},"vehicle_type_id":"4","last_reported":1734513045,"current_range_meters":8000,"station_id":"cpo36qri1sfpv3e86is0","pricing_plan_id":"cebpf4jnsgd1na2vs0mg"},{"bike_id":"eaccc6b6-2be5-4159-bb84-5c8ee0f72842","system_id":"levelo_inurba_marseille","lat":43.28348,"lon":5.38101,"is_reserved":false,"is_disabled":false,"rental_uris":{"android":"levelo://app?vid=eaccc6b6-2be5-4159-bb84-5c8ee0f72842","ios":"levelo://app?vid=eaccc6b6-2be5-4159-bb84-5c8ee0f72842"},"vehicle_type_id":"4","last_reported":1734513045,"current_range_meters":19200,"station_id":"ce4bh412rcd13ifvqdr0","pricing_plan_id":"cebpf4jnsgd1na2vs0mg"},{"bike_id":"caccf3df-025c-4334-8486-611a28578717","system_id":"levelo_inurba_marseille","lat":43.24658,"lon":5.38156,"is_reserved":false,"is_disabled":true,"rental_uris":{"android":"levelo://app?vid=caccf3df-025c-4334-8486-611a28578717","ios":"levelo://app?vid=caccf3df-025c-4334-8486-611a28578717"},"vehicle_type_id":"4","last_reported":1734513045,"current_range_meters":0,"station_id":"ce4bhih2rcd13ifvqfr0","pricing_plan_id":"cebpf4jnsgd1na2vs0mg"},{"bike_id":"e65e8a25-6a8f-46c0-9517-f0d4c7df7481","system_id":"levelo_inurba_marseille","lat":43.2908,"lon":5.37171,"is_reserved":false,"is_disabled":true,"rental_uris":{"android":"levelo://app?vid=e65e8a25-6a8f-46c0-9517-f0d4c7df7481","ios":"levelo://app?vid=e65e8a25-6a8f-46c0-9517-f0d4c7df7481"},"vehicle_type_id":"4","last_reported":1734513045,"current_range_meters":29600,"station_id":"ce4bh5p2rcd13ifvqe4g","pricing_plan_id":"cebpf4jnsgd1na2vs0mg"},{"bike_id":"6a8c0392-5811-45c9-8265-4b3d3e79a7b1","system_id":"levelo_inurba_marseille","lat":43.29297,"lon":5.37422,"is_reserved":false,"is_disabled":false,"rental_uris":{"android":"levelo://app?vid=6a8c0392-5811-45c9-8265-4b3d3e79a7b1","ios":"levelo://app?vid=6a8c0392-5811-45c9-8265-4b3d3e79a7b1"},"vehicle_type_id":"4","last_reported":1734513045,"current_range_meters":38000,"station_id":"ce4bgi12rcd13ifvqb70","pricing_plan_id":"cebpf4jnsgd1na2vs0mg"},{"bike_id":"a8bdc8af-22ae-44e8-95f9-b4acc5a33e90","system_id":"levelo_inurba_marseille","lat":43.27069,"lon":5.42271,"is_reserved":false,"is_disabled":false,"rental_uris":{"android":"levelo://app?vid=a8bdc8af-22ae-44e8-95f9-b4acc5a33e90","ios":"levelo://app?vid=a8bdc8af-22ae-44e8-95f9-b4acc5a33e90"},"vehicle_type_id":"4","last_reported":1734513045,"current_range_meters":35200,"station_id":"ce4bhk92rcd13ifvqgb0","pricing_plan_id":"cebpf4jnsgd1na2vs0mg"},{"bike_id":"c09638b7-3192-49b1-a7f3-9c0b3cb98f80","system_id":"levelo_inurba_marseille","lat":43.27988,"lon":5.41661,"is_reserved":false,"is_disabled":true,"rental_uris":{"android":"levelo://app?vid=c09638b7-3192-49b1-a7f3-9c0b3cb98f80","ios":"levelo://app?vid=c09638b7-3192-49b1-a7f3-9c0b3cb98f80"},"vehicle_type_id":"4","last_reported":1734513045,"current_range_meters":38400,"station_id":"ce4bho12rcd13ifvqh1g","pricing_plan_id":"cebpf4jnsgd1na2vs0mg"},{"bike_id":"9b5253a4-b538-4049-98b9-01d95076ded7","system_id":"levelo_inurba_marseille","lat":43.29289,"lon":5.37458,"is_reserved":false,"is_disabled":false,"rental_uris":{"android":"levelo://app?vid=9b5253a4-b538-4049-98b9-01d95076ded7","ios":"levelo://app?vid=9b5253a4-b538-4049-98b9-01d95076ded7"},"vehicle_type_id":"4","last_reported":1734513045,"current_range_meters":28000,"station_id":"ce4bgi12rcd13ifvqb70","pricing_plan_id":"cebpf4jnsgd1na2vs0mg"},{"bike_id":"9b6c75e0-7553-48c9-bc71-14fe90a69072","system_id":"levelo_inurba_marseille","lat":43.28484,"lon":5.38409,"is_reserved":false,"is_disabled":false,"rental_uris":{"android":"levelo://app?vid=9b6c75e0-7553-48c9-bc71-14fe90a69072","ios":"levelo://app?vid=9b6c75e0-7553-48c9-bc71-14fe90a69072"},"vehicle_type_id":"4","last_reported":1734513045,"current_range_meters":33600,"station_id":"ce4bh512rcd13ifvqe3g","pricing_plan_id":"cebpf4jnsgd1na2vs0mg"},{"bike_id":"45c57373-e320-42d1-a25e-adffca0c3f8e","system_id":"levelo_inurba_marseille","lat":43.3014,"lon":5.37423,"is_reserved":false,"is_disabled":false,"rental_uris":{"android":"levelo://app?vid=45c57373-e320-42d1-a25e-adffca0c3f8e","ios":"levelo://app?vid=45c57373-e320-42d1-a25e-adffca0c3f8e"},"vehicle_type_id":"4","last_reported":1734513045,"current_range_meters":36000,"station_id":"ce4bgs92rcd13ifvqcc0","pricing_plan_id":"cebpf4jnsgd1na2vs0mg"},{"bike_id":"9d2aefec-f4a3-4a23-a13a-c09b46ffe2e4","system_id":"levelo_inurba_marseille","lat":43.32478,"lon":5.36547,"is_reserved":false,"is_disabled":false,"rental_uris":{"android":"levelo://app?vid=9d2aefec-f4a3-4a23-a13a-c09b46ffe2e4","ios":"levelo://app?vid=9d2aefec-f4a3-4a23-a13a-c09b46ffe2e4"},"vehicle_type_id":"4","last_reported":1734513045,"current_range_meters":38800,"station_id":"ce4bhs12rcd13ifvqhvg","pricing_plan_id":"cebpf4jnsgd1na2vs0mg"},{"bike_id":"91ee1933-7065-49af-8683-d92c503f6ac5","system_id":"levelo_inurba_marseille","lat":43.26681,"lon":5.38266,"is_reserved":false,"is_disabled":false,"rental_uris":{"android":"levelo://app?vid=91ee1933-7065-49af-8683-d92c503f6ac5","ios":"levelo://app?vid=91ee1933-7065-49af-8683-d92c503f6ac5"},"vehicle_type_id":"4","last_reported":1734513045,"current_range_meters":18000,"station_id":"ce4bhg92rcd13ifvqf90","pricing_plan_id":"cebpf4jnsgd1na2vs0mg"},{"bike_id":"92aa8df7-3906-4094-9087-c3ae1229dd53","system_id":"levelo_inurba_marseille","lat":43.30483,"lon":5.37929,"is_reserved":false,"is_disabled":false,"rental_uris":{"android":"levelo://app?vid=92aa8df7-3906-4094-9087-c3ae1229dd53","ios":"levelo://app?vid=92aa8df7-3906-4094-9087-c3ae1229dd53"},"vehicle_type_id":"4","last_reported":1734513045,"current_range_meters":32000,"station_id":"ce4bgup2rcd13ifvqcn0","pricing_plan_id":"cebpf4jnsgd1na2vs0mg"},{"bike_id":"32f226fb-f4e2-4d81-a201-914e1005fad4","system_id":"levelo_inurba_marseille","lat":43.31689,"lon":5.40459,"is_reserved":false,"is_disabled":false,"rental_uris":{"android":"levelo://app?vid=32f226fb-f4e2-4d81-a201-914e1005fad4","ios":"levelo://app?vid=32f226fb-f4e2-4d81-a201-914e1005fad4"},"vehicle_type_id":"4","last_reported":1734513045,"current_range_meters":32000,"station_id":"ce4bh012rcd13ifvqd00","pricing_plan_id":"cebpf4jnsgd1na2vs0mg"},{"bike_id":"584c6656-dd2c-4304-a2fe-88364b51a5a2","system_id":"levelo_inurba_marseille","lat":43.25717,"lon":5.41115,"is_reserved":false,"is_disabled":false,"rental_uris":{"android":"levelo://app?vid=584c6656-dd2c-4304-a2fe-88364b51a5a2","ios":"levelo://app?vid=584c6656-dd2c-4304-a2fe-88364b51a5a2"},"vehicle_type_id":"4","last_reported":1734513045,"current_range_meters":8400,"station_id":"ce4bhkp2rcd13ifvqgd0","pricing_plan_id":"cebpf4jnsgd1na2vs0mg"},{"bike_id":"b2d380e8-08ed-495f-a052-5d7dfa068f5b","system_id":"levelo_inurba_marseille","lat":43.26949,"lon":5.3863,"is_reserved":false,"is_disabled":true,"rental_uris":{"android":"levelo://app?vid=b2d380e8-08ed-495f-a052-5d7dfa068f5b","ios":"levelo://app?vid=b2d380e8-08ed-495f-a052-5d7dfa068f5b"},"vehicle_type_id":"4","last_reported":1734513045,"current_range_meters":0,"station_id":"ce4bhh92rcd13ifvqfh0","pricing_plan_id":"cebpf4jnsgd1na2vs0mg"},{"bike_id":"0207f8a4-516c-46ff-9895-b226d519d4c1","system_id":"levelo_inurba_marseille","lat":43.231975,"lon":5.355411,"is_reserved":false,"is_disabled":false,"rental_uris":{"android":"levelo://app?vid=0207f8a4-516c-46ff-9895-b226d519d4c1","ios":"levelo://app?vid=0207f8a4-516c-46ff-9895-b226d519d4c1"},"vehicle_type_id":"4","last_reported":1734513045,"current_range_meters":36800,"station_id":"ce4bhu92rcd13ifvqi70","pricing_plan_id":"cebpf4jnsgd1na2vs0mg"},{"bike_id":"c334cbc3-3217-453c-bd71-18f64b06d9ad","system_id":"levelo_inurba_marseille","lat":43.28464,"lon":5.38416,"is_reserved":false,"is_disabled":false,"rental_uris":{"android":"levelo://app?vid=c334cbc3-3217-453c-bd71-18f64b06d9ad","ios":"levelo://app?vid=c334cbc3-3217-453c-bd71-18f64b06d9ad"},"vehicle_type_id":"4","last_reported":1734513045,"current_range_meters":15200,"station_id":"ce4bh512rcd13ifvqe3g","pricing_plan_id":"cebpf4jnsgd1na2vs0mg"},{"bike_id":"83cd1ca3-bb76-4dce-bd97-c65e2c2155f5","system_id":"levelo_inurba_marseille","lat":43.31888,"lon":5.4072,"is_reserved":false,"is_disabled":false,"rental_uris":{"android":"levelo://app?vid=83cd1ca3-bb76-4dce-bd97-c65e2c2155f5","ios":"levelo://app?vid=83cd1ca3-bb76-4dce-bd97-c65e2c2155f5"},"vehicle_type_id":"4","last_reported":1734513045,"current_range_meters":37600,"station_id":"ce4bhq12rcd13ifvqhig","pricing_plan_id":"cebpf4jnsgd1na2vs0mg"},{"bike_id":"82f7f145-591c-4ce0-8f76-660882a2845e","system_id":"levelo_inurba_marseille","lat":43.33609,"lon":5.40991,"is_reserved":false,"is_disabled":true,"rental_uris":{"android":"levelo://app?vid=82f7f145-591c-4ce0-8f76-660882a2845e","ios":"levelo://app?vid=82f7f145-591c-4ce0-8f76-660882a2845e"},"vehicle_type_id":"4","last_reported":1734513045,"current_range_meters":30400,"station_id":"ce4bhqh2rcd13ifvqhmg","pricing_plan_id":"cebpf4jnsgd1na2vs0mg"},{"bike_id":"b66390ea-55d1-454d-8192-726419b088f7","system_id":"levelo_inurba_marseille","lat":43.2926,"lon":5.40132,"is_reserved":false,"is_disabled":true,"rental_uris":{"android":"levelo://app?vid=b66390ea-55d1-454d-8192-726419b088f7","ios":"levelo://app?vid=b66390ea-55d1-454d-8192-726419b088f7"},"vehicle_type_id":"4","last_reported":1734513045,"current_range_meters":18800,"station_id":"ce4bh312rcd13ifvqdk0","pricing_plan_id":"cebpf4jnsgd1na2vs0mg"},{"bike_id":"9a232500-b51a-4eec-bb1f-1de3cd6824f5","system_id":"levelo_inurba_marseille","lat":43.30434,"lon":5.38899,"is_reserved":false,"is_disabled":true,"rental_uris":{"android":"levelo://app?vid=9a232500-b51a-4eec-bb1f-1de3cd6824f5","ios":"levelo://app?vid=9a232500-b51a-4eec-bb1f-1de3cd6824f5"},"vehicle_type_id":"4","last_reported":1734513045,"current_range_meters":34800,"station_id":"ce4bgk12rcd13ifvqbi0","pricing_plan_id":"cebpf4jnsgd1na2vs0mg"},{"bike_id":"5b467ba3-a7ce-46f9-bd2f-66c0ebe35f74","system_id":"levelo_inurba_marseille","lat":43.303048,"lon":5.369105,"is_reserved":false,"is_disabled":false,"rental_uris":{"android":"levelo://app?vid=5b467ba3-a7ce-46f9-bd2f-66c0ebe35f74","ios":"levelo://app?vid=5b467ba3-a7ce-46f9-bd2f-66c0ebe35f74"},"vehicle_type_id":"4","last_reported":1734513045,"current_range_meters":35200,"station_id":"ce4bgqh2rcd13ifvqc5g","pricing_plan_id":"cebpf4jnsgd1na2vs0mg"},{"bike_id":"ac7c5f56-daad-496c-965f-9103737000e8","system_id":"levelo_inurba_marseille","lat":43.23971,"lon":5.36627,"is_reserved":false,"is_disabled":false,"rental_uris":{"android":"levelo://app?vid=ac7c5f56-daad-496c-965f-9103737000e8","ios":"levelo://app?vid=ac7c5f56-daad-496c-965f-9103737000e8"},"vehicle_type_id":"4","last_reported":1734513045,"current_range_meters":38800,"station_id":"ce4bhi12rcd13ifvqfp0","pricing_plan_id":"cebpf4jnsgd1na2vs0mg"},{"bike_id":"66e77e6f-3638-400d-89a4-c52411778cf2","system_id":"levelo_inurba_marseille","lat":43.29002,"lon":5.35608,"is_reserved":false,"is_disabled":false,"rental_uris":{"android":"levelo://app?vid=66e77e6f-3638-400d-89a4-c52411778cf2","ios":"levelo://app?vid=66e77e6f-3638-400d-89a4-c52411778cf2"},"vehicle_type_id":"4","last_reported":1734513045,"current_range_meters":34000,"station_id":"ce4bhb92rcd13ifvqen0","pricing_plan_id":"cebpf4jnsgd1na2vs0mg"},{"bike_id":"18f33ab4-c322-4783-b86f-05bae90255ff","system_id":"levelo_inurba_marseille","lat":43.2903,"lon":5.37565,"is_reserved":false,"is_disabled":false,"rental_uris":{"android":"levelo://app?vid=18f33ab4-c322-4783-b86f-05bae90255ff","ios":"levelo://app?vid=18f33ab4-c322-4783-b86f-05bae90255ff"},"vehicle_type_id":"4","last_reported":1734513045,"current_range_meters":22400,"station_id":"ce4bh692rcd13ifvqe90","pricing_plan_id":"cebpf4jnsgd1na2vs0mg"},{"bike_id":"f5d6a80f-4cdc-43d9-a251-ed5436737e28","system_id":"levelo_inurba_marseille","lat":43.31528,"lon":5.38028,"is_reserved":false,"is_disabled":false,"rental_uris":{"android":"levelo://app?vid=f5d6a80f-4cdc-43d9-a251-ed5436737e28","ios":"levelo://app?vid=f5d6a80f-4cdc-43d9-a251-ed5436737e28"},"vehicle_type_id":"4","last_reported":1734513045,"current_range_meters":38800,"station_id":"ce4bhsp2rcd13ifvqi50","pricing_plan_id":"cebpf4jnsgd1na2vs0mg"},{"bike_id":"e1561eb8-22de-459f-a629-d5e80c323aa1","system_id":"levelo_inurba_marseille","lat":43.31357,"lon":5.36694,"is_reserved":false,"is_disabled":false,"rental_uris":{"android":"levelo://app?vid=e1561eb8-22de-459f-a629-d5e80c323aa1","ios":"levelo://app?vid=e1561eb8-22de-459f-a629-d5e80c323aa1"},"vehicle_type_id":"4","last_reported":1734513045,"current_range_meters":38800,"station_id":"ce4bgr92rcd13ifvqc6g","pricing_plan_id":"cebpf4jnsgd1na2vs0mg"},{"bike_id":"0d86ee73-33f4-49d5-b826-b1555638f4c3","system_id":"levelo_inurba_marseille","lat":43.29682,"lon":5.37303,"is_reserved":false,"is_disabled":false,"rental_uris":{"android":"levelo://app?vid=0d86ee73-33f4-49d5-b826-b1555638f4c3","ios":"levelo://app?vid=0d86ee73-33f4-49d5-b826-b1555638f4c3"},"vehicle_type_id":"4","last_reported":1734513045,"current_range_meters":38000,"station_id":"ce4bgk12rcd13ifvqbj0","pricing_plan_id":"cebpf4jnsgd1na2vs0mg"},{"bike_id":"ccbd5d7c-b799-4e13-8dc0-00f4e98d5a5a","system_id":"levelo_inurba_marseille","lat":43.30535,"lon":5.3654,"is_reserved":false,"is_disabled":false,"rental_uris":{"android":"levelo://app?vid=ccbd5d7c-b799-4e13-8dc0-00f4e98d5a5a","ios":"levelo://app?vid=ccbd5d7c-b799-4e13-8dc0-00f4e98d5a5a"},"vehicle_type_id":"4","last_reported":1734513045,"current_range_meters":28800,"station_id":"ce4bgs12rcd13ifvqcag","pricing_plan_id":"cebpf4jnsgd1na2vs0mg"},{"bike_id":"fc5e2ebb-63b6-494d-b595-a60a155e5f91","system_id":"levelo_inurba_marseille","lat":43.27494,"lon":5.42453,"is_reserved":false,"is_disabled":false,"rental_uris":{"android":"levelo://app?vid=fc5e2ebb-63b6-494d-b595-a60a155e5f91","ios":"levelo://app?vid=fc5e2ebb-63b6-494d-b595-a60a155e5f91"},"vehicle_type_id":"4","last_reported":1734513045,"current_range_meters":24800,"station_id":"ce4bhn92rcd13ifvqgrg","pricing_plan_id":"cebpf4jnsgd1na2vs0mg"},{"bike_id":"991a6937-87f3-4f52-a962-216ff783cb0b","system_id":"levelo_inurba_marseille","lat":43.2557,"lon":5.38233,"is_reserved":false,"is_disabled":false,"rental_uris":{"android":"levelo://app?vid=991a6937-87f3-4f52-a962-216ff783cb0b","ios":"levelo://app?vid=991a6937-87f3-4f52-a962-216ff783cb0b"},"vehicle_type_id":"4","last_reported":1734513045,"current_range_meters":38800,"station_id":"ce4bhih2rcd13ifvqfs0","pricing_plan_id":"cebpf4jnsgd1na2vs0mg"},{"bike_id":"b59c647e-051a-4eb5-a082-deb3a3d33fa7","system_id":"levelo_inurba_marseille","lat":43.292,"lon":5.40097,"is_reserved":false,"is_disabled":true,"rental_uris":{"android":"levelo://app?vid=b59c647e-051a-4eb5-a082-deb3a3d33fa7","ios":"levelo://app?vid=b59c647e-051a-4eb5-a082-deb3a3d33fa7"},"vehicle_type_id":"4","last_reported":1734513045,"current_range_meters":15200,"station_id":"ce4bh312rcd13ifvqdk0","pricing_plan_id":"cebpf4jnsgd1na2vs0mg"},{"bike_id":"b11935e9-650a-4cf3-98ee-136ac9bf4915","system_id":"levelo_inurba_marseille","lat":43.30418,"lon":5.39731,"is_reserved":false,"is_disabled":true,"rental_uris":{"android":"levelo://app?vid=b11935e9-650a-4cf3-98ee-136ac9bf4915","ios":"levelo://app?vid=b11935e9-650a-4cf3-98ee-136ac9bf4915"},"vehicle_type_id":"4","last_reported":1734513045,"current_range_meters":2000,"station_id":"ce4bh092rcd13ifvqd20","pricing_plan_id":"cebpf4jnsgd1na2vs0mg"},{"bike_id":"d0593f90-4e1d-4b16-8cc8-b45632b4702f","system_id":"levelo_inurba_marseille","lat":43.28335,"lon":5.38102,"is_reserved":false,"is_disabled":true,"rental_uris":{"android":"levelo://app?vid=d0593f90-4e1d-4b16-8cc8-b45632b4702f","ios":"levelo://app?vid=d0593f90-4e1d-4b16-8cc8-b45632b4702f"},"vehicle_type_id":"4","last_reported":1734513045,"current_range_meters":28800,"station_id":"ce4bh412rcd13ifvqdr0","pricing_plan_id":"cebpf4jnsgd1na2vs0mg"},{"bike_id":"7b305c6f-361b-46c6-bcc8-6b2d9fd084fa","system_id":"levelo_inurba_marseille","lat":43.28115,"lon":5.44219,"is_reserved":false,"is_disabled":true,"rental_uris":{"android":"levelo://app?vid=7b305c6f-361b-46c6-bcc8-6b2d9fd084fa","ios":"levelo://app?vid=7b305c6f-361b-46c6-bcc8-6b2d9fd084fa"},"vehicle_type_id":"4","last_reported":1734513045,"current_range_meters":0,"station_id":"","pricing_plan_id":"cebpf4jnsgd1na2vs0mg"},{"bike_id":"096a7850-aaf4-4da2-8608-845011c432b5","system_id":"levelo_inurba_marseille","lat":43.33724,"lon":5.3917,"is_reserved":false,"is_disabled":false,"rental_uris":{"android":"levelo://app?vid=096a7850-aaf4-4da2-8608-845011c432b5","ios":"levelo://app?vid=096a7850-aaf4-4da2-8608-845011c432b5"},"vehicle_type_id":"4","last_reported":1734513045,"current_range_meters":38000,"station_id":"ce4bhr92rcd13ifvqhsg","pricing_plan_id":"cebpf4jnsgd1na2vs0mg"},{"bike_id":"d22bfbba-51d8-4933-a9b8-f44ef4cff462","system_id":"levelo_inurba_marseille","lat":43.29218,"lon":5.36052,"is_reserved":false,"is_disabled":false,"rental_uris":{"android":"levelo://app?vid=d22bfbba-51d8-4933-a9b8-f44ef4cff462","ios":"levelo://app?vid=d22bfbba-51d8-4933-a9b8-f44ef4cff462"},"vehicle_type_id":"4","last_reported":1734513045,"current_range_meters":32800,"station_id":"ce4bhbh2rcd13ifvqeqg","pricing_plan_id":"cebpf4jnsgd1na2vs0mg"},{"bike_id":"8d1c4201-2a72-4c4e-a53e-78bc816e5adf","system_id":"levelo_inurba_marseille","lat":43.26681,"lon":5.38273,"is_reserved":false,"is_disabled":false,"rental_uris":{"android":"levelo://app?vid=8d1c4201-2a72-4c4e-a53e-78bc816e5adf","ios":"levelo://app?vid=8d1c4201-2a72-4c4e-a53e-78bc816e5adf"},"vehicle_type_id":"4","last_reported":1734513045,"current_range_meters":36400,"station_id":"ce4bhg92rcd13ifvqf90","pricing_plan_id":"cebpf4jnsgd1na2vs0mg"},{"bike_id":"ae0e7118-6f59-4232-bfe0-1e559ebff2c0","system_id":"levelo_inurba_marseille","lat":43.30273,"lon":5.37696,"is_reserved":false,"is_disabled":false,"rental_uris":{"android":"levelo://app?vid=ae0e7118-6f59-4232-bfe0-1e559ebff2c0","ios":"levelo://app?vid=ae0e7118-6f59-4232-bfe0-1e559ebff2c0"},"vehicle_type_id":"4","last_reported":1734513045,"current_range_meters":37600,"station_id":"ce4bguh2rcd13ifvqcj0","pricing_plan_id":"cebpf4jnsgd1na2vs0mg"},{"bike_id":"8be087d3-9d6f-4250-a998-20bf5d178678","system_id":"levelo_inurba_marseille","lat":43.29293,"lon":5.37449,"is_reserved":false,"is_disabled":true,"rental_uris":{"android":"levelo://app?vid=8be087d3-9d6f-4250-a998-20bf5d178678","ios":"levelo://app?vid=8be087d3-9d6f-4250-a998-20bf5d178678"},"vehicle_type_id":"4","last_reported":1734513045,"current_range_meters":0,"station_id":"ce4bgi12rcd13ifvqb70","pricing_plan_id":"cebpf4jnsgd1na2vs0mg"},{"bike_id":"f95a6519-7474-44e4-9e6d-51ce64208eb5","system_id":"levelo_inurba_marseille","lat":43.27174,"lon":5.40994,"is_reserved":false,"is_disabled":false,"rental_uris":{"android":"levelo://app?vid=f95a6519-7474-44e4-9e6d-51ce64208eb5","ios":"levelo://app?vid=f95a6519-7474-44e4-9e6d-51ce64208eb5"},"vehicle_type_id":"4","last_reported":1734513045,"current_range_meters":38000,"station_id":"ce4bhl12rcd13ifvqgf0","pricing_plan_id":"cebpf4jnsgd1na2vs0mg"},{"bike_id":"14e3ef8f-f8d3-42a0-a10d-8e40e0604c52","system_id":"levelo_inurba_marseille","lat":43.30217,"lon":5.39457,"is_reserved":false,"is_disabled":true,"rental_uris":{"android":"levelo://app?vid=14e3ef8f-f8d3-42a0-a10d-8e40e0604c52","ios":"levelo://app?vid=14e3ef8f-f8d3-42a0-a10d-8e40e0604c52"},"vehicle_type_id":"4","last_reported":1734513045,"current_range_meters":800,"station_id":"ce4bh0p2rcd13ifvqd70","pricing_plan_id":"cebpf4jnsgd1na2vs0mg"},{"bike_id":"b94807de-62f6-476f-b075-78c3ad1001f2","system_id":"levelo_inurba_marseille","lat":43.29608,"lon":5.37733,"is_reserved":false,"is_disabled":false,"rental_uris":{"android":"levelo://app?vid=b94807de-62f6-476f-b075-78c3ad1001f2","ios":"levelo://app?vid=b94807de-62f6-476f-b075-78c3ad1001f2"},"vehicle_type_id":"4","last_reported":1734513045,"current_range_meters":13600,"station_id":"ce4bgi92rcd13ifvqb90","pricing_plan_id":"cebpf4jnsgd1na2vs0mg"},{"bike_id":"af1eec45-a179-4c32-8080-8ca490ef1059","system_id":"levelo_inurba_marseille","lat":43.30955,"lon":5.39033,"is_reserved":false,"is_disabled":false,"rental_uris":{"android":"levelo://app?vid=af1eec45-a179-4c32-8080-8ca490ef1059","ios":"levelo://app?vid=af1eec45-a179-4c32-8080-8ca490ef1059"},"vehicle_type_id":"4","last_reported":1734513045,"current_range_meters":4000,"station_id":"ce4bgup2rcd13ifvqco0","pricing_plan_id":"cebpf4jnsgd1na2vs0mg"},{"bike_id":"62fa7f89-6de2-4bc8-8eb6-09e44ff16e37","system_id":"levelo_inurba_marseille","lat":43.23188,"lon":5.35546,"is_reserved":false,"is_disabled":false,"rental_uris":{"android":"levelo://app?vid=62fa7f89-6de2-4bc8-8eb6-09e44ff16e37","ios":"levelo://app?vid=62fa7f89-6de2-4bc8-8eb6-09e44ff16e37"},"vehicle_type_id":"4","last_reported":1734513045,"current_range_meters":38800,"station_id":"ce4bhu92rcd13ifvqi70","pricing_plan_id":"cebpf4jnsgd1na2vs0mg"},{"bike_id":"a16ef9e9-f391-4340-a6ad-d6425a922906","system_id":"levelo_inurba_marseille","lat":43.29272,"lon":5.36844,"is_reserved":false,"is_disabled":false,"rental_uris":{"android":"levelo://app?vid=a16ef9e9-f391-4340-a6ad-d6425a922906","ios":"levelo://app?vid=a16ef9e9-f391-4340-a6ad-d6425a922906"},"vehicle_type_id":"4","last_reported":1734513045,"current_range_meters":4800,"station_id":"ce4bhbp2rcd13ifvqesg","pricing_plan_id":"cebpf4jnsgd1na2vs0mg"},{"bike_id":"f69de81a-4677-43d9-8844-277e2b213ec4","system_id":"levelo_inurba_marseille","lat":43.31219,"lon":5.36863,"is_reserved":false,"is_disabled":false,"rental_uris":{"android":"levelo://app?vid=f69de81a-4677-43d9-8844-277e2b213ec4","ios":"levelo://app?vid=f69de81a-4677-43d9-8844-277e2b213ec4"},"vehicle_type_id":"4","last_reported":1734513045,"current_range_meters":32400,"station_id":"ce4bgl92rcd13ifvqbq0","pricing_plan_id":"cebpf4jnsgd1na2vs0mg"},{"bike_id":"1543f4bb-ffd5-451d-837b-75cce4148c96","system_id":"levelo_inurba_marseille","lat":43.337444,"lon":5.374475,"is_reserved":false,"is_disabled":true,"rental_uris":{"android":"levelo://app?vid=1543f4bb-ffd5-451d-837b-75cce4148c96","ios":"levelo://app?vid=1543f4bb-ffd5-451d-837b-75cce4148c96"},"vehicle_type_id":"4","last_reported":1734513045,"current_range_meters":0,"station_id":"","pricing_plan_id":"cebpf4jnsgd1na2vs0mg"},{"bike_id":"60f4e053-d364-44fe-999a-71bfab999b15","system_id":"levelo_inurba_marseille","lat":43.34143,"lon":5.4091,"is_reserved":false,"is_disabled":false,"rental_uris":{"android":"levelo://app?vid=60f4e053-d364-44fe-999a-71bfab999b15","ios":"levelo://app?vid=60f4e053-d364-44fe-999a-71bfab999b15"},"vehicle_type_id":"4","last_reported":1734513045,"current_range_meters":20000,"station_id":"ce4bhqh2rcd13ifvqhlg","pricing_plan_id":"cebpf4jnsgd1na2vs0mg"},{"bike_id":"d51b49fa-b8ee-45fb-ae69-b5c3f9283df6","system_id":"levelo_inurba_marseille","lat":43.30275,"lon":5.37696,"is_reserved":false,"is_disabled":false,"rental_uris":{"android":"levelo://app?vid=d51b49fa-b8ee-45fb-ae69-b5c3f9283df6","ios":"levelo://app?vid=d51b49fa-b8ee-45fb-ae69-b5c3f9283df6"},"vehicle_type_id":"4","last_reported":1734513045,"current_range_meters":37600,"station_id":"ce4bguh2rcd13ifvqcj0","pricing_plan_id":"cebpf4jnsgd1na2vs0mg"},{"bike_id":"1b573660-b287-40b0-a6eb-6ca45c418976","system_id":"levelo_inurba_marseille","lat":43.25003,"lon":5.38915,"is_reserved":false,"is_disabled":false,"rental_uris":{"android":"levelo://app?vid=1b573660-b287-40b0-a6eb-6ca45c418976","ios":"levelo://app?vid=1b573660-b287-40b0-a6eb-6ca45c418976"},"vehicle_type_id":"4","last_reported":1734513045,"current_range_meters":30400,"station_id":"ce4bhgp2rcd13ifvqfd0","pricing_plan_id":"cebpf4jnsgd1na2vs0mg"},