{"last_updated":1752236457,"ttl":60,"version":"2.2","data":{"bikes":[{"bike_id":"f06545ab-6fe4-4b04-af64-783a9eefd308","system_id":"levelo_inurba_marseille","lat":43.2849,"lon":5.37675,"is_reserved":false,"is_disabled":false,"rental_uris":{"android":"levelo://app?vid=f06545ab-6fe4-4b04-af64-783a9eefd308","ios":"levelo://app?vid=f06545ab-6fe4-4b04-af64-783a9eefd308"},"vehicle_type_id":"4","last_reported":1752236458,"current_range_meters":2800,"station_id":"","pricing_plan_id":"cebpf4jnsgd1na2vs0mg"},{"bike_id":"d6bce595-bdf6-4cf3-be89-6b5ad060085f","system_id":"levelo_inurba_marseille","lat":43.31755,"lon":5.39033,"is_reserved":false,"is_disabled":false,"rental_uris":{"android":"levelo://app?vid=d6bce595-bdf6-4cf3-be89-6b5ad060085f","ios":"levelo://app?vid=d6bce595-bdf6-4cf3-be89-6b5ad060085f"},"vehicle_type_id":"4","last_reported":1752236458,"current_range_meters":2800,"station_id":"ce4bhqp2rcd13ifvqhng","pricing_plan_id":"cebpf4jnsgd1na2vs0mg"},{"bike_id":"a4e71c09-d013-4906-bd5c-aaf1012438e0","system_id":"levelo_inurba_marseille","lat":43.30926,"lon":5.40139,"is_reserved":false,"is_disabled":true,"rental_uris":{"android":"levelo://app?vid=a4e71c09-d013-4906-bd5c-aaf1012438e0","ios":"levelo://app?vid=a4e71c09-d013-4906-bd5c-aaf1012438e0"},"vehicle_type_id":"4","last_reported":1752236458,"current_range_meters":2800,"station_id":"ce4bgvp2rcd13ifvqct0","pricing_plan_id":"cebpf4jnsgd1na2vs0mg"},{"bike_id":"dca648dc-77f3-4257-8c33-c991e4b9f31b","system_id":"levelo_inurba_marseille","lat":43.28418,"lon":5.3498,"is_reserved":false,"is_disabled":false,"rental_uris":{"android":"levelo://app?vid=dca648dc-77f3-4257-8c33-c991e4b9f31b","ios":"levelo://app?vid=dca648dc-77f3-4257-8c33-c991e4b9f31b"},"vehicle_type_id":"4","last_reported":1752236458,"current_range_meters":2000,"station_id":"ce4bhbh2rcd13ifvqepg","pricing_plan_id":"cebpf4jnsgd1na2vs0mg"},{"bike_id":"03eea793-0480-4a49-ab5e-35410fec1ade","system_id":"levelo_inurba_marseille","lat":43.24809,"lon":5.37458,"is_reserved":false,"is_disabled":false,"rental_uris":{"android":"levelo://app?vid=03eea793-0480-4a49-ab5e-35410fec1ade","ios":"levelo://app?vid=03eea793-0480-4a49-ab5e-35410fec1ade"},"vehicle_type_id":"4","last_reported":1752236458,"current_range_meters":3200,"station_id":"ce4bhgh2rcd13ifvqfb0","pricing_plan_id":"cebpf4jnsgd1na2vs0mg"},{"bike_id":"f40e0f0a-877e-49c4-bcb5-b3dc9ae9ba00","system_id":"levelo_inurba_marseille","lat":43.29231,"lon":5.36083,"is_reserved":false,"is_disabled":false,"rental_uris":{"android":"levelo://app?vid=f40e0f0a-877e-49c4-bcb5-b3dc9ae9ba00","ios":"levelo://app?vid=f40e0f0a-877e-49c4-bcb5-b3dc9ae9ba00"},"vehicle_type_id":"4","last_reported":1752236458,"current_range_meters":3600,"station_id":"ce4bhbh2rcd13ifvqeqg","pricing_plan_id":"cebpf4jnsgd1na2vs0mg"},{"bike_id":"a2aa3420-a818-4f92-954e-7c1818e8bf25","system_id":"levelo_inurba_marseille","lat":43.27392,"lon":5.36272,"is_reserved":false,"is_disabled":false,"rental_uris":{"android":"levelo://app?vid=a2aa3420-a818-4f92-954e-7c1818e8bf25","ios":"levelo://app?vid=a2aa3420-a818-4f92-954e-7c1818e8bf25"},"vehicle_type_id":"4","last_reported":1752236458,"current_range_meters":3600,"station_id":"ce4bhbh2rcd13ifvqeo0","pricing_plan_id":"cebpf4jnsgd1na2vs0mg"},{"bike_id":"b8d6bf6b-ecbb-4c40-8ce7-0169ef070b49","system_id":"levelo_inurba_marseille","lat":43.29578,"lon":5.37404,"is_reserved":false,"is_disabled":false,"rental_uris":{"android":"levelo://app?vid=b8d6bf6b-ecbb-4c40-8ce7-0169ef070b49","ios":"levelo://app?vid=b8d6bf6b-ecbb-4c40-8ce7-0169ef070b49"},"vehicle_type_id":"4","last_reported":1752236458,"current_range_meters":4000,"station_id":"","pricing_plan_id":"cebpf4jnsgd1na2vs0mg"},{"bike_id":"98ddbcc5-750a-4def-8a5a-c303894b0c3f","system_id":"levelo_inurba_marseille","lat":43.29256,"lon":5.38429,"is_reserved":false,"is_disabled":false,"rental_uris":{"android":"levelo://app?vid=98ddbcc5-750a-4def-8a5a-c303894b0c3f","ios":"levelo://app?vid=98ddbcc5-750a-4def-8a5a-c303894b0c3f"},"vehicle_type_id":"4","last_reported":1752236458,"current_range_meters":4000,"station_id":"ce4bh692rcd13ifvqea0","pricing_plan_id":"cebpf4jnsgd1na2vs0mg"},{"bike_id":"2bd2509c-8e69-46fb-904c-1c65a6340b60","system_id":"levelo_inurba_marseille","lat":43.22935,"lon":5.35383,"is_reserved":false,"is_disabled":true,"rental_uris":{"android":"levelo://app?vid=2bd2509c-8e69-46fb-904c-1c65a6340b60","ios":"levelo://app?vid=2bd2509c-8e69-46fb-904c-1c65a6340b60"},"vehicle_type_id":"4","last_reported":1752236458,"current_range_meters":4000,"station_id":"cpo3532slgdg3j2ikp40","pricing_plan_id":"cebpf4jnsgd1na2vs0mg"},{"bike_id":"0c84bc5a-9dda-43e0-8386-b9da21c36a04","system_id":"levelo_inurba_marseille","lat":43.28352,"lon":5.38101,"is_reserved":false,"is_disabled":false,"rental_uris":{"android":"levelo://app?vid=0c84bc5a-9dda-43e0-8386-b9da21c36a04","ios":"levelo://app?vid=0c84bc5a-9dda-43e0-8386-b9da21c36a04"},"vehicle_type_id":"4","last_reported":1752236458,"current_range_meters":4400,"station_id":"ce4bh412rcd13ifvqdr0","pricing_plan_id":"cebpf4jnsgd1na2vs0mg"},{"bike_id":"80778b69-e378-4576-a615-711c510ff883","system_id":"levelo_inurba_marseille","lat":43.30599,"lon":5.3725,"is_reserved":false,"is_disabled":false,"rental_uris":{"android":"levelo://app?vid=80778b69-e378-4576-a615-711c510ff883","ios":"levelo://app?vid=80778b69-e378-4576-a615-711c510ff883"},"vehicle_type_id":"4","last_reported":1752236458,"current_range_meters":4400,"station_id":"ce4bgqh2rcd13ifvqc4g","pricing_plan_id":"cebpf4jnsgd1na2vs0mg"},{"bike_id":"13e0555c-4202-48a1-a311-e09a5de40023","system_id":"levelo_inurba_marseille","lat":43.28935,"lon":5.38403,"is_reserved":false,"is_disabled":false,"rental_uris":{"android":"levelo://app?vid=13e0555c-4202-48a1-a311-e09a5de40023","ios":"levelo://app?vid=13e0555c-4202-48a1-a311-e09a5de40023"},"vehicle_type_id":"4","last_reported":1752236458,"current_range_meters":4000,"station_id":"ce4bh612rcd13ifvqe6g","pricing_plan_id":"cebpf4jnsgd1na2vs0mg"},{"bike_id":"ba6b689e-4de4-4c6c-bb3e-ca59647525d0","system_id":"levelo_inurba_marseille","lat":43.21744,"lon":5.34605,"is_reserved":false,"is_disabled":false,"rental_uris":{"android":"levelo://app?vid=ba6b689e-4de4-4c6c-bb3e-ca59647525d0","ios":"levelo://app?vid=ba6b689e-4de4-4c6c-bb3e-ca59647525d0"},"vehicle_type_id":"4","last_reported":1752236458,"current_range_meters":4400,"station_id":"","pricing_plan_id":"cebpf4jnsgd1na2vs0mg"},{"bike_id":"c0c4025d-e8f7-4b28-8606-feb97fb114c5","system_id":"levelo_inurba_marseille","lat":43.28265,"lon":5.35089,"is_reserved":false,"is_disabled":false,"rental_uris":{"android":"levelo://app?vid=c0c4025d-e8f7-4b28-8606-feb97fb114c5","ios":"levelo://app?vid=c0c4025d-e8f7-4b28-8606-feb97fb114c5"},"vehicle_type_id":"4","last_reported":1752236458,"current_range_meters":4400,"station_id":"ce4bhbp2rcd13ifvqerg","pricing_plan_id":"cebpf4jnsgd1na2vs0mg"},{"bike_id":"c9ec8264-b1f7-41db-a127-5dfa02fc980f","system_id":"levelo_inurba_marseille","lat":43.3157,"lon":5.40193,"is_reserved":false,"is_disabled":false,"rental_uris":{"android":"levelo://app?vid=c9ec8264-b1f7-41db-a127-5dfa02fc980f","ios":"levelo://app?vid=c9ec8264-b1f7-41db-a127-5dfa02fc980f"},"vehicle_type_id":"4","last_reported":1752236458,"current_range_meters":4800,"station_id":"","pricing_plan_id":"cebpf4jnsgd1na2vs0mg"},{"bike_id":"3108e78c-759c-4d11-b361-5abb833e983c","system_id":"levelo_inurba_marseille","lat":43.28897,"lon":5.39424,"is_reserved":false,"is_disabled":false,"rental_uris":{"android":"levelo://app?vid=3108e78c-759c-4d11-b361-5abb833e983c","ios":"levelo://app?vid=3108e78c-759c-4d11-b361-5abb833e983c"},"vehicle_type_id":"4","last_reported":1752236458,"current_range_meters":6000,"station_id":"","pricing_plan_id":"cebpf4jnsgd1na2vs0mg"},{"bike_id":"382128da-3ed4-4a44-8a40-d102e2008492","system_id":"levelo_inurba_marseille","lat":43.28265,"lon":5.35064,"is_reserved":false,"is_disabled":false,"rental_uris":{"android":"levelo://app?vid=382128da-3ed4-4a44-8a40-d102e2008492","ios":"levelo://app?vid=382128da-3ed4-4a44-8a40-d102e2008492"},"vehicle_type_id":"4","last_reported":1752236458,"current_range_meters":6000,"station_id":"ce4bhbp2rcd13ifvqerg","pricing_plan_id":"cebpf4jnsgd1na2vs0mg"},{"bike_id":"df712ea8-fa0e-4dc0-9487-73c43f88a2a0","system_id":"levelo_inurba_marseille","lat":43.30788,"lon":5.37652,"is_reserved":false,"is_disabled":false,"rental_uris":{"android":"levelo://app?vid=df712ea8-fa0e-4dc0-9487-73c43f88a2a0","ios":"levelo://app?vid=df712ea8-fa0e-4dc0-9487-73c43f88a2a0"},"vehicle_type_id":"4","last_reported":1752236458,"current_range_meters":6000,"station_id":"ce4bgv92rcd13ifvqcq0","pricing_plan_id":"cebpf4jnsgd1na2vs0mg"},{"bike_id":"20763534-4b4f-4a23-86b4-3e729e1b3926","system_id":"levelo_inurba_marseille","lat":43.337444,"lon":5.374475,"is_reserved":false,"is_disabled":false,"rental_uris":{"android":"levelo://app?vid=20763534-4b4f-4a23-86b4-3e729e1b3926","ios":"levelo://app?vid=20763534-4b4f-4a23-86b4-3e729e1b3926"},"vehicle_type_id":"4","last_reported":1752236458,"current_range_meters":6000,"station_id":"","pricing_plan_id":"cebpf4jnsgd1na2vs0mg"},{"bike_id":"159fe00e-1605-4a3a-a906-ef8dcd52b1db","system_id":"levelo_inurba_marseille","lat":43.30839,"lon":5.37327,"is_reserved":false,"is_disabled":false,"rental_uris":{"android":"levelo://app?vid=159fe00e-1605-4a3a-a906-ef8dcd52b1db","ios":"levelo://app?vid=159fe00e-1605-4a3a-a906-ef8dcd52b1db"},"vehicle_type_id":"4","last_reported":1752236458,"current_range_meters":6400,"station_id":"","pricing_plan_id":"cebpf4jnsgd1na2vs0mg"},{"bike_id":"ad1ea14c-4222-436d-a9cf-ba534be92f23","system_id":"levelo_inurba_marseille","lat":43.284616,"lon":5.358773,"is_reserved":false,"is_disabled":false,"rental_uris":{"android":"levelo://app?vid=ad1ea14c-4222-436d-a9cf-ba534be92f23","ios":"levelo://app?vid=ad1ea14c-4222-436d-a9cf-ba534be92f23"},"vehicle_type_id":"4","last_reported":1752236458,"current_range_meters":6400,"station_id":"ce4bhah2rcd13ifvqei0","pricing_plan_id":"cebpf4jnsgd1na2vs0mg"},{"bike_id":"78d6e7c8-8477-436d-96d8-0d0ab485a2b5","system_id":"levelo_inurba_marseille","lat":43.21773,"lon":5.34614,"is_reserved":false,"is_disabled":false,"rental_uris":{"android":"levelo://app?vid=78d6e7c8-8477-436d-96d8-0d0ab485a2b5","ios":"levelo://app?vid=78d6e7c8-8477-436d-96d8-0d0ab485a2b5"},"vehicle_type_id":"4","last_reported":1752236458,"current_range_meters":6800,"station_id":"st_cvj6r9ubvosntc0bgbag","pricing_plan_id":"cebpf4jnsgd1na2vs0mg"},{"bike_id":"b697b359-2117-44b5-bb87-bdbf00f86e01","system_id":"levelo_inurba_marseille","lat":43.29269,"lon":5.36846,"is_reserved":false,"is_disabled":false,"rental_uris":{"android":"levelo://app?vid=b697b359-2117-44b5-bb87-bdbf00f86e01","ios":"levelo://app?vid=b697b359-2117-44b5-bb87-bdbf00f86e01"},"vehicle_type_id":"4","last_reported":1752236458,"current_range_meters":6800,"station_id":"ce4bhbp2rcd13ifvqesg","pricing_plan_id":"cebpf4jnsgd1na2vs0mg"},{"bike_id":"21ae54b9-7375-4101-b8a7-bff9d6e1fa32","system_id":"levelo_inurba_marseille","lat":43.29985,"lon":5.37642,"is_reserved":false,"is_disabled":false,"rental_uris":{"android":"levelo://app?vid=21ae54b9-7375-4101-b8a7-bff9d6e1fa32","ios":"levelo://app?vid=21ae54b9-7375-4101-b8a7-bff9d6e1fa32"},"vehicle_type_id":"4","last_reported":1752236458,"current_range_meters":7200,"station_id":"","pricing_plan_id":"cebpf4jnsgd1na2vs0mg"},{"bike_id":"b757ffbb-2b71-4330-9f60-5f8a9d46d16e","system_id":"levelo_inurba_marseille","lat":43.296632,"lon":5.370974,"is_reserved":false,"is_disabled":false,"rental_uris":{"android":"levelo://app?vid=b757ffbb-2b71-4330-9f60-5f8a9d46d16e","ios":"levelo://app?vid=b757ffbb-2b71-4330-9f60-5f8a9d46d16e"},"vehicle_type_id":"4","last_reported":1752236458,"current_range_meters":7200,"station_id":"","pricing_plan_id":"cebpf4jnsgd1na2vs0mg"},{"bike_id":"deeddcb2-a803-40df-836d-b6a0448d8d85","system_id":"levelo_inurba_marseille","lat":43.27376,"lon":5.3626,"is_reserved":false,"is_disabled":false,"rental_uris":{"android":"levelo://app?vid=deeddcb2-a803-40df-836d-b6a0448d8d85","ios":"levelo://app?vid=deeddcb2-a803-40df-836d-b6a0448d8d85"},"vehicle_type_id":"4","last_reported":1752236458,"current_range_meters":8000,"station_id":"ce4bhbh2rcd13ifvqeo0","pricing_plan_id":"cebpf4jnsgd1na2vs0mg"},{"bike_id":"439eaa5e-a81f-4388-ab2a-0fd0215ab727","system_id":"levelo_inurba_marseille","lat":43.32342,"lon":5.40627,"is_reserved":false,"is_disabled":false,"rental_uris":{"android":"levelo://app?vid=439eaa5e-a81f-4388-ab2a-0fd0215ab727","ios":"levelo://app?vid=439eaa5e-a81f-4388-ab2a-0fd0215ab727"},"vehicle_type_id":"4","last_reported":1752236458,"current_range_meters":8000,"station_id":"ce4bhq92rcd13ifvqhjg","pricing_plan_id":"cebpf4jnsgd1na2vs0mg"},{"bike_id":"5db3fca9-c222-486a-a524-9d00ea9ac959","system_id":"levelo_inurba_marseille","lat":43.27171,"lon":5.40991,"is_reserved":false,"is_disabled":false,"rental_uris":{"android":"levelo://app?vid=5db3fca9-c222-486a-a524-9d00ea9ac959","ios":"levelo://app?vid=5db3fca9-c222-486a-a524-9d00ea9ac959"},"vehicle_type_id":"4","last_reported":1752236458,"current_range_meters":8000,"station_id":"ce4bhl12rcd13ifvqgf0","pricing_plan_id":"cebpf4jnsgd1na2vs0mg"},{"bike_id":"aefcdd74-6482-42e0-92ee-b3d9efe0d8e2","system_id":"levelo_inurba_marseille","lat":43.32469,"lon":5.36627,"is_reserved":false,"is_disabled":false,"rental_uris":{"android":"levelo://app?vid=aefcdd74-6482-42e0-92ee-b3d9efe0d8e2","ios":"levelo://app?vid=aefcdd74-6482-42e0-92ee-b3d9efe0d8e2"},"vehicle_type_id":"4","last_reported":1752236458,"current_range_meters":8400,"station_id":"","pricing_plan_id":"cebpf4jnsgd1na2vs0mg"},{"bike_id":"47adeac1-b753-4979-881c-bf256efc495e","system_id":"levelo_inurba_marseille","lat":43.23194,"lon":5.35555,"is_reserved":false,"is_disabled":false,"rental_uris":{"android":"levelo://app?vid=47adeac1-b753-4979-881c-bf256efc495e","ios":"levelo://app?vid=47adeac1-b753-4979-881c-bf256efc495e"},"vehicle_type_id":"4","last_reported":1752236458,"current_range_meters":8400,"station_id":"ce4bhu92rcd13ifvqi70","pricing_plan_id":"cebpf4jnsgd1na2vs0mg"},{"bike_id":"833f97ec-e704-4051-ab3b-2e9eb58f71d0","system_id":"levelo_inurba_marseille","lat":43.30255,"lon":5.37548,"is_reserved":false,"is_disabled":false,"rental_uris":{"android":"levelo://app?vid=833f97ec-e704-4051-ab3b-2e9eb58f71d0","ios":"levelo://app?vid=833f97ec-e704-4051-ab3b-2e9eb58f71d0"},"vehicle_type_id":"4","last_reported":1752236458,"current_range_meters":8400,"station_id":"","pricing_plan_id":"cebpf4jnsgd1na2vs0mg"},{"bike_id":"984ec2b5-c9ce-44b7-a7cf-e0dc58b03117","system_id":"levelo_inurba_marseille","lat":43.27055,"lon":5.40264,"is_reserved":false,"is_disabled":false,"rental_uris":{"android":"levelo://app?vid=984ec2b5-c9ce-44b7-a7cf-e0dc58b03117","ios":"levelo://app?vid=984ec2b5-c9ce-44b7-a7cf-e0dc58b03117"},"vehicle_type_id":"4","last_reported":1752236458,"current_range_meters":8400,"station_id":"ce4bhk92rcd13ifvqgc0","pricing_plan_id":"cebpf4jnsgd1na2vs0mg"},{"bike_id":"0276e311-7d2c-46f8-bbab-2a5eafcc02c4","system_id":"levelo_inurba_marseille","lat":43.28421,"lon":5.34989,"is_reserved":false,"is_disabled":false,"rental_uris":{"android":"levelo://app?vid=0276e311-7d2c-46f8-bbab-2a5eafcc02c4","ios":"levelo://app?vid=0276e311-7d2c-46f8-bbab-2a5eafcc02c4"},"vehicle_type_id":"4","last_reported":1752236458,"current_range_meters":8800,"station_id":"ce4bhbh2rcd13ifvqepg","pricing_plan_id":"cebpf4jnsgd1na2vs0mg"},{"bike_id":"e204274b-73ad-4c6f-862d-8af730ce2e2b","system_id":"levelo_inurba_marseille","lat":43.29565,"lon":5.42311,"is_reserved":false,"is_disabled":false,"rental_uris":{"android":"levelo://app?vid=e204274b-73ad-4c6f-862d-8af730ce2e2b","ios":"levelo://app?vid=e204274b-73ad-4c6f-862d-8af730ce2e2b"},"vehicle_type_id":"4","last_reported":1752236458,"current_range_meters":8800,"station_id":"ce4bhph2rcd13ifvqhdg","pricing_plan_id":"cebpf4jnsgd1na2vs0mg"},{"bike_id":"05662ace-c268-4e48-916a-515b0a949424","system_id":"levelo_inurba_marseille","lat":43.291985,"lon":5.358011,"is_reserved":false,"is_disabled":false,"rental_uris":{"android":"levelo://app?vid=05662ace-c268-4e48-916a-515b0a949424","ios":"levelo://app?vid=05662ace-c268-4e48-916a-515b0a949424"},"vehicle_type_id":"4","last_reported":1752236458,"current_range_meters":8800,"station_id":"ce4bhb12rcd13ifvqel0","pricing_plan_id":"cebpf4jnsgd1na2vs0mg"},{"bike_id":"272507f6-464c-4523-8d2d-bf98c0f878e1","system_id":"levelo_inurba_marseille","lat":43.3046,"lon":5.37902,"is_reserved":false,"is_disabled":false,"rental_uris":{"android":"levelo://app?vid=272507f6-464c-4523-8d2d-bf98c0f878e1","ios":"levelo://app?vid=272507f6-464c-4523-8d2d-bf98c0f878e1"},"vehicle_type_id":"4","last_reported":1752236458,"current_range_meters":9200,"station_id":"ce4bgup2rcd13ifvqcn0","pricing_plan_id":"cebpf4jnsgd1na2vs0mg"},{"bike_id":"8b2622c8-4679-445b-abc8-e5c935c950a1","system_id":"levelo_inurba_marseille","lat":43.273699,"lon":5.362414,"is_reserved":false,"is_disabled":false,"rental_uris":{"android":"levelo://app?vid=8b2622c8-4679-445b-abc8-e5c935c950a1","ios":"levelo://app?vid=8b2622c8-4679-445b-abc8-e5c935c950a1"},"vehicle_type_id":"4","last_reported":1752236458,"current_range_meters":9200,"station_id":"ce4bhbh2rcd13ifvqeo0","pricing_plan_id":"cebpf4jnsgd1na2vs0mg"},{"bike_id":"07994fe7-8c1f-43f9-9d92-44f558cfd8e1","system_id":"levelo_inurba_marseille","lat":43.268042,"lon":5.402705,"is_reserved":false,"is_disabled":false,"rental_uris":{"android":"levelo://app?vid=07994fe7-8c1f-43f9-9d92-44f558cfd8e1","ios":"levelo://app?vid=07994fe7-8c1f-43f9-9d92-44f558cfd8e1"},"vehicle_type_id":"4","last_reported":1752236458,"current_range_meters":9600,"station_id":"ce501612rcd8frsf0b60","pricing_plan_id":"cebpf4jnsgd1na2vs0mg"},{"bike_id":"df9d904e-a43c-40dc-b9f5-07088bb564c7","system_id":"levelo_inurba_marseille","lat":43.2841,"lon":5.3751,"is_reserved":false,"is_disabled":false,"rental_uris":{"android":"levelo://app?vid=df9d904e-a43c-40dc-b9f5-07088bb564c7","ios":"levelo://app?vid=df9d904e-a43c-40dc-b9f5-07088bb564c7"},"vehicle_type_id":"4","last_reported":1752236458,"current_range_meters":9600,"station_id":"ce4bh412rcd13ifvqds0","pricing_plan_id":"cebpf4jnsgd1na2vs0mg"},{"bike_id":"6fa0df8f-9ff1-40c3-a15b-344b5a0d383b","system_id":"levelo_inurba_marseille","lat":43.32336,"lon":5.36732,"is_reserved":false,"is_disabled":false,"rental_uris":{"android":"levelo://app?vid=6fa0df8f-9ff1-40c3-a15b-344b5a0d383b","ios":"levelo://app?vid=6fa0df8f-9ff1-40c3-a15b-344b5a0d383b"},"vehicle_type_id":"4","last_reported":1752236458,"current_range_meters":9600,"station_id":"ce4bhsh2rcd13ifvqi2g","pricing_plan_id":"cebpf4jnsgd1na2vs0mg"},{"bike_id":"f5a7f1b9-8da1-4449-84c0-bbad2d8cc9ab","system_id":"levelo_inurba_marseille","lat":43.27058,"lon":5.40294,"is_reserved":false,"is_disabled":false,"rental_uris":{"android":"levelo://app?vid=f5a7f1b9-8da1-4449-84c0-bbad2d8cc9ab","ios":"levelo://app?vid=f5a7f1b9-8da1-4449-84c0-bbad2d8cc9ab"},"vehicle_type_id":"4","last_reported":1752236458,"current_range_meters":9600,"station_id":"ce4bhk92rcd13ifvqgc0","pricing_plan_id":"cebpf4jnsgd1na2vs0mg"},{"bike_id":"ea7f713a-f8eb-4f16-8168-36d2161084e8","system_id":"levelo_inurba_marseille","lat":43.27868,"lon":5.39517,"is_reserved":false,"is_disabled":false,"rental_uris":{"android":"levelo://app?vid=ea7f713a-f8eb-4f16-8168-36d2161084e8","ios":"levelo://app?vid=ea7f713a-f8eb-4f16-8168-36d2161084e8"},"vehicle_type_id":"4","last_reported":1752236458,"current_range_meters":9600,"station_id":"","pricing_plan_id":"cebpf4jnsgd1na2vs0mg"},{"bike_id":"a1930209-be6a-4cde-98ef-486e56b0b297","system_id":"levelo_inurba_marseille","lat":43.28155,"lon":5.42639,"is_reserved":false,"is_disabled":false,"rental_uris":{"android":"levelo://app?vid=a1930209-be6a-4cde-98ef-486e56b0b297","ios":"levelo://app?vid=a1930209-be6a-4cde-98ef-486e56b0b297"},"vehicle_type_id":"4","last_reported":1752236458,"current_range_meters":9200,"station_id":"ce4bhnh2rcd13ifvqgug","pricing_plan_id":"cebpf4jnsgd1na2vs0mg"},{"bike_id":"fb635f8a-861f-4951-8730-3224ff8a91f5","system_id":"levelo_inurba_marseille","lat":43.27373,"lon":5.3626,"is_reserved":false,"is_disabled":false,"rental_uris":{"android":"levelo://app?vid=fb635f8a-861f-4951-8730-3224ff8a91f5","ios":"levelo://app?vid=fb635f8a-861f-4951-8730-3224ff8a91f5"},"vehicle_type_id":"4","last_reported":1752236458,"current_range_meters":9600,"station_id":"ce4bhbh2rcd13ifvqeo0","pricing_plan_id":"cebpf4jnsgd1na2vs0mg"},{"bike_id":"86a3cb20-25ee-4263-8f1a-7c6918ee4d36","system_id":"levelo_inurba_marseille","lat":43.29267,"lon":5.38436,"is_reserved":false,"is_disabled":false,"rental_uris":{"android":"levelo://app?vid=86a3cb20-25ee-4263-8f1a-7c6918ee4d36","ios":"levelo://app?vid=86a3cb20-25ee-4263-8f1a-7c6918ee4d36"},"vehicle_type_id":"4","last_reported":1752236458,"current_range_meters":9200,"station_id":"ce4bh692rcd13ifvqea0","pricing_plan_id":"cebpf4jnsgd1na2vs0mg"},{"bike_id":"58fd885c-cbab-42e2-b29b-a9bd59a07733","system_id":"levelo_inurba_marseille","lat":43.28462,"lon":5.35896,"is_reserved":false,"is_disabled":false,"rental_uris":{"android":"levelo://app?vid=58fd885c-cbab-42e2-b29b-a9bd59a07733","ios":"levelo://app?vid=58fd885c-cbab-42e2-b29b-a9bd59a07733"},"vehicle_type_id":"4","last_reported":1752236458,"current_range_meters":9200,"station_id":"ce4bhah2rcd13ifvqei0","pricing_plan_id":"cebpf4jnsgd1na2vs0mg"},{"bike_id":"ca37c346-ca1f-45c8-a09d-8108ee20d2d3","system_id":"levelo_inurba_marseille","lat":43.24167,"lon":5.36398,"is_reserved":false,"is_disabled":false,"rental_uris":{"android":"levelo://app?vid=ca37c346-ca1f-45c8-a09d-8108ee20d2d3","ios":"levelo://app?vid=ca37c346-ca1f-45c8-a09d-8108ee20d2d3"},"vehicle_type_id":"4","last_reported":1752236458,"current_range_meters":9600,"station_id":"cpo36qri1sfpv3e86is0","pricing_plan_id":"cebpf4jnsgd1na2vs0mg"},{"bike_id":"f78449e2-7d44-4571-9947-41ae79d4b3c6","system_id":"levelo_inurba_marseille","lat":43.28616,"lon":5.35113,"is_reserved":false,"is_disabled":false,"rental_uris":{"android":"levelo://app?vid=f78449e2-7d44-4571-9947-41ae79d4b3c6","ios":"levelo://app?vid=f78449e2-7d44-4571-9947-41ae79d4b3c6"},"vehicle_type_id":"4","last_reported":1752236458,"current_range_meters":10000,"station_id":"ce4bhch2rcd13ifvqeug","pricing_plan_id":"cebpf4jnsgd1na2vs0mg"},{"bike_id":"7c2d071d-3793-47df-b931-9d1ad060c48c","system_id":"levelo_inurba_marseille","lat":43.29532,"lon":5.42282,"is_reserved":false,"is_disabled":false,"rental_uris":{"android":"levelo://app?vid=7c2d071d-3793-47df-b931-9d1ad060c48c","ios":"levelo://app?vid=7c2d071d-3793-47df-b931-9d1ad060c48c"},"vehicle_type_id":"4","last_reported":1752236458,"current_range_meters":10000,"station_id":"ce4bhph2rcd13ifvqhdg","pricing_plan_id":"cebpf4jnsgd1na2vs0mg"},{"bike_id":"95ed45be-0cbe-4ada-ab9b-3d6fe6e0c22e","system_id":"levelo_inurba_marseille","lat":43.27627,"lon":5.36101,"is_reserved":false,"is_disabled":true,"rental_uris":{"android":"levelo://app?vid=95ed45be-0cbe-4ada-ab9b-3d6fe6e0c22e","ios":"levelo://app?vid=95ed45be-0cbe-4ada-ab9b-3d6fe6e0c22e"},"vehicle_type_id":"4","last_reported":1752236458,"current_range_meters":10000,"station_id":"ce4bgj92rcd13ifvqbe0","pricing_plan_id":"cebpf4jnsgd1na2vs0mg"},{"bike_id":"73fe94e8-74f9-41f0-85e9-7d8c52adf2fc","system_id":"levelo_inurba_marseille","lat":43.21257,"lon":5.35312,"is_reserved":false,"is_disabled":false,"rental_uris":{"android":"levelo://app?vid=73fe94e8-74f9-41f0-85e9-7d8c52adf2fc","ios":"levelo://app?vid=73fe94e8-74f9-41f0-85e9-7d8c52adf2fc"},"vehicle_type_id":"4","last_reported":1752236458,"current_range_meters":10800,"station_id":"","pricing_plan_id":"cebpf4jnsgd1na2vs0mg"},{"bike_id":"9f5e74ce-2459-4c6f-a171-f6d1e8a1ed83","system_id":"levelo_inurba_marseille","lat":43.3184,"lon":5.37549,"is_reserved":false,"is_disabled":false,"rental_uris":{"android":"levelo://app?vid=9f5e74ce-2459-4c6f-a171-f6d1e8a1ed83","ios":"levelo://app?vid=9f5e74ce-2459-4c6f-a171-f6d1e8a1ed83"},"vehicle_type_id":"4","last_reported":1752236458,"current_range_meters":10800,"station_id":"","pricing_plan_id":"cebpf4jnsgd1na2vs0mg"},{"bike_id":"62ac1821-7906-4c60-a407-d7977f4aa9dc","system_id":"levelo_inurba_marseille","lat":43.27373,"lon":5.36256,"is_reserved":false,"is_disabled":false,"rental_uris":{"android":"levelo://app?vid=62ac1821-7906-4c60-a407-d7977f4aa9dc","ios":"levelo://app?vid=62ac1821-7906-4c60-a407-d7977f4aa9dc"},"vehicle_type_id":"4","last_reported":1752236458,"current_range_meters":10800,"station_id":"ce4bhbh2rcd13ifvqeo0","pricing_plan_id":"cebpf4jnsgd1na2vs0mg"},{"bike_id":"91f48576-357f-4007-9c85-5067ee6200f8","system_id":"levelo_inurba_marseille","lat":43.28725,"lon":5.35207,"is_reserved":false,"is_disabled":false,"rental_uris":{"android":"levelo://app?vid=91f48576-357f-4007-9c85-5067ee6200f8","ios":"levelo://app?vid=91f48576-357f-4007-9c85-5067ee6200f8"},"vehicle_type_id":"4","last_reported":1752236458,"current_range_meters":10800,"station_id":"","pricing_plan_id":"cebpf4jnsgd1na2vs0mg"},{"bike_id":"718aff8d-4f05-4e31-8ebf-f09ac437893d","system_id":"levelo_inurba_marseille","lat":43.24166,"lon":5.36396,"is_reserved":false,"is_disabled":false,"rental_uris":{"android":"levelo://app?vid=718aff8d-4f05-4e31-8ebf-f09ac437893d","ios":"levelo://app?vid=718aff8d-4f05-4e31-8ebf-f09ac437893d"},"vehicle_type_id":"4","last_reported":1752236458,"current_range_meters":10800,"station_id":"cpo36qri1sfpv3e86is0","pricing_plan_id":"cebpf4jnsgd1na2vs0mg"},{"bike_id":"4e209b0c-855f-4b51-8120-2faef8673853","system_id":"levelo_inurba_marseille","lat":43.306053,"lon":5.368886,"is_reserved":false,"is_disabled":false,"rental_uris":{"android":"levelo://app?vid=4e209b0c-855f-4b51-8120-2faef8673853","ios":"levelo://app?vid=4e209b0c-855f-4b51-8120-2faef8673853"},"vehicle_type_id":"4","last_reported":1752236458,"current_range_meters":10800,"station_id":"","pricing_plan_id":"cebpf4jnsgd1na2vs0mg"},{"bike_id":"9b89f7c5-8dfa-4144-bf6e-6e11d75862be","system_id":"levelo_inurba_marseille","lat":43.287,"lon":5.39994,"is_reserved":false,"is_disabled":false,"rental_uris":{"android":"levelo://app?vid=9b89f7c5-8dfa-4144-bf6e-6e11d75862be","ios":"levelo://app?vid=9b89f7c5-8dfa-4144-bf6e-6e11d75862be"},"vehicle_type_id":"4","last_reported":1752236458,"current_range_meters":14000,"station_id":"ce4bho92rcd13ifvqh3g","pricing_plan_id":"cebpf4jnsgd1na2vs0mg"},{"bike_id":"60da8230-7552-4766-95b6-a204d159fe83","system_id":"levelo_inurba_marseille","lat":43.24166,"lon":5.36395,"is_reserved":false,"is_disabled":false,"rental_uris":{"android":"levelo://app?vid=60da8230-7552-4766-95b6-a204d159fe83","ios":"levelo://app?vid=60da8230-7552-4766-95b6-a204d159fe83"},"vehicle_type_id":"4","last_reported":1752236458,"current_range_meters":11200,"station_id":"cpo36qri1sfpv3e86is0","pricing_plan_id":"cebpf4jnsgd1na2vs0mg"},{"bike_id":"39e8aea4-b2c2-4f2e-9b0d-df31cd915ba4","system_id":"levelo_inurba_marseille","lat":43.24386,"lon":5.3705,"is_reserved":false,"is_disabled":false,"rental_uris":{"android":"levelo://app?vid=39e8aea4-b2c2-4f2e-9b0d-df31cd915ba4","ios":"levelo://app?vid=39e8aea4-b2c2-4f2e-9b0d-df31cd915ba4"},"vehicle_type_id":"4","last_reported":1752236458,"current_range_meters":11200,"station_id":"ce4bhhh2rcd13ifvqfk0","pricing_plan_id":"cebpf4jnsgd1na2vs0mg"},{"bike_id":"d3ba4188-7565-486f-b319-e1635892c2bf","system_id":"levelo_inurba_marseille","lat":43.26798,"lon":5.40255,"is_reserved":false,"is_disabled":false,"rental_uris":{"android":"levelo://app?vid=d3ba4188-7565-486f-b319-e1635892c2bf","ios":"levelo://app?vid=d3ba4188-7565-486f-b319-e1635892c2bf"},"vehicle_type_id":"4","last_reported":1752236458,"current_range_meters":11600,"station_id":"ce501612rcd8frsf0b60","pricing_plan_id":"cebpf4jnsgd1na2vs0mg"},{"bike_id":"fa87fcb5-aacb-41a1-a789-0296bbd02085","system_id":"levelo_inurba_marseille","lat":43.245853,"lon":5.373758,"is_reserved":false,"is_disabled":false,"rental_uris":{"android":"levelo://app?vid=fa87fcb5-aacb-41a1-a789-0296bbd02085","ios":"levelo://app?vid=fa87fcb5-aacb-41a1-a789-0296bbd02085"},"vehicle_type_id":"4","last_reported":1752236458,"current_range_meters":11600,"station_id":"","pricing_plan_id":"cebpf4jnsgd1na2vs0mg"},{"bike_id":"db656986-641f-401e-a4f9-fda6aa0377f0","system_id":"levelo_inurba_marseille","lat":43.30154,"lon":5.38121,"is_reserved":false,"is_disabled":false,"rental_uris":{"android":"levelo://app?vid=db656986-641f-401e-a4f9-fda6aa0377f0","ios":"levelo://app?vid=db656986-641f-401e-a4f9-fda6aa0377f0"},"vehicle_type_id":"4","last_reported":1752236458,"current_range_meters":11600,"station_id":"ce4bgjp2rcd13ifvqbh0","pricing_plan_id":"cebpf4jnsgd1na2vs0mg"},{"bike_id":"5a7b57ef-a00d-4d19-853c-d49c119db95f","system_id":"levelo_inurba_marseille","lat":43.24566,"lon":5.3734,"is_reserved":false,"is_disabled":false,"rental_uris":{"android":"levelo://app?vid=5a7b57ef-a00d-4d19-853c-d49c119db95f","ios":"levelo://app?vid=5a7b57ef-a00d-4d19-853c-d49c119db95f"},"vehicle_type_id":"4","last_reported":1752236458,"current_range_meters":12000,"station_id":"","pricing_plan_id":"cebpf4jnsgd1na2vs0mg"},{"bike_id":"f3661e7a-8c35-4a8d-bc56-20889509e479","system_id":"levelo_inurba_marseille","lat":43.33422,"lon":5.40096,"is_reserved":false,"is_disabled":false,"rental_uris":{"android":"levelo://app?vid=f3661e7a-8c35-4a8d-bc56-20889509e479","ios":"levelo://app?vid=f3661e7a-8c35-4a8d-bc56-20889509e479"},"vehicle_type_id":"4","last_reported":1752236458,"current_range_meters":12000,"station_id":"","pricing_plan_id":"cebpf4jnsgd1na2vs0mg"},{"bike_id":"8330a68f-2f6e-4337-9657-35d7d87c04ca","system_id":"levelo_inurba_marseille","lat":43.25451,"lon":5.37946,"is_reserved":false,"is_disabled":false,"rental_uris":{"android":"levelo://app?vid=8330a68f-2f6e-4337-9657-35d7d87c04ca","ios":"levelo://app?vid=8330a68f-2f6e-4337-9657-35d7d87c04ca"},"vehicle_type_id":"4","last_reported":1752236458,"current_range_meters":12000,"station_id":"","pricing_plan_id":"cebpf4jnsgd1na2vs0mg"},{"bike_id":"821c85d7-d6a0-4df7-b7a9-4d63ab80c528","system_id":"levelo_inurba_marseille","lat":43.30414,"lon":5.41288,"is_reserved":false,"is_disabled":false,"rental_uris":{"android":"levelo://app?vid=821c85d7-d6a0-4df7-b7a9-4d63ab80c528","ios":"levelo://app?vid=821c85d7-d6a0-4df7-b7a9-4d63ab80c528"},"vehicle_type_id":"4","last_reported":1752236458,"current_range_meters":11600,"station_id":"ce4bhop2rcd13ifvqh8g","pricing_plan_id":"cebpf4jnsgd1na2vs0mg"},{"bike_id":"28b64209-db42-4760-a18a-e5ddc07199ab","system_id":"levelo_inurba_marseille","lat":43.25823,"lon":5.39443,"is_reserved":false,"is_disabled":false,"rental_uris":{"android":"levelo://app?vid=28b64209-db42-4760-a18a-e5ddc07199ab","ios":"levelo://app?vid=28b64209-db42-4760-a18a-e5ddc07199ab"},"vehicle_type_id":"4","last_reported":1752236458,"current_range_meters":11600,"station_id":"ce4bhip2rcd13ifvqft0","pricing_plan_id":"cebpf4jnsgd1na2vs0mg"},{"bike_id":"5ed8effa-6539-4a17-9b0b-88a1e88bb81f","system_id":"levelo_inurba_marseille","lat":43.30545,"lon":5.36698,"is_reserved":false,"is_disabled":false,"rental_uris":{"android":"levelo://app?vid=5ed8effa-6539-4a17-9b0b-88a1e88bb81f","ios":"levelo://app?vid=5ed8effa-6539-4a17-9b0b-88a1e88bb81f"},"vehicle_type_id":"4","last_reported":1752236458,"current_range_meters":12000,"station_id":"ce4bgrp2rcd13ifvqc9g","pricing_plan_id":"cebpf4jnsgd1na2vs0mg"},{"bike_id":"d24f9e56-6e16-459e-9e9d-d5dab89c7487","system_id":"levelo_inurba_marseille","lat":43.24404,"lon":5.37072,"is_reserved":false,"is_disabled":false,"rental_uris":{"android":"levelo://app?vid=d24f9e56-6e16-459e-9e9d-d5dab89c7487","ios":"levelo://app?vid=d24f9e56-6e16-459e-9e9d-d5dab89c7487"},"vehicle_type_id":"4","last_reported":1752236458,"current_range_meters":12000,"station_id":"ce4bhhh2rcd13ifvqfk0","pricing_plan_id":"cebpf4jnsgd1na2vs0mg"},{"bike_id":"f85da7f2-9b8c-40df-ab85-908c3b65f090","system_id":"levelo_inurba_marseille","lat":43.26784,"lon":5.39433,"is_reserved":false,"is_disabled":false,"rental_uris":{"android":"levelo://app?vid=f85da7f2-9b8c-40df-ab85-908c3b65f090","ios":"levelo://app?vid=f85da7f2-9b8c-40df-ab85-908c3b65f090"},"vehicle_type_id":"4","last_reported":1752236458,"current_range_meters":12000,"station_id":"ce4bhh12rcd13ifvqfg0","pricing_plan_id":"cebpf4jnsgd1na2vs0mg"},{"bike_id":"815e27c5-951e-45f8-a0dd-764d99208be7","system_id":"levelo_inurba_marseille","lat":43.26195,"lon":5.37447,"is_reserved":false,"is_disabled":false,"rental_uris":{"android":"levelo://app?vid=815e27c5-951e-45f8-a0dd-764d99208be7","ios":"levelo://app?vid=815e27c5-951e-45f8-a0dd-764d99208be7"},"vehicle_type_id":"4","last_reported":1752236458,"current_range_meters":12800,"station_id":"ce4bhgp2rcd13ifvqfc0","pricing_plan_id":"cebpf4jnsgd1na2vs0mg"},{"bike_id":"7cc47d36-369b-4341-b17d-5dacc7ed1f4a","system_id":"levelo_inurba_marseille","lat":43.26212,"lon":5.37443,"is_reserved":false,"is_disabled":false,"rental_uris":{"android":"levelo://app?vid=7cc47d36-369b-4341-b17d-5dacc7ed1f4a","ios":"levelo://app?vid=7cc47d36-369b-4341-b17d-5dacc7ed1f4a"},"vehicle_type_id":"4","last_reported":1752236458,"current_range_meters":12400,"station_id":"ce4bhgp2rcd13ifvqfc0","pricing_plan_id":"cebpf4jnsgd1na2vs0mg"},{"bike_id":"dcc5af8d-152f-4f47-9491-dd69e3f36aa1","system_id":"levelo_inurba_marseille","lat":43.25493,"lon":5.37656,"is_reserved":false,"is_disabled":false,"rental_uris":{"android":"levelo://app?vid=dcc5af8d-152f-4f47-9491-dd69e3f36aa1","ios":"levelo://app?vid=dcc5af8d-152f-4f47-9491-dd69e3f36aa1"},"vehicle_type_id":"4","last_reported":1752236458,"current_range_meters":12400,"station_id":"ce4bhh12rcd13ifvqff0","pricing_plan_id":"cebpf4jnsgd1na2vs0mg"},{"bike_id":"9eb67e36-5309-49e3-8181-375643ddd193","system_id":"levelo_inurba_marseille","lat":43.27376,"lon":5.36264,"is_reserved":false,"is_disabled":false,"rental_uris":{"android":"levelo://app?vid=9eb67e36-5309-49e3-8181-375643ddd193","ios":"levelo://app?vid=9eb67e36-5309-49e3-8181-375643ddd193"},"vehicle_type_id":"4","last_reported":1752236458,"current_range_meters":12400,"station_id":"ce4bhbh2rcd13ifvqeo0","pricing_plan_id":"cebpf4jnsgd1na2vs0mg"},{"bike_id":"9a38b8ae-de57-4388-9942-2cd602d3a5ea","system_id":"levelo_inurba_marseille","lat":43.29549,"lon":5.42268,"is_reserved":false,"is_disabled":false,"rental_uris":{"android":"levelo://app?vid=9a38b8ae-de57-4388-9942-2cd602d3a5ea","ios":"levelo://app?vid=9a38b8ae-de57-4388-9942-2cd602d3a5ea"},"vehicle_type_id":"4","last_reported":1752236458,"current_range_meters":12400,"station_id":"ce4bhph2rcd13ifvqhdg","pricing_plan_id":"cebpf4jnsgd1na2vs0mg"},{"bike_id":"24b17f7b-dff1-4936-b27a-7c2c6813a894","system_id":"levelo_inurba_marseille","lat":43.24598,"lon":5.37382,"is_reserved":false,"is_disabled":false,"rental_uris":{"android":"levelo://app?vid=24b17f7b-dff1-4936-b27a-7c2c6813a894","ios":"levelo://app?vid=24b17f7b-dff1-4936-b27a-7c2c6813a894"},"vehicle_type_id":"4","last_reported":1752236458,"current_range_meters":12400,"station_id":"","pricing_plan_id":"cebpf4jnsgd1na2vs0mg"},{"bike_id":"a2f087e4-2174-4792-b543-bc2fc14fed30","system_id":"levelo_inurba_marseille","lat":43.28422,"lon":5.34976,"is_reserved":false,"is_disabled":false,"rental_uris":{"android":"levelo://app?vid=a2f087e4-2174-4792-b543-bc2fc14fed30","ios":"levelo://app?vid=a2f087e4-2174-4792-b543-bc2fc14fed30"},"vehicle_type_id":"4","last_reported":1752236458,"current_range_meters":12400,"station_id":"ce4bhbh2rcd13ifvqepg","pricing_plan_id":"cebpf4jnsgd1na2vs0mg"},{"bike_id":"e8d7c50e-0de5-4c7b-94ce-68f8c1fce4d9","system_id":"levelo_inurba_marseille","lat":43.291043,"lon":5.381415,"is_reserved":false,"is_disabled":false,"rental_uris":{"android":"levelo://app?vid=e8d7c50e-0de5-4c7b-94ce-68f8c1fce4d9","ios":"levelo://app?vid=e8d7c50e-0de5-4c7b-94ce-68f8c1fce4d9"},"vehicle_type_id":"4","last_reported":1752236458,"current_range_meters":12400,"station_id":"ce4bh512rcd13ifvqe2g","pricing_plan_id":"cebpf4jnsgd1na2vs0mg"},{"bike_id":"c74b27ee-3cfc-4e11-b4c4-f418cd2e9569","system_id":"levelo_inurba_marseille","lat":43.24168,"lon":5.36398,"is_reserved":false,"is_disabled":false,"rental_uris":{"android":"levelo://app?vid=c74b27ee-3cfc-4e11-b4c4-f418cd2e9569","ios":"levelo://app?vid=c74b27ee-3cfc-4e11-b4c4-f418cd2e9569"},"vehicle_type_id":"4","last_reported":1752236458,"current_range_meters":12800,"station_id":"cpo36qri1sfpv3e86is0","pricing_plan_id":"cebpf4jnsgd1na2vs0mg"},{"bike_id":"8f89e4f3-495a-4317-bd6d-37a19186d65b","system_id":"levelo_inurba_marseille","lat":43.33716,"lon":5.392,"is_reserved":false,"is_disabled":false,"rental_uris":{"android":"levelo://app?vid=8f89e4f3-495a-4317-bd6d-37a19186d65b","ios":"levelo://app?vid=8f89e4f3-495a-4317-bd6d-37a19186d65b"},"vehicle_type_id":"4","last_reported":1752236458,"current_range_meters":12800,"station_id":"ce4bhr92rcd13ifvqhsg","pricing_plan_id":"cebpf4jnsgd1na2vs0mg"},{"bike_id":"fcbacab1-6b6f-445d-93a4-390b1497d7dc","system_id":"levelo_inurba_marseille","lat":43.2899,"lon":5.37838,"is_reserved":false,"is_disabled":false,"rental_uris":{"android":"levelo://app?vid=fcbacab1-6b6f-445d-93a4-390b1497d7dc","ios":"levelo://app?vid=fcbacab1-6b6f-445d-93a4-390b1497d7dc"},"vehicle_type_id":"4","last_reported":1752236458,"current_range_meters":12800,"station_id":"ce4bh9p2rcd13ifvqed0","pricing_plan_id":"cebpf4jnsgd1na2vs0mg"},{"bike_id":"9bd5e77e-17fa-4ccf-b176-74706a792041","system_id":"levelo_inurba_marseille","lat":43.30186,"lon":5.36615,"is_reserved":false,"is_disabled":false,"rental_uris":{"android":"levelo://app?vid=9bd5e77e-17fa-4ccf-b176-74706a792041","ios":"levelo://app?vid=9bd5e77e-17fa-4ccf-b176-74706a792041"},"vehicle_type_id":"4","last_reported":1752236458,"current_range_meters":12800,"station_id":"ce4bgrh2rcd13ifvqc8g","pricing_plan_id":"cebpf4jnsgd1na2vs0mg"},{"bike_id":"c3c5b26c-e834-4db6-994b-52abb31f20f1","system_id":"levelo_inurba_marseille","lat":43.240681,"lon":5.377613,"is_reserved":false,"is_disabled":false,"rental_uris":{"android":"levelo://app?vid=c3c5b26c-e834-4db6-994b-52abb31f20f1","ios":"levelo://app?vid=c3c5b26c-e834-4db6-994b-52abb31f20f1"},"vehicle_type_id":"4","last_reported":1752236458,"current_range_meters":13600,"station_id":"ce4bhnp2rcd13ifvqgvg","pricing_plan_id":"cebpf4jnsgd1na2vs0mg"},{"bike_id":"2c702aa4-2ac5-4550-b697-5b3cdcd314b3","system_id":"levelo_inurba_marseille","lat":43.32051,"lon":5.41591,"is_reserved":false,"is_disabled":false,"rental_uris":{"android":"levelo://app?vid=2c702aa4-2ac5-4550-b697-5b3cdcd314b3","ios":"levelo://app?vid=2c702aa4-2ac5-4550-b697-5b3cdcd314b3"},"vehicle_type_id":"4","last_reported":1752236458,"current_range_meters":13600,"station_id":"ce4bhq92rcd13ifvqhkg","pricing_plan_id":"cebpf4jnsgd1na2vs0mg"},{"bike_id":"d849a247-c2c0-4619-bac8-f5a6994e0014","system_id":"levelo_inurba_marseille","lat":43.320371,"lon":5.415677,"is_reserved":false,"is_disabled":true,"rental_uris":{"android":"levelo://app?vid=d849a247-c2c0-4619-bac8-f5a6994e0014","ios":"levelo://app?vid=d849a247-c2c0-4619-bac8-f5a6994e0014"},"vehicle_type_id":"4","last_reported":1752236458,"current_range_meters":13600,"station_id":"ce4bhq92rcd13ifvqhkg","pricing_plan_id":"cebpf4jnsgd1na2vs0mg"},{"bike_id":"010de6ce-0fbd-46e6-b0bf-2a25d9694f60","system_id":"levelo_inurba_marseille","lat":43.28857,"lon":5.35918,"is_reserved":false,"is_disabled":false,"rental_uris":{"android":"levelo://app?vid=010de6ce-0fbd-46e6-b0bf-2a25d9694f60","ios":"levelo://app?vid=010de6ce-0fbd-46e6-b0bf-2a25d9694f60"},"vehicle_type_id":"4","last_reported":1752236458,"current_range_meters":13600,"station_id":"ce4bhb12rcd13ifvqem0","pricing_plan_id":"cebpf4jnsgd1na2vs0mg"},{"bike_id":"8b459de6-a7fc-4800-8d7b-ab4e3e865a73","system_id":"levelo_inurba_marseille","lat":43.337693,"lon":5.374263,"is_reserved":false,"is_disabled":false,"rental_uris":{"android":"levelo://app?vid=8b459de6-a7fc-4800-8d7b-ab4e3e865a73","ios":"levelo://app?vid=8b459de6-a7fc-4800-8d7b-ab4e3e865a73"},"vehicle_type_id":"4","last_reported":1752236458,"current_range_meters":14000,"station_id":"","pricing_plan_id":"cebpf4jnsgd1na2vs0mg"},{"bike_id":"e16b6c04-3994-4476-9af0-9084b67d8f63","system_id":"levelo_inurba_marseille","lat":43.31227,"lon":5.36877,"is_reserved":false,"is_disabled":false,"rental_uris":{"android":"levelo://app?vid=e16b6c04-3994-4476-9af0-9084b67d8f63","ios":"levelo://app?vid=e16b6c04-3994-4476-9af0-9084b67d8f63"},"vehicle_type_id":"4","last_reported":1752236458,"current_range_meters":14000,"station_id":"ce4bgl92rcd13ifvqbq0","pricing_plan_id":"cebpf4jnsgd1na2vs0mg"},{"bike_id":"b8c630f4-54ee-4b0e-b0fa-8c7f46c40fa1","system_id":"levelo_inurba_marseille","lat":43.23187,"lon":5.35558,"is_reserved":false,"is_disabled":false,"rental_uris":{"android":"levelo://app?vid=b8c630f4-54ee-4b0e-b0fa-8c7f46c40fa1","ios":"levelo://app?vid=b8c630f4-54ee-4b0e-b0fa-8c7f46c40fa1"},"vehicle_type_id":"4","last_reported":1752236458,"current_range_meters":14000,"station_id":"ce4bhu92rcd13ifvqi70","pricing_plan_id":"cebpf4jnsgd1na2vs0mg"},{"bike_id":"6994c34f-7b9e-4588-9c5d-f80e030067a1","system_id":"levelo_inurba_marseille","lat":43.32336,"lon":5.38901,"is_reserved":false,"is_disabled":false,"rental_uris":{"android":"levelo://app?vid=6994c34f-7b9e-4588-9c5d-f80e030067a1","ios":"levelo://app?vid=6994c34f-7b9e-4588-9c5d-f80e030067a1"},"vehicle_type_id":"4","last_reported":1752236458,"current_range_meters":14000,"station_id":"ce4bhqp2rcd13ifvqhog","pricing_plan_id":"cebpf4jnsgd1na2vs0mg"},{"bike_id":"314ae0ba-ce16-4d7c-a005-bd252de64c95","system_id":"levelo_inurba_marseille","lat":43.30944,"lon":5.39028,"is_reserved":false,"is_disabled":false,"rental_uris":{"android":"levelo://app?vid=314ae0ba-ce16-4d7c-a005-bd252de64c95","ios":"levelo://app?vid=314ae0ba-ce16-4d7c-a005-bd252de64c95"},"vehicle_type_id":"4","last_reported":1752236458,"current_range_meters":14000,"station_id":"ce4bgup2rcd13ifvqco0","pricing_plan_id":"cebpf4jnsgd1na2vs0mg"},{"bike_id":"0cec3205-3d79-4dc7-b7b3-a04e6fc800e6","system_id":"levelo_inurba_marseille","lat":43.29975,"lon":5.38492,"is_reserved":false,"is_disabled":false,"rental_uris":{"android":"levelo://app?vid=0cec3205-3d79-4dc7-b7b3-a04e6fc800e6","ios":"levelo://app?vid=0cec3205-3d79-4dc7-b7b3-a04e6fc800e6"},"vehicle_type_id":"4","last_reported":1752236458,"current_range_meters":14000,"station_id":"ce4bgj92rcd13ifvqbd0","pricing_plan_id":"cebpf4jnsgd1na2vs0mg"},{"bike_id":"fd9f5c27-5d58-42e5-badc-a12a0344229e","system_id":"levelo_inurba_marseille","lat":43.28906,"lon":5.3606,"is_reserved":false,"is_disabled":false,"rental_uris":{"android":"levelo://app?vid=fd9f5c27-5d58-42e5-badc-a12a0344229e","ios":"levelo://app?vid=fd9f5c27-5d58-42e5-badc-a12a0344229e"},"vehicle_type_id":"4","last_reported":1752236458,"current_range_meters":14400,"station_id":"","pricing_plan_id":"cebpf4jnsgd1na2vs0mg"},{"bike_id":"4d4b9e28-a4f6-4d45-ac6b-64a63a768bd8","system_id":"levelo_inurba_marseille","lat":43.31518,"lon":5.3745,"is_reserved":false,"is_disabled":false,"rental_uris":{"android":"levelo://app?vid=4d4b9e28-a4f6-4d45-ac6b-64a63a768bd8","ios":"levelo://app?vid=4d4b9e28-a4f6-4d45-ac6b-64a63a768bd8"},"vehicle_type_id":"4","last_reported":1752236458,"current_range_meters":14400,"station_id":"","pricing_plan_id":"cebpf4jnsgd1na2vs0mg"},{"bike_id":"595e9351-a7ce-45de-8995-771f7d9fe86e","system_id":"levelo_inurba_marseille","lat":43.309243,"lon":5.378088,"is_reserved":false,"is_disabled":false,"rental_uris":{"android":"levelo://app?vid=595e9351-a7ce-45de-8995-771f7d9fe86e","ios":"levelo://app?vid=595e9351-a7ce-45de-8995-771f7d9fe86e"},"vehicle_type_id":"4","last_reported":1752236458,"current_range_meters":14400,"station_id":"","pricing_plan_id":"cebpf4jnsgd1na2vs0mg"},{"bike_id":"6e44525d-ed45-445a-a877-081b94eb5813","system_id":"levelo_inurba_marseille","lat":43.30352,"lon":5.41896,"is_reserved":false,"is_disabled":true,"rental_uris":{"android":"levelo://app?vid=6e44525d-ed45-445a-a877-081b94eb5813","ios":"levelo://app?vid=6e44525d-ed45-445a-a877-081b94eb5813"},"vehicle_type_id":"4","last_reported":1752236458,"current_range_meters":14400,"station_id":"ce4bhop2rcd13ifvqh7g","pricing_plan_id":"cebpf4jnsgd1na2vs0mg"},{"bike_id":"4464c91a-b8cf-48b1-82b6-b9f3398a5c02","system_id":"levelo_inurba_marseille","lat":43.28408,"lon":5.35008,"is_reserved":false,"is_disabled":false,"rental_uris":{"android":"levelo://app?vid=4464c91a-b8cf-48b1-82b6-b9f3398a5c02","ios":"levelo://app?vid=4464c91a-b8cf-48b1-82b6-b9f3398a5c02"},"vehicle_type_id":"4","last_reported":1752236458,"current_range_meters":14400,"station_id":"ce4bhbh2rcd13ifvqepg","pricing_plan_id":"cebpf4jnsgd1na2vs0mg"},{"bike_id":"43cacbc6-bc3e-4a8e-856f-ac703d53c307","system_id":"levelo_inurba_marseille","lat":43.2695,"lon":5.38638,"is_reserved":false,"is_disabled":false,"rental_uris":{"android":"levelo://app?vid=43cacbc6-bc3e-4a8e-856f-ac703d53c307","ios":"levelo://app?vid=43cacbc6-bc3e-4a8e-856f-ac703d53c307"},"vehicle_type_id":"4","last_reported":1752236458,"current_range_meters":14000,"station_id":"ce4bhh92rcd13ifvqfh0","pricing_plan_id":"cebpf4jnsgd1na2vs0mg"},{"bike_id":"f8ccd32e-9720-4720-9b46-49c9d3c73fe7","system_id":"levelo_inurba_marseille","lat":43.27914,"lon":5.39574,"is_reserved":false,"is_disabled":false,"rental_uris":{"android":"levelo://app?vid=f8ccd32e-9720-4720-9b46-49c9d3c73fe7","ios":"levelo://app?vid=f8ccd32e-9720-4720-9b46-49c9d3c73fe7"},"vehicle_type_id":"4","last_reported":1752236458,"current_range_meters":14400,"station_id":"ce4bhf92rcd13ifvqf40","pricing_plan_id":"cebpf4jnsgd1na2vs0mg"},{"bike_id":"d263de9c-115f-417f-977b-8d0ef8cd06ed","system_id":"levelo_inurba_marseille","lat":43.30539,"lon":5.36702,"is_reserved":false,"is_disabled":false,"rental_uris":{"android":"levelo://app?vid=d263de9c-115f-417f-977b-8d0ef8cd06ed","ios":"levelo://app?vid=d263de9c-115f-417f-977b-8d0ef8cd06ed"},"vehicle_type_id":"4","last_reported":1752236458,"current_range_meters":14800,"station_id":"ce4bh312rcd13ifvqdj0","pricing_plan_id":"cebpf4jnsgd1na2vs0mg"},{"bike_id":"2c17d96f-4770-4ebd-bbd8-160cb7ecf197","system_id":"levelo_inurba_marseille","lat":43.30905,"lon":5.36843,"is_reserved":false,"is_disabled":false,"rental_uris":{"android":"levelo://app?vid=2c17d96f-4770-4ebd-bbd8-160cb7ecf197","ios":"levelo://app?vid=2c17d96f-4770-4ebd-bbd8-160cb7ecf197"},"vehicle_type_id":"4","last_reported":1752236458,"current_range_meters":14800,"station_id":"ce4bgn92rcd13ifvqbvg","pricing_plan_id":"cebpf4jnsgd1na2vs0mg"},{"bike_id":"5423e7d5-07f9-4264-9d42-219884898d7f","system_id":"levelo_inurba_marseille","lat":43.24175,"lon":5.36387,"is_reserved":false,"is_disabled":false,"rental_uris":{"android":"levelo://app?vid=5423e7d5-07f9-4264-9d42-219884898d7f","ios":"levelo://app?vid=5423e7d5-07f9-4264-9d42-219884898d7f"},"vehicle_type_id":"4","last_reported":1752236458,"current_range_meters":14800,"station_id":"cpo36qri1sfpv3e86is0","pricing_plan_id":"cebpf4jnsgd1na2vs0mg"},{"bike_id":"7f76cb41-5e35-44e4-a04d-80def63d0c6a","system_id":"levelo_inurba_marseille","lat":43.26686,"lon":5.38276,"is_reserved":false,"is_disabled":false,"rental_uris":{"android":"levelo://app?vid=7f76cb41-5e35-44e4-a04d-80def63d0c6a","ios":"levelo://app?vid=7f76cb41-5e35-44e4-a04d-80def63d0c6a"},"vehicle_type_id":"4","last_reported":1752236458,"current_range_meters":14400,"station_id":"ce4bhg92rcd13ifvqf90","pricing_plan_id":"cebpf4jnsgd1na2vs0mg"},{"bike_id":"c6a80404-0b82-4bac-a58d-0caa47987300","system_id":"levelo_inurba_marseille","lat":43.30155,"lon":5.37427,"is_reserved":false,"is_disabled":false,"rental_uris":{"android":"levelo://app?vid=c6a80404-0b82-4bac-a58d-0caa47987300","ios":"levelo://app?vid=c6a80404-0b82-4bac-a58d-0caa47987300"},"vehicle_type_id":"4","last_reported":1752236458,"current_range_meters":14800,"station_id":"ce4bgs92rcd13ifvqcc0","pricing_plan_id":"cebpf4jnsgd1na2vs0mg"},{"bike_id":"e3a75ee9-c614-467b-8cc2-f813bcef2ab1","system_id":"levelo_inurba_marseille","lat":43.33743,"lon":5.3919,"is_reserved":false,"is_disabled":false,"rental_uris":{"android":"levelo://app?vid=e3a75ee9-c614-467b-8cc2-f813bcef2ab1","ios":"levelo://app?vid=e3a75ee9-c614-467b-8cc2-f813bcef2ab1"},"vehicle_type_id":"4","last_reported":1752236458,"current_range_meters":14800,"station_id":"ce4bhr92rcd13ifvqhsg","pricing_plan_id":"cebpf4jnsgd1na2vs0mg"},{"bike_id":"dc745791-e4b0-4e9a-bf26-a83de36e49d9","system_id":"levelo_inurba_marseille","lat":43.28615,"lon":5.351,"is_reserved":false,"is_disabled":false,"rental_uris":{"android":"levelo://app?vid=dc745791-e4b0-4e9a-bf26-a83de36e49d9","ios":"levelo://app?vid=dc745791-e4b0-4e9a-bf26-a83de36e49d9"},"vehicle_type_id":"4","last_reported":1752236458,"current_range_meters":14800,"station_id":"ce4bhch2rcd13ifvqeug","pricing_plan_id":"cebpf4jnsgd1na2vs0mg"},{"bike_id":"dbe83c0b-cbc8-4465-856c-4d06cf41d5e8","system_id":"levelo_inurba_marseille","lat":43.28853,"lon":5.35846,"is_reserved":false,"is_disabled":false,"rental_uris":{"android":"levelo://app?vid=dbe83c0b-cbc8-4465-856c-4d06cf41d5e8","ios":"levelo://app?vid=dbe83c0b-cbc8-4465-856c-4d06cf41d5e8"},"vehicle_type_id":"4","last_reported":1752236458,"current_range_meters":15200,"station_id":"ce4bhb12rcd13ifvqem0","pricing_plan_id":"cebpf4jnsgd1na2vs0mg"},{"bike_id":"cab820d9-ce4c-4ec5-b20c-1a247c21af93","system_id":"levelo_inurba_marseille","lat":43.265677,"lon":5.390063,"is_reserved":false,"is_disabled":false,"rental_uris":{"android":"levelo://app?vid=cab820d9-ce4c-4ec5-b20c-1a247c21af93","ios":"levelo://app?vid=cab820d9-ce4c-4ec5-b20c-1a247c21af93"},"vehicle_type_id":"4","last_reported":1752236458,"current_range_meters":15200,"station_id":"ce4bhe12rcd13ifvqf30","pricing_plan_id":"cebpf4jnsgd1na2vs0mg"},{"bike_id":"2cb7a40b-9f91-44af-9839-349b05b74924","system_id":"levelo_inurba_marseille","lat":43.29574,"lon":5.37506,"is_reserved":false,"is_disabled":false,"rental_uris":{"android":"levelo://app?vid=2cb7a40b-9f91-44af-9839-349b05b74924","ios":"levelo://app?vid=2cb7a40b-9f91-44af-9839-349b05b74924"},"vehicle_type_id":"4","last_reported":1752236458,"current_range_meters":15200,"station_id":"ce4bgh92rcd13ifvqb50","pricing_plan_id":"cebpf4jnsgd1na2vs0mg"},{"bike_id":"530fdaa0-3dcf-48bd-ae6d-18f67ca1c283","system_id":"levelo_inurba_marseille","lat":43.297111,"lon":5.366155,"is_reserved":false,"is_disabled":false,"rental_uris":{"android":"levelo://app?vid=530fdaa0-3dcf-48bd-ae6d-18f67ca1c283","ios":"levelo://app?vid=530fdaa0-3dcf-48bd-ae6d-18f67ca1c283"},"vehicle_type_id":"4","last_reported":1752236458,"current_range_meters":15200,"station_id":"","pricing_plan_id":"cebpf4jnsgd1na2vs0mg"},{"bike_id":"cd05e0de-b9bb-4393-ac59-a875b684a0d6","system_id":"levelo_inurba_marseille","lat":43.32359,"lon":5.36756,"is_reserved":false,"is_disabled":false,"rental_uris":{"android":"levelo://app?vid=cd05e0de-b9bb-4393-ac59-a875b684a0d6","ios":"levelo://app?vid=cd05e0de-b9bb-4393-ac59-a875b684a0d6"},"vehicle_type_id":"4","last_reported":1752236458,"current_range_meters":15200,"station_id":"ce4bhsh2rcd13ifvqi2g","pricing_plan_id":"cebpf4jnsgd1na2vs0mg"},{"bike_id":"4147360a-ab41-414e-8a9f-9b75ab62e839","system_id":"levelo_inurba_marseille","lat":43.23208,"lon":5.35581,"is_reserved":false,"is_disabled":false,"rental_uris":{"android":"levelo://app?vid=4147360a-ab41-414e-8a9f-9b75ab62e839","ios":"levelo://app?vid=4147360a-ab41-414e-8a9f-9b75ab62e839"},"vehicle_type_id":"4","last_reported":1752236458,"current_range_meters":15200,"station_id":"ce4bhu92rcd13ifvqi70","pricing_plan_id":"cebpf4jnsgd1na2vs0mg"},{"bike_id":"f396232b-621e-474d-9dec-9d7814709025","system_id":"levelo_inurba_marseille","lat":43.24999,"lon":5.38947,"is_reserved":false,"is_disabled":false,"rental_uris":{"android":"levelo://app?vid=f396232b-621e-474d-9dec-9d7814709025","ios":"levelo://app?vid=f396232b-621e-474d-9dec-9d7814709025"},"vehicle_type_id":"4","last_reported":1752236458,"current_range_meters":15200,"station_id":"ce4bhgp2rcd13ifvqfd0","pricing_plan_id":"cebpf4jnsgd1na2vs0mg"},{"bike_id":"544ec108-796d-413d-8a7c-7e4ffa805fe3","system_id":"levelo_inurba_marseille","lat":43.27335,"lon":5.39286,"is_reserved":false,"is_disabled":false,"rental_uris":{"android":"levelo://app?vid=544ec108-796d-413d-8a7c-7e4ffa805fe3","ios":"levelo://app?vid=544ec108-796d-413d-8a7c-7e4ffa805fe3"},"vehicle_type_id":"4","last_reported":1752236458,"current_range_meters":15200,"station_id":"","pricing_plan_id":"cebpf4jnsgd1na2vs0mg"},{"bike_id":"bd69f1e7-b901-41a0-b2c9-aee4bd027443","system_id":"levelo_inurba_marseille","lat":43.21181,"lon":5.3507,"is_reserved":false,"is_disabled":false,"rental_uris":{"android":"levelo://app?vid=bd69f1e7-b901-41a0-b2c9-aee4bd027443","ios":"levelo://app?vid=bd69f1e7-b901-41a0-b2c9-aee4bd027443"},"vehicle_type_id":"4","last_reported":1752236458,"current_range_meters":15200,"station_id":"st_cvj6sg6p6f1abm77japg","pricing_plan_id":"cebpf4jnsgd1na2vs0mg"},{"bike_id":"47efd6a8-1e43-4e06-a132-e792d52a3a0d","system_id":"levelo_inurba_marseille","lat":43.24168,"lon":5.36395,"is_reserved":false,"is_disabled":false,"rental_uris":{"android":"levelo://app?vid=47efd6a8-1e43-4e06-a132-e792d52a3a0d","ios":"levelo://app?vid=47efd6a8-1e43-4e06-a132-e792d52a3a0d"},"vehicle_type_id":"4","last_reported":1752236458,"current_range_meters":16000,"station_id":"cpo36qri1sfpv3e86is0","pricing_plan_id":"cebpf4jnsgd1na2vs0mg"},{"bike_id":"647a1903-1834-4730-b34e-6397917620f0","system_id":"levelo_inurba_marseille","lat":43.31644,"lon":5.37015,"is_reserved":false,"is_disabled":false,"rental_uris":{"android":"levelo://app?vid=647a1903-1834-4730-b34e-6397917620f0","ios":"levelo://app?vid=647a1903-1834-4730-b34e-6397917620f0"},"vehicle_type_id":"4","last_reported":1752236458,"current_range_meters":16000,"station_id":"","pricing_plan_id":"cebpf4jnsgd1na2vs0mg"},{"bike_id":"f993caa3-ade3-4fe5-9ef4-5c02d19b5b3b","system_id":"levelo_inurba_marseille","lat":43.28412,"lon":5.35003,"is_reserved":false,"is_disabled":false,"rental_uris":{"android":"levelo://app?vid=f993caa3-ade3-4fe5-9ef4-5c02d19b5b3b","ios":"levelo://app?vid=f993caa3-ade3-4fe5-9ef4-5c02d19b5b3b"},"vehicle_type_id":"4","last_reported":1752236458,"current_range_meters":16000,"station_id":"ce4bhbh2rcd13ifvqepg","pricing_plan_id":"cebpf4jnsgd1na2vs0mg"},{"bike_id":"ecec5a70-47e2-4076-ac88-b63310387724","system_id":"levelo_inurba_marseille","lat":43.21746,"lon":5.34607,"is_reserved":false,"is_disabled":true,"rental_uris":{"android":"levelo://app?vid=ecec5a70-47e2-4076-ac88-b63310387724","ios":"levelo://app?vid=ecec5a70-47e2-4076-ac88-b63310387724"},"vehicle_type_id":"4","last_reported":1752236458,"current_range_meters":16000,"station_id":"st_cvj6r9ubvosntc0bgbag","pricing_plan_id":"cebpf4jnsgd1na2vs0mg"},{"bike_id":"2f8a5f2d-3e40-49a3-af7d-3f339ed1b4f8","system_id":"levelo_inurba_marseille","lat":43.31731,"lon":5.3776,"is_reserved":false,"is_disabled":false,"rental_uris":{"android":"levelo://app?vid=2f8a5f2d-3e40-49a3-af7d-3f339ed1b4f8","ios":"levelo://app?vid=2f8a5f2d-3e40-49a3-af7d-3f339ed1b4f8"},"vehicle_type_id":"4","last_reported":1752236458,"current_range_meters":16000,"station_id":"ce4bgth2rcd13ifvqch0","pricing_plan_id":"cebpf4jnsgd1na2vs0mg"},{"bike_id":"eda0ea69-6404-43e6-9ede-2655d170d444","system_id":"levelo_inurba_marseille","lat":43.288603,"lon":5.358448,"is_reserved":false,"is_disabled":false,"rental_uris":{"android":"levelo://app?vid=eda0ea69-6404-43e6-9ede-2655d170d444","ios":"levelo://app?vid=eda0ea69-6404-43e6-9ede-2655d170d444"},"vehicle_type_id":"4","last_reported":1752236458,"current_range_meters":16000,"station_id":"ce4bhb12rcd13ifvqem0","pricing_plan_id":"cebpf4jnsgd1na2vs0mg"},{"bike_id":"1bf36ecd-a9d1-40cf-8c8b-89fa3acf5601","system_id":"levelo_inurba_marseille","lat":43.27373,"lon":5.36262,"is_reserved":false,"is_disabled":false,"rental_uris":{"android":"levelo://app?vid=1bf36ecd-a9d1-40cf-8c8b-89fa3acf5601","ios":"levelo://app?vid=1bf36ecd-a9d1-40cf-8c8b-89fa3acf5601"},"vehicle_type_id":"4","last_reported":1752236458,"current_range_meters":16000,"station_id":"ce4bhbh2rcd13ifvqeo0","pricing_plan_id":"cebpf4jnsgd1na2vs0mg"},{"bike_id":"e8e03632-b9d1-480f-a4da-da482a543464","system_id":"levelo_inurba_marseille","lat":43.29035,"lon":5.37572,"is_reserved":false,"is_disabled":true,"rental_uris":{"android":"levelo://app?vid=e8e03632-b9d1-480f-a4da-da482a543464","ios":"levelo://app?vid=e8e03632-b9d1-480f-a4da-da482a543464"},"vehicle_type_id":"4","last_reported":1752236458,"current_range_meters":16400,"station_id":"ce4bh692rcd13ifvqe90","pricing_plan_id":"cebpf4jnsgd1na2vs0mg"},{"bike_id":"eec92f86-5e5d-4c92-ba4c-3e166249f3bd","system_id":"levelo_inurba_marseille","lat":43.290761,"lon":5.35848,"is_reserved":false,"is_disabled":false,"rental_uris":{"android":"levelo://app?vid=eec92f86-5e5d-4c92-ba4c-3e166249f3bd","ios":"levelo://app?vid=eec92f86-5e5d-4c92-ba4c-3e166249f3bd"},"vehicle_type_id":"4","last_reported":1752236458,"current_range_meters":16400,"station_id":"ce4bhb12rcd13ifvqel0","pricing_plan_id":"cebpf4jnsgd1na2vs0mg"},{"bike_id":"8929c1bf-fd4d-44e4-aa66-b3eb6538c998","system_id":"levelo_inurba_marseille","lat":43.28562,"lon":5.43001,"is_reserved":false,"is_disabled":false,"rental_uris":{"android":"levelo://app?vid=8929c1bf-fd4d-44e4-aa66-b3eb6538c998","ios":"levelo://app?vid=8929c1bf-fd4d-44e4-aa66-b3eb6538c998"},"vehicle_type_id":"4","last_reported":1752236458,"current_range_meters":16400,"station_id":"","pricing_plan_id":"cebpf4jnsgd1na2vs0mg"},{"bike_id":"9aaf1cf6-d570-4ef8-bca4-9b95f9226d97","system_id":"levelo_inurba_marseille","lat":43.32335,"lon":5.40614,"is_reserved":false,"is_disabled":false,"rental_uris":{"android":"levelo://app?vid=9aaf1cf6-d570-4ef8-bca4-9b95f9226d97","ios":"levelo://app?vid=9aaf1cf6-d570-4ef8-bca4-9b95f9226d97"},"vehicle_type_id":"4","last_reported":1752236458,"current_range_meters":16400,"station_id":"ce4bhq92rcd13ifvqhjg","pricing_plan_id":"cebpf4jnsgd1na2vs0mg"},{"bike_id":"d3f8ad38-97a4-4eb9-abf0-63a357cd60a9","system_id":"levelo_inurba_marseille","lat":43.31379,"lon":5.36723,"is_reserved":false,"is_disabled":false,"rental_uris":{"android":"levelo://app?vid=d3f8ad38-97a4-4eb9-abf0-63a357cd60a9","ios":"levelo://app?vid=d3f8ad38-97a4-4eb9-abf0-63a357cd60a9"},"vehicle_type_id":"4","last_reported":1752236458,"current_range_meters":16400,"station_id":"ce4bgr92rcd13ifvqc6g","pricing_plan_id":"cebpf4jnsgd1na2vs0mg"},{"bike_id":"10cb55f6-e198-4364-80a5-64c6543e7d69","system_id":"levelo_inurba_marseille","lat":43.29842,"lon":5.36271,"is_reserved":false,"is_disabled":false,"rental_uris":{"android":"levelo://app?vid=10cb55f6-e198-4364-80a5-64c6543e7d69","ios":"levelo://app?vid=10cb55f6-e198-4364-80a5-64c6543e7d69"},"vehicle_type_id":"4","last_reported":1752236458,"current_range_meters":16400,"station_id":"ce4bgpp2rcd13ifvqc3g","pricing_plan_id":"cebpf4jnsgd1na2vs0mg"},{"bike_id":"1da66bee-5515-4707-ab2f-d43c5de9cdef","system_id":"levelo_inurba_marseille","lat":43.29004,"lon":5.35626,"is_reserved":false,"is_disabled":false,"rental_uris":{"android":"levelo://app?vid=1da66bee-5515-4707-ab2f-d43c5de9cdef","ios":"levelo://app?vid=1da66bee-5515-4707-ab2f-d43c5de9cdef"},"vehicle_type_id":"4","last_reported":1752236458,"current_range_meters":16000,"station_id":"ce4bhb92rcd13ifvqen0","pricing_plan_id":"cebpf4jnsgd1na2vs0mg"},{"bike_id":"a9001741-1745-49c0-afeb-e7f128011c9f","system_id":"levelo_inurba_marseille","lat":43.28416,"lon":5.34975,"is_reserved":false,"is_disabled":false,"rental_uris":{"android":"levelo://app?vid=a9001741-1745-49c0-afeb-e7f128011c9f","ios":"levelo://app?vid=a9001741-1745-49c0-afeb-e7f128011c9f"},"vehicle_type_id":"4","last_reported":1752236458,"current_range_meters":16400,"station_id":"ce4bhbh2rcd13ifvqepg","pricing_plan_id":"cebpf4jnsgd1na2vs0mg"},{"bike_id":"af1cde33-5506-4304-9bde-62aa1392a4b6","system_id":"levelo_inurba_marseille","lat":43.323648,"lon":5.38929,"is_reserved":false,"is_disabled":false,"rental_uris":{"android":"levelo://app?vid=af1cde33-5506-4304-9bde-62aa1392a4b6","ios":"levelo://app?vid=af1cde33-5506-4304-9bde-62aa1392a4b6"},"vehicle_type_id":"4","last_reported":1752236458,"current_range_meters":16400,"station_id":"ce4bhqp2rcd13ifvqhog","pricing_plan_id":"cebpf4jnsgd1na2vs0mg"},{"bike_id":"dafa5a87-b26d-4379-9a6b-1f02133b78a6","system_id":"levelo_inurba_marseille","lat":43.21186,"lon":5.35101,"is_reserved":false,"is_disabled":false,"rental_uris":{"android":"levelo://app?vid=dafa5a87-b26d-4379-9a6b-1f02133b78a6","ios":"levelo://app?vid=dafa5a87-b26d-4379-9a6b-1f02133b78a6"},"vehicle_type_id":"4","last_reported":1752236458,"current_range_meters":16400,"station_id":"st_cvj6sg6p6f1abm77japg","pricing_plan_id":"cebpf4jnsgd1na2vs0mg"},{"bike_id":"485e458e-2aaa-4260-b411-6909bcda375c","system_id":"levelo_inurba_marseille","lat":43.3055,"lon":5.36532,"is_reserved":false,"is_disabled":false,"rental_uris":{"android":"levelo://app?vid=485e458e-2aaa-4260-b411-6909bcda375c","ios":"levelo://app?vid=485e458e-2aaa-4260-b411-6909bcda375c"},"vehicle_type_id":"4","last_reported":1752236458,"current_range_meters":16400,"station_id":"ce4bgs12rcd13ifvqcag","pricing_plan_id":"cebpf4jnsgd1na2vs0mg"},{"bike_id":"9c063ff8-3e9a-4d74-8b12-a4db0531e2c3","system_id":"levelo_inurba_marseille","lat":43.31491,"lon":5.37306,"is_reserved":false,"is_disabled":false,"rental_uris":{"android":"levelo://app?vid=9c063ff8-3e9a-4d74-8b12-a4db0531e2c3","ios":"levelo://app?vid=9c063ff8-3e9a-4d74-8b12-a4db0531e2c3"},"vehicle_type_id":"4","last_reported":1752236458,"current_range_meters":16400,"station_id":"ce4bgt12rcd13ifvqcd0","pricing_plan_id":"cebpf4jnsgd1na2vs0mg"},{"bike_id":"e18173a5-18c4-4ee3-986b-125bb04fa1df","system_id":"levelo_inurba_marseille","lat":43.298987,"lon":5.37478,"is_reserved":false,"is_disabled":false,"rental_uris":{"android":"levelo://app?vid=e18173a5-18c4-4ee3-986b-125bb04fa1df","ios":"levelo://app?vid=e18173a5-18c4-4ee3-986b-125bb04fa1df"},"vehicle_type_id":"4","last_reported":1752236458,"current_range_meters":16800,"station_id":"ce4bgjh2rcd13ifvqbg0","pricing_plan_id":"cebpf4jnsgd1na2vs0mg"},{"bike_id":"4dfbff59-e3ae-4581-b329-c805e7fbca80","system_id":"levelo_inurba_marseille","lat":43.31362,"lon":5.38486,"is_reserved":false,"is_disabled":false,"rental_uris":{"android":"levelo://app?vid=4dfbff59-e3ae-4581-b329-c805e7fbca80","ios":"levelo://app?vid=4dfbff59-e3ae-4581-b329-c805e7fbca80"},"vehicle_type_id":"4","last_reported":1752236458,"current_range_meters":18000,"station_id":"ce4bgt92rcd13ifvqcf0","pricing_plan_id":"cebpf4jnsgd1na2vs0mg"},{"bike_id":"e9fd0cf8-573b-4177-88a6-f1faf33e8aca","system_id":"levelo_inurba_marseille","lat":43.29022,"lon":5.35591,"is_reserved":false,"is_disabled":true,"rental_uris":{"android":"levelo://app?vid=e9fd0cf8-573b-4177-88a6-f1faf33e8aca","ios":"levelo://app?vid=e9fd0cf8-573b-4177-88a6-f1faf33e8aca"},"vehicle_type_id":"4","last_reported":1752236458,"current_range_meters":16800,"station_id":"ce4bhb92rcd13ifvqen0","pricing_plan_id":"cebpf4jnsgd1na2vs0mg"},{"bike_id":"b6c2d5bb-bc76-4aa6-92d0-e049fb17bea1","system_id":"levelo_inurba_marseille","lat":43.29589,"lon":5.38109,"is_reserved":false,"is_disabled":false,"rental_uris":{"android":"levelo://app?vid=b6c2d5bb-bc76-4aa6-92d0-e049fb17bea1","ios":"levelo://app?vid=b6c2d5bb-bc76-4aa6-92d0-e049fb17bea1"},"vehicle_type_id":"4","last_reported":1752236458,"current_range_meters":16800,"station_id":"ce4bgl12rcd13ifvqbo0","pricing_plan_id":"cebpf4jnsgd1na2vs0mg"},{"bike_id":"1799dc58-359c-4df8-88c4-bbfe94839f56","system_id":"levelo_inurba_marseille","lat":43.2894,"lon":5.36387,"is_reserved":false,"is_disabled":false,"rental_uris":{"android":"levelo://app?vid=1799dc58-359c-4df8-88c4-bbfe94839f56","ios":"levelo://app?vid=1799dc58-359c-4df8-88c4-bbfe94839f56"},"vehicle_type_id":"4","last_reported":1752236458,"current_range_meters":16800,"station_id":"ce4bhc92rcd13ifvqetg","pricing_plan_id":"cebpf4jnsgd1na2vs0mg"},{"bike_id":"43b90c82-97e0-4fa7-8b67-2448f07d529e","system_id":"levelo_inurba_marseille","lat":43.21197,"lon":5.35065,"is_reserved":false,"is_disabled":false,"rental_uris":{"android":"levelo://app?vid=43b90c82-97e0-4fa7-8b67-2448f07d529e","ios":"levelo://app?vid=43b90c82-97e0-4fa7-8b67-2448f07d529e"},"vehicle_type_id":"4","last_reported":1752236458,"current_range_meters":16800,"station_id":"","pricing_plan_id":"cebpf4jnsgd1na2vs0mg"},{"bike_id":"45bf7bb2-07d1-4864-86fe-8e74a893ff6b","system_id":"levelo_inurba_marseille","lat":43.28417,"lon":5.35004,"is_reserved":false,"is_disabled":false,"rental_uris":{"android":"levelo://app?vid=45bf7bb2-07d1-4864-86fe-8e74a893ff6b","ios":"levelo://app?vid=45bf7bb2-07d1-4864-86fe-8e74a893ff6b"},"vehicle_type_id":"4","last_reported":1752236458,"current_range_meters":16800,"station_id":"ce4bhbh2rcd13ifvqepg","pricing_plan_id":"cebpf4jnsgd1na2vs0mg"},{"bike_id":"d05e987d-6766-4c70-b7d6-4c4ecf5a7258","system_id":"levelo_inurba_marseille","lat":43.28401,"lon":5.34993,"is_reserved":false,"is_disabled":false,"rental_uris":{"android":"levelo://app?vid=d05e987d-6766-4c70-b7d6-4c4ecf5a7258","ios":"levelo://app?vid=d05e987d-6766-4c70-b7d6-4c4ecf5a7258"},"vehicle_type_id":"4","last_reported":1752236458,"current_range_meters":16800,"station_id":"ce4bhbh2rcd13ifvqepg","pricing_plan_id":"cebpf4jnsgd1na2vs0mg"},{"bike_id":"37b84a38-055a-4a6e-a56a-8ff3d0c1b2ec","system_id":"levelo_inurba_marseille","lat":43.21201,"lon":5.35077,"is_reserved":false,"is_disabled":false,"rental_uris":{"android":"levelo://app?vid=37b84a38-055a-4a6e-a56a-8ff3d0c1b2ec","ios":"levelo://app?vid=37b84a38-055a-4a6e-a56a-8ff3d0c1b2ec"},"vehicle_type_id":"4","last_reported":1752236458,"current_range_meters":16800,"station_id":"st_cvj6sg6p6f1abm77japg","pricing_plan_id":"cebpf4jnsgd1na2vs0mg"},{"bike_id":"7b5cd6ce-df57-4328-854d-cb2d1407ab18","system_id":"levelo_inurba_marseille","lat":43.33057,"lon":5.39055,"is_reserved":false,"is_disabled":false,"rental_uris":{"android":"levelo://app?vid=7b5cd6ce-df57-4328-854d-cb2d1407ab18","ios":"levelo://app?vid=7b5cd6ce-df57-4328-854d-cb2d1407ab18"},"vehicle_type_id":"4","last_reported":1752236458,"current_range_meters":16800,"station_id":"ce4bhr92rcd13ifvqhrg","pricing_plan_id":"cebpf4jnsgd1na2vs0mg"},{"bike_id":"01286e93-ccda-4732-87b9-4d63705a2d36","system_id":"levelo_inurba_marseille","lat":43.30418,"lon":5.41289,"is_reserved":false,"is_disabled":false,"rental_uris":{"android":"levelo://app?vid=01286e93-ccda-4732-87b9-4d63705a2d36","ios":"levelo://app?vid=01286e93-ccda-4732-87b9-4d63705a2d36"},"vehicle_type_id":"4","last_reported":1752236458,"current_range_meters":17200,"station_id":"ce4bhop2rcd13ifvqh8g","pricing_plan_id":"cebpf4jnsgd1na2vs0mg"},{"bike_id":"58d8cfb9-2e2c-4ceb-9556-d7a8eee244b7","system_id":"levelo_inurba_marseille","lat":43.27834,"lon":5.39217,"is_reserved":false,"is_disabled":false,"rental_uris":{"android":"levelo://app?vid=58d8cfb9-2e2c-4ceb-9556-d7a8eee244b7","ios":"levelo://app?vid=58d8cfb9-2e2c-4ceb-9556-d7a8eee244b7"},"vehicle_type_id":"4","last_reported":1752236458,"current_range_meters":17200,"station_id":"ce4bhjp2rcd13ifvqga0","pricing_plan_id":"cebpf4jnsgd1na2vs0mg"},{"bike_id":"8fccf46e-4269-459a-bd9a-cdd93f6b32bc","system_id":"levelo_inurba_marseille","lat":43.30343,"lon":5.41896,"is_reserved":false,"is_disabled":true,"rental_uris":{"android":"levelo://app?vid=8fccf46e-4269-459a-bd9a-cdd93f6b32bc","ios":"levelo://app?vid=8fccf46e-4269-459a-bd9a-cdd93f6b32bc"},"vehicle_type_id":"4","last_reported":1752236458,"current_range_meters":17200,"station_id":"ce4bhop2rcd13ifvqh7g","pricing_plan_id":"cebpf4jnsgd1na2vs0mg"},{"bike_id":"5f9facdb-d1e1-40e1-8ceb-766e4b9ac193","system_id":"levelo_inurba_marseille","lat":43.21754,"lon":5.345992,"is_reserved":false,"is_disabled":false,"rental_uris":{"android":"levelo://app?vid=5f9facdb-d1e1-40e1-8ceb-766e4b9ac193","ios":"levelo://app?vid=5f9facdb-d1e1-40e1-8ceb-766e4b9ac193"},"vehicle_type_id":"4","last_reported":1752236458,"current_range_meters":17200,"station_id":"","pricing_plan_id":"cebpf4jnsgd1na2vs0mg"},{"bike_id":"dbba3321-20c7-4989-a7b5-ea9ab2c4b3e8","system_id":"levelo_inurba_marseille","lat":43.261935,"lon":5.374477,"is_reserved":false,"is_disabled":false,"rental_uris":{"android":"levelo://app?vid=dbba3321-20c7-4989-a7b5-ea9ab2c4b3e8","ios":"levelo://app?vid=dbba3321-20c7-4989-a7b5-ea9ab2c4b3e8"},"vehicle_type_id":"4","last_reported":1752236458,"current_range_meters":17200,"station_id":"ce4bhgp2rcd13ifvqfc0","pricing_plan_id":"cebpf4jnsgd1na2vs0mg"},{"bike_id":"e0026038-a6ad-4fa5-b07f-22115cc5b258","system_id":"levelo_inurba_marseille","lat":43.24069,"lon":5.37766,"is_reserved":false,"is_disabled":false,"rental_uris":{"android":"levelo://app?vid=e0026038-a6ad-4fa5-b07f-22115cc5b258","ios":"levelo://app?vid=e0026038-a6ad-4fa5-b07f-22115cc5b258"},"vehicle_type_id":"4","last_reported":1752236458,"current_range_meters":17600,"station_id":"ce4bhnp2rcd13ifvqgvg","pricing_plan_id":"cebpf4jnsgd1na2vs0mg"},{"bike_id":"3e80bd6f-44c8-4b0f-a2da-77ee6c540715","system_id":"levelo_inurba_marseille","lat":43.298713,"lon":5.436553,"is_reserved":false,"is_disabled":false,"rental_uris":{"android":"levelo://app?vid=3e80bd6f-44c8-4b0f-a2da-77ee6c540715","ios":"levelo://app?vid=3e80bd6f-44c8-4b0f-a2da-77ee6c540715"},"vehicle_type_id":"4","last_reported":1752236458,"current_range_meters":17600,"station_id":"ce4bhpp2rcd13ifvqhfg","pricing_plan_id":"cebpf4jnsgd1na2vs0mg"},{"bike_id":"c70f3c11-9d96-4f97-90f4-ccd446b6c12f","system_id":"levelo_inurba_marseille","lat":43.30956,"lon":5.39063,"is_reserved":false,"is_disabled":false,"rental_uris":{"android":"levelo://app?vid=c70f3c11-9d96-4f97-90f4-ccd446b6c12f","ios":"levelo://app?vid=c70f3c11-9d96-4f97-90f4-ccd446b6c12f"},"vehicle_type_id":"4","last_reported":1752236458,"current_range_meters":17600,"station_id":"ce4bgup2rcd13ifvqco0","pricing_plan_id":"cebpf4jnsgd1na2vs0mg"},{"bike_id":"a525ddc7-d7a2-4728-b545-40dd83d474db","system_id":"levelo_inurba_marseille","lat":43.31113,"lon":5.37793,"is_reserved":false,"is_disabled":false,"rental_uris":{"android":"levelo://app?vid=a525ddc7-d7a2-4728-b545-40dd83d474db","ios":"levelo://app?vid=a525ddc7-d7a2-4728-b545-40dd83d474db"},"vehicle_type_id":"4","last_reported":1752236458,"current_range_meters":17600,"station_id":"ce4bgt92rcd13ifvqcg0","pricing_plan_id":"cebpf4jnsgd1na2vs0mg"},{"bike_id":"66dfba28-f791-4d6e-b91f-1effa133215d","system_id":"levelo_inurba_marseille","lat":43.25009,"lon":5.38933,"is_reserved":false,"is_disabled":false,"rental_uris":{"android":"levelo://app?vid=66dfba28-f791-4d6e-b91f-1effa133215d","ios":"levelo://app?vid=66dfba28-f791-4d6e-b91f-1effa133215d"},"vehicle_type_id":"4","last_reported":1752236458,"current_range_meters":17600,"station_id":"ce4bhgp2rcd13ifvqfd0","pricing_plan_id":"cebpf4jnsgd1na2vs0mg"},{"bike_id":"f60601df-b1f0-43ae-b394-172d1a053e87","system_id":"levelo_inurba_marseille","lat":43.30328,"lon":5.40434,"is_reserved":false,"is_disabled":false,"rental_uris":{"android":"levelo://app?vid=f60601df-b1f0-43ae-b394-172d1a053e87","ios":"levelo://app?vid=f60601df-b1f0-43ae-b394-172d1a053e87"},"vehicle_type_id":"4","last_reported":1752236458,"current_range_meters":17600,"station_id":"ce4bh012rcd13ifvqd10","pricing_plan_id":"cebpf4jnsgd1na2vs0mg"},{"bike_id":"eb6a2290-40e2-4780-bdeb-a149c699215d","system_id":"levelo_inurba_marseille","lat":43.27965,"lon":5.41033,"is_reserved":false,"is_disabled":false,"rental_uris":{"android":"levelo://app?vid=eb6a2290-40e2-4780-bdeb-a149c699215d","ios":"levelo://app?vid=eb6a2290-40e2-4780-bdeb-a149c699215d"},"vehicle_type_id":"4","last_reported":1752236458,"current_range_meters":17600,"station_id":"ce4bhnp2rcd13ifvqh0g","pricing_plan_id":"cebpf4jnsgd1na2vs0mg"},{"bike_id":"e86ba8c9-208d-482c-a826-4c100938472a","system_id":"levelo_inurba_marseille","lat":43.21193,"lon":5.35078,"is_reserved":false,"is_disabled":false,"rental_uris":{"android":"levelo://app?vid=e86ba8c9-208d-482c-a826-4c100938472a","ios":"levelo://app?vid=e86ba8c9-208d-482c-a826-4c100938472a"},"vehicle_type_id":"4","last_reported":1752236458,"current_range_meters":17600,"station_id":"st_cvj6sg6p6f1abm77japg","pricing_plan_id":"cebpf4jnsgd1na2vs0mg"},{"bike_id":"61198919-e72c-4fce-bc96-126627987dc0","system_id":"levelo_inurba_marseille","lat":43.29575,"lon":5.37922,"is_reserved":false,"is_disabled":false,"rental_uris":{"android":"levelo://app?vid=61198919-e72c-4fce-bc96-126627987dc0","ios":"levelo://app?vid=61198919-e72c-4fce-bc96-126627987dc0"},"vehicle_type_id":"4","last_reported":1752236458,"current_range_meters":18000,"station_id":"","pricing_plan_id":"cebpf4jnsgd1na2vs0mg"},{"bike_id":"e4ae24d8-d81d-4e5e-8097-9b968b02de7a","system_id":"levelo_inurba_marseille","lat":43.267506,"lon":5.394704,"is_reserved":false,"is_disabled":false,"rental_uris":{"android":"levelo://app?vid=e4ae24d8-d81d-4e5e-8097-9b968b02de7a","ios":"levelo://app?vid=e4ae24d8-d81d-4e5e-8097-9b968b02de7a"},"vehicle_type_id":"4","last_reported":1752236458,"current_range_meters":18000,"station_id":"ce4bhi12rcd13ifvqfq0","pricing_plan_id":"cebpf4jnsgd1na2vs0mg"},{"bike_id":"d986ab92-05dd-4f8a-9fa1-a9294bba3783","system_id":"levelo_inurba_marseille","lat":43.286144,"lon":5.351008,"is_reserved":false,"is_disabled":false,"rental_uris":{"android":"levelo://app?vid=d986ab92-05dd-4f8a-9fa1-a9294bba3783","ios":"levelo://app?vid=d986ab92-05dd-4f8a-9fa1-a9294bba3783"},"vehicle_type_id":"4","last_reported":1752236458,"current_range_meters":18000,"station_id":"ce4bhch2rcd13ifvqeug","pricing_plan_id":"cebpf4jnsgd1na2vs0mg"},{"bike_id":"82935648-d297-414f-bd1a-061493c87ec1","system_id":"levelo_inurba_marseille","lat":43.23202,"lon":5.35574,"is_reserved":false,"is_disabled":false,"rental_uris":{"android":"levelo://app?vid=82935648-d297-414f-bd1a-061493c87ec1","ios":"levelo://app?vid=82935648-d297-414f-bd1a-061493c87ec1"},"vehicle_type_id":"4","last_reported":1752236458,"current_range_meters":18000,"station_id":"ce4bhu92rcd13ifvqi70","pricing_plan_id":"cebpf4jnsgd1na2vs0mg"},{"bike_id":"452e8211-4f44-45d0-814a-3e9e25b8c44e","system_id":"levelo_inurba_marseille","lat":43.211935,"lon":5.350724,"is_reserved":false,"is_disabled":false,"rental_uris":{"android":"levelo://app?vid=452e8211-4f44-45d0-814a-3e9e25b8c44e","ios":"levelo://app?vid=452e8211-4f44-45d0-814a-3e9e25b8c44e"},"vehicle_type_id":"4","last_reported":1752236458,"current_range_meters":18000,"station_id":"st_cvj6sg6p6f1abm77japg","pricing_plan_id":"cebpf4jnsgd1na2vs0mg"},{"bike_id":"a81ede20-43a9-47cd-942d-8fb15c54f5f7","system_id":"levelo_inurba_marseille","lat":43.30067,"lon":5.45163,"is_reserved":false,"is_disabled":false,"rental_uris":{"android":"levelo://app?vid=a81ede20-43a9-47cd-942d-8fb15c54f5f7","ios":"levelo://app?vid=a81ede20-43a9-47cd-942d-8fb15c54f5f7"},"vehicle_type_id":"4","last_reported":1752236458,"current_range_meters":18800,"station_id":"","pricing_plan_id":"cebpf4jnsgd1na2vs0mg"},{"bike_id":"77ca42ca-65e0-489a-9412-88bc89b51656","system_id":"levelo_inurba_marseille","lat":43.23189,"lon":5.35544,"is_reserved":false,"is_disabled":false,"rental_uris":{"android":"levelo://app?vid=77ca42ca-65e0-489a-9412-88bc89b51656","ios":"levelo://app?vid=77ca42ca-65e0-489a-9412-88bc89b51656"},"vehicle_type_id":"4","last_reported":1752236458,"current_range_meters":18800,"station_id":"ce4bhu92rcd13ifvqi70","pricing_plan_id":"cebpf4jnsgd1na2vs0mg"},{"bike_id":"a581eef9-f0fb-4e5d-8be0-84b96bfd2d41","system_id":"levelo_inurba_marseille","lat":43.2936,"lon":5.37854,"is_reserved":false,"is_disabled":true,"rental_uris":{"android":"levelo://app?vid=a581eef9-f0fb-4e5d-8be0-84b96bfd2d41","ios":"levelo://app?vid=a581eef9-f0fb-4e5d-8be0-84b96bfd2d41"},"vehicle_type_id":"4","last_reported":1752236458,"current_range_meters":18800,"station_id":"ce4bgjh2rcd13ifvqbf0","pricing_plan_id":"cebpf4jnsgd1na2vs0mg"},{"bike_id":"2eef1218-cc89-41be-bac2-020b640004fd","system_id":"levelo_inurba_marseille","lat":43.2885,"lon":5.35857,"is_reserved":false,"is_disabled":false,"rental_uris":{"android":"levelo://app?vid=2eef1218-cc89-41be-bac2-020b640004fd","ios":"levelo://app?vid=2eef1218-cc89-41be-bac2-020b640004fd"},"vehicle_type_id":"4","last_reported":1752236458,"current_range_meters":18800,"station_id":"ce4bhb12rcd13ifvqem0","pricing_plan_id":"cebpf4jnsgd1na2vs0mg"},{"bike_id":"d1320dee-0b04-41ba-a1aa-9d06cbcae5ee","system_id":"levelo_inurba_marseille","lat":43.28256,"lon":5.35066,"is_reserved":false,"is_disabled":false,"rental_uris":{"android":"levelo://app?vid=d1320dee-0b04-41ba-a1aa-9d06cbcae5ee","ios":"levelo://app?vid=d1320dee-0b04-41ba-a1aa-9d06cbcae5ee"},"vehicle_type_id":"4","last_reported":1752236458,"current_range_meters":18800,"station_id":"ce4bhbp2rcd13ifvqerg","pricing_plan_id":"cebpf4jnsgd1na2vs0mg"},{"bike_id":"9a0cb1a3-2bfe-4644-ba31-8f50fab06156","system_id":"levelo_inurba_marseille","lat":43.273576,"lon":5.362414,"is_reserved":false,"is_disabled":false,"rental_uris":{"android":"levelo://app?vid=9a0cb1a3-2bfe-4644-ba31-8f50fab06156","ios":"levelo://app?vid=9a0cb1a3-2bfe-4644-ba31-8f50fab06156"},"vehicle_type_id":"4","last_reported":1752236458,"current_range_meters":18800,"station_id":"ce4bhbh2rcd13ifvqeo0","pricing_plan_id":"cebpf4jnsgd1na2vs0mg"},{"bike_id":"709c9beb-13f1-45e2-bbd1-0f71d60cf8b2","system_id":"levelo_inurba_marseille","lat":43.3092,"lon":5.40166,"is_reserved":false,"is_disabled":true,"rental_uris":{"android":"levelo://app?vid=709c9beb-13f1-45e2-bbd1-0f71d60cf8b2","ios":"levelo://app?vid=709c9beb-13f1-45e2-bbd1-0f71d60cf8b2"},"vehicle_type_id":"4","last_reported":1752236458,"current_range_meters":19200,"station_id":"ce4bgvp2rcd13ifvqct0","pricing_plan_id":"cebpf4jnsgd1na2vs0mg"},{"bike_id":"3b38ce18-3e2a-4e57-91b0-5f57083c3525","system_id":"levelo_inurba_marseille","lat":43.26498,"lon":5.39546,"is_reserved":false,"is_disabled":false,"rental_uris":{"android":"levelo://app?vid=3b38ce18-3e2a-4e57-91b0-5f57083c3525","ios":"levelo://app?vid=3b38ce18-3e2a-4e57-91b0-5f57083c3525"},"vehicle_type_id":"4","last_reported":1752236458,"current_range_meters":19200,"station_id":"ce4bhi12rcd13ifvqfq0","pricing_plan_id":"cebpf4jnsgd1na2vs0mg"},{"bike_id":"194fdf88-f854-4d6f-92a8-4c38fe190ac5","system_id":"levelo_inurba_marseille","lat":43.28458,"lon":5.35885,"is_reserved":false,"is_disabled":false,"rental_uris":{"android":"levelo://app?vid=194fdf88-f854-4d6f-92a8-4c38fe190ac5","ios":"levelo://app?vid=194fdf88-f854-4d6f-92a8-4c38fe190ac5"},"vehicle_type_id":"4","last_reported":1752236458,"current_range_meters":19200,"station_id":"ce4bhah2rcd13ifvqei0","pricing_plan_id":"cebpf4jnsgd1na2vs0mg"},{"bike_id":"e72cfbf3-f00e-4474-a978-8976cecd3110","system_id":"levelo_inurba_marseille","lat":43.30206,"lon":5.38139,"is_reserved":false,"is_disabled":false,"rental_uris":{"android":"levelo://app?vid=e72cfbf3-f00e-4474-a978-8976cecd3110","ios":"levelo://app?vid=e72cfbf3-f00e-4474-a978-8976cecd3110"},"vehicle_type_id":"4","last_reported":1752236458,"current_range_meters":19200,"station_id":"","pricing_plan_id":"cebpf4jnsgd1na2vs0mg"},{"bike_id":"375b6948-84fe-43fa-b8af-8e91d1fe84c4","system_id":"levelo_inurba_marseille","lat":43.267,"lon":5.38269,"is_reserved":false,"is_disabled":false,"rental_uris":{"android":"levelo://app?vid=375b6948-84fe-43fa-b8af-8e91d1fe84c4","ios":"levelo://app?vid=375b6948-84fe-43fa-b8af-8e91d1fe84c4"},"vehicle_type_id":"4","last_reported":1752236458,"current_range_meters":19200,"station_id":"ce4bhg92rcd13ifvqf90","pricing_plan_id":"cebpf4jnsgd1na2vs0mg"},{"bike_id":"96ce7dff-2228-42d9-ab95-e8778af0c8a7","system_id":"levelo_inurba_marseille","lat":43.2826,"lon":5.35079,"is_reserved":false,"is_disabled":false,"rental_uris":{"android":"levelo://app?vid=96ce7dff-2228-42d9-ab95-e8778af0c8a7","ios":"levelo://app?vid=96ce7dff-2228-42d9-ab95-e8778af0c8a7"},"vehicle_type_id":"4","last_reported":1752236458,"current_range_meters":19600,"station_id":"ce4bhbp2rcd13ifvqerg","pricing_plan_id":"cebpf4jnsgd1na2vs0mg"},{"bike_id":"ad023729-3d33-44a6-99ca-a047715b7f88","system_id":"levelo_inurba_marseille","lat":43.21187,"lon":5.35095,"is_reserved":false,"is_disabled":false,"rental_uris":{"android":"levelo://app?vid=ad023729-3d33-44a6-99ca-a047715b7f88","ios":"levelo://app?vid=ad023729-3d33-44a6-99ca-a047715b7f88"},"vehicle_type_id":"4","last_reported":1752236458,"current_range_meters":19600,"station_id":"st_cvj6sg6p6f1abm77japg","pricing_plan_id":"cebpf4jnsgd1na2vs0mg"},{"bike_id":"bbd103e3-e5c0-42a1-8885-d8f33d280ded","system_id":"levelo_inurba_marseille","lat":43.28113,"lon":5.37832,"is_reserved":false,"is_disabled":false,"rental_uris":{"android":"levelo://app?vid=bbd103e3-e5c0-42a1-8885-d8f33d280ded","ios":"levelo://app?vid=bbd103e3-e5c0-42a1-8885-d8f33d280ded"},"vehicle_type_id":"4","last_reported":1752236458,"current_range_meters":19200,"station_id":"ce4bha12rcd13ifvqee0","pricing_plan_id":"cebpf4jnsgd1na2vs0mg"},{"bike_id":"4b2e4352-8a32-4aa8-b63d-3557123a8e70","system_id":"levelo_inurba_marseille","lat":43.306549,"lon":5.400742,"is_reserved":false,"is_disabled":false,"rental_uris":{"android":"levelo://app?vid=4b2e4352-8a32-4aa8-b63d-3557123a8e70","ios":"levelo://app?vid=4b2e4352-8a32-4aa8-b63d-3557123a8e70"},"vehicle_type_id":"4","last_reported":1752236458,"current_range_meters":19600,"station_id":"ce4bh112rcd13ifvqda0","pricing_plan_id":"cebpf4jnsgd1na2vs0mg"},{"bike_id":"199fc732-b1f9-4b43-a682-43aab23bc41d","system_id":"levelo_inurba_marseille","lat":43.30551,"lon":5.36722,"is_reserved":false,"is_disabled":false,"rental_uris":{"android":"levelo://app?vid=199fc732-b1f9-4b43-a682-43aab23bc41d","ios":"levelo://app?vid=199fc732-b1f9-4b43-a682-43aab23bc41d"},"vehicle_type_id":"4","last_reported":1752236458,"current_range_meters":19600,"station_id":"ce4bgrp2rcd13ifvqc9g","pricing_plan_id":"cebpf4jnsgd1na2vs0mg"},{"bike_id":"3b01ca06-dddd-4fb8-9a58-9c5783c1e24c","system_id":"levelo_inurba_marseille","lat":43.26252,"lon":5.37458,"is_reserved":false,"is_disabled":false,"rental_uris":{"android":"levelo://app?vid=3b01ca06-dddd-4fb8-9a58-9c5783c1e24c","ios":"levelo://app?vid=3b01ca06-dddd-4fb8-9a58-9c5783c1e24c"},"vehicle_type_id":"4","last_reported":1752236458,"current_range_meters":20000,"station_id":"","pricing_plan_id":"cebpf4jnsgd1na2vs0mg"},{"bike_id":"a32fff8f-fe3f-4268-a515-369106b6ec45","system_id":"levelo_inurba_marseille","lat":43.28267,"lon":5.35088,"is_reserved":false,"is_disabled":false,"rental_uris":{"android":"levelo://app?vid=a32fff8f-fe3f-4268-a515-369106b6ec45","ios":"levelo://app?vid=a32fff8f-fe3f-4268-a515-369106b6ec45"},"vehicle_type_id":"4","last_reported":1752236458,"current_range_meters":20000,"station_id":"ce4bhbp2rcd13ifvqerg","pricing_plan_id":"cebpf4jnsgd1na2vs0mg"},{"bike_id":"4726d837-8746-4b7e-b234-493b127f6cc4","system_id":"levelo_inurba_marseille","lat":43.30538,"lon":5.36711,"is_reserved":false,"is_disabled":false,"rental_uris":{"android":"levelo://app?vid=4726d837-8746-4b7e-b234-493b127f6cc4","ios":"levelo://app?vid=4726d837-8746-4b7e-b234-493b127f6cc4"},"vehicle_type_id":"4","last_reported":1752236458,"current_range_meters":20000,"station_id":"ce4bgrp2rcd13ifvqc9g","pricing_plan_id":"cebpf4jnsgd1na2vs0mg"},{"bike_id":"790c377f-77f7-4730-a831-b0f708a46319","system_id":"levelo_inurba_marseille","lat":43.33601,"lon":5.40984,"is_reserved":false,"is_disabled":false,"rental_uris":{"android":"levelo://app?vid=790c377f-77f7-4730-a831-b0f708a46319","ios":"levelo://app?vid=790c377f-77f7-4730-a831-b0f708a46319"},"vehicle_type_id":"4","last_reported":1752236458,"current_range_meters":20000,"station_id":"ce4bhqh2rcd13ifvqhmg","pricing_plan_id":"cebpf4jnsgd1na2vs0mg"},{"bike_id":"0c286db9-c2a1-4d7c-96ca-fa72c2b1fbb1","system_id":"levelo_inurba_marseille","lat":43.2841,"lon":5.35005,"is_reserved":false,"is_disabled":false,"rental_uris":{"android":"levelo://app?vid=0c286db9-c2a1-4d7c-96ca-fa72c2b1fbb1","ios":"levelo://app?vid=0c286db9-c2a1-4d7c-96ca-fa72c2b1fbb1"},"vehicle_type_id":"4","last_reported":1752236458,"current_range_meters":20000,"station_id":"ce4bhbh2rcd13ifvqepg","pricing_plan_id":"cebpf4jnsgd1na2vs0mg"},{"bike_id":"33c1c0a8-863f-4bc6-85d5-afeae4b6a0d1","system_id":"levelo_inurba_marseille","lat":43.294663,"lon":5.374456,"is_reserved":false,"is_disabled":false,"rental_uris":{"android":"levelo://app?vid=33c1c0a8-863f-4bc6-85d5-afeae4b6a0d1","ios":"levelo://app?vid=33c1c0a8-863f-4bc6-85d5-afeae4b6a0d1"},"vehicle_type_id":"4","last_reported":1752236458,"current_range_meters":20000,"station_id":"ce4bh192rcd13ifvqdb0","pricing_plan_id":"cebpf4jnsgd1na2vs0mg"},{"bike_id":"073da96b-2c1f-4690-b23d-4a22d48bfca2","system_id":"levelo_inurba_marseille","lat":43.29643,"lon":5.37155,"is_reserved":false,"is_disabled":false,"rental_uris":{"android":"levelo://app?vid=073da96b-2c1f-4690-b23d-4a22d48bfca2","ios":"levelo://app?vid=073da96b-2c1f-4690-b23d-4a22d48bfca2"},"vehicle_type_id":"4","last_reported":1752236458,"current_range_meters":20000,"station_id":"ce4bgnh2rcd13ifvqc0g","pricing_plan_id":"cebpf4jnsgd1na2vs0mg"},{"bike_id":"00bc0b3b-e317-4a17-a011-a3a9a29d816a","system_id":"levelo_inurba_marseille","lat":43.211939,"lon":5.350773,"is_reserved":false,"is_disabled":false,"rental_uris":{"android":"levelo://app?vid=00bc0b3b-e317-4a17-a011-a3a9a29d816a","ios":"levelo://app?vid=00bc0b3b-e317-4a17-a011-a3a9a29d816a"},"vehicle_type_id":"4","last_reported":1752236458,"current_range_meters":20400,"station_id":"st_cvj6sg6p6f1abm77japg","pricing_plan_id":"cebpf4jnsgd1na2vs0mg"},{"bike_id":"92cf7bfe-bd79-46b7-b206-63c4a7a15c22","system_id":"levelo_inurba_marseille","lat":43.29255,"lon":5.384259,"is_reserved":false,"is_disabled":false,"rental_uris":{"android":"levelo://app?vid=92cf7bfe-bd79-46b7-b206-63c4a7a15c22","ios":"levelo://app?vid=92cf7bfe-bd79-46b7-b206-63c4a7a15c22"},"vehicle_type_id":"4","last_reported":1752236458,"current_range_meters":20400,"station_id":"ce4bh692rcd13ifvqea0","pricing_plan_id":"cebpf4jnsgd1na2vs0mg"},{"bike_id":"8f36ed24-46ce-476e-abea-128d934b1052","system_id":"levelo_inurba_marseille","lat":43.2595,"lon":5.40899,"is_reserved":false,"is_disabled":false,"rental_uris":{"android":"levelo://app?vid=8f36ed24-46ce-476e-abea-128d934b1052","ios":"levelo://app?vid=8f36ed24-46ce-476e-abea-128d934b1052"},"vehicle_type_id":"4","last_reported":1752236458,"current_range_meters":20400,"station_id":"ce4bhm92rcd13ifvqglg","pricing_plan_id":"cebpf4jnsgd1na2vs0mg"},{"bike_id":"85d2aee3-4fe4-4c9f-9f31-cc4fe835c04e","system_id":"levelo_inurba_marseille","lat":43.21187,"lon":5.35071,"is_reserved":false,"is_disabled":false,"rental_uris":{"android":"levelo://app?vid=85d2aee3-4fe4-4c9f-9f31-cc4fe835c04e","ios":"levelo://app?vid=85d2aee3-4fe4-4c9f-9f31-cc4fe835c04e"},"vehicle_type_id":"4","last_reported":1752236458,"current_range_meters":20400,"station_id":"st_cvj6sg6p6f1abm77japg","pricing_plan_id":"cebpf4jnsgd1na2vs0mg"},{"bike_id":"a086063c-8319-4212-8505-feb788fe148e","system_id":"levelo_inurba_marseille","lat":43.28289,"lon":5.35097,"is_reserved":false,"is_disabled":false,"rental_uris":{"android":"levelo://app?vid=a086063c-8319-4212-8505-feb788fe148e","ios":"levelo://app?vid=a086063c-8319-4212-8505-feb788fe148e"},"vehicle_type_id":"4","last_reported":1752236458,"current_range_meters":20400,"station_id":"ce4bhbp2rcd13ifvqerg","pricing_plan_id":"cebpf4jnsgd1na2vs0mg"},{"bike_id":"db3e7946-b326-4ffa-b288-980f7d508afe","system_id":"levelo_inurba_marseille","lat":43.28564,"lon":5.39507,"is_reserved":false,"is_disabled":false,"rental_uris":{"android":"levelo://app?vid=db3e7946-b326-4ffa-b288-980f7d508afe","ios":"levelo://app?vid=db3e7946-b326-4ffa-b288-980f7d508afe"},"vehicle_type_id":"4","last_reported":1752236458,"current_range_meters":20400,"station_id":"ce4bh292rcd13ifvqdg0","pricing_plan_id":"cebpf4jnsgd1na2vs0mg"},{"bike_id":"61311c34-8ad3-46f2-97a6-24b285751e2f","system_id":"levelo_inurba_marseille","lat":43.32354,"lon":5.40629,"is_reserved":false,"is_disabled":false,"rental_uris":{"android":"levelo://app?vid=61311c34-8ad3-46f2-97a6-24b285751e2f","ios":"levelo://app?vid=61311c34-8ad3-46f2-97a6-24b285751e2f"},"vehicle_type_id":"4","last_reported":1752236458,"current_range_meters":20800,"station_id":"ce4bhq92rcd13ifvqhjg","pricing_plan_id":"cebpf4jnsgd1na2vs0mg"},{"bike_id":"b6f061b6-88dc-4233-9010-7470f1f96743","system_id":"levelo_inurba_marseille","lat":43.29698,"lon":5.36633,"is_reserved":false,"is_disabled":false,"rental_uris":{"android":"levelo://app?vid=b6f061b6-88dc-4233-9010-7470f1f96743","ios":"levelo://app?vid=b6f061b6-88dc-4233-9010-7470f1f96743"},"vehicle_type_id":"4","last_reported":1752236458,"current_range_meters":20800,"station_id":"ce4bgn12rcd13ifvqbt0","pricing_plan_id":"cebpf4jnsgd1na2vs0mg"},{"bike_id":"fa4432c0-8509-418c-bbfb-c7d29fffe62b","system_id":"levelo_inurba_marseille","lat":43.297883,"lon":5.393407,"is_reserved":false,"is_disabled":false,"rental_uris":{"android":"levelo://app?vid=fa4432c0-8509-418c-bbfb-c7d29fffe62b","ios":"levelo://app?vid=fa4432c0-8509-418c-bbfb-c7d29fffe62b"},"vehicle_type_id":"4","last_reported":1752236458,"current_range_meters":20800,"station_id":"","pricing_plan_id":"cebpf4jnsgd1na2vs0mg"},{"bike_id":"51890362-46b0-4ee7-9f02-afbf036d064e","system_id":"levelo_inurba_marseille","lat":43.2119,"lon":5.35123,"is_reserved":false,"is_disabled":false,"rental_uris":{"android":"levelo://app?vid=51890362-46b0-4ee7-9f02-afbf036d064e","ios":"levelo://app?vid=51890362-46b0-4ee7-9f02-afbf036d064e"},"vehicle_type_id":"4","last_reported":1752236458,"current_range_meters":20800,"station_id":"st_cvj6sg6p6f1abm77japg","pricing_plan_id":"cebpf4jnsgd1na2vs0mg"},{"bike_id":"1550d62c-ac23-4182-a92a-927896c39981","system_id":"levelo_inurba_marseille","lat":43.33037,"lon":5.38077,"is_reserved":false,"is_disabled":false,"rental_uris":{"android":"levelo://app?vid=1550d62c-ac23-4182-a92a-927896c39981","ios":"levelo://app?vid=1550d62c-ac23-4182-a92a-927896c39981"},"vehicle_type_id":"4","last_reported":1752236458,"current_range_meters":20800,"station_id":"","pricing_plan_id":"cebpf4jnsgd1na2vs0mg"},{"bike_id":"11c0fd26-964e-4745-87e5-83ec4cbf5fc6","system_id":"levelo_inurba_marseille","lat":43.2175,"lon":5.34602,"is_reserved":false,"is_disabled":false,"rental_uris":{"android":"levelo://app?vid=11c0fd26-964e-4745-87e5-83ec4cbf5fc6","ios":"levelo://app?vid=11c0fd26-964e-4745-87e5-83ec4cbf5fc6"},"vehicle_type_id":"4","last_reported":1752236458,"current_range_meters":20800,"station_id":"st_cvj6r9ubvosntc0bgbag","pricing_plan_id":"cebpf4jnsgd1na2vs0mg"},{"bike_id":"fc7e1c1d-9963-4af9-b9a1-cc00048037fa","system_id":"levelo_inurba_marseille","lat":43.28455,"lon":5.3591,"is_reserved":false,"is_disabled":false,"rental_uris":{"android":"levelo://app?vid=fc7e1c1d-9963-4af9-b9a1-cc00048037fa","ios":"levelo://app?vid=fc7e1c1d-9963-4af9-b9a1-cc00048037fa"},"vehicle_type_id":"4","last_reported":1752236458,"current_range_meters":20800,"station_id":"ce4bhah2rcd13ifvqei0","pricing_plan_id":"cebpf4jnsgd1na2vs0mg"},{"bike_id":"897eed0e-197a-4317-97a9-4f18b112dae2","system_id":"levelo_inurba_marseille","lat":43.287026,"lon":5.399788,"is_reserved":false,"is_disabled":false,"rental_uris":{"android":"levelo://app?vid=897eed0e-197a-4317-97a9-4f18b112dae2","ios":"levelo://app?vid=897eed0e-197a-4317-97a9-4f18b112dae2"},"vehicle_type_id":"4","last_reported":1752236458,"current_range_meters":20800,"station_id":"ce4bho92rcd13ifvqh3g","pricing_plan_id":"cebpf4jnsgd1na2vs0mg"},{"bike_id":"7f0d0e91-a101-4741-92c6-0b321515a6c6","system_id":"levelo_inurba_marseille","lat":43.27055,"lon":5.40281,"is_reserved":false,"is_disabled":false,"rental_uris":{"android":"levelo://app?vid=7f0d0e91-a101-4741-92c6-0b321515a6c6","ios":"levelo://app?vid=7f0d0e91-a101-4741-92c6-0b321515a6c6"},"vehicle_type_id":"4","last_reported":1752236458,"current_range_meters":21600,"station_id":"ce4bhk92rcd13ifvqgc0","pricing_plan_id":"cebpf4jnsgd1na2vs0mg"},{"bike_id":"3e49fb3c-bf9b-4bdc-a858-4a3edffd244b","system_id":"levelo_inurba_marseille","lat":43.24058,"lon":5.37738,"is_reserved":false,"is_disabled":false,"rental_uris":{"android":"levelo://app?vid=3e49fb3c-bf9b-4bdc-a858-4a3edffd244b","ios":"levelo://app?vid=3e49fb3c-bf9b-4bdc-a858-4a3edffd244b"},"vehicle_type_id":"4","last_reported":1752236458,"current_range_meters":21600,"station_id":"ce4bhnp2rcd13ifvqgvg","pricing_plan_id":"cebpf4jnsgd1na2vs0mg"},{"bike_id":"9c306d2c-4c4a-458b-8440-eb87e2f8e252","system_id":"levelo_inurba_marseille","lat":43.29862,"lon":5.36321,"is_reserved":false,"is_disabled":false,"rental_uris":{"android":"levelo://app?vid=9c306d2c-4c4a-458b-8440-eb87e2f8e252","ios":"levelo://app?vid=9c306d2c-4c4a-458b-8440-eb87e2f8e252"},"vehicle_type_id":"4","last_reported":1752236458,"current_range_meters":21600,"station_id":"ce4bgpp2rcd13ifvqc3g","pricing_plan_id":"cebpf4jnsgd1na2vs0mg"},{"bike_id":"d535abe4-24dd-438b-b7e9-cd22caa8040f","system_id":"levelo_inurba_marseille","lat":43.26789,"lon":5.39432,"is_reserved":false,"is_disabled":false,"rental_uris":{"android":"levelo://app?vid=d535abe4-24dd-438b-b7e9-cd22caa8040f","ios":"levelo://app?vid=d535abe4-24dd-438b-b7e9-cd22caa8040f"},"vehicle_type_id":"4","last_reported":1752236458,"current_range_meters":21600,"station_id":"ce4bhh12rcd13ifvqfg0","pricing_plan_id":"cebpf4jnsgd1na2vs0mg"},{"bike_id":"00bb04d2-087b-4ba0-958b-5c83f2321f0a","system_id":"levelo_inurba_marseille","lat":43.295469,"lon":5.422828,"is_reserved":false,"is_disabled":false,"rental_uris":{"android":"levelo://app?vid=00bb04d2-087b-4ba0-958b-5c83f2321f0a","ios":"levelo://app?vid=00bb04d2-087b-4ba0-958b-5c83f2321f0a"},"vehicle_type_id":"4","last_reported":1752236458,"current_range_meters":21600,"station_id":"ce4bhph2rcd13ifvqhdg","pricing_plan_id":"cebpf4jnsgd1na2vs0mg"},{"bike_id":"0b5568ad-5cb1-43dd-96ea-ac921d768809","system_id":"levelo_inurba_marseille","lat":43.30466,"lon":5.37962,"is_reserved":false,"is_disabled":false,"rental_uris":{"android":"levelo://app?vid=0b5568ad-5cb1-43dd-96ea-ac921d768809","ios":"levelo://app?vid=0b5568ad-5cb1-43dd-96ea-ac921d768809"},"vehicle_type_id":"4","last_reported":1752236458,"current_range_meters":21600,"station_id":"ce4bgup2rcd13ifvqcn0","pricing_plan_id":"cebpf4jnsgd1na2vs0mg"},{"bike_id":"8b37f03f-f226-4bbc-8648-b109da7ba145","system_id":"levelo_inurba_marseille","lat":43.30536,"lon":5.366999,"is_reserved":false,"is_disabled":false,"rental_uris":{"android":"levelo://app?vid=8b37f03f-f226-4bbc-8648-b109da7ba145","ios":"levelo://app?vid=8b37f03f-f226-4bbc-8648-b109da7ba145"},"vehicle_type_id":"4","last_reported":1752236458,"current_range_meters":21600,"station_id":"","pricing_plan_id":"cebpf4jnsgd1na2vs0mg"},{"bike_id":"d799b321-3a7d-4201-b46e-ffe2ad124f19","system_id":"levelo_inurba_marseille","lat":43.32864,"lon":5.3839,"is_reserved":false,"is_disabled":false,"rental_uris":{"android":"levelo://app?vid=d799b321-3a7d-4201-b46e-ffe2ad124f19","ios":"levelo://app?vid=d799b321-3a7d-4201-b46e-ffe2ad124f19"},"vehicle_type_id":"4","last_reported":1752236458,"current_range_meters":21600,"station_id":"","pricing_plan_id":"cebpf4jnsgd1na2vs0mg"},{"bike_id":"a0137104-c9f4-434a-a5e3-80725cd5a2b4","system_id":"levelo_inurba_marseille","lat":43.21182,"lon":5.35088,"is_reserved":false,"is_disabled":false,"rental_uris":{"android":"levelo://app?vid=a0137104-c9f4-434a-a5e3-80725cd5a2b4","ios":"levelo://app?vid=a0137104-c9f4-434a-a5e3-80725cd5a2b4"},"vehicle_type_id":"4","last_reported":1752236458,"current_range_meters":21600,"station_id":"st_cvj6sg6p6f1abm77japg","pricing_plan_id":"cebpf4jnsgd1na2vs0mg"},{"bike_id":"abea1c5b-1964-4757-b738-3a66f710ad5a","system_id":"levelo_inurba_marseille","lat":43.25579,"lon":5.38235,"is_reserved":false,"is_disabled":false,"rental_uris":{"android":"levelo://app?vid=abea1c5b-1964-4757-b738-3a66f710ad5a","ios":"levelo://app?vid=abea1c5b-1964-4757-b738-3a66f710ad5a"},"vehicle_type_id":"4","last_reported":1752236458,"current_range_meters":22000,"station_id":"ce4bhih2rcd13ifvqfs0","pricing_plan_id":"cebpf4jnsgd1na2vs0mg"},{"bike_id":"028c8301-8e99-4f6b-983c-d8b1eaa0aa1d","system_id":"levelo_inurba_marseille","lat":43.30008,"lon":5.38602,"is_reserved":false,"is_disabled":false,"rental_uris":{"android":"levelo://app?vid=028c8301-8e99-4f6b-983c-d8b1eaa0aa1d","ios":"levelo://app?vid=028c8301-8e99-4f6b-983c-d8b1eaa0aa1d"},"vehicle_type_id":"4","last_reported":1752236458,"current_range_meters":22000,"station_id":"","pricing_plan_id":"cebpf4jnsgd1na2vs0mg"},{"bike_id":"ee5338dd-18a1-4b48-a5b0-f8c72f7b1319","system_id":"levelo_inurba_marseille","lat":43.317875,"lon":5.3683,"is_reserved":false,"is_disabled":false,"rental_uris":{"android":"levelo://app?vid=ee5338dd-18a1-4b48-a5b0-f8c72f7b1319","ios":"levelo://app?vid=ee5338dd-18a1-4b48-a5b0-f8c72f7b1319"},"vehicle_type_id":"4","last_reported":1752236458,"current_range_meters":22000,"station_id":"","pricing_plan_id":"cebpf4jnsgd1na2vs0mg"},{"bike_id":"f1c1b99c-4b32-43ff-aa72-5aa47bb17c00","system_id":"levelo_inurba_marseille","lat":43.29166,"lon":5.37172,"is_reserved":false,"is_disabled":false,"rental_uris":{"android":"levelo://app?vid=f1c1b99c-4b32-43ff-aa72-5aa47bb17c00","ios":"levelo://app?vid=f1c1b99c-4b32-43ff-aa72-5aa47bb17c00"},"vehicle_type_id":"4","last_reported":1752236458,"current_range_meters":22000,"station_id":"ce4bha92rcd13ifvqeh0","pricing_plan_id":"cebpf4jnsgd1na2vs0mg"},{"bike_id":"1be5904f-bc30-41df-8a25-518a6769e245","system_id":"levelo_inurba_marseille","lat":43.24811,"lon":5.37458,"is_reserved":false,"is_disabled":false,"rental_uris":{"android":"levelo://app?vid=1be5904f-bc30-41df-8a25-518a6769e245","ios":"levelo://app?vid=1be5904f-bc30-41df-8a25-518a6769e245"},"vehicle_type_id":"4","last_reported":1752236458,"current_range_meters":21600,"station_id":"ce4bhgh2rcd13ifvqfb0","pricing_plan_id":"cebpf4jnsgd1na2vs0mg"},{"bike_id":"20680127-388b-4c3d-826d-da1f8ee9afa9","system_id":"levelo_inurba_marseille","lat":43.30166,"lon":5.38091,"is_reserved":false,"is_disabled":false,"rental_uris":{"android":"levelo://app?vid=20680127-388b-4c3d-826d-da1f8ee9afa9","ios":"levelo://app?vid=20680127-388b-4c3d-826d-da1f8ee9afa9"},"vehicle_type_id":"4","last_reported":1752236458,"current_range_meters":22000,"station_id":"ce4bgjp2rcd13ifvqbh0","pricing_plan_id":"cebpf4jnsgd1na2vs0mg"},{"bike_id":"9d0d85e3-ee19-452d-93c5-fbfc98a09acf","system_id":"levelo_inurba_marseille","lat":43.29506,"lon":5.43849,"is_reserved":false,"is_disabled":false,"rental_uris":{"android":"levelo://app?vid=9d0d85e3-ee19-452d-93c5-fbfc98a09acf","ios":"levelo://app?vid=9d0d85e3-ee19-452d-93c5-fbfc98a09acf"},"vehicle_type_id":"4","last_reported":1752236458,"current_range_meters":22000,"station_id":"","pricing_plan_id":"cebpf4jnsgd1na2vs0mg"},{"bike_id":"42abc01b-608e-4eb8-85e4-f45caa02d7fa","system_id":"levelo_inurba_marseille","lat":43.23152,"lon":5.43741,"is_reserved":false,"is_disabled":false,"rental_uris":{"android":"levelo://app?vid=42abc01b-608e-4eb8-85e4-f45caa02d7fa","ios":"levelo://app?vid=42abc01b-608e-4eb8-85e4-f45caa02d7fa"},"vehicle_type_id":"4","last_reported":1752236458,"current_range_meters":22000,"station_id":"ce4bhmp2rcd13ifvqgog","pricing_plan_id":"cebpf4jnsgd1na2vs0mg"},{"bike_id":"f13872ab-8eaa-44e3-b5c1-b3018fdd74ad","system_id":"levelo_inurba_marseille","lat":43.32471,"lon":5.36577,"is_reserved":false,"is_disabled":false,"rental_uris":{"android":"levelo://app?vid=f13872ab-8eaa-44e3-b5c1-b3018fdd74ad","ios":"levelo://app?vid=f13872ab-8eaa-44e3-b5c1-b3018fdd74ad"},"vehicle_type_id":"4","last_reported":1752236458,"current_range_meters":22000,"station_id":"ce4bhs12rcd13ifvqhvg","pricing_plan_id":"cebpf4jnsgd1na2vs0mg"},{"bike_id":"c17fb869-45ba-474b-bd12-2184c7448248","system_id":"levelo_inurba_marseille","lat":43.229292,"lon":5.35376,"is_reserved":false,"is_disabled":false,"rental_uris":{"android":"levelo://app?vid=c17fb869-45ba-474b-bd12-2184c7448248","ios":"levelo://app?vid=c17fb869-45ba-474b-bd12-2184c7448248"},"vehicle_type_id":"4","last_reported":1752236458,"current_range_meters":22000,"station_id":"cpo3532slgdg3j2ikp40","pricing_plan_id":"cebpf4jnsgd1na2vs0mg"},{"bike_id":"72b39aad-c91e-4545-8fe5-aa395b7d62ba","system_id":"levelo_inurba_marseille","lat":43.31917,"lon":5.37656,"is_reserved":false,"is_disabled":false,"rental_uris":{"android":"levelo://app?vid=72b39aad-c91e-4545-8fe5-aa395b7d62ba","ios":"levelo://app?vid=72b39aad-c91e-4545-8fe5-aa395b7d62ba"},"vehicle_type_id":"4","last_reported":1752236458,"current_range_meters":22400,"station_id":"","pricing_plan_id":"cebpf4jnsgd1na2vs0mg"},