{"last_updated":1707239177,"ttl":30,"version":"2.2","data":{"bikes":[{"bike_id":"2ca70daa-80a7-44fd-9f72-5af599a4de73","system_id":"levelo_inurba_marseille","lat":43.31145,"lon":5.367742,"is_reserved":false,"is_disabled":false,"rental_uris":{"android":"levelo://app?vid=2ca70daa-80a7-44fd-9f72-5af599a4de73","ios":"levelo://app?vid=2ca70daa-80a7-44fd-9f72-5af599a4de73"},"vehicle_type_id":"4","last_reported":1707239177,"current_range_meters":28000,"station_id":"ce4bgs12rcd13ifvqcag","pricing_plan_id":"free"},{"bike_id":"3c234971-491e-4275-b09a-ea84da943543","system_id":"levelo_inurba_marseille","lat":43.314811,"lon":5.373103,"is_reserved":false,"is_disabled":false,"rental_uris":{"android":"levelo://app?vid=3c234971-491e-4275-b09a-ea84da943543","ios":"levelo://app?vid=3c234971-491e-4275-b09a-ea84da943543"},"vehicle_type_id":"4","last_reported":1707239177,"current_range_meters":22000,"station_id":"ce4bgt12rcd13ifvqcd0","pricing_plan_id":"free"},{"bike_id":"be413c37-1468-4476-aa02-a7551333745f","system_id":"levelo_inurba_marseille","lat":43.30784,"lon":5.36785,"is_reserved":false,"is_disabled":false,"rental_uris":{"android":"levelo://app?vid=be413c37-1468-4476-aa02-a7551333745f","ios":"levelo://app?vid=be413c37-1468-4476-aa02-a7551333745f"},"vehicle_type_id":"4","last_reported":1707239177,"current_range_meters":18000,"station_id":"","pricing_plan_id":"free"},{"bike_id":"d779f4e1-294e-48d5-b638-109447f962b0","system_id":"levelo_inurba_marseille","lat":43.314811,"lon":5.373103,"is_reserved":false,"is_disabled":false,"rental_uris":{"android":"levelo://app?vid=d779f4e1-294e-48d5-b638-109447f962b0","ios":"levelo://app?vid=d779f4e1-294e-48d5-b638-109447f962b0"},"vehicle_type_id":"4","last_reported":1707239177,"current_range_meters":2400,"station_id":"ce4bgt12rcd13ifvqcd0","pricing_plan_id":"free"},{"bike_id":"82416ce5-76b9-409d-b996-4f78ad693f3f","system_id":"levelo_inurba_marseille","lat":43.297163,"lon":5.365866,"is_reserved":false,"is_disabled":false,"rental_uris":{"android":"levelo://app?vid=82416ce5-76b9-409d-b996-4f78ad693f3f","ios":"levelo://app?vid=82416ce5-76b9-409d-b996-4f78ad693f3f"},"vehicle_type_id":"4","last_reported":1707239177,"current_range_meters":31200,"station_id":"ce4bgn12rcd13ifvqbt0","pricing_plan_id":"free"},{"bike_id":"5e8ea658-f807-4823-b3ce-c3ad7d2a6964","system_id":"levelo_inurba_marseille","lat":43.309039,"lon":5.371797,"is_reserved":false,"is_disabled":false,"rental_uris":{"android":"levelo://app?vid=5e8ea658-f807-4823-b3ce-c3ad7d2a6964","ios":"levelo://app?vid=5e8ea658-f807-4823-b3ce-c3ad7d2a6964"},"vehicle_type_id":"4","last_reported":1707239177,"current_range_meters":21200,"station_id":"ce4bguh2rcd13ifvqckg","pricing_plan_id":"free"},{"bike_id":"5e2c4ce9-6ec2-4459-b07e-ee3d4902e597","system_id":"levelo_inurba_marseille","lat":43.306173,"lon":5.365652,"is_reserved":false,"is_disabled":false,"rental_uris":{"android":"levelo://app?vid=5e2c4ce9-6ec2-4459-b07e-ee3d4902e597","ios":"levelo://app?vid=5e2c4ce9-6ec2-4459-b07e-ee3d4902e597"},"vehicle_type_id":"4","last_reported":1707239177,"current_range_meters":13600,"station_id":"","pricing_plan_id":"free"},{"bike_id":"e46e8ff3-6efb-422c-88bb-36c5e9ce66e4","system_id":"levelo_inurba_marseille","lat":43.31199,"lon":5.37619,"is_reserved":false,"is_disabled":false,"rental_uris":{"android":"levelo://app?vid=e46e8ff3-6efb-422c-88bb-36c5e9ce66e4","ios":"levelo://app?vid=e46e8ff3-6efb-422c-88bb-36c5e9ce66e4"},"vehicle_type_id":"4","last_reported":1707239177,"current_range_meters":19600,"station_id":"","pricing_plan_id":"free"},{"bike_id":"992ca205-c3ab-4d7f-aac5-81024a9e356a","system_id":"levelo_inurba_marseille","lat":43.305706,"lon":5.365654,"is_reserved":false,"is_disabled":false,"rental_uris":{"android":"levelo://app?vid=992ca205-c3ab-4d7f-aac5-81024a9e356a","ios":"levelo://app?vid=992ca205-c3ab-4d7f-aac5-81024a9e356a"},"vehicle_type_id":"4","last_reported":1707239177,"current_range_meters":24800,"station_id":"ce4bgs12rcd13ifvqcag","pricing_plan_id":"free"},{"bike_id":"e50449ab-182e-45cf-aa12-57d69d2f33f4","system_id":"levelo_inurba_marseille","lat":43.305961,"lon":5.372214,"is_reserved":false,"is_disabled":false,"rental_uris":{"android":"levelo://app?vid=e50449ab-182e-45cf-aa12-57d69d2f33f4","ios":"levelo://app?vid=e50449ab-182e-45cf-aa12-57d69d2f33f4"},"vehicle_type_id":"4","last_reported":1707239177,"current_range_meters":25600,"station_id":"ce4bgqh2rcd13ifvqc4g","pricing_plan_id":"free"},{"bike_id":"439223a7-2201-4d99-9901-b9b0703d1796","system_id":"levelo_inurba_marseille","lat":43.305989,"lon":5.37225,"is_reserved":false,"is_disabled":false,"rental_uris":{"android":"levelo://app?vid=439223a7-2201-4d99-9901-b9b0703d1796","ios":"levelo://app?vid=439223a7-2201-4d99-9901-b9b0703d1796"},"vehicle_type_id":"4","last_reported":1707239177,"current_range_meters":27200,"station_id":"ce4bgqh2rcd13ifvqc4g","pricing_plan_id":"free"},{"bike_id":"93e3a40c-874b-4df7-8ce5-b20f96084e58","system_id":"levelo_inurba_marseille","lat":43.30597,"lon":5.37235,"is_reserved":false,"is_disabled":false,"rental_uris":{"android":"levelo://app?vid=93e3a40c-874b-4df7-8ce5-b20f96084e58","ios":"levelo://app?vid=93e3a40c-874b-4df7-8ce5-b20f96084e58"},"vehicle_type_id":"4","last_reported":1707239177,"current_range_meters":28400,"station_id":"ce4bgqh2rcd13ifvqc4g","pricing_plan_id":"free"},{"bike_id":"f1df4c1b-a79d-44be-a569-4b1c9066d188","system_id":"levelo_inurba_marseille","lat":43.311125,"lon":5.377624,"is_reserved":false,"is_disabled":false,"rental_uris":{"android":"levelo://app?vid=f1df4c1b-a79d-44be-a569-4b1c9066d188","ios":"levelo://app?vid=f1df4c1b-a79d-44be-a569-4b1c9066d188"},"vehicle_type_id":"4","last_reported":1707239177,"current_range_meters":800,"station_id":"ce4bgt92rcd13ifvqcg0","pricing_plan_id":"free"},{"bike_id":"67a681cb-f3f4-4574-90aa-3fd42cc0b302","system_id":"levelo_inurba_marseille","lat":43.311125,"lon":5.377624,"is_reserved":false,"is_disabled":false,"rental_uris":{"android":"levelo://app?vid=67a681cb-f3f4-4574-90aa-3fd42cc0b302","ios":"levelo://app?vid=67a681cb-f3f4-4574-90aa-3fd42cc0b302"},"vehicle_type_id":"4","last_reported":1707239177,"current_range_meters":4400,"station_id":"ce4bgt92rcd13ifvqcg0","pricing_plan_id":"free"},{"bike_id":"f4944485-dc7a-488e-8e2b-16bc5085be2c","system_id":"levelo_inurba_marseille","lat":43.307945,"lon":5.376487,"is_reserved":false,"is_disabled":false,"rental_uris":{"android":"levelo://app?vid=f4944485-dc7a-488e-8e2b-16bc5085be2c","ios":"levelo://app?vid=f4944485-dc7a-488e-8e2b-16bc5085be2c"},"vehicle_type_id":"4","last_reported":1707239177,"current_range_meters":29600,"station_id":"ce4bgv92rcd13ifvqcq0","pricing_plan_id":"free"},{"bike_id":"b1efbab6-575e-49d9-941e-bf4f20131f18","system_id":"levelo_inurba_marseille","lat":43.307945,"lon":5.376487,"is_reserved":false,"is_disabled":false,"rental_uris":{"android":"levelo://app?vid=b1efbab6-575e-49d9-941e-bf4f20131f18","ios":"levelo://app?vid=b1efbab6-575e-49d9-941e-bf4f20131f18"},"vehicle_type_id":"4","last_reported":1707239177,"current_range_meters":28400,"station_id":"ce4bgv92rcd13ifvqcq0","pricing_plan_id":"free"},{"bike_id":"ab3fefd7-6ac5-4fae-bb13-ef9329403928","system_id":"levelo_inurba_marseille","lat":43.307945,"lon":5.376487,"is_reserved":false,"is_disabled":false,"rental_uris":{"android":"levelo://app?vid=ab3fefd7-6ac5-4fae-bb13-ef9329403928","ios":"levelo://app?vid=ab3fefd7-6ac5-4fae-bb13-ef9329403928"},"vehicle_type_id":"4","last_reported":1707239177,"current_range_meters":15600,"station_id":"ce4bgv92rcd13ifvqcq0","pricing_plan_id":"free"},{"bike_id":"a9330a2d-8a80-4acd-afac-dfbc9b7de59e","system_id":"levelo_inurba_marseille","lat":43.307945,"lon":5.376487,"is_reserved":false,"is_disabled":false,"rental_uris":{"android":"levelo://app?vid=a9330a2d-8a80-4acd-afac-dfbc9b7de59e","ios":"levelo://app?vid=a9330a2d-8a80-4acd-afac-dfbc9b7de59e"},"vehicle_type_id":"4","last_reported":1707239177,"current_range_meters":24800,"station_id":"ce4bgv92rcd13ifvqcq0","pricing_plan_id":"free"},{"bike_id":"88aaa6f6-b84c-4386-b758-c512c01dff52","system_id":"levelo_inurba_marseille","lat":43.307945,"lon":5.376487,"is_reserved":false,"is_disabled":false,"rental_uris":{"android":"levelo://app?vid=88aaa6f6-b84c-4386-b758-c512c01dff52","ios":"levelo://app?vid=88aaa6f6-b84c-4386-b758-c512c01dff52"},"vehicle_type_id":"4","last_reported":1707239177,"current_range_meters":13200,"station_id":"ce4bgv92rcd13ifvqcq0","pricing_plan_id":"free"},{"bike_id":"8d8d6add-444d-47e4-af6d-b7dd43899a11","system_id":"levelo_inurba_marseille","lat":43.307945,"lon":5.376487,"is_reserved":false,"is_disabled":false,"rental_uris":{"android":"levelo://app?vid=8d8d6add-444d-47e4-af6d-b7dd43899a11","ios":"levelo://app?vid=8d8d6add-444d-47e4-af6d-b7dd43899a11"},"vehicle_type_id":"4","last_reported":1707239177,"current_range_meters":31200,"station_id":"ce4bgv92rcd13ifvqcq0","pricing_plan_id":"free"},{"bike_id":"5d4fe4eb-e967-4c56-8eeb-81e947f6b0ed","system_id":"levelo_inurba_marseille","lat":43.307945,"lon":5.376487,"is_reserved":false,"is_disabled":false,"rental_uris":{"android":"levelo://app?vid=5d4fe4eb-e967-4c56-8eeb-81e947f6b0ed","ios":"levelo://app?vid=5d4fe4eb-e967-4c56-8eeb-81e947f6b0ed"},"vehicle_type_id":"4","last_reported":1707239177,"current_range_meters":31200,"station_id":"ce4bgv92rcd13ifvqcq0","pricing_plan_id":"free"},{"bike_id":"77073416-f815-46ad-b414-33ec95709bea","system_id":"levelo_inurba_marseille","lat":43.317075,"lon":5.377367,"is_reserved":false,"is_disabled":false,"rental_uris":{"android":"levelo://app?vid=77073416-f815-46ad-b414-33ec95709bea","ios":"levelo://app?vid=77073416-f815-46ad-b414-33ec95709bea"},"vehicle_type_id":"4","last_reported":1707239177,"current_range_meters":26800,"station_id":"ce4bgth2rcd13ifvqch0","pricing_plan_id":"free"},{"bike_id":"c0accd4b-7a21-4484-866e-302b75c61799","system_id":"levelo_inurba_marseille","lat":43.317075,"lon":5.377367,"is_reserved":false,"is_disabled":false,"rental_uris":{"android":"levelo://app?vid=c0accd4b-7a21-4484-866e-302b75c61799","ios":"levelo://app?vid=c0accd4b-7a21-4484-866e-302b75c61799"},"vehicle_type_id":"4","last_reported":1707239177,"current_range_meters":25600,"station_id":"ce4bgth2rcd13ifvqch0","pricing_plan_id":"free"},{"bike_id":"0c466ccc-d747-4327-be86-c3896d0bbba3","system_id":"levelo_inurba_marseille","lat":43.317075,"lon":5.377367,"is_reserved":false,"is_disabled":false,"rental_uris":{"android":"levelo://app?vid=0c466ccc-d747-4327-be86-c3896d0bbba3","ios":"levelo://app?vid=0c466ccc-d747-4327-be86-c3896d0bbba3"},"vehicle_type_id":"4","last_reported":1707239177,"current_range_meters":31200,"station_id":"ce4bgth2rcd13ifvqch0","pricing_plan_id":"free"},{"bike_id":"9e27dddf-5f2c-43ad-8436-a1065159057d","system_id":"levelo_inurba_marseille","lat":43.30304,"lon":5.368987,"is_reserved":false,"is_disabled":false,"rental_uris":{"android":"levelo://app?vid=9e27dddf-5f2c-43ad-8436-a1065159057d","ios":"levelo://app?vid=9e27dddf-5f2c-43ad-8436-a1065159057d"},"vehicle_type_id":"4","last_reported":1707239177,"current_range_meters":30000,"station_id":"ce4bgqh2rcd13ifvqc5g","pricing_plan_id":"free"},{"bike_id":"63bff1e1-2bd6-4c35-9813-dad17656724f","system_id":"levelo_inurba_marseille","lat":43.303046,"lon":5.368981,"is_reserved":false,"is_disabled":false,"rental_uris":{"android":"levelo://app?vid=63bff1e1-2bd6-4c35-9813-dad17656724f","ios":"levelo://app?vid=63bff1e1-2bd6-4c35-9813-dad17656724f"},"vehicle_type_id":"4","last_reported":1707239177,"current_range_meters":14400,"station_id":"ce4bgqh2rcd13ifvqc5g","pricing_plan_id":"free"},{"bike_id":"bbf624b2-1a13-4672-bed8-9bf7f7ecb264","system_id":"levelo_inurba_marseille","lat":43.30183,"lon":5.36607,"is_reserved":false,"is_disabled":false,"rental_uris":{"android":"levelo://app?vid=bbf624b2-1a13-4672-bed8-9bf7f7ecb264","ios":"levelo://app?vid=bbf624b2-1a13-4672-bed8-9bf7f7ecb264"},"vehicle_type_id":"4","last_reported":1707239177,"current_range_meters":20800,"station_id":"ce4bgrh2rcd13ifvqc8g","pricing_plan_id":"free"},{"bike_id":"0bf2339f-c410-4193-b6a9-a908233b1f89","system_id":"levelo_inurba_marseille","lat":43.301828,"lon":5.366117,"is_reserved":false,"is_disabled":false,"rental_uris":{"android":"levelo://app?vid=0bf2339f-c410-4193-b6a9-a908233b1f89","ios":"levelo://app?vid=0bf2339f-c410-4193-b6a9-a908233b1f89"},"vehicle_type_id":"4","last_reported":1707239177,"current_range_meters":31200,"station_id":"ce4bgrh2rcd13ifvqc8g","pricing_plan_id":"free"},{"bike_id":"32b3688b-c940-47a5-8354-60d524c82719","system_id":"levelo_inurba_marseille","lat":43.301781,"lon":5.366236,"is_reserved":false,"is_disabled":false,"rental_uris":{"android":"levelo://app?vid=32b3688b-c940-47a5-8354-60d524c82719","ios":"levelo://app?vid=32b3688b-c940-47a5-8354-60d524c82719"},"vehicle_type_id":"4","last_reported":1707239177,"current_range_meters":0,"station_id":"ce4bgrh2rcd13ifvqc8g","pricing_plan_id":"free"},{"bike_id":"aa2382f0-29ec-42d8-8ad0-49311c3b9b97","system_id":"levelo_inurba_marseille","lat":43.308012,"lon":5.381511,"is_reserved":false,"is_disabled":false,"rental_uris":{"android":"levelo://app?vid=aa2382f0-29ec-42d8-8ad0-49311c3b9b97","ios":"levelo://app?vid=aa2382f0-29ec-42d8-8ad0-49311c3b9b97"},"vehicle_type_id":"4","last_reported":1707239177,"current_range_meters":30400,"station_id":"ce4bgt12rcd13ifvqce0","pricing_plan_id":"free"},{"bike_id":"1d6d0bba-f716-4d85-9c16-68add1d82ebb","system_id":"levelo_inurba_marseille","lat":43.307945,"lon":5.376487,"is_reserved":false,"is_disabled":false,"rental_uris":{"android":"levelo://app?vid=1d6d0bba-f716-4d85-9c16-68add1d82ebb","ios":"levelo://app?vid=1d6d0bba-f716-4d85-9c16-68add1d82ebb"},"vehicle_type_id":"4","last_reported":1707239177,"current_range_meters":28000,"station_id":"ce4bgv92rcd13ifvqcq0","pricing_plan_id":"free"},{"bike_id":"97f71f75-d414-4d74-9636-20377fab8590","system_id":"levelo_inurba_marseille","lat":43.324771,"lon":5.36557,"is_reserved":false,"is_disabled":false,"rental_uris":{"android":"levelo://app?vid=97f71f75-d414-4d74-9636-20377fab8590","ios":"levelo://app?vid=97f71f75-d414-4d74-9636-20377fab8590"},"vehicle_type_id":"4","last_reported":1707239177,"current_range_meters":30400,"station_id":"ce4bhs12rcd13ifvqhvg","pricing_plan_id":"free"},{"bike_id":"9fb3aa8e-6800-472b-b7a1-b582d089344a","system_id":"levelo_inurba_marseille","lat":43.324771,"lon":5.36557,"is_reserved":false,"is_disabled":false,"rental_uris":{"android":"levelo://app?vid=9fb3aa8e-6800-472b-b7a1-b582d089344a","ios":"levelo://app?vid=9fb3aa8e-6800-472b-b7a1-b582d089344a"},"vehicle_type_id":"4","last_reported":1707239177,"current_range_meters":19200,"station_id":"ce4bhs12rcd13ifvqhvg","pricing_plan_id":"free"},{"bike_id":"5e3f4117-bf71-4295-8fac-b33a9c44e6b6","system_id":"levelo_inurba_marseille","lat":43.324771,"lon":5.36557,"is_reserved":false,"is_disabled":false,"rental_uris":{"android":"levelo://app?vid=5e3f4117-bf71-4295-8fac-b33a9c44e6b6","ios":"levelo://app?vid=5e3f4117-bf71-4295-8fac-b33a9c44e6b6"},"vehicle_type_id":"4","last_reported":1707239177,"current_range_meters":25600,"station_id":"ce4bhs12rcd13ifvqhvg","pricing_plan_id":"free"},{"bike_id":"5fda9ea7-5b39-4511-9692-fef440fea455","system_id":"levelo_inurba_marseille","lat":43.310804,"lon":5.38359,"is_reserved":false,"is_disabled":false,"rental_uris":{"android":"levelo://app?vid=5fda9ea7-5b39-4511-9692-fef440fea455","ios":"levelo://app?vid=5fda9ea7-5b39-4511-9692-fef440fea455"},"vehicle_type_id":"4","last_reported":1707239177,"current_range_meters":25600,"station_id":"ce4bgv92rcd13ifvqcr0","pricing_plan_id":"free"},{"bike_id":"32a25e8b-a205-41b2-b442-24791b294e16","system_id":"levelo_inurba_marseille","lat":43.302784,"lon":5.377158,"is_reserved":false,"is_disabled":false,"rental_uris":{"android":"levelo://app?vid=32a25e8b-a205-41b2-b442-24791b294e16","ios":"levelo://app?vid=32a25e8b-a205-41b2-b442-24791b294e16"},"vehicle_type_id":"4","last_reported":1707239177,"current_range_meters":8000,"station_id":"ce4bguh2rcd13ifvqcj0","pricing_plan_id":"free"},{"bike_id":"4505dd3b-e70e-4db9-b95e-a6d146ab3434","system_id":"levelo_inurba_marseille","lat":43.319979,"lon":5.381401,"is_reserved":false,"is_disabled":false,"rental_uris":{"android":"levelo://app?vid=4505dd3b-e70e-4db9-b95e-a6d146ab3434","ios":"levelo://app?vid=4505dd3b-e70e-4db9-b95e-a6d146ab3434"},"vehicle_type_id":"4","last_reported":1707239177,"current_range_meters":14800,"station_id":"ce4bhr12rcd13ifvqhpg","pricing_plan_id":"free"},{"bike_id":"12ce1b51-e513-48d4-8826-d38689553faa","system_id":"levelo_inurba_marseille","lat":43.319947,"lon":5.381453,"is_reserved":false,"is_disabled":false,"rental_uris":{"android":"levelo://app?vid=12ce1b51-e513-48d4-8826-d38689553faa","ios":"levelo://app?vid=12ce1b51-e513-48d4-8826-d38689553faa"},"vehicle_type_id":"4","last_reported":1707239177,"current_range_meters":26400,"station_id":"ce4bhr12rcd13ifvqhpg","pricing_plan_id":"free"},{"bike_id":"cd1697dc-c996-412f-9980-2785b058e155","system_id":"levelo_inurba_marseille","lat":43.32,"lon":5.38145,"is_reserved":false,"is_disabled":false,"rental_uris":{"android":"levelo://app?vid=cd1697dc-c996-412f-9980-2785b058e155","ios":"levelo://app?vid=cd1697dc-c996-412f-9980-2785b058e155"},"vehicle_type_id":"4","last_reported":1707239177,"current_range_meters":18000,"station_id":"ce4bhr12rcd13ifvqhpg","pricing_plan_id":"free"},{"bike_id":"ccf2a241-3d64-4fde-891f-1d3d7e7db1c1","system_id":"levelo_inurba_marseille","lat":43.31992,"lon":5.38153,"is_reserved":false,"is_disabled":false,"rental_uris":{"android":"levelo://app?vid=ccf2a241-3d64-4fde-891f-1d3d7e7db1c1","ios":"levelo://app?vid=ccf2a241-3d64-4fde-891f-1d3d7e7db1c1"},"vehicle_type_id":"4","last_reported":1707239177,"current_range_meters":26800,"station_id":"ce4bhr12rcd13ifvqhpg","pricing_plan_id":"free"},{"bike_id":"0abbaad6-12a6-4f04-8257-739b9ff8f24b","system_id":"levelo_inurba_marseille","lat":43.31992,"lon":5.38155,"is_reserved":false,"is_disabled":false,"rental_uris":{"android":"levelo://app?vid=0abbaad6-12a6-4f04-8257-739b9ff8f24b","ios":"levelo://app?vid=0abbaad6-12a6-4f04-8257-739b9ff8f24b"},"vehicle_type_id":"4","last_reported":1707239177,"current_range_meters":10000,"station_id":"ce4bhr12rcd13ifvqhpg","pricing_plan_id":"free"},{"bike_id":"89373bdc-af7f-426e-9a37-03929319bb1f","system_id":"levelo_inurba_marseille","lat":43.299222,"lon":5.365554,"is_reserved":false,"is_disabled":false,"rental_uris":{"android":"levelo://app?vid=89373bdc-af7f-426e-9a37-03929319bb1f","ios":"levelo://app?vid=89373bdc-af7f-426e-9a37-03929319bb1f"},"vehicle_type_id":"4","last_reported":1707239177,"current_range_meters":16400,"station_id":"ce4bgm92rcd13ifvqbr0","pricing_plan_id":"free"},{"bike_id":"6f91a601-1741-4d57-9f29-9bfccb99b03c","system_id":"levelo_inurba_marseille","lat":43.2994,"lon":5.36533,"is_reserved":false,"is_disabled":false,"rental_uris":{"android":"levelo://app?vid=6f91a601-1741-4d57-9f29-9bfccb99b03c","ios":"levelo://app?vid=6f91a601-1741-4d57-9f29-9bfccb99b03c"},"vehicle_type_id":"4","last_reported":1707239177,"current_range_meters":28800,"station_id":"ce4bgm92rcd13ifvqbr0","pricing_plan_id":"free"},{"bike_id":"7f087b21-b1b5-449e-8b5a-87d77b2e42ce","system_id":"levelo_inurba_marseille","lat":43.29935,"lon":5.36557,"is_reserved":false,"is_disabled":false,"rental_uris":{"android":"levelo://app?vid=7f087b21-b1b5-449e-8b5a-87d77b2e42ce","ios":"levelo://app?vid=7f087b21-b1b5-449e-8b5a-87d77b2e42ce"},"vehicle_type_id":"4","last_reported":1707239177,"current_range_meters":5200,"station_id":"ce4bgm92rcd13ifvqbr0","pricing_plan_id":"free"},{"bike_id":"c379ad35-c1da-46b3-b9b9-1c829c9097ec","system_id":"levelo_inurba_marseille","lat":43.299356,"lon":5.365354,"is_reserved":false,"is_disabled":false,"rental_uris":{"android":"levelo://app?vid=c379ad35-c1da-46b3-b9b9-1c829c9097ec","ios":"levelo://app?vid=c379ad35-c1da-46b3-b9b9-1c829c9097ec"},"vehicle_type_id":"4","last_reported":1707239177,"current_range_meters":31200,"station_id":"ce4bgm92rcd13ifvqbr0","pricing_plan_id":"free"},{"bike_id":"a542678a-dc09-4ebc-8712-97052a754adf","system_id":"levelo_inurba_marseille","lat":43.299724,"lon":5.371829,"is_reserved":false,"is_disabled":false,"rental_uris":{"android":"levelo://app?vid=a542678a-dc09-4ebc-8712-97052a754adf","ios":"levelo://app?vid=a542678a-dc09-4ebc-8712-97052a754adf"},"vehicle_type_id":"4","last_reported":1707239177,"current_range_meters":26000,"station_id":"ce4bgr92rcd13ifvqc7g","pricing_plan_id":"free"},{"bike_id":"5729615c-593c-4a7e-aaec-eb43e1f008bf","system_id":"levelo_inurba_marseille","lat":43.299222,"lon":5.365554,"is_reserved":false,"is_disabled":false,"rental_uris":{"android":"levelo://app?vid=5729615c-593c-4a7e-aaec-eb43e1f008bf","ios":"levelo://app?vid=5729615c-593c-4a7e-aaec-eb43e1f008bf"},"vehicle_type_id":"4","last_reported":1707239177,"current_range_meters":31200,"station_id":"ce4bgm92rcd13ifvqbr0","pricing_plan_id":"free"},{"bike_id":"9055fe6a-e61c-46f2-9988-44cbed59ec40","system_id":"levelo_inurba_marseille","lat":43.299222,"lon":5.365554,"is_reserved":false,"is_disabled":false,"rental_uris":{"android":"levelo://app?vid=9055fe6a-e61c-46f2-9988-44cbed59ec40","ios":"levelo://app?vid=9055fe6a-e61c-46f2-9988-44cbed59ec40"},"vehicle_type_id":"4","last_reported":1707239177,"current_range_meters":12800,"station_id":"ce4bgm92rcd13ifvqbr0","pricing_plan_id":"free"},{"bike_id":"acad63c5-b88b-47c9-b059-19bc0cdb07d9","system_id":"levelo_inurba_marseille","lat":43.299222,"lon":5.365554,"is_reserved":false,"is_disabled":false,"rental_uris":{"android":"levelo://app?vid=acad63c5-b88b-47c9-b059-19bc0cdb07d9","ios":"levelo://app?vid=acad63c5-b88b-47c9-b059-19bc0cdb07d9"},"vehicle_type_id":"4","last_reported":1707239177,"current_range_meters":22400,"station_id":"ce4bgm92rcd13ifvqbr0","pricing_plan_id":"free"},{"bike_id":"da27f4cc-2f2d-4264-be20-6bec4eb38142","system_id":"levelo_inurba_marseille","lat":43.299222,"lon":5.365554,"is_reserved":false,"is_disabled":false,"rental_uris":{"android":"levelo://app?vid=da27f4cc-2f2d-4264-be20-6bec4eb38142","ios":"levelo://app?vid=da27f4cc-2f2d-4264-be20-6bec4eb38142"},"vehicle_type_id":"4","last_reported":1707239177,"current_range_meters":26800,"station_id":"ce4bgm92rcd13ifvqbr0","pricing_plan_id":"free"},{"bike_id":"753825af-628d-459c-8e80-fd60c81d0411","system_id":"levelo_inurba_marseille","lat":43.299222,"lon":5.365554,"is_reserved":false,"is_disabled":false,"rental_uris":{"android":"levelo://app?vid=753825af-628d-459c-8e80-fd60c81d0411","ios":"levelo://app?vid=753825af-628d-459c-8e80-fd60c81d0411"},"vehicle_type_id":"4","last_reported":1707239177,"current_range_meters":18800,"station_id":"ce4bgm92rcd13ifvqbr0","pricing_plan_id":"free"},{"bike_id":"d76a4d63-847f-4dbf-8f32-cc07d6cc7ef5","system_id":"levelo_inurba_marseille","lat":43.299209,"lon":5.365547,"is_reserved":false,"is_disabled":false,"rental_uris":{"android":"levelo://app?vid=d76a4d63-847f-4dbf-8f32-cc07d6cc7ef5","ios":"levelo://app?vid=d76a4d63-847f-4dbf-8f32-cc07d6cc7ef5"},"vehicle_type_id":"4","last_reported":1707239177,"current_range_meters":30800,"station_id":"ce4bgm92rcd13ifvqbr0","pricing_plan_id":"free"},{"bike_id":"552722a4-8508-47d3-8978-3dd9257437a7","system_id":"levelo_inurba_marseille","lat":43.299209,"lon":5.365547,"is_reserved":false,"is_disabled":false,"rental_uris":{"android":"levelo://app?vid=552722a4-8508-47d3-8978-3dd9257437a7","ios":"levelo://app?vid=552722a4-8508-47d3-8978-3dd9257437a7"},"vehicle_type_id":"4","last_reported":1707239177,"current_range_meters":12400,"station_id":"ce4bgm92rcd13ifvqbr0","pricing_plan_id":"free"},{"bike_id":"d73908e2-2bfd-489b-804e-d4e95fac72d2","system_id":"levelo_inurba_marseille","lat":43.326525,"lon":5.36078,"is_reserved":false,"is_disabled":false,"rental_uris":{"android":"levelo://app?vid=d73908e2-2bfd-489b-804e-d4e95fac72d2","ios":"levelo://app?vid=d73908e2-2bfd-489b-804e-d4e95fac72d2"},"vehicle_type_id":"4","last_reported":1707239177,"current_range_meters":14000,"station_id":"","pricing_plan_id":"free"},{"bike_id":"ef38826b-46bb-4670-99d3-c4e5922dd33c","system_id":"levelo_inurba_marseille","lat":43.298414,"lon":5.363906,"is_reserved":false,"is_disabled":false,"rental_uris":{"android":"levelo://app?vid=ef38826b-46bb-4670-99d3-c4e5922dd33c","ios":"levelo://app?vid=ef38826b-46bb-4670-99d3-c4e5922dd33c"},"vehicle_type_id":"4","last_reported":1707239177,"current_range_meters":2800,"station_id":"ce4bgm92rcd13ifvqbr0","pricing_plan_id":"free"},{"bike_id":"0265c808-b776-488a-8735-a9b895cca2ee","system_id":"levelo_inurba_marseille","lat":43.305364,"lon":5.384119,"is_reserved":false,"is_disabled":false,"rental_uris":{"android":"levelo://app?vid=0265c808-b776-488a-8735-a9b895cca2ee","ios":"levelo://app?vid=0265c808-b776-488a-8735-a9b895cca2ee"},"vehicle_type_id":"4","last_reported":1707239177,"current_range_meters":19200,"station_id":"ce4bgg92rcd13ifvqb30","pricing_plan_id":"free"},{"bike_id":"79df76c7-18c2-42e8-ac7f-15e9f6934d32","system_id":"levelo_inurba_marseille","lat":43.305364,"lon":5.384119,"is_reserved":false,"is_disabled":false,"rental_uris":{"android":"levelo://app?vid=79df76c7-18c2-42e8-ac7f-15e9f6934d32","ios":"levelo://app?vid=79df76c7-18c2-42e8-ac7f-15e9f6934d32"},"vehicle_type_id":"4","last_reported":1707239177,"current_range_meters":18000,"station_id":"ce4bgg92rcd13ifvqb30","pricing_plan_id":"free"},{"bike_id":"1f3a7bc3-7ca8-4a13-a4bf-c2204b3f7fc2","system_id":"levelo_inurba_marseille","lat":43.305364,"lon":5.384119,"is_reserved":false,"is_disabled":false,"rental_uris":{"android":"levelo://app?vid=1f3a7bc3-7ca8-4a13-a4bf-c2204b3f7fc2","ios":"levelo://app?vid=1f3a7bc3-7ca8-4a13-a4bf-c2204b3f7fc2"},"vehicle_type_id":"4","last_reported":1707239177,"current_range_meters":22000,"station_id":"ce4bgg92rcd13ifvqb30","pricing_plan_id":"free"},{"bike_id":"69429423-ef12-4bda-980b-cb1d4f65b77a","system_id":"levelo_inurba_marseille","lat":43.299243,"lon":5.374807,"is_reserved":false,"is_disabled":false,"rental_uris":{"android":"levelo://app?vid=69429423-ef12-4bda-980b-cb1d4f65b77a","ios":"levelo://app?vid=69429423-ef12-4bda-980b-cb1d4f65b77a"},"vehicle_type_id":"4","last_reported":1707239177,"current_range_meters":27200,"station_id":"ce4bgjh2rcd13ifvqbg0","pricing_plan_id":"free"},{"bike_id":"dc5cd663-2e29-49de-8d24-4d0f1fc871e6","system_id":"levelo_inurba_marseille","lat":43.299243,"lon":5.37481,"is_reserved":false,"is_disabled":false,"rental_uris":{"android":"levelo://app?vid=dc5cd663-2e29-49de-8d24-4d0f1fc871e6","ios":"levelo://app?vid=dc5cd663-2e29-49de-8d24-4d0f1fc871e6"},"vehicle_type_id":"4","last_reported":1707239177,"current_range_meters":14800,"station_id":"ce4bgjh2rcd13ifvqbg0","pricing_plan_id":"free"},{"bike_id":"8d5c2c8f-74cc-4b77-bc43-378c06a8b259","system_id":"levelo_inurba_marseille","lat":43.299243,"lon":5.37481,"is_reserved":false,"is_disabled":false,"rental_uris":{"android":"levelo://app?vid=8d5c2c8f-74cc-4b77-bc43-378c06a8b259","ios":"levelo://app?vid=8d5c2c8f-74cc-4b77-bc43-378c06a8b259"},"vehicle_type_id":"4","last_reported":1707239177,"current_range_meters":7200,"station_id":"ce4bgjh2rcd13ifvqbg0","pricing_plan_id":"free"},{"bike_id":"db3f7ba5-0e6c-48de-b038-3fa80507cf36","system_id":"levelo_inurba_marseille","lat":43.299243,"lon":5.37481,"is_reserved":false,"is_disabled":false,"rental_uris":{"android":"levelo://app?vid=db3f7ba5-0e6c-48de-b038-3fa80507cf36","ios":"levelo://app?vid=db3f7ba5-0e6c-48de-b038-3fa80507cf36"},"vehicle_type_id":"4","last_reported":1707239177,"current_range_meters":12400,"station_id":"ce4bgjh2rcd13ifvqbg0","pricing_plan_id":"free"},{"bike_id":"068825c3-0e30-4039-9991-0f25d2c61d15","system_id":"levelo_inurba_marseille","lat":43.32788,"lon":5.36684,"is_reserved":false,"is_disabled":false,"rental_uris":{"android":"levelo://app?vid=068825c3-0e30-4039-9991-0f25d2c61d15","ios":"levelo://app?vid=068825c3-0e30-4039-9991-0f25d2c61d15"},"vehicle_type_id":"4","last_reported":1707239177,"current_range_meters":16000,"station_id":"","pricing_plan_id":"free"},{"bike_id":"149b0ae8-4444-4b80-b376-798c5760399e","system_id":"levelo_inurba_marseille","lat":43.322872,"lon":5.382756,"is_reserved":false,"is_disabled":false,"rental_uris":{"android":"levelo://app?vid=149b0ae8-4444-4b80-b376-798c5760399e","ios":"levelo://app?vid=149b0ae8-4444-4b80-b376-798c5760399e"},"vehicle_type_id":"4","last_reported":1707239177,"current_range_meters":14400,"station_id":"ce4bhr12rcd13ifvqhqg","pricing_plan_id":"free"},{"bike_id":"f05ba268-8024-4397-b67e-d5d6848bf3c7","system_id":"levelo_inurba_marseille","lat":43.322872,"lon":5.382756,"is_reserved":false,"is_disabled":false,"rental_uris":{"android":"levelo://app?vid=f05ba268-8024-4397-b67e-d5d6848bf3c7","ios":"levelo://app?vid=f05ba268-8024-4397-b67e-d5d6848bf3c7"},"vehicle_type_id":"4","last_reported":1707239177,"current_range_meters":4400,"station_id":"ce4bhr12rcd13ifvqhqg","pricing_plan_id":"free"},{"bike_id":"aeda78ec-de39-407e-8a5b-89262fd5c123","system_id":"levelo_inurba_marseille","lat":43.322872,"lon":5.382756,"is_reserved":false,"is_disabled":false,"rental_uris":{"android":"levelo://app?vid=aeda78ec-de39-407e-8a5b-89262fd5c123","ios":"levelo://app?vid=aeda78ec-de39-407e-8a5b-89262fd5c123"},"vehicle_type_id":"4","last_reported":1707239177,"current_range_meters":30000,"station_id":"ce4bhr12rcd13ifvqhqg","pricing_plan_id":"free"},{"bike_id":"2e7d1277-a3ec-4c37-831b-c0b641935959","system_id":"levelo_inurba_marseille","lat":43.32817,"lon":5.36694,"is_reserved":false,"is_disabled":false,"rental_uris":{"android":"levelo://app?vid=2e7d1277-a3ec-4c37-831b-c0b641935959","ios":"levelo://app?vid=2e7d1277-a3ec-4c37-831b-c0b641935959"},"vehicle_type_id":"4","last_reported":1707239177,"current_range_meters":12000,"station_id":"ce4bhs92rcd13ifvqi0g","pricing_plan_id":"free"},{"bike_id":"1900e2ea-9239-49b1-933e-57903fa99707","system_id":"levelo_inurba_marseille","lat":43.32826,"lon":5.36695,"is_reserved":false,"is_disabled":false,"rental_uris":{"android":"levelo://app?vid=1900e2ea-9239-49b1-933e-57903fa99707","ios":"levelo://app?vid=1900e2ea-9239-49b1-933e-57903fa99707"},"vehicle_type_id":"4","last_reported":1707239177,"current_range_meters":2800,"station_id":"ce4bhs92rcd13ifvqi0g","pricing_plan_id":"free"},{"bike_id":"36243836-0b62-45d5-b00e-078a5c9e3add","system_id":"levelo_inurba_marseille","lat":43.32826,"lon":5.36688,"is_reserved":false,"is_disabled":false,"rental_uris":{"android":"levelo://app?vid=36243836-0b62-45d5-b00e-078a5c9e3add","ios":"levelo://app?vid=36243836-0b62-45d5-b00e-078a5c9e3add"},"vehicle_type_id":"4","last_reported":1707239177,"current_range_meters":5600,"station_id":"ce4bhs92rcd13ifvqi0g","pricing_plan_id":"free"},{"bike_id":"752b438a-8c6c-4573-b771-477e2c6e9126","system_id":"levelo_inurba_marseille","lat":43.32826,"lon":5.3668,"is_reserved":false,"is_disabled":false,"rental_uris":{"android":"levelo://app?vid=752b438a-8c6c-4573-b771-477e2c6e9126","ios":"levelo://app?vid=752b438a-8c6c-4573-b771-477e2c6e9126"},"vehicle_type_id":"4","last_reported":1707239177,"current_range_meters":20400,"station_id":"ce4bhs92rcd13ifvqi0g","pricing_plan_id":"free"},{"bike_id":"edc20a40-193c-4187-8cea-08e6765f7c9c","system_id":"levelo_inurba_marseille","lat":43.32827,"lon":5.36691,"is_reserved":false,"is_disabled":false,"rental_uris":{"android":"levelo://app?vid=edc20a40-193c-4187-8cea-08e6765f7c9c","ios":"levelo://app?vid=edc20a40-193c-4187-8cea-08e6765f7c9c"},"vehicle_type_id":"4","last_reported":1707239177,"current_range_meters":16000,"station_id":"ce4bhs92rcd13ifvqi0g","pricing_plan_id":"free"},{"bike_id":"5c57f415-95d6-428c-9dfc-4fb51ef0c85b","system_id":"levelo_inurba_marseille","lat":43.32827,"lon":5.36695,"is_reserved":false,"is_disabled":false,"rental_uris":{"android":"levelo://app?vid=5c57f415-95d6-428c-9dfc-4fb51ef0c85b","ios":"levelo://app?vid=5c57f415-95d6-428c-9dfc-4fb51ef0c85b"},"vehicle_type_id":"4","last_reported":1707239177,"current_range_meters":19200,"station_id":"ce4bhs92rcd13ifvqi0g","pricing_plan_id":"free"},{"bike_id":"49e3c8fc-1b75-4306-b0dc-50287a8af880","system_id":"levelo_inurba_marseille","lat":43.328278,"lon":5.36682,"is_reserved":false,"is_disabled":false,"rental_uris":{"android":"levelo://app?vid=49e3c8fc-1b75-4306-b0dc-50287a8af880","ios":"levelo://app?vid=49e3c8fc-1b75-4306-b0dc-50287a8af880"},"vehicle_type_id":"4","last_reported":1707239177,"current_range_meters":18400,"station_id":"ce4bhs92rcd13ifvqi0g","pricing_plan_id":"free"},{"bike_id":"a7f79efb-1544-4a9c-90b1-63c97e52bce2","system_id":"levelo_inurba_marseille","lat":43.328294,"lon":5.36689,"is_reserved":false,"is_disabled":false,"rental_uris":{"android":"levelo://app?vid=a7f79efb-1544-4a9c-90b1-63c97e52bce2","ios":"levelo://app?vid=a7f79efb-1544-4a9c-90b1-63c97e52bce2"},"vehicle_type_id":"4","last_reported":1707239177,"current_range_meters":10800,"station_id":"ce4bhs92rcd13ifvqi0g","pricing_plan_id":"free"},{"bike_id":"6cd6b889-8d57-4573-b2a2-aa0a2c9636a8","system_id":"levelo_inurba_marseille","lat":43.3283,"lon":5.36684,"is_reserved":false,"is_disabled":false,"rental_uris":{"android":"levelo://app?vid=6cd6b889-8d57-4573-b2a2-aa0a2c9636a8","ios":"levelo://app?vid=6cd6b889-8d57-4573-b2a2-aa0a2c9636a8"},"vehicle_type_id":"4","last_reported":1707239177,"current_range_meters":1200,"station_id":"ce4bhs92rcd13ifvqi0g","pricing_plan_id":"free"},{"bike_id":"6a5b4a9f-7323-472e-b759-8dae709cba6c","system_id":"levelo_inurba_marseille","lat":43.3283,"lon":5.36674,"is_reserved":false,"is_disabled":false,"rental_uris":{"android":"levelo://app?vid=6a5b4a9f-7323-472e-b759-8dae709cba6c","ios":"levelo://app?vid=6a5b4a9f-7323-472e-b759-8dae709cba6c"},"vehicle_type_id":"4","last_reported":1707239177,"current_range_meters":14800,"station_id":"ce4bhs92rcd13ifvqi0g","pricing_plan_id":"free"},{"bike_id":"46ffd311-8d24-4a9c-a424-d0bccfd813b8","system_id":"levelo_inurba_marseille","lat":43.328331,"lon":5.366876,"is_reserved":false,"is_disabled":false,"rental_uris":{"android":"levelo://app?vid=46ffd311-8d24-4a9c-a424-d0bccfd813b8","ios":"levelo://app?vid=46ffd311-8d24-4a9c-a424-d0bccfd813b8"},"vehicle_type_id":"4","last_reported":1707239177,"current_range_meters":4800,"station_id":"ce4bhs92rcd13ifvqi0g","pricing_plan_id":"free"},{"bike_id":"62aabb2b-c9f9-48ea-a3a4-e4eb79305b81","system_id":"levelo_inurba_marseille","lat":43.328371,"lon":5.366909,"is_reserved":false,"is_disabled":false,"rental_uris":{"android":"levelo://app?vid=62aabb2b-c9f9-48ea-a3a4-e4eb79305b81","ios":"levelo://app?vid=62aabb2b-c9f9-48ea-a3a4-e4eb79305b81"},"vehicle_type_id":"4","last_reported":1707239177,"current_range_meters":4000,"station_id":"ce4bhs92rcd13ifvqi0g","pricing_plan_id":"free"},{"bike_id":"50acd61a-6ba9-4cce-a6d0-607457103116","system_id":"levelo_inurba_marseille","lat":43.297163,"lon":5.365866,"is_reserved":false,"is_disabled":false,"rental_uris":{"android":"levelo://app?vid=50acd61a-6ba9-4cce-a6d0-607457103116","ios":"levelo://app?vid=50acd61a-6ba9-4cce-a6d0-607457103116"},"vehicle_type_id":"4","last_reported":1707239177,"current_range_meters":9200,"station_id":"ce4bgn12rcd13ifvqbt0","pricing_plan_id":"free"},{"bike_id":"293f759f-7817-4461-bcdd-671c90aab462","system_id":"levelo_inurba_marseille","lat":43.297163,"lon":5.365866,"is_reserved":false,"is_disabled":false,"rental_uris":{"android":"levelo://app?vid=293f759f-7817-4461-bcdd-671c90aab462","ios":"levelo://app?vid=293f759f-7817-4461-bcdd-671c90aab462"},"vehicle_type_id":"4","last_reported":1707239177,"current_range_meters":20400,"station_id":"ce4bgn12rcd13ifvqbt0","pricing_plan_id":"free"},{"bike_id":"dc6e27fa-5a0d-4158-bdd0-de6f45e648eb","system_id":"levelo_inurba_marseille","lat":43.297163,"lon":5.365866,"is_reserved":false,"is_disabled":false,"rental_uris":{"android":"levelo://app?vid=dc6e27fa-5a0d-4158-bdd0-de6f45e648eb","ios":"levelo://app?vid=dc6e27fa-5a0d-4158-bdd0-de6f45e648eb"},"vehicle_type_id":"4","last_reported":1707239177,"current_range_meters":11200,"station_id":"ce4bgn12rcd13ifvqbt0","pricing_plan_id":"free"},{"bike_id":"bfac8f3b-aa80-4245-9148-1d01e32edcea","system_id":"levelo_inurba_marseille","lat":43.297163,"lon":5.365866,"is_reserved":false,"is_disabled":false,"rental_uris":{"android":"levelo://app?vid=bfac8f3b-aa80-4245-9148-1d01e32edcea","ios":"levelo://app?vid=bfac8f3b-aa80-4245-9148-1d01e32edcea"},"vehicle_type_id":"4","last_reported":1707239177,"current_range_meters":3600,"station_id":"ce4bgn12rcd13ifvqbt0","pricing_plan_id":"free"},{"bike_id":"d7d05e32-08a2-4131-b210-489d9a19a848","system_id":"levelo_inurba_marseille","lat":43.297163,"lon":5.365866,"is_reserved":false,"is_disabled":false,"rental_uris":{"android":"levelo://app?vid=d7d05e32-08a2-4131-b210-489d9a19a848","ios":"levelo://app?vid=d7d05e32-08a2-4131-b210-489d9a19a848"},"vehicle_type_id":"4","last_reported":1707239177,"current_range_meters":8000,"station_id":"ce4bgn12rcd13ifvqbt0","pricing_plan_id":"free"},{"bike_id":"d594e267-020c-4ca9-8abd-28f00eb7ecb8","system_id":"levelo_inurba_marseille","lat":43.302008,"lon":5.394694,"is_reserved":false,"is_disabled":false,"rental_uris":{"android":"levelo://app?vid=d594e267-020c-4ca9-8abd-28f00eb7ecb8","ios":"levelo://app?vid=d594e267-020c-4ca9-8abd-28f00eb7ecb8"},"vehicle_type_id":"4","last_reported":1707239177,"current_range_meters":0,"station_id":"ce4bh0p2rcd13ifvqd70","pricing_plan_id":"free"},{"bike_id":"48816703-7626-4dad-92e4-db0825615565","system_id":"levelo_inurba_marseille","lat":43.2968,"lon":5.37291,"is_reserved":false,"is_disabled":false,"rental_uris":{"android":"levelo://app?vid=48816703-7626-4dad-92e4-db0825615565","ios":"levelo://app?vid=48816703-7626-4dad-92e4-db0825615565"},"vehicle_type_id":"4","last_reported":1707239177,"current_range_meters":14000,"station_id":"ce4bgk12rcd13ifvqbj0","pricing_plan_id":"free"},{"bike_id":"40c73a28-e598-45fb-a436-19fe4927eb4a","system_id":"levelo_inurba_marseille","lat":43.296131,"lon":5.370791,"is_reserved":false,"is_disabled":false,"rental_uris":{"android":"levelo://app?vid=40c73a28-e598-45fb-a436-19fe4927eb4a","ios":"levelo://app?vid=40c73a28-e598-45fb-a436-19fe4927eb4a"},"vehicle_type_id":"4","last_reported":1707239177,"current_range_meters":20800,"station_id":"ce4bgnh2rcd13ifvqc0g","pricing_plan_id":"free"},{"bike_id":"0f60d709-e6e5-4069-a87b-9c40b3301715","system_id":"levelo_inurba_marseille","lat":43.29621,"lon":5.3716,"is_reserved":false,"is_disabled":false,"rental_uris":{"android":"levelo://app?vid=0f60d709-e6e5-4069-a87b-9c40b3301715","ios":"levelo://app?vid=0f60d709-e6e5-4069-a87b-9c40b3301715"},"vehicle_type_id":"4","last_reported":1707239177,"current_range_meters":29600,"station_id":"ce4bgnh2rcd13ifvqc0g","pricing_plan_id":"free"},{"bike_id":"45fe4aef-e808-4e96-9230-689607796695","system_id":"levelo_inurba_marseille","lat":43.29573,"lon":5.367355,"is_reserved":false,"is_disabled":false,"rental_uris":{"android":"levelo://app?vid=45fe4aef-e808-4e96-9230-689607796695","ios":"levelo://app?vid=45fe4aef-e808-4e96-9230-689607796695"},"vehicle_type_id":"4","last_reported":1707239177,"current_range_meters":18400,"station_id":"ce4bgph2rcd13ifvqc2g","pricing_plan_id":"free"},{"bike_id":"782ae83a-d20b-4bda-a7f1-1c7c1f907dbd","system_id":"levelo_inurba_marseille","lat":43.296209,"lon":5.371699,"is_reserved":false,"is_disabled":false,"rental_uris":{"android":"levelo://app?vid=782ae83a-d20b-4bda-a7f1-1c7c1f907dbd","ios":"levelo://app?vid=782ae83a-d20b-4bda-a7f1-1c7c1f907dbd"},"vehicle_type_id":"4","last_reported":1707239177,"current_range_meters":24400,"station_id":"ce4bgnh2rcd13ifvqc0g","pricing_plan_id":"free"},{"bike_id":"23bbc09f-089f-4b84-8528-28353ebe35ff","system_id":"levelo_inurba_marseille","lat":43.296131,"lon":5.370773,"is_reserved":false,"is_disabled":false,"rental_uris":{"android":"levelo://app?vid=23bbc09f-089f-4b84-8528-28353ebe35ff","ios":"levelo://app?vid=23bbc09f-089f-4b84-8528-28353ebe35ff"},"vehicle_type_id":"4","last_reported":1707239177,"current_range_meters":4000,"station_id":"ce4bgnh2rcd13ifvqc0g","pricing_plan_id":"free"},{"bike_id":"58e0dbe1-9044-4055-b176-4ad97bc03922","system_id":"levelo_inurba_marseille","lat":43.29617,"lon":5.37157,"is_reserved":false,"is_disabled":false,"rental_uris":{"android":"levelo://app?vid=58e0dbe1-9044-4055-b176-4ad97bc03922","ios":"levelo://app?vid=58e0dbe1-9044-4055-b176-4ad97bc03922"},"vehicle_type_id":"4","last_reported":1707239177,"current_range_meters":8400,"station_id":"ce4bgnh2rcd13ifvqc0g","pricing_plan_id":"free"},{"bike_id":"85523f35-77d4-4b9d-98aa-ae22928c7a29","system_id":"levelo_inurba_marseille","lat":43.296131,"lon":5.370773,"is_reserved":false,"is_disabled":false,"rental_uris":{"android":"levelo://app?vid=85523f35-77d4-4b9d-98aa-ae22928c7a29","ios":"levelo://app?vid=85523f35-77d4-4b9d-98aa-ae22928c7a29"},"vehicle_type_id":"4","last_reported":1707239177,"current_range_meters":19200,"station_id":"ce4bgnh2rcd13ifvqc0g","pricing_plan_id":"free"},{"bike_id":"7b44600c-9496-4327-81df-ec1ebacfc0ce","system_id":"levelo_inurba_marseille","lat":43.29573,"lon":5.367355,"is_reserved":false,"is_disabled":false,"rental_uris":{"android":"levelo://app?vid=7b44600c-9496-4327-81df-ec1ebacfc0ce","ios":"levelo://app?vid=7b44600c-9496-4327-81df-ec1ebacfc0ce"},"vehicle_type_id":"4","last_reported":1707239177,"current_range_meters":31200,"station_id":"ce4bgph2rcd13ifvqc2g","pricing_plan_id":"free"},{"bike_id":"744f01aa-edcf-419a-b20f-0c98f48142cd","system_id":"levelo_inurba_marseille","lat":43.29573,"lon":5.367355,"is_reserved":false,"is_disabled":false,"rental_uris":{"android":"levelo://app?vid=744f01aa-edcf-419a-b20f-0c98f48142cd","ios":"levelo://app?vid=744f01aa-edcf-419a-b20f-0c98f48142cd"},"vehicle_type_id":"4","last_reported":1707239177,"current_range_meters":10800,"station_id":"ce4bgph2rcd13ifvqc2g","pricing_plan_id":"free"},{"bike_id":"71e8cd6e-e663-4286-bdf6-0694d4e9ca64","system_id":"levelo_inurba_marseille","lat":43.29573,"lon":5.367355,"is_reserved":false,"is_disabled":false,"rental_uris":{"android":"levelo://app?vid=71e8cd6e-e663-4286-bdf6-0694d4e9ca64","ios":"levelo://app?vid=71e8cd6e-e663-4286-bdf6-0694d4e9ca64"},"vehicle_type_id":"4","last_reported":1707239177,"current_range_meters":31200,"station_id":"ce4bgph2rcd13ifvqc2g","pricing_plan_id":"free"},{"bike_id":"689dec88-d0ef-4b53-a679-eca0b5ab83eb","system_id":"levelo_inurba_marseille","lat":43.29573,"lon":5.367355,"is_reserved":false,"is_disabled":false,"rental_uris":{"android":"levelo://app?vid=689dec88-d0ef-4b53-a679-eca0b5ab83eb","ios":"levelo://app?vid=689dec88-d0ef-4b53-a679-eca0b5ab83eb"},"vehicle_type_id":"4","last_reported":1707239177,"current_range_meters":16000,"station_id":"ce4bgph2rcd13ifvqc2g","pricing_plan_id":"free"},{"bike_id":"bda4cd1e-c62c-4b31-b716-a95d0ed05b3b","system_id":"levelo_inurba_marseille","lat":43.29573,"lon":5.367355,"is_reserved":false,"is_disabled":false,"rental_uris":{"android":"levelo://app?vid=bda4cd1e-c62c-4b31-b716-a95d0ed05b3b","ios":"levelo://app?vid=bda4cd1e-c62c-4b31-b716-a95d0ed05b3b"},"vehicle_type_id":"4","last_reported":1707239177,"current_range_meters":6400,"station_id":"ce4bgph2rcd13ifvqc2g","pricing_plan_id":"free"},{"bike_id":"f225f8b5-f625-4923-8a5d-71ad60bcc162","system_id":"levelo_inurba_marseille","lat":43.29573,"lon":5.367355,"is_reserved":false,"is_disabled":false,"rental_uris":{"android":"levelo://app?vid=f225f8b5-f625-4923-8a5d-71ad60bcc162","ios":"levelo://app?vid=f225f8b5-f625-4923-8a5d-71ad60bcc162"},"vehicle_type_id":"4","last_reported":1707239177,"current_range_meters":22800,"station_id":"ce4bgph2rcd13ifvqc2g","pricing_plan_id":"free"},{"bike_id":"bcce6202-f61a-44d8-a4cb-5fb9a5602b42","system_id":"levelo_inurba_marseille","lat":43.299264,"lon":5.38162,"is_reserved":false,"is_disabled":false,"rental_uris":{"android":"levelo://app?vid=bcce6202-f61a-44d8-a4cb-5fb9a5602b42","ios":"levelo://app?vid=bcce6202-f61a-44d8-a4cb-5fb9a5602b42"},"vehicle_type_id":"4","last_reported":1707239177,"current_range_meters":30000,"station_id":"","pricing_plan_id":"free"},{"bike_id":"99191b20-2c0a-42b1-98b4-16cccf430869","system_id":"levelo_inurba_marseille","lat":43.299028,"lon":5.381509,"is_reserved":false,"is_disabled":false,"rental_uris":{"android":"levelo://app?vid=99191b20-2c0a-42b1-98b4-16cccf430869","ios":"levelo://app?vid=99191b20-2c0a-42b1-98b4-16cccf430869"},"vehicle_type_id":"4","last_reported":1707239177,"current_range_meters":0,"station_id":"ce4bgj12rcd13ifvqbc0","pricing_plan_id":"free"},{"bike_id":"d8ecc5d0-ee7f-40e2-8d2d-6f1410f9054c","system_id":"levelo_inurba_marseille","lat":43.299028,"lon":5.381509,"is_reserved":false,"is_disabled":false,"rental_uris":{"android":"levelo://app?vid=d8ecc5d0-ee7f-40e2-8d2d-6f1410f9054c","ios":"levelo://app?vid=d8ecc5d0-ee7f-40e2-8d2d-6f1410f9054c"},"vehicle_type_id":"4","last_reported":1707239177,"current_range_meters":23600,"station_id":"ce4bgj12rcd13ifvqbc0","pricing_plan_id":"free"},{"bike_id":"0e5c613b-265b-4530-977d-97819ef0900a","system_id":"levelo_inurba_marseille","lat":43.29705,"lon":5.37684,"is_reserved":false,"is_disabled":false,"rental_uris":{"android":"levelo://app?vid=0e5c613b-265b-4530-977d-97819ef0900a","ios":"levelo://app?vid=0e5c613b-265b-4530-977d-97819ef0900a"},"vehicle_type_id":"4","last_reported":1707239177,"current_range_meters":400,"station_id":"ce4bgkh2rcd13ifvqbl0","pricing_plan_id":"free"},{"bike_id":"91e8328c-d9d3-44db-bcdb-56a537500afb","system_id":"levelo_inurba_marseille","lat":43.296921,"lon":5.376579,"is_reserved":false,"is_disabled":false,"rental_uris":{"android":"levelo://app?vid=91e8328c-d9d3-44db-bcdb-56a537500afb","ios":"levelo://app?vid=91e8328c-d9d3-44db-bcdb-56a537500afb"},"vehicle_type_id":"4","last_reported":1707239177,"current_range_meters":31200,"station_id":"ce4bgkh2rcd13ifvqbl0","pricing_plan_id":"free"},{"bike_id":"a4748af4-6d67-4e6b-8d30-4faf900454c5","system_id":"levelo_inurba_marseille","lat":43.309589,"lon":5.390258,"is_reserved":false,"is_disabled":false,"rental_uris":{"android":"levelo://app?vid=a4748af4-6d67-4e6b-8d30-4faf900454c5","ios":"levelo://app?vid=a4748af4-6d67-4e6b-8d30-4faf900454c5"},"vehicle_type_id":"4","last_reported":1707239177,"current_range_meters":0,"station_id":"ce4bgup2rcd13ifvqco0","pricing_plan_id":"free"},{"bike_id":"b393e380-9b9a-4239-8934-e30e3f7bac4e","system_id":"levelo_inurba_marseille","lat":43.31734,"lon":5.39012,"is_reserved":false,"is_disabled":false,"rental_uris":{"android":"levelo://app?vid=b393e380-9b9a-4239-8934-e30e3f7bac4e","ios":"levelo://app?vid=b393e380-9b9a-4239-8934-e30e3f7bac4e"},"vehicle_type_id":"4","last_reported":1707239177,"current_range_meters":16000,"station_id":"ce4bhqp2rcd13ifvqhng","pricing_plan_id":"free"},{"bike_id":"cd483cf2-ddf7-4bc2-8846-13c380942b93","system_id":"levelo_inurba_marseille","lat":43.317565,"lon":5.390122,"is_reserved":false,"is_disabled":false,"rental_uris":{"android":"levelo://app?vid=cd483cf2-ddf7-4bc2-8846-13c380942b93","ios":"levelo://app?vid=cd483cf2-ddf7-4bc2-8846-13c380942b93"},"vehicle_type_id":"4","last_reported":1707239177,"current_range_meters":21200,"station_id":"ce4bhqp2rcd13ifvqhng","pricing_plan_id":"free"},{"bike_id":"66357aae-b1d5-4c5d-8e0d-6e6b5408b3e9","system_id":"levelo_inurba_marseille","lat":43.31756,"lon":5.39013,"is_reserved":false,"is_disabled":false,"rental_uris":{"android":"levelo://app?vid=66357aae-b1d5-4c5d-8e0d-6e6b5408b3e9","ios":"levelo://app?vid=66357aae-b1d5-4c5d-8e0d-6e6b5408b3e9"},"vehicle_type_id":"4","last_reported":1707239177,"current_range_meters":18000,"station_id":"ce4bhqp2rcd13ifvqhng","pricing_plan_id":"free"},{"bike_id":"8236458b-34ca-49b5-ab60-c4f12ac61945","system_id":"levelo_inurba_marseille","lat":43.31755,"lon":5.39015,"is_reserved":false,"is_disabled":false,"rental_uris":{"android":"levelo://app?vid=8236458b-34ca-49b5-ab60-c4f12ac61945","ios":"levelo://app?vid=8236458b-34ca-49b5-ab60-c4f12ac61945"},"vehicle_type_id":"4","last_reported":1707239177,"current_range_meters":16400,"station_id":"ce4bhqp2rcd13ifvqhng","pricing_plan_id":"free"},{"bike_id":"3c453d5b-83dd-4499-9d12-a38d59d5c115","system_id":"levelo_inurba_marseille","lat":43.317575,"lon":5.390166,"is_reserved":false,"is_disabled":false,"rental_uris":{"android":"levelo://app?vid=3c453d5b-83dd-4499-9d12-a38d59d5c115","ios":"levelo://app?vid=3c453d5b-83dd-4499-9d12-a38d59d5c115"},"vehicle_type_id":"4","last_reported":1707239177,"current_range_meters":21600,"station_id":"ce4bhqp2rcd13ifvqhng","pricing_plan_id":"free"},{"bike_id":"3ccd3931-8811-4b7f-a846-c32a0a6915a2","system_id":"levelo_inurba_marseille","lat":43.317557,"lon":5.390173,"is_reserved":false,"is_disabled":false,"rental_uris":{"android":"levelo://app?vid=3ccd3931-8811-4b7f-a846-c32a0a6915a2","ios":"levelo://app?vid=3ccd3931-8811-4b7f-a846-c32a0a6915a2"},"vehicle_type_id":"4","last_reported":1707239177,"current_range_meters":26000,"station_id":"ce4bhqp2rcd13ifvqhng","pricing_plan_id":"free"},{"bike_id":"acfb1a76-9d92-4e60-b5a5-bb928051e624","system_id":"levelo_inurba_marseille","lat":43.317557,"lon":5.390173,"is_reserved":false,"is_disabled":false,"rental_uris":{"android":"levelo://app?vid=acfb1a76-9d92-4e60-b5a5-bb928051e624","ios":"levelo://app?vid=acfb1a76-9d92-4e60-b5a5-bb928051e624"},"vehicle_type_id":"4","last_reported":1707239177,"current_range_meters":30400,"station_id":"ce4bhqp2rcd13ifvqhng","pricing_plan_id":"free"},{"bike_id":"cff55c77-7ebe-4284-bc48-2fbd9d0bf89e","system_id":"levelo_inurba_marseille","lat":43.31749,"lon":5.39026,"is_reserved":false,"is_disabled":false,"rental_uris":{"android":"levelo://app?vid=cff55c77-7ebe-4284-bc48-2fbd9d0bf89e","ios":"levelo://app?vid=cff55c77-7ebe-4284-bc48-2fbd9d0bf89e"},"vehicle_type_id":"4","last_reported":1707239177,"current_range_meters":18400,"station_id":"ce4bhqp2rcd13ifvqhng","pricing_plan_id":"free"},{"bike_id":"9268b101-79ac-4bcb-b66b-b3aa5eb7916b","system_id":"levelo_inurba_marseille","lat":43.31753,"lon":5.39026,"is_reserved":false,"is_disabled":false,"rental_uris":{"android":"levelo://app?vid=9268b101-79ac-4bcb-b66b-b3aa5eb7916b","ios":"levelo://app?vid=9268b101-79ac-4bcb-b66b-b3aa5eb7916b"},"vehicle_type_id":"4","last_reported":1707239177,"current_range_meters":18400,"station_id":"ce4bhqp2rcd13ifvqhng","pricing_plan_id":"free"},{"bike_id":"353a8076-fe4e-4941-bf3d-10e08d5bd46a","system_id":"levelo_inurba_marseille","lat":43.31754,"lon":5.39029,"is_reserved":false,"is_disabled":false,"rental_uris":{"android":"levelo://app?vid=353a8076-fe4e-4941-bf3d-10e08d5bd46a","ios":"levelo://app?vid=353a8076-fe4e-4941-bf3d-10e08d5bd46a"},"vehicle_type_id":"4","last_reported":1707239177,"current_range_meters":4000,"station_id":"ce4bhqp2rcd13ifvqhng","pricing_plan_id":"free"},{"bike_id":"b6dd9156-5a0c-4a19-95fa-0f1d45b2c7e6","system_id":"levelo_inurba_marseille","lat":43.29592,"lon":5.375258,"is_reserved":false,"is_disabled":false,"rental_uris":{"android":"levelo://app?vid=b6dd9156-5a0c-4a19-95fa-0f1d45b2c7e6","ios":"levelo://app?vid=b6dd9156-5a0c-4a19-95fa-0f1d45b2c7e6"},"vehicle_type_id":"4","last_reported":1707239177,"current_range_meters":29600,"station_id":"ce4bgh92rcd13ifvqb50","pricing_plan_id":"free"},{"bike_id":"7aef56eb-d693-4292-baae-a62fd37a6730","system_id":"levelo_inurba_marseille","lat":43.29581,"lon":5.37501,"is_reserved":false,"is_disabled":false,"rental_uris":{"android":"levelo://app?vid=7aef56eb-d693-4292-baae-a62fd37a6730","ios":"levelo://app?vid=7aef56eb-d693-4292-baae-a62fd37a6730"},"vehicle_type_id":"4","last_reported":1707239177,"current_range_meters":0,"station_id":"ce4bgh92rcd13ifvqb50","pricing_plan_id":"free"},{"bike_id":"7910c8ba-1fc3-45c0-8115-eaf7eff03c45","system_id":"levelo_inurba_marseille","lat":43.298037,"lon":5.381066,"is_reserved":false,"is_disabled":false,"rental_uris":{"android":"levelo://app?vid=7910c8ba-1fc3-45c0-8115-eaf7eff03c45","ios":"levelo://app?vid=7910c8ba-1fc3-45c0-8115-eaf7eff03c45"},"vehicle_type_id":"4","last_reported":1707239177,"current_range_meters":400,"station_id":"ce4bgip2rcd13ifvqbb0","pricing_plan_id":"free"},{"bike_id":"91088439-24f7-4513-973c-6de3bddcb5d8","system_id":"levelo_inurba_marseille","lat":43.298037,"lon":5.381066,"is_reserved":false,"is_disabled":false,"rental_uris":{"android":"levelo://app?vid=91088439-24f7-4513-973c-6de3bddcb5d8","ios":"levelo://app?vid=91088439-24f7-4513-973c-6de3bddcb5d8"},"vehicle_type_id":"4","last_reported":1707239177,"current_range_meters":10400,"station_id":"ce4bgip2rcd13ifvqbb0","pricing_plan_id":"free"},{"bike_id":"5e9a45b2-1aa2-4bcd-92cf-a1c3272eed74","system_id":"levelo_inurba_marseille","lat":43.298037,"lon":5.381066,"is_reserved":false,"is_disabled":false,"rental_uris":{"android":"levelo://app?vid=5e9a45b2-1aa2-4bcd-92cf-a1c3272eed74","ios":"levelo://app?vid=5e9a45b2-1aa2-4bcd-92cf-a1c3272eed74"},"vehicle_type_id":"4","last_reported":1707239177,"current_range_meters":12400,"station_id":"ce4bgip2rcd13ifvqbb0","pricing_plan_id":"free"},{"bike_id":"a75824e5-730f-4067-b203-161ed810cbe2","system_id":"levelo_inurba_marseille","lat":43.295748,"lon":5.37522,"is_reserved":false,"is_disabled":false,"rental_uris":{"android":"levelo://app?vid=a75824e5-730f-4067-b203-161ed810cbe2","ios":"levelo://app?vid=a75824e5-730f-4067-b203-161ed810cbe2"},"vehicle_type_id":"4","last_reported":1707239177,"current_range_meters":0,"station_id":"ce4bgh92rcd13ifvqb50","pricing_plan_id":"free"},{"bike_id":"67269a4c-4ee2-45d0-96a6-093779a1d5a5","system_id":"levelo_inurba_marseille","lat":43.3043,"lon":5.38893,"is_reserved":false,"is_disabled":false,"rental_uris":{"android":"levelo://app?vid=67269a4c-4ee2-45d0-96a6-093779a1d5a5","ios":"levelo://app?vid=67269a4c-4ee2-45d0-96a6-093779a1d5a5"},"vehicle_type_id":"4","last_reported":1707239177,"current_range_meters":0,"station_id":"ce4bgk12rcd13ifvqbi0","pricing_plan_id":"free"},{"bike_id":"d7220699-70eb-42d7-81e3-66d4b3da6c2b","system_id":"levelo_inurba_marseille","lat":43.304278,"lon":5.388868,"is_reserved":false,"is_disabled":false,"rental_uris":{"android":"levelo://app?vid=d7220699-70eb-42d7-81e3-66d4b3da6c2b","ios":"levelo://app?vid=d7220699-70eb-42d7-81e3-66d4b3da6c2b"},"vehicle_type_id":"4","last_reported":1707239177,"current_range_meters":7600,"station_id":"ce4bgk12rcd13ifvqbi0","pricing_plan_id":"free"},{"bike_id":"fdac5f3a-f3c6-4ea0-8a3f-116d40dfeca1","system_id":"levelo_inurba_marseille","lat":43.29611,"lon":5.37735,"is_reserved":false,"is_disabled":false,"rental_uris":{"android":"levelo://app?vid=fdac5f3a-f3c6-4ea0-8a3f-116d40dfeca1","ios":"levelo://app?vid=fdac5f3a-f3c6-4ea0-8a3f-116d40dfeca1"},"vehicle_type_id":"4","last_reported":1707239177,"current_range_meters":29600,"station_id":"ce4bgi92rcd13ifvqb90","pricing_plan_id":"free"},{"bike_id":"283f8f66-a13d-4b71-a19c-e9bd98a4e49f","system_id":"levelo_inurba_marseille","lat":43.296263,"lon":5.377094,"is_reserved":false,"is_disabled":false,"rental_uris":{"android":"levelo://app?vid=283f8f66-a13d-4b71-a19c-e9bd98a4e49f","ios":"levelo://app?vid=283f8f66-a13d-4b71-a19c-e9bd98a4e49f"},"vehicle_type_id":"4","last_reported":1707239177,"current_range_meters":31200,"station_id":"ce4bgi92rcd13ifvqb90","pricing_plan_id":"free"},{"bike_id":"e6bf825c-a24c-47d8-9807-ffa01062af10","system_id":"levelo_inurba_marseille","lat":43.296277,"lon":5.377108,"is_reserved":false,"is_disabled":false,"rental_uris":{"android":"levelo://app?vid=e6bf825c-a24c-47d8-9807-ffa01062af10","ios":"levelo://app?vid=e6bf825c-a24c-47d8-9807-ffa01062af10"},"vehicle_type_id":"4","last_reported":1707239177,"current_range_meters":21200,"station_id":"ce4bgi92rcd13ifvqb90","pricing_plan_id":"free"},{"bike_id":"dfba917e-f7ff-4b9d-a2da-24fe1a08df40","system_id":"levelo_inurba_marseille","lat":43.295279,"lon":5.375048,"is_reserved":false,"is_disabled":false,"rental_uris":{"android":"levelo://app?vid=dfba917e-f7ff-4b9d-a2da-24fe1a08df40","ios":"levelo://app?vid=dfba917e-f7ff-4b9d-a2da-24fe1a08df40"},"vehicle_type_id":"4","last_reported":1707239177,"current_range_meters":11200,"station_id":"ce4bgkp2rcd13ifvqbmg","pricing_plan_id":"free"},{"bike_id":"899d9f56-269a-45f8-ad88-7d34154f6ead","system_id":"levelo_inurba_marseille","lat":43.29973,"lon":5.38485,"is_reserved":false,"is_disabled":false,"rental_uris":{"android":"levelo://app?vid=899d9f56-269a-45f8-ad88-7d34154f6ead","ios":"levelo://app?vid=899d9f56-269a-45f8-ad88-7d34154f6ead"},"vehicle_type_id":"4","last_reported":1707239177,"current_range_meters":6000,"station_id":"","pricing_plan_id":"free"},{"bike_id":"c85bb34c-61f6-4629-be5d-4aafea1c73d8","system_id":"levelo_inurba_marseille","lat":43.295279,"lon":5.375048,"is_reserved":false,"is_disabled":false,"rental_uris":{"android":"levelo://app?vid=c85bb34c-61f6-4629-be5d-4aafea1c73d8","ios":"levelo://app?vid=c85bb34c-61f6-4629-be5d-4aafea1c73d8"},"vehicle_type_id":"4","last_reported":1707239177,"current_range_meters":22800,"station_id":"ce4bgkp2rcd13ifvqbmg","pricing_plan_id":"free"},{"bike_id":"9be7d153-477b-4883-9470-98426d16cade","system_id":"levelo_inurba_marseille","lat":43.29963,"lon":5.38509,"is_reserved":false,"is_disabled":false,"rental_uris":{"android":"levelo://app?vid=9be7d153-477b-4883-9470-98426d16cade","ios":"levelo://app?vid=9be7d153-477b-4883-9470-98426d16cade"},"vehicle_type_id":"4","last_reported":1707239177,"current_range_meters":0,"station_id":"ce4bgj92rcd13ifvqbd0","pricing_plan_id":"free"},{"bike_id":"92ff823d-00bc-4a76-8e23-4453e80e188b","system_id":"levelo_inurba_marseille","lat":43.29495,"lon":5.376167,"is_reserved":false,"is_disabled":false,"rental_uris":{"android":"levelo://app?vid=92ff823d-00bc-4a76-8e23-4453e80e188b","ios":"levelo://app?vid=92ff823d-00bc-4a76-8e23-4453e80e188b"},"vehicle_type_id":"4","last_reported":1707239177,"current_range_meters":10400,"station_id":"ce4bgkp2rcd13ifvqbmg","pricing_plan_id":"free"},{"bike_id":"ed5d3f68-f6ae-4628-a68b-31e6c4c8b97c","system_id":"levelo_inurba_marseille","lat":43.323587,"lon":5.388811,"is_reserved":false,"is_disabled":false,"rental_uris":{"android":"levelo://app?vid=ed5d3f68-f6ae-4628-a68b-31e6c4c8b97c","ios":"levelo://app?vid=ed5d3f68-f6ae-4628-a68b-31e6c4c8b97c"},"vehicle_type_id":"4","last_reported":1707239177,"current_range_meters":1200,"station_id":"ce4bhqp2rcd13ifvqhog","pricing_plan_id":"free"},{"bike_id":"b2180001-e57d-42eb-b057-d6791a6c5f13","system_id":"levelo_inurba_marseille","lat":43.32363,"lon":5.38882,"is_reserved":false,"is_disabled":false,"rental_uris":{"android":"levelo://app?vid=b2180001-e57d-42eb-b057-d6791a6c5f13","ios":"levelo://app?vid=b2180001-e57d-42eb-b057-d6791a6c5f13"},"vehicle_type_id":"4","last_reported":1707239177,"current_range_meters":10400,"station_id":"ce4bhqp2rcd13ifvqhog","pricing_plan_id":"free"},{"bike_id":"27e7d923-81e0-4c18-9a4b-aeb5de43f55c","system_id":"levelo_inurba_marseille","lat":43.32367,"lon":5.388836,"is_reserved":false,"is_disabled":false,"rental_uris":{"android":"levelo://app?vid=27e7d923-81e0-4c18-9a4b-aeb5de43f55c","ios":"levelo://app?vid=27e7d923-81e0-4c18-9a4b-aeb5de43f55c"},"vehicle_type_id":"4","last_reported":1707239177,"current_range_meters":18800,"station_id":"ce4bhqp2rcd13ifvqhog","pricing_plan_id":"free"},{"bike_id":"2699b29a-e584-4936-892c-96f311fc0314","system_id":"levelo_inurba_marseille","lat":43.32367,"lon":5.388836,"is_reserved":false,"is_disabled":false,"rental_uris":{"android":"levelo://app?vid=2699b29a-e584-4936-892c-96f311fc0314","ios":"levelo://app?vid=2699b29a-e584-4936-892c-96f311fc0314"},"vehicle_type_id":"4","last_reported":1707239177,"current_range_meters":8400,"station_id":"ce4bhqp2rcd13ifvqhog","pricing_plan_id":"free"},{"bike_id":"593326ed-2cc1-41f5-9d97-b4674f983682","system_id":"levelo_inurba_marseille","lat":43.32367,"lon":5.388836,"is_reserved":false,"is_disabled":false,"rental_uris":{"android":"levelo://app?vid=593326ed-2cc1-41f5-9d97-b4674f983682","ios":"levelo://app?vid=593326ed-2cc1-41f5-9d97-b4674f983682"},"vehicle_type_id":"4","last_reported":1707239177,"current_range_meters":9600,"station_id":"ce4bhqp2rcd13ifvqhog","pricing_plan_id":"free"},{"bike_id":"85a2b5bc-9b1a-424b-87fb-1622225253ea","system_id":"levelo_inurba_marseille","lat":43.293846,"lon":5.374509,"is_reserved":false,"is_disabled":false,"rental_uris":{"android":"levelo://app?vid=85a2b5bc-9b1a-424b-87fb-1622225253ea","ios":"levelo://app?vid=85a2b5bc-9b1a-424b-87fb-1622225253ea"},"vehicle_type_id":"4","last_reported":1707239177,"current_range_meters":0,"station_id":"ce4bgi12rcd13ifvqb70","pricing_plan_id":"free"},{"bike_id":"969f5b8c-0771-4fd2-8969-d6a4a2923cb8","system_id":"levelo_inurba_marseille","lat":43.29278,"lon":5.36846,"is_reserved":false,"is_disabled":false,"rental_uris":{"android":"levelo://app?vid=969f5b8c-0771-4fd2-8969-d6a4a2923cb8","ios":"levelo://app?vid=969f5b8c-0771-4fd2-8969-d6a4a2923cb8"},"vehicle_type_id":"4","last_reported":1707239177,"current_range_meters":5200,"station_id":"","pricing_plan_id":"free"},{"bike_id":"58ce6322-a791-48f0-8bcc-95a1314180fc","system_id":"levelo_inurba_marseille","lat":43.29551,"lon":5.381633,"is_reserved":false,"is_disabled":false,"rental_uris":{"android":"levelo://app?vid=58ce6322-a791-48f0-8bcc-95a1314180fc","ios":"levelo://app?vid=58ce6322-a791-48f0-8bcc-95a1314180fc"},"vehicle_type_id":"4","last_reported":1707239177,"current_range_meters":30400,"station_id":"","pricing_plan_id":"free"},{"bike_id":"59d74984-0d7a-4380-bb4b-05c2fb0b9bca","system_id":"levelo_inurba_marseille","lat":43.293009,"lon":5.374584,"is_reserved":false,"is_disabled":false,"rental_uris":{"android":"levelo://app?vid=59d74984-0d7a-4380-bb4b-05c2fb0b9bca","ios":"levelo://app?vid=59d74984-0d7a-4380-bb4b-05c2fb0b9bca"},"vehicle_type_id":"4","last_reported":1707239177,"current_range_meters":3200,"station_id":"ce4bgi12rcd13ifvqb70","pricing_plan_id":"free"},{"bike_id":"92b26b0f-fb6a-4001-81fe-f135e9165452","system_id":"levelo_inurba_marseille","lat":43.303002,"lon":5.392142,"is_reserved":false,"is_disabled":false,"rental_uris":{"android":"levelo://app?vid=92b26b0f-fb6a-4001-81fe-f135e9165452","ios":"levelo://app?vid=92b26b0f-fb6a-4001-81fe-f135e9165452"},"vehicle_type_id":"4","last_reported":1707239177,"current_range_meters":5200,"station_id":"ce4bgkh2rcd13ifvqbk0","pricing_plan_id":"free"},{"bike_id":"7eaaace1-d56b-4070-9538-f330f9fd9789","system_id":"levelo_inurba_marseille","lat":43.303002,"lon":5.392142,"is_reserved":false,"is_disabled":false,"rental_uris":{"android":"levelo://app?vid=7eaaace1-d56b-4070-9538-f330f9fd9789","ios":"levelo://app?vid=7eaaace1-d56b-4070-9538-f330f9fd9789"},"vehicle_type_id":"4","last_reported":1707239177,"current_range_meters":0,"station_id":"ce4bgkh2rcd13ifvqbk0","pricing_plan_id":"free"},{"bike_id":"5b08f849-ad6d-481e-8168-8f7391220200","system_id":"levelo_inurba_marseille","lat":43.2936,"lon":5.37835,"is_reserved":false,"is_disabled":false,"rental_uris":{"android":"levelo://app?vid=5b08f849-ad6d-481e-8168-8f7391220200","ios":"levelo://app?vid=5b08f849-ad6d-481e-8168-8f7391220200"},"vehicle_type_id":"4","last_reported":1707239177,"current_range_meters":12800,"station_id":"ce4bgjh2rcd13ifvqbf0","pricing_plan_id":"free"},{"bike_id":"e14b48db-d43b-4873-bb23-4f828460438d","system_id":"levelo_inurba_marseille","lat":43.293661,"lon":5.378567,"is_reserved":false,"is_disabled":false,"rental_uris":{"android":"levelo://app?vid=e14b48db-d43b-4873-bb23-4f828460438d","ios":"levelo://app?vid=e14b48db-d43b-4873-bb23-4f828460438d"},"vehicle_type_id":"4","last_reported":1707239177,"current_range_meters":6000,"station_id":"","pricing_plan_id":"free"},{"bike_id":"d47a29f6-20c7-4708-a65a-796dddf626fb","system_id":"levelo_inurba_marseille","lat":43.292311,"lon":5.360731,"is_reserved":false,"is_disabled":false,"rental_uris":{"android":"levelo://app?vid=d47a29f6-20c7-4708-a65a-796dddf626fb","ios":"levelo://app?vid=d47a29f6-20c7-4708-a65a-796dddf626fb"},"vehicle_type_id":"4","last_reported":1707239177,"current_range_meters":0,"station_id":"ce4bhbh2rcd13ifvqeqg","pricing_plan_id":"free"},{"bike_id":"90d772bd-edff-43d7-b20d-8915d0189cad","system_id":"levelo_inurba_marseille","lat":43.292311,"lon":5.360731,"is_reserved":false,"is_disabled":false,"rental_uris":{"android":"levelo://app?vid=90d772bd-edff-43d7-b20d-8915d0189cad","ios":"levelo://app?vid=90d772bd-edff-43d7-b20d-8915d0189cad"},"vehicle_type_id":"4","last_reported":1707239177,"current_range_meters":5200,"station_id":"ce4bhbh2rcd13ifvqeqg","pricing_plan_id":"free"},{"bike_id":"e8c58358-7a5b-4c8d-b65f-ba7651dd7b4d","system_id":"levelo_inurba_marseille","lat":43.30085,"lon":5.390856,"is_reserved":false,"is_disabled":false,"rental_uris":{"android":"levelo://app?vid=e8c58358-7a5b-4c8d-b65f-ba7651dd7b4d","ios":"levelo://app?vid=e8c58358-7a5b-4c8d-b65f-ba7651dd7b4d"},"vehicle_type_id":"4","last_reported":1707239177,"current_range_meters":28400,"station_id":"ce4bh192rcd13ifvqdb0","pricing_plan_id":"free"},{"bike_id":"bcb2f130-b4de-4c57-b85d-c82746ceaf90","system_id":"levelo_inurba_marseille","lat":43.29268,"lon":5.37627,"is_reserved":false,"is_disabled":false,"rental_uris":{"android":"levelo://app?vid=bcb2f130-b4de-4c57-b85d-c82746ceaf90","ios":"levelo://app?vid=bcb2f130-b4de-4c57-b85d-c82746ceaf90"},"vehicle_type_id":"4","last_reported":1707239177,"current_range_meters":800,"station_id":"","pricing_plan_id":"free"},{"bike_id":"fac6970a-3f3e-4e47-9d2c-18a04fc110d0","system_id":"levelo_inurba_marseille","lat":43.292613,"lon":5.376157,"is_reserved":false,"is_disabled":false,"rental_uris":{"android":"levelo://app?vid=fac6970a-3f3e-4e47-9d2c-18a04fc110d0","ios":"levelo://app?vid=fac6970a-3f3e-4e47-9d2c-18a04fc110d0"},"vehicle_type_id":"4","last_reported":1707239177,"current_range_meters":10400,"station_id":"","pricing_plan_id":"free"},{"bike_id":"ef9a195a-2426-4756-a1cd-7077e67863c6","system_id":"levelo_inurba_marseille","lat":43.292611,"lon":5.376197,"is_reserved":false,"is_disabled":false,"rental_uris":{"android":"levelo://app?vid=ef9a195a-2426-4756-a1cd-7077e67863c6","ios":"levelo://app?vid=ef9a195a-2426-4756-a1cd-7077e67863c6"},"vehicle_type_id":"4","last_reported":1707239177,"current_range_meters":0,"station_id":"","pricing_plan_id":"free"},{"bike_id":"6171d9b1-d95d-4d2b-8523-6284cfaad778","system_id":"levelo_inurba_marseille","lat":43.30085,"lon":5.390856,"is_reserved":false,"is_disabled":false,"rental_uris":{"android":"levelo://app?vid=6171d9b1-d95d-4d2b-8523-6284cfaad778","ios":"levelo://app?vid=6171d9b1-d95d-4d2b-8523-6284cfaad778"},"vehicle_type_id":"4","last_reported":1707239177,"current_range_meters":20800,"station_id":"ce4bh192rcd13ifvqdb0","pricing_plan_id":"free"},{"bike_id":"1aadd726-b996-445d-9f3c-287a52a242cb","system_id":"levelo_inurba_marseille","lat":43.29883,"lon":5.38909,"is_reserved":false,"is_disabled":false,"rental_uris":{"android":"levelo://app?vid=1aadd726-b996-445d-9f3c-287a52a242cb","ios":"levelo://app?vid=1aadd726-b996-445d-9f3c-287a52a242cb"},"vehicle_type_id":"4","last_reported":1707239177,"current_range_meters":17600,"station_id":"ce4bh392rcd13ifvqdl0","pricing_plan_id":"free"},{"bike_id":"39874d40-d2df-43a8-85d0-8e044401b92e","system_id":"levelo_inurba_marseille","lat":43.29875,"lon":5.38913,"is_reserved":false,"is_disabled":false,"rental_uris":{"android":"levelo://app?vid=39874d40-d2df-43a8-85d0-8e044401b92e","ios":"levelo://app?vid=39874d40-d2df-43a8-85d0-8e044401b92e"},"vehicle_type_id":"4","last_reported":1707239177,"current_range_meters":18000,"station_id":"ce4bh392rcd13ifvqdl0","pricing_plan_id":"free"},{"bike_id":"b2a5285c-a963-43f6-a6c1-acf3ccb002cb","system_id":"levelo_inurba_marseille","lat":43.298764,"lon":5.388973,"is_reserved":false,"is_disabled":false,"rental_uris":{"android":"levelo://app?vid=b2a5285c-a963-43f6-a6c1-acf3ccb002cb","ios":"levelo://app?vid=b2a5285c-a963-43f6-a6c1-acf3ccb002cb"},"vehicle_type_id":"4","last_reported":1707239177,"current_range_meters":18400,"station_id":"ce4bh392rcd13ifvqdl0","pricing_plan_id":"free"},{"bike_id":"00561447-ee10-4eb0-b131-5a93bc3b9d70","system_id":"levelo_inurba_marseille","lat":43.29873,"lon":5.38917,"is_reserved":false,"is_disabled":false,"rental_uris":{"android":"levelo://app?vid=00561447-ee10-4eb0-b131-5a93bc3b9d70","ios":"levelo://app?vid=00561447-ee10-4eb0-b131-5a93bc3b9d70"},"vehicle_type_id":"4","last_reported":1707239177,"current_range_meters":7600,"station_id":"ce4bh392rcd13ifvqdl0","pricing_plan_id":"free"},{"bike_id":"91dbf212-9c54-4db6-97c6-d3b330d1edd6","system_id":"levelo_inurba_marseille","lat":43.309047,"lon":5.396551,"is_reserved":false,"is_disabled":false,"rental_uris":{"android":"levelo://app?vid=91dbf212-9c54-4db6-97c6-d3b330d1edd6","ios":"levelo://app?vid=91dbf212-9c54-4db6-97c6-d3b330d1edd6"},"vehicle_type_id":"4","last_reported":1707239177,"current_range_meters":6400,"station_id":"ce4bh012rcd13ifvqcv0","pricing_plan_id":"free"},{"bike_id":"b02c05ca-58f1-4022-838e-9e2d4fdad592","system_id":"levelo_inurba_marseille","lat":43.291994,"lon":5.357886,"is_reserved":false,"is_disabled":false,"rental_uris":{"android":"levelo://app?vid=b02c05ca-58f1-4022-838e-9e2d4fdad592","ios":"levelo://app?vid=b02c05ca-58f1-4022-838e-9e2d4fdad592"},"vehicle_type_id":"4","last_reported":1707239177,"current_range_meters":13600,"station_id":"ce4bhb12rcd13ifvqel0","pricing_plan_id":"free"},{"bike_id":"c43ccc80-b417-4a1c-93ce-2f4173cfd783","system_id":"levelo_inurba_marseille","lat":43.309038,"lon":5.396546,"is_reserved":false,"is_disabled":false,"rental_uris":{"android":"levelo://app?vid=c43ccc80-b417-4a1c-93ce-2f4173cfd783","ios":"levelo://app?vid=c43ccc80-b417-4a1c-93ce-2f4173cfd783"},"vehicle_type_id":"4","last_reported":1707239177,"current_range_meters":31200,"station_id":"ce4bh012rcd13ifvqcv0","pricing_plan_id":"free"},{"bike_id":"5595d1f6-720f-4471-9e3d-e0255729bbee","system_id":"levelo_inurba_marseille","lat":43.313291,"lon":5.396838,"is_reserved":false,"is_disabled":false,"rental_uris":{"android":"levelo://app?vid=5595d1f6-720f-4471-9e3d-e0255729bbee","ios":"levelo://app?vid=5595d1f6-720f-4471-9e3d-e0255729bbee"},"vehicle_type_id":"4","last_reported":1707239177,"current_range_meters":29200,"station_id":"ce4bgvp2rcd13ifvqcu0","pricing_plan_id":"free"},{"bike_id":"37861716-6d5c-4ec8-be0a-fdf775ed8bb1","system_id":"levelo_inurba_marseille","lat":43.313291,"lon":5.396838,"is_reserved":false,"is_disabled":false,"rental_uris":{"android":"levelo://app?vid=37861716-6d5c-4ec8-be0a-fdf775ed8bb1","ios":"levelo://app?vid=37861716-6d5c-4ec8-be0a-fdf775ed8bb1"},"vehicle_type_id":"4","last_reported":1707239177,"current_range_meters":24800,"station_id":"ce4bgvp2rcd13ifvqcu0","pricing_plan_id":"free"},{"bike_id":"d35e5a1f-caa2-40a6-acc0-a0667c5b74de","system_id":"levelo_inurba_marseille","lat":43.313291,"lon":5.396838,"is_reserved":false,"is_disabled":false,"rental_uris":{"android":"levelo://app?vid=d35e5a1f-caa2-40a6-acc0-a0667c5b74de","ios":"levelo://app?vid=d35e5a1f-caa2-40a6-acc0-a0667c5b74de"},"vehicle_type_id":"4","last_reported":1707239177,"current_range_meters":20000,"station_id":"ce4bgvp2rcd13ifvqcu0","pricing_plan_id":"free"},{"bike_id":"e7381e8c-f698-4926-a3a6-0f1148f3762e","system_id":"levelo_inurba_marseille","lat":43.291994,"lon":5.357886,"is_reserved":false,"is_disabled":false,"rental_uris":{"android":"levelo://app?vid=e7381e8c-f698-4926-a3a6-0f1148f3762e","ios":"levelo://app?vid=e7381e8c-f698-4926-a3a6-0f1148f3762e"},"vehicle_type_id":"4","last_reported":1707239177,"current_range_meters":11200,"station_id":"ce4bhb12rcd13ifvqel0","pricing_plan_id":"free"},{"bike_id":"c0f3e4d9-3ac1-48a0-8f12-6fe148c7f075","system_id":"levelo_inurba_marseille","lat":43.313291,"lon":5.396838,"is_reserved":false,"is_disabled":false,"rental_uris":{"android":"levelo://app?vid=c0f3e4d9-3ac1-48a0-8f12-6fe148c7f075","ios":"levelo://app?vid=c0f3e4d9-3ac1-48a0-8f12-6fe148c7f075"},"vehicle_type_id":"4","last_reported":1707239177,"current_range_meters":20400,"station_id":"ce4bgvp2rcd13ifvqcu0","pricing_plan_id":"free"},{"bike_id":"e7fe5c6d-9452-4b58-9e12-58bb7769d8cf","system_id":"levelo_inurba_marseille","lat":43.29199,"lon":5.37621,"is_reserved":false,"is_disabled":false,"rental_uris":{"android":"levelo://app?vid=e7fe5c6d-9452-4b58-9e12-58bb7769d8cf","ios":"levelo://app?vid=e7fe5c6d-9452-4b58-9e12-58bb7769d8cf"},"vehicle_type_id":"4","last_reported":1707239177,"current_range_meters":20400,"station_id":"","pricing_plan_id":"free"},{"bike_id":"0c7b6894-87eb-443c-9da3-dc9be332ca2d","system_id":"levelo_inurba_marseille","lat":43.313291,"lon":5.396838,"is_reserved":false,"is_disabled":false,"rental_uris":{"android":"levelo://app?vid=0c7b6894-87eb-443c-9da3-dc9be332ca2d","ios":"levelo://app?vid=0c7b6894-87eb-443c-9da3-dc9be332ca2d"},"vehicle_type_id":"4","last_reported":1707239177,"current_range_meters":30800,"station_id":"ce4bgvp2rcd13ifvqcu0","pricing_plan_id":"free"},{"bike_id":"4b03cc3f-2a54-4b70-a4b7-d832601acf92","system_id":"levelo_inurba_marseille","lat":43.313291,"lon":5.396838,"is_reserved":false,"is_disabled":false,"rental_uris":{"android":"levelo://app?vid=4b03cc3f-2a54-4b70-a4b7-d832601acf92","ios":"levelo://app?vid=4b03cc3f-2a54-4b70-a4b7-d832601acf92"},"vehicle_type_id":"4","last_reported":1707239177,"current_range_meters":20800,"station_id":"ce4bgvp2rcd13ifvqcu0","pricing_plan_id":"free"},{"bike_id":"8755f41f-f696-4fa4-880e-8d5d9aa35713","system_id":"levelo_inurba_marseille","lat":43.313291,"lon":5.396838,"is_reserved":false,"is_disabled":false,"rental_uris":{"android":"levelo://app?vid=8755f41f-f696-4fa4-880e-8d5d9aa35713","ios":"levelo://app?vid=8755f41f-f696-4fa4-880e-8d5d9aa35713"},"vehicle_type_id":"4","last_reported":1707239177,"current_range_meters":6400,"station_id":"ce4bgvp2rcd13ifvqcu0","pricing_plan_id":"free"},{"bike_id":"8c8050fd-d9cb-474f-a42f-326ce4aea4da","system_id":"levelo_inurba_marseille","lat":43.291994,"lon":5.357886,"is_reserved":false,"is_disabled":false,"rental_uris":{"android":"levelo://app?vid=8c8050fd-d9cb-474f-a42f-326ce4aea4da","ios":"levelo://app?vid=8c8050fd-d9cb-474f-a42f-326ce4aea4da"},"vehicle_type_id":"4","last_reported":1707239177,"current_range_meters":3600,"station_id":"ce4bhb12rcd13ifvqel0","pricing_plan_id":"free"},{"bike_id":"6ff4414e-1536-41bd-926d-71c79dfc563e","system_id":"levelo_inurba_marseille","lat":43.313291,"lon":5.396838,"is_reserved":false,"is_disabled":false,"rental_uris":{"android":"levelo://app?vid=6ff4414e-1536-41bd-926d-71c79dfc563e","ios":"levelo://app?vid=6ff4414e-1536-41bd-926d-71c79dfc563e"},"vehicle_type_id":"4","last_reported":1707239177,"current_range_meters":30000,"station_id":"ce4bgvp2rcd13ifvqcu0","pricing_plan_id":"free"},{"bike_id":"2b593266-fa57-48e1-abe3-84e731e5edd5","system_id":"levelo_inurba_marseille","lat":43.313291,"lon":5.396838,"is_reserved":false,"is_disabled":false,"rental_uris":{"android":"levelo://app?vid=2b593266-fa57-48e1-abe3-84e731e5edd5","ios":"levelo://app?vid=2b593266-fa57-48e1-abe3-84e731e5edd5"},"vehicle_type_id":"4","last_reported":1707239177,"current_range_meters":24800,"station_id":"ce4bgvp2rcd13ifvqcu0","pricing_plan_id":"free"},{"bike_id":"4990586d-bc5c-4ebe-8762-ba6db0fc4ef0","system_id":"levelo_inurba_marseille","lat":43.291994,"lon":5.357886,"is_reserved":false,"is_disabled":false,"rental_uris":{"android":"levelo://app?vid=4990586d-bc5c-4ebe-8762-ba6db0fc4ef0","ios":"levelo://app?vid=4990586d-bc5c-4ebe-8762-ba6db0fc4ef0"},"vehicle_type_id":"4","last_reported":1707239177,"current_range_meters":16000,"station_id":"ce4bhb12rcd13ifvqel0","pricing_plan_id":"free"},{"bike_id":"b23b4197-078b-4fab-85fd-aff70738ffe4","system_id":"levelo_inurba_marseille","lat":43.308889,"lon":5.39655,"is_reserved":false,"is_disabled":false,"rental_uris":{"android":"levelo://app?vid=b23b4197-078b-4fab-85fd-aff70738ffe4","ios":"levelo://app?vid=b23b4197-078b-4fab-85fd-aff70738ffe4"},"vehicle_type_id":"4","last_reported":1707239177,"current_range_meters":22800,"station_id":"","pricing_plan_id":"free"},{"bike_id":"a587193d-5656-4582-8547-34a343421300","system_id":"levelo_inurba_marseille","lat":43.309038,"lon":5.396546,"is_reserved":false,"is_disabled":false,"rental_uris":{"android":"levelo://app?vid=a587193d-5656-4582-8547-34a343421300","ios":"levelo://app?vid=a587193d-5656-4582-8547-34a343421300"},"vehicle_type_id":"4","last_reported":1707239177,"current_range_meters":7600,"station_id":"ce4bh012rcd13ifvqcv0","pricing_plan_id":"free"},{"bike_id":"a8f16eca-247b-44b9-afba-b82e22bd190c","system_id":"levelo_inurba_marseille","lat":43.29531,"lon":5.38547,"is_reserved":false,"is_disabled":false,"rental_uris":{"android":"levelo://app?vid=a8f16eca-247b-44b9-afba-b82e22bd190c","ios":"levelo://app?vid=a8f16eca-247b-44b9-afba-b82e22bd190c"},"vehicle_type_id":"4","last_reported":1707239177,"current_range_meters":12800,"station_id":"ce4bgih2rcd13ifvqba0","pricing_plan_id":"free"},{"bike_id":"ebaba686-886a-41fa-b56a-f7c50aa4f5b8","system_id":"levelo_inurba_marseille","lat":43.29531,"lon":5.38548,"is_reserved":false,"is_disabled":false,"rental_uris":{"android":"levelo://app?vid=ebaba686-886a-41fa-b56a-f7c50aa4f5b8","ios":"levelo://app?vid=ebaba686-886a-41fa-b56a-f7c50aa4f5b8"},"vehicle_type_id":"4","last_reported":1707239177,"current_range_meters":1600,"station_id":"ce4bgih2rcd13ifvqba0","pricing_plan_id":"free"},{"bike_id":"8fadd34f-b429-47a2-ae90-699791311818","system_id":"levelo_inurba_marseille","lat":43.29529,"lon":5.3855,"is_reserved":false,"is_disabled":false,"rental_uris":{"android":"levelo://app?vid=8fadd34f-b429-47a2-ae90-699791311818","ios":"levelo://app?vid=8fadd34f-b429-47a2-ae90-699791311818"},"vehicle_type_id":"4","last_reported":1707239177,"current_range_meters":15200,"station_id":"ce4bgih2rcd13ifvqba0","pricing_plan_id":"free"},{"bike_id":"c307961b-a456-4cf1-808c-52b4de9fdf14","system_id":"levelo_inurba_marseille","lat":43.29529,"lon":5.385581,"is_reserved":false,"is_disabled":false,"rental_uris":{"android":"levelo://app?vid=c307961b-a456-4cf1-808c-52b4de9fdf14","ios":"levelo://app?vid=c307961b-a456-4cf1-808c-52b4de9fdf14"},"vehicle_type_id":"4","last_reported":1707239177,"current_range_meters":18800,"station_id":"ce4bgih2rcd13ifvqba0","pricing_plan_id":"free"},{"bike_id":"3169eaa9-e8e1-4e95-982c-f549ac272e1f","system_id":"levelo_inurba_marseille","lat":43.302008,"lon":5.394694,"is_reserved":false,"is_disabled":false,"rental_uris":{"android":"levelo://app?vid=3169eaa9-e8e1-4e95-982c-f549ac272e1f","ios":"levelo://app?vid=3169eaa9-e8e1-4e95-982c-f549ac272e1f"},"vehicle_type_id":"4","last_reported":1707239177,"current_range_meters":11200,"station_id":"ce4bh0p2rcd13ifvqd70","pricing_plan_id":"free"},{"bike_id":"bd5fa9c4-65bb-48de-87bf-477480234521","system_id":"levelo_inurba_marseille","lat":43.290631,"lon":5.359244,"is_reserved":false,"is_disabled":false,"rental_uris":{"android":"levelo://app?vid=bd5fa9c4-65bb-48de-87bf-477480234521","ios":"levelo://app?vid=bd5fa9c4-65bb-48de-87bf-477480234521"},"vehicle_type_id":"4","last_reported":1707239177,"current_range_meters":30400,"station_id":"ce4bha92rcd13ifvqeg0","pricing_plan_id":"free"},{"bike_id":"bed00532-3431-4532-989d-8eda7fcfa6fe","system_id":"levelo_inurba_marseille","lat":43.290319,"lon":5.375732,"is_reserved":false,"is_disabled":false,"rental_uris":{"android":"levelo://app?vid=bed00532-3431-4532-989d-8eda7fcfa6fe","ios":"levelo://app?vid=bed00532-3431-4532-989d-8eda7fcfa6fe"},"vehicle_type_id":"4","last_reported":1707239177,"current_range_meters":20800,"station_id":"ce4bh692rcd13ifvqe90","pricing_plan_id":"free"},{"bike_id":"f2e3a643-e62c-40b0-8738-0f1dc02ab1fb","system_id":"levelo_inurba_marseille","lat":43.295169,"lon":5.390426,"is_reserved":false,"is_disabled":false,"rental_uris":{"android":"levelo://app?vid=f2e3a643-e62c-40b0-8738-0f1dc02ab1fb","ios":"levelo://app?vid=f2e3a643-e62c-40b0-8738-0f1dc02ab1fb"},"vehicle_type_id":"4","last_reported":1707239177,"current_range_meters":16800,"station_id":"ce4bh3p2rcd13ifvqdp0","pricing_plan_id":"free"},{"bike_id":"00e483d9-09a3-4b9b-bce2-1520a03f6f0d","system_id":"levelo_inurba_marseille","lat":43.29037,"lon":5.37562,"is_reserved":false,"is_disabled":false,"rental_uris":{"android":"levelo://app?vid=00e483d9-09a3-4b9b-bce2-1520a03f6f0d","ios":"levelo://app?vid=00e483d9-09a3-4b9b-bce2-1520a03f6f0d"},"vehicle_type_id":"4","last_reported":1707239177,"current_range_meters":0,"station_id":"ce4bh692rcd13ifvqe90","pricing_plan_id":"free"},{"bike_id":"b5c26910-5f8f-4617-b8f2-5f4625b7340a","system_id":"levelo_inurba_marseille","lat":43.29422,"lon":5.38628,"is_reserved":false,"is_disabled":false,"rental_uris":{"android":"levelo://app?vid=b5c26910-5f8f-4617-b8f2-5f4625b7340a","ios":"levelo://app?vid=b5c26910-5f8f-4617-b8f2-5f4625b7340a"},"vehicle_type_id":"4","last_reported":1707239177,"current_range_meters":0,"station_id":"ce4bh2h2rcd13ifvqdh0","pricing_plan_id":"free"},{"bike_id":"657bb025-1891-4024-93d6-7edbaddcaef2","system_id":"levelo_inurba_marseille","lat":43.29419,"lon":5.38626,"is_reserved":false,"is_disabled":false,"rental_uris":{"android":"levelo://app?vid=657bb025-1891-4024-93d6-7edbaddcaef2","ios":"levelo://app?vid=657bb025-1891-4024-93d6-7edbaddcaef2"},"vehicle_type_id":"4","last_reported":1707239177,"current_range_meters":1200,"station_id":"ce4bh2h2rcd13ifvqdh0","pricing_plan_id":"free"},{"bike_id":"110e48bb-4f37-47c8-8e8f-3c389680ce8b","system_id":"levelo_inurba_marseille","lat":43.294166,"lon":5.386219,"is_reserved":false,"is_disabled":false,"rental_uris":{"android":"levelo://app?vid=110e48bb-4f37-47c8-8e8f-3c389680ce8b","ios":"levelo://app?vid=110e48bb-4f37-47c8-8e8f-3c389680ce8b"},"vehicle_type_id":"4","last_reported":1707239177,"current_range_meters":2800,"station_id":"ce4bh2h2rcd13ifvqdh0","pricing_plan_id":"free"},{"bike_id":"eed0a7da-010c-4b99-8254-857e4c490790","system_id":"levelo_inurba_marseille","lat":43.29419,"lon":5.38629,"is_reserved":false,"is_disabled":false,"rental_uris":{"android":"levelo://app?vid=eed0a7da-010c-4b99-8254-857e4c490790","ios":"levelo://app?vid=eed0a7da-010c-4b99-8254-857e4c490790"},"vehicle_type_id":"4","last_reported":1707239177,"current_range_meters":16400,"station_id":"ce4bh2h2rcd13ifvqdh0","pricing_plan_id":"free"},{"bike_id":"c4dea601-a5bc-4e0a-ba9b-ce6f9e7b15ec","system_id":"levelo_inurba_marseille","lat":43.289184,"lon":5.366408,"is_reserved":false,"is_disabled":false,"rental_uris":{"android":"levelo://app?vid=c4dea601-a5bc-4e0a-ba9b-ce6f9e7b15ec","ios":"levelo://app?vid=c4dea601-a5bc-4e0a-ba9b-ce6f9e7b15ec"},"vehicle_type_id":"4","last_reported":1707239177,"current_range_meters":5600,"station_id":"ce4bhap2rcd13ifvqek0","pricing_plan_id":"free"},{"bike_id":"4b852a59-6d61-4a7e-8255-313a506548cb","system_id":"levelo_inurba_marseille","lat":43.289184,"lon":5.366408,"is_reserved":false,"is_disabled":false,"rental_uris":{"android":"levelo://app?vid=4b852a59-6d61-4a7e-8255-313a506548cb","ios":"levelo://app?vid=4b852a59-6d61-4a7e-8255-313a506548cb"},"vehicle_type_id":"4","last_reported":1707239177,"current_range_meters":16800,"station_id":"ce4bhap2rcd13ifvqek0","pricing_plan_id":"free"},{"bike_id":"58da91aa-365a-46c3-b66f-528b8a83bb2e","system_id":"levelo_inurba_marseille","lat":43.289184,"lon":5.366408,"is_reserved":false,"is_disabled":false,"rental_uris":{"android":"levelo://app?vid=58da91aa-365a-46c3-b66f-528b8a83bb2e","ios":"levelo://app?vid=58da91aa-365a-46c3-b66f-528b8a83bb2e"},"vehicle_type_id":"4","last_reported":1707239177,"current_range_meters":8400,"station_id":"ce4bhap2rcd13ifvqek0","pricing_plan_id":"free"},{"bike_id":"a62fc8e4-3f94-43ea-a4fc-b549aef112d4","system_id":"levelo_inurba_marseille","lat":43.29416,"lon":5.38631,"is_reserved":false,"is_disabled":false,"rental_uris":{"android":"levelo://app?vid=a62fc8e4-3f94-43ea-a4fc-b549aef112d4","ios":"levelo://app?vid=a62fc8e4-3f94-43ea-a4fc-b549aef112d4"},"vehicle_type_id":"4","last_reported":1707239177,"current_range_meters":2400,"station_id":"ce4bh2h2rcd13ifvqdh0","pricing_plan_id":"free"},{"bike_id":"944ebdaa-ccc8-4afd-aa44-55c81ad00668","system_id":"levelo_inurba_marseille","lat":43.294176,"lon":5.386347,"is_reserved":false,"is_disabled":false,"rental_uris":{"android":"levelo://app?vid=944ebdaa-ccc8-4afd-aa44-55c81ad00668","ios":"levelo://app?vid=944ebdaa-ccc8-4afd-aa44-55c81ad00668"},"vehicle_type_id":"4","last_reported":1707239177,"current_range_meters":10000,"station_id":"ce4bh2h2rcd13ifvqdh0","pricing_plan_id":"free"},{"bike_id":"123d8074-7b43-4268-bf36-b2ad76bd9820","system_id":"levelo_inurba_marseille","lat":43.289184,"lon":5.366408,"is_reserved":false,"is_disabled":false,"rental_uris":{"android":"levelo://app?vid=123d8074-7b43-4268-bf36-b2ad76bd9820","ios":"levelo://app?vid=123d8074-7b43-4268-bf36-b2ad76bd9820"},"vehicle_type_id":"4","last_reported":1707239177,"current_range_meters":0,"station_id":"ce4bhap2rcd13ifvqek0","pricing_plan_id":"free"},{"bike_id":"325bdefd-3d98-4342-bf84-8c37987b3687","system_id":"levelo_inurba_marseille","lat":43.289184,"lon":5.366408,"is_reserved":false,"is_disabled":false,"rental_uris":{"android":"levelo://app?vid=325bdefd-3d98-4342-bf84-8c37987b3687","ios":"levelo://app?vid=325bdefd-3d98-4342-bf84-8c37987b3687"},"vehicle_type_id":"4","last_reported":1707239177,"current_range_meters":0,"station_id":"ce4bhap2rcd13ifvqek0","pricing_plan_id":"free"},{"bike_id":"f2d260ad-1804-4920-8ff2-68dd7b7260f7","system_id":"levelo_inurba_marseille","lat":43.289184,"lon":5.366408,"is_reserved":false,"is_disabled":false,"rental_uris":{"android":"levelo://app?vid=f2d260ad-1804-4920-8ff2-68dd7b7260f7","ios":"levelo://app?vid=f2d260ad-1804-4920-8ff2-68dd7b7260f7"},"vehicle_type_id":"4","last_reported":1707239177,"current_range_meters":15600,"station_id":"ce4bhap2rcd13ifvqek0","pricing_plan_id":"free"},{"bike_id":"28df9ec6-9ecd-4156-a714-c808e590ec35","system_id":"levelo_inurba_marseille","lat":43.289184,"lon":5.366408,"is_reserved":false,"is_disabled":false,"rental_uris":{"android":"levelo://app?vid=28df9ec6-9ecd-4156-a714-c808e590ec35","ios":"levelo://app?vid=28df9ec6-9ecd-4156-a714-c808e590ec35"},"vehicle_type_id":"4","last_reported":1707239177,"current_range_meters":17200,"station_id":"ce4bhap2rcd13ifvqek0","pricing_plan_id":"free"},{"bike_id":"039dca23-2c6d-478e-8573-7271b5ee8c32","system_id":"levelo_inurba_marseille","lat":43.289184,"lon":5.366408,"is_reserved":false,"is_disabled":false,"rental_uris":{"android":"levelo://app?vid=039dca23-2c6d-478e-8573-7271b5ee8c32","ios":"levelo://app?vid=039dca23-2c6d-478e-8573-7271b5ee8c32"},"vehicle_type_id":"4","last_reported":1707239177,"current_range_meters":22800,"station_id":"ce4bhap2rcd13ifvqek0","pricing_plan_id":"free"},{"bike_id":"3427c091-cffb-4d88-bf28-c70545ede41e","system_id":"levelo_inurba_marseille","lat":43.297809,"lon":5.392273,"is_reserved":false,"is_disabled":false,"rental_uris":{"android":"levelo://app?vid=3427c091-cffb-4d88-bf28-c70545ede41e","ios":"levelo://app?vid=3427c091-cffb-4d88-bf28-c70545ede41e"},"vehicle_type_id":"4","last_reported":1707239177,"current_range_meters":23600,"station_id":"chh1huq6cuj3fo74tm60","pricing_plan_id":"free"},{"bike_id":"c3ec3bf1-abd5-4a7a-92f1-97929ba70434","system_id":"levelo_inurba_marseille","lat":43.304274,"lon":5.397513,"is_reserved":false,"is_disabled":false,"rental_uris":{"android":"levelo://app?vid=c3ec3bf1-abd5-4a7a-92f1-97929ba70434","ios":"levelo://app?vid=c3ec3bf1-abd5-4a7a-92f1-97929ba70434"},"vehicle_type_id":"4","last_reported":1707239177,"current_range_meters":15600,"station_id":"ce4bh092rcd13ifvqd20","pricing_plan_id":"free"},{"bike_id":"5cd230d2-e481-4a3d-ac33-467b360b44c6","system_id":"levelo_inurba_marseille","lat":43.304274,"lon":5.397513,"is_reserved":false,"is_disabled":false,"rental_uris":{"android":"levelo://app?vid=5cd230d2-e481-4a3d-ac33-467b360b44c6","ios":"levelo://app?vid=5cd230d2-e481-4a3d-ac33-467b360b44c6"},"vehicle_type_id":"4","last_reported":1707239177,"current_range_meters":19200,"station_id":"ce4bh092rcd13ifvqd20","pricing_plan_id":"free"},{"bike_id":"acb4db24-da32-44f3-b4ad-761b76526cdf","system_id":"levelo_inurba_marseille","lat":43.29255,"lon":5.3844,"is_reserved":false,"is_disabled":false,"rental_uris":{"android":"levelo://app?vid=acb4db24-da32-44f3-b4ad-761b76526cdf","ios":"levelo://app?vid=acb4db24-da32-44f3-b4ad-761b76526cdf"},"vehicle_type_id":"4","last_reported":1707239177,"current_range_meters":0,"station_id":"ce4bh692rcd13ifvqea0","pricing_plan_id":"free"},{"bike_id":"04ca87fa-7f96-4157-bb25-6330dcfbc2eb","system_id":"levelo_inurba_marseille","lat":43.290104,"lon":5.356111,"is_reserved":false,"is_disabled":false,"rental_uris":{"android":"levelo://app?vid=04ca87fa-7f96-4157-bb25-6330dcfbc2eb","ios":"levelo://app?vid=04ca87fa-7f96-4157-bb25-6330dcfbc2eb"},"vehicle_type_id":"4","last_reported":1707239177,"current_range_meters":26400,"station_id":"ce4bhb92rcd13ifvqen0","pricing_plan_id":"free"},{"bike_id":"9cab319a-369c-432c-b782-6db352c46253","system_id":"levelo_inurba_marseille","lat":43.290995,"lon":5.381361,"is_reserved":false,"is_disabled":false,"rental_uris":{"android":"levelo://app?vid=9cab319a-369c-432c-b782-6db352c46253","ios":"levelo://app?vid=9cab319a-369c-432c-b782-6db352c46253"},"vehicle_type_id":"4","last_reported":1707239177,"current_range_meters":5600,"station_id":"ce4bh512rcd13ifvqe2g","pricing_plan_id":"free"},{"bike_id":"7bbce437-812e-42ab-b65c-26ef340538ae","system_id":"levelo_inurba_marseille","lat":43.295169,"lon":5.390426,"is_reserved":false,"is_disabled":false,"rental_uris":{"android":"levelo://app?vid=7bbce437-812e-42ab-b65c-26ef340538ae","ios":"levelo://app?vid=7bbce437-812e-42ab-b65c-26ef340538ae"},"vehicle_type_id":"4","last_reported":1707239177,"current_range_meters":22800,"station_id":"ce4bh3p2rcd13ifvqdp0","pricing_plan_id":"free"},{"bike_id":"5b3dfd84-db16-45ca-966f-99a2eea28fee","system_id":"levelo_inurba_marseille","lat":43.33002,"lon":5.39046,"is_reserved":false,"is_disabled":false,"rental_uris":{"android":"levelo://app?vid=5b3dfd84-db16-45ca-966f-99a2eea28fee","ios":"levelo://app?vid=5b3dfd84-db16-45ca-966f-99a2eea28fee"},"vehicle_type_id":"4","last_reported":1707239177,"current_range_meters":8800,"station_id":"ce4bhr92rcd13ifvqhrg","pricing_plan_id":"free"},{"bike_id":"397db575-5859-4e88-b680-c446f72b852d","system_id":"levelo_inurba_marseille","lat":43.330442,"lon":5.389148,"is_reserved":false,"is_disabled":false,"rental_uris":{"android":"levelo://app?vid=397db575-5859-4e88-b680-c446f72b852d","ios":"levelo://app?vid=397db575-5859-4e88-b680-c446f72b852d"},"vehicle_type_id":"4","last_reported":1707239177,"current_range_meters":4000,"station_id":"ce4bhr92rcd13ifvqhrg","pricing_plan_id":"free"},{"bike_id":"62ca35d7-f049-4885-9fd9-beb6af1eb797","system_id":"levelo_inurba_marseille","lat":43.33015,"lon":5.39035,"is_reserved":false,"is_disabled":false,"rental_uris":{"android":"levelo://app?vid=62ca35d7-f049-4885-9fd9-beb6af1eb797","ios":"levelo://app?vid=62ca35d7-f049-4885-9fd9-beb6af1eb797"},"vehicle_type_id":"4","last_reported":1707239177,"current_range_meters":12800,"station_id":"ce4bhr92rcd13ifvqhrg","pricing_plan_id":"free"},{"bike_id":"9be19af2-00eb-4adf-afc6-6b25dc013c2f","system_id":"levelo_inurba_marseille","lat":43.330442,"lon":5.389148,"is_reserved":false,"is_disabled":false,"rental_uris":{"android":"levelo://app?vid=9be19af2-00eb-4adf-afc6-6b25dc013c2f","ios":"levelo://app?vid=9be19af2-00eb-4adf-afc6-6b25dc013c2f"},"vehicle_type_id":"4","last_reported":1707239177,"current_range_meters":4400,"station_id":"ce4bhr92rcd13ifvqhrg","pricing_plan_id":"free"},{"bike_id":"e3cdd8db-1a8c-42b0-8a1d-74e27724a81e","system_id":"levelo_inurba_marseille","lat":43.33021,"lon":5.39035,"is_reserved":false,"is_disabled":false,"rental_uris":{"android":"levelo://app?vid=e3cdd8db-1a8c-42b0-8a1d-74e27724a81e","ios":"levelo://app?vid=e3cdd8db-1a8c-42b0-8a1d-74e27724a81e"},"vehicle_type_id":"4","last_reported":1707239177,"current_range_meters":29600,"station_id":"ce4bhr92rcd13ifvqhrg","pricing_plan_id":"free"},{"bike_id":"b5c14bc8-0bdf-48a6-9a9f-af1b4756e3aa","system_id":"levelo_inurba_marseille","lat":43.297815,"lon":5.393548,"is_reserved":false,"is_disabled":false,"rental_uris":{"android":"levelo://app?vid=b5c14bc8-0bdf-48a6-9a9f-af1b4756e3aa","ios":"levelo://app?vid=b5c14bc8-0bdf-48a6-9a9f-af1b4756e3aa"},"vehicle_type_id":"4","last_reported":1707239177,"current_range_meters":10400,"station_id":"chh1huq6cuj3fo74tm60","pricing_plan_id":"free"},{"bike_id":"7d9c88cc-b379-4f7e-afa0-885a9a44585d","system_id":"levelo_inurba_marseille","lat":43.33023,"lon":5.39037,"is_reserved":false,"is_disabled":false,"rental_uris":{"android":"levelo://app?vid=7d9c88cc-b379-4f7e-afa0-885a9a44585d","ios":"levelo://app?vid=7d9c88cc-b379-4f7e-afa0-885a9a44585d"},"vehicle_type_id":"4","last_reported":1707239177,"current_range_meters":18400,"station_id":"ce4bhr92rcd13ifvqhrg","pricing_plan_id":"free"},{"bike_id":"191e5a48-25eb-42b2-aa0f-b63755aec4fc","system_id":"levelo_inurba_marseille","lat":43.33019,"lon":5.39043,"is_reserved":false,"is_disabled":false,"rental_uris":{"android":"levelo://app?vid=191e5a48-25eb-42b2-aa0f-b63755aec4fc","ios":"levelo://app?vid=191e5a48-25eb-42b2-aa0f-b63755aec4fc"},"vehicle_type_id":"4","last_reported":1707239177,"current_range_meters":17600,"station_id":"ce4bhr92rcd13ifvqhrg","pricing_plan_id":"free"},{"bike_id":"9f74ab4e-9d60-4afa-867a-49240bd6e097","system_id":"levelo_inurba_marseille","lat":43.330442,"lon":5.389148,"is_reserved":false,"is_disabled":false,"rental_uris":{"android":"levelo://app?vid=9f74ab4e-9d60-4afa-867a-49240bd6e097","ios":"levelo://app?vid=9f74ab4e-9d60-4afa-867a-49240bd6e097"},"vehicle_type_id":"4","last_reported":1707239177,"current_range_meters":18800,"station_id":"ce4bhr92rcd13ifvqhrg","pricing_plan_id":"free"},{"bike_id":"f8bef66c-efed-43d0-b33e-d4e490fd48af","system_id":"levelo_inurba_marseille","lat":43.33023,"lon":5.39038,"is_reserved":false,"is_disabled":false,"rental_uris":{"android":"levelo://app?vid=f8bef66c-efed-43d0-b33e-d4e490fd48af","ios":"levelo://app?vid=f8bef66c-efed-43d0-b33e-d4e490fd48af"},"vehicle_type_id":"4","last_reported":1707239177,"current_range_meters":18400,"station_id":"ce4bhr92rcd13ifvqhrg","pricing_plan_id":"free"},{"bike_id":"fd72c297-d0df-4a2c-b38e-6177668e633b","system_id":"levelo_inurba_marseille","lat":43.330442,"lon":5.389148,"is_reserved":false,"is_disabled":false,"rental_uris":{"android":"levelo://app?vid=fd72c297-d0df-4a2c-b38e-6177668e633b","ios":"levelo://app?vid=fd72c297-d0df-4a2c-b38e-6177668e633b"},"vehicle_type_id":"4","last_reported":1707239177,"current_range_meters":4400,"station_id":"ce4bhr92rcd13ifvqhrg","pricing_plan_id":"free"},{"bike_id":"2cb079ed-d8ca-492f-b29c-2d51d3cb8b10","system_id":"levelo_inurba_marseille","lat":43.28976,"lon":5.378447,"is_reserved":false,"is_disabled":false,"rental_uris":{"android":"levelo://app?vid=2cb079ed-d8ca-492f-b29c-2d51d3cb8b10","ios":"levelo://app?vid=2cb079ed-d8ca-492f-b29c-2d51d3cb8b10"},"vehicle_type_id":"4","last_reported":1707239177,"current_range_meters":30400,"station_id":"ce4bh9p2rcd13ifvqed0","pricing_plan_id":"free"},{"bike_id":"ba7895df-fdf0-43d4-b40a-e7e64d29137d","system_id":"levelo_inurba_marseille","lat":43.330442,"lon":5.389148,"is_reserved":false,"is_disabled":false,"rental_uris":{"android":"levelo://app?vid=ba7895df-fdf0-43d4-b40a-e7e64d29137d","ios":"levelo://app?vid=ba7895df-fdf0-43d4-b40a-e7e64d29137d"},"vehicle_type_id":"4","last_reported":1707239177,"current_range_meters":26000,"station_id":"ce4bhr92rcd13ifvqhrg","pricing_plan_id":"free"},{"bike_id":"0c70fe0e-f77f-4d51-951c-9d6975c40c53","system_id":"levelo_inurba_marseille","lat":43.295169,"lon":5.390426,"is_reserved":false,"is_disabled":false,"rental_uris":{"android":"levelo://app?vid=0c70fe0e-f77f-4d51-951c-9d6975c40c53","ios":"levelo://app?vid=0c70fe0e-f77f-4d51-951c-9d6975c40c53"},"vehicle_type_id":"4","last_reported":1707239177,"current_range_meters":1200,"station_id":"ce4bh3p2rcd13ifvqdp0","pricing_plan_id":"free"},{"bike_id":"2e111dff-3c6a-45c9-9e51-8ccb512570b2","system_id":"levelo_inurba_marseille","lat":43.330442,"lon":5.389148,"is_reserved":false,"is_disabled":false,"rental_uris":{"android":"levelo://app?vid=2e111dff-3c6a-45c9-9e51-8ccb512570b2","ios":"levelo://app?vid=2e111dff-3c6a-45c9-9e51-8ccb512570b2"},"vehicle_type_id":"4","last_reported":1707239177,"current_range_meters":28800,"station_id":"ce4bhr92rcd13ifvqhrg","pricing_plan_id":"free"},{"bike_id":"8ca3da1e-5def-4150-85c1-93059ad4ca52","system_id":"levelo_inurba_marseille","lat":43.330442,"lon":5.389148,"is_reserved":false,"is_disabled":false,"rental_uris":{"android":"levelo://app?vid=8ca3da1e-5def-4150-85c1-93059ad4ca52","ios":"levelo://app?vid=8ca3da1e-5def-4150-85c1-93059ad4ca52"},"vehicle_type_id":"4","last_reported":1707239177,"current_range_meters":21200,"station_id":"ce4bhr92rcd13ifvqhrg","pricing_plan_id":"free"},{"bike_id":"7f41c518-9078-4904-b37c-5053268695d8","system_id":"levelo_inurba_marseille","lat":43.295169,"lon":5.390426,"is_reserved":false,"is_disabled":false,"rental_uris":{"android":"levelo://app?vid=7f41c518-9078-4904-b37c-5053268695d8","ios":"levelo://app?vid=7f41c518-9078-4904-b37c-5053268695d8"},"vehicle_type_id":"4","last_reported":1707239177,"current_range_meters":10400,"station_id":"ce4bh3p2rcd13ifvqdp0","pricing_plan_id":"free"},{"bike_id":"7252e6d4-98a0-4592-a47d-52a79e98482d","system_id":"levelo_inurba_marseille","lat":43.295279,"lon":5.375048,"is_reserved":false,"is_disabled":false,"rental_uris":{"android":"levelo://app?vid=7252e6d4-98a0-4592-a47d-52a79e98482d","ios":"levelo://app?vid=7252e6d4-98a0-4592-a47d-52a79e98482d"},"vehicle_type_id":"4","last_reported":1707239177,"current_range_meters":16400,"station_id":"ce4bgkp2rcd13ifvqbmg","pricing_plan_id":"free"},{"bike_id":"5cf52488-0a4f-45ea-867d-bde7992eca16","system_id":"levelo_inurba_marseille","lat":43.28856,"lon":5.358371,"is_reserved":false,"is_disabled":false,"rental_uris":{"android":"levelo://app?vid=5cf52488-0a4f-45ea-867d-bde7992eca16","ios":"levelo://app?vid=5cf52488-0a4f-45ea-867d-bde7992eca16"},"vehicle_type_id":"4","last_reported":1707239177,"current_range_meters":0,"station_id":"ce4bhb12rcd13ifvqem0","pricing_plan_id":"free"},{"bike_id":"2fca9507-69c1-49f2-a063-6a40f6be5d3a","system_id":"levelo_inurba_marseille","lat":43.290094,"lon":5.381264,"is_reserved":false,"is_disabled":false,"rental_uris":{"android":"levelo://app?vid=2fca9507-69c1-49f2-a063-6a40f6be5d3a","ios":"levelo://app?vid=2fca9507-69c1-49f2-a063-6a40f6be5d3a"},"vehicle_type_id":"4","last_reported":1707239177,"current_range_meters":0,"station_id":"ce4bh4p2rcd13ifvqe1g","pricing_plan_id":"free"},{"bike_id":"1351ed6f-fdbb-40c9-8ca2-1dc5615f53e4","system_id":"levelo_inurba_marseille","lat":43.28797,"lon":5.3734,"is_reserved":false,"is_disabled":false,"rental_uris":{"android":"levelo://app?vid=1351ed6f-fdbb-40c9-8ca2-1dc5615f53e4","ios":"levelo://app?vid=1351ed6f-fdbb-40c9-8ca2-1dc5615f53e4"},"vehicle_type_id":"4","last_reported":1707239177,"current_range_meters":12800,"station_id":"","pricing_plan_id":"free"},{"bike_id":"d6db0894-0bef-4d2b-b5a3-2524c5e7b3d9","system_id":"levelo_inurba_marseille","lat":43.312609,"lon":5.401662,"is_reserved":false,"is_disabled":false,"rental_uris":{"android":"levelo://app?vid=d6db0894-0bef-4d2b-b5a3-2524c5e7b3d9","ios":"levelo://app?vid=d6db0894-0bef-4d2b-b5a3-2524c5e7b3d9"},"vehicle_type_id":"4","last_reported":1707239177,"current_range_meters":18000,"station_id":"ce4bh092rcd13ifvqd30","pricing_plan_id":"free"},{"bike_id":"80ee9af0-1caf-481f-9ad9-d55af86c4869","system_id":"levelo_inurba_marseille","lat":43.309371,"lon":5.401449,"is_reserved":false,"is_disabled":false,"rental_uris":{"android":"levelo://app?vid=80ee9af0-1caf-481f-9ad9-d55af86c4869","ios":"levelo://app?vid=80ee9af0-1caf-481f-9ad9-d55af86c4869"},"vehicle_type_id":"4","last_reported":1707239177,"current_range_meters":3200,"station_id":"ce4bgvp2rcd13ifvqct0","pricing_plan_id":"free"},{"bike_id":"3dd785fe-e838-40e1-901c-3987227119b2","system_id":"levelo_inurba_marseille","lat":43.30937,"lon":5.40146,"is_reserved":false,"is_disabled":false,"rental_uris":{"android":"levelo://app?vid=3dd785fe-e838-40e1-901c-3987227119b2","ios":"levelo://app?vid=3dd785fe-e838-40e1-901c-3987227119b2"},"vehicle_type_id":"4","last_reported":1707239177,"current_range_meters":9200,"station_id":"ce4bgvp2rcd13ifvqct0","pricing_plan_id":"free"},{"bike_id":"9bc6e25f-78e6-4b59-ad63-a691ac1f4d99","system_id":"levelo_inurba_marseille","lat":43.31274,"lon":5.4018,"is_reserved":false,"is_disabled":false,"rental_uris":{"android":"levelo://app?vid=9bc6e25f-78e6-4b59-ad63-a691ac1f4d99","ios":"levelo://app?vid=9bc6e25f-78e6-4b59-ad63-a691ac1f4d99"},