{"last_updated":1718464069,"ttl":30,"version":"2.2","data":{"bikes":[{"bike_id":"35eb52ca-0261-4b8e-86e8-2ec5defd9b1e","system_id":"levelo_inurba_marseille","lat":43.313391,"lon":5.36706,"is_reserved":false,"is_disabled":false,"rental_uris":{"android":"levelo://app?vid=35eb52ca-0261-4b8e-86e8-2ec5defd9b1e","ios":"levelo://app?vid=35eb52ca-0261-4b8e-86e8-2ec5defd9b1e"},"vehicle_type_id":"4","last_reported":1718464069,"current_range_meters":13200,"station_id":"ce4bgr92rcd13ifvqc6g","pricing_plan_id":"cebpf4jnsgd1na2vs0mg"},{"bike_id":"45416a63-e279-4e15-bbc6-2ddfd865ea67","system_id":"levelo_inurba_marseille","lat":43.314811,"lon":5.373103,"is_reserved":false,"is_disabled":false,"rental_uris":{"android":"levelo://app?vid=45416a63-e279-4e15-bbc6-2ddfd865ea67","ios":"levelo://app?vid=45416a63-e279-4e15-bbc6-2ddfd865ea67"},"vehicle_type_id":"4","last_reported":1718464069,"current_range_meters":4000,"station_id":"ce4bgt12rcd13ifvqcd0","pricing_plan_id":"cebpf4jnsgd1na2vs0mg"},{"bike_id":"ea2b5760-835e-4777-a9d5-cb154c744d46","system_id":"levelo_inurba_marseille","lat":43.314811,"lon":5.373103,"is_reserved":false,"is_disabled":false,"rental_uris":{"android":"levelo://app?vid=ea2b5760-835e-4777-a9d5-cb154c744d46","ios":"levelo://app?vid=ea2b5760-835e-4777-a9d5-cb154c744d46"},"vehicle_type_id":"4","last_reported":1718464069,"current_range_meters":28800,"station_id":"ce4bgt12rcd13ifvqcd0","pricing_plan_id":"cebpf4jnsgd1na2vs0mg"},{"bike_id":"adeac72d-293c-4fa7-afe7-14fa43dea9d4","system_id":"levelo_inurba_marseille","lat":43.314811,"lon":5.373104,"is_reserved":false,"is_disabled":false,"rental_uris":{"android":"levelo://app?vid=adeac72d-293c-4fa7-afe7-14fa43dea9d4","ios":"levelo://app?vid=adeac72d-293c-4fa7-afe7-14fa43dea9d4"},"vehicle_type_id":"4","last_reported":1718464069,"current_range_meters":23600,"station_id":"ce4bgt12rcd13ifvqcd0","pricing_plan_id":"cebpf4jnsgd1na2vs0mg"},{"bike_id":"9467174a-dce7-420a-9d34-d7fecb156054","system_id":"levelo_inurba_marseille","lat":43.314811,"lon":5.373104,"is_reserved":false,"is_disabled":false,"rental_uris":{"android":"levelo://app?vid=9467174a-dce7-420a-9d34-d7fecb156054","ios":"levelo://app?vid=9467174a-dce7-420a-9d34-d7fecb156054"},"vehicle_type_id":"4","last_reported":1718464069,"current_range_meters":28400,"station_id":"ce4bgt12rcd13ifvqcd0","pricing_plan_id":"cebpf4jnsgd1na2vs0mg"},{"bike_id":"7c155b7f-5e33-439f-8427-6f93142cd231","system_id":"levelo_inurba_marseille","lat":43.31315,"lon":5.37489,"is_reserved":false,"is_disabled":false,"rental_uris":{"android":"levelo://app?vid=7c155b7f-5e33-439f-8427-6f93142cd231","ios":"levelo://app?vid=7c155b7f-5e33-439f-8427-6f93142cd231"},"vehicle_type_id":"4","last_reported":1718464069,"current_range_meters":0,"station_id":"","pricing_plan_id":"cebpf4jnsgd1na2vs0mg"},{"bike_id":"84400da1-62a9-4d5f-857b-f432dd10107d","system_id":"levelo_inurba_marseille","lat":43.30541,"lon":5.36568,"is_reserved":false,"is_disabled":false,"rental_uris":{"android":"levelo://app?vid=84400da1-62a9-4d5f-857b-f432dd10107d","ios":"levelo://app?vid=84400da1-62a9-4d5f-857b-f432dd10107d"},"vehicle_type_id":"4","last_reported":1718464069,"current_range_meters":0,"station_id":"ce4bgs12rcd13ifvqcag","pricing_plan_id":"cebpf4jnsgd1na2vs0mg"},{"bike_id":"51f3d213-f853-47f5-82e6-601903575fce","system_id":"levelo_inurba_marseille","lat":43.305368,"lon":5.367343,"is_reserved":false,"is_disabled":false,"rental_uris":{"android":"levelo://app?vid=51f3d213-f853-47f5-82e6-601903575fce","ios":"levelo://app?vid=51f3d213-f853-47f5-82e6-601903575fce"},"vehicle_type_id":"4","last_reported":1718464069,"current_range_meters":8800,"station_id":"ce4bgrp2rcd13ifvqc9g","pricing_plan_id":"cebpf4jnsgd1na2vs0mg"},{"bike_id":"f5298633-0fc5-42d4-89a5-535899ca5af2","system_id":"levelo_inurba_marseille","lat":43.30591,"lon":5.37206,"is_reserved":false,"is_disabled":false,"rental_uris":{"android":"levelo://app?vid=f5298633-0fc5-42d4-89a5-535899ca5af2","ios":"levelo://app?vid=f5298633-0fc5-42d4-89a5-535899ca5af2"},"vehicle_type_id":"4","last_reported":1718464069,"current_range_meters":22800,"station_id":"ce4bgqh2rcd13ifvqc4g","pricing_plan_id":"cebpf4jnsgd1na2vs0mg"},{"bike_id":"8bf8cff0-52c4-4d6d-8f08-f13cf8fcd07e","system_id":"levelo_inurba_marseille","lat":43.311131,"lon":5.377651,"is_reserved":false,"is_disabled":false,"rental_uris":{"android":"levelo://app?vid=8bf8cff0-52c4-4d6d-8f08-f13cf8fcd07e","ios":"levelo://app?vid=8bf8cff0-52c4-4d6d-8f08-f13cf8fcd07e"},"vehicle_type_id":"4","last_reported":1718464069,"current_range_meters":10800,"station_id":"ce4bgt92rcd13ifvqcg0","pricing_plan_id":"cebpf4jnsgd1na2vs0mg"},{"bike_id":"1f84f516-a464-487b-af3a-41af8bbf88ea","system_id":"levelo_inurba_marseille","lat":43.305989,"lon":5.37225,"is_reserved":false,"is_disabled":false,"rental_uris":{"android":"levelo://app?vid=1f84f516-a464-487b-af3a-41af8bbf88ea","ios":"levelo://app?vid=1f84f516-a464-487b-af3a-41af8bbf88ea"},"vehicle_type_id":"4","last_reported":1718464069,"current_range_meters":22800,"station_id":"ce4bgqh2rcd13ifvqc4g","pricing_plan_id":"cebpf4jnsgd1na2vs0mg"},{"bike_id":"141e5404-10de-4ae4-ac33-18a56b59436f","system_id":"levelo_inurba_marseille","lat":43.317075,"lon":5.377367,"is_reserved":false,"is_disabled":false,"rental_uris":{"android":"levelo://app?vid=141e5404-10de-4ae4-ac33-18a56b59436f","ios":"levelo://app?vid=141e5404-10de-4ae4-ac33-18a56b59436f"},"vehicle_type_id":"4","last_reported":1718464069,"current_range_meters":20000,"station_id":"ce4bgth2rcd13ifvqch0","pricing_plan_id":"cebpf4jnsgd1na2vs0mg"},{"bike_id":"a0cf2a72-4c31-40b9-ab9a-8b138bb1faa2","system_id":"levelo_inurba_marseille","lat":43.31701,"lon":5.3776,"is_reserved":false,"is_disabled":false,"rental_uris":{"android":"levelo://app?vid=a0cf2a72-4c31-40b9-ab9a-8b138bb1faa2","ios":"levelo://app?vid=a0cf2a72-4c31-40b9-ab9a-8b138bb1faa2"},"vehicle_type_id":"4","last_reported":1718464069,"current_range_meters":16000,"station_id":"ce4bgth2rcd13ifvqch0","pricing_plan_id":"cebpf4jnsgd1na2vs0mg"},{"bike_id":"ee8159ca-d2f3-426a-b7c2-b832ebc8a70d","system_id":"levelo_inurba_marseille","lat":43.315289,"lon":5.380349,"is_reserved":false,"is_disabled":false,"rental_uris":{"android":"levelo://app?vid=ee8159ca-d2f3-426a-b7c2-b832ebc8a70d","ios":"levelo://app?vid=ee8159ca-d2f3-426a-b7c2-b832ebc8a70d"},"vehicle_type_id":"4","last_reported":1718464069,"current_range_meters":21600,"station_id":"ce4bhsp2rcd13ifvqi50","pricing_plan_id":"cebpf4jnsgd1na2vs0mg"},{"bike_id":"7e391f6d-054b-4dd4-b71e-da8f130a0581","system_id":"levelo_inurba_marseille","lat":43.30484,"lon":5.37569,"is_reserved":false,"is_disabled":false,"rental_uris":{"android":"levelo://app?vid=7e391f6d-054b-4dd4-b71e-da8f130a0581","ios":"levelo://app?vid=7e391f6d-054b-4dd4-b71e-da8f130a0581"},"vehicle_type_id":"4","last_reported":1718464069,"current_range_meters":8000,"station_id":"","pricing_plan_id":"cebpf4jnsgd1na2vs0mg"},{"bike_id":"37471f4c-741d-4423-ad28-3beb8104ff11","system_id":"levelo_inurba_marseille","lat":43.30231,"lon":5.36969,"is_reserved":false,"is_disabled":false,"rental_uris":{"android":"levelo://app?vid=37471f4c-741d-4423-ad28-3beb8104ff11","ios":"levelo://app?vid=37471f4c-741d-4423-ad28-3beb8104ff11"},"vehicle_type_id":"4","last_reported":1718464069,"current_range_meters":11200,"station_id":"","pricing_plan_id":"cebpf4jnsgd1na2vs0mg"},{"bike_id":"5c89638e-1911-4fe8-a70a-838d96a15ce6","system_id":"levelo_inurba_marseille","lat":43.324771,"lon":5.36557,"is_reserved":false,"is_disabled":false,"rental_uris":{"android":"levelo://app?vid=5c89638e-1911-4fe8-a70a-838d96a15ce6","ios":"levelo://app?vid=5c89638e-1911-4fe8-a70a-838d96a15ce6"},"vehicle_type_id":"4","last_reported":1718464069,"current_range_meters":25600,"station_id":"ce4bhs12rcd13ifvqhvg","pricing_plan_id":"cebpf4jnsgd1na2vs0mg"},{"bike_id":"359073a2-5da7-457d-ab81-5e4b787d0929","system_id":"levelo_inurba_marseille","lat":43.324771,"lon":5.36557,"is_reserved":false,"is_disabled":false,"rental_uris":{"android":"levelo://app?vid=359073a2-5da7-457d-ab81-5e4b787d0929","ios":"levelo://app?vid=359073a2-5da7-457d-ab81-5e4b787d0929"},"vehicle_type_id":"4","last_reported":1718464069,"current_range_meters":12400,"station_id":"ce4bhs12rcd13ifvqhvg","pricing_plan_id":"cebpf4jnsgd1na2vs0mg"},{"bike_id":"38b2c9e1-4c23-45fd-99ed-bbe9e26de9f4","system_id":"levelo_inurba_marseille","lat":43.324771,"lon":5.36557,"is_reserved":false,"is_disabled":false,"rental_uris":{"android":"levelo://app?vid=38b2c9e1-4c23-45fd-99ed-bbe9e26de9f4","ios":"levelo://app?vid=38b2c9e1-4c23-45fd-99ed-bbe9e26de9f4"},"vehicle_type_id":"4","last_reported":1718464069,"current_range_meters":18800,"station_id":"ce4bhs12rcd13ifvqhvg","pricing_plan_id":"cebpf4jnsgd1na2vs0mg"},{"bike_id":"c7e8fe28-5cd1-4781-90de-5a5f7d709beb","system_id":"levelo_inurba_marseille","lat":43.324771,"lon":5.36557,"is_reserved":false,"is_disabled":false,"rental_uris":{"android":"levelo://app?vid=c7e8fe28-5cd1-4781-90de-5a5f7d709beb","ios":"levelo://app?vid=c7e8fe28-5cd1-4781-90de-5a5f7d709beb"},"vehicle_type_id":"4","last_reported":1718464069,"current_range_meters":22800,"station_id":"ce4bhs12rcd13ifvqhvg","pricing_plan_id":"cebpf4jnsgd1na2vs0mg"},{"bike_id":"25ac5ebc-294d-4867-aeb3-cc466256aea0","system_id":"levelo_inurba_marseille","lat":43.324771,"lon":5.36557,"is_reserved":false,"is_disabled":false,"rental_uris":{"android":"levelo://app?vid=25ac5ebc-294d-4867-aeb3-cc466256aea0","ios":"levelo://app?vid=25ac5ebc-294d-4867-aeb3-cc466256aea0"},"vehicle_type_id":"4","last_reported":1718464069,"current_range_meters":0,"station_id":"ce4bhs12rcd13ifvqhvg","pricing_plan_id":"cebpf4jnsgd1na2vs0mg"},{"bike_id":"0bd7e063-1a25-4aae-af49-2f3318c320b1","system_id":"levelo_inurba_marseille","lat":43.324771,"lon":5.36557,"is_reserved":false,"is_disabled":false,"rental_uris":{"android":"levelo://app?vid=0bd7e063-1a25-4aae-af49-2f3318c320b1","ios":"levelo://app?vid=0bd7e063-1a25-4aae-af49-2f3318c320b1"},"vehicle_type_id":"4","last_reported":1718464069,"current_range_meters":16000,"station_id":"ce4bhs12rcd13ifvqhvg","pricing_plan_id":"cebpf4jnsgd1na2vs0mg"},{"bike_id":"8d3e0635-5f69-40d7-bc2c-5a9d05b68657","system_id":"levelo_inurba_marseille","lat":43.319935,"lon":5.381699,"is_reserved":false,"is_disabled":false,"rental_uris":{"android":"levelo://app?vid=8d3e0635-5f69-40d7-bc2c-5a9d05b68657","ios":"levelo://app?vid=8d3e0635-5f69-40d7-bc2c-5a9d05b68657"},"vehicle_type_id":"4","last_reported":1718464069,"current_range_meters":14800,"station_id":"ce4bhr12rcd13ifvqhpg","pricing_plan_id":"cebpf4jnsgd1na2vs0mg"},{"bike_id":"3fbcf1c2-3ddd-48d6-9707-804ab2c7aa3f","system_id":"levelo_inurba_marseille","lat":43.319935,"lon":5.381699,"is_reserved":false,"is_disabled":false,"rental_uris":{"android":"levelo://app?vid=3fbcf1c2-3ddd-48d6-9707-804ab2c7aa3f","ios":"levelo://app?vid=3fbcf1c2-3ddd-48d6-9707-804ab2c7aa3f"},"vehicle_type_id":"4","last_reported":1718464069,"current_range_meters":22800,"station_id":"ce4bhr12rcd13ifvqhpg","pricing_plan_id":"cebpf4jnsgd1na2vs0mg"},{"bike_id":"f8534b17-8504-4230-8f9b-6de474e36cb4","system_id":"levelo_inurba_marseille","lat":43.313571,"lon":5.384829,"is_reserved":false,"is_disabled":false,"rental_uris":{"android":"levelo://app?vid=f8534b17-8504-4230-8f9b-6de474e36cb4","ios":"levelo://app?vid=f8534b17-8504-4230-8f9b-6de474e36cb4"},"vehicle_type_id":"4","last_reported":1718464069,"current_range_meters":5600,"station_id":"ce4bgt92rcd13ifvqcf0","pricing_plan_id":"cebpf4jnsgd1na2vs0mg"},{"bike_id":"f2d7511a-235a-4362-8eb1-be9688986068","system_id":"levelo_inurba_marseille","lat":43.313571,"lon":5.384829,"is_reserved":false,"is_disabled":false,"rental_uris":{"android":"levelo://app?vid=f2d7511a-235a-4362-8eb1-be9688986068","ios":"levelo://app?vid=f2d7511a-235a-4362-8eb1-be9688986068"},"vehicle_type_id":"4","last_reported":1718464069,"current_range_meters":15200,"station_id":"ce4bgt92rcd13ifvqcf0","pricing_plan_id":"cebpf4jnsgd1na2vs0mg"},{"bike_id":"28bfcad6-542f-40df-a1d4-9d2e0d3b0eac","system_id":"levelo_inurba_marseille","lat":43.313571,"lon":5.384829,"is_reserved":false,"is_disabled":false,"rental_uris":{"android":"levelo://app?vid=28bfcad6-542f-40df-a1d4-9d2e0d3b0eac","ios":"levelo://app?vid=28bfcad6-542f-40df-a1d4-9d2e0d3b0eac"},"vehicle_type_id":"4","last_reported":1718464069,"current_range_meters":18000,"station_id":"ce4bgt92rcd13ifvqcf0","pricing_plan_id":"cebpf4jnsgd1na2vs0mg"},{"bike_id":"c67dd228-b810-4c58-82cd-da910d932367","system_id":"levelo_inurba_marseille","lat":43.313571,"lon":5.384829,"is_reserved":false,"is_disabled":false,"rental_uris":{"android":"levelo://app?vid=c67dd228-b810-4c58-82cd-da910d932367","ios":"levelo://app?vid=c67dd228-b810-4c58-82cd-da910d932367"},"vehicle_type_id":"4","last_reported":1718464069,"current_range_meters":6800,"station_id":"ce4bgt92rcd13ifvqcf0","pricing_plan_id":"cebpf4jnsgd1na2vs0mg"},{"bike_id":"6e9f0be0-a3fb-4514-8d00-d733812bdddf","system_id":"levelo_inurba_marseille","lat":43.313571,"lon":5.384829,"is_reserved":false,"is_disabled":false,"rental_uris":{"android":"levelo://app?vid=6e9f0be0-a3fb-4514-8d00-d733812bdddf","ios":"levelo://app?vid=6e9f0be0-a3fb-4514-8d00-d733812bdddf"},"vehicle_type_id":"4","last_reported":1718464069,"current_range_meters":5200,"station_id":"ce4bgt92rcd13ifvqcf0","pricing_plan_id":"cebpf4jnsgd1na2vs0mg"},{"bike_id":"fca83383-11ac-4c99-9f2e-a1dbdc3f2c75","system_id":"levelo_inurba_marseille","lat":43.313571,"lon":5.384829,"is_reserved":false,"is_disabled":false,"rental_uris":{"android":"levelo://app?vid=fca83383-11ac-4c99-9f2e-a1dbdc3f2c75","ios":"levelo://app?vid=fca83383-11ac-4c99-9f2e-a1dbdc3f2c75"},"vehicle_type_id":"4","last_reported":1718464069,"current_range_meters":2800,"station_id":"ce4bgt92rcd13ifvqcf0","pricing_plan_id":"cebpf4jnsgd1na2vs0mg"},{"bike_id":"de230430-dd5f-40df-8653-8f0b432af58f","system_id":"levelo_inurba_marseille","lat":43.313571,"lon":5.384829,"is_reserved":false,"is_disabled":false,"rental_uris":{"android":"levelo://app?vid=de230430-dd5f-40df-8653-8f0b432af58f","ios":"levelo://app?vid=de230430-dd5f-40df-8653-8f0b432af58f"},"vehicle_type_id":"4","last_reported":1718464069,"current_range_meters":14000,"station_id":"ce4bgt92rcd13ifvqcf0","pricing_plan_id":"cebpf4jnsgd1na2vs0mg"},{"bike_id":"b3a3055b-f3ad-40db-8e9b-58f7a0e3c79b","system_id":"levelo_inurba_marseille","lat":43.313571,"lon":5.384829,"is_reserved":false,"is_disabled":false,"rental_uris":{"android":"levelo://app?vid=b3a3055b-f3ad-40db-8e9b-58f7a0e3c79b","ios":"levelo://app?vid=b3a3055b-f3ad-40db-8e9b-58f7a0e3c79b"},"vehicle_type_id":"4","last_reported":1718464069,"current_range_meters":14800,"station_id":"ce4bgt92rcd13ifvqcf0","pricing_plan_id":"cebpf4jnsgd1na2vs0mg"},{"bike_id":"1d9be24e-ed97-4319-89b6-aab53065fa38","system_id":"levelo_inurba_marseille","lat":43.313571,"lon":5.384829,"is_reserved":false,"is_disabled":false,"rental_uris":{"android":"levelo://app?vid=1d9be24e-ed97-4319-89b6-aab53065fa38","ios":"levelo://app?vid=1d9be24e-ed97-4319-89b6-aab53065fa38"},"vehicle_type_id":"4","last_reported":1718464069,"current_range_meters":2000,"station_id":"ce4bgt92rcd13ifvqcf0","pricing_plan_id":"cebpf4jnsgd1na2vs0mg"},{"bike_id":"75a5650c-1cd5-457f-9de1-dcc64913fd05","system_id":"levelo_inurba_marseille","lat":43.313571,"lon":5.384829,"is_reserved":false,"is_disabled":false,"rental_uris":{"android":"levelo://app?vid=75a5650c-1cd5-457f-9de1-dcc64913fd05","ios":"levelo://app?vid=75a5650c-1cd5-457f-9de1-dcc64913fd05"},"vehicle_type_id":"4","last_reported":1718464069,"current_range_meters":11600,"station_id":"ce4bgt92rcd13ifvqcf0","pricing_plan_id":"cebpf4jnsgd1na2vs0mg"},{"bike_id":"d33cd163-4565-4ff3-a500-819f44b4c827","system_id":"levelo_inurba_marseille","lat":43.313571,"lon":5.384829,"is_reserved":false,"is_disabled":false,"rental_uris":{"android":"levelo://app?vid=d33cd163-4565-4ff3-a500-819f44b4c827","ios":"levelo://app?vid=d33cd163-4565-4ff3-a500-819f44b4c827"},"vehicle_type_id":"4","last_reported":1718464069,"current_range_meters":2000,"station_id":"ce4bgt92rcd13ifvqcf0","pricing_plan_id":"cebpf4jnsgd1na2vs0mg"},{"bike_id":"68b01e4c-d3f6-4cfc-83f4-2060fe68b96e","system_id":"levelo_inurba_marseille","lat":43.299209,"lon":5.365547,"is_reserved":false,"is_disabled":false,"rental_uris":{"android":"levelo://app?vid=68b01e4c-d3f6-4cfc-83f4-2060fe68b96e","ios":"levelo://app?vid=68b01e4c-d3f6-4cfc-83f4-2060fe68b96e"},"vehicle_type_id":"4","last_reported":1718464069,"current_range_meters":23600,"station_id":"ce4bgm92rcd13ifvqbr0","pricing_plan_id":"cebpf4jnsgd1na2vs0mg"},{"bike_id":"4a1f287f-d52f-48d0-8b3b-48b941fb82ce","system_id":"levelo_inurba_marseille","lat":43.298433,"lon":5.362774,"is_reserved":false,"is_disabled":false,"rental_uris":{"android":"levelo://app?vid=4a1f287f-d52f-48d0-8b3b-48b941fb82ce","ios":"levelo://app?vid=4a1f287f-d52f-48d0-8b3b-48b941fb82ce"},"vehicle_type_id":"4","last_reported":1718464069,"current_range_meters":5600,"station_id":"ce4bgpp2rcd13ifvqc3g","pricing_plan_id":"cebpf4jnsgd1na2vs0mg"},{"bike_id":"3d2c77a5-8ebb-4d57-b1d8-a0e9095d38f6","system_id":"levelo_inurba_marseille","lat":43.311722,"lon":5.387247,"is_reserved":false,"is_disabled":false,"rental_uris":{"android":"levelo://app?vid=3d2c77a5-8ebb-4d57-b1d8-a0e9095d38f6","ios":"levelo://app?vid=3d2c77a5-8ebb-4d57-b1d8-a0e9095d38f6"},"vehicle_type_id":"4","last_reported":1718464069,"current_range_meters":0,"station_id":"ce4bgv12rcd13ifvqcp0","pricing_plan_id":"cebpf4jnsgd1na2vs0mg"},{"bike_id":"23f2f085-3678-4be1-bb9d-d7c066355cac","system_id":"levelo_inurba_marseille","lat":43.31176,"lon":5.387133,"is_reserved":false,"is_disabled":false,"rental_uris":{"android":"levelo://app?vid=23f2f085-3678-4be1-bb9d-d7c066355cac","ios":"levelo://app?vid=23f2f085-3678-4be1-bb9d-d7c066355cac"},"vehicle_type_id":"4","last_reported":1718464069,"current_range_meters":10800,"station_id":"ce4bgv12rcd13ifvqcp0","pricing_plan_id":"cebpf4jnsgd1na2vs0mg"},{"bike_id":"f6c7e587-8822-4ed2-8869-b7f56e410311","system_id":"levelo_inurba_marseille","lat":43.311722,"lon":5.387247,"is_reserved":false,"is_disabled":false,"rental_uris":{"android":"levelo://app?vid=f6c7e587-8822-4ed2-8869-b7f56e410311","ios":"levelo://app?vid=f6c7e587-8822-4ed2-8869-b7f56e410311"},"vehicle_type_id":"4","last_reported":1718464069,"current_range_meters":6000,"station_id":"ce4bgv12rcd13ifvqcp0","pricing_plan_id":"cebpf4jnsgd1na2vs0mg"},{"bike_id":"e77407b2-fbb7-497a-969d-d5c5744f4647","system_id":"levelo_inurba_marseille","lat":43.311722,"lon":5.387247,"is_reserved":false,"is_disabled":false,"rental_uris":{"android":"levelo://app?vid=e77407b2-fbb7-497a-969d-d5c5744f4647","ios":"levelo://app?vid=e77407b2-fbb7-497a-969d-d5c5744f4647"},"vehicle_type_id":"4","last_reported":1718464069,"current_range_meters":11600,"station_id":"ce4bgv12rcd13ifvqcp0","pricing_plan_id":"cebpf4jnsgd1na2vs0mg"},{"bike_id":"f5f4a7a4-2568-412f-96a1-4d0a2713caf8","system_id":"levelo_inurba_marseille","lat":43.299243,"lon":5.37481,"is_reserved":false,"is_disabled":false,"rental_uris":{"android":"levelo://app?vid=f5f4a7a4-2568-412f-96a1-4d0a2713caf8","ios":"levelo://app?vid=f5f4a7a4-2568-412f-96a1-4d0a2713caf8"},"vehicle_type_id":"4","last_reported":1718464069,"current_range_meters":14800,"station_id":"ce4bgjh2rcd13ifvqbg0","pricing_plan_id":"cebpf4jnsgd1na2vs0mg"},{"bike_id":"af2f829d-35e9-4ff7-aaf5-dba702168df4","system_id":"levelo_inurba_marseille","lat":43.311722,"lon":5.387247,"is_reserved":false,"is_disabled":false,"rental_uris":{"android":"levelo://app?vid=af2f829d-35e9-4ff7-aaf5-dba702168df4","ios":"levelo://app?vid=af2f829d-35e9-4ff7-aaf5-dba702168df4"},"vehicle_type_id":"4","last_reported":1718464069,"current_range_meters":8800,"station_id":"ce4bgv12rcd13ifvqcp0","pricing_plan_id":"cebpf4jnsgd1na2vs0mg"},{"bike_id":"c98e4a66-3919-417d-a388-f293689c3289","system_id":"levelo_inurba_marseille","lat":43.298044,"lon":5.371246,"is_reserved":false,"is_disabled":false,"rental_uris":{"android":"levelo://app?vid=c98e4a66-3919-417d-a388-f293689c3289","ios":"levelo://app?vid=c98e4a66-3919-417d-a388-f293689c3289"},"vehicle_type_id":"4","last_reported":1718464069,"current_range_meters":7600,"station_id":"ce4bgop2rcd13ifvqc1g","pricing_plan_id":"cebpf4jnsgd1na2vs0mg"},{"bike_id":"49e32c55-54fc-4d65-afbc-3083103f4cbf","system_id":"levelo_inurba_marseille","lat":43.29851,"lon":5.37405,"is_reserved":false,"is_disabled":false,"rental_uris":{"android":"levelo://app?vid=49e32c55-54fc-4d65-afbc-3083103f4cbf","ios":"levelo://app?vid=49e32c55-54fc-4d65-afbc-3083103f4cbf"},"vehicle_type_id":"4","last_reported":1718464069,"current_range_meters":0,"station_id":"","pricing_plan_id":"cebpf4jnsgd1na2vs0mg"},{"bike_id":"01383fda-e6b3-4a07-9b33-a5992385f3b2","system_id":"levelo_inurba_marseille","lat":43.322872,"lon":5.382756,"is_reserved":false,"is_disabled":false,"rental_uris":{"android":"levelo://app?vid=01383fda-e6b3-4a07-9b33-a5992385f3b2","ios":"levelo://app?vid=01383fda-e6b3-4a07-9b33-a5992385f3b2"},"vehicle_type_id":"4","last_reported":1718464069,"current_range_meters":28400,"station_id":"ce4bhr12rcd13ifvqhqg","pricing_plan_id":"cebpf4jnsgd1na2vs0mg"},{"bike_id":"6e17947f-dbbd-4079-9621-2408b9dc75cf","system_id":"levelo_inurba_marseille","lat":43.322872,"lon":5.382756,"is_reserved":false,"is_disabled":false,"rental_uris":{"android":"levelo://app?vid=6e17947f-dbbd-4079-9621-2408b9dc75cf","ios":"levelo://app?vid=6e17947f-dbbd-4079-9621-2408b9dc75cf"},"vehicle_type_id":"4","last_reported":1718464069,"current_range_meters":26000,"station_id":"ce4bhr12rcd13ifvqhqg","pricing_plan_id":"cebpf4jnsgd1na2vs0mg"},{"bike_id":"56806427-1243-47a6-9ac3-a65afb896bc9","system_id":"levelo_inurba_marseille","lat":43.322872,"lon":5.382756,"is_reserved":false,"is_disabled":false,"rental_uris":{"android":"levelo://app?vid=56806427-1243-47a6-9ac3-a65afb896bc9","ios":"levelo://app?vid=56806427-1243-47a6-9ac3-a65afb896bc9"},"vehicle_type_id":"4","last_reported":1718464069,"current_range_meters":21200,"station_id":"ce4bhr12rcd13ifvqhqg","pricing_plan_id":"cebpf4jnsgd1na2vs0mg"},{"bike_id":"8029ecd1-33e2-4630-a400-989116e1b619","system_id":"levelo_inurba_marseille","lat":43.322872,"lon":5.382756,"is_reserved":false,"is_disabled":false,"rental_uris":{"android":"levelo://app?vid=8029ecd1-33e2-4630-a400-989116e1b619","ios":"levelo://app?vid=8029ecd1-33e2-4630-a400-989116e1b619"},"vehicle_type_id":"4","last_reported":1718464069,"current_range_meters":30400,"station_id":"ce4bhr12rcd13ifvqhqg","pricing_plan_id":"cebpf4jnsgd1na2vs0mg"},{"bike_id":"afa62d7b-0d4d-4a1d-b157-4c1d7f38de73","system_id":"levelo_inurba_marseille","lat":43.32784,"lon":5.37495,"is_reserved":false,"is_disabled":false,"rental_uris":{"android":"levelo://app?vid=afa62d7b-0d4d-4a1d-b157-4c1d7f38de73","ios":"levelo://app?vid=afa62d7b-0d4d-4a1d-b157-4c1d7f38de73"},"vehicle_type_id":"4","last_reported":1718464069,"current_range_meters":22800,"station_id":"","pricing_plan_id":"cebpf4jnsgd1na2vs0mg"},{"bike_id":"eb0955b2-1470-4d94-8a57-bfb31bc2c901","system_id":"levelo_inurba_marseille","lat":43.296131,"lon":5.370791,"is_reserved":false,"is_disabled":false,"rental_uris":{"android":"levelo://app?vid=eb0955b2-1470-4d94-8a57-bfb31bc2c901","ios":"levelo://app?vid=eb0955b2-1470-4d94-8a57-bfb31bc2c901"},"vehicle_type_id":"4","last_reported":1718464069,"current_range_meters":12800,"station_id":"ce4bgnh2rcd13ifvqc0g","pricing_plan_id":"cebpf4jnsgd1na2vs0mg"},{"bike_id":"e933bc3b-8b13-492c-97a7-d2d4105a12a1","system_id":"levelo_inurba_marseille","lat":43.29573,"lon":5.367355,"is_reserved":false,"is_disabled":false,"rental_uris":{"android":"levelo://app?vid=e933bc3b-8b13-492c-97a7-d2d4105a12a1","ios":"levelo://app?vid=e933bc3b-8b13-492c-97a7-d2d4105a12a1"},"vehicle_type_id":"4","last_reported":1718464069,"current_range_meters":18000,"station_id":"ce4bgph2rcd13ifvqc2g","pricing_plan_id":"cebpf4jnsgd1na2vs0mg"},{"bike_id":"fb419ccb-0d4f-468e-9b35-e9e6882777dd","system_id":"levelo_inurba_marseille","lat":43.299028,"lon":5.381509,"is_reserved":false,"is_disabled":false,"rental_uris":{"android":"levelo://app?vid=fb419ccb-0d4f-468e-9b35-e9e6882777dd","ios":"levelo://app?vid=fb419ccb-0d4f-468e-9b35-e9e6882777dd"},"vehicle_type_id":"4","last_reported":1718464069,"current_range_meters":6800,"station_id":"ce4bgj12rcd13ifvqbc0","pricing_plan_id":"cebpf4jnsgd1na2vs0mg"},{"bike_id":"c5899253-6f95-4d41-87c0-6fe19f4eb8f6","system_id":"levelo_inurba_marseille","lat":43.299028,"lon":5.381509,"is_reserved":false,"is_disabled":false,"rental_uris":{"android":"levelo://app?vid=c5899253-6f95-4d41-87c0-6fe19f4eb8f6","ios":"levelo://app?vid=c5899253-6f95-4d41-87c0-6fe19f4eb8f6"},"vehicle_type_id":"4","last_reported":1718464069,"current_range_meters":0,"station_id":"ce4bgj12rcd13ifvqbc0","pricing_plan_id":"cebpf4jnsgd1na2vs0mg"},{"bike_id":"473cb0c0-fe05-4ea3-b948-cdc7adf4c9d8","system_id":"levelo_inurba_marseille","lat":43.309589,"lon":5.390258,"is_reserved":false,"is_disabled":false,"rental_uris":{"android":"levelo://app?vid=473cb0c0-fe05-4ea3-b948-cdc7adf4c9d8","ios":"levelo://app?vid=473cb0c0-fe05-4ea3-b948-cdc7adf4c9d8"},"vehicle_type_id":"4","last_reported":1718464069,"current_range_meters":1200,"station_id":"ce4bgup2rcd13ifvqco0","pricing_plan_id":"cebpf4jnsgd1na2vs0mg"},{"bike_id":"9d331424-9726-40f0-bbf2-bd10aab4935a","system_id":"levelo_inurba_marseille","lat":43.309589,"lon":5.390258,"is_reserved":false,"is_disabled":false,"rental_uris":{"android":"levelo://app?vid=9d331424-9726-40f0-bbf2-bd10aab4935a","ios":"levelo://app?vid=9d331424-9726-40f0-bbf2-bd10aab4935a"},"vehicle_type_id":"4","last_reported":1718464069,"current_range_meters":20400,"station_id":"ce4bgup2rcd13ifvqco0","pricing_plan_id":"cebpf4jnsgd1na2vs0mg"},{"bike_id":"689002ce-381e-4616-a884-d7af9221fd1d","system_id":"levelo_inurba_marseille","lat":43.317557,"lon":5.390173,"is_reserved":false,"is_disabled":false,"rental_uris":{"android":"levelo://app?vid=689002ce-381e-4616-a884-d7af9221fd1d","ios":"levelo://app?vid=689002ce-381e-4616-a884-d7af9221fd1d"},"vehicle_type_id":"4","last_reported":1718464069,"current_range_meters":19200,"station_id":"ce4bhqp2rcd13ifvqhng","pricing_plan_id":"cebpf4jnsgd1na2vs0mg"},{"bike_id":"afedff0d-ce74-4fad-a9f4-5f5190b9190c","system_id":"levelo_inurba_marseille","lat":43.317557,"lon":5.390173,"is_reserved":false,"is_disabled":false,"rental_uris":{"android":"levelo://app?vid=afedff0d-ce74-4fad-a9f4-5f5190b9190c","ios":"levelo://app?vid=afedff0d-ce74-4fad-a9f4-5f5190b9190c"},"vehicle_type_id":"4","last_reported":1718464069,"current_range_meters":25600,"station_id":"ce4bhqp2rcd13ifvqhng","pricing_plan_id":"cebpf4jnsgd1na2vs0mg"},{"bike_id":"d8414b02-eb63-4fc2-9519-00311190921a","system_id":"levelo_inurba_marseille","lat":43.32944,"lon":5.37487,"is_reserved":false,"is_disabled":false,"rental_uris":{"android":"levelo://app?vid=d8414b02-eb63-4fc2-9519-00311190921a","ios":"levelo://app?vid=d8414b02-eb63-4fc2-9519-00311190921a"},"vehicle_type_id":"4","last_reported":1718464069,"current_range_meters":23200,"station_id":"","pricing_plan_id":"cebpf4jnsgd1na2vs0mg"},{"bike_id":"12ef7e10-3fc9-428d-89be-6b9e3772adeb","system_id":"levelo_inurba_marseille","lat":43.298037,"lon":5.381066,"is_reserved":false,"is_disabled":false,"rental_uris":{"android":"levelo://app?vid=12ef7e10-3fc9-428d-89be-6b9e3772adeb","ios":"levelo://app?vid=12ef7e10-3fc9-428d-89be-6b9e3772adeb"},"vehicle_type_id":"4","last_reported":1718464069,"current_range_meters":5600,"station_id":"ce4bgip2rcd13ifvqbb0","pricing_plan_id":"cebpf4jnsgd1na2vs0mg"},{"bike_id":"272b991e-d1ee-4133-9cb8-7a3e02fa7515","system_id":"levelo_inurba_marseille","lat":43.29702,"lon":5.37881,"is_reserved":false,"is_disabled":false,"rental_uris":{"android":"levelo://app?vid=272b991e-d1ee-4133-9cb8-7a3e02fa7515","ios":"levelo://app?vid=272b991e-d1ee-4133-9cb8-7a3e02fa7515"},"vehicle_type_id":"4","last_reported":1718464069,"current_range_meters":21600,"station_id":"","pricing_plan_id":"cebpf4jnsgd1na2vs0mg"},{"bike_id":"7f9de8e4-5a22-40f4-88be-040b95ce1c31","system_id":"levelo_inurba_marseille","lat":43.304274,"lon":5.388873,"is_reserved":false,"is_disabled":false,"rental_uris":{"android":"levelo://app?vid=7f9de8e4-5a22-40f4-88be-040b95ce1c31","ios":"levelo://app?vid=7f9de8e4-5a22-40f4-88be-040b95ce1c31"},"vehicle_type_id":"4","last_reported":1718464069,"current_range_meters":7200,"station_id":"ce4bgk12rcd13ifvqbi0","pricing_plan_id":"cebpf4jnsgd1na2vs0mg"},{"bike_id":"9b3f581c-a6c4-4791-9c1a-89af6964bce5","system_id":"levelo_inurba_marseille","lat":43.295748,"lon":5.37522,"is_reserved":false,"is_disabled":false,"rental_uris":{"android":"levelo://app?vid=9b3f581c-a6c4-4791-9c1a-89af6964bce5","ios":"levelo://app?vid=9b3f581c-a6c4-4791-9c1a-89af6964bce5"},"vehicle_type_id":"4","last_reported":1718464069,"current_range_meters":3600,"station_id":"ce4bgh92rcd13ifvqb50","pricing_plan_id":"cebpf4jnsgd1na2vs0mg"},{"bike_id":"d22a3617-9024-46b6-b23b-a20bcdbe1679","system_id":"levelo_inurba_marseille","lat":43.295748,"lon":5.37522,"is_reserved":false,"is_disabled":false,"rental_uris":{"android":"levelo://app?vid=d22a3617-9024-46b6-b23b-a20bcdbe1679","ios":"levelo://app?vid=d22a3617-9024-46b6-b23b-a20bcdbe1679"},"vehicle_type_id":"4","last_reported":1718464069,"current_range_meters":26400,"station_id":"ce4bgh92rcd13ifvqb50","pricing_plan_id":"cebpf4jnsgd1na2vs0mg"},{"bike_id":"833c64e2-595d-43cb-bc2b-560080033cd3","system_id":"levelo_inurba_marseille","lat":43.304274,"lon":5.388873,"is_reserved":false,"is_disabled":false,"rental_uris":{"android":"levelo://app?vid=833c64e2-595d-43cb-bc2b-560080033cd3","ios":"levelo://app?vid=833c64e2-595d-43cb-bc2b-560080033cd3"},"vehicle_type_id":"4","last_reported":1718464069,"current_range_meters":2400,"station_id":"ce4bgk12rcd13ifvqbi0","pricing_plan_id":"cebpf4jnsgd1na2vs0mg"},{"bike_id":"40677161-6a4b-4c91-b1e2-dc594f1768db","system_id":"levelo_inurba_marseille","lat":43.30432,"lon":5.38891,"is_reserved":false,"is_disabled":false,"rental_uris":{"android":"levelo://app?vid=40677161-6a4b-4c91-b1e2-dc594f1768db","ios":"levelo://app?vid=40677161-6a4b-4c91-b1e2-dc594f1768db"},"vehicle_type_id":"4","last_reported":1718464069,"current_range_meters":0,"station_id":"ce4bgk12rcd13ifvqbi0","pricing_plan_id":"cebpf4jnsgd1na2vs0mg"},{"bike_id":"a5899033-9ad9-4fa6-9e23-d1d65738ad99","system_id":"levelo_inurba_marseille","lat":43.29788,"lon":5.38119,"is_reserved":false,"is_disabled":false,"rental_uris":{"android":"levelo://app?vid=a5899033-9ad9-4fa6-9e23-d1d65738ad99","ios":"levelo://app?vid=a5899033-9ad9-4fa6-9e23-d1d65738ad99"},"vehicle_type_id":"4","last_reported":1718464069,"current_range_meters":0,"station_id":"ce4bgip2rcd13ifvqbb0","pricing_plan_id":"cebpf4jnsgd1na2vs0mg"},{"bike_id":"48adb9b0-9f47-4aec-b0f6-42ca6d8fa940","system_id":"levelo_inurba_marseille","lat":43.296277,"lon":5.377108,"is_reserved":false,"is_disabled":false,"rental_uris":{"android":"levelo://app?vid=48adb9b0-9f47-4aec-b0f6-42ca6d8fa940","ios":"levelo://app?vid=48adb9b0-9f47-4aec-b0f6-42ca6d8fa940"},"vehicle_type_id":"4","last_reported":1718464069,"current_range_meters":0,"station_id":"ce4bgi92rcd13ifvqb90","pricing_plan_id":"cebpf4jnsgd1na2vs0mg"},{"bike_id":"91e65379-4f29-418a-9716-66ddce7b432c","system_id":"levelo_inurba_marseille","lat":43.299164,"lon":5.384001,"is_reserved":false,"is_disabled":false,"rental_uris":{"android":"levelo://app?vid=91e65379-4f29-418a-9716-66ddce7b432c","ios":"levelo://app?vid=91e65379-4f29-418a-9716-66ddce7b432c"},"vehicle_type_id":"4","last_reported":1718464069,"current_range_meters":0,"station_id":"","pricing_plan_id":"cebpf4jnsgd1na2vs0mg"},{"bike_id":"03c56e19-9b50-40c4-98fd-4a0321c162ee","system_id":"levelo_inurba_marseille","lat":43.295279,"lon":5.375048,"is_reserved":false,"is_disabled":false,"rental_uris":{"android":"levelo://app?vid=03c56e19-9b50-40c4-98fd-4a0321c162ee","ios":"levelo://app?vid=03c56e19-9b50-40c4-98fd-4a0321c162ee"},"vehicle_type_id":"4","last_reported":1718464069,"current_range_meters":0,"station_id":"ce4bgkp2rcd13ifvqbmg","pricing_plan_id":"cebpf4jnsgd1na2vs0mg"},{"bike_id":"5034d9a7-9212-4bc4-8f72-e3bee6ac5240","system_id":"levelo_inurba_marseille","lat":43.292749,"lon":5.368402,"is_reserved":false,"is_disabled":false,"rental_uris":{"android":"levelo://app?vid=5034d9a7-9212-4bc4-8f72-e3bee6ac5240","ios":"levelo://app?vid=5034d9a7-9212-4bc4-8f72-e3bee6ac5240"},"vehicle_type_id":"4","last_reported":1718464069,"current_range_meters":29200,"station_id":"ce4bhbp2rcd13ifvqesg","pricing_plan_id":"cebpf4jnsgd1na2vs0mg"},{"bike_id":"7a5002a3-e365-4061-9a39-2cf2bd68457f","system_id":"levelo_inurba_marseille","lat":43.29297,"lon":5.37462,"is_reserved":false,"is_disabled":false,"rental_uris":{"android":"levelo://app?vid=7a5002a3-e365-4061-9a39-2cf2bd68457f","ios":"levelo://app?vid=7a5002a3-e365-4061-9a39-2cf2bd68457f"},"vehicle_type_id":"4","last_reported":1718464069,"current_range_meters":0,"station_id":"ce4bgi12rcd13ifvqb70","pricing_plan_id":"cebpf4jnsgd1na2vs0mg"},{"bike_id":"6f10db97-8aad-4dda-a93e-f3fa2dd3ccd7","system_id":"levelo_inurba_marseille","lat":43.293009,"lon":5.374584,"is_reserved":false,"is_disabled":false,"rental_uris":{"android":"levelo://app?vid=6f10db97-8aad-4dda-a93e-f3fa2dd3ccd7","ios":"levelo://app?vid=6f10db97-8aad-4dda-a93e-f3fa2dd3ccd7"},"vehicle_type_id":"4","last_reported":1718464069,"current_range_meters":400,"station_id":"ce4bgi12rcd13ifvqb70","pricing_plan_id":"cebpf4jnsgd1na2vs0mg"},{"bike_id":"1e80ae6e-d4cb-4340-aa98-2085225e9037","system_id":"levelo_inurba_marseille","lat":43.292932,"lon":5.374453,"is_reserved":false,"is_disabled":false,"rental_uris":{"android":"levelo://app?vid=1e80ae6e-d4cb-4340-aa98-2085225e9037","ios":"levelo://app?vid=1e80ae6e-d4cb-4340-aa98-2085225e9037"},"vehicle_type_id":"4","last_reported":1718464069,"current_range_meters":9200,"station_id":"ce4bgi12rcd13ifvqb70","pricing_plan_id":"cebpf4jnsgd1na2vs0mg"},{"bike_id":"67479011-b7a8-450d-8a86-dab05b5b2097","system_id":"levelo_inurba_marseille","lat":43.29296,"lon":5.37462,"is_reserved":false,"is_disabled":false,"rental_uris":{"android":"levelo://app?vid=67479011-b7a8-450d-8a86-dab05b5b2097","ios":"levelo://app?vid=67479011-b7a8-450d-8a86-dab05b5b2097"},"vehicle_type_id":"4","last_reported":1718464069,"current_range_meters":7200,"station_id":"ce4bgi12rcd13ifvqb70","pricing_plan_id":"cebpf4jnsgd1na2vs0mg"},{"bike_id":"043a1e28-fcb9-499e-8aff-9a38ab38d199","system_id":"levelo_inurba_marseille","lat":43.293009,"lon":5.374584,"is_reserved":false,"is_disabled":false,"rental_uris":{"android":"levelo://app?vid=043a1e28-fcb9-499e-8aff-9a38ab38d199","ios":"levelo://app?vid=043a1e28-fcb9-499e-8aff-9a38ab38d199"},"vehicle_type_id":"4","last_reported":1718464069,"current_range_meters":0,"station_id":"ce4bgi12rcd13ifvqb70","pricing_plan_id":"cebpf4jnsgd1na2vs0mg"},{"bike_id":"e8d6f3c7-454d-4b91-8d3b-0e129a849cad","system_id":"levelo_inurba_marseille","lat":43.303002,"lon":5.392142,"is_reserved":false,"is_disabled":false,"rental_uris":{"android":"levelo://app?vid=e8d6f3c7-454d-4b91-8d3b-0e129a849cad","ios":"levelo://app?vid=e8d6f3c7-454d-4b91-8d3b-0e129a849cad"},"vehicle_type_id":"4","last_reported":1718464069,"current_range_meters":25600,"station_id":"ce4bgkh2rcd13ifvqbk0","pricing_plan_id":"cebpf4jnsgd1na2vs0mg"},{"bike_id":"8e973573-d7ff-42cc-a835-65e6d9e4b50a","system_id":"levelo_inurba_marseille","lat":43.303002,"lon":5.392142,"is_reserved":false,"is_disabled":false,"rental_uris":{"android":"levelo://app?vid=8e973573-d7ff-42cc-a835-65e6d9e4b50a","ios":"levelo://app?vid=8e973573-d7ff-42cc-a835-65e6d9e4b50a"},"vehicle_type_id":"4","last_reported":1718464069,"current_range_meters":6000,"station_id":"ce4bgkh2rcd13ifvqbk0","pricing_plan_id":"cebpf4jnsgd1na2vs0mg"},{"bike_id":"56afe3ec-6c1c-4e8b-b73d-d02345b51409","system_id":"levelo_inurba_marseille","lat":43.2936,"lon":5.37835,"is_reserved":false,"is_disabled":false,"rental_uris":{"android":"levelo://app?vid=56afe3ec-6c1c-4e8b-b73d-d02345b51409","ios":"levelo://app?vid=56afe3ec-6c1c-4e8b-b73d-d02345b51409"},"vehicle_type_id":"4","last_reported":1718464069,"current_range_meters":0,"station_id":"ce4bgjh2rcd13ifvqbf0","pricing_plan_id":"cebpf4jnsgd1na2vs0mg"},{"bike_id":"82478800-2a48-4ae1-ab63-4b7b7d59f924","system_id":"levelo_inurba_marseille","lat":43.2936,"lon":5.37835,"is_reserved":false,"is_disabled":false,"rental_uris":{"android":"levelo://app?vid=82478800-2a48-4ae1-ab63-4b7b7d59f924","ios":"levelo://app?vid=82478800-2a48-4ae1-ab63-4b7b7d59f924"},"vehicle_type_id":"4","last_reported":1718464069,"current_range_meters":0,"station_id":"ce4bgjh2rcd13ifvqbf0","pricing_plan_id":"cebpf4jnsgd1na2vs0mg"},{"bike_id":"8aa34325-f29c-4b73-9b06-7ad1f98e3840","system_id":"levelo_inurba_marseille","lat":43.30378,"lon":5.392967,"is_reserved":false,"is_disabled":false,"rental_uris":{"android":"levelo://app?vid=8aa34325-f29c-4b73-9b06-7ad1f98e3840","ios":"levelo://app?vid=8aa34325-f29c-4b73-9b06-7ad1f98e3840"},"vehicle_type_id":"4","last_reported":1718464069,"current_range_meters":0,"station_id":"","pricing_plan_id":"cebpf4jnsgd1na2vs0mg"},{"bike_id":"54388da4-b122-4114-aad0-7eddd2e6fc56","system_id":"levelo_inurba_marseille","lat":43.30085,"lon":5.390856,"is_reserved":false,"is_disabled":false,"rental_uris":{"android":"levelo://app?vid=54388da4-b122-4114-aad0-7eddd2e6fc56","ios":"levelo://app?vid=54388da4-b122-4114-aad0-7eddd2e6fc56"},"vehicle_type_id":"4","last_reported":1718464069,"current_range_meters":0,"station_id":"ce4bh192rcd13ifvqdb0","pricing_plan_id":"cebpf4jnsgd1na2vs0mg"},{"bike_id":"8f5f62b2-a65b-4604-9bbd-016424854e23","system_id":"levelo_inurba_marseille","lat":43.29205,"lon":5.36092,"is_reserved":false,"is_disabled":false,"rental_uris":{"android":"levelo://app?vid=8f5f62b2-a65b-4604-9bbd-016424854e23","ios":"levelo://app?vid=8f5f62b2-a65b-4604-9bbd-016424854e23"},"vehicle_type_id":"4","last_reported":1718464069,"current_range_meters":31200,"station_id":"ce4bhbh2rcd13ifvqeqg","pricing_plan_id":"cebpf4jnsgd1na2vs0mg"},{"bike_id":"d2b44833-b679-4fcd-9b50-b9e3b2c660f6","system_id":"levelo_inurba_marseille","lat":43.291675,"lon":5.371583,"is_reserved":false,"is_disabled":false,"rental_uris":{"android":"levelo://app?vid=d2b44833-b679-4fcd-9b50-b9e3b2c660f6","ios":"levelo://app?vid=d2b44833-b679-4fcd-9b50-b9e3b2c660f6"},"vehicle_type_id":"4","last_reported":1718464069,"current_range_meters":2000,"station_id":"ce4bha92rcd13ifvqeh0","pricing_plan_id":"cebpf4jnsgd1na2vs0mg"},{"bike_id":"9e64f22c-de48-4ee2-895e-0a7378b369d3","system_id":"levelo_inurba_marseille","lat":43.291964,"lon":5.357994,"is_reserved":false,"is_disabled":false,"rental_uris":{"android":"levelo://app?vid=9e64f22c-de48-4ee2-895e-0a7378b369d3","ios":"levelo://app?vid=9e64f22c-de48-4ee2-895e-0a7378b369d3"},"vehicle_type_id":"4","last_reported":1718464069,"current_range_meters":2800,"station_id":"ce4bhb12rcd13ifvqel0","pricing_plan_id":"cebpf4jnsgd1na2vs0mg"},{"bike_id":"ed3b73f3-5e2d-4862-8b70-b5deaefaeaee","system_id":"levelo_inurba_marseille","lat":43.313291,"lon":5.396838,"is_reserved":false,"is_disabled":false,"rental_uris":{"android":"levelo://app?vid=ed3b73f3-5e2d-4862-8b70-b5deaefaeaee","ios":"levelo://app?vid=ed3b73f3-5e2d-4862-8b70-b5deaefaeaee"},"vehicle_type_id":"4","last_reported":1718464069,"current_range_meters":12000,"station_id":"ce4bgvp2rcd13ifvqcu0","pricing_plan_id":"cebpf4jnsgd1na2vs0mg"},{"bike_id":"b70c744f-87a6-4e0b-a182-907dea6362a7","system_id":"levelo_inurba_marseille","lat":43.313291,"lon":5.396838,"is_reserved":false,"is_disabled":false,"rental_uris":{"android":"levelo://app?vid=b70c744f-87a6-4e0b-a182-907dea6362a7","ios":"levelo://app?vid=b70c744f-87a6-4e0b-a182-907dea6362a7"},"vehicle_type_id":"4","last_reported":1718464069,"current_range_meters":16400,"station_id":"ce4bgvp2rcd13ifvqcu0","pricing_plan_id":"cebpf4jnsgd1na2vs0mg"},{"bike_id":"a844706b-cbdd-4a52-8911-dc186765a547","system_id":"levelo_inurba_marseille","lat":43.290624,"lon":5.359245,"is_reserved":false,"is_disabled":false,"rental_uris":{"android":"levelo://app?vid=a844706b-cbdd-4a52-8911-dc186765a547","ios":"levelo://app?vid=a844706b-cbdd-4a52-8911-dc186765a547"},"vehicle_type_id":"4","last_reported":1718464069,"current_range_meters":800,"station_id":"ce4bha92rcd13ifvqeg0","pricing_plan_id":"cebpf4jnsgd1na2vs0mg"},{"bike_id":"fd2e6dec-8f19-42ea-893f-76e6209f87d8","system_id":"levelo_inurba_marseille","lat":43.29268,"lon":5.38446,"is_reserved":false,"is_disabled":false,"rental_uris":{"android":"levelo://app?vid=fd2e6dec-8f19-42ea-893f-76e6209f87d8","ios":"levelo://app?vid=fd2e6dec-8f19-42ea-893f-76e6209f87d8"},"vehicle_type_id":"4","last_reported":1718464069,"current_range_meters":0,"station_id":"ce4bh692rcd13ifvqea0","pricing_plan_id":"cebpf4jnsgd1na2vs0mg"},{"bike_id":"21a7e1ab-fb42-46ce-ab3a-35d922f8bd96","system_id":"levelo_inurba_marseille","lat":43.2979,"lon":5.39339,"is_reserved":false,"is_disabled":false,"rental_uris":{"android":"levelo://app?vid=21a7e1ab-fb42-46ce-ab3a-35d922f8bd96","ios":"levelo://app?vid=21a7e1ab-fb42-46ce-ab3a-35d922f8bd96"},"vehicle_type_id":"4","last_reported":1718464069,"current_range_meters":4000,"station_id":"chh1huq6cuj3fo74tm60","pricing_plan_id":"cebpf4jnsgd1na2vs0mg"},{"bike_id":"ad337912-6f5f-4dbc-933a-1fa489434b42","system_id":"levelo_inurba_marseille","lat":43.29791,"lon":5.39357,"is_reserved":false,"is_disabled":false,"rental_uris":{"android":"levelo://app?vid=ad337912-6f5f-4dbc-933a-1fa489434b42","ios":"levelo://app?vid=ad337912-6f5f-4dbc-933a-1fa489434b42"},"vehicle_type_id":"4","last_reported":1718464069,"current_range_meters":22400,"station_id":"chh1huq6cuj3fo74tm60","pricing_plan_id":"cebpf4jnsgd1na2vs0mg"},{"bike_id":"53287906-fcb6-4db4-a9ff-3f09951b03c3","system_id":"levelo_inurba_marseille","lat":43.330442,"lon":5.389148,"is_reserved":false,"is_disabled":false,"rental_uris":{"android":"levelo://app?vid=53287906-fcb6-4db4-a9ff-3f09951b03c3","ios":"levelo://app?vid=53287906-fcb6-4db4-a9ff-3f09951b03c3"},"vehicle_type_id":"4","last_reported":1718464069,"current_range_meters":8800,"station_id":"ce4bhr92rcd13ifvqhrg","pricing_plan_id":"cebpf4jnsgd1na2vs0mg"},{"bike_id":"b3d4a6a0-219b-42a9-9767-d236aa43e3b9","system_id":"levelo_inurba_marseille","lat":43.29171,"lon":5.38485,"is_reserved":false,"is_disabled":false,"rental_uris":{"android":"levelo://app?vid=b3d4a6a0-219b-42a9-9767-d236aa43e3b9","ios":"levelo://app?vid=b3d4a6a0-219b-42a9-9767-d236aa43e3b9"},"vehicle_type_id":"4","last_reported":1718464069,"current_range_meters":8000,"station_id":"","pricing_plan_id":"cebpf4jnsgd1na2vs0mg"},{"bike_id":"19eccca0-cf3f-4c7e-b281-54d1c0787007","system_id":"levelo_inurba_marseille","lat":43.290094,"lon":5.381264,"is_reserved":false,"is_disabled":false,"rental_uris":{"android":"levelo://app?vid=19eccca0-cf3f-4c7e-b281-54d1c0787007","ios":"levelo://app?vid=19eccca0-cf3f-4c7e-b281-54d1c0787007"},"vehicle_type_id":"4","last_reported":1718464069,"current_range_meters":23200,"station_id":"ce4bh4p2rcd13ifvqe1g","pricing_plan_id":"cebpf4jnsgd1na2vs0mg"},{"bike_id":"1fb81efb-659a-45be-a236-34d64311e75d","system_id":"levelo_inurba_marseille","lat":43.309371,"lon":5.401449,"is_reserved":false,"is_disabled":false,"rental_uris":{"android":"levelo://app?vid=1fb81efb-659a-45be-a236-34d64311e75d","ios":"levelo://app?vid=1fb81efb-659a-45be-a236-34d64311e75d"},"vehicle_type_id":"4","last_reported":1718464069,"current_range_meters":20000,"station_id":"ce4bgvp2rcd13ifvqct0","pricing_plan_id":"cebpf4jnsgd1na2vs0mg"},{"bike_id":"744b2ff0-6fe8-419b-a2a5-3b6b9bb7cd08","system_id":"levelo_inurba_marseille","lat":43.33752,"lon":5.37443,"is_reserved":false,"is_disabled":false,"rental_uris":{"android":"levelo://app?vid=744b2ff0-6fe8-419b-a2a5-3b6b9bb7cd08","ios":"levelo://app?vid=744b2ff0-6fe8-419b-a2a5-3b6b9bb7cd08"},"vehicle_type_id":"4","last_reported":1718464069,"current_range_meters":29200,"station_id":"","pricing_plan_id":"cebpf4jnsgd1na2vs0mg"},{"bike_id":"e1512863-0927-4702-b249-40d36e19f2c0","system_id":"levelo_inurba_marseille","lat":43.33752,"lon":5.37473,"is_reserved":false,"is_disabled":false,"rental_uris":{"android":"levelo://app?vid=e1512863-0927-4702-b249-40d36e19f2c0","ios":"levelo://app?vid=e1512863-0927-4702-b249-40d36e19f2c0"},"vehicle_type_id":"4","last_reported":1718464069,"current_range_meters":22400,"station_id":"","pricing_plan_id":"cebpf4jnsgd1na2vs0mg"},{"bike_id":"30506a7f-2101-4d35-ba23-d374d3037053","system_id":"levelo_inurba_marseille","lat":43.301117,"lon":5.398795,"is_reserved":false,"is_disabled":false,"rental_uris":{"android":"levelo://app?vid=30506a7f-2101-4d35-ba23-d374d3037053","ios":"levelo://app?vid=30506a7f-2101-4d35-ba23-d374d3037053"},"vehicle_type_id":"4","last_reported":1718464069,"current_range_meters":24800,"station_id":"ce4bh0h2rcd13ifvqd40","pricing_plan_id":"cebpf4jnsgd1na2vs0mg"},{"bike_id":"b24be162-b0bc-490e-8439-d94ba9a37aed","system_id":"levelo_inurba_marseille","lat":43.30115,"lon":5.39853,"is_reserved":false,"is_disabled":false,"rental_uris":{"android":"levelo://app?vid=b24be162-b0bc-490e-8439-d94ba9a37aed","ios":"levelo://app?vid=b24be162-b0bc-490e-8439-d94ba9a37aed"},"vehicle_type_id":"4","last_reported":1718464069,"current_range_meters":31200,"station_id":"ce4bh0h2rcd13ifvqd40","pricing_plan_id":"cebpf4jnsgd1na2vs0mg"},{"bike_id":"7074564c-08b5-4652-ba50-7976d444cb8b","system_id":"levelo_inurba_marseille","lat":43.29961,"lon":5.39742,"is_reserved":false,"is_disabled":false,"rental_uris":{"android":"levelo://app?vid=7074564c-08b5-4652-ba50-7976d444cb8b","ios":"levelo://app?vid=7074564c-08b5-4652-ba50-7976d444cb8b"},"vehicle_type_id":"4","last_reported":1718464069,"current_range_meters":0,"station_id":"","pricing_plan_id":"cebpf4jnsgd1na2vs0mg"},{"bike_id":"b0b40aaf-8420-4ff3-a4b5-a56ba06c1a8b","system_id":"levelo_inurba_marseille","lat":43.33798,"lon":5.37429,"is_reserved":false,"is_disabled":false,"rental_uris":{"android":"levelo://app?vid=b0b40aaf-8420-4ff3-a4b5-a56ba06c1a8b","ios":"levelo://app?vid=b0b40aaf-8420-4ff3-a4b5-a56ba06c1a8b"},"vehicle_type_id":"4","last_reported":1718464069,"current_range_meters":23200,"station_id":"","pricing_plan_id":"cebpf4jnsgd1na2vs0mg"},{"bike_id":"60555b94-cf1d-4139-9ff8-c9f4620ad939","system_id":"levelo_inurba_marseille","lat":43.301117,"lon":5.398795,"is_reserved":false,"is_disabled":false,"rental_uris":{"android":"levelo://app?vid=60555b94-cf1d-4139-9ff8-c9f4620ad939","ios":"levelo://app?vid=60555b94-cf1d-4139-9ff8-c9f4620ad939"},"vehicle_type_id":"4","last_reported":1718464069,"current_range_meters":13200,"station_id":"ce4bh0h2rcd13ifvqd40","pricing_plan_id":"cebpf4jnsgd1na2vs0mg"},{"bike_id":"4d689ad4-e565-4b5e-b116-55752885b706","system_id":"levelo_inurba_marseille","lat":43.28727,"lon":5.36078,"is_reserved":false,"is_disabled":false,"rental_uris":{"android":"levelo://app?vid=4d689ad4-e565-4b5e-b116-55752885b706","ios":"levelo://app?vid=4d689ad4-e565-4b5e-b116-55752885b706"},"vehicle_type_id":"4","last_reported":1718464069,"current_range_meters":14800,"station_id":"cki0cbj6b192h4jlfktg","pricing_plan_id":"cebpf4jnsgd1na2vs0mg"},{"bike_id":"8fd17948-d6d2-4858-921a-53947e680931","system_id":"levelo_inurba_marseille","lat":43.286961,"lon":5.373785,"is_reserved":false,"is_disabled":false,"rental_uris":{"android":"levelo://app?vid=8fd17948-d6d2-4858-921a-53947e680931","ios":"levelo://app?vid=8fd17948-d6d2-4858-921a-53947e680931"},"vehicle_type_id":"4","last_reported":1718464069,"current_range_meters":5600,"station_id":"ce4bh3p2rcd13ifvqdq0","pricing_plan_id":"cebpf4jnsgd1na2vs0mg"},{"bike_id":"63b2d216-c878-4d7a-a0b2-7d68c52ba387","system_id":"levelo_inurba_marseille","lat":43.298681,"lon":5.397225,"is_reserved":false,"is_disabled":false,"rental_uris":{"android":"levelo://app?vid=63b2d216-c878-4d7a-a0b2-7d68c52ba387","ios":"levelo://app?vid=63b2d216-c878-4d7a-a0b2-7d68c52ba387"},"vehicle_type_id":"4","last_reported":1718464069,"current_range_meters":6800,"station_id":"ce4bh0h2rcd13ifvqd50","pricing_plan_id":"cebpf4jnsgd1na2vs0mg"},{"bike_id":"3974d404-2608-4595-a5e5-a39a98221271","system_id":"levelo_inurba_marseille","lat":43.286961,"lon":5.373785,"is_reserved":false,"is_disabled":false,"rental_uris":{"android":"levelo://app?vid=3974d404-2608-4595-a5e5-a39a98221271","ios":"levelo://app?vid=3974d404-2608-4595-a5e5-a39a98221271"},"vehicle_type_id":"4","last_reported":1718464069,"current_range_meters":20800,"station_id":"ce4bh3p2rcd13ifvqdq0","pricing_plan_id":"cebpf4jnsgd1na2vs0mg"},{"bike_id":"e8786253-47db-4392-9633-05938b38f64e","system_id":"levelo_inurba_marseille","lat":43.302759,"lon":5.400793,"is_reserved":false,"is_disabled":false,"rental_uris":{"android":"levelo://app?vid=e8786253-47db-4392-9633-05938b38f64e","ios":"levelo://app?vid=e8786253-47db-4392-9633-05938b38f64e"},"vehicle_type_id":"4","last_reported":1718464069,"current_range_meters":28000,"station_id":"ce4bgvh2rcd13ifvqcs0","pricing_plan_id":"cebpf4jnsgd1na2vs0mg"},{"bike_id":"d295c0c2-a9db-4c87-9b35-49ae715010da","system_id":"levelo_inurba_marseille","lat":43.302759,"lon":5.400793,"is_reserved":false,"is_disabled":false,"rental_uris":{"android":"levelo://app?vid=d295c0c2-a9db-4c87-9b35-49ae715010da","ios":"levelo://app?vid=d295c0c2-a9db-4c87-9b35-49ae715010da"},"vehicle_type_id":"4","last_reported":1718464069,"current_range_meters":13600,"station_id":"ce4bgvh2rcd13ifvqcs0","pricing_plan_id":"cebpf4jnsgd1na2vs0mg"},{"bike_id":"834e55ce-f9be-41b4-94d4-dd2d0afde491","system_id":"levelo_inurba_marseille","lat":43.290336,"lon":5.386425,"is_reserved":false,"is_disabled":false,"rental_uris":{"android":"levelo://app?vid=834e55ce-f9be-41b4-94d4-dd2d0afde491","ios":"levelo://app?vid=834e55ce-f9be-41b4-94d4-dd2d0afde491"},"vehicle_type_id":"4","last_reported":1718464069,"current_range_meters":3200,"station_id":"ce4bh4p2rcd13ifvqe0g","pricing_plan_id":"cebpf4jnsgd1na2vs0mg"},{"bike_id":"9c4c5282-1fae-43c1-b700-c5f5eecb4a70","system_id":"levelo_inurba_marseille","lat":43.302759,"lon":5.400793,"is_reserved":false,"is_disabled":false,"rental_uris":{"android":"levelo://app?vid=9c4c5282-1fae-43c1-b700-c5f5eecb4a70","ios":"levelo://app?vid=9c4c5282-1fae-43c1-b700-c5f5eecb4a70"},"vehicle_type_id":"4","last_reported":1718464069,"current_range_meters":31200,"station_id":"ce4bgvh2rcd13ifvqcs0","pricing_plan_id":"cebpf4jnsgd1na2vs0mg"},{"bike_id":"796b4369-2eff-4535-8f45-c2301caebeb6","system_id":"levelo_inurba_marseille","lat":43.286039,"lon":5.370679,"is_reserved":false,"is_disabled":false,"rental_uris":{"android":"levelo://app?vid=796b4369-2eff-4535-8f45-c2301caebeb6","ios":"levelo://app?vid=796b4369-2eff-4535-8f45-c2301caebeb6"},"vehicle_type_id":"4","last_reported":1718464069,"current_range_meters":6000,"station_id":"ce4bht12rcd13ifvqi60","pricing_plan_id":"cebpf4jnsgd1na2vs0mg"},{"bike_id":"b304c42e-8480-4f76-901e-dcf789f9d43f","system_id":"levelo_inurba_marseille","lat":43.286039,"lon":5.370679,"is_reserved":false,"is_disabled":false,"rental_uris":{"android":"levelo://app?vid=b304c42e-8480-4f76-901e-dcf789f9d43f","ios":"levelo://app?vid=b304c42e-8480-4f76-901e-dcf789f9d43f"},"vehicle_type_id":"4","last_reported":1718464069,"current_range_meters":14800,"station_id":"ce4bht12rcd13ifvqi60","pricing_plan_id":"cebpf4jnsgd1na2vs0mg"},{"bike_id":"2d4a914b-fea1-4489-b2fc-d62fee7e4418","system_id":"levelo_inurba_marseille","lat":43.286039,"lon":5.370681,"is_reserved":false,"is_disabled":false,"rental_uris":{"android":"levelo://app?vid=2d4a914b-fea1-4489-b2fc-d62fee7e4418","ios":"levelo://app?vid=2d4a914b-fea1-4489-b2fc-d62fee7e4418"},"vehicle_type_id":"4","last_reported":1718464069,"current_range_meters":14800,"station_id":"ce4bht12rcd13ifvqi60","pricing_plan_id":"cebpf4jnsgd1na2vs0mg"},{"bike_id":"6248311b-628a-4468-99cd-e9a54228186c","system_id":"levelo_inurba_marseille","lat":43.287184,"lon":5.37937,"is_reserved":false,"is_disabled":false,"rental_uris":{"android":"levelo://app?vid=6248311b-628a-4468-99cd-e9a54228186c","ios":"levelo://app?vid=6248311b-628a-4468-99cd-e9a54228186c"},"vehicle_type_id":"4","last_reported":1718464069,"current_range_meters":6400,"station_id":"ce4bh9p2rcd13ifvqec0","pricing_plan_id":"cebpf4jnsgd1na2vs0mg"},{"bike_id":"5bf34eb3-7905-4dae-a80b-1f6152a434b3","system_id":"levelo_inurba_marseille","lat":43.316828,"lon":5.404723,"is_reserved":false,"is_disabled":false,"rental_uris":{"android":"levelo://app?vid=5bf34eb3-7905-4dae-a80b-1f6152a434b3","ios":"levelo://app?vid=5bf34eb3-7905-4dae-a80b-1f6152a434b3"},"vehicle_type_id":"4","last_reported":1718464069,"current_range_meters":2800,"station_id":"ce4bh012rcd13ifvqd00","pricing_plan_id":"cebpf4jnsgd1na2vs0mg"},{"bike_id":"cedb7837-f98e-491d-9736-b645b7887ae9","system_id":"levelo_inurba_marseille","lat":43.316821,"lon":5.404737,"is_reserved":false,"is_disabled":false,"rental_uris":{"android":"levelo://app?vid=cedb7837-f98e-491d-9736-b645b7887ae9","ios":"levelo://app?vid=cedb7837-f98e-491d-9736-b645b7887ae9"},"vehicle_type_id":"4","last_reported":1718464069,"current_range_meters":31600,"station_id":"ce4bh012rcd13ifvqd00","pricing_plan_id":"cebpf4jnsgd1na2vs0mg"},{"bike_id":"daadfab4-d4f4-4d9f-acc4-188b787f631e","system_id":"levelo_inurba_marseille","lat":43.291994,"lon":5.392907,"is_reserved":false,"is_disabled":false,"rental_uris":{"android":"levelo://app?vid=daadfab4-d4f4-4d9f-acc4-188b787f631e","ios":"levelo://app?vid=daadfab4-d4f4-4d9f-acc4-188b787f631e"},"vehicle_type_id":"4","last_reported":1718464069,"current_range_meters":400,"station_id":"ce4bh192rcd13ifvqdd0","pricing_plan_id":"cebpf4jnsgd1na2vs0mg"},{"bike_id":"21c41736-3f20-41f6-82ac-b1e0628c178b","system_id":"levelo_inurba_marseille","lat":43.294314,"lon":5.397498,"is_reserved":false,"is_disabled":false,"rental_uris":{"android":"levelo://app?vid=21c41736-3f20-41f6-82ac-b1e0628c178b","ios":"levelo://app?vid=21c41736-3f20-41f6-82ac-b1e0628c178b"},"vehicle_type_id":"4","last_reported":1718464069,"current_range_meters":6800,"station_id":"ce4bh3h2rcd13ifvqdo0","pricing_plan_id":"cebpf4jnsgd1na2vs0mg"},{"bike_id":"e69c05bb-f8a5-4248-a758-1e9267f8735f","system_id":"levelo_inurba_marseille","lat":43.294314,"lon":5.397498,"is_reserved":false,"is_disabled":false,"rental_uris":{"android":"levelo://app?vid=e69c05bb-f8a5-4248-a758-1e9267f8735f","ios":"levelo://app?vid=e69c05bb-f8a5-4248-a758-1e9267f8735f"},"vehicle_type_id":"4","last_reported":1718464069,"current_range_meters":1600,"station_id":"ce4bh3h2rcd13ifvqdo0","pricing_plan_id":"cebpf4jnsgd1na2vs0mg"},{"bike_id":"ccd4c4cc-38f3-43b3-99ba-52f55b96e4fe","system_id":"levelo_inurba_marseille","lat":43.294314,"lon":5.397498,"is_reserved":false,"is_disabled":false,"rental_uris":{"android":"levelo://app?vid=ccd4c4cc-38f3-43b3-99ba-52f55b96e4fe","ios":"levelo://app?vid=ccd4c4cc-38f3-43b3-99ba-52f55b96e4fe"},"vehicle_type_id":"4","last_reported":1718464069,"current_range_meters":22400,"station_id":"ce4bh3h2rcd13ifvqdo0","pricing_plan_id":"cebpf4jnsgd1na2vs0mg"},{"bike_id":"1a85fa2d-7c4d-4cb6-bc7b-3dfd2bd16662","system_id":"levelo_inurba_marseille","lat":43.294314,"lon":5.397498,"is_reserved":false,"is_disabled":false,"rental_uris":{"android":"levelo://app?vid=1a85fa2d-7c4d-4cb6-bc7b-3dfd2bd16662","ios":"levelo://app?vid=1a85fa2d-7c4d-4cb6-bc7b-3dfd2bd16662"},"vehicle_type_id":"4","last_reported":1718464069,"current_range_meters":1200,"station_id":"ce4bh3h2rcd13ifvqdo0","pricing_plan_id":"cebpf4jnsgd1na2vs0mg"},{"bike_id":"4f40dd2e-f3e8-453b-8c2d-42e8d3a7ead8","system_id":"levelo_inurba_marseille","lat":43.28621,"lon":5.35105,"is_reserved":false,"is_disabled":false,"rental_uris":{"android":"levelo://app?vid=4f40dd2e-f3e8-453b-8c2d-42e8d3a7ead8","ios":"levelo://app?vid=4f40dd2e-f3e8-453b-8c2d-42e8d3a7ead8"},"vehicle_type_id":"4","last_reported":1718464069,"current_range_meters":14800,"station_id":"ce4bhch2rcd13ifvqeug","pricing_plan_id":"cebpf4jnsgd1na2vs0mg"},{"bike_id":"57b8fbcf-29dd-4c52-b68c-d6e38610f50d","system_id":"levelo_inurba_marseille","lat":43.28619,"lon":5.35105,"is_reserved":false,"is_disabled":false,"rental_uris":{"android":"levelo://app?vid=57b8fbcf-29dd-4c52-b68c-d6e38610f50d","ios":"levelo://app?vid=57b8fbcf-29dd-4c52-b68c-d6e38610f50d"},"vehicle_type_id":"4","last_reported":1718464069,"current_range_meters":3200,"station_id":"ce4bhch2rcd13ifvqeug","pricing_plan_id":"cebpf4jnsgd1na2vs0mg"},{"bike_id":"0ec95d4f-575f-4449-9be7-e7f8e098d870","system_id":"levelo_inurba_marseille","lat":43.28617,"lon":5.3511,"is_reserved":false,"is_disabled":false,"rental_uris":{"android":"levelo://app?vid=0ec95d4f-575f-4449-9be7-e7f8e098d870","ios":"levelo://app?vid=0ec95d4f-575f-4449-9be7-e7f8e098d870"},"vehicle_type_id":"4","last_reported":1718464069,"current_range_meters":15600,"station_id":"ce4bhch2rcd13ifvqeug","pricing_plan_id":"cebpf4jnsgd1na2vs0mg"},{"bike_id":"962abb60-416b-41cb-8620-a9f29aa4a695","system_id":"levelo_inurba_marseille","lat":43.2862,"lon":5.351,"is_reserved":false,"is_disabled":false,"rental_uris":{"android":"levelo://app?vid=962abb60-416b-41cb-8620-a9f29aa4a695","ios":"levelo://app?vid=962abb60-416b-41cb-8620-a9f29aa4a695"},"vehicle_type_id":"4","last_reported":1718464069,"current_range_meters":19600,"station_id":"ce4bhch2rcd13ifvqeug","pricing_plan_id":"cebpf4jnsgd1na2vs0mg"},{"bike_id":"5a9bea87-7ea6-4dec-bc27-e6f202b0bc90","system_id":"levelo_inurba_marseille","lat":43.28617,"lon":5.35109,"is_reserved":false,"is_disabled":false,"rental_uris":{"android":"levelo://app?vid=5a9bea87-7ea6-4dec-bc27-e6f202b0bc90","ios":"levelo://app?vid=5a9bea87-7ea6-4dec-bc27-e6f202b0bc90"},"vehicle_type_id":"4","last_reported":1718464069,"current_range_meters":6800,"station_id":"ce4bhch2rcd13ifvqeug","pricing_plan_id":"cebpf4jnsgd1na2vs0mg"},{"bike_id":"21c1b116-d57a-483f-b12d-18e5e75e15b5","system_id":"levelo_inurba_marseille","lat":43.28619,"lon":5.35102,"is_reserved":false,"is_disabled":false,"rental_uris":{"android":"levelo://app?vid=21c1b116-d57a-483f-b12d-18e5e75e15b5","ios":"levelo://app?vid=21c1b116-d57a-483f-b12d-18e5e75e15b5"},"vehicle_type_id":"4","last_reported":1718464069,"current_range_meters":28400,"station_id":"ce4bhch2rcd13ifvqeug","pricing_plan_id":"cebpf4jnsgd1na2vs0mg"},{"bike_id":"b4c9c797-a1c5-424a-91db-52c9664531b2","system_id":"levelo_inurba_marseille","lat":43.28617,"lon":5.35108,"is_reserved":false,"is_disabled":false,"rental_uris":{"android":"levelo://app?vid=b4c9c797-a1c5-424a-91db-52c9664531b2","ios":"levelo://app?vid=b4c9c797-a1c5-424a-91db-52c9664531b2"},"vehicle_type_id":"4","last_reported":1718464069,"current_range_meters":17600,"station_id":"ce4bhch2rcd13ifvqeug","pricing_plan_id":"cebpf4jnsgd1na2vs0mg"},{"bike_id":"6a3294cc-0a66-494c-bcfb-071200783c06","system_id":"levelo_inurba_marseille","lat":43.28618,"lon":5.35104,"is_reserved":false,"is_disabled":false,"rental_uris":{"android":"levelo://app?vid=6a3294cc-0a66-494c-bcfb-071200783c06","ios":"levelo://app?vid=6a3294cc-0a66-494c-bcfb-071200783c06"},"vehicle_type_id":"4","last_reported":1718464069,"current_range_meters":400,"station_id":"ce4bhch2rcd13ifvqeug","pricing_plan_id":"cebpf4jnsgd1na2vs0mg"},{"bike_id":"3a0bdd57-a8e0-42cf-9c55-18043d3ed9fe","system_id":"levelo_inurba_marseille","lat":43.28616,"lon":5.35109,"is_reserved":false,"is_disabled":false,"rental_uris":{"android":"levelo://app?vid=3a0bdd57-a8e0-42cf-9c55-18043d3ed9fe","ios":"levelo://app?vid=3a0bdd57-a8e0-42cf-9c55-18043d3ed9fe"},"vehicle_type_id":"4","last_reported":1718464069,"current_range_meters":21600,"station_id":"ce4bhch2rcd13ifvqeug","pricing_plan_id":"cebpf4jnsgd1na2vs0mg"},{"bike_id":"498d1084-67d2-4743-a6d3-9afc5226d260","system_id":"levelo_inurba_marseille","lat":43.28616,"lon":5.35108,"is_reserved":false,"is_disabled":false,"rental_uris":{"android":"levelo://app?vid=498d1084-67d2-4743-a6d3-9afc5226d260","ios":"levelo://app?vid=498d1084-67d2-4743-a6d3-9afc5226d260"},"vehicle_type_id":"4","last_reported":1718464069,"current_range_meters":23600,"station_id":"ce4bhch2rcd13ifvqeug","pricing_plan_id":"cebpf4jnsgd1na2vs0mg"},{"bike_id":"db4b5efb-acf9-4896-8cfa-921e929f34e9","system_id":"levelo_inurba_marseille","lat":43.28618,"lon":5.35101,"is_reserved":false,"is_disabled":false,"rental_uris":{"android":"levelo://app?vid=db4b5efb-acf9-4896-8cfa-921e929f34e9","ios":"levelo://app?vid=db4b5efb-acf9-4896-8cfa-921e929f34e9"},"vehicle_type_id":"4","last_reported":1718464069,"current_range_meters":0,"station_id":"ce4bhch2rcd13ifvqeug","pricing_plan_id":"cebpf4jnsgd1na2vs0mg"},{"bike_id":"4753fc88-9432-4915-9594-d48d2e0f942c","system_id":"levelo_inurba_marseille","lat":43.28615,"lon":5.35109,"is_reserved":false,"is_disabled":false,"rental_uris":{"android":"levelo://app?vid=4753fc88-9432-4915-9594-d48d2e0f942c","ios":"levelo://app?vid=4753fc88-9432-4915-9594-d48d2e0f942c"},"vehicle_type_id":"4","last_reported":1718464069,"current_range_meters":3600,"station_id":"ce4bhch2rcd13ifvqeug","pricing_plan_id":"cebpf4jnsgd1na2vs0mg"},{"bike_id":"27db9e5d-1786-4c2a-bb8c-20218315de52","system_id":"levelo_inurba_marseille","lat":43.28617,"lon":5.35102,"is_reserved":false,"is_disabled":false,"rental_uris":{"android":"levelo://app?vid=27db9e5d-1786-4c2a-bb8c-20218315de52","ios":"levelo://app?vid=27db9e5d-1786-4c2a-bb8c-20218315de52"},"vehicle_type_id":"4","last_reported":1718464069,"current_range_meters":21200,"station_id":"ce4bhch2rcd13ifvqeug","pricing_plan_id":"cebpf4jnsgd1na2vs0mg"},{"bike_id":"f148dc29-62a1-46bf-9d44-905e9eb55ba9","system_id":"levelo_inurba_marseille","lat":43.28616,"lon":5.35105,"is_reserved":false,"is_disabled":false,"rental_uris":{"android":"levelo://app?vid=f148dc29-62a1-46bf-9d44-905e9eb55ba9","ios":"levelo://app?vid=f148dc29-62a1-46bf-9d44-905e9eb55ba9"},"vehicle_type_id":"4","last_reported":1718464069,"current_range_meters":17200,"station_id":"ce4bhch2rcd13ifvqeug","pricing_plan_id":"cebpf4jnsgd1na2vs0mg"},{"bike_id":"db4e3c2d-715b-457d-9090-4068af799269","system_id":"levelo_inurba_marseille","lat":43.28615,"lon":5.35106,"is_reserved":false,"is_disabled":false,"rental_uris":{"android":"levelo://app?vid=db4e3c2d-715b-457d-9090-4068af799269","ios":"levelo://app?vid=db4e3c2d-715b-457d-9090-4068af799269"},"vehicle_type_id":"4","last_reported":1718464069,"current_range_meters":12800,"station_id":"ce4bhch2rcd13ifvqeug","pricing_plan_id":"cebpf4jnsgd1na2vs0mg"},{"bike_id":"fdb1008f-36dd-4742-9e12-3660201bc9e0","system_id":"levelo_inurba_marseille","lat":43.286132,"lon":5.351094,"is_reserved":false,"is_disabled":false,"rental_uris":{"android":"levelo://app?vid=fdb1008f-36dd-4742-9e12-3660201bc9e0","ios":"levelo://app?vid=fdb1008f-36dd-4742-9e12-3660201bc9e0"},"vehicle_type_id":"4","last_reported":1718464069,"current_range_meters":0,"station_id":"","pricing_plan_id":"cebpf4jnsgd1na2vs0mg"},{"bike_id":"2d47386f-55a6-445b-b1bf-82a7fcc93537","system_id":"levelo_inurba_marseille","lat":43.28615,"lon":5.35102,"is_reserved":false,"is_disabled":false,"rental_uris":{"android":"levelo://app?vid=2d47386f-55a6-445b-b1bf-82a7fcc93537","ios":"levelo://app?vid=2d47386f-55a6-445b-b1bf-82a7fcc93537"},"vehicle_type_id":"4","last_reported":1718464069,"current_range_meters":17600,"station_id":"ce4bhch2rcd13ifvqeug","pricing_plan_id":"cebpf4jnsgd1na2vs0mg"},{"bike_id":"46da65ca-ae7b-47bc-839d-695264f16a2a","system_id":"levelo_inurba_marseille","lat":43.28615,"lon":5.35101,"is_reserved":false,"is_disabled":false,"rental_uris":{"android":"levelo://app?vid=46da65ca-ae7b-47bc-839d-695264f16a2a","ios":"levelo://app?vid=46da65ca-ae7b-47bc-839d-695264f16a2a"},"vehicle_type_id":"4","last_reported":1718464069,"current_range_meters":13600,"station_id":"ce4bhch2rcd13ifvqeug","pricing_plan_id":"cebpf4jnsgd1na2vs0mg"},{"bike_id":"2bfce80c-3bed-4ca3-b1cd-b815f1e7759e","system_id":"levelo_inurba_marseille","lat":43.285856,"lon":5.350771,"is_reserved":false,"is_disabled":false,"rental_uris":{"android":"levelo://app?vid=2bfce80c-3bed-4ca3-b1cd-b815f1e7759e","ios":"levelo://app?vid=2bfce80c-3bed-4ca3-b1cd-b815f1e7759e"},"vehicle_type_id":"4","last_reported":1718464069,"current_range_meters":0,"station_id":"ce4bhch2rcd13ifvqeug","pricing_plan_id":"cebpf4jnsgd1na2vs0mg"},{"bike_id":"b5dc68c2-b2a9-4e06-b0ca-15e9a60c094f","system_id":"levelo_inurba_marseille","lat":43.28613,"lon":5.35105,"is_reserved":false,"is_disabled":false,"rental_uris":{"android":"levelo://app?vid=b5dc68c2-b2a9-4e06-b0ca-15e9a60c094f","ios":"levelo://app?vid=b5dc68c2-b2a9-4e06-b0ca-15e9a60c094f"},"vehicle_type_id":"4","last_reported":1718464069,"current_range_meters":13600,"station_id":"ce4bhch2rcd13ifvqeug","pricing_plan_id":"cebpf4jnsgd1na2vs0mg"},{"bike_id":"9783a789-553c-458d-a0cc-f5c7eebbbf25","system_id":"levelo_inurba_marseille","lat":43.28612,"lon":5.35107,"is_reserved":false,"is_disabled":false,"rental_uris":{"android":"levelo://app?vid=9783a789-553c-458d-a0cc-f5c7eebbbf25","ios":"levelo://app?vid=9783a789-553c-458d-a0cc-f5c7eebbbf25"},"vehicle_type_id":"4","last_reported":1718464069,"current_range_meters":26800,"station_id":"ce4bhch2rcd13ifvqeug","pricing_plan_id":"cebpf4jnsgd1na2vs0mg"},{"bike_id":"160334b7-fbb8-42df-8f25-d4c2cf6b93bb","system_id":"levelo_inurba_marseille","lat":43.28613,"lon":5.35102,"is_reserved":false,"is_disabled":false,"rental_uris":{"android":"levelo://app?vid=160334b7-fbb8-42df-8f25-d4c2cf6b93bb","ios":"levelo://app?vid=160334b7-fbb8-42df-8f25-d4c2cf6b93bb"},"vehicle_type_id":"4","last_reported":1718464069,"current_range_meters":0,"station_id":"ce4bhch2rcd13ifvqeug","pricing_plan_id":"cebpf4jnsgd1na2vs0mg"},{"bike_id":"9d5d42cc-2b99-4fba-a444-1fd64251ea7d","system_id":"levelo_inurba_marseille","lat":43.28613,"lon":5.351,"is_reserved":false,"is_disabled":false,"rental_uris":{"android":"levelo://app?vid=9d5d42cc-2b99-4fba-a444-1fd64251ea7d","ios":"levelo://app?vid=9d5d42cc-2b99-4fba-a444-1fd64251ea7d"},"vehicle_type_id":"4","last_reported":1718464069,"current_range_meters":8800,"station_id":"ce4bhch2rcd13ifvqeug","pricing_plan_id":"cebpf4jnsgd1na2vs0mg"},{"bike_id":"eb6653cc-b34a-46fb-98c1-c0d2db4be9d6","system_id":"levelo_inurba_marseille","lat":43.28614,"lon":5.35096,"is_reserved":false,"is_disabled":false,"rental_uris":{"android":"levelo://app?vid=eb6653cc-b34a-46fb-98c1-c0d2db4be9d6","ios":"levelo://app?vid=eb6653cc-b34a-46fb-98c1-c0d2db4be9d6"},"vehicle_type_id":"4","last_reported":1718464069,"current_range_meters":18000,"station_id":"ce4bhch2rcd13ifvqeug","pricing_plan_id":"cebpf4jnsgd1na2vs0mg"},{"bike_id":"901051d8-a5c3-4a98-8f1a-03acc8b253e4","system_id":"levelo_inurba_marseille","lat":43.28612,"lon":5.35095,"is_reserved":false,"is_disabled":false,"rental_uris":{"android":"levelo://app?vid=901051d8-a5c3-4a98-8f1a-03acc8b253e4","ios":"levelo://app?vid=901051d8-a5c3-4a98-8f1a-03acc8b253e4"},"vehicle_type_id":"4","last_reported":1718464069,"current_range_meters":19200,"station_id":"ce4bhch2rcd13ifvqeug","pricing_plan_id":"cebpf4jnsgd1na2vs0mg"},{"bike_id":"be91949c-3ef7-4acf-bade-b72958be0963","system_id":"levelo_inurba_marseille","lat":43.285856,"lon":5.350771,"is_reserved":false,"is_disabled":false,"rental_uris":{"android":"levelo://app?vid=be91949c-3ef7-4acf-bade-b72958be0963","ios":"levelo://app?vid=be91949c-3ef7-4acf-bade-b72958be0963"},"vehicle_type_id":"4","last_reported":1718464069,"current_range_meters":14400,"station_id":"ce4bhch2rcd13ifvqeug","pricing_plan_id":"cebpf4jnsgd1na2vs0mg"},{"bike_id":"5ef45a37-acac-4484-9f64-64c282105386","system_id":"levelo_inurba_marseille","lat":43.28606,"lon":5.35096,"is_reserved":false,"is_disabled":false,"rental_uris":{"android":"levelo://app?vid=5ef45a37-acac-4484-9f64-64c282105386","ios":"levelo://app?vid=5ef45a37-acac-4484-9f64-64c282105386"},"vehicle_type_id":"4","last_reported":1718464069,"current_range_meters":31200,"station_id":"ce4bhch2rcd13ifvqeug","pricing_plan_id":"cebpf4jnsgd1na2vs0mg"},{"bike_id":"c980573b-2b5d-4e18-bf13-f7c543de11b1","system_id":"levelo_inurba_marseille","lat":43.283998,"lon":5.375062,"is_reserved":false,"is_disabled":false,"rental_uris":{"android":"levelo://app?vid=c980573b-2b5d-4e18-bf13-f7c543de11b1","ios":"levelo://app?vid=c980573b-2b5d-4e18-bf13-f7c543de11b1"},"vehicle_type_id":"4","last_reported":1718464069,"current_range_meters":3600,"station_id":"ce4bh412rcd13ifvqds0","pricing_plan_id":"cebpf4jnsgd1na2vs0mg"},{"bike_id":"91377b58-f1f3-4844-a053-b1e202f668c0","system_id":"levelo_inurba_marseille","lat":43.283998,"lon":5.375062,"is_reserved":false,"is_disabled":false,"rental_uris":{"android":"levelo://app?vid=91377b58-f1f3-4844-a053-b1e202f668c0","ios":"levelo://app?vid=91377b58-f1f3-4844-a053-b1e202f668c0"},"vehicle_type_id":"4","last_reported":1718464069,"current_range_meters":19600,"station_id":"ce4bh412rcd13ifvqds0","pricing_plan_id":"cebpf4jnsgd1na2vs0mg"},{"bike_id":"cae184cc-605f-47d8-8668-abd85cadac46","system_id":"levelo_inurba_marseille","lat":43.285724,"lon":5.383249,"is_reserved":false,"is_disabled":false,"rental_uris":{"android":"levelo://app?vid=cae184cc-605f-47d8-8668-abd85cadac46","ios":"levelo://app?vid=cae184cc-605f-47d8-8668-abd85cadac46"},"vehicle_type_id":"4","last_reported":1718464069,"current_range_meters":0,"station_id":"","pricing_plan_id":"cebpf4jnsgd1na2vs0mg"},{"bike_id":"71838ba8-3ea5-4e61-a09a-5f094b6a9b56","system_id":"levelo_inurba_marseille","lat":43.286595,"lon":5.386795,"is_reserved":false,"is_disabled":false,"rental_uris":{"android":"levelo://app?vid=71838ba8-3ea5-4e61-a09a-5f094b6a9b56","ios":"levelo://app?vid=71838ba8-3ea5-4e61-a09a-5f094b6a9b56"},"vehicle_type_id":"4","last_reported":1718464069,"current_range_meters":22800,"station_id":"ce4bh492rcd13ifvqdug","pricing_plan_id":"cebpf4jnsgd1na2vs0mg"},{"bike_id":"9202701d-585e-4224-b3a2-fc6279fad6f7","system_id":"levelo_inurba_marseille","lat":43.286595,"lon":5.386795,"is_reserved":false,"is_disabled":false,"rental_uris":{"android":"levelo://app?vid=9202701d-585e-4224-b3a2-fc6279fad6f7","ios":"levelo://app?vid=9202701d-585e-4224-b3a2-fc6279fad6f7"},"vehicle_type_id":"4","last_reported":1718464069,"current_range_meters":3200,"station_id":"ce4bh492rcd13ifvqdug","pricing_plan_id":"cebpf4jnsgd1na2vs0mg"},{"bike_id":"e229690f-a312-45ef-b429-442417c9cbc8","system_id":"levelo_inurba_marseille","lat":43.319179,"lon":5.407725,"is_reserved":false,"is_disabled":false,"rental_uris":{"android":"levelo://app?vid=e229690f-a312-45ef-b429-442417c9cbc8","ios":"levelo://app?vid=e229690f-a312-45ef-b429-442417c9cbc8"},"vehicle_type_id":"4","last_reported":1718464069,"current_range_meters":31600,"station_id":"ce4bhq12rcd13ifvqhig","pricing_plan_id":"cebpf4jnsgd1na2vs0mg"},{"bike_id":"4a56fdfe-237c-4eb1-9409-668452a8b93b","system_id":"levelo_inurba_marseille","lat":43.319179,"lon":5.407725,"is_reserved":false,"is_disabled":false,"rental_uris":{"android":"levelo://app?vid=4a56fdfe-237c-4eb1-9409-668452a8b93b","ios":"levelo://app?vid=4a56fdfe-237c-4eb1-9409-668452a8b93b"},"vehicle_type_id":"4","last_reported":1718464069,"current_range_meters":27200,"station_id":"ce4bhq12rcd13ifvqhig","pricing_plan_id":"cebpf4jnsgd1na2vs0mg"},{"bike_id":"774f5251-ae0b-4305-9298-2bba315dcf2e","system_id":"levelo_inurba_marseille","lat":43.319179,"lon":5.407725,"is_reserved":false,"is_disabled":false,"rental_uris":{"android":"levelo://app?vid=774f5251-ae0b-4305-9298-2bba315dcf2e","ios":"levelo://app?vid=774f5251-ae0b-4305-9298-2bba315dcf2e"},"vehicle_type_id":"4","last_reported":1718464069,"current_range_meters":11200,"station_id":"ce4bhq12rcd13ifvqhig","pricing_plan_id":"cebpf4jnsgd1na2vs0mg"},{"bike_id":"cb4053bb-75a6-4a28-994d-83cddf62f7bb","system_id":"levelo_inurba_marseille","lat":43.337168,"lon":5.391825,"is_reserved":false,"is_disabled":false,"rental_uris":{"android":"levelo://app?vid=cb4053bb-75a6-4a28-994d-83cddf62f7bb","ios":"levelo://app?vid=cb4053bb-75a6-4a28-994d-83cddf62f7bb"},"vehicle_type_id":"4","last_reported":1718464069,"current_range_meters":4400,"station_id":"ce4bhr92rcd13ifvqhsg","pricing_plan_id":"cebpf4jnsgd1na2vs0mg"},{"bike_id":"9523b7ca-4336-41f1-85bb-5c49a4be3e04","system_id":"levelo_inurba_marseille","lat":43.337168,"lon":5.391825,"is_reserved":false,"is_disabled":false,"rental_uris":{"android":"levelo://app?vid=9523b7ca-4336-41f1-85bb-5c49a4be3e04","ios":"levelo://app?vid=9523b7ca-4336-41f1-85bb-5c49a4be3e04"},"vehicle_type_id":"4","last_reported":1718464069,"current_range_meters":24400,"station_id":"ce4bhr92rcd13ifvqhsg","pricing_plan_id":"cebpf4jnsgd1na2vs0mg"},{"bike_id":"07e31c47-42f9-4a9b-836a-7ecf727c7da1","system_id":"levelo_inurba_marseille","lat":43.337168,"lon":5.391825,"is_reserved":false,"is_disabled":false,"rental_uris":{"android":"levelo://app?vid=07e31c47-42f9-4a9b-836a-7ecf727c7da1","ios":"levelo://app?vid=07e31c47-42f9-4a9b-836a-7ecf727c7da1"},"vehicle_type_id":"4","last_reported":1718464069,"current_range_meters":16400,"station_id":"ce4bhr92rcd13ifvqhsg","pricing_plan_id":"cebpf4jnsgd1na2vs0mg"},{"bike_id":"4ac683cc-1dcb-4847-b406-ffc52fb8fe38","system_id":"levelo_inurba_marseille","lat":43.33727,"lon":5.39175,"is_reserved":false,"is_disabled":false,"rental_uris":{"android":"levelo://app?vid=4ac683cc-1dcb-4847-b406-ffc52fb8fe38","ios":"levelo://app?vid=4ac683cc-1dcb-4847-b406-ffc52fb8fe38"},"vehicle_type_id":"4","last_reported":1718464069,"current_range_meters":400,"station_id":"ce4bhr92rcd13ifvqhsg","pricing_plan_id":"cebpf4jnsgd1na2vs0mg"},{"bike_id":"1bdd5e17-ff4f-4ce0-8323-c050ffcb7e55","system_id":"levelo_inurba_marseille","lat":43.33723,"lon":5.39184,"is_reserved":false,"is_disabled":false,"rental_uris":{"android":"levelo://app?vid=1bdd5e17-ff4f-4ce0-8323-c050ffcb7e55","ios":"levelo://app?vid=1bdd5e17-ff4f-4ce0-8323-c050ffcb7e55"},"vehicle_type_id":"4","last_reported":1718464069,"current_range_meters":8800,"station_id":"ce4bhr92rcd13ifvqhsg","pricing_plan_id":"cebpf4jnsgd1na2vs0mg"},{"bike_id":"ebd3880a-318d-477f-823a-d5570f8dfe50","system_id":"levelo_inurba_marseille","lat":43.323464,"lon":5.406297,"is_reserved":false,"is_disabled":false,"rental_uris":{"android":"levelo://app?vid=ebd3880a-318d-477f-823a-d5570f8dfe50","ios":"levelo://app?vid=ebd3880a-318d-477f-823a-d5570f8dfe50"},"vehicle_type_id":"4","last_reported":1718464069,"current_range_meters":4400,"station_id":"ce4bhq92rcd13ifvqhjg","pricing_plan_id":"cebpf4jnsgd1na2vs0mg"},{"bike_id":"01e4e9b1-0ee7-440f-a35f-5235e48b5dde","system_id":"levelo_inurba_marseille","lat":43.323464,"lon":5.406297,"is_reserved":false,"is_disabled":false,"rental_uris":{"android":"levelo://app?vid=01e4e9b1-0ee7-440f-a35f-5235e48b5dde","ios":"levelo://app?vid=01e4e9b1-0ee7-440f-a35f-5235e48b5dde"},"vehicle_type_id":"4","last_reported":1718464069,"current_range_meters":26800,"station_id":"ce4bhq92rcd13ifvqhjg","pricing_plan_id":"cebpf4jnsgd1na2vs0mg"},{"bike_id":"9846c02f-92de-4ccf-83eb-b029d6d33dc3","system_id":"levelo_inurba_marseille","lat":43.323464,"lon":5.406297,"is_reserved":false,"is_disabled":false,"rental_uris":{"android":"levelo://app?vid=9846c02f-92de-4ccf-83eb-b029d6d33dc3","ios":"levelo://app?vid=9846c02f-92de-4ccf-83eb-b029d6d33dc3"},"vehicle_type_id":"4","last_reported":1718464069,"current_range_meters":16400,"station_id":"ce4bhq92rcd13ifvqhjg","pricing_plan_id":"cebpf4jnsgd1na2vs0mg"},{"bike_id":"8182a82c-428f-48eb-a7d5-cf63901ac4d5","system_id":"levelo_inurba_marseille","lat":43.284787,"lon":5.384116,"is_reserved":false,"is_disabled":false,"rental_uris":{"android":"levelo://app?vid=8182a82c-428f-48eb-a7d5-cf63901ac4d5","ios":"levelo://app?vid=8182a82c-428f-48eb-a7d5-cf63901ac4d5"},"vehicle_type_id":"4","last_reported":1718464069,"current_range_meters":29200,"station_id":"ce4bh512rcd13ifvqe3g","pricing_plan_id":"cebpf4jnsgd1na2vs0mg"},{"bike_id":"dd0ecc4c-7fc5-4b75-a7b0-ffffc235cae7","system_id":"levelo_inurba_marseille","lat":43.297946,"lon":5.404063,"is_reserved":false,"is_disabled":false,"rental_uris":{"android":"levelo://app?vid=dd0ecc4c-7fc5-4b75-a7b0-ffffc235cae7","ios":"levelo://app?vid=dd0ecc4c-7fc5-4b75-a7b0-ffffc235cae7"},"vehicle_type_id":"4","last_reported":1718464069,"current_range_meters":20800,"station_id":"ce4bh112rcd13ifvqd90","pricing_plan_id":"cebpf4jnsgd1na2vs0mg"},{"bike_id":"f4eb51b0-3c75-4aa0-9483-3acd7cc980ad","system_id":"levelo_inurba_marseille","lat":43.284793,"lon":5.384119,"is_reserved":false,"is_disabled":false,"rental_uris":{"android":"levelo://app?vid=f4eb51b0-3c75-4aa0-9483-3acd7cc980ad","ios":"levelo://app?vid=f4eb51b0-3c75-4aa0-9483-3acd7cc980ad"},"vehicle_type_id":"4","last_reported":1718464069,"current_range_meters":22000,"station_id":"ce4bh512rcd13ifvqe3g","pricing_plan_id":"cebpf4jnsgd1na2vs0mg"},{"bike_id":"7ba96294-3642-40de-8a28-d88fdb7110fd","system_id":"levelo_inurba_marseille","lat":43.284776,"lon":5.385603,"is_reserved":false,"is_disabled":false,"rental_uris":{"android":"levelo://app?vid=7ba96294-3642-40de-8a28-d88fdb7110fd","ios":"levelo://app?vid=7ba96294-3642-40de-8a28-d88fdb7110fd"},"vehicle_type_id":"4","last_reported":1718464069,"current_range_meters":24800,"station_id":"ce4bh8p2rcd13ifvqeb0","pricing_plan_id":"cebpf4jnsgd1na2vs0mg"},{"bike_id":"490edb26-adbf-4f4c-8be8-95bef3b74d69","system_id":"levelo_inurba_marseille","lat":43.288497,"lon":5.393089,"is_reserved":false,"is_disabled":false,"rental_uris":{"android":"levelo://app?vid=490edb26-adbf-4f4c-8be8-95bef3b74d69","ios":"levelo://app?vid=490edb26-adbf-4f4c-8be8-95bef3b74d69"},"vehicle_type_id":"4","last_reported":1718464069,"current_range_meters":21200,"station_id":"ce4bh2p2rcd13ifvqdi0","pricing_plan_id":"cebpf4jnsgd1na2vs0mg"},{"bike_id":"4d615c71-851a-4006-9647-51597a2df401","system_id":"levelo_inurba_marseille","lat":43.288497,"lon":5.393089,"is_reserved":false,"is_disabled":false,"rental_uris":{"android":"levelo://app?vid=4d615c71-851a-4006-9647-51597a2df401","ios":"levelo://app?vid=4d615c71-851a-4006-9647-51597a2df401"},"vehicle_type_id":"4","last_reported":1718464069,"current_range_meters":22400,"station_id":"ce4bh2p2rcd13ifvqdi0","pricing_plan_id":"cebpf4jnsgd1na2vs0mg"},{"bike_id":"dd87b9c0-070e-49d4-add3-019894cb8118","system_id":"levelo_inurba_marseille","lat":43.283494,"lon":5.380945,"is_reserved":false,"is_disabled":false,"rental_uris":{"android":"levelo://app?vid=dd87b9c0-070e-49d4-add3-019894cb8118","ios":"levelo://app?vid=dd87b9c0-070e-49d4-add3-019894cb8118"},"vehicle_type_id":"4","last_reported":1718464069,"current_range_meters":15200,"station_id":"ce4bh412rcd13ifvqdr0","pricing_plan_id":"cebpf4jnsgd1na2vs0mg"},{"bike_id":"5dd73936-776b-49f6-b246-9a291cfe4546","system_id":"levelo_inurba_marseille","lat":43.283494,"lon":5.380945,"is_reserved":false,"is_disabled":false,"rental_uris":{"android":"levelo://app?vid=5dd73936-776b-49f6-b246-9a291cfe4546","ios":"levelo://app?vid=5dd73936-776b-49f6-b246-9a291cfe4546"},"vehicle_type_id":"4","last_reported":1718464069,"current_range_meters":14000,"station_id":"ce4bh412rcd13ifvqdr0","pricing_plan_id":"cebpf4jnsgd1na2vs0mg"},{"bike_id":"1b3e8550-ede2-4175-9aa6-c3482491381c","system_id":"levelo_inurba_marseille","lat":43.283494,"lon":5.380945,"is_reserved":false,"is_disabled":false,"rental_uris":{"android":"levelo://app?vid=1b3e8550-ede2-4175-9aa6-c3482491381c","ios":"levelo://app?vid=1b3e8550-ede2-4175-9aa6-c3482491381c"},"vehicle_type_id":"4","last_reported":1718464069,"current_range_meters":8400,"station_id":"ce4bh412rcd13ifvqdr0","pricing_plan_id":"cebpf4jnsgd1na2vs0mg"},{"bike_id":"727657cb-1f46-4e81-8606-78342b2ae644","system_id":"levelo_inurba_marseille","lat":43.288497,"lon":5.393089,"is_reserved":false,"is_disabled":false,"rental_uris":{"android":"levelo://app?vid=727657cb-1f46-4e81-8606-78342b2ae644","ios":"levelo://app?vid=727657cb-1f46-4e81-8606-78342b2ae644"},"vehicle_type_id":"4","last_reported":1718464069,"current_range_meters":15600,"station_id":"ce4bh2p2rcd13ifvqdi0","pricing_plan_id":"cebpf4jnsgd1na2vs0mg"},{"bike_id":"1bf6e753-95ab-45f4-bd6a-79ca17bef61a","system_id":"levelo_inurba_marseille","lat":43.283494,"lon":5.380945,"is_reserved":false,"is_disabled":false,"rental_uris":{"android":"levelo://app?vid=1bf6e753-95ab-45f4-bd6a-79ca17bef61a","ios":"levelo://app?vid=1bf6e753-95ab-45f4-bd6a-79ca17bef61a"},"vehicle_type_id":"4","last_reported":1718464069,"current_range_meters":2400,"station_id":"ce4bh412rcd13ifvqdr0","pricing_plan_id":"cebpf4jnsgd1na2vs0mg"},{"bike_id":"acd8b5df-9b78-48f3-82e6-000bf1b72458","system_id":"levelo_inurba_marseille","lat":43.284219,"lon":5.3497,"is_reserved":false,"is_disabled":false,"rental_uris":{"android":"levelo://app?vid=acd8b5df-9b78-48f3-82e6-000bf1b72458","ios":"levelo://app?vid=acd8b5df-9b78-48f3-82e6-000bf1b72458"},"vehicle_type_id":"4","last_reported":1718464069,"current_range_meters":17200,"station_id":"ce4bhbh2rcd13ifvqepg","pricing_plan_id":"cebpf4jnsgd1na2vs0mg"},{"bike_id":"e6e23ac8-8675-42f1-a439-c49aeec05d4a","system_id":"levelo_inurba_marseille","lat":43.284217,"lon":5.349697,"is_reserved":false,"is_disabled":false,"rental_uris":{"android":"levelo://app?vid=e6e23ac8-8675-42f1-a439-c49aeec05d4a","ios":"levelo://app?vid=e6e23ac8-8675-42f1-a439-c49aeec05d4a"},"vehicle_type_id":"4","last_reported":1718464069,"current_range_meters":24400,"station_id":"ce4bhbh2rcd13ifvqepg","pricing_plan_id":"cebpf4jnsgd1na2vs0mg"},{"bike_id":"74eefe45-04d9-4b87-8abc-7079bc4ddcb2","system_id":"levelo_inurba_marseille","lat":43.28426,"lon":5.34988,"is_reserved":false,"is_disabled":false,"rental_uris":{"android":"levelo://app?vid=74eefe45-04d9-4b87-8abc-7079bc4ddcb2","ios":"levelo://app?vid=74eefe45-04d9-4b87-8abc-7079bc4ddcb2"},"vehicle_type_id":"4","last_reported":1718464069,"current_range_meters":3200,"station_id":"ce4bhbh2rcd13ifvqepg","pricing_plan_id":"cebpf4jnsgd1na2vs0mg"},{"bike_id":"3274ea65-98ab-4d14-a6fd-a4d96583259e","system_id":"levelo_inurba_marseille","lat":43.284219,"lon":5.3497,"is_reserved":false,"is_disabled":false,"rental_uris":{"android":"levelo://app?vid=3274ea65-98ab-4d14-a6fd-a4d96583259e","ios":"levelo://app?vid=3274ea65-98ab-4d14-a6fd-a4d96583259e"},"vehicle_type_id":"4","last_reported":1718464069,"current_range_meters":24000,"station_id":"ce4bhbh2rcd13ifvqepg","pricing_plan_id":"cebpf4jnsgd1na2vs0mg"},{"bike_id":"b32da819-bc8b-42e5-8208-2d6fbad6b0a4","system_id":"levelo_inurba_marseille","lat":43.284219,"lon":5.3497,"is_reserved":false,"is_disabled":false,"rental_uris":{"android":"levelo://app?vid=b32da819-bc8b-42e5-8208-2d6fbad6b0a4","ios":"levelo://app?vid=b32da819-bc8b-42e5-8208-2d6fbad6b0a4"},"vehicle_type_id":"4","last_reported":1718464069,"current_range_meters":13200,"station_id":"ce4bhbh2rcd13ifvqepg","pricing_plan_id":"cebpf4jnsgd1na2vs0mg"},{"bike_id":"7c3dfe8e-2847-4c95-b146-eb3acea82e11","system_id":"levelo_inurba_marseille","lat":43.284219,"lon":5.3497,"is_reserved":false,"is_disabled":false,"rental_uris":{"android":"levelo://app?vid=7c3dfe8e-2847-4c95-b146-eb3acea82e11","ios":"levelo://app?vid=7c3dfe8e-2847-4c95-b146-eb3acea82e11"},"vehicle_type_id":"4","last_reported":1718464069,"current_range_meters":19200,"station_id":"ce4bhbh2rcd13ifvqepg","pricing_plan_id":"cebpf4jnsgd1na2vs0mg"},{"bike_id":"6b798dc7-e873-4421-acfc-80e91c366647","system_id":"levelo_inurba_marseille","lat":43.284219,"lon":5.3497,"is_reserved":false,"is_disabled":false,"rental_uris":{"android":"levelo://app?vid=6b798dc7-e873-4421-acfc-80e91c366647","ios":"levelo://app?vid=6b798dc7-e873-4421-acfc-80e91c366647"},"vehicle_type_id":"4","last_reported":1718464069,"current_range_meters":22800,"station_id":"ce4bhbh2rcd13ifvqepg","pricing_plan_id":"cebpf4jnsgd1na2vs0mg"},{"bike_id":"a7c7a2fd-9119-485f-ad7a-3990168979e5","system_id":"levelo_inurba_marseille","lat":43.284219,"lon":5.3497,"is_reserved":false,"is_disabled":false,"rental_uris":{"android":"levelo://app?vid=a7c7a2fd-9119-485f-ad7a-3990168979e5","ios":"levelo://app?vid=a7c7a2fd-9119-485f-ad7a-3990168979e5"},"vehicle_type_id":"4","last_reported":1718464069,"current_range_meters":12000,"station_id":"ce4bhbh2rcd13ifvqepg","pricing_plan_id":"cebpf4jnsgd1na2vs0mg"},{"bike_id":"e234040d-556f-4012-b2a4-b40513d0bd95","system_id":"levelo_inurba_marseille","lat":43.284217,"lon":5.349697,"is_reserved":false,"is_disabled":false,"rental_uris":{"android":"levelo://app?vid=e234040d-556f-4012-b2a4-b40513d0bd95","ios":"levelo://app?vid=e234040d-556f-4012-b2a4-b40513d0bd95"},"vehicle_type_id":"4","last_reported":1718464069,"current_range_meters":31200,"station_id":"ce4bhbh2rcd13ifvqepg","pricing_plan_id":"cebpf4jnsgd1na2vs0mg"},{"bike_id":"de1cd8b0-36cb-4f47-bc57-16ae7b4d6004","system_id":"levelo_inurba_marseille","lat":43.28423,"lon":5.34984,"is_reserved":false,"is_disabled":false,"rental_uris":{"android":"levelo://app?vid=de1cd8b0-36cb-4f47-bc57-16ae7b4d6004","ios":"levelo://app?vid=de1cd8b0-36cb-4f47-bc57-16ae7b4d6004"},"vehicle_type_id":"4","last_reported":1718464069,"current_range_meters":31200,"station_id":"ce4bhbh2rcd13ifvqepg","pricing_plan_id":"cebpf4jnsgd1na2vs0mg"},{"bike_id":"e5a79bf6-2ffe-44f3-88bc-775c16aba124","system_id":"levelo_inurba_marseille","lat":43.283494,"lon":5.380945,"is_reserved":false,"is_disabled":false,"rental_uris":{"android":"levelo://app?vid=e5a79bf6-2ffe-44f3-88bc-775c16aba124","ios":"levelo://app?vid=e5a79bf6-2ffe-44f3-88bc-775c16aba124"},"vehicle_type_id":"4","last_reported":1718464069,"current_range_meters":6400,"station_id":"ce4bh412rcd13ifvqdr0","pricing_plan_id":"cebpf4jnsgd1na2vs0mg"},{"bike_id":"265300fe-fa47-4300-b53b-b7c0fc789fea","system_id":"levelo_inurba_marseille","lat":43.284217,"lon":5.349697,"is_reserved":false,"is_disabled":false,"rental_uris":{"android":"levelo://app?vid=265300fe-fa47-4300-b53b-b7c0fc789fea","ios":"levelo://app?vid=265300fe-fa47-4300-b53b-b7c0fc789fea"},"vehicle_type_id":"4","last_reported":1718464069,"current_range_meters":14800,"station_id":"ce4bhbh2rcd13ifvqepg","pricing_plan_id":"cebpf4jnsgd1na2vs0mg"},{"bike_id":"30d7b588-a2db-4d31-9317-154640376d00","system_id":"levelo_inurba_marseille","lat":43.284219,"lon":5.3497,"is_reserved":false,"is_disabled":false,"rental_uris":{"android":"levelo://app?vid=30d7b588-a2db-4d31-9317-154640376d00","ios":"levelo://app?vid=30d7b588-a2db-4d31-9317-154640376d00"},"vehicle_type_id":"4","last_reported":1718464069,"current_range_meters":4400,"station_id":"ce4bhbh2rcd13ifvqepg","pricing_plan_id":"cebpf4jnsgd1na2vs0mg"},{"bike_id":"7280e5ba-8fa7-4523-914d-9f0a5f9df919","system_id":"levelo_inurba_marseille","lat":43.2842,"lon":5.3499,"is_reserved":false,"is_disabled":false,"rental_uris":{"android":"levelo://app?vid=7280e5ba-8fa7-4523-914d-9f0a5f9df919","ios":"levelo://app?vid=7280e5ba-8fa7-4523-914d-9f0a5f9df919"},"vehicle_type_id":"4","last_reported":1718464069,"current_range_meters":19600,"station_id":"ce4bhbh2rcd13ifvqepg","pricing_plan_id":"cebpf4jnsgd1na2vs0mg"},{"bike_id":"67c5b83d-f784-4301-9cc4-2fc5293ec237","system_id":"levelo_inurba_marseille","lat":43.284219,"lon":5.3497,"is_reserved":false,"is_disabled":false,"rental_uris":{"android":"levelo://app?vid=67c5b83d-f784-4301-9cc4-2fc5293ec237","ios":"levelo://app?vid=67c5b83d-f784-4301-9cc4-2fc5293ec237"},"vehicle_type_id":"4","last_reported":1718464069,"current_range_meters":27600,"station_id":"ce4bhbh2rcd13ifvqepg","pricing_plan_id":"cebpf4jnsgd1na2vs0mg"},{"bike_id":"a5d7e78b-2029-4c3d-83ff-0a95814b5c2e","system_id":"levelo_inurba_marseille","lat":43.284219,"lon":5.3497,"is_reserved":false,"is_disabled":false,"rental_uris":{"android":"levelo://app?vid=a5d7e78b-2029-4c3d-83ff-0a95814b5c2e","ios":"levelo://app?vid=a5d7e78b-2029-4c3d-83ff-0a95814b5c2e"},"vehicle_type_id":"4","last_reported":1718464069,"current_range_meters":2000,"station_id":"ce4bhbh2rcd13ifvqepg","pricing_plan_id":"cebpf4jnsgd1na2vs0mg"},{"bike_id":"01b16dd5-0e32-488b-8e69-7fd69aacf673","system_id":"levelo_inurba_marseille","lat":43.284219,"lon":5.3497,"is_reserved":false,"is_disabled":false,"rental_uris":{"android":"levelo://app?vid=01b16dd5-0e32-488b-8e69-7fd69aacf673","ios":"levelo://app?vid=01b16dd5-0e32-488b-8e69-7fd69aacf673"},"vehicle_type_id":"4","last_reported":1718464069,"current_range_meters":7200,"station_id":"ce4bhbh2rcd13ifvqepg","pricing_plan_id":"cebpf4jnsgd1na2vs0mg"},{"bike_id":"f7166e5e-eaef-4aab-a211-75a678f5c58e","system_id":"levelo_inurba_marseille","lat":43.284217,"lon":5.349697,"is_reserved":false,"is_disabled":false,"rental_uris":{"android":"levelo://app?vid=f7166e5e-eaef-4aab-a211-75a678f5c58e","ios":"levelo://app?vid=f7166e5e-eaef-4aab-a211-75a678f5c58e"},"vehicle_type_id":"4","last_reported":1718464069,"current_range_meters":15600,"station_id":"ce4bhbh2rcd13ifvqepg","pricing_plan_id":"cebpf4jnsgd1na2vs0mg"},{"bike_id":"fefca882-52d2-4241-9980-be440aeffba0","system_id":"levelo_inurba_marseille","lat":43.284202,"lon":5.349828,"is_reserved":false,"is_disabled":false,"rental_uris":{"android":"levelo://app?vid=fefca882-52d2-4241-9980-be440aeffba0","ios":"levelo://app?vid=fefca882-52d2-4241-9980-be440aeffba0"},"vehicle_type_id":"4","last_reported":1718464069,"current_range_meters":11600,"station_id":"ce4bhbh2rcd13ifvqepg","pricing_plan_id":"cebpf4jnsgd1na2vs0mg"},{"bike_id":"213e918e-43a4-4138-b4de-6a062aa386a9","system_id":"levelo_inurba_marseille","lat":43.284219,"lon":5.3497,"is_reserved":false,"is_disabled":false,"rental_uris":{"android":"levelo://app?vid=213e918e-43a4-4138-b4de-6a062aa386a9","ios":"levelo://app?vid=213e918e-43a4-4138-b4de-6a062aa386a9"},"vehicle_type_id":"4","last_reported":1718464069,"current_range_meters":30800,"station_id":"ce4bhbh2rcd13ifvqepg","pricing_plan_id":"cebpf4jnsgd1na2vs0mg"},{"bike_id":"212ae4ac-a643-4d82-ad83-84ba0139b2f7","system_id":"levelo_inurba_marseille","lat":43.284217,"lon":5.349697,"is_reserved":false,"is_disabled":false,"rental_uris":{"android":"levelo://app?vid=212ae4ac-a643-4d82-ad83-84ba0139b2f7","ios":"levelo://app?vid=212ae4ac-a643-4d82-ad83-84ba0139b2f7"},"vehicle_type_id":"4","last_reported":1718464069,"current_range_meters":24000,"station_id":"ce4bhbh2rcd13ifvqepg","pricing_plan_id":"cebpf4jnsgd1na2vs0mg"},{"bike_id":"77d324ea-305d-4ea6-8126-ebc908f08224","system_id":"levelo_inurba_marseille","lat":43.284217,"lon":5.349697,"is_reserved":false,"is_disabled":false,"rental_uris":{"android":"levelo://app?vid=77d324ea-305d-4ea6-8126-ebc908f08224","ios":"levelo://app?vid=77d324ea-305d-4ea6-8126-ebc908f08224"},"vehicle_type_id":"4","last_reported":1718464069,"current_range_meters":21600,"station_id":"ce4bhbh2rcd13ifvqepg","pricing_plan_id":"cebpf4jnsgd1na2vs0mg"},{"bike_id":"e0bd5db5-3bab-43b6-baa9-e07dcc461ea0","system_id":"levelo_inurba_marseille","lat":43.28419,"lon":5.34982,"is_reserved":false,"is_disabled":false,"rental_uris":{"android":"levelo://app?vid=e0bd5db5-3bab-43b6-baa9-e07dcc461ea0","ios":"levelo://app?vid=e0bd5db5-3bab-43b6-baa9-e07dcc461ea0"},"vehicle_type_id":"4","last_reported":1718464069,"current_range_meters":16800,"station_id":"ce4bhbh2rcd13ifvqepg","pricing_plan_id":"cebpf4jnsgd1na2vs0mg"},{"bike_id":"97b866ca-7f92-4f48-b57b-e13aaa117014","system_id":"levelo_inurba_marseille","lat":43.284156,"lon":5.349879,"is_reserved":false,"is_disabled":false,"rental_uris":{"android":"levelo://app?vid=97b866ca-7f92-4f48-b57b-e13aaa117014","ios":"levelo://app?vid=97b866ca-7f92-4f48-b57b-e13aaa117014"},"vehicle_type_id":"4","last_reported":1718464069,"current_range_meters":29200,"station_id":"ce4bhbh2rcd13ifvqepg","pricing_plan_id":"cebpf4jnsgd1na2vs0mg"},{"bike_id":"a64bda13-a198-43b1-a7ce-a74284eeb1b2","system_id":"levelo_inurba_marseille","lat":43.284217,"lon":5.349697,"is_reserved":false,"is_disabled":false,"rental_uris":{"android":"levelo://app?vid=a64bda13-a198-43b1-a7ce-a74284eeb1b2","ios":"levelo://app?vid=a64bda13-a198-43b1-a7ce-a74284eeb1b2"},"vehicle_type_id":"4","last_reported":1718464069,"current_range_meters":2800,"station_id":"ce4bhbh2rcd13ifvqepg","pricing_plan_id":"cebpf4jnsgd1na2vs0mg"},{"bike_id":"37b0edb5-9c74-4e60-8418-a6d231094892","system_id":"levelo_inurba_marseille","lat":43.284219,"lon":5.3497,"is_reserved":false,"is_disabled":false,"rental_uris":{"android":"levelo://app?vid=37b0edb5-9c74-4e60-8418-a6d231094892","ios":"levelo://app?vid=37b0edb5-9c74-4e60-8418-a6d231094892"},"vehicle_type_id":"4","last_reported":1718464069,"current_range_meters":17200,"station_id":"ce4bhbh2rcd13ifvqepg","pricing_plan_id":"cebpf4jnsgd1na2vs0mg"},{"bike_id":"1e6ef7ea-3d65-47b1-81d0-6a293a860fd1","system_id":"levelo_inurba_marseille","lat":43.284217,"lon":5.349697,"is_reserved":false,"is_disabled":false,"rental_uris":{"android":"levelo://app?vid=1e6ef7ea-3d65-47b1-81d0-6a293a860fd1","ios":"levelo://app?vid=1e6ef7ea-3d65-47b1-81d0-6a293a860fd1"},"vehicle_type_id":"4","last_reported":1718464069,"current_range_meters":10400,"station_id":"ce4bhbh2rcd13ifvqepg","pricing_plan_id":"cebpf4jnsgd1na2vs0mg"},{"bike_id":"0c500770-3ac1-4974-9a84-5cbb2762303a","system_id":"levelo_inurba_marseille","lat":43.284217,"lon":5.349697,"is_reserved":false,"is_disabled":false,"rental_uris":{"android":"levelo://app?vid=0c500770-3ac1-4974-9a84-5cbb2762303a","ios":"levelo://app?vid=0c500770-3ac1-4974-9a84-5cbb2762303a"},"vehicle_type_id":"4","last_reported":1718464069,"current_range_meters":17600,"station_id":"ce4bhbh2rcd13ifvqepg","pricing_plan_id":"cebpf4jnsgd1na2vs0mg"},{"bike_id":"f89f67c9-9834-4306-975a-f231cd199597","system_id":"levelo_inurba_marseille","lat":43.284214,"lon":5.349706,"is_reserved":false,"is_disabled":false,"rental_uris":{"android":"levelo://app?vid=f89f67c9-9834-4306-975a-f231cd199597","ios":"levelo://app?vid=f89f67c9-9834-4306-975a-f231cd199597"},"vehicle_type_id":"4","last_reported":1718464069,"current_range_meters":22800,"station_id":"ce4bhbh2rcd13ifvqepg","pricing_plan_id":"cebpf4jnsgd1na2vs0mg"},{"bike_id":"020469b9-0833-4d68-b8a6-bbb10786f4d8","system_id":"levelo_inurba_marseille","lat":43.284214,"lon":5.349706,"is_reserved":false,"is_disabled":false,"rental_uris":{"android":"levelo://app?vid=020469b9-0833-4d68-b8a6-bbb10786f4d8","ios":"levelo://app?vid=020469b9-0833-4d68-b8a6-bbb10786f4d8"},"vehicle_type_id":"4","last_reported":1718464069,"current_range_meters":6800,"station_id":"ce4bhbh2rcd13ifvqepg","pricing_plan_id":"cebpf4jnsgd1na2vs0mg"},{"bike_id":"10b86524-6c30-412e-89e9-1470bc03e016","system_id":"levelo_inurba_marseille","lat":43.284217,"lon":5.349697,"is_reserved":false,"is_disabled":false,"rental_uris":{"android":"levelo://app?vid=10b86524-6c30-412e-89e9-1470bc03e016","ios":"levelo://app?vid=10b86524-6c30-412e-89e9-1470bc03e016"},"vehicle_type_id":"4","last_reported":1718464069,"current_range_meters":20400,"station_id":"ce4bhbh2rcd13ifvqepg","pricing_plan_id":"cebpf4jnsgd1na2vs0mg"},{"bike_id":"16159345-8e63-4704-a266-1345f020d1a5","system_id":"levelo_inurba_marseille","lat":43.284217,"lon":5.349697,"is_reserved":false,"is_disabled":false,"rental_uris":{"android":"levelo://app?vid=16159345-8e63-4704-a266-1345f020d1a5","ios":"levelo://app?vid=16159345-8e63-4704-a266-1345f020d1a5"},"vehicle_type_id":"4","last_reported":1718464069,"current_range_meters":16000,"station_id":"ce4bhbh2rcd13ifvqepg","pricing_plan_id":"cebpf4jnsgd1na2vs0mg"},{"bike_id":"180e5622-8ee0-4016-ad72-8c4c3b1c3652","system_id":"levelo_inurba_marseille","lat":43.28408,"lon":5.34982,"is_reserved":false,"is_disabled":false,"rental_uris":{"android":"levelo://app?vid=180e5622-8ee0-4016-ad72-8c4c3b1c3652","ios":"levelo://app?vid=180e5622-8ee0-4016-ad72-8c4c3b1c3652"},"vehicle_type_id":"4","last_reported":1718464069,"current_range_meters":15600,"station_id":"ce4bhbh2rcd13ifvqepg","pricing_plan_id":"cebpf4jnsgd1na2vs0mg"},{"bike_id":"0a3d13fe-cedb-44a7-9d32-396e0c24d84e","system_id":"levelo_inurba_marseille","lat":43.283498,"lon":5.380948,"is_reserved":false,"is_disabled":false,"rental_uris":{"android":"levelo://app?vid=0a3d13fe-cedb-44a7-9d32-396e0c24d84e","ios":"levelo://app?vid=0a3d13fe-cedb-44a7-9d32-396e0c24d84e"},"vehicle_type_id":"4","last_reported":1718464069,"current_range_meters":21600,"station_id":"ce4bh412rcd13ifvqdr0","pricing_plan_id":"cebpf4jnsgd1na2vs0mg"},{"bike_id":"ae89693b-1322-4fab-bc13-ad773dc66ee2","system_id":"levelo_inurba_marseille","lat":43.28404,"lon":5.349785,"is_reserved":false,"is_disabled":false,"rental_uris":{"android":"levelo://app?vid=ae89693b-1322-4fab-bc13-ad773dc66ee2","ios":"levelo://app?vid=ae89693b-1322-4fab-bc13-ad773dc66ee2"},"vehicle_type_id":"4","last_reported":1718464069,"current_range_meters":17200,"station_id":"ce4bhbh2rcd13ifvqepg","pricing_plan_id":"cebpf4jnsgd1na2vs0mg"},{"bike_id":"e64840d3-a6f4-4b27-8ec5-dbfa19775135","system_id":"levelo_inurba_marseille","lat":43.289363,"lon":5.396322,"is_reserved":false,"is_disabled":false,"rental_uris":{"android":"levelo://app?vid=e64840d3-a6f4-4b27-8ec5-dbfa19775135","ios":"levelo://app?vid=e64840d3-a6f4-4b27-8ec5-dbfa19775135"},"vehicle_type_id":"4","last_reported":1718464069,"current_range_meters":24000,"station_id":"ce4bh3h2rcd13ifvqdn0","pricing_plan_id":"cebpf4jnsgd1na2vs0mg"},{"bike_id":"dcf54d8a-2f49-4669-83e3-d4b61f997a42","system_id":"levelo_inurba_marseille","lat":43.28278,"lon":5.35079,"is_reserved":false,"is_disabled":false,"rental_uris":{"android":"levelo://app?vid=dcf54d8a-2f49-4669-83e3-d4b61f997a42","ios":"levelo://app?vid=dcf54d8a-2f49-4669-83e3-d4b61f997a42"},"vehicle_type_id":"4","last_reported":1718464069,"current_range_meters":6400,"station_id":"ce4bhbp2rcd13ifvqerg","pricing_plan_id":"cebpf4jnsgd1na2vs0mg"},{"bike_id":"84edf14c-5948-44a4-b992-74acf66aaf63","system_id":"levelo_inurba_marseille","lat":43.282744,"lon":5.350533,"is_reserved":false,"is_disabled":false,"rental_uris":{"android":"levelo://app?vid=84edf14c-5948-44a4-b992-74acf66aaf63","ios":"levelo://app?vid=84edf14c-5948-44a4-b992-74acf66aaf63"},"vehicle_type_id":"4","last_reported":1718464069,"current_range_meters":9200,"station_id":"ce4bhbp2rcd13ifvqerg","pricing_plan_id":"cebpf4jnsgd1na2vs0mg"},{"bike_id":"93147210-c399-436c-9e0c-96a02448021a","system_id":"levelo_inurba_marseille","lat":43.282744,"lon":5.350533,"is_reserved":false,"is_disabled":false,"rental_uris":{"android":"levelo://app?vid=93147210-c399-436c-9e0c-96a02448021a","ios":"levelo://app?vid=93147210-c399-436c-9e0c-96a02448021a"},"vehicle_type_id":"4","last_reported":1718464069,"current_range_meters":31200,"station_id":"ce4bhbp2rcd13ifvqerg","pricing_plan_id":"cebpf4jnsgd1na2vs0mg"},{"bike_id":"7d7625f9-296c-44cb-886d-0f6ec89cfbd1","system_id":"levelo_inurba_marseille","lat":43.282754,"lon":5.350519,"is_reserved":false,"is_disabled":false,"rental_uris":{"android":"levelo://app?vid=7d7625f9-296c-44cb-886d-0f6ec89cfbd1","ios":"levelo://app?vid=7d7625f9-296c-44cb-886d-0f6ec89cfbd1"},"vehicle_type_id":"4","last_reported":1718464069,"current_range_meters":15600,"station_id":"ce4bhbp2rcd13ifvqerg","pricing_plan_id":"cebpf4jnsgd1na2vs0mg"},{"bike_id":"d705ee37-1eec-4ade-92b4-12bddcf2620d","system_id":"levelo_inurba_marseille","lat":43.282744,"lon":5.350533,"is_reserved":false,"is_disabled":false,"rental_uris":{"android":"levelo://app?vid=d705ee37-1eec-4ade-92b4-12bddcf2620d","ios":"levelo://app?vid=d705ee37-1eec-4ade-92b4-12bddcf2620d"},"vehicle_type_id":"4","last_reported":1718464069,"current_range_meters":30400,"station_id":"ce4bhbp2rcd13ifvqerg","pricing_plan_id":"cebpf4jnsgd1na2vs0mg"},{"bike_id":"43185f57-1641-4170-bad5-5a3e4c246236","system_id":"levelo_inurba_marseille","lat":43.282754,"lon":5.350519,"is_reserved":false,"is_disabled":false,"rental_uris":{"android":"levelo://app?vid=43185f57-1641-4170-bad5-5a3e4c246236","ios":"levelo://app?vid=43185f57-1641-4170-bad5-5a3e4c246236"},"vehicle_type_id":"4","last_reported":1718464069,"current_range_meters":24800,"station_id":"ce4bhbp2rcd13ifvqerg","pricing_plan_id":"cebpf4jnsgd1na2vs0mg"},{"bike_id":"deea76f5-b7ef-413a-9158-85528e38c81d","system_id":"levelo_inurba_marseille","lat":43.28272,"lon":5.35067,"is_reserved":false,"is_disabled":false,"rental_uris":{"android":"levelo://app?vid=deea76f5-b7ef-413a-9158-85528e38c81d","ios":"levelo://app?vid=deea76f5-b7ef-413a-9158-85528e38c81d"},"vehicle_type_id":"4","last_reported":1718464069,"current_range_meters":14000,"station_id":"ce4bhbp2rcd13ifvqerg","pricing_plan_id":"cebpf4jnsgd1na2vs0mg"},{"bike_id":"2a47627e-f679-44b6-ab0b-26b4dee20947","system_id":"levelo_inurba_marseille","lat":43.282716,"lon":5.350634,"is_reserved":false,"is_disabled":false,"rental_uris":{"android":"levelo://app?vid=2a47627e-f679-44b6-ab0b-26b4dee20947","ios":"levelo://app?vid=2a47627e-f679-44b6-ab0b-26b4dee20947"},"vehicle_type_id":"4","last_reported":1718464069,"current_range_meters":25200,"station_id":"ce4bhbp2rcd13ifvqerg","pricing_plan_id":"cebpf4jnsgd1na2vs0mg"},