{"last_updated":1768835756,"ttl":60,"version":"2.2","data":{"bikes":[{"bike_id":"fac5b6df-9a47-4e46-be53-c56df5ec2b27","system_id":"levelo_inurba_marseille","lat":43.225563,"lon":5.416261,"is_reserved":false,"is_disabled":true,"rental_uris":{"android":"levelo://app?vid=fac5b6df-9a47-4e46-be53-c56df5ec2b27","ios":"levelo://app?vid=fac5b6df-9a47-4e46-be53-c56df5ec2b27"},"vehicle_type_id":"4","last_reported":1768835757,"current_range_meters":2800,"station_id":"st_d2o4gvlbi1j2169b742g","pricing_plan_id":"cebpf4jnsgd1na2vs0mg"},{"bike_id":"8a265c0b-2922-4b68-984d-8e135335885c","system_id":"levelo_inurba_marseille","lat":43.31173,"lon":5.38716,"is_reserved":false,"is_disabled":false,"rental_uris":{"android":"levelo://app?vid=8a265c0b-2922-4b68-984d-8e135335885c","ios":"levelo://app?vid=8a265c0b-2922-4b68-984d-8e135335885c"},"vehicle_type_id":"4","last_reported":1768835757,"current_range_meters":2800,"station_id":"ce4bgv12rcd13ifvqcp0","pricing_plan_id":"cebpf4jnsgd1na2vs0mg"},{"bike_id":"ca28744b-9d9c-4bce-bd57-6521a0415ccc","system_id":"levelo_inurba_marseille","lat":43.2651,"lon":5.39531,"is_reserved":false,"is_disabled":false,"rental_uris":{"android":"levelo://app?vid=ca28744b-9d9c-4bce-bd57-6521a0415ccc","ios":"levelo://app?vid=ca28744b-9d9c-4bce-bd57-6521a0415ccc"},"vehicle_type_id":"4","last_reported":1768835757,"current_range_meters":2800,"station_id":"ce4bhi12rcd13ifvqfq0","pricing_plan_id":"cebpf4jnsgd1na2vs0mg"},{"bike_id":"0217887a-8c5b-44bd-a806-474e51ffaf08","system_id":"levelo_inurba_marseille","lat":43.28,"lon":5.41661,"is_reserved":false,"is_disabled":false,"rental_uris":{"android":"levelo://app?vid=0217887a-8c5b-44bd-a806-474e51ffaf08","ios":"levelo://app?vid=0217887a-8c5b-44bd-a806-474e51ffaf08"},"vehicle_type_id":"4","last_reported":1768835757,"current_range_meters":3200,"station_id":"ce4bho12rcd13ifvqh1g","pricing_plan_id":"cebpf4jnsgd1na2vs0mg"},{"bike_id":"295b7637-50fc-408f-933b-54632a076cab","system_id":"levelo_inurba_marseille","lat":43.284725,"lon":5.384184,"is_reserved":false,"is_disabled":false,"rental_uris":{"android":"levelo://app?vid=295b7637-50fc-408f-933b-54632a076cab","ios":"levelo://app?vid=295b7637-50fc-408f-933b-54632a076cab"},"vehicle_type_id":"4","last_reported":1768835757,"current_range_meters":3200,"station_id":"","pricing_plan_id":"cebpf4jnsgd1na2vs0mg"},{"bike_id":"986a75c0-9796-4e24-8a70-d6875d9b1e95","system_id":"levelo_inurba_marseille","lat":43.29243,"lon":5.38456,"is_reserved":false,"is_disabled":false,"rental_uris":{"android":"levelo://app?vid=986a75c0-9796-4e24-8a70-d6875d9b1e95","ios":"levelo://app?vid=986a75c0-9796-4e24-8a70-d6875d9b1e95"},"vehicle_type_id":"4","last_reported":1768835757,"current_range_meters":3200,"station_id":"ce4bh692rcd13ifvqea0","pricing_plan_id":"cebpf4jnsgd1na2vs0mg"},{"bike_id":"ee5a5513-9417-4366-ad57-ae7f24569952","system_id":"levelo_inurba_marseille","lat":43.24814,"lon":5.37454,"is_reserved":false,"is_disabled":false,"rental_uris":{"android":"levelo://app?vid=ee5a5513-9417-4366-ad57-ae7f24569952","ios":"levelo://app?vid=ee5a5513-9417-4366-ad57-ae7f24569952"},"vehicle_type_id":"4","last_reported":1768835757,"current_range_meters":3200,"station_id":"ce4bhgh2rcd13ifvqfb0","pricing_plan_id":"cebpf4jnsgd1na2vs0mg"},{"bike_id":"4faa1e6c-4a91-44dd-8370-e7a7848122c8","system_id":"levelo_inurba_marseille","lat":43.24476,"lon":5.42528,"is_reserved":false,"is_disabled":false,"rental_uris":{"android":"levelo://app?vid=4faa1e6c-4a91-44dd-8370-e7a7848122c8","ios":"levelo://app?vid=4faa1e6c-4a91-44dd-8370-e7a7848122c8"},"vehicle_type_id":"4","last_reported":1768835757,"current_range_meters":3200,"station_id":"st_d4a3vfp97mjs738cd8kg","pricing_plan_id":"cebpf4jnsgd1na2vs0mg"},{"bike_id":"4d57c879-6d5d-4c97-ab51-f9c4883e5bb2","system_id":"levelo_inurba_marseille","lat":43.24395,"lon":5.37075,"is_reserved":false,"is_disabled":false,"rental_uris":{"android":"levelo://app?vid=4d57c879-6d5d-4c97-ab51-f9c4883e5bb2","ios":"levelo://app?vid=4d57c879-6d5d-4c97-ab51-f9c4883e5bb2"},"vehicle_type_id":"4","last_reported":1768835757,"current_range_meters":3200,"station_id":"ce4bhhh2rcd13ifvqfk0","pricing_plan_id":"cebpf4jnsgd1na2vs0mg"},{"bike_id":"ae8e775e-473a-403a-a960-b995399bb17e","system_id":"levelo_inurba_marseille","lat":43.28863,"lon":5.42518,"is_reserved":false,"is_disabled":false,"rental_uris":{"android":"levelo://app?vid=ae8e775e-473a-403a-a960-b995399bb17e","ios":"levelo://app?vid=ae8e775e-473a-403a-a960-b995399bb17e"},"vehicle_type_id":"4","last_reported":1768835757,"current_range_meters":3200,"station_id":"st_d3b462108ojc7389ooeg","pricing_plan_id":"cebpf4jnsgd1na2vs0mg"},{"bike_id":"cf6cf1ef-aa37-4729-aa27-a12ea3577227","system_id":"levelo_inurba_marseille","lat":43.3029,"lon":5.3772,"is_reserved":false,"is_disabled":false,"rental_uris":{"android":"levelo://app?vid=cf6cf1ef-aa37-4729-aa27-a12ea3577227","ios":"levelo://app?vid=cf6cf1ef-aa37-4729-aa27-a12ea3577227"},"vehicle_type_id":"4","last_reported":1768835757,"current_range_meters":3200,"station_id":"ce4bguh2rcd13ifvqcj0","pricing_plan_id":"cebpf4jnsgd1na2vs0mg"},{"bike_id":"4adc3fa4-2077-447e-b0ea-2249d03c6de8","system_id":"levelo_inurba_marseille","lat":43.2415,"lon":5.39722,"is_reserved":false,"is_disabled":false,"rental_uris":{"android":"levelo://app?vid=4adc3fa4-2077-447e-b0ea-2249d03c6de8","ios":"levelo://app?vid=4adc3fa4-2077-447e-b0ea-2249d03c6de8"},"vehicle_type_id":"4","last_reported":1768835757,"current_range_meters":3600,"station_id":"ce4bhn12rcd13ifvqgpg","pricing_plan_id":"cebpf4jnsgd1na2vs0mg"},{"bike_id":"eb530094-7d39-4890-85ff-5b0790a5172f","system_id":"levelo_inurba_marseille","lat":43.25539,"lon":5.43232,"is_reserved":false,"is_disabled":false,"rental_uris":{"android":"levelo://app?vid=eb530094-7d39-4890-85ff-5b0790a5172f","ios":"levelo://app?vid=eb530094-7d39-4890-85ff-5b0790a5172f"},"vehicle_type_id":"4","last_reported":1768835757,"current_range_meters":3600,"station_id":"","pricing_plan_id":"cebpf4jnsgd1na2vs0mg"},{"bike_id":"ce57df57-2a76-4557-9819-dd7308e47bc4","system_id":"levelo_inurba_marseille","lat":43.248267,"lon":5.374556,"is_reserved":false,"is_disabled":false,"rental_uris":{"android":"levelo://app?vid=ce57df57-2a76-4557-9819-dd7308e47bc4","ios":"levelo://app?vid=ce57df57-2a76-4557-9819-dd7308e47bc4"},"vehicle_type_id":"4","last_reported":1768835757,"current_range_meters":3600,"station_id":"ce4bhgh2rcd13ifvqfb0","pricing_plan_id":"cebpf4jnsgd1na2vs0mg"},{"bike_id":"f7d7f7cf-7d80-4f3b-b1d8-08bb68859d78","system_id":"levelo_inurba_marseille","lat":43.24803,"lon":5.37451,"is_reserved":false,"is_disabled":false,"rental_uris":{"android":"levelo://app?vid=f7d7f7cf-7d80-4f3b-b1d8-08bb68859d78","ios":"levelo://app?vid=f7d7f7cf-7d80-4f3b-b1d8-08bb68859d78"},"vehicle_type_id":"4","last_reported":1768835757,"current_range_meters":3600,"station_id":"ce4bhgh2rcd13ifvqfb0","pricing_plan_id":"cebpf4jnsgd1na2vs0mg"},{"bike_id":"951af3c2-e410-4181-856d-ac0bf777f0ea","system_id":"levelo_inurba_marseille","lat":43.30397,"lon":5.40975,"is_reserved":false,"is_disabled":false,"rental_uris":{"android":"levelo://app?vid=951af3c2-e410-4181-856d-ac0bf777f0ea","ios":"levelo://app?vid=951af3c2-e410-4181-856d-ac0bf777f0ea"},"vehicle_type_id":"4","last_reported":1768835757,"current_range_meters":3600,"station_id":"","pricing_plan_id":"cebpf4jnsgd1na2vs0mg"},{"bike_id":"74aff274-ab61-44a1-ae03-c9a6d20e7f3a","system_id":"levelo_inurba_marseille","lat":43.27054,"lon":5.38305,"is_reserved":false,"is_disabled":false,"rental_uris":{"android":"levelo://app?vid=74aff274-ab61-44a1-ae03-c9a6d20e7f3a","ios":"levelo://app?vid=74aff274-ab61-44a1-ae03-c9a6d20e7f3a"},"vehicle_type_id":"4","last_reported":1768835757,"current_range_meters":3600,"station_id":"st_d3n2fo6cfp8s73cte1j0","pricing_plan_id":"cebpf4jnsgd1na2vs0mg"},{"bike_id":"36d81f7e-b1c3-4fe6-b5aa-7b5a18031396","system_id":"levelo_inurba_marseille","lat":43.26208,"lon":5.37447,"is_reserved":false,"is_disabled":false,"rental_uris":{"android":"levelo://app?vid=36d81f7e-b1c3-4fe6-b5aa-7b5a18031396","ios":"levelo://app?vid=36d81f7e-b1c3-4fe6-b5aa-7b5a18031396"},"vehicle_type_id":"4","last_reported":1768835757,"current_range_meters":4000,"station_id":"ce4bhgp2rcd13ifvqfc0","pricing_plan_id":"cebpf4jnsgd1na2vs0mg"},{"bike_id":"ceac69a1-c70e-483e-8597-2b27851c5fdf","system_id":"levelo_inurba_marseille","lat":43.25582,"lon":5.38235,"is_reserved":false,"is_disabled":false,"rental_uris":{"android":"levelo://app?vid=ceac69a1-c70e-483e-8597-2b27851c5fdf","ios":"levelo://app?vid=ceac69a1-c70e-483e-8597-2b27851c5fdf"},"vehicle_type_id":"4","last_reported":1768835757,"current_range_meters":4000,"station_id":"ce4bhih2rcd13ifvqfs0","pricing_plan_id":"cebpf4jnsgd1na2vs0mg"},{"bike_id":"829ca6ba-509c-451a-a278-6c150b28f569","system_id":"levelo_inurba_marseille","lat":43.31212,"lon":5.36881,"is_reserved":false,"is_disabled":false,"rental_uris":{"android":"levelo://app?vid=829ca6ba-509c-451a-a278-6c150b28f569","ios":"levelo://app?vid=829ca6ba-509c-451a-a278-6c150b28f569"},"vehicle_type_id":"4","last_reported":1768835757,"current_range_meters":4000,"station_id":"ce4bgl92rcd13ifvqbq0","pricing_plan_id":"cebpf4jnsgd1na2vs0mg"},{"bike_id":"40ecb84e-d2ac-4a6c-ad1d-6416db8fb424","system_id":"levelo_inurba_marseille","lat":43.24169,"lon":5.39738,"is_reserved":false,"is_disabled":false,"rental_uris":{"android":"levelo://app?vid=40ecb84e-d2ac-4a6c-ad1d-6416db8fb424","ios":"levelo://app?vid=40ecb84e-d2ac-4a6c-ad1d-6416db8fb424"},"vehicle_type_id":"4","last_reported":1768835757,"current_range_meters":4000,"station_id":"ce4bhn12rcd13ifvqgpg","pricing_plan_id":"cebpf4jnsgd1na2vs0mg"},{"bike_id":"23c29b1d-14ea-4846-90e3-8702fb6b44ff","system_id":"levelo_inurba_marseille","lat":43.24168,"lon":5.3974,"is_reserved":false,"is_disabled":false,"rental_uris":{"android":"levelo://app?vid=23c29b1d-14ea-4846-90e3-8702fb6b44ff","ios":"levelo://app?vid=23c29b1d-14ea-4846-90e3-8702fb6b44ff"},"vehicle_type_id":"4","last_reported":1768835757,"current_range_meters":4000,"station_id":"ce4bhn12rcd13ifvqgpg","pricing_plan_id":"cebpf4jnsgd1na2vs0mg"},{"bike_id":"b8a52be7-8740-45d9-966a-1ddcbac12d10","system_id":"levelo_inurba_marseille","lat":43.28494,"lon":5.48387,"is_reserved":false,"is_disabled":false,"rental_uris":{"android":"levelo://app?vid=b8a52be7-8740-45d9-966a-1ddcbac12d10","ios":"levelo://app?vid=b8a52be7-8740-45d9-966a-1ddcbac12d10"},"vehicle_type_id":"4","last_reported":1768835757,"current_range_meters":4000,"station_id":"","pricing_plan_id":"cebpf4jnsgd1na2vs0mg"},{"bike_id":"d9886c1a-279f-43dd-8640-9d720eba9676","system_id":"levelo_inurba_marseille","lat":43.25572,"lon":5.38242,"is_reserved":false,"is_disabled":false,"rental_uris":{"android":"levelo://app?vid=d9886c1a-279f-43dd-8640-9d720eba9676","ios":"levelo://app?vid=d9886c1a-279f-43dd-8640-9d720eba9676"},"vehicle_type_id":"4","last_reported":1768835757,"current_range_meters":4000,"station_id":"ce4bhih2rcd13ifvqfs0","pricing_plan_id":"cebpf4jnsgd1na2vs0mg"},{"bike_id":"45be07eb-7b8b-4438-87f5-34a08f87a459","system_id":"levelo_inurba_marseille","lat":43.30305,"lon":5.37715,"is_reserved":false,"is_disabled":false,"rental_uris":{"android":"levelo://app?vid=45be07eb-7b8b-4438-87f5-34a08f87a459","ios":"levelo://app?vid=45be07eb-7b8b-4438-87f5-34a08f87a459"},"vehicle_type_id":"4","last_reported":1768835757,"current_range_meters":4000,"station_id":"ce4bguh2rcd13ifvqcj0","pricing_plan_id":"cebpf4jnsgd1na2vs0mg"},{"bike_id":"f5a7fe50-3f88-4424-9093-9d69e6cd583d","system_id":"levelo_inurba_marseille","lat":43.22565,"lon":5.41624,"is_reserved":false,"is_disabled":false,"rental_uris":{"android":"levelo://app?vid=f5a7fe50-3f88-4424-9093-9d69e6cd583d","ios":"levelo://app?vid=f5a7fe50-3f88-4424-9093-9d69e6cd583d"},"vehicle_type_id":"4","last_reported":1768835757,"current_range_meters":4400,"station_id":"st_d2o4gvlbi1j2169b742g","pricing_plan_id":"cebpf4jnsgd1na2vs0mg"},{"bike_id":"53842397-d743-416b-89aa-b6789bc0dc8b","system_id":"levelo_inurba_marseille","lat":43.25089,"lon":5.39518,"is_reserved":false,"is_disabled":false,"rental_uris":{"android":"levelo://app?vid=53842397-d743-416b-89aa-b6789bc0dc8b","ios":"levelo://app?vid=53842397-d743-416b-89aa-b6789bc0dc8b"},"vehicle_type_id":"4","last_reported":1768835757,"current_range_meters":4400,"station_id":"ce4bhm12rcd13ifvqgkg","pricing_plan_id":"cebpf4jnsgd1na2vs0mg"},{"bike_id":"6473bd0f-8511-4a8a-89c5-9091f9cdad57","system_id":"levelo_inurba_marseille","lat":43.25587,"lon":5.38216,"is_reserved":false,"is_disabled":false,"rental_uris":{"android":"levelo://app?vid=6473bd0f-8511-4a8a-89c5-9091f9cdad57","ios":"levelo://app?vid=6473bd0f-8511-4a8a-89c5-9091f9cdad57"},"vehicle_type_id":"4","last_reported":1768835757,"current_range_meters":4400,"station_id":"ce4bhih2rcd13ifvqfs0","pricing_plan_id":"cebpf4jnsgd1na2vs0mg"},{"bike_id":"8ebb2247-586f-48b1-a963-c98a0d338c56","system_id":"levelo_inurba_marseille","lat":43.23782,"lon":5.36633,"is_reserved":false,"is_disabled":false,"rental_uris":{"android":"levelo://app?vid=8ebb2247-586f-48b1-a963-c98a0d338c56","ios":"levelo://app?vid=8ebb2247-586f-48b1-a963-c98a0d338c56"},"vehicle_type_id":"4","last_reported":1768835757,"current_range_meters":4400,"station_id":"st_d3nk18o9ro0c73en2l3g","pricing_plan_id":"cebpf4jnsgd1na2vs0mg"},{"bike_id":"e6336834-7c0f-49b5-8f14-a35e3d4f66a0","system_id":"levelo_inurba_marseille","lat":43.2962,"lon":5.3718,"is_reserved":false,"is_disabled":false,"rental_uris":{"android":"levelo://app?vid=e6336834-7c0f-49b5-8f14-a35e3d4f66a0","ios":"levelo://app?vid=e6336834-7c0f-49b5-8f14-a35e3d4f66a0"},"vehicle_type_id":"4","last_reported":1768835757,"current_range_meters":4400,"station_id":"ce4bgnh2rcd13ifvqc0g","pricing_plan_id":"cebpf4jnsgd1na2vs0mg"},{"bike_id":"cb2e4f41-657b-486b-9c36-7388c7c605e7","system_id":"levelo_inurba_marseille","lat":43.243955,"lon":5.370578,"is_reserved":false,"is_disabled":false,"rental_uris":{"android":"levelo://app?vid=cb2e4f41-657b-486b-9c36-7388c7c605e7","ios":"levelo://app?vid=cb2e4f41-657b-486b-9c36-7388c7c605e7"},"vehicle_type_id":"4","last_reported":1768835757,"current_range_meters":4400,"station_id":"ce4bhhh2rcd13ifvqfk0","pricing_plan_id":"cebpf4jnsgd1na2vs0mg"},{"bike_id":"f7662739-d69c-4274-a8c7-8f29a69d71e7","system_id":"levelo_inurba_marseille","lat":43.21747,"lon":5.34602,"is_reserved":false,"is_disabled":false,"rental_uris":{"android":"levelo://app?vid=f7662739-d69c-4274-a8c7-8f29a69d71e7","ios":"levelo://app?vid=f7662739-d69c-4274-a8c7-8f29a69d71e7"},"vehicle_type_id":"4","last_reported":1768835757,"current_range_meters":4400,"station_id":"st_cvj6r9ubvosntc0bgbag","pricing_plan_id":"cebpf4jnsgd1na2vs0mg"},{"bike_id":"9ae53b78-c214-4b59-bdf7-9a5152c2fa2f","system_id":"levelo_inurba_marseille","lat":43.28857,"lon":5.42519,"is_reserved":false,"is_disabled":false,"rental_uris":{"android":"levelo://app?vid=9ae53b78-c214-4b59-bdf7-9a5152c2fa2f","ios":"levelo://app?vid=9ae53b78-c214-4b59-bdf7-9a5152c2fa2f"},"vehicle_type_id":"4","last_reported":1768835757,"current_range_meters":4800,"station_id":"st_d3b462108ojc7389ooeg","pricing_plan_id":"cebpf4jnsgd1na2vs0mg"},{"bike_id":"ffc441e7-e55b-42bb-96f2-614e465f2aae","system_id":"levelo_inurba_marseille","lat":43.309,"lon":5.36873,"is_reserved":false,"is_disabled":false,"rental_uris":{"android":"levelo://app?vid=ffc441e7-e55b-42bb-96f2-614e465f2aae","ios":"levelo://app?vid=ffc441e7-e55b-42bb-96f2-614e465f2aae"},"vehicle_type_id":"4","last_reported":1768835757,"current_range_meters":4800,"station_id":"ce4bgn92rcd13ifvqbvg","pricing_plan_id":"cebpf4jnsgd1na2vs0mg"},{"bike_id":"b83c301d-6a09-4142-a82b-3802a6a2089f","system_id":"levelo_inurba_marseille","lat":43.28481,"lon":5.48391,"is_reserved":false,"is_disabled":false,"rental_uris":{"android":"levelo://app?vid=b83c301d-6a09-4142-a82b-3802a6a2089f","ios":"levelo://app?vid=b83c301d-6a09-4142-a82b-3802a6a2089f"},"vehicle_type_id":"4","last_reported":1768835757,"current_range_meters":4800,"station_id":"st_d3svhcjqgbts73a3dn0g","pricing_plan_id":"cebpf4jnsgd1na2vs0mg"},{"bike_id":"7b5eac77-7850-407f-858f-f904aecdf55e","system_id":"levelo_inurba_marseille","lat":43.25581,"lon":5.38227,"is_reserved":false,"is_disabled":false,"rental_uris":{"android":"levelo://app?vid=7b5eac77-7850-407f-858f-f904aecdf55e","ios":"levelo://app?vid=7b5eac77-7850-407f-858f-f904aecdf55e"},"vehicle_type_id":"4","last_reported":1768835757,"current_range_meters":4800,"station_id":"ce4bhih2rcd13ifvqfs0","pricing_plan_id":"cebpf4jnsgd1na2vs0mg"},{"bike_id":"005121e6-1689-40e9-86aa-c1ba90348e65","system_id":"levelo_inurba_marseille","lat":43.295135,"lon":5.390754,"is_reserved":false,"is_disabled":false,"rental_uris":{"android":"levelo://app?vid=005121e6-1689-40e9-86aa-c1ba90348e65","ios":"levelo://app?vid=005121e6-1689-40e9-86aa-c1ba90348e65"},"vehicle_type_id":"4","last_reported":1768835757,"current_range_meters":4800,"station_id":"ce4bh3p2rcd13ifvqdp0","pricing_plan_id":"cebpf4jnsgd1na2vs0mg"},{"bike_id":"7c429d88-caa9-46ca-87e9-a9f1305ab716","system_id":"levelo_inurba_marseille","lat":43.260585,"lon":5.393888,"is_reserved":false,"is_disabled":false,"rental_uris":{"android":"levelo://app?vid=7c429d88-caa9-46ca-87e9-a9f1305ab716","ios":"levelo://app?vid=7c429d88-caa9-46ca-87e9-a9f1305ab716"},"vehicle_type_id":"4","last_reported":1768835757,"current_range_meters":4800,"station_id":"ce4bhh92rcd13ifvqfj0","pricing_plan_id":"cebpf4jnsgd1na2vs0mg"},{"bike_id":"bbe76d6d-dca3-4763-bcad-edc1f4802bb6","system_id":"levelo_inurba_marseille","lat":43.27972,"lon":5.38525,"is_reserved":false,"is_disabled":false,"rental_uris":{"android":"levelo://app?vid=bbe76d6d-dca3-4763-bcad-edc1f4802bb6","ios":"levelo://app?vid=bbe76d6d-dca3-4763-bcad-edc1f4802bb6"},"vehicle_type_id":"4","last_reported":1768835757,"current_range_meters":5600,"station_id":"","pricing_plan_id":"cebpf4jnsgd1na2vs0mg"},{"bike_id":"6512f7f7-8488-45ba-9a63-98c102a520f9","system_id":"levelo_inurba_marseille","lat":43.29056,"lon":5.37156,"is_reserved":false,"is_disabled":false,"rental_uris":{"android":"levelo://app?vid=6512f7f7-8488-45ba-9a63-98c102a520f9","ios":"levelo://app?vid=6512f7f7-8488-45ba-9a63-98c102a520f9"},"vehicle_type_id":"4","last_reported":1768835757,"current_range_meters":5600,"station_id":"ce4bh5p2rcd13ifvqe4g","pricing_plan_id":"cebpf4jnsgd1na2vs0mg"},{"bike_id":"b16cc433-c65e-4457-b5af-cef4b9d644b2","system_id":"levelo_inurba_marseille","lat":43.301465,"lon":5.374155,"is_reserved":false,"is_disabled":false,"rental_uris":{"android":"levelo://app?vid=b16cc433-c65e-4457-b5af-cef4b9d644b2","ios":"levelo://app?vid=b16cc433-c65e-4457-b5af-cef4b9d644b2"},"vehicle_type_id":"4","last_reported":1768835757,"current_range_meters":5600,"station_id":"ce4bgs92rcd13ifvqcc0","pricing_plan_id":"cebpf4jnsgd1na2vs0mg"},{"bike_id":"566c16cb-af13-4ec7-91df-08d6c3c5e69d","system_id":"levelo_inurba_marseille","lat":43.27385,"lon":5.362456,"is_reserved":false,"is_disabled":false,"rental_uris":{"android":"levelo://app?vid=566c16cb-af13-4ec7-91df-08d6c3c5e69d","ios":"levelo://app?vid=566c16cb-af13-4ec7-91df-08d6c3c5e69d"},"vehicle_type_id":"4","last_reported":1768835757,"current_range_meters":5600,"station_id":"ce4bhbh2rcd13ifvqeo0","pricing_plan_id":"cebpf4jnsgd1na2vs0mg"},{"bike_id":"18f7ef13-b6cd-4f0d-b776-b4d71a83d34e","system_id":"levelo_inurba_marseille","lat":43.27789,"lon":5.40726,"is_reserved":false,"is_disabled":false,"rental_uris":{"android":"levelo://app?vid=18f7ef13-b6cd-4f0d-b776-b4d71a83d34e","ios":"levelo://app?vid=18f7ef13-b6cd-4f0d-b776-b4d71a83d34e"},"vehicle_type_id":"4","last_reported":1768835757,"current_range_meters":5600,"station_id":"ce4bhnh2rcd13ifvqgtg","pricing_plan_id":"cebpf4jnsgd1na2vs0mg"},{"bike_id":"adfdcb17-e56a-40ea-abeb-5e7a10692630","system_id":"levelo_inurba_marseille","lat":43.27945,"lon":5.41046,"is_reserved":false,"is_disabled":false,"rental_uris":{"android":"levelo://app?vid=adfdcb17-e56a-40ea-abeb-5e7a10692630","ios":"levelo://app?vid=adfdcb17-e56a-40ea-abeb-5e7a10692630"},"vehicle_type_id":"4","last_reported":1768835757,"current_range_meters":5600,"station_id":"ce4bhnp2rcd13ifvqh0g","pricing_plan_id":"cebpf4jnsgd1na2vs0mg"},{"bike_id":"ccd74f8a-2d31-4e3e-90cd-d53db1b81c64","system_id":"levelo_inurba_marseille","lat":43.26053,"lon":5.3863,"is_reserved":false,"is_disabled":false,"rental_uris":{"android":"levelo://app?vid=ccd74f8a-2d31-4e3e-90cd-d53db1b81c64","ios":"levelo://app?vid=ccd74f8a-2d31-4e3e-90cd-d53db1b81c64"},"vehicle_type_id":"4","last_reported":1768835757,"current_range_meters":5600,"station_id":"","pricing_plan_id":"cebpf4jnsgd1na2vs0mg"},{"bike_id":"02716a77-f5e1-4458-9825-dd28d9bb4577","system_id":"levelo_inurba_marseille","lat":43.24806,"lon":5.37459,"is_reserved":false,"is_disabled":false,"rental_uris":{"android":"levelo://app?vid=02716a77-f5e1-4458-9825-dd28d9bb4577","ios":"levelo://app?vid=02716a77-f5e1-4458-9825-dd28d9bb4577"},"vehicle_type_id":"4","last_reported":1768835757,"current_range_meters":5600,"station_id":"ce4bhgh2rcd13ifvqfb0","pricing_plan_id":"cebpf4jnsgd1na2vs0mg"},{"bike_id":"d8be4cd5-b26c-441b-bf6d-b13567d9a5d9","system_id":"levelo_inurba_marseille","lat":43.29628,"lon":5.37151,"is_reserved":false,"is_disabled":false,"rental_uris":{"android":"levelo://app?vid=d8be4cd5-b26c-441b-bf6d-b13567d9a5d9","ios":"levelo://app?vid=d8be4cd5-b26c-441b-bf6d-b13567d9a5d9"},"vehicle_type_id":"4","last_reported":1768835757,"current_range_meters":5600,"station_id":"ce4bgnh2rcd13ifvqc0g","pricing_plan_id":"cebpf4jnsgd1na2vs0mg"},{"bike_id":"ccbc7cc7-8082-4767-b087-b8c8e3e07b84","system_id":"levelo_inurba_marseille","lat":43.23195,"lon":5.35543,"is_reserved":false,"is_disabled":false,"rental_uris":{"android":"levelo://app?vid=ccbc7cc7-8082-4767-b087-b8c8e3e07b84","ios":"levelo://app?vid=ccbc7cc7-8082-4767-b087-b8c8e3e07b84"},"vehicle_type_id":"4","last_reported":1768835757,"current_range_meters":5600,"station_id":"ce4bhu92rcd13ifvqi70","pricing_plan_id":"cebpf4jnsgd1na2vs0mg"},{"bike_id":"b2391b9e-f074-477f-8048-319d96c713c1","system_id":"levelo_inurba_marseille","lat":43.314841,"lon":5.373066,"is_reserved":false,"is_disabled":false,"rental_uris":{"android":"levelo://app?vid=b2391b9e-f074-477f-8048-319d96c713c1","ios":"levelo://app?vid=b2391b9e-f074-477f-8048-319d96c713c1"},"vehicle_type_id":"4","last_reported":1768835757,"current_range_meters":5600,"station_id":"ce4bgt12rcd13ifvqcd0","pricing_plan_id":"cebpf4jnsgd1na2vs0mg"},{"bike_id":"cce7be02-80bd-4769-b012-dc06457e18d6","system_id":"levelo_inurba_marseille","lat":43.24177,"lon":5.39719,"is_reserved":false,"is_disabled":false,"rental_uris":{"android":"levelo://app?vid=cce7be02-80bd-4769-b012-dc06457e18d6","ios":"levelo://app?vid=cce7be02-80bd-4769-b012-dc06457e18d6"},"vehicle_type_id":"4","last_reported":1768835757,"current_range_meters":5600,"station_id":"ce4bhn12rcd13ifvqgpg","pricing_plan_id":"cebpf4jnsgd1na2vs0mg"},{"bike_id":"a7b9cdf7-d3ba-444b-a212-5edc361237f4","system_id":"levelo_inurba_marseille","lat":43.28472,"lon":5.48423,"is_reserved":false,"is_disabled":false,"rental_uris":{"android":"levelo://app?vid=a7b9cdf7-d3ba-444b-a212-5edc361237f4","ios":"levelo://app?vid=a7b9cdf7-d3ba-444b-a212-5edc361237f4"},"vehicle_type_id":"4","last_reported":1768835757,"current_range_meters":5600,"station_id":"","pricing_plan_id":"cebpf4jnsgd1na2vs0mg"},{"bike_id":"17e4c016-e42c-4c70-bb7c-473d3acc8180","system_id":"levelo_inurba_marseille","lat":43.29684,"lon":5.37734,"is_reserved":false,"is_disabled":false,"rental_uris":{"android":"levelo://app?vid=17e4c016-e42c-4c70-bb7c-473d3acc8180","ios":"levelo://app?vid=17e4c016-e42c-4c70-bb7c-473d3acc8180"},"vehicle_type_id":"4","last_reported":1768835757,"current_range_meters":5600,"station_id":"ce4bgkh2rcd13ifvqbl0","pricing_plan_id":"cebpf4jnsgd1na2vs0mg"},{"bike_id":"117903ef-5bd6-4546-bff1-baffee665714","system_id":"levelo_inurba_marseille","lat":43.28484,"lon":5.48391,"is_reserved":false,"is_disabled":false,"rental_uris":{"android":"levelo://app?vid=117903ef-5bd6-4546-bff1-baffee665714","ios":"levelo://app?vid=117903ef-5bd6-4546-bff1-baffee665714"},"vehicle_type_id":"4","last_reported":1768835757,"current_range_meters":5600,"station_id":"st_d3svhcjqgbts73a3dn0g","pricing_plan_id":"cebpf4jnsgd1na2vs0mg"},{"bike_id":"89738f7c-685b-44d7-93f1-60b67cb64c01","system_id":"levelo_inurba_marseille","lat":43.31067,"lon":5.37137,"is_reserved":false,"is_disabled":false,"rental_uris":{"android":"levelo://app?vid=89738f7c-685b-44d7-93f1-60b67cb64c01","ios":"levelo://app?vid=89738f7c-685b-44d7-93f1-60b67cb64c01"},"vehicle_type_id":"4","last_reported":1768835757,"current_range_meters":5600,"station_id":"st_d4kl2rp97mjs73e7tdfg","pricing_plan_id":"cebpf4jnsgd1na2vs0mg"},{"bike_id":"38f56d40-4385-45b4-9b11-04dfa0000cd9","system_id":"levelo_inurba_marseille","lat":43.28941,"lon":5.36385,"is_reserved":false,"is_disabled":false,"rental_uris":{"android":"levelo://app?vid=38f56d40-4385-45b4-9b11-04dfa0000cd9","ios":"levelo://app?vid=38f56d40-4385-45b4-9b11-04dfa0000cd9"},"vehicle_type_id":"4","last_reported":1768835757,"current_range_meters":5600,"station_id":"ce4bhc92rcd13ifvqetg","pricing_plan_id":"cebpf4jnsgd1na2vs0mg"},{"bike_id":"e057ae2d-4eea-4583-8acf-116960ce087b","system_id":"levelo_inurba_marseille","lat":43.27807,"lon":5.40705,"is_reserved":false,"is_disabled":false,"rental_uris":{"android":"levelo://app?vid=e057ae2d-4eea-4583-8acf-116960ce087b","ios":"levelo://app?vid=e057ae2d-4eea-4583-8acf-116960ce087b"},"vehicle_type_id":"4","last_reported":1768835757,"current_range_meters":5600,"station_id":"ce4bhnh2rcd13ifvqgtg","pricing_plan_id":"cebpf4jnsgd1na2vs0mg"},{"bike_id":"f6d57b67-b456-4d8e-b079-d3727b1c2664","system_id":"levelo_inurba_marseille","lat":43.29526,"lon":5.38541,"is_reserved":false,"is_disabled":false,"rental_uris":{"android":"levelo://app?vid=f6d57b67-b456-4d8e-b079-d3727b1c2664","ios":"levelo://app?vid=f6d57b67-b456-4d8e-b079-d3727b1c2664"},"vehicle_type_id":"4","last_reported":1768835757,"current_range_meters":5600,"station_id":"ce4bgih2rcd13ifvqba0","pricing_plan_id":"cebpf4jnsgd1na2vs0mg"},{"bike_id":"50faeff1-3d72-4872-ab93-73625fbacf9a","system_id":"levelo_inurba_marseille","lat":43.30944,"lon":5.40132,"is_reserved":false,"is_disabled":false,"rental_uris":{"android":"levelo://app?vid=50faeff1-3d72-4872-ab93-73625fbacf9a","ios":"levelo://app?vid=50faeff1-3d72-4872-ab93-73625fbacf9a"},"vehicle_type_id":"4","last_reported":1768835757,"current_range_meters":5600,"station_id":"ce4bgvp2rcd13ifvqct0","pricing_plan_id":"cebpf4jnsgd1na2vs0mg"},{"bike_id":"08ef4cc0-a791-47fc-83d9-7e103a0f2d7b","system_id":"levelo_inurba_marseille","lat":43.26949,"lon":5.38633,"is_reserved":false,"is_disabled":false,"rental_uris":{"android":"levelo://app?vid=08ef4cc0-a791-47fc-83d9-7e103a0f2d7b","ios":"levelo://app?vid=08ef4cc0-a791-47fc-83d9-7e103a0f2d7b"},"vehicle_type_id":"4","last_reported":1768835757,"current_range_meters":6000,"station_id":"ce4bhh92rcd13ifvqfh0","pricing_plan_id":"cebpf4jnsgd1na2vs0mg"},{"bike_id":"8fc40975-6cc9-4b56-9cfb-b7a269b5783c","system_id":"levelo_inurba_marseille","lat":43.26062,"lon":5.39384,"is_reserved":false,"is_disabled":false,"rental_uris":{"android":"levelo://app?vid=8fc40975-6cc9-4b56-9cfb-b7a269b5783c","ios":"levelo://app?vid=8fc40975-6cc9-4b56-9cfb-b7a269b5783c"},"vehicle_type_id":"4","last_reported":1768835757,"current_range_meters":6000,"station_id":"ce4bhh92rcd13ifvqfj0","pricing_plan_id":"cebpf4jnsgd1na2vs0mg"},{"bike_id":"99177550-932c-4df9-9fa8-0fd950dd5414","system_id":"levelo_inurba_marseille","lat":43.27228,"lon":5.39161,"is_reserved":false,"is_disabled":false,"rental_uris":{"android":"levelo://app?vid=99177550-932c-4df9-9fa8-0fd950dd5414","ios":"levelo://app?vid=99177550-932c-4df9-9fa8-0fd950dd5414"},"vehicle_type_id":"4","last_reported":1768835757,"current_range_meters":6000,"station_id":"","pricing_plan_id":"cebpf4jnsgd1na2vs0mg"},{"bike_id":"910cfe43-a618-4ee9-a7b1-5d5b63afa86d","system_id":"levelo_inurba_marseille","lat":43.25868,"lon":5.39898,"is_reserved":false,"is_disabled":false,"rental_uris":{"android":"levelo://app?vid=910cfe43-a618-4ee9-a7b1-5d5b63afa86d","ios":"levelo://app?vid=910cfe43-a618-4ee9-a7b1-5d5b63afa86d"},"vehicle_type_id":"4","last_reported":1768835757,"current_range_meters":6000,"station_id":"ce4bhl92rcd13ifvqghg","pricing_plan_id":"cebpf4jnsgd1na2vs0mg"},{"bike_id":"519b1b23-ee6a-48f5-b3d6-7b553c904b51","system_id":"levelo_inurba_marseille","lat":43.22949,"lon":5.3542,"is_reserved":false,"is_disabled":false,"rental_uris":{"android":"levelo://app?vid=519b1b23-ee6a-48f5-b3d6-7b553c904b51","ios":"levelo://app?vid=519b1b23-ee6a-48f5-b3d6-7b553c904b51"},"vehicle_type_id":"4","last_reported":1768835757,"current_range_meters":6000,"station_id":"cpo3532slgdg3j2ikp40","pricing_plan_id":"cebpf4jnsgd1na2vs0mg"},{"bike_id":"b9b4f431-82fc-4bbf-9af4-1dfdef347107","system_id":"levelo_inurba_marseille","lat":43.28485,"lon":5.38536,"is_reserved":false,"is_disabled":false,"rental_uris":{"android":"levelo://app?vid=b9b4f431-82fc-4bbf-9af4-1dfdef347107","ios":"levelo://app?vid=b9b4f431-82fc-4bbf-9af4-1dfdef347107"},"vehicle_type_id":"4","last_reported":1768835757,"current_range_meters":6000,"station_id":"ce4bh8p2rcd13ifvqeb0","pricing_plan_id":"cebpf4jnsgd1na2vs0mg"},{"bike_id":"0431c530-a435-4150-a944-1b40bee617f3","system_id":"levelo_inurba_marseille","lat":43.2622,"lon":5.4047,"is_reserved":false,"is_disabled":false,"rental_uris":{"android":"levelo://app?vid=0431c530-a435-4150-a944-1b40bee617f3","ios":"levelo://app?vid=0431c530-a435-4150-a944-1b40bee617f3"},"vehicle_type_id":"4","last_reported":1768835757,"current_range_meters":6000,"station_id":"ce4bhmh2rcd13ifvqgmg","pricing_plan_id":"cebpf4jnsgd1na2vs0mg"},{"bike_id":"1759f8c6-0bd2-4102-8c30-2a14dc8543ef","system_id":"levelo_inurba_marseille","lat":43.29192,"lon":5.35806,"is_reserved":false,"is_disabled":false,"rental_uris":{"android":"levelo://app?vid=1759f8c6-0bd2-4102-8c30-2a14dc8543ef","ios":"levelo://app?vid=1759f8c6-0bd2-4102-8c30-2a14dc8543ef"},"vehicle_type_id":"4","last_reported":1768835757,"current_range_meters":6000,"station_id":"ce4bhb12rcd13ifvqel0","pricing_plan_id":"cebpf4jnsgd1na2vs0mg"},{"bike_id":"58713724-2b25-4434-ac95-768a9f7f218a","system_id":"levelo_inurba_marseille","lat":43.25221,"lon":5.38037,"is_reserved":false,"is_disabled":false,"rental_uris":{"android":"levelo://app?vid=58713724-2b25-4434-ac95-768a9f7f218a","ios":"levelo://app?vid=58713724-2b25-4434-ac95-768a9f7f218a"},"vehicle_type_id":"4","last_reported":1768835757,"current_range_meters":6000,"station_id":"","pricing_plan_id":"cebpf4jnsgd1na2vs0mg"},{"bike_id":"c2d78561-7337-4974-8b58-fc8e6c5f41c9","system_id":"levelo_inurba_marseille","lat":43.29557,"lon":5.39955,"is_reserved":false,"is_disabled":false,"rental_uris":{"android":"levelo://app?vid=c2d78561-7337-4974-8b58-fc8e6c5f41c9","ios":"levelo://app?vid=c2d78561-7337-4974-8b58-fc8e6c5f41c9"},"vehicle_type_id":"4","last_reported":1768835757,"current_range_meters":6000,"station_id":"ce4bh312rcd13ifvqdj0","pricing_plan_id":"cebpf4jnsgd1na2vs0mg"},{"bike_id":"fc81b9d6-c23c-4a2c-a207-e8e651dd406e","system_id":"levelo_inurba_marseille","lat":43.27996,"lon":5.41665,"is_reserved":false,"is_disabled":false,"rental_uris":{"android":"levelo://app?vid=fc81b9d6-c23c-4a2c-a207-e8e651dd406e","ios":"levelo://app?vid=fc81b9d6-c23c-4a2c-a207-e8e651dd406e"},"vehicle_type_id":"4","last_reported":1768835757,"current_range_meters":6400,"station_id":"ce4bho12rcd13ifvqh1g","pricing_plan_id":"cebpf4jnsgd1na2vs0mg"},{"bike_id":"7cc9c6fa-bf6c-480e-a632-7ea9d845bdf0","system_id":"levelo_inurba_marseille","lat":43.24549,"lon":5.39522,"is_reserved":false,"is_disabled":false,"rental_uris":{"android":"levelo://app?vid=7cc9c6fa-bf6c-480e-a632-7ea9d845bdf0","ios":"levelo://app?vid=7cc9c6fa-bf6c-480e-a632-7ea9d845bdf0"},"vehicle_type_id":"4","last_reported":1768835757,"current_range_meters":6400,"station_id":"ce4bhlp2rcd13ifvqgjg","pricing_plan_id":"cebpf4jnsgd1na2vs0mg"},{"bike_id":"2a387084-a6cc-4af4-b63f-1443441fc658","system_id":"levelo_inurba_marseille","lat":43.27609,"lon":5.36102,"is_reserved":false,"is_disabled":false,"rental_uris":{"android":"levelo://app?vid=2a387084-a6cc-4af4-b63f-1443441fc658","ios":"levelo://app?vid=2a387084-a6cc-4af4-b63f-1443441fc658"},"vehicle_type_id":"4","last_reported":1768835757,"current_range_meters":6400,"station_id":"ce4bgj92rcd13ifvqbe0","pricing_plan_id":"cebpf4jnsgd1na2vs0mg"},{"bike_id":"1e064ac5-997e-4102-a700-a96ce59a5367","system_id":"levelo_inurba_marseille","lat":43.28552,"lon":5.44111,"is_reserved":false,"is_disabled":false,"rental_uris":{"android":"levelo://app?vid=1e064ac5-997e-4102-a700-a96ce59a5367","ios":"levelo://app?vid=1e064ac5-997e-4102-a700-a96ce59a5367"},"vehicle_type_id":"4","last_reported":1768835757,"current_range_meters":6400,"station_id":"st_d3j3df2ikq2c7380ej80","pricing_plan_id":"cebpf4jnsgd1na2vs0mg"},{"bike_id":"a4a6af33-604e-4b5a-a662-fd199e256423","system_id":"levelo_inurba_marseille","lat":43.31753,"lon":5.39012,"is_reserved":false,"is_disabled":false,"rental_uris":{"android":"levelo://app?vid=a4a6af33-604e-4b5a-a662-fd199e256423","ios":"levelo://app?vid=a4a6af33-604e-4b5a-a662-fd199e256423"},"vehicle_type_id":"4","last_reported":1768835757,"current_range_meters":6400,"station_id":"ce4bhqp2rcd13ifvqhng","pricing_plan_id":"cebpf4jnsgd1na2vs0mg"},{"bike_id":"9fc6ac0d-bade-4fb6-8533-07cc6e23f68c","system_id":"levelo_inurba_marseille","lat":43.26955,"lon":5.40265,"is_reserved":false,"is_disabled":false,"rental_uris":{"android":"levelo://app?vid=9fc6ac0d-bade-4fb6-8533-07cc6e23f68c","ios":"levelo://app?vid=9fc6ac0d-bade-4fb6-8533-07cc6e23f68c"},"vehicle_type_id":"4","last_reported":1768835757,"current_range_meters":6400,"station_id":"cjm6bp8fraef2m0cb0m0","pricing_plan_id":"cebpf4jnsgd1na2vs0mg"},{"bike_id":"20ff67e5-d319-4566-8b20-7f51d229e5de","system_id":"levelo_inurba_marseille","lat":43.23812,"lon":5.36606,"is_reserved":false,"is_disabled":false,"rental_uris":{"android":"levelo://app?vid=20ff67e5-d319-4566-8b20-7f51d229e5de","ios":"levelo://app?vid=20ff67e5-d319-4566-8b20-7f51d229e5de"},"vehicle_type_id":"4","last_reported":1768835757,"current_range_meters":6400,"station_id":"st_d3nk18o9ro0c73en2l3g","pricing_plan_id":"cebpf4jnsgd1na2vs0mg"},{"bike_id":"06aa1e22-882b-4a8c-bb89-f22e976a2f36","system_id":"levelo_inurba_marseille","lat":43.24167,"lon":5.39679,"is_reserved":false,"is_disabled":false,"rental_uris":{"android":"levelo://app?vid=06aa1e22-882b-4a8c-bb89-f22e976a2f36","ios":"levelo://app?vid=06aa1e22-882b-4a8c-bb89-f22e976a2f36"},"vehicle_type_id":"4","last_reported":1768835757,"current_range_meters":6400,"station_id":"ce4bhn12rcd13ifvqgpg","pricing_plan_id":"cebpf4jnsgd1na2vs0mg"},{"bike_id":"ec88f322-322a-450d-9c6a-b73b9b2924c9","system_id":"levelo_inurba_marseille","lat":43.25721,"lon":5.41111,"is_reserved":false,"is_disabled":false,"rental_uris":{"android":"levelo://app?vid=ec88f322-322a-450d-9c6a-b73b9b2924c9","ios":"levelo://app?vid=ec88f322-322a-450d-9c6a-b73b9b2924c9"},"vehicle_type_id":"4","last_reported":1768835757,"current_range_meters":6400,"station_id":"ce4bhkp2rcd13ifvqgd0","pricing_plan_id":"cebpf4jnsgd1na2vs0mg"},{"bike_id":"dc9b8f42-6fb6-4a92-81b5-3ba3201183a1","system_id":"levelo_inurba_marseille","lat":43.29993,"lon":5.38508,"is_reserved":false,"is_disabled":true,"rental_uris":{"android":"levelo://app?vid=dc9b8f42-6fb6-4a92-81b5-3ba3201183a1","ios":"levelo://app?vid=dc9b8f42-6fb6-4a92-81b5-3ba3201183a1"},"vehicle_type_id":"4","last_reported":1768835757,"current_range_meters":6400,"station_id":"ce4bgj92rcd13ifvqbd0","pricing_plan_id":"cebpf4jnsgd1na2vs0mg"},{"bike_id":"3d8a5239-eb14-468f-be90-3f7ff969a036","system_id":"levelo_inurba_marseille","lat":43.305459,"lon":5.365329,"is_reserved":false,"is_disabled":false,"rental_uris":{"android":"levelo://app?vid=3d8a5239-eb14-468f-be90-3f7ff969a036","ios":"levelo://app?vid=3d8a5239-eb14-468f-be90-3f7ff969a036"},"vehicle_type_id":"4","last_reported":1768835757,"current_range_meters":6400,"station_id":"ce4bgs12rcd13ifvqcag","pricing_plan_id":"cebpf4jnsgd1na2vs0mg"},{"bike_id":"5704e9bd-5b46-470f-b72c-dc5633415471","system_id":"levelo_inurba_marseille","lat":43.23145,"lon":5.43711,"is_reserved":false,"is_disabled":true,"rental_uris":{"android":"levelo://app?vid=5704e9bd-5b46-470f-b72c-dc5633415471","ios":"levelo://app?vid=5704e9bd-5b46-470f-b72c-dc5633415471"},"vehicle_type_id":"4","last_reported":1768835757,"current_range_meters":6400,"station_id":"ce4bhmp2rcd13ifvqgog","pricing_plan_id":"cebpf4jnsgd1na2vs0mg"},{"bike_id":"d3812b38-2182-4903-b326-c4852403c5ce","system_id":"levelo_inurba_marseille","lat":43.28757,"lon":5.3716,"is_reserved":false,"is_disabled":false,"rental_uris":{"android":"levelo://app?vid=d3812b38-2182-4903-b326-c4852403c5ce","ios":"levelo://app?vid=d3812b38-2182-4903-b326-c4852403c5ce"},"vehicle_type_id":"4","last_reported":1768835757,"current_range_meters":6400,"station_id":"","pricing_plan_id":"cebpf4jnsgd1na2vs0mg"},{"bike_id":"d9c93936-0d85-4777-bc0f-daf3fe68d8e4","system_id":"levelo_inurba_marseille","lat":43.26787,"lon":5.39413,"is_reserved":false,"is_disabled":false,"rental_uris":{"android":"levelo://app?vid=d9c93936-0d85-4777-bc0f-daf3fe68d8e4","ios":"levelo://app?vid=d9c93936-0d85-4777-bc0f-daf3fe68d8e4"},"vehicle_type_id":"4","last_reported":1768835757,"current_range_meters":6400,"station_id":"ce4bhh12rcd13ifvqfg0","pricing_plan_id":"cebpf4jnsgd1na2vs0mg"},{"bike_id":"c7d76a43-61c8-4794-b449-59edfd333bbe","system_id":"levelo_inurba_marseille","lat":43.30787,"lon":5.3817,"is_reserved":false,"is_disabled":false,"rental_uris":{"android":"levelo://app?vid=c7d76a43-61c8-4794-b449-59edfd333bbe","ios":"levelo://app?vid=c7d76a43-61c8-4794-b449-59edfd333bbe"},"vehicle_type_id":"4","last_reported":1768835757,"current_range_meters":6400,"station_id":"ce4bgt12rcd13ifvqce0","pricing_plan_id":"cebpf4jnsgd1na2vs0mg"},{"bike_id":"306ae422-344d-4e31-b790-440e968153a0","system_id":"levelo_inurba_marseille","lat":43.25339,"lon":5.37993,"is_reserved":false,"is_disabled":false,"rental_uris":{"android":"levelo://app?vid=306ae422-344d-4e31-b790-440e968153a0","ios":"levelo://app?vid=306ae422-344d-4e31-b790-440e968153a0"},"vehicle_type_id":"4","last_reported":1768835757,"current_range_meters":6400,"station_id":"","pricing_plan_id":"cebpf4jnsgd1na2vs0mg"},{"bike_id":"b79cf36e-4e03-4422-9782-600682148e13","system_id":"levelo_inurba_marseille","lat":43.310304,"lon":5.371215,"is_reserved":false,"is_disabled":false,"rental_uris":{"android":"levelo://app?vid=b79cf36e-4e03-4422-9782-600682148e13","ios":"levelo://app?vid=b79cf36e-4e03-4422-9782-600682148e13"},"vehicle_type_id":"4","last_reported":1768835757,"current_range_meters":6400,"station_id":"st_d4kl2rp97mjs73e7tdfg","pricing_plan_id":"cebpf4jnsgd1na2vs0mg"},{"bike_id":"fc67e3f2-2883-4821-838b-cbd3c636615f","system_id":"levelo_inurba_marseille","lat":43.24175,"lon":5.39722,"is_reserved":false,"is_disabled":false,"rental_uris":{"android":"levelo://app?vid=fc67e3f2-2883-4821-838b-cbd3c636615f","ios":"levelo://app?vid=fc67e3f2-2883-4821-838b-cbd3c636615f"},"vehicle_type_id":"4","last_reported":1768835757,"current_range_meters":6400,"station_id":"ce4bhn12rcd13ifvqgpg","pricing_plan_id":"cebpf4jnsgd1na2vs0mg"},{"bike_id":"ddc9e117-7fb8-4cb9-87ea-9a0bb1767c17","system_id":"levelo_inurba_marseille","lat":43.213824,"lon":5.350399,"is_reserved":false,"is_disabled":false,"rental_uris":{"android":"levelo://app?vid=ddc9e117-7fb8-4cb9-87ea-9a0bb1767c17","ios":"levelo://app?vid=ddc9e117-7fb8-4cb9-87ea-9a0bb1767c17"},"vehicle_type_id":"4","last_reported":1768835757,"current_range_meters":6400,"station_id":"","pricing_plan_id":"cebpf4jnsgd1na2vs0mg"},{"bike_id":"51cc78b3-56e5-468f-95db-127ca277f928","system_id":"levelo_inurba_marseille","lat":43.25008,"lon":5.38916,"is_reserved":false,"is_disabled":false,"rental_uris":{"android":"levelo://app?vid=51cc78b3-56e5-468f-95db-127ca277f928","ios":"levelo://app?vid=51cc78b3-56e5-468f-95db-127ca277f928"},"vehicle_type_id":"4","last_reported":1768835757,"current_range_meters":6800,"station_id":"ce4bhgp2rcd13ifvqfd0","pricing_plan_id":"cebpf4jnsgd1na2vs0mg"},{"bike_id":"4dcccb50-900f-403f-8910-43cf900913ba","system_id":"levelo_inurba_marseille","lat":43.29801,"lon":5.38085,"is_reserved":false,"is_disabled":false,"rental_uris":{"android":"levelo://app?vid=4dcccb50-900f-403f-8910-43cf900913ba","ios":"levelo://app?vid=4dcccb50-900f-403f-8910-43cf900913ba"},"vehicle_type_id":"4","last_reported":1768835757,"current_range_meters":6800,"station_id":"ce4bgip2rcd13ifvqbb0","pricing_plan_id":"cebpf4jnsgd1na2vs0mg"},{"bike_id":"57d29cba-b269-4d3a-9f6a-9e2e25fad12b","system_id":"levelo_inurba_marseille","lat":43.24809,"lon":5.37451,"is_reserved":false,"is_disabled":false,"rental_uris":{"android":"levelo://app?vid=57d29cba-b269-4d3a-9f6a-9e2e25fad12b","ios":"levelo://app?vid=57d29cba-b269-4d3a-9f6a-9e2e25fad12b"},"vehicle_type_id":"4","last_reported":1768835757,"current_range_meters":6800,"station_id":"ce4bhgh2rcd13ifvqfb0","pricing_plan_id":"cebpf4jnsgd1na2vs0mg"},{"bike_id":"3e9f82a3-b362-419d-ac3c-48b328f4d313","system_id":"levelo_inurba_marseille","lat":43.30528,"lon":5.38424,"is_reserved":false,"is_disabled":false,"rental_uris":{"android":"levelo://app?vid=3e9f82a3-b362-419d-ac3c-48b328f4d313","ios":"levelo://app?vid=3e9f82a3-b362-419d-ac3c-48b328f4d313"},"vehicle_type_id":"4","last_reported":1768835757,"current_range_meters":6800,"station_id":"ce4bgg92rcd13ifvqb30","pricing_plan_id":"cebpf4jnsgd1na2vs0mg"},{"bike_id":"848944f8-1fde-4ad9-8515-fe9c096c9d13","system_id":"levelo_inurba_marseille","lat":43.30444,"lon":5.38893,"is_reserved":false,"is_disabled":false,"rental_uris":{"android":"levelo://app?vid=848944f8-1fde-4ad9-8515-fe9c096c9d13","ios":"levelo://app?vid=848944f8-1fde-4ad9-8515-fe9c096c9d13"},"vehicle_type_id":"4","last_reported":1768835757,"current_range_meters":6800,"station_id":"ce4bgk12rcd13ifvqbi0","pricing_plan_id":"cebpf4jnsgd1na2vs0mg"},{"bike_id":"1dd59fdd-775c-4c2f-a5a5-3355fae7a44c","system_id":"levelo_inurba_marseille","lat":43.27833,"lon":5.40676,"is_reserved":false,"is_disabled":false,"rental_uris":{"android":"levelo://app?vid=1dd59fdd-775c-4c2f-a5a5-3355fae7a44c","ios":"levelo://app?vid=1dd59fdd-775c-4c2f-a5a5-3355fae7a44c"},"vehicle_type_id":"4","last_reported":1768835757,"current_range_meters":6800,"station_id":"ce4bhnh2rcd13ifvqgtg","pricing_plan_id":"cebpf4jnsgd1na2vs0mg"},{"bike_id":"43565008-54b6-415c-9faf-fa9e6acb1f2c","system_id":"levelo_inurba_marseille","lat":43.27978,"lon":5.39981,"is_reserved":false,"is_disabled":false,"rental_uris":{"android":"levelo://app?vid=43565008-54b6-415c-9faf-fa9e6acb1f2c","ios":"levelo://app?vid=43565008-54b6-415c-9faf-fa9e6acb1f2c"},"vehicle_type_id":"4","last_reported":1768835757,"current_range_meters":6800,"station_id":"ce4bho92rcd13ifvqh4g","pricing_plan_id":"cebpf4jnsgd1na2vs0mg"},{"bike_id":"1d53d8bc-f0dc-422e-b6d0-a0abdf57df70","system_id":"levelo_inurba_marseille","lat":43.29792,"lon":5.39346,"is_reserved":false,"is_disabled":false,"rental_uris":{"android":"levelo://app?vid=1d53d8bc-f0dc-422e-b6d0-a0abdf57df70","ios":"levelo://app?vid=1d53d8bc-f0dc-422e-b6d0-a0abdf57df70"},"vehicle_type_id":"4","last_reported":1768835757,"current_range_meters":6800,"station_id":"chh1huq6cuj3fo74tm60","pricing_plan_id":"cebpf4jnsgd1na2vs0mg"},{"bike_id":"5bdbac83-4ca9-4acc-953c-d7ce0bac2fc0","system_id":"levelo_inurba_marseille","lat":43.33753,"lon":5.37462,"is_reserved":false,"is_disabled":false,"rental_uris":{"android":"levelo://app?vid=5bdbac83-4ca9-4acc-953c-d7ce0bac2fc0","ios":"levelo://app?vid=5bdbac83-4ca9-4acc-953c-d7ce0bac2fc0"},"vehicle_type_id":"4","last_reported":1768835757,"current_range_meters":6800,"station_id":"","pricing_plan_id":"cebpf4jnsgd1na2vs0mg"},{"bike_id":"a12c1ed8-2727-466a-ad84-a4c36140a936","system_id":"levelo_inurba_marseille","lat":43.2512,"lon":5.40317,"is_reserved":false,"is_disabled":false,"rental_uris":{"android":"levelo://app?vid=a12c1ed8-2727-466a-ad84-a4c36140a936","ios":"levelo://app?vid=a12c1ed8-2727-466a-ad84-a4c36140a936"},"vehicle_type_id":"4","last_reported":1768835757,"current_range_meters":6800,"station_id":"ce4bhlh2rcd13ifvqgig","pricing_plan_id":"cebpf4jnsgd1na2vs0mg"},{"bike_id":"5ae88bbd-8cbd-41bb-a736-0a14706247a2","system_id":"levelo_inurba_marseille","lat":43.26555,"lon":5.40332,"is_reserved":false,"is_disabled":false,"rental_uris":{"android":"levelo://app?vid=5ae88bbd-8cbd-41bb-a736-0a14706247a2","ios":"levelo://app?vid=5ae88bbd-8cbd-41bb-a736-0a14706247a2"},"vehicle_type_id":"4","last_reported":1768835757,"current_range_meters":6800,"station_id":"ce4bhmp2rcd13ifvqgng","pricing_plan_id":"cebpf4jnsgd1na2vs0mg"},{"bike_id":"6f837731-cf54-4967-8659-d0cccc748050","system_id":"levelo_inurba_marseille","lat":43.26365,"lon":5.410721,"is_reserved":false,"is_disabled":false,"rental_uris":{"android":"levelo://app?vid=6f837731-cf54-4967-8659-d0cccc748050","ios":"levelo://app?vid=6f837731-cf54-4967-8659-d0cccc748050"},"vehicle_type_id":"4","last_reported":1768835757,"current_range_meters":6800,"station_id":"st_d4e5ca6na9uc73bfl5fg","pricing_plan_id":"cebpf4jnsgd1na2vs0mg"},{"bike_id":"eb243468-bdf5-4b02-8303-fec3406f4620","system_id":"levelo_inurba_marseille","lat":43.289213,"lon":5.383965,"is_reserved":false,"is_disabled":true,"rental_uris":{"android":"levelo://app?vid=eb243468-bdf5-4b02-8303-fec3406f4620","ios":"levelo://app?vid=eb243468-bdf5-4b02-8303-fec3406f4620"},"vehicle_type_id":"4","last_reported":1768835757,"current_range_meters":6800,"station_id":"ce4bh612rcd13ifvqe6g","pricing_plan_id":"cebpf4jnsgd1na2vs0mg"},{"bike_id":"8bffa589-d6c6-4e21-b1c6-6ed248a7f7e7","system_id":"levelo_inurba_marseille","lat":43.2867,"lon":5.38658,"is_reserved":false,"is_disabled":false,"rental_uris":{"android":"levelo://app?vid=8bffa589-d6c6-4e21-b1c6-6ed248a7f7e7","ios":"levelo://app?vid=8bffa589-d6c6-4e21-b1c6-6ed248a7f7e7"},"vehicle_type_id":"4","last_reported":1768835757,"current_range_meters":6800,"station_id":"ce4bh492rcd13ifvqdug","pricing_plan_id":"cebpf4jnsgd1na2vs0mg"},{"bike_id":"20df884b-a2b2-44f7-a1cf-24de25e06883","system_id":"levelo_inurba_marseille","lat":43.2721,"lon":5.39183,"is_reserved":false,"is_disabled":false,"rental_uris":{"android":"levelo://app?vid=20df884b-a2b2-44f7-a1cf-24de25e06883","ios":"levelo://app?vid=20df884b-a2b2-44f7-a1cf-24de25e06883"},"vehicle_type_id":"4","last_reported":1768835757,"current_range_meters":7200,"station_id":"ce4bhhp2rcd13ifvqfm0","pricing_plan_id":"cebpf4jnsgd1na2vs0mg"},{"bike_id":"13da125f-4521-4fe2-a137-a13bd6fc1b34","system_id":"levelo_inurba_marseille","lat":43.25334,"lon":5.42161,"is_reserved":false,"is_disabled":false,"rental_uris":{"android":"levelo://app?vid=13da125f-4521-4fe2-a137-a13bd6fc1b34","ios":"levelo://app?vid=13da125f-4521-4fe2-a137-a13bd6fc1b34"},"vehicle_type_id":"4","last_reported":1768835757,"current_range_meters":7200,"station_id":"st_d2m65c5bi1j21697t3ng","pricing_plan_id":"cebpf4jnsgd1na2vs0mg"},{"bike_id":"a83679e3-65d3-49c0-aa96-4844e203de21","system_id":"levelo_inurba_marseille","lat":43.33758,"lon":5.37493,"is_reserved":false,"is_disabled":false,"rental_uris":{"android":"levelo://app?vid=a83679e3-65d3-49c0-aa96-4844e203de21","ios":"levelo://app?vid=a83679e3-65d3-49c0-aa96-4844e203de21"},"vehicle_type_id":"4","last_reported":1768835757,"current_range_meters":7200,"station_id":"","pricing_plan_id":"cebpf4jnsgd1na2vs0mg"},{"bike_id":"0328d966-1bb8-4104-bc8c-65287b271812","system_id":"levelo_inurba_marseille","lat":43.22924,"lon":5.35379,"is_reserved":false,"is_disabled":false,"rental_uris":{"android":"levelo://app?vid=0328d966-1bb8-4104-bc8c-65287b271812","ios":"levelo://app?vid=0328d966-1bb8-4104-bc8c-65287b271812"},"vehicle_type_id":"4","last_reported":1768835757,"current_range_meters":7200,"station_id":"cpo3532slgdg3j2ikp40","pricing_plan_id":"cebpf4jnsgd1na2vs0mg"},{"bike_id":"acaa8ffd-d6bb-453e-8ba1-c98b6c468cd3","system_id":"levelo_inurba_marseille","lat":43.22929,"lon":5.35367,"is_reserved":false,"is_disabled":false,"rental_uris":{"android":"levelo://app?vid=acaa8ffd-d6bb-453e-8ba1-c98b6c468cd3","ios":"levelo://app?vid=acaa8ffd-d6bb-453e-8ba1-c98b6c468cd3"},"vehicle_type_id":"4","last_reported":1768835757,"current_range_meters":7200,"station_id":"cpo3532slgdg3j2ikp40","pricing_plan_id":"cebpf4jnsgd1na2vs0mg"},{"bike_id":"2f41e160-ae0e-4981-a182-e0ec9c9778a7","system_id":"levelo_inurba_marseille","lat":43.264946,"lon":5.395401,"is_reserved":false,"is_disabled":false,"rental_uris":{"android":"levelo://app?vid=2f41e160-ae0e-4981-a182-e0ec9c9778a7","ios":"levelo://app?vid=2f41e160-ae0e-4981-a182-e0ec9c9778a7"},"vehicle_type_id":"4","last_reported":1768835757,"current_range_meters":7200,"station_id":"ce4bhi12rcd13ifvqfq0","pricing_plan_id":"cebpf4jnsgd1na2vs0mg"},{"bike_id":"5f195323-5623-4e6c-81ad-6a125f1ac01b","system_id":"levelo_inurba_marseille","lat":43.27316,"lon":5.39093,"is_reserved":false,"is_disabled":false,"rental_uris":{"android":"levelo://app?vid=5f195323-5623-4e6c-81ad-6a125f1ac01b","ios":"levelo://app?vid=5f195323-5623-4e6c-81ad-6a125f1ac01b"},"vehicle_type_id":"4","last_reported":1768835757,"current_range_meters":7200,"station_id":"ce4bhgp2rcd13ifvqfe0","pricing_plan_id":"cebpf4jnsgd1na2vs0mg"},{"bike_id":"ccc4ff47-1441-4ab4-a8dc-dc13c4eaa1c1","system_id":"levelo_inurba_marseille","lat":43.22557,"lon":5.41627,"is_reserved":false,"is_disabled":false,"rental_uris":{"android":"levelo://app?vid=ccc4ff47-1441-4ab4-a8dc-dc13c4eaa1c1","ios":"levelo://app?vid=ccc4ff47-1441-4ab4-a8dc-dc13c4eaa1c1"},"vehicle_type_id":"4","last_reported":1768835757,"current_range_meters":7200,"station_id":"st_d2o4gvlbi1j2169b742g","pricing_plan_id":"cebpf4jnsgd1na2vs0mg"},{"bike_id":"3bff1722-2d94-4fad-b0de-e97e95277ca6","system_id":"levelo_inurba_marseille","lat":43.25202,"lon":5.40052,"is_reserved":false,"is_disabled":false,"rental_uris":{"android":"levelo://app?vid=3bff1722-2d94-4fad-b0de-e97e95277ca6","ios":"levelo://app?vid=3bff1722-2d94-4fad-b0de-e97e95277ca6"},"vehicle_type_id":"4","last_reported":1768835757,"current_range_meters":7200,"station_id":"","pricing_plan_id":"cebpf4jnsgd1na2vs0mg"},{"bike_id":"021245d1-2447-411c-ae8b-dc86f3fa4f87","system_id":"levelo_inurba_marseille","lat":43.26503,"lon":5.39543,"is_reserved":false,"is_disabled":false,"rental_uris":{"android":"levelo://app?vid=021245d1-2447-411c-ae8b-dc86f3fa4f87","ios":"levelo://app?vid=021245d1-2447-411c-ae8b-dc86f3fa4f87"},"vehicle_type_id":"4","last_reported":1768835757,"current_range_meters":7200,"station_id":"ce4bhi12rcd13ifvqfq0","pricing_plan_id":"cebpf4jnsgd1na2vs0mg"},{"bike_id":"cc6944a3-010b-4be8-863a-786debb11f95","system_id":"levelo_inurba_marseille","lat":43.29256,"lon":5.38437,"is_reserved":false,"is_disabled":false,"rental_uris":{"android":"levelo://app?vid=cc6944a3-010b-4be8-863a-786debb11f95","ios":"levelo://app?vid=cc6944a3-010b-4be8-863a-786debb11f95"},"vehicle_type_id":"4","last_reported":1768835757,"current_range_meters":7200,"station_id":"ce4bh692rcd13ifvqea0","pricing_plan_id":"cebpf4jnsgd1na2vs0mg"},{"bike_id":"20cce54d-4fe3-4962-8f56-5be743a1400b","system_id":"levelo_inurba_marseille","lat":43.24079,"lon":5.37757,"is_reserved":false,"is_disabled":false,"rental_uris":{"android":"levelo://app?vid=20cce54d-4fe3-4962-8f56-5be743a1400b","ios":"levelo://app?vid=20cce54d-4fe3-4962-8f56-5be743a1400b"},"vehicle_type_id":"4","last_reported":1768835757,"current_range_meters":7200,"station_id":"ce4bhnp2rcd13ifvqgvg","pricing_plan_id":"cebpf4jnsgd1na2vs0mg"},{"bike_id":"c02f3c43-1dcb-4841-afae-273aa31ff239","system_id":"levelo_inurba_marseille","lat":43.24041,"lon":5.37773,"is_reserved":false,"is_disabled":false,"rental_uris":{"android":"levelo://app?vid=c02f3c43-1dcb-4841-afae-273aa31ff239","ios":"levelo://app?vid=c02f3c43-1dcb-4841-afae-273aa31ff239"},"vehicle_type_id":"4","last_reported":1768835757,"current_range_meters":7200,"station_id":"ce4bhnp2rcd13ifvqgvg","pricing_plan_id":"cebpf4jnsgd1na2vs0mg"},{"bike_id":"e8a2ddc7-2a2d-4f6b-9d53-e3a3233c7517","system_id":"levelo_inurba_marseille","lat":43.26679,"lon":5.38277,"is_reserved":false,"is_disabled":false,"rental_uris":{"android":"levelo://app?vid=e8a2ddc7-2a2d-4f6b-9d53-e3a3233c7517","ios":"levelo://app?vid=e8a2ddc7-2a2d-4f6b-9d53-e3a3233c7517"},"vehicle_type_id":"4","last_reported":1768835757,"current_range_meters":7200,"station_id":"ce4bhg92rcd13ifvqf90","pricing_plan_id":"cebpf4jnsgd1na2vs0mg"},{"bike_id":"95b3dd57-3210-46c8-9f17-d3344248f023","system_id":"levelo_inurba_marseille","lat":43.28111,"lon":5.3782,"is_reserved":false,"is_disabled":false,"rental_uris":{"android":"levelo://app?vid=95b3dd57-3210-46c8-9f17-d3344248f023","ios":"levelo://app?vid=95b3dd57-3210-46c8-9f17-d3344248f023"},"vehicle_type_id":"4","last_reported":1768835757,"current_range_meters":7200,"station_id":"ce4bha12rcd13ifvqee0","pricing_plan_id":"cebpf4jnsgd1na2vs0mg"},{"bike_id":"88d3af62-307c-472a-850a-91fe2fd8ba0c","system_id":"levelo_inurba_marseille","lat":43.28531,"lon":5.44101,"is_reserved":false,"is_disabled":false,"rental_uris":{"android":"levelo://app?vid=88d3af62-307c-472a-850a-91fe2fd8ba0c","ios":"levelo://app?vid=88d3af62-307c-472a-850a-91fe2fd8ba0c"},"vehicle_type_id":"4","last_reported":1768835757,"current_range_meters":7200,"station_id":"st_d3j3df2ikq2c7380ej80","pricing_plan_id":"cebpf4jnsgd1na2vs0mg"},{"bike_id":"b9191914-44a7-40fa-86b6-e12b060320ad","system_id":"levelo_inurba_marseille","lat":43.295227,"lon":5.390226,"is_reserved":false,"is_disabled":false,"rental_uris":{"android":"levelo://app?vid=b9191914-44a7-40fa-86b6-e12b060320ad","ios":"levelo://app?vid=b9191914-44a7-40fa-86b6-e12b060320ad"},"vehicle_type_id":"4","last_reported":1768835757,"current_range_meters":7200,"station_id":"ce4bh0p2rcd13ifvqd70","pricing_plan_id":"cebpf4jnsgd1na2vs0mg"},{"bike_id":"1c9c535a-0e0c-4d30-b79f-90067fffd249","system_id":"levelo_inurba_marseille","lat":43.25341,"lon":5.42185,"is_reserved":false,"is_disabled":false,"rental_uris":{"android":"levelo://app?vid=1c9c535a-0e0c-4d30-b79f-90067fffd249","ios":"levelo://app?vid=1c9c535a-0e0c-4d30-b79f-90067fffd249"},"vehicle_type_id":"4","last_reported":1768835757,"current_range_meters":7200,"station_id":"st_d2m65c5bi1j21697t3ng","pricing_plan_id":"cebpf4jnsgd1na2vs0mg"},{"bike_id":"34a3c7f4-c8be-4749-b66c-ec9e01cc5793","system_id":"levelo_inurba_marseille","lat":43.2533,"lon":5.42167,"is_reserved":false,"is_disabled":false,"rental_uris":{"android":"levelo://app?vid=34a3c7f4-c8be-4749-b66c-ec9e01cc5793","ios":"levelo://app?vid=34a3c7f4-c8be-4749-b66c-ec9e01cc5793"},"vehicle_type_id":"4","last_reported":1768835757,"current_range_meters":8000,"station_id":"st_d2m65c5bi1j21697t3ng","pricing_plan_id":"cebpf4jnsgd1na2vs0mg"},{"bike_id":"f4e48943-7c61-4e64-a2bb-8ed9a5946f73","system_id":"levelo_inurba_marseille","lat":43.27995,"lon":5.40026,"is_reserved":false,"is_disabled":false,"rental_uris":{"android":"levelo://app?vid=f4e48943-7c61-4e64-a2bb-8ed9a5946f73","ios":"levelo://app?vid=f4e48943-7c61-4e64-a2bb-8ed9a5946f73"},"vehicle_type_id":"4","last_reported":1768835757,"current_range_meters":8000,"station_id":"ce4bho92rcd13ifvqh4g","pricing_plan_id":"cebpf4jnsgd1na2vs0mg"},{"bike_id":"aa3643ff-356f-46c2-b40b-dc28ae448ae1","system_id":"levelo_inurba_marseille","lat":43.311935,"lon":5.368597,"is_reserved":false,"is_disabled":false,"rental_uris":{"android":"levelo://app?vid=aa3643ff-356f-46c2-b40b-dc28ae448ae1","ios":"levelo://app?vid=aa3643ff-356f-46c2-b40b-dc28ae448ae1"},"vehicle_type_id":"4","last_reported":1768835757,"current_range_meters":8000,"station_id":"ce4bgl92rcd13ifvqbq0","pricing_plan_id":"cebpf4jnsgd1na2vs0mg"},{"bike_id":"780cff24-2f0b-4214-a9d2-0d7056d089ce","system_id":"levelo_inurba_marseille","lat":43.26367,"lon":5.41076,"is_reserved":false,"is_disabled":false,"rental_uris":{"android":"levelo://app?vid=780cff24-2f0b-4214-a9d2-0d7056d089ce","ios":"levelo://app?vid=780cff24-2f0b-4214-a9d2-0d7056d089ce"},"vehicle_type_id":"4","last_reported":1768835757,"current_range_meters":8000,"station_id":"st_d4e5ca6na9uc73bfl5fg","pricing_plan_id":"cebpf4jnsgd1na2vs0mg"},{"bike_id":"f3fe69b8-de29-44f7-9ad3-b92ace1be15e","system_id":"levelo_inurba_marseille","lat":43.309542,"lon":5.390258,"is_reserved":false,"is_disabled":false,"rental_uris":{"android":"levelo://app?vid=f3fe69b8-de29-44f7-9ad3-b92ace1be15e","ios":"levelo://app?vid=f3fe69b8-de29-44f7-9ad3-b92ace1be15e"},"vehicle_type_id":"4","last_reported":1768835757,"current_range_meters":8000,"station_id":"ce4bgup2rcd13ifvqco0","pricing_plan_id":"cebpf4jnsgd1na2vs0mg"},{"bike_id":"46d6d074-0010-4db5-a3ab-441825cc65bb","system_id":"levelo_inurba_marseille","lat":43.30173,"lon":5.37975,"is_reserved":false,"is_disabled":false,"rental_uris":{"android":"levelo://app?vid=46d6d074-0010-4db5-a3ab-441825cc65bb","ios":"levelo://app?vid=46d6d074-0010-4db5-a3ab-441825cc65bb"},"vehicle_type_id":"4","last_reported":1768835757,"current_range_meters":8000,"station_id":"","pricing_plan_id":"cebpf4jnsgd1na2vs0mg"},{"bike_id":"afef40a4-d60a-4b10-8526-4ff9f145813a","system_id":"levelo_inurba_marseille","lat":43.313539,"lon":5.367227,"is_reserved":false,"is_disabled":false,"rental_uris":{"android":"levelo://app?vid=afef40a4-d60a-4b10-8526-4ff9f145813a","ios":"levelo://app?vid=afef40a4-d60a-4b10-8526-4ff9f145813a"},"vehicle_type_id":"4","last_reported":1768835757,"current_range_meters":8000,"station_id":"ce4bgr92rcd13ifvqc6g","pricing_plan_id":"cebpf4jnsgd1na2vs0mg"},{"bike_id":"f336c3d1-92f0-437c-8a24-0fd4f7906c2d","system_id":"levelo_inurba_marseille","lat":43.265,"lon":5.39543,"is_reserved":false,"is_disabled":false,"rental_uris":{"android":"levelo://app?vid=f336c3d1-92f0-437c-8a24-0fd4f7906c2d","ios":"levelo://app?vid=f336c3d1-92f0-437c-8a24-0fd4f7906c2d"},"vehicle_type_id":"4","last_reported":1768835757,"current_range_meters":8000,"station_id":"","pricing_plan_id":"cebpf4jnsgd1na2vs0mg"},{"bike_id":"d6daaaa9-f946-4eab-92b9-574cc16557f1","system_id":"levelo_inurba_marseille","lat":43.27808,"lon":5.40709,"is_reserved":false,"is_disabled":false,"rental_uris":{"android":"levelo://app?vid=d6daaaa9-f946-4eab-92b9-574cc16557f1","ios":"levelo://app?vid=d6daaaa9-f946-4eab-92b9-574cc16557f1"},"vehicle_type_id":"4","last_reported":1768835757,"current_range_meters":8000,"station_id":"ce4bhnh2rcd13ifvqgtg","pricing_plan_id":"cebpf4jnsgd1na2vs0mg"},{"bike_id":"bb2c52a2-480e-4028-95f2-76eee39af4f9","system_id":"levelo_inurba_marseille","lat":43.24063,"lon":5.37765,"is_reserved":false,"is_disabled":false,"rental_uris":{"android":"levelo://app?vid=bb2c52a2-480e-4028-95f2-76eee39af4f9","ios":"levelo://app?vid=bb2c52a2-480e-4028-95f2-76eee39af4f9"},"vehicle_type_id":"4","last_reported":1768835757,"current_range_meters":8000,"station_id":"ce4bhnp2rcd13ifvqgvg","pricing_plan_id":"cebpf4jnsgd1na2vs0mg"},{"bike_id":"5151743b-c714-4a58-b647-a359c3085256","system_id":"levelo_inurba_marseille","lat":43.30571,"lon":5.36719,"is_reserved":false,"is_disabled":false,"rental_uris":{"android":"levelo://app?vid=5151743b-c714-4a58-b647-a359c3085256","ios":"levelo://app?vid=5151743b-c714-4a58-b647-a359c3085256"},"vehicle_type_id":"4","last_reported":1768835757,"current_range_meters":8000,"station_id":"ce4bgrp2rcd13ifvqc9g","pricing_plan_id":"cebpf4jnsgd1na2vs0mg"},{"bike_id":"52a54695-2fa8-4dbc-af4e-de36e0c11ef7","system_id":"levelo_inurba_marseille","lat":43.24951,"lon":5.40489,"is_reserved":false,"is_disabled":true,"rental_uris":{"android":"levelo://app?vid=52a54695-2fa8-4dbc-af4e-de36e0c11ef7","ios":"levelo://app?vid=52a54695-2fa8-4dbc-af4e-de36e0c11ef7"},"vehicle_type_id":"4","last_reported":1768835757,"current_range_meters":8000,"station_id":"st_d2ngiaodas8pm72gd1h0","pricing_plan_id":"cebpf4jnsgd1na2vs0mg"},{"bike_id":"fc7f2684-8a59-4c6e-99f6-7a7e3cf7beac","system_id":"levelo_inurba_marseille","lat":43.23142,"lon":5.43719,"is_reserved":false,"is_disabled":false,"rental_uris":{"android":"levelo://app?vid=fc7f2684-8a59-4c6e-99f6-7a7e3cf7beac","ios":"levelo://app?vid=fc7f2684-8a59-4c6e-99f6-7a7e3cf7beac"},"vehicle_type_id":"4","last_reported":1768835757,"current_range_meters":8000,"station_id":"ce4bhmp2rcd13ifvqgog","pricing_plan_id":"cebpf4jnsgd1na2vs0mg"},{"bike_id":"86bcbb50-e95c-4d08-bd20-5cbf82230b4c","system_id":"levelo_inurba_marseille","lat":43.292615,"lon":5.408644,"is_reserved":false,"is_disabled":false,"rental_uris":{"android":"levelo://app?vid=86bcbb50-e95c-4d08-bd20-5cbf82230b4c","ios":"levelo://app?vid=86bcbb50-e95c-4d08-bd20-5cbf82230b4c"},"vehicle_type_id":"4","last_reported":1768835757,"current_range_meters":8000,"station_id":"ce4bh192rcd13ifvqdc0","pricing_plan_id":"cebpf4jnsgd1na2vs0mg"},{"bike_id":"57be3e91-b810-4f66-9bd9-c6a2219dc40e","system_id":"levelo_inurba_marseille","lat":43.31144,"lon":5.37972,"is_reserved":false,"is_disabled":false,"rental_uris":{"android":"levelo://app?vid=57be3e91-b810-4f66-9bd9-c6a2219dc40e","ios":"levelo://app?vid=57be3e91-b810-4f66-9bd9-c6a2219dc40e"},"vehicle_type_id":"4","last_reported":1768835757,"current_range_meters":8000,"station_id":"","pricing_plan_id":"cebpf4jnsgd1na2vs0mg"},{"bike_id":"5dbff422-dd1f-46e7-9d1a-61bdd6bff1c6","system_id":"levelo_inurba_marseille","lat":43.26568,"lon":5.39007,"is_reserved":false,"is_disabled":false,"rental_uris":{"android":"levelo://app?vid=5dbff422-dd1f-46e7-9d1a-61bdd6bff1c6","ios":"levelo://app?vid=5dbff422-dd1f-46e7-9d1a-61bdd6bff1c6"},"vehicle_type_id":"4","last_reported":1768835757,"current_range_meters":8000,"station_id":"ce4bhe12rcd13ifvqf30","pricing_plan_id":"cebpf4jnsgd1na2vs0mg"},{"bike_id":"6323d876-7ccd-4c78-a867-219c210b49e9","system_id":"levelo_inurba_marseille","lat":43.301271,"lon":5.431144,"is_reserved":false,"is_disabled":false,"rental_uris":{"android":"levelo://app?vid=6323d876-7ccd-4c78-a867-219c210b49e9","ios":"levelo://app?vid=6323d876-7ccd-4c78-a867-219c210b49e9"},"vehicle_type_id":"4","last_reported":1768835757,"current_range_meters":8400,"station_id":"st_d3js3co5814s73ftftug","pricing_plan_id":"cebpf4jnsgd1na2vs0mg"},{"bike_id":"de5f3ca3-22fd-4c8c-afac-8827e3455c9d","system_id":"levelo_inurba_marseille","lat":43.290549,"lon":5.375566,"is_reserved":false,"is_disabled":false,"rental_uris":{"android":"levelo://app?vid=de5f3ca3-22fd-4c8c-afac-8827e3455c9d","ios":"levelo://app?vid=de5f3ca3-22fd-4c8c-afac-8827e3455c9d"},"vehicle_type_id":"4","last_reported":1768835757,"current_range_meters":8400,"station_id":"ce4bh692rcd13ifvqe90","pricing_plan_id":"cebpf4jnsgd1na2vs0mg"},{"bike_id":"48026642-6379-4746-85b8-aa6582d42114","system_id":"levelo_inurba_marseille","lat":43.25008,"lon":5.38934,"is_reserved":false,"is_disabled":false,"rental_uris":{"android":"levelo://app?vid=48026642-6379-4746-85b8-aa6582d42114","ios":"levelo://app?vid=48026642-6379-4746-85b8-aa6582d42114"},"vehicle_type_id":"4","last_reported":1768835757,"current_range_meters":8400,"station_id":"ce4bhgp2rcd13ifvqfd0","pricing_plan_id":"cebpf4jnsgd1na2vs0mg"},{"bike_id":"05cd7e5a-b4bd-4b6f-b3d6-497cfd8d5643","system_id":"levelo_inurba_marseille","lat":43.25818,"lon":5.39442,"is_reserved":false,"is_disabled":false,"rental_uris":{"android":"levelo://app?vid=05cd7e5a-b4bd-4b6f-b3d6-497cfd8d5643","ios":"levelo://app?vid=05cd7e5a-b4bd-4b6f-b3d6-497cfd8d5643"},"vehicle_type_id":"4","last_reported":1768835757,"current_range_meters":8400,"station_id":"ce4bhip2rcd13ifvqft0","pricing_plan_id":"cebpf4jnsgd1na2vs0mg"},{"bike_id":"87a0bd82-0485-42a9-8ea8-2c44da12ad98","system_id":"levelo_inurba_marseille","lat":43.301245,"lon":5.430993,"is_reserved":false,"is_disabled":false,"rental_uris":{"android":"levelo://app?vid=87a0bd82-0485-42a9-8ea8-2c44da12ad98","ios":"levelo://app?vid=87a0bd82-0485-42a9-8ea8-2c44da12ad98"},"vehicle_type_id":"4","last_reported":1768835757,"current_range_meters":8400,"station_id":"st_d3js3co5814s73ftftug","pricing_plan_id":"cebpf4jnsgd1na2vs0mg"},{"bike_id":"da0ad026-b199-4969-84a3-287aa818d529","system_id":"levelo_inurba_marseille","lat":43.28193,"lon":5.42594,"is_reserved":false,"is_disabled":false,"rental_uris":{"android":"levelo://app?vid=da0ad026-b199-4969-84a3-287aa818d529","ios":"levelo://app?vid=da0ad026-b199-4969-84a3-287aa818d529"},"vehicle_type_id":"4","last_reported":1768835757,"current_range_meters":8400,"station_id":"","pricing_plan_id":"cebpf4jnsgd1na2vs0mg"},{"bike_id":"a354e8f1-0376-4a9c-a066-f6ef75bdf134","system_id":"levelo_inurba_marseille","lat":43.26962,"lon":5.39412,"is_reserved":false,"is_disabled":false,"rental_uris":{"android":"levelo://app?vid=a354e8f1-0376-4a9c-a066-f6ef75bdf134","ios":"levelo://app?vid=a354e8f1-0376-4a9c-a066-f6ef75bdf134"},"vehicle_type_id":"4","last_reported":1768835757,"current_range_meters":8400,"station_id":"","pricing_plan_id":"cebpf4jnsgd1na2vs0mg"},{"bike_id":"4754b381-ed0a-4074-a1f1-a72a1d20517f","system_id":"levelo_inurba_marseille","lat":43.24471,"lon":5.42576,"is_reserved":false,"is_disabled":false,"rental_uris":{"android":"levelo://app?vid=4754b381-ed0a-4074-a1f1-a72a1d20517f","ios":"levelo://app?vid=4754b381-ed0a-4074-a1f1-a72a1d20517f"},"vehicle_type_id":"4","last_reported":1768835757,"current_range_meters":8400,"station_id":"st_d4a3vfp97mjs738cd8kg","pricing_plan_id":"cebpf4jnsgd1na2vs0mg"},{"bike_id":"4ffc280c-a929-4951-b0a7-b03e1a7178ef","system_id":"levelo_inurba_marseille","lat":43.292539,"lon":5.409037,"is_reserved":false,"is_disabled":false,"rental_uris":{"android":"levelo://app?vid=4ffc280c-a929-4951-b0a7-b03e1a7178ef","ios":"levelo://app?vid=4ffc280c-a929-4951-b0a7-b03e1a7178ef"},"vehicle_type_id":"4","last_reported":1768835757,"current_range_meters":8400,"station_id":"ce4bh192rcd13ifvqdc0","pricing_plan_id":"cebpf4jnsgd1na2vs0mg"},{"bike_id":"307d0b8c-c0ca-405e-9cdd-5e9ec8105ff2","system_id":"levelo_inurba_marseille","lat":43.279966,"lon":5.41671,"is_reserved":false,"is_disabled":false,"rental_uris":{"android":"levelo://app?vid=307d0b8c-c0ca-405e-9cdd-5e9ec8105ff2","ios":"levelo://app?vid=307d0b8c-c0ca-405e-9cdd-5e9ec8105ff2"},"vehicle_type_id":"4","last_reported":1768835757,"current_range_meters":8400,"station_id":"ce4bho12rcd13ifvqh1g","pricing_plan_id":"cebpf4jnsgd1na2vs0mg"},{"bike_id":"8b85e06b-a35c-4e7b-b0cd-fdd8d626d85a","system_id":"levelo_inurba_marseille","lat":43.31225,"lon":5.3691,"is_reserved":false,"is_disabled":false,"rental_uris":{"android":"levelo://app?vid=8b85e06b-a35c-4e7b-b0cd-fdd8d626d85a","ios":"levelo://app?vid=8b85e06b-a35c-4e7b-b0cd-fdd8d626d85a"},"vehicle_type_id":"4","last_reported":1768835757,"current_range_meters":8400,"station_id":"ce4bgl92rcd13ifvqbq0","pricing_plan_id":"cebpf4jnsgd1na2vs0mg"},{"bike_id":"90d23a06-db44-47d5-94c7-72d407e95b38","system_id":"levelo_inurba_marseille","lat":43.27896,"lon":5.37409,"is_reserved":false,"is_disabled":false,"rental_uris":{"android":"levelo://app?vid=90d23a06-db44-47d5-94c7-72d407e95b38","ios":"levelo://app?vid=90d23a06-db44-47d5-94c7-72d407e95b38"},"vehicle_type_id":"4","last_reported":1768835757,"current_range_meters":8400,"station_id":"","pricing_plan_id":"cebpf4jnsgd1na2vs0mg"},{"bike_id":"ed03032b-e1cb-4689-b9b2-ae4487b1e634","system_id":"levelo_inurba_marseille","lat":43.29519,"lon":5.39395,"is_reserved":false,"is_disabled":false,"rental_uris":{"android":"levelo://app?vid=ed03032b-e1cb-4689-b9b2-ae4487b1e634","ios":"levelo://app?vid=ed03032b-e1cb-4689-b9b2-ae4487b1e634"},"vehicle_type_id":"4","last_reported":1768835757,"current_range_meters":8400,"station_id":"ce4bh292rcd13ifvqdf0","pricing_plan_id":"cebpf4jnsgd1na2vs0mg"},{"bike_id":"40fa3246-9652-432d-aff7-2fb56fccf5da","system_id":"levelo_inurba_marseille","lat":43.32496,"lon":5.38297,"is_reserved":false,"is_disabled":false,"rental_uris":{"android":"levelo://app?vid=40fa3246-9652-432d-aff7-2fb56fccf5da","ios":"levelo://app?vid=40fa3246-9652-432d-aff7-2fb56fccf5da"},"vehicle_type_id":"4","last_reported":1768835757,"current_range_meters":8400,"station_id":"st_d4asgbiv49dc73anf9m0","pricing_plan_id":"cebpf4jnsgd1na2vs0mg"},{"bike_id":"bc833bfe-2d44-4283-913d-d5dcac23c937","system_id":"levelo_inurba_marseille","lat":43.2894,"lon":5.36392,"is_reserved":false,"is_disabled":false,"rental_uris":{"android":"levelo://app?vid=bc833bfe-2d44-4283-913d-d5dcac23c937","ios":"levelo://app?vid=bc833bfe-2d44-4283-913d-d5dcac23c937"},"vehicle_type_id":"4","last_reported":1768835757,"current_range_meters":8800,"station_id":"ce4bhc92rcd13ifvqetg","pricing_plan_id":"cebpf4jnsgd1na2vs0mg"},{"bike_id":"8ee5ace6-b688-4278-b782-21f802133a0f","system_id":"levelo_inurba_marseille","lat":43.2461,"lon":5.43146,"is_reserved":false,"is_disabled":false,"rental_uris":{"android":"levelo://app?vid=8ee5ace6-b688-4278-b782-21f802133a0f","ios":"levelo://app?vid=8ee5ace6-b688-4278-b782-21f802133a0f"},"vehicle_type_id":"4","last_reported":1768835757,"current_range_meters":8800,"station_id":"st_d2m6c4gdas8pm72e190g","pricing_plan_id":"cebpf4jnsgd1na2vs0mg"},{"bike_id":"7dd13941-101d-45cd-b1ba-9319f32c063f","system_id":"levelo_inurba_marseille","lat":43.323496,"lon":5.367318,"is_reserved":false,"is_disabled":false,"rental_uris":{"android":"levelo://app?vid=7dd13941-101d-45cd-b1ba-9319f32c063f","ios":"levelo://app?vid=7dd13941-101d-45cd-b1ba-9319f32c063f"},"vehicle_type_id":"4","last_reported":1768835757,"current_range_meters":8800,"station_id":"ce4bhsh2rcd13ifvqi2g","pricing_plan_id":"cebpf4jnsgd1na2vs0mg"},{"bike_id":"a6eb309a-af83-4cbb-8a37-5d6d4de190ee","system_id":"levelo_inurba_marseille","lat":43.26495,"lon":5.39539,"is_reserved":false,"is_disabled":false,"rental_uris":{"android":"levelo://app?vid=a6eb309a-af83-4cbb-8a37-5d6d4de190ee","ios":"levelo://app?vid=a6eb309a-af83-4cbb-8a37-5d6d4de190ee"},"vehicle_type_id":"4","last_reported":1768835757,"current_range_meters":8800,"station_id":"ce4bhi12rcd13ifvqfq0","pricing_plan_id":"cebpf4jnsgd1na2vs0mg"},{"bike_id":"4650f407-bc82-4c79-8bf1-e1e423078e7c","system_id":"levelo_inurba_marseille","lat":43.27989,"lon":5.40005,"is_reserved":false,"is_disabled":false,"rental_uris":{"android":"levelo://app?vid=4650f407-bc82-4c79-8bf1-e1e423078e7c","ios":"levelo://app?vid=4650f407-bc82-4c79-8bf1-e1e423078e7c"},"vehicle_type_id":"4","last_reported":1768835757,"current_range_meters":8800,"station_id":"ce4bho92rcd13ifvqh4g","pricing_plan_id":"cebpf4jnsgd1na2vs0mg"},{"bike_id":"d439a0cf-43b2-46df-96b0-2127ed6b63a0","system_id":"levelo_inurba_marseille","lat":43.24468,"lon":5.42545,"is_reserved":false,"is_disabled":false,"rental_uris":{"android":"levelo://app?vid=d439a0cf-43b2-46df-96b0-2127ed6b63a0","ios":"levelo://app?vid=d439a0cf-43b2-46df-96b0-2127ed6b63a0"},"vehicle_type_id":"4","last_reported":1768835757,"current_range_meters":8800,"station_id":"st_d4a3vfp97mjs738cd8kg","pricing_plan_id":"cebpf4jnsgd1na2vs0mg"},{"bike_id":"e0da380d-27a6-4652-868d-566953c568ad","system_id":"levelo_inurba_marseille","lat":43.2848,"lon":5.38557,"is_reserved":false,"is_disabled":false,"rental_uris":{"android":"levelo://app?vid=e0da380d-27a6-4652-868d-566953c568ad","ios":"levelo://app?vid=e0da380d-27a6-4652-868d-566953c568ad"},"vehicle_type_id":"4","last_reported":1768835757,"current_range_meters":8800,"station_id":"ce4bh8p2rcd13ifvqeb0","pricing_plan_id":"cebpf4jnsgd1na2vs0mg"},{"bike_id":"86265432-a1f8-4465-89b4-518a4facc392","system_id":"levelo_inurba_marseille","lat":43.24172,"lon":5.39727,"is_reserved":false,"is_disabled":false,"rental_uris":{"android":"levelo://app?vid=86265432-a1f8-4465-89b4-518a4facc392","ios":"levelo://app?vid=86265432-a1f8-4465-89b4-518a4facc392"},"vehicle_type_id":"4","last_reported":1768835757,"current_range_meters":8800,"station_id":"ce4bhn12rcd13ifvqgpg","pricing_plan_id":"cebpf4jnsgd1na2vs0mg"},{"bike_id":"ff8745c4-faf1-4826-a408-20955957778b","system_id":"levelo_inurba_marseille","lat":43.29755,"lon":5.42776,"is_reserved":false,"is_disabled":false,"rental_uris":{"android":"levelo://app?vid=ff8745c4-faf1-4826-a408-20955957778b","ios":"levelo://app?vid=ff8745c4-faf1-4826-a408-20955957778b"},"vehicle_type_id":"4","last_reported":1768835757,"current_range_meters":8800,"station_id":"st_d3md5207bmas73dh9klg","pricing_plan_id":"cebpf4jnsgd1na2vs0mg"},{"bike_id":"7d5056bc-d995-40a2-b862-14a61c203225","system_id":"levelo_inurba_marseille","lat":43.27811,"lon":5.40697,"is_reserved":false,"is_disabled":false,"rental_uris":{"android":"levelo://app?vid=7d5056bc-d995-40a2-b862-14a61c203225","ios":"levelo://app?vid=7d5056bc-d995-40a2-b862-14a61c203225"},"vehicle_type_id":"4","last_reported":1768835757,"current_range_meters":8800,"station_id":"ce4bhnh2rcd13ifvqgtg","pricing_plan_id":"cebpf4jnsgd1na2vs0mg"},{"bike_id":"3756036c-033e-4c36-a714-1af542a63298","system_id":"levelo_inurba_marseille","lat":43.26559,"lon":5.37286,"is_reserved":false,"is_disabled":false,"rental_uris":{"android":"levelo://app?vid=3756036c-033e-4c36-a714-1af542a63298","ios":"levelo://app?vid=3756036c-033e-4c36-a714-1af542a63298"},"vehicle_type_id":"4","last_reported":1768835757,"current_range_meters":8800,"station_id":"ce4bhg12rcd13ifvqf70","pricing_plan_id":"cebpf4jnsgd1na2vs0mg"},{"bike_id":"23cd1750-1739-4dbf-9ddb-11ce92ae1347","system_id":"levelo_inurba_marseille","lat":43.25933,"lon":5.40899,"is_reserved":false,"is_disabled":false,"rental_uris":{"android":"levelo://app?vid=23cd1750-1739-4dbf-9ddb-11ce92ae1347","ios":"levelo://app?vid=23cd1750-1739-4dbf-9ddb-11ce92ae1347"},"vehicle_type_id":"4","last_reported":1768835757,"current_range_meters":8800,"station_id":"ce4bhm92rcd13ifvqglg","pricing_plan_id":"cebpf4jnsgd1na2vs0mg"},{"bike_id":"4632152f-a8df-490e-ac09-407a881c6ecf","system_id":"levelo_inurba_marseille","lat":43.3014,"lon":5.37443,"is_reserved":false,"is_disabled":false,"rental_uris":{"android":"levelo://app?vid=4632152f-a8df-490e-ac09-407a881c6ecf","ios":"levelo://app?vid=4632152f-a8df-490e-ac09-407a881c6ecf"},"vehicle_type_id":"4","last_reported":1768835757,"current_range_meters":8800,"station_id":"ce4bgs92rcd13ifvqcc0","pricing_plan_id":"cebpf4jnsgd1na2vs0mg"},{"bike_id":"fe691611-82ba-4f61-981f-88c3cc8482ae","system_id":"levelo_inurba_marseille","lat":43.27948,"lon":5.41051,"is_reserved":false,"is_disabled":false,"rental_uris":{"android":"levelo://app?vid=fe691611-82ba-4f61-981f-88c3cc8482ae","ios":"levelo://app?vid=fe691611-82ba-4f61-981f-88c3cc8482ae"},"vehicle_type_id":"4","last_reported":1768835757,"current_range_meters":8800,"station_id":"ce4bhnp2rcd13ifvqh0g","pricing_plan_id":"cebpf4jnsgd1na2vs0mg"},{"bike_id":"160068fb-85f0-4670-999b-6e5179c968a8","system_id":"levelo_inurba_marseille","lat":43.31206,"lon":5.36866,"is_reserved":false,"is_disabled":false,"rental_uris":{"android":"levelo://app?vid=160068fb-85f0-4670-999b-6e5179c968a8","ios":"levelo://app?vid=160068fb-85f0-4670-999b-6e5179c968a8"},"vehicle_type_id":"4","last_reported":1768835757,"current_range_meters":8800,"station_id":"ce4bgl92rcd13ifvqbq0","pricing_plan_id":"cebpf4jnsgd1na2vs0mg"},{"bike_id":"d8172597-a2a9-416d-aa9c-f9d345a032da","system_id":"levelo_inurba_marseille","lat":43.250067,"lon":5.389292,"is_reserved":false,"is_disabled":false,"rental_uris":{"android":"levelo://app?vid=d8172597-a2a9-416d-aa9c-f9d345a032da","ios":"levelo://app?vid=d8172597-a2a9-416d-aa9c-f9d345a032da"},"vehicle_type_id":"4","last_reported":1768835757,"current_range_meters":8800,"station_id":"ce4bhgp2rcd13ifvqfd0","pricing_plan_id":"cebpf4jnsgd1na2vs0mg"},{"bike_id":"eb40b9ae-40f2-450b-a3d3-a215b2c06bfd","system_id":"levelo_inurba_marseille","lat":43.31538,"lon":5.38022,"is_reserved":false,"is_disabled":false,"rental_uris":{"android":"levelo://app?vid=eb40b9ae-40f2-450b-a3d3-a215b2c06bfd","ios":"levelo://app?vid=eb40b9ae-40f2-450b-a3d3-a215b2c06bfd"},"vehicle_type_id":"4","last_reported":1768835757,"current_range_meters":8800,"station_id":"ce4bhsp2rcd13ifvqi50","pricing_plan_id":"cebpf4jnsgd1na2vs0mg"},{"bike_id":"c8df4b98-1cdd-4d91-a5ac-a7f9348f51a6","system_id":"levelo_inurba_marseille","lat":43.26016,"lon":5.41726,"is_reserved":false,"is_disabled":false,"rental_uris":{"android":"levelo://app?vid=c8df4b98-1cdd-4d91-a5ac-a7f9348f51a6","ios":"levelo://app?vid=c8df4b98-1cdd-4d91-a5ac-a7f9348f51a6"},"vehicle_type_id":"4","last_reported":1768835757,"current_range_meters":8800,"station_id":"","pricing_plan_id":"cebpf4jnsgd1na2vs0mg"},{"bike_id":"45f6d4ac-5181-4355-ba56-f8b29b34911e","system_id":"levelo_inurba_marseille","lat":43.23789,"lon":5.36627,"is_reserved":false,"is_disabled":false,"rental_uris":{"android":"levelo://app?vid=45f6d4ac-5181-4355-ba56-f8b29b34911e","ios":"levelo://app?vid=45f6d4ac-5181-4355-ba56-f8b29b34911e"},"vehicle_type_id":"4","last_reported":1768835757,"current_range_meters":8800,"station_id":"st_d3nk18o9ro0c73en2l3g","pricing_plan_id":"cebpf4jnsgd1na2vs0mg"},{"bike_id":"3b7d1059-f493-4af7-a3db-225bb265c0d6","system_id":"levelo_inurba_marseille","lat":43.25822,"lon":5.39435,"is_reserved":false,"is_disabled":false,"rental_uris":{"android":"levelo://app?vid=3b7d1059-f493-4af7-a3db-225bb265c0d6","ios":"levelo://app?vid=3b7d1059-f493-4af7-a3db-225bb265c0d6"},"vehicle_type_id":"4","last_reported":1768835757,"current_range_meters":8800,"station_id":"ce4bhip2rcd13ifvqft0","pricing_plan_id":"cebpf4jnsgd1na2vs0mg"},{"bike_id":"2723bfbb-fe38-4d7f-b03c-9c11f9b02499","system_id":"levelo_inurba_marseille","lat":43.28876,"lon":5.42498,"is_reserved":false,"is_disabled":false,"rental_uris":{"android":"levelo://app?vid=2723bfbb-fe38-4d7f-b03c-9c11f9b02499","ios":"levelo://app?vid=2723bfbb-fe38-4d7f-b03c-9c11f9b02499"},"vehicle_type_id":"4","last_reported":1768835757,"current_range_meters":8800,"station_id":"st_d3b462108ojc7389ooeg","pricing_plan_id":"cebpf4jnsgd1na2vs0mg"},{"bike_id":"30749c36-8a05-47cd-83c6-5f87f078f04e","system_id":"levelo_inurba_marseille","lat":43.299194,"lon":5.374802,"is_reserved":false,"is_disabled":false,"rental_uris":{"android":"levelo://app?vid=30749c36-8a05-47cd-83c6-5f87f078f04e","ios":"levelo://app?vid=30749c36-8a05-47cd-83c6-5f87f078f04e"},"vehicle_type_id":"4","last_reported":1768835757,"current_range_meters":8800,"station_id":"ce4bgjh2rcd13ifvqbg0","pricing_plan_id":"cebpf4jnsgd1na2vs0mg"},{"bike_id":"bcddf850-3b2f-4444-aa5f-b022b7614ec1","system_id":"levelo_inurba_marseille","lat":43.29753,"lon":5.42776,"is_reserved":false,"is_disabled":false,"rental_uris":{"android":"levelo://app?vid=bcddf850-3b2f-4444-aa5f-b022b7614ec1","ios":"levelo://app?vid=bcddf850-3b2f-4444-aa5f-b022b7614ec1"},"vehicle_type_id":"4","last_reported":1768835757,"current_range_meters":8800,"station_id":"st_d3md5207bmas73dh9klg","pricing_plan_id":"cebpf4jnsgd1na2vs0mg"},{"bike_id":"686e257f-cf41-4bc2-8b37-70cac8f5511a","system_id":"levelo_inurba_marseille","lat":43.25116,"lon":5.40321,"is_reserved":false,"is_disabled":false,"rental_uris":{"android":"levelo://app?vid=686e257f-cf41-4bc2-8b37-70cac8f5511a","ios":"levelo://app?vid=686e257f-cf41-4bc2-8b37-70cac8f5511a"},"vehicle_type_id":"4","last_reported":1768835757,"current_range_meters":8800,"station_id":"ce4bhlh2rcd13ifvqgig","pricing_plan_id":"cebpf4jnsgd1na2vs0mg"},{"bike_id":"6656b804-573d-4bd7-beec-255d1319f693","system_id":"levelo_inurba_marseille","lat":43.27993,"lon":5.40027,"is_reserved":false,"is_disabled":false,"rental_uris":{"android":"levelo://app?vid=6656b804-573d-4bd7-beec-255d1319f693","ios":"levelo://app?vid=6656b804-573d-4bd7-beec-255d1319f693"},"vehicle_type_id":"4","last_reported":1768835757,"current_range_meters":9200,"station_id":"ce4bho92rcd13ifvqh4g","pricing_plan_id":"cebpf4jnsgd1na2vs0mg"},{"bike_id":"593b643a-c803-4d19-a281-cacea4f9d88e","system_id":"levelo_inurba_marseille","lat":43.27941,"lon":5.41049,"is_reserved":false,"is_disabled":false,"rental_uris":{"android":"levelo://app?vid=593b643a-c803-4d19-a281-cacea4f9d88e","ios":"levelo://app?vid=593b643a-c803-4d19-a281-cacea4f9d88e"},"vehicle_type_id":"4","last_reported":1768835757,"current_range_meters":9200,"station_id":"ce4bhnp2rcd13ifvqh0g","pricing_plan_id":"cebpf4jnsgd1na2vs0mg"},{"bike_id":"3ba0d64d-9f7f-4707-9a7e-d2bb874e31bf","system_id":"levelo_inurba_marseille","lat":43.24462,"lon":5.42536,"is_reserved":false,"is_disabled":false,"rental_uris":{"android":"levelo://app?vid=3ba0d64d-9f7f-4707-9a7e-d2bb874e31bf","ios":"levelo://app?vid=3ba0d64d-9f7f-4707-9a7e-d2bb874e31bf"},"vehicle_type_id":"4","last_reported":1768835757,"current_range_meters":9200,"station_id":"st_d4a3vfp97mjs738cd8kg","pricing_plan_id":"cebpf4jnsgd1na2vs0mg"},{"bike_id":"4b79d662-5673-41b8-a78f-1efb26f17be5","system_id":"levelo_inurba_marseille","lat":43.27325,"lon":5.39091,"is_reserved":false,"is_disabled":false,"rental_uris":{"android":"levelo://app?vid=4b79d662-5673-41b8-a78f-1efb26f17be5","ios":"levelo://app?vid=4b79d662-5673-41b8-a78f-1efb26f17be5"},"vehicle_type_id":"4","last_reported":1768835757,"current_range_meters":9200,"station_id":"ce4bhgp2rcd13ifvqfe0","pricing_plan_id":"cebpf4jnsgd1na2vs0mg"},{"bike_id":"b115d95f-740a-4cca-98ff-e2f399e732c0","system_id":"levelo_inurba_marseille","lat":43.30281,"lon":5.37706,"is_reserved":false,"is_disabled":false,"rental_uris":{"android":"levelo://app?vid=b115d95f-740a-4cca-98ff-e2f399e732c0","ios":"levelo://app?vid=b115d95f-740a-4cca-98ff-e2f399e732c0"},"vehicle_type_id":"4","last_reported":1768835757,"current_range_meters":9200,"station_id":"ce4bguh2rcd13ifvqcj0","pricing_plan_id":"cebpf4jnsgd1na2vs0mg"},{"bike_id":"26e3a85f-ffb5-4828-97af-3a2ce907364e","system_id":"levelo_inurba_marseille","lat":43.26563,"lon":5.4032,"is_reserved":false,"is_disabled":false,"rental_uris":{"android":"levelo://app?vid=26e3a85f-ffb5-4828-97af-3a2ce907364e","ios":"levelo://app?vid=26e3a85f-ffb5-4828-97af-3a2ce907364e"},"vehicle_type_id":"4","last_reported":1768835757,"current_range_meters":9200,"station_id":"ce4bhmp2rcd13ifvqgng","pricing_plan_id":"cebpf4jnsgd1na2vs0mg"},{"bike_id":"031ceb54-6f26-4623-bb87-6fe6a644af73","system_id":"levelo_inurba_marseille","lat":43.24157,"lon":5.36401,"is_reserved":false,"is_disabled":false,"rental_uris":{"android":"levelo://app?vid=031ceb54-6f26-4623-bb87-6fe6a644af73","ios":"levelo://app?vid=031ceb54-6f26-4623-bb87-6fe6a644af73"},"vehicle_type_id":"4","last_reported":1768835757,"current_range_meters":9200,"station_id":"cpo36qri1sfpv3e86is0","pricing_plan_id":"cebpf4jnsgd1na2vs0mg"},{"bike_id":"d938f418-a6a7-4fd7-bdf0-363eac71fa5b","system_id":"levelo_inurba_marseille","lat":43.24171,"lon":5.39729,"is_reserved":false,"is_disabled":false,"rental_uris":{"android":"levelo://app?vid=d938f418-a6a7-4fd7-bdf0-363eac71fa5b","ios":"levelo://app?vid=d938f418-a6a7-4fd7-bdf0-363eac71fa5b"},"vehicle_type_id":"4","last_reported":1768835757,"current_range_meters":9200,"station_id":"ce4bhn12rcd13ifvqgpg","pricing_plan_id":"cebpf4jnsgd1na2vs0mg"},{"bike_id":"f095f78b-2094-4a3c-9259-01547fddda59","system_id":"levelo_inurba_marseille","lat":43.27562,"lon":5.38415,"is_reserved":false,"is_disabled":false,"rental_uris":{"android":"levelo://app?vid=f095f78b-2094-4a3c-9259-01547fddda59","ios":"levelo://app?vid=f095f78b-2094-4a3c-9259-01547fddda59"},"vehicle_type_id":"4","last_reported":1768835757,"current_range_meters":9200,"station_id":"ce4bhh92rcd13ifvqfi0","pricing_plan_id":"cebpf4jnsgd1na2vs0mg"},{"bike_id":"60252f81-4612-4f0f-b1f8-33dbf352ebfb","system_id":"levelo_inurba_marseille","lat":43.29728,"lon":5.37321,"is_reserved":false,"is_disabled":false,"rental_uris":{"android":"levelo://app?vid=60252f81-4612-4f0f-b1f8-33dbf352ebfb","ios":"levelo://app?vid=60252f81-4612-4f0f-b1f8-33dbf352ebfb"},"vehicle_type_id":"4","last_reported":1768835757,"current_range_meters":9200,"station_id":"","pricing_plan_id":"cebpf4jnsgd1na2vs0mg"},{"bike_id":"853e0b3d-34dc-48b7-ad2a-0c85f20ca650","system_id":"levelo_inurba_marseille","lat":43.26566,"lon":5.38997,"is_reserved":false,"is_disabled":false,"rental_uris":{"android":"levelo://app?vid=853e0b3d-34dc-48b7-ad2a-0c85f20ca650","ios":"levelo://app?vid=853e0b3d-34dc-48b7-ad2a-0c85f20ca650"},"vehicle_type_id":"4","last_reported":1768835757,"current_range_meters":9200,"station_id":"ce4bhe12rcd13ifvqf30","pricing_plan_id":"cebpf4jnsgd1na2vs0mg"},{"bike_id":"bac234ec-c9b1-4f34-b12f-13fb38be106f","system_id":"levelo_inurba_marseille","lat":43.27563,"lon":5.38409,"is_reserved":false,"is_disabled":false,"rental_uris":{"android":"levelo://app?vid=bac234ec-c9b1-4f34-b12f-13fb38be106f","ios":"levelo://app?vid=bac234ec-c9b1-4f34-b12f-13fb38be106f"},"vehicle_type_id":"4","last_reported":1768835757,"current_range_meters":9200,"station_id":"ce4bhh92rcd13ifvqfi0","pricing_plan_id":"cebpf4jnsgd1na2vs0mg"},{"bike_id":"5fc52565-6f50-4d9d-9a50-78581b9e2c33","system_id":"levelo_inurba_marseille","lat":43.22553,"lon":5.41622,"is_reserved":false,"is_disabled":false,"rental_uris":{"android":"levelo://app?vid=5fc52565-6f50-4d9d-9a50-78581b9e2c33","ios":"levelo://app?vid=5fc52565-6f50-4d9d-9a50-78581b9e2c33"},"vehicle_type_id":"4","last_reported":1768835757,"current_range_meters":9200,"station_id":"st_d2o4gvlbi1j2169b742g","pricing_plan_id":"cebpf4jnsgd1na2vs0mg"},{"bike_id":"1d2efba0-fa53-4ce2-9e4d-81c1694f8245","system_id":"levelo_inurba_marseille","lat":43.30541,"lon":5.36539,"is_reserved":false,"is_disabled":true,"rental_uris":{"android":"levelo://app?vid=1d2efba0-fa53-4ce2-9e4d-81c1694f8245","ios":"levelo://app?vid=1d2efba0-fa53-4ce2-9e4d-81c1694f8245"},"vehicle_type_id":"4","last_reported":1768835757,"current_range_meters":9200,"station_id":"ce4bgs12rcd13ifvqcag","pricing_plan_id":"cebpf4jnsgd1na2vs0mg"},{"bike_id":"f62b459f-1a86-4618-bcb4-2c01f05d64f1","system_id":"levelo_inurba_marseille","lat":43.28152,"lon":5.43161,"is_reserved":false,"is_disabled":false,"rental_uris":{"android":"levelo://app?vid=f62b459f-1a86-4618-bcb4-2c01f05d64f1","ios":"levelo://app?vid=f62b459f-1a86-4618-bcb4-2c01f05d64f1"},"vehicle_type_id":"4","last_reported":1768835757,"current_range_meters":9200,"station_id":"","pricing_plan_id":"cebpf4jnsgd1na2vs0mg"},{"bike_id":"126a626f-8d1e-4d18-8eb5-465c9cdabc79","system_id":"levelo_inurba_marseille","lat":43.258356,"lon":5.394526,"is_reserved":false,"is_disabled":false,"rental_uris":{"android":"levelo://app?vid=126a626f-8d1e-4d18-8eb5-465c9cdabc79","ios":"levelo://app?vid=126a626f-8d1e-4d18-8eb5-465c9cdabc79"},"vehicle_type_id":"4","last_reported":1768835757,"current_range_meters":9200,"station_id":"ce4bhip2rcd13ifvqft0","pricing_plan_id":"cebpf4jnsgd1na2vs0mg"},{"bike_id":"d60d1a27-683d-4fc6-b03d-099740ed2de5","system_id":"levelo_inurba_marseille","lat":43.23154,"lon":5.4372,"is_reserved":false,"is_disabled":false,"rental_uris":{"android":"levelo://app?vid=d60d1a27-683d-4fc6-b03d-099740ed2de5","ios":"levelo://app?vid=d60d1a27-683d-4fc6-b03d-099740ed2de5"},"vehicle_type_id":"4","last_reported":1768835757,"current_range_meters":9200,"station_id":"ce4bhmp2rcd13ifvqgog","pricing_plan_id":"cebpf4jnsgd1na2vs0mg"},{"bike_id":"b7c580e6-6952-48df-a12d-631c94c85558","system_id":"levelo_inurba_marseille","lat":43.288988,"lon":5.42966,"is_reserved":false,"is_disabled":false,"rental_uris":{"android":"levelo://app?vid=b7c580e6-6952-48df-a12d-631c94c85558","ios":"levelo://app?vid=b7c580e6-6952-48df-a12d-631c94c85558"},"vehicle_type_id":"4","last_reported":1768835757,"current_range_meters":9200,"station_id":"","pricing_plan_id":"cebpf4jnsgd1na2vs0mg"},{"bike_id":"21c0ca4c-565c-4c34-bbad-ad0ab94973a4","system_id":"levelo_inurba_marseille","lat":43.31334,"lon":5.39686,"is_reserved":false,"is_disabled":false,"rental_uris":{"android":"levelo://app?vid=21c0ca4c-565c-4c34-bbad-ad0ab94973a4","ios":"levelo://app?vid=21c0ca4c-565c-4c34-bbad-ad0ab94973a4"},"vehicle_type_id":"4","last_reported":1768835757,"current_range_meters":9200,"station_id":"ce4bgvp2rcd13ifvqcu0","pricing_plan_id":"cebpf4jnsgd1na2vs0mg"},{"bike_id":"e83b2dec-c502-4ce5-8695-2b74293a1817","system_id":"levelo_inurba_marseille","lat":43.26571,"lon":5.39024,"is_reserved":false,"is_disabled":false,"rental_uris":{"android":"levelo://app?vid=e83b2dec-c502-4ce5-8695-2b74293a1817","ios":"levelo://app?vid=e83b2dec-c502-4ce5-8695-2b74293a1817"},"vehicle_type_id":"4","last_reported":1768835757,"current_range_meters":9600,"station_id":"ce4bhe12rcd13ifvqf30","pricing_plan_id":"cebpf4jnsgd1na2vs0mg"},{"bike_id":"460c38b8-de49-4a2a-a083-dbdc1bb1e2ea","system_id":"levelo_inurba_marseille","lat":43.2799,"lon":5.41652,"is_reserved":false,"is_disabled":false,"rental_uris":{"android":"levelo://app?vid=460c38b8-de49-4a2a-a083-dbdc1bb1e2ea","ios":"levelo://app?vid=460c38b8-de49-4a2a-a083-dbdc1bb1e2ea"},"vehicle_type_id":"4","last_reported":1768835757,"current_range_meters":9600,"station_id":"ce4bho12rcd13ifvqh1g","pricing_plan_id":"cebpf4jnsgd1na2vs0mg"},{"bike_id":"bc6ef339-77f0-43c0-9a51-d222e054e209","system_id":"levelo_inurba_marseille","lat":43.26063,"lon":5.39386,"is_reserved":false,"is_disabled":false,"rental_uris":{"android":"levelo://app?vid=bc6ef339-77f0-43c0-9a51-d222e054e209","ios":"levelo://app?vid=bc6ef339-77f0-43c0-9a51-d222e054e209"},"vehicle_type_id":"4","last_reported":1768835757,"current_range_meters":9600,"station_id":"ce4bhh92rcd13ifvqfj0","pricing_plan_id":"cebpf4jnsgd1na2vs0mg"},{"bike_id":"6f8b575c-ec29-419c-982d-883da8eaf4ae","system_id":"levelo_inurba_marseille","lat":43.33163,"lon":5.37677,"is_reserved":false,"is_disabled":false,"rental_uris":{"android":"levelo://app?vid=6f8b575c-ec29-419c-982d-883da8eaf4ae","ios":"levelo://app?vid=6f8b575c-ec29-419c-982d-883da8eaf4ae"},"vehicle_type_id":"4","last_reported":1768835757,"current_range_meters":9600,"station_id":"st_d46cu089ee8s73dldbu0","pricing_plan_id":"cebpf4jnsgd1na2vs0mg"},{"bike_id":"597fd967-89d0-4f00-a092-ffecad62bc9a","system_id":"levelo_inurba_marseille","lat":43.29108,"lon":5.38908,"is_reserved":false,"is_disabled":false,"rental_uris":{"android":"levelo://app?vid=597fd967-89d0-4f00-a092-ffecad62bc9a","ios":"levelo://app?vid=597fd967-89d0-4f00-a092-ffecad62bc9a"},"vehicle_type_id":"4","last_reported":1768835757,"current_range_meters":9600,"station_id":"","pricing_plan_id":"cebpf4jnsgd1na2vs0mg"},{"bike_id":"bcd356d2-e481-40ce-9575-c122d8805aa1","system_id":"levelo_inurba_marseille","lat":43.26057,"lon":5.39392,"is_reserved":false,"is_disabled":false,"rental_uris":{"android":"levelo://app?vid=bcd356d2-e481-40ce-9575-c122d8805aa1","ios":"levelo://app?vid=bcd356d2-e481-40ce-9575-c122d8805aa1"},"vehicle_type_id":"4","last_reported":1768835757,"current_range_meters":9600,"station_id":"ce4bhh92rcd13ifvqfj0","pricing_plan_id":"cebpf4jnsgd1na2vs0mg"},{"bike_id":"bc8ae365-5f94-4121-b4e5-05c05b849c07","system_id":"levelo_inurba_marseille","lat":43.28617,"lon":5.39895,"is_reserved":false,"is_disabled":true,"rental_uris":{"android":"levelo://app?vid=bc8ae365-5f94-4121-b4e5-05c05b849c07","ios":"levelo://app?vid=bc8ae365-5f94-4121-b4e5-05c05b849c07"},"vehicle_type_id":"4","last_reported":1768835757,"current_range_meters":9600,"station_id":"ce4bho92rcd13ifvqh3g","pricing_plan_id":"cebpf4jnsgd1na2vs0mg"},{"bike_id":"06e87140-a360-4fca-8dc9-084a14760456","system_id":"levelo_inurba_marseille","lat":43.30266,"lon":5.43429,"is_reserved":false,"is_disabled":false,"rental_uris":{"android":"levelo://app?vid=06e87140-a360-4fca-8dc9-084a14760456","ios":"levelo://app?vid=06e87140-a360-4fca-8dc9-084a14760456"},"vehicle_type_id":"4","last_reported":1768835757,"current_range_meters":9600,"station_id":"","pricing_plan_id":"cebpf4jnsgd1na2vs0mg"},{"bike_id":"af222631-1971-4425-87fb-ab92a26577fa","system_id":"levelo_inurba_marseille","lat":43.26217,"lon":5.40441,"is_reserved":false,"is_disabled":true,"rental_uris":{"android":"levelo://app?vid=af222631-1971-4425-87fb-ab92a26577fa","ios":"levelo://app?vid=af222631-1971-4425-87fb-ab92a26577fa"},"vehicle_type_id":"4","last_reported":1768835757,"current_range_meters":9600,"station_id":"ce4bhmh2rcd13ifvqgmg","pricing_plan_id":"cebpf4jnsgd1na2vs0mg"},{"bike_id":"7425d75a-c7de-46b5-bd84-85c19ab69f2d","system_id":"levelo_inurba_marseille","lat":43.24139,"lon":5.39714,"is_reserved":false,"is_disabled":false,"rental_uris":{"android":"levelo://app?vid=7425d75a-c7de-46b5-bd84-85c19ab69f2d","ios":"levelo://app?vid=7425d75a-c7de-46b5-bd84-85c19ab69f2d"},"vehicle_type_id":"4","last_reported":1768835757,"current_range_meters":9600,"station_id":"ce4bhn12rcd13ifvqgpg","pricing_plan_id":"cebpf4jnsgd1na2vs0mg"},{"bike_id":"38c0e5ac-1fb3-4495-babe-994d6b3f776a","system_id":"levelo_inurba_marseille","lat":43.33122,"lon":5.37715,"is_reserved":false,"is_disabled":false,"rental_uris":{"android":"levelo://app?vid=38c0e5ac-1fb3-4495-babe-994d6b3f776a","ios":"levelo://app?vid=38c0e5ac-1fb3-4495-babe-994d6b3f776a"},"vehicle_type_id":"4","last_reported":1768835757,"current_range_meters":9600,"station_id":"","pricing_plan_id":"cebpf4jnsgd1na2vs0mg"},{"bike_id":"4aed1bd7-f989-4075-931c-a9f5133795a4","system_id":"levelo_inurba_marseille","lat":43.303153,"lon":5.369286,"is_reserved":false,"is_disabled":false,"rental_uris":{"android":"levelo://app?vid=4aed1bd7-f989-4075-931c-a9f5133795a4","ios":"levelo://app?vid=4aed1bd7-f989-4075-931c-a9f5133795a4"},"vehicle_type_id":"4","last_reported":1768835757,"current_range_meters":9600,"station_id":"ce4bgqh2rcd13ifvqc5g","pricing_plan_id":"cebpf4jnsgd1na2vs0mg"},{"bike_id":"001c412e-2e05-4692-a1b0-e917d30d7cb4","system_id":"levelo_inurba_marseille","lat":43.32347,"lon":5.36753,"is_reserved":false,"is_disabled":false,"rental_uris":{"android":"levelo://app?vid=001c412e-2e05-4692-a1b0-e917d30d7cb4","ios":"levelo://app?vid=001c412e-2e05-4692-a1b0-e917d30d7cb4"},"vehicle_type_id":"4","last_reported":1768835757,"current_range_meters":9600,"station_id":"ce4bhsh2rcd13ifvqi2g","pricing_plan_id":"cebpf4jnsgd1na2vs0mg"},{"bike_id":"06a58433-4938-4dec-9cbf-b648440716ee","system_id":"levelo_inurba_marseille","lat":43.32502,"lon":5.38293,"is_reserved":false,"is_disabled":false,"rental_uris":{"android":"levelo://app?vid=06a58433-4938-4dec-9cbf-b648440716ee","ios":"levelo://app?vid=06a58433-4938-4dec-9cbf-b648440716ee"},"vehicle_type_id":"4","last_reported":1768835757,"current_range_meters":9600,"station_id":"st_d4asgbiv49dc73anf9m0","pricing_plan_id":"cebpf4jnsgd1na2vs0mg"},{"bike_id":"aba1b4c5-be49-4ccb-ae72-110cae12e06e","system_id":"levelo_inurba_marseille","lat":43.2868,"lon":5.38637,"is_reserved":false,"is_disabled":false,"rental_uris":{"android":"levelo://app?vid=aba1b4c5-be49-4ccb-ae72-110cae12e06e","ios":"levelo://app?vid=aba1b4c5-be49-4ccb-ae72-110cae12e06e"},"vehicle_type_id":"4","last_reported":1768835757,"current_range_meters":9600,"station_id":"ce4bh492rcd13ifvqdug","pricing_plan_id":"cebpf4jnsgd1na2vs0mg"},{"bike_id":"d794b8be-0e08-44c9-bb04-f8f3b224cbbb","system_id":"levelo_inurba_marseille","lat":43.30249,"lon":5.36833,"is_reserved":false,"is_disabled":false,"rental_uris":{"android":"levelo://app?vid=d794b8be-0e08-44c9-bb04-f8f3b224cbbb","ios":"levelo://app?vid=d794b8be-0e08-44c9-bb04-f8f3b224cbbb"},"vehicle_type_id":"4","last_reported":1768835757,"current_range_meters":9600,"station_id":"","pricing_plan_id":"cebpf4jnsgd1na2vs0mg"},{"bike_id":"556386fb-6c93-4670-ad31-cccd049685ec","system_id":"levelo_inurba_marseille","lat":43.27998,"lon":5.41663,"is_reserved":false,"is_disabled":false,"rental_uris":{"android":"levelo://app?vid=556386fb-6c93-4670-ad31-cccd049685ec","ios":"levelo://app?vid=556386fb-6c93-4670-ad31-cccd049685ec"},"vehicle_type_id":"4","last_reported":1768835757,"current_range_meters":9600,"station_id":"ce4bho12rcd13ifvqh1g","pricing_plan_id":"cebpf4jnsgd1na2vs0mg"},{"bike_id":"1f76fe58-7a9c-4fd2-b3da-19706779579d","system_id":"levelo_inurba_marseille","lat":43.27201,"lon":5.39192,"is_reserved":false,"is_disabled":false,"rental_uris":{"android":"levelo://app?vid=1f76fe58-7a9c-4fd2-b3da-19706779579d","ios":"levelo://app?vid=1f76fe58-7a9c-4fd2-b3da-19706779579d"},"vehicle_type_id":"4","last_reported":1768835757,"current_range_meters":9600,"station_id":"ce4bhhp2rcd13ifvqfm0","pricing_plan_id":"cebpf4jnsgd1na2vs0mg"},{"bike_id":"a1996df2-c3f0-4898-8db8-f0f36a8152ee","system_id":"levelo_inurba_marseille","lat":43.23193,"lon":5.35542,"is_reserved":false,"is_disabled":false,"rental_uris":{"android":"levelo://app?vid=a1996df2-c3f0-4898-8db8-f0f36a8152ee","ios":"levelo://app?vid=a1996df2-c3f0-4898-8db8-f0f36a8152ee"},"vehicle_type_id":"4","last_reported":1768835757,"current_range_meters":10000,"station_id":"ce4bhu92rcd13ifvqi70","pricing_plan_id":"cebpf4jnsgd1na2vs0mg"},{"bike_id":"cde99455-ada5-43f5-b84a-4cd1375de012","system_id":"levelo_inurba_marseille","lat":43.27964,"lon":5.3874,"is_reserved":false,"is_disabled":false,"rental_uris":{"android":"levelo://app?vid=cde99455-ada5-43f5-b84a-4cd1375de012","ios":"levelo://app?vid=cde99455-ada5-43f5-b84a-4cd1375de012"},"vehicle_type_id":"4","last_reported":1768835757,"current_range_meters":10000,"station_id":"ce4bhg12rcd13ifvqf80","pricing_plan_id":"cebpf4jnsgd1na2vs0mg"},{"bike_id":"fb170a31-36a9-4476-9f35-99bbf21c7f4b","system_id":"levelo_inurba_marseille","lat":43.31208,"lon":5.36867,"is_reserved":false,"is_disabled":false,"rental_uris":{"android":"levelo://app?vid=fb170a31-36a9-4476-9f35-99bbf21c7f4b","ios":"levelo://app?vid=fb170a31-36a9-4476-9f35-99bbf21c7f4b"},"vehicle_type_id":"4","last_reported":1768835757,"current_range_meters":10000,"station_id":"ce4bgl92rcd13ifvqbq0","pricing_plan_id":"cebpf4jnsgd1na2vs0mg"},{"bike_id":"4c1ce58f-8d82-4f58-9165-964167d5a081","system_id":"levelo_inurba_marseille","lat":43.26057,"lon":5.39395,"is_reserved":false,"is_disabled":false,"rental_uris":{"android":"levelo://app?vid=4c1ce58f-8d82-4f58-9165-964167d5a081","ios":"levelo://app?vid=4c1ce58f-8d82-4f58-9165-964167d5a081"},"vehicle_type_id":"4","last_reported":1768835757,"current_range_meters":10000,"station_id":"ce4bhh92rcd13ifvqfj0","pricing_plan_id":"cebpf4jnsgd1na2vs0mg"},{"bike_id":"464f5fd3-d3aa-44ea-99ed-958e899847b1","system_id":"levelo_inurba_marseille","lat":43.30703,"lon":5.36552,"is_reserved":false,"is_disabled":false,"rental_uris":{"android":"levelo://app?vid=464f5fd3-d3aa-44ea-99ed-958e899847b1","ios":"levelo://app?vid=464f5fd3-d3aa-44ea-99ed-958e899847b1"},"vehicle_type_id":"4","last_reported":1768835757,"current_range_meters":10000,"station_id":"","pricing_plan_id":"cebpf4jnsgd1na2vs0mg"},{"bike_id":"0737ffc9-5b96-4df1-8268-f91ff6a813d5","system_id":"levelo_inurba_marseille","lat":43.26371,"lon":5.41046,"is_reserved":false,"is_disabled":false,"rental_uris":{"android":"levelo://app?vid=0737ffc9-5b96-4df1-8268-f91ff6a813d5","ios":"levelo://app?vid=0737ffc9-5b96-4df1-8268-f91ff6a813d5"},"vehicle_type_id":"4","last_reported":1768835757,"current_range_meters":10000,"station_id":"st_d4e5ca6na9uc73bfl5fg","pricing_plan_id":"cebpf4jnsgd1na2vs0mg"},{"bike_id":"a3cd4c7f-c608-4cd1-bbbe-29971e915fc0","system_id":"levelo_inurba_marseille","lat":43.25009,"lon":5.38921,"is_reserved":false,"is_disabled":false,"rental_uris":{"android":"levelo://app?vid=a3cd4c7f-c608-4cd1-bbbe-29971e915fc0","ios":"levelo://app?vid=a3cd4c7f-c608-4cd1-bbbe-29971e915fc0"},"vehicle_type_id":"4","last_reported":1768835757,"current_range_meters":10000,"station_id":"ce4bhgp2rcd13ifvqfd0","pricing_plan_id":"cebpf4jnsgd1na2vs0mg"},{"bike_id":"5573a881-332e-4ee5-9c14-78d69a777dcc","system_id":"levelo_inurba_marseille","lat":43.312103,"lon":5.36881,"is_reserved":false,"is_disabled":false,"rental_uris":{"android":"levelo://app?vid=5573a881-332e-4ee5-9c14-78d69a777dcc","ios":"levelo://app?vid=5573a881-332e-4ee5-9c14-78d69a777dcc"},"vehicle_type_id":"4","last_reported":1768835757,"current_range_meters":10000,"station_id":"","pricing_plan_id":"cebpf4jnsgd1na2vs0mg"},{"bike_id":"51138c23-48ed-49a6-b7da-3dfd6306fe49","system_id":"levelo_inurba_marseille","lat":43.30451,"lon":5.36739,"is_reserved":false,"is_disabled":false,"rental_uris":{"android":"levelo://app?vid=51138c23-48ed-49a6-b7da-3dfd6306fe49","ios":"levelo://app?vid=51138c23-48ed-49a6-b7da-3dfd6306fe49"},"vehicle_type_id":"4","last_reported":1768835757,"current_range_meters":10000,"station_id":"ce4bgrp2rcd13ifvqc9g","pricing_plan_id":"cebpf4jnsgd1na2vs0mg"},{"bike_id":"37a592a4-a57d-4713-a597-2a766b2e32dd","system_id":"levelo_inurba_marseille","lat":43.30949,"lon":5.39042,"is_reserved":false,"is_disabled":false,"rental_uris":{"android":"levelo://app?vid=37a592a4-a57d-4713-a597-2a766b2e32dd","ios":"levelo://app?vid=37a592a4-a57d-4713-a597-2a766b2e32dd"},"vehicle_type_id":"4","last_reported":1768835757,"current_range_meters":10000,"station_id":"ce4bgup2rcd13ifvqco0","pricing_plan_id":"cebpf4jnsgd1na2vs0mg"},