{"last_updated":1770140571,"ttl":60,"version":"2.2","data":{"bikes":[{"bike_id":"78b6a908-abd9-43ee-866d-e94c6e847ad4","system_id":"levelo_inurba_marseille","lat":43.2319,"lon":5.39986,"is_reserved":false,"is_disabled":false,"rental_uris":{"android":"levelo://app?vid=78b6a908-abd9-43ee-866d-e94c6e847ad4","ios":"levelo://app?vid=78b6a908-abd9-43ee-866d-e94c6e847ad4"},"vehicle_type_id":"4","last_reported":1770140572,"current_range_meters":2800,"station_id":"ce4bhn12rcd13ifvqgqg","pricing_plan_id":"cebpf4jnsgd1na2vs0mg"},{"bike_id":"43571e25-1c74-45c6-a02b-0cc991131a4e","system_id":"levelo_inurba_marseille","lat":43.30141,"lon":5.3743,"is_reserved":false,"is_disabled":false,"rental_uris":{"android":"levelo://app?vid=43571e25-1c74-45c6-a02b-0cc991131a4e","ios":"levelo://app?vid=43571e25-1c74-45c6-a02b-0cc991131a4e"},"vehicle_type_id":"4","last_reported":1770140572,"current_range_meters":2800,"station_id":"ce4bgs92rcd13ifvqcc0","pricing_plan_id":"cebpf4jnsgd1na2vs0mg"},{"bike_id":"cd5b87d7-0890-45bf-929f-81a24ad66702","system_id":"levelo_inurba_marseille","lat":43.28841,"lon":5.39323,"is_reserved":false,"is_disabled":false,"rental_uris":{"android":"levelo://app?vid=cd5b87d7-0890-45bf-929f-81a24ad66702","ios":"levelo://app?vid=cd5b87d7-0890-45bf-929f-81a24ad66702"},"vehicle_type_id":"4","last_reported":1770140572,"current_range_meters":2800,"station_id":"ce4bh2p2rcd13ifvqdi0","pricing_plan_id":"cebpf4jnsgd1na2vs0mg"},{"bike_id":"c6d51dd5-9308-4f0e-88fc-f14da2e2458e","system_id":"levelo_inurba_marseille","lat":43.28358,"lon":5.38099,"is_reserved":false,"is_disabled":false,"rental_uris":{"android":"levelo://app?vid=c6d51dd5-9308-4f0e-88fc-f14da2e2458e","ios":"levelo://app?vid=c6d51dd5-9308-4f0e-88fc-f14da2e2458e"},"vehicle_type_id":"4","last_reported":1770140572,"current_range_meters":2800,"station_id":"ce4bh412rcd13ifvqdr0","pricing_plan_id":"cebpf4jnsgd1na2vs0mg"},{"bike_id":"dbfdf8a7-c189-49d0-8fdf-1fd513c9ac09","system_id":"levelo_inurba_marseille","lat":43.27064,"lon":5.38313,"is_reserved":false,"is_disabled":false,"rental_uris":{"android":"levelo://app?vid=dbfdf8a7-c189-49d0-8fdf-1fd513c9ac09","ios":"levelo://app?vid=dbfdf8a7-c189-49d0-8fdf-1fd513c9ac09"},"vehicle_type_id":"4","last_reported":1770140572,"current_range_meters":2800,"station_id":"st_d3n2fo6cfp8s73cte1j0","pricing_plan_id":"cebpf4jnsgd1na2vs0mg"},{"bike_id":"448aac68-1f9e-4017-99cd-3bab5b285023","system_id":"levelo_inurba_marseille","lat":43.27368,"lon":5.36256,"is_reserved":false,"is_disabled":false,"rental_uris":{"android":"levelo://app?vid=448aac68-1f9e-4017-99cd-3bab5b285023","ios":"levelo://app?vid=448aac68-1f9e-4017-99cd-3bab5b285023"},"vehicle_type_id":"4","last_reported":1770140572,"current_range_meters":2800,"station_id":"ce4bhbh2rcd13ifvqeo0","pricing_plan_id":"cebpf4jnsgd1na2vs0mg"},{"bike_id":"658d0b20-6292-4d6c-85b2-b3938e69fd12","system_id":"levelo_inurba_marseille","lat":43.28259,"lon":5.38537,"is_reserved":false,"is_disabled":false,"rental_uris":{"android":"levelo://app?vid=658d0b20-6292-4d6c-85b2-b3938e69fd12","ios":"levelo://app?vid=658d0b20-6292-4d6c-85b2-b3938e69fd12"},"vehicle_type_id":"4","last_reported":1770140572,"current_range_meters":2800,"station_id":"","pricing_plan_id":"cebpf4jnsgd1na2vs0mg"},{"bike_id":"7bed41f3-831e-4b17-9b1a-f4085fb99d5b","system_id":"levelo_inurba_marseille","lat":43.24098,"lon":5.37723,"is_reserved":false,"is_disabled":false,"rental_uris":{"android":"levelo://app?vid=7bed41f3-831e-4b17-9b1a-f4085fb99d5b","ios":"levelo://app?vid=7bed41f3-831e-4b17-9b1a-f4085fb99d5b"},"vehicle_type_id":"4","last_reported":1770140572,"current_range_meters":2800,"station_id":"ce4bhnp2rcd13ifvqgvg","pricing_plan_id":"cebpf4jnsgd1na2vs0mg"},{"bike_id":"7a0f94fc-8f55-440c-9bcf-725cde76ae39","system_id":"levelo_inurba_marseille","lat":43.29915,"lon":5.37485,"is_reserved":false,"is_disabled":false,"rental_uris":{"android":"levelo://app?vid=7a0f94fc-8f55-440c-9bcf-725cde76ae39","ios":"levelo://app?vid=7a0f94fc-8f55-440c-9bcf-725cde76ae39"},"vehicle_type_id":"4","last_reported":1770140572,"current_range_meters":2800,"station_id":"ce4bgjh2rcd13ifvqbg0","pricing_plan_id":"cebpf4jnsgd1na2vs0mg"},{"bike_id":"373e010f-2758-44df-ad23-a5caa2ea0092","system_id":"levelo_inurba_marseille","lat":43.28566,"lon":5.39496,"is_reserved":false,"is_disabled":false,"rental_uris":{"android":"levelo://app?vid=373e010f-2758-44df-ad23-a5caa2ea0092","ios":"levelo://app?vid=373e010f-2758-44df-ad23-a5caa2ea0092"},"vehicle_type_id":"4","last_reported":1770140572,"current_range_meters":2800,"station_id":"ce4bh292rcd13ifvqdg0","pricing_plan_id":"cebpf4jnsgd1na2vs0mg"},{"bike_id":"225e9d09-83ee-4f1c-a930-a97429c83cb7","system_id":"levelo_inurba_marseille","lat":43.23208,"lon":5.35557,"is_reserved":false,"is_disabled":false,"rental_uris":{"android":"levelo://app?vid=225e9d09-83ee-4f1c-a930-a97429c83cb7","ios":"levelo://app?vid=225e9d09-83ee-4f1c-a930-a97429c83cb7"},"vehicle_type_id":"4","last_reported":1770140572,"current_range_meters":2800,"station_id":"ce4bhu92rcd13ifvqi70","pricing_plan_id":"cebpf4jnsgd1na2vs0mg"},{"bike_id":"6a131f0d-6128-445c-99a5-319bcf3a622a","system_id":"levelo_inurba_marseille","lat":43.28475,"lon":5.48402,"is_reserved":false,"is_disabled":false,"rental_uris":{"android":"levelo://app?vid=6a131f0d-6128-445c-99a5-319bcf3a622a","ios":"levelo://app?vid=6a131f0d-6128-445c-99a5-319bcf3a622a"},"vehicle_type_id":"4","last_reported":1770140572,"current_range_meters":2800,"station_id":"st_d3svhcjqgbts73a3dn0g","pricing_plan_id":"cebpf4jnsgd1na2vs0mg"},{"bike_id":"91604460-68c0-4492-894c-a238619d1f72","system_id":"levelo_inurba_marseille","lat":43.23203,"lon":5.35549,"is_reserved":false,"is_disabled":false,"rental_uris":{"android":"levelo://app?vid=91604460-68c0-4492-894c-a238619d1f72","ios":"levelo://app?vid=91604460-68c0-4492-894c-a238619d1f72"},"vehicle_type_id":"4","last_reported":1770140572,"current_range_meters":2800,"station_id":"ce4bhu92rcd13ifvqi70","pricing_plan_id":"cebpf4jnsgd1na2vs0mg"},{"bike_id":"186a1326-d130-487e-8f4a-1615df6cd0ab","system_id":"levelo_inurba_marseille","lat":43.27612,"lon":5.36119,"is_reserved":false,"is_disabled":false,"rental_uris":{"android":"levelo://app?vid=186a1326-d130-487e-8f4a-1615df6cd0ab","ios":"levelo://app?vid=186a1326-d130-487e-8f4a-1615df6cd0ab"},"vehicle_type_id":"4","last_reported":1770140572,"current_range_meters":2800,"station_id":"ce4bgj92rcd13ifvqbe0","pricing_plan_id":"cebpf4jnsgd1na2vs0mg"},{"bike_id":"ce52ad41-17ad-45b4-bd04-83c8a4be51dc","system_id":"levelo_inurba_marseille","lat":43.26197,"lon":5.37449,"is_reserved":false,"is_disabled":false,"rental_uris":{"android":"levelo://app?vid=ce52ad41-17ad-45b4-bd04-83c8a4be51dc","ios":"levelo://app?vid=ce52ad41-17ad-45b4-bd04-83c8a4be51dc"},"vehicle_type_id":"4","last_reported":1770140572,"current_range_meters":3200,"station_id":"ce4bhgp2rcd13ifvqfc0","pricing_plan_id":"cebpf4jnsgd1na2vs0mg"},{"bike_id":"af07bab7-e70f-4712-813a-d80d7647f558","system_id":"levelo_inurba_marseille","lat":43.24665,"lon":5.38142,"is_reserved":false,"is_disabled":false,"rental_uris":{"android":"levelo://app?vid=af07bab7-e70f-4712-813a-d80d7647f558","ios":"levelo://app?vid=af07bab7-e70f-4712-813a-d80d7647f558"},"vehicle_type_id":"4","last_reported":1770140572,"current_range_meters":3200,"station_id":"ce4bhih2rcd13ifvqfr0","pricing_plan_id":"cebpf4jnsgd1na2vs0mg"},{"bike_id":"c8aa151c-8b02-4378-ab97-94e56f23e444","system_id":"levelo_inurba_marseille","lat":43.3032,"lon":5.40439,"is_reserved":false,"is_disabled":false,"rental_uris":{"android":"levelo://app?vid=c8aa151c-8b02-4378-ab97-94e56f23e444","ios":"levelo://app?vid=c8aa151c-8b02-4378-ab97-94e56f23e444"},"vehicle_type_id":"4","last_reported":1770140572,"current_range_meters":3200,"station_id":"ce4bh012rcd13ifvqd10","pricing_plan_id":"cebpf4jnsgd1na2vs0mg"},{"bike_id":"a7476785-ee61-487a-aa9e-dddab7d331ee","system_id":"levelo_inurba_marseille","lat":43.295319,"lon":5.390359,"is_reserved":false,"is_disabled":false,"rental_uris":{"android":"levelo://app?vid=a7476785-ee61-487a-aa9e-dddab7d331ee","ios":"levelo://app?vid=a7476785-ee61-487a-aa9e-dddab7d331ee"},"vehicle_type_id":"4","last_reported":1770140572,"current_range_meters":3200,"station_id":"ce4bh3p2rcd13ifvqdp0","pricing_plan_id":"cebpf4jnsgd1na2vs0mg"},{"bike_id":"99c49986-26de-41a1-9eff-71e0bcca14df","system_id":"levelo_inurba_marseille","lat":43.24387,"lon":5.3707,"is_reserved":false,"is_disabled":false,"rental_uris":{"android":"levelo://app?vid=99c49986-26de-41a1-9eff-71e0bcca14df","ios":"levelo://app?vid=99c49986-26de-41a1-9eff-71e0bcca14df"},"vehicle_type_id":"4","last_reported":1770140572,"current_range_meters":3200,"station_id":"ce4bhhh2rcd13ifvqfk0","pricing_plan_id":"cebpf4jnsgd1na2vs0mg"},{"bike_id":"44e9027e-e330-4a40-aed4-3ef780872694","system_id":"levelo_inurba_marseille","lat":43.29797,"lon":5.38097,"is_reserved":false,"is_disabled":false,"rental_uris":{"android":"levelo://app?vid=44e9027e-e330-4a40-aed4-3ef780872694","ios":"levelo://app?vid=44e9027e-e330-4a40-aed4-3ef780872694"},"vehicle_type_id":"4","last_reported":1770140572,"current_range_meters":3600,"station_id":"ce4bgip2rcd13ifvqbb0","pricing_plan_id":"cebpf4jnsgd1na2vs0mg"},{"bike_id":"40c5ac33-3eef-4c44-a016-78e58240094d","system_id":"levelo_inurba_marseille","lat":43.24661,"lon":5.38161,"is_reserved":false,"is_disabled":false,"rental_uris":{"android":"levelo://app?vid=40c5ac33-3eef-4c44-a016-78e58240094d","ios":"levelo://app?vid=40c5ac33-3eef-4c44-a016-78e58240094d"},"vehicle_type_id":"4","last_reported":1770140572,"current_range_meters":3600,"station_id":"ce4bhih2rcd13ifvqfr0","pricing_plan_id":"cebpf4jnsgd1na2vs0mg"},{"bike_id":"bdd77322-b62b-4162-aa1e-cdcf6f70f9a0","system_id":"levelo_inurba_marseille","lat":43.2844,"lon":5.391919,"is_reserved":false,"is_disabled":false,"rental_uris":{"android":"levelo://app?vid=bdd77322-b62b-4162-aa1e-cdcf6f70f9a0","ios":"levelo://app?vid=bdd77322-b62b-4162-aa1e-cdcf6f70f9a0"},"vehicle_type_id":"4","last_reported":1770140572,"current_range_meters":3600,"station_id":"ce4bhoh2rcd13ifvqh5g","pricing_plan_id":"cebpf4jnsgd1na2vs0mg"},{"bike_id":"b22fe20e-b31a-45b3-85d7-e7226f45b2bd","system_id":"levelo_inurba_marseille","lat":43.21199,"lon":5.35057,"is_reserved":false,"is_disabled":false,"rental_uris":{"android":"levelo://app?vid=b22fe20e-b31a-45b3-85d7-e7226f45b2bd","ios":"levelo://app?vid=b22fe20e-b31a-45b3-85d7-e7226f45b2bd"},"vehicle_type_id":"4","last_reported":1770140572,"current_range_meters":3600,"station_id":"st_cvj6sg6p6f1abm77japg","pricing_plan_id":"cebpf4jnsgd1na2vs0mg"},{"bike_id":"24e85083-dad3-4628-988b-8fea3f3470cd","system_id":"levelo_inurba_marseille","lat":43.27204,"lon":5.39176,"is_reserved":false,"is_disabled":false,"rental_uris":{"android":"levelo://app?vid=24e85083-dad3-4628-988b-8fea3f3470cd","ios":"levelo://app?vid=24e85083-dad3-4628-988b-8fea3f3470cd"},"vehicle_type_id":"4","last_reported":1770140572,"current_range_meters":3600,"station_id":"ce4bhhp2rcd13ifvqfm0","pricing_plan_id":"cebpf4jnsgd1na2vs0mg"},{"bike_id":"f22199da-f1ef-4602-ae36-d2213bb9a974","system_id":"levelo_inurba_marseille","lat":43.28482,"lon":5.38539,"is_reserved":false,"is_disabled":false,"rental_uris":{"android":"levelo://app?vid=f22199da-f1ef-4602-ae36-d2213bb9a974","ios":"levelo://app?vid=f22199da-f1ef-4602-ae36-d2213bb9a974"},"vehicle_type_id":"4","last_reported":1770140572,"current_range_meters":3600,"station_id":"ce4bh8p2rcd13ifvqeb0","pricing_plan_id":"cebpf4jnsgd1na2vs0mg"},{"bike_id":"9603d6ad-6836-471d-b714-25df8fe511f9","system_id":"levelo_inurba_marseille","lat":43.29517,"lon":5.37507,"is_reserved":false,"is_disabled":false,"rental_uris":{"android":"levelo://app?vid=9603d6ad-6836-471d-b714-25df8fe511f9","ios":"levelo://app?vid=9603d6ad-6836-471d-b714-25df8fe511f9"},"vehicle_type_id":"4","last_reported":1770140572,"current_range_meters":3600,"station_id":"ce4bgkp2rcd13ifvqbmg","pricing_plan_id":"cebpf4jnsgd1na2vs0mg"},{"bike_id":"eda11006-539d-4ac5-b351-07bd6d27fd10","system_id":"levelo_inurba_marseille","lat":43.279215,"lon":5.395707,"is_reserved":false,"is_disabled":false,"rental_uris":{"android":"levelo://app?vid=eda11006-539d-4ac5-b351-07bd6d27fd10","ios":"levelo://app?vid=eda11006-539d-4ac5-b351-07bd6d27fd10"},"vehicle_type_id":"4","last_reported":1770140572,"current_range_meters":3600,"station_id":"ce4bhf92rcd13ifvqf40","pricing_plan_id":"cebpf4jnsgd1na2vs0mg"},{"bike_id":"93df8620-07dc-4f74-9a2d-b7cef98415cf","system_id":"levelo_inurba_marseille","lat":43.26206,"lon":5.37909,"is_reserved":false,"is_disabled":false,"rental_uris":{"android":"levelo://app?vid=93df8620-07dc-4f74-9a2d-b7cef98415cf","ios":"levelo://app?vid=93df8620-07dc-4f74-9a2d-b7cef98415cf"},"vehicle_type_id":"4","last_reported":1770140572,"current_range_meters":3600,"station_id":"ce4bhjp2rcd13ifvqg90","pricing_plan_id":"cebpf4jnsgd1na2vs0mg"},{"bike_id":"2997d67b-20e1-43de-a286-891998b205af","system_id":"levelo_inurba_marseille","lat":43.2836,"lon":5.38113,"is_reserved":false,"is_disabled":false,"rental_uris":{"android":"levelo://app?vid=2997d67b-20e1-43de-a286-891998b205af","ios":"levelo://app?vid=2997d67b-20e1-43de-a286-891998b205af"},"vehicle_type_id":"4","last_reported":1770140572,"current_range_meters":3600,"station_id":"ce4bh412rcd13ifvqdr0","pricing_plan_id":"cebpf4jnsgd1na2vs0mg"},{"bike_id":"3c0cfbef-fe31-4529-81d6-c28a1b9f3fb3","system_id":"levelo_inurba_marseille","lat":43.317556,"lon":5.390183,"is_reserved":false,"is_disabled":false,"rental_uris":{"android":"levelo://app?vid=3c0cfbef-fe31-4529-81d6-c28a1b9f3fb3","ios":"levelo://app?vid=3c0cfbef-fe31-4529-81d6-c28a1b9f3fb3"},"vehicle_type_id":"4","last_reported":1770140572,"current_range_meters":3600,"station_id":"ce4bhqp2rcd13ifvqhng","pricing_plan_id":"cebpf4jnsgd1na2vs0mg"},{"bike_id":"75d6e842-cbda-4b63-9ab8-49199bf74e6e","system_id":"levelo_inurba_marseille","lat":43.24681,"lon":5.38156,"is_reserved":false,"is_disabled":false,"rental_uris":{"android":"levelo://app?vid=75d6e842-cbda-4b63-9ab8-49199bf74e6e","ios":"levelo://app?vid=75d6e842-cbda-4b63-9ab8-49199bf74e6e"},"vehicle_type_id":"4","last_reported":1770140572,"current_range_meters":3600,"station_id":"ce4bhih2rcd13ifvqfr0","pricing_plan_id":"cebpf4jnsgd1na2vs0mg"},{"bike_id":"20d25b81-9c9e-4d69-b10b-5fd780f1ac06","system_id":"levelo_inurba_marseille","lat":43.23145,"lon":5.437,"is_reserved":false,"is_disabled":false,"rental_uris":{"android":"levelo://app?vid=20d25b81-9c9e-4d69-b10b-5fd780f1ac06","ios":"levelo://app?vid=20d25b81-9c9e-4d69-b10b-5fd780f1ac06"},"vehicle_type_id":"4","last_reported":1770140572,"current_range_meters":4000,"station_id":"ce4bhmp2rcd13ifvqgog","pricing_plan_id":"cebpf4jnsgd1na2vs0mg"},{"bike_id":"30a6313f-8170-43bb-8911-9f554b56fb17","system_id":"levelo_inurba_marseille","lat":43.293147,"lon":5.370122,"is_reserved":false,"is_disabled":false,"rental_uris":{"android":"levelo://app?vid=30a6313f-8170-43bb-8911-9f554b56fb17","ios":"levelo://app?vid=30a6313f-8170-43bb-8911-9f554b56fb17"},"vehicle_type_id":"4","last_reported":1770140572,"current_range_meters":4000,"station_id":"ce4bgr92rcd13ifvqc7g","pricing_plan_id":"cebpf4jnsgd1na2vs0mg"},{"bike_id":"ce24aee7-35fa-4a11-bc8f-4e8ab67f92b4","system_id":"levelo_inurba_marseille","lat":43.3148,"lon":5.37312,"is_reserved":false,"is_disabled":false,"rental_uris":{"android":"levelo://app?vid=ce24aee7-35fa-4a11-bc8f-4e8ab67f92b4","ios":"levelo://app?vid=ce24aee7-35fa-4a11-bc8f-4e8ab67f92b4"},"vehicle_type_id":"4","last_reported":1770140572,"current_range_meters":4000,"station_id":"ce4bgt12rcd13ifvqcd0","pricing_plan_id":"cebpf4jnsgd1na2vs0mg"},{"bike_id":"66affa99-a17c-46ac-ae80-976d87835fad","system_id":"levelo_inurba_marseille","lat":43.30158,"lon":5.38788,"is_reserved":false,"is_disabled":false,"rental_uris":{"android":"levelo://app?vid=66affa99-a17c-46ac-ae80-976d87835fad","ios":"levelo://app?vid=66affa99-a17c-46ac-ae80-976d87835fad"},"vehicle_type_id":"4","last_reported":1770140572,"current_range_meters":4000,"station_id":"ce4bghh2rcd13ifvqb60","pricing_plan_id":"cebpf4jnsgd1na2vs0mg"},{"bike_id":"03da59ff-4979-447a-b511-8895c83a82ea","system_id":"levelo_inurba_marseille","lat":43.30649,"lon":5.40087,"is_reserved":false,"is_disabled":false,"rental_uris":{"android":"levelo://app?vid=03da59ff-4979-447a-b511-8895c83a82ea","ios":"levelo://app?vid=03da59ff-4979-447a-b511-8895c83a82ea"},"vehicle_type_id":"4","last_reported":1770140572,"current_range_meters":4000,"station_id":"ce4bh112rcd13ifvqda0","pricing_plan_id":"cebpf4jnsgd1na2vs0mg"},{"bike_id":"4beaefea-e629-42d0-aec6-3778323ddf11","system_id":"levelo_inurba_marseille","lat":43.24678,"lon":5.38152,"is_reserved":false,"is_disabled":false,"rental_uris":{"android":"levelo://app?vid=4beaefea-e629-42d0-aec6-3778323ddf11","ios":"levelo://app?vid=4beaefea-e629-42d0-aec6-3778323ddf11"},"vehicle_type_id":"4","last_reported":1770140572,"current_range_meters":4000,"station_id":"ce4bhih2rcd13ifvqfr0","pricing_plan_id":"cebpf4jnsgd1na2vs0mg"},{"bike_id":"0a6292f7-50dd-43c2-b393-e08dde080051","system_id":"levelo_inurba_marseille","lat":43.26597,"lon":5.39009,"is_reserved":false,"is_disabled":false,"rental_uris":{"android":"levelo://app?vid=0a6292f7-50dd-43c2-b393-e08dde080051","ios":"levelo://app?vid=0a6292f7-50dd-43c2-b393-e08dde080051"},"vehicle_type_id":"4","last_reported":1770140572,"current_range_meters":4000,"station_id":"ce4bhe12rcd13ifvqf30","pricing_plan_id":"cebpf4jnsgd1na2vs0mg"},{"bike_id":"4dd6841e-e470-4207-bb73-65a47c0e81c5","system_id":"levelo_inurba_marseille","lat":43.31156,"lon":5.38013,"is_reserved":false,"is_disabled":false,"rental_uris":{"android":"levelo://app?vid=4dd6841e-e470-4207-bb73-65a47c0e81c5","ios":"levelo://app?vid=4dd6841e-e470-4207-bb73-65a47c0e81c5"},"vehicle_type_id":"4","last_reported":1770140572,"current_range_meters":4000,"station_id":"","pricing_plan_id":"cebpf4jnsgd1na2vs0mg"},{"bike_id":"5dae8e7a-771c-417a-921b-2f019b85b891","system_id":"levelo_inurba_marseille","lat":43.298938,"lon":5.436802,"is_reserved":false,"is_disabled":false,"rental_uris":{"android":"levelo://app?vid=5dae8e7a-771c-417a-921b-2f019b85b891","ios":"levelo://app?vid=5dae8e7a-771c-417a-921b-2f019b85b891"},"vehicle_type_id":"4","last_reported":1770140572,"current_range_meters":4000,"station_id":"ce4bhpp2rcd13ifvqhfg","pricing_plan_id":"cebpf4jnsgd1na2vs0mg"},{"bike_id":"8615e15c-c7f5-406e-a774-a9770972e35d","system_id":"levelo_inurba_marseille","lat":43.30811,"lon":5.38146,"is_reserved":false,"is_disabled":false,"rental_uris":{"android":"levelo://app?vid=8615e15c-c7f5-406e-a774-a9770972e35d","ios":"levelo://app?vid=8615e15c-c7f5-406e-a774-a9770972e35d"},"vehicle_type_id":"4","last_reported":1770140572,"current_range_meters":4000,"station_id":"ce4bgt12rcd13ifvqce0","pricing_plan_id":"cebpf4jnsgd1na2vs0mg"},{"bike_id":"5d3a8f21-f8c8-4652-9c7f-b04bff571149","system_id":"levelo_inurba_marseille","lat":43.32496,"lon":5.38296,"is_reserved":false,"is_disabled":false,"rental_uris":{"android":"levelo://app?vid=5d3a8f21-f8c8-4652-9c7f-b04bff571149","ios":"levelo://app?vid=5d3a8f21-f8c8-4652-9c7f-b04bff571149"},"vehicle_type_id":"4","last_reported":1770140572,"current_range_meters":4400,"station_id":"st_d4asgbiv49dc73anf9m0","pricing_plan_id":"cebpf4jnsgd1na2vs0mg"},{"bike_id":"ae3464eb-5cd0-4f57-8e8c-d9114205e743","system_id":"levelo_inurba_marseille","lat":43.28352,"lon":5.38098,"is_reserved":false,"is_disabled":false,"rental_uris":{"android":"levelo://app?vid=ae3464eb-5cd0-4f57-8e8c-d9114205e743","ios":"levelo://app?vid=ae3464eb-5cd0-4f57-8e8c-d9114205e743"},"vehicle_type_id":"4","last_reported":1770140572,"current_range_meters":4400,"station_id":"ce4bh412rcd13ifvqdr0","pricing_plan_id":"cebpf4jnsgd1na2vs0mg"},{"bike_id":"9507fa88-b2b3-4ab7-a45c-4c86ed644dfa","system_id":"levelo_inurba_marseille","lat":43.22927,"lon":5.35376,"is_reserved":false,"is_disabled":false,"rental_uris":{"android":"levelo://app?vid=9507fa88-b2b3-4ab7-a45c-4c86ed644dfa","ios":"levelo://app?vid=9507fa88-b2b3-4ab7-a45c-4c86ed644dfa"},"vehicle_type_id":"4","last_reported":1770140572,"current_range_meters":4400,"station_id":"cpo3532slgdg3j2ikp40","pricing_plan_id":"cebpf4jnsgd1na2vs0mg"},{"bike_id":"76154380-766b-4767-81b3-83dc44f40b7b","system_id":"levelo_inurba_marseille","lat":43.335466,"lon":5.374474,"is_reserved":false,"is_disabled":false,"rental_uris":{"android":"levelo://app?vid=76154380-766b-4767-81b3-83dc44f40b7b","ios":"levelo://app?vid=76154380-766b-4767-81b3-83dc44f40b7b"},"vehicle_type_id":"4","last_reported":1770140572,"current_range_meters":4400,"station_id":"st_d46tts09ee8s73dlu43g","pricing_plan_id":"cebpf4jnsgd1na2vs0mg"},{"bike_id":"4e4203c2-e39f-4d67-8d9a-d0f9e1c5592c","system_id":"levelo_inurba_marseille","lat":43.25127,"lon":5.40316,"is_reserved":false,"is_disabled":false,"rental_uris":{"android":"levelo://app?vid=4e4203c2-e39f-4d67-8d9a-d0f9e1c5592c","ios":"levelo://app?vid=4e4203c2-e39f-4d67-8d9a-d0f9e1c5592c"},"vehicle_type_id":"4","last_reported":1770140572,"current_range_meters":4400,"station_id":"ce4bhlh2rcd13ifvqgig","pricing_plan_id":"cebpf4jnsgd1na2vs0mg"},{"bike_id":"33155caa-8021-4913-a666-e828c4426fe1","system_id":"levelo_inurba_marseille","lat":43.23209,"lon":5.3555,"is_reserved":false,"is_disabled":false,"rental_uris":{"android":"levelo://app?vid=33155caa-8021-4913-a666-e828c4426fe1","ios":"levelo://app?vid=33155caa-8021-4913-a666-e828c4426fe1"},"vehicle_type_id":"4","last_reported":1770140572,"current_range_meters":4400,"station_id":"ce4bhu92rcd13ifvqi70","pricing_plan_id":"cebpf4jnsgd1na2vs0mg"},{"bike_id":"96ee04d7-7abe-48ad-a4e2-41883a9ab3a5","system_id":"levelo_inurba_marseille","lat":43.27049,"lon":5.40262,"is_reserved":false,"is_disabled":false,"rental_uris":{"android":"levelo://app?vid=96ee04d7-7abe-48ad-a4e2-41883a9ab3a5","ios":"levelo://app?vid=96ee04d7-7abe-48ad-a4e2-41883a9ab3a5"},"vehicle_type_id":"4","last_reported":1770140572,"current_range_meters":4400,"station_id":"ce4bhk92rcd13ifvqgc0","pricing_plan_id":"cebpf4jnsgd1na2vs0mg"},{"bike_id":"93d7d933-c0d5-4e88-9ffa-461bdb6c164f","system_id":"levelo_inurba_marseille","lat":43.27333,"lon":5.39093,"is_reserved":false,"is_disabled":false,"rental_uris":{"android":"levelo://app?vid=93d7d933-c0d5-4e88-9ffa-461bdb6c164f","ios":"levelo://app?vid=93d7d933-c0d5-4e88-9ffa-461bdb6c164f"},"vehicle_type_id":"4","last_reported":1770140572,"current_range_meters":4400,"station_id":"ce4bhgp2rcd13ifvqfe0","pricing_plan_id":"cebpf4jnsgd1na2vs0mg"},{"bike_id":"fa1f7efd-3de1-4b9c-a86c-84e989dae929","system_id":"levelo_inurba_marseille","lat":43.26588,"lon":5.39032,"is_reserved":false,"is_disabled":false,"rental_uris":{"android":"levelo://app?vid=fa1f7efd-3de1-4b9c-a86c-84e989dae929","ios":"levelo://app?vid=fa1f7efd-3de1-4b9c-a86c-84e989dae929"},"vehicle_type_id":"4","last_reported":1770140572,"current_range_meters":4400,"station_id":"ce4bhe12rcd13ifvqf30","pricing_plan_id":"cebpf4jnsgd1na2vs0mg"},{"bike_id":"c04d02e9-4522-4664-80d1-72f19e30f66b","system_id":"levelo_inurba_marseille","lat":43.25319,"lon":5.3859,"is_reserved":false,"is_disabled":false,"rental_uris":{"android":"levelo://app?vid=c04d02e9-4522-4664-80d1-72f19e30f66b","ios":"levelo://app?vid=c04d02e9-4522-4664-80d1-72f19e30f66b"},"vehicle_type_id":"4","last_reported":1770140572,"current_range_meters":4400,"station_id":"","pricing_plan_id":"cebpf4jnsgd1na2vs0mg"},{"bike_id":"a7155d8f-d088-4929-bc8e-17df500089e8","system_id":"levelo_inurba_marseille","lat":43.260304,"lon":5.375526,"is_reserved":false,"is_disabled":false,"rental_uris":{"android":"levelo://app?vid=a7155d8f-d088-4929-bc8e-17df500089e8","ios":"levelo://app?vid=a7155d8f-d088-4929-bc8e-17df500089e8"},"vehicle_type_id":"4","last_reported":1770140572,"current_range_meters":4800,"station_id":"ce4bhgh2rcd13ifvqfa0","pricing_plan_id":"cebpf4jnsgd1na2vs0mg"},{"bike_id":"02b06200-6f0c-4fbe-a288-f34e85c983a1","system_id":"levelo_inurba_marseille","lat":43.23788,"lon":5.36631,"is_reserved":false,"is_disabled":false,"rental_uris":{"android":"levelo://app?vid=02b06200-6f0c-4fbe-a288-f34e85c983a1","ios":"levelo://app?vid=02b06200-6f0c-4fbe-a288-f34e85c983a1"},"vehicle_type_id":"4","last_reported":1770140572,"current_range_meters":4800,"station_id":"st_d3nk18o9ro0c73en2l3g","pricing_plan_id":"cebpf4jnsgd1na2vs0mg"},{"bike_id":"3dccfbc0-21a3-4f00-9a17-1cc5f408fc31","system_id":"levelo_inurba_marseille","lat":43.26936,"lon":5.40264,"is_reserved":false,"is_disabled":false,"rental_uris":{"android":"levelo://app?vid=3dccfbc0-21a3-4f00-9a17-1cc5f408fc31","ios":"levelo://app?vid=3dccfbc0-21a3-4f00-9a17-1cc5f408fc31"},"vehicle_type_id":"4","last_reported":1770140572,"current_range_meters":4800,"station_id":"cjm6bp8fraef2m0cb0m0","pricing_plan_id":"cebpf4jnsgd1na2vs0mg"},{"bike_id":"1d78c9f7-b951-4d01-82f5-ad244e4ed29b","system_id":"levelo_inurba_marseille","lat":43.27171,"lon":5.40996,"is_reserved":false,"is_disabled":false,"rental_uris":{"android":"levelo://app?vid=1d78c9f7-b951-4d01-82f5-ad244e4ed29b","ios":"levelo://app?vid=1d78c9f7-b951-4d01-82f5-ad244e4ed29b"},"vehicle_type_id":"4","last_reported":1770140572,"current_range_meters":4800,"station_id":"ce4bhl12rcd13ifvqgf0","pricing_plan_id":"cebpf4jnsgd1na2vs0mg"},{"bike_id":"3188355f-6083-4464-859b-9ed5b4f3cf11","system_id":"levelo_inurba_marseille","lat":43.253907,"lon":5.383743,"is_reserved":false,"is_disabled":false,"rental_uris":{"android":"levelo://app?vid=3188355f-6083-4464-859b-9ed5b4f3cf11","ios":"levelo://app?vid=3188355f-6083-4464-859b-9ed5b4f3cf11"},"vehicle_type_id":"4","last_reported":1770140572,"current_range_meters":4800,"station_id":"","pricing_plan_id":"cebpf4jnsgd1na2vs0mg"},{"bike_id":"19b557ea-50fc-4c52-82aa-2e1f29350d19","system_id":"levelo_inurba_marseille","lat":43.304835,"lon":5.379755,"is_reserved":false,"is_disabled":false,"rental_uris":{"android":"levelo://app?vid=19b557ea-50fc-4c52-82aa-2e1f29350d19","ios":"levelo://app?vid=19b557ea-50fc-4c52-82aa-2e1f29350d19"},"vehicle_type_id":"4","last_reported":1770140572,"current_range_meters":4800,"station_id":"ce4bgup2rcd13ifvqcn0","pricing_plan_id":"cebpf4jnsgd1na2vs0mg"},{"bike_id":"e2e63958-ced3-4ea6-9853-08bd0c74408f","system_id":"levelo_inurba_marseille","lat":43.2677,"lon":5.39431,"is_reserved":false,"is_disabled":false,"rental_uris":{"android":"levelo://app?vid=e2e63958-ced3-4ea6-9853-08bd0c74408f","ios":"levelo://app?vid=e2e63958-ced3-4ea6-9853-08bd0c74408f"},"vehicle_type_id":"4","last_reported":1770140572,"current_range_meters":4800,"station_id":"ce4bhh12rcd13ifvqfg0","pricing_plan_id":"cebpf4jnsgd1na2vs0mg"},{"bike_id":"aff07d9c-d50e-4605-b148-cc991a08c00a","system_id":"levelo_inurba_marseille","lat":43.262109,"lon":5.374426,"is_reserved":false,"is_disabled":false,"rental_uris":{"android":"levelo://app?vid=aff07d9c-d50e-4605-b148-cc991a08c00a","ios":"levelo://app?vid=aff07d9c-d50e-4605-b148-cc991a08c00a"},"vehicle_type_id":"4","last_reported":1770140572,"current_range_meters":4800,"station_id":"ce4bhgp2rcd13ifvqfc0","pricing_plan_id":"cebpf4jnsgd1na2vs0mg"},{"bike_id":"fb617e3e-c97a-4321-9d26-fe095c09d7e0","system_id":"levelo_inurba_marseille","lat":43.2582,"lon":5.39437,"is_reserved":false,"is_disabled":false,"rental_uris":{"android":"levelo://app?vid=fb617e3e-c97a-4321-9d26-fe095c09d7e0","ios":"levelo://app?vid=fb617e3e-c97a-4321-9d26-fe095c09d7e0"},"vehicle_type_id":"4","last_reported":1770140572,"current_range_meters":4800,"station_id":"ce4bhip2rcd13ifvqft0","pricing_plan_id":"cebpf4jnsgd1na2vs0mg"},{"bike_id":"eee54609-a6c8-4bc7-a936-6a1b442519d3","system_id":"levelo_inurba_marseille","lat":43.31043,"lon":5.37182,"is_reserved":false,"is_disabled":false,"rental_uris":{"android":"levelo://app?vid=eee54609-a6c8-4bc7-a936-6a1b442519d3","ios":"levelo://app?vid=eee54609-a6c8-4bc7-a936-6a1b442519d3"},"vehicle_type_id":"4","last_reported":1770140572,"current_range_meters":5600,"station_id":"st_d4kl2rp97mjs73e7tdfg","pricing_plan_id":"cebpf4jnsgd1na2vs0mg"},{"bike_id":"eb1b2124-84d2-467d-b1f5-56516dcfd958","system_id":"levelo_inurba_marseille","lat":43.211954,"lon":5.350721,"is_reserved":false,"is_disabled":false,"rental_uris":{"android":"levelo://app?vid=eb1b2124-84d2-467d-b1f5-56516dcfd958","ios":"levelo://app?vid=eb1b2124-84d2-467d-b1f5-56516dcfd958"},"vehicle_type_id":"4","last_reported":1770140572,"current_range_meters":5600,"station_id":"","pricing_plan_id":"cebpf4jnsgd1na2vs0mg"},{"bike_id":"dca00d17-5f43-4b0e-8965-10c3ef574738","system_id":"levelo_inurba_marseille","lat":43.26029,"lon":5.37551,"is_reserved":false,"is_disabled":false,"rental_uris":{"android":"levelo://app?vid=dca00d17-5f43-4b0e-8965-10c3ef574738","ios":"levelo://app?vid=dca00d17-5f43-4b0e-8965-10c3ef574738"},"vehicle_type_id":"4","last_reported":1770140572,"current_range_meters":5600,"station_id":"ce4bhgh2rcd13ifvqfa0","pricing_plan_id":"cebpf4jnsgd1na2vs0mg"},{"bike_id":"6ddf7e79-fc33-436a-9f2e-0297899e5607","system_id":"levelo_inurba_marseille","lat":43.28471,"lon":5.48392,"is_reserved":false,"is_disabled":false,"rental_uris":{"android":"levelo://app?vid=6ddf7e79-fc33-436a-9f2e-0297899e5607","ios":"levelo://app?vid=6ddf7e79-fc33-436a-9f2e-0297899e5607"},"vehicle_type_id":"4","last_reported":1770140572,"current_range_meters":5600,"station_id":"","pricing_plan_id":"cebpf4jnsgd1na2vs0mg"},{"bike_id":"03cfe8ff-bad7-4324-a169-164f68b4c260","system_id":"levelo_inurba_marseille","lat":43.337444,"lon":5.374475,"is_reserved":false,"is_disabled":false,"rental_uris":{"android":"levelo://app?vid=03cfe8ff-bad7-4324-a169-164f68b4c260","ios":"levelo://app?vid=03cfe8ff-bad7-4324-a169-164f68b4c260"},"vehicle_type_id":"4","last_reported":1770140572,"current_range_meters":5600,"station_id":"","pricing_plan_id":"cebpf4jnsgd1na2vs0mg"},{"bike_id":"77ee2386-41ea-476e-b76b-f435873f6247","system_id":"levelo_inurba_marseille","lat":43.243876,"lon":5.370565,"is_reserved":false,"is_disabled":false,"rental_uris":{"android":"levelo://app?vid=77ee2386-41ea-476e-b76b-f435873f6247","ios":"levelo://app?vid=77ee2386-41ea-476e-b76b-f435873f6247"},"vehicle_type_id":"4","last_reported":1770140572,"current_range_meters":5600,"station_id":"ce4bhhh2rcd13ifvqfk0","pricing_plan_id":"cebpf4jnsgd1na2vs0mg"},{"bike_id":"06677b11-dde6-438b-a130-b8783dcb4342","system_id":"levelo_inurba_marseille","lat":43.23183,"lon":5.39988,"is_reserved":false,"is_disabled":false,"rental_uris":{"android":"levelo://app?vid=06677b11-dde6-438b-a130-b8783dcb4342","ios":"levelo://app?vid=06677b11-dde6-438b-a130-b8783dcb4342"},"vehicle_type_id":"4","last_reported":1770140572,"current_range_meters":5600,"station_id":"ce4bhn12rcd13ifvqgqg","pricing_plan_id":"cebpf4jnsgd1na2vs0mg"},{"bike_id":"8a5f3891-1a51-4d6d-9072-50fac6d063d2","system_id":"levelo_inurba_marseille","lat":43.25502,"lon":5.37654,"is_reserved":false,"is_disabled":false,"rental_uris":{"android":"levelo://app?vid=8a5f3891-1a51-4d6d-9072-50fac6d063d2","ios":"levelo://app?vid=8a5f3891-1a51-4d6d-9072-50fac6d063d2"},"vehicle_type_id":"4","last_reported":1770140572,"current_range_meters":5600,"station_id":"ce4bhh12rcd13ifvqff0","pricing_plan_id":"cebpf4jnsgd1na2vs0mg"},{"bike_id":"56e0dd43-db59-4a14-ac0c-d950e7030a9a","system_id":"levelo_inurba_marseille","lat":43.333574,"lon":5.410918,"is_reserved":false,"is_disabled":false,"rental_uris":{"android":"levelo://app?vid=56e0dd43-db59-4a14-ac0c-d950e7030a9a","ios":"levelo://app?vid=56e0dd43-db59-4a14-ac0c-d950e7030a9a"},"vehicle_type_id":"4","last_reported":1770140572,"current_range_meters":5600,"station_id":"","pricing_plan_id":"cebpf4jnsgd1na2vs0mg"},{"bike_id":"7f62c33b-7891-4f4a-8eaa-f654babe6969","system_id":"levelo_inurba_marseille","lat":43.299095,"lon":5.381529,"is_reserved":false,"is_disabled":false,"rental_uris":{"android":"levelo://app?vid=7f62c33b-7891-4f4a-8eaa-f654babe6969","ios":"levelo://app?vid=7f62c33b-7891-4f4a-8eaa-f654babe6969"},"vehicle_type_id":"4","last_reported":1770140572,"current_range_meters":5600,"station_id":"ce4bgj12rcd13ifvqbc0","pricing_plan_id":"cebpf4jnsgd1na2vs0mg"},{"bike_id":"c5cba592-c8ea-4299-867c-e35aceae73bc","system_id":"levelo_inurba_marseille","lat":43.31764,"lon":5.39013,"is_reserved":false,"is_disabled":false,"rental_uris":{"android":"levelo://app?vid=c5cba592-c8ea-4299-867c-e35aceae73bc","ios":"levelo://app?vid=c5cba592-c8ea-4299-867c-e35aceae73bc"},"vehicle_type_id":"4","last_reported":1770140572,"current_range_meters":5600,"station_id":"ce4bhqp2rcd13ifvqhng","pricing_plan_id":"cebpf4jnsgd1na2vs0mg"},{"bike_id":"cc7d6a58-2c60-4246-b3ec-60b87c8871b8","system_id":"levelo_inurba_marseille","lat":43.28413,"lon":5.3751,"is_reserved":false,"is_disabled":true,"rental_uris":{"android":"levelo://app?vid=cc7d6a58-2c60-4246-b3ec-60b87c8871b8","ios":"levelo://app?vid=cc7d6a58-2c60-4246-b3ec-60b87c8871b8"},"vehicle_type_id":"4","last_reported":1770140572,"current_range_meters":5600,"station_id":"ce4bh412rcd13ifvqds0","pricing_plan_id":"cebpf4jnsgd1na2vs0mg"},{"bike_id":"27bbd56c-f654-4646-92cc-cd52ec44a6e3","system_id":"levelo_inurba_marseille","lat":43.29093,"lon":5.38144,"is_reserved":false,"is_disabled":false,"rental_uris":{"android":"levelo://app?vid=27bbd56c-f654-4646-92cc-cd52ec44a6e3","ios":"levelo://app?vid=27bbd56c-f654-4646-92cc-cd52ec44a6e3"},"vehicle_type_id":"4","last_reported":1770140572,"current_range_meters":5600,"station_id":"ce4bh512rcd13ifvqe2g","pricing_plan_id":"cebpf4jnsgd1na2vs0mg"},{"bike_id":"04f2b816-4fdb-416c-8cd6-0321ddea7cc1","system_id":"levelo_inurba_marseille","lat":43.263,"lon":5.39885,"is_reserved":false,"is_disabled":false,"rental_uris":{"android":"levelo://app?vid=04f2b816-4fdb-416c-8cd6-0321ddea7cc1","ios":"levelo://app?vid=04f2b816-4fdb-416c-8cd6-0321ddea7cc1"},"vehicle_type_id":"4","last_reported":1770140572,"current_range_meters":6000,"station_id":"ce4bgs12rcd13ifvqcag","pricing_plan_id":"cebpf4jnsgd1na2vs0mg"},{"bike_id":"7830c5a0-6716-49ce-9fb9-030a83055837","system_id":"levelo_inurba_marseille","lat":43.30317,"lon":5.3691,"is_reserved":false,"is_disabled":true,"rental_uris":{"android":"levelo://app?vid=7830c5a0-6716-49ce-9fb9-030a83055837","ios":"levelo://app?vid=7830c5a0-6716-49ce-9fb9-030a83055837"},"vehicle_type_id":"4","last_reported":1770140572,"current_range_meters":6000,"station_id":"ce4bgqh2rcd13ifvqc5g","pricing_plan_id":"cebpf4jnsgd1na2vs0mg"},{"bike_id":"bec59f38-3f81-4916-9951-19165a9e58f2","system_id":"levelo_inurba_marseille","lat":43.279777,"lon":5.398357,"is_reserved":false,"is_disabled":false,"rental_uris":{"android":"levelo://app?vid=bec59f38-3f81-4916-9951-19165a9e58f2","ios":"levelo://app?vid=bec59f38-3f81-4916-9951-19165a9e58f2"},"vehicle_type_id":"4","last_reported":1770140572,"current_range_meters":6000,"station_id":"ce4bho12rcd13ifvqh2g","pricing_plan_id":"cebpf4jnsgd1na2vs0mg"},{"bike_id":"9e057795-08d0-428c-a4d6-14e223435515","system_id":"levelo_inurba_marseille","lat":43.24586,"lon":5.37366,"is_reserved":false,"is_disabled":false,"rental_uris":{"android":"levelo://app?vid=9e057795-08d0-428c-a4d6-14e223435515","ios":"levelo://app?vid=9e057795-08d0-428c-a4d6-14e223435515"},"vehicle_type_id":"4","last_reported":1770140572,"current_range_meters":6000,"station_id":"","pricing_plan_id":"cebpf4jnsgd1na2vs0mg"},{"bike_id":"141bd124-c814-48f9-b2f7-d0b84fea7cf1","system_id":"levelo_inurba_marseille","lat":43.2482,"lon":5.37448,"is_reserved":false,"is_disabled":false,"rental_uris":{"android":"levelo://app?vid=141bd124-c814-48f9-b2f7-d0b84fea7cf1","ios":"levelo://app?vid=141bd124-c814-48f9-b2f7-d0b84fea7cf1"},"vehicle_type_id":"4","last_reported":1770140572,"current_range_meters":6000,"station_id":"ce4bhgh2rcd13ifvqfb0","pricing_plan_id":"cebpf4jnsgd1na2vs0mg"},{"bike_id":"f1c6a959-67a6-4e9f-b9a0-b504dce9c99b","system_id":"levelo_inurba_marseille","lat":43.28461,"lon":5.35896,"is_reserved":false,"is_disabled":false,"rental_uris":{"android":"levelo://app?vid=f1c6a959-67a6-4e9f-b9a0-b504dce9c99b","ios":"levelo://app?vid=f1c6a959-67a6-4e9f-b9a0-b504dce9c99b"},"vehicle_type_id":"4","last_reported":1770140572,"current_range_meters":6000,"station_id":"ce4bhah2rcd13ifvqei0","pricing_plan_id":"cebpf4jnsgd1na2vs0mg"},{"bike_id":"e38f544f-f996-477c-b7d2-6313026ffb89","system_id":"levelo_inurba_marseille","lat":43.24812,"lon":5.37463,"is_reserved":false,"is_disabled":false,"rental_uris":{"android":"levelo://app?vid=e38f544f-f996-477c-b7d2-6313026ffb89","ios":"levelo://app?vid=e38f544f-f996-477c-b7d2-6313026ffb89"},"vehicle_type_id":"4","last_reported":1770140572,"current_range_meters":6000,"station_id":"ce4bhgh2rcd13ifvqfb0","pricing_plan_id":"cebpf4jnsgd1na2vs0mg"},{"bike_id":"a3d3a949-e6a8-49ab-9f8a-4cfb992af1b3","system_id":"levelo_inurba_marseille","lat":43.2119,"lon":5.3507,"is_reserved":false,"is_disabled":false,"rental_uris":{"android":"levelo://app?vid=a3d3a949-e6a8-49ab-9f8a-4cfb992af1b3","ios":"levelo://app?vid=a3d3a949-e6a8-49ab-9f8a-4cfb992af1b3"},"vehicle_type_id":"4","last_reported":1770140572,"current_range_meters":6000,"station_id":"","pricing_plan_id":"cebpf4jnsgd1na2vs0mg"},{"bike_id":"e6fe5b1f-c861-4edc-882d-3c4720418d29","system_id":"levelo_inurba_marseille","lat":43.2842,"lon":5.34979,"is_reserved":false,"is_disabled":false,"rental_uris":{"android":"levelo://app?vid=e6fe5b1f-c861-4edc-882d-3c4720418d29","ios":"levelo://app?vid=e6fe5b1f-c861-4edc-882d-3c4720418d29"},"vehicle_type_id":"4","last_reported":1770140572,"current_range_meters":6000,"station_id":"ce4bhbh2rcd13ifvqepg","pricing_plan_id":"cebpf4jnsgd1na2vs0mg"},{"bike_id":"9027f68c-4daa-4e10-848d-180d3b6c7003","system_id":"levelo_inurba_marseille","lat":43.29716,"lon":5.37703,"is_reserved":false,"is_disabled":false,"rental_uris":{"android":"levelo://app?vid=9027f68c-4daa-4e10-848d-180d3b6c7003","ios":"levelo://app?vid=9027f68c-4daa-4e10-848d-180d3b6c7003"},"vehicle_type_id":"4","last_reported":1770140572,"current_range_meters":6000,"station_id":"ce4bgkh2rcd13ifvqbl0","pricing_plan_id":"cebpf4jnsgd1na2vs0mg"},{"bike_id":"2b9244bf-a07a-41ec-9351-3ae2ffb7620f","system_id":"levelo_inurba_marseille","lat":43.30864,"lon":5.39654,"is_reserved":false,"is_disabled":false,"rental_uris":{"android":"levelo://app?vid=2b9244bf-a07a-41ec-9351-3ae2ffb7620f","ios":"levelo://app?vid=2b9244bf-a07a-41ec-9351-3ae2ffb7620f"},"vehicle_type_id":"4","last_reported":1770140572,"current_range_meters":6000,"station_id":"ce4bh012rcd13ifvqcv0","pricing_plan_id":"cebpf4jnsgd1na2vs0mg"},{"bike_id":"f8e7e4d9-f87a-42a2-9144-b6886b943f25","system_id":"levelo_inurba_marseille","lat":43.24994,"lon":5.38944,"is_reserved":false,"is_disabled":false,"rental_uris":{"android":"levelo://app?vid=f8e7e4d9-f87a-42a2-9144-b6886b943f25","ios":"levelo://app?vid=f8e7e4d9-f87a-42a2-9144-b6886b943f25"},"vehicle_type_id":"4","last_reported":1770140572,"current_range_meters":6400,"station_id":"ce4bhgp2rcd13ifvqfd0","pricing_plan_id":"cebpf4jnsgd1na2vs0mg"},{"bike_id":"d11028fb-2fa2-4444-b490-b0d1c1da76b7","system_id":"levelo_inurba_marseille","lat":43.29167,"lon":5.37155,"is_reserved":false,"is_disabled":false,"rental_uris":{"android":"levelo://app?vid=d11028fb-2fa2-4444-b490-b0d1c1da76b7","ios":"levelo://app?vid=d11028fb-2fa2-4444-b490-b0d1c1da76b7"},"vehicle_type_id":"4","last_reported":1770140572,"current_range_meters":6400,"station_id":"ce4bha92rcd13ifvqeh0","pricing_plan_id":"cebpf4jnsgd1na2vs0mg"},{"bike_id":"31a22661-eea5-4387-90b0-8b86565c6826","system_id":"levelo_inurba_marseille","lat":43.29704,"lon":5.36602,"is_reserved":false,"is_disabled":false,"rental_uris":{"android":"levelo://app?vid=31a22661-eea5-4387-90b0-8b86565c6826","ios":"levelo://app?vid=31a22661-eea5-4387-90b0-8b86565c6826"},"vehicle_type_id":"4","last_reported":1770140572,"current_range_meters":6400,"station_id":"ce4bgn12rcd13ifvqbt0","pricing_plan_id":"cebpf4jnsgd1na2vs0mg"},{"bike_id":"fd4003f9-ae57-43d9-af54-09e855d38b22","system_id":"levelo_inurba_marseille","lat":43.28541,"lon":5.44084,"is_reserved":false,"is_disabled":false,"rental_uris":{"android":"levelo://app?vid=fd4003f9-ae57-43d9-af54-09e855d38b22","ios":"levelo://app?vid=fd4003f9-ae57-43d9-af54-09e855d38b22"},"vehicle_type_id":"4","last_reported":1770140572,"current_range_meters":6400,"station_id":"st_d3j3df2ikq2c7380ej80","pricing_plan_id":"cebpf4jnsgd1na2vs0mg"},{"bike_id":"c42f2b39-ad01-446e-8300-846276cf6895","system_id":"levelo_inurba_marseille","lat":43.3055,"lon":5.36539,"is_reserved":false,"is_disabled":false,"rental_uris":{"android":"levelo://app?vid=c42f2b39-ad01-446e-8300-846276cf6895","ios":"levelo://app?vid=c42f2b39-ad01-446e-8300-846276cf6895"},"vehicle_type_id":"4","last_reported":1770140572,"current_range_meters":6400,"station_id":"ce4bgs12rcd13ifvqcag","pricing_plan_id":"cebpf4jnsgd1na2vs0mg"},{"bike_id":"da80b9ad-386b-4c70-a2af-dab01c3d7e83","system_id":"levelo_inurba_marseille","lat":43.26035,"lon":5.3754,"is_reserved":false,"is_disabled":false,"rental_uris":{"android":"levelo://app?vid=da80b9ad-386b-4c70-a2af-dab01c3d7e83","ios":"levelo://app?vid=da80b9ad-386b-4c70-a2af-dab01c3d7e83"},"vehicle_type_id":"4","last_reported":1770140572,"current_range_meters":6400,"station_id":"ce4bhgh2rcd13ifvqfa0","pricing_plan_id":"cebpf4jnsgd1na2vs0mg"},{"bike_id":"bcec4f6c-e07c-44d5-955d-2402cc53b633","system_id":"levelo_inurba_marseille","lat":43.29532,"lon":5.39042,"is_reserved":false,"is_disabled":false,"rental_uris":{"android":"levelo://app?vid=bcec4f6c-e07c-44d5-955d-2402cc53b633","ios":"levelo://app?vid=bcec4f6c-e07c-44d5-955d-2402cc53b633"},"vehicle_type_id":"4","last_reported":1770140572,"current_range_meters":6400,"station_id":"ce4bh3p2rcd13ifvqdp0","pricing_plan_id":"cebpf4jnsgd1na2vs0mg"},{"bike_id":"62f875f6-02bf-48e4-9050-a7cb2a7d34ab","system_id":"levelo_inurba_marseille","lat":43.29306,"lon":5.37458,"is_reserved":false,"is_disabled":false,"rental_uris":{"android":"levelo://app?vid=62f875f6-02bf-48e4-9050-a7cb2a7d34ab","ios":"levelo://app?vid=62f875f6-02bf-48e4-9050-a7cb2a7d34ab"},"vehicle_type_id":"4","last_reported":1770140572,"current_range_meters":6400,"station_id":"ce4bgi12rcd13ifvqb70","pricing_plan_id":"cebpf4jnsgd1na2vs0mg"},{"bike_id":"5d2a7df9-4ddf-4885-8075-b7755ef05fb8","system_id":"levelo_inurba_marseille","lat":43.23038,"lon":5.40294,"is_reserved":false,"is_disabled":false,"rental_uris":{"android":"levelo://app?vid=5d2a7df9-4ddf-4885-8075-b7755ef05fb8","ios":"levelo://app?vid=5d2a7df9-4ddf-4885-8075-b7755ef05fb8"},"vehicle_type_id":"4","last_reported":1770140572,"current_range_meters":6400,"station_id":"","pricing_plan_id":"cebpf4jnsgd1na2vs0mg"},{"bike_id":"7de714e1-e1e3-4cef-a665-bf94e4caea8c","system_id":"levelo_inurba_marseille","lat":43.2257,"lon":5.41625,"is_reserved":false,"is_disabled":false,"rental_uris":{"android":"levelo://app?vid=7de714e1-e1e3-4cef-a665-bf94e4caea8c","ios":"levelo://app?vid=7de714e1-e1e3-4cef-a665-bf94e4caea8c"},"vehicle_type_id":"4","last_reported":1770140572,"current_range_meters":6400,"station_id":"st_d2o4gvlbi1j2169b742g","pricing_plan_id":"cebpf4jnsgd1na2vs0mg"},{"bike_id":"413ca1e5-515a-4601-b78b-8729f8f0fbfd","system_id":"levelo_inurba_marseille","lat":43.301187,"lon":5.431223,"is_reserved":false,"is_disabled":false,"rental_uris":{"android":"levelo://app?vid=413ca1e5-515a-4601-b78b-8729f8f0fbfd","ios":"levelo://app?vid=413ca1e5-515a-4601-b78b-8729f8f0fbfd"},"vehicle_type_id":"4","last_reported":1770140572,"current_range_meters":6400,"station_id":"st_d3js3co5814s73ftftug","pricing_plan_id":"cebpf4jnsgd1na2vs0mg"},{"bike_id":"d96b5276-ddb9-4dda-bf61-4ae90512437d","system_id":"levelo_inurba_marseille","lat":43.24169,"lon":5.36391,"is_reserved":false,"is_disabled":false,"rental_uris":{"android":"levelo://app?vid=d96b5276-ddb9-4dda-bf61-4ae90512437d","ios":"levelo://app?vid=d96b5276-ddb9-4dda-bf61-4ae90512437d"},"vehicle_type_id":"4","last_reported":1770140572,"current_range_meters":6400,"station_id":"cpo36qri1sfpv3e86is0","pricing_plan_id":"cebpf4jnsgd1na2vs0mg"},{"bike_id":"549d637b-91c5-48ec-83fa-865a463b6a4b","system_id":"levelo_inurba_marseille","lat":43.23184,"lon":5.35544,"is_reserved":false,"is_disabled":false,"rental_uris":{"android":"levelo://app?vid=549d637b-91c5-48ec-83fa-865a463b6a4b","ios":"levelo://app?vid=549d637b-91c5-48ec-83fa-865a463b6a4b"},"vehicle_type_id":"4","last_reported":1770140572,"current_range_meters":6400,"station_id":"ce4bhu92rcd13ifvqi70","pricing_plan_id":"cebpf4jnsgd1na2vs0mg"},{"bike_id":"34e4497e-004e-4d33-b563-df43c3f1dff0","system_id":"levelo_inurba_marseille","lat":43.29159,"lon":5.38835,"is_reserved":false,"is_disabled":false,"rental_uris":{"android":"levelo://app?vid=34e4497e-004e-4d33-b563-df43c3f1dff0","ios":"levelo://app?vid=34e4497e-004e-4d33-b563-df43c3f1dff0"},"vehicle_type_id":"4","last_reported":1770140572,"current_range_meters":6400,"station_id":"ce4bh4p2rcd13ifvqe0g","pricing_plan_id":"cebpf4jnsgd1na2vs0mg"},{"bike_id":"deb9e4eb-a481-4dbd-9838-7e21c4114a77","system_id":"levelo_inurba_marseille","lat":43.24645,"lon":5.38876,"is_reserved":false,"is_disabled":false,"rental_uris":{"android":"levelo://app?vid=deb9e4eb-a481-4dbd-9838-7e21c4114a77","ios":"levelo://app?vid=deb9e4eb-a481-4dbd-9838-7e21c4114a77"},"vehicle_type_id":"4","last_reported":1770140572,"current_range_meters":6400,"station_id":"ce4bhg12rcd13ifvqf60","pricing_plan_id":"cebpf4jnsgd1na2vs0mg"},{"bike_id":"40c4bd28-bd00-4ad6-9a95-78f147c53e6a","system_id":"levelo_inurba_marseille","lat":43.27435,"lon":5.39359,"is_reserved":false,"is_disabled":false,"rental_uris":{"android":"levelo://app?vid=40c4bd28-bd00-4ad6-9a95-78f147c53e6a","ios":"levelo://app?vid=40c4bd28-bd00-4ad6-9a95-78f147c53e6a"},"vehicle_type_id":"4","last_reported":1770140572,"current_range_meters":6400,"station_id":"ce4bhdp2rcd13ifvqf20","pricing_plan_id":"cebpf4jnsgd1na2vs0mg"},{"bike_id":"06a611b0-c181-457c-8aff-e8888bc2dc2e","system_id":"levelo_inurba_marseille","lat":43.31329,"lon":5.39682,"is_reserved":false,"is_disabled":false,"rental_uris":{"android":"levelo://app?vid=06a611b0-c181-457c-8aff-e8888bc2dc2e","ios":"levelo://app?vid=06a611b0-c181-457c-8aff-e8888bc2dc2e"},"vehicle_type_id":"4","last_reported":1770140572,"current_range_meters":6400,"station_id":"ce4bgvp2rcd13ifvqcu0","pricing_plan_id":"cebpf4jnsgd1na2vs0mg"},{"bike_id":"c269eff6-7414-4fb8-b35a-8132e5c63b79","system_id":"levelo_inurba_marseille","lat":43.25008,"lon":5.38918,"is_reserved":false,"is_disabled":false,"rental_uris":{"android":"levelo://app?vid=c269eff6-7414-4fb8-b35a-8132e5c63b79","ios":"levelo://app?vid=c269eff6-7414-4fb8-b35a-8132e5c63b79"},"vehicle_type_id":"4","last_reported":1770140572,"current_range_meters":6400,"station_id":"ce4bhgp2rcd13ifvqfd0","pricing_plan_id":"cebpf4jnsgd1na2vs0mg"},{"bike_id":"d0b59fd4-6758-4158-b731-7b62c9fb06fe","system_id":"levelo_inurba_marseille","lat":43.28843,"lon":5.35853,"is_reserved":false,"is_disabled":false,"rental_uris":{"android":"levelo://app?vid=d0b59fd4-6758-4158-b731-7b62c9fb06fe","ios":"levelo://app?vid=d0b59fd4-6758-4158-b731-7b62c9fb06fe"},"vehicle_type_id":"4","last_reported":1770140572,"current_range_meters":6800,"station_id":"ce4bhb12rcd13ifvqem0","pricing_plan_id":"cebpf4jnsgd1na2vs0mg"},{"bike_id":"d2deda44-ef1c-4c14-82da-9e7401dce45a","system_id":"levelo_inurba_marseille","lat":43.25584,"lon":5.38231,"is_reserved":false,"is_disabled":false,"rental_uris":{"android":"levelo://app?vid=d2deda44-ef1c-4c14-82da-9e7401dce45a","ios":"levelo://app?vid=d2deda44-ef1c-4c14-82da-9e7401dce45a"},"vehicle_type_id":"4","last_reported":1770140572,"current_range_meters":6800,"station_id":"ce4bhih2rcd13ifvqfs0","pricing_plan_id":"cebpf4jnsgd1na2vs0mg"},{"bike_id":"ab5b4f9f-ad6f-4b21-896b-3d7e4bb28591","system_id":"levelo_inurba_marseille","lat":43.26191,"lon":5.3744,"is_reserved":false,"is_disabled":false,"rental_uris":{"android":"levelo://app?vid=ab5b4f9f-ad6f-4b21-896b-3d7e4bb28591","ios":"levelo://app?vid=ab5b4f9f-ad6f-4b21-896b-3d7e4bb28591"},"vehicle_type_id":"4","last_reported":1770140572,"current_range_meters":6800,"station_id":"ce4bhgp2rcd13ifvqfc0","pricing_plan_id":"cebpf4jnsgd1na2vs0mg"},{"bike_id":"151047fe-b117-41cf-9416-4f91d0d3c1a9","system_id":"levelo_inurba_marseille","lat":43.31856,"lon":5.36908,"is_reserved":false,"is_disabled":false,"rental_uris":{"android":"levelo://app?vid=151047fe-b117-41cf-9416-4f91d0d3c1a9","ios":"levelo://app?vid=151047fe-b117-41cf-9416-4f91d0d3c1a9"},"vehicle_type_id":"4","last_reported":1770140572,"current_range_meters":6800,"station_id":"","pricing_plan_id":"cebpf4jnsgd1na2vs0mg"},{"bike_id":"67949cb0-ad73-42aa-8494-c2a7d6735f87","system_id":"levelo_inurba_marseille","lat":43.31246,"lon":5.36834,"is_reserved":false,"is_disabled":false,"rental_uris":{"android":"levelo://app?vid=67949cb0-ad73-42aa-8494-c2a7d6735f87","ios":"levelo://app?vid=67949cb0-ad73-42aa-8494-c2a7d6735f87"},"vehicle_type_id":"4","last_reported":1770140572,"current_range_meters":6800,"station_id":"ce4bgl92rcd13ifvqbq0","pricing_plan_id":"cebpf4jnsgd1na2vs0mg"},{"bike_id":"51a5c4c8-0bea-42dd-80d0-887c29d0356c","system_id":"levelo_inurba_marseille","lat":43.27569,"lon":5.38415,"is_reserved":false,"is_disabled":false,"rental_uris":{"android":"levelo://app?vid=51a5c4c8-0bea-42dd-80d0-887c29d0356c","ios":"levelo://app?vid=51a5c4c8-0bea-42dd-80d0-887c29d0356c"},"vehicle_type_id":"4","last_reported":1770140572,"current_range_meters":6800,"station_id":"ce4bhh92rcd13ifvqfi0","pricing_plan_id":"cebpf4jnsgd1na2vs0mg"},{"bike_id":"c3ba0fed-3d29-4191-b8a3-c899b1e9e5ad","system_id":"levelo_inurba_marseille","lat":43.25571,"lon":5.38224,"is_reserved":false,"is_disabled":false,"rental_uris":{"android":"levelo://app?vid=c3ba0fed-3d29-4191-b8a3-c899b1e9e5ad","ios":"levelo://app?vid=c3ba0fed-3d29-4191-b8a3-c899b1e9e5ad"},"vehicle_type_id":"4","last_reported":1770140572,"current_range_meters":6800,"station_id":"ce4bhih2rcd13ifvqfs0","pricing_plan_id":"cebpf4jnsgd1na2vs0mg"},{"bike_id":"da0843c3-f157-4f67-9a8c-eac13c43e834","system_id":"levelo_inurba_marseille","lat":43.29023,"lon":5.38641,"is_reserved":false,"is_disabled":false,"rental_uris":{"android":"levelo://app?vid=da0843c3-f157-4f67-9a8c-eac13c43e834","ios":"levelo://app?vid=da0843c3-f157-4f67-9a8c-eac13c43e834"},"vehicle_type_id":"4","last_reported":1770140572,"current_range_meters":6800,"station_id":"ce4bh4p2rcd13ifvqe0g","pricing_plan_id":"cebpf4jnsgd1na2vs0mg"},{"bike_id":"30018880-defb-4e1d-b4b9-524f673acfb8","system_id":"levelo_inurba_marseille","lat":43.29759,"lon":5.42778,"is_reserved":false,"is_disabled":false,"rental_uris":{"android":"levelo://app?vid=30018880-defb-4e1d-b4b9-524f673acfb8","ios":"levelo://app?vid=30018880-defb-4e1d-b4b9-524f673acfb8"},"vehicle_type_id":"4","last_reported":1770140572,"current_range_meters":6800,"station_id":"st_d3md5207bmas73dh9klg","pricing_plan_id":"cebpf4jnsgd1na2vs0mg"},{"bike_id":"3492d7e4-2dea-4cd5-b457-298b87f5c159","system_id":"levelo_inurba_marseille","lat":43.24469,"lon":5.42532,"is_reserved":false,"is_disabled":false,"rental_uris":{"android":"levelo://app?vid=3492d7e4-2dea-4cd5-b457-298b87f5c159","ios":"levelo://app?vid=3492d7e4-2dea-4cd5-b457-298b87f5c159"},"vehicle_type_id":"4","last_reported":1770140572,"current_range_meters":6800,"station_id":"st_d4a3vfp97mjs738cd8kg","pricing_plan_id":"cebpf4jnsgd1na2vs0mg"},{"bike_id":"edcb87a3-89fd-4c81-b16f-a9efdb1bc6b7","system_id":"levelo_inurba_marseille","lat":43.27236,"lon":5.38309,"is_reserved":false,"is_disabled":true,"rental_uris":{"android":"levelo://app?vid=edcb87a3-89fd-4c81-b16f-a9efdb1bc6b7","ios":"levelo://app?vid=edcb87a3-89fd-4c81-b16f-a9efdb1bc6b7"},"vehicle_type_id":"4","last_reported":1770140572,"current_range_meters":6800,"station_id":"","pricing_plan_id":"cebpf4jnsgd1na2vs0mg"},{"bike_id":"fe1ff661-c73e-4d40-82f4-d79ba766b135","system_id":"levelo_inurba_marseille","lat":43.29592,"lon":5.37715,"is_reserved":false,"is_disabled":false,"rental_uris":{"android":"levelo://app?vid=fe1ff661-c73e-4d40-82f4-d79ba766b135","ios":"levelo://app?vid=fe1ff661-c73e-4d40-82f4-d79ba766b135"},"vehicle_type_id":"4","last_reported":1770140572,"current_range_meters":6800,"station_id":"ce4bgi92rcd13ifvqb90","pricing_plan_id":"cebpf4jnsgd1na2vs0mg"},{"bike_id":"5c018925-f389-444d-8dfd-b41c4cf50aed","system_id":"levelo_inurba_marseille","lat":43.29793,"lon":5.37097,"is_reserved":false,"is_disabled":false,"rental_uris":{"android":"levelo://app?vid=5c018925-f389-444d-8dfd-b41c4cf50aed","ios":"levelo://app?vid=5c018925-f389-444d-8dfd-b41c4cf50aed"},"vehicle_type_id":"4","last_reported":1770140572,"current_range_meters":6800,"station_id":"ce4bgop2rcd13ifvqc1g","pricing_plan_id":"cebpf4jnsgd1na2vs0mg"},{"bike_id":"d6be30b0-4a27-49b9-ae98-4481692184c6","system_id":"levelo_inurba_marseille","lat":43.26579,"lon":5.39013,"is_reserved":false,"is_disabled":false,"rental_uris":{"android":"levelo://app?vid=d6be30b0-4a27-49b9-ae98-4481692184c6","ios":"levelo://app?vid=d6be30b0-4a27-49b9-ae98-4481692184c6"},"vehicle_type_id":"4","last_reported":1770140572,"current_range_meters":6800,"station_id":"ce4bhe12rcd13ifvqf30","pricing_plan_id":"cebpf4jnsgd1na2vs0mg"},{"bike_id":"4651bd72-2cc4-46af-9f28-98a50310723a","system_id":"levelo_inurba_marseille","lat":43.31614,"lon":5.39438,"is_reserved":false,"is_disabled":false,"rental_uris":{"android":"levelo://app?vid=4651bd72-2cc4-46af-9f28-98a50310723a","ios":"levelo://app?vid=4651bd72-2cc4-46af-9f28-98a50310723a"},"vehicle_type_id":"4","last_reported":1770140572,"current_range_meters":6800,"station_id":"","pricing_plan_id":"cebpf4jnsgd1na2vs0mg"},{"bike_id":"5396fda1-c3a0-4d51-8ba0-cfe497a166d7","system_id":"levelo_inurba_marseille","lat":43.26557,"lon":5.38986,"is_reserved":false,"is_disabled":false,"rental_uris":{"android":"levelo://app?vid=5396fda1-c3a0-4d51-8ba0-cfe497a166d7","ios":"levelo://app?vid=5396fda1-c3a0-4d51-8ba0-cfe497a166d7"},"vehicle_type_id":"4","last_reported":1770140572,"current_range_meters":6800,"station_id":"ce4bhe12rcd13ifvqf30","pricing_plan_id":"cebpf4jnsgd1na2vs0mg"},{"bike_id":"0359242e-7515-4c7d-96bf-787257881611","system_id":"levelo_inurba_marseille","lat":43.269562,"lon":5.386319,"is_reserved":false,"is_disabled":false,"rental_uris":{"android":"levelo://app?vid=0359242e-7515-4c7d-96bf-787257881611","ios":"levelo://app?vid=0359242e-7515-4c7d-96bf-787257881611"},"vehicle_type_id":"4","last_reported":1770140572,"current_range_meters":6800,"station_id":"ce4bhh92rcd13ifvqfh0","pricing_plan_id":"cebpf4jnsgd1na2vs0mg"},{"bike_id":"63b02aee-1d6a-499d-9cb5-6efa2ebf1a07","system_id":"levelo_inurba_marseille","lat":43.30354,"lon":5.41863,"is_reserved":false,"is_disabled":false,"rental_uris":{"android":"levelo://app?vid=63b02aee-1d6a-499d-9cb5-6efa2ebf1a07","ios":"levelo://app?vid=63b02aee-1d6a-499d-9cb5-6efa2ebf1a07"},"vehicle_type_id":"4","last_reported":1770140572,"current_range_meters":7200,"station_id":"ce4bhop2rcd13ifvqh7g","pricing_plan_id":"cebpf4jnsgd1na2vs0mg"},{"bike_id":"dcaa4a8f-eeeb-4a65-b90b-db85565e00da","system_id":"levelo_inurba_marseille","lat":43.24177,"lon":5.3638,"is_reserved":false,"is_disabled":false,"rental_uris":{"android":"levelo://app?vid=dcaa4a8f-eeeb-4a65-b90b-db85565e00da","ios":"levelo://app?vid=dcaa4a8f-eeeb-4a65-b90b-db85565e00da"},"vehicle_type_id":"4","last_reported":1770140572,"current_range_meters":7200,"station_id":"cpo36qri1sfpv3e86is0","pricing_plan_id":"cebpf4jnsgd1na2vs0mg"},{"bike_id":"490f6b95-6c14-40f1-8933-acccb3e85a72","system_id":"levelo_inurba_marseille","lat":43.30426,"lon":5.388975,"is_reserved":false,"is_disabled":false,"rental_uris":{"android":"levelo://app?vid=490f6b95-6c14-40f1-8933-acccb3e85a72","ios":"levelo://app?vid=490f6b95-6c14-40f1-8933-acccb3e85a72"},"vehicle_type_id":"4","last_reported":1770140572,"current_range_meters":7200,"station_id":"ce4bgk12rcd13ifvqbi0","pricing_plan_id":"cebpf4jnsgd1na2vs0mg"},{"bike_id":"d0242e5c-0183-4272-a3e7-75cd0bff3484","system_id":"levelo_inurba_marseille","lat":43.27687,"lon":5.38907,"is_reserved":false,"is_disabled":false,"rental_uris":{"android":"levelo://app?vid=d0242e5c-0183-4272-a3e7-75cd0bff3484","ios":"levelo://app?vid=d0242e5c-0183-4272-a3e7-75cd0bff3484"},"vehicle_type_id":"4","last_reported":1770140572,"current_range_meters":7200,"station_id":"ce4bhi12rcd13ifvqfo0","pricing_plan_id":"cebpf4jnsgd1na2vs0mg"},{"bike_id":"5178d62d-0ba2-419a-aa5b-0667f73fb11f","system_id":"levelo_inurba_marseille","lat":43.301298,"lon":5.39864,"is_reserved":false,"is_disabled":false,"rental_uris":{"android":"levelo://app?vid=5178d62d-0ba2-419a-aa5b-0667f73fb11f","ios":"levelo://app?vid=5178d62d-0ba2-419a-aa5b-0667f73fb11f"},"vehicle_type_id":"4","last_reported":1770140572,"current_range_meters":7200,"station_id":"ce4bh0h2rcd13ifvqd40","pricing_plan_id":"cebpf4jnsgd1na2vs0mg"},{"bike_id":"0d88cb39-b909-47d2-8104-a6e5b5c135c0","system_id":"levelo_inurba_marseille","lat":43.29801,"lon":5.40417,"is_reserved":false,"is_disabled":false,"rental_uris":{"android":"levelo://app?vid=0d88cb39-b909-47d2-8104-a6e5b5c135c0","ios":"levelo://app?vid=0d88cb39-b909-47d2-8104-a6e5b5c135c0"},"vehicle_type_id":"4","last_reported":1770140572,"current_range_meters":7200,"station_id":"ce4bh112rcd13ifvqd90","pricing_plan_id":"cebpf4jnsgd1na2vs0mg"},{"bike_id":"ec12566a-9d48-438d-80ed-97edb63a2c03","system_id":"levelo_inurba_marseille","lat":43.24467,"lon":5.42528,"is_reserved":false,"is_disabled":false,"rental_uris":{"android":"levelo://app?vid=ec12566a-9d48-438d-80ed-97edb63a2c03","ios":"levelo://app?vid=ec12566a-9d48-438d-80ed-97edb63a2c03"},"vehicle_type_id":"4","last_reported":1770140572,"current_range_meters":7200,"station_id":"st_d4a3vfp97mjs738cd8kg","pricing_plan_id":"cebpf4jnsgd1na2vs0mg"},{"bike_id":"2bf19671-0061-46e9-83e3-55d71bb70148","system_id":"levelo_inurba_marseille","lat":43.22931,"lon":5.35382,"is_reserved":false,"is_disabled":false,"rental_uris":{"android":"levelo://app?vid=2bf19671-0061-46e9-83e3-55d71bb70148","ios":"levelo://app?vid=2bf19671-0061-46e9-83e3-55d71bb70148"},"vehicle_type_id":"4","last_reported":1770140572,"current_range_meters":7200,"station_id":"cpo3532slgdg3j2ikp40","pricing_plan_id":"cebpf4jnsgd1na2vs0mg"},{"bike_id":"659b2fe8-8a06-4a27-93de-c9d7bd01e359","system_id":"levelo_inurba_marseille","lat":43.29674,"lon":5.37652,"is_reserved":false,"is_disabled":false,"rental_uris":{"android":"levelo://app?vid=659b2fe8-8a06-4a27-93de-c9d7bd01e359","ios":"levelo://app?vid=659b2fe8-8a06-4a27-93de-c9d7bd01e359"},"vehicle_type_id":"4","last_reported":1770140572,"current_range_meters":7200,"station_id":"ce4bgkh2rcd13ifvqbl0","pricing_plan_id":"cebpf4jnsgd1na2vs0mg"},{"bike_id":"416afa39-e9d9-464e-b365-cfd2497af3ca","system_id":"levelo_inurba_marseille","lat":43.31328,"lon":5.39685,"is_reserved":false,"is_disabled":false,"rental_uris":{"android":"levelo://app?vid=416afa39-e9d9-464e-b365-cfd2497af3ca","ios":"levelo://app?vid=416afa39-e9d9-464e-b365-cfd2497af3ca"},"vehicle_type_id":"4","last_reported":1770140572,"current_range_meters":7200,"station_id":"ce4bgvp2rcd13ifvqcu0","pricing_plan_id":"cebpf4jnsgd1na2vs0mg"},{"bike_id":"530b3fec-7af4-45eb-bf12-cc02b58eae44","system_id":"levelo_inurba_marseille","lat":43.24663,"lon":5.38156,"is_reserved":false,"is_disabled":false,"rental_uris":{"android":"levelo://app?vid=530b3fec-7af4-45eb-bf12-cc02b58eae44","ios":"levelo://app?vid=530b3fec-7af4-45eb-bf12-cc02b58eae44"},"vehicle_type_id":"4","last_reported":1770140572,"current_range_meters":7200,"station_id":"ce4bhih2rcd13ifvqfr0","pricing_plan_id":"cebpf4jnsgd1na2vs0mg"},{"bike_id":"33b4983b-12f9-44d8-b800-0a8b8c975eef","system_id":"levelo_inurba_marseille","lat":43.28151,"lon":5.42645,"is_reserved":false,"is_disabled":false,"rental_uris":{"android":"levelo://app?vid=33b4983b-12f9-44d8-b800-0a8b8c975eef","ios":"levelo://app?vid=33b4983b-12f9-44d8-b800-0a8b8c975eef"},"vehicle_type_id":"4","last_reported":1770140572,"current_range_meters":7200,"station_id":"ce4bhnh2rcd13ifvqgug","pricing_plan_id":"cebpf4jnsgd1na2vs0mg"},{"bike_id":"bcbaa8a6-886f-4091-ae26-8ec7b68ef274","system_id":"levelo_inurba_marseille","lat":43.23825,"lon":5.36608,"is_reserved":false,"is_disabled":false,"rental_uris":{"android":"levelo://app?vid=bcbaa8a6-886f-4091-ae26-8ec7b68ef274","ios":"levelo://app?vid=bcbaa8a6-886f-4091-ae26-8ec7b68ef274"},"vehicle_type_id":"4","last_reported":1770140572,"current_range_meters":7200,"station_id":"st_d3nk18o9ro0c73en2l3g","pricing_plan_id":"cebpf4jnsgd1na2vs0mg"},{"bike_id":"73ab5421-ca7f-4040-91f5-55c62910632e","system_id":"levelo_inurba_marseille","lat":43.26222,"lon":5.40434,"is_reserved":false,"is_disabled":false,"rental_uris":{"android":"levelo://app?vid=73ab5421-ca7f-4040-91f5-55c62910632e","ios":"levelo://app?vid=73ab5421-ca7f-4040-91f5-55c62910632e"},"vehicle_type_id":"4","last_reported":1770140572,"current_range_meters":7200,"station_id":"ce4bhmh2rcd13ifvqgmg","pricing_plan_id":"cebpf4jnsgd1na2vs0mg"},{"bike_id":"da1a5026-13da-441d-aedf-f7d421e34a05","system_id":"levelo_inurba_marseille","lat":43.31323,"lon":5.39718,"is_reserved":false,"is_disabled":false,"rental_uris":{"android":"levelo://app?vid=da1a5026-13da-441d-aedf-f7d421e34a05","ios":"levelo://app?vid=da1a5026-13da-441d-aedf-f7d421e34a05"},"vehicle_type_id":"4","last_reported":1770140572,"current_range_meters":7200,"station_id":"ce4bgvp2rcd13ifvqcu0","pricing_plan_id":"cebpf4jnsgd1na2vs0mg"},{"bike_id":"40954e61-dd73-4b29-8cc4-cc138532c8aa","system_id":"levelo_inurba_marseille","lat":43.29228,"lon":5.42519,"is_reserved":false,"is_disabled":false,"rental_uris":{"android":"levelo://app?vid=40954e61-dd73-4b29-8cc4-cc138532c8aa","ios":"levelo://app?vid=40954e61-dd73-4b29-8cc4-cc138532c8aa"},"vehicle_type_id":"4","last_reported":1770140572,"current_range_meters":7200,"station_id":"","pricing_plan_id":"cebpf4jnsgd1na2vs0mg"},{"bike_id":"5206eedc-908d-4fe2-bdc4-a2088b39b241","system_id":"levelo_inurba_marseille","lat":43.24473,"lon":5.42525,"is_reserved":false,"is_disabled":false,"rental_uris":{"android":"levelo://app?vid=5206eedc-908d-4fe2-bdc4-a2088b39b241","ios":"levelo://app?vid=5206eedc-908d-4fe2-bdc4-a2088b39b241"},"vehicle_type_id":"4","last_reported":1770140572,"current_range_meters":7200,"station_id":"st_d4a3vfp97mjs738cd8kg","pricing_plan_id":"cebpf4jnsgd1na2vs0mg"},{"bike_id":"ad52d447-970d-4312-b8b7-a96aeb82b8c4","system_id":"levelo_inurba_marseille","lat":43.29516,"lon":5.39403,"is_reserved":false,"is_disabled":false,"rental_uris":{"android":"levelo://app?vid=ad52d447-970d-4312-b8b7-a96aeb82b8c4","ios":"levelo://app?vid=ad52d447-970d-4312-b8b7-a96aeb82b8c4"},"vehicle_type_id":"4","last_reported":1770140572,"current_range_meters":7200,"station_id":"ce4bh292rcd13ifvqdf0","pricing_plan_id":"cebpf4jnsgd1na2vs0mg"},{"bike_id":"6648b726-248a-4235-8962-e02d3f57c3f3","system_id":"levelo_inurba_marseille","lat":43.25001,"lon":5.38929,"is_reserved":false,"is_disabled":false,"rental_uris":{"android":"levelo://app?vid=6648b726-248a-4235-8962-e02d3f57c3f3","ios":"levelo://app?vid=6648b726-248a-4235-8962-e02d3f57c3f3"},"vehicle_type_id":"4","last_reported":1770140572,"current_range_meters":7200,"station_id":"ce4bhgp2rcd13ifvqfd0","pricing_plan_id":"cebpf4jnsgd1na2vs0mg"},{"bike_id":"d8ee28fe-02a9-44d6-8ce5-1c14d3a2e9af","system_id":"levelo_inurba_marseille","lat":43.26975,"lon":5.40226,"is_reserved":false,"is_disabled":false,"rental_uris":{"android":"levelo://app?vid=d8ee28fe-02a9-44d6-8ce5-1c14d3a2e9af","ios":"levelo://app?vid=d8ee28fe-02a9-44d6-8ce5-1c14d3a2e9af"},"vehicle_type_id":"4","last_reported":1770140572,"current_range_meters":7200,"station_id":"cjm6bp8fraef2m0cb0m0","pricing_plan_id":"cebpf4jnsgd1na2vs0mg"},{"bike_id":"56a1b9ba-7d3b-4d4d-816d-8ff70d14355a","system_id":"levelo_inurba_marseille","lat":43.24661,"lon":5.38163,"is_reserved":false,"is_disabled":false,"rental_uris":{"android":"levelo://app?vid=56a1b9ba-7d3b-4d4d-816d-8ff70d14355a","ios":"levelo://app?vid=56a1b9ba-7d3b-4d4d-816d-8ff70d14355a"},"vehicle_type_id":"4","last_reported":1770140572,"current_range_meters":8000,"station_id":"ce4bhih2rcd13ifvqfr0","pricing_plan_id":"cebpf4jnsgd1na2vs0mg"},{"bike_id":"175ebe59-dca6-4305-9228-e91457446688","system_id":"levelo_inurba_marseille","lat":43.29052,"lon":5.37149,"is_reserved":false,"is_disabled":false,"rental_uris":{"android":"levelo://app?vid=175ebe59-dca6-4305-9228-e91457446688","ios":"levelo://app?vid=175ebe59-dca6-4305-9228-e91457446688"},"vehicle_type_id":"4","last_reported":1770140572,"current_range_meters":8000,"station_id":"ce4bh5p2rcd13ifvqe4g","pricing_plan_id":"cebpf4jnsgd1na2vs0mg"},{"bike_id":"aaf22886-8931-43f5-890d-fc99243945fc","system_id":"levelo_inurba_marseille","lat":43.241683,"lon":5.396912,"is_reserved":false,"is_disabled":false,"rental_uris":{"android":"levelo://app?vid=aaf22886-8931-43f5-890d-fc99243945fc","ios":"levelo://app?vid=aaf22886-8931-43f5-890d-fc99243945fc"},"vehicle_type_id":"4","last_reported":1770140572,"current_range_meters":8000,"station_id":"ce4bhn12rcd13ifvqgpg","pricing_plan_id":"cebpf4jnsgd1na2vs0mg"},{"bike_id":"81f974fe-76a7-4b0a-927b-0f80730a75ae","system_id":"levelo_inurba_marseille","lat":43.29551,"lon":5.38003,"is_reserved":false,"is_disabled":false,"rental_uris":{"android":"levelo://app?vid=81f974fe-76a7-4b0a-927b-0f80730a75ae","ios":"levelo://app?vid=81f974fe-76a7-4b0a-927b-0f80730a75ae"},"vehicle_type_id":"4","last_reported":1770140572,"current_range_meters":8000,"station_id":"","pricing_plan_id":"cebpf4jnsgd1na2vs0mg"},{"bike_id":"792ef37c-62c6-44f6-aa61-45de4328445f","system_id":"levelo_inurba_marseille","lat":43.31759,"lon":5.39021,"is_reserved":false,"is_disabled":false,"rental_uris":{"android":"levelo://app?vid=792ef37c-62c6-44f6-aa61-45de4328445f","ios":"levelo://app?vid=792ef37c-62c6-44f6-aa61-45de4328445f"},"vehicle_type_id":"4","last_reported":1770140572,"current_range_meters":8000,"station_id":"ce4bhqp2rcd13ifvqhng","pricing_plan_id":"cebpf4jnsgd1na2vs0mg"},{"bike_id":"e1b3cad6-dccc-4f80-892b-59b83fe43b75","system_id":"levelo_inurba_marseille","lat":43.29572,"lon":5.36721,"is_reserved":false,"is_disabled":false,"rental_uris":{"android":"levelo://app?vid=e1b3cad6-dccc-4f80-892b-59b83fe43b75","ios":"levelo://app?vid=e1b3cad6-dccc-4f80-892b-59b83fe43b75"},"vehicle_type_id":"4","last_reported":1770140572,"current_range_meters":8000,"station_id":"ce4bgph2rcd13ifvqc2g","pricing_plan_id":"cebpf4jnsgd1na2vs0mg"},{"bike_id":"7f77f6a6-911c-44cf-97f5-71224b3633e0","system_id":"levelo_inurba_marseille","lat":43.252282,"lon":5.380258,"is_reserved":false,"is_disabled":false,"rental_uris":{"android":"levelo://app?vid=7f77f6a6-911c-44cf-97f5-71224b3633e0","ios":"levelo://app?vid=7f77f6a6-911c-44cf-97f5-71224b3633e0"},"vehicle_type_id":"4","last_reported":1770140572,"current_range_meters":8000,"station_id":"","pricing_plan_id":"cebpf4jnsgd1na2vs0mg"},{"bike_id":"191a99ed-49ff-4737-8f82-7264bf56cc6c","system_id":"levelo_inurba_marseille","lat":43.25002,"lon":5.389287,"is_reserved":false,"is_disabled":false,"rental_uris":{"android":"levelo://app?vid=191a99ed-49ff-4737-8f82-7264bf56cc6c","ios":"levelo://app?vid=191a99ed-49ff-4737-8f82-7264bf56cc6c"},"vehicle_type_id":"4","last_reported":1770140572,"current_range_meters":8000,"station_id":"ce4bhgp2rcd13ifvqfd0","pricing_plan_id":"cebpf4jnsgd1na2vs0mg"},{"bike_id":"5b3811ef-5681-4c18-aac4-a62920f9a85c","system_id":"levelo_inurba_marseille","lat":43.28482,"lon":5.51487,"is_reserved":false,"is_disabled":false,"rental_uris":{"android":"levelo://app?vid=5b3811ef-5681-4c18-aac4-a62920f9a85c","ios":"levelo://app?vid=5b3811ef-5681-4c18-aac4-a62920f9a85c"},"vehicle_type_id":"4","last_reported":1770140572,"current_range_meters":8000,"station_id":"","pricing_plan_id":"cebpf4jnsgd1na2vs0mg"},{"bike_id":"1b5a9ce0-a712-4e6e-83a1-5b3d08083ec7","system_id":"levelo_inurba_marseille","lat":43.232,"lon":5.35546,"is_reserved":false,"is_disabled":false,"rental_uris":{"android":"levelo://app?vid=1b5a9ce0-a712-4e6e-83a1-5b3d08083ec7","ios":"levelo://app?vid=1b5a9ce0-a712-4e6e-83a1-5b3d08083ec7"},"vehicle_type_id":"4","last_reported":1770140572,"current_range_meters":8000,"station_id":"ce4bhu92rcd13ifvqi70","pricing_plan_id":"cebpf4jnsgd1na2vs0mg"},{"bike_id":"ccad5bb8-727e-4e27-b0cc-7b2f496ea109","system_id":"levelo_inurba_marseille","lat":43.29547,"lon":5.42275,"is_reserved":false,"is_disabled":false,"rental_uris":{"android":"levelo://app?vid=ccad5bb8-727e-4e27-b0cc-7b2f496ea109","ios":"levelo://app?vid=ccad5bb8-727e-4e27-b0cc-7b2f496ea109"},"vehicle_type_id":"4","last_reported":1770140572,"current_range_meters":8000,"station_id":"ce4bhph2rcd13ifvqhdg","pricing_plan_id":"cebpf4jnsgd1na2vs0mg"},{"bike_id":"bdaeaa3a-367f-4f5a-ad09-5306005a2d10","system_id":"levelo_inurba_marseille","lat":43.28467,"lon":5.3589,"is_reserved":false,"is_disabled":false,"rental_uris":{"android":"levelo://app?vid=bdaeaa3a-367f-4f5a-ad09-5306005a2d10","ios":"levelo://app?vid=bdaeaa3a-367f-4f5a-ad09-5306005a2d10"},"vehicle_type_id":"4","last_reported":1770140572,"current_range_meters":8000,"station_id":"ce4bhah2rcd13ifvqei0","pricing_plan_id":"cebpf4jnsgd1na2vs0mg"},{"bike_id":"4a894c57-cad5-4e08-9bb4-b99e85925796","system_id":"levelo_inurba_marseille","lat":43.295118,"lon":5.39401,"is_reserved":false,"is_disabled":false,"rental_uris":{"android":"levelo://app?vid=4a894c57-cad5-4e08-9bb4-b99e85925796","ios":"levelo://app?vid=4a894c57-cad5-4e08-9bb4-b99e85925796"},"vehicle_type_id":"4","last_reported":1770140572,"current_range_meters":8000,"station_id":"ce4bh292rcd13ifvqdf0","pricing_plan_id":"cebpf4jnsgd1na2vs0mg"},{"bike_id":"2f9410d4-dca3-481a-ade2-11d88417d88f","system_id":"levelo_inurba_marseille","lat":43.318832,"lon":5.407405,"is_reserved":false,"is_disabled":false,"rental_uris":{"android":"levelo://app?vid=2f9410d4-dca3-481a-ade2-11d88417d88f","ios":"levelo://app?vid=2f9410d4-dca3-481a-ade2-11d88417d88f"},"vehicle_type_id":"4","last_reported":1770140572,"current_range_meters":8000,"station_id":"","pricing_plan_id":"cebpf4jnsgd1na2vs0mg"},{"bike_id":"26b5e43f-c2c8-4c89-8643-f6da5023c44c","system_id":"levelo_inurba_marseille","lat":43.27699,"lon":5.38876,"is_reserved":false,"is_disabled":false,"rental_uris":{"android":"levelo://app?vid=26b5e43f-c2c8-4c89-8643-f6da5023c44c","ios":"levelo://app?vid=26b5e43f-c2c8-4c89-8643-f6da5023c44c"},"vehicle_type_id":"4","last_reported":1770140572,"current_range_meters":8400,"station_id":"ce4bhi12rcd13ifvqfo0","pricing_plan_id":"cebpf4jnsgd1na2vs0mg"},{"bike_id":"8e312380-e745-433d-90b9-ff07a309073d","system_id":"levelo_inurba_marseille","lat":43.24783,"lon":5.37455,"is_reserved":false,"is_disabled":false,"rental_uris":{"android":"levelo://app?vid=8e312380-e745-433d-90b9-ff07a309073d","ios":"levelo://app?vid=8e312380-e745-433d-90b9-ff07a309073d"},"vehicle_type_id":"4","last_reported":1770140572,"current_range_meters":8400,"station_id":"ce4bhgh2rcd13ifvqfb0","pricing_plan_id":"cebpf4jnsgd1na2vs0mg"},{"bike_id":"c056efdd-bfd4-4d90-a2c4-30f136ba140c","system_id":"levelo_inurba_marseille","lat":43.33503,"lon":5.37482,"is_reserved":false,"is_disabled":false,"rental_uris":{"android":"levelo://app?vid=c056efdd-bfd4-4d90-a2c4-30f136ba140c","ios":"levelo://app?vid=c056efdd-bfd4-4d90-a2c4-30f136ba140c"},"vehicle_type_id":"4","last_reported":1770140572,"current_range_meters":8400,"station_id":"","pricing_plan_id":"cebpf4jnsgd1na2vs0mg"},{"bike_id":"3496e3d5-ade9-4ef3-89c7-6224a9796381","system_id":"levelo_inurba_marseille","lat":43.23198,"lon":5.35543,"is_reserved":false,"is_disabled":false,"rental_uris":{"android":"levelo://app?vid=3496e3d5-ade9-4ef3-89c7-6224a9796381","ios":"levelo://app?vid=3496e3d5-ade9-4ef3-89c7-6224a9796381"},"vehicle_type_id":"4","last_reported":1770140572,"current_range_meters":8400,"station_id":"ce4bhu92rcd13ifvqi70","pricing_plan_id":"cebpf4jnsgd1na2vs0mg"},{"bike_id":"3cdda250-36eb-4bd4-b94a-0b0ee8adb8cf","system_id":"levelo_inurba_marseille","lat":43.28907,"lon":5.36646,"is_reserved":false,"is_disabled":false,"rental_uris":{"android":"levelo://app?vid=3cdda250-36eb-4bd4-b94a-0b0ee8adb8cf","ios":"levelo://app?vid=3cdda250-36eb-4bd4-b94a-0b0ee8adb8cf"},"vehicle_type_id":"4","last_reported":1770140572,"current_range_meters":8400,"station_id":"ce4bhap2rcd13ifvqek0","pricing_plan_id":"cebpf4jnsgd1na2vs0mg"},{"bike_id":"09ccd583-b3c5-4b49-b74b-d6ee5d7676a0","system_id":"levelo_inurba_marseille","lat":43.29275,"lon":5.36848,"is_reserved":false,"is_disabled":false,"rental_uris":{"android":"levelo://app?vid=09ccd583-b3c5-4b49-b74b-d6ee5d7676a0","ios":"levelo://app?vid=09ccd583-b3c5-4b49-b74b-d6ee5d7676a0"},"vehicle_type_id":"4","last_reported":1770140572,"current_range_meters":8400,"station_id":"ce4bhbp2rcd13ifvqesg","pricing_plan_id":"cebpf4jnsgd1na2vs0mg"},{"bike_id":"574b46f0-3f1e-4de0-961b-a840353bfcf3","system_id":"levelo_inurba_marseille","lat":43.23782,"lon":5.36612,"is_reserved":false,"is_disabled":false,"rental_uris":{"android":"levelo://app?vid=574b46f0-3f1e-4de0-961b-a840353bfcf3","ios":"levelo://app?vid=574b46f0-3f1e-4de0-961b-a840353bfcf3"},"vehicle_type_id":"4","last_reported":1770140572,"current_range_meters":8400,"station_id":"st_d3nk18o9ro0c73en2l3g","pricing_plan_id":"cebpf4jnsgd1na2vs0mg"},{"bike_id":"5268a57b-c5c9-446a-87ff-ede823dc6bfa","system_id":"levelo_inurba_marseille","lat":43.28565,"lon":5.39492,"is_reserved":false,"is_disabled":false,"rental_uris":{"android":"levelo://app?vid=5268a57b-c5c9-446a-87ff-ede823dc6bfa","ios":"levelo://app?vid=5268a57b-c5c9-446a-87ff-ede823dc6bfa"},"vehicle_type_id":"4","last_reported":1770140572,"current_range_meters":8400,"station_id":"ce4bh292rcd13ifvqdg0","pricing_plan_id":"cebpf4jnsgd1na2vs0mg"},{"bike_id":"ba3390f5-14ed-4160-abcf-8bea19885613","system_id":"levelo_inurba_marseille","lat":43.28474,"lon":5.48396,"is_reserved":false,"is_disabled":false,"rental_uris":{"android":"levelo://app?vid=ba3390f5-14ed-4160-abcf-8bea19885613","ios":"levelo://app?vid=ba3390f5-14ed-4160-abcf-8bea19885613"},"vehicle_type_id":"4","last_reported":1770140572,"current_range_meters":8400,"station_id":"st_d3svhcjqgbts73a3dn0g","pricing_plan_id":"cebpf4jnsgd1na2vs0mg"},{"bike_id":"02cb8e6d-d72c-4447-a724-d8f35492fa92","system_id":"levelo_inurba_marseille","lat":43.30862,"lon":5.36906,"is_reserved":false,"is_disabled":false,"rental_uris":{"android":"levelo://app?vid=02cb8e6d-d72c-4447-a724-d8f35492fa92","ios":"levelo://app?vid=02cb8e6d-d72c-4447-a724-d8f35492fa92"},"vehicle_type_id":"4","last_reported":1770140572,"current_range_meters":8400,"station_id":"","pricing_plan_id":"cebpf4jnsgd1na2vs0mg"},{"bike_id":"5de5e604-6504-4a1a-966a-dc6c49a789b3","system_id":"levelo_inurba_marseille","lat":43.29577,"lon":5.36744,"is_reserved":false,"is_disabled":false,"rental_uris":{"android":"levelo://app?vid=5de5e604-6504-4a1a-966a-dc6c49a789b3","ios":"levelo://app?vid=5de5e604-6504-4a1a-966a-dc6c49a789b3"},"vehicle_type_id":"4","last_reported":1770140572,"current_range_meters":8400,"station_id":"ce4bgph2rcd13ifvqc2g","pricing_plan_id":"cebpf4jnsgd1na2vs0mg"},{"bike_id":"3e68352f-e3d3-4fc8-8ad3-266c2f1692b4","system_id":"levelo_inurba_marseille","lat":43.2816,"lon":5.42625,"is_reserved":false,"is_disabled":false,"rental_uris":{"android":"levelo://app?vid=3e68352f-e3d3-4fc8-8ad3-266c2f1692b4","ios":"levelo://app?vid=3e68352f-e3d3-4fc8-8ad3-266c2f1692b4"},"vehicle_type_id":"4","last_reported":1770140572,"current_range_meters":8400,"station_id":"ce4bhnh2rcd13ifvqgug","pricing_plan_id":"cebpf4jnsgd1na2vs0mg"},{"bike_id":"fba83296-cf08-4ba9-8267-d1dc13133a44","system_id":"levelo_inurba_marseille","lat":43.26197,"lon":5.40427,"is_reserved":false,"is_disabled":false,"rental_uris":{"android":"levelo://app?vid=fba83296-cf08-4ba9-8267-d1dc13133a44","ios":"levelo://app?vid=fba83296-cf08-4ba9-8267-d1dc13133a44"},"vehicle_type_id":"4","last_reported":1770140572,"current_range_meters":8400,"station_id":"ce4bhmh2rcd13ifvqgmg","pricing_plan_id":"cebpf4jnsgd1na2vs0mg"},{"bike_id":"e2c3e752-d3aa-42f6-9c16-69c26bc3ed9b","system_id":"levelo_inurba_marseille","lat":43.29534,"lon":5.39403,"is_reserved":false,"is_disabled":false,"rental_uris":{"android":"levelo://app?vid=e2c3e752-d3aa-42f6-9c16-69c26bc3ed9b","ios":"levelo://app?vid=e2c3e752-d3aa-42f6-9c16-69c26bc3ed9b"},"vehicle_type_id":"4","last_reported":1770140572,"current_range_meters":8400,"station_id":"ce4bh292rcd13ifvqdf0","pricing_plan_id":"cebpf4jnsgd1na2vs0mg"},{"bike_id":"068098b6-2917-46c3-bbcd-2f4568f90c7b","system_id":"levelo_inurba_marseille","lat":43.286147,"lon":5.350983,"is_reserved":false,"is_disabled":true,"rental_uris":{"android":"levelo://app?vid=068098b6-2917-46c3-bbcd-2f4568f90c7b","ios":"levelo://app?vid=068098b6-2917-46c3-bbcd-2f4568f90c7b"},"vehicle_type_id":"4","last_reported":1770140572,"current_range_meters":8400,"station_id":"","pricing_plan_id":"cebpf4jnsgd1na2vs0mg"},{"bike_id":"03957cd6-ee2d-47d1-948d-c3da3284d226","system_id":"levelo_inurba_marseille","lat":43.28944,"lon":5.36381,"is_reserved":false,"is_disabled":true,"rental_uris":{"android":"levelo://app?vid=03957cd6-ee2d-47d1-948d-c3da3284d226","ios":"levelo://app?vid=03957cd6-ee2d-47d1-948d-c3da3284d226"},"vehicle_type_id":"4","last_reported":1770140572,"current_range_meters":8400,"station_id":"ce4bhc92rcd13ifvqetg","pricing_plan_id":"cebpf4jnsgd1na2vs0mg"},{"bike_id":"efea85db-b1c8-46f7-b3e0-9fa246910aa6","system_id":"levelo_inurba_marseille","lat":43.23181,"lon":5.39991,"is_reserved":false,"is_disabled":false,"rental_uris":{"android":"levelo://app?vid=efea85db-b1c8-46f7-b3e0-9fa246910aa6","ios":"levelo://app?vid=efea85db-b1c8-46f7-b3e0-9fa246910aa6"},"vehicle_type_id":"4","last_reported":1770140572,"current_range_meters":8400,"station_id":"ce4bhn12rcd13ifvqgqg","pricing_plan_id":"cebpf4jnsgd1na2vs0mg"},{"bike_id":"e8051bb6-621d-4f25-a4ea-c976583be358","system_id":"levelo_inurba_marseille","lat":43.313383,"lon":5.396883,"is_reserved":false,"is_disabled":false,"rental_uris":{"android":"levelo://app?vid=e8051bb6-621d-4f25-a4ea-c976583be358","ios":"levelo://app?vid=e8051bb6-621d-4f25-a4ea-c976583be358"},"vehicle_type_id":"4","last_reported":1770140572,"current_range_meters":8400,"station_id":"ce4bgvp2rcd13ifvqcu0","pricing_plan_id":"cebpf4jnsgd1na2vs0mg"},{"bike_id":"b76b0812-c1ce-4144-9b78-716e1fd3e796","system_id":"levelo_inurba_marseille","lat":43.28626,"lon":5.35094,"is_reserved":false,"is_disabled":false,"rental_uris":{"android":"levelo://app?vid=b76b0812-c1ce-4144-9b78-716e1fd3e796","ios":"levelo://app?vid=b76b0812-c1ce-4144-9b78-716e1fd3e796"},"vehicle_type_id":"4","last_reported":1770140572,"current_range_meters":8400,"station_id":"ce4bhch2rcd13ifvqeug","pricing_plan_id":"cebpf4jnsgd1na2vs0mg"},{"bike_id":"d25c30ce-208a-4865-aa8f-61a37bd60365","system_id":"levelo_inurba_marseille","lat":43.29558,"lon":5.38147,"is_reserved":false,"is_disabled":false,"rental_uris":{"android":"levelo://app?vid=d25c30ce-208a-4865-aa8f-61a37bd60365","ios":"levelo://app?vid=d25c30ce-208a-4865-aa8f-61a37bd60365"},"vehicle_type_id":"4","last_reported":1770140572,"current_range_meters":8400,"station_id":"ce4bgl12rcd13ifvqbo0","pricing_plan_id":"cebpf4jnsgd1na2vs0mg"},{"bike_id":"41efee0d-caa2-45b0-863d-489d81dde529","system_id":"levelo_inurba_marseille","lat":43.28529,"lon":5.44081,"is_reserved":false,"is_disabled":false,"rental_uris":{"android":"levelo://app?vid=41efee0d-caa2-45b0-863d-489d81dde529","ios":"levelo://app?vid=41efee0d-caa2-45b0-863d-489d81dde529"},"vehicle_type_id":"4","last_reported":1770140572,"current_range_meters":8400,"station_id":"st_d3j3df2ikq2c7380ej80","pricing_plan_id":"cebpf4jnsgd1na2vs0mg"},{"bike_id":"c8fbb1c4-b8cb-4f51-bdc8-8cd932cab449","system_id":"levelo_inurba_marseille","lat":43.283759,"lon":5.386389,"is_reserved":false,"is_disabled":false,"rental_uris":{"android":"levelo://app?vid=c8fbb1c4-b8cb-4f51-bdc8-8cd932cab449","ios":"levelo://app?vid=c8fbb1c4-b8cb-4f51-bdc8-8cd932cab449"},"vehicle_type_id":"4","last_reported":1770140572,"current_range_meters":8400,"station_id":"ce4bh492rcd13ifvqdvg","pricing_plan_id":"cebpf4jnsgd1na2vs0mg"},{"bike_id":"f70b2174-652a-478f-8b21-c7685a0f6b17","system_id":"levelo_inurba_marseille","lat":43.27942,"lon":5.41038,"is_reserved":false,"is_disabled":false,"rental_uris":{"android":"levelo://app?vid=f70b2174-652a-478f-8b21-c7685a0f6b17","ios":"levelo://app?vid=f70b2174-652a-478f-8b21-c7685a0f6b17"},"vehicle_type_id":"4","last_reported":1770140572,"current_range_meters":8800,"station_id":"ce4bhnp2rcd13ifvqh0g","pricing_plan_id":"cebpf4jnsgd1na2vs0mg"},{"bike_id":"5db40262-c973-4b13-b2a9-ee1639ccf6b3","system_id":"levelo_inurba_marseille","lat":43.24811,"lon":5.37457,"is_reserved":false,"is_disabled":false,"rental_uris":{"android":"levelo://app?vid=5db40262-c973-4b13-b2a9-ee1639ccf6b3","ios":"levelo://app?vid=5db40262-c973-4b13-b2a9-ee1639ccf6b3"},"vehicle_type_id":"4","last_reported":1770140572,"current_range_meters":8800,"station_id":"ce4bhgh2rcd13ifvqfb0","pricing_plan_id":"cebpf4jnsgd1na2vs0mg"},{"bike_id":"48d0f5f5-2f02-4b7d-b8d5-1caa14083d04","system_id":"levelo_inurba_marseille","lat":43.26194,"lon":5.37415,"is_reserved":false,"is_disabled":false,"rental_uris":{"android":"levelo://app?vid=48d0f5f5-2f02-4b7d-b8d5-1caa14083d04","ios":"levelo://app?vid=48d0f5f5-2f02-4b7d-b8d5-1caa14083d04"},"vehicle_type_id":"4","last_reported":1770140572,"current_range_meters":8800,"station_id":"ce4bhgp2rcd13ifvqfc0","pricing_plan_id":"cebpf4jnsgd1na2vs0mg"},{"bike_id":"85abf2ca-c23c-4f48-b10d-5858680e2422","system_id":"levelo_inurba_marseille","lat":43.26196,"lon":5.37935,"is_reserved":false,"is_disabled":false,"rental_uris":{"android":"levelo://app?vid=85abf2ca-c23c-4f48-b10d-5858680e2422","ios":"levelo://app?vid=85abf2ca-c23c-4f48-b10d-5858680e2422"},"vehicle_type_id":"4","last_reported":1770140572,"current_range_meters":8800,"station_id":"ce4bhjp2rcd13ifvqg90","pricing_plan_id":"cebpf4jnsgd1na2vs0mg"},{"bike_id":"242256f5-f0bd-4204-9565-2087ceacdda5","system_id":"levelo_inurba_marseille","lat":43.22559,"lon":5.41632,"is_reserved":false,"is_disabled":false,"rental_uris":{"android":"levelo://app?vid=242256f5-f0bd-4204-9565-2087ceacdda5","ios":"levelo://app?vid=242256f5-f0bd-4204-9565-2087ceacdda5"},"vehicle_type_id":"4","last_reported":1770140572,"current_range_meters":8800,"station_id":"st_d2o4gvlbi1j2169b742g","pricing_plan_id":"cebpf4jnsgd1na2vs0mg"},{"bike_id":"ef30bb24-f45f-400c-9967-a2a3b2da1488","system_id":"levelo_inurba_marseille","lat":43.28297,"lon":5.39433,"is_reserved":false,"is_disabled":false,"rental_uris":{"android":"levelo://app?vid=ef30bb24-f45f-400c-9967-a2a3b2da1488","ios":"levelo://app?vid=ef30bb24-f45f-400c-9967-a2a3b2da1488"},"vehicle_type_id":"4","last_reported":1770140572,"current_range_meters":8800,"station_id":"","pricing_plan_id":"cebpf4jnsgd1na2vs0mg"},{"bike_id":"b886faeb-2ae5-4849-a4c7-c906741f8bf1","system_id":"levelo_inurba_marseille","lat":43.26578,"lon":5.40289,"is_reserved":false,"is_disabled":false,"rental_uris":{"android":"levelo://app?vid=b886faeb-2ae5-4849-a4c7-c906741f8bf1","ios":"levelo://app?vid=b886faeb-2ae5-4849-a4c7-c906741f8bf1"},"vehicle_type_id":"4","last_reported":1770140572,"current_range_meters":8800,"station_id":"ce4bhmp2rcd13ifvqgng","pricing_plan_id":"cebpf4jnsgd1na2vs0mg"},{"bike_id":"fdc74734-8708-4513-9519-5478f60a2254","system_id":"levelo_inurba_marseille","lat":43.2481,"lon":5.37458,"is_reserved":false,"is_disabled":false,"rental_uris":{"android":"levelo://app?vid=fdc74734-8708-4513-9519-5478f60a2254","ios":"levelo://app?vid=fdc74734-8708-4513-9519-5478f60a2254"},"vehicle_type_id":"4","last_reported":1770140572,"current_range_meters":8800,"station_id":"ce4bhgh2rcd13ifvqfb0","pricing_plan_id":"cebpf4jnsgd1na2vs0mg"},{"bike_id":"95bd78dd-3339-41b7-b055-9b7419c0bb1e","system_id":"levelo_inurba_marseille","lat":43.26554,"lon":5.37288,"is_reserved":false,"is_disabled":false,"rental_uris":{"android":"levelo://app?vid=95bd78dd-3339-41b7-b055-9b7419c0bb1e","ios":"levelo://app?vid=95bd78dd-3339-41b7-b055-9b7419c0bb1e"},"vehicle_type_id":"4","last_reported":1770140572,"current_range_meters":8800,"station_id":"ce4bhg12rcd13ifvqf70","pricing_plan_id":"cebpf4jnsgd1na2vs0mg"},{"bike_id":"27eb5eca-1ec5-48c0-939e-193c1aa4edc9","system_id":"levelo_inurba_marseille","lat":43.25339,"lon":5.42167,"is_reserved":false,"is_disabled":false,"rental_uris":{"android":"levelo://app?vid=27eb5eca-1ec5-48c0-939e-193c1aa4edc9","ios":"levelo://app?vid=27eb5eca-1ec5-48c0-939e-193c1aa4edc9"},"vehicle_type_id":"4","last_reported":1770140572,"current_range_meters":8800,"station_id":"st_d2m65c5bi1j21697t3ng","pricing_plan_id":"cebpf4jnsgd1na2vs0mg"},{"bike_id":"a1d40264-31fa-4368-a92c-3f50c8a64b96","system_id":"levelo_inurba_marseille","lat":43.231555,"lon":5.437038,"is_reserved":false,"is_disabled":false,"rental_uris":{"android":"levelo://app?vid=a1d40264-31fa-4368-a92c-3f50c8a64b96","ios":"levelo://app?vid=a1d40264-31fa-4368-a92c-3f50c8a64b96"},"vehicle_type_id":"4","last_reported":1770140572,"current_range_meters":8800,"station_id":"ce4bhmp2rcd13ifvqgog","pricing_plan_id":"cebpf4jnsgd1na2vs0mg"},{"bike_id":"04ab4868-a773-4da8-b9a9-f5fedd6e47ae","system_id":"levelo_inurba_marseille","lat":43.25737,"lon":5.4112,"is_reserved":false,"is_disabled":false,"rental_uris":{"android":"levelo://app?vid=04ab4868-a773-4da8-b9a9-f5fedd6e47ae","ios":"levelo://app?vid=04ab4868-a773-4da8-b9a9-f5fedd6e47ae"},"vehicle_type_id":"4","last_reported":1770140572,"current_range_meters":8800,"station_id":"ce4bhkp2rcd13ifvqgd0","pricing_plan_id":"cebpf4jnsgd1na2vs0mg"},{"bike_id":"b9728e69-fda3-46cf-bc16-2e60e4199251","system_id":"levelo_inurba_marseille","lat":43.297467,"lon":5.397551,"is_reserved":false,"is_disabled":false,"rental_uris":{"android":"levelo://app?vid=b9728e69-fda3-46cf-bc16-2e60e4199251","ios":"levelo://app?vid=b9728e69-fda3-46cf-bc16-2e60e4199251"},"vehicle_type_id":"4","last_reported":1770140572,"current_range_meters":8800,"station_id":"ce4bh3h2rcd13ifvqdo0","pricing_plan_id":"cebpf4jnsgd1na2vs0mg"},{"bike_id":"d4d04fe6-644e-4e9e-b6d2-1aad5cffa50d","system_id":"levelo_inurba_marseille","lat":43.3073,"lon":5.42445,"is_reserved":false,"is_disabled":false,"rental_uris":{"android":"levelo://app?vid=d4d04fe6-644e-4e9e-b6d2-1aad5cffa50d","ios":"levelo://app?vid=d4d04fe6-644e-4e9e-b6d2-1aad5cffa50d"},"vehicle_type_id":"4","last_reported":1770140572,"current_range_meters":8800,"station_id":"st_cvj6ca6bvosntc0bfgr0","pricing_plan_id":"cebpf4jnsgd1na2vs0mg"},{"bike_id":"f1510834-4f72-4738-aa6c-02f6ddaa6ac3","system_id":"levelo_inurba_marseille","lat":43.24787,"lon":5.37502,"is_reserved":false,"is_disabled":false,"rental_uris":{"android":"levelo://app?vid=f1510834-4f72-4738-aa6c-02f6ddaa6ac3","ios":"levelo://app?vid=f1510834-4f72-4738-aa6c-02f6ddaa6ac3"},"vehicle_type_id":"4","last_reported":1770140572,"current_range_meters":8800,"station_id":"ce4bhgh2rcd13ifvqfb0","pricing_plan_id":"cebpf4jnsgd1na2vs0mg"},{"bike_id":"d474b5af-08ad-4f81-814c-88ee7a6b55a4","system_id":"levelo_inurba_marseille","lat":43.30215,"lon":5.3946,"is_reserved":false,"is_disabled":false,"rental_uris":{"android":"levelo://app?vid=d474b5af-08ad-4f81-814c-88ee7a6b55a4","ios":"levelo://app?vid=d474b5af-08ad-4f81-814c-88ee7a6b55a4"},"vehicle_type_id":"4","last_reported":1770140572,"current_range_meters":8800,"station_id":"ce4bh0p2rcd13ifvqd70","pricing_plan_id":"cebpf4jnsgd1na2vs0mg"},{"bike_id":"735a0273-3f6d-4171-8d93-14e36df00a24","system_id":"levelo_inurba_marseille","lat":43.29525,"lon":5.38544,"is_reserved":false,"is_disabled":false,"rental_uris":{"android":"levelo://app?vid=735a0273-3f6d-4171-8d93-14e36df00a24","ios":"levelo://app?vid=735a0273-3f6d-4171-8d93-14e36df00a24"},"vehicle_type_id":"4","last_reported":1770140572,"current_range_meters":8800,"station_id":"ce4bgih2rcd13ifvqba0","pricing_plan_id":"cebpf4jnsgd1na2vs0mg"},{"bike_id":"a465db31-7c0b-44c0-9628-47573ee49f28","system_id":"levelo_inurba_marseille","lat":43.24662,"lon":5.3816,"is_reserved":false,"is_disabled":false,"rental_uris":{"android":"levelo://app?vid=a465db31-7c0b-44c0-9628-47573ee49f28","ios":"levelo://app?vid=a465db31-7c0b-44c0-9628-47573ee49f28"},"vehicle_type_id":"4","last_reported":1770140572,"current_range_meters":8800,"station_id":"ce4bhih2rcd13ifvqfr0","pricing_plan_id":"cebpf4jnsgd1na2vs0mg"},{"bike_id":"5ffc162c-3876-4a49-af02-3661f44effbb","system_id":"levelo_inurba_marseille","lat":43.28479,"lon":5.48394,"is_reserved":false,"is_disabled":false,"rental_uris":{"android":"levelo://app?vid=5ffc162c-3876-4a49-af02-3661f44effbb","ios":"levelo://app?vid=5ffc162c-3876-4a49-af02-3661f44effbb"},"vehicle_type_id":"4","last_reported":1770140572,"current_range_meters":8800,"station_id":"st_d3svhcjqgbts73a3dn0g","pricing_plan_id":"cebpf4jnsgd1na2vs0mg"},{"bike_id":"b3a54eab-b946-460c-8d1b-dbc0ce5bc3c5","system_id":"levelo_inurba_marseille","lat":43.28157,"lon":5.42643,"is_reserved":false,"is_disabled":false,"rental_uris":{"android":"levelo://app?vid=b3a54eab-b946-460c-8d1b-dbc0ce5bc3c5","ios":"levelo://app?vid=b3a54eab-b946-460c-8d1b-dbc0ce5bc3c5"},"vehicle_type_id":"4","last_reported":1770140572,"current_range_meters":8800,"station_id":"ce4bhnh2rcd13ifvqgug","pricing_plan_id":"cebpf4jnsgd1na2vs0mg"},{"bike_id":"d5e4165b-c041-4ece-851f-03a3fcea3902","system_id":"levelo_inurba_marseille","lat":43.23148,"lon":5.43727,"is_reserved":false,"is_disabled":false,"rental_uris":{"android":"levelo://app?vid=d5e4165b-c041-4ece-851f-03a3fcea3902","ios":"levelo://app?vid=d5e4165b-c041-4ece-851f-03a3fcea3902"},"vehicle_type_id":"4","last_reported":1770140572,"current_range_meters":8800,"station_id":"ce4bhmp2rcd13ifvqgog","pricing_plan_id":"cebpf4jnsgd1na2vs0mg"},{"bike_id":"eb06baa3-f3b4-41de-85d8-b59f30b83f78","system_id":"levelo_inurba_marseille","lat":43.31197,"lon":5.36833,"is_reserved":false,"is_disabled":false,"rental_uris":{"android":"levelo://app?vid=eb06baa3-f3b4-41de-85d8-b59f30b83f78","ios":"levelo://app?vid=eb06baa3-f3b4-41de-85d8-b59f30b83f78"},"vehicle_type_id":"4","last_reported":1770140572,"current_range_meters":8800,"station_id":"ce4bgl92rcd13ifvqbq0","pricing_plan_id":"cebpf4jnsgd1na2vs0mg"},{"bike_id":"f57600aa-3553-4c5b-8eb9-2131032f6811","system_id":"levelo_inurba_marseille","lat":43.28211,"lon":5.39058,"is_reserved":false,"is_disabled":true,"rental_uris":{"android":"levelo://app?vid=f57600aa-3553-4c5b-8eb9-2131032f6811","ios":"levelo://app?vid=f57600aa-3553-4c5b-8eb9-2131032f6811"},"vehicle_type_id":"4","last_reported":1770140572,"current_range_meters":8800,"station_id":"ce4bhn92rcd13ifvqgsg","pricing_plan_id":"cebpf4jnsgd1na2vs0mg"},{"bike_id":"988afa8e-d306-4003-baf9-728102144f56","system_id":"levelo_inurba_marseille","lat":43.26751,"lon":5.38284,"is_reserved":false,"is_disabled":false,"rental_uris":{"android":"levelo://app?vid=988afa8e-d306-4003-baf9-728102144f56","ios":"levelo://app?vid=988afa8e-d306-4003-baf9-728102144f56"},"vehicle_type_id":"4","last_reported":1770140572,"current_range_meters":9200,"station_id":"","pricing_plan_id":"cebpf4jnsgd1na2vs0mg"},{"bike_id":"c8ee87a4-f4fb-44ea-8e86-57270436f4cc","system_id":"levelo_inurba_marseille","lat":43.28845,"lon":5.39306,"is_reserved":false,"is_disabled":false,"rental_uris":{"android":"levelo://app?vid=c8ee87a4-f4fb-44ea-8e86-57270436f4cc","ios":"levelo://app?vid=c8ee87a4-f4fb-44ea-8e86-57270436f4cc"},"vehicle_type_id":"4","last_reported":1770140572,"current_range_meters":9200,"station_id":"ce4bh2p2rcd13ifvqdi0","pricing_plan_id":"cebpf4jnsgd1na2vs0mg"},{"bike_id":"25ed47fc-271f-4de7-a2a6-6e589391bb92","system_id":"levelo_inurba_marseille","lat":43.284214,"lon":5.349707,"is_reserved":false,"is_disabled":false,"rental_uris":{"android":"levelo://app?vid=25ed47fc-271f-4de7-a2a6-6e589391bb92","ios":"levelo://app?vid=25ed47fc-271f-4de7-a2a6-6e589391bb92"},"vehicle_type_id":"4","last_reported":1770140572,"current_range_meters":9200,"station_id":"ce4bhbh2rcd13ifvqepg","pricing_plan_id":"cebpf4jnsgd1na2vs0mg"},{"bike_id":"30a564fc-cc84-4416-a8a0-217a2d812352","system_id":"levelo_inurba_marseille","lat":43.31704,"lon":5.4047,"is_reserved":false,"is_disabled":false,"rental_uris":{"android":"levelo://app?vid=30a564fc-cc84-4416-a8a0-217a2d812352","ios":"levelo://app?vid=30a564fc-cc84-4416-a8a0-217a2d812352"},"vehicle_type_id":"4","last_reported":1770140572,"current_range_meters":9200,"station_id":"ce4bh012rcd13ifvqd00","pricing_plan_id":"cebpf4jnsgd1na2vs0mg"},{"bike_id":"d046b3fa-a12e-4b3d-bdae-d72e01bbe882","system_id":"levelo_inurba_marseille","lat":43.28001,"lon":5.40011,"is_reserved":false,"is_disabled":false,"rental_uris":{"android":"levelo://app?vid=d046b3fa-a12e-4b3d-bdae-d72e01bbe882","ios":"levelo://app?vid=d046b3fa-a12e-4b3d-bdae-d72e01bbe882"},"vehicle_type_id":"4","last_reported":1770140572,"current_range_meters":9200,"station_id":"ce4bho92rcd13ifvqh4g","pricing_plan_id":"cebpf4jnsgd1na2vs0mg"},{"bike_id":"94c57b6b-3cb1-46b8-bb1d-63eef1cf100b","system_id":"levelo_inurba_marseille","lat":43.29911,"lon":5.37485,"is_reserved":false,"is_disabled":false,"rental_uris":{"android":"levelo://app?vid=94c57b6b-3cb1-46b8-bb1d-63eef1cf100b","ios":"levelo://app?vid=94c57b6b-3cb1-46b8-bb1d-63eef1cf100b"},"vehicle_type_id":"4","last_reported":1770140572,"current_range_meters":9200,"station_id":"ce4bgjh2rcd13ifvqbg0","pricing_plan_id":"cebpf4jnsgd1na2vs0mg"},{"bike_id":"5892fc85-7848-4ac6-9041-3115ffbc60b4","system_id":"levelo_inurba_marseille","lat":43.24665,"lon":5.38145,"is_reserved":false,"is_disabled":false,"rental_uris":{"android":"levelo://app?vid=5892fc85-7848-4ac6-9041-3115ffbc60b4","ios":"levelo://app?vid=5892fc85-7848-4ac6-9041-3115ffbc60b4"},"vehicle_type_id":"4","last_reported":1770140572,"current_range_meters":9200,"station_id":"ce4bhih2rcd13ifvqfr0","pricing_plan_id":"cebpf4jnsgd1na2vs0mg"},{"bike_id":"9d79ec10-3ed1-4035-8609-ff591e4f54d3","system_id":"levelo_inurba_marseille","lat":43.255741,"lon":5.382297,"is_reserved":false,"is_disabled":false,"rental_uris":{"android":"levelo://app?vid=9d79ec10-3ed1-4035-8609-ff591e4f54d3","ios":"levelo://app?vid=9d79ec10-3ed1-4035-8609-ff591e4f54d3"},"vehicle_type_id":"4","last_reported":1770140572,"current_range_meters":9200,"station_id":"ce4bhih2rcd13ifvqfs0","pricing_plan_id":"cebpf4jnsgd1na2vs0mg"},{"bike_id":"c7f54c04-a218-42d0-8644-fc599814cfde","system_id":"levelo_inurba_marseille","lat":43.2828,"lon":5.35056,"is_reserved":false,"is_disabled":false,"rental_uris":{"android":"levelo://app?vid=c7f54c04-a218-42d0-8644-fc599814cfde","ios":"levelo://app?vid=c7f54c04-a218-42d0-8644-fc599814cfde"},"vehicle_type_id":"4","last_reported":1770140572,"current_range_meters":9200,"station_id":"ce4bhbp2rcd13ifvqerg","pricing_plan_id":"cebpf4jnsgd1na2vs0mg"},{"bike_id":"7562ba91-76cc-4020-aefe-3ab47cfdde16","system_id":"levelo_inurba_marseille","lat":43.25577,"lon":5.38235,"is_reserved":false,"is_disabled":false,"rental_uris":{"android":"levelo://app?vid=7562ba91-76cc-4020-aefe-3ab47cfdde16","ios":"levelo://app?vid=7562ba91-76cc-4020-aefe-3ab47cfdde16"},"vehicle_type_id":"4","last_reported":1770140572,"current_range_meters":9200,"station_id":"ce4bhih2rcd13ifvqfs0","pricing_plan_id":"cebpf4jnsgd1na2vs0mg"},{"bike_id":"abf00b7b-18d3-4552-8425-15ba1c67d761","system_id":"levelo_inurba_marseille","lat":43.26932,"lon":5.38921,"is_reserved":false,"is_disabled":false,"rental_uris":{"android":"levelo://app?vid=abf00b7b-18d3-4552-8425-15ba1c67d761","ios":"levelo://app?vid=abf00b7b-18d3-4552-8425-15ba1c67d761"},"vehicle_type_id":"4","last_reported":1770140572,"current_range_meters":9200,"station_id":"ce4bhhh2rcd13ifvqfl0","pricing_plan_id":"cebpf4jnsgd1na2vs0mg"},{"bike_id":"9a41c992-8ec6-4c5f-9787-da9fbb815a48","system_id":"levelo_inurba_marseille","lat":43.25583,"lon":5.38236,"is_reserved":false,"is_disabled":false,"rental_uris":{"android":"levelo://app?vid=9a41c992-8ec6-4c5f-9787-da9fbb815a48","ios":"levelo://app?vid=9a41c992-8ec6-4c5f-9787-da9fbb815a48"},"vehicle_type_id":"4","last_reported":1770140572,"current_range_meters":9200,"station_id":"ce4bhih2rcd13ifvqfs0","pricing_plan_id":"cebpf4jnsgd1na2vs0mg"},{"bike_id":"20584370-affe-4cdc-a437-b9a79a473bad","system_id":"levelo_inurba_marseille","lat":43.283514,"lon":5.381101,"is_reserved":false,"is_disabled":false,"rental_uris":{"android":"levelo://app?vid=20584370-affe-4cdc-a437-b9a79a473bad","ios":"levelo://app?vid=20584370-affe-4cdc-a437-b9a79a473bad"},"vehicle_type_id":"4","last_reported":1770140572,"current_range_meters":9200,"station_id":"ce4bh412rcd13ifvqdr0","pricing_plan_id":"cebpf4jnsgd1na2vs0mg"},{"bike_id":"ef4aafd7-31d8-4f9b-97f1-b8af2e53c15d","system_id":"levelo_inurba_marseille","lat":43.29894,"lon":5.43678,"is_reserved":false,"is_disabled":false,"rental_uris":{"android":"levelo://app?vid=ef4aafd7-31d8-4f9b-97f1-b8af2e53c15d","ios":"levelo://app?vid=ef4aafd7-31d8-4f9b-97f1-b8af2e53c15d"},"vehicle_type_id":"4","last_reported":1770140572,"current_range_meters":9200,"station_id":"ce4bhpp2rcd13ifvqhfg","pricing_plan_id":"cebpf4jnsgd1na2vs0mg"},{"bike_id":"c4aca7bc-8191-424b-9972-474195ac43b7","system_id":"levelo_inurba_marseille","lat":43.29248,"lon":5.38446,"is_reserved":false,"is_disabled":false,"rental_uris":{"android":"levelo://app?vid=c4aca7bc-8191-424b-9972-474195ac43b7","ios":"levelo://app?vid=c4aca7bc-8191-424b-9972-474195ac43b7"},"vehicle_type_id":"4","last_reported":1770140572,"current_range_meters":9200,"station_id":"ce4bh692rcd13ifvqea0","pricing_plan_id":"cebpf4jnsgd1na2vs0mg"},{"bike_id":"5a575d9f-ba65-4d57-9e4f-e9ec59452fe1","system_id":"levelo_inurba_marseille","lat":43.29534,"lon":5.39052,"is_reserved":false,"is_disabled":false,"rental_uris":{"android":"levelo://app?vid=5a575d9f-ba65-4d57-9e4f-e9ec59452fe1","ios":"levelo://app?vid=5a575d9f-ba65-4d57-9e4f-e9ec59452fe1"},"vehicle_type_id":"4","last_reported":1770140572,"current_range_meters":9200,"station_id":"ce4bh3p2rcd13ifvqdp0","pricing_plan_id":"cebpf4jnsgd1na2vs0mg"},{"bike_id":"51d954a4-b4c2-4c8b-8835-bfcd663c959c","system_id":"levelo_inurba_marseille","lat":43.25821,"lon":5.39437,"is_reserved":false,"is_disabled":false,"rental_uris":{"android":"levelo://app?vid=51d954a4-b4c2-4c8b-8835-bfcd663c959c","ios":"levelo://app?vid=51d954a4-b4c2-4c8b-8835-bfcd663c959c"},"vehicle_type_id":"4","last_reported":1770140572,"current_range_meters":9200,"station_id":"ce4bhip2rcd13ifvqft0","pricing_plan_id":"cebpf4jnsgd1na2vs0mg"},{"bike_id":"66a806c0-8921-4199-8dc5-32a337f225d5","system_id":"levelo_inurba_marseille","lat":43.31721,"lon":5.42407,"is_reserved":false,"is_disabled":false,"rental_uris":{"android":"levelo://app?vid=66a806c0-8921-4199-8dc5-32a337f225d5","ios":"levelo://app?vid=66a806c0-8921-4199-8dc5-32a337f225d5"},"vehicle_type_id":"4","last_reported":1770140572,"current_range_meters":9200,"station_id":"ce4bhp92rcd13ifvqhbg","pricing_plan_id":"cebpf4jnsgd1na2vs0mg"},{"bike_id":"84de5954-e0c9-4a3b-8f7e-4848273e002d","system_id":"levelo_inurba_marseille","lat":43.29735,"lon":5.3767,"is_reserved":false,"is_disabled":false,"rental_uris":{"android":"levelo://app?vid=84de5954-e0c9-4a3b-8f7e-4848273e002d","ios":"levelo://app?vid=84de5954-e0c9-4a3b-8f7e-4848273e002d"},"vehicle_type_id":"4","last_reported":1770140572,"current_range_meters":9600,"station_id":"ce4bgkh2rcd13ifvqbl0","pricing_plan_id":"cebpf4jnsgd1na2vs0mg"},{"bike_id":"0404183b-d098-4059-9b6b-584ff60e730c","system_id":"levelo_inurba_marseille","lat":43.26557,"lon":5.3902,"is_reserved":false,"is_disabled":true,"rental_uris":{"android":"levelo://app?vid=0404183b-d098-4059-9b6b-584ff60e730c","ios":"levelo://app?vid=0404183b-d098-4059-9b6b-584ff60e730c"},"vehicle_type_id":"4","last_reported":1770140572,"current_range_meters":9600,"station_id":"ce4bhe12rcd13ifvqf30","pricing_plan_id":"cebpf4jnsgd1na2vs0mg"},{"bike_id":"570df202-2fbc-46ee-834e-dd41a874b6cd","system_id":"levelo_inurba_marseille","lat":43.30319,"lon":5.40428,"is_reserved":false,"is_disabled":false,"rental_uris":{"android":"levelo://app?vid=570df202-2fbc-46ee-834e-dd41a874b6cd","ios":"levelo://app?vid=570df202-2fbc-46ee-834e-dd41a874b6cd"},"vehicle_type_id":"4","last_reported":1770140572,"current_range_meters":9600,"station_id":"ce4bh012rcd13ifvqd10","pricing_plan_id":"cebpf4jnsgd1na2vs0mg"},{"bike_id":"61c4cbe2-eed4-41e6-a6ff-be907a5d72ed","system_id":"levelo_inurba_marseille","lat":43.25009,"lon":5.38935,"is_reserved":false,"is_disabled":false,"rental_uris":{"android":"levelo://app?vid=61c4cbe2-eed4-41e6-a6ff-be907a5d72ed","ios":"levelo://app?vid=61c4cbe2-eed4-41e6-a6ff-be907a5d72ed"},"vehicle_type_id":"4","last_reported":1770140572,"current_range_meters":9600,"station_id":"ce4bhgp2rcd13ifvqfd0","pricing_plan_id":"cebpf4jnsgd1na2vs0mg"},