{"last_updated":1761495049,"ttl":60,"version":"2.2","data":{"bikes":[{"bike_id":"4cc0edfc-ff46-4c96-9438-209e9afb380b","system_id":"levelo_inurba_marseille","lat":43.282581,"lon":5.372939,"is_reserved":false,"is_disabled":false,"rental_uris":{"android":"levelo://app?vid=4cc0edfc-ff46-4c96-9438-209e9afb380b","ios":"levelo://app?vid=4cc0edfc-ff46-4c96-9438-209e9afb380b"},"vehicle_type_id":"4","last_reported":1761495050,"current_range_meters":2800,"station_id":"","pricing_plan_id":"cebpf4jnsgd1na2vs0mg"},{"bike_id":"c7cddf53-f60e-4249-b160-6f116526b2be","system_id":"levelo_inurba_marseille","lat":43.29853,"lon":5.36262,"is_reserved":false,"is_disabled":false,"rental_uris":{"android":"levelo://app?vid=c7cddf53-f60e-4249-b160-6f116526b2be","ios":"levelo://app?vid=c7cddf53-f60e-4249-b160-6f116526b2be"},"vehicle_type_id":"4","last_reported":1761495050,"current_range_meters":2800,"station_id":"ce4bgpp2rcd13ifvqc3g","pricing_plan_id":"cebpf4jnsgd1na2vs0mg"},{"bike_id":"6eb1a980-fe55-41d0-8d42-8c064be122cc","system_id":"levelo_inurba_marseille","lat":43.29043,"lon":5.39962,"is_reserved":false,"is_disabled":false,"rental_uris":{"android":"levelo://app?vid=6eb1a980-fe55-41d0-8d42-8c064be122cc","ios":"levelo://app?vid=6eb1a980-fe55-41d0-8d42-8c064be122cc"},"vehicle_type_id":"4","last_reported":1761495050,"current_range_meters":2800,"station_id":"ce4bh392rcd13ifvqdm0","pricing_plan_id":"cebpf4jnsgd1na2vs0mg"},{"bike_id":"441939cb-5e57-4a50-a775-6bb0c489d2d2","system_id":"levelo_inurba_marseille","lat":43.28691,"lon":5.37385,"is_reserved":false,"is_disabled":true,"rental_uris":{"android":"levelo://app?vid=441939cb-5e57-4a50-a775-6bb0c489d2d2","ios":"levelo://app?vid=441939cb-5e57-4a50-a775-6bb0c489d2d2"},"vehicle_type_id":"4","last_reported":1761495050,"current_range_meters":3200,"station_id":"ce4bh3p2rcd13ifvqdq0","pricing_plan_id":"cebpf4jnsgd1na2vs0mg"},{"bike_id":"fad5b242-fda4-47fb-8dd3-10b4b0868b53","system_id":"levelo_inurba_marseille","lat":43.2769,"lon":5.389099,"is_reserved":false,"is_disabled":false,"rental_uris":{"android":"levelo://app?vid=fad5b242-fda4-47fb-8dd3-10b4b0868b53","ios":"levelo://app?vid=fad5b242-fda4-47fb-8dd3-10b4b0868b53"},"vehicle_type_id":"4","last_reported":1761495050,"current_range_meters":3200,"station_id":"ce4bhi12rcd13ifvqfo0","pricing_plan_id":"cebpf4jnsgd1na2vs0mg"},{"bike_id":"716ce403-b027-41b0-b42f-723e62bd1a7e","system_id":"levelo_inurba_marseille","lat":43.2481,"lon":5.37453,"is_reserved":false,"is_disabled":false,"rental_uris":{"android":"levelo://app?vid=716ce403-b027-41b0-b42f-723e62bd1a7e","ios":"levelo://app?vid=716ce403-b027-41b0-b42f-723e62bd1a7e"},"vehicle_type_id":"4","last_reported":1761495050,"current_range_meters":3200,"station_id":"ce4bhgh2rcd13ifvqfb0","pricing_plan_id":"cebpf4jnsgd1na2vs0mg"},{"bike_id":"e35e1247-2ec0-4206-a360-6aaa534a130f","system_id":"levelo_inurba_marseille","lat":43.28487,"lon":5.48395,"is_reserved":false,"is_disabled":false,"rental_uris":{"android":"levelo://app?vid=e35e1247-2ec0-4206-a360-6aaa534a130f","ios":"levelo://app?vid=e35e1247-2ec0-4206-a360-6aaa534a130f"},"vehicle_type_id":"4","last_reported":1761495050,"current_range_meters":3200,"station_id":"","pricing_plan_id":"cebpf4jnsgd1na2vs0mg"},{"bike_id":"7c473703-f81d-4a14-aefb-42de75a28b91","system_id":"levelo_inurba_marseille","lat":43.305596,"lon":5.365463,"is_reserved":false,"is_disabled":false,"rental_uris":{"android":"levelo://app?vid=7c473703-f81d-4a14-aefb-42de75a28b91","ios":"levelo://app?vid=7c473703-f81d-4a14-aefb-42de75a28b91"},"vehicle_type_id":"4","last_reported":1761495050,"current_range_meters":3200,"station_id":"ce4bgs12rcd13ifvqcag","pricing_plan_id":"cebpf4jnsgd1na2vs0mg"},{"bike_id":"c97e2da3-f938-4bb6-a99e-7041ad969b33","system_id":"levelo_inurba_marseille","lat":43.28583,"lon":5.39918,"is_reserved":false,"is_disabled":false,"rental_uris":{"android":"levelo://app?vid=c97e2da3-f938-4bb6-a99e-7041ad969b33","ios":"levelo://app?vid=c97e2da3-f938-4bb6-a99e-7041ad969b33"},"vehicle_type_id":"4","last_reported":1761495050,"current_range_meters":3600,"station_id":"","pricing_plan_id":"cebpf4jnsgd1na2vs0mg"},{"bike_id":"5f9debc0-c360-4a2e-b517-592e9a0c2818","system_id":"levelo_inurba_marseille","lat":43.32925,"lon":5.42787,"is_reserved":false,"is_disabled":false,"rental_uris":{"android":"levelo://app?vid=5f9debc0-c360-4a2e-b517-592e9a0c2818","ios":"levelo://app?vid=5f9debc0-c360-4a2e-b517-592e9a0c2818"},"vehicle_type_id":"4","last_reported":1761495050,"current_range_meters":3600,"station_id":"","pricing_plan_id":"cebpf4jnsgd1na2vs0mg"},{"bike_id":"33f92ac7-c2f8-4788-b237-8743ab7987ec","system_id":"levelo_inurba_marseille","lat":43.306002,"lon":5.393554,"is_reserved":false,"is_disabled":false,"rental_uris":{"android":"levelo://app?vid=33f92ac7-c2f8-4788-b237-8743ab7987ec","ios":"levelo://app?vid=33f92ac7-c2f8-4788-b237-8743ab7987ec"},"vehicle_type_id":"4","last_reported":1761495050,"current_range_meters":3600,"station_id":"ce4bh0p2rcd13ifvqd80","pricing_plan_id":"cebpf4jnsgd1na2vs0mg"},{"bike_id":"35bb52c0-9055-465d-abe6-f204ef759217","system_id":"levelo_inurba_marseille","lat":43.281064,"lon":5.378255,"is_reserved":false,"is_disabled":false,"rental_uris":{"android":"levelo://app?vid=35bb52c0-9055-465d-abe6-f204ef759217","ios":"levelo://app?vid=35bb52c0-9055-465d-abe6-f204ef759217"},"vehicle_type_id":"4","last_reported":1761495050,"current_range_meters":4000,"station_id":"ce4bh692rcd13ifvqea0","pricing_plan_id":"cebpf4jnsgd1na2vs0mg"},{"bike_id":"61c81ee8-ac52-438e-a2da-c954e80a6b9a","system_id":"levelo_inurba_marseille","lat":43.315613,"lon":5.380086,"is_reserved":false,"is_disabled":false,"rental_uris":{"android":"levelo://app?vid=61c81ee8-ac52-438e-a2da-c954e80a6b9a","ios":"levelo://app?vid=61c81ee8-ac52-438e-a2da-c954e80a6b9a"},"vehicle_type_id":"4","last_reported":1761495050,"current_range_meters":4400,"station_id":"ce4bhsp2rcd13ifvqi50","pricing_plan_id":"cebpf4jnsgd1na2vs0mg"},{"bike_id":"1f67ed11-b726-4ce2-948d-1de2d06e17ac","system_id":"levelo_inurba_marseille","lat":43.29261,"lon":5.38444,"is_reserved":false,"is_disabled":false,"rental_uris":{"android":"levelo://app?vid=1f67ed11-b726-4ce2-948d-1de2d06e17ac","ios":"levelo://app?vid=1f67ed11-b726-4ce2-948d-1de2d06e17ac"},"vehicle_type_id":"4","last_reported":1761495050,"current_range_meters":4400,"station_id":"ce4bh692rcd13ifvqea0","pricing_plan_id":"cebpf4jnsgd1na2vs0mg"},{"bike_id":"130a2f3b-44ef-4379-955b-734f368e5cf9","system_id":"levelo_inurba_marseille","lat":43.27207,"lon":5.39186,"is_reserved":false,"is_disabled":false,"rental_uris":{"android":"levelo://app?vid=130a2f3b-44ef-4379-955b-734f368e5cf9","ios":"levelo://app?vid=130a2f3b-44ef-4379-955b-734f368e5cf9"},"vehicle_type_id":"4","last_reported":1761495050,"current_range_meters":4400,"station_id":"ce4bhhp2rcd13ifvqfm0","pricing_plan_id":"cebpf4jnsgd1na2vs0mg"},{"bike_id":"3c68b102-7aee-45f4-913a-cfd84d70eac3","system_id":"levelo_inurba_marseille","lat":43.292603,"lon":5.384447,"is_reserved":false,"is_disabled":false,"rental_uris":{"android":"levelo://app?vid=3c68b102-7aee-45f4-913a-cfd84d70eac3","ios":"levelo://app?vid=3c68b102-7aee-45f4-913a-cfd84d70eac3"},"vehicle_type_id":"4","last_reported":1761495050,"current_range_meters":4800,"station_id":"","pricing_plan_id":"cebpf4jnsgd1na2vs0mg"},{"bike_id":"8126cef1-f746-4615-b294-abfad0419602","system_id":"levelo_inurba_marseille","lat":43.22533,"lon":5.34834,"is_reserved":false,"is_disabled":false,"rental_uris":{"android":"levelo://app?vid=8126cef1-f746-4615-b294-abfad0419602","ios":"levelo://app?vid=8126cef1-f746-4615-b294-abfad0419602"},"vehicle_type_id":"4","last_reported":1761495050,"current_range_meters":4800,"station_id":"","pricing_plan_id":"cebpf4jnsgd1na2vs0mg"},{"bike_id":"19389e62-2bed-4144-b6ea-0246764bb949","system_id":"levelo_inurba_marseille","lat":43.225323,"lon":5.34838,"is_reserved":false,"is_disabled":false,"rental_uris":{"android":"levelo://app?vid=19389e62-2bed-4144-b6ea-0246764bb949","ios":"levelo://app?vid=19389e62-2bed-4144-b6ea-0246764bb949"},"vehicle_type_id":"4","last_reported":1761495050,"current_range_meters":4800,"station_id":"","pricing_plan_id":"cebpf4jnsgd1na2vs0mg"},{"bike_id":"4f5c5045-2f2c-4ab7-ad8b-eeba1d52fe66","system_id":"levelo_inurba_marseille","lat":43.31412,"lon":5.36862,"is_reserved":false,"is_disabled":false,"rental_uris":{"android":"levelo://app?vid=4f5c5045-2f2c-4ab7-ad8b-eeba1d52fe66","ios":"levelo://app?vid=4f5c5045-2f2c-4ab7-ad8b-eeba1d52fe66"},"vehicle_type_id":"4","last_reported":1761495050,"current_range_meters":5600,"station_id":"","pricing_plan_id":"cebpf4jnsgd1na2vs0mg"},{"bike_id":"fc1b4fb3-4151-46fb-a48a-dc01d81831d9","system_id":"levelo_inurba_marseille","lat":43.26228,"lon":5.37443,"is_reserved":false,"is_disabled":false,"rental_uris":{"android":"levelo://app?vid=fc1b4fb3-4151-46fb-a48a-dc01d81831d9","ios":"levelo://app?vid=fc1b4fb3-4151-46fb-a48a-dc01d81831d9"},"vehicle_type_id":"4","last_reported":1761495050,"current_range_meters":5600,"station_id":"","pricing_plan_id":"cebpf4jnsgd1na2vs0mg"},{"bike_id":"64b8e492-d912-4eb3-a754-2fd46c33ab1d","system_id":"levelo_inurba_marseille","lat":43.30913,"lon":5.36837,"is_reserved":false,"is_disabled":false,"rental_uris":{"android":"levelo://app?vid=64b8e492-d912-4eb3-a754-2fd46c33ab1d","ios":"levelo://app?vid=64b8e492-d912-4eb3-a754-2fd46c33ab1d"},"vehicle_type_id":"4","last_reported":1761495050,"current_range_meters":5600,"station_id":"ce4bgn92rcd13ifvqbvg","pricing_plan_id":"cebpf4jnsgd1na2vs0mg"},{"bike_id":"548c3a32-b205-4978-985a-a404aa1e0dea","system_id":"levelo_inurba_marseille","lat":43.32102,"lon":5.3677,"is_reserved":false,"is_disabled":false,"rental_uris":{"android":"levelo://app?vid=548c3a32-b205-4978-985a-a404aa1e0dea","ios":"levelo://app?vid=548c3a32-b205-4978-985a-a404aa1e0dea"},"vehicle_type_id":"4","last_reported":1761495050,"current_range_meters":6000,"station_id":"ce4bhrh2rcd13ifvqhug","pricing_plan_id":"cebpf4jnsgd1na2vs0mg"},{"bike_id":"fa063608-29c2-42ab-95b5-2fc82231eea9","system_id":"levelo_inurba_marseille","lat":43.21191,"lon":5.35078,"is_reserved":false,"is_disabled":false,"rental_uris":{"android":"levelo://app?vid=fa063608-29c2-42ab-95b5-2fc82231eea9","ios":"levelo://app?vid=fa063608-29c2-42ab-95b5-2fc82231eea9"},"vehicle_type_id":"4","last_reported":1761495050,"current_range_meters":6000,"station_id":"st_cvj6sg6p6f1abm77japg","pricing_plan_id":"cebpf4jnsgd1na2vs0mg"},{"bike_id":"3ceb5144-9b9a-46d9-816c-321d47f3dfb5","system_id":"levelo_inurba_marseille","lat":43.30371,"lon":5.42488,"is_reserved":false,"is_disabled":false,"rental_uris":{"android":"levelo://app?vid=3ceb5144-9b9a-46d9-816c-321d47f3dfb5","ios":"levelo://app?vid=3ceb5144-9b9a-46d9-816c-321d47f3dfb5"},"vehicle_type_id":"4","last_reported":1761495050,"current_range_meters":6400,"station_id":"ce4bhoh2rcd13ifvqh6g","pricing_plan_id":"cebpf4jnsgd1na2vs0mg"},{"bike_id":"8d8178d3-1bc7-4b2a-8ec5-03880f77e60b","system_id":"levelo_inurba_marseille","lat":43.295279,"lon":5.375037,"is_reserved":false,"is_disabled":false,"rental_uris":{"android":"levelo://app?vid=8d8178d3-1bc7-4b2a-8ec5-03880f77e60b","ios":"levelo://app?vid=8d8178d3-1bc7-4b2a-8ec5-03880f77e60b"},"vehicle_type_id":"4","last_reported":1761495050,"current_range_meters":6400,"station_id":"ce4bgkh2rcd13ifvqbk0","pricing_plan_id":"cebpf4jnsgd1na2vs0mg"},{"bike_id":"9887b574-954e-49a6-99e2-3a975508de1b","system_id":"levelo_inurba_marseille","lat":43.293716,"lon":5.378665,"is_reserved":false,"is_disabled":true,"rental_uris":{"android":"levelo://app?vid=9887b574-954e-49a6-99e2-3a975508de1b","ios":"levelo://app?vid=9887b574-954e-49a6-99e2-3a975508de1b"},"vehicle_type_id":"4","last_reported":1761495050,"current_range_meters":6400,"station_id":"ce4bgjh2rcd13ifvqbf0","pricing_plan_id":"cebpf4jnsgd1na2vs0mg"},{"bike_id":"e94f57f2-601c-4cad-a187-6e953770aa25","system_id":"levelo_inurba_marseille","lat":43.312228,"lon":5.3783,"is_reserved":false,"is_disabled":false,"rental_uris":{"android":"levelo://app?vid=e94f57f2-601c-4cad-a187-6e953770aa25","ios":"levelo://app?vid=e94f57f2-601c-4cad-a187-6e953770aa25"},"vehicle_type_id":"4","last_reported":1761495050,"current_range_meters":6400,"station_id":"","pricing_plan_id":"cebpf4jnsgd1na2vs0mg"},{"bike_id":"c8232854-a05f-4b3c-8dde-bb8cbbccfc1e","system_id":"levelo_inurba_marseille","lat":43.31064,"lon":5.38348,"is_reserved":false,"is_disabled":false,"rental_uris":{"android":"levelo://app?vid=c8232854-a05f-4b3c-8dde-bb8cbbccfc1e","ios":"levelo://app?vid=c8232854-a05f-4b3c-8dde-bb8cbbccfc1e"},"vehicle_type_id":"4","last_reported":1761495050,"current_range_meters":6400,"station_id":"ce4bgv92rcd13ifvqcr0","pricing_plan_id":"cebpf4jnsgd1na2vs0mg"},{"bike_id":"2b08430f-3826-4249-8325-53b3985c5d73","system_id":"levelo_inurba_marseille","lat":43.27828,"lon":5.41489,"is_reserved":false,"is_disabled":false,"rental_uris":{"android":"levelo://app?vid=2b08430f-3826-4249-8325-53b3985c5d73","ios":"levelo://app?vid=2b08430f-3826-4249-8325-53b3985c5d73"},"vehicle_type_id":"4","last_reported":1761495050,"current_range_meters":6800,"station_id":"","pricing_plan_id":"cebpf4jnsgd1na2vs0mg"},{"bike_id":"671f0a63-bf83-4013-a054-34f4defee15b","system_id":"levelo_inurba_marseille","lat":43.283464,"lon":5.381033,"is_reserved":false,"is_disabled":false,"rental_uris":{"android":"levelo://app?vid=671f0a63-bf83-4013-a054-34f4defee15b","ios":"levelo://app?vid=671f0a63-bf83-4013-a054-34f4defee15b"},"vehicle_type_id":"4","last_reported":1761495050,"current_range_meters":6800,"station_id":"ce4bh412rcd13ifvqdr0","pricing_plan_id":"cebpf4jnsgd1na2vs0mg"},{"bike_id":"a35a4922-b803-4cd9-8623-7e895c294787","system_id":"levelo_inurba_marseille","lat":43.29788,"lon":5.38278,"is_reserved":false,"is_disabled":true,"rental_uris":{"android":"levelo://app?vid=a35a4922-b803-4cd9-8623-7e895c294787","ios":"levelo://app?vid=a35a4922-b803-4cd9-8623-7e895c294787"},"vehicle_type_id":"4","last_reported":1761495050,"current_range_meters":6800,"station_id":"","pricing_plan_id":"cebpf4jnsgd1na2vs0mg"},{"bike_id":"af309b62-d2cd-4e59-917c-416ef9c899b6","system_id":"levelo_inurba_marseille","lat":43.26061,"lon":5.3939,"is_reserved":false,"is_disabled":true,"rental_uris":{"android":"levelo://app?vid=af309b62-d2cd-4e59-917c-416ef9c899b6","ios":"levelo://app?vid=af309b62-d2cd-4e59-917c-416ef9c899b6"},"vehicle_type_id":"4","last_reported":1761495050,"current_range_meters":7200,"station_id":"ce4bhh92rcd13ifvqfj0","pricing_plan_id":"cebpf4jnsgd1na2vs0mg"},{"bike_id":"51b614d1-6dfe-4e67-9a5e-bfd8acf52d94","system_id":"levelo_inurba_marseille","lat":43.3013,"lon":5.38778,"is_reserved":false,"is_disabled":true,"rental_uris":{"android":"levelo://app?vid=51b614d1-6dfe-4e67-9a5e-bfd8acf52d94","ios":"levelo://app?vid=51b614d1-6dfe-4e67-9a5e-bfd8acf52d94"},"vehicle_type_id":"4","last_reported":1761495050,"current_range_meters":7200,"station_id":"ce4bghh2rcd13ifvqb60","pricing_plan_id":"cebpf4jnsgd1na2vs0mg"},{"bike_id":"8be6a47c-9542-4fed-8109-f6d91a0f2b3f","system_id":"levelo_inurba_marseille","lat":43.29174,"lon":5.37161,"is_reserved":false,"is_disabled":false,"rental_uris":{"android":"levelo://app?vid=8be6a47c-9542-4fed-8109-f6d91a0f2b3f","ios":"levelo://app?vid=8be6a47c-9542-4fed-8109-f6d91a0f2b3f"},"vehicle_type_id":"4","last_reported":1761495050,"current_range_meters":7200,"station_id":"ce4bha92rcd13ifvqeh0","pricing_plan_id":"cebpf4jnsgd1na2vs0mg"},{"bike_id":"240744c7-9b51-4fe7-b63a-44fad7ab2abf","system_id":"levelo_inurba_marseille","lat":43.27206,"lon":5.39184,"is_reserved":false,"is_disabled":false,"rental_uris":{"android":"levelo://app?vid=240744c7-9b51-4fe7-b63a-44fad7ab2abf","ios":"levelo://app?vid=240744c7-9b51-4fe7-b63a-44fad7ab2abf"},"vehicle_type_id":"4","last_reported":1761495050,"current_range_meters":7200,"station_id":"ce4bhhp2rcd13ifvqfm0","pricing_plan_id":"cebpf4jnsgd1na2vs0mg"},{"bike_id":"7592b85c-cae0-48ab-96a8-dedde29cb655","system_id":"levelo_inurba_marseille","lat":43.264925,"lon":5.395343,"is_reserved":false,"is_disabled":false,"rental_uris":{"android":"levelo://app?vid=7592b85c-cae0-48ab-96a8-dedde29cb655","ios":"levelo://app?vid=7592b85c-cae0-48ab-96a8-dedde29cb655"},"vehicle_type_id":"4","last_reported":1761495050,"current_range_meters":7200,"station_id":"ce4bhi12rcd13ifvqfq0","pricing_plan_id":"cebpf4jnsgd1na2vs0mg"},{"bike_id":"b271dec7-e9c0-4031-a78b-d3a50b11d54a","system_id":"levelo_inurba_marseille","lat":43.28686,"lon":5.4126,"is_reserved":false,"is_disabled":false,"rental_uris":{"android":"levelo://app?vid=b271dec7-e9c0-4031-a78b-d3a50b11d54a","ios":"levelo://app?vid=b271dec7-e9c0-4031-a78b-d3a50b11d54a"},"vehicle_type_id":"4","last_reported":1761495050,"current_range_meters":7200,"station_id":"","pricing_plan_id":"cebpf4jnsgd1na2vs0mg"},{"bike_id":"dab36927-4328-48fa-bffb-145a737de07e","system_id":"levelo_inurba_marseille","lat":43.30785,"lon":5.43531,"is_reserved":false,"is_disabled":true,"rental_uris":{"android":"levelo://app?vid=dab36927-4328-48fa-bffb-145a737de07e","ios":"levelo://app?vid=dab36927-4328-48fa-bffb-145a737de07e"},"vehicle_type_id":"4","last_reported":1761495050,"current_range_meters":8000,"station_id":"ce4bhph2rcd13ifvqheg","pricing_plan_id":"cebpf4jnsgd1na2vs0mg"},{"bike_id":"c456e3cb-6093-4140-82d3-dd6bc9b86cd6","system_id":"levelo_inurba_marseille","lat":43.269498,"lon":5.386305,"is_reserved":false,"is_disabled":false,"rental_uris":{"android":"levelo://app?vid=c456e3cb-6093-4140-82d3-dd6bc9b86cd6","ios":"levelo://app?vid=c456e3cb-6093-4140-82d3-dd6bc9b86cd6"},"vehicle_type_id":"4","last_reported":1761495050,"current_range_meters":8000,"station_id":"ce4bhh92rcd13ifvqfh0","pricing_plan_id":"cebpf4jnsgd1na2vs0mg"},{"bike_id":"9d964ec4-c537-4f1d-b21c-451d3f46b1bf","system_id":"levelo_inurba_marseille","lat":43.29921,"lon":5.37852,"is_reserved":false,"is_disabled":false,"rental_uris":{"android":"levelo://app?vid=9d964ec4-c537-4f1d-b21c-451d3f46b1bf","ios":"levelo://app?vid=9d964ec4-c537-4f1d-b21c-451d3f46b1bf"},"vehicle_type_id":"4","last_reported":1761495050,"current_range_meters":8000,"station_id":"","pricing_plan_id":"cebpf4jnsgd1na2vs0mg"},{"bike_id":"3594f8eb-780c-4da9-9c62-1833e7e350a9","system_id":"levelo_inurba_marseille","lat":43.29879,"lon":5.39733,"is_reserved":false,"is_disabled":false,"rental_uris":{"android":"levelo://app?vid=3594f8eb-780c-4da9-9c62-1833e7e350a9","ios":"levelo://app?vid=3594f8eb-780c-4da9-9c62-1833e7e350a9"},"vehicle_type_id":"4","last_reported":1761495050,"current_range_meters":8000,"station_id":"ce4bh0h2rcd13ifvqd50","pricing_plan_id":"cebpf4jnsgd1na2vs0mg"},{"bike_id":"659c3917-a7cc-437a-851c-ecae134718ba","system_id":"levelo_inurba_marseille","lat":43.29898,"lon":5.38142,"is_reserved":false,"is_disabled":false,"rental_uris":{"android":"levelo://app?vid=659c3917-a7cc-437a-851c-ecae134718ba","ios":"levelo://app?vid=659c3917-a7cc-437a-851c-ecae134718ba"},"vehicle_type_id":"4","last_reported":1761495050,"current_range_meters":8400,"station_id":"ce4bgj12rcd13ifvqbc0","pricing_plan_id":"cebpf4jnsgd1na2vs0mg"},{"bike_id":"b9423211-dd34-4aac-9ce9-207eb1fc3a45","system_id":"levelo_inurba_marseille","lat":43.29931,"lon":5.36573,"is_reserved":false,"is_disabled":false,"rental_uris":{"android":"levelo://app?vid=b9423211-dd34-4aac-9ce9-207eb1fc3a45","ios":"levelo://app?vid=b9423211-dd34-4aac-9ce9-207eb1fc3a45"},"vehicle_type_id":"4","last_reported":1761495050,"current_range_meters":8400,"station_id":"ce4bgm92rcd13ifvqbr0","pricing_plan_id":"cebpf4jnsgd1na2vs0mg"},{"bike_id":"8e85e0b4-1d5e-4059-938e-f4c16ba4c8ab","system_id":"levelo_inurba_marseille","lat":43.2416,"lon":5.3639,"is_reserved":false,"is_disabled":false,"rental_uris":{"android":"levelo://app?vid=8e85e0b4-1d5e-4059-938e-f4c16ba4c8ab","ios":"levelo://app?vid=8e85e0b4-1d5e-4059-938e-f4c16ba4c8ab"},"vehicle_type_id":"4","last_reported":1761495050,"current_range_meters":8400,"station_id":"cpo36qri1sfpv3e86is0","pricing_plan_id":"cebpf4jnsgd1na2vs0mg"},{"bike_id":"3052ddd3-28d6-4ef1-bb5c-2ed3968ecc15","system_id":"levelo_inurba_marseille","lat":43.27958,"lon":5.38733,"is_reserved":false,"is_disabled":false,"rental_uris":{"android":"levelo://app?vid=3052ddd3-28d6-4ef1-bb5c-2ed3968ecc15","ios":"levelo://app?vid=3052ddd3-28d6-4ef1-bb5c-2ed3968ecc15"},"vehicle_type_id":"4","last_reported":1761495050,"current_range_meters":8400,"station_id":"ce4bhg12rcd13ifvqf80","pricing_plan_id":"cebpf4jnsgd1na2vs0mg"},{"bike_id":"8ccfbb85-30a5-4745-96f0-a706b72218a1","system_id":"levelo_inurba_marseille","lat":43.31424,"lon":5.38882,"is_reserved":false,"is_disabled":false,"rental_uris":{"android":"levelo://app?vid=8ccfbb85-30a5-4745-96f0-a706b72218a1","ios":"levelo://app?vid=8ccfbb85-30a5-4745-96f0-a706b72218a1"},"vehicle_type_id":"4","last_reported":1761495050,"current_range_meters":8800,"station_id":"","pricing_plan_id":"cebpf4jnsgd1na2vs0mg"},{"bike_id":"43117888-69d1-4bc6-a73a-697554e4a08e","system_id":"levelo_inurba_marseille","lat":43.252544,"lon":5.378055,"is_reserved":false,"is_disabled":false,"rental_uris":{"android":"levelo://app?vid=43117888-69d1-4bc6-a73a-697554e4a08e","ios":"levelo://app?vid=43117888-69d1-4bc6-a73a-697554e4a08e"},"vehicle_type_id":"4","last_reported":1761495050,"current_range_meters":8800,"station_id":"","pricing_plan_id":"cebpf4jnsgd1na2vs0mg"},{"bike_id":"69880247-38f2-48e7-ab49-326f3d5eca30","system_id":"levelo_inurba_marseille","lat":43.21182,"lon":5.35093,"is_reserved":false,"is_disabled":true,"rental_uris":{"android":"levelo://app?vid=69880247-38f2-48e7-ab49-326f3d5eca30","ios":"levelo://app?vid=69880247-38f2-48e7-ab49-326f3d5eca30"},"vehicle_type_id":"4","last_reported":1761495050,"current_range_meters":8800,"station_id":"","pricing_plan_id":"cebpf4jnsgd1na2vs0mg"},{"bike_id":"11ed3229-da96-464f-bee1-15ff06dff35a","system_id":"levelo_inurba_marseille","lat":43.21191,"lon":5.35072,"is_reserved":false,"is_disabled":false,"rental_uris":{"android":"levelo://app?vid=11ed3229-da96-464f-bee1-15ff06dff35a","ios":"levelo://app?vid=11ed3229-da96-464f-bee1-15ff06dff35a"},"vehicle_type_id":"4","last_reported":1761495050,"current_range_meters":8800,"station_id":"st_cvj6sg6p6f1abm77japg","pricing_plan_id":"cebpf4jnsgd1na2vs0mg"},{"bike_id":"d95e1959-a54a-4ffc-b75b-87710bb97b6b","system_id":"levelo_inurba_marseille","lat":43.29904,"lon":5.38136,"is_reserved":false,"is_disabled":false,"rental_uris":{"android":"levelo://app?vid=d95e1959-a54a-4ffc-b75b-87710bb97b6b","ios":"levelo://app?vid=d95e1959-a54a-4ffc-b75b-87710bb97b6b"},"vehicle_type_id":"4","last_reported":1761495050,"current_range_meters":8800,"station_id":"ce4bgj12rcd13ifvqbc0","pricing_plan_id":"cebpf4jnsgd1na2vs0mg"},{"bike_id":"b8c52303-c303-40a6-9847-945f91a06135","system_id":"levelo_inurba_marseille","lat":43.31258,"lon":5.36848,"is_reserved":false,"is_disabled":false,"rental_uris":{"android":"levelo://app?vid=b8c52303-c303-40a6-9847-945f91a06135","ios":"levelo://app?vid=b8c52303-c303-40a6-9847-945f91a06135"},"vehicle_type_id":"4","last_reported":1761495050,"current_range_meters":8800,"station_id":"ce4bgl92rcd13ifvqbq0","pricing_plan_id":"cebpf4jnsgd1na2vs0mg"},{"bike_id":"a5a21a2e-05a4-424d-b024-070a8e8fba76","system_id":"levelo_inurba_marseille","lat":43.3229,"lon":5.38274,"is_reserved":false,"is_disabled":false,"rental_uris":{"android":"levelo://app?vid=a5a21a2e-05a4-424d-b024-070a8e8fba76","ios":"levelo://app?vid=a5a21a2e-05a4-424d-b024-070a8e8fba76"},"vehicle_type_id":"4","last_reported":1761495050,"current_range_meters":9200,"station_id":"ce4bhr12rcd13ifvqhqg","pricing_plan_id":"cebpf4jnsgd1na2vs0mg"},{"bike_id":"8488a187-65f2-4dee-bdf8-8332fcab5805","system_id":"levelo_inurba_marseille","lat":43.24068,"lon":5.37769,"is_reserved":false,"is_disabled":false,"rental_uris":{"android":"levelo://app?vid=8488a187-65f2-4dee-bdf8-8332fcab5805","ios":"levelo://app?vid=8488a187-65f2-4dee-bdf8-8332fcab5805"},"vehicle_type_id":"4","last_reported":1761495050,"current_range_meters":9600,"station_id":"ce4bhnp2rcd13ifvqgvg","pricing_plan_id":"cebpf4jnsgd1na2vs0mg"},{"bike_id":"5dd04910-101f-4654-853d-341f84b98945","system_id":"levelo_inurba_marseille","lat":43.28988,"lon":5.37189,"is_reserved":false,"is_disabled":false,"rental_uris":{"android":"levelo://app?vid=5dd04910-101f-4654-853d-341f84b98945","ios":"levelo://app?vid=5dd04910-101f-4654-853d-341f84b98945"},"vehicle_type_id":"4","last_reported":1761495050,"current_range_meters":9600,"station_id":"","pricing_plan_id":"cebpf4jnsgd1na2vs0mg"},{"bike_id":"28edbe2d-aef3-4869-8c3f-3d6b7e884dd3","system_id":"levelo_inurba_marseille","lat":43.284138,"lon":5.375148,"is_reserved":false,"is_disabled":false,"rental_uris":{"android":"levelo://app?vid=28edbe2d-aef3-4869-8c3f-3d6b7e884dd3","ios":"levelo://app?vid=28edbe2d-aef3-4869-8c3f-3d6b7e884dd3"},"vehicle_type_id":"4","last_reported":1761495050,"current_range_meters":9600,"station_id":"ce4bh412rcd13ifvqds0","pricing_plan_id":"cebpf4jnsgd1na2vs0mg"},{"bike_id":"d3145067-3ca0-4e72-b01a-ef78c0959aad","system_id":"levelo_inurba_marseille","lat":43.30225,"lon":5.4006,"is_reserved":false,"is_disabled":true,"rental_uris":{"android":"levelo://app?vid=d3145067-3ca0-4e72-b01a-ef78c0959aad","ios":"levelo://app?vid=d3145067-3ca0-4e72-b01a-ef78c0959aad"},"vehicle_type_id":"4","last_reported":1761495050,"current_range_meters":9600,"station_id":"","pricing_plan_id":"cebpf4jnsgd1na2vs0mg"},{"bike_id":"51fb5a9f-41e1-4eb6-91ba-596140356d2b","system_id":"levelo_inurba_marseille","lat":43.241754,"lon":5.397168,"is_reserved":false,"is_disabled":false,"rental_uris":{"android":"levelo://app?vid=51fb5a9f-41e1-4eb6-91ba-596140356d2b","ios":"levelo://app?vid=51fb5a9f-41e1-4eb6-91ba-596140356d2b"},"vehicle_type_id":"4","last_reported":1761495050,"current_range_meters":10000,"station_id":"ce4bhn12rcd13ifvqgpg","pricing_plan_id":"cebpf4jnsgd1na2vs0mg"},{"bike_id":"7e3f4ad3-ecaa-4b53-8553-d02fbe127dd4","system_id":"levelo_inurba_marseille","lat":43.24814,"lon":5.37464,"is_reserved":false,"is_disabled":false,"rental_uris":{"android":"levelo://app?vid=7e3f4ad3-ecaa-4b53-8553-d02fbe127dd4","ios":"levelo://app?vid=7e3f4ad3-ecaa-4b53-8553-d02fbe127dd4"},"vehicle_type_id":"4","last_reported":1761495050,"current_range_meters":10000,"station_id":"ce4bhgh2rcd13ifvqfb0","pricing_plan_id":"cebpf4jnsgd1na2vs0mg"},{"bike_id":"0a7b5d0f-c4db-4004-8684-e7f57cab39da","system_id":"levelo_inurba_marseille","lat":43.2899,"lon":5.37163,"is_reserved":false,"is_disabled":false,"rental_uris":{"android":"levelo://app?vid=0a7b5d0f-c4db-4004-8684-e7f57cab39da","ios":"levelo://app?vid=0a7b5d0f-c4db-4004-8684-e7f57cab39da"},"vehicle_type_id":"4","last_reported":1761495050,"current_range_meters":10000,"station_id":"","pricing_plan_id":"cebpf4jnsgd1na2vs0mg"},{"bike_id":"d33a2b66-a6df-4823-a892-0977f3ba1d4d","system_id":"levelo_inurba_marseille","lat":43.2605,"lon":5.394,"is_reserved":false,"is_disabled":false,"rental_uris":{"android":"levelo://app?vid=d33a2b66-a6df-4823-a892-0977f3ba1d4d","ios":"levelo://app?vid=d33a2b66-a6df-4823-a892-0977f3ba1d4d"},"vehicle_type_id":"4","last_reported":1761495050,"current_range_meters":10000,"station_id":"ce4bhh92rcd13ifvqfj0","pricing_plan_id":"cebpf4jnsgd1na2vs0mg"},{"bike_id":"12cefd40-c26f-402c-b50f-33cfb17b8e9f","system_id":"levelo_inurba_marseille","lat":43.30006,"lon":5.37635,"is_reserved":false,"is_disabled":false,"rental_uris":{"android":"levelo://app?vid=12cefd40-c26f-402c-b50f-33cfb17b8e9f","ios":"levelo://app?vid=12cefd40-c26f-402c-b50f-33cfb17b8e9f"},"vehicle_type_id":"4","last_reported":1761495050,"current_range_meters":10800,"station_id":"","pricing_plan_id":"cebpf4jnsgd1na2vs0mg"},{"bike_id":"4e0d61f6-2e9e-47e0-a87b-8aaed781c8f5","system_id":"levelo_inurba_marseille","lat":43.33011,"lon":5.39021,"is_reserved":false,"is_disabled":false,"rental_uris":{"android":"levelo://app?vid=4e0d61f6-2e9e-47e0-a87b-8aaed781c8f5","ios":"levelo://app?vid=4e0d61f6-2e9e-47e0-a87b-8aaed781c8f5"},"vehicle_type_id":"4","last_reported":1761495050,"current_range_meters":10800,"station_id":"ce4bhr92rcd13ifvqhrg","pricing_plan_id":"cebpf4jnsgd1na2vs0mg"},{"bike_id":"08b89487-7647-4a54-9c05-2a9b71119650","system_id":"levelo_inurba_marseille","lat":43.32416,"lon":5.36551,"is_reserved":false,"is_disabled":false,"rental_uris":{"android":"levelo://app?vid=08b89487-7647-4a54-9c05-2a9b71119650","ios":"levelo://app?vid=08b89487-7647-4a54-9c05-2a9b71119650"},"vehicle_type_id":"4","last_reported":1761495050,"current_range_meters":10800,"station_id":"","pricing_plan_id":"cebpf4jnsgd1na2vs0mg"},{"bike_id":"c8027f17-0c2c-4232-8e71-440178a0c2ca","system_id":"levelo_inurba_marseille","lat":43.29571,"lon":5.37519,"is_reserved":false,"is_disabled":true,"rental_uris":{"android":"levelo://app?vid=c8027f17-0c2c-4232-8e71-440178a0c2ca","ios":"levelo://app?vid=c8027f17-0c2c-4232-8e71-440178a0c2ca"},"vehicle_type_id":"4","last_reported":1761495050,"current_range_meters":10800,"station_id":"ce4bgh92rcd13ifvqb50","pricing_plan_id":"cebpf4jnsgd1na2vs0mg"},{"bike_id":"3fa0f4ce-2e10-40ef-871d-7427f01e639b","system_id":"levelo_inurba_marseille","lat":43.21194,"lon":5.35073,"is_reserved":false,"is_disabled":false,"rental_uris":{"android":"levelo://app?vid=3fa0f4ce-2e10-40ef-871d-7427f01e639b","ios":"levelo://app?vid=3fa0f4ce-2e10-40ef-871d-7427f01e639b"},"vehicle_type_id":"4","last_reported":1761495050,"current_range_meters":10800,"station_id":"st_cvj6sg6p6f1abm77japg","pricing_plan_id":"cebpf4jnsgd1na2vs0mg"},{"bike_id":"9e249963-7d44-4429-936b-0ee5affbd7e5","system_id":"levelo_inurba_marseille","lat":43.27491,"lon":5.40801,"is_reserved":false,"is_disabled":false,"rental_uris":{"android":"levelo://app?vid=9e249963-7d44-4429-936b-0ee5affbd7e5","ios":"levelo://app?vid=9e249963-7d44-4429-936b-0ee5affbd7e5"},"vehicle_type_id":"4","last_reported":1761495050,"current_range_meters":10800,"station_id":"","pricing_plan_id":"cebpf4jnsgd1na2vs0mg"},{"bike_id":"7f35850d-e972-40c0-b8aa-d8dde462a749","system_id":"levelo_inurba_marseille","lat":43.31731,"lon":5.38888,"is_reserved":false,"is_disabled":false,"rental_uris":{"android":"levelo://app?vid=7f35850d-e972-40c0-b8aa-d8dde462a749","ios":"levelo://app?vid=7f35850d-e972-40c0-b8aa-d8dde462a749"},"vehicle_type_id":"4","last_reported":1761495050,"current_range_meters":10800,"station_id":"","pricing_plan_id":"cebpf4jnsgd1na2vs0mg"},{"bike_id":"624537f3-44b2-4ae6-905b-a8fc590651c2","system_id":"levelo_inurba_marseille","lat":43.272064,"lon":5.391829,"is_reserved":false,"is_disabled":false,"rental_uris":{"android":"levelo://app?vid=624537f3-44b2-4ae6-905b-a8fc590651c2","ios":"levelo://app?vid=624537f3-44b2-4ae6-905b-a8fc590651c2"},"vehicle_type_id":"4","last_reported":1761495050,"current_range_meters":10800,"station_id":"ce4bhhp2rcd13ifvqfm0","pricing_plan_id":"cebpf4jnsgd1na2vs0mg"},{"bike_id":"9cb0835f-d8bd-4b0d-af2f-9fec4e9f2305","system_id":"levelo_inurba_marseille","lat":43.2486,"lon":5.374759,"is_reserved":false,"is_disabled":false,"rental_uris":{"android":"levelo://app?vid=9cb0835f-d8bd-4b0d-af2f-9fec4e9f2305","ios":"levelo://app?vid=9cb0835f-d8bd-4b0d-af2f-9fec4e9f2305"},"vehicle_type_id":"4","last_reported":1761495050,"current_range_meters":11200,"station_id":"ce4bhgh2rcd13ifvqfb0","pricing_plan_id":"cebpf4jnsgd1na2vs0mg"},{"bike_id":"6f187467-9391-4b9a-be5f-d0e7cedc64d2","system_id":"levelo_inurba_marseille","lat":43.289412,"lon":5.365912,"is_reserved":false,"is_disabled":false,"rental_uris":{"android":"levelo://app?vid=6f187467-9391-4b9a-be5f-d0e7cedc64d2","ios":"levelo://app?vid=6f187467-9391-4b9a-be5f-d0e7cedc64d2"},"vehicle_type_id":"4","last_reported":1761495050,"current_range_meters":11200,"station_id":"ce4bhc92rcd13ifvqetg","pricing_plan_id":"cebpf4jnsgd1na2vs0mg"},{"bike_id":"4049abb6-d14e-43c8-ae57-81f6b077a3d2","system_id":"levelo_inurba_marseille","lat":43.21201,"lon":5.35077,"is_reserved":false,"is_disabled":false,"rental_uris":{"android":"levelo://app?vid=4049abb6-d14e-43c8-ae57-81f6b077a3d2","ios":"levelo://app?vid=4049abb6-d14e-43c8-ae57-81f6b077a3d2"},"vehicle_type_id":"4","last_reported":1761495050,"current_range_meters":11200,"station_id":"st_cvj6sg6p6f1abm77japg","pricing_plan_id":"cebpf4jnsgd1na2vs0mg"},{"bike_id":"5947034f-19ea-4d71-bc4b-92db934cd50e","system_id":"levelo_inurba_marseille","lat":43.21194,"lon":5.35077,"is_reserved":false,"is_disabled":true,"rental_uris":{"android":"levelo://app?vid=5947034f-19ea-4d71-bc4b-92db934cd50e","ios":"levelo://app?vid=5947034f-19ea-4d71-bc4b-92db934cd50e"},"vehicle_type_id":"4","last_reported":1761495050,"current_range_meters":11200,"station_id":"st_cvj6sg6p6f1abm77japg","pricing_plan_id":"cebpf4jnsgd1na2vs0mg"},{"bike_id":"86bb99a4-3bed-453c-bdfd-4fd969cec0ce","system_id":"levelo_inurba_marseille","lat":43.26054,"lon":5.39387,"is_reserved":false,"is_disabled":false,"rental_uris":{"android":"levelo://app?vid=86bb99a4-3bed-453c-bdfd-4fd969cec0ce","ios":"levelo://app?vid=86bb99a4-3bed-453c-bdfd-4fd969cec0ce"},"vehicle_type_id":"4","last_reported":1761495050,"current_range_meters":11600,"station_id":"ce4bhh92rcd13ifvqfj0","pricing_plan_id":"cebpf4jnsgd1na2vs0mg"},{"bike_id":"231548a1-8513-4cc2-815b-681367315f5d","system_id":"levelo_inurba_marseille","lat":43.24633,"lon":5.43305,"is_reserved":false,"is_disabled":false,"rental_uris":{"android":"levelo://app?vid=231548a1-8513-4cc2-815b-681367315f5d","ios":"levelo://app?vid=231548a1-8513-4cc2-815b-681367315f5d"},"vehicle_type_id":"4","last_reported":1761495050,"current_range_meters":11600,"station_id":"","pricing_plan_id":"cebpf4jnsgd1na2vs0mg"},{"bike_id":"6816641b-142a-4a37-939d-968ad649b591","system_id":"levelo_inurba_marseille","lat":43.27808,"lon":5.40721,"is_reserved":false,"is_disabled":false,"rental_uris":{"android":"levelo://app?vid=6816641b-142a-4a37-939d-968ad649b591","ios":"levelo://app?vid=6816641b-142a-4a37-939d-968ad649b591"},"vehicle_type_id":"4","last_reported":1761495050,"current_range_meters":12000,"station_id":"ce4bhnh2rcd13ifvqgtg","pricing_plan_id":"cebpf4jnsgd1na2vs0mg"},{"bike_id":"256d9841-f6f6-4827-912e-a0072ec74969","system_id":"levelo_inurba_marseille","lat":43.30333,"lon":5.4043,"is_reserved":false,"is_disabled":false,"rental_uris":{"android":"levelo://app?vid=256d9841-f6f6-4827-912e-a0072ec74969","ios":"levelo://app?vid=256d9841-f6f6-4827-912e-a0072ec74969"},"vehicle_type_id":"4","last_reported":1761495050,"current_range_meters":12000,"station_id":"ce4bh012rcd13ifvqd10","pricing_plan_id":"cebpf4jnsgd1na2vs0mg"},{"bike_id":"45590a6b-966e-4533-b809-efc51cc9687d","system_id":"levelo_inurba_marseille","lat":43.31085,"lon":5.42438,"is_reserved":false,"is_disabled":false,"rental_uris":{"android":"levelo://app?vid=45590a6b-966e-4533-b809-efc51cc9687d","ios":"levelo://app?vid=45590a6b-966e-4533-b809-efc51cc9687d"},"vehicle_type_id":"4","last_reported":1761495050,"current_range_meters":12000,"station_id":"ce4bhp92rcd13ifvqhag","pricing_plan_id":"cebpf4jnsgd1na2vs0mg"},{"bike_id":"cd658aa1-f5f8-47ed-b2ed-d7dab6985cc5","system_id":"levelo_inurba_marseille","lat":43.260221,"lon":5.375459,"is_reserved":false,"is_disabled":false,"rental_uris":{"android":"levelo://app?vid=cd658aa1-f5f8-47ed-b2ed-d7dab6985cc5","ios":"levelo://app?vid=cd658aa1-f5f8-47ed-b2ed-d7dab6985cc5"},"vehicle_type_id":"4","last_reported":1761495050,"current_range_meters":12000,"station_id":"ce4bhgh2rcd13ifvqfa0","pricing_plan_id":"cebpf4jnsgd1na2vs0mg"},{"bike_id":"6ff26e4b-bf6a-4729-9bd9-1299f9de2b9a","system_id":"levelo_inurba_marseille","lat":43.25691,"lon":5.3916,"is_reserved":false,"is_disabled":false,"rental_uris":{"android":"levelo://app?vid=6ff26e4b-bf6a-4729-9bd9-1299f9de2b9a","ios":"levelo://app?vid=6ff26e4b-bf6a-4729-9bd9-1299f9de2b9a"},"vehicle_type_id":"4","last_reported":1761495050,"current_range_meters":12000,"station_id":"","pricing_plan_id":"cebpf4jnsgd1na2vs0mg"},{"bike_id":"9e83dc36-0288-47ce-863a-762352d61e9d","system_id":"levelo_inurba_marseille","lat":43.26947,"lon":5.40257,"is_reserved":false,"is_disabled":false,"rental_uris":{"android":"levelo://app?vid=9e83dc36-0288-47ce-863a-762352d61e9d","ios":"levelo://app?vid=9e83dc36-0288-47ce-863a-762352d61e9d"},"vehicle_type_id":"4","last_reported":1761495050,"current_range_meters":12400,"station_id":"cjm6bp8fraef2m0cb0m0","pricing_plan_id":"cebpf4jnsgd1na2vs0mg"},{"bike_id":"32f6063a-c078-4a82-917d-8721edad31dc","system_id":"levelo_inurba_marseille","lat":43.30381,"lon":5.42464,"is_reserved":false,"is_disabled":false,"rental_uris":{"android":"levelo://app?vid=32f6063a-c078-4a82-917d-8721edad31dc","ios":"levelo://app?vid=32f6063a-c078-4a82-917d-8721edad31dc"},"vehicle_type_id":"4","last_reported":1761495050,"current_range_meters":12400,"station_id":"ce4bhoh2rcd13ifvqh6g","pricing_plan_id":"cebpf4jnsgd1na2vs0mg"},{"bike_id":"41d45b45-3a52-4b5a-b2b3-1e62d5490ada","system_id":"levelo_inurba_marseille","lat":43.28515,"lon":5.44122,"is_reserved":false,"is_disabled":false,"rental_uris":{"android":"levelo://app?vid=41d45b45-3a52-4b5a-b2b3-1e62d5490ada","ios":"levelo://app?vid=41d45b45-3a52-4b5a-b2b3-1e62d5490ada"},"vehicle_type_id":"4","last_reported":1761495050,"current_range_meters":12400,"station_id":"st_d3j3df2ikq2c7380ej80","pricing_plan_id":"cebpf4jnsgd1na2vs0mg"},{"bike_id":"699c30ce-4dde-4f3b-a1f9-899905028c5f","system_id":"levelo_inurba_marseille","lat":43.30542,"lon":5.36554,"is_reserved":false,"is_disabled":false,"rental_uris":{"android":"levelo://app?vid=699c30ce-4dde-4f3b-a1f9-899905028c5f","ios":"levelo://app?vid=699c30ce-4dde-4f3b-a1f9-899905028c5f"},"vehicle_type_id":"4","last_reported":1761495050,"current_range_meters":12400,"station_id":"ce4bgs12rcd13ifvqcag","pricing_plan_id":"cebpf4jnsgd1na2vs0mg"},{"bike_id":"3da36b46-32f0-4723-8f3b-8cba39a84287","system_id":"levelo_inurba_marseille","lat":43.243837,"lon":5.370517,"is_reserved":false,"is_disabled":false,"rental_uris":{"android":"levelo://app?vid=3da36b46-32f0-4723-8f3b-8cba39a84287","ios":"levelo://app?vid=3da36b46-32f0-4723-8f3b-8cba39a84287"},"vehicle_type_id":"4","last_reported":1761495050,"current_range_meters":12400,"station_id":"ce4bhhh2rcd13ifvqfk0","pricing_plan_id":"cebpf4jnsgd1na2vs0mg"},{"bike_id":"79128d6f-9ae5-4420-8922-eab5ce40e69e","system_id":"levelo_inurba_marseille","lat":43.272034,"lon":5.391892,"is_reserved":false,"is_disabled":false,"rental_uris":{"android":"levelo://app?vid=79128d6f-9ae5-4420-8922-eab5ce40e69e","ios":"levelo://app?vid=79128d6f-9ae5-4420-8922-eab5ce40e69e"},"vehicle_type_id":"4","last_reported":1761495050,"current_range_meters":12400,"station_id":"","pricing_plan_id":"cebpf4jnsgd1na2vs0mg"},{"bike_id":"c4e6c704-f8af-4f7f-b93c-99fd6b898b50","system_id":"levelo_inurba_marseille","lat":43.28409,"lon":5.34994,"is_reserved":false,"is_disabled":false,"rental_uris":{"android":"levelo://app?vid=c4e6c704-f8af-4f7f-b93c-99fd6b898b50","ios":"levelo://app?vid=c4e6c704-f8af-4f7f-b93c-99fd6b898b50"},"vehicle_type_id":"4","last_reported":1761495050,"current_range_meters":12800,"station_id":"ce4bhbh2rcd13ifvqepg","pricing_plan_id":"cebpf4jnsgd1na2vs0mg"},{"bike_id":"c0b81f28-bbba-4247-a74b-c55a34b31846","system_id":"levelo_inurba_marseille","lat":43.33258,"lon":5.41086,"is_reserved":false,"is_disabled":false,"rental_uris":{"android":"levelo://app?vid=c0b81f28-bbba-4247-a74b-c55a34b31846","ios":"levelo://app?vid=c0b81f28-bbba-4247-a74b-c55a34b31846"},"vehicle_type_id":"4","last_reported":1761495050,"current_range_meters":12800,"station_id":"","pricing_plan_id":"cebpf4jnsgd1na2vs0mg"},{"bike_id":"63e973f3-e7fc-4225-83ba-29a670d42b34","system_id":"levelo_inurba_marseille","lat":43.23152,"lon":5.43717,"is_reserved":false,"is_disabled":false,"rental_uris":{"android":"levelo://app?vid=63e973f3-e7fc-4225-83ba-29a670d42b34","ios":"levelo://app?vid=63e973f3-e7fc-4225-83ba-29a670d42b34"},"vehicle_type_id":"4","last_reported":1761495050,"current_range_meters":12800,"station_id":"ce4bhmp2rcd13ifvqgog","pricing_plan_id":"cebpf4jnsgd1na2vs0mg"},{"bike_id":"46b0db6c-35c8-470b-a45d-db7e7afa9bfd","system_id":"levelo_inurba_marseille","lat":43.28396,"lon":5.37506,"is_reserved":false,"is_disabled":true,"rental_uris":{"android":"levelo://app?vid=46b0db6c-35c8-470b-a45d-db7e7afa9bfd","ios":"levelo://app?vid=46b0db6c-35c8-470b-a45d-db7e7afa9bfd"},"vehicle_type_id":"4","last_reported":1761495050,"current_range_meters":12800,"station_id":"ce4bh412rcd13ifvqds0","pricing_plan_id":"cebpf4jnsgd1na2vs0mg"},{"bike_id":"da53deab-b37f-4bff-8d08-f9ed6194ab10","system_id":"levelo_inurba_marseille","lat":43.24322,"lon":5.3834,"is_reserved":false,"is_disabled":false,"rental_uris":{"android":"levelo://app?vid=da53deab-b37f-4bff-8d08-f9ed6194ab10","ios":"levelo://app?vid=da53deab-b37f-4bff-8d08-f9ed6194ab10"},"vehicle_type_id":"4","last_reported":1761495050,"current_range_meters":12800,"station_id":"","pricing_plan_id":"cebpf4jnsgd1na2vs0mg"},{"bike_id":"7ae3157d-2ddf-46dd-9653-3a5be77f83f6","system_id":"levelo_inurba_marseille","lat":43.28966,"lon":5.37826,"is_reserved":false,"is_disabled":false,"rental_uris":{"android":"levelo://app?vid=7ae3157d-2ddf-46dd-9653-3a5be77f83f6","ios":"levelo://app?vid=7ae3157d-2ddf-46dd-9653-3a5be77f83f6"},"vehicle_type_id":"4","last_reported":1761495050,"current_range_meters":12800,"station_id":"ce4bh9p2rcd13ifvqed0","pricing_plan_id":"cebpf4jnsgd1na2vs0mg"},{"bike_id":"519e0b3d-7937-453d-b258-eaf4c8651077","system_id":"levelo_inurba_marseille","lat":43.2978,"lon":5.38511,"is_reserved":false,"is_disabled":false,"rental_uris":{"android":"levelo://app?vid=519e0b3d-7937-453d-b258-eaf4c8651077","ios":"levelo://app?vid=519e0b3d-7937-453d-b258-eaf4c8651077"},"vehicle_type_id":"4","last_reported":1761495050,"current_range_meters":12800,"station_id":"","pricing_plan_id":"cebpf4jnsgd1na2vs0mg"},{"bike_id":"e4ccce50-4824-4895-aa8c-033835526f23","system_id":"levelo_inurba_marseille","lat":43.31886,"lon":5.40012,"is_reserved":false,"is_disabled":false,"rental_uris":{"android":"levelo://app?vid=e4ccce50-4824-4895-aa8c-033835526f23","ios":"levelo://app?vid=e4ccce50-4824-4895-aa8c-033835526f23"},"vehicle_type_id":"4","last_reported":1761495050,"current_range_meters":12800,"station_id":"","pricing_plan_id":"cebpf4jnsgd1na2vs0mg"},{"bike_id":"ca772d75-34f2-4f9d-a5b0-630f8e1a3fbb","system_id":"levelo_inurba_marseille","lat":43.24154,"lon":5.36422,"is_reserved":false,"is_disabled":false,"rental_uris":{"android":"levelo://app?vid=ca772d75-34f2-4f9d-a5b0-630f8e1a3fbb","ios":"levelo://app?vid=ca772d75-34f2-4f9d-a5b0-630f8e1a3fbb"},"vehicle_type_id":"4","last_reported":1761495050,"current_range_meters":12800,"station_id":"cpo36qri1sfpv3e86is0","pricing_plan_id":"cebpf4jnsgd1na2vs0mg"},{"bike_id":"de5cece4-6186-4ccb-b70e-a25e8bd3fc86","system_id":"levelo_inurba_marseille","lat":43.337444,"lon":5.374475,"is_reserved":false,"is_disabled":false,"rental_uris":{"android":"levelo://app?vid=de5cece4-6186-4ccb-b70e-a25e8bd3fc86","ios":"levelo://app?vid=de5cece4-6186-4ccb-b70e-a25e8bd3fc86"},"vehicle_type_id":"4","last_reported":1761495050,"current_range_meters":12800,"station_id":"","pricing_plan_id":"cebpf4jnsgd1na2vs0mg"},{"bike_id":"56f1f474-3a80-4746-b780-e7b6ddf9cd53","system_id":"levelo_inurba_marseille","lat":43.287092,"lon":5.37544,"is_reserved":false,"is_disabled":false,"rental_uris":{"android":"levelo://app?vid=56f1f474-3a80-4746-b780-e7b6ddf9cd53","ios":"levelo://app?vid=56f1f474-3a80-4746-b780-e7b6ddf9cd53"},"vehicle_type_id":"4","last_reported":1761495050,"current_range_meters":13600,"station_id":"ce4bh3p2rcd13ifvqdq0","pricing_plan_id":"cebpf4jnsgd1na2vs0mg"},{"bike_id":"6ee611b3-bf13-495e-a0dc-dfd1a8718271","system_id":"levelo_inurba_marseille","lat":43.298165,"lon":5.440648,"is_reserved":false,"is_disabled":false,"rental_uris":{"android":"levelo://app?vid=6ee611b3-bf13-495e-a0dc-dfd1a8718271","ios":"levelo://app?vid=6ee611b3-bf13-495e-a0dc-dfd1a8718271"},"vehicle_type_id":"4","last_reported":1761495050,"current_range_meters":13600,"station_id":"st_d3jp68qikq2c7381ktn0","pricing_plan_id":"cebpf4jnsgd1na2vs0mg"},{"bike_id":"67f8857f-0853-46d2-b9ef-96c5ce2639bc","system_id":"levelo_inurba_marseille","lat":43.23093,"lon":5.35409,"is_reserved":false,"is_disabled":false,"rental_uris":{"android":"levelo://app?vid=67f8857f-0853-46d2-b9ef-96c5ce2639bc","ios":"levelo://app?vid=67f8857f-0853-46d2-b9ef-96c5ce2639bc"},"vehicle_type_id":"4","last_reported":1761495050,"current_range_meters":13600,"station_id":"cpo3342slgdg3j2ifvpg","pricing_plan_id":"cebpf4jnsgd1na2vs0mg"},{"bike_id":"90a0a362-3794-421f-9d74-6647814b3041","system_id":"levelo_inurba_marseille","lat":43.298492,"lon":5.389061,"is_reserved":false,"is_disabled":false,"rental_uris":{"android":"levelo://app?vid=90a0a362-3794-421f-9d74-6647814b3041","ios":"levelo://app?vid=90a0a362-3794-421f-9d74-6647814b3041"},"vehicle_type_id":"4","last_reported":1761495050,"current_range_meters":13600,"station_id":"ce4bh392rcd13ifvqdl0","pricing_plan_id":"cebpf4jnsgd1na2vs0mg"},{"bike_id":"e5aafa61-e384-4c69-800b-fe726c41fdc6","system_id":"levelo_inurba_marseille","lat":43.29966,"lon":5.38496,"is_reserved":false,"is_disabled":true,"rental_uris":{"android":"levelo://app?vid=e5aafa61-e384-4c69-800b-fe726c41fdc6","ios":"levelo://app?vid=e5aafa61-e384-4c69-800b-fe726c41fdc6"},"vehicle_type_id":"4","last_reported":1761495050,"current_range_meters":13600,"station_id":"ce4bgj92rcd13ifvqbd0","pricing_plan_id":"cebpf4jnsgd1na2vs0mg"},{"bike_id":"df71df5a-e6e7-443c-b2cd-30828fd8bb4e","system_id":"levelo_inurba_marseille","lat":43.30876,"lon":5.39651,"is_reserved":false,"is_disabled":false,"rental_uris":{"android":"levelo://app?vid=df71df5a-e6e7-443c-b2cd-30828fd8bb4e","ios":"levelo://app?vid=df71df5a-e6e7-443c-b2cd-30828fd8bb4e"},"vehicle_type_id":"4","last_reported":1761495050,"current_range_meters":13600,"station_id":"ce4bh012rcd13ifvqcv0","pricing_plan_id":"cebpf4jnsgd1na2vs0mg"},{"bike_id":"fc3a01d2-48d4-4d0b-956d-960ce8ffe553","system_id":"levelo_inurba_marseille","lat":43.28424,"lon":5.34992,"is_reserved":false,"is_disabled":false,"rental_uris":{"android":"levelo://app?vid=fc3a01d2-48d4-4d0b-956d-960ce8ffe553","ios":"levelo://app?vid=fc3a01d2-48d4-4d0b-956d-960ce8ffe553"},"vehicle_type_id":"4","last_reported":1761495050,"current_range_meters":13600,"station_id":"ce4bhbh2rcd13ifvqepg","pricing_plan_id":"cebpf4jnsgd1na2vs0mg"},{"bike_id":"c124d4a0-9e47-48ec-ad7a-ea36eb6e5d35","system_id":"levelo_inurba_marseille","lat":43.24361,"lon":5.36983,"is_reserved":false,"is_disabled":false,"rental_uris":{"android":"levelo://app?vid=c124d4a0-9e47-48ec-ad7a-ea36eb6e5d35","ios":"levelo://app?vid=c124d4a0-9e47-48ec-ad7a-ea36eb6e5d35"},"vehicle_type_id":"4","last_reported":1761495050,"current_range_meters":13600,"station_id":"","pricing_plan_id":"cebpf4jnsgd1na2vs0mg"},{"bike_id":"7f7459a3-ec37-4d4d-81cc-acfdf9f43f6e","system_id":"levelo_inurba_marseille","lat":43.298,"lon":5.38108,"is_reserved":false,"is_disabled":false,"rental_uris":{"android":"levelo://app?vid=7f7459a3-ec37-4d4d-81cc-acfdf9f43f6e","ios":"levelo://app?vid=7f7459a3-ec37-4d4d-81cc-acfdf9f43f6e"},"vehicle_type_id":"4","last_reported":1761495050,"current_range_meters":14000,"station_id":"ce4bgip2rcd13ifvqbb0","pricing_plan_id":"cebpf4jnsgd1na2vs0mg"},{"bike_id":"42178423-6a1c-469d-a8c7-fe60c8cfd7b8","system_id":"levelo_inurba_marseille","lat":43.27899,"lon":5.37999,"is_reserved":false,"is_disabled":false,"rental_uris":{"android":"levelo://app?vid=42178423-6a1c-469d-a8c7-fe60c8cfd7b8","ios":"levelo://app?vid=42178423-6a1c-469d-a8c7-fe60c8cfd7b8"},"vehicle_type_id":"4","last_reported":1761495050,"current_range_meters":14000,"station_id":"ce4bhf92rcd13ifvqf50","pricing_plan_id":"cebpf4jnsgd1na2vs0mg"},{"bike_id":"8847af5d-c1ad-4d8d-a5c1-273c3b41c105","system_id":"levelo_inurba_marseille","lat":43.322484,"lon":5.419613,"is_reserved":false,"is_disabled":false,"rental_uris":{"android":"levelo://app?vid=8847af5d-c1ad-4d8d-a5c1-273c3b41c105","ios":"levelo://app?vid=8847af5d-c1ad-4d8d-a5c1-273c3b41c105"},"vehicle_type_id":"4","last_reported":1761495050,"current_range_meters":14000,"station_id":"","pricing_plan_id":"cebpf4jnsgd1na2vs0mg"},{"bike_id":"8d922c2e-fd1c-4861-a7c8-82dfdd23c009","system_id":"levelo_inurba_marseille","lat":43.24171,"lon":5.36408,"is_reserved":false,"is_disabled":false,"rental_uris":{"android":"levelo://app?vid=8d922c2e-fd1c-4861-a7c8-82dfdd23c009","ios":"levelo://app?vid=8d922c2e-fd1c-4861-a7c8-82dfdd23c009"},"vehicle_type_id":"4","last_reported":1761495050,"current_range_meters":14000,"station_id":"cpo36qri1sfpv3e86is0","pricing_plan_id":"cebpf4jnsgd1na2vs0mg"},{"bike_id":"1186013f-d851-4049-93ee-f3c7cd39e5bb","system_id":"levelo_inurba_marseille","lat":43.26209,"lon":5.37444,"is_reserved":false,"is_disabled":false,"rental_uris":{"android":"levelo://app?vid=1186013f-d851-4049-93ee-f3c7cd39e5bb","ios":"levelo://app?vid=1186013f-d851-4049-93ee-f3c7cd39e5bb"},"vehicle_type_id":"4","last_reported":1761495050,"current_range_meters":14000,"station_id":"ce4bhgp2rcd13ifvqfc0","pricing_plan_id":"cebpf4jnsgd1na2vs0mg"},{"bike_id":"bbe4e4ab-36de-4363-837f-7f2deb157b58","system_id":"levelo_inurba_marseille","lat":43.26555,"lon":5.37285,"is_reserved":false,"is_disabled":false,"rental_uris":{"android":"levelo://app?vid=bbe4e4ab-36de-4363-837f-7f2deb157b58","ios":"levelo://app?vid=bbe4e4ab-36de-4363-837f-7f2deb157b58"},"vehicle_type_id":"4","last_reported":1761495050,"current_range_meters":14000,"station_id":"ce4bhg12rcd13ifvqf70","pricing_plan_id":"cebpf4jnsgd1na2vs0mg"},{"bike_id":"1aae8229-5c3c-455b-a05a-bce07413c1cc","system_id":"levelo_inurba_marseille","lat":43.27984,"lon":5.4166,"is_reserved":false,"is_disabled":false,"rental_uris":{"android":"levelo://app?vid=1aae8229-5c3c-455b-a05a-bce07413c1cc","ios":"levelo://app?vid=1aae8229-5c3c-455b-a05a-bce07413c1cc"},"vehicle_type_id":"4","last_reported":1761495050,"current_range_meters":14000,"station_id":"ce4bho12rcd13ifvqh1g","pricing_plan_id":"cebpf4jnsgd1na2vs0mg"},{"bike_id":"dc59b9d6-bff8-45b1-a91a-eba92323a9cd","system_id":"levelo_inurba_marseille","lat":43.28412,"lon":5.37503,"is_reserved":false,"is_disabled":false,"rental_uris":{"android":"levelo://app?vid=dc59b9d6-bff8-45b1-a91a-eba92323a9cd","ios":"levelo://app?vid=dc59b9d6-bff8-45b1-a91a-eba92323a9cd"},"vehicle_type_id":"4","last_reported":1761495050,"current_range_meters":14000,"station_id":"ce4bh412rcd13ifvqds0","pricing_plan_id":"cebpf4jnsgd1na2vs0mg"},{"bike_id":"6f36a359-fa50-49f5-98a5-a2b2c4892adc","system_id":"levelo_inurba_marseille","lat":43.231995,"lon":5.355491,"is_reserved":false,"is_disabled":false,"rental_uris":{"android":"levelo://app?vid=6f36a359-fa50-49f5-98a5-a2b2c4892adc","ios":"levelo://app?vid=6f36a359-fa50-49f5-98a5-a2b2c4892adc"},"vehicle_type_id":"4","last_reported":1761495050,"current_range_meters":14400,"station_id":"ce4bhu92rcd13ifvqi70","pricing_plan_id":"cebpf4jnsgd1na2vs0mg"},{"bike_id":"476ede32-cfdc-42f2-8cc1-233e266f9923","system_id":"levelo_inurba_marseille","lat":43.295699,"lon":5.37555,"is_reserved":false,"is_disabled":false,"rental_uris":{"android":"levelo://app?vid=476ede32-cfdc-42f2-8cc1-233e266f9923","ios":"levelo://app?vid=476ede32-cfdc-42f2-8cc1-233e266f9923"},"vehicle_type_id":"4","last_reported":1761495050,"current_range_meters":14400,"station_id":"","pricing_plan_id":"cebpf4jnsgd1na2vs0mg"},{"bike_id":"30554b26-973a-497a-895f-688567d1f87f","system_id":"levelo_inurba_marseille","lat":43.23187,"lon":5.39986,"is_reserved":false,"is_disabled":false,"rental_uris":{"android":"levelo://app?vid=30554b26-973a-497a-895f-688567d1f87f","ios":"levelo://app?vid=30554b26-973a-497a-895f-688567d1f87f"},"vehicle_type_id":"4","last_reported":1761495050,"current_range_meters":14400,"station_id":"ce4bhn12rcd13ifvqgqg","pricing_plan_id":"cebpf4jnsgd1na2vs0mg"},{"bike_id":"1d131563-aa34-430a-a637-52c9aaa46b68","system_id":"levelo_inurba_marseille","lat":43.28412,"lon":5.34984,"is_reserved":false,"is_disabled":false,"rental_uris":{"android":"levelo://app?vid=1d131563-aa34-430a-a637-52c9aaa46b68","ios":"levelo://app?vid=1d131563-aa34-430a-a637-52c9aaa46b68"},"vehicle_type_id":"4","last_reported":1761495050,"current_range_meters":14400,"station_id":"ce4bhbh2rcd13ifvqepg","pricing_plan_id":"cebpf4jnsgd1na2vs0mg"},{"bike_id":"d85011cb-7d6b-4b15-a412-59816da2b5c2","system_id":"levelo_inurba_marseille","lat":43.23188,"lon":5.35552,"is_reserved":false,"is_disabled":true,"rental_uris":{"android":"levelo://app?vid=d85011cb-7d6b-4b15-a412-59816da2b5c2","ios":"levelo://app?vid=d85011cb-7d6b-4b15-a412-59816da2b5c2"},"vehicle_type_id":"4","last_reported":1761495050,"current_range_meters":14400,"station_id":"ce4bhu92rcd13ifvqi70","pricing_plan_id":"cebpf4jnsgd1na2vs0mg"},{"bike_id":"64b75b4a-3497-4861-8cc2-90dd62cd9f5e","system_id":"levelo_inurba_marseille","lat":43.29449,"lon":5.43278,"is_reserved":false,"is_disabled":false,"rental_uris":{"android":"levelo://app?vid=64b75b4a-3497-4861-8cc2-90dd62cd9f5e","ios":"levelo://app?vid=64b75b4a-3497-4861-8cc2-90dd62cd9f5e"},"vehicle_type_id":"4","last_reported":1761495050,"current_range_meters":14400,"station_id":"","pricing_plan_id":"cebpf4jnsgd1na2vs0mg"},{"bike_id":"1d9b25af-a4ba-4e42-a31f-45cee5f8d23e","system_id":"levelo_inurba_marseille","lat":43.29601,"lon":5.38088,"is_reserved":false,"is_disabled":false,"rental_uris":{"android":"levelo://app?vid=1d9b25af-a4ba-4e42-a31f-45cee5f8d23e","ios":"levelo://app?vid=1d9b25af-a4ba-4e42-a31f-45cee5f8d23e"},"vehicle_type_id":"4","last_reported":1761495050,"current_range_meters":14400,"station_id":"ce4bgl12rcd13ifvqbo0","pricing_plan_id":"cebpf4jnsgd1na2vs0mg"},{"bike_id":"d4f50ddc-6163-45a3-80f3-267c8f931017","system_id":"levelo_inurba_marseille","lat":43.312221,"lon":5.368577,"is_reserved":false,"is_disabled":false,"rental_uris":{"android":"levelo://app?vid=d4f50ddc-6163-45a3-80f3-267c8f931017","ios":"levelo://app?vid=d4f50ddc-6163-45a3-80f3-267c8f931017"},"vehicle_type_id":"4","last_reported":1761495050,"current_range_meters":14400,"station_id":"ce4bgl92rcd13ifvqbq0","pricing_plan_id":"cebpf4jnsgd1na2vs0mg"},{"bike_id":"2e7ff087-3d73-48c2-a2e9-8fe869109267","system_id":"levelo_inurba_marseille","lat":43.23193,"lon":5.35551,"is_reserved":false,"is_disabled":false,"rental_uris":{"android":"levelo://app?vid=2e7ff087-3d73-48c2-a2e9-8fe869109267","ios":"levelo://app?vid=2e7ff087-3d73-48c2-a2e9-8fe869109267"},"vehicle_type_id":"4","last_reported":1761495050,"current_range_meters":14400,"station_id":"ce4bhu92rcd13ifvqi70","pricing_plan_id":"cebpf4jnsgd1na2vs0mg"},{"bike_id":"13f12d24-3fc3-4202-88f0-68cc1be473cc","system_id":"levelo_inurba_marseille","lat":43.28536,"lon":5.44098,"is_reserved":false,"is_disabled":false,"rental_uris":{"android":"levelo://app?vid=13f12d24-3fc3-4202-88f0-68cc1be473cc","ios":"levelo://app?vid=13f12d24-3fc3-4202-88f0-68cc1be473cc"},"vehicle_type_id":"4","last_reported":1761495050,"current_range_meters":14800,"station_id":"st_d3j3df2ikq2c7380ej80","pricing_plan_id":"cebpf4jnsgd1na2vs0mg"},{"bike_id":"ffd13ce5-8f79-40f7-bfc8-0243e89f122b","system_id":"levelo_inurba_marseille","lat":43.24393,"lon":5.37068,"is_reserved":false,"is_disabled":false,"rental_uris":{"android":"levelo://app?vid=ffd13ce5-8f79-40f7-bfc8-0243e89f122b","ios":"levelo://app?vid=ffd13ce5-8f79-40f7-bfc8-0243e89f122b"},"vehicle_type_id":"4","last_reported":1761495050,"current_range_meters":14800,"station_id":"ce4bhhh2rcd13ifvqfk0","pricing_plan_id":"cebpf4jnsgd1na2vs0mg"},{"bike_id":"317107fa-306d-4b8d-9380-a16cd06486ce","system_id":"levelo_inurba_marseille","lat":43.28468,"lon":5.35896,"is_reserved":false,"is_disabled":true,"rental_uris":{"android":"levelo://app?vid=317107fa-306d-4b8d-9380-a16cd06486ce","ios":"levelo://app?vid=317107fa-306d-4b8d-9380-a16cd06486ce"},"vehicle_type_id":"4","last_reported":1761495050,"current_range_meters":14800,"station_id":"ce4bhah2rcd13ifvqei0","pricing_plan_id":"cebpf4jnsgd1na2vs0mg"},{"bike_id":"ca8c5fef-8841-4e27-bf56-b75f84bec5da","system_id":"levelo_inurba_marseille","lat":43.2377,"lon":5.36646,"is_reserved":false,"is_disabled":false,"rental_uris":{"android":"levelo://app?vid=ca8c5fef-8841-4e27-bf56-b75f84bec5da","ios":"levelo://app?vid=ca8c5fef-8841-4e27-bf56-b75f84bec5da"},"vehicle_type_id":"4","last_reported":1761495050,"current_range_meters":14800,"station_id":"st_d3nk18o9ro0c73en2l3g","pricing_plan_id":"cebpf4jnsgd1na2vs0mg"},{"bike_id":"6b72c8e1-fe87-4635-90aa-72f1e663fb65","system_id":"levelo_inurba_marseille","lat":43.273773,"lon":5.362598,"is_reserved":false,"is_disabled":false,"rental_uris":{"android":"levelo://app?vid=6b72c8e1-fe87-4635-90aa-72f1e663fb65","ios":"levelo://app?vid=6b72c8e1-fe87-4635-90aa-72f1e663fb65"},"vehicle_type_id":"4","last_reported":1761495050,"current_range_meters":14800,"station_id":"ce4bhbh2rcd13ifvqeo0","pricing_plan_id":"cebpf4jnsgd1na2vs0mg"},{"bike_id":"285da18f-d0cc-4351-ae72-e07031f08904","system_id":"levelo_inurba_marseille","lat":43.28612,"lon":5.35105,"is_reserved":false,"is_disabled":false,"rental_uris":{"android":"levelo://app?vid=285da18f-d0cc-4351-ae72-e07031f08904","ios":"levelo://app?vid=285da18f-d0cc-4351-ae72-e07031f08904"},"vehicle_type_id":"4","last_reported":1761495050,"current_range_meters":15200,"station_id":"ce4bhch2rcd13ifvqeug","pricing_plan_id":"cebpf4jnsgd1na2vs0mg"},{"bike_id":"7e02245a-4b7d-4c62-a240-19e49a5c2c05","system_id":"levelo_inurba_marseille","lat":43.292643,"lon":5.384285,"is_reserved":false,"is_disabled":false,"rental_uris":{"android":"levelo://app?vid=7e02245a-4b7d-4c62-a240-19e49a5c2c05","ios":"levelo://app?vid=7e02245a-4b7d-4c62-a240-19e49a5c2c05"},"vehicle_type_id":"4","last_reported":1761495050,"current_range_meters":15200,"station_id":"ce4bh692rcd13ifvqea0","pricing_plan_id":"cebpf4jnsgd1na2vs0mg"},{"bike_id":"526cddf7-e629-4e01-a3fa-d060ef7dfdd4","system_id":"levelo_inurba_marseille","lat":43.24662,"lon":5.38869,"is_reserved":false,"is_disabled":false,"rental_uris":{"android":"levelo://app?vid=526cddf7-e629-4e01-a3fa-d060ef7dfdd4","ios":"levelo://app?vid=526cddf7-e629-4e01-a3fa-d060ef7dfdd4"},"vehicle_type_id":"4","last_reported":1761495050,"current_range_meters":15200,"station_id":"ce4bhg12rcd13ifvqf60","pricing_plan_id":"cebpf4jnsgd1na2vs0mg"},{"bike_id":"2eb3de0e-415b-4698-bf0d-bb97b853659e","system_id":"levelo_inurba_marseille","lat":43.26226,"lon":5.40451,"is_reserved":false,"is_disabled":false,"rental_uris":{"android":"levelo://app?vid=2eb3de0e-415b-4698-bf0d-bb97b853659e","ios":"levelo://app?vid=2eb3de0e-415b-4698-bf0d-bb97b853659e"},"vehicle_type_id":"4","last_reported":1761495050,"current_range_meters":15200,"station_id":"ce4bhmh2rcd13ifvqgmg","pricing_plan_id":"cebpf4jnsgd1na2vs0mg"},{"bike_id":"d290b727-6836-4e17-bb70-fa6919fa7378","system_id":"levelo_inurba_marseille","lat":43.25496,"lon":5.37686,"is_reserved":false,"is_disabled":false,"rental_uris":{"android":"levelo://app?vid=d290b727-6836-4e17-bb70-fa6919fa7378","ios":"levelo://app?vid=d290b727-6836-4e17-bb70-fa6919fa7378"},"vehicle_type_id":"4","last_reported":1761495050,"current_range_meters":16000,"station_id":"ce4bhh12rcd13ifvqff0","pricing_plan_id":"cebpf4jnsgd1na2vs0mg"},{"bike_id":"86e7851a-d26b-4dd2-a79a-5c0b676cd8a4","system_id":"levelo_inurba_marseille","lat":43.28415,"lon":5.349698,"is_reserved":false,"is_disabled":false,"rental_uris":{"android":"levelo://app?vid=86e7851a-d26b-4dd2-a79a-5c0b676cd8a4","ios":"levelo://app?vid=86e7851a-d26b-4dd2-a79a-5c0b676cd8a4"},"vehicle_type_id":"4","last_reported":1761495050,"current_range_meters":16000,"station_id":"ce4bhbh2rcd13ifvqepg","pricing_plan_id":"cebpf4jnsgd1na2vs0mg"},{"bike_id":"dd820310-03ec-402a-8b32-d659349e22c9","system_id":"levelo_inurba_marseille","lat":43.262196,"lon":5.374403,"is_reserved":false,"is_disabled":false,"rental_uris":{"android":"levelo://app?vid=dd820310-03ec-402a-8b32-d659349e22c9","ios":"levelo://app?vid=dd820310-03ec-402a-8b32-d659349e22c9"},"vehicle_type_id":"4","last_reported":1761495050,"current_range_meters":16000,"station_id":"ce4bhgp2rcd13ifvqfc0","pricing_plan_id":"cebpf4jnsgd1na2vs0mg"},{"bike_id":"b8f0d8b5-3d32-4497-b90e-dd403916fc51","system_id":"levelo_inurba_marseille","lat":43.26027,"lon":5.37549,"is_reserved":false,"is_disabled":false,"rental_uris":{"android":"levelo://app?vid=b8f0d8b5-3d32-4497-b90e-dd403916fc51","ios":"levelo://app?vid=b8f0d8b5-3d32-4497-b90e-dd403916fc51"},"vehicle_type_id":"4","last_reported":1761495050,"current_range_meters":16000,"station_id":"ce4bhgh2rcd13ifvqfa0","pricing_plan_id":"cebpf4jnsgd1na2vs0mg"},{"bike_id":"ad166e8d-320f-47c2-bfd9-9e014a946d21","system_id":"levelo_inurba_marseille","lat":43.27789,"lon":5.40724,"is_reserved":false,"is_disabled":true,"rental_uris":{"android":"levelo://app?vid=ad166e8d-320f-47c2-bfd9-9e014a946d21","ios":"levelo://app?vid=ad166e8d-320f-47c2-bfd9-9e014a946d21"},"vehicle_type_id":"4","last_reported":1761495050,"current_range_meters":16000,"station_id":"ce4bhnh2rcd13ifvqgtg","pricing_plan_id":"cebpf4jnsgd1na2vs0mg"},{"bike_id":"baa93571-061d-4d98-a7c4-ab842c53f2f8","system_id":"levelo_inurba_marseille","lat":43.30126,"lon":5.38499,"is_reserved":false,"is_disabled":false,"rental_uris":{"android":"levelo://app?vid=baa93571-061d-4d98-a7c4-ab842c53f2f8","ios":"levelo://app?vid=baa93571-061d-4d98-a7c4-ab842c53f2f8"},"vehicle_type_id":"4","last_reported":1761495050,"current_range_meters":16400,"station_id":"","pricing_plan_id":"cebpf4jnsgd1na2vs0mg"},{"bike_id":"92f5c2b6-3c84-4a5b-ae61-fee46120bd33","system_id":"levelo_inurba_marseille","lat":43.29601,"lon":5.38109,"is_reserved":false,"is_disabled":false,"rental_uris":{"android":"levelo://app?vid=92f5c2b6-3c84-4a5b-ae61-fee46120bd33","ios":"levelo://app?vid=92f5c2b6-3c84-4a5b-ae61-fee46120bd33"},"vehicle_type_id":"4","last_reported":1761495050,"current_range_meters":16400,"station_id":"ce4bgl12rcd13ifvqbo0","pricing_plan_id":"cebpf4jnsgd1na2vs0mg"},{"bike_id":"ea8b34dd-0c58-44f0-9a89-bc2f04875322","system_id":"levelo_inurba_marseille","lat":43.28398,"lon":5.34983,"is_reserved":false,"is_disabled":false,"rental_uris":{"android":"levelo://app?vid=ea8b34dd-0c58-44f0-9a89-bc2f04875322","ios":"levelo://app?vid=ea8b34dd-0c58-44f0-9a89-bc2f04875322"},"vehicle_type_id":"4","last_reported":1761495050,"current_range_meters":16400,"station_id":"ce4bhbh2rcd13ifvqepg","pricing_plan_id":"cebpf4jnsgd1na2vs0mg"},{"bike_id":"578dc038-d8ee-44ad-8f97-c19ab77ac4d1","system_id":"levelo_inurba_marseille","lat":43.27201,"lon":5.39193,"is_reserved":false,"is_disabled":false,"rental_uris":{"android":"levelo://app?vid=578dc038-d8ee-44ad-8f97-c19ab77ac4d1","ios":"levelo://app?vid=578dc038-d8ee-44ad-8f97-c19ab77ac4d1"},"vehicle_type_id":"4","last_reported":1761495050,"current_range_meters":16400,"station_id":"ce4bhhp2rcd13ifvqfm0","pricing_plan_id":"cebpf4jnsgd1na2vs0mg"},{"bike_id":"de0ca7a8-116a-46c8-8c50-6b445a473423","system_id":"levelo_inurba_marseille","lat":43.28865,"lon":5.4251,"is_reserved":false,"is_disabled":false,"rental_uris":{"android":"levelo://app?vid=de0ca7a8-116a-46c8-8c50-6b445a473423","ios":"levelo://app?vid=de0ca7a8-116a-46c8-8c50-6b445a473423"},"vehicle_type_id":"4","last_reported":1761495050,"current_range_meters":16400,"station_id":"st_d3b462108ojc7389ooeg","pricing_plan_id":"cebpf4jnsgd1na2vs0mg"},{"bike_id":"52ceec00-721a-4f69-ae61-d61731c377ae","system_id":"levelo_inurba_marseille","lat":43.24176,"lon":5.3973,"is_reserved":false,"is_disabled":false,"rental_uris":{"android":"levelo://app?vid=52ceec00-721a-4f69-ae61-d61731c377ae","ios":"levelo://app?vid=52ceec00-721a-4f69-ae61-d61731c377ae"},"vehicle_type_id":"4","last_reported":1761495050,"current_range_meters":16400,"station_id":"ce4bhn12rcd13ifvqgpg","pricing_plan_id":"cebpf4jnsgd1na2vs0mg"},{"bike_id":"04747856-1d7e-4093-8497-5563e93b9a72","system_id":"levelo_inurba_marseille","lat":43.28053,"lon":5.3511,"is_reserved":false,"is_disabled":false,"rental_uris":{"android":"levelo://app?vid=04747856-1d7e-4093-8497-5563e93b9a72","ios":"levelo://app?vid=04747856-1d7e-4093-8497-5563e93b9a72"},"vehicle_type_id":"4","last_reported":1761495050,"current_range_meters":16400,"station_id":"","pricing_plan_id":"cebpf4jnsgd1na2vs0mg"},{"bike_id":"8e3d0e08-b97d-4968-869d-5fbe6eb8c3f7","system_id":"levelo_inurba_marseille","lat":43.248133,"lon":5.374613,"is_reserved":false,"is_disabled":false,"rental_uris":{"android":"levelo://app?vid=8e3d0e08-b97d-4968-869d-5fbe6eb8c3f7","ios":"levelo://app?vid=8e3d0e08-b97d-4968-869d-5fbe6eb8c3f7"},"vehicle_type_id":"4","last_reported":1761495050,"current_range_meters":16400,"station_id":"ce4bhgh2rcd13ifvqfb0","pricing_plan_id":"cebpf4jnsgd1na2vs0mg"},{"bike_id":"53619b52-f6a4-4a36-9715-aa47e9e64dbc","system_id":"levelo_inurba_marseille","lat":43.2923,"lon":5.38425,"is_reserved":false,"is_disabled":true,"rental_uris":{"android":"levelo://app?vid=53619b52-f6a4-4a36-9715-aa47e9e64dbc","ios":"levelo://app?vid=53619b52-f6a4-4a36-9715-aa47e9e64dbc"},"vehicle_type_id":"4","last_reported":1761495050,"current_range_meters":16400,"station_id":"ce4bh692rcd13ifvqea0","pricing_plan_id":"cebpf4jnsgd1na2vs0mg"},{"bike_id":"8300675f-178c-46fd-b977-72382598f382","system_id":"levelo_inurba_marseille","lat":43.3136,"lon":5.38489,"is_reserved":false,"is_disabled":false,"rental_uris":{"android":"levelo://app?vid=8300675f-178c-46fd-b977-72382598f382","ios":"levelo://app?vid=8300675f-178c-46fd-b977-72382598f382"},"vehicle_type_id":"4","last_reported":1761495050,"current_range_meters":16400,"station_id":"ce4bgt92rcd13ifvqcf0","pricing_plan_id":"cebpf4jnsgd1na2vs0mg"},{"bike_id":"897eebc8-f630-462f-b2fc-56d87e708f06","system_id":"levelo_inurba_marseille","lat":43.29246,"lon":5.38442,"is_reserved":false,"is_disabled":false,"rental_uris":{"android":"levelo://app?vid=897eebc8-f630-462f-b2fc-56d87e708f06","ios":"levelo://app?vid=897eebc8-f630-462f-b2fc-56d87e708f06"},"vehicle_type_id":"4","last_reported":1761495050,"current_range_meters":16400,"station_id":"ce4bh692rcd13ifvqea0","pricing_plan_id":"cebpf4jnsgd1na2vs0mg"},{"bike_id":"247b3b62-278c-4d98-81e9-a83abffd73a8","system_id":"levelo_inurba_marseille","lat":43.25085,"lon":5.39523,"is_reserved":false,"is_disabled":false,"rental_uris":{"android":"levelo://app?vid=247b3b62-278c-4d98-81e9-a83abffd73a8","ios":"levelo://app?vid=247b3b62-278c-4d98-81e9-a83abffd73a8"},"vehicle_type_id":"4","last_reported":1761495050,"current_range_meters":16400,"station_id":"ce4bhm12rcd13ifvqgkg","pricing_plan_id":"cebpf4jnsgd1na2vs0mg"},{"bike_id":"791e7830-5709-4983-bb8d-b7da7d739f02","system_id":"levelo_inurba_marseille","lat":43.32076,"lon":5.41577,"is_reserved":false,"is_disabled":false,"rental_uris":{"android":"levelo://app?vid=791e7830-5709-4983-bb8d-b7da7d739f02","ios":"levelo://app?vid=791e7830-5709-4983-bb8d-b7da7d739f02"},"vehicle_type_id":"4","last_reported":1761495050,"current_range_meters":16800,"station_id":"ce4bhq92rcd13ifvqhkg","pricing_plan_id":"cebpf4jnsgd1na2vs0mg"},{"bike_id":"89952cb6-8aa3-4bd9-8923-fe4f59ee2f99","system_id":"levelo_inurba_marseille","lat":43.2256,"lon":5.41629,"is_reserved":false,"is_disabled":false,"rental_uris":{"android":"levelo://app?vid=89952cb6-8aa3-4bd9-8923-fe4f59ee2f99","ios":"levelo://app?vid=89952cb6-8aa3-4bd9-8923-fe4f59ee2f99"},"vehicle_type_id":"4","last_reported":1761495050,"current_range_meters":16800,"station_id":"st_d2o4gvlbi1j2169b742g","pricing_plan_id":"cebpf4jnsgd1na2vs0mg"},{"bike_id":"6a4d525f-2d4d-4c2e-ab0d-c8e6eb945b51","system_id":"levelo_inurba_marseille","lat":43.31325,"lon":5.39703,"is_reserved":false,"is_disabled":false,"rental_uris":{"android":"levelo://app?vid=6a4d525f-2d4d-4c2e-ab0d-c8e6eb945b51","ios":"levelo://app?vid=6a4d525f-2d4d-4c2e-ab0d-c8e6eb945b51"},"vehicle_type_id":"4","last_reported":1761495050,"current_range_meters":16800,"station_id":"ce4bgvp2rcd13ifvqcu0","pricing_plan_id":"cebpf4jnsgd1na2vs0mg"},{"bike_id":"7be9bcbe-cb86-4e8f-8dfd-80b115c7e560","system_id":"levelo_inurba_marseille","lat":43.308262,"lon":5.396234,"is_reserved":false,"is_disabled":false,"rental_uris":{"android":"levelo://app?vid=7be9bcbe-cb86-4e8f-8dfd-80b115c7e560","ios":"levelo://app?vid=7be9bcbe-cb86-4e8f-8dfd-80b115c7e560"},"vehicle_type_id":"4","last_reported":1761495050,"current_range_meters":16800,"station_id":"ce4bh012rcd13ifvqcv0","pricing_plan_id":"cebpf4jnsgd1na2vs0mg"},{"bike_id":"ce15d64c-7bd4-4017-a01a-0dc353c2995b","system_id":"levelo_inurba_marseille","lat":43.281289,"lon":5.350291,"is_reserved":false,"is_disabled":false,"rental_uris":{"android":"levelo://app?vid=ce15d64c-7bd4-4017-a01a-0dc353c2995b","ios":"levelo://app?vid=ce15d64c-7bd4-4017-a01a-0dc353c2995b"},"vehicle_type_id":"4","last_reported":1761495050,"current_range_meters":16800,"station_id":"","pricing_plan_id":"cebpf4jnsgd1na2vs0mg"},{"bike_id":"7165d414-e8a5-415f-8a72-9e3295be2a67","system_id":"levelo_inurba_marseille","lat":43.3105,"lon":5.37916,"is_reserved":false,"is_disabled":false,"rental_uris":{"android":"levelo://app?vid=7165d414-e8a5-415f-8a72-9e3295be2a67","ios":"levelo://app?vid=7165d414-e8a5-415f-8a72-9e3295be2a67"},"vehicle_type_id":"4","last_reported":1761495050,"current_range_meters":17200,"station_id":"","pricing_plan_id":"cebpf4jnsgd1na2vs0mg"},{"bike_id":"73e3d00c-eed9-4474-8470-2701da8f5335","system_id":"levelo_inurba_marseille","lat":43.257354,"lon":5.410347,"is_reserved":false,"is_disabled":false,"rental_uris":{"android":"levelo://app?vid=73e3d00c-eed9-4474-8470-2701da8f5335","ios":"levelo://app?vid=73e3d00c-eed9-4474-8470-2701da8f5335"},"vehicle_type_id":"4","last_reported":1761495050,"current_range_meters":17200,"station_id":"","pricing_plan_id":"cebpf4jnsgd1na2vs0mg"},{"bike_id":"81eac856-46ff-415f-8ffc-aa5d7c5d16f8","system_id":"levelo_inurba_marseille","lat":43.24805,"lon":5.37472,"is_reserved":false,"is_disabled":false,"rental_uris":{"android":"levelo://app?vid=81eac856-46ff-415f-8ffc-aa5d7c5d16f8","ios":"levelo://app?vid=81eac856-46ff-415f-8ffc-aa5d7c5d16f8"},"vehicle_type_id":"4","last_reported":1761495050,"current_range_meters":17200,"station_id":"ce4bhgh2rcd13ifvqfb0","pricing_plan_id":"cebpf4jnsgd1na2vs0mg"},{"bike_id":"fe455bb7-4580-4b56-9402-fb028d8459e3","system_id":"levelo_inurba_marseille","lat":43.31209,"lon":5.36836,"is_reserved":false,"is_disabled":false,"rental_uris":{"android":"levelo://app?vid=fe455bb7-4580-4b56-9402-fb028d8459e3","ios":"levelo://app?vid=fe455bb7-4580-4b56-9402-fb028d8459e3"},"vehicle_type_id":"4","last_reported":1761495050,"current_range_meters":17200,"station_id":"ce4bgl92rcd13ifvqbq0","pricing_plan_id":"cebpf4jnsgd1na2vs0mg"},{"bike_id":"94aaf935-55ff-4431-b612-265a39fb330c","system_id":"levelo_inurba_marseille","lat":43.29033,"lon":5.38627,"is_reserved":false,"is_disabled":true,"rental_uris":{"android":"levelo://app?vid=94aaf935-55ff-4431-b612-265a39fb330c","ios":"levelo://app?vid=94aaf935-55ff-4431-b612-265a39fb330c"},"vehicle_type_id":"4","last_reported":1761495050,"current_range_meters":17600,"station_id":"ce4bh4p2rcd13ifvqe0g","pricing_plan_id":"cebpf4jnsgd1na2vs0mg"},{"bike_id":"f6f41915-49e3-4fb8-8c5c-96d42e084e15","system_id":"levelo_inurba_marseille","lat":43.32049,"lon":5.37136,"is_reserved":false,"is_disabled":false,"rental_uris":{"android":"levelo://app?vid=f6f41915-49e3-4fb8-8c5c-96d42e084e15","ios":"levelo://app?vid=f6f41915-49e3-4fb8-8c5c-96d42e084e15"},"vehicle_type_id":"4","last_reported":1761495050,"current_range_meters":17600,"station_id":"","pricing_plan_id":"cebpf4jnsgd1na2vs0mg"},{"bike_id":"e5a2ac9d-0ae2-4078-a781-9bc8a9834179","system_id":"levelo_inurba_marseille","lat":43.30244,"lon":5.40072,"is_reserved":false,"is_disabled":true,"rental_uris":{"android":"levelo://app?vid=e5a2ac9d-0ae2-4078-a781-9bc8a9834179","ios":"levelo://app?vid=e5a2ac9d-0ae2-4078-a781-9bc8a9834179"},"vehicle_type_id":"4","last_reported":1761495050,"current_range_meters":17600,"station_id":"ce4bgvh2rcd13ifvqcs0","pricing_plan_id":"cebpf4jnsgd1na2vs0mg"},{"bike_id":"7cd06c8e-20e0-4a7b-bdd0-d1a902d0086a","system_id":"levelo_inurba_marseille","lat":43.26226,"lon":5.40457,"is_reserved":false,"is_disabled":false,"rental_uris":{"android":"levelo://app?vid=7cd06c8e-20e0-4a7b-bdd0-d1a902d0086a","ios":"levelo://app?vid=7cd06c8e-20e0-4a7b-bdd0-d1a902d0086a"},"vehicle_type_id":"4","last_reported":1761495050,"current_range_meters":17600,"station_id":"ce4bhmh2rcd13ifvqgmg","pricing_plan_id":"cebpf4jnsgd1na2vs0mg"},{"bike_id":"79f9cde6-2fc1-438e-a896-83f6555a03e6","system_id":"levelo_inurba_marseille","lat":43.32126,"lon":5.36786,"is_reserved":false,"is_disabled":false,"rental_uris":{"android":"levelo://app?vid=79f9cde6-2fc1-438e-a896-83f6555a03e6","ios":"levelo://app?vid=79f9cde6-2fc1-438e-a896-83f6555a03e6"},"vehicle_type_id":"4","last_reported":1761495050,"current_range_meters":18000,"station_id":"ce4bhrh2rcd13ifvqhug","pricing_plan_id":"cebpf4jnsgd1na2vs0mg"},{"bike_id":"a8fad160-0c27-4c26-aac4-5372839fdd97","system_id":"levelo_inurba_marseille","lat":43.3171,"lon":5.37764,"is_reserved":false,"is_disabled":false,"rental_uris":{"android":"levelo://app?vid=a8fad160-0c27-4c26-aac4-5372839fdd97","ios":"levelo://app?vid=a8fad160-0c27-4c26-aac4-5372839fdd97"},"vehicle_type_id":"4","last_reported":1761495050,"current_range_meters":18000,"station_id":"ce4bgth2rcd13ifvqch0","pricing_plan_id":"cebpf4jnsgd1na2vs0mg"},{"bike_id":"8ce4acf9-3cce-4a2c-80a0-2e9ba0bb1c6c","system_id":"levelo_inurba_marseille","lat":43.24169,"lon":5.3969,"is_reserved":false,"is_disabled":false,"rental_uris":{"android":"levelo://app?vid=8ce4acf9-3cce-4a2c-80a0-2e9ba0bb1c6c","ios":"levelo://app?vid=8ce4acf9-3cce-4a2c-80a0-2e9ba0bb1c6c"},"vehicle_type_id":"4","last_reported":1761495050,"current_range_meters":18000,"station_id":"ce4bhn12rcd13ifvqgpg","pricing_plan_id":"cebpf4jnsgd1na2vs0mg"},{"bike_id":"da945370-32c7-4765-8b8c-dadee680d38e","system_id":"levelo_inurba_marseille","lat":43.34058,"lon":5.40415,"is_reserved":false,"is_disabled":false,"rental_uris":{"android":"levelo://app?vid=da945370-32c7-4765-8b8c-dadee680d38e","ios":"levelo://app?vid=da945370-32c7-4765-8b8c-dadee680d38e"},"vehicle_type_id":"4","last_reported":1761495050,"current_range_meters":18000,"station_id":"","pricing_plan_id":"cebpf4jnsgd1na2vs0mg"},{"bike_id":"b2dc3ef3-337b-4758-bb67-5d65d54c1977","system_id":"levelo_inurba_marseille","lat":43.3108,"lon":5.42432,"is_reserved":false,"is_disabled":false,"rental_uris":{"android":"levelo://app?vid=b2dc3ef3-337b-4758-bb67-5d65d54c1977","ios":"levelo://app?vid=b2dc3ef3-337b-4758-bb67-5d65d54c1977"},"vehicle_type_id":"4","last_reported":1761495050,"current_range_meters":18000,"station_id":"ce4bhp92rcd13ifvqhag","pricing_plan_id":"cebpf4jnsgd1na2vs0mg"},{"bike_id":"441ac4f8-457e-402c-8884-722d9ed8028b","system_id":"levelo_inurba_marseille","lat":43.32306,"lon":5.38988,"is_reserved":false,"is_disabled":false,"rental_uris":{"android":"levelo://app?vid=441ac4f8-457e-402c-8884-722d9ed8028b","ios":"levelo://app?vid=441ac4f8-457e-402c-8884-722d9ed8028b"},"vehicle_type_id":"4","last_reported":1761495050,"current_range_meters":18000,"station_id":"ce4bhqp2rcd13ifvqhog","pricing_plan_id":"cebpf4jnsgd1na2vs0mg"},{"bike_id":"6bfaa58d-87f3-484a-8a05-d8caefa1394c","system_id":"levelo_inurba_marseille","lat":43.27999,"lon":5.40015,"is_reserved":false,"is_disabled":false,"rental_uris":{"android":"levelo://app?vid=6bfaa58d-87f3-484a-8a05-d8caefa1394c","ios":"levelo://app?vid=6bfaa58d-87f3-484a-8a05-d8caefa1394c"},"vehicle_type_id":"4","last_reported":1761495050,"current_range_meters":18800,"station_id":"ce4bho92rcd13ifvqh4g","pricing_plan_id":"cebpf4jnsgd1na2vs0mg"},{"bike_id":"26a33dcf-50de-4561-a5e9-8254886f89ed","system_id":"levelo_inurba_marseille","lat":43.24306,"lon":5.39192,"is_reserved":false,"is_disabled":false,"rental_uris":{"android":"levelo://app?vid=26a33dcf-50de-4561-a5e9-8254886f89ed","ios":"levelo://app?vid=26a33dcf-50de-4561-a5e9-8254886f89ed"},"vehicle_type_id":"4","last_reported":1761495050,"current_range_meters":18800,"station_id":"","pricing_plan_id":"cebpf4jnsgd1na2vs0mg"},{"bike_id":"83106217-f024-4381-9607-50194d3370ce","system_id":"levelo_inurba_marseille","lat":43.24164,"lon":5.36387,"is_reserved":false,"is_disabled":false,"rental_uris":{"android":"levelo://app?vid=83106217-f024-4381-9607-50194d3370ce","ios":"levelo://app?vid=83106217-f024-4381-9607-50194d3370ce"},"vehicle_type_id":"4","last_reported":1761495050,"current_range_meters":18800,"station_id":"cpo36qri1sfpv3e86is0","pricing_plan_id":"cebpf4jnsgd1na2vs0mg"},{"bike_id":"e92a5181-3093-4535-adde-2230374de0aa","system_id":"levelo_inurba_marseille","lat":43.31366,"lon":5.37692,"is_reserved":false,"is_disabled":false,"rental_uris":{"android":"levelo://app?vid=e92a5181-3093-4535-adde-2230374de0aa","ios":"levelo://app?vid=e92a5181-3093-4535-adde-2230374de0aa"},"vehicle_type_id":"4","last_reported":1761495050,"current_range_meters":18800,"station_id":"","pricing_plan_id":"cebpf4jnsgd1na2vs0mg"},{"bike_id":"b934001f-c922-472e-9b88-81fa6ba6a01a","system_id":"levelo_inurba_marseille","lat":43.21198,"lon":5.35066,"is_reserved":false,"is_disabled":false,"rental_uris":{"android":"levelo://app?vid=b934001f-c922-472e-9b88-81fa6ba6a01a","ios":"levelo://app?vid=b934001f-c922-472e-9b88-81fa6ba6a01a"},"vehicle_type_id":"4","last_reported":1761495050,"current_range_meters":18800,"station_id":"st_cvj6sg6p6f1abm77japg","pricing_plan_id":"cebpf4jnsgd1na2vs0mg"},{"bike_id":"b83891d3-7971-45ae-9af3-651a6e6209e2","system_id":"levelo_inurba_marseille","lat":43.23199,"lon":5.35564,"is_reserved":false,"is_disabled":false,"rental_uris":{"android":"levelo://app?vid=b83891d3-7971-45ae-9af3-651a6e6209e2","ios":"levelo://app?vid=b83891d3-7971-45ae-9af3-651a6e6209e2"},"vehicle_type_id":"4","last_reported":1761495050,"current_range_meters":19200,"station_id":"ce4bhu92rcd13ifvqi70","pricing_plan_id":"cebpf4jnsgd1na2vs0mg"},{"bike_id":"1880ebb9-7edb-463e-976b-226e958b9ebe","system_id":"levelo_inurba_marseille","lat":43.31097,"lon":5.37487,"is_reserved":false,"is_disabled":false,"rental_uris":{"android":"levelo://app?vid=1880ebb9-7edb-463e-976b-226e958b9ebe","ios":"levelo://app?vid=1880ebb9-7edb-463e-976b-226e958b9ebe"},"vehicle_type_id":"4","last_reported":1761495050,"current_range_meters":19200,"station_id":"ce4bgt12rcd13ifvqce0","pricing_plan_id":"cebpf4jnsgd1na2vs0mg"},{"bike_id":"bbbf3dbb-fbe2-4b7e-bfad-c027ca4e1c25","system_id":"levelo_inurba_marseille","lat":43.28473,"lon":5.48403,"is_reserved":false,"is_disabled":false,"rental_uris":{"android":"levelo://app?vid=bbbf3dbb-fbe2-4b7e-bfad-c027ca4e1c25","ios":"levelo://app?vid=bbbf3dbb-fbe2-4b7e-bfad-c027ca4e1c25"},"vehicle_type_id":"4","last_reported":1761495050,"current_range_meters":19200,"station_id":"st_d3svhcjqgbts73a3dn0g","pricing_plan_id":"cebpf4jnsgd1na2vs0mg"},{"bike_id":"93ef566c-0909-48d1-8deb-d11c9c5aea5b","system_id":"levelo_inurba_marseille","lat":43.323595,"lon":5.367538,"is_reserved":false,"is_disabled":false,"rental_uris":{"android":"levelo://app?vid=93ef566c-0909-48d1-8deb-d11c9c5aea5b","ios":"levelo://app?vid=93ef566c-0909-48d1-8deb-d11c9c5aea5b"},"vehicle_type_id":"4","last_reported":1761495050,"current_range_meters":19200,"station_id":"ce4bhsh2rcd13ifvqi2g","pricing_plan_id":"cebpf4jnsgd1na2vs0mg"},{"bike_id":"25cbd130-8127-4b1b-aaae-532437cd7155","system_id":"levelo_inurba_marseille","lat":43.29622,"lon":5.40592,"is_reserved":false,"is_disabled":false,"rental_uris":{"android":"levelo://app?vid=25cbd130-8127-4b1b-aaae-532437cd7155","ios":"levelo://app?vid=25cbd130-8127-4b1b-aaae-532437cd7155"},"vehicle_type_id":"4","last_reported":1761495050,"current_range_meters":19200,"station_id":"ce4bh0h2rcd13ifvqd60","pricing_plan_id":"cebpf4jnsgd1na2vs0mg"},{"bike_id":"9d8ebc8c-f00c-42c5-a2de-7f9b8c36d074","system_id":"levelo_inurba_marseille","lat":43.2664,"lon":5.38353,"is_reserved":false,"is_disabled":false,"rental_uris":{"android":"levelo://app?vid=9d8ebc8c-f00c-42c5-a2de-7f9b8c36d074","ios":"levelo://app?vid=9d8ebc8c-f00c-42c5-a2de-7f9b8c36d074"},"vehicle_type_id":"4","last_reported":1761495050,"current_range_meters":19200,"station_id":"","pricing_plan_id":"cebpf4jnsgd1na2vs0mg"},{"bike_id":"1a17ca6c-2b9b-4e73-b76d-539b00005301","system_id":"levelo_inurba_marseille","lat":43.24389,"lon":5.3707,"is_reserved":false,"is_disabled":false,"rental_uris":{"android":"levelo://app?vid=1a17ca6c-2b9b-4e73-b76d-539b00005301","ios":"levelo://app?vid=1a17ca6c-2b9b-4e73-b76d-539b00005301"},"vehicle_type_id":"4","last_reported":1761495050,"current_range_meters":19200,"station_id":"ce4bhhh2rcd13ifvqfk0","pricing_plan_id":"cebpf4jnsgd1na2vs0mg"},{"bike_id":"74440bb7-72c3-4ad8-9dec-9a57ed6d17c9","system_id":"levelo_inurba_marseille","lat":43.32355,"lon":5.38908,"is_reserved":false,"is_disabled":false,"rental_uris":{"android":"levelo://app?vid=74440bb7-72c3-4ad8-9dec-9a57ed6d17c9","ios":"levelo://app?vid=74440bb7-72c3-4ad8-9dec-9a57ed6d17c9"},"vehicle_type_id":"4","last_reported":1761495050,"current_range_meters":19200,"station_id":"ce4bhqp2rcd13ifvqhog","pricing_plan_id":"cebpf4jnsgd1na2vs0mg"},{"bike_id":"fee46d3c-aba2-4972-b505-cc4156c463cf","system_id":"levelo_inurba_marseille","lat":43.249463,"lon":5.404973,"is_reserved":false,"is_disabled":false,"rental_uris":{"android":"levelo://app?vid=fee46d3c-aba2-4972-b505-cc4156c463cf","ios":"levelo://app?vid=fee46d3c-aba2-4972-b505-cc4156c463cf"},"vehicle_type_id":"4","last_reported":1761495050,"current_range_meters":19200,"station_id":"st_d2ngiaodas8pm72gd1h0","pricing_plan_id":"cebpf4jnsgd1na2vs0mg"},{"bike_id":"4ee323fd-d3da-44d9-8feb-cc30817eaac8","system_id":"levelo_inurba_marseille","lat":43.2721,"lon":5.39185,"is_reserved":false,"is_disabled":false,"rental_uris":{"android":"levelo://app?vid=4ee323fd-d3da-44d9-8feb-cc30817eaac8","ios":"levelo://app?vid=4ee323fd-d3da-44d9-8feb-cc30817eaac8"},"vehicle_type_id":"4","last_reported":1761495050,"current_range_meters":19200,"station_id":"ce4bhhp2rcd13ifvqfm0","pricing_plan_id":"cebpf4jnsgd1na2vs0mg"},{"bike_id":"fdc43030-5704-454e-ad42-cd94061c06a1","system_id":"levelo_inurba_marseille","lat":43.321017,"lon":5.367692,"is_reserved":false,"is_disabled":false,"rental_uris":{"android":"levelo://app?vid=fdc43030-5704-454e-ad42-cd94061c06a1","ios":"levelo://app?vid=fdc43030-5704-454e-ad42-cd94061c06a1"},"vehicle_type_id":"4","last_reported":1761495050,"current_range_meters":19200,"station_id":"ce4bhrh2rcd13ifvqhug","pricing_plan_id":"cebpf4jnsgd1na2vs0mg"},{"bike_id":"4cded9ba-a27a-4028-a6ba-63d934225c30","system_id":"levelo_inurba_marseille","lat":43.241654,"lon":5.363921,"is_reserved":false,"is_disabled":false,"rental_uris":{"android":"levelo://app?vid=4cded9ba-a27a-4028-a6ba-63d934225c30","ios":"levelo://app?vid=4cded9ba-a27a-4028-a6ba-63d934225c30"},"vehicle_type_id":"4","last_reported":1761495050,"current_range_meters":19600,"station_id":"ce4bhgh2rcd13ifvqfb0","pricing_plan_id":"cebpf4jnsgd1na2vs0mg"},{"bike_id":"a507e789-f440-40a8-85cf-09841d81676c","system_id":"levelo_inurba_marseille","lat":43.22523,"lon":5.34848,"is_reserved":false,"is_disabled":false,"rental_uris":{"android":"levelo://app?vid=a507e789-f440-40a8-85cf-09841d81676c","ios":"levelo://app?vid=a507e789-f440-40a8-85cf-09841d81676c"},"vehicle_type_id":"4","last_reported":1761495050,"current_range_meters":19600,"station_id":"","pricing_plan_id":"cebpf4jnsgd1na2vs0mg"},{"bike_id":"3a92b650-23af-469d-bef0-ec6278979c33","system_id":"levelo_inurba_marseille","lat":43.25908,"lon":5.40914,"is_reserved":false,"is_disabled":false,"rental_uris":{"android":"levelo://app?vid=3a92b650-23af-469d-bef0-ec6278979c33","ios":"levelo://app?vid=3a92b650-23af-469d-bef0-ec6278979c33"},"vehicle_type_id":"4","last_reported":1761495050,"current_range_meters":19600,"station_id":"ce4bhm92rcd13ifvqglg","pricing_plan_id":"cebpf4jnsgd1na2vs0mg"},{"bike_id":"a045f864-d0f0-4dc6-b247-3f30f5eb7421","system_id":"levelo_inurba_marseille","lat":43.28536,"lon":5.44097,"is_reserved":false,"is_disabled":false,"rental_uris":{"android":"levelo://app?vid=a045f864-d0f0-4dc6-b247-3f30f5eb7421","ios":"levelo://app?vid=a045f864-d0f0-4dc6-b247-3f30f5eb7421"},"vehicle_type_id":"4","last_reported":1761495050,"current_range_meters":19600,"station_id":"st_d3j3df2ikq2c7380ej80","pricing_plan_id":"cebpf4jnsgd1na2vs0mg"},{"bike_id":"2649c927-8f7c-4b1f-a9cc-7a6b261268e1","system_id":"levelo_inurba_marseille","lat":43.2841,"lon":5.34984,"is_reserved":false,"is_disabled":false,"rental_uris":{"android":"levelo://app?vid=2649c927-8f7c-4b1f-a9cc-7a6b261268e1","ios":"levelo://app?vid=2649c927-8f7c-4b1f-a9cc-7a6b261268e1"},"vehicle_type_id":"4","last_reported":1761495050,"current_range_meters":19600,"station_id":"ce4bhbh2rcd13ifvqepg","pricing_plan_id":"cebpf4jnsgd1na2vs0mg"},{"bike_id":"3cf954f8-897c-4098-b7a1-1e4490c2b26a","system_id":"levelo_inurba_marseille","lat":43.25823,"lon":5.39432,"is_reserved":false,"is_disabled":false,"rental_uris":{"android":"levelo://app?vid=3cf954f8-897c-4098-b7a1-1e4490c2b26a","ios":"levelo://app?vid=3cf954f8-897c-4098-b7a1-1e4490c2b26a"},"vehicle_type_id":"4","last_reported":1761495050,"current_range_meters":19600,"station_id":"ce4bhip2rcd13ifvqft0","pricing_plan_id":"cebpf4jnsgd1na2vs0mg"},{"bike_id":"f1875d0f-b239-4abc-ba84-3f75c251c7fb","system_id":"levelo_inurba_marseille","lat":43.24371,"lon":5.37106,"is_reserved":false,"is_disabled":false,"rental_uris":{"android":"levelo://app?vid=f1875d0f-b239-4abc-ba84-3f75c251c7fb","ios":"levelo://app?vid=f1875d0f-b239-4abc-ba84-3f75c251c7fb"},"vehicle_type_id":"4","last_reported":1761495050,"current_range_meters":19600,"station_id":"ce4bhhh2rcd13ifvqfk0","pricing_plan_id":"cebpf4jnsgd1na2vs0mg"},{"bike_id":"a3742816-3b43-434e-9db0-9ab9379fa4b3","system_id":"levelo_inurba_marseille","lat":43.273764,"lon":5.362493,"is_reserved":false,"is_disabled":true,"rental_uris":{"android":"levelo://app?vid=a3742816-3b43-434e-9db0-9ab9379fa4b3","ios":"levelo://app?vid=a3742816-3b43-434e-9db0-9ab9379fa4b3"},"vehicle_type_id":"4","last_reported":1761495050,"current_range_meters":20000,"station_id":"ce4bhbh2rcd13ifvqeo0","pricing_plan_id":"cebpf4jnsgd1na2vs0mg"},{"bike_id":"3917ba9d-3fb4-4d36-96bb-3917dd283082","system_id":"levelo_inurba_marseille","lat":43.26802,"lon":5.40276,"is_reserved":false,"is_disabled":false,"rental_uris":{"android":"levelo://app?vid=3917ba9d-3fb4-4d36-96bb-3917dd283082","ios":"levelo://app?vid=3917ba9d-3fb4-4d36-96bb-3917dd283082"},"vehicle_type_id":"4","last_reported":1761495050,"current_range_meters":20000,"station_id":"ce501612rcd8frsf0b60","pricing_plan_id":"cebpf4jnsgd1na2vs0mg"},{"bike_id":"71fe0d6a-f99e-45a0-9c75-e294b78524b2","system_id":"levelo_inurba_marseille","lat":43.21187,"lon":5.35059,"is_reserved":false,"is_disabled":false,"rental_uris":{"android":"levelo://app?vid=71fe0d6a-f99e-45a0-9c75-e294b78524b2","ios":"levelo://app?vid=71fe0d6a-f99e-45a0-9c75-e294b78524b2"},"vehicle_type_id":"4","last_reported":1761495050,"current_range_meters":20000,"station_id":"st_cvj6sg6p6f1abm77japg","pricing_plan_id":"cebpf4jnsgd1na2vs0mg"},{"bike_id":"bea91327-af11-4c1d-9313-ee7cef71766f","system_id":"levelo_inurba_marseille","lat":43.28624,"lon":5.35103,"is_reserved":false,"is_disabled":false,"rental_uris":{"android":"levelo://app?vid=bea91327-af11-4c1d-9313-ee7cef71766f","ios":"levelo://app?vid=bea91327-af11-4c1d-9313-ee7cef71766f"},"vehicle_type_id":"4","last_reported":1761495050,"current_range_meters":20000,"station_id":"ce4bhch2rcd13ifvqeug","pricing_plan_id":"cebpf4jnsgd1na2vs0mg"},{"bike_id":"596e07e5-ee28-4f19-90c1-99ddc246077a","system_id":"levelo_inurba_marseille","lat":43.29757,"lon":5.42793,"is_reserved":false,"is_disabled":false,"rental_uris":{"android":"levelo://app?vid=596e07e5-ee28-4f19-90c1-99ddc246077a","ios":"levelo://app?vid=596e07e5-ee28-4f19-90c1-99ddc246077a"},"vehicle_type_id":"4","last_reported":1761495050,"current_range_meters":20000,"station_id":"st_d3md5207bmas73dh9klg","pricing_plan_id":"cebpf4jnsgd1na2vs0mg"},{"bike_id":"5837d1ef-6ff3-4b6b-9d0b-6fb51011d077","system_id":"levelo_inurba_marseille","lat":43.27386,"lon":5.39374,"is_reserved":false,"is_disabled":true,"rental_uris":{"android":"levelo://app?vid=5837d1ef-6ff3-4b6b-9d0b-6fb51011d077","ios":"levelo://app?vid=5837d1ef-6ff3-4b6b-9d0b-6fb51011d077"},"vehicle_type_id":"4","last_reported":1761495050,"current_range_meters":20000,"station_id":"ce4bhdp2rcd13ifvqf20","pricing_plan_id":"cebpf4jnsgd1na2vs0mg"},{"bike_id":"a3100ff0-76ab-498b-bebf-b9c52f3d2538","system_id":"levelo_inurba_marseille","lat":43.28471,"lon":5.48407,"is_reserved":false,"is_disabled":false,"rental_uris":{"android":"levelo://app?vid=a3100ff0-76ab-498b-bebf-b9c52f3d2538","ios":"levelo://app?vid=a3100ff0-76ab-498b-bebf-b9c52f3d2538"},"vehicle_type_id":"4","last_reported":1761495050,"current_range_meters":20000,"station_id":"","pricing_plan_id":"cebpf4jnsgd1na2vs0mg"},{"bike_id":"ae97b4d8-f753-4b76-962f-188024c68994","system_id":"levelo_inurba_marseille","lat":43.29305,"lon":5.3717,"is_reserved":false,"is_disabled":false,"rental_uris":{"android":"levelo://app?vid=ae97b4d8-f753-4b76-962f-188024c68994","ios":"levelo://app?vid=ae97b4d8-f753-4b76-962f-188024c68994"},"vehicle_type_id":"4","last_reported":1761495050,"current_range_meters":20000,"station_id":"ce4bgh92rcd13ifvqb40","pricing_plan_id":"cebpf4jnsgd1na2vs0mg"},{"bike_id":"2508b611-ebc5-48d6-8412-ab3f25b207c7","system_id":"levelo_inurba_marseille","lat":43.241637,"lon":5.364143,"is_reserved":false,"is_disabled":false,"rental_uris":{"android":"levelo://app?vid=2508b611-ebc5-48d6-8412-ab3f25b207c7","ios":"levelo://app?vid=2508b611-ebc5-48d6-8412-ab3f25b207c7"},"vehicle_type_id":"4","last_reported":1761495050,"current_range_meters":20000,"station_id":"cpo36qri1sfpv3e86is0","pricing_plan_id":"cebpf4jnsgd1na2vs0mg"},{"bike_id":"21dbf7f2-eb19-4663-b1c0-879822879492","system_id":"levelo_inurba_marseille","lat":43.337619,"lon":5.374425,"is_reserved":false,"is_disabled":false,"rental_uris":{"android":"levelo://app?vid=21dbf7f2-eb19-4663-b1c0-879822879492","ios":"levelo://app?vid=21dbf7f2-eb19-4663-b1c0-879822879492"},"vehicle_type_id":"4","last_reported":1761495050,"current_range_meters":20000,"station_id":"","pricing_plan_id":"cebpf4jnsgd1na2vs0mg"},{"bike_id":"065263f1-4179-4f93-b87f-a6f21414e344","system_id":"levelo_inurba_marseille","lat":43.26961,"lon":5.40324,"is_reserved":false,"is_disabled":false,"rental_uris":{"android":"levelo://app?vid=065263f1-4179-4f93-b87f-a6f21414e344","ios":"levelo://app?vid=065263f1-4179-4f93-b87f-a6f21414e344"},"vehicle_type_id":"4","last_reported":1761495050,"current_range_meters":20000,"station_id":"","pricing_plan_id":"cebpf4jnsgd1na2vs0mg"},{"bike_id":"8f4db126-6522-4e8e-aa27-fbcfd6a36bb1","system_id":"levelo_inurba_marseille","lat":43.229349,"lon":5.353996,"is_reserved":false,"is_disabled":false,"rental_uris":{"android":"levelo://app?vid=8f4db126-6522-4e8e-aa27-fbcfd6a36bb1","ios":"levelo://app?vid=8f4db126-6522-4e8e-aa27-fbcfd6a36bb1"},"vehicle_type_id":"4","last_reported":1761495050,"current_range_meters":20400,"station_id":"cpo3532slgdg3j2ikp40","pricing_plan_id":"cebpf4jnsgd1na2vs0mg"},{"bike_id":"2dd57f5c-50b3-4479-801a-c331a41d7b11","system_id":"levelo_inurba_marseille","lat":43.3043,"lon":5.39749,"is_reserved":false,"is_disabled":false,"rental_uris":{"android":"levelo://app?vid=2dd57f5c-50b3-4479-801a-c331a41d7b11","ios":"levelo://app?vid=2dd57f5c-50b3-4479-801a-c331a41d7b11"},"vehicle_type_id":"4","last_reported":1761495050,"current_range_meters":20400,"station_id":"ce4bh092rcd13ifvqd20","pricing_plan_id":"cebpf4jnsgd1na2vs0mg"},{"bike_id":"bb3d6f43-fe8d-4027-a7f4-02cf8b0450bf","system_id":"levelo_inurba_marseille","lat":43.28845,"lon":5.35858,"is_reserved":false,"is_disabled":true,"rental_uris":{"android":"levelo://app?vid=bb3d6f43-fe8d-4027-a7f4-02cf8b0450bf","ios":"levelo://app?vid=bb3d6f43-fe8d-4027-a7f4-02cf8b0450bf"},"vehicle_type_id":"4","last_reported":1761495050,"current_range_meters":20400,"station_id":"ce4bhb12rcd13ifvqem0","pricing_plan_id":"cebpf4jnsgd1na2vs0mg"},{"bike_id":"99f954c5-9fe4-44f0-9935-cc2acafeb896","system_id":"levelo_inurba_marseille","lat":43.23784,"lon":5.3663,"is_reserved":false,"is_disabled":false,"rental_uris":{"android":"levelo://app?vid=99f954c5-9fe4-44f0-9935-cc2acafeb896","ios":"levelo://app?vid=99f954c5-9fe4-44f0-9935-cc2acafeb896"},"vehicle_type_id":"4","last_reported":1761495050,"current_range_meters":20400,"station_id":"st_d3nk18o9ro0c73en2l3g","pricing_plan_id":"cebpf4jnsgd1na2vs0mg"},{"bike_id":"0a24791a-9420-4ad3-927a-02257586ec11","system_id":"levelo_inurba_marseille","lat":43.26216,"lon":5.37447,"is_reserved":false,"is_disabled":false,"rental_uris":{"android":"levelo://app?vid=0a24791a-9420-4ad3-927a-02257586ec11","ios":"levelo://app?vid=0a24791a-9420-4ad3-927a-02257586ec11"},"vehicle_type_id":"4","last_reported":1761495050,"current_range_meters":20400,"station_id":"ce4bhgp2rcd13ifvqfc0","pricing_plan_id":"cebpf4jnsgd1na2vs0mg"},{"bike_id":"7dedefa1-25c6-4a38-8958-1ade319ec23b","system_id":"levelo_inurba_marseille","lat":43.32364,"lon":5.388776,"is_reserved":false,"is_disabled":false,"rental_uris":{"android":"levelo://app?vid=7dedefa1-25c6-4a38-8958-1ade319ec23b","ios":"levelo://app?vid=7dedefa1-25c6-4a38-8958-1ade319ec23b"},"vehicle_type_id":"4","last_reported":1761495050,"current_range_meters":20400,"station_id":"ce4bhqp2rcd13ifvqhog","pricing_plan_id":"cebpf4jnsgd1na2vs0mg"},{"bike_id":"b5776598-3fe1-4bb8-9115-dc33c053afbd","system_id":"levelo_inurba_marseille","lat":43.29222,"lon":5.35805,"is_reserved":false,"is_disabled":true,"rental_uris":{"android":"levelo://app?vid=b5776598-3fe1-4bb8-9115-dc33c053afbd","ios":"levelo://app?vid=b5776598-3fe1-4bb8-9115-dc33c053afbd"},"vehicle_type_id":"4","last_reported":1761495050,"current_range_meters":20400,"station_id":"ce4bhb12rcd13ifvqel0","pricing_plan_id":"cebpf4jnsgd1na2vs0mg"},{"bike_id":"f41a6845-02a5-45fd-8f67-03fd68d78092","system_id":"levelo_inurba_marseille","lat":43.2975,"lon":5.4279,"is_reserved":false,"is_disabled":false,"rental_uris":{"android":"levelo://app?vid=f41a6845-02a5-45fd-8f67-03fd68d78092","ios":"levelo://app?vid=f41a6845-02a5-45fd-8f67-03fd68d78092"},"vehicle_type_id":"4","last_reported":1761495050,"current_range_meters":20400,"station_id":"st_d3md5207bmas73dh9klg","pricing_plan_id":"cebpf4jnsgd1na2vs0mg"},{"bike_id":"b689a5bf-875d-4ab1-9212-a71e85899faa","system_id":"levelo_inurba_marseille","lat":43.29756,"lon":5.42779,"is_reserved":false,"is_disabled":false,"rental_uris":{"android":"levelo://app?vid=b689a5bf-875d-4ab1-9212-a71e85899faa","ios":"levelo://app?vid=b689a5bf-875d-4ab1-9212-a71e85899faa"},"vehicle_type_id":"4","last_reported":1761495050,"current_range_meters":20800,"station_id":"st_d3md5207bmas73dh9klg","pricing_plan_id":"cebpf4jnsgd1na2vs0mg"},{"bike_id":"9f3e0a5b-ef83-46b9-9746-98266120a92a","system_id":"levelo_inurba_marseille","lat":43.25575,"lon":5.38247,"is_reserved":false,"is_disabled":false,"rental_uris":{"android":"levelo://app?vid=9f3e0a5b-ef83-46b9-9746-98266120a92a","ios":"levelo://app?vid=9f3e0a5b-ef83-46b9-9746-98266120a92a"},"vehicle_type_id":"4","last_reported":1761495050,"current_range_meters":20800,"station_id":"ce4bhih2rcd13ifvqfs0","pricing_plan_id":"cebpf4jnsgd1na2vs0mg"},{"bike_id":"0036bc46-fb2e-41e1-8d81-8ad8455e025f","system_id":"levelo_inurba_marseille","lat":43.2465,"lon":5.38896,"is_reserved":false,"is_disabled":false,"rental_uris":{"android":"levelo://app?vid=0036bc46-fb2e-41e1-8d81-8ad8455e025f","ios":"levelo://app?vid=0036bc46-fb2e-41e1-8d81-8ad8455e025f"},"vehicle_type_id":"4","last_reported":1761495050,"current_range_meters":20800,"station_id":"ce4bhg12rcd13ifvqf60","pricing_plan_id":"cebpf4jnsgd1na2vs0mg"},{"bike_id":"1be25054-fa8e-42ec-ad32-a2ec72e51866","system_id":"levelo_inurba_marseille","lat":43.30792,"lon":5.38161,"is_reserved":false,"is_disabled":false,"rental_uris":{"android":"levelo://app?vid=1be25054-fa8e-42ec-ad32-a2ec72e51866","ios":"levelo://app?vid=1be25054-fa8e-42ec-ad32-a2ec72e51866"},"vehicle_type_id":"4","last_reported":1761495050,"current_range_meters":20800,"station_id":"ce4bgt12rcd13ifvqce0","pricing_plan_id":"cebpf4jnsgd1na2vs0mg"},{"bike_id":"3bf4bf69-e6ad-4b25-af40-141c302f6dc8","system_id":"levelo_inurba_marseille","lat":43.33357,"lon":5.40135,"is_reserved":false,"is_disabled":false,"rental_uris":{"android":"levelo://app?vid=3bf4bf69-e6ad-4b25-af40-141c302f6dc8","ios":"levelo://app?vid=3bf4bf69-e6ad-4b25-af40-141c302f6dc8"},"vehicle_type_id":"4","last_reported":1761495050,"current_range_meters":20800,"station_id":"","pricing_plan_id":"cebpf4jnsgd1na2vs0mg"},{"bike_id":"0accc438-e2be-4824-8c68-ffbe80af8447","system_id":"levelo_inurba_marseille","lat":43.32337,"lon":5.38934,"is_reserved":false,"is_disabled":false,"rental_uris":{"android":"levelo://app?vid=0accc438-e2be-4824-8c68-ffbe80af8447","ios":"levelo://app?vid=0accc438-e2be-4824-8c68-ffbe80af8447"},"vehicle_type_id":"4","last_reported":1761495050,"current_range_meters":20800,"station_id":"ce4bhqp2rcd13ifvqhog","pricing_plan_id":"cebpf4jnsgd1na2vs0mg"},{"bike_id":"472478f0-7119-480f-834a-2ae0cea5d8f9","system_id":"levelo_inurba_marseille","lat":43.2804,"lon":5.36945,"is_reserved":false,"is_disabled":false,"rental_uris":{"android":"levelo://app?vid=472478f0-7119-480f-834a-2ae0cea5d8f9","ios":"levelo://app?vid=472478f0-7119-480f-834a-2ae0cea5d8f9"},"vehicle_type_id":"4","last_reported":1761495050,"current_range_meters":21600,"station_id":"ce4bha12rcd13ifvqef0","pricing_plan_id":"cebpf4jnsgd1na2vs0mg"},{"bike_id":"cd1f1362-9ebc-4fc4-a6b6-d42af5f1521b","system_id":"levelo_inurba_marseille","lat":43.30743,"lon":5.42438,"is_reserved":false,"is_disabled":false,"rental_uris":{"android":"levelo://app?vid=cd1f1362-9ebc-4fc4-a6b6-d42af5f1521b","ios":"levelo://app?vid=cd1f1362-9ebc-4fc4-a6b6-d42af5f1521b"},"vehicle_type_id":"4","last_reported":1761495050,"current_range_meters":21600,"station_id":"st_cvj6ca6bvosntc0bfgr0","pricing_plan_id":"cebpf4jnsgd1na2vs0mg"},{"bike_id":"cfedccfe-f06e-4255-bba8-417ccf7513b5","system_id":"levelo_inurba_marseille","lat":43.28459,"lon":5.35893,"is_reserved":false,"is_disabled":false,"rental_uris":{"android":"levelo://app?vid=cfedccfe-f06e-4255-bba8-417ccf7513b5","ios":"levelo://app?vid=cfedccfe-f06e-4255-bba8-417ccf7513b5"},"vehicle_type_id":"4","last_reported":1761495050,"current_range_meters":21600,"station_id":"ce4bhah2rcd13ifvqei0","pricing_plan_id":"cebpf4jnsgd1na2vs0mg"},{"bike_id":"8c71c05b-dd29-470b-8b05-4159f459865a","system_id":"levelo_inurba_marseille","lat":43.288461,"lon":5.382176,"is_reserved":false,"is_disabled":false,"rental_uris":{"android":"levelo://app?vid=8c71c05b-dd29-470b-8b05-4159f459865a","ios":"levelo://app?vid=8c71c05b-dd29-470b-8b05-4159f459865a"},"vehicle_type_id":"4","last_reported":1761495050,"current_range_meters":21600,"station_id":"","pricing_plan_id":"cebpf4jnsgd1na2vs0mg"},{"bike_id":"68685cfb-0a0a-4822-b6cc-910397a0de67","system_id":"levelo_inurba_marseille","lat":43.27374,"lon":5.36259,"is_reserved":false,"is_disabled":false,"rental_uris":{"android":"levelo://app?vid=68685cfb-0a0a-4822-b6cc-910397a0de67","ios":"levelo://app?vid=68685cfb-0a0a-4822-b6cc-910397a0de67"},"vehicle_type_id":"4","last_reported":1761495050,"current_range_meters":21600,"station_id":"ce4bhbh2rcd13ifvqeo0","pricing_plan_id":"cebpf4jnsgd1na2vs0mg"},{"bike_id":"eea3c3c3-734f-4fd3-8061-ed84cfe47b38","system_id":"levelo_inurba_marseille","lat":43.3257,"lon":5.39148,"is_reserved":false,"is_disabled":false,"rental_uris":{"android":"levelo://app?vid=eea3c3c3-734f-4fd3-8061-ed84cfe47b38","ios":"levelo://app?vid=eea3c3c3-734f-4fd3-8061-ed84cfe47b38"},"vehicle_type_id":"4","last_reported":1761495050,"current_range_meters":22000,"station_id":"","pricing_plan_id":"cebpf4jnsgd1na2vs0mg"},{"bike_id":"3bb75ae3-3bd7-45ad-abf8-62c30f7e455a","system_id":"levelo_inurba_marseille","lat":43.284149,"lon":5.349871,"is_reserved":false,"is_disabled":false,"rental_uris":{"android":"levelo://app?vid=3bb75ae3-3bd7-45ad-abf8-62c30f7e455a","ios":"levelo://app?vid=3bb75ae3-3bd7-45ad-abf8-62c30f7e455a"},"vehicle_type_id":"4","last_reported":1761495050,"current_range_meters":22000,"station_id":"ce4bhbh2rcd13ifvqepg","pricing_plan_id":"cebpf4jnsgd1na2vs0mg"},{"bike_id":"d575f7c2-ebcd-4b61-a80c-2a6e74e624c2","system_id":"levelo_inurba_marseille","lat":43.290303,"lon":5.386516,"is_reserved":false,"is_disabled":false,"rental_uris":{"android":"levelo://app?vid=d575f7c2-ebcd-4b61-a80c-2a6e74e624c2","ios":"levelo://app?vid=d575f7c2-ebcd-4b61-a80c-2a6e74e624c2"},